,ABS Active,ABS Enabled,AID Allow Tire Blankets,AID Auto Blip,AID Auto Clutch,AID Auto Shift,AID Fuel Rate,AID Ideal Line,AID Mech Damage,AID Stability,AID Tire Wear Rate,Air Density,Air Temp,Ballast,Best Lap Delta,Best Lap Time,Brake Bias,Brake Pos,Brake Temp FL,Brake Temp FR,Brake Temp RL,Brake Temp RR,CG Accel Lateral,CG Accel Longitudinal,CG Accel Vertical,CG Height,Camber FL,Camber FR,Camber RL,Camber RR,Car Coord X,Car Coord Y,Car Coord Z,Car Damage Front,Car Damage Left,Car Damage Rear,Car Damage Right,Car Pos Norm,Caster FL,Caster FR,Chassis Pitch Angle,Chassis Pitch Rate,Chassis Roll Angle,Chassis Roll Rate,Chassis Velocity X,Chassis Velocity Y,Chassis Velocity Z,Chassis Yaw Rate,Clutch Pos,DRS Active,DRS Available,Drive Train Speed,ERS Heat Charging,ERS Is Charging,ERS Max Energy,ERS Power Level,ERS Recovery Level,Engine Brake Setting,Engine Limiter,Engine RPM,Flags,Fuel Level,Gear,Ground Speed,HR Sample Clock,In Pit,KERS Charge,KERS Deployed Energy,KERS Input,KERS Max Energy,LR Sample Clock,Lap Invalidated,Lap Time,Lap Time2,Last Lap Time,Last Sector Time,MR Sample Clock,Max Fuel,Max Power,Max RPM,Max Sus Travel FL,Max Sus Travel FR,Max Sus Travel RL,Max Sus Travel RR,Max Torque,Max Turbo Boost,Num Tires Off Track,Penalties Enabled,Position,Raw Data Sample Rate,Ride Height FL,Ride Height FR,Ride Height RL,Ride Height RR,Road Temp,Self Align Torque FL,Self Align Torque FR,Self Align Torque RL,Self Align Torque RR,Session Lap Count,Session Time Left,Steering Angle,Surface Grip,Suspension Travel FL,Suspension Travel FR,Suspension Travel RL,Suspension Travel RR,TC Active,TC Enabled,Throttle Pos,Tire Dirt Level FL,Tire Dirt Level FR,Tire Dirt Level RL,Tire Dirt Level RR,Tire Load FL,Tire Load FR,Tire Load RL,Tire Load RR,Tire Loaded Radius FL,Tire Loaded Radius FR,Tire Loaded Radius RL,Tire Loaded Radius RR,Tire Pressure FL,Tire Pressure FR,Tire Pressure RL,Tire Pressure RR,Tire Radius FL,Tire Radius FR,Tire Radius RL,Tire Radius RR,Tire Rubber Grip FL,Tire Rubber Grip FR,Tire Rubber Grip RL,Tire Rubber Grip RR,Tire Slip Angle FL,Tire Slip Angle FR,Tire Slip Angle RL,Tire Slip Angle RR,Tire Slip Ratio FL,Tire Slip Ratio FR,Tire Slip Ratio RL,Tire Slip Ratio RR,Tire Temp Core FL,Tire Temp Core FR,Tire Temp Core RL,Tire Temp Core RR,Tire Temp Inner FL,Tire Temp Inner FR,Tire Temp Inner RL,Tire Temp Inner RR,Tire Temp Middle FL,Tire Temp Middle FR,Tire Temp Middle RL,Tire Temp Middle RR,Tire Temp Outer FL,Tire Temp Outer FR,Tire Temp Outer RL,Tire Temp Outer RR,Toe In FL,Toe In FR,Toe In RL,Toe In RR,Turbo Boost,Wheel Angular Speed FL,Wheel Angular Speed FR,Wheel Angular Speed RL,Wheel Angular Speed RR,Wind Direction,Wind Speed
0,0.0,0.0,0.0,1.0,1.0,0.0,0.0,1.0,0.0,100.0,1.0,1.1856,26.0,0.0,0.0,0.0,65.99999,0.0,26.0,26.0,26.0,26.0,-0.058250000000000024,0.3016000000000001,0.08473333333333334,293.747,-2.7179,-2.4825714285714287,-1.5263,-1.536888888888889,-275.63,215.92000000000002,190.98725,0.0,0.0,0.0,0.0,0.0016333333333333755,-5.498166666666667,-5.498166666666667,-0.5443,1.492,-0.0173333333333332,-1.173,65.495,-0.0413,-0.2114,0.6820000000000004,100.0,1.0,1.0,202.21666666666667,0.0,0.0,0.0,0.0,0.0,0.0,0.0,8571.2,0.0,55.0,5.0,235.75,0.0,0.0,0.0,0.0,0.0,0.0,0.0,0.0,0.0030000000000001137,0.0030000000000001137,0.0,0.0,0.0,55.0,616.79921,10000.0,85.0,85.0,85.0,85.0,395.0,0.0,0.0,0.0,1.0,20.0,52.078,52.078,49.164,49.164,34.0,-29.0775,23.872,-30.253333333333334,24.625,0.0,1782.8133333333333,0.6999999999999993,100.0,27.047,26.848,40.521,40.288,0.0,0.0,100.0,0.0,0.0,0.0,0.0,3215.857142857143,3696.4,4115.25,3987.2,305.0395,302.85875,314.8655,314.867,21.76275,20.5103,21.775,21.3095,314.99999,314.99999,324.99998,324.99998,99.55808571428571,99.50703333333334,99.56522857142858,99.54497142857143,-0.013749999999999929,-0.12724999999999997,-0.15800000000000003,0.0641666666666667,-0.06499999999999773,-0.036666666666668846,1.559,1.5699999999999998,37.016999999999996,29.1895,37.094,34.185,56.001000000000005,34.378,59.0625,51.525,53.943,33.585,57.692499999999995,49.89,53.126999999999995,33.1805,57.658,49.3185,-0.020999999999999908,-0.12650000000000006,0.10208,0.10982000000000001,0.0,205.235,205.17000000000002,202.21666666666667,202.21666666666667,0.0,0.0
1,0.0,0.0,0.0,1.0,1.0,0.0,0.0,1.0,0.0,100.0,1.0,1.1856,26.0,0.0,0.0,0.0,65.999997,0.0,26.0,26.0,26.0,26.0,-0.13175000000000003,0.31220000000000003,0.0362,292.999,-2.6463,-2.7157142857142857,-1.54,-1.3760000000000001,-272.28,215.9375,190.96725,0.0,0.0,0.0,0.0,0.003566666666666607,-5.498166666666667,-5.498166666666667,-0.4849,-0.9710000000000001,-0.05733333333333368,-0.07499999999999996,65.651,-0.054,-0.18762500000000001,1.2080000000000002,100.0,1.0,1.0,202.25,0.0,0.0,0.0,0.0,0.0,0.0,0.0,8572.6,0.0,55.0,5.0,236.31333333333333,1.0,0.0,0.0,0.0,0.0,0.0,0.0,0.0,0.053999999999998494,0.053999999999998494,0.0,0.0,1.0,55.0,616.79921,10000.0,85.000001,85.000001,85.000001,85.000001,395.0,0.0,0.0,0.0,1.0,166.665,54.214,54.214,48.096000000000004,48.096000000000004,34.0,-25.252499999999998,16.476,-36.903333333333336,27.5,0.0,1782.7644444444445,0.7349999999999994,100.0,27.441,26.799,42.542,42.052,0.0,0.0,100.0,0.0,0.0,0.0,0.0,2939.857142857143,2481.4,4533.375,4952.200000000001,305.7785,306.86475,313.70375,312.39275,21.772625,20.5153,21.785888888888888,21.3187,314.999998,314.999998,324.999988,324.999988,99.5581,99.50705,99.56537142857142,99.54511428571429,-0.0017499999999999183,-0.13024999999999998,-0.1808333333333334,0.025666666666666726,-0.021666666666668277,-0.06333333333333258,1.3323333333333334,1.3849999999999998,37.079,29.2205,37.162,34.242000000000004,55.986000000000004,34.415,59.1065,51.588499999999996,53.928,33.6185,57.734,49.9505,53.111999999999995,33.213,57.697,49.378,-0.022499999999999964,-0.1259999999999999,0.10600000000000001,0.10277000000000001,0.0,205.675,205.615,202.25,202.25,0.0,0.0
2,0.0,0.0,0.0,1.0,1.0,0.0,0.0,1.0,0.0,100.0,1.0,1.1856,26.0,0.0,0.0,0.0,65.999997,0.0,26.0,26.0,26.0,26.0,-0.129,0.2772000000000001,-0.10966666666666668,294.083,-2.6082,-2.778,-1.50435,-1.6327777777777779,-268.93,215.9525,190.9485,0.0,0.0,0.0,0.0,0.00553333333333339,-5.498166666666667,-5.498166666666667,-0.5589000000000001,0.31199999999999994,-0.0427777777777778,1.471,65.78999999999999,-0.0679,-0.25772500000000004,1.4960000000000004,100.0,1.0,1.0,203.40333333333334,0.0,0.0,0.0,0.0,0.0,0.0,0.0,8621.5,0.0,55.0,5.0,236.81666666666666,0.0,0.0,0.0,0.0,0.0,0.0,0.0,0.0,0.10500000000000043,0.10500000000000043,0.0,0.0,0.0,55.0,616.79921,10000.0,85.000001,85.000001,85.000001,85.000001,395.0,0.0,0.0,0.0,1.0,333.33500000000004,52.582,52.582,50.674,50.674,34.0,-30.9375,19.525999999999996,-27.89,18.98,0.0,1782.7122222222222,0.8399999999999999,100.0,28.026,26.809,42.214,41.275999999999996,0.0,0.0,100.0,0.0,0.0,0.0,0.0,3400.4285714285716,2943.7,3655.875,3470.2,304.472,305.3895,315.91025,316.35175,21.782625,20.5203,21.796333333333333,21.3272,314.999998,314.999998,324.999988,324.999988,99.5581,99.50706666666666,99.56551428571429,99.54524285714285,-0.034499999999999975,-0.15849999999999997,-0.21533333333333338,0.014666666666666606,-0.06499999999999773,-0.045000000000001705,1.7073333333333334,1.7675,37.141999999999996,29.252,37.227000000000004,34.295,55.974000000000004,34.455,59.143,51.641999999999996,53.917,33.6555,57.768,50.001999999999995,53.099000000000004,33.2485,57.7285,49.429,-0.010000000000000009,-0.14349999999999996,0.100055,0.106785,0.0,206.16500000000002,206.015,203.40333333333334,203.40333333333334,0.0,0.0
3,0.0,0.0,0.0,1.0,1.0,0.0,0.0,1.0,0.0,100.0,1.0,1.1856,26.0,0.0,0.0,0.0,65.999997,0.0,26.0,26.0,26.0,26.0,-0.136625,0.30110000000000015,-0.0279,293.411,-2.6351,-2.6954285714285717,-1.4948000000000001,-1.5866666666666667,-265.77,215.9625,190.929625,0.0,0.0,0.0,0.0,0.0073666666666665215,-5.498166666666667,-5.498166666666667,-0.5037,0.628,-0.022222222222222143,-1.496,65.936,-0.0834,-0.1913,1.3200000000000003,100.0,1.0,1.0,203.39333333333332,0.0,0.0,0.0,0.0,0.0,0.0,0.0,8621.0,0.0,55.0,5.0,237.34,1.0,0.0,0.0,0.0,0.0,0.0,0.0,0.0,0.1529999999999987,0.1529999999999987,0.0,0.0,1.0,55.0,616.79921,10000.0,85.000001,85.000001,85.000001,85.000001,395.0,0.0,0.0,0.0,1.0,333.33500000000004,53.574,53.574,48.004,48.004,34.0,-27.005,16.882,-36.2,23.805,0.0,1782.6633333333334,0.9600000000000009,100.0,27.708,27.01,42.289,41.442,0.0,0.0,100.0,0.0,0.0,0.0,0.0,2992.0,2776.1,4457.25,4179.7,305.821,305.77725,314.00225,314.44425,21.791875,20.525199999999998,21.80611111111111,21.3356,314.999998,314.999998,324.999988,324.999988,99.5581,99.50708333333333,99.56565714285715,99.54537142857143,-0.0422499999999999,-0.17925000000000002,-0.20783333333333331,0.0044999999999999485,-0.061666666666667425,-0.054999999999999716,1.4586666666666668,1.4994999999999998,37.199,29.2825,37.288,34.347,55.958,34.498999999999995,59.1835,51.706,53.902,33.696,57.8055,50.0635,53.084,33.287,57.7635,49.489,-0.006999999999999895,-0.1495000000000002,0.10477500000000001,0.09958,0.0,206.60500000000002,206.51999999999998,203.39333333333332,203.39333333333332,0.0,0.0
4,0.0,0.0,0.0,1.0,1.0,0.0,0.0,1.0,0.0,100.0,1.0,1.1856,26.0,0.0,0.0,0.0,65.999997,0.0,26.0,26.0,26.0,26.0,-0.16025,0.3014000000000001,-0.039433333333333334,293.671,-2.6611000000000002,-2.7901428571428575,-1.43625,-1.5993333333333333,-262.4,215.97,190.910125,0.0,0.0,0.0,0.0,0.009299999999999975,-5.498166666666667,-5.498166666666667,-0.5343,-0.9155,-0.0778888888888889,-0.22299999999999986,66.082,-0.09580000000000001,-0.2323,1.5899999999999999,100.0,1.0,1.0,203.96666666666667,0.0,0.0,0.0,0.0,0.0,0.0,0.0,8645.5,0.0,55.0,5.0,237.86666666666667,0.0,0.0,0.0,0.0,0.0,0.0,0.0,0.0,0.20400000000000063,0.20400000000000063,0.0,0.0,0.0,55.0,616.79921,10000.0,85.000001,85.000001,85.000001,85.000001,395.0,0.0,0.0,0.0,1.0,166.665,53.391,53.391,48.676,48.676,34.0,-29.7975,18.952,-32.64333333333333,21.185000000000002,0.0,1782.6155555555556,0.9649999999999999,100.0,27.585,26.442,42.957,41.485,0.0,0.0,100.0,0.0,0.0,0.0,0.0,3191.5714285714284,2936.0,4139.5,3771.9,305.096,305.5405,314.708,315.44125,21.801625,20.5302,21.816777777777776,21.3445,314.999998,314.999998,324.999988,324.999988,99.5581,99.5071,99.5658,99.54551428571429,-0.04800000000000004,-0.17074999999999996,-0.21933333333333338,0.010333333333333306,-0.03166666666666629,-0.03999999999999915,1.5313333333333334,1.5924999999999998,37.26,29.313499999999998,37.355000000000004,34.403,55.945,34.538,59.2235,51.7625,53.888999999999996,33.732,57.843,50.1175,53.07,33.3215,57.798,49.5415,-0.0009999999999998899,-0.15100000000000025,0.10929000000000001,0.112875,0.0,206.995,206.9,203.96666666666667,203.96666666666667,0.0,0.0
5,0.0,0.0,0.0,1.0,1.0,0.0,0.0,1.0,0.0,100.0,1.0,1.1856,26.0,0.0,0.0,0.0,65.999997,0.0,26.0,26.0,26.0,26.0,-0.163875,0.29810000000000003,-0.0212,293.808,-2.6763,-2.7574285714285716,-1.5085000000000002,-1.6264444444444444,-259.03,215.9725,190.89,0.0,0.0,0.0,0.0,0.011266666666666536,-5.498166666666667,-5.498166666666667,-0.5373,0.37949999999999995,-0.08300000000000018,-0.5249999999999999,66.22800000000001,-0.1107,-0.21575,1.5620000000000012,100.0,1.0,1.0,204.46,0.0,0.0,0.0,0.0,0.0,0.0,0.0,8666.3,0.0,55.0,5.0,238.39,1.0,0.0,0.0,0.0,0.0,0.0,0.0,0.0,0.254999999999999,0.254999999999999,0.0,0.0,1.0,55.0,616.79921,10000.0,85.000001,85.000001,85.000001,85.000001,395.0,0.0,0.0,0.0,1.0,333.33500000000004,53.528,53.528,49.21,49.21,34.0,-30.7775,17.402,-34.443333333333335,20.9125,0.0,1782.5622222222223,0.5599999999999987,100.0,27.622,26.548000000000002,42.559,41.099000000000004,0.0,0.0,100.0,0.0,0.0,0.0,0.0,3241.857142857143,2769.9,4121.125,3942.1000000000004,305.071,305.89675,314.866,315.04925,21.811625,20.5352,21.827222222222222,21.3531,314.999998,314.999998,324.999988,324.999988,99.55811428571428,99.50713333333333,99.56594285714286,99.54565714285714,-0.059499999999999886,-0.17574999999999996,-0.24683333333333335,-0.023666666666666614,-0.061666666666667425,-0.01833333333333087,1.5596666666666668,1.612,37.322,29.345,37.42,34.457,55.933,34.58,59.263,51.8195,53.878,33.7705,57.879999999999995,50.172,53.058,33.358000000000004,57.832499999999996,49.595,-0.02400000000000002,-0.12199999999999989,0.10652,0.10134000000000001,0.0,207.525,207.375,204.46,204.46,0.0,0.0
6,0.0,0.0,0.0,1.0,1.0,0.0,0.0,1.0,0.0,100.0,1.0,1.1856,26.0,0.0,0.0,0.0,65.999997,0.0,26.0,26.0,26.0,26.0,-0.16799999999999993,0.3034000000000001,0.020900000000000002,293.488,-2.623,-2.811,-1.5343499999999999,-1.5915555555555556,-255.84,215.9725,190.8705,0.0,0.0,0.0,0.0,0.01313333333333333,-5.498166666666667,-5.498166666666667,-0.526,0.07999999999999996,-0.0855555555555556,-0.875,66.367,-0.11470000000000001,-0.204625,1.3580000000000005,100.0,1.0,1.0,204.7866666666667,0.0,0.0,0.0,0.0,0.0,0.0,0.0,8680.2,0.0,55.0,5.0,238.89333333333332,0.0,0.0,0.0,0.0,0.0,0.0,0.0,0.0,0.3030000000000008,0.3030000000000008,0.0,0.0,0.0,55.0,616.79921,10000.0,85.000001,85.000001,85.000001,85.000001,395.0,0.0,0.0,0.0,1.0,333.33500000000004,53.421,53.421,48.538,48.538,34.0,-29.9825,17.898,-36.78666666666666,21.065,0.0,1782.5144444444445,0.5100000000000016,100.0,27.637,26.586,42.817,41.366,0.0,0.0,100.0,0.0,0.0,0.0,0.0,3240.285714285714,2772.7,4287.125,4003.5,305.048,305.813,314.44775,314.875,21.820875,20.54,21.837222222222223,21.3615,314.999998,314.999998,324.999988,324.999988,99.55812857142857,99.50713333333333,99.56607142857143,99.54578571428571,-0.05125000000000002,-0.17674999999999996,-0.24649999999999994,-0.022333333333333316,-0.07000000000000028,-0.02833333333332888,1.508,1.5739999999999998,37.379999999999995,29.375,37.482,34.509,55.921,34.620000000000005,59.3025,51.876999999999995,53.866,33.807,57.917,50.227000000000004,53.045,33.393,57.8665,49.6485,-0.02949999999999986,-0.11750000000000016,0.10788,0.111765,0.0,207.95,207.805,204.7866666666667,204.7866666666667,0.0,0.0
7,0.0,0.0,0.0,1.0,1.0,0.0,0.0,1.0,0.0,100.0,1.0,1.1856,26.0,0.0,0.0,0.0,65.999997,0.0,26.0,26.0,26.0,26.0,-0.12849999999999995,0.2935000000000001,0.024566666666666667,293.365,-2.5827999999999998,-2.8125714285714283,-1.4892,-1.6413333333333333,-252.46,215.9675,190.85,0.0,0.0,0.0,0.0,0.015100000000000002,-5.498166666666667,-5.498166666666667,-0.5348,0.015000000000000013,-0.07522222222222208,1.121,66.512,-0.1086,-0.22312500000000002,1.0139999999999993,100.0,1.0,1.0,205.25666666666666,0.0,0.0,0.0,0.0,0.0,0.0,0.0,8700.1,0.0,55.0,5.0,239.41666666666669,1.0,0.0,0.0,0.0,0.0,0.0,0.0,0.0,0.3539999999999992,0.3539999999999992,0.0,0.0,1.0,55.0,616.79921,10000.0,85.000001,85.000001,85.000001,85.000001,395.0,0.0,0.0,0.0,1.0,333.33500000000004,52.994,52.994,48.903999999999996,48.903999999999996,34.0,-28.185000000000002,20.548000000000002,-32.97,22.7325,0.0,1782.4622222222222,0.20500000000000185,100.0,28.069,26.553,42.982,41.428,0.0,0.0,100.0,0.0,0.0,0.0,0.0,3210.285714285714,2950.2,4064.625,3992.8,304.9325,305.4075,314.86675,314.928,21.830875,20.545099999999998,21.84777777777778,21.3704,314.999998,314.999998,324.999988,324.999988,99.55814285714285,99.50715,99.56622857142857,99.54591428571429,-0.018000000000000016,-0.14149999999999996,-0.22566666666666657,-0.0011666666666666492,-0.04333333333332945,-0.061666666666667425,1.5353333333333334,1.572,37.443,29.4065,37.549,34.565,55.908,34.661,59.344,51.9375,53.854,33.845,57.9555,50.285,53.033,33.4295,57.9025,49.705,-0.052999999999999936,-0.0950000000000002,0.108395,0.1101,0.0,208.36,208.285,205.25666666666666,205.25666666666666,0.0,0.0
8,0.0,0.0,0.0,1.0,1.0,0.0,0.0,1.0,0.0,100.0,1.0,1.1856,26.0,0.0,0.0,0.0,65.999997,0.0,26.0,26.0,26.0,26.0,-0.09662499999999996,0.28900000000000015,-0.020033333333333334,293.51800000000003,-2.6734999999999998,-2.7405714285714287,-1.4751,-1.6287777777777779,-249.06,215.96,190.829375,0.0,0.0,0.0,0.0,0.017066666666666563,-5.498166666666667,-5.498166666666667,-0.536,-0.42599999999999993,-0.06033333333333335,-0.69,66.658,-0.0965,-0.217,0.6660000000000004,100.0,1.0,1.0,205.65,0.0,0.0,0.0,0.0,0.0,0.0,0.0,8716.7,0.0,55.0,5.0,239.94,0.0,0.0,0.0,0.0,0.0,0.0,0.0,0.0,0.40500000000000114,0.40500000000000114,0.0,0.0,0.0,55.0,616.79921,10000.0,85.000001,85.000001,85.000001,85.000001,395.0,0.0,0.0,0.0,1.0,333.33500000000004,53.604,53.604,48.309,48.309,34.0,-27.0075,19.476,-32.989999999999995,24.18,0.0,1782.411111111111,0.05999999999999872,100.0,27.475,26.697,42.955,41.659,0.0,0.0,100.0,0.0,0.0,0.0,0.0,3098.714285714286,2868.0,4150.875,4032.6000000000004,305.519,305.58075,314.707,314.737,21.8405,20.5502,21.858333333333334,21.3793,314.999998,314.999998,324.999988,324.999988,99.55814285714285,99.50718333333333,99.56637142857143,99.54607142857142,-0.005749999999999922,-0.13874999999999993,-0.21283333333333332,0.020333333333333314,-0.03833333333332689,-0.051666666666669414,1.5213333333333332,1.5375,37.503,29.438499999999998,37.614000000000004,34.620000000000005,55.891999999999996,34.702,59.387,51.9975,53.839,33.8825,57.994,50.3425,53.016999999999996,33.465,57.9375,49.765,-0.0714999999999999,-0.0794999999999999,0.10415500000000001,0.11459500000000002,0.0,208.785,208.745,205.65,205.65,0.0,0.0
9,0.0,0.0,0.0,1.0,1.0,0.0,0.0,1.0,0.0,100.0,1.0,1.1856,26.0,0.0,0.0,0.0,65.999997,0.0,26.0,26.0,26.0,26.0,-0.08950000000000002,0.29000000000000004,-0.0102,293.289,-2.5943,-2.762,-1.5239,-1.5824444444444443,-245.86,215.95,190.809625,0.0,0.0,0.0,0.0,0.018933333333333358,-5.498166666666667,-5.498166666666667,-0.5378000000000001,0.5309999999999999,-0.06866666666666665,-0.54,66.793,-0.0819,-0.21380000000000002,0.5120000000000005,100.0,1.0,1.0,206.14333333333332,0.0,0.0,0.0,0.0,0.0,0.0,0.0,8737.7,0.0,55.0,5.0,240.42333333333335,1.0,0.0,0.0,0.0,0.0,0.0,0.0,0.0,0.4529999999999994,0.4529999999999994,0.0,0.0,1.0,55.0,616.79921,10000.0,85.000001,85.000001,85.000001,85.000001,395.0,0.0,0.0,0.0,1.0,333.33500000000004,52.75,52.75,49.103,49.103,34.0,-28.2925,20.887999999999998,-32.379999999999995,22.990000000000002,0.0,1782.3644444444444,-0.16499999999999915,100.0,27.902,26.936,42.657,41.578,0.0,0.0,100.0,0.0,0.0,0.0,0.0,3365.857142857143,2899.4,4084.875,4007.6000000000004,304.6405,305.435,314.94075,314.89425,21.849875,20.5551,21.868111111111112,21.3876,314.999998,314.999998,324.999988,324.999988,99.55814285714285,99.50718333333333,99.5665,99.5462,0.01200000000000001,-0.11549999999999994,-0.2051666666666666,0.017333333333333423,-0.046666666666666856,-0.05833333333333002,1.55,1.5709999999999997,37.561,29.4695,37.676,34.673,55.879999999999995,34.741,59.420500000000004,52.053,53.827,33.918,58.027,50.396,53.004000000000005,33.499,57.9685,49.8135,-0.09050000000000002,-0.06199999999999983,0.10733500000000001,0.10434,0.0,209.23000000000002,209.175,206.14333333333332,206.14333333333332,0.0,0.0
10,0.0,0.0,0.0,1.0,1.0,0.0,0.0,1.0,0.0,100.0,1.0,1.1856,26.0,0.0,0.0,0.0,65.999997,0.0,26.0,26.0,26.0,26.0,-0.060124999999999984,0.28970000000000007,0.026933333333333333,293.213,-2.6587,-2.753,-1.49645,-1.5625555555555557,-242.45,215.9375,190.788875,0.0,0.0,0.0,0.0,0.02093333333333336,-5.498166666666667,-5.498166666666667,-0.5223,-0.514,-0.03155555555555578,1.8280000000000003,66.939,-0.0584,-0.20805,-0.006000000000000227,100.0,1.0,1.0,206.42666666666668,0.0,0.0,0.0,0.0,0.0,0.0,0.0,8749.7,0.0,55.0,5.0,240.95,0.0,0.0,0.0,0.0,0.0,0.0,1.0,0.0,0.5040000000000013,0.5040000000000013,0.0,0.0,0.0,55.0,616.79921,10000.0,85.000001,85.000001,85.000001,85.000001,395.0,0.0,0.0,0.0,1.0,166.665,53.574,53.574,48.019,48.019,34.0,-23.845,21.544,-32.013333333333335,27.17,0.0,1782.3144444444445,-0.19500000000000028,100.0,27.871,26.723,43.091,42.014,0.0,0.0,100.0,0.0,0.0,0.0,0.0,2940.285714285714,2905.3,4216.625,4261.2,305.823,305.6555,314.47675,314.30875,21.8595,20.560299999999998,21.878777777777778,21.3967,314.999998,314.999998,324.999988,324.999988,99.55814285714285,99.5072,99.56664285714285,99.54634285714286,0.03699999999999992,-0.09150000000000003,-0.17099999999999993,0.06233333333333335,-0.04833333333333201,-0.045000000000001705,1.4956666666666667,1.5005000000000002,37.622,29.5015,37.742000000000004,34.729,55.864999999999995,34.778999999999996,59.4625,52.116,53.813,33.9535,58.0665,50.456,52.989000000000004,33.533,58.0045,49.8725,-0.10149999999999992,-0.0495000000000001,0.11302500000000001,0.10983000000000001,0.0,209.64499999999998,209.62,206.42666666666668,206.42666666666668,0.0,0.0
11,0.0,0.0,0.0,1.0,1.0,0.0,0.0,1.0,0.0,100.0,1.0,1.1856,26.0,0.0,0.0,0.0,65.999997,0.0,26.0,26.0,26.0,26.0,-0.023249999999999993,0.27249999999999996,-0.08596666666666666,293.671,-2.6795999999999998,-2.7237142857142858,-1.55625,-1.5276666666666667,-239.03,215.925,190.768125,0.0,0.0,0.0,0.0,0.022599999999999953,-5.498166666666667,-5.498166666666667,-0.5577,-0.14600000000000013,-0.005111111111111288,-0.562,67.078,-0.0349,-0.231775,0.04400000000000048,100.0,1.0,1.0,207.12,0.0,0.0,0.0,0.0,0.0,0.0,0.0,8779.0,0.0,55.0,5.0,241.45333333333332,1.0,0.0,0.0,0.0,0.0,0.0,1.0,0.0,0.5549999999999997,0.5549999999999997,0.0,0.0,1.0,55.0,616.79921,10000.0,85.000001,85.000001,85.000001,85.000001,395.0,0.0,0.0,0.0,1.0,333.33500000000004,53.116,53.116,49.286,49.286,34.0,-26.2225,22.118,-26.923333333333332,24.425,0.0,1782.2633333333333,-0.41499999999999915,100.0,27.443,27.094,42.536,42.068,0.0,0.0,100.0,0.0,0.0,0.0,0.0,3166.285714285714,2991.9,3800.625,3868.2,305.326,305.15825,315.63875,315.25675,21.869125,20.5655,21.889111111111113,21.4056,314.999998,314.999998,324.999988,324.999988,99.55814285714285,99.50721666666666,99.5668,99.54647142857142,0.030749999999999833,-0.09599999999999997,-0.14216666666666666,0.08516666666666683,-0.04333333333332945,-0.036666666666668846,1.6206666666666667,1.6105,37.682,29.5345,37.807,34.785,55.849999999999994,34.819,59.4975,52.175,53.799,33.9905,58.0995,50.5125,52.974000000000004,33.568,58.035,49.928,-0.08199999999999985,-0.06199999999999983,0.09743,0.11574500000000001,0.0,210.075,210.04500000000002,207.12,207.12,0.0,0.0
12,0.0,0.0,0.0,1.0,1.0,0.0,0.0,1.0,0.0,100.0,1.0,1.1856,26.0,0.0,0.0,0.0,65.999997,0.0,26.0,26.0,26.0,26.0,-0.04525000000000001,0.2923,0.021866666666666666,293.106,-2.6966,-2.7152857142857143,-1.52595,-1.5573333333333332,-235.6,215.91,190.746125,0.0,0.0,0.0,0.0,0.025466666666666526,-5.498166666666667,-5.498166666666667,-0.5432,0.281,-0.011777777777777665,0.6379999999999999,67.223,-0.02,-0.205075,-0.06799999999999962,100.0,1.0,1.0,207.36333333333334,0.0,0.0,0.0,0.0,0.0,0.0,0.0,8789.3,0.0,55.0,5.0,241.97333333333336,0.0,0.0,0.0,0.0,0.0,0.0,1.0,0.0,0.6059999999999981,0.6059999999999981,0.0,0.0,0.0,55.0,616.79921,10000.0,85.000001,85.000001,85.000001,85.000001,395.0,0.0,0.0,0.0,1.0,166.665,52.979,52.979,48.111,48.111,34.0,-25.6925,23.04,-29.549999999999997,28.645,0.0,1782.2122222222222,0.4200000000000017,100.0,27.563,27.14,42.547,42.001,0.0,0.0,100.0,0.0,0.0,0.0,0.0,3071.5714285714284,3130.5,4180.125,4212.5,305.408,304.91975,314.64175,314.4735,21.878625,20.5709,21.899444444444445,21.4146,314.999998,314.999998,324.999988,324.999988,99.55815714285714,99.50721666666666,99.56694285714286,99.54662857142857,0.03175000000000017,-0.09550000000000003,-0.1266666666666666,0.10033333333333339,-0.026666666666670835,-0.061666666666667425,1.5266666666666666,1.5139999999999998,37.741,29.5685,37.872,34.841,55.836,34.858999999999995,59.536,52.2355,53.785,34.0265,58.1355,50.571,52.96,33.6025,58.068,49.985,-0.05049999999999999,-0.09799999999999986,0.111365,0.10534,0.0,210.525,210.535,207.36333333333334,207.36333333333334,0.0,0.0
13,0.0,0.0,0.0,1.0,1.0,0.0,0.0,1.0,0.0,100.0,1.0,1.1856,26.0,0.0,0.0,0.0,65.999997,0.0,26.0,26.0,26.0,26.0,0.008499999999999952,0.2803,0.03553333333333333,292.74,-2.6686,-2.712,-1.55565,-1.5655555555555556,-232.17000000000002,215.89499999999998,190.7245,0.0,0.0,0.0,0.0,0.026899999999999924,-5.498166666666667,-5.498166666666667,-0.5388000000000001,-0.16900000000000004,-0.015666666666666718,-0.2909999999999999,67.366,-0.0155,-0.214725,-0.12799999999999923,100.0,1.0,1.0,207.75,0.0,0.0,0.0,0.0,0.0,0.0,0.0,8805.8,0.0,55.0,5.0,242.48666666666668,1.0,0.0,0.0,0.0,0.0,0.0,1.0,0.0,0.657,0.657,0.0,0.0,1.0,55.0,616.79921,10000.0,85.000001,85.000001,85.000001,85.000001,395.0,0.0,0.0,0.0,1.0,166.665,52.689,52.689,48.08,48.08,34.0,-24.3675,24.204,-30.486666666666665,28.950000000000003,0.0,1782.161111111111,-0.41999999999999815,100.0,27.772,27.503,42.738,42.607,0.0,0.0,100.0,0.0,0.0,0.0,0.0,3204.285714285714,3002.8,4227.0,4224.4,305.1715,305.14025,314.5735,314.3285,21.88825,20.5763,21.91,21.4237,314.999998,314.999998,324.999988,324.999988,99.55817142857143,99.50723333333333,99.56707142857142,99.54677142857143,0.08050000000000024,-0.04425000000000001,-0.12683333333333335,0.09650000000000003,-0.041666666666671404,-0.046666666666666856,1.49,1.4825,37.802,29.602,37.937,34.897999999999996,55.824,34.897,59.576,52.298,53.774,34.062,58.1725,50.631,52.947,33.6365,58.1015,50.044,-0.11650000000000005,-0.033500000000000085,0.107215,0.106645,0.0,210.95,210.95499999999998,207.75,207.75,0.0,0.0
14,0.0,0.0,0.0,1.0,1.0,0.0,0.0,1.0,0.0,100.0,1.0,1.1856,26.0,0.0,0.0,0.0,65.999997,0.0,26.0,26.0,26.0,26.0,0.018000000000000016,0.28400000000000003,-0.005166666666666667,292.908,-2.6998,-2.65,-1.56735,-1.5416666666666667,-228.93,215.88,190.704375,0.0,0.0,0.0,0.0,0.028766666666666607,-5.498166666666667,-5.498166666666667,-0.5499,-0.15300000000000002,0.01444444444444426,-0.21099999999999985,67.497,-0.002,-0.22762500000000002,-0.29000000000000004,100.0,1.0,1.0,208.23666666666668,0.0,0.0,0.0,0.0,0.0,0.0,0.0,8826.4,0.0,55.0,5.0,242.96333333333334,0.0,0.0,0.0,0.0,0.0,0.0,1.0,0.0,0.7049999999999983,0.7049999999999983,0.0,0.0,0.0,55.0,616.79921,10000.0,85.000001,85.000001,85.000001,85.000001,395.0,0.0,0.0,0.0,1.0,333.33500000000004,52.673,52.673,48.248,48.248,34.0,-23.689999999999998,24.381999999999998,-28.17,28.192500000000003,0.0,1782.1133333333332,-0.33500000000000085,100.0,27.68,27.667,42.67,42.763,0.0,0.0,100.0,0.0,0.0,0.0,0.0,3109.142857142857,3102.6,4025.375,4115.3,305.484,304.842,315.06725,314.609,21.89725,20.5814,21.919777777777778,21.4322,314.999998,314.999998,324.999988,324.999988,99.55817142857143,99.50723333333333,99.56721428571429,99.5469,0.08250000000000002,-0.04849999999999999,-0.1173333333333334,0.11133333333333328,-0.041666666666671404,-0.045000000000001705,1.549,1.549,37.858000000000004,29.634,37.998999999999995,34.951,55.812,34.933,59.611,52.356,53.762,34.0955,58.205,50.6865,52.935,33.6685,58.1315,50.0985,-0.10899999999999999,-0.044500000000000206,0.106285,0.10743000000000001,0.0,211.345,211.365,208.23666666666668,208.23666666666668,0.0,0.0
15,0.0,0.0,0.0,1.0,1.0,0.0,0.0,1.0,0.0,100.0,1.0,1.1856,26.0,0.0,0.0,0.0,65.999997,0.0,26.0,26.0,26.0,26.0,0.027374999999999927,0.28469999999999995,-0.02966666666666667,292.847,-2.7052,-2.615142857142857,-1.58475,-1.4922222222222221,-225.69,215.865,190.684,0.0,0.0,0.0,0.0,0.03066666666666651,-5.498166666666667,-5.498166666666667,-0.5411,0.25849999999999995,0.03466666666666662,-0.6119999999999999,67.629,0.009600000000000001,-0.21085,-0.2699999999999996,100.0,1.0,1.0,208.61333333333334,0.0,0.0,0.0,0.0,0.0,0.0,0.0,8842.4,0.0,55.0,5.0,243.43666666666667,1.0,0.0,0.0,0.0,0.0,0.0,1.0,0.0,0.7530000000000001,0.7530000000000001,0.0,0.0,1.0,55.0,616.79921,10000.0,85.000001,85.000001,85.000001,85.000001,395.0,0.0,0.0,0.0,1.0,166.665,52.811,52.811,48.203,48.203,34.0,-22.8825,23.912,-27.97,29.415,0.0,1782.0655555555556,-0.2699999999999996,100.0,27.766,27.755,42.528999999999996,42.891,0.0,0.0,100.0,0.0,0.0,0.0,0.0,3003.285714285714,3065.2,4053.5,4282.3,305.7965,304.94025,315.02925,314.21975,21.90625,20.5866,21.929555555555556,21.4408,314.999998,314.999998,324.999988,324.999988,99.55818571428571,99.50723333333333,99.56734285714286,99.54702857142857,0.0807500000000001,-0.04499999999999993,-0.10266666666666657,0.11949999999999994,-0.04833333333333201,-0.04833333333333201,1.525,1.5225,37.914,29.666,38.06,35.004999999999995,55.8,34.969,59.6445,52.414,53.751000000000005,34.129,58.236,50.7425,52.923,33.7005,58.16,50.1535,-0.10099999999999998,-0.04800000000000004,0.09920000000000001,0.10900000000000001,0.0,211.775,211.81,208.61333333333334,208.61333333333334,0.0,0.0
16,0.0,0.0,0.0,1.0,1.0,0.0,0.0,1.0,0.0,100.0,1.0,1.1856,26.0,0.0,0.0,0.0,65.999997,0.0,26.0,26.0,26.0,26.0,0.00924999999999998,0.26900000000000013,-0.011933333333333334,292.831,-2.7583,-2.632,-1.5568,-1.554,-222.24,215.85,190.661875,0.0,0.0,0.0,0.0,0.03266666666666651,-5.498166666666667,-5.498166666666667,-0.5583,-0.617,0.02200000000000002,0.14500000000000002,67.77,0.0164,-0.224275,-0.266,100.0,1.0,1.0,209.04333333333335,0.0,0.0,0.0,0.0,0.0,0.0,0.0,8860.7,0.0,55.0,5.0,243.94333333333333,0.0,0.0,0.0,0.0,0.0,0.0,1.0,0.0,0.8039999999999985,0.8039999999999985,0.0,0.0,0.0,55.0,616.79921,10000.0,85.000001,85.000001,85.000001,85.000001,395.0,0.0,0.0,0.0,1.0,166.665,52.719,52.719,47.897,47.897,34.0,-23.58,25.549999999999997,-26.656666666666666,29.427500000000002,0.0,1782.0144444444445,-0.16999999999999815,100.0,27.578,27.63,42.941,42.924,0.0,0.0,100.0,0.0,0.0,0.0,0.0,3045.5714285714284,3215.4,3998.875,4118.7,305.6045,304.68875,315.0825,314.6095,21.915625,20.592,21.94,21.4498,314.999998,314.999998,324.999988,324.999988,99.5582,99.50725,99.5675,99.54718571428572,0.08674999999999988,-0.03649999999999998,-0.09183333333333332,0.12916666666666687,-0.054999999999999716,-0.04999999999999716,1.5373333333333332,1.5215,37.972,29.700499999999998,38.125,35.061,55.785,35.007999999999996,59.6835,52.475,53.736999999999995,34.164500000000004,58.2725,50.8015,52.908,33.7345,58.193,50.211,-0.08799999999999986,-0.0625,0.11084500000000001,0.10107000000000001,0.0,212.195,212.2,209.04333333333335,209.04333333333335,0.0,0.0
17,0.0,0.0,0.0,1.0,1.0,0.0,0.0,1.0,0.0,100.0,1.0,1.1856,26.0,0.0,0.0,0.0,65.999997,0.0,26.0,26.0,26.0,26.0,0.013000000000000123,0.27649999999999997,0.0165,292.557,-2.7161,-2.6158571428571427,-1.5943,-1.5210000000000001,-218.78,215.835,190.6395,0.0,0.0,0.0,0.0,0.03466666666666651,-5.498166666666667,-5.498166666666667,-0.5493,0.385,-0.005666666666666931,-0.837,67.90899999999999,0.0151,-0.20655,-0.05399999999999938,100.0,1.0,1.0,209.44333333333333,0.0,0.0,0.0,0.0,0.0,0.0,0.0,8877.5,0.0,55.0,5.0,244.44333333333333,1.0,0.0,0.0,0.0,0.0,0.0,1.0,0.0,0.8550000000000004,0.8550000000000004,0.0,0.0,1.0,55.0,616.79921,10000.0,85.000001,85.000001,85.000001,85.000001,395.0,0.0,0.0,0.0,1.0,166.665,52.536,52.536,47.852000000000004,47.852000000000004,34.0,-24.585,23.201999999999998,-30.23,29.262500000000003,0.0,1781.9644444444446,-0.19000000000000128,100.0,27.875,27.929000000000002,42.662,42.902,0.0,0.0,100.0,0.0,0.0,0.0,0.0,3207.857142857143,3007.3,4326.0,4203.1,305.244,305.168,314.46225,314.4625,21.925125,20.5976,21.950444444444443,21.4589,314.999998,314.999998,324.999988,324.999988,99.55821428571429,99.50725,99.56764285714286,99.54732857142857,0.0847500000000001,-0.04849999999999999,-0.10066666666666657,0.12149999999999994,-0.06666666666666998,-0.04833333333333201,1.5153333333333334,1.5095,38.032,29.735,38.19,35.118,55.774,35.047,59.72,52.5355,53.726,34.2005,58.306,50.8595,52.896,33.769,58.224000000000004,50.2675,-0.09099999999999997,-0.06599999999999984,0.107355,0.10266000000000002,0.0,212.675,212.655,209.44333333333333,209.44333333333333,0.0,0.0
18,0.0,0.0,0.0,1.0,1.0,0.0,0.0,1.0,0.0,100.0,1.0,1.1856,26.0,0.0,0.0,0.0,65.999997,0.0,26.0,26.0,26.0,26.0,0.005749999999999922,0.2674000000000001,-0.006,292.511,-2.7432,-2.5954285714285716,-1.6029499999999999,-1.4721111111111111,-215.51999999999998,215.8225,190.618375,0.0,0.0,0.0,0.0,0.036566666666666525,-5.498166666666667,-5.498166666666667,-0.5601,-0.49,0.011555555555555541,-0.28800000000000003,68.039,0.0099,-0.222,0.0,100.0,1.0,1.0,209.85333333333335,0.0,0.0,0.0,0.0,0.0,0.0,0.0,8894.9,0.0,55.0,5.0,244.91333333333336,0.0,0.0,0.0,0.0,0.0,0.0,1.0,0.0,0.9029999999999987,0.9029999999999987,0.0,0.0,0.0,55.0,616.79921,10000.0,85.000001,85.000001,85.000001,85.000001,395.0,0.0,0.0,0.0,1.0,166.665,52.399,52.399,47.76,47.76,34.0,-25.21,24.546,-29.416666666666664,27.875,0.0,1781.9144444444444,-0.25,100.0,27.72,27.805,42.984,43.193,0.0,0.0,100.0,0.0,0.0,0.0,0.0,3223.0,3183.7,4138.0,4146.3,305.252,304.67175,314.8515,314.57725,21.934,20.6027,21.960333333333335,21.4675,314.999998,314.999998,324.999988,324.999988,99.55821428571429,99.50726666666667,99.56778571428572,99.54745714285714,0.07825000000000015,-0.04849999999999999,-0.11249999999999993,0.11733333333333329,-0.046666666666666856,-0.05333333333332746,1.5256666666666667,1.528,38.088,29.767,38.251999999999995,35.172,55.763,35.083,59.756,52.594,53.715,34.2335,58.34,50.9155,52.884,33.8005,58.2545,50.323,-0.09499999999999997,-0.06000000000000005,0.10230500000000001,0.11409500000000002,0.0,213.03,213.025,209.85333333333335,209.85333333333335,0.0,0.0
19,0.0,0.0,0.0,1.0,1.0,0.0,0.0,1.0,0.0,100.0,1.0,1.1856,26.0,0.0,0.0,0.0,65.999997,0.0,26.0,26.0,26.0,26.0,0.0008749999999999591,0.29910000000000014,0.049100000000000005,291.977,-2.6536,-2.702714285714286,-1.61245,-1.4617777777777778,-212.04,215.8075,190.59575,0.0,0.0,0.0,0.0,0.03859999999999997,-5.498166666666667,-5.498166666666667,-0.5504,0.831,0.017444444444444374,0.6840000000000002,68.17699999999999,0.0074,-0.211325,-0.137999999999999,100.0,1.0,1.0,210.24,0.0,0.0,0.0,0.0,0.0,0.0,0.0,8911.3,0.0,55.0,5.0,245.40666666666667,1.0,0.0,0.0,0.0,0.0,0.0,1.0,0.0,0.9540000000000006,0.9540000000000006,0.0,0.0,1.0,55.0,616.79921,10000.0,85.000001,85.000001,85.000001,85.000001,395.0,0.0,0.0,0.0,1.0,166.665,51.743,51.743,47.44,47.44,34.0,-23.1325,26.296,-29.759999999999998,30.4975,0.0,1781.8644444444444,-0.23999999999999844,100.0,28.497,28.218,42.944,43.121,0.0,0.0,100.0,0.0,0.0,0.0,0.0,3113.0,3224.8,4250.5,4425.0,305.2285,304.436,314.5685,314.019,21.943625,20.6084,21.970666666666666,21.4766,314.999998,314.999998,324.999988,324.999988,99.55822857142857,99.50726666666667,99.56791428571428,99.54761428571429,0.09375,-0.04299999999999993,-0.09599999999999997,0.12783333333333324,-0.03166666666666629,-0.06333333333333258,1.5056666666666667,1.5099999999999998,38.147999999999996,29.802500000000002,38.317,35.229,55.751999999999995,35.123,59.7915,52.655,53.705,34.271,58.373,50.9745,52.873000000000005,33.8365,58.285,50.3805,-0.09250000000000003,-0.06400000000000006,0.105635,0.10654000000000001,0.0,213.5,213.49,210.24,210.24,0.0,0.0
20,0.0,0.0,0.0,1.0,1.0,0.0,0.0,1.0,0.0,100.0,1.0,1.1856,26.0,0.0,0.0,0.0,65.999997,0.0,26.0,26.0,26.0,26.0,0.008750000000000036,0.2590000000000001,0.010966666666666668,292.419,-2.7462,-2.662857142857143,-1.5367000000000002,-1.588,-208.36,215.79500000000002,190.572,0.0,0.0,0.0,0.0,0.0407333333333334,-5.498166666666667,-5.498166666666667,-0.5583,-1.1275,0.012555555555555653,0.43299999999999983,68.324,0.0068000000000000005,-0.227475,-0.12799999999999923,100.0,1.0,1.0,210.65333333333334,0.0,0.0,0.0,0.0,0.0,0.0,0.0,8928.8,0.0,55.0,5.0,245.93666666666667,0.0,0.0,0.0,0.0,0.0,0.0,0.0,0.0,1.0079999999999991,1.0079999999999991,0.0,0.0,0.0,55.0,616.79921,10000.0,85.000001,85.000001,85.000001,85.000001,395.0,0.0,0.0,0.0,1.0,166.665,52.689,52.689,47.256,47.256,34.0,-23.005,24.536,-28.4,30.5275,0.0,1781.81,-0.15500000000000114,100.0,27.926,27.799,43.553,43.504,0.0,0.0,100.0,0.0,0.0,0.0,0.0,2996.857142857143,3143.1,4080.75,4179.0,305.77,304.91525,314.82275,314.45625,21.9535,20.6142,21.98188888888889,21.4864,314.999998,314.999998,324.999988,324.999988,99.55824285714286,99.50726666666667,99.56807142857143,99.54777142857142,0.08725000000000005,-0.05174999999999996,-0.11199999999999999,0.12749999999999995,-0.03999999999999915,-0.05333333333332746,1.4893333333333332,1.4855,38.21,29.8385,38.387,35.29,55.736999999999995,35.164,59.834,52.722,53.69,34.308,58.4125,51.0385,52.857,33.8725,58.321,50.4435,-0.09199999999999986,-0.06950000000000012,0.11604500000000001,0.10896000000000002,0.0,213.875,213.905,210.65333333333334,210.65333333333334,0.0,0.0
21,0.0,0.0,0.0,1.0,1.0,0.0,0.0,1.0,0.0,100.0,1.0,1.1856,26.0,0.0,0.0,0.0,65.999997,0.0,26.0,26.0,26.0,26.0,0.017875000000000085,0.2714000000000001,-0.06810000000000001,292.709,-2.7135,-2.6654285714285715,-1.6018,-1.546888888888889,-205.28,215.7825,190.55175,0.0,0.0,0.0,0.0,0.04253333333333331,-5.498166666666667,-5.498166666666667,-0.5763,0.364,-0.00655555555555587,-0.8539999999999999,68.441,0.0046,-0.223175,-0.05600000000000005,100.0,1.0,1.0,211.19666666666666,0.0,0.0,0.0,0.0,0.0,0.0,0.0,8951.9,0.0,55.0,5.0,246.36,1.0,0.0,0.0,0.0,0.0,0.0,0.0,0.0,1.0530000000000008,1.0530000000000008,0.0,0.0,1.0,55.0,616.79921,10000.0,85.000001,85.000001,85.000001,85.000001,395.0,0.0,0.0,0.0,1.0,166.665,52.429,52.429,48.263999999999996,48.263999999999996,34.0,-24.362499999999997,23.922,-28.573333333333338,27.002499999999998,0.0,1781.7655555555555,-0.22499999999999787,100.0,28.03,28.031,42.91,43.128,0.0,0.0,100.0,0.0,0.0,0.0,0.0,3201.0,3030.5,4049.5,3977.4,305.2735,305.105,315.1155,315.02425,21.962,20.6191,21.991,21.4943,314.999998,314.999998,324.999988,324.999988,99.55825714285714,99.50728333333333,99.5682,99.54788571428571,0.08800000000000008,-0.04674999999999996,-0.11783333333333335,0.11266666666666669,-0.045000000000001705,-0.04333333333332945,1.5916666666666668,1.5835,38.262,29.869500000000002,38.443,35.34,55.726,35.198,59.863,52.7725,53.68,34.3405,58.44,51.0875,52.846000000000004,33.903,58.3455,50.491,-0.10299999999999998,-0.05799999999999983,0.11371500000000001,0.10111500000000001,0.0,214.29500000000002,214.29000000000002,211.19666666666666,211.19666666666666,0.0,0.0
22,0.0,0.0,0.0,1.0,1.0,0.0,0.0,1.0,0.0,100.0,1.0,1.1856,26.0,0.0,0.0,0.0,65.999997,0.0,26.0,26.0,26.0,26.0,0.01550000000000007,0.26290000000000013,-0.0003333333333333334,292.252,-2.6475,-2.718714285714286,-1.59795,-1.5313333333333332,-201.79,215.76999999999998,190.528,0.0,0.0,0.0,0.0,0.04456666666666653,-5.498166666666667,-5.498166666666667,-0.5572,0.0595,0.006222222222222129,1.254,68.58,0.0058000000000000005,-0.20345000000000002,-0.12399999999999967,100.0,1.0,1.0,211.42666666666668,0.0,0.0,0.0,0.0,0.0,0.0,0.0,8961.6,0.0,55.0,5.0,246.85666666666668,0.0,0.0,0.0,0.0,0.0,0.0,0.0,0.0,1.1039999999999992,1.1039999999999992,0.0,0.0,0.0,55.0,616.79921,10000.0,85.000001,85.000001,85.000001,85.000001,395.0,0.0,0.0,0.0,1.0,333.33500000000004,52.551,52.551,47.18,47.18,34.0,-21.509999999999998,24.939999999999998,-29.42,31.267500000000002,0.0,1781.7122222222222,-0.21000000000000085,100.0,28.233,27.981,43.331,43.272999999999996,0.0,0.0,100.0,0.0,0.0,0.0,0.0,2917.0,3091.3,4209.75,4369.5,305.8315,304.9765,314.60775,314.13425,21.971375000000002,20.6246,22.001444444444445,21.5035,314.999998,314.999998,324.999988,324.999988,99.55827142857143,99.5073,99.56835714285714,99.54805714285715,0.09074999999999989,-0.04599999999999993,-0.09683333333333333,0.1280000000000001,-0.03833333333332689,-0.054999999999999716,1.4916666666666667,1.4765000000000001,38.321,29.904,38.509,35.397,55.714,35.24,59.9045,52.838,53.668,34.378,58.4785,51.1505,52.833,33.939499999999995,58.381,50.553,-0.09399999999999986,-0.0625,0.099125,0.11676,0.0,214.71,214.74,211.42666666666668,211.42666666666668,0.0,0.0
23,0.0,0.0,0.0,1.0,1.0,0.0,0.0,1.0,0.0,100.0,1.0,1.1856,26.0,0.0,0.0,0.0,65.999997,0.0,26.0,26.0,26.0,26.0,0.02662500000000012,0.256,-0.06503333333333335,292.206,-2.6837,-2.6601428571428576,-1.6546500000000002,-1.5933333333333333,-198.28,215.7575,190.5045,0.0,0.0,0.0,0.0,0.046599999999999975,-5.498166666666667,-5.498166666666667,-0.5759000000000001,-0.21100000000000008,0.005444444444444363,-0.74,68.713,0.0028,-0.22962500000000002,0.02200000000000024,100.0,1.0,1.0,211.95666666666668,0.0,0.0,0.0,0.0,0.0,0.0,0.0,8984.0,0.0,55.0,5.0,247.34333333333336,1.0,0.0,0.0,0.0,0.0,0.0,0.0,0.0,1.1550000000000011,1.1550000000000011,0.0,0.0,1.0,55.0,616.79921,10000.0,85.000001,85.000001,85.000001,85.000001,395.0,0.0,0.0,0.0,1.0,333.33500000000004,51.772999999999996,51.772999999999996,48.096000000000004,48.096000000000004,34.0,-25.21,24.472,-28.986666666666665,28.175,0.0,1781.6633333333334,-0.26500000000000057,100.0,28.283,28.272,43.29,43.622,0.0,0.0,100.0,0.0,0.0,0.0,0.0,3325.5714285714284,3082.0,4030.125,3965.2,304.815,304.89175,315.19225,314.935,21.980875,20.6303,22.01188888888889,21.5128,314.999998,314.999998,324.999988,324.999988,99.55827142857143,99.5073,99.56848571428571,99.54818571428571,0.08999999999999986,-0.04574999999999996,-0.1123333333333334,0.11983333333333324,-0.04999999999999716,-0.06666666666666998,1.5483333333333333,1.5455,38.379999999999995,29.939,38.575,35.455,55.703,35.277,59.939,52.896,53.657,34.4125,58.5105,51.2065,52.821,33.9725,58.41,50.6075,-0.10450000000000004,-0.059499999999999886,0.10416500000000001,0.10937500000000001,0.0,215.13,215.115,211.95666666666668,211.95666666666668,0.0,0.0
24,0.0,0.0,0.0,1.0,1.0,0.0,0.0,1.0,0.0,100.0,1.0,1.1856,26.0,0.0,0.0,0.0,65.999997,0.0,26.0,26.0,26.0,26.0,0.009000000000000119,0.28380000000000005,-0.03286666666666667,292.404,-2.7042,-2.6717142857142857,-1.5716999999999999,-1.5364444444444443,-194.98000000000002,215.745,190.482,0.0,0.0,0.0,0.0,0.04849999999999999,-5.498166666666667,-5.498166666666667,-0.5810000000000001,-0.41900000000000004,0.013555555555555543,-0.08599999999999985,68.842,0.0051,-0.21845,-0.10799999999999965,100.0,1.0,1.0,212.25333333333333,0.0,0.0,0.0,0.0,0.0,0.0,0.0,8996.6,0.0,55.0,5.0,247.80333333333334,0.0,0.0,0.0,0.0,0.0,0.0,0.0,0.0,1.2029999999999994,1.2029999999999994,0.0,0.0,0.0,55.0,616.79921,10000.0,85.000001,85.000001,85.000001,85.000001,395.0,0.0,0.0,0.0,1.0,166.665,52.841,52.841,47.226,47.226,34.0,-22.5,22.915999999999997,-30.636666666666663,29.0975,0.0,1781.6155555555556,-0.2699999999999996,100.0,28.093,28.018,43.309,43.555,0.0,0.0,100.0,0.0,0.0,0.0,0.0,2990.285714285714,2945.9,4302.5,4145.4,305.8465,305.3725,314.424,314.5915,21.989625,20.6354,22.02177777777778,21.5214,314.999998,314.999998,324.999988,324.999988,99.55828571428572,99.5073,99.56862857142858,99.54832857142857,0.08800000000000008,-0.05449999999999999,-0.1143333333333334,0.12183333333333324,-0.05666666666667197,-0.04333333333332945,1.513,1.5074999999999998,38.435,29.9715,38.635999999999996,35.507999999999996,55.691,35.312,59.974000000000004,52.953,53.646,34.445,58.543,51.260999999999996,52.809,34.0035,58.439499999999995,50.661,-0.10349999999999993,-0.05799999999999983,0.10963500000000001,0.10654500000000001,0.0,215.51999999999998,215.51,212.25333333333333,212.25333333333333,0.0,0.0
25,0.0,0.0,0.0,1.0,1.0,0.0,0.0,1.0,0.0,100.0,1.0,1.1856,26.0,0.0,0.0,0.0,65.999997,0.0,26.0,26.0,26.0,26.0,0.0030000000000001137,0.2691000000000001,-0.04243333333333334,292.282,-2.7679,-2.6357142857142857,-1.5859,-1.5393333333333332,-191.47,215.73250000000002,190.456625,0.0,0.0,0.0,0.0,0.05056666666666654,-5.498166666666667,-5.498166666666667,-0.6094,0.006000000000000005,0.019888888888888845,0.11399999999999988,68.974,0.0064,-0.22395,-0.19200000000000017,100.0,1.0,1.0,212.76999999999998,0.0,0.0,0.0,0.0,0.0,0.0,0.0,9018.6,0.0,55.0,5.0,248.28,1.0,0.0,0.0,0.0,0.0,0.0,0.0,0.0,1.2540000000000013,1.2540000000000013,0.0,0.0,1.0,55.0,616.79921,10000.0,85.000001,85.000001,85.000001,85.000001,395.0,0.0,0.0,0.0,1.0,333.33500000000004,51.819,51.819,47.913,47.913,34.0,-25.122500000000002,26.688,-26.240000000000002,28.9575,0.0,1781.5622222222223,-0.28500000000000014,100.0,28.118,28.102,43.147,43.262,0.0,0.0,100.0,0.0,0.0,0.0,0.0,3223.0,3345.7,3941.375,4103.1,305.119,304.28025,315.30025,314.76525,21.998874999999998,20.641,22.03211111111111,21.5304,314.999998,314.999998,324.999988,324.999988,99.5583,99.50731666666667,99.56878571428571,99.54848571428572,0.09025000000000016,-0.040000000000000036,-0.08816666666666662,0.13183333333333325,-0.03833333333332689,-0.05666666666667197,1.567,1.5635,38.492999999999995,30.0065,38.701,35.565,55.676,35.354,60.0105,53.015,53.632,34.484,58.577,51.321,52.794,34.0405,58.47,50.72,-0.10149999999999992,-0.05900000000000016,0.100125,0.10951000000000001,0.0,215.93,215.93,212.76999999999998,212.76999999999998,0.0,0.0
26,0.0,0.0,0.0,1.0,1.0,0.0,0.0,1.0,0.0,100.0,1.0,1.1856,26.0,0.0,0.0,0.0,65.999997,0.0,26.0,26.0,26.0,26.0,0.01012499999999994,0.2853000000000001,0.0782,291.214,-2.7239,-2.706857142857143,-1.63545,-1.5313333333333332,-187.95,215.7225,190.431,0.0,0.0,0.0,0.0,0.05259999999999998,-5.498166666666667,-5.498166666666667,-0.5720000000000001,0.6325000000000001,0.0015555555555555323,-0.802,69.111,0.0099,-0.19875,-0.15200000000000014,100.0,1.0,1.0,212.94,0.0,0.0,0.0,0.0,0.0,0.0,0.0,9025.8,0.0,55.0,5.0,248.76999999999998,0.0,0.0,0.0,0.0,0.0,0.0,0.0,0.0,1.3049999999999997,1.3049999999999997,0.0,0.0,0.0,55.0,616.79921,10000.0,85.000001,85.000001,85.000001,85.000001,395.0,0.0,0.0,0.0,1.0,333.33500000000004,51.498,51.498,46.31,46.31,34.0,-24.335,24.57,-33.70333333333333,32.1325,0.0,1781.5111111111112,-0.33500000000000085,100.0,28.796,28.823999999999998,43.54,43.746,0.0,0.0,100.0,0.0,0.0,0.0,0.0,3239.857142857143,3043.9,4586.0,4484.1,305.1115,304.9135,313.82975,313.75375,22.008375,20.6468,22.042666666666666,21.5397,314.999998,314.999998,324.999988,324.999988,99.55831428571429,99.50731666666667,99.56892857142857,99.54862857142857,0.10050000000000026,-0.04774999999999996,-0.10399999999999998,0.11966666666666681,-0.05833333333333002,-0.023333333333326323,1.4453333333333334,1.4394999999999998,38.552,30.0425,38.766999999999996,35.623,55.668,35.393,60.0475,53.074,53.623999999999995,34.5195,58.6115,51.378,52.785,34.075,58.501999999999995,50.7755,-0.11299999999999999,-0.058499999999999996,0.10547000000000001,0.10724,0.0,216.38,216.365,212.94,212.94,0.0,0.0
27,0.0,0.0,0.0,1.0,1.0,0.0,0.0,1.0,0.0,100.0,1.0,1.1856,26.0,0.0,0.0,0.0,65.999997,0.0,26.0,26.0,26.0,26.0,0.031625000000000014,0.24580000000000002,-0.02796666666666667,291.718,-2.6916,-2.6695714285714285,-1.62885,-1.601888888888889,-184.63,215.71,190.407875,0.0,0.0,0.0,0.0,0.05453333333333332,-5.498166666666667,-5.498166666666667,-0.5964,-1.0300000000000002,0.004555555555555646,-0.6930000000000001,69.235,0.0119,-0.24127500000000002,-0.21999999999999975,100.0,1.0,1.0,213.44666666666666,0.0,0.0,0.0,0.0,0.0,0.0,0.0,9047.3,0.0,55.0,5.0,249.22,1.0,0.0,0.0,0.0,0.0,0.0,0.0,0.0,1.352999999999998,1.352999999999998,0.0,0.0,1.0,55.0,616.79921,10000.0,85.000001,85.000001,85.000001,85.000001,395.0,0.0,0.0,0.0,1.0,166.665,51.894999999999996,51.894999999999996,46.646,46.646,34.0,-22.919999999999998,24.904,-29.676666666666662,29.8675,0.0,1781.4644444444446,-0.35999999999999943,100.0,28.461,28.668,44.135,44.32,0.0,0.0,100.0,0.0,0.0,0.0,0.0,3117.714285714286,3099.6,4154.25,4040.5,305.503,304.84575,314.78325,314.73825,22.017125,20.6521,22.052666666666667,21.5485,314.999998,314.999998,324.999988,324.999988,99.55832857142858,99.50731666666667,99.56907142857143,99.54875714285714,0.10099999999999998,-0.04149999999999998,-0.10366666666666657,0.131,-0.05333333333332746,-0.03333333333333144,1.5003333333333333,1.4739999999999998,38.607,30.076,38.829,35.678,55.656,35.429,60.0845,53.132999999999996,53.613,34.5535,58.6465,51.4345,52.772999999999996,34.107,58.533500000000004,50.8305,-0.10899999999999999,-0.05600000000000005,0.11049,0.11505000000000001,0.0,216.71,216.69,213.44666666666666,213.44666666666666,0.0,0.0
28,0.0,0.0,0.0,1.0,1.0,0.0,0.0,1.0,0.0,100.0,1.0,1.1856,26.0,0.0,0.0,0.0,65.999997,0.0,26.0,26.0,26.0,26.0,0.013624999999999998,0.2643,-0.05143333333333334,291.931,-2.6743,-2.6637142857142857,-1.62015,-1.5671111111111111,-181.09,215.7,190.3825,0.0,0.0,0.0,0.0,0.056599999999999984,-5.498166666666667,-5.498166666666667,-0.6029,0.665,-0.00022222222222234578,0.637,69.364,0.0155,-0.21785000000000002,-0.2759999999999998,100.0,1.0,1.0,213.96666666666667,0.0,0.0,0.0,0.0,0.0,0.0,0.0,9069.3,0.0,55.0,5.0,249.68333333333334,0.0,0.0,0.0,0.0,0.0,0.0,0.0,0.0,1.404,1.404,0.0,0.0,0.0,55.0,616.79921,10000.0,85.000001,85.000001,85.000001,85.000001,395.0,0.0,0.0,0.0,1.0,333.33500000000004,51.743,51.743,47.607,47.607,34.0,-22.6675,25.744,-27.596666666666664,30.05,0.0,1781.4133333333334,-0.3550000000000004,100.0,28.711,28.44,43.509,43.728,0.0,0.0,100.0,0.0,0.0,0.0,0.0,3103.5714285714284,3190.2,4040.5,4147.0,305.3105,304.745,315.13825,314.68075,22.0265,20.6578,22.06288888888889,21.5575,314.999998,314.999998,324.999988,324.999988,99.55832857142858,99.50731666666667,99.56921428571428,99.54891428571429,0.10650000000000004,-0.035250000000000004,-0.09166666666666656,0.13683333333333336,-0.03499999999999659,-0.06333333333333258,1.567,1.5425,38.665,30.1115,38.893,35.735,55.646,35.469,60.1175,53.1905,53.602999999999994,34.59,58.6765,51.49,52.760999999999996,34.141999999999996,58.5605,50.885,-0.10999999999999988,-0.05449999999999999,0.107175,0.10749500000000001,0.0,217.14499999999998,217.18,213.96666666666667,213.96666666666667,0.0,0.0
29,0.0,0.0,0.0,1.0,1.0,0.0,0.0,1.0,0.0,100.0,1.0,1.1856,26.0,0.0,0.0,0.0,65.999997,0.0,26.0,26.0,26.0,26.0,0.035250000000000004,0.2538,0.02806666666666667,291.656,-2.6673999999999998,-2.7085714285714286,-1.5747499999999999,-1.5464444444444443,-177.55,215.69,190.356125,0.0,0.0,0.0,0.0,0.058633333333333315,-5.498166666666667,-5.498166666666667,-0.6044,-0.6955,0.0020000000000000018,-0.7110000000000001,69.499,0.016300000000000002,-0.21557500000000002,-0.24399999999999977,100.0,1.0,1.0,214.18666666666667,0.0,0.0,0.0,0.0,0.0,0.0,0.0,9078.6,0.0,55.0,5.0,250.17000000000002,1.0,0.0,0.0,0.0,0.0,0.0,0.0,0.0,1.4549999999999983,1.4549999999999983,0.0,0.0,1.0,55.0,616.79921,10000.0,85.000001,85.000001,85.000001,85.000001,395.0,0.0,0.0,0.0,1.0,333.33500000000004,52.048,52.048,46.631,46.631,34.0,-23.049999999999997,25.116,-29.85,31.05,0.0,1781.361111111111,-0.41499999999999915,100.0,28.185,28.478,43.83,44.118,0.0,0.0,100.0,0.0,0.0,0.0,0.0,3161.285714285714,3084.4,4240.875,4270.4,305.4105,304.816,314.55625,314.23475,22.035625,20.6635,22.073444444444444,21.5669,314.999998,314.999998,324.999988,324.999988,99.55835714285715,99.50733333333334,99.56935714285714,99.54907142857142,0.10050000000000026,-0.043749999999999956,-0.10466666666666657,0.1306666666666667,-0.051666666666669414,-0.03333333333333144,1.478,1.4714999999999998,38.722,30.1465,38.959,35.793,55.632999999999996,35.507,60.1565,53.253,53.59,34.625,58.713,51.55,52.748000000000005,34.176,58.5935,50.9435,-0.11149999999999993,-0.0495000000000001,0.114305,0.108725,0.0,217.54000000000002,217.54000000000002,214.18666666666667,214.18666666666667,0.0,0.0
30,0.0,0.0,0.0,1.0,1.0,0.0,0.0,1.0,0.0,100.0,1.0,1.1856,26.0,0.0,0.0,0.0,65.999997,0.0,26.0,26.0,26.0,26.0,0.04025000000000012,0.25890000000000013,0.014266666666666667,291.199,-2.7185,-2.599,-1.54675,-1.6025555555555557,-174.20999999999998,215.68,190.33125,0.0,0.0,0.0,0.0,0.060566666666666547,-5.498166666666667,-5.498166666666667,-0.6065,0.763,-0.001777777777777878,-0.7150000000000001,69.62,0.0205,-0.22112500000000002,-0.3200000000000003,100.0,1.0,1.0,214.66333333333333,0.0,0.0,0.0,0.0,0.0,0.0,0.0,9098.8,0.0,55.0,5.0,250.60666666666668,0.0,0.0,0.0,0.0,0.0,0.0,1.0,0.0,1.5030000000000001,1.5030000000000001,0.0,0.0,0.0,55.0,616.79921,10000.0,85.000001,85.000001,85.000001,85.000001,395.0,0.0,0.0,0.0,1.0,333.33500000000004,50.659,50.659,47.195,47.195,34.0,-25.1475,25.458,-27.856666666666662,30.5725,0.0,1781.3144444444445,-0.34999999999999787,100.0,29.056,29.203,43.589,44.087,0.0,0.0,100.0,0.0,0.0,0.0,0.0,3416.142857142857,3207.6,4169.25,4126.2,304.562,304.41,314.806,314.56325,22.0445,20.669,22.083222222222222,21.575499999999998,314.999998,314.999998,324.999988,324.999988,99.55837142857143,99.50733333333334,99.5695,99.5492,0.11575000000000024,-0.03974999999999995,-0.08950000000000002,0.13183333333333325,-0.051666666666669414,-0.04999999999999716,1.5003333333333333,1.492,38.778,30.1815,39.019999999999996,35.847,55.626000000000005,35.546,60.189,53.3095,53.583,34.661500000000004,58.743,51.604,52.739999999999995,34.210499999999996,58.6205,50.9965,-0.12050000000000005,-0.05900000000000016,0.110255,0.10511500000000001,0.0,217.935,217.95,214.66333333333333,214.66333333333333,0.0,0.0
31,0.0,0.0,0.0,1.0,1.0,0.0,0.0,1.0,0.0,100.0,1.0,1.1856,26.0,0.0,0.0,0.0,65.999997,0.0,26.0,26.0,26.0,26.0,0.019000000000000128,0.26839999999999997,0.05246666666666667,290.878,-2.7641,-2.584285714285714,-1.59375,-1.5006666666666668,-170.66,215.6725,190.305375,0.0,0.0,0.0,0.0,0.06263333333333332,-5.498166666666667,-5.498166666666667,-0.5896,-0.4970000000000001,0.008111111111110958,0.5720000000000001,69.753,0.024200000000000003,-0.22132500000000002,-0.36599999999999966,100.0,1.0,1.0,214.90333333333334,0.0,0.0,0.0,0.0,0.0,0.0,0.0,9109.0,0.0,55.0,5.0,251.08666666666664,1.0,0.0,0.0,0.0,0.0,0.0,1.0,0.0,1.5539999999999985,1.5539999999999985,0.0,0.0,1.0,55.0,616.79921,10000.0,85.000001,85.000001,85.000001,85.000001,395.0,0.0,0.0,0.0,1.0,333.33500000000004,51.208,51.208,45.624,45.624,34.0,-23.025,26.534,-29.17,31.517500000000002,0.0,1781.2622222222221,-0.384999999999998,100.0,28.98,29.072,44.44,44.663,0.0,0.0,100.0,0.0,0.0,0.0,0.0,3105.0,3352.7,4311.875,4316.6,305.4845,304.35425,314.2975,314.1605,22.05375,20.6748,22.093888888888888,21.585,314.999998,314.999998,324.999988,324.999988,99.55838571428572,99.50735,99.56965714285714,99.54935714285715,0.11375000000000002,-0.031749999999999945,-0.07150000000000001,0.1413333333333333,-0.045000000000001705,-0.041666666666671404,1.447,1.431,38.836,30.2175,39.086,35.906,55.614999999999995,35.586,60.229,53.373,53.573,34.698499999999996,58.7805,51.6655,52.727999999999994,34.246,58.6545,51.0565,-0.11199999999999988,-0.06050000000000022,0.10416,0.10462500000000001,0.0,218.325,218.335,214.90333333333334,214.90333333333334,0.0,0.0
32,0.0,0.0,0.0,1.0,1.0,0.0,0.0,1.0,0.0,100.0,1.0,1.1856,26.0,0.0,0.0,0.0,65.999997,0.0,26.0,26.0,26.0,26.0,0.040124999999999966,0.2774000000000001,-0.015733333333333335,291.245,-2.6882,-2.6855714285714285,-1.6432,-1.5095555555555558,-167.1,215.66500000000002,190.279875,0.0,0.0,0.0,0.0,0.06473333333333331,-5.498166666666667,-5.498166666666667,-0.6065,-0.11299999999999999,-0.018888888888889177,-0.9750000000000001,69.88,0.0253,-0.22962500000000002,-0.31399999999999917,100.0,1.0,1.0,215.42000000000002,0.0,0.0,0.0,0.0,0.0,0.0,0.0,9130.8,0.0,55.0,5.0,251.54333333333335,0.0,0.0,0.0,0.0,0.0,0.0,1.0,0.0,1.6050000000000004,1.6050000000000004,0.0,0.0,0.0,55.0,616.79921,10000.0,85.000001,85.000001,85.000001,85.000001,395.0,0.0,0.0,0.0,1.0,166.665,51.422,51.422,46.509,46.509,34.0,-23.5325,25.23,-29.176666666666662,30.795,0.0,1781.2133333333334,-0.35999999999999943,100.0,28.767,29.122,44.108000000000004,44.572,0.0,0.0,100.0,0.0,0.0,0.0,0.0,3225.857142857143,3094.8,4272.5,4260.5,305.158,304.867,314.6205,314.40625,22.063,20.6806,22.104222222222223,21.5942,314.999998,314.999998,324.999988,324.999988,99.5584,99.50735,99.5698,99.5495,0.10850000000000026,-0.036250000000000004,-0.07633333333333336,0.1443333333333332,-0.060000000000002274,-0.05666666666667197,1.53,1.513,38.894,30.253999999999998,39.150999999999996,35.964,55.605000000000004,35.626,60.263999999999996,53.4325,53.563,34.7355,58.813,51.723,52.717,34.2815,58.684,51.1125,-0.11149999999999993,-0.05600000000000005,0.09468000000000001,0.11194000000000001,0.0,218.735,218.745,215.42000000000002,215.42000000000002,0.0,0.0
33,0.0,0.0,0.0,1.0,1.0,0.0,0.0,1.0,0.0,100.0,1.0,1.1856,26.0,0.0,0.0,0.0,65.999997,0.0,26.0,26.0,26.0,26.0,0.04337499999999994,0.2511000000000001,-0.02946666666666667,291.519,-2.7285,-2.6795714285714287,-1.5883,-1.5915555555555556,-163.74,215.6575,190.25475,0.0,0.0,0.0,0.0,0.06666666666666654,-5.498166666666667,-5.498166666666667,-0.6151,-0.2995000000000001,-0.0129999999999999,-0.11399999999999988,70.002,0.0219,-0.217475,-0.21799999999999908,100.0,1.0,1.0,215.79333333333335,0.0,0.0,0.0,0.0,0.0,0.0,0.0,9146.7,0.0,55.0,5.0,251.98000000000002,1.0,0.0,0.0,0.0,0.0,0.0,1.0,0.0,1.6529999999999987,1.6529999999999987,0.0,0.0,1.0,55.0,616.79921,10000.0,85.000001,85.000001,85.000001,85.000001,395.0,0.0,0.0,0.0,1.0,333.33500000000004,51.819,51.819,46.753,46.753,34.0,-23.18,24.846,-29.163333333333334,31.0075,0.0,1781.1644444444444,-0.41499999999999915,100.0,28.582,28.841,43.969,44.424,0.0,0.0,100.0,0.0,0.0,0.0,0.0,3161.714285714286,3049.9,4190.875,4219.2,305.4395,305.0135,314.7375,314.432,22.071625,20.6859,22.114,21.602899999999998,314.999998,314.999998,324.999988,324.999988,99.55841428571429,99.50735,99.56994285714286,99.54964285714286,0.1107499999999999,-0.03400000000000003,-0.09950000000000003,0.1293333333333333,-0.051666666666669414,-0.03499999999999659,1.508,1.4899999999999998,38.948,30.287,39.212,36.018,55.594,35.661,60.297,53.4885,53.553,34.7675,58.844,51.777,52.706,34.3125,58.712,51.165,-0.11850000000000005,-0.051000000000000156,0.106745,0.104425,0.0,219.115,219.095,215.79333333333335,215.79333333333335,0.0,0.0
34,0.0,0.0,0.0,1.0,1.0,0.0,0.0,1.0,0.0,100.0,1.0,1.1856,26.0,0.0,0.0,0.0,65.999997,0.0,26.0,26.0,26.0,26.0,0.030000000000000027,0.24850000000000017,-0.05213333333333334,291.779,-2.6599,-2.677857142857143,-1.6503,-1.5567777777777778,-160.17000000000002,215.6525,190.226875,0.0,0.0,0.0,0.0,0.06873333333333331,-5.498166666666667,-5.498166666666667,-0.6414000000000001,-0.7655000000000001,0.009888888888888836,0.8610000000000002,70.131,0.0247,-0.22382500000000002,-0.33200000000000074,100.0,1.0,1.0,216.17666666666668,0.0,0.0,0.0,0.0,0.0,0.0,0.0,9162.9,0.0,55.0,5.0,252.44666666666666,0.0,0.0,0.0,0.0,0.0,0.0,1.0,0.0,1.7040000000000006,1.7040000000000006,0.0,0.0,0.0,55.0,616.79921,10000.0,85.000001,85.000001,85.000001,85.000001,395.0,0.0,0.0,0.0,1.0,333.33500000000004,52.155,52.155,47.256,47.256,34.0,-21.525,24.78,-28.493333333333332,30.9025,0.0,1781.1133333333332,-0.36499999999999844,100.0,28.519,28.408,43.883,44.39,0.0,0.0,100.0,0.0,0.0,0.0,0.0,3053.285714285714,3045.7,4096.5,4222.0,305.557,305.1,314.94375,314.44125,22.080750000000002,20.6915,22.124333333333333,21.6122,314.999998,314.999998,324.999988,324.999988,99.55842857142858,99.50736666666667,99.57008571428571,99.5498,0.11825000000000019,-0.03225,-0.08566666666666656,0.1373333333333333,-0.051666666666669414,-0.04333333333332945,1.52,1.5034999999999998,39.004999999999995,30.322,39.277,36.076,55.582,35.698,60.3315,53.5495,53.542,34.8015,58.876,51.835499999999996,52.694,34.345,58.7405,51.2225,-0.11199999999999988,-0.05549999999999988,0.103165,0.10636000000000001,0.0,219.47500000000002,219.495,216.17666666666668,216.17666666666668,0.0,0.0
35,0.0,0.0,0.0,1.0,1.0,0.0,0.0,1.0,0.0,100.0,1.0,1.1856,26.0,0.0,0.0,0.0,65.999997,0.0,26.0,26.0,26.0,26.0,0.04574999999999996,0.2470000000000001,-0.03586666666666667,291.763,-2.7253,-2.6165714285714285,-1.62425,-1.5127777777777778,-156.59,215.6475,190.196875,0.0,0.0,0.0,0.0,0.0708333333333333,-5.498166666666667,-5.498166666666667,-0.6836,-0.32699999999999996,-0.006444444444444475,-1.19,70.258,0.028900000000000002,-0.23067500000000002,-0.30799999999999894,100.0,1.0,1.0,216.64333333333332,0.0,0.0,0.0,0.0,0.0,0.0,0.0,9182.8,0.0,55.0,5.0,252.9,1.0,0.0,0.0,0.0,0.0,0.0,1.0,0.0,1.754999999999999,1.754999999999999,0.0,0.0,1.0,55.0,616.79921,10000.0,85.000001,85.000001,85.000001,85.000001,395.0,0.0,0.0,0.0,1.0,333.33500000000004,51.650999999999996,51.650999999999996,46.875,46.875,34.0,-23.4125,26.398,-27.82,28.705,0.0,1781.0611111111111,-0.19000000000000128,100.0,28.206,28.808,43.639,43.939,0.0,0.0,100.0,0.0,0.0,0.0,0.0,3176.714285714286,3310.9,4068.75,4000.6000000000004,305.367,304.2205,314.9995,314.9675,22.08975,20.6973,22.134666666666668,21.621299999999998,314.999998,314.999998,324.999988,324.999988,99.55842857142858,99.50736666666667,99.57024285714286,99.54995714285714,0.10850000000000026,-0.04049999999999998,-0.08599999999999997,0.14783333333333326,-0.045000000000001705,-0.04333333333332945,1.5496666666666667,1.5514999999999999,39.061,30.358,39.341,36.132999999999996,55.568,35.74,60.367,53.609,53.528,34.8405,58.909,51.893,52.679,34.382,58.769999999999996,51.2785,-0.10199999999999987,-0.06700000000000017,0.11231500000000001,0.10885500000000001,0.0,219.88,219.89,216.64333333333332,216.64333333333332,0.0,0.0
