,ABS Active,ABS Enabled,AID Allow Tire Blankets,AID Auto Blip,AID Auto Clutch,AID Auto Shift,AID Fuel Rate,AID Ideal Line,AID Mech Damage,AID Stability,AID Tire Wear Rate,Air Density,Air Temp,Ballast,Best Lap Delta,Best Lap Time,Brake Bias,Brake Pos,Brake Temp FL,Brake Temp FR,Brake Temp RL,Brake Temp RR,CG Accel Lateral,CG Accel Longitudinal,CG Accel Vertical,CG Height,Camber FL,Camber FR,Camber RL,Camber RR,Car Coord X,Car Coord Y,Car Coord Z,Car Damage Front,Car Damage Left,Car Damage Rear,Car Damage Right,Car Pos Norm,Caster FL,Caster FR,Chassis Pitch Angle,Chassis Pitch Rate,Chassis Roll Angle,Chassis Roll Rate,Chassis Velocity X,Chassis Velocity Y,Chassis Velocity Z,Chassis Yaw Rate,Clutch Pos,DRS Active,DRS Available,Drive Train Speed,ERS Heat Charging,ERS Is Charging,ERS Max Energy,ERS Power Level,ERS Recovery Level,Engine Brake Setting,Engine Limiter,Engine RPM,Flags,Fuel Level,Gear,Ground Speed,HR Sample Clock,In Pit,KERS Charge,KERS Deployed Energy,KERS Input,KERS Max Energy,LR Sample Clock,Lap Invalidated,Lap Time,Lap Time2,Last Lap Time,Last Sector Time,MR Sample Clock,Max Fuel,Max Power,Max RPM,Max Sus Travel FL,Max Sus Travel FR,Max Sus Travel RL,Max Sus Travel RR,Max Torque,Max Turbo Boost,Num Tires Off Track,Penalties Enabled,Position,Raw Data Sample Rate,Ride Height FL,Ride Height FR,Ride Height RL,Ride Height RR,Road Temp,Self Align Torque FL,Self Align Torque FR,Self Align Torque RL,Self Align Torque RR,Session Lap Count,Session Time Left,Steering Angle,Surface Grip,Suspension Travel FL,Suspension Travel FR,Suspension Travel RL,Suspension Travel RR,TC Active,TC Enabled,Throttle Pos,Tire Dirt Level FL,Tire Dirt Level FR,Tire Dirt Level RL,Tire Dirt Level RR,Tire Load FL,Tire Load FR,Tire Load RL,Tire Load RR,Tire Loaded Radius FL,Tire Loaded Radius FR,Tire Loaded Radius RL,Tire Loaded Radius RR,Tire Pressure FL,Tire Pressure FR,Tire Pressure RL,Tire Pressure RR,Tire Radius FL,Tire Radius FR,Tire Radius RL,Tire Radius RR,Tire Rubber Grip FL,Tire Rubber Grip FR,Tire Rubber Grip RL,Tire Rubber Grip RR,Tire Slip Angle FL,Tire Slip Angle FR,Tire Slip Angle RL,Tire Slip Angle RR,Tire Slip Ratio FL,Tire Slip Ratio FR,Tire Slip Ratio RL,Tire Slip Ratio RR,Tire Temp Core FL,Tire Temp Core FR,Tire Temp Core RL,Tire Temp Core RR,Tire Temp Inner FL,Tire Temp Inner FR,Tire Temp Inner RL,Tire Temp Inner RR,Tire Temp Middle FL,Tire Temp Middle FR,Tire Temp Middle RL,Tire Temp Middle RR,Tire Temp Outer FL,Tire Temp Outer FR,Tire Temp Outer RL,Tire Temp Outer RR,Toe In FL,Toe In FR,Toe In RL,Toe In RR,Turbo Boost,Wheel Angular Speed FL,Wheel Angular Speed FR,Wheel Angular Speed RL,Wheel Angular Speed RR,Wind Direction,Wind Speed
0,0.0,0.0,0.0,1.0,1.0,0.0,0.0,1.0,0.0,100.0,1.0,1.1856,26.0,0.0,0.0,0.0,65.99999,0.0,26.0,26.0,26.0,26.0,-0.08612500000000001,0.30210000000000004,0.0723,293.823,-2.7041,-2.6684444444444444,-1.50645,-1.5695555555555556,-275.45,216.29000000000002,190.986125,0.0,0.0,0.0,0.0,0.0017333333333333645,-5.498166666666667,-5.498166666666667,-0.5442,1.4785,-0.0214444444444446,-0.869,65.53,-0.0474,-0.210625,1.0079999999999991,100.0,1.0,1.0,202.30666666666667,0.0,0.0,0.0,0.0,0.0,0.0,0.0,8575.0,0.0,55.0,5.0,235.88,0.0,0.0,0.0,0.0,0.0,0.0,0.0,0.0,0.006000000000000227,0.006000000000000227,0.0,0.0,0.0,55.0,616.79921,10000.0,85.0,85.0,85.0,85.0,395.0,0.0,0.0,0.0,1.0,20.0,52.582,52.582,49.225,49.225,34.0,-26.3325,23.321666666666665,-31.68,24.405,0.0,1782.719,0.7650000000000006,100.0,27.755,27.135,40.724000000000004,40.474000000000004,0.0,0.0,100.0,0.0,0.0,0.0,0.0,3001.5714285714284,3373.0,4197.5,3988.4,305.7075,304.09066666666666,314.61925,314.89575,21.7734,20.5147,21.7646,21.3066,314.99999,314.99999,324.99998,324.99998,99.55854285714285,99.50723333333333,99.56488571428571,99.54488571428571,-0.004750000000000032,-0.12466666666666659,-0.17333333333333334,0.05059999999999998,-0.03333333333333144,-0.051666666666669414,1.5339999999999998,1.5579999999999998,37.084,29.2165,37.028999999999996,34.1665,56.177,34.4715,58.966499999999996,51.5015,54.105999999999995,33.662,57.6,49.8645,53.283,33.245,57.568,49.291,-0.014499999999999957,-0.13750000000000018,0.11487000000000001,0.10498,0.0,205.375,205.275,202.30666666666667,202.30666666666667,0.0,0.0
1,0.0,0.0,0.0,1.0,1.0,0.0,0.0,1.0,0.0,100.0,1.0,1.1856,26.0,0.0,0.0,0.0,65.999997,0.0,26.0,26.0,26.0,26.0,-0.1115,0.3227,0.209825,292.892,-2.6255,-2.777333333333333,-1.5183,-1.5613333333333332,-272.11,216.28750000000002,190.966,0.0,0.0,0.0,0.0,0.003666666666666596,-5.498166666666667,-5.498166666666667,-0.5004000000000001,-0.8380000000000001,-0.06733333333333347,-0.9949999999999999,65.685,-0.059699999999999975,-0.19785,1.3960000000000008,100.0,1.0,1.0,202.48000000000002,0.0,0.0,0.0,0.0,0.0,0.0,0.0,8582.4,0.0,55.0,5.0,236.43333333333334,1.0,0.0,0.0,0.0,0.0,0.0,0.0,0.0,0.05699999999999861,0.05699999999999861,0.0,0.0,1.0,55.0,616.79921,10000.0,85.000001,85.000001,85.000001,85.000001,395.0,0.0,0.0,0.0,1.0,333.33500000000004,53.391,53.391,48.233000000000004,48.233000000000004,34.0,-28.0775,18.221666666666668,-34.196666666666665,28.377499999999998,0.0,1782.666,0.8900000000000006,100.0,27.698,26.986,43.002,41.764,0.0,0.0,100.0,0.0,0.0,0.0,0.0,3177.4285714285716,2709.2,4285.75,4704.6,305.2575,306.20466666666664,314.3705,313.1175,21.7833,20.5197,21.7754,21.3158,314.999998,314.999998,324.999988,324.999988,99.55855714285714,99.50726666666667,99.56502857142857,99.54504285714286,-0.022499999999999964,-0.1426666666666666,-0.19133333333333336,0.02520000000000011,-0.07333333333333059,-0.03833333333332689,1.4215,1.4969999999999999,37.144999999999996,29.247999999999998,37.096000000000004,34.2235,56.161,34.5115,59.0125,51.567499999999995,54.091,33.6995,57.6435,49.9275,53.268,33.2805,57.608000000000004,49.352666666666664,-0.0020000000000000018,-0.14250000000000007,0.10609500000000001,0.10723,0.0,205.82,205.69,202.48000000000002,202.48000000000002,0.0,0.0
2,0.0,0.0,0.0,1.0,1.0,0.0,0.0,1.0,0.0,100.0,1.0,1.1856,26.0,0.0,0.0,0.0,65.999997,0.0,26.0,26.0,26.0,26.0,-0.152375,0.2993000000000001,-0.077725,293.533,-2.5906,-2.802,-1.4853,-1.6137777777777778,-268.76,216.28,190.947125,0.0,0.0,0.0,0.0,0.005633333333333379,-5.498166666666667,-5.498166666666667,-0.547,0.26349999999999996,-0.05322222222222228,2.694,65.827,-0.07629999999999992,-0.2503,1.5739999999999998,100.0,1.0,1.0,203.38,0.0,0.0,0.0,0.0,0.0,0.0,0.0,8620.6,0.0,55.0,5.0,236.94666666666666,0.0,0.0,0.0,0.0,0.0,0.0,0.0,0.0,0.10800000000000054,0.10800000000000054,0.0,0.0,0.0,55.0,616.79921,10000.0,85.000001,85.000001,85.000001,85.000001,395.0,0.0,0.0,0.0,1.0,333.33500000000004,52.353,52.353,49.988,49.988,34.0,-29.545,20.281666666666666,-29.676666666666666,20.3275,0.0,1782.616,0.7750000000000021,100.0,28.597,26.958,42.812,41.345,0.0,0.0,100.0,0.0,0.0,0.0,0.0,3295.5714285714284,2985.8,3752.625,3755.9,304.622,305.4026666666667,315.636,315.60475,21.7935,20.5247,21.785800000000002,21.3245,314.999998,314.999998,324.999988,324.999988,99.55855714285714,99.50728333333333,99.56517142857143,99.54517142857142,-0.026249999999999885,-0.14966666666666661,-0.22916666666666663,0.0,-0.03833333333332689,-0.045000000000001705,1.6019999999999999,1.6829999999999998,37.209,29.279,37.161,34.278,56.15,34.551,59.051,51.6245,54.08,33.7355,57.679,49.9825,53.256,33.315,57.641,49.406333333333336,-0.016000000000000014,-0.13450000000000006,0.10667000000000001,0.10541500000000001,0.0,206.265,206.115,203.38,203.38,0.0,0.0
3,0.0,0.0,0.0,1.0,1.0,0.0,0.0,1.0,0.0,100.0,1.0,1.1856,26.0,0.0,0.0,0.0,65.999997,0.0,26.0,26.0,26.0,26.0,-0.1385,0.31889999999999996,0.0902,293.35,-2.7207,-2.697222222222222,-1.5082499999999999,-1.598,-265.59,216.26749999999998,190.928625,0.0,0.0,0.0,0.0,0.0074666666666665105,-5.498166666666667,-5.498166666666667,-0.5086,0.16249999999999998,-0.014666666666666828,0.2330000000000001,65.97,-0.08909999999999996,-0.19967500000000002,1.2260000000000009,100.0,1.0,1.0,203.5233333333333,0.0,0.0,0.0,0.0,0.0,0.0,0.0,8626.6,0.0,55.0,5.0,237.46,1.0,0.0,0.0,0.0,0.0,0.0,0.0,0.0,0.1559999999999988,0.1559999999999988,0.0,0.0,1.0,55.0,616.79921,10000.0,85.000001,85.000001,85.000001,85.000001,395.0,0.0,0.0,0.0,1.0,333.33500000000004,53.497,53.497,48.004,48.004,34.0,-25.83,18.601666666666667,-34.36,24.89,0.0,1782.568,0.6350000000000016,100.0,28.056,26.934,42.703,41.49,0.0,0.0,100.0,0.0,0.0,0.0,0.0,2843.5714285714284,2890.9,4270.375,4263.6,306.1255,305.653,314.366,314.289,21.8027,20.5295,21.7956,21.3329,314.999998,314.999998,324.999988,324.999988,99.55855714285714,99.5073,99.5653,99.5453,-0.028999999999999915,-0.15166666666666662,-0.20233333333333337,0.013600000000000056,-0.045000000000001705,-0.045000000000001705,1.4685000000000001,1.5299999999999998,37.266999999999996,29.3095,37.223,34.3305,56.135,34.591,59.088499999999996,51.684,54.065,33.7725,57.714,50.039500000000004,53.241,33.3505,57.6735,49.46233333333333,-0.026999999999999913,-0.12400000000000011,0.10044,0.10993000000000001,0.0,206.695,206.615,203.5233333333333,203.5233333333333,0.0,0.0
4,0.0,0.0,0.0,1.0,1.0,0.0,0.0,1.0,0.0,100.0,1.0,1.1856,26.0,0.0,0.0,0.0,65.999997,0.0,26.0,26.0,26.0,26.0,-0.163375,0.28800000000000003,-0.041475000000000005,293.61,-2.6493,-2.752888888888889,-1.5213,-1.6062222222222222,-262.02,216.2525,190.90775,0.0,0.0,0.0,0.0,0.009533333333333394,-5.498166666666667,-5.498166666666667,-0.5471,-0.5780000000000001,-0.08388888888888868,-0.375,66.124,-0.09019999999999995,-0.2394,1.154,100.0,1.0,1.0,204.18,0.0,0.0,0.0,0.0,0.0,0.0,0.0,8654.4,0.0,55.0,5.0,238.01666666666665,0.0,0.0,0.0,0.0,0.0,0.0,0.0,0.0,0.21000000000000085,0.21000000000000085,0.0,0.0,0.0,55.0,616.79921,10000.0,85.000001,85.000001,85.000001,85.000001,395.0,0.0,0.0,0.0,1.0,166.665,52.902,52.902,48.935,48.935,34.0,-29.575,20.083333333333332,-31.92,20.8,0.0,1782.514,0.5749999999999993,100.0,27.909,26.786,42.963,41.424,0.0,0.0,100.0,0.0,0.0,0.0,0.0,3249.285714285714,2984.3,3995.5,3672.8,304.9405,305.37,315.02575,315.71175,21.8129,20.5349,21.8068,21.3422,314.999998,314.999998,324.999988,324.999988,99.55857142857143,99.50731666666667,99.56545714285714,99.54545714285715,-0.030999999999999917,-0.1446666666666666,-0.21350000000000002,0.018000000000000016,-0.03999999999999915,-0.07166666666666544,1.5775000000000001,1.6284999999999998,37.331,29.3435,37.293,34.388999999999996,56.117000000000004,34.635,59.1325,51.746,54.048,33.813,57.7555,50.099000000000004,53.223,33.388999999999996,57.712,49.52033333333333,-0.026499999999999968,-0.11949999999999994,0.10952,0.106745,0.0,207.135,207.065,204.18,204.18,0.0,0.0
5,0.0,0.0,0.0,1.0,1.0,0.0,0.0,1.0,0.0,100.0,1.0,1.1856,26.0,0.0,0.0,0.0,65.999997,0.0,26.0,26.0,26.0,26.0,-0.137625,0.30380000000000007,-0.013225,293.564,-2.6667,-2.771333333333333,-1.508,-1.5914444444444444,-258.85,216.235,190.8885,0.0,0.0,0.0,0.0,0.011366666666666525,-5.498166666666667,-5.498166666666667,-0.5333,0.41100000000000003,-0.08244444444444454,1.2349999999999999,66.264,-0.09139999999999993,-0.21152500000000002,1.0220000000000002,100.0,1.0,1.0,204.49,0.0,0.0,0.0,0.0,0.0,0.0,0.0,8667.6,0.0,55.0,5.0,238.51999999999998,1.0,0.0,0.0,0.0,0.0,0.0,0.0,0.0,0.2579999999999991,0.2579999999999991,0.0,0.0,1.0,55.0,616.79921,10000.0,85.000001,85.000001,85.000001,85.000001,395.0,0.0,0.0,0.0,1.0,166.665,53.421,53.421,48.813,48.813,34.0,-27.127499999999998,19.56833333333333,-33.21666666666667,23.535,0.0,1782.466,0.22500000000000142,100.0,27.962,26.596,42.75,41.187,0.0,0.0,100.0,0.0,0.0,0.0,0.0,3098.0,2855.5,4169.75,4115.8,305.3285,305.804,314.667,314.6825,21.8223,20.5397,21.8166,21.3505,314.999998,314.999998,324.999988,324.999988,99.55857142857143,99.50731666666667,99.5656,99.54558571428572,-0.0040000000000000036,-0.1353333333333333,-0.20650000000000002,0.012799999999999923,-0.04833333333333201,-0.0899999999999963,1.528,1.5705,37.388999999999996,29.372999999999998,37.354,34.4405,56.104,34.673,59.171,51.801,54.036,33.848,57.791,50.1515,53.21,33.4225,57.745,49.572,-0.058499999999999996,-0.09299999999999997,0.10004500000000001,0.10652500000000001,0.0,207.615,207.515,204.49,204.49,0.0,0.0
6,0.0,0.0,0.0,1.0,1.0,0.0,0.0,1.0,0.0,100.0,1.0,1.1856,26.0,0.0,0.0,0.0,65.999997,0.0,26.0,26.0,26.0,26.0,-0.123875,0.28390000000000004,0.0036000000000000003,293.396,-2.6362,-2.798222222222222,-1.554,-1.583777777777778,-255.66,216.215,190.869125,0.0,0.0,0.0,0.0,0.01323333333333332,-5.498166666666667,-5.498166666666667,-0.5299,0.08299999999999996,-0.06211111111111123,0.9330000000000003,66.401,-0.08449999999999991,-0.21385,0.6860000000000008,100.0,1.0,1.0,204.93333333333334,0.0,0.0,0.0,0.0,0.0,0.0,0.0,8686.3,0.0,55.0,5.0,239.01333333333332,0.0,0.0,0.0,0.0,0.0,0.0,0.0,0.0,0.30600000000000094,0.30600000000000094,0.0,0.0,0.0,55.0,616.79921,10000.0,85.000001,85.000001,85.000001,85.000001,395.0,0.0,0.0,0.0,1.0,166.665,53.131,53.131,48.644999999999996,48.644999999999996,34.0,-26.5325,21.64,-32.51,24.2325,0.0,1782.417,0.08000000000000185,100.0,27.867,26.744,42.838,41.54,0.0,0.0,100.0,0.0,0.0,0.0,0.0,3092.285714285714,2972.8,4081.125,4059.9,305.3055,305.353,314.87275,314.81125,21.8315,20.5446,21.8265,21.3589,314.999998,314.999998,324.999988,324.999988,99.55857142857143,99.50735,99.56572857142856,99.54571428571428,0.0040000000000000036,-0.11566666666666658,-0.1961666666666666,0.03440000000000021,-0.036666666666668846,-0.05666666666667197,1.524,1.557,37.447,29.4035,37.416,34.4935,56.09,34.711,59.209,51.8595,54.022,33.882999999999996,57.827,50.207499999999996,53.195,33.456,57.778,49.626333333333335,-0.06349999999999989,-0.07500000000000018,0.10378000000000001,0.10879000000000001,0.0,208.01999999999998,207.94,204.93333333333334,204.93333333333334,0.0,0.0
7,0.0,0.0,0.0,1.0,1.0,0.0,0.0,1.0,0.0,100.0,1.0,1.1856,26.0,0.0,0.0,0.0,65.999997,0.0,26.0,26.0,26.0,26.0,-0.07187500000000001,0.28200000000000003,0.03065,293.274,-2.61,-2.752222222222222,-1.5157500000000002,-1.625,-252.07,216.19,190.847625,0.0,0.0,0.0,0.0,0.01533333333333331,-5.498166666666667,-5.498166666666667,-0.5339,0.10199999999999998,-0.04822222222222239,1.198,66.555,-0.06729999999999992,-0.22375,0.3440000000000003,100.0,1.0,1.0,205.38666666666666,0.0,0.0,0.0,0.0,0.0,0.0,0.0,8705.5,0.0,55.0,5.0,239.57,1.0,0.0,0.0,0.0,0.0,0.0,0.0,0.0,0.35999999999999943,0.35999999999999943,0.0,0.0,1.0,55.0,616.79921,10000.0,85.000001,85.000001,85.000001,85.000001,395.0,0.0,0.0,0.0,1.0,166.665,52.887,52.887,48.843,48.843,34.0,-25.3325,22.656666666666666,-30.21666666666667,25.6125,0.0,1782.365,-0.23999999999999844,100.0,28.016,26.873,42.826,41.784,0.0,0.0,100.0,0.0,0.0,0.0,0.0,3120.5714285714284,3005.6,3998.75,4054.8,305.175,305.23633333333333,315.03225,314.773,21.842,20.5501,21.8376,21.3684,314.999998,314.999998,324.999988,324.999988,99.55857142857143,99.50735,99.56588571428571,99.54587142857143,0.03474999999999984,-0.08833333333333337,-0.17499999999999993,0.04940000000000011,-0.04333333333332945,-0.05333333333332746,1.5350000000000001,1.5505,37.512,29.438000000000002,37.485,34.5525,56.074,34.753,59.2515,51.924,54.007999999999996,33.9215,57.8665,50.2695,53.18,33.4925,57.814499999999995,49.687333333333335,-0.09599999999999986,-0.05449999999999999,0.10087,0.10694500000000001,0.0,208.47500000000002,208.44,205.38666666666666,205.38666666666666,0.0,0.0
8,0.0,0.0,0.0,1.0,1.0,0.0,0.0,1.0,0.0,100.0,1.0,1.1856,26.0,0.0,0.0,0.0,65.999997,0.0,26.0,26.0,26.0,26.0,-0.036625,0.29980000000000007,0.035175000000000005,293.457,-2.6946,-2.7173333333333334,-1.4978,-1.576,-248.88,216.16500000000002,190.828125,0.0,0.0,0.0,0.0,0.017166666666666552,-5.498166666666667,-5.498166666666667,-0.5368,-0.6385000000000001,-0.032333333333333325,0.7170000000000001,66.693,-0.048799999999999955,-0.21565,-0.06200000000000028,100.0,1.0,1.0,205.7266666666667,0.0,0.0,0.0,0.0,0.0,0.0,0.0,8720.0,0.0,55.0,5.0,240.06333333333333,0.0,0.0,0.0,0.0,0.0,0.0,0.0,0.0,0.40800000000000125,0.40800000000000125,0.0,0.0,0.0,55.0,616.79921,10000.0,85.000001,85.000001,85.000001,85.000001,395.0,0.0,0.0,0.0,1.0,166.665,53.619,53.619,48.187,48.187,34.0,-23.424999999999997,22.935000000000002,-29.12,27.009999999999998,0.0,1782.316,-0.375,100.0,27.5,26.785,42.819,41.897,0.0,0.0,100.0,0.0,0.0,0.0,0.0,2947.142857142857,3018.9,4090.75,4140.8,305.9135,305.3186666666667,314.76625,314.537,21.851,20.5549,21.8475,21.3769,314.999998,314.999998,324.999988,324.999988,99.55858571428571,99.50736666666667,99.56601428571429,99.546,0.052999999999999936,-0.07333333333333336,-0.1386666666666666,0.07420000000000004,-0.036666666666668846,-0.04333333333332945,1.5219999999999998,1.5299999999999998,37.569,29.4685,37.547,34.6055,56.058,34.789,59.289,51.9815,53.992999999999995,33.954499999999996,57.9015,50.3245,53.164,33.524,57.847,49.74133333333333,-0.10349999999999993,-0.046499999999999986,0.09701000000000001,0.10958000000000001,0.0,208.87,208.85500000000002,205.7266666666667,205.7266666666667,0.0,0.0
9,0.0,0.0,0.0,1.0,1.0,0.0,0.0,1.0,0.0,100.0,1.0,1.1856,26.0,0.0,0.0,0.0,65.999997,0.0,26.0,26.0,26.0,26.0,-0.027,0.2924,0.037375,293.091,-2.6221,-2.724333333333333,-1.55285,-1.556888888888889,-245.67000000000002,216.14,190.80825,0.0,0.0,0.0,0.0,0.019033333333333347,-5.498166666666667,-5.498166666666667,-0.541,0.7085,-0.03355555555555556,0.8660000000000001,66.826,-0.030899999999999928,-0.21535,-0.17600000000000016,100.0,1.0,1.0,206.26333333333332,0.0,0.0,0.0,0.0,0.0,0.0,0.0,8742.8,0.0,55.0,5.0,240.54333333333335,1.0,0.0,0.0,0.0,0.0,0.0,0.0,0.0,0.4559999999999995,0.4559999999999995,0.0,0.0,1.0,55.0,616.79921,10000.0,85.000001,85.000001,85.000001,85.000001,395.0,0.0,0.0,0.0,1.0,166.665,52.368,52.368,49.149,49.149,34.0,-24.6425,24.831666666666667,-27.98333333333333,27.6175,0.0,1782.269,-0.5199999999999996,100.0,28.049,27.228,42.443,41.875,0.0,0.0,100.0,0.0,0.0,0.0,0.0,3265.5714285714284,3093.8,3998.125,4108.0,304.776,304.99,315.151,314.72375,21.8603,20.56,21.8572,21.3852,314.999998,314.999998,324.999988,324.999988,99.5586,99.50736666666667,99.56614285714285,99.54612857142857,0.08150000000000013,-0.04799999999999993,-0.1256666666666666,0.10220000000000007,-0.03999999999999915,-0.060000000000002274,1.5745,1.5724999999999998,37.626999999999995,29.5,37.607,34.6575,56.047,34.826,59.323499999999996,52.0375,53.980999999999995,33.9885,57.9335,50.3785,53.152,33.557,57.876,49.794,-0.119,-0.033500000000000085,0.101135,0.10851500000000001,0.0,209.305,209.305,206.26333333333332,206.26333333333332,0.0,0.0
10,0.0,0.0,0.0,1.0,1.0,0.0,0.0,1.0,0.0,100.0,1.0,1.1856,26.0,0.0,0.0,0.0,65.999997,0.0,26.0,26.0,26.0,26.0,0.013375,0.2711000000000001,-0.016,293.015,-2.7069,-2.703333333333333,-1.5391,-1.5322222222222222,-242.26,216.1125,190.787625,0.0,0.0,0.0,0.0,0.02103333333333335,-5.498166666666667,-5.498166666666667,-0.5198,-0.5265,0.009666666666666712,0.39400000000000013,66.973,-0.008000000000000007,-0.209425,-0.524,100.0,1.0,1.0,206.50666666666666,0.0,0.0,0.0,0.0,0.0,0.0,0.0,8753.1,0.0,55.0,5.0,241.07333333333332,0.0,0.0,0.0,0.0,0.0,0.0,1.0,0.0,0.5069999999999979,0.5069999999999979,0.0,0.0,0.0,55.0,616.79921,10000.0,85.000001,85.000001,85.000001,85.000001,395.0,0.0,0.0,0.0,1.0,166.665,53.513,53.513,47.653,47.653,34.0,-21.7875,22.891666666666666,-30.259999999999998,29.5875,0.0,1782.217,-0.5949999999999989,100.0,27.651,27.343,42.805,42.732,0.0,0.0,100.0,0.0,0.0,0.0,0.0,2884.857142857143,2873.3,4280.5,4262.0,306.1415,305.54566666666665,314.399,314.1855,21.87,20.5653,21.8678,21.3944,314.999998,314.999998,324.999988,324.999988,99.5586,99.50738333333334,99.56628571428571,99.54628571428572,0.08174999999999999,-0.04533333333333334,-0.11683333333333334,0.1097999999999999,-0.04333333333332945,-0.03999999999999915,1.479,1.4705,37.688,29.533,37.673,34.715,56.034,34.8625,59.365,52.102000000000004,53.969,34.0225,57.972,50.4405,53.138999999999996,33.589,57.912,49.85466666666667,-0.12199999999999989,-0.03000000000000025,0.10477,0.10843000000000001,0.0,209.73000000000002,209.765,206.50666666666666,206.50666666666666,0.0,0.0
11,0.0,0.0,0.0,1.0,1.0,0.0,0.0,1.0,0.0,100.0,1.0,1.1856,26.0,0.0,0.0,0.0,65.999997,0.0,26.0,26.0,26.0,26.0,0.052875,0.29669999999999996,-0.09375,293.533,-2.7121,-2.6833333333333336,-1.5885500000000001,-1.521777777777778,-238.64,216.08249999999998,190.765625,0.0,0.0,0.0,0.0,0.022599999999999953,-5.498166666666667,-5.498166666666667,-0.5607,0.052999999999999936,0.030777777777777793,-0.825,67.12,0.014800000000000146,-0.233025,-0.637999999999999,100.0,1.0,1.0,207.26666666666665,0.0,0.0,0.0,0.0,0.0,0.0,0.0,8785.3,0.0,55.0,5.0,241.60333333333335,1.0,0.0,0.0,0.0,0.0,0.0,1.0,0.0,0.5609999999999999,0.5609999999999999,0.0,0.0,1.0,55.0,616.79921,10000.0,85.000001,85.000001,85.000001,85.000001,395.0,0.0,0.0,0.0,1.0,166.665,52.902,52.902,49.225,49.225,34.0,-22.5225,25.608333333333334,-24.45,26.637500000000003,0.0,1782.164,-0.6449999999999996,100.0,27.388,27.582,42.16,42.547,0.0,0.0,100.0,0.0,0.0,0.0,0.0,3089.857142857143,3074.2,3788.875,3873.1000000000004,305.553,304.881,315.71125,315.2385,21.8801,20.571,21.8786,21.4039,314.999998,314.999998,324.999988,324.999988,99.55861428571428,99.50738333333334,99.56644285714286,99.54642857142858,0.1080000000000001,-0.02100000000000002,-0.08583333333333332,0.13359999999999994,-0.061666666666667425,-0.060000000000002274,1.6545,1.624,37.751000000000005,29.569,37.741,34.774,56.019,34.903,59.400999999999996,52.1655,53.955,34.0595,58.0055,50.5015,53.123999999999995,33.6245,57.942,49.91433333333333,-0.13250000000000006,-0.028500000000000192,0.10283500000000001,0.10574000000000001,0.0,210.18,210.21,207.26666666666665,207.26666666666665,0.0,0.0
12,0.0,0.0,0.0,1.0,1.0,0.0,0.0,1.0,0.0,100.0,1.0,1.1856,26.0,0.0,0.0,0.0,65.999997,0.0,26.0,26.0,26.0,26.0,0.058125,0.2962,0.0385,292.877,-2.7292,-2.679777777777778,-1.5571000000000002,-1.5255555555555558,-235.41,216.0575,190.74475,0.0,0.0,0.0,0.0,0.025466666666666526,-5.498166666666667,-5.498166666666667,-0.5443,0.263,0.017777777777777892,-0.7889999999999999,67.257,0.03160000000000007,-0.206125,-0.6619999999999999,100.0,1.0,1.0,207.45333333333332,0.0,0.0,0.0,0.0,0.0,0.0,0.0,8793.2,0.0,55.0,5.0,242.09333333333336,0.0,0.0,0.0,0.0,0.0,0.0,1.0,0.0,0.6089999999999982,0.6089999999999982,0.0,0.0,0.0,55.0,616.79921,10000.0,85.000001,85.000001,85.000001,85.000001,395.0,0.0,0.0,0.0,1.0,166.665,52.734,52.734,47.852000000000004,47.852000000000004,34.0,-22.6375,26.328333333333333,-27.78333333333333,31.0775,0.0,1782.116,-0.5249999999999986,100.0,27.314,27.755,42.245000000000005,42.603,0.0,0.0,100.0,0.0,0.0,0.0,0.0,3129.142857142857,3116.0,4246.375,4192.2,305.4225,304.7796666666667,314.56375,314.411,21.8891,20.5762,21.8884,21.412399999999998,314.999998,314.999998,324.999988,324.999988,99.55862857142857,99.5074,99.56658571428571,99.54655714285714,0.11699999999999999,-0.01200000000000001,-0.07650000000000001,0.15480000000000005,-0.05666666666667197,-0.03999999999999915,1.5194999999999999,1.5015,37.807,29.601,37.802,34.827,56.007999999999996,34.9385,59.438,52.2235,53.944,34.0925,58.04,50.557,53.111999999999995,33.656,57.9735,49.969,-0.12250000000000005,-0.028000000000000025,0.10683500000000001,0.11553000000000001,0.0,210.61,210.64499999999998,207.45333333333332,207.45333333333332,0.0,0.0
13,0.0,0.0,0.0,1.0,1.0,0.0,0.0,1.0,0.0,100.0,1.0,1.1856,26.0,0.0,0.0,0.0,65.999997,0.0,26.0,26.0,26.0,26.0,0.081625,0.28259999999999996,0.036425,292.557,-2.7401999999999997,-2.67,-1.5918999999999999,-1.5066666666666668,-232.18,216.035,190.724375,0.0,0.0,0.0,0.0,0.026899999999999924,-5.498166666666667,-5.498166666666667,-0.5393,-0.11050000000000004,0.025777777777777677,-0.5069999999999999,67.391,0.0403,-0.21575,-0.8279999999999994,100.0,1.0,1.0,207.82999999999998,0.0,0.0,0.0,0.0,0.0,0.0,0.0,8809.1,0.0,55.0,5.0,242.57666666666665,1.0,0.0,0.0,0.0,0.0,0.0,1.0,0.0,0.657,0.657,0.0,0.0,1.0,55.0,616.79921,10000.0,85.000001,85.000001,85.000001,85.000001,395.0,0.0,0.0,0.0,1.0,333.33500000000004,52.505,52.505,47.913,47.913,34.0,-21.7725,26.965,-27.66333333333333,32.082499999999996,0.0,1782.065,-0.8299999999999983,100.0,27.633,27.933,42.467,43.123000000000005,0.0,0.0,100.0,0.0,0.0,0.0,0.0,3154.714285714286,3090.5,4195.25,4286.7,305.368,304.84833333333336,314.64825,314.15925,21.8982,20.5814,21.8983,21.421,314.999998,314.999998,324.999988,324.999988,99.55864285714286,99.5074,99.56671428571428,99.5467,0.14300000000000024,0.011666666666666714,-0.06999999999999995,0.15900000000000003,-0.045000000000001705,-0.04833333333333201,1.5,1.4645000000000001,37.863,29.633499999999998,37.864000000000004,34.8815,55.998000000000005,34.977000000000004,59.4765,52.288,53.934,34.1275,58.0755,50.619,53.101,33.69,58.006,50.03,-0.14549999999999996,-0.0045000000000001705,0.10616500000000001,0.11042,0.0,211.015,211.06,207.82999999999998,207.82999999999998,0.0,0.0
14,0.0,0.0,0.0,1.0,1.0,0.0,0.0,1.0,0.0,100.0,1.0,1.1856,26.0,0.0,0.0,0.0,65.999997,0.0,26.0,26.0,26.0,26.0,0.09875,0.27470000000000017,-0.008275000000000001,292.816,-2.7352,-2.6142222222222222,-1.60095,-1.5084444444444445,-228.74,216.0125,190.703125,0.0,0.0,0.0,0.0,0.028899999999999926,-5.498166666666667,-5.498166666666667,-0.5489,-0.09499999999999997,0.056111111111111,1.295,67.53,0.052000000000000046,-0.22805,-1.0420000000000007,100.0,1.0,1.0,208.33333333333331,0.0,0.0,0.0,0.0,0.0,0.0,0.0,8830.5,0.0,55.0,5.0,243.07999999999998,0.0,0.0,0.0,0.0,0.0,0.0,1.0,0.0,0.7079999999999984,0.7079999999999984,0.0,0.0,0.0,55.0,616.79921,10000.0,85.000001,85.000001,85.000001,85.000001,395.0,0.0,0.0,0.0,1.0,166.665,52.612,52.612,48.111,48.111,34.0,-19.31,28.668333333333333,-23.773333333333333,32.665,0.0,1782.017,-0.9199999999999982,100.0,27.669,27.875,42.493,43.209,0.0,0.0,100.0,0.0,0.0,0.0,0.0,2916.142857142857,3278.8,3935.75,4227.1,305.879,304.4576666666667,315.218,314.40875,21.9077,20.5869,21.9086,21.4301,314.999998,314.999998,324.999988,324.999988,99.55865714285714,99.5074,99.56685714285715,99.54684285714286,0.16075000000000017,0.024666666666666837,-0.03466666666666662,0.1876,-0.01833333333333087,-0.06333333333333258,1.5735000000000001,1.5135,37.923,29.668,37.929,34.9385,55.989000000000004,35.0125,59.510999999999996,52.347,53.925,34.161,58.1075,50.676,53.091,33.722,58.035,50.08566666666667,-0.15049999999999986,-0.008999999999999897,0.10108,0.114125,0.0,211.42000000000002,211.51999999999998,208.33333333333331,208.33333333333331,0.0,0.0
15,0.0,0.0,0.0,1.0,1.0,0.0,0.0,1.0,0.0,100.0,1.0,1.1856,26.0,0.0,0.0,0.0,65.999997,0.0,26.0,26.0,26.0,26.0,0.12687500000000002,0.29410000000000003,-0.062200000000000005,292.831,-2.7513,-2.6277777777777778,-1.6276000000000002,-1.510888888888889,-225.29,215.99,190.681375,0.0,0.0,0.0,0.0,0.030899999999999928,-5.498166666666667,-5.498166666666667,-0.5384,0.1895,0.08233333333333315,-0.766,67.67,0.06380000000000008,-0.20797500000000002,-1.104,100.0,1.0,1.0,208.73333333333335,0.0,0.0,0.0,0.0,0.0,0.0,0.0,8847.5,0.0,55.0,5.0,243.58666666666664,1.0,0.0,0.0,0.0,0.0,0.0,1.0,0.0,0.7590000000000003,0.7590000000000003,0.0,0.0,1.0,55.0,616.79921,10000.0,85.000001,85.000001,85.000001,85.000001,395.0,0.0,0.0,0.0,1.0,166.665,52.887,52.887,48.08,48.08,34.0,-18.515,27.721666666666668,-24.433333333333334,33.769999999999996,0.0,1781.965,-0.9899999999999984,100.0,27.483,28.09,42.161,43.456,0.0,0.0,100.0,0.0,0.0,0.0,0.0,2858.4285714285716,3106.2,4041.0,4315.9,306.237,304.725,315.1625,314.0505,21.9171,20.5925,21.919,21.4393,314.999998,314.999998,324.999988,324.999988,99.55867142857143,99.5074,99.567,99.54698571428571,0.16825,0.03299999999999992,-0.02833333333333332,0.18640000000000012,-0.04999999999999716,-0.04999999999999716,1.5524999999999998,1.504,37.982,29.703,37.992999999999995,34.9955,55.979,35.0515,59.546,52.4105,53.916,34.1965,58.14,50.7375,53.08,33.7565,58.064499999999995,50.14633333333333,-0.15549999999999997,0.0,0.10497500000000001,0.109725,0.0,211.88,211.95,208.73333333333335,208.73333333333335,0.0,0.0
16,0.0,0.0,0.0,1.0,1.0,0.0,0.0,1.0,0.0,100.0,1.0,1.1856,26.0,0.0,0.0,0.0,65.999997,0.0,26.0,26.0,26.0,26.0,0.121125,0.27500000000000013,-0.005275,292.725,-2.7986,-2.586333333333333,-1.5972,-1.5173333333333332,-221.84,215.9725,190.65925,0.0,0.0,0.0,0.0,0.03289999999999993,-5.498166666666667,-5.498166666666667,-0.5637,-0.5695000000000001,0.06611111111111101,0.008000000000000007,67.81,0.07600000000000007,-0.2272,-1.2599999999999998,100.0,1.0,1.0,209.20333333333332,0.0,0.0,0.0,0.0,0.0,0.0,0.0,8867.4,0.0,55.0,5.0,244.09,0.0,0.0,0.0,0.0,0.0,0.0,1.0,0.0,0.8099999999999987,0.8099999999999987,0.0,0.0,0.0,55.0,616.79921,10000.0,85.000001,85.000001,85.000001,85.000001,395.0,0.0,0.0,0.0,1.0,166.665,52.399,52.399,48.019,48.019,34.0,-20.215,29.99,-22.363333333333333,33.167500000000004,0.0,1781.914,-0.9050000000000011,100.0,27.384,28.036,42.507,43.424,0.0,0.0,100.0,0.0,0.0,0.0,0.0,3043.0,3359.2,3886.625,4122.9,305.6785,304.24266666666665,315.35425,314.62125,21.9263,20.5981,21.9294,21.4484,314.999998,314.999998,324.999988,324.999988,99.55871428571429,99.5074,99.56714285714285,99.54714285714286,0.17174999999999985,0.043333333333333224,-0.014666666666666606,0.2145999999999999,-0.04833333333333201,-0.051666666666669414,1.5764999999999998,1.5305,38.039,29.738,38.059,35.0525,55.966,35.091499999999996,59.584,52.4725,53.903999999999996,34.2335,58.1755,50.797,53.067,33.792,58.097,50.205,-0.1439999999999999,-0.009500000000000064,0.10827,0.10467000000000001,0.0,212.26999999999998,212.36,209.20333333333332,209.20333333333332,0.0,0.0
17,0.0,0.0,0.0,1.0,1.0,0.0,0.0,1.0,0.0,100.0,1.0,1.1856,26.0,0.0,0.0,0.0,65.999997,0.0,26.0,26.0,26.0,26.0,0.116625,0.2874000000000001,-0.006925000000000001,292.374,-2.759,-2.5677777777777777,-1.6389,-1.479111111111111,-218.57999999999998,215.96,190.638,0.0,0.0,0.0,0.0,0.03479999999999994,-5.498166666666667,-5.498166666666667,-0.5485,0.44999999999999996,0.048222222222222166,0.9380000000000002,67.941,0.08150000000000013,-0.20565,-1.1559999999999997,100.0,1.0,1.0,209.51999999999998,0.0,0.0,0.0,0.0,0.0,0.0,0.0,8880.7,0.0,55.0,5.0,244.56,1.0,0.0,0.0,0.0,0.0,0.0,1.0,0.0,0.8580000000000005,0.8580000000000005,0.0,0.0,1.0,55.0,616.79921,10000.0,85.000001,85.000001,85.000001,85.000001,395.0,0.0,0.0,0.0,1.0,166.665,52.414,52.414,47.638,47.638,34.0,-19.105,28.186666666666667,-25.61,35.144999999999996,0.0,1781.866,-0.9450000000000003,100.0,27.872,28.279,42.396,43.411,0.0,0.0,100.0,0.0,0.0,0.0,0.0,3001.714285714286,3182.2,4253.375,4369.9,305.6855,304.78366666666665,314.552,314.125,21.935200000000002,20.6035,21.9391,21.457,314.999998,314.999998,324.999988,324.999988,99.55872857142857,99.50741666666667,99.56727142857143,99.54728571428572,0.1847500000000002,0.04733333333333323,-0.014499999999999957,0.21679999999999988,-0.023333333333326323,-0.05333333333332746,1.536,1.4975,38.095,29.7715,38.120000000000005,35.106,55.959,35.129999999999995,59.618,52.5315,53.897,34.269,58.207,50.854,53.059,33.826,58.1255,50.260666666666665,-0.14749999999999996,-0.00749999999999984,0.10821000000000001,0.11611,0.0,212.69,212.8,209.51999999999998,209.51999999999998,0.0,0.0
18,0.0,0.0,0.0,1.0,1.0,0.0,0.0,1.0,0.0,100.0,1.0,1.1856,26.0,0.0,0.0,0.0,65.999997,0.0,26.0,26.0,26.0,26.0,0.124875,0.276,0.0005250000000000001,292.374,-2.7961,-2.538333333333333,-1.6588,-1.420777777777778,-215.32,215.9475,190.616875,0.0,0.0,0.0,0.0,0.036699999999999955,-5.498166666666667,-5.498166666666667,-0.5617,-0.5005,0.07566666666666677,1.028,68.071,0.08240000000000003,-0.22510000000000002,-1.3200000000000003,100.0,1.0,1.0,209.96333333333334,0.0,0.0,0.0,0.0,0.0,0.0,0.0,8899.6,0.0,55.0,5.0,245.02666666666664,0.0,0.0,0.0,0.0,0.0,0.0,1.0,0.0,0.9059999999999988,0.9059999999999988,0.0,0.0,0.0,55.0,616.79921,10000.0,85.000001,85.000001,85.000001,85.000001,395.0,0.0,0.0,0.0,1.0,166.665,52.216,52.216,47.638,47.638,34.0,-18.8275,31.31833333333333,-23.836666666666666,32.980000000000004,0.0,1781.818,-1.2049999999999983,100.0,27.655,28.203,42.67,43.812,0.0,0.0,100.0,0.0,0.0,0.0,0.0,3005.0,3411.5,3994.25,4237.5,305.754,304.11966666666666,315.13925,314.40725,21.944,20.6087,21.948999999999998,21.4657,314.999998,314.999998,324.999988,324.999988,99.55874285714286,99.50741666666667,99.56741428571429,99.54742857142857,0.1977500000000001,0.07233333333333336,-0.011833333333333362,0.21540000000000004,-0.05333333333332746,-0.04833333333333201,1.557,1.5175,38.15,29.804499999999997,38.181,35.1605,55.95,35.168,59.6535,52.592,53.888,34.3045,58.24,50.9125,53.049,33.86,58.155,50.318,-0.17399999999999993,0.01749999999999985,0.10302000000000001,0.10729500000000002,0.0,213.10000000000002,213.16,209.96333333333334,209.96333333333334,0.0,0.0
19,0.0,0.0,0.0,1.0,1.0,0.0,0.0,1.0,0.0,100.0,1.0,1.1856,26.0,0.0,0.0,0.0,65.999997,0.0,26.0,26.0,26.0,26.0,0.16725,0.2872000000000001,0.066875,291.84,-2.7165,-2.635,-1.5939,-1.4033333333333333,-211.64,215.94,190.593,0.0,0.0,0.0,0.0,0.038833333333333386,-5.498166666666667,-5.498166666666667,-0.5462,0.8025,0.08633333333333315,0.9159999999999999,68.217,0.09330000000000016,-0.209875,-1.7479999999999993,100.0,1.0,1.0,210.33666666666667,0.0,0.0,0.0,0.0,0.0,0.0,0.0,8915.5,0.0,55.0,5.0,245.55,1.0,0.0,0.0,0.0,0.0,0.0,1.0,0.0,0.9600000000000009,0.9600000000000009,0.0,0.0,1.0,55.0,616.79921,10000.0,85.000001,85.000001,85.000001,85.000001,395.0,0.0,0.0,0.0,1.0,166.665,51.819,51.819,47.272,47.272,34.0,-16.275,31.706666666666667,-23.56,36.7525,0.0,1781.765,-1.5599999999999987,100.0,28.153,28.765,42.475,43.882,0.0,0.0,100.0,0.0,0.0,0.0,0.0,2937.714285714286,3289.6,4153.625,4589.5,305.777,304.2486666666667,314.70575,313.6055,21.954,20.6149,21.9599,21.4754,314.999998,314.999998,324.999988,324.999988,99.55877142857143,99.50743333333334,99.56757142857143,99.54757142857143,0.23275000000000023,0.08333333333333326,0.0018333333333333535,0.22340000000000004,-0.036666666666668846,-0.054999999999999716,1.5135,1.4535,38.213,29.8435,38.248999999999995,35.2215,55.944,35.215,59.6905,52.66,53.882,34.348,58.274,50.978,53.041,33.9015,58.186,50.382666666666665,-0.20500000000000007,0.03299999999999992,0.11359500000000002,0.10305,0.0,213.535,213.685,210.33666666666667,210.33666666666667,0.0,0.0
20,0.0,0.0,0.0,1.0,1.0,0.0,0.0,1.0,0.0,100.0,1.0,1.1856,26.0,0.0,0.0,0.0,65.999997,0.0,26.0,26.0,26.0,26.0,0.214625,0.28070000000000017,0.049925000000000004,292.313,-2.8229,-2.5812222222222223,-1.6073,-1.5173333333333332,-208.36,215.9375,190.572,0.0,0.0,0.0,0.0,0.0407333333333334,-5.498166666666667,-5.498166666666667,-0.5579000000000001,-1.3014999999999999,0.0952222222222221,0.5270000000000001,68.34700000000001,0.10919999999999996,-0.225075,-2.0539999999999994,100.0,1.0,1.0,210.7,0.0,0.0,0.0,0.0,0.0,0.0,0.0,8930.7,0.0,55.0,5.0,246.02333333333334,0.0,0.0,0.0,0.0,0.0,0.0,0.0,0.0,1.0079999999999991,1.0079999999999991,0.0,0.0,0.0,55.0,616.79921,10000.0,85.000001,85.000001,85.000001,85.000001,395.0,0.0,0.0,0.0,1.0,333.33500000000004,52.689,52.689,47.012,47.012,34.0,-16.015,31.575,-21.58,37.057500000000005,0.0,1781.715,-1.5300000000000011,100.0,27.483,28.405,42.896,44.327,0.0,0.0,100.0,0.0,0.0,0.0,0.0,2795.285714285714,3294.5,4015.75,4326.7,306.441,304.43966666666665,314.97425,314.0735,21.9626,20.6203,21.9699,21.4842,314.999998,314.999998,324.999988,324.999988,99.55878571428572,99.50745,99.5677,99.54772857142858,0.23424999999999985,0.09766666666666679,0.02633333333333332,0.24219999999999997,-0.01833333333333087,-0.054999999999999716,1.5154999999999998,1.4594999999999998,38.266,29.8765,38.312,35.2765,55.935,35.2555,59.7275,52.7215,53.872,34.3855,58.3085,51.0375,53.031,33.9375,58.2175,50.441,-0.20199999999999996,0.045499999999999874,0.10885500000000001,0.10078500000000001,0.0,213.875,214.035,210.7,210.7,0.0,0.0
21,0.0,0.0,0.0,1.0,1.0,0.0,0.0,1.0,0.0,100.0,1.0,1.1856,26.0,0.0,0.0,0.0,65.999997,0.0,26.0,26.0,26.0,26.0,0.155125,0.26560000000000006,-0.059475,292.557,-2.7931,-2.630333333333333,-1.6728,-1.475111111111111,-205.07,215.94,190.550125,0.0,0.0,0.0,0.0,0.0426333333333333,-5.498166666666667,-5.498166666666667,-0.5789000000000001,0.5609999999999999,0.07866666666666666,0.09299999999999997,68.471,0.12830000000000008,-0.22475,-1.7279999999999998,100.0,1.0,1.0,211.3,0.0,0.0,0.0,0.0,0.0,0.0,0.0,8956.2,0.0,55.0,5.0,246.46666666666667,1.0,0.0,0.0,0.0,0.0,0.0,0.0,0.0,1.056000000000001,1.056000000000001,0.0,0.0,1.0,55.0,616.79921,10000.0,85.000001,85.000001,85.000001,85.000001,395.0,0.0,0.0,0.0,1.0,333.33500000000004,52.155,52.155,48.141,48.141,34.0,-19.21,29.863333333333333,-21.216666666666665,34.3925,0.0,1781.667,-0.46999999999999886,100.0,27.797,28.636,42.164,43.896,0.0,0.0,100.0,0.0,0.0,0.0,0.0,2942.285714285714,3285.9,3945.875,4118.3,305.883,304.37033333333335,315.34225,314.717,21.9714,20.625799999999998,21.9794,21.4928,314.999998,314.999998,324.999988,324.999988,99.55881428571429,99.50745,99.56782857142858,99.54787142857143,0.17899999999999983,0.044666666666666854,0.031500000000000083,0.2567999999999999,-0.04999999999999716,-0.03833333333332689,1.616,1.5594999999999999,38.321,29.911,38.370999999999995,35.329499999999996,55.928,35.297,59.7575,52.778999999999996,53.864999999999995,34.424,58.336,51.0925,53.022999999999996,33.9745,58.242,50.495333333333335,-0.119,-0.03600000000000003,0.109145,0.103535,0.0,214.34,214.445,211.3,211.3,0.0,0.0
22,0.0,0.0,0.0,1.0,1.0,0.0,0.0,1.0,0.0,100.0,1.0,1.1856,26.0,0.0,0.0,0.0,65.999997,0.0,26.0,26.0,26.0,26.0,0.1295,0.26039999999999996,0.002375,292.145,-2.7239,-2.6365555555555558,-1.6565,-1.476,-201.57999999999998,215.945,190.5265,0.0,0.0,0.0,0.0,0.04466666666666652,-5.498166666666667,-5.498166666666667,-0.5574,0.019000000000000017,0.07122222222222208,-0.917,68.61,0.11680000000000001,-0.207375,-0.39999999999999947,100.0,1.0,1.0,211.5233333333333,0.0,0.0,0.0,0.0,0.0,0.0,0.0,8965.7,0.0,55.0,5.0,246.96666666666667,0.0,0.0,0.0,0.0,0.0,0.0,0.0,0.0,1.1069999999999993,1.1069999999999993,0.0,0.0,0.0,55.0,616.79921,10000.0,85.000001,85.000001,85.000001,85.000001,395.0,0.0,0.0,0.0,1.0,166.665,52.429,52.429,47.104,47.104,34.0,-20.794999999999998,25.355,-25.733333333333334,35.4375,0.0,1781.616,0.5399999999999991,100.0,27.693,28.767,42.584,44.203,0.0,0.0,100.0,0.0,0.0,0.0,0.0,2923.4285714285716,3097.3,4232.125,4358.0,306.0285,304.7456666666667,314.63625,314.056,21.9807,20.6315,21.9899,21.5021,314.999998,314.999998,324.999988,324.999988,99.55884285714286,99.50745,99.56797142857143,99.54801428571429,0.12024999999999997,-0.025666666666666615,-0.011499999999999955,0.21879999999999988,-0.051666666666669414,-0.036666666666668846,1.4865,1.472,38.379000000000005,29.947,38.437,35.388,55.917,35.3365,59.7965,52.844,53.855000000000004,34.460499999999996,58.3725,51.1555,53.010999999999996,34.0095,58.275,50.55733333333333,-0.04349999999999987,-0.11649999999999983,0.10906500000000001,0.10395000000000001,0.0,214.81,214.825,211.5233333333333,211.5233333333333,0.0,0.0
23,0.0,0.0,0.0,1.0,1.0,0.0,0.0,1.0,0.0,100.0,1.0,1.1856,26.0,0.0,0.0,0.0,65.999997,0.0,26.0,26.0,26.0,26.0,0.044125,0.25950000000000006,-0.02135,292.191,-2.7242,-2.618333333333333,-1.6802000000000001,-1.566,-198.07999999999998,215.95499999999998,190.503,0.0,0.0,0.0,0.0,0.046699999999999964,-5.498166666666667,-5.498166666666667,-0.5778,-0.19799999999999995,0.0431111111111111,0.038000000000000256,68.743,0.06640000000000001,-0.2335,0.6560000000000006,100.0,1.0,1.0,212.06666666666666,0.0,0.0,0.0,0.0,0.0,0.0,0.0,8988.8,0.0,55.0,5.0,247.45,1.0,0.0,0.0,0.0,0.0,0.0,0.0,0.0,1.1580000000000013,1.1580000000000013,0.0,0.0,1.0,55.0,616.79921,10000.0,85.000001,85.000001,85.000001,85.000001,395.0,0.0,0.0,0.0,1.0,333.33500000000004,51.650999999999996,51.650999999999996,48.248,48.248,34.0,-24.43,25.22833333333333,-25.963333333333335,29.655,0.0,1781.565,0.7800000000000011,100.0,28.316,28.493000000000002,42.945,44.098,0.0,0.0,100.0,0.0,0.0,0.0,0.0,3173.142857142857,3239.4,3931.25,3972.5,305.133,304.585,315.37325,314.97875,21.990099999999998,20.6373,22.0004,21.5113,314.999998,314.999998,324.999988,324.999988,99.55884285714286,99.50746666666667,99.56812857142857,99.54815714285715,0.08975,-0.04799999999999993,-0.05833333333333335,0.15979999999999994,-0.02833333333332888,-0.06833333333332803,1.5364999999999998,1.5615,38.438,29.983,38.503,35.445499999999996,55.903999999999996,35.3765,59.832499999999996,52.907,53.842,34.4975,58.406,51.216,52.997,34.045500000000004,58.305,50.61666666666667,-0.01949999999999985,-0.1419999999999999,0.10450000000000001,0.10254,0.0,215.22500000000002,215.2,212.06666666666666,212.06666666666666,0.0,0.0
24,0.0,0.0,0.0,1.0,1.0,0.0,0.0,1.0,0.0,100.0,1.0,1.1856,26.0,0.0,0.0,0.0,65.999997,0.0,26.0,26.0,26.0,26.0,-0.02,0.27360000000000007,-0.002725,292.419,-2.7225,-2.6528888888888886,-1.5804,-1.5298888888888889,-194.57,215.965,190.479,0.0,0.0,0.0,0.0,0.048766666666666514,-5.498166666666667,-5.498166666666667,-0.5830000000000001,-0.649,0.023777777777777898,-0.5389999999999999,68.88,0.01200000000000001,-0.218025,1.0860000000000003,100.0,1.0,1.0,212.36666666666667,0.0,0.0,0.0,0.0,0.0,0.0,0.0,9001.4,0.0,55.0,5.0,247.94,0.0,0.0,0.0,0.0,0.0,0.0,0.0,0.0,1.2089999999999996,1.2089999999999996,0.0,0.0,0.0,55.0,616.79921,10000.0,85.000001,85.000001,85.000001,85.000001,395.0,0.0,0.0,0.0,1.0,166.665,52.917,52.917,47.119,47.119,34.0,-24.09,20.921666666666667,-31.60666666666667,27.6725,0.0,1781.516,0.8099999999999987,100.0,27.947,28.178,43.222,43.775999999999996,0.0,0.0,100.0,0.0,0.0,0.0,0.0,2946.285714285714,2925.2,4304.0,4103.9,305.9955,305.43266666666665,314.422,314.69625,21.9994,20.6427,22.0109,21.5204,314.999998,314.999998,324.999988,324.999988,99.55885714285715,99.50748333333334,99.56827142857144,99.54831428571428,0.04225000000000012,-0.09599999999999997,-0.128,0.10420000000000007,-0.03999999999999915,-0.036666666666668846,1.4905,1.5259999999999998,38.495999999999995,30.017,38.568,35.5025,55.888,35.4155,59.871,52.967,53.827,34.533500000000004,58.4415,51.274,52.980999999999995,34.079499999999996,58.3375,50.67333333333333,-0.016999999999999904,-0.1419999999999999,0.10941500000000001,0.109575,0.0,215.685,215.57999999999998,212.36666666666667,212.36666666666667,0.0,0.0
25,0.0,0.0,0.0,1.0,1.0,0.0,0.0,1.0,0.0,100.0,1.0,1.1856,26.0,0.0,0.0,0.0,65.999997,0.0,26.0,26.0,26.0,26.0,-0.090625,0.26870000000000016,-0.04405,292.145,-2.7466,-2.653777777777778,-1.562,-1.5644444444444443,-191.05,215.9725,190.4535,0.0,0.0,0.0,0.0,0.050799999999999956,-5.498166666666667,-5.498166666666667,-0.6126,0.23050000000000004,-0.0067777777777777715,-0.724,69.011,-0.0361999999999999,-0.22382500000000002,1.3160000000000007,100.0,1.0,1.0,212.92000000000002,0.0,0.0,0.0,0.0,0.0,0.0,0.0,9024.9,0.0,55.0,5.0,248.41333333333336,1.0,0.0,0.0,0.0,0.0,0.0,0.0,0.0,1.259999999999998,1.259999999999998,0.0,0.0,1.0,55.0,616.79921,10000.0,85.000001,85.000001,85.000001,85.000001,395.0,0.0,0.0,0.0,1.0,166.665,51.513999999999996,51.513999999999996,47.958,47.958,34.0,-29.0825,23.04,-29.736666666666668,24.985,0.0,1781.464,0.7950000000000017,100.0,28.401,28.175,43.246,43.178,0.0,0.0,100.0,0.0,0.0,0.0,0.0,3345.0,3332.5,4002.5,3988.3,304.7645,304.37,315.16025,315.0225,22.0089,20.6483,22.0212,21.5294,314.999998,314.999998,324.999988,324.999988,99.55885714285715,99.50748333333334,99.56841428571428,99.54845714285715,0.02375000000000016,-0.1193333333333334,-0.15483333333333338,0.06620000000000004,-0.03833333333332689,-0.054999999999999716,1.553,1.596,38.555,30.052,38.632999999999996,35.559,55.872,35.458,59.906,53.024,53.812,34.573,58.474000000000004,51.329,52.965,34.1175,58.367,50.727000000000004,-0.022499999999999964,-0.14400000000000013,0.102735,0.10253000000000001,0.0,216.085,215.985,212.92000000000002,212.92000000000002,0.0,0.0
26,0.0,0.0,0.0,1.0,1.0,0.0,0.0,1.0,0.0,100.0,1.0,1.1856,26.0,0.0,0.0,0.0,65.999997,0.0,26.0,26.0,26.0,26.0,-0.128875,0.27070000000000016,0.10265,291.092,-2.6634,-2.765777777777778,-1.5852,-1.5864444444444443,-187.73000000000002,215.98000000000002,190.42925,0.0,0.0,0.0,0.0,0.0527333333333333,-5.498166666666667,-5.498166666666667,-0.5693,0.6579999999999999,-0.05444444444444452,0.18400000000000016,69.14,-0.06769999999999998,-0.19605,1.3160000000000007,100.0,1.0,1.0,213.03,0.0,0.0,0.0,0.0,0.0,0.0,0.0,9029.5,0.0,55.0,5.0,248.87666666666667,0.0,0.0,0.0,0.0,0.0,0.0,0.0,0.0,1.3079999999999998,1.3079999999999998,0.0,0.0,0.0,55.0,616.79921,10000.0,85.000001,85.000001,85.000001,85.000001,395.0,0.0,0.0,0.0,1.0,333.33500000000004,51.468,51.468,46.066,46.066,34.0,-28.1025,20.965,-38.79666666666667,27.8925,0.0,1781.415,0.620000000000001,100.0,29.374,28.454,44.202,43.325,0.0,0.0,100.0,0.0,0.0,0.0,0.0,3232.714285714286,3032.4,4653.75,4505.7,304.9555,305.1573333333333,313.599,313.8425,22.0181,20.6537,22.0313,21.5381,314.999998,314.999998,324.999988,324.999988,99.55887142857142,99.5075,99.56857142857143,99.5486,0.007249999999999979,-0.139,-0.18899999999999995,0.033400000000000096,-0.046666666666666856,-0.05666666666667197,1.411,1.4565000000000001,38.613,30.0855,38.696,35.6135,55.86,35.5005,59.9465,53.082,53.801,34.612,58.512,51.3845,52.953,34.155,58.402,50.781,-0.03849999999999998,-0.137,0.10193500000000001,0.111365,0.0,216.53,216.42000000000002,213.03,213.03,0.0,0.0
27,0.0,0.0,0.0,1.0,1.0,0.0,0.0,1.0,0.0,100.0,1.0,1.1856,26.0,0.0,0.0,0.0,65.999997,0.0,26.0,26.0,26.0,26.0,-0.122375,0.24890000000000012,-0.042175000000000004,291.672,-2.6132999999999997,-2.7510000000000003,-1.5627499999999999,-1.6715555555555557,-184.41,215.98250000000002,190.40625,0.0,0.0,0.0,0.0,0.05466666666666653,-5.498166666666667,-5.498166666666667,-0.5999,-1.0465,-0.06788888888888867,0.6470000000000002,69.263,-0.0857,-0.24532500000000002,1.1959999999999997,100.0,1.0,1.0,213.56666666666666,0.0,0.0,0.0,0.0,0.0,0.0,0.0,9052.3,0.0,55.0,5.0,249.32333333333332,1.0,0.0,0.0,0.0,0.0,0.0,0.0,0.0,1.355999999999998,1.355999999999998,0.0,0.0,1.0,55.0,616.79921,10000.0,85.000001,85.000001,85.000001,85.000001,395.0,0.0,0.0,0.0,1.0,333.33500000000004,51.743,51.743,46.753,46.753,34.0,-27.439999999999998,21.09,-33.17666666666667,24.5375,0.0,1781.367,0.5100000000000016,100.0,29.179000000000002,28.079,44.972,43.688,0.0,0.0,100.0,0.0,0.0,0.0,0.0,3183.142857142857,3086.3,4082.5,3987.1000000000004,305.1035,305.1046666666667,314.81275,314.9645,22.027,20.6588,22.0414,21.5469,314.999998,314.999998,324.999988,324.999988,99.55887142857142,99.50751666666666,99.56871428571428,99.54874285714286,0.00024999999999986144,-0.1406666666666666,-0.1991666666666666,0.022399999999999975,-0.026666666666670835,-0.05333333333332746,1.4965000000000002,1.5310000000000001,38.669,30.116999999999997,38.759,35.668,55.845,35.5405,59.9865,53.1385,53.786,34.649,58.5495,51.439,52.938,34.19,58.4365,50.834,-0.04400000000000004,-0.11850000000000005,0.10596000000000001,0.112,0.0,216.825,216.74,213.56666666666666,213.56666666666666,0.0,0.0
28,0.0,0.0,0.0,1.0,1.0,0.0,0.0,1.0,0.0,100.0,1.0,1.1856,26.0,0.0,0.0,0.0,65.999997,0.0,26.0,26.0,26.0,26.0,-0.134625,0.2610000000000001,-0.0349,291.855,-2.6334,-2.732666666666667,-1.5383,-1.630111111111111,-180.67000000000002,215.985,190.37925,0.0,0.0,0.0,0.0,0.0568333333333334,-5.498166666666667,-5.498166666666667,-0.5974,0.6679999999999999,-0.07133333333333347,0.8420000000000001,69.402,-0.09619999999999995,-0.209825,1.0920000000000005,100.0,1.0,1.0,214.02666666666667,0.0,0.0,0.0,0.0,0.0,0.0,0.0,9071.8,0.0,55.0,5.0,249.82,0.0,0.0,0.0,0.0,0.0,0.0,0.0,0.0,1.4100000000000001,1.4100000000000001,0.0,0.0,0.0,55.0,616.79921,10000.0,85.000001,85.000001,85.000001,85.000001,395.0,0.0,0.0,0.0,1.0,166.665,51.894999999999996,51.894999999999996,47.226,47.226,34.0,-27.7225,20.16,-34.41,24.355,0.0,1781.315,0.3200000000000003,100.0,29.235,27.967,44.285,43.081,0.0,0.0,100.0,0.0,0.0,0.0,0.0,3166.142857142857,3005.2,4245.625,4130.0,305.094,305.324,314.648,314.71075,22.0371,20.6646,22.0524,21.5564,314.999998,314.999998,324.999988,324.999988,99.55887142857142,99.50753333333333,99.56885714285714,99.54888571428572,-0.0040000000000000036,-0.1443333333333333,-0.2061666666666666,0.012799999999999923,-0.023333333333326323,-0.06666666666666998,1.5034999999999998,1.5459999999999998,38.732,30.1535,38.827,35.7275,55.831,35.586,60.025,53.198,53.772999999999996,34.691,58.585,51.496,52.924,34.230000000000004,58.469,50.88966666666667,-0.05449999999999999,-0.10749999999999993,0.09858000000000001,0.11108000000000001,0.0,217.315,217.25,214.02666666666667,214.02666666666667,0.0,0.0
29,0.0,0.0,0.0,1.0,1.0,0.0,0.0,1.0,0.0,100.0,1.0,1.1856,26.0,0.0,0.0,0.0,65.999997,0.0,26.0,26.0,26.0,26.0,-0.1155,0.2691000000000001,0.009075,291.55,-2.5857,-2.788777777777778,-1.5473,-1.6066666666666667,-177.32999999999998,215.98250000000002,190.354375,0.0,0.0,0.0,0.0,0.05876666666666652,-5.498166666666667,-5.498166666666667,-0.6077,-0.6759999999999999,-0.06899999999999995,0.7090000000000001,69.528,-0.0928,-0.219675,0.7939999999999996,100.0,1.0,1.0,214.3,0.0,0.0,0.0,0.0,0.0,0.0,0.0,9083.5,0.0,55.0,5.0,250.27333333333334,1.0,0.0,0.0,0.0,0.0,0.0,0.0,0.0,1.4579999999999984,1.4579999999999984,0.0,0.0,1.0,55.0,616.79921,10000.0,85.000001,85.000001,85.000001,85.000001,395.0,0.0,0.0,0.0,1.0,166.665,51.757999999999996,51.757999999999996,46.692,46.692,34.0,-27.927500000000002,21.763333333333335,-34.46,25.4375,0.0,1781.267,0.23000000000000043,100.0,28.948999999999998,27.887999999999998,44.715,43.38,0.0,0.0,100.0,0.0,0.0,0.0,0.0,3274.142857142857,3085.1,4213.875,4197.1,304.8585,304.98333333333335,314.53875,314.507,22.046,20.6697,22.0624,21.5651,314.999998,314.999998,324.999988,324.999988,99.55887142857142,99.50756666666666,99.56901428571429,99.54902857142856,0.003249999999999975,-0.136,-0.20133333333333336,0.026799999999999935,-0.041666666666671404,-0.03999999999999915,1.4665,1.5099999999999998,38.787,30.185499999999998,38.89,35.782,55.815,35.6255,60.064,53.254999999999995,53.757999999999996,34.727000000000004,58.622,51.551,52.908,34.2645,58.503,50.943,-0.0674999999999999,-0.0950000000000002,0.10619500000000001,0.10858000000000001,0.0,217.65,217.57,214.3,214.3,0.0,0.0
30,0.0,0.0,0.0,1.0,1.0,0.0,0.0,1.0,0.0,100.0,1.0,1.1856,26.0,0.0,0.0,0.0,65.999997,0.0,26.0,26.0,26.0,26.0,-0.1085,0.268,0.049175,291.10699999999997,-2.639,-2.7747777777777776,-1.4862,-1.6656666666666669,-173.99,215.97750000000002,190.329375,0.0,0.0,0.0,0.0,0.060699999999999976,-5.498166666666667,-5.498166666666667,-0.6013000000000001,0.7455,-0.0692222222222223,0.9980000000000002,69.649,-0.0826,-0.2151,0.6900000000000004,100.0,1.0,1.0,214.71,0.0,0.0,0.0,0.0,0.0,0.0,0.0,9100.8,0.0,55.0,5.0,250.71333333333334,0.0,0.0,0.0,0.0,0.0,0.0,1.0,0.0,1.5060000000000002,1.5060000000000002,0.0,0.0,0.0,55.0,616.79921,10000.0,85.000001,85.000001,85.000001,85.000001,395.0,0.0,0.0,0.0,1.0,333.33500000000004,50.888,50.888,46.906,46.906,34.0,-29.002499999999998,22.241666666666667,-33.68666666666667,26.4525,0.0,1781.217,0.11500000000000199,100.0,29.813,28.556,44.539,43.376,0.0,0.0,100.0,0.0,0.0,0.0,0.0,3405.142857142857,3124.3,4290.125,4214.8,304.4525,305.078,314.42325,314.4245,22.0551,20.675,22.0722,21.5737,314.999998,314.999998,324.999988,324.999988,99.55887142857142,99.50758333333333,99.56915714285714,99.54917142857143,0.02024999999999988,-0.1243333333333334,-0.1905,0.0264000000000002,-0.05666666666667197,-0.06499999999999773,1.4674999999999998,1.5099999999999998,38.844,30.219,38.952,35.836,55.805,35.667500000000004,60.0995,53.31,53.748000000000005,34.766,58.6555,51.6035,52.897,34.302,58.533500000000004,50.99433333333333,-0.07699999999999996,-0.09149999999999991,0.10886000000000001,0.10611000000000001,0.0,218.07999999999998,218.025,214.71,214.71,0.0,0.0
31,0.0,0.0,0.0,1.0,1.0,0.0,0.0,1.0,0.0,100.0,1.0,1.1856,26.0,0.0,0.0,0.0,65.999997,0.0,26.0,26.0,26.0,26.0,-0.092125,0.2533000000000001,-0.0115,290.955,-2.7127,-2.648111111111111,-1.5396,-1.655,-170.44,215.97,190.303625,0.0,0.0,0.0,0.0,0.06276666666666653,-5.498166666666667,-5.498166666666667,-0.5938,-0.6695,-0.06077777777777804,-0.742,69.781,-0.06489999999999996,-0.22487500000000002,0.41000000000000014,100.0,1.0,1.0,215.0233333333333,0.0,0.0,0.0,0.0,0.0,0.0,0.0,9114.0,0.0,55.0,5.0,251.18666666666667,1.0,0.0,0.0,0.0,0.0,0.0,1.0,0.0,1.5569999999999986,1.5569999999999986,0.0,0.0,1.0,55.0,616.79921,10000.0,85.000001,85.000001,85.000001,85.000001,395.0,0.0,0.0,0.0,1.0,166.665,51.315,51.315,45.653999999999996,45.653999999999996,34.0,-28.34,21.168333333333333,-34.663333333333334,28.2425,0.0,1781.168,0.09499999999999886,100.0,29.324,28.796,45.064,44.064,0.0,0.0,100.0,0.0,0.0,0.0,0.0,3269.5714285714284,3116.0,4399.5,4248.9,305.1465,304.96366666666665,314.17275,314.36875,22.0645,20.6806,22.083,21.5831,314.999998,314.999998,324.999988,324.999988,99.55888571428571,99.50758333333333,99.5693,99.54931428571429,0.012249999999999872,-0.12366666666666659,-0.17433333333333334,0.05380000000000007,-0.041666666666671404,-0.03333333333333144,1.4565000000000001,1.459,38.903,30.253999999999998,39.019,35.8945,55.789,35.710499999999996,60.1425,53.3715,53.733999999999995,34.8055,58.695499999999996,51.663,52.882,34.3395,58.570499999999996,51.052,-0.07499999999999996,-0.08650000000000002,0.10529500000000001,0.112795,0.0,218.435,218.37,215.0233333333333,215.0233333333333,0.0,0.0
32,0.0,0.0,0.0,1.0,1.0,0.0,0.0,1.0,0.0,100.0,1.0,1.1856,26.0,0.0,0.0,0.0,65.999997,0.0,26.0,26.0,26.0,26.0,-0.069375,0.27290000000000014,-0.006975,291.153,-2.6167,-2.757,-1.5992000000000002,-1.5672222222222223,-166.67000000000002,215.96,190.276375,0.0,0.0,0.0,0.0,0.0649666666666665,-5.498166666666667,-5.498166666666667,-0.6087,0.22599999999999998,-0.08722222222222209,-0.8899999999999999,69.916,-0.05289999999999995,-0.2281,0.4039999999999999,100.0,1.0,1.0,215.5366666666667,0.0,0.0,0.0,0.0,0.0,0.0,0.0,9135.7,0.0,55.0,5.0,251.67000000000002,0.0,0.0,0.0,0.0,0.0,0.0,1.0,0.0,1.6110000000000007,1.6110000000000007,0.0,0.0,0.0,55.0,616.79921,10000.0,85.000001,85.000001,85.000001,85.000001,395.0,0.0,0.0,0.0,1.0,166.665,51.285,51.285,46.463,46.463,34.0,-26.9825,21.86,-34.406666666666666,26.759999999999998,0.0,1781.113,-0.00999999999999801,100.0,29.344,28.799,44.650999999999996,43.862,0.0,0.0,100.0,0.0,0.0,0.0,0.0,3325.285714285714,2983.2,4360.375,4228.6,304.8045,305.1406666666667,314.405,314.4655,22.0745,20.6867,22.094,21.5929,314.999998,314.999998,324.999988,324.999988,99.55888571428571,99.5076,99.56947142857143,99.54947142857142,0.03925000000000001,-0.11099999999999999,-0.16933333333333334,0.05840000000000001,-0.05833333333333002,-0.04833333333333201,1.5114999999999998,1.5190000000000001,38.966,30.2915,39.088,35.9555,55.775,35.756,60.181,53.4325,53.72,34.8475,58.7315,51.7215,52.867000000000004,34.3795,58.603,51.10933333333333,-0.09099999999999997,-0.08300000000000018,0.10932000000000001,0.103455,0.0,218.88,218.82999999999998,215.5366666666667,215.5366666666667,0.0,0.0
33,0.0,0.0,0.0,1.0,1.0,0.0,0.0,1.0,0.0,100.0,1.0,1.1856,26.0,0.0,0.0,0.0,65.999997,0.0,26.0,26.0,26.0,26.0,-0.052125,0.2563,-0.036375000000000005,291.443,-2.6702,-2.7364444444444445,-1.54295,-1.6391111111111112,-163.31,215.95,190.25125,0.0,0.0,0.0,0.0,0.0669333333333334,-5.498166666666667,-5.498166666666667,-0.6139,-0.5070000000000001,-0.06866666666666665,0.14000000000000012,70.038,-0.04469999999999996,-0.21777500000000002,0.3200000000000003,100.0,1.0,1.0,215.86,0.0,0.0,0.0,0.0,0.0,0.0,0.0,9149.5,0.0,55.0,5.0,252.11333333333334,1.0,0.0,0.0,0.0,0.0,0.0,1.0,0.0,1.658999999999999,1.658999999999999,0.0,0.0,1.0,55.0,616.79921,10000.0,85.000001,85.000001,85.000001,85.000001,395.0,0.0,0.0,0.0,1.0,166.665,51.849000000000004,51.849000000000004,46.646,46.646,34.0,-25.924999999999997,21.765,-32.07,28.145,0.0,1781.066,-0.125,100.0,29.03,28.453,44.623000000000005,43.983000000000004,0.0,0.0,100.0,0.0,0.0,0.0,0.0,3212.5714285714284,2940.0,4223.25,4210.3,305.2395,305.363,314.61525,314.386,22.0833,20.6918,22.1039,21.6016,314.999998,314.999998,324.999988,324.999988,99.5589,99.50761666666666,99.56961428571428,99.54961428571428,0.04800000000000004,-0.09766666666666657,-0.15766666666666662,0.06140000000000012,-0.02833333333332888,-0.05333333333332746,1.4745,1.479,39.021,30.3235,39.149,36.01,55.762,35.792,60.217,53.4885,53.707,34.881,58.765,51.775,52.854,34.411500000000004,58.634,51.16166666666667,-0.09650000000000003,-0.06950000000000012,0.10683000000000001,0.106605,0.0,219.22,219.2,215.86,215.86,0.0,0.0
34,0.0,0.0,0.0,1.0,1.0,0.0,0.0,1.0,0.0,100.0,1.0,1.1856,26.0,0.0,0.0,0.0,65.999997,0.0,26.0,26.0,26.0,26.0,-0.035750000000000004,0.2572000000000001,-0.06675,291.824,-2.6819,-2.719333333333333,-1.60525,-1.5953333333333333,-159.94,215.9375,190.224875,0.0,0.0,0.0,0.0,0.06886666666666652,-5.498166666666667,-5.498166666666667,-0.6464000000000001,-0.8335000000000001,-0.03744444444444417,-0.10899999999999999,70.158,-0.03289999999999993,-0.227,0.17999999999999972,100.0,1.0,1.0,216.29666666666668,0.0,0.0,0.0,0.0,0.0,0.0,0.0,9168.0,0.0,55.0,5.0,252.54666666666668,0.0,0.0,0.0,0.0,0.0,0.0,1.0,0.0,1.7070000000000007,1.7070000000000007,0.0,0.0,0.0,55.0,616.79921,10000.0,85.000001,85.000001,85.000001,85.000001,395.0,0.0,0.0,0.0,1.0,333.33500000000004,52.139,52.139,47.348,47.348,34.0,-25.16,21.736666666666665,-30.58,26.895,0.0,1781.015,-0.125,100.0,28.75,28.239,44.278,44.006,0.0,0.0,100.0,0.0,0.0,0.0,0.0,3147.714285714286,2940.1,4075.125,4108.0,305.3435,305.3573333333333,315.03325,314.66775,22.092,20.697,22.1137,21.6103,314.999998,314.999998,324.999988,324.999988,99.5589,99.50763333333333,99.56974285714286,99.54975714285715,0.05675000000000008,-0.09533333333333338,-0.14516666666666667,0.06940000000000013,-0.046666666666666856,-0.04833333333333201,1.5305,1.529,39.075,30.356,39.21,36.064,55.748000000000005,35.8285,60.2495,53.5445,53.694,34.914,58.795500000000004,51.829,52.84,34.4435,58.661500000000004,51.21366666666667,-0.09599999999999986,-0.07299999999999995,0.101025,0.10128000000000001,0.0,219.57999999999998,219.565,216.29666666666668,216.29666666666668,0.0,0.0
35,0.0,0.0,0.0,1.0,1.0,0.0,0.0,1.0,0.0,100.0,1.0,1.1856,26.0,0.0,0.0,0.0,65.999997,0.0,26.0,26.0,26.0,26.0,-0.02925,0.246,-0.06665,291.718,-2.6795,-2.6785555555555556,-1.5719,-1.6086666666666667,-156.36,215.9225,190.194625,0.0,0.0,0.0,0.0,0.07096666666666651,-5.498166666666667,-5.498166666666667,-0.6868000000000001,-0.22599999999999998,-0.04600000000000026,0.016999999999999904,70.285,-0.020100000000000007,-0.23112500000000002,0.012000000000000455,100.0,1.0,1.0,216.76333333333332,0.0,0.0,0.0,0.0,0.0,0.0,0.0,9187.8,0.0,55.0,5.0,253.00333333333333,1.0,0.0,0.0,0.0,0.0,0.0,1.0,0.0,1.7579999999999991,1.7579999999999991,0.0,0.0,1.0,55.0,616.79921,10000.0,85.000001,85.000001,85.000001,85.000001,395.0,0.0,0.0,0.0,1.0,166.665,51.407,51.407,47.012,47.012,34.0,-25.025,25.981666666666666,-28.36,27.755000000000003,0.0,1780.967,-0.08500000000000085,100.0,28.707,28.48,44.054,43.51,0.0,0.0,100.0,0.0,0.0,0.0,0.0,3191.714285714286,3377.7,4002.25,3957.7,305.1515,304.2033333333333,315.11975,315.103,22.1011,20.7027,22.124,21.6194,314.999998,314.999998,324.999988,324.999988,99.55891428571428,99.50765,99.5699,99.5499,0.07050000000000001,-0.07133333333333336,-0.12083333333333335,0.1097999999999999,-0.041666666666671404,-0.054999999999999716,1.5474999999999999,1.537,39.132,30.3915,39.275,36.121,55.732,35.869,60.2845,53.6,53.679,34.951499999999996,58.828,51.882,52.824,34.479,58.6905,51.26566666666667,-0.09199999999999986,-0.0754999999999999,0.10895500000000001,0.11141000000000001,0.0,219.97,219.965,216.76333333333332,216.76333333333332,0.0,0.0
