,ABS Active,ABS Enabled,AID Allow Tire Blankets,AID Auto Blip,AID Auto Clutch,AID Auto Shift,AID Fuel Rate,AID Ideal Line,AID Mech Damage,AID Stability,AID Tire Wear Rate,Air Density,Air Temp,Ballast,Best Lap Delta,Best Lap Time,Brake Bias,Brake Pos,Brake Temp FL,Brake Temp FR,Brake Temp RL,Brake Temp RR,CG Accel Lateral,CG Accel Longitudinal,CG Accel Vertical,CG Height,Camber FL,Camber FR,Camber RL,Camber RR,Car Coord X,Car Coord Y,Car Coord Z,Car Damage Front,Car Damage Left,Car Damage Rear,Car Damage Right,Car Pos Norm,Caster FL,Caster FR,Chassis Pitch Angle,Chassis Pitch Rate,Chassis Roll Angle,Chassis Roll Rate,Chassis Velocity X,Chassis Velocity Y,Chassis Velocity Z,Chassis Yaw Rate,Clutch Pos,DRS Active,DRS Available,Drive Train Speed,ERS Heat Charging,ERS Is Charging,ERS Max Energy,ERS Power Level,ERS Recovery Level,Engine Brake Setting,Engine Limiter,Engine RPM,Flags,Fuel Level,Gear,Ground Speed,HR Sample Clock,In Pit,KERS Charge,KERS Deployed Energy,KERS Input,KERS Max Energy,LR Sample Clock,Lap Invalidated,Lap Time,Lap Time2,Last Lap Time,Last Sector Time,MR Sample Clock,Max Fuel,Max Power,Max RPM,Max Sus Travel FL,Max Sus Travel FR,Max Sus Travel RL,Max Sus Travel RR,Max Torque,Max Turbo Boost,Num Tires Off Track,Penalties Enabled,Position,Raw Data Sample Rate,Ride Height FL,Ride Height FR,Ride Height RL,Ride Height RR,Road Temp,Self Align Torque FL,Self Align Torque FR,Self Align Torque RL,Self Align Torque RR,Session Lap Count,Session Time Left,Steering Angle,Surface Grip,Suspension Travel FL,Suspension Travel FR,Suspension Travel RL,Suspension Travel RR,TC Active,TC Enabled,Throttle Pos,Tire Dirt Level FL,Tire Dirt Level FR,Tire Dirt Level RL,Tire Dirt Level RR,Tire Load FL,Tire Load FR,Tire Load RL,Tire Load RR,Tire Loaded Radius FL,Tire Loaded Radius FR,Tire Loaded Radius RL,Tire Loaded Radius RR,Tire Pressure FL,Tire Pressure FR,Tire Pressure RL,Tire Pressure RR,Tire Radius FL,Tire Radius FR,Tire Radius RL,Tire Radius RR,Tire Rubber Grip FL,Tire Rubber Grip FR,Tire Rubber Grip RL,Tire Rubber Grip RR,Tire Slip Angle FL,Tire Slip Angle FR,Tire Slip Angle RL,Tire Slip Angle RR,Tire Slip Ratio FL,Tire Slip Ratio FR,Tire Slip Ratio RL,Tire Slip Ratio RR,Tire Temp Core FL,Tire Temp Core FR,Tire Temp Core RL,Tire Temp Core RR,Tire Temp Inner FL,Tire Temp Inner FR,Tire Temp Inner RL,Tire Temp Inner RR,Tire Temp Middle FL,Tire Temp Middle FR,Tire Temp Middle RL,Tire Temp Middle RR,Tire Temp Outer FL,Tire Temp Outer FR,Tire Temp Outer RL,Tire Temp Outer RR,Toe In FL,Toe In FR,Toe In RL,Toe In RR,Turbo Boost,Wheel Angular Speed FL,Wheel Angular Speed FR,Wheel Angular Speed RL,Wheel Angular Speed RR,Wind Direction,Wind Speed
0,0.0,0.0,0.0,1.0,1.0,0.0,0.0,1.0,0.0,100.0,1.0,1.1856,26.0,0.0,0.0,0.0,65.99999,0.0,26.0,26.0,26.0,26.0,-0.06474999999999997,0.3103,0.0001666666666666667,294.128,-2.7258,-2.6525714285714286,-1.52155,-1.552,-275.72,216.28750000000002,190.987875,0.0,0.0,0.0,0.0,0.0015666666666666051,-5.498166666666667,-5.498166666666667,-0.5493,1.2029999999999998,-0.002888888888889163,-1.136,65.501,-0.0296,-0.214225,0.9699999999999998,100.0,1.0,1.0,202.23666666666668,0.0,0.0,0.0,0.0,0.0,0.0,0.0,8572.0,0.0,55.0,5.0,235.7733333333333,0.0,0.0,0.0,0.0,0.0,0.0,0.0,0.0,0.0030000000000001137,0.0030000000000001137,0.0,0.0,0.0,55.0,616.79921,10000.0,85.0,85.0,85.0,85.0,395.0,0.0,0.0,0.0,1.0,20.0,52.902,52.902,49.728,49.728,34.0,-25.619999999999997,23.378333333333334,-30.61,24.505000000000003,0.0,1782.98,0.8049999999999997,100.0,27.474,26.985,40.415,40.597,0.0,0.0,100.0,0.0,0.0,0.0,0.0,2963.4285714285716,3323.7,4112.25,3976.1000000000004,305.8775,304.184,314.88,314.88175,21.7988,20.5175,21.7612,21.3034,314.99999,314.99999,324.99998,324.99998,99.56005714285715,99.50726666666667,99.56462857142857,99.54472857142858,0.006750000000000034,-0.11275000000000002,-0.16566666666666663,0.0621666666666667,-0.054999999999999716,-0.047142857142851824,1.5415,1.6099999999999999,37.242999999999995,29.234666666666666,37.007999999999996,34.1465,56.689,34.5435,58.881,51.449,54.572,33.697,57.5155,49.8155,53.724000000000004,33.2455,57.4815,49.24366666666667,-0.016999999999999904,-0.13100000000000023,0.10707000000000001,0.10733000000000001,0.0,205.275,205.175,202.23666666666668,202.23666666666668,0.0,0.0
1,0.0,0.0,0.0,1.0,1.0,0.0,0.0,1.0,0.0,100.0,1.0,1.1856,26.0,0.0,0.0,0.0,65.999997,0.0,26.0,26.0,26.0,26.0,-0.11699999999999999,0.3258000000000001,-0.0058000000000000005,293.091,-2.6486,-2.766714285714286,-1.52455,-1.5488000000000002,-272.37,216.2825,190.967625,0.0,0.0,0.0,0.0,0.0035333333333333883,-5.498166666666667,-5.498166666666667,-0.4988,-0.30299999999999994,-0.054777777777777814,-0.22299999999999986,65.656,-0.0444,-0.19412500000000002,1.3020000000000014,100.0,1.0,1.0,202.4,0.0,0.0,0.0,0.0,0.0,0.0,0.0,8579.0,0.0,55.0,5.0,236.32666666666665,1.0,0.0,0.0,0.0,0.0,0.0,0.0,0.0,0.053999999999998494,0.053999999999998494,0.0,0.0,1.0,55.0,616.79921,10000.0,85.000001,85.000001,85.000001,85.000001,395.0,0.0,0.0,0.0,1.0,166.665,53.513,53.513,48.37,48.37,34.0,-26.6175,18.490000000000002,-33.88666666666666,29.6175,0.0,1782.93,0.9149999999999991,100.0,27.714,26.985,42.581,41.498000000000005,0.0,0.0,100.0,0.0,0.0,0.0,0.0,3045.714285714286,2708.8,4329.125,4703.9,305.4425,306.20666666666665,314.2195,313.16475,21.808799999999998,20.5227,21.772,21.3124,314.999998,314.999998,324.999988,324.999988,99.56007142857143,99.5073,99.56478571428572,99.54487142857143,-0.007249999999999979,-0.133,-0.1758333333333334,0.04849999999999999,-0.026666666666670835,-0.04285714285714448,1.4325,1.4834999999999998,37.305,29.267,37.075,34.203,56.671,34.5845,58.9265,51.5135,54.556,33.735,57.5585,49.8775,53.707,33.282,57.5215,49.30466666666666,0.0024999999999999467,-0.14650000000000007,0.10290500000000001,0.10503000000000001,0.0,205.695,205.60500000000002,202.4,202.4,0.0,0.0
2,0.0,0.0,0.0,1.0,1.0,0.0,0.0,1.0,0.0,100.0,1.0,1.1856,26.0,0.0,0.0,0.0,65.999997,0.0,26.0,26.0,26.0,26.0,-0.15349999999999997,0.29610000000000003,-0.06506666666666666,293.671,-2.6026,-2.795714285714286,-1.4899,-1.6076000000000001,-268.82,216.275,190.947625,0.0,0.0,0.0,0.0,0.005566666666666609,-5.498166666666667,-5.498166666666667,-0.5487000000000001,0.17049999999999987,-0.045666666666666966,2.758,65.806,-0.06720000000000001,-0.2536,1.5760000000000005,100.0,1.0,1.0,203.32,0.0,0.0,0.0,0.0,0.0,0.0,0.0,8618.0,0.0,55.0,5.0,236.87333333333333,0.0,0.0,0.0,0.0,0.0,0.0,0.0,0.0,0.10800000000000054,0.10800000000000054,0.0,0.0,0.0,55.0,616.79921,10000.0,85.000001,85.000001,85.000001,85.000001,395.0,0.0,0.0,0.0,1.0,166.665,52.429,52.429,50.171,50.171,34.0,-29.5125,20.641666666666666,-28.943333333333335,20.455,0.0,1782.876,0.6700000000000017,100.0,28.435,26.871,42.528999999999996,41.311,0.0,0.0,100.0,0.0,0.0,0.0,0.0,3284.4285714285716,3010.0,3752.125,3730.6000000000004,304.669,305.3426666666667,315.62175,315.66675,21.8197,20.528,21.783,21.3217,314.999998,314.999998,324.999988,324.999988,99.56007142857143,99.50731666666667,99.56492857142857,99.54501428571429,-0.025499999999999967,-0.14400000000000002,-0.21366666666666656,0.009333333333333416,-0.030000000000001137,-0.034285714285715585,1.6345,1.6995,37.373000000000005,29.299999999999997,37.144,34.260999999999996,56.657,34.626,58.968,51.575,54.542,33.7735,57.597,49.9365,53.693,33.3185,57.557,49.36233333333333,-0.014499999999999957,-0.13350000000000017,0.10500500000000001,0.10565500000000001,0.0,206.21,206.05,203.32,203.32,0.0,0.0
3,0.0,0.0,0.0,1.0,1.0,0.0,0.0,1.0,0.0,100.0,1.0,1.1856,26.0,0.0,0.0,0.0,65.999997,0.0,26.0,26.0,26.0,26.0,-0.12524999999999997,0.3145,0.08316666666666667,293.503,-2.7286,-2.6928571428571426,-1.5131999999999999,-1.5897000000000001,-265.66,216.265,190.929125,0.0,0.0,0.0,0.0,0.007433333333333292,-5.498166666666667,-5.498166666666667,-0.5095000000000001,0.24249999999999994,-0.0076666666666667105,0.14000000000000012,65.95,-0.0835,-0.19920000000000002,1.2059999999999995,100.0,1.0,1.0,203.46666666666667,0.0,0.0,0.0,0.0,0.0,0.0,0.0,8624.2,0.0,55.0,5.0,237.38666666666666,1.0,0.0,0.0,0.0,0.0,0.0,0.0,0.0,0.1559999999999988,0.1559999999999988,0.0,0.0,1.0,55.0,616.79921,10000.0,85.000001,85.000001,85.000001,85.000001,395.0,0.0,0.0,0.0,1.0,166.665,53.635,53.635,48.203,48.203,34.0,-25.2425,18.689999999999998,-34.27333333333333,25.060000000000002,0.0,1782.827,0.629999999999999,100.0,27.92,26.912,42.444,41.414,0.0,0.0,100.0,0.0,0.0,0.0,0.0,2831.714285714286,2889.8,4265.25,4245.2,306.1715,305.655,314.38225,314.336,21.829,20.5329,21.7928,21.3301,314.999998,314.999998,324.999988,324.999988,99.56007142857143,99.50731666666667,99.56505714285714,99.54515714285715,-0.014249999999999985,-0.14849999999999997,-0.2018333333333333,0.021666666666666723,-0.03333333333333144,-0.06285714285714761,1.4795,1.5339999999999998,37.431,29.330666666666666,37.205,34.313,56.64,34.666,59.004999999999995,51.6345,54.525999999999996,33.81,57.632,49.9935,53.676,33.3535,57.5895,49.41833333333334,-0.03200000000000003,-0.12150000000000016,0.104455,0.11427000000000001,0.0,206.65,206.535,203.46666666666667,203.46666666666667,0.0,0.0
4,0.0,0.0,0.0,1.0,1.0,0.0,0.0,1.0,0.0,100.0,1.0,1.1856,26.0,0.0,0.0,0.0,65.999997,0.0,26.0,26.0,26.0,26.0,-0.15149999999999997,0.29390000000000005,-0.016933333333333335,293.64,-2.6637,-2.7434285714285718,-1.5295,-1.5958,-262.49,216.25,190.910625,0.0,0.0,0.0,0.0,0.009266666666666534,-5.498166666666667,-5.498166666666667,-0.5425,-0.8935,-0.0735555555555556,-0.7650000000000001,66.087,-0.0853,-0.234825,1.0839999999999996,100.0,1.0,1.0,204.01,0.0,0.0,0.0,0.0,0.0,0.0,0.0,8647.2,0.0,55.0,5.0,237.88666666666666,0.0,0.0,0.0,0.0,0.0,0.0,0.0,0.0,0.20400000000000063,0.20400000000000063,0.0,0.0,0.0,55.0,616.79921,10000.0,85.000001,85.000001,85.000001,85.000001,395.0,0.0,0.0,0.0,1.0,333.33500000000004,53.131,53.131,48.676,48.676,34.0,-28.34,19.983333333333334,-32.443333333333335,21.035,0.0,1782.779,0.5949999999999989,100.0,27.754,26.723,42.837,41.501,0.0,0.0,100.0,0.0,0.0,0.0,0.0,3177.857142857143,2979.1,4076.5,3714.6,305.218,305.3883333333333,314.8005,315.57775,21.8382,20.5377,21.8028,21.3385,314.999998,314.999998,324.999988,324.999988,99.56008571428572,99.50733333333334,99.5652,99.54528571428571,-0.01824999999999999,-0.14425,-0.2015,0.01766666666666672,-0.06333333333333258,-0.07285714285714562,1.539,1.609,37.488,29.360666666666667,37.266999999999996,34.3655,56.622,34.704499999999996,59.045,51.6905,54.509,33.8455,57.6695,50.0475,53.658,33.3875,57.624,49.471000000000004,-0.02849999999999997,-0.12199999999999989,0.10962000000000001,0.100885,0.0,207.015,206.92000000000002,204.01,204.01,0.0,0.0
5,0.0,0.0,0.0,1.0,1.0,0.0,0.0,1.0,0.0,100.0,1.0,1.1856,26.0,0.0,0.0,0.0,65.999997,0.0,26.0,26.0,26.0,26.0,-0.12512499999999993,0.31410000000000005,-0.018000000000000002,293.655,-2.6727,-2.763428571428572,-1.5097,-1.5852000000000002,-259.12,216.23250000000002,190.89025,0.0,0.0,0.0,0.0,0.011233333333333317,-5.498166666666667,-5.498166666666667,-0.5364,0.40249999999999986,-0.08266666666666644,-0.23899999999999988,66.23400000000001,-0.0878,-0.2151,1.0999999999999996,100.0,1.0,1.0,204.42333333333335,0.0,0.0,0.0,0.0,0.0,0.0,0.0,8664.8,0.0,55.0,5.0,238.41333333333333,1.0,0.0,0.0,0.0,0.0,0.0,0.0,0.0,0.254999999999999,0.254999999999999,0.0,0.0,1.0,55.0,616.79921,10000.0,85.000001,85.000001,85.000001,85.000001,395.0,0.0,0.0,0.0,1.0,166.665,53.452,53.452,49.025999999999996,49.025999999999996,34.0,-28.4775,18.718333333333334,-33.45333333333333,22.2575,0.0,1782.73,0.34499999999999886,100.0,27.77,26.762,42.525,41.222,0.0,0.0,100.0,0.0,0.0,0.0,0.0,3198.4285714285716,2759.3,4179.875,4023.3,305.223,305.942,314.714,314.83625,21.848300000000002,20.5428,21.8132,21.3472,314.999998,314.999998,324.999988,324.999988,99.56008571428572,99.50735,99.56534285714285,99.54541428571429,-0.01649999999999996,-0.14074999999999993,-0.21483333333333332,0.0016666666666667052,-0.03333333333333144,-0.03714285714285381,1.568,1.5909999999999997,37.552,29.392666666666663,37.332,34.42,56.607,34.745,59.085499999999996,51.748,54.495000000000005,33.882999999999996,57.707499999999996,50.1025,53.643,33.4235,57.6595,49.52466666666667,-0.052000000000000046,-0.09949999999999992,0.10326,0.10574000000000001,0.0,207.51999999999998,207.42000000000002,204.42333333333335,204.42333333333335,0.0,0.0
6,0.0,0.0,0.0,1.0,1.0,0.0,0.0,1.0,0.0,100.0,1.0,1.1856,26.0,0.0,0.0,0.0,65.999997,0.0,26.0,26.0,26.0,26.0,-0.11912500000000004,0.28390000000000004,0.0036000000000000003,293.442,-2.6391,-2.7938571428571426,-1.5567,-1.5788,-255.73,216.21,190.869625,0.0,0.0,0.0,0.0,0.01319999999999999,-5.498166666666667,-5.498166666666667,-0.5306000000000001,0.12199999999999989,-0.05866666666666642,0.9060000000000001,66.38,-0.0849,-0.214425,0.7139999999999995,100.0,1.0,1.0,204.86,0.0,0.0,0.0,0.0,0.0,0.0,0.0,8683.3,0.0,55.0,5.0,238.94,0.0,0.0,0.0,0.0,0.0,0.0,0.0,0.0,0.30600000000000094,0.30600000000000094,0.0,0.0,0.0,55.0,616.79921,10000.0,85.000001,85.000001,85.000001,85.000001,395.0,0.0,0.0,0.0,1.0,166.665,53.131,53.131,48.691,48.691,34.0,-26.1175,21.718333333333334,-32.53,23.8525,0.0,1782.678,-0.02499999999999858,100.0,27.831,26.756,42.74,41.516999999999996,0.0,0.0,100.0,0.0,0.0,0.0,0.0,3088.285714285714,2981.3,4074.625,4053.9,305.322,305.32366666666667,314.88925,314.828,21.8582,20.548,21.8237,21.3562,314.999998,314.999998,324.999988,324.999988,99.56008571428572,99.50736666666667,99.56548571428571,99.54555714285715,0.013749999999999929,-0.11449999999999994,-0.19833333333333336,0.02966666666666673,-0.04333333333332945,-0.057142857142849834,1.537,1.5625,37.614000000000004,29.424666666666667,37.397999999999996,34.476,56.591,34.7855,59.1265,51.81,54.479,33.92,57.7455,50.162,53.626999999999995,33.459,57.6945,49.58266666666667,-0.07250000000000001,-0.0754999999999999,0.10483,0.114515,0.0,207.95499999999998,207.89499999999998,204.86,204.86,0.0,0.0
7,0.0,0.0,0.0,1.0,1.0,0.0,0.0,1.0,0.0,100.0,1.0,1.1856,26.0,0.0,0.0,0.0,65.999997,0.0,26.0,26.0,26.0,26.0,-0.08562499999999995,0.2775000000000001,0.04613333333333333,293.182,-2.6107,-2.7331428571428575,-1.51495,-1.5699,-252.54,216.1875,190.850375,0.0,0.0,0.0,0.0,0.015033333333333343,-5.498166666666667,-5.498166666666667,-0.5341,-0.038000000000000256,-0.04888888888888854,1.1070000000000002,66.518,-0.0718,-0.22245,0.38400000000000034,100.0,1.0,1.0,205.25333333333333,0.0,0.0,0.0,0.0,0.0,0.0,0.0,8699.9,0.0,55.0,5.0,239.43666666666667,1.0,0.0,0.0,0.0,0.0,0.0,0.0,0.0,0.3539999999999992,0.3539999999999992,0.0,0.0,1.0,55.0,616.79921,10000.0,85.000001,85.000001,85.000001,85.000001,395.0,0.0,0.0,0.0,1.0,166.665,52.78,52.78,48.798,48.798,34.0,-26.125,22.871666666666666,-30.89,25.302500000000002,0.0,1782.63,-0.23499999999999943,100.0,27.923000000000002,26.786,42.806,41.769,0.0,0.0,100.0,0.0,0.0,0.0,0.0,3215.0,3059.5,4048.375,4126.1,304.9175,305.14633333333336,314.8975,314.63725,21.8675,20.5529,21.8335,21.3646,314.999998,314.999998,324.999988,324.999988,99.5601,99.50738333333334,99.56562857142858,99.54568571428571,0.03675000000000006,-0.08824999999999994,-0.1775,0.04800000000000004,-0.051666666666669414,-0.05857142857143316,1.517,1.5394999999999999,37.672,29.455333333333336,37.459,34.528999999999996,56.576,34.822,59.164500000000004,51.868,54.465,33.954,57.781,50.2175,53.611999999999995,33.491,57.7275,49.63733333333333,-0.09549999999999992,-0.05600000000000005,0.09714,0.11470000000000001,0.0,208.35000000000002,208.32,205.25333333333333,205.25333333333333,0.0,0.0
8,0.0,0.0,0.0,1.0,1.0,0.0,0.0,1.0,0.0,100.0,1.0,1.1856,26.0,0.0,0.0,0.0,65.999997,0.0,26.0,26.0,26.0,26.0,-0.04137499999999994,0.2863,-0.0183,293.442,-2.6978,-2.716,-1.4975,-1.5537,-249.15,216.1625,190.829875,0.0,0.0,0.0,0.0,0.017033333333333345,-5.498166666666667,-5.498166666666667,-0.5362,-0.44300000000000006,-0.03355555555555556,-0.5459999999999998,66.664,-0.0516,-0.21457500000000002,-0.0259999999999998,100.0,1.0,1.0,205.64666666666668,0.0,0.0,0.0,0.0,0.0,0.0,0.0,8716.7,0.0,55.0,5.0,239.96,0.0,0.0,0.0,0.0,0.0,0.0,0.0,0.0,0.40500000000000114,0.40500000000000114,0.0,0.0,0.0,55.0,616.79921,10000.0,85.000001,85.000001,85.000001,85.000001,395.0,0.0,0.0,0.0,1.0,333.33500000000004,53.711,53.711,48.08,48.08,34.0,-24.119999999999997,21.638333333333332,-31.576666666666664,26.6575,0.0,1782.577,-0.36499999999999844,100.0,27.395,26.905,42.692,41.933,0.0,0.0,100.0,0.0,0.0,0.0,0.0,2981.142857142857,2885.3,4216.25,4125.7,305.8705,305.519,314.539,314.523,21.877299999999998,20.5581,21.843899999999998,21.3736,314.999998,314.999998,324.999988,324.999988,99.5601,99.5074,99.56577142857142,99.54584285714286,0.04299999999999993,-0.08224999999999993,-0.16633333333333333,0.07350000000000012,-0.04833333333333201,-0.044285714285713595,1.5125,1.5150000000000001,37.733000000000004,29.487666666666666,37.525,34.585,56.557,34.8625,59.207,51.9325,54.447,33.991,57.820499999999996,50.2795,53.593,33.527,57.763999999999996,49.698,-0.10349999999999993,-0.04300000000000015,0.10853000000000002,0.11037500000000001,0.0,208.78,208.775,205.64666666666668,205.64666666666668,0.0,0.0
9,0.0,0.0,0.0,1.0,1.0,0.0,0.0,1.0,0.0,100.0,1.0,1.1856,26.0,0.0,0.0,0.0,65.999997,0.0,26.0,26.0,26.0,26.0,-0.030749999999999944,0.2892000000000001,0.03156666666666667,293.152,-2.6831,-2.7225714285714284,-1.55255,-1.5549000000000002,-245.74,216.135,190.80875,0.0,0.0,0.0,0.0,0.018999999999999906,-5.498166666666667,-5.498166666666667,-0.5411,0.6679999999999999,-0.032444444444444276,0.944,66.806,-0.030600000000000002,-0.21527500000000002,-0.17600000000000016,100.0,1.0,1.0,206.21,0.0,0.0,0.0,0.0,0.0,0.0,0.0,8740.4,0.0,55.0,5.0,240.47333333333333,1.0,0.0,0.0,0.0,0.0,0.0,0.0,0.0,0.4559999999999995,0.4559999999999995,0.0,0.0,1.0,55.0,616.79921,10000.0,85.000001,85.000001,85.000001,85.000001,395.0,0.0,0.0,0.0,1.0,166.665,52.414,52.414,49.194,49.194,34.0,-25.7275,24.798333333333332,-28.1,27.2125,0.0,1782.528,-0.5249999999999986,100.0,27.988,27.175,42.405,41.858000000000004,0.0,0.0,100.0,0.0,0.0,0.0,0.0,3281.5714285714284,3095.4,3966.875,4089.1000000000004,304.807,304.99133333333333,315.1835,314.756,21.8872,20.5634,21.8542,21.3825,314.999998,314.999998,324.999988,324.999988,99.5601,99.5074,99.56591428571429,99.54597142857143,0.07250000000000001,-0.04849999999999999,-0.132,0.09699999999999998,-0.05666666666667197,-0.07285714285714562,1.568,1.5684999999999998,37.795,29.521333333333335,37.589,34.6405,56.544,34.899,59.242,51.9885,54.435,34.025,57.853,50.3335,53.58,33.5595,57.7935,49.75066666666667,-0.11599999999999988,-0.03600000000000003,0.103705,0.11078,0.0,209.265,209.25,206.21,206.21,0.0,0.0
10,0.0,0.0,0.0,1.0,1.0,0.0,0.0,1.0,0.0,100.0,1.0,1.1856,26.0,0.0,0.0,0.0,65.999997,0.0,26.0,26.0,26.0,26.0,0.0008749999999999591,0.2864,0.05366666666666667,292.969,-2.6585,-2.7112857142857143,-1.53255,-1.5348000000000002,-242.53,216.11,190.78925,0.0,0.0,0.0,0.0,0.02086666666666659,-5.498166666666667,-5.498166666666667,-0.5177,-0.4205000000000001,0.007777777777777883,1.737,66.945,-0.0115,-0.2048,-0.5039999999999996,100.0,1.0,1.0,206.42333333333335,0.0,0.0,0.0,0.0,0.0,0.0,0.0,8749.5,0.0,55.0,5.0,240.97,0.0,0.0,0.0,0.0,0.0,0.0,1.0,0.0,0.5040000000000013,0.5040000000000013,0.0,0.0,0.0,55.0,616.79921,10000.0,85.000001,85.000001,85.000001,85.000001,395.0,0.0,0.0,0.0,1.0,166.665,53.436,53.436,47.623,47.623,34.0,-20.455,23.811666666666667,-29.856666666666666,30.122500000000002,0.0,1782.48,-0.6449999999999996,100.0,27.828,27.164,42.836,42.565,0.0,0.0,100.0,0.0,0.0,0.0,0.0,2822.285714285714,2973.9,4266.25,4343.2,306.159,305.42533333333336,314.3395,314.08025,21.8964,20.5684,21.8641,21.3911,314.999998,314.999998,324.999988,324.999988,99.56011428571429,99.5074,99.56604285714286,99.54611428571428,0.09725000000000006,-0.04074999999999995,-0.1113333333333334,0.1076666666666668,-0.04333333333332945,-0.044285714285713595,1.4795,1.4575,37.852000000000004,29.552666666666667,37.650999999999996,34.6945,56.531,34.9335,59.281,52.0495,54.422,34.057,57.8895,50.391999999999996,53.567,33.59,57.827,49.808,-0.12850000000000006,-0.026499999999999968,0.10507000000000001,0.104525,0.0,209.65,209.675,206.42333333333335,206.42333333333335,0.0,0.0
11,0.0,0.0,0.0,1.0,1.0,0.0,0.0,1.0,0.0,100.0,1.0,1.1856,26.0,0.0,0.0,0.0,65.999997,0.0,26.0,26.0,26.0,26.0,0.04425000000000012,0.2734000000000001,-0.0926,293.533,-2.7094,-2.6821428571428574,-1.5904,-1.5231000000000001,-239.12,216.08249999999998,190.768625,0.0,0.0,0.0,0.0,0.022599999999999953,-5.498166666666667,-5.498166666666667,-0.5613,-0.2835000000000001,0.03155555555555556,-0.613,67.083,0.0097,-0.23847500000000002,-0.6120000000000001,100.0,1.0,1.0,207.15666666666667,0.0,0.0,0.0,0.0,0.0,0.0,0.0,8780.6,0.0,55.0,5.0,241.47333333333336,1.0,0.0,0.0,0.0,0.0,0.0,1.0,0.0,0.5549999999999997,0.5549999999999997,0.0,0.0,1.0,55.0,616.79921,10000.0,85.000001,85.000001,85.000001,85.000001,395.0,0.0,0.0,0.0,1.0,333.33500000000004,52.841,52.841,49.301,49.301,34.0,-23.195,25.473333333333333,-24.65,26.427500000000002,0.0,1782.428,-0.6149999999999984,100.0,27.42,27.54,42.322,42.59,0.0,0.0,100.0,0.0,0.0,0.0,0.0,3097.4285714285716,3093.1,3699.375,3858.7,305.5405,304.83733333333333,315.88225,315.2415,21.906,20.5738,21.8744,21.4001,314.999998,314.999998,324.999988,324.999988,99.56012857142858,99.5074,99.56618571428571,99.54625714285714,0.09325000000000006,-0.028000000000000025,-0.10283333333333333,0.12949999999999995,-0.06499999999999773,-0.04999999999999716,1.6375,1.6115,37.912,29.586333333333336,37.715,34.7505,56.515,34.971000000000004,59.316,52.11,54.407,34.091499999999996,57.922,50.4495,53.551,33.623,57.857,49.864666666666665,-0.12450000000000006,-0.026000000000000245,0.11391500000000002,0.10541,0.0,210.065,210.095,207.15666666666667,207.15666666666667,0.0,0.0
12,0.0,0.0,0.0,1.0,1.0,0.0,0.0,1.0,0.0,100.0,1.0,1.1856,26.0,0.0,0.0,0.0,65.999997,0.0,26.0,26.0,26.0,26.0,0.0515000000000001,0.28280000000000016,0.0281,292.984,-2.7675,-2.6764285714285716,-1.5535,-1.5216,-235.89,216.0575,190.747875,0.0,0.0,0.0,0.0,0.025466666666666526,-5.498166666666667,-5.498166666666667,-0.5458000000000001,0.3205,0.018777777777777782,-0.883,67.22,0.028800000000000003,-0.206075,-0.694,100.0,1.0,1.0,207.35333333333335,0.0,0.0,0.0,0.0,0.0,0.0,0.0,8789.0,0.0,55.0,5.0,241.96333333333334,0.0,0.0,0.0,0.0,0.0,0.0,1.0,0.0,0.602999999999998,0.602999999999998,0.0,0.0,0.0,55.0,616.79921,10000.0,85.000001,85.000001,85.000001,85.000001,395.0,0.0,0.0,0.0,1.0,333.33500000000004,52.902,52.902,47.989,47.989,34.0,-23.5925,25.281666666666666,-27.376666666666665,30.3975,0.0,1782.38,-0.375,100.0,27.274,27.704,42.198,42.544,0.0,0.0,100.0,0.0,0.0,0.0,0.0,3120.0,3087.6,4227.375,4170.2,305.5155,304.87333333333333,314.6115,314.474,21.915,20.579,21.8841,21.4085,314.999998,314.999998,324.999988,324.999988,99.56014285714286,99.50741666666667,99.56632857142857,99.5464,0.10000000000000009,-0.029749999999999943,-0.07333333333333336,0.1463333333333332,-0.041666666666671404,-0.034285714285715585,1.529,1.4945,37.969,29.618666666666666,37.775999999999996,34.8035,56.501999999999995,35.0065,59.3525,52.167,54.394999999999996,34.124,57.956,50.504999999999995,53.538,33.6545,57.888,49.919,-0.11099999999999999,-0.0405000000000002,0.102415,0.10909,0.0,210.485,210.54000000000002,207.35333333333335,207.35333333333335,0.0,0.0
13,0.0,0.0,0.0,1.0,1.0,0.0,0.0,1.0,0.0,100.0,1.0,1.1856,26.0,0.0,0.0,0.0,65.999997,0.0,26.0,26.0,26.0,26.0,0.06925000000000003,0.2792000000000001,0.0506,292.587,-2.7328,-2.678428571428572,-1.6206,-1.5425,-232.46,216.0325,190.726125,0.0,0.0,0.0,0.0,0.026733333333333387,-5.498166666666667,-5.498166666666667,-0.5383,-0.0535000000000001,0.021888888888888847,1.008,67.363,0.0381,-0.21282500000000001,-0.8739999999999997,100.0,1.0,1.0,207.73000000000002,0.0,0.0,0.0,0.0,0.0,0.0,0.0,8805.0,0.0,55.0,5.0,242.47666666666666,1.0,0.0,0.0,0.0,0.0,0.0,1.0,0.0,0.6539999999999999,0.6539999999999999,0.0,0.0,1.0,55.0,616.79921,10000.0,85.000001,85.000001,85.000001,85.000001,395.0,0.0,0.0,0.0,1.0,333.33500000000004,52.551,52.551,47.913,47.913,34.0,-20.6675,27.841666666666665,-27.299999999999997,33.045,0.0,1782.33,-0.8399999999999999,100.0,27.763,27.711,42.531,42.917,0.0,0.0,100.0,0.0,0.0,0.0,0.0,3057.285714285714,3175.3,4167.5,4356.5,305.4915,304.77366666666666,314.66475,314.0845,21.9247,20.5845,21.8946,21.4177,314.999998,314.999998,324.999988,324.999988,99.56015714285714,99.50741666666667,99.56647142857143,99.54652857142857,0.15349999999999997,0.01649999999999996,-0.05933333333333335,0.1601666666666668,-0.03333333333333144,-0.05142857142856627,1.51,1.488,38.03,29.653333333333336,37.841,34.861,56.491,35.0445,59.3915,52.2315,54.384,34.1595,57.992,50.567,53.525999999999996,33.6885,57.921,49.97966666666667,-0.14649999999999985,-0.010000000000000231,0.10862500000000001,0.10244,0.0,210.925,210.98000000000002,207.73000000000002,207.73000000000002,0.0,0.0
14,0.0,0.0,0.0,1.0,1.0,0.0,0.0,1.0,0.0,100.0,1.0,1.1856,26.0,0.0,0.0,0.0,65.999997,0.0,26.0,26.0,26.0,26.0,0.09725000000000006,0.28180000000000005,-0.013000000000000001,292.801,-2.7376,-2.616285714285714,-1.63015,-1.5126000000000002,-229.01999999999998,216.01,190.704875,0.0,0.0,0.0,0.0,0.02873333333333339,-5.498166666666667,-5.498166666666667,-0.5489,-0.18550000000000022,0.05277777777777781,-0.004999999999999893,67.503,0.051800000000000006,-0.22795,-0.9679999999999991,100.0,1.0,1.0,208.25,0.0,0.0,0.0,0.0,0.0,0.0,0.0,8827.0,0.0,55.0,5.0,242.98000000000002,0.0,0.0,0.0,0.0,0.0,0.0,1.0,0.0,0.7049999999999983,0.7049999999999983,0.0,0.0,0.0,55.0,616.79921,10000.0,85.000001,85.000001,85.000001,85.000001,395.0,0.0,0.0,0.0,1.0,333.33500000000004,52.612,52.612,48.111,48.111,34.0,-20.915,27.28,-25.676666666666662,31.475,0.0,1782.277,-0.9199999999999982,100.0,27.557,27.966,42.459,43.258,0.0,0.0,100.0,0.0,0.0,0.0,0.0,3046.714285714286,3152.1,4019.25,4157.3,305.698,304.68833333333333,315.097,314.502,21.9344,20.59,21.905,21.4269,314.999998,314.999998,324.999988,324.999988,99.56018571428571,99.50741666666667,99.56661428571428,99.54668571428572,0.14250000000000007,0.016250000000000098,-0.053333333333333344,0.17383333333333328,-0.051666666666669414,-0.05571428571428072,1.5594999999999999,1.52,38.09,29.687666666666665,37.906,34.918,56.479,35.0845,59.4305,52.298500000000004,54.372,34.1965,58.0285,50.631,53.513,33.724000000000004,57.954,50.04266666666666,-0.14250000000000007,-0.006000000000000227,0.10762000000000001,0.10830000000000001,0.0,211.35500000000002,211.425,208.25,208.25,0.0,0.0
15,0.0,0.0,0.0,1.0,1.0,0.0,0.0,1.0,0.0,100.0,1.0,1.1856,26.0,0.0,0.0,0.0,65.999997,0.0,26.0,26.0,26.0,26.0,0.11612500000000003,0.2892000000000001,0.016900000000000002,292.831,-2.7447,-2.5735714285714284,-1.6266500000000002,-1.454,-225.57999999999998,215.99,190.68325,0.0,0.0,0.0,0.0,0.03073333333333339,-5.498166666666667,-5.498166666666667,-0.5394,0.2549999999999999,0.08344444444444421,0.9279999999999999,67.643,0.06570000000000001,-0.2082,-1.217999999999999,100.0,1.0,1.0,208.66333333333333,0.0,0.0,0.0,0.0,0.0,0.0,0.0,8844.5,0.0,55.0,5.0,243.48666666666668,1.0,0.0,0.0,0.0,0.0,0.0,1.0,0.0,0.7560000000000002,0.7560000000000002,0.0,0.0,1.0,55.0,616.79921,10000.0,85.000001,85.000001,85.000001,85.000001,395.0,0.0,0.0,0.0,1.0,166.665,52.826,52.826,48.141,48.141,34.0,-18.04,28.73,-24.189999999999998,34.2025,0.0,1782.227,-0.9749999999999979,100.0,27.678,27.905,42.258,43.253,0.0,0.0,100.0,0.0,0.0,0.0,0.0,2794.4285714285716,3241.3,3938.5,4415.3,306.284,304.573,315.24175,313.9745,21.944,20.5956,21.9152,21.436,314.999998,314.999998,324.999988,324.999988,99.5602,99.50743333333334,99.56674285714286,99.54682857142858,0.1705000000000001,0.04400000000000004,-0.03466666666666662,0.19733333333333336,-0.036666666666668846,-0.06142857142857139,1.551,1.504,38.15,29.72233333333333,37.97,34.975,56.469,35.121,59.464,52.358000000000004,54.361999999999995,34.230000000000004,58.0595,50.6885,53.501999999999995,33.7565,57.982,50.099333333333334,-0.14900000000000002,-0.0015000000000000568,0.108715,0.10529500000000001,0.0,211.79000000000002,211.875,208.66333333333333,208.66333333333333,0.0,0.0
16,0.0,0.0,0.0,1.0,1.0,0.0,0.0,1.0,0.0,100.0,1.0,1.1856,26.0,0.0,0.0,0.0,65.999997,0.0,26.0,26.0,26.0,26.0,0.1332500000000001,0.26560000000000006,-0.0563,292.831,-2.8093,-2.5788571428571427,-1.6008,-1.5137,-222.12,215.97,190.661125,0.0,0.0,0.0,0.0,0.03273333333333339,-5.498166666666667,-5.498166666666667,-0.5622,-0.6890000000000001,0.0685555555555557,-1.043,67.783,0.07680000000000001,-0.226775,-1.1720000000000006,100.0,1.0,1.0,209.10666666666668,0.0,0.0,0.0,0.0,0.0,0.0,0.0,8863.3,0.0,55.0,5.0,243.99,0.0,0.0,0.0,0.0,0.0,0.0,1.0,0.0,0.8069999999999986,0.8069999999999986,0.0,0.0,0.0,55.0,616.79921,10000.0,85.000001,85.000001,85.000001,85.000001,395.0,0.0,0.0,0.0,1.0,166.665,52.658,52.658,47.943,47.943,34.0,-20.505,28.39,-23.203333333333333,32.7525,0.0,1782.176,-0.875,100.0,27.222,28.145,42.438,43.467,0.0,0.0,100.0,0.0,0.0,0.0,0.0,3025.857142857143,3225.1,3946.875,4107.5,305.8485,304.47366666666665,315.26425,314.5775,21.9533,20.6012,21.9257,21.4452,314.999998,314.999998,324.999988,324.999988,99.56021428571428,99.50743333333334,99.56688571428572,99.54697142857142,0.16175000000000006,0.03374999999999995,-0.022833333333333372,0.20783333333333331,-0.041666666666671404,-0.05142857142856627,1.5705,1.5314999999999999,38.208,29.757666666666665,38.035,35.032,56.455,35.1605,59.5025,52.420500000000004,54.349000000000004,34.266999999999996,58.095,50.749,53.488,33.7915,58.0145,50.15866666666666,-0.14449999999999985,-0.006000000000000227,0.10623,0.10966500000000001,0.0,212.185,212.265,209.10666666666668,209.10666666666668,0.0,0.0
17,0.0,0.0,0.0,1.0,1.0,0.0,0.0,1.0,0.0,100.0,1.0,1.1856,26.0,0.0,0.0,0.0,65.999997,0.0,26.0,26.0,26.0,26.0,0.11699999999999999,0.29290000000000016,-0.018166666666666668,292.419,-2.762,-2.5674285714285716,-1.64065,-1.4766000000000001,-218.66,215.95749999999998,190.6385,0.0,0.0,0.0,0.0,0.034733333333333394,-5.498166666666667,-5.498166666666667,-0.5493,0.496,0.04966666666666675,0.8330000000000002,67.922,0.07880000000000001,-0.20535,-1.1439999999999992,100.0,1.0,1.0,209.4766666666667,0.0,0.0,0.0,0.0,0.0,0.0,0.0,8879.0,0.0,55.0,5.0,244.49,1.0,0.0,0.0,0.0,0.0,0.0,1.0,0.0,0.8580000000000005,0.8580000000000005,0.0,0.0,1.0,55.0,616.79921,10000.0,85.000001,85.000001,85.000001,85.000001,395.0,0.0,0.0,0.0,1.0,166.665,52.414,52.414,47.714,47.714,34.0,-19.08,28.233333333333334,-25.873333333333335,34.4225,0.0,1782.125,-1.0150000000000006,100.0,27.847,28.288,42.316,43.393,0.0,0.0,100.0,0.0,0.0,0.0,0.0,2996.142857142857,3177.3,4237.375,4345.8,305.7165,304.80033333333336,314.59875,314.187,21.9629,20.6069,21.936,21.4543,314.999998,314.999998,324.999988,324.999988,99.56022857142857,99.50743333333334,99.56702857142857,99.54712857142857,0.18500000000000005,0.050000000000000044,-0.02100000000000002,0.20850000000000013,-0.02499999999999858,-0.060000000000002274,1.533,1.5019999999999998,38.268,29.793333333333333,38.1,35.089,56.446,35.201499999999996,59.538,52.4835,54.34,34.305,58.128,50.8095,53.477999999999994,33.8285,58.0445,50.217666666666666,-0.15049999999999986,-0.006000000000000227,0.11432,0.113265,0.0,212.655,212.745,209.4766666666667,209.4766666666667,0.0,0.0
18,0.0,0.0,0.0,1.0,1.0,0.0,0.0,1.0,0.0,100.0,1.0,1.1856,26.0,0.0,0.0,0.0,65.999997,0.0,26.0,26.0,26.0,26.0,0.11862499999999998,0.27370000000000005,-0.003,292.435,-2.798,-2.5385714285714287,-1.6591,-1.4191,-215.4,215.945,190.6175,0.0,0.0,0.0,0.0,0.036633333333333296,-5.498166666666667,-5.498166666666667,-0.5605,-0.508,0.07622222222222219,1.1310000000000002,68.05199999999999,0.07970000000000001,-0.22375,-1.2800000000000002,100.0,1.0,1.0,209.89333333333332,0.0,0.0,0.0,0.0,0.0,0.0,0.0,8896.6,0.0,55.0,5.0,244.96,0.0,0.0,0.0,0.0,0.0,0.0,1.0,0.0,0.9059999999999988,0.9059999999999988,0.0,0.0,0.0,55.0,616.79921,10000.0,85.000001,85.000001,85.000001,85.000001,395.0,0.0,0.0,0.0,1.0,166.665,52.292,52.292,47.653,47.653,34.0,-18.8175,30.933333333333334,-24.423333333333332,32.49,0.0,1782.077,-1.259999999999998,100.0,27.6,28.139,42.607,43.785,0.0,0.0,100.0,0.0,0.0,0.0,0.0,2996.4285714285716,3404.5,4009.125,4244.7,305.786,304.15133333333335,315.095,314.39325,21.9718,20.6122,21.9458,21.463,314.999998,314.999998,324.999988,324.999988,99.56025714285714,99.50745,99.56717142857143,99.54725714285715,0.19724999999999993,0.06574999999999998,-0.02066666666666661,0.20466666666666677,-0.045000000000001705,-0.057142857142849834,1.553,1.5114999999999998,38.324,29.826333333333334,38.161,35.1435,56.436,35.239,59.574,52.544,54.33,34.34,58.161500000000004,50.868,53.467,33.862,58.075,50.275333333333336,-0.1755,0.014999999999999902,0.10179500000000001,0.10967,0.0,213.025,213.11,209.89333333333332,209.89333333333332,0.0,0.0
19,0.0,0.0,0.0,1.0,1.0,0.0,0.0,1.0,0.0,100.0,1.0,1.1856,26.0,0.0,0.0,0.0,65.999997,0.0,26.0,26.0,26.0,26.0,0.16349999999999998,0.2905,0.04103333333333333,291.946,-2.7203,-2.521714285714286,-1.67445,-1.4023,-211.92000000000002,215.9375,190.594875,0.0,0.0,0.0,0.0,0.038666666666666516,-5.498166666666667,-5.498166666666667,-0.5497000000000001,0.8185,0.08344444444444421,-0.5670000000000002,68.189,0.0901,-0.211325,-1.6239999999999997,100.0,1.0,1.0,210.29666666666668,0.0,0.0,0.0,0.0,0.0,0.0,0.0,8913.7,0.0,55.0,5.0,245.45333333333335,1.0,0.0,0.0,0.0,0.0,0.0,1.0,0.0,0.9570000000000007,0.9570000000000007,0.0,0.0,1.0,55.0,616.79921,10000.0,85.000001,85.000001,85.000001,85.000001,395.0,0.0,0.0,0.0,1.0,166.665,51.666,51.666,47.44,47.44,34.0,-18.2125,30.996666666666666,-25.423333333333332,34.504999999999995,0.0,1782.028,-1.5249999999999986,100.0,27.935,28.816,42.272,43.856,0.0,0.0,100.0,0.0,0.0,0.0,0.0,3097.857142857143,3317.9,4208.25,4432.0,305.4735,304.1413333333333,314.7355,313.9265,21.9814,20.6181,21.956,21.4722,314.999998,314.999998,324.999988,324.999988,99.56028571428571,99.50745,99.56731428571429,99.54741428571428,0.21050000000000013,0.08299999999999996,-0.009499999999999953,0.21133333333333337,-0.041666666666671404,-0.0357142857142847,1.541,1.4855,38.384,29.863,38.225,35.201,56.429,35.283500000000004,59.609,52.6075,54.323,34.3805,58.194,50.9295,53.459,33.9015,58.104,50.33566666666667,-0.19500000000000006,0.04699999999999993,0.10515000000000001,0.10401,0.0,213.465,213.595,210.29666666666668,210.29666666666668,0.0,0.0
20,0.0,0.0,0.0,1.0,1.0,0.0,0.0,1.0,0.0,100.0,1.0,1.1856,26.0,0.0,0.0,0.0,65.999997,0.0,26.0,26.0,26.0,26.0,0.1937500000000001,0.27300000000000013,-0.051666666666666666,292.313,-2.8241,-2.580714285714286,-1.6095000000000002,-1.4020000000000001,-208.64999999999998,215.935,190.573875,0.0,0.0,0.0,0.0,0.04056666666666653,-5.498166666666667,-5.498166666666667,-0.5525,-1.0540000000000003,0.09477777777777785,-0.536,68.32,0.1053,-0.22055000000000002,-2.0139999999999993,100.0,1.0,1.0,210.58333333333331,0.0,0.0,0.0,0.0,0.0,0.0,0.0,8925.9,0.0,55.0,5.0,245.92666666666668,0.0,0.0,0.0,0.0,0.0,0.0,0.0,0.0,1.004999999999999,1.004999999999999,0.0,0.0,0.0,55.0,616.79921,10000.0,85.000001,85.000001,85.000001,85.000001,395.0,0.0,0.0,0.0,1.0,166.665,52.902,52.902,46.86,46.86,34.0,-15.9925,30.495,-23.266666666666666,36.06,0.0,1781.98,-1.7949999999999982,100.0,27.336,28.528,42.753,44.329,0.0,0.0,100.0,0.0,0.0,0.0,0.0,2794.5714285714284,3162.5,4154.75,4426.7,306.5185,304.6546666666667,314.7165,313.84525,21.990099999999998,20.6234,21.966,21.481,314.999998,314.999998,324.999988,324.999988,99.5603,99.50746666666667,99.56745714285714,99.54755714285714,0.23350000000000004,0.10024999999999995,0.011333333333333417,0.2333333333333334,-0.026666666666670835,-0.057142857142849834,1.5115,1.4335,38.438,29.896333333333335,38.287,35.256,56.418,35.323499999999996,59.647,52.6695,54.313,34.418,58.229,50.9895,53.448,33.9375,58.135999999999996,50.394666666666666,-0.21499999999999986,0.06099999999999994,0.11103,0.10544,0.0,213.81,213.965,210.58333333333331,210.58333333333331,0.0,0.0
21,0.0,0.0,0.0,1.0,1.0,0.0,0.0,1.0,0.0,100.0,1.0,1.1856,26.0,0.0,0.0,0.0,65.999997,0.0,26.0,26.0,26.0,26.0,0.23575000000000013,0.27300000000000013,-0.07780000000000001,292.648,-2.7521,-2.623142857142857,-1.683,-1.4652,-205.37,215.935,190.55225,0.0,0.0,0.0,0.0,0.04246666666666654,-5.498166666666667,-5.498166666666667,-0.5800000000000001,0.4564999999999999,0.08911111111111114,-0.7199999999999998,68.444,0.1269,-0.227825,-2.2880000000000003,100.0,1.0,1.0,211.24666666666667,0.0,0.0,0.0,0.0,0.0,0.0,0.0,8954.0,0.0,55.0,5.0,246.37,1.0,0.0,0.0,0.0,0.0,0.0,0.0,0.0,1.0530000000000008,1.0530000000000008,0.0,0.0,1.0,55.0,616.79921,10000.0,85.000001,85.000001,85.000001,85.000001,395.0,0.0,0.0,0.0,1.0,333.33500000000004,52.185,52.185,48.355000000000004,48.355000000000004,34.0,-16.96,31.64,-20.453333333333333,34.254999999999995,0.0,1781.931,-1.0749999999999993,100.0,27.529,28.784,42.025999999999996,44.007000000000005,0.0,0.0,100.0,0.0,0.0,0.0,0.0,3013.0,3227.8,3875.5,4075.8,305.78,304.372,315.54175,314.77925,21.9989,20.6289,21.9755,21.4895,314.999998,314.999998,324.999988,324.999988,99.56032857142857,99.50748333333334,99.56758571428571,99.5477,0.23175000000000012,0.09850000000000003,0.03816666666666668,0.26449999999999996,-0.054999999999999716,-0.04999999999999716,1.6395,1.561,38.492999999999995,29.930999999999997,38.347,35.3095,56.412,35.3675,59.6765,52.7275,54.307,34.4585,58.2565,51.045,53.44,33.9765,58.1605,50.449333333333335,-0.1904999999999999,0.034499999999999975,0.108545,0.10731500000000001,0.0,214.22500000000002,214.38,211.24666666666667,211.24666666666667,0.0,0.0
22,0.0,0.0,0.0,1.0,1.0,0.0,0.0,1.0,0.0,100.0,1.0,1.1856,26.0,0.0,0.0,0.0,65.999997,0.0,26.0,26.0,26.0,26.0,0.1881250000000001,0.26,0.026233333333333334,292.084,-2.7406,-2.6188571428571428,-1.6755,-1.5062,-201.87,215.9425,190.528375,0.0,0.0,0.0,0.0,0.044499999999999984,-5.498166666666667,-5.498166666666667,-0.5575,0.13749999999999996,0.09777777777777774,0.9090000000000003,68.583,0.14170000000000002,-0.20727500000000001,-1.3179999999999996,100.0,1.0,1.0,211.44333333333333,0.0,0.0,0.0,0.0,0.0,0.0,0.0,8962.4,0.0,55.0,5.0,246.87,0.0,0.0,0.0,0.0,0.0,0.0,0.0,0.0,1.1039999999999992,1.1039999999999992,0.0,0.0,0.0,55.0,616.79921,10000.0,85.000001,85.000001,85.000001,85.000001,395.0,0.0,0.0,0.0,1.0,333.33500000000004,52.2,52.2,47.15,47.15,34.0,-18.4225,29.02166666666667,-22.416666666666664,38.67,0.0,1781.879,0.10500000000000043,100.0,27.765,28.740000000000002,42.472,44.245000000000005,0.0,0.0,100.0,0.0,0.0,0.0,0.0,2808.857142857143,3305.7,4110.875,4413.7,306.168,304.258,314.85175,313.952,22.0083,20.6348,21.9859,21.4988,314.999998,314.999998,324.999988,324.999988,99.56035714285714,99.5075,99.56772857142857,99.54785714285714,0.16549999999999998,0.02124999999999999,0.038999999999999924,0.2613333333333332,-0.046666666666666856,-0.047142857142851824,1.506,1.4625,38.552,29.967333333333336,38.412,35.3675,56.400999999999996,35.41,59.7155,52.7935,54.297,34.498,58.292500000000004,51.109,53.428,34.0145,58.193,50.512,-0.07899999999999996,-0.08050000000000024,0.10403000000000001,0.10832000000000001,0.0,214.68,214.79000000000002,211.44333333333333,211.44333333333333,0.0,0.0
23,0.0,0.0,0.0,1.0,1.0,0.0,0.0,1.0,0.0,100.0,1.0,1.1856,26.0,0.0,0.0,0.0,65.999997,0.0,26.0,26.0,26.0,26.0,0.10775000000000001,0.2501,-0.03273333333333333,292.038,-2.7527,-2.5891428571428574,-1.5803,-1.546,-198.37,215.95499999999998,190.505,0.0,0.0,0.0,0.0,0.046533333333333315,-5.498166666666667,-5.498166666666667,-0.5758,-0.2909999999999999,0.06488888888888877,-1.359,68.717,0.10990000000000001,-0.23375,0.13400000000000034,100.0,1.0,1.0,211.94333333333333,0.0,0.0,0.0,0.0,0.0,0.0,0.0,8983.5,0.0,55.0,5.0,247.35666666666668,1.0,0.0,0.0,0.0,0.0,0.0,0.0,0.0,1.1550000000000011,1.1550000000000011,0.0,0.0,1.0,55.0,616.79921,10000.0,85.000001,85.000001,85.000001,85.000001,395.0,0.0,0.0,0.0,1.0,333.33500000000004,51.666,51.666,47.989,47.989,34.0,-24.9925,25.425,-23.43,32.1175,0.0,1781.827,0.7250000000000014,100.0,27.949,28.832,42.732,44.501000000000005,0.0,0.0,100.0,0.0,0.0,0.0,0.0,3278.5714285714284,3166.7,3972.125,4025.0,305.0885,304.601,315.18025,314.768,22.0176,20.6406,21.996299999999998,21.5081,314.999998,314.999998,324.999988,324.999988,99.56037142857143,99.5075,99.56788571428571,99.54801428571429,0.09749999999999992,-0.027249999999999996,-0.02400000000000002,0.19966666666666666,-0.04833333333333201,-0.03857142857143003,1.5155,1.5194999999999999,38.61,30.003666666666668,38.477000000000004,35.4255,56.387,35.452,59.754,52.8615,54.283,34.537,58.328,51.1745,53.414,34.052,58.2255,50.57666666666667,-0.018000000000000016,-0.13149999999999995,0.112555,0.10253000000000001,0.0,215.13,215.13,211.94333333333333,211.94333333333333,0.0,0.0
24,0.0,0.0,0.0,1.0,1.0,0.0,0.0,1.0,0.0,100.0,1.0,1.1856,26.0,0.0,0.0,0.0,65.999997,0.0,26.0,26.0,26.0,26.0,0.018874999999999975,0.27580000000000005,0.0018333333333333333,292.374,-2.7452,-2.6284285714285716,-1.5952000000000002,-1.5143,-195.07,215.9675,190.4825,0.0,0.0,0.0,0.0,0.04846666666666655,-5.498166666666667,-5.498166666666667,-0.5778,-0.4375,0.04400000000000004,-0.6019999999999999,68.845,0.055,-0.216,0.9500000000000002,100.0,1.0,1.0,212.26,0.0,0.0,0.0,0.0,0.0,0.0,0.0,8996.9,0.0,55.0,5.0,247.81333333333333,0.0,0.0,0.0,0.0,0.0,0.0,0.0,0.0,1.2029999999999994,1.2029999999999994,0.0,0.0,0.0,55.0,616.79921,10000.0,85.000001,85.000001,85.000001,85.000001,395.0,0.0,0.0,0.0,1.0,166.665,52.872,52.872,47.089,47.089,34.0,-23.497500000000002,21.56833333333333,-30.066666666666663,29.1825,0.0,1781.782,1.0300000000000011,100.0,27.892,28.358,42.956,44.074,0.0,0.0,100.0,0.0,0.0,0.0,0.0,2936.714285714286,2945.6,4357.375,4104.1,306.0435,305.388,314.2865,314.69825,22.0265,20.6458,22.0062,21.5167,314.999998,314.999998,324.999988,324.999988,99.56038571428572,99.5075,99.56801428571428,99.54814285714286,0.059250000000000025,-0.07850000000000001,-0.08750000000000002,0.139,-0.051666666666669414,-0.03714285714285381,1.4914999999999998,1.5364999999999998,38.665,30.03633333333333,38.539,35.479,56.373000000000005,35.4855,59.7875,52.9155,54.269999999999996,34.5685,58.359,51.2265,53.399,34.082,58.2535,50.62733333333333,0.0034999999999998366,-0.15700000000000003,0.10602500000000001,0.10876000000000001,0.0,215.575,215.485,212.26,212.26,0.0,0.0
25,0.0,0.0,0.0,1.0,1.0,0.0,0.0,1.0,0.0,100.0,1.0,1.1856,26.0,0.0,0.0,0.0,65.999997,0.0,26.0,26.0,26.0,26.0,-0.0615,0.2579,-0.07563333333333334,292.389,-2.7735,-2.630714285714286,-1.5808,-1.5469000000000002,-191.55,215.98000000000002,190.45725,0.0,0.0,0.0,0.0,0.05049999999999999,-5.498166666666667,-5.498166666666667,-0.6128,-0.09050000000000002,0.014777777777777779,-0.7189999999999999,68.977,-0.009600000000000001,-0.227225,1.4220000000000006,100.0,1.0,1.0,212.81333333333333,0.0,0.0,0.0,0.0,0.0,0.0,0.0,9020.3,0.0,55.0,5.0,248.29000000000002,1.0,0.0,0.0,0.0,0.0,0.0,0.0,0.0,1.2540000000000013,1.2540000000000013,0.0,0.0,1.0,55.0,616.79921,10000.0,85.000001,85.000001,85.000001,85.000001,395.0,0.0,0.0,0.0,1.0,166.665,51.987,51.987,47.913,47.913,34.0,-27.785,22.993333333333332,-28.990000000000002,25.637500000000003,0.0,1781.73,1.0549999999999997,100.0,28.139,28.178,43.099000000000004,43.409,0.0,0.0,100.0,0.0,0.0,0.0,0.0,3187.714285714286,3287.0,3977.625,3982.2,305.2855,304.495,315.208,315.0545,22.035800000000002,20.6515,22.0165,21.5257,314.999998,314.999998,324.999988,324.999988,99.56038571428572,99.50751666666666,99.56815714285715,99.54828571428571,0.021500000000000075,-0.10775000000000001,-0.1376666666666666,0.08516666666666683,-0.036666666666668846,-0.06714285714285495,1.543,1.5905,38.724000000000004,30.071666666666665,38.602999999999994,35.5355,56.355000000000004,35.527,59.8225,52.9735,54.251999999999995,34.6065,58.391999999999996,51.282,53.381,34.119,58.283500000000004,50.682,0.0030000000000001137,-0.16300000000000026,0.10693000000000001,0.1033,0.0,215.985,215.89,212.81333333333333,212.81333333333333,0.0,0.0
26,0.0,0.0,0.0,1.0,1.0,0.0,0.0,1.0,0.0,100.0,1.0,1.1856,26.0,0.0,0.0,0.0,65.999997,0.0,26.0,26.0,26.0,26.0,-0.11375000000000002,0.27560000000000007,0.05743333333333334,291.168,-2.6744,-2.7528571428571427,-1.58585,-1.5817,-188.03,215.9925,190.431375,0.0,0.0,0.0,0.0,0.05253333333333332,-5.498166666666667,-5.498166666666667,-0.5719000000000001,0.792,-0.05333333333333368,-1.565,69.113,-0.0604,-0.196575,1.718,100.0,1.0,1.0,212.98333333333335,0.0,0.0,0.0,0.0,0.0,0.0,0.0,9027.5,0.0,55.0,5.0,248.78,0.0,0.0,0.0,0.0,0.0,0.0,0.0,0.0,1.3049999999999997,1.3049999999999997,0.0,0.0,0.0,55.0,616.79921,10000.0,85.000001,85.000001,85.000001,85.000001,395.0,0.0,0.0,0.0,1.0,333.33500000000004,51.331,51.331,46.265,46.265,34.0,-29.77,20.14,-38.75666666666666,26.197499999999998,0.0,1781.678,0.9450000000000003,100.0,29.181,28.673000000000002,43.938,43.452,0.0,0.0,100.0,0.0,0.0,0.0,0.0,3353.857142857143,2972.7,4647.125,4326.5,304.789,305.11333333333334,313.69175,314.165,22.0456,20.6572,22.0272,21.5348,314.999998,314.999998,324.999988,324.999988,99.5604,99.50753333333333,99.56831428571428,99.54842857142857,-0.005750000000000033,-0.15049999999999997,-0.1921666666666666,0.027833333333333377,-0.03333333333333144,-0.04999999999999716,1.4184999999999999,1.4825,38.785,30.107333333333333,38.67,35.5925,56.341,35.5725,59.8645,53.033500000000004,54.239000000000004,34.6485,58.431,51.34,53.367000000000004,34.159,58.3195,50.73866666666667,-0.008499999999999952,-0.15700000000000003,0.09792500000000001,0.108465,0.0,216.45,216.32999999999998,212.98333333333335,212.98333333333335,0.0,0.0
27,0.0,0.0,0.0,1.0,1.0,0.0,0.0,1.0,0.0,100.0,1.0,1.1856,26.0,0.0,0.0,0.0,65.999997,0.0,26.0,26.0,26.0,26.0,-0.128625,0.2499,-0.002533333333333333,291.504,-2.6156,-2.7464285714285714,-1.5604,-1.6736,-184.70999999999998,216.0,190.40825,0.0,0.0,0.0,0.0,0.05446666666666655,-5.498166666666667,-5.498166666666667,-0.596,-1.089,-0.07277777777777805,-0.8759999999999999,69.237,-0.0912,-0.24205000000000002,1.620000000000001,100.0,1.0,1.0,213.44,0.0,0.0,0.0,0.0,0.0,0.0,0.0,9046.9,0.0,55.0,5.0,249.23000000000002,1.0,0.0,0.0,0.0,0.0,0.0,0.0,0.0,1.352999999999998,1.352999999999998,0.0,0.0,1.0,55.0,616.79921,10000.0,85.000001,85.000001,85.000001,85.000001,395.0,0.0,0.0,0.0,1.0,333.33500000000004,51.682,51.682,46.646,46.646,34.0,-30.085,18.816666666666666,-35.74333333333334,23.89,0.0,1781.631,0.7650000000000006,100.0,29.048000000000002,28.258,44.897,43.801,0.0,0.0,100.0,0.0,0.0,0.0,0.0,3334.0,2962.3,4243.25,4005.9,304.83,305.30466666666666,314.5545,314.8145,22.0547,20.6623,22.0373,21.5436,314.999998,314.999998,324.999988,324.999988,99.5604,99.50755,99.56845714285714,99.54857142857144,-0.02949999999999997,-0.17525000000000002,-0.22050000000000003,0.00316666666666654,-0.046666666666666856,-0.054285714285711606,1.4685000000000001,1.52,38.842,30.139,38.733000000000004,35.6475,56.325,35.6125,59.9055,53.091499999999996,54.224000000000004,34.6855,58.4695,51.3955,53.352000000000004,34.194,58.355000000000004,50.79233333333333,-0.024499999999999966,-0.14849999999999985,0.10390500000000001,0.10952,0.0,216.775,216.655,213.44,213.44,0.0,0.0
28,0.0,0.0,0.0,1.0,1.0,0.0,0.0,1.0,0.0,100.0,1.0,1.1856,26.0,0.0,0.0,0.0,65.999997,0.0,26.0,26.0,26.0,26.0,-0.17037499999999994,0.2630000000000001,-0.06323333333333334,291.87,-2.6304,-2.7447142857142857,-1.50115,-1.641,-181.18,216.0075,190.382875,0.0,0.0,0.0,0.0,0.056533333333333324,-5.498166666666667,-5.498166666666667,-0.6,0.639,-0.08477777777777806,0.6080000000000001,69.367,-0.11230000000000001,-0.21860000000000002,1.482000000000001,100.0,1.0,1.0,213.96666666666667,0.0,0.0,0.0,0.0,0.0,0.0,0.0,9069.2,0.0,55.0,5.0,249.69333333333333,0.0,0.0,0.0,0.0,0.0,0.0,0.0,0.0,1.404,1.404,0.0,0.0,0.0,55.0,616.79921,10000.0,85.000001,85.000001,85.000001,85.000001,395.0,0.0,0.0,0.0,1.0,333.33500000000004,51.743,51.743,47.501,47.501,34.0,-29.8375,19.405,-34.05,22.75,0.0,1781.578,0.5949999999999989,100.0,29.375,27.966,44.378,43.044,0.0,0.0,100.0,0.0,0.0,0.0,0.0,3280.857142857143,3001.4,4130.375,4072.1000000000004,304.85,305.34166666666664,314.8195,314.86425,22.0644,20.6678,22.0476,21.5525,314.999998,314.999998,324.999988,324.999988,99.5604,99.50758333333333,99.56861428571429,99.54872857142857,-0.028749999999999942,-0.16400000000000003,-0.22950000000000004,-0.01100000000000001,-0.036666666666668846,-0.048571428571428044,1.517,1.5709999999999997,38.903,30.173666666666666,38.798,35.703,56.311,35.659,59.9445,53.1505,54.21,34.7285,58.506,51.4525,53.337,34.2355,58.388,50.84766666666667,-0.038000000000000034,-0.12400000000000011,0.10208,0.106495,0.0,217.24,217.095,213.96666666666667,213.96666666666667,0.0,0.0
29,0.0,0.0,0.0,1.0,1.0,0.0,0.0,1.0,0.0,100.0,1.0,1.1856,26.0,0.0,0.0,0.0,65.999997,0.0,26.0,26.0,26.0,26.0,-0.16849999999999998,0.26439999999999997,0.0361,291.428,-2.5719,-2.7047142857142856,-1.53445,-1.6238000000000001,-177.64,216.0075,190.3565,0.0,0.0,0.0,0.0,0.058599999999999985,-5.498166666666667,-5.498166666666667,-0.6085,-0.7669999999999999,-0.08455555555555572,-0.6829999999999998,69.502,-0.1144,-0.21745,1.2240000000000002,100.0,1.0,1.0,214.20333333333332,0.0,0.0,0.0,0.0,0.0,0.0,0.0,9079.3,0.0,55.0,5.0,250.18,1.0,0.0,0.0,0.0,0.0,0.0,0.0,0.0,1.4549999999999983,1.4549999999999983,0.0,0.0,1.0,55.0,616.79921,10000.0,85.000001,85.000001,85.000001,85.000001,395.0,0.0,0.0,0.0,1.0,166.665,51.59,51.59,46.448,46.448,34.0,-30.655,19.310000000000002,-38.016666666666666,23.22,0.0,1781.527,0.4750000000000014,100.0,28.905,27.893,44.741,43.301,0.0,0.0,100.0,0.0,0.0,0.0,0.0,3431.5714285714284,3103.8,4371.75,4135.6,304.5695,304.9513333333333,314.2205,314.57025,22.073999999999998,20.6731,22.0583,21.561700000000002,314.999998,314.999998,324.999988,324.999988,99.5604,99.50758333333333,99.56875714285714,99.54887142857143,-0.02949999999999997,-0.17674999999999996,-0.242,-0.013666666666666605,-0.03833333333332689,-0.03285714285714647,1.444,1.4945,38.962,30.207,38.864000000000004,35.7605,56.294,35.701499999999996,59.988,53.210499999999996,54.195,34.768,58.5465,51.51,53.321,34.272999999999996,58.4255,50.903999999999996,-0.04899999999999993,-0.12049999999999983,0.110155,0.10692000000000002,0.0,217.595,217.48000000000002,214.20333333333332,214.20333333333332,0.0,0.0
30,0.0,0.0,0.0,1.0,1.0,0.0,0.0,1.0,0.0,100.0,1.0,1.1856,26.0,0.0,0.0,0.0,65.999997,0.0,26.0,26.0,26.0,26.0,-0.14512499999999995,0.2562,0.0631,291.092,-2.6212999999999997,-2.6958571428571427,-1.4729,-1.7005000000000001,-174.09,216.005,190.330125,0.0,0.0,0.0,0.0,0.060666666666666536,-5.498166666666667,-5.498166666666667,-0.6022000000000001,0.815,-0.0868888888888888,0.9370000000000003,69.631,-0.1068,-0.21655000000000002,1.0540000000000003,100.0,1.0,1.0,214.65,0.0,0.0,0.0,0.0,0.0,0.0,0.0,9098.3,0.0,55.0,5.0,250.64333333333335,0.0,0.0,0.0,0.0,0.0,0.0,1.0,0.0,1.5060000000000002,1.5060000000000002,0.0,0.0,0.0,55.0,616.79921,10000.0,85.000001,85.000001,85.000001,85.000001,395.0,0.0,0.0,0.0,1.0,166.665,50.934,50.934,46.906,46.906,34.0,-30.14,19.57333333333333,-35.03666666666666,25.700000000000003,0.0,1781.479,0.2699999999999996,100.0,29.939,28.419,44.688,43.188,0.0,0.0,100.0,0.0,0.0,0.0,0.0,3432.857142857143,3040.2,4321.25,4218.4,304.3765,305.17333333333335,314.34825,314.41075,22.0839,20.6788,22.0687,21.5708,314.999998,314.999998,324.999988,324.999988,99.56041428571429,99.50761666666666,99.56891428571429,99.54901428571429,-0.0014999999999999458,-0.15774999999999995,-0.21383333333333332,0.0013333333333334085,-0.026666666666670835,-0.057142857142849834,1.4649999999999999,1.4924999999999997,39.024,30.242333333333335,38.93,35.818,56.283,35.7445,60.024,53.2655,54.185,34.8075,58.581,51.5625,53.309,34.311,58.457,50.955,-0.06899999999999995,-0.11149999999999993,0.106395,0.10694500000000001,0.0,218.01999999999998,217.945,214.65,214.65,0.0,0.0
31,0.0,0.0,0.0,1.0,1.0,0.0,0.0,1.0,0.0,100.0,1.0,1.1856,26.0,0.0,0.0,0.0,65.999997,0.0,26.0,26.0,26.0,26.0,-0.127625,0.26470000000000016,0.0041333333333333335,291.077,-2.6932,-2.7687142857142857,-1.5602,-1.6714,-170.74,216.0,190.305875,0.0,0.0,0.0,0.0,0.06259999999999999,-5.498166666666667,-5.498166666666667,-0.5894,-0.6600000000000001,-0.07577777777777772,0.5780000000000003,69.755,-0.093,-0.2192,0.6200000000000001,100.0,1.0,1.0,214.93333333333334,0.0,0.0,0.0,0.0,0.0,0.0,0.0,9110.2,0.0,55.0,5.0,251.09333333333336,1.0,0.0,0.0,0.0,0.0,0.0,1.0,0.0,1.5539999999999985,1.5539999999999985,0.0,0.0,1.0,55.0,616.79921,10000.0,85.000001,85.000001,85.000001,85.000001,395.0,0.0,0.0,0.0,1.0,333.33500000000004,51.605000000000004,51.605000000000004,45.471000000000004,45.471000000000004,34.0,-27.33,20.86333333333333,-36.489999999999995,26.795,0.0,1781.43,0.16000000000000014,100.0,29.518,28.473,45.296,43.8,0.0,0.0,100.0,0.0,0.0,0.0,0.0,3150.5714285714284,3054.2,4440.75,4264.0,305.407,305.12033333333335,314.036,314.41625,22.0929,20.6841,22.0789,21.5797,314.999998,314.999998,324.999988,324.999988,99.56041428571429,99.50763333333333,99.56905714285715,99.54915714285714,0.006750000000000034,-0.14625,-0.1935,0.02416666666666667,-0.046666666666666856,-0.04142857142856826,1.452,1.476,39.08,30.275333333333336,38.992999999999995,35.873,56.268,35.786,60.0655,53.323499999999996,54.17,34.8455,58.6195,51.618,53.294,34.3475,58.4925,51.00933333333333,-0.07499999999999996,-0.09650000000000025,0.10623,0.1034,0.0,218.375,218.31,214.93333333333334,214.93333333333334,0.0,0.0
32,0.0,0.0,0.0,1.0,1.0,0.0,0.0,1.0,0.0,100.0,1.0,1.1856,26.0,0.0,0.0,0.0,65.999997,0.0,26.0,26.0,26.0,26.0,-0.10137499999999999,0.25960000000000005,-0.07926666666666667,291.397,-2.6509,-2.706,-1.5886,-1.5758,-167.18,215.9925,190.28025,0.0,0.0,0.0,0.0,0.06466666666666654,-5.498166666666667,-5.498166666666667,-0.6108,0.16749999999999998,-0.09788888888888891,-0.7970000000000002,69.882,-0.0787,-0.23075,0.6379999999999999,100.0,1.0,1.0,215.51333333333332,0.0,0.0,0.0,0.0,0.0,0.0,0.0,9134.9,0.0,55.0,5.0,251.54666666666668,0.0,0.0,0.0,0.0,0.0,0.0,1.0,0.0,1.6050000000000004,1.6050000000000004,0.0,0.0,0.0,55.0,616.79921,10000.0,85.000001,85.000001,85.000001,85.000001,395.0,0.0,0.0,0.0,1.0,166.665,51.224000000000004,51.224000000000004,46.86,46.86,34.0,-29.21,20.531666666666666,-34.01,23.877499999999998,0.0,1781.38,0.11500000000000199,100.0,29.362000000000002,28.694,44.744,43.63,0.0,0.0,100.0,0.0,0.0,0.0,0.0,3425.5714285714284,2997.3,4211.625,4059.0,304.622,305.18766666666664,314.7715,314.95375,22.1025,20.6897,22.0893,21.5888,314.999998,314.999998,324.999988,324.999988,99.56041428571429,99.50765,99.5692,99.5493,0.016750000000000043,-0.13249999999999995,-0.19533333333333336,0.030000000000000027,-0.05666666666667197,-0.04285714285714448,1.5354999999999999,1.561,39.14,30.310666666666666,39.058,35.93,56.253,35.829499999999996,60.1025,53.379999999999995,54.156,34.885999999999996,58.6545,51.673,53.278999999999996,34.385999999999996,58.5245,51.062333333333335,-0.08050000000000002,-0.08899999999999997,0.11025000000000001,0.10347500000000001,0.0,218.775,218.72,215.51333333333332,215.51333333333332,0.0,0.0
33,0.0,0.0,0.0,1.0,1.0,0.0,0.0,1.0,0.0,100.0,1.0,1.1856,26.0,0.0,0.0,0.0,65.999997,0.0,26.0,26.0,26.0,26.0,-0.07850000000000001,0.26890000000000014,-0.015433333333333335,291.382,-2.6475,-2.737,-1.5549,-1.5894000000000001,-163.82,215.98000000000002,190.255125,0.0,0.0,0.0,0.0,0.06663333333333332,-5.498166666666667,-5.498166666666667,-0.6111,-0.37150000000000016,-0.08755555555555583,0.06400000000000006,70.005,-0.062400000000000004,-0.21507500000000002,0.42600000000000016,100.0,1.0,1.0,215.75,0.0,0.0,0.0,0.0,0.0,0.0,0.0,9144.9,0.0,55.0,5.0,251.99333333333334,1.0,0.0,0.0,0.0,0.0,0.0,1.0,0.0,1.6529999999999987,1.6529999999999987,0.0,0.0,1.0,55.0,616.79921,10000.0,85.000001,85.000001,85.000001,85.000001,395.0,0.0,0.0,0.0,1.0,166.665,51.819,51.819,46.402,46.402,34.0,-27.0625,20.77,-34.69,26.445,0.0,1781.331,0.0,100.0,29.176000000000002,28.453,44.739000000000004,43.761,0.0,0.0,100.0,0.0,0.0,0.0,0.0,3250.0,2933.9,4358.625,4239.4,305.195,305.44033333333334,314.35575,314.3865,22.1114,20.6948,22.0992,21.5975,314.999998,314.999998,324.999988,324.999988,99.56042857142857,99.50766666666667,99.56935714285714,99.54944285714285,0.023749999999999938,-0.11975000000000002,-0.18299999999999994,0.042166666666666686,-0.054999999999999716,-0.04142857142856826,1.488,1.496,39.196,30.342666666666666,39.12,35.984,56.238,35.8665,60.1395,53.4365,54.141,34.92,58.689,51.7265,53.263999999999996,34.4185,58.556,51.114666666666665,-0.08299999999999996,-0.08300000000000018,0.112,0.10457500000000002,0.0,219.14499999999998,219.095,215.75,215.75,0.0,0.0
34,0.0,0.0,0.0,1.0,1.0,0.0,0.0,1.0,0.0,100.0,1.0,1.1856,26.0,0.0,0.0,0.0,65.999997,0.0,26.0,26.0,26.0,26.0,-0.06187500000000001,0.25880000000000014,-0.06516666666666666,291.763,-2.6678,-2.7047142857142856,-1.594,-1.6081,-160.04,215.965,190.225625,0.0,0.0,0.0,0.0,0.0688333333333333,-5.498166666666667,-5.498166666666667,-0.6451,-0.7965,-0.05122222222222206,0.05699999999999994,70.14,-0.046200000000000005,-0.228,0.3639999999999999,100.0,1.0,1.0,216.24,0.0,0.0,0.0,0.0,0.0,0.0,0.0,9165.6,0.0,55.0,5.0,252.48000000000002,0.0,0.0,0.0,0.0,0.0,0.0,1.0,0.0,1.7070000000000007,1.7070000000000007,0.0,0.0,0.0,55.0,616.79921,10000.0,85.000001,85.000001,85.000001,85.000001,395.0,0.0,0.0,0.0,1.0,166.665,52.048,52.048,47.333,47.333,34.0,-26.3175,21.333333333333332,-31.46,26.877499999999998,0.0,1781.277,-0.03999999999999915,100.0,28.856,28.167,44.429,43.887,0.0,0.0,100.0,0.0,0.0,0.0,0.0,3205.4285714285716,2947.8,4097.625,4116.0,305.146,305.4033333333333,314.97325,314.63825,22.1214,20.7006,22.1102,21.6073,314.999998,314.999998,324.999988,324.999988,99.56042857142857,99.50768333333333,99.56951428571429,99.5496,0.040999999999999925,-0.10150000000000003,-0.16066666666666662,0.0645,-0.060000000000002274,-0.04999999999999716,1.5215,1.5299999999999998,39.257999999999996,30.378999999999998,39.189,36.045500000000004,56.221000000000004,35.9075,60.1775,53.499,54.125,34.958,58.7245,51.787,53.247,34.455,58.588,51.17366666666667,-0.08299999999999996,-0.07650000000000023,0.10444500000000001,0.11298500000000002,0.0,219.55,219.49,216.24,216.24,0.0,0.0
35,0.0,0.0,0.0,1.0,1.0,0.0,0.0,1.0,0.0,100.0,1.0,1.1856,26.0,0.0,0.0,0.0,65.999997,0.0,26.0,26.0,26.0,26.0,-0.04949999999999999,0.24860000000000015,-0.05303333333333334,291.733,-2.6723,-2.6861428571428574,-1.5659,-1.6136000000000001,-156.45999999999998,215.95,190.1955,0.0,0.0,0.0,0.0,0.07089999999999996,-5.498166666666667,-5.498166666666667,-0.6863,-0.37849999999999984,-0.05233333333333334,-0.05500000000000016,70.267,-0.0344,-0.230725,0.12200000000000077,100.0,1.0,1.0,216.7,0.0,0.0,0.0,0.0,0.0,0.0,0.0,9185.1,0.0,55.0,5.0,252.93666666666667,1.0,0.0,0.0,0.0,0.0,0.0,1.0,0.0,1.7579999999999991,1.7579999999999991,0.0,0.0,1.0,55.0,616.79921,10000.0,85.000001,85.000001,85.000001,85.000001,395.0,0.0,0.0,0.0,1.0,166.665,51.483000000000004,51.483000000000004,47.012,47.012,34.0,-25.45,25.31,-29.196666666666665,26.740000000000002,0.0,1781.226,-0.05999999999999872,100.0,28.759,28.384,44.157,43.442,0.0,0.0,100.0,0.0,0.0,0.0,0.0,3200.5714285714284,3351.3,4010.5,3959.3,305.1675,304.296,315.09025,315.08875,22.1305,20.7063,22.1205,21.6163,314.999998,314.999998,324.999988,324.999988,99.56042857142857,99.50768333333333,99.56965714285714,99.54974285714286,0.0605,-0.08224999999999993,-0.1383333333333333,0.08883333333333332,-0.03333333333333144,-0.054285714285711606,1.554,1.5564999999999998,39.316,30.41433333333333,39.253,36.102000000000004,56.203,35.9475,60.2125,53.555,54.108000000000004,34.995,58.757,51.841,53.229,34.4905,58.6175,51.226,-0.08749999999999991,-0.07500000000000018,0.108615,0.114305,0.0,219.905,219.91,216.7,216.7,0.0,0.0
