,ABS Active,ABS Enabled,AID Allow Tire Blankets,AID Auto Blip,AID Auto Clutch,AID Auto Shift,AID Fuel Rate,AID Ideal Line,AID Mech Damage,AID Stability,AID Tire Wear Rate,Air Density,Air Temp,Ballast,Best Lap Delta,Best Lap Time,Brake Bias,Brake Pos,Brake Temp FL,Brake Temp FR,Brake Temp RL,Brake Temp RR,CG Accel Lateral,CG Accel Longitudinal,CG Accel Vertical,CG Height,Camber FL,Camber FR,Camber RL,Camber RR,Car Coord X,Car Coord Y,Car Coord Z,Car Damage Front,Car Damage Left,Car Damage Rear,Car Damage Right,Car Pos Norm,Caster FL,Caster FR,Chassis Pitch Angle,Chassis Pitch Rate,Chassis Roll Angle,Chassis Roll Rate,Chassis Velocity X,Chassis Velocity Y,Chassis Velocity Z,Chassis Yaw Rate,Clutch Pos,DRS Active,DRS Available,Drive Train Speed,ERS Heat Charging,ERS Is Charging,ERS Max Energy,ERS Power Level,ERS Recovery Level,Engine Brake Setting,Engine Limiter,Engine RPM,Flags,Fuel Level,Gear,Ground Speed,HR Sample Clock,In Pit,KERS Charge,KERS Deployed Energy,KERS Input,KERS Max Energy,LR Sample Clock,Lap Invalidated,Lap Time,Lap Time2,Last Lap Time,Last Sector Time,MR Sample Clock,Max Fuel,Max Power,Max RPM,Max Sus Travel FL,Max Sus Travel FR,Max Sus Travel RL,Max Sus Travel RR,Max Torque,Max Turbo Boost,Num Tires Off Track,Penalties Enabled,Position,Raw Data Sample Rate,Ride Height FL,Ride Height FR,Ride Height RL,Ride Height RR,Road Temp,Self Align Torque FL,Self Align Torque FR,Self Align Torque RL,Self Align Torque RR,Session Lap Count,Session Time Left,Steering Angle,Surface Grip,Suspension Travel FL,Suspension Travel FR,Suspension Travel RL,Suspension Travel RR,TC Active,TC Enabled,Throttle Pos,Tire Dirt Level FL,Tire Dirt Level FR,Tire Dirt Level RL,Tire Dirt Level RR,Tire Load FL,Tire Load FR,Tire Load RL,Tire Load RR,Tire Loaded Radius FL,Tire Loaded Radius FR,Tire Loaded Radius RL,Tire Loaded Radius RR,Tire Pressure FL,Tire Pressure FR,Tire Pressure RL,Tire Pressure RR,Tire Radius FL,Tire Radius FR,Tire Radius RL,Tire Radius RR,Tire Rubber Grip FL,Tire Rubber Grip FR,Tire Rubber Grip RL,Tire Rubber Grip RR,Tire Slip Angle FL,Tire Slip Angle FR,Tire Slip Angle RL,Tire Slip Angle RR,Tire Slip Ratio FL,Tire Slip Ratio FR,Tire Slip Ratio RL,Tire Slip Ratio RR,Tire Temp Core FL,Tire Temp Core FR,Tire Temp Core RL,Tire Temp Core RR,Tire Temp Inner FL,Tire Temp Inner FR,Tire Temp Inner RL,Tire Temp Inner RR,Tire Temp Middle FL,Tire Temp Middle FR,Tire Temp Middle RL,Tire Temp Middle RR,Tire Temp Outer FL,Tire Temp Outer FR,Tire Temp Outer RL,Tire Temp Outer RR,Toe In FL,Toe In FR,Toe In RL,Toe In RR,Turbo Boost,Wheel Angular Speed FL,Wheel Angular Speed FR,Wheel Angular Speed RL,Wheel Angular Speed RR,Wind Direction,Wind Speed
0,0.0,0.0,0.0,1.0,1.0,0.0,0.0,1.0,0.0,100.0,1.0,1.1856,26.0,0.0,0.0,0.0,65.99999,0.0,26.0,26.0,26.0,26.0,-0.085,0.30479999999999996,0.06475,293.869,-2.7165,-2.6557142857142857,-1.51395,-1.5575714285714284,-275.59,216.29500000000002,190.986875,0.0,0.0,0.0,0.0,0.0016333333333333755,-5.498166666666667,-5.498166666666667,-0.5487000000000001,1.7465,-0.01200000000000001,-1.552,65.502,-0.0388,-0.21577500000000002,1.0280000000000005,100.0,1.0,1.0,202.21333333333334,0.0,0.0,0.0,0.0,0.0,0.0,0.0,8571.1,0.0,55.0,5.0,235.77666666666667,0.0,0.0,0.0,0.0,0.0,0.0,0.0,0.0,0.006000000000000227,0.006000000000000227,0.0,0.0,0.0,55.0,616.79921,10000.0,85.0,85.0,85.0,85.0,395.0,0.0,0.0,0.0,1.0,20.0,52.567,52.567,49.423,49.423,34.0,-27.0125,22.672,-31.806666666666665,24.512500000000003,0.0,1782.88,0.8100000000000023,100.0,27.578,27.294,40.442,40.501,0.0,0.0,100.0,0.0,0.0,0.0,0.0,3059.5714285714284,3312.2,4231.125,4008.4,305.5875,304.1535,314.62075,314.80575,21.7674,20.5133,21.771,21.31,314.99999,314.99999,324.99998,324.99998,99.55832857142858,99.50716666666666,99.56504285714286,99.54504285714286,-0.006249999999999978,-0.128,-0.1708333333333334,0.05400000000000005,-0.046666666666666856,-0.051666666666669414,1.5413333333333332,1.5795,37.046,29.208,37.069,34.1875,56.077,34.4645,59.0115,51.521,54.013999999999996,33.649,57.6425,49.8855,53.196,33.225,57.608000000000004,49.314,-0.013500000000000068,-0.14100000000000001,0.11384000000000001,0.10266000000000002,0.0,205.28,205.185,202.21333333333334,202.21333333333334,0.0,0.0
1,0.0,0.0,0.0,1.0,1.0,0.0,0.0,1.0,0.0,100.0,1.0,1.1856,26.0,0.0,0.0,0.0,65.999997,0.0,26.0,26.0,26.0,26.0,-0.091875,0.3208,0.20595000000000002,293.015,-2.6310000000000002,-2.771714285714286,-1.5246,-1.5571428571428574,-272.05,216.29000000000002,190.96575,0.0,0.0,0.0,0.0,0.0036999999999999256,-5.498166666666667,-5.498166666666667,-0.49760000000000004,-0.9904999999999999,-0.062333333333333574,-1.174,65.66499999999999,-0.0536,-0.19637500000000002,1.404,100.0,1.0,1.0,202.42333333333335,0.0,0.0,0.0,0.0,0.0,0.0,0.0,8580.0,0.0,55.0,5.0,236.36333333333334,1.0,0.0,0.0,0.0,0.0,0.0,0.0,0.0,0.05999999999999872,0.05999999999999872,0.0,0.0,1.0,55.0,616.79921,10000.0,85.000001,85.000001,85.000001,85.000001,395.0,0.0,0.0,0.0,1.0,166.665,53.589,53.589,48.263999999999996,48.263999999999996,34.0,-27.4125,17.87,-33.336666666666666,29.3225,0.0,1782.825,0.9050000000000011,100.0,27.493,26.928,42.941,41.874,0.0,0.0,100.0,0.0,0.0,0.0,0.0,3145.0,2687.6,4266.625,4701.2,305.3655,306.28275,314.41775,313.119,21.7778,20.5186,21.7825,21.3197,314.999998,314.999998,324.999988,324.999988,99.55832857142858,99.5072,99.5652,99.5452,-0.014000000000000012,-0.14649999999999996,-0.1775,0.03933333333333322,-0.03833333333332689,-0.04833333333333201,1.431,1.4595,37.111000000000004,29.241,37.141,34.248,56.06,34.507,59.059,51.591499999999996,53.998000000000005,33.688,57.6865,49.9535,53.179,33.262,57.649,49.38033333333333,-0.008999999999999897,-0.15100000000000025,0.09724000000000001,0.11000000000000001,0.0,205.74,205.615,202.42333333333335,202.42333333333335,0.0,0.0
2,0.0,0.0,0.0,1.0,1.0,0.0,0.0,1.0,0.0,100.0,1.0,1.1856,26.0,0.0,0.0,0.0,65.999997,0.0,26.0,26.0,26.0,26.0,-0.147125,0.29700000000000015,-0.07752500000000001,293.579,-2.5992,-2.7935714285714286,-1.4913,-1.6081428571428575,-268.69,216.2825,190.94675,0.0,0.0,0.0,0.0,0.005666666666666598,-5.498166666666667,-5.498166666666667,-0.5472,0.2869999999999999,-0.046666666666666856,2.672,65.807,-0.0742,-0.24755000000000002,1.612,100.0,1.0,1.0,203.32666666666665,0.0,0.0,0.0,0.0,0.0,0.0,0.0,8618.3,0.0,55.0,5.0,236.87666666666667,0.0,0.0,0.0,0.0,0.0,0.0,0.0,0.0,0.11100000000000065,0.11100000000000065,0.0,0.0,0.0,55.0,616.79921,10000.0,85.000001,85.000001,85.000001,85.000001,395.0,0.0,0.0,0.0,1.0,166.665,52.353,52.353,50.034,50.034,34.0,-29.3375,20.354,-29.293333333333333,20.365000000000002,0.0,1782.773,0.7100000000000009,100.0,28.471,26.963,42.66,41.347,0.0,0.0,100.0,0.0,0.0,0.0,0.0,3285.714285714286,2997.4,3743.875,3764.1000000000004,304.6535,305.35825,315.6675,315.5905,21.7879,20.5235,21.7929,21.3284,314.999998,314.999998,324.999988,324.999988,99.55834285714286,99.50721666666666,99.56532857142857,99.54532857142857,-0.022249999999999992,-0.14849999999999997,-0.22216666666666662,0.0015000000000000568,-0.011666666666670267,-0.05666666666667197,1.617,1.6865,37.175,29.272,37.206,34.3025,56.049,34.5465,59.0965,51.647999999999996,53.986000000000004,33.724000000000004,57.722,50.0075,53.167,33.2965,57.6815,49.43333333333334,-0.020499999999999963,-0.12849999999999984,0.103105,0.10555,0.0,206.185,206.06,203.32666666666665,203.32666666666665,0.0,0.0
3,0.0,0.0,0.0,1.0,1.0,0.0,0.0,1.0,0.0,100.0,1.0,1.1856,26.0,0.0,0.0,0.0,65.999997,0.0,26.0,26.0,26.0,26.0,-0.13825,0.3158000000000001,-0.026000000000000002,293.335,-2.7276,-2.6895714285714285,-1.51305,-1.5912857142857142,-265.73,216.26999999999998,190.9295,0.0,0.0,0.0,0.0,0.0073666666666665215,-5.498166666666667,-5.498166666666667,-0.5088,0.514,-0.010111111111111182,-0.881,65.94200000000001,-0.0882,-0.201025,1.2579999999999991,100.0,1.0,1.0,203.43333333333334,0.0,0.0,0.0,0.0,0.0,0.0,0.0,8622.9,0.0,55.0,5.0,237.36,1.0,0.0,0.0,0.0,0.0,0.0,0.0,0.0,0.1559999999999988,0.1559999999999988,0.0,0.0,1.0,55.0,616.79921,10000.0,85.000001,85.000001,85.000001,85.000001,395.0,0.0,0.0,0.0,1.0,333.33500000000004,53.482,53.482,48.035,48.035,34.0,-26.122500000000002,18.13,-35.68,24.0925,0.0,1782.729,0.6050000000000004,100.0,27.945,27.137,42.464,41.525999999999996,0.0,0.0,100.0,0.0,0.0,0.0,0.0,2881.285714285714,2800.8,4345.75,4227.8,306.0355,305.71575,314.27625,314.32125,21.7965,20.5281,21.8021,21.3363,314.999998,314.999998,324.999988,324.999988,99.55835714285715,99.50723333333333,99.56545714285714,99.54545714285715,-0.025499999999999967,-0.15025,-0.21483333333333332,0.0038333333333333552,-0.03333333333333144,-0.046666666666666856,1.4676666666666667,1.5234999999999999,37.227999999999994,29.3005,37.263,34.3515,56.034,34.584,59.1315,51.704,53.973,33.7585,57.7545,50.061,53.153,33.33,57.7115,49.48566666666667,-0.034499999999999975,-0.11500000000000021,0.10284000000000001,0.11480000000000001,0.0,206.60500000000002,206.53,203.43333333333334,203.43333333333334,0.0,0.0
4,0.0,0.0,0.0,1.0,1.0,0.0,0.0,1.0,0.0,100.0,1.0,1.1856,26.0,0.0,0.0,0.0,65.999997,0.0,26.0,26.0,26.0,26.0,-0.15325,0.27090000000000014,-0.024800000000000003,293.61,-2.6559,-2.7477142857142858,-1.52595,-1.6015714285714284,-262.36,216.2575,190.90975,0.0,0.0,0.0,0.0,0.009333333333333305,-5.498166666666667,-5.498166666666667,-0.5441,-0.8460000000000001,-0.07855555555555549,-0.6719999999999999,66.088,-0.0868,-0.237925,1.0620000000000012,100.0,1.0,1.0,204.04000000000002,0.0,0.0,0.0,0.0,0.0,0.0,0.0,8648.6,0.0,55.0,5.0,237.88666666666666,0.0,0.0,0.0,0.0,0.0,0.0,0.0,0.0,0.20700000000000074,0.20700000000000074,0.0,0.0,0.0,55.0,616.79921,10000.0,85.000001,85.000001,85.000001,85.000001,395.0,0.0,0.0,0.0,1.0,166.665,53.04,53.04,48.751999999999995,48.751999999999995,34.0,-28.7025,20.054000000000002,-32.123333333333335,21.2275,0.0,1782.678,0.629999999999999,100.0,27.817,26.736,42.937,41.525,0.0,0.0,100.0,0.0,0.0,0.0,0.0,3200.857142857143,2979.7,4037.875,3675.0,305.126,305.38775,314.90675,315.68425,21.8062,20.5332,21.8127,21.3451,314.999998,314.999998,324.999988,324.999988,99.55835714285715,99.50725,99.5656,99.5456,-0.022499999999999964,-0.14349999999999996,-0.20550000000000002,0.02499999999999991,-0.041666666666671404,-0.06499999999999773,1.5556666666666668,1.5899999999999999,37.289,29.3325,37.329,34.407,56.016999999999996,34.6255,59.1735,51.763,53.956,33.797,57.7935,50.118,53.135,33.3665,57.748,49.541333333333334,-0.02499999999999991,-0.12150000000000016,0.11163000000000001,0.10666500000000001,0.0,207.03,206.935,204.04000000000002,204.04000000000002,0.0,0.0
5,0.0,0.0,0.0,1.0,1.0,0.0,0.0,1.0,0.0,100.0,1.0,1.1856,26.0,0.0,0.0,0.0,65.999997,0.0,26.0,26.0,26.0,26.0,-0.13275,0.29669999999999996,-0.007025,293.564,-2.6684,-2.7684285714285717,-1.5110000000000001,-1.588285714285714,-258.79,216.2375,190.888125,0.0,0.0,0.0,0.0,0.011399999999999966,-5.498166666666667,-5.498166666666667,-0.5335,0.38450000000000006,-0.08044444444444432,1.2149999999999999,66.244,-0.08710000000000001,-0.21085,1.0359999999999996,100.0,1.0,1.0,204.42666666666668,0.0,0.0,0.0,0.0,0.0,0.0,0.0,8664.9,0.0,55.0,5.0,238.45,1.0,0.0,0.0,0.0,0.0,0.0,0.0,0.0,0.26099999999999923,0.26099999999999923,0.0,0.0,1.0,55.0,616.79921,10000.0,85.000001,85.000001,85.000001,85.000001,395.0,0.0,0.0,0.0,1.0,166.665,53.436,53.436,48.828,48.828,34.0,-27.2125,19.802,-33.34,24.115000000000002,0.0,1782.624,0.21499999999999986,100.0,27.924,26.612000000000002,42.706,41.179,0.0,0.0,100.0,0.0,0.0,0.0,0.0,3093.5714285714284,2856.8,4170.625,4115.6,305.3445,305.8045,314.6685,314.68375,21.8167,20.5386,21.8237,21.3544,314.999998,314.999998,324.999988,324.999988,99.55835714285715,99.50726666666667,99.56575714285714,99.54574285714286,-0.007000000000000006,-0.12875000000000003,-0.20750000000000002,0.02400000000000002,-0.03499999999999659,-0.05333333333332746,1.5243333333333333,1.563,37.354,29.366500000000002,37.397999999999996,34.465,56.003,34.6685,59.216499999999996,51.8245,53.943,33.8365,57.8335,50.1765,53.120999999999995,33.403999999999996,57.785,49.59866666666667,-0.052000000000000046,-0.09299999999999997,0.10229,0.10873000000000001,0.0,207.555,207.45499999999998,204.42666666666668,204.42666666666668,0.0,0.0
6,0.0,0.0,0.0,1.0,1.0,0.0,0.0,1.0,0.0,100.0,1.0,1.1856,26.0,0.0,0.0,0.0,65.999997,0.0,26.0,26.0,26.0,26.0,-0.10350000000000001,0.28300000000000014,-0.001825,293.411,-2.6412,-2.7394285714285718,-1.55495,-1.5814285714285714,-255.81,216.2175,190.87,0.0,0.0,0.0,0.0,0.01313333333333333,-5.498166666666667,-5.498166666666667,-0.5305,0.0674999999999999,-0.06344444444444441,-0.44299999999999995,66.373,-0.0833,-0.214125,0.7940000000000005,100.0,1.0,1.0,204.84,0.0,0.0,0.0,0.0,0.0,0.0,0.0,8682.4,0.0,55.0,5.0,238.91333333333333,0.0,0.0,0.0,0.0,0.0,0.0,0.0,0.0,0.30600000000000094,0.30600000000000094,0.0,0.0,0.0,55.0,616.79921,10000.0,85.000001,85.000001,85.000001,85.000001,395.0,0.0,0.0,0.0,1.0,166.665,53.085,53.085,48.691,48.691,34.0,-27.655,20.492,-33.443333333333335,22.947499999999998,0.0,1782.58,0.030000000000001137,100.0,27.68,26.889,42.697,41.622,0.0,0.0,100.0,0.0,0.0,0.0,0.0,3216.0,2905.7,4134.125,3993.3,305.1095,305.44525,314.81325,314.90475,21.8254,20.5432,21.833,21.3623,314.999998,314.999998,324.999988,324.999988,99.55835714285715,99.50728333333333,99.56588571428571,99.54585714285714,0.0020000000000000018,-0.12075000000000002,-0.20666666666666667,0.017833333333333368,-0.061666666666667425,-0.03166666666666629,1.5253333333333332,1.5605,37.408,29.395,37.456,34.5145,55.989999999999995,34.704,59.251999999999995,51.879,53.93,33.869,57.867,50.2285,53.108000000000004,33.4355,57.8155,49.64966666666667,-0.07050000000000001,-0.07399999999999984,0.10604000000000001,0.11251000000000001,0.0,207.93,207.84,204.84,204.84,0.0,0.0
7,0.0,0.0,0.0,1.0,1.0,0.0,0.0,1.0,0.0,100.0,1.0,1.1856,26.0,0.0,0.0,0.0,65.999997,0.0,26.0,26.0,26.0,26.0,-0.080375,0.2832000000000001,0.047850000000000004,293.167,-2.6109,-2.7304285714285714,-1.51585,-1.6245714285714286,-252.42,216.1925,190.849625,0.0,0.0,0.0,0.0,0.015133333333333332,-5.498166666666667,-5.498166666666667,-0.5346000000000001,-0.0030000000000001137,-0.048555555555555685,1.0939999999999999,66.519,-0.06760000000000001,-0.22410000000000002,0.35800000000000054,100.0,1.0,1.0,205.26,0.0,0.0,0.0,0.0,0.0,0.0,0.0,8700.2,0.0,55.0,5.0,239.44,1.0,0.0,0.0,0.0,0.0,0.0,0.0,0.0,0.3569999999999993,0.3569999999999993,0.0,0.0,1.0,55.0,616.79921,10000.0,85.000001,85.000001,85.000001,85.000001,395.0,0.0,0.0,0.0,1.0,333.33500000000004,52.75,52.75,48.798,48.798,34.0,-26.252499999999998,22.61,-30.556666666666665,25.5875,0.0,1782.527,-0.21000000000000085,100.0,27.951,26.839,42.816,41.805,0.0,0.0,100.0,0.0,0.0,0.0,0.0,3201.857142857143,3067.6,4033.375,4086.3,304.9475,305.1155,314.943,314.68375,21.8352,20.5484,21.8435,21.371299999999998,314.999998,314.999998,324.999988,324.999988,99.55835714285715,99.5073,99.56602857142857,99.546,0.030750000000000055,-0.09575,-0.17433333333333334,0.044333333333333336,-0.04833333333333201,-0.054999999999999716,1.5283333333333333,1.5535,37.47,29.427500000000002,37.522,34.570499999999996,55.974999999999994,34.7435,59.292,51.9405,53.916,33.9055,57.903999999999996,50.2875,53.093,33.47,57.85,49.70733333333334,-0.08499999999999996,-0.06099999999999994,0.10508500000000001,0.10756,0.0,208.365,208.325,205.26,205.26,0.0,0.0
8,0.0,0.0,0.0,1.0,1.0,0.0,0.0,1.0,0.0,100.0,1.0,1.1856,26.0,0.0,0.0,0.0,65.999997,0.0,26.0,26.0,26.0,26.0,-0.0385,0.2893000000000001,-0.036225,293.457,-2.6979,-2.7145714285714284,-1.4989,-1.5758571428571426,-249.01999999999998,216.16750000000002,190.829125,0.0,0.0,0.0,0.0,0.017100000000000004,-5.498166666666667,-5.498166666666667,-0.5348,-0.4750000000000001,-0.033222222222222264,-0.42399999999999993,66.66499999999999,-0.0495,-0.214675,0.0259999999999998,100.0,1.0,1.0,205.64333333333332,0.0,0.0,0.0,0.0,0.0,0.0,0.0,8716.4,0.0,55.0,5.0,239.96666666666667,0.0,0.0,0.0,0.0,0.0,0.0,0.0,0.0,0.40800000000000125,0.40800000000000125,0.0,0.0,0.0,55.0,616.79921,10000.0,85.000001,85.000001,85.000001,85.000001,395.0,0.0,0.0,0.0,1.0,333.33500000000004,53.68,53.68,48.096000000000004,48.096000000000004,34.0,-23.947499999999998,21.942,-30.806666666666665,26.6325,0.0,1782.475,-0.41000000000000014,100.0,27.408,26.929000000000002,42.701,42.012,0.0,0.0,100.0,0.0,0.0,0.0,0.0,2964.714285714286,2896.7,4189.375,4101.1,305.9005,305.4885,314.6,314.569,21.8448,20.5536,21.854,21.3803,314.999998,314.999998,324.999988,324.999988,99.55837142857143,99.5073,99.56617142857142,99.54614285714285,0.043500000000000094,-0.07650000000000001,-0.15716666666666657,0.07050000000000001,-0.04999999999999716,-0.045000000000001705,1.5326666666666666,1.517,37.53,29.46,37.587,34.6265,55.959,34.7815,59.332,52.001,53.900999999999996,33.9405,57.9415,50.3455,53.077,33.5035,57.8845,49.763999999999996,-0.10149999999999992,-0.03949999999999987,0.10335000000000001,0.11289500000000001,0.0,208.8,208.78,205.64333333333332,205.64333333333332,0.0,0.0
9,0.0,0.0,0.0,1.0,1.0,0.0,0.0,1.0,0.0,100.0,1.0,1.1856,26.0,0.0,0.0,0.0,65.999997,0.0,26.0,26.0,26.0,26.0,-0.0135,0.2962,-0.019025,293.121,-2.6875,-2.7181428571428574,-1.5554000000000001,-1.5540000000000003,-245.82,216.14249999999998,190.80925,0.0,0.0,0.0,0.0,0.018966666666666576,-5.498166666666667,-5.498166666666667,-0.5419,0.617,-0.033777777777777906,-0.46699999999999997,66.798,-0.0297,-0.21627500000000002,-0.15399999999999991,100.0,1.0,1.0,206.18333333333334,0.0,0.0,0.0,0.0,0.0,0.0,0.0,8739.4,0.0,55.0,5.0,240.44666666666666,1.0,0.0,0.0,0.0,0.0,0.0,0.0,0.0,0.4559999999999995,0.4559999999999995,0.0,0.0,1.0,55.0,616.79921,10000.0,85.000001,85.000001,85.000001,85.000001,395.0,0.0,0.0,0.0,1.0,333.33500000000004,52.414,52.414,49.164,49.164,34.0,-26.435000000000002,23.684,-28.333333333333336,26.247500000000002,0.0,1782.429,-0.5249999999999986,100.0,27.831,27.356,42.396,41.986000000000004,0.0,0.0,100.0,0.0,0.0,0.0,0.0,3370.714285714286,3008.0,3987.875,4031.5,304.6855,305.083,315.184,314.8325,21.854,20.5586,21.8637,21.3887,314.999998,314.999998,324.999988,324.999988,99.55838571428572,99.50731666666667,99.5663,99.54628571428572,0.07125000000000004,-0.0605,-0.13549999999999995,0.08566666666666678,-0.060000000000002274,-0.04999999999999716,1.5896666666666666,1.573,37.588,29.491500000000002,37.647999999999996,34.679,55.947,34.8185,59.366,52.057,53.89,33.975,57.973,50.3995,53.065,33.536500000000004,57.9135,49.81666666666666,-0.119,-0.03750000000000009,0.10357500000000001,0.10634500000000001,0.0,209.22500000000002,209.22,206.18333333333334,206.18333333333334,0.0,0.0
10,0.0,0.0,0.0,1.0,1.0,0.0,0.0,1.0,0.0,100.0,1.0,1.1856,26.0,0.0,0.0,0.0,65.999997,0.0,26.0,26.0,26.0,26.0,0.00275,0.28190000000000004,0.055375,292.938,-2.6595,-2.702,-1.5342500000000001,-1.5362857142857145,-242.41,216.115,190.7885,0.0,0.0,0.0,0.0,0.02093333333333336,-5.498166666666667,-5.498166666666667,-0.5186000000000001,-0.5365000000000002,0.008111111111110958,1.827,66.945,-0.0071,-0.20647500000000002,-0.5599999999999996,100.0,1.0,1.0,206.42333333333335,0.0,0.0,0.0,0.0,0.0,0.0,0.0,8749.5,0.0,55.0,5.0,240.97333333333336,0.0,0.0,0.0,0.0,0.0,0.0,1.0,0.0,0.5069999999999979,0.5069999999999979,0.0,0.0,0.0,55.0,616.79921,10000.0,85.000001,85.000001,85.000001,85.000001,395.0,0.0,0.0,0.0,1.0,333.33500000000004,53.436,53.436,47.577,47.577,34.0,-20.395,23.85,-29.363333333333333,30.745,0.0,1782.376,-0.625,100.0,27.828,27.164,42.914,42.613,0.0,0.0,100.0,0.0,0.0,0.0,0.0,2816.0,2979.8,4246.375,4337.8,306.174,305.41,314.3855,314.0955,21.8637,20.5639,21.874299999999998,21.3979,314.999998,314.999998,324.999988,324.999988,99.55838571428572,99.50731666666667,99.56644285714286,99.54641428571429,0.09725000000000006,-0.03925000000000001,-0.10466666666666657,0.119,-0.03999999999999915,-0.06666666666666998,1.482,1.451,37.647999999999996,29.5245,37.714,34.7365,55.935,34.8555,59.407,52.121,53.878,34.0085,58.0115,50.461,53.052,33.569,57.949,49.87733333333333,-0.12399999999999989,-0.026499999999999968,0.10643000000000001,0.11256500000000001,0.0,209.64499999999998,209.7,206.42333333333335,206.42333333333335,0.0,0.0
11,0.0,0.0,0.0,1.0,1.0,0.0,0.0,1.0,0.0,100.0,1.0,1.1856,26.0,0.0,0.0,0.0,65.999997,0.0,26.0,26.0,26.0,26.0,0.026125,0.278,-0.0738,293.533,-2.7101,-2.6862857142857144,-1.5906500000000001,-1.524,-238.79,216.085,190.7665,0.0,0.0,0.0,0.0,0.022599999999999953,-5.498166666666667,-5.498166666666667,-0.5617,-0.03699999999999992,0.03355555555555556,0.24,67.092,0.013800000000000002,-0.23535,-0.677999999999999,100.0,1.0,1.0,207.2,0.0,0.0,0.0,0.0,0.0,0.0,0.0,8782.4,0.0,55.0,5.0,241.50333333333333,1.0,0.0,0.0,0.0,0.0,0.0,1.0,0.0,0.5609999999999999,0.5609999999999999,0.0,0.0,1.0,55.0,616.79921,10000.0,85.000001,85.000001,85.000001,85.000001,395.0,0.0,0.0,0.0,1.0,166.665,52.841,52.841,49.271,49.271,34.0,-21.755,26.794,-24.193333333333335,27.52,0.0,1782.324,-0.7049999999999983,100.0,27.553,27.444,42.269999999999996,42.508,0.0,0.0,100.0,0.0,0.0,0.0,0.0,3001.142857142857,3183.5,3720.875,3891.4,305.6615,304.71475,315.85025,315.20975,21.8737,20.5697,21.8852,21.4074,314.999998,314.999998,324.999988,324.999988,99.5584,99.50731666666667,99.5666,99.54657142857143,0.1120000000000001,-0.013249999999999984,-0.08983333333333332,0.14900000000000002,-0.03333333333333144,-0.06333333333333258,1.6443333333333334,1.6235,37.711,29.560499999999998,37.782,34.796,55.92,34.8955,59.443,52.1845,53.864000000000004,34.045500000000004,58.045,50.522,53.037,33.6045,57.9795,49.937,-0.1319999999999999,-0.025500000000000078,0.10823,0.11509000000000001,0.0,210.07999999999998,210.13,207.2,207.2,0.0,0.0
12,0.0,0.0,0.0,1.0,1.0,0.0,0.0,1.0,0.0,100.0,1.0,1.1856,26.0,0.0,0.0,0.0,65.999997,0.0,26.0,26.0,26.0,26.0,0.055,0.2945,0.029375000000000002,292.953,-2.7641999999999998,-2.6790000000000003,-1.5538500000000002,-1.5238571428571426,-235.76999999999998,216.0625,190.747,0.0,0.0,0.0,0.0,0.025466666666666526,-5.498166666666667,-5.498166666666667,-0.5456,0.2965,0.017777777777777892,-0.9,67.221,0.028800000000000003,-0.205875,-0.6619999999999999,100.0,1.0,1.0,207.36333333333334,0.0,0.0,0.0,0.0,0.0,0.0,0.0,8789.3,0.0,55.0,5.0,241.96666666666667,0.0,0.0,0.0,0.0,0.0,0.0,1.0,0.0,0.6059999999999981,0.6059999999999981,0.0,0.0,0.0,55.0,616.79921,10000.0,85.000001,85.000001,85.000001,85.000001,395.0,0.0,0.0,0.0,1.0,333.33500000000004,52.841,52.841,47.928,47.928,34.0,-22.995,25.832,-27.846666666666664,30.802500000000002,0.0,1782.277,-0.6799999999999997,100.0,27.29,27.711,42.219,42.572,0.0,0.0,100.0,0.0,0.0,0.0,0.0,3125.285714285714,3095.6,4234.875,4169.9,305.485,304.843,314.59625,314.474,21.8821,20.5745,21.8943,21.4153,314.999998,314.999998,324.999988,324.999988,99.55841428571429,99.50731666666667,99.56671428571428,99.5467,0.1140000000000001,-0.018749999999999933,-0.07966666666666666,0.15349999999999997,-0.045000000000001705,-0.05333333333332746,1.5110000000000001,1.495,37.763,29.591,37.84,34.846000000000004,55.91,34.929,59.477000000000004,52.2385,53.852999999999994,34.076499999999996,58.077,50.574,53.025999999999996,33.634,58.0085,49.988,-0.125,-0.03149999999999986,0.10745,0.11383000000000001,0.0,210.485,210.555,207.36333333333334,207.36333333333334,0.0,0.0
13,0.0,0.0,0.0,1.0,1.0,0.0,0.0,1.0,0.0,100.0,1.0,1.1856,26.0,0.0,0.0,0.0,65.999997,0.0,26.0,26.0,26.0,26.0,0.067875,0.28380000000000005,0.055,292.587,-2.7342,-2.676,-1.6223,-1.508,-232.32999999999998,216.0375,190.72525,0.0,0.0,0.0,0.0,0.026799999999999935,-5.498166666666667,-5.498166666666667,-0.5387000000000001,-0.07500000000000018,0.023333333333333206,1.0300000000000002,67.364,0.036000000000000004,-0.2144,-0.8360000000000003,100.0,1.0,1.0,207.7266666666667,0.0,0.0,0.0,0.0,0.0,0.0,0.0,8804.7,0.0,55.0,5.0,242.48000000000002,1.0,0.0,0.0,0.0,0.0,0.0,1.0,0.0,0.657,0.657,0.0,0.0,1.0,55.0,616.79921,10000.0,85.000001,85.000001,85.000001,85.000001,395.0,0.0,0.0,0.0,1.0,166.665,52.536,52.536,47.913,47.913,34.0,-20.7525,28.108,-27.326666666666668,32.707499999999996,0.0,1782.229,-0.9050000000000011,100.0,27.77,27.740000000000002,42.535,42.957,0.0,0.0,100.0,0.0,0.0,0.0,0.0,3052.285714285714,3183.9,4168.125,4357.0,305.4915,304.74325,314.66475,314.08475,21.8917,20.5801,21.9048,21.424599999999998,314.999998,314.999998,324.999988,324.999988,99.55842857142858,99.50731666666667,99.56685714285715,99.54684285714286,0.15074999999999994,0.02124999999999999,-0.05933333333333335,0.16283333333333339,-0.02499999999999858,-0.04999999999999716,1.5123333333333333,1.4849999999999999,37.823,29.625500000000002,37.905,34.9035,55.9,34.967,59.516,52.3025,53.844,34.1115,58.1125,50.635999999999996,53.015,33.667500000000004,58.041,50.04866666666666,-0.14849999999999985,-0.008500000000000174,0.10122,0.10105000000000001,0.0,210.91,210.98000000000002,207.7266666666667,207.7266666666667,0.0,0.0
14,0.0,0.0,0.0,1.0,1.0,0.0,0.0,1.0,0.0,100.0,1.0,1.1856,26.0,0.0,0.0,0.0,65.999997,0.0,26.0,26.0,26.0,26.0,0.10162500000000001,0.2742,-0.01435,292.816,-2.7417,-2.614,-1.6016,-1.5100000000000002,-228.9,216.015,190.704,0.0,0.0,0.0,0.0,0.028799999999999937,-5.498166666666667,-5.498166666666667,-0.5492,-0.1795,0.05233333333333312,-0.02100000000000002,67.503,0.048600000000000004,-0.22867500000000002,-0.9900000000000002,100.0,1.0,1.0,208.26333333333332,0.0,0.0,0.0,0.0,0.0,0.0,0.0,8827.5,0.0,55.0,5.0,242.98333333333335,0.0,0.0,0.0,0.0,0.0,0.0,1.0,0.0,0.7079999999999984,0.7079999999999984,0.0,0.0,0.0,55.0,616.79921,10000.0,85.000001,85.000001,85.000001,85.000001,395.0,0.0,0.0,0.0,1.0,333.33500000000004,52.612,52.612,48.141,48.141,34.0,-20.455,27.582,-25.39666666666666,31.5125,0.0,1782.175,-0.9749999999999979,100.0,27.531,27.988,42.412,43.269999999999996,0.0,0.0,100.0,0.0,0.0,0.0,0.0,3032.5714285714284,3169.2,3989.25,4158.9,305.7285,304.6275,315.14325,314.502,21.9012,20.5856,21.9152,21.4337,314.999998,314.999998,324.999988,324.999988,99.55844285714285,99.50733333333334,99.56701428571428,99.54698571428571,0.15149999999999997,0.0202500000000001,-0.05799999999999994,0.17466666666666675,-0.05666666666667197,-0.051666666666669414,1.5453333333333332,1.5135,37.882999999999996,29.66,37.97,34.961,55.89,35.004999999999995,59.5525,52.365,53.835,34.147,58.1465,50.696,53.004999999999995,33.701499999999996,58.072,50.10766666666667,-0.15649999999999986,-0.000500000000000167,0.10684500000000001,0.11222000000000001,0.0,211.365,211.41500000000002,208.26333333333332,208.26333333333332,0.0,0.0
15,0.0,0.0,0.0,1.0,1.0,0.0,0.0,1.0,0.0,100.0,1.0,1.1856,26.0,0.0,0.0,0.0,65.999997,0.0,26.0,26.0,26.0,26.0,0.110125,0.2948000000000002,-0.04415,292.862,-2.7161,-2.5692857142857144,-1.62695,-1.451285714285714,-225.65,215.995,190.68375,0.0,0.0,0.0,0.0,0.03066666666666651,-5.498166666666667,-5.498166666666667,-0.5396000000000001,0.2925,0.08166666666666678,-0.374,67.635,0.0653,-0.210075,-1.1760000000000002,100.0,1.0,1.0,208.64666666666668,0.0,0.0,0.0,0.0,0.0,0.0,0.0,8843.8,0.0,55.0,5.0,243.46,1.0,0.0,0.0,0.0,0.0,0.0,1.0,0.0,0.7560000000000002,0.7560000000000002,0.0,0.0,1.0,55.0,616.79921,10000.0,85.000001,85.000001,85.000001,85.000001,395.0,0.0,0.0,0.0,1.0,166.665,52.826,52.826,48.172,48.172,34.0,-18.91,27.27,-24.57,32.705,0.0,1782.13,-0.9749999999999979,100.0,27.507,28.035,42.161,43.348,0.0,0.0,100.0,0.0,0.0,0.0,0.0,2883.0,3137.4,3988.375,4333.6,306.118,304.71075,315.18125,314.097,21.9102,20.5909,21.9249,21.4423,314.999998,314.999998,324.999988,324.999988,99.55845714285714,99.50733333333334,99.56714285714285,99.54712857142857,0.15650000000000008,0.029249999999999998,-0.03716666666666657,0.1818333333333333,-0.05833333333333002,-0.04833333333333201,1.5636666666666668,1.502,37.938,29.692999999999998,38.031,35.0145,55.881,35.0415,59.585499999999996,52.4245,53.826,34.1805,58.177,50.753,52.995000000000005,33.734,58.0995,50.163666666666664,-0.14949999999999997,0.0009999999999998899,0.10425500000000001,0.10539000000000001,0.0,211.76999999999998,211.84,208.64666666666668,208.64666666666668,0.0,0.0
16,0.0,0.0,0.0,1.0,1.0,0.0,0.0,1.0,0.0,100.0,1.0,1.1856,26.0,0.0,0.0,0.0,65.999997,0.0,26.0,26.0,26.0,26.0,0.11900000000000001,0.272,-0.011250000000000001,292.847,-2.8051,-2.583285714285714,-1.6003500000000002,-1.4542857142857142,-222.2,215.97750000000002,190.661625,0.0,0.0,0.0,0.0,0.03269999999999995,-5.498166666666667,-5.498166666666667,-0.5604,-0.7425000000000002,0.07088888888888878,0.18199999999999994,67.776,0.0763,-0.22487500000000002,-1.2620000000000005,100.0,1.0,1.0,209.07666666666665,0.0,0.0,0.0,0.0,0.0,0.0,0.0,8862.0,0.0,55.0,5.0,243.96333333333334,0.0,0.0,0.0,0.0,0.0,0.0,1.0,0.0,0.8069999999999986,0.8069999999999986,0.0,0.0,0.0,55.0,616.79921,10000.0,85.000001,85.000001,85.000001,85.000001,395.0,0.0,0.0,0.0,1.0,166.665,52.734,52.734,47.897,47.897,34.0,-19.27,29.427999999999997,-22.703333333333333,33.150000000000006,0.0,1782.078,-0.8999999999999986,100.0,27.291,27.962,42.519999999999996,43.407,0.0,0.0,100.0,0.0,0.0,0.0,0.0,2933.5714285714284,3304.1,3918.875,4185.6,305.9865,304.413,315.28,314.501,21.9193,20.5965,21.9354,21.4515,314.999998,314.999998,324.999988,324.999988,99.55848571428571,99.50735,99.56728571428572,99.54727142857143,0.17599999999999993,0.04425000000000012,-0.01533333333333331,0.21816666666666684,-0.046666666666666856,-0.054999999999999716,1.5646666666666667,1.5115,37.995999999999995,29.728,38.096000000000004,35.072,55.869,35.0815,59.6235,52.487,53.814,34.2175,58.2125,50.8135,52.982,33.769,58.1315,50.223333333333336,-0.14900000000000002,-0.0030000000000001137,0.10947000000000001,0.11311500000000001,0.0,212.15,212.255,209.07666666666665,209.07666666666665,0.0,0.0
17,0.0,0.0,0.0,1.0,1.0,0.0,0.0,1.0,0.0,100.0,1.0,1.1856,26.0,0.0,0.0,0.0,65.999997,0.0,26.0,26.0,26.0,26.0,0.121,0.27790000000000004,0.0079,292.511,-2.7682,-2.5605714285714285,-1.6412499999999999,-1.475285714285714,-218.74,215.9625,190.639125,0.0,0.0,0.0,0.0,0.03469999999999995,-5.498166666666667,-5.498166666666667,-0.5495,0.49449999999999994,0.04788888888888887,-0.727,67.914,0.08020000000000001,-0.20472500000000002,-1.1159999999999997,100.0,1.0,1.0,209.47,0.0,0.0,0.0,0.0,0.0,0.0,0.0,8878.7,0.0,55.0,5.0,244.46,1.0,0.0,0.0,0.0,0.0,0.0,1.0,0.0,0.8580000000000005,0.8580000000000005,0.0,0.0,1.0,55.0,616.79921,10000.0,85.000001,85.000001,85.000001,85.000001,395.0,0.0,0.0,0.0,1.0,333.33500000000004,52.475,52.475,47.806,47.806,34.0,-19.9625,27.136,-26.366666666666667,33.455,0.0,1782.026,-0.9699999999999989,100.0,27.629,28.391,42.216,43.443,0.0,0.0,100.0,0.0,0.0,0.0,0.0,3096.142857142857,3080.9,4260.5,4279.8,305.596,304.9375,314.62925,314.27875,21.9288,20.6022,21.9457,21.4606,314.999998,314.999998,324.999988,324.999988,99.5585,99.50735,99.56742857142856,99.54742857142857,0.1785000000000001,0.043500000000000094,-0.029000000000000026,0.19966666666666666,-0.04833333333333201,-0.036666666666668846,1.539,1.4965,38.055,29.7635,38.16,35.1285,55.861000000000004,35.1225,59.658500000000004,52.5495,53.806,34.2555,58.245,50.8735,52.973,33.806,58.161,50.282,-0.15700000000000003,-0.0009999999999998899,0.11348000000000001,0.10627500000000001,0.0,212.625,212.72,209.47,209.47,0.0,0.0
18,0.0,0.0,0.0,1.0,1.0,0.0,0.0,1.0,0.0,100.0,1.0,1.1856,26.0,0.0,0.0,0.0,65.999997,0.0,26.0,26.0,26.0,26.0,0.141625,0.26570000000000005,-0.0323,292.496,-2.7995,-2.5388571428571427,-1.65565,-1.4220000000000002,-215.48000000000002,215.95,190.618,0.0,0.0,0.0,0.0,0.036599999999999966,-5.498166666666667,-5.498166666666667,-0.5595,-0.5594999999999999,0.07088888888888878,-0.11199999999999999,68.045,0.08360000000000001,-0.22215000000000001,-1.234,100.0,1.0,1.0,209.88333333333333,0.0,0.0,0.0,0.0,0.0,0.0,0.0,8896.2,0.0,55.0,5.0,244.93333333333334,0.0,0.0,0.0,0.0,0.0,0.0,1.0,0.0,0.9059999999999988,0.9059999999999988,0.0,0.0,0.0,55.0,616.79921,10000.0,85.000001,85.000001,85.000001,85.000001,395.0,0.0,0.0,0.0,1.0,166.665,52.399,52.399,47.699,47.699,34.0,-19.7725,29.228,-24.71,32.0525,0.0,1781.979,-1.1799999999999997,100.0,27.403,28.251,42.565,43.856,0.0,0.0,100.0,0.0,0.0,0.0,0.0,3090.857142857143,3268.3,4053.25,4178.5,305.664,304.411,315.0495,314.5005,21.9376,20.6075,21.9555,21.4693,314.999998,314.999998,324.999988,324.999988,99.55852857142857,99.50735,99.56757142857143,99.54755714285714,0.1875,0.05400000000000005,-0.02183333333333337,0.20416666666666683,-0.026666666666670835,-0.051666666666669414,1.5466666666666666,1.495,38.11,29.7965,38.222,35.183,55.852999999999994,35.1605,59.6945,52.61,53.798,34.2905,58.2785,50.932,52.963,33.8395,58.1915,50.339333333333336,-0.16900000000000004,0.010499999999999954,0.10831,0.10425000000000001,0.0,213.0,213.09,209.88333333333333,209.88333333333333,0.0,0.0
19,0.0,0.0,0.0,1.0,1.0,0.0,0.0,1.0,0.0,100.0,1.0,1.1856,26.0,0.0,0.0,0.0,65.999997,0.0,26.0,26.0,26.0,26.0,0.17350000000000002,0.2933000000000001,0.052625000000000005,291.916,-2.7232000000000003,-2.630714285714286,-1.6775,-1.3994285714285715,-211.8,215.9425,190.594125,0.0,0.0,0.0,0.0,0.0387333333333334,-5.498166666666667,-5.498166666666667,-0.5481,0.7985,0.08699999999999997,-0.522,68.191,0.0927,-0.2104,-1.6179999999999994,100.0,1.0,1.0,210.2733333333333,0.0,0.0,0.0,0.0,0.0,0.0,0.0,8912.7,0.0,55.0,5.0,245.45666666666665,1.0,0.0,0.0,0.0,0.0,0.0,1.0,0.0,0.9600000000000009,0.9600000000000009,0.0,0.0,1.0,55.0,616.79921,10000.0,85.000001,85.000001,85.000001,85.000001,395.0,0.0,0.0,0.0,1.0,166.665,51.743,51.743,47.348,47.348,34.0,-17.537499999999998,30.91,-25.273333333333333,35.1625,0.0,1781.924,-1.5599999999999987,100.0,27.93,28.855,42.289,43.928,0.0,0.0,100.0,0.0,0.0,0.0,0.0,3058.142857142857,3247.9,4227.75,4478.3,305.5805,304.1895,314.69,313.80475,21.9476,20.6137,21.9664,21.479,314.999998,314.999998,324.999988,324.999988,99.55854285714285,99.50736666666667,99.56771428571429,99.54772857142858,0.21999999999999997,0.06925000000000003,-0.0028333333333333544,0.2148333333333332,-0.04999999999999716,-0.04999999999999716,1.5353333333333334,1.4755,38.172,29.8355,38.29,35.244,55.847,35.207499999999996,59.731,52.677,53.792,34.334,58.3125,50.997,52.956,33.881,58.222,50.403333333333336,-0.1984999999999999,0.03349999999999986,0.10467000000000001,0.09816000000000001,0.0,213.47500000000002,213.595,210.2733333333333,210.2733333333333,0.0,0.0
20,0.0,0.0,0.0,1.0,1.0,0.0,0.0,1.0,0.0,100.0,1.0,1.1856,26.0,0.0,0.0,0.0,65.999997,0.0,26.0,26.0,26.0,26.0,0.199625,0.2712000000000001,-0.051525,292.328,-2.8278,-2.5775714285714284,-1.6108,-1.5141428571428572,-208.51999999999998,215.94,190.573,0.0,0.0,0.0,0.0,0.0406333333333333,-5.498166666666667,-5.498166666666667,-0.5554,-1.13,0.09566666666666679,-0.6890000000000001,68.321,0.10740000000000001,-0.223775,-2.0020000000000007,100.0,1.0,1.0,210.61,0.0,0.0,0.0,0.0,0.0,0.0,0.0,8926.9,0.0,55.0,5.0,245.93,0.0,0.0,0.0,0.0,0.0,0.0,0.0,0.0,1.0079999999999991,1.0079999999999991,0.0,0.0,0.0,55.0,616.79921,10000.0,85.000001,85.000001,85.000001,85.000001,395.0,0.0,0.0,0.0,1.0,166.665,52.795,52.795,46.951,46.951,34.0,-15.98,30.554,-23.269999999999996,36.947500000000005,0.0,1781.876,-1.7650000000000006,100.0,27.335,28.565,42.728,44.387,0.0,0.0,100.0,0.0,0.0,0.0,0.0,2816.4285714285716,3176.2,4128.5,4309.8,306.4425,304.60875,314.79275,313.99975,21.9561,20.619,21.9763,21.4878,314.999998,314.999998,324.999988,324.999988,99.55857142857143,99.50738333333334,99.56785714285714,99.54787142857143,0.23825000000000007,0.09850000000000003,0.008000000000000007,0.23883333333333323,-0.041666666666671404,-0.03333333333333144,1.5146666666666666,1.44,38.226,29.869,38.352000000000004,35.299,55.838,35.248,59.768,52.739,53.783,34.3715,58.3465,51.0565,52.946,33.917500000000004,58.253,50.462,-0.2104999999999999,0.052000000000000046,0.11299000000000001,0.10817,0.0,213.81,213.945,210.61,210.61,0.0,0.0
21,0.0,0.0,0.0,1.0,1.0,0.0,0.0,1.0,0.0,100.0,1.0,1.1856,26.0,0.0,0.0,0.0,65.999997,0.0,26.0,26.0,26.0,26.0,0.21912500000000001,0.2742,-0.0736,292.633,-2.7529,-2.6228571428571428,-1.6798000000000002,-1.467714285714286,-205.24,215.94,190.551375,0.0,0.0,0.0,0.0,0.04253333333333331,-5.498166666666667,-5.498166666666667,-0.5782,0.5009999999999999,0.08666666666666667,-0.924,68.445,0.1272,-0.227,-2.032,100.0,1.0,1.0,211.24333333333334,0.0,0.0,0.0,0.0,0.0,0.0,0.0,8953.8,0.0,55.0,5.0,246.37333333333333,1.0,0.0,0.0,0.0,0.0,0.0,0.0,0.0,1.056000000000001,1.056000000000001,0.0,0.0,1.0,55.0,616.79921,10000.0,85.000001,85.000001,85.000001,85.000001,395.0,0.0,0.0,0.0,1.0,333.33500000000004,52.185,52.185,48.294,48.294,34.0,-18.325,30.009999999999998,-20.776666666666664,34.754999999999995,0.0,1781.827,-0.8350000000000009,100.0,27.551,28.778,42.001,43.972,0.0,0.0,100.0,0.0,0.0,0.0,0.0,3006.285714285714,3216.0,3916.0,4082.0,305.795,304.40225,315.4505,314.76425,21.9648,20.6245,21.9859,21.496299999999998,314.999998,314.999998,324.999988,324.999988,99.5586,99.5074,99.568,99.54801428571429,0.1995,0.06174999999999997,0.03699999999999992,0.2713333333333332,-0.07833333333332604,-0.02833333333332888,1.6226666666666667,1.5434999999999999,38.28,29.9035,38.412,35.352000000000004,55.832,35.2935,59.8,52.8,53.777,34.414,58.376,51.1155,52.938,33.958,58.2795,50.519999999999996,-0.15749999999999997,-0.0045000000000001705,0.10122500000000001,0.11391500000000002,0.0,214.255,214.375,211.24333333333334,211.24333333333334,0.0,0.0
22,0.0,0.0,0.0,1.0,1.0,0.0,0.0,1.0,0.0,100.0,1.0,1.1856,26.0,0.0,0.0,0.0,65.999997,0.0,26.0,26.0,26.0,26.0,0.155125,0.2654000000000001,0.0049250000000000006,292.175,-2.7304,-2.6281428571428576,-1.6672500000000001,-1.4645714285714284,-201.74,215.9475,190.527625,0.0,0.0,0.0,0.0,0.04456666666666653,-5.498166666666667,-5.498166666666667,-0.5576,0.09250000000000003,0.08655555555555572,0.7590000000000001,68.584,0.13,-0.20752500000000002,-0.9359999999999999,100.0,1.0,1.0,211.45,0.0,0.0,0.0,0.0,0.0,0.0,0.0,8962.6,0.0,55.0,5.0,246.87333333333333,0.0,0.0,0.0,0.0,0.0,0.0,0.0,0.0,1.1069999999999993,1.1069999999999993,0.0,0.0,0.0,55.0,616.79921,10000.0,85.000001,85.000001,85.000001,85.000001,395.0,0.0,0.0,0.0,1.0,333.33500000000004,52.368,52.368,47.18,47.18,34.0,-18.974999999999998,28.0,-23.663333333333334,37.2175,0.0,1781.776,0.21000000000000085,100.0,27.782,28.641,42.534,44.126000000000005,0.0,0.0,100.0,0.0,0.0,0.0,0.0,2802.857142857143,3255.9,4129.75,4421.3,306.183,304.42675,314.80575,313.9965,21.9741,20.6303,21.996299999999998,21.5056,314.999998,314.999998,324.999988,324.999988,99.55862857142857,99.5074,99.56814285714286,99.54815714285715,0.14800000000000013,0.007249999999999979,0.01750000000000007,0.2450000000000001,-0.041666666666671404,-0.051666666666669414,1.4876666666666667,1.458,38.338,29.939500000000002,38.477000000000004,35.41,55.822,35.332,59.836,52.862,53.768,34.4495,58.4095,51.1755,52.928,33.992,58.31,50.57866666666666,-0.06349999999999989,-0.09149999999999991,0.11372000000000002,0.10420000000000001,0.0,214.685,214.765,211.45,211.45,0.0,0.0
23,0.0,0.0,0.0,1.0,1.0,0.0,0.0,1.0,0.0,100.0,1.0,1.1856,26.0,0.0,0.0,0.0,65.999997,0.0,26.0,26.0,26.0,26.0,0.088125,0.25439999999999996,-0.0373,292.16,-2.7401,-2.603142857142857,-1.5684,-1.5558571428571426,-198.24,215.95749999999998,190.504125,0.0,0.0,0.0,0.0,0.046599999999999975,-5.498166666666667,-5.498166666666667,-0.5770000000000001,-0.21850000000000014,0.053444444444444406,-1.173,68.718,0.0901,-0.23370000000000002,0.4039999999999999,100.0,1.0,1.0,211.97333333333333,0.0,0.0,0.0,0.0,0.0,0.0,0.0,8984.7,0.0,55.0,5.0,247.35666666666668,1.0,0.0,0.0,0.0,0.0,0.0,0.0,0.0,1.1580000000000013,1.1580000000000013,0.0,0.0,1.0,55.0,616.79921,10000.0,85.000001,85.000001,85.000001,85.000001,395.0,0.0,0.0,0.0,1.0,166.665,51.697,51.697,48.187,48.187,34.0,-24.95,24.734,-24.03333333333333,30.7925,0.0,1781.727,0.7950000000000017,100.0,28.028,28.698999999999998,42.742000000000004,44.283,0.0,0.0,100.0,0.0,0.0,0.0,0.0,3249.857142857143,3149.8,3944.5,3983.0,305.044,304.66225,315.256,314.8895,21.9834,20.6361,22.0068,21.5149,314.999998,314.999998,324.999988,324.999988,99.55864285714286,99.5074,99.56827142857144,99.54831428571428,0.09299999999999997,-0.04249999999999998,-0.043166666666666575,0.18033333333333323,-0.05333333333332746,-0.036666666666668846,1.5166666666666666,1.54,38.396,29.9755,38.542,35.468,55.81,35.3715,59.8725,52.9255,53.756,34.486,58.443,51.2365,52.915,34.0275,58.34,50.638666666666666,-0.01649999999999996,-0.1459999999999999,0.10566,0.104135,0.0,215.14499999999998,215.11,211.97333333333333,211.97333333333333,0.0,0.0
24,0.0,0.0,0.0,1.0,1.0,0.0,0.0,1.0,0.0,100.0,1.0,1.1856,26.0,0.0,0.0,0.0,65.999997,0.0,26.0,26.0,26.0,26.0,-0.01125,0.2711000000000001,-0.08905,292.45,-2.7343,-2.6441428571428576,-1.5891000000000002,-1.5194285714285716,-194.73000000000002,215.97,190.48025,0.0,0.0,0.0,0.0,0.048666666666666525,-5.498166666666667,-5.498166666666667,-0.5807,-0.6444999999999999,0.0367777777777778,0.512,68.854,0.0329,-0.218275,0.9660000000000011,100.0,1.0,1.0,212.28333333333333,0.0,0.0,0.0,0.0,0.0,0.0,0.0,8997.9,0.0,55.0,5.0,247.84666666666666,0.0,0.0,0.0,0.0,0.0,0.0,0.0,0.0,1.2089999999999996,1.2089999999999996,0.0,0.0,0.0,55.0,616.79921,10000.0,85.000001,85.000001,85.000001,85.000001,395.0,0.0,0.0,0.0,1.0,166.665,52.948,52.948,47.15,47.15,34.0,-22.9875,22.042,-29.496666666666666,28.9975,0.0,1781.676,0.8850000000000016,100.0,27.963,28.104,43.169,43.837,0.0,0.0,100.0,0.0,0.0,0.0,0.0,2860.4285714285716,3022.5,4256.25,4150.7,306.1195,305.281,314.45425,314.62175,21.9927,20.6416,22.0173,21.524,314.999998,314.999998,324.999988,324.999988,99.55864285714286,99.5074,99.56842857142857,99.54845714285715,0.05624999999999991,-0.08274999999999999,-0.09150000000000003,0.12549999999999994,-0.045000000000001705,-0.03999999999999915,1.4836666666666667,1.5155,38.454,30.009999999999998,38.608000000000004,35.5245,55.795,35.4105,59.91,52.986000000000004,53.742000000000004,34.522,58.478,51.2945,52.9,34.062,58.372,50.69566666666667,-0.004999999999999893,-0.15399999999999991,0.10225500000000001,0.10299000000000001,0.0,215.60000000000002,215.505,212.28333333333333,212.28333333333333,0.0,0.0
25,0.0,0.0,0.0,1.0,1.0,0.0,0.0,1.0,0.0,100.0,1.0,1.1856,26.0,0.0,0.0,0.0,65.999997,0.0,26.0,26.0,26.0,26.0,-0.07100000000000001,0.26570000000000005,-0.079475,292.389,-2.7644,-2.6421428571428573,-1.57355,-1.552714285714286,-191.43,215.98000000000002,190.456375,0.0,0.0,0.0,0.0,0.05056666666666654,-5.498166666666667,-5.498166666666667,-0.6136,-0.039000000000000146,0.0067777777777777715,-0.723,68.97800000000001,-0.021,-0.22745,1.3599999999999994,100.0,1.0,1.0,212.83333333333331,0.0,0.0,0.0,0.0,0.0,0.0,0.0,9021.2,0.0,55.0,5.0,248.29333333333335,1.0,0.0,0.0,0.0,0.0,0.0,0.0,0.0,1.256999999999998,1.256999999999998,0.0,0.0,1.0,55.0,616.79921,10000.0,85.000001,85.000001,85.000001,85.000001,395.0,0.0,0.0,0.0,1.0,333.33500000000004,51.91,51.91,48.035,48.035,34.0,-28.305,22.722,-29.29,24.965,0.0,1781.628,0.9100000000000001,100.0,28.151,28.086,43.1,43.284,0.0,0.0,100.0,0.0,0.0,0.0,0.0,3232.857142857143,3294.7,3965.875,3957.3,305.133,304.4645,315.23825,315.08525,22.0015,20.6469,22.027,21.5324,314.999998,314.999998,324.999988,324.999988,99.55865714285714,99.50741666666667,99.56855714285714,99.5486,0.0182500000000001,-0.11749999999999994,-0.14916666666666656,0.0738333333333332,-0.04333333333332945,-0.05333333333332746,1.556,1.6025,38.509,30.043,38.669,35.5775,55.78,35.4505,59.942499999999995,53.039500000000004,53.727000000000004,34.559,58.5085,51.3465,52.884,34.097,58.3995,50.74633333333333,-0.004999999999999893,-0.15649999999999986,0.11035500000000001,0.10176,0.0,216.0,215.88,212.83333333333331,212.83333333333331,0.0,0.0
26,0.0,0.0,0.0,1.0,1.0,0.0,0.0,1.0,0.0,100.0,1.0,1.1856,26.0,0.0,0.0,0.0,65.999997,0.0,26.0,26.0,26.0,26.0,-0.11837500000000001,0.27049999999999996,0.0634,291.199,-2.6745,-2.755428571428572,-1.58875,-1.5811428571428574,-187.89999999999998,215.99,190.4305,0.0,0.0,0.0,0.0,0.05263333333333331,-5.498166666666667,-5.498166666666667,-0.5704,0.7335,-0.05222222222222239,-1.33,69.11500000000001,-0.066,-0.1953,1.5600000000000005,100.0,1.0,1.0,212.9766666666667,0.0,0.0,0.0,0.0,0.0,0.0,0.0,9027.4,0.0,55.0,5.0,248.78333333333336,0.0,0.0,0.0,0.0,0.0,0.0,0.0,0.0,1.3079999999999998,1.3079999999999998,0.0,0.0,0.0,55.0,616.79921,10000.0,85.000001,85.000001,85.000001,85.000001,395.0,0.0,0.0,0.0,1.0,166.665,51.437,51.437,46.219,46.219,34.0,-29.165,19.984,-39.54666666666667,26.425,0.0,1781.577,0.7050000000000018,100.0,29.127,28.597,43.946,43.423,0.0,0.0,100.0,0.0,0.0,0.0,0.0,3333.4285714285716,2959.8,4671.125,4363.3,304.835,305.174,313.6305,314.0735,22.0112,20.6526,22.0376,21.5416,314.999998,314.999998,324.999988,324.999988,99.55865714285714,99.50743333333334,99.56871428571428,99.54874285714286,0.00275000000000003,-0.15174999999999994,-0.2005,0.026000000000000023,-0.045000000000001705,-0.023333333333326323,1.4173333333333333,1.4675,38.57,30.079,38.735,35.6345,55.766999999999996,35.4955,59.9845,53.1,53.715,34.6005,58.5475,51.4045,52.870999999999995,34.137,58.4355,50.803,-0.027499999999999858,-0.13949999999999996,0.104455,0.112695,0.0,216.47500000000002,216.305,212.9766666666667,212.9766666666667,0.0,0.0
27,0.0,0.0,0.0,1.0,1.0,0.0,0.0,1.0,0.0,100.0,1.0,1.1856,26.0,0.0,0.0,0.0,65.999997,0.0,26.0,26.0,26.0,26.0,-0.131875,0.25540000000000007,-0.043525,291.702,-2.6176,-2.7488571428571427,-1.56325,-1.669857142857143,-184.38,215.9975,190.406,0.0,0.0,0.0,0.0,0.05466666666666653,-5.498166666666667,-5.498166666666667,-0.6002000000000001,-1.0380000000000003,-0.06633333333333358,0.4570000000000001,69.24600000000001,-0.09240000000000001,-0.24502500000000002,1.3379999999999992,100.0,1.0,1.0,213.52666666666667,0.0,0.0,0.0,0.0,0.0,0.0,0.0,9050.6,0.0,55.0,5.0,249.26,1.0,0.0,0.0,0.0,0.0,0.0,0.0,0.0,1.3589999999999982,1.3589999999999982,0.0,0.0,1.0,55.0,616.79921,10000.0,85.000001,85.000001,85.000001,85.000001,395.0,0.0,0.0,0.0,1.0,166.665,51.788,51.788,46.814,46.814,34.0,-28.174999999999997,20.445999999999998,-33.56333333333333,24.185000000000002,0.0,1781.527,0.615000000000002,100.0,29.132,28.070999999999998,44.937,43.736000000000004,0.0,0.0,100.0,0.0,0.0,0.0,0.0,3183.714285714286,3089.2,4067.125,3962.8,305.104,305.09075,314.8595,315.0265,22.0206,20.658,22.0484,21.5508,314.999998,314.999998,324.999988,324.999988,99.55865714285714,99.50745,99.56885714285714,99.54888571428572,-0.016000000000000014,-0.15549999999999997,-0.20966666666666656,0.020000000000000018,-0.03166666666666629,-0.045000000000001705,1.4913333333333334,1.5394999999999999,38.629000000000005,30.113,38.802,35.692499999999995,55.751999999999995,35.538,60.027,53.1605,53.7,34.64,58.587,51.4625,52.855999999999995,34.1745,58.4715,50.85933333333333,-0.034499999999999975,-0.12849999999999984,0.10025,0.11425,0.0,216.81,216.66,213.52666666666667,213.52666666666667,0.0,0.0
28,0.0,0.0,0.0,1.0,1.0,0.0,0.0,1.0,0.0,100.0,1.0,1.1856,26.0,0.0,0.0,0.0,65.999997,0.0,26.0,26.0,26.0,26.0,-0.150125,0.2593000000000001,-0.0611,291.87,-2.6351,-2.743,-1.50295,-1.6381428571428573,-181.05,216.0025,190.382,0.0,0.0,0.0,0.0,0.056599999999999984,-5.498166666666667,-5.498166666666667,-0.5979,0.6655,-0.08077777777777806,0.677,69.368,-0.1037,-0.21452500000000002,1.25,100.0,1.0,1.0,213.95666666666668,0.0,0.0,0.0,0.0,0.0,0.0,0.0,9068.9,0.0,55.0,5.0,249.7,0.0,0.0,0.0,0.0,0.0,0.0,0.0,0.0,1.407,1.407,0.0,0.0,0.0,55.0,616.79921,10000.0,85.000001,85.000001,85.000001,85.000001,395.0,0.0,0.0,0.0,1.0,333.33500000000004,51.804,51.804,47.485,47.485,34.0,-29.28,19.594,-33.99666666666667,23.9725,0.0,1781.476,0.48499999999999943,100.0,29.27,27.95,44.34,43.093,0.0,0.0,100.0,0.0,0.0,0.0,0.0,3274.857142857143,3000.9,4162.75,4087.1000000000004,304.85,305.34125,314.818,314.83375,22.0297,20.6632,22.0581,21.5592,314.999998,314.999998,324.999988,324.999988,99.55865714285714,99.50748333333334,99.56901428571429,99.54902857142856,-0.01649999999999996,-0.15900000000000003,-0.22416666666666663,0.010666666666666602,-0.030000000000001137,-0.05666666666667197,1.5196666666666667,1.562,38.686,30.145,38.863,35.745,55.739000000000004,35.582,60.063,53.216499999999996,53.688,34.68,58.621,51.516,52.843,34.213,58.5025,50.91133333333333,-0.04899999999999993,-0.11949999999999994,0.11365000000000001,0.11211000000000002,0.0,217.22,217.125,213.95666666666668,213.95666666666668,0.0,0.0
29,0.0,0.0,0.0,1.0,1.0,0.0,0.0,1.0,0.0,100.0,1.0,1.1856,26.0,0.0,0.0,0.0,65.999997,0.0,26.0,26.0,26.0,26.0,-0.13775,0.2501,0.045200000000000004,291.458,-2.5825,-2.791714285714286,-1.5388000000000002,-1.616714285714286,-177.51,216.0025,190.355625,0.0,0.0,0.0,0.0,0.058666666666666534,-5.498166666666667,-5.498166666666667,-0.6062000000000001,-0.7345000000000002,-0.07799999999999985,-0.648,69.503,-0.09970000000000001,-0.21757500000000002,1.0199999999999996,100.0,1.0,1.0,214.20333333333332,0.0,0.0,0.0,0.0,0.0,0.0,0.0,9079.3,0.0,55.0,5.0,250.18333333333334,1.0,0.0,0.0,0.0,0.0,0.0,0.0,0.0,1.4579999999999984,1.4579999999999984,0.0,0.0,1.0,55.0,616.79921,10000.0,85.000001,85.000001,85.000001,85.000001,395.0,0.0,0.0,0.0,1.0,333.33500000000004,51.682,51.682,46.524,46.524,34.0,-29.965,20.506,-36.09,23.8625,0.0,1781.426,0.370000000000001,100.0,28.841,27.956,44.713,43.421,0.0,0.0,100.0,0.0,0.0,0.0,0.0,3400.857142857143,3018.6,4327.5,4137.0,304.6465,305.0,314.34225,314.57025,22.0391,20.6686,22.0688,21.5684,314.999998,314.999998,324.999988,324.999988,99.55867142857143,99.5075,99.56915714285714,99.54917142857143,-0.01924999999999999,-0.15800000000000003,-0.21499999999999997,0.0004999999999999449,-0.051666666666669414,-0.03499999999999659,1.4626666666666668,1.505,38.745000000000005,30.179000000000002,38.93,35.803,55.724999999999994,35.6215,60.1035,53.272999999999996,53.674,34.716499999999996,58.659,51.570499999999996,52.828,34.248,58.5375,50.96433333333333,-0.05049999999999999,-0.10199999999999987,0.10196000000000001,0.10397,0.0,217.595,217.5,214.20333333333332,214.20333333333332,0.0,0.0
30,0.0,0.0,0.0,1.0,1.0,0.0,0.0,1.0,0.0,100.0,1.0,1.1856,26.0,0.0,0.0,0.0,65.999997,0.0,26.0,26.0,26.0,26.0,-0.121875,0.276,0.047075,291.046,-2.6366,-2.680714285714286,-1.48005,-1.6918571428571427,-174.17000000000002,215.9975,190.330625,0.0,0.0,0.0,0.0,0.06059999999999999,-5.498166666666667,-5.498166666666667,-0.6027,0.8014999999999999,-0.08088888888888857,-0.71,69.624,-0.09050000000000001,-0.217175,0.9299999999999997,100.0,1.0,1.0,214.62666666666667,0.0,0.0,0.0,0.0,0.0,0.0,0.0,9097.2,0.0,55.0,5.0,250.62333333333333,0.0,0.0,0.0,0.0,0.0,0.0,1.0,0.0,1.5060000000000002,1.5060000000000002,0.0,0.0,0.0,55.0,616.79921,10000.0,85.000001,85.000001,85.000001,85.000001,395.0,0.0,0.0,0.0,1.0,333.33500000000004,50.888,50.888,46.844,46.844,34.0,-30.975,19.522,-35.21666666666667,25.447499999999998,0.0,1781.377,0.245000000000001,100.0,29.72,28.67,44.567,43.403999999999996,0.0,0.0,100.0,0.0,0.0,0.0,0.0,3516.714285714286,2965.6,4371.75,4181.8,304.2705,305.204,314.318,314.411,22.0483,20.674,22.0787,21.576999999999998,314.999998,314.999998,324.999988,324.999988,99.55867142857143,99.50751666666666,99.5693,99.54931428571429,-0.0024999999999999467,-0.14700000000000002,-0.20966666666666656,0.00316666666666654,-0.04999999999999716,-0.04333333333332945,1.4763333333333333,1.5095,38.802,30.212,38.992000000000004,35.8565,55.714,35.664,60.138999999999996,53.3275,53.665,34.756,58.692,51.623,52.818,34.2855,58.567499999999995,51.01533333333333,-0.06600000000000006,-0.09949999999999992,0.106035,0.101995,0.0,218.01,217.935,214.62666666666667,214.62666666666667,0.0,0.0
31,0.0,0.0,0.0,1.0,1.0,0.0,0.0,1.0,0.0,100.0,1.0,1.1856,26.0,0.0,0.0,0.0,65.999997,0.0,26.0,26.0,26.0,26.0,-0.1085,0.25250000000000017,-0.009300000000000001,290.97,-2.7052,-2.6582857142857144,-1.53085,-1.6631428571428573,-170.41,215.9925,190.303375,0.0,0.0,0.0,0.0,0.06279999999999997,-5.498166666666667,-5.498166666666667,-0.5924,-0.6819999999999999,-0.06899999999999995,-0.698,69.764,-0.0763,-0.223725,0.5800000000000001,100.0,1.0,1.0,214.96,0.0,0.0,0.0,0.0,0.0,0.0,0.0,9111.3,0.0,55.0,5.0,251.12666666666667,1.0,0.0,0.0,0.0,0.0,0.0,1.0,0.0,1.5599999999999987,1.5599999999999987,0.0,0.0,1.0,55.0,616.79921,10000.0,85.000001,85.000001,85.000001,85.000001,395.0,0.0,0.0,0.0,1.0,166.665,51.391999999999996,51.391999999999996,45.638999999999996,45.638999999999996,34.0,-28.560000000000002,20.665999999999997,-35.43666666666667,26.8625,0.0,1781.326,0.16000000000000014,100.0,29.316,28.687,45.146,43.995000000000005,0.0,0.0,100.0,0.0,0.0,0.0,0.0,3283.4285714285716,3091.2,4411.125,4260.9,305.102,305.0255,314.1435,314.3395,22.0583,20.6799,22.0901,21.587,314.999998,314.999998,324.999988,324.999988,99.55867142857143,99.50753333333333,99.56947142857143,99.54947142857142,0.008750000000000036,-0.13324999999999998,-0.18766666666666665,0.026000000000000023,-0.03999999999999915,-0.026666666666670835,1.447,1.478,38.864000000000004,30.249499999999998,39.063,35.9185,55.698,35.71,60.184,53.3925,53.65,34.798500000000004,58.7345,51.685,52.802,34.326,58.6065,51.07633333333333,-0.07499999999999996,-0.09200000000000008,0.10060000000000001,0.101165,0.0,218.38,218.32999999999998,214.96,214.96,0.0,0.0
32,0.0,0.0,0.0,1.0,1.0,0.0,0.0,1.0,0.0,100.0,1.0,1.1856,26.0,0.0,0.0,0.0,65.999997,0.0,26.0,26.0,26.0,26.0,-0.084125,0.26460000000000017,-0.045325000000000004,291.321,-2.6402,-2.6992857142857143,-1.5933000000000002,-1.5731428571428574,-167.05,215.98250000000002,190.27925,0.0,0.0,0.0,0.0,0.06473333333333331,-5.498166666666667,-5.498166666666667,-0.6103000000000001,0.17449999999999988,-0.09277777777777807,-0.945,69.883,-0.0654,-0.230225,0.5640000000000001,100.0,1.0,1.0,215.49666666666667,0.0,0.0,0.0,0.0,0.0,0.0,0.0,9134.1,0.0,55.0,5.0,251.55333333333334,0.0,0.0,0.0,0.0,0.0,0.0,1.0,0.0,1.6080000000000005,1.6080000000000005,0.0,0.0,0.0,55.0,616.79921,10000.0,85.000001,85.000001,85.000001,85.000001,395.0,0.0,0.0,0.0,1.0,166.665,51.239,51.239,46.799,46.799,34.0,-28.4625,21.362000000000002,-33.81666666666666,25.3125,0.0,1781.277,0.03500000000000014,100.0,29.322,28.726,44.682,43.742000000000004,0.0,0.0,100.0,0.0,0.0,0.0,0.0,3415.714285714286,3009.9,4255.625,4096.6,304.6375,305.142,314.68025,314.84725,22.0672,20.685200000000002,22.099899999999998,21.5955,314.999998,314.999998,324.999988,324.999988,99.55867142857143,99.50755,99.56961428571428,99.5496,0.02825000000000011,-0.11375000000000002,-0.1818333333333334,0.052000000000000046,-0.06333333333333258,-0.04999999999999716,1.5333333333333332,1.5505,38.92,30.2825,39.124,35.972,55.686,35.751,60.218,53.446,53.637,34.836,58.766,51.7365,52.789,34.362,58.6355,51.126333333333335,-0.08299999999999996,-0.08199999999999985,0.10843000000000001,0.10709500000000001,0.0,218.78,218.72,215.49666666666667,215.49666666666667,0.0,0.0
33,0.0,0.0,0.0,1.0,1.0,0.0,0.0,1.0,0.0,100.0,1.0,1.1856,26.0,0.0,0.0,0.0,65.999997,0.0,26.0,26.0,26.0,26.0,-0.07275,0.256,-0.023575000000000002,291.428,-2.6596,-2.7498571428571426,-1.5342,-1.5828571428571427,-163.49,215.9725,190.252625,0.0,0.0,0.0,0.0,0.0668333333333333,-5.498166666666667,-5.498166666666667,-0.6127,-0.43800000000000017,-0.07511111111111157,1.5380000000000003,70.014,-0.0534,-0.21635000000000001,0.3160000000000007,100.0,1.0,1.0,215.76333333333332,0.0,0.0,0.0,0.0,0.0,0.0,0.0,9145.4,0.0,55.0,5.0,252.02333333333334,1.0,0.0,0.0,0.0,0.0,0.0,1.0,0.0,1.658999999999999,1.658999999999999,0.0,0.0,1.0,55.0,616.79921,10000.0,85.000001,85.000001,85.000001,85.000001,395.0,0.0,0.0,0.0,1.0,166.665,51.879999999999995,51.879999999999995,46.555,46.555,34.0,-25.45,22.286,-31.956666666666663,28.155,0.0,1781.226,-0.05000000000000071,100.0,29.201999999999998,28.252,44.738,43.752,0.0,0.0,100.0,0.0,0.0,0.0,0.0,3131.142857142857,3027.4,4222.375,4318.0,305.317,305.2725,314.54025,314.26425,22.0766,20.6907,22.1104,21.6048,314.999998,314.999998,324.999988,324.999988,99.55868571428572,99.50756666666666,99.56975714285714,99.54975714285715,0.043500000000000094,-0.10124999999999995,-0.15666666666666662,0.06533333333333324,-0.03166666666666629,-0.04999999999999716,1.4849999999999999,1.4945,38.979,30.316499999999998,39.19,36.03,55.672,35.79,60.2565,53.5055,53.623999999999995,34.872,58.802,51.7935,52.775,34.3965,58.6685,51.181666666666665,-0.08499999999999996,-0.07900000000000018,0.103965,0.10871000000000001,0.0,219.15,219.13,215.76333333333332,215.76333333333332,0.0,0.0
34,0.0,0.0,0.0,1.0,1.0,0.0,0.0,1.0,0.0,100.0,1.0,1.1856,26.0,0.0,0.0,0.0,65.999997,0.0,26.0,26.0,26.0,26.0,-0.04725,0.2573000000000001,-0.07727500000000001,291.855,-2.6774,-2.7265714285714284,-1.60125,-1.6015714285714284,-159.91,215.96,190.224625,0.0,0.0,0.0,0.0,0.06889999999999996,-5.498166666666667,-5.498166666666667,-0.646,-0.7970000000000002,-0.04388888888888909,-0.09699999999999998,70.142,-0.0398,-0.2267,0.24600000000000044,100.0,1.0,1.0,216.25,0.0,0.0,0.0,0.0,0.0,0.0,0.0,9166.0,0.0,55.0,5.0,252.48333333333335,0.0,0.0,0.0,0.0,0.0,0.0,1.0,0.0,1.7100000000000009,1.7100000000000009,0.0,0.0,0.0,55.0,616.79921,10000.0,85.000001,85.000001,85.000001,85.000001,395.0,0.0,0.0,0.0,1.0,166.665,52.185,52.185,47.363,47.363,34.0,-25.7175,21.658,-31.226666666666663,27.0725,0.0,1781.175,-0.05000000000000071,100.0,28.736,28.13,44.337,43.946,0.0,0.0,100.0,0.0,0.0,0.0,0.0,3157.285714285714,2937.6,4081.75,4096.3,305.298,305.3585,315.019,314.69925,22.0858,20.6962,22.1208,21.614,314.999998,314.999998,324.999988,324.999988,99.5587,99.50758333333333,99.56991428571429,99.5499,0.045500000000000096,-0.09799999999999998,-0.15716666666666657,0.07266666666666666,-0.041666666666671404,-0.03999999999999915,1.5243333333333333,1.524,39.036,30.351,39.254999999999995,36.0875,55.657,35.829,60.291,53.564,53.61,34.908,58.8345,51.85,52.76,34.4305,58.698,51.237,-0.08499999999999996,-0.07450000000000001,0.11123000000000001,0.10819000000000001,0.0,219.54000000000002,219.49,216.25,216.25,0.0,0.0
35,0.0,0.0,0.0,1.0,1.0,0.0,0.0,1.0,0.0,100.0,1.0,1.1856,26.0,0.0,0.0,0.0,65.999997,0.0,26.0,26.0,26.0,26.0,-0.025625000000000002,0.2549000000000001,-0.069025,291.748,-2.7283,-2.6814285714285715,-1.5671,-1.6125714285714285,-156.54,215.945,190.19625,0.0,0.0,0.0,0.0,0.07086666666666652,-5.498166666666667,-5.498166666666667,-0.685,-0.3650000000000002,-0.05188888888888865,-0.924,70.262,-0.029400000000000003,-0.229825,0.19399999999999906,100.0,1.0,1.0,216.66333333333333,0.0,0.0,0.0,0.0,0.0,0.0,0.0,9183.6,0.0,55.0,5.0,252.91666666666666,1.0,0.0,0.0,0.0,0.0,0.0,1.0,0.0,1.7579999999999991,1.7579999999999991,0.0,0.0,1.0,55.0,616.79921,10000.0,85.000001,85.000001,85.000001,85.000001,395.0,0.0,0.0,0.0,1.0,333.33500000000004,51.575,51.575,46.997,46.997,34.0,-26.9175,24.817999999999998,-29.29,26.9575,0.0,1781.126,-0.06499999999999773,100.0,28.557,28.447,44.09,43.515,0.0,0.0,100.0,0.0,0.0,0.0,0.0,3306.142857142857,3258.0,4065.25,3940.4,305.0595,304.4335,314.99925,315.11975,22.0944,20.7015,22.1305,21.6225,314.999998,314.999998,324.999988,324.999988,99.5587,99.50758333333333,99.57005714285714,99.55004285714286,0.05525000000000002,-0.07774999999999999,-0.132,0.09600000000000009,-0.05666666666667197,-0.021666666666668277,1.563,1.553,39.09,30.3845,39.316,36.141,55.641,35.867,60.324,53.6165,53.595,34.943,58.8655,51.9005,52.744,34.4645,58.7255,51.285666666666664,-0.08549999999999991,-0.07299999999999995,0.10297500000000001,0.11886500000000001,0.0,219.9,219.865,216.66333333333336,216.66333333333333,0.0,0.0
36,0.0,0.0,0.0,1.0,1.0,0.0,0.0,1.0,0.0,100.0,1.0,1.1856,26.0,0.0,0.0,0.0,65.999997,0.0,26.0,26.0,26.0,26.0,-0.048875,0.2619,0.07205,290.756,-2.6224,-2.6485714285714286,-1.53675,-1.608285714285714,-152.96,215.93,190.16475,0.0,0.0,0.0,0.0,0.0729333333333333,-5.498166666666667,-5.498166666666667,-0.6637000000000001,0.2044999999999999,-0.0868888888888888,0.14500000000000002,70.392,-0.0236,-0.200575,0.16600000000000037,100.0,1.0,1.0,216.80666666666667,0.0,0.0,0.0,0.0,0.0,0.0,0.0,9189.7,0.0,55.0,5.0,253.38333333333333,0.0,0.0,0.0,0.0,0.0,0.0,1.0,0.0,1.809000000000001,1.809000000000001,0.0,0.0,0.0,55.0,616.79921,10000.0,85.000001,85.000001,85.000001,85.000001,395.0,0.0,0.0,0.0,1.0,166.665,51.224000000000004,51.224000000000004,46.097,46.097,34.0,-24.355,24.142,-32.333333333333336,32.225,0.0,1781.077,-0.120000000000001,100.0,29.251,28.662,44.347,43.836,0.0,0.0,100.0,0.0,0.0,0.0,0.0,3177.285714285714,3202.0,4471.625,4581.0,304.9195,304.777,313.98825,313.63475,22.1037,20.7073,22.141,21.6318,314.999998,314.999998,324.999988,324.999988,99.55871428571429,99.50758333333333,99.5702,99.5502,0.07774999999999999,-0.07050000000000001,-0.11866666666666659,0.08699999999999997,-0.026666666666670835,-0.054999999999999716,1.4333333333333333,1.4304999999999999,39.147999999999996,30.421,39.381,36.199,55.629000000000005,35.908500000000004,60.3615,53.677,53.584,34.982,58.9005,51.9585,52.732,34.5015,58.757,51.34233333333333,-0.09149999999999991,-0.0754999999999999,0.09967000000000001,0.102275,0.0,220.32999999999998,220.34,216.80666666666667,216.80666666666667,0.0,0.0
