,ABS Active,ABS Enabled,AID Allow Tire Blankets,AID Auto Blip,AID Auto Clutch,AID Auto Shift,AID Fuel Rate,AID Ideal Line,AID Mech Damage,AID Stability,AID Tire Wear Rate,Air Density,Air Temp,Ballast,Best Lap Delta,Best Lap Time,Brake Bias,Brake Pos,Brake Temp FL,Brake Temp FR,Brake Temp RL,Brake Temp RR,CG Accel Lateral,CG Accel Longitudinal,CG Accel Vertical,CG Height,Camber FL,Camber FR,Camber RL,Camber RR,Car Coord X,Car Coord Y,Car Coord Z,Car Damage Front,Car Damage Left,Car Damage Rear,Car Damage Right,Car Pos Norm,Caster FL,Caster FR,Chassis Pitch Angle,Chassis Pitch Rate,Chassis Roll Angle,Chassis Roll Rate,Chassis Velocity X,Chassis Velocity Y,Chassis Velocity Z,Chassis Yaw Rate,Clutch Pos,DRS Active,DRS Available,Drive Train Speed,ERS Heat Charging,ERS Is Charging,ERS Max Energy,ERS Power Level,ERS Recovery Level,Engine Brake Setting,Engine Limiter,Engine RPM,Flags,Fuel Level,Gear,Ground Speed,HR Sample Clock,In Pit,KERS Charge,KERS Deployed Energy,KERS Input,KERS Max Energy,LR Sample Clock,Lap Invalidated,Lap Time,Lap Time2,Last Lap Time,Last Sector Time,MR Sample Clock,Max Fuel,Max Power,Max RPM,Max Sus Travel FL,Max Sus Travel FR,Max Sus Travel RL,Max Sus Travel RR,Max Torque,Max Turbo Boost,Num Tires Off Track,Penalties Enabled,Position,Raw Data Sample Rate,Ride Height FL,Ride Height FR,Ride Height RL,Ride Height RR,Road Temp,Self Align Torque FL,Self Align Torque FR,Self Align Torque RL,Self Align Torque RR,Session Lap Count,Session Time Left,Steering Angle,Surface Grip,Suspension Travel FL,Suspension Travel FR,Suspension Travel RL,Suspension Travel RR,TC Active,TC Enabled,Throttle Pos,Tire Dirt Level FL,Tire Dirt Level FR,Tire Dirt Level RL,Tire Dirt Level RR,Tire Load FL,Tire Load FR,Tire Load RL,Tire Load RR,Tire Loaded Radius FL,Tire Loaded Radius FR,Tire Loaded Radius RL,Tire Loaded Radius RR,Tire Pressure FL,Tire Pressure FR,Tire Pressure RL,Tire Pressure RR,Tire Radius FL,Tire Radius FR,Tire Radius RL,Tire Radius RR,Tire Rubber Grip FL,Tire Rubber Grip FR,Tire Rubber Grip RL,Tire Rubber Grip RR,Tire Slip Angle FL,Tire Slip Angle FR,Tire Slip Angle RL,Tire Slip Angle RR,Tire Slip Ratio FL,Tire Slip Ratio FR,Tire Slip Ratio RL,Tire Slip Ratio RR,Tire Temp Core FL,Tire Temp Core FR,Tire Temp Core RL,Tire Temp Core RR,Tire Temp Inner FL,Tire Temp Inner FR,Tire Temp Inner RL,Tire Temp Inner RR,Tire Temp Middle FL,Tire Temp Middle FR,Tire Temp Middle RL,Tire Temp Middle RR,Tire Temp Outer FL,Tire Temp Outer FR,Tire Temp Outer RL,Tire Temp Outer RR,Toe In FL,Toe In FR,Toe In RL,Toe In RR,Turbo Boost,Wheel Angular Speed FL,Wheel Angular Speed FR,Wheel Angular Speed RL,Wheel Angular Speed RR,Wind Direction,Wind Speed
0,0.0,0.0,0.0,1.0,1.0,0.0,0.0,1.0,0.0,100.0,1.0,1.1856,26.0,0.0,0.0,0.0,65.99999,0.0,26.0,26.0,26.0,26.0,-0.05025000000000002,0.3042,0.15415,293.884,-2.7251000000000003,-2.6338749999999997,-1.5312000000000001,-1.52925,-275.8,215.84,190.9885,0.0,0.0,0.0,0.0,0.0015333333333333334,-5.498166666666667,-5.498166666666667,-0.55,1.4526666666666668,-0.007222222222222019,-0.785,65.492,-0.041100000000000005,-0.20875000000000002,0.5099999999999998,100.0,1.0,1.0,202.20666666666668,0.0,0.0,0.0,0.0,0.0,0.0,0.0,8570.9,0.0,55.0,5.0,235.74333333333334,0.0,0.0,0.0,0.0,0.0,0.0,0.0,0.0,0.0030000000000001137,0.0030000000000001137,0.0,0.0,0.0,55.0,616.79921,10000.0,85.0,85.0,85.0,85.0,395.0,0.0,0.0,0.0,1.0,20.0,52.322,52.322,49.332,49.332,34.0,-28.28,28.573333333333334,-29.5225,25.175,0.0,1782.593,0.4200000000000017,100.0,26.887,26.515,40.431,40.232,0.0,0.0,100.0,0.0,0.0,0.0,0.0,3211.333333333333,3963.2,4063.5555555555557,4042.4,305.146,302.7165,314.9725,314.72975,21.7997,20.519,21.7648,21.308,314.99999,314.99999,324.99998,324.99998,99.56024285714285,99.50736666666667,99.56481428571429,99.54488571428571,0.0030000000000001137,-0.09999999999999998,-0.15000000000000002,0.06866666666666688,-0.06833333333332803,-0.06333333333333258,1.5514999999999999,1.5684999999999998,37.248000000000005,29.244,37.03,34.175,56.766,34.5965,58.9415,51.5055,54.641,33.7455,57.572,49.8705,53.789,33.291,57.5355,49.29866666666666,-0.03733333333333322,-0.10749999999999993,0.10116000000000001,0.11471,0.0,205.245,205.19,202.20666666666668,202.20666666666668,0.0,0.0
1,0.0,0.0,0.0,1.0,1.0,0.0,0.0,1.0,0.0,100.0,1.0,1.1856,26.0,0.0,0.0,0.0,65.999997,0.0,26.0,26.0,26.0,26.0,-0.11912500000000004,0.3224,0.057600000000000005,293.015,-2.6487,-2.7155,-1.5388000000000002,-1.3727500000000001,-272.45,215.8425,190.968375,0.0,0.0,0.0,0.0,0.0034666666666666665,-5.498166666666667,-5.498166666666667,-0.47700000000000004,-0.8663333333333334,-0.05733333333333368,0.08200000000000007,65.649,-0.046200000000000005,-0.177075,1.0360000000000005,100.0,1.0,1.0,202.19666666666666,0.0,0.0,0.0,0.0,0.0,0.0,0.0,8570.3,0.0,55.0,5.0,236.3,1.0,0.0,0.0,0.0,0.0,0.0,0.0,0.0,0.053999999999998494,0.053999999999998494,0.0,0.0,1.0,55.0,616.79921,10000.0,85.000001,85.000001,85.000001,85.000001,395.0,0.0,0.0,0.0,1.0,166.665,54.413,54.413,47.958,47.958,34.0,-24.807499999999997,16.475,-37.7575,29.645,0.0,1782.542,0.6350000000000016,100.0,27.218,26.7,42.255,41.829,0.0,0.0,100.0,0.0,0.0,0.0,0.0,2918.0,2466.9,4662.222222222223,5115.1,305.8545,306.91025,313.384,311.9815,21.8096,20.5241,21.7757,21.3172,314.999998,314.999998,324.999988,324.999988,99.56025714285714,99.50738333333334,99.56497142857143,99.54504285714286,0.0050000000000001155,-0.12675000000000003,-0.17466666666666664,0.04049999999999998,-0.0033333333333303017,-0.060000000000002274,1.3369999999999997,1.3715000000000002,37.31,29.276,37.098,34.2325,56.748000000000005,34.635999999999996,58.989,51.573,54.623999999999995,33.782,57.6165,49.935,53.771,33.326,57.578,49.362,-0.021666666666666723,-0.12199999999999989,0.11103500000000001,0.10855000000000001,0.0,205.675,205.63,202.19666666666666,202.19666666666666,0.0,0.0
2,0.0,0.0,0.0,1.0,1.0,0.0,0.0,1.0,0.0,100.0,1.0,1.1856,26.0,0.0,0.0,0.0,65.999997,0.0,26.0,26.0,26.0,26.0,-0.14049999999999996,0.28869999999999996,-0.1005,294.281,-2.6187,-2.7666250000000003,-1.5135,-1.52875,-268.9,215.845,190.9485,0.0,0.0,0.0,0.0,0.005533333333333334,-5.498166666666667,-5.498166666666667,-0.5646,0.4796666666666667,-0.02833333333333332,2.513,65.795,-0.055600000000000004,-0.260575,1.25,100.0,1.0,1.0,203.4766666666667,0.0,0.0,0.0,0.0,0.0,0.0,0.0,8624.7,0.0,55.0,5.0,236.83333333333331,0.0,0.0,0.0,0.0,0.0,0.0,0.0,0.0,0.10800000000000054,0.10800000000000054,0.0,0.0,0.0,55.0,616.79921,10000.0,85.000001,85.000001,85.000001,85.000001,395.0,0.0,0.0,0.0,1.0,166.665,52.643,52.643,50.980000000000004,50.980000000000004,34.0,-29.4375,21.498333333333335,-26.3525,18.0975,0.0,1782.488,0.75,100.0,28.031,26.761,41.96,41.186,0.0,0.0,100.0,0.0,0.0,0.0,0.0,3281.666666666667,3060.4,3563.8888888888887,3399.8,304.6855,305.19075,316.1225,316.459,21.8205,20.5295,21.7866,21.3263,314.999998,314.999998,324.999988,324.999988,99.56027142857143,99.5074,99.56511428571429,99.54517142857142,-0.02124999999999999,-0.12675000000000003,-0.1985,0.03166666666666673,-0.01833333333333087,-0.04833333333333201,1.733,1.787,37.378,29.3095,37.166,34.289500000000004,56.732,34.6775,59.0275,51.6295,54.608999999999995,33.82,57.6525,49.9895,53.754999999999995,33.363,57.6105,49.415333333333336,-0.011333333333333195,-0.12700000000000022,0.10792500000000001,0.10247500000000001,0.0,206.13,206.03,203.4766666666667,203.4766666666667,0.0,0.0
3,0.0,0.0,0.0,1.0,1.0,0.0,0.0,1.0,0.0,100.0,1.0,1.1856,26.0,0.0,0.0,0.0,65.999997,0.0,26.0,26.0,26.0,26.0,-0.12837500000000002,0.3204,0.1321,293.457,-2.6425,-2.7085,-1.5018,-1.579,-265.74,215.845,190.9295,0.0,0.0,0.0,0.0,0.007366666666666667,-5.498166666666667,-5.498166666666667,-0.5022,0.5036666666666667,-0.012111111111110962,-0.487,65.94200000000001,-0.06860000000000001,-0.18585000000000002,1.0579999999999998,100.0,1.0,1.0,203.39,0.0,0.0,0.0,0.0,0.0,0.0,0.0,8620.9,0.0,55.0,5.0,237.36,1.0,0.0,0.0,0.0,0.0,0.0,0.0,0.0,0.1559999999999988,0.1559999999999988,0.0,0.0,1.0,55.0,616.79921,10000.0,85.000001,85.000001,85.000001,85.000001,395.0,0.0,0.0,0.0,1.0,166.665,53.65,53.65,47.974000000000004,47.974000000000004,34.0,-25.5425,19.060000000000002,-34.86,25.9125,0.0,1782.44,0.8449999999999989,100.0,27.634,26.894,42.156,41.443,0.0,0.0,100.0,0.0,0.0,0.0,0.0,2918.333333333333,2903.0,4436.666666666667,4254.1,305.9875,305.6085,313.987,314.33725,21.8298,20.5344,21.7963,21.334699999999998,314.999998,314.999998,324.999988,324.999988,99.56027142857143,99.5074,99.56524285714286,99.54531428571428,-0.019749999999999934,-0.14525,-0.18333333333333335,0.037833333333333385,-0.03499999999999659,-0.03833333333332689,1.4539999999999997,1.5124999999999997,37.436,29.34,37.227000000000004,34.342,56.715,34.7175,59.0655,51.6905,54.593,33.857,57.688,50.048500000000004,53.738,33.397999999999996,57.6435,49.473,-0.010666666666666602,-0.1339999999999999,0.10590000000000001,0.11198000000000001,0.0,206.64499999999998,206.53,203.39,203.39,0.0,0.0
4,0.0,0.0,0.0,1.0,1.0,0.0,0.0,1.0,0.0,100.0,1.0,1.1856,26.0,0.0,0.0,0.0,65.999997,0.0,26.0,26.0,26.0,26.0,-0.116375,0.2883,-0.0056,293.64,-2.6761,-2.776,-1.4489,-1.586625,-262.38,215.84,190.91,0.0,0.0,0.0,0.0,0.009333333333333334,-5.498166666666667,-5.498166666666667,-0.5328,-0.8666666666666667,-0.06777777777777771,-1.408,66.088,-0.07930000000000001,-0.23225,1.4460000000000006,100.0,1.0,1.0,203.97333333333333,0.0,0.0,0.0,0.0,0.0,0.0,0.0,8645.7,0.0,55.0,5.0,237.89,0.0,0.0,0.0,0.0,0.0,0.0,0.0,0.0,0.20700000000000074,0.20700000000000074,0.0,0.0,0.0,55.0,616.79921,10000.0,85.000001,85.000001,85.000001,85.000001,395.0,0.0,0.0,0.0,1.0,166.665,53.345,53.345,48.752,48.752,34.0,-30.2375,18.865000000000002,-32.162499999999994,21.7275,0.0,1782.389,0.8100000000000023,100.0,27.394,26.704,42.757,41.708,0.0,0.0,100.0,0.0,0.0,0.0,0.0,3279.5,2845.1,4160.666666666667,3785.7,305.019,305.6315,314.72325,315.3495,21.8398,20.5395,21.8069,21.3437,314.999998,314.999998,324.999988,324.999988,99.56027142857143,99.50743333333334,99.56538571428571,99.54545714285715,-0.038250000000000006,-0.15749999999999997,-0.20499999999999996,0.021500000000000075,-0.06333333333333258,-0.03333333333333144,1.5354999999999999,1.588,37.498999999999995,29.372,37.293,34.397999999999996,56.698,34.757999999999996,59.1085,51.751,54.576,33.8945,57.728,50.1065,53.721000000000004,33.434,57.681,49.529666666666664,-0.007333333333333192,-0.137,0.098875,0.11134500000000001,0.0,207.055,206.92000000000002,203.97333333333333,203.97333333333333,0.0,0.0
5,0.0,0.0,0.0,1.0,1.0,0.0,0.0,1.0,0.0,100.0,1.0,1.1856,26.0,0.0,0.0,0.0,65.999997,0.0,26.0,26.0,26.0,26.0,-0.14449999999999996,0.3025,-0.031100000000000003,293.884,-2.6873,-2.745625,-1.5203,-1.615,-259.0,215.83249999999998,190.89,0.0,0.0,0.0,0.0,0.011300000000000001,-5.498166666666667,-5.498166666666667,-0.5375,0.48433333333333334,-0.06666666666666643,0.823,66.23400000000001,-0.09480000000000001,-0.21732500000000002,1.3179999999999996,100.0,1.0,1.0,204.49,0.0,0.0,0.0,0.0,0.0,0.0,0.0,8667.5,0.0,55.0,5.0,238.41333333333333,1.0,0.0,0.0,0.0,0.0,0.0,0.0,0.0,0.2579999999999991,0.2579999999999991,0.0,0.0,1.0,55.0,616.79921,10000.0,85.000001,85.000001,85.000001,85.000001,395.0,0.0,0.0,0.0,1.0,166.665,53.543,53.543,49.332,49.332,34.0,-28.3875,19.543333333333333,-31.96,22.6525,0.0,1782.338,0.5650000000000013,100.0,27.672,26.436,42.482,41.106,0.0,0.0,100.0,0.0,0.0,0.0,0.0,3122.5,2903.4,4038.1111111111113,3975.0,305.2535,305.6375,315.018,315.0335,21.8498,20.5446,21.8173,21.3523,314.999998,314.999998,324.999988,324.999988,99.56028571428571,99.50745,99.56554285714286,99.5456,-0.023499999999999965,-0.14100000000000001,-0.20883333333333332,0.011500000000000066,-0.045000000000001705,-0.046666666666666856,1.5735000000000001,1.6164999999999998,37.561,29.404,37.358000000000004,34.452,56.682,34.7985,59.147,51.808,54.562,33.932,57.7645,50.161,53.705,33.47,57.7145,49.583333333333336,-0.02733333333333321,-0.11350000000000016,0.09818500000000001,0.11881000000000001,0.0,207.525,207.4,204.49,204.49,0.0,0.0
6,0.0,0.0,0.0,1.0,1.0,0.0,0.0,1.0,0.0,100.0,1.0,1.1856,26.0,0.0,0.0,0.0,65.999997,0.0,26.0,26.0,26.0,26.0,-0.14525,0.29300000000000015,0.0097,293.579,-2.6355,-2.8040000000000003,-1.5445,-1.5785,-255.82,215.8225,190.870375,0.0,0.0,0.0,0.0,0.013133333333333335,-5.498166666666667,-5.498166666666667,-0.5247,-0.07533333333333334,-0.06999999999999984,0.718,66.373,-0.0984,-0.2029,1.0060000000000002,100.0,1.0,1.0,204.7733333333333,0.0,0.0,0.0,0.0,0.0,0.0,0.0,8679.7,0.0,55.0,5.0,238.91333333333333,0.0,0.0,0.0,0.0,0.0,0.0,0.0,0.0,0.30600000000000094,0.30600000000000094,0.0,0.0,0.0,55.0,616.79921,10000.0,85.000001,85.000001,85.000001,85.000001,395.0,0.0,0.0,0.0,1.0,166.665,53.635,53.635,48.538,48.538,34.0,-27.605,19.781666666666666,-34.7525,23.3275,0.0,1782.288,0.3100000000000023,100.0,27.563,26.355,42.725,41.319,0.0,0.0,100.0,0.0,0.0,0.0,0.0,3100.166666666667,2878.9,4244.666666666667,4105.7,305.307,305.69075,314.448,314.69225,21.8592,20.5494,21.8272,21.3607,314.999998,314.999998,324.999988,324.999988,99.56028571428571,99.50745,99.56567142857143,99.54572857142857,-0.020749999999999935,-0.14274999999999993,-0.21033333333333337,0.010333333333333306,-0.041666666666671404,-0.04833333333333201,1.5185,1.5339999999999998,37.620000000000005,29.433999999999997,37.42,34.5045,56.667,34.8365,59.1865,51.866,54.547,33.966499999999996,57.8015,50.216499999999996,53.69,33.503,57.7485,49.63766666666667,-0.04200000000000004,-0.10349999999999993,0.09741000000000001,0.10961000000000001,0.0,207.945,207.835,204.7733333333333,204.7733333333333,0.0,0.0
7,0.0,0.0,0.0,1.0,1.0,0.0,0.0,1.0,0.0,100.0,1.0,1.1856,26.0,0.0,0.0,0.0,65.999997,0.0,26.0,26.0,26.0,26.0,-0.10924999999999996,0.28170000000000006,0.01395,293.442,-2.5998,-2.8,-1.5028000000000001,-1.628125,-252.63,215.8075,190.851125,0.0,0.0,0.0,0.0,0.015000000000000001,-5.498166666666667,-5.498166666666667,-0.5353,0.03833333333333334,-0.06177777777777793,1.061,66.51,-0.0931,-0.22205,0.8440000000000003,100.0,1.0,1.0,205.26,0.0,0.0,0.0,0.0,0.0,0.0,0.0,8700.2,0.0,55.0,5.0,239.40666666666667,1.0,0.0,0.0,0.0,0.0,0.0,0.0,0.0,0.3539999999999992,0.3539999999999992,0.0,0.0,1.0,55.0,616.79921,10000.0,85.000001,85.000001,85.000001,85.000001,395.0,0.0,0.0,0.0,1.0,333.33500000000004,53.07,53.07,48.935,48.935,34.0,-27.025,21.631666666666668,-31.775,23.8625,0.0,1782.24,0.03500000000000014,100.0,27.902,26.601,42.793,41.484,0.0,0.0,100.0,0.0,0.0,0.0,0.0,3172.166666666667,2976.4,4046.8888888888887,4005.0,305.0695,305.33125,314.9125,314.8975,21.8686,20.5543,21.837,21.3691,314.999998,314.999998,324.999988,324.999988,99.56028571428571,99.50748333333334,99.56581428571428,99.54585714285714,0.00374999999999992,-0.11724999999999997,-0.2018333333333333,0.021333333333333426,-0.041666666666671404,-0.054999999999999716,1.54,1.5499999999999998,37.679,29.4645,37.482,34.557,56.650999999999996,34.876999999999995,59.227000000000004,51.9265,54.532,34.004,57.839,50.274,53.675,33.539,57.783500000000004,49.694,-0.07000000000000006,-0.07399999999999984,0.09495500000000001,0.11116500000000001,0.0,208.365,208.26999999999998,205.26,205.26,0.0,0.0
8,0.0,0.0,0.0,1.0,1.0,0.0,0.0,1.0,0.0,100.0,1.0,1.1856,26.0,0.0,0.0,0.0,65.999997,0.0,26.0,26.0,26.0,26.0,-0.07437499999999997,0.29100000000000015,-0.00755,293.488,-2.6868,-2.726125,-1.4858,-1.614625,-249.23,215.79250000000002,190.8305,0.0,0.0,0.0,0.0,0.016966666666666668,-5.498166666666667,-5.498166666666667,-0.5355,-0.355,-0.04788888888888909,-0.8069999999999999,66.656,-0.07740000000000001,-0.217725,0.4239999999999995,100.0,1.0,1.0,205.64333333333332,0.0,0.0,0.0,0.0,0.0,0.0,0.0,8716.5,0.0,55.0,5.0,239.93,0.0,0.0,0.0,0.0,0.0,0.0,0.0,0.0,0.40500000000000114,0.40500000000000114,0.0,0.0,0.0,55.0,616.79921,10000.0,85.000001,85.000001,85.000001,85.000001,395.0,0.0,0.0,0.0,1.0,166.665,53.497,53.497,48.34,48.34,34.0,-26.6325,20.601666666666667,-31.95,24.355,0.0,1782.19,-0.07499999999999929,100.0,27.389,26.84,42.787,41.783,0.0,0.0,100.0,0.0,0.0,0.0,0.0,3119.166666666667,2894.1,4151.666666666667,4029.0,305.489,305.4895,314.737,314.73725,21.8784,20.5595,21.8475,21.3781,314.999998,314.999998,324.999988,324.999988,99.56028571428571,99.50748333333334,99.56595714285714,99.546,0.010750000000000037,-0.11275000000000002,-0.1895,0.02833333333333332,-0.05833333333333002,-0.05833333333333002,1.5135,1.5419999999999998,37.739999999999995,29.497,37.547,34.613,56.635,34.914,59.2655,51.9835,54.516,34.038,57.875,50.329,53.658,33.5715,57.8165,49.74766666666667,-0.08566666666666678,-0.06349999999999989,0.10176500000000001,0.10094500000000001,0.0,208.79500000000002,208.74,205.64333333333332,205.64333333333332,0.0,0.0
9,0.0,0.0,0.0,1.0,1.0,0.0,0.0,1.0,0.0,100.0,1.0,1.1856,26.0,0.0,0.0,0.0,65.999997,0.0,26.0,26.0,26.0,26.0,-0.04999999999999993,0.2954000000000001,-0.0146,293.289,-2.612,-2.7327500000000002,-1.5391,-1.569,-246.03,215.7725,190.81075,0.0,0.0,0.0,0.0,0.018833333333333334,-5.498166666666667,-5.498166666666667,-0.5374,0.374,-0.05288888888888854,-0.49,66.78999999999999,-0.0604,-0.21482500000000002,0.25399999999999956,100.0,1.0,1.0,206.13333333333333,0.0,0.0,0.0,0.0,0.0,0.0,0.0,8737.2,0.0,55.0,5.0,240.41666666666669,1.0,0.0,0.0,0.0,0.0,0.0,0.0,0.0,0.4529999999999994,0.4529999999999994,0.0,0.0,1.0,55.0,616.79921,10000.0,85.000001,85.000001,85.000001,85.000001,395.0,0.0,0.0,0.0,1.0,166.665,52.841,52.841,48.935,48.935,34.0,-26.665,21.663333333333334,-30.6525,24.515,0.0,1782.143,-0.21000000000000085,100.0,27.745,27.056,42.602000000000004,41.785,0.0,0.0,100.0,0.0,0.0,0.0,0.0,3299.5,2928.7,4067.1111111111113,4022.3,304.885,305.3735,314.9715,314.84875,21.8877,20.5645,21.8573,21.386499999999998,314.999998,314.999998,324.999988,324.999988,99.5603,99.5075,99.56608571428572,99.54612857142857,0.03675000000000006,-0.09524999999999995,-0.16949999999999998,0.04816666666666669,-0.045000000000001705,-0.03499999999999659,1.5554999999999999,1.5644999999999998,37.798,29.528,37.608000000000004,34.6655,56.620000000000005,34.951499999999996,59.3015,52.039500000000004,54.501999999999995,34.0725,57.908500000000004,50.382999999999996,53.643,33.6045,57.8475,49.8,-0.09766666666666679,-0.05750000000000011,0.09641000000000001,0.10525000000000001,0.0,209.21,209.155,206.13333333333333,206.13333333333333,0.0,0.0
10,0.0,0.0,0.0,1.0,1.0,0.0,0.0,1.0,0.0,100.0,1.0,1.1856,26.0,0.0,0.0,0.0,65.999997,0.0,26.0,26.0,26.0,26.0,-0.037124999999999964,0.2875000000000001,-0.0128,293.228,-2.6789,-2.70175,-1.5070999999999999,-1.5486250000000001,-242.42000000000002,215.7525,190.78875,0.0,0.0,0.0,0.0,0.020933333333333335,-5.498166666666667,-5.498166666666667,-0.525,-0.4196666666666667,-0.020999999999999908,0.137,66.944,-0.0381,-0.209875,-0.03000000000000025,100.0,1.0,1.0,206.46666666666667,0.0,0.0,0.0,0.0,0.0,0.0,0.0,8751.3,0.0,55.0,5.0,240.97,0.0,0.0,0.0,0.0,0.0,0.0,1.0,0.0,0.5069999999999979,0.5069999999999979,0.0,0.0,0.0,55.0,616.79921,10000.0,85.000001,85.000001,85.000001,85.000001,395.0,0.0,0.0,0.0,1.0,166.665,53.482,53.482,48.187,48.187,34.0,-24.59,21.358333333333334,-30.855,26.625,0.0,1782.088,-0.3299999999999983,100.0,27.588,27.006,42.8,42.271,0.0,0.0,100.0,0.0,0.0,0.0,0.0,3051.0,2871.0,4215.444444444444,4198.2,305.6695,305.59325,314.58275,314.369,21.8981,20.57,21.8684,21.3961,314.999998,314.999998,324.999988,324.999988,99.5603,99.5075,99.56624285714285,99.54628571428572,0.043749999999999956,-0.08274999999999999,-0.15049999999999997,0.06266666666666687,-0.03166666666666629,-0.03999999999999915,1.5074999999999998,1.501,37.863,29.5625,37.678,34.7255,56.602999999999994,34.9915,59.345,52.106,54.486999999999995,34.1095,57.949,50.4465,53.626999999999995,33.64,57.885,49.86233333333333,-0.10133333333333328,-0.0495000000000001,0.10390500000000001,0.099595,0.0,209.655,209.64499999999998,206.46666666666667,206.46666666666667,0.0,0.0
11,0.0,0.0,0.0,1.0,1.0,0.0,0.0,1.0,0.0,100.0,1.0,1.1856,26.0,0.0,0.0,0.0,65.999997,0.0,26.0,26.0,26.0,26.0,-0.00824999999999998,0.27490000000000014,-0.0765,293.594,-2.6877,-2.694375,-1.5659,-1.52125,-239.2,215.73000000000002,190.769125,0.0,0.0,0.0,0.0,0.022600000000000002,-5.498166666666667,-5.498166666666667,-0.5532,-0.241,0.005222222222222239,-0.31699999999999995,67.076,-0.020800000000000003,-0.22865000000000002,-0.19399999999999995,100.0,1.0,1.0,207.06666666666666,0.0,0.0,0.0,0.0,0.0,0.0,0.0,8776.9,0.0,55.0,5.0,241.44666666666666,1.0,0.0,0.0,0.0,0.0,0.0,1.0,0.0,0.5549999999999997,0.5549999999999997,0.0,0.0,1.0,55.0,616.79921,10000.0,85.000001,85.000001,85.000001,85.000001,395.0,0.0,0.0,0.0,1.0,333.33500000000004,53.207,53.207,49.088,49.088,34.0,-24.48,23.151666666666664,-27.27,25.41,0.0,1782.039,-0.370000000000001,100.0,27.326,27.137,42.492000000000004,42.266,0.0,0.0,100.0,0.0,0.0,0.0,0.0,3129.166666666667,3001.6,3847.0,3937.5,305.4485,305.17325,315.50225,315.07475,21.9073,20.5751,21.8781,21.4045,314.999998,314.999998,324.999988,324.999988,99.56031428571428,99.50751666666666,99.56637142857143,99.54641428571429,0.06525000000000003,-0.06525000000000003,-0.1366666666666666,0.09383333333333321,-0.05833333333333002,-0.04999999999999716,1.6084999999999998,1.588,37.921,29.594,37.738,34.7785,56.588,35.027,59.379,52.1625,54.472,34.1425,57.981,50.5005,53.611999999999995,33.6715,57.914,49.91566666666667,-0.10499999999999998,-0.04499999999999993,0.11095500000000001,0.10772500000000002,0.0,210.07,210.05,207.06666666666666,207.06666666666666,0.0,0.0
12,0.0,0.0,0.0,1.0,1.0,0.0,0.0,1.0,0.0,100.0,1.0,1.1856,26.0,0.0,0.0,0.0,65.999997,0.0,26.0,26.0,26.0,26.0,-0.0068749999999999645,0.2943,0.011550000000000001,293.137,-2.7105,-2.693125,-1.5405,-1.5425,-235.78,215.71,190.74725,0.0,0.0,0.0,0.0,0.025466666666666665,-5.498166666666667,-5.498166666666667,-0.5425,0.35933333333333334,0.004111111111110954,0.778,67.22,-0.0025,-0.204275,-0.3860000000000001,100.0,1.0,1.0,207.38333333333333,0.0,0.0,0.0,0.0,0.0,0.0,0.0,8790.2,0.0,55.0,5.0,241.96333333333334,0.0,0.0,0.0,0.0,0.0,0.0,1.0,0.0,0.6059999999999981,0.6059999999999981,0.0,0.0,0.0,55.0,616.79921,10000.0,85.000001,85.000001,85.000001,85.000001,395.0,0.0,0.0,0.0,1.0,166.665,53.024,53.024,48.203,48.203,34.0,-23.994999999999997,24.483333333333334,-27.9925,29.302500000000002,0.0,1781.989,-0.019999999999999574,100.0,27.497,27.222,42.456,42.179,0.0,0.0,100.0,0.0,0.0,0.0,0.0,3035.833333333333,3149.2,4120.888888888889,4207.9,305.531,304.874,314.79425,314.4885,21.917,20.5805,21.8885,21.4135,314.999998,314.999998,324.999988,324.999988,99.56031428571428,99.50751666666666,99.56651428571429,99.54655714285714,0.06725000000000003,-0.0605,-0.10283333333333333,0.11749999999999994,-0.03999999999999915,-0.061666666666667425,1.5284999999999997,1.513,37.980999999999995,29.628,37.803,34.8345,56.573,35.065,59.4165,52.223,54.458,34.1775,58.016,50.559,53.597,33.705,57.946,49.973,-0.08533333333333326,-0.06499999999999995,0.10237500000000001,0.10837500000000001,0.0,210.515,210.53,207.38333333333333,207.38333333333333,0.0,0.0
13,0.0,0.0,0.0,1.0,1.0,0.0,0.0,1.0,0.0,100.0,1.0,1.1856,26.0,0.0,0.0,0.0,65.999997,0.0,26.0,26.0,26.0,26.0,0.03137499999999993,0.28469999999999995,0.04055,292.74,-2.682,-2.7047499999999998,-1.5697,-1.55125,-232.55,215.6875,190.72675,0.0,0.0,0.0,0.0,0.02666666666666667,-5.498166666666667,-5.498166666666667,-0.536,-0.146,0.0022222222222221255,1.2240000000000002,67.355,0.0055000000000000005,-0.21035,-0.37600000000000033,100.0,1.0,1.0,207.72333333333333,0.0,0.0,0.0,0.0,0.0,0.0,0.0,8804.6,0.0,55.0,5.0,242.44666666666666,1.0,0.0,0.0,0.0,0.0,0.0,1.0,0.0,0.6539999999999999,0.6539999999999999,0.0,0.0,1.0,55.0,616.79921,10000.0,85.000001,85.000001,85.000001,85.000001,395.0,0.0,0.0,0.0,1.0,166.665,52.78,52.78,47.974000000000004,47.974000000000004,34.0,-22.1075,26.036666666666665,-28.57,31.2875,0.0,1781.943,-0.46499999999999986,100.0,27.772,27.381,42.763,42.633,0.0,0.0,100.0,0.0,0.0,0.0,0.0,3065.0,3115.8,4157.888888888889,4306.2,305.4315,304.973,314.65025,314.22225,21.9262,20.5856,21.8984,21.4221,314.999998,314.999998,324.999988,324.999988,99.56032857142857,99.50753333333333,99.56664285714285,99.54668571428572,0.1120000000000001,-0.01824999999999999,-0.09583333333333333,0.13366666666666682,-0.036666666666668846,-0.054999999999999716,1.4914999999999998,1.4849999999999999,38.039,29.6605,37.864999999999995,34.888,56.56,35.1005,59.454,52.283,54.446,34.210499999999996,58.0505,50.6165,53.583,33.7365,57.978,50.028999999999996,-0.1213333333333333,-0.03049999999999997,0.105325,0.11093000000000001,0.0,210.91500000000002,210.94,207.72333333333333,207.72333333333333,0.0,0.0
14,0.0,0.0,0.0,1.0,1.0,0.0,0.0,1.0,0.0,100.0,1.0,1.1856,26.0,0.0,0.0,0.0,65.999997,0.0,26.0,26.0,26.0,26.0,0.041749999999999954,0.28390000000000004,-0.013600000000000001,292.938,-2.7108,-2.70125,-1.5750000000000002,-1.538375,-229.11,215.66750000000002,190.7055,0.0,0.0,0.0,0.0,0.02866666666666667,-5.498166666666667,-5.498166666666667,-0.5495,-0.14166666666666666,0.022777777777777786,-0.28700000000000003,67.494,0.0148,-0.227225,-0.3979999999999997,100.0,1.0,1.0,208.24333333333334,0.0,0.0,0.0,0.0,0.0,0.0,0.0,8826.7,0.0,55.0,5.0,242.95333333333335,0.0,0.0,0.0,0.0,0.0,0.0,1.0,0.0,0.7049999999999983,0.7049999999999983,0.0,0.0,0.0,55.0,616.79921,10000.0,85.000001,85.000001,85.000001,85.000001,395.0,0.0,0.0,0.0,1.0,166.665,52.719,52.719,48.278999999999996,48.278999999999996,34.0,-23.22,25.240000000000002,-26.94,28.8825,0.0,1781.89,-0.5199999999999996,100.0,27.588,27.757,42.598,42.879,0.0,0.0,100.0,0.0,0.0,0.0,0.0,3098.666666666667,3066.8,3999.6666666666665,4102.5,305.53,304.874,315.12825,314.6395,21.936,20.5911,21.9087,21.4312,314.999998,314.999998,324.999988,324.999988,99.56034285714286,99.50753333333333,99.5668,99.54684285714286,0.09400000000000008,-0.03325,-0.09583333333333333,0.12683333333333335,-0.041666666666671404,-0.05333333333332746,1.5594999999999999,1.5379999999999998,38.099999999999994,29.694499999999998,37.93,34.945,56.547,35.138,59.491,52.3445,54.433,34.245,58.085,50.676,53.57,33.769999999999996,58.0095,50.08733333333333,-0.11633333333333318,-0.03949999999999987,0.10709,0.10873000000000001,0.0,211.35000000000002,211.36,208.24333333333334,208.24333333333334,0.0,0.0
15,0.0,0.0,0.0,1.0,1.0,0.0,0.0,1.0,0.0,100.0,1.0,1.1856,26.0,0.0,0.0,0.0,65.999997,0.0,26.0,26.0,26.0,26.0,0.053625000000000034,0.27880000000000016,-0.0014,292.847,-2.7099,-2.669875,-1.5910000000000002,-1.548875,-225.87,215.6475,190.685,0.0,0.0,0.0,0.0,0.03056666666666667,-5.498166666666667,-5.498166666666667,-0.5421,0.23966666666666667,0.040111111111110986,-0.6619999999999999,67.627,0.0229,-0.21250000000000002,-0.47799999999999976,100.0,1.0,1.0,208.61333333333334,0.0,0.0,0.0,0.0,0.0,0.0,0.0,8842.4,0.0,55.0,5.0,243.43,1.0,0.0,0.0,0.0,0.0,0.0,1.0,0.0,0.7530000000000001,0.7530000000000001,0.0,0.0,1.0,55.0,616.79921,10000.0,85.000001,85.000001,85.000001,85.000001,395.0,0.0,0.0,0.0,1.0,166.665,52.765,52.765,48.157,48.157,34.0,-22.29,25.133333333333333,-27.61,30.9325,0.0,1781.843,-0.46499999999999986,100.0,27.599,27.858,42.418,42.999,0.0,0.0,100.0,0.0,0.0,0.0,0.0,3034.833333333333,3052.9,4063.4444444444443,4229.9,305.72,304.896,314.999,314.282,21.9451,20.5963,21.9185,21.439799999999998,314.999998,314.999998,324.999988,324.999988,99.56035714285714,99.50753333333333,99.56692857142858,99.54697142857142,0.10275000000000012,-0.02674999999999994,-0.09183333333333332,0.13850000000000007,-0.04999999999999716,-0.03166666666666629,1.521,1.5070000000000001,38.157,29.727,37.989999999999995,34.9985,56.534,35.173,59.5255,52.403,54.421,34.2775,58.117,50.732,53.557,33.801,58.0385,50.14233333333333,-0.11333333333333329,-0.038000000000000256,0.11235500000000001,0.1096,0.0,211.775,211.76999999999998,208.61333333333334,208.61333333333334,0.0,0.0
16,0.0,0.0,0.0,1.0,1.0,0.0,0.0,1.0,0.0,100.0,1.0,1.1856,26.0,0.0,0.0,0.0,65.999997,0.0,26.0,26.0,26.0,26.0,0.04150000000000009,0.27500000000000013,-0.00095,292.816,-2.7688,-2.620125,-1.5663,-1.545375,-222.41,215.6275,190.663,0.0,0.0,0.0,0.0,0.03256666666666667,-5.498166666666667,-5.498166666666667,-0.5543,-0.5660000000000001,0.03355555555555556,0.2869999999999999,67.768,0.029400000000000003,-0.22315000000000002,-0.4479999999999995,100.0,1.0,1.0,209.01999999999998,0.0,0.0,0.0,0.0,0.0,0.0,0.0,8859.6,0.0,55.0,5.0,243.93666666666667,0.0,0.0,0.0,0.0,0.0,0.0,1.0,0.0,0.8039999999999985,0.8039999999999985,0.0,0.0,0.0,55.0,616.79921,10000.0,85.000001,85.000001,85.000001,85.000001,395.0,0.0,0.0,0.0,1.0,333.33500000000004,52.719,52.719,47.897,47.897,34.0,-22.475,26.52,-25.6675,30.59,0.0,1781.79,-0.33500000000000085,100.0,27.467,27.692,42.745000000000005,43.072,0.0,0.0,100.0,0.0,0.0,0.0,0.0,3028.0,3240.0,4014.777777777778,4148.1,305.6505,304.59725,315.022,314.549,21.9546,20.6019,21.9289,21.448900000000002,314.999998,314.999998,324.999988,324.999988,99.56037142857143,99.50753333333333,99.56707142857142,99.54711428571429,0.1120000000000001,-0.017249999999999988,-0.06533333333333335,0.14850000000000008,-0.01999999999999602,-0.05333333333332746,1.5194999999999999,1.508,38.216,29.762,38.056,35.0555,56.519,35.210499999999996,59.564,52.465,54.406,34.3125,58.153,50.792,53.541,33.8345,58.0715,50.201,-0.10499999999999998,-0.047499999999999876,0.10486500000000001,0.09943,0.0,212.15,212.2,209.01999999999998,209.01999999999998,0.0,0.0
17,0.0,0.0,0.0,1.0,1.0,0.0,0.0,1.0,0.0,100.0,1.0,1.1856,26.0,0.0,0.0,0.0,65.999997,0.0,26.0,26.0,26.0,26.0,0.020375000000000032,0.2874000000000001,0.019,292.48,-2.7267,-2.607875,-1.6044,-1.511875,-218.75,215.61,190.639375,0.0,0.0,0.0,0.0,0.0347,-5.498166666666667,-5.498166666666667,-0.549,0.258,0.008000000000000007,0.474,67.91499999999999,0.0296,-0.20985,-0.33999999999999986,100.0,1.0,1.0,209.45,0.0,0.0,0.0,0.0,0.0,0.0,0.0,8877.8,0.0,55.0,5.0,244.46333333333334,1.0,0.0,0.0,0.0,0.0,0.0,1.0,0.0,0.8580000000000005,0.8580000000000005,0.0,0.0,1.0,55.0,616.79921,10000.0,85.000001,85.000001,85.000001,85.000001,395.0,0.0,0.0,0.0,1.0,166.665,52.429,52.429,47.668,47.668,34.0,-22.9125,25.726666666666667,-28.7075,31.3125,0.0,1781.739,-0.3049999999999997,100.0,27.881,27.84,42.661,42.995000000000005,0.0,0.0,100.0,0.0,0.0,0.0,0.0,3107.0,3190.6,4269.111111111111,4276.6,305.381,304.75575,314.50775,314.34025,21.9649,20.6078,21.9399,21.4585,314.999998,314.999998,324.999988,324.999988,99.56038571428572,99.50755,99.56722857142857,99.54727142857143,0.1100000000000001,-0.022249999999999992,-0.07633333333333336,0.15183333333333326,-0.02499999999999858,-0.046666666666666856,1.5145,1.5044999999999997,38.281,29.799,38.123999999999995,35.1155,56.504999999999995,35.251,59.603,52.5295,54.393,34.35,58.189,50.854,53.527,33.8705,58.104,50.262,-0.10333333333333328,-0.0535000000000001,0.10663,0.107075,0.0,212.655,212.66,209.45,209.45,0.0,0.0
18,0.0,0.0,0.0,1.0,1.0,0.0,0.0,1.0,0.0,100.0,1.0,1.1856,26.0,0.0,0.0,0.0,65.999997,0.0,26.0,26.0,26.0,26.0,0.01187500000000008,0.27570000000000006,0.02145,292.358,-2.6593,-2.59625,-1.6027,-1.471875,-215.49,215.5925,190.61825,0.0,0.0,0.0,0.0,0.0366,-5.498166666666667,-5.498166666666667,-0.5598000000000001,-0.394,0.01588888888888884,0.9040000000000001,68.045,0.024900000000000002,-0.22282500000000002,-0.26399999999999935,100.0,1.0,1.0,209.82999999999998,0.0,0.0,0.0,0.0,0.0,0.0,0.0,8894.0,0.0,55.0,5.0,244.93666666666667,0.0,0.0,0.0,0.0,0.0,0.0,1.0,0.0,0.9059999999999988,0.9059999999999988,0.0,0.0,0.0,55.0,616.79921,10000.0,85.000001,85.000001,85.000001,85.000001,395.0,0.0,0.0,0.0,1.0,166.665,52.231,52.231,47.577,47.577,34.0,-22.2425,27.006666666666668,-28.095,30.085,0.0,1781.69,-0.3200000000000003,100.0,27.831,27.783,42.899,43.173,0.0,0.0,100.0,0.0,0.0,0.0,0.0,3095.5,3333.6,4154.555555555556,4281.0,305.3445,304.3505,314.73,314.303,21.9739,20.613,21.9498,21.4672,314.999998,314.999998,324.999988,324.999988,99.5604,99.50755,99.56735714285715,99.54741428571428,0.11050000000000004,-0.02024999999999999,-0.08116666666666661,0.13766666666666683,-0.030000000000001137,-0.041666666666671404,1.5095,1.504,38.337,29.8315,38.186,35.17,56.492000000000004,35.286,59.638999999999996,52.588,54.381,34.382,58.223,50.9105,53.513999999999996,33.9015,58.135,50.31733333333334,-0.09899999999999998,-0.05449999999999999,0.10585000000000001,0.10649000000000002,0.0,213.03,213.055,209.82999999999998,209.82999999999998,0.0,0.0
19,0.0,0.0,0.0,1.0,1.0,0.0,0.0,1.0,0.0,100.0,1.0,1.1856,26.0,0.0,0.0,0.0,65.999997,0.0,26.0,26.0,26.0,26.0,0.039875000000000105,0.28880000000000017,0.0716,292.038,-2.6586,-2.6967499999999998,-1.5354999999999999,-1.458,-212.22,215.5775,190.596875,0.0,0.0,0.0,0.0,0.0385,-5.498166666666667,-5.498166666666667,-0.5531,0.7166666666666667,0.022444444444444267,0.8,68.175,0.0193,-0.21580000000000002,-0.242,100.0,1.0,1.0,210.21333333333334,0.0,0.0,0.0,0.0,0.0,0.0,0.0,8910.1,0.0,55.0,5.0,245.4,1.0,0.0,0.0,0.0,0.0,0.0,1.0,0.0,0.9540000000000006,0.9540000000000006,0.0,0.0,1.0,55.0,616.79921,10000.0,85.000001,85.000001,85.000001,85.000001,395.0,0.0,0.0,0.0,1.0,166.665,51.804,51.804,47.592,47.592,34.0,-22.365000000000002,26.703333333333333,-27.22,31.755,0.0,1781.642,-0.3049999999999997,100.0,28.371,28.275,42.792,43.164,0.0,0.0,100.0,0.0,0.0,0.0,0.0,3100.333333333333,3220.5,4167.333333333333,4465.6,305.2895,304.46675,314.6775,313.913,21.9831,20.6184,21.9595,21.4757,314.999998,314.999998,324.999988,324.999988,99.56041428571429,99.50756666666666,99.5675,99.54754285714286,0.10975000000000001,-0.031000000000000028,-0.07950000000000002,0.14516666666666667,-0.04333333333332945,-0.07000000000000028,1.505,1.5114999999999998,38.394,29.865000000000002,38.247,35.2235,56.480999999999995,35.323,59.673,52.646,54.370000000000005,34.4165,58.2545,50.966,53.501999999999995,33.9345,58.1635,50.372,-0.10099999999999998,-0.05549999999999988,0.10052000000000001,0.11507,0.0,213.495,213.49,210.21333333333334,210.21333333333334,0.0,0.0
20,0.0,0.0,0.0,1.0,1.0,0.0,0.0,1.0,0.0,100.0,1.0,1.1856,26.0,0.0,0.0,0.0,65.999997,0.0,26.0,26.0,26.0,26.0,0.03562500000000002,0.2558,0.00885,292.297,-2.7572,-2.6473750000000003,-1.5417,-1.58,-208.74,215.5625,190.5745,0.0,0.0,0.0,0.0,0.0405,-5.498166666666667,-5.498166666666667,-0.5532,-0.891,0.017222222222222028,-1.124,68.313,0.0194,-0.22387500000000002,-0.21799999999999908,100.0,1.0,1.0,210.59333333333333,0.0,0.0,0.0,0.0,0.0,0.0,0.0,8926.3,0.0,55.0,5.0,245.90333333333334,0.0,0.0,0.0,0.0,0.0,0.0,0.0,0.0,1.004999999999999,1.004999999999999,0.0,0.0,0.0,55.0,616.79921,10000.0,85.000001,85.000001,85.000001,85.000001,395.0,0.0,0.0,0.0,1.0,333.33500000000004,52.612,52.612,47.165,47.165,34.0,-23.502499999999998,24.116666666666667,-28.7725,30.080000000000002,0.0,1781.589,-0.259999999999998,100.0,27.779,28.157,43.317,43.765,0.0,0.0,100.0,0.0,0.0,0.0,0.0,3102.0,3026.8,4200.777777777777,4160.1,305.633,305.06825,314.62525,314.3815,21.9925,20.6239,21.9701,21.485,314.999998,314.999998,324.999988,324.999988,99.56042857142857,99.50756666666666,99.56764285714286,99.5477,0.09575,-0.03874999999999995,-0.10066666666666657,0.11933333333333329,-0.03499999999999659,-0.046666666666666856,1.4815,1.468,38.453,29.8995,38.313,35.281,56.466,35.36,59.7125,52.7095,54.355000000000004,34.451,58.2915,51.027,53.486999999999995,33.9675,58.198,50.431666666666665,-0.10033333333333316,-0.05699999999999994,0.11413500000000001,0.09748000000000001,0.0,213.85500000000002,213.885,210.59333333333333,210.59333333333333,0.0,0.0
21,0.0,0.0,0.0,1.0,1.0,0.0,0.0,1.0,0.0,100.0,1.0,1.1856,26.0,0.0,0.0,0.0,65.999997,0.0,26.0,26.0,26.0,26.0,0.02662500000000012,0.27770000000000006,-0.0575,292.648,-2.7264,-2.656625,-1.6123,-1.5395,-205.45999999999998,215.5475,190.553,0.0,0.0,0.0,0.0,0.04243333333333334,-5.498166666666667,-5.498166666666667,-0.5747,0.08866666666666667,0.0040000000000000036,-0.723,68.439,0.0182,-0.22525,-0.13999999999999968,100.0,1.0,1.0,211.16666666666669,0.0,0.0,0.0,0.0,0.0,0.0,0.0,8950.6,0.0,55.0,5.0,246.35333333333335,1.0,0.0,0.0,0.0,0.0,0.0,0.0,0.0,1.0530000000000008,1.0530000000000008,0.0,0.0,1.0,55.0,616.79921,10000.0,85.000001,85.000001,85.000001,85.000001,395.0,0.0,0.0,0.0,1.0,333.33500000000004,52.429,52.429,48.126,48.126,34.0,-24.2825,24.276666666666667,-27.974999999999998,28.13,0.0,1781.542,-0.26500000000000057,100.0,27.898,28.047,42.919,43.305,0.0,0.0,100.0,0.0,0.0,0.0,0.0,3200.666666666667,3054.2,4058.6666666666665,3993.5,305.289,305.04425,315.0705,314.964,22.0014,20.6292,21.9797,21.4934,314.999998,314.999998,324.999988,324.999988,99.56042857142857,99.50756666666666,99.56778571428572,99.54784285714285,0.09275000000000011,-0.04125000000000001,-0.09850000000000003,0.13283333333333336,-0.04999999999999716,-0.041666666666671404,1.5655000000000001,1.564,38.509,29.932499999999997,38.373000000000005,35.334,56.453,35.396,59.745,52.763999999999996,54.343,34.484,58.322,51.08,53.474000000000004,33.9995,58.225,50.483333333333334,-0.10099999999999998,-0.06050000000000022,0.10651500000000001,0.10724,0.0,214.285,214.275,211.16666666666669,211.16666666666669,0.0,0.0
22,0.0,0.0,0.0,1.0,1.0,0.0,0.0,1.0,0.0,100.0,1.0,1.1856,26.0,0.0,0.0,0.0,65.999997,0.0,26.0,26.0,26.0,26.0,0.026250000000000107,0.28469999999999995,-0.0008500000000000001,292.221,-2.7853,-2.618125,-1.6078000000000001,-1.5225,-201.76,215.5325,190.52775,0.0,0.0,0.0,0.0,0.04456666666666667,-5.498166666666667,-5.498166666666667,-0.5578000000000001,0.04733333333333334,0.014333333333333309,-0.512,68.58500000000001,0.013300000000000001,-0.202025,-0.09200000000000053,100.0,1.0,1.0,211.44,0.0,0.0,0.0,0.0,0.0,0.0,0.0,8962.1,0.0,55.0,5.0,246.88,0.0,0.0,0.0,0.0,0.0,0.0,0.0,0.0,1.1069999999999993,1.1069999999999993,0.0,0.0,0.0,55.0,616.79921,10000.0,85.000001,85.000001,85.000001,85.000001,395.0,0.0,0.0,0.0,1.0,166.665,52.567,52.567,47.165,47.165,34.0,-23.8325,24.085,-30.224999999999998,30.835,0.0,1781.487,-0.40500000000000114,100.0,27.944,28.166,43.095,43.483000000000004,0.0,0.0,100.0,0.0,0.0,0.0,0.0,3101.666666666667,3047.9,4302.444444444444,4338.1,305.661,305.08125,314.46975,314.11825,22.011499999999998,20.6351,21.9908,21.5031,314.999998,314.999998,324.999988,324.999988,99.56044285714286,99.50758333333333,99.56792857142857,99.54798571428572,0.09325000000000006,-0.03600000000000003,-0.09750000000000003,0.1263333333333332,-0.060000000000002274,-0.041666666666671404,1.5,1.4925000000000002,38.572,29.9695,38.443,35.3945,56.439,35.4365,59.7855,52.829499999999996,54.329,34.5215,58.3595,51.143,53.459,34.0355,58.2595,50.545,-0.10733333333333328,-0.04700000000000015,0.10085500000000001,0.1165,0.0,214.75,214.73000000000002,211.44,211.44,0.0,0.0
23,0.0,0.0,0.0,1.0,1.0,0.0,0.0,1.0,0.0,100.0,1.0,1.1856,26.0,0.0,0.0,0.0,65.999997,0.0,26.0,26.0,26.0,26.0,0.026499999999999968,0.26039999999999996,-0.06445000000000001,292.16,-2.6931000000000003,-2.652375,-1.6615,-1.4975,-198.45999999999998,215.51999999999998,190.50575,0.0,0.0,0.0,0.0,0.0465,-5.498166666666667,-5.498166666666667,-0.5731,-0.27166666666666667,0.014222222222222136,-0.763,68.712,0.011600000000000001,-0.225075,-0.2239999999999993,100.0,1.0,1.0,211.91666666666669,0.0,0.0,0.0,0.0,0.0,0.0,0.0,8982.4,0.0,55.0,5.0,247.33333333333334,1.0,0.0,0.0,0.0,0.0,0.0,0.0,0.0,1.1550000000000011,1.1550000000000011,0.0,0.0,1.0,55.0,616.79921,10000.0,85.000001,85.000001,85.000001,85.000001,395.0,0.0,0.0,0.0,1.0,333.33500000000004,51.926,51.926,47.745,47.745,34.0,-24.335,25.023333333333333,-29.5325,27.9825,0.0,1781.44,-0.39000000000000057,100.0,28.108,28.285,43.208,43.688,0.0,0.0,100.0,0.0,0.0,0.0,0.0,3312.666666666667,3106.5,4117.222222222223,4092.4,304.9975,304.815,314.9485,314.73525,22.0205,20.6405,22.0007,21.5118,314.999998,314.999998,324.999988,324.999988,99.56045714285715,99.50758333333333,99.56807142857143,99.54812857142858,0.10525000000000007,-0.036250000000000004,-0.10449999999999993,0.12116666666666687,-0.04333333333332945,-0.03833333333332689,1.5379999999999998,1.5265,38.628,30.003,38.504000000000005,35.449,56.427,35.4725,59.821,52.888,54.318,34.555,58.391999999999996,51.1995,53.446,34.067499999999995,58.289500000000004,50.6,-0.1146666666666667,-0.047499999999999876,0.10408500000000001,0.10663,0.0,215.095,215.115,211.91666666666669,211.91666666666669,0.0,0.0
24,0.0,0.0,0.0,1.0,1.0,0.0,0.0,1.0,0.0,100.0,1.0,1.1856,26.0,0.0,0.0,0.0,65.999997,0.0,26.0,26.0,26.0,26.0,0.034499999999999975,0.2714000000000001,-0.02135,292.419,-2.697,-2.665375,-1.5741,-1.5290000000000001,-195.16,215.5075,190.48325,0.0,0.0,0.0,0.0,0.048400000000000006,-5.498166666666667,-5.498166666666667,-0.5827,-0.30333333333333334,0.019777777777777894,-0.31099999999999994,68.839,0.0175,-0.22065,-0.30799999999999983,100.0,1.0,1.0,212.26,0.0,0.0,0.0,0.0,0.0,0.0,0.0,8997.0,0.0,55.0,5.0,247.79333333333335,0.0,0.0,0.0,0.0,0.0,0.0,0.0,0.0,1.2029999999999994,1.2029999999999994,0.0,0.0,0.0,55.0,616.79921,10000.0,85.000001,85.000001,85.000001,85.000001,395.0,0.0,0.0,0.0,1.0,166.665,52.765,52.765,47.409,47.409,34.0,-22.509999999999998,24.088333333333335,-29.73,29.6225,0.0,1781.393,-0.33500000000000085,100.0,27.957,28.048000000000002,43.124,43.59,0.0,0.0,100.0,0.0,0.0,0.0,0.0,3053.666666666667,2979.6,4309.666666666667,4142.7,305.679,305.2505,314.49875,314.5915,22.0294,20.6457,22.0105,21.5204,314.999998,314.999998,324.999988,324.999988,99.56047142857143,99.50758333333333,99.5682,99.54827142857143,0.09925000000000006,-0.031749999999999945,-0.09883333333333333,0.13400000000000012,-0.04999999999999716,-0.054999999999999716,1.5194999999999999,1.5055,38.684,30.0355,38.565,35.503,56.414,35.5075,59.8555,52.945,54.306,34.587,58.4245,51.254,53.433,34.0985,58.3185,50.653999999999996,-0.10599999999999987,-0.044500000000000206,0.10876000000000001,0.10352000000000001,0.0,215.495,215.515,212.26,212.26,0.0,0.0
25,0.0,0.0,0.0,1.0,1.0,0.0,0.0,1.0,0.0,100.0,1.0,1.1856,26.0,0.0,0.0,0.0,65.999997,0.0,26.0,26.0,26.0,26.0,0.02187500000000009,0.26560000000000006,-0.035,292.313,-2.7568,-2.6395,-1.5777999999999999,-1.531125,-191.64,215.495,190.458,0.0,0.0,0.0,0.0,0.050466666666666674,-5.498166666666667,-5.498166666666667,-0.6037,-0.07533333333333334,0.030999999999999917,0.3780000000000001,68.97200000000001,0.0206,-0.22060000000000002,-0.33399999999999963,100.0,1.0,1.0,212.74333333333334,0.0,0.0,0.0,0.0,0.0,0.0,0.0,9017.4,0.0,55.0,5.0,248.27333333333334,1.0,0.0,0.0,0.0,0.0,0.0,0.0,0.0,1.2540000000000013,1.2540000000000013,0.0,0.0,1.0,55.0,616.79921,10000.0,85.000001,85.000001,85.000001,85.000001,395.0,0.0,0.0,0.0,1.0,333.33500000000004,52.002,52.002,47.821,47.821,34.0,-23.6925,27.22833333333333,-25.9875,29.86,0.0,1781.341,-0.34999999999999787,100.0,27.955,28.044,43.031,43.317,0.0,0.0,100.0,0.0,0.0,0.0,0.0,3180.166666666667,3338.2,3972.777777777778,4156.6,305.2565,304.311,315.19425,314.62875,22.0388,20.6514,22.0208,21.5295,314.999998,314.999998,324.999988,324.999988,99.56047142857143,99.50758333333333,99.56835714285714,99.54841428571429,0.11149999999999993,-0.027000000000000024,-0.0781666666666666,0.13983333333333325,-0.03333333333333144,-0.04333333333332945,1.5514999999999999,1.5310000000000001,38.742000000000004,30.070999999999998,38.629999999999995,35.5595,56.399,35.545500000000004,59.8905,53.0045,54.291,34.6225,58.457,51.3115,53.418,34.1325,58.348,50.71,-0.11333333333333329,-0.05250000000000021,0.10826500000000001,0.104705,0.0,215.9,215.91,212.74333333333334,212.74333333333334,0.0,0.0
26,0.0,0.0,0.0,1.0,1.0,0.0,0.0,1.0,0.0,100.0,1.0,1.1856,26.0,0.0,0.0,0.0,65.999997,0.0,26.0,26.0,26.0,26.0,0.02387500000000009,0.26859999999999995,0.08335000000000001,291.336,-2.6866,-2.7188749999999997,-1.5609000000000002,-1.533375,-187.92000000000002,215.48250000000002,190.430875,0.0,0.0,0.0,0.0,0.05263333333333334,-5.498166666666667,-5.498166666666667,-0.5737,0.4373333333333333,0.018999999999999906,0.81,69.116,0.0223,-0.20105,-0.36600000000000055,100.0,1.0,1.0,212.96666666666667,0.0,0.0,0.0,0.0,0.0,0.0,0.0,9026.9,0.0,55.0,5.0,248.79000000000002,0.0,0.0,0.0,0.0,0.0,0.0,0.0,0.0,1.3079999999999998,1.3079999999999998,0.0,0.0,0.0,55.0,616.79921,10000.0,85.000001,85.000001,85.000001,85.000001,395.0,0.0,0.0,0.0,1.0,166.665,51.666,51.666,46.494,46.494,34.0,-22.58,25.838333333333335,-30.009999999999998,34.18,0.0,1781.286,-0.39000000000000057,100.0,28.798000000000002,28.626,43.535,43.803,0.0,0.0,100.0,0.0,0.0,0.0,0.0,3110.333333333333,3134.7,4430.777777777777,4557.7,305.3395,304.8525,314.02925,313.64675,22.049,20.6575,22.0319,21.5394,314.999998,314.999998,324.999988,324.999988,99.5605,99.50758333333333,99.56851428571429,99.54857142857144,0.11149999999999993,-0.03425,-0.07899999999999996,0.14383333333333326,-0.023333333333326323,-0.05333333333332746,1.444,1.4224999999999999,38.806,30.1095,38.7,35.621,56.387,35.588,59.9315,53.071,54.28,34.662,58.4955,51.3755,53.406,34.17,58.382999999999996,50.772666666666666,-0.11033333333333317,-0.05449999999999999,0.107185,0.105105,0.0,216.38,216.39499999999998,212.96666666666667,212.96666666666667,0.0,0.0
27,0.0,0.0,0.0,1.0,1.0,0.0,0.0,1.0,0.0,100.0,1.0,1.1856,26.0,0.0,0.0,0.0,65.999997,0.0,26.0,26.0,26.0,26.0,0.05237500000000006,0.24209999999999998,-0.02015,291.763,-2.7093,-2.65225,-1.5891000000000002,-1.6091250000000001,-184.8,215.4725,190.40925,0.0,0.0,0.0,0.0,0.05443333333333334,-5.498166666666667,-5.498166666666667,-0.5930000000000001,-0.9083333333333334,0.020444444444444265,-0.6859999999999999,69.232,0.023100000000000002,-0.23615,-0.3200000000000003,100.0,1.0,1.0,213.43666666666667,0.0,0.0,0.0,0.0,0.0,0.0,0.0,9046.9,0.0,55.0,5.0,249.21,1.0,0.0,0.0,0.0,0.0,0.0,0.0,0.0,1.352999999999998,1.352999999999998,0.0,0.0,1.0,55.0,616.79921,10000.0,85.000001,85.000001,85.000001,85.000001,395.0,0.0,0.0,0.0,1.0,166.665,51.987,51.987,46.661,46.661,34.0,-22.625,25.443333333333335,-28.7425,30.7575,0.0,1781.243,-0.39000000000000057,100.0,28.326999999999998,28.694,43.906,44.325,0.0,0.0,100.0,0.0,0.0,0.0,0.0,3085.833333333333,3123.5,4165.666666666667,4077.8,305.61,304.76925,314.753,314.64725,22.057299999999998,20.6626,22.0413,21.5476,314.999998,314.999998,324.999988,324.999988,99.56051428571429,99.5076,99.56864285714286,99.5487,0.10549999999999993,-0.030749999999999944,-0.09433333333333338,0.14000000000000012,-0.054999999999999716,-0.03333333333333144,1.495,1.4695,38.858000000000004,30.141,38.757999999999996,35.6725,56.375,35.6215,59.966,53.126,54.269,34.693,58.5275,51.4285,53.394,34.2,58.4125,50.824333333333335,-0.1096666666666668,-0.04850000000000021,0.11081,0.10797500000000002,0.0,216.7,216.7,213.43666666666667,213.43666666666667,0.0,0.0
28,0.0,0.0,0.0,1.0,1.0,0.0,0.0,1.0,0.0,100.0,1.0,1.1856,26.0,0.0,0.0,0.0,65.999997,0.0,26.0,26.0,26.0,26.0,0.03699999999999992,0.26550000000000007,-0.0506,291.992,-2.6884,-2.650125,-1.6348,-1.56075,-181.26999999999998,215.465,190.383875,0.0,0.0,0.0,0.0,0.056466666666666665,-5.498166666666667,-5.498166666666667,-0.6039,0.5333333333333334,0.0129999999999999,0.4079999999999999,69.362,0.0234,-0.22105000000000002,-0.3779999999999992,100.0,1.0,1.0,213.96,0.0,0.0,0.0,0.0,0.0,0.0,0.0,9069.0,0.0,55.0,5.0,249.67666666666668,0.0,0.0,0.0,0.0,0.0,0.0,0.0,0.0,1.404,1.404,0.0,0.0,0.0,55.0,616.79921,10000.0,85.000001,85.000001,85.000001,85.000001,395.0,0.0,0.0,0.0,1.0,333.33500000000004,51.788,51.788,47.577,47.577,34.0,-21.975,26.59,-27.3975,29.88,0.0,1781.19,-0.47499999999999787,100.0,28.578,28.522,43.407,43.812,0.0,0.0,100.0,0.0,0.0,0.0,0.0,3083.833333333333,3218.5,4029.1111111111113,4130.5,305.4025,304.65375,315.15375,314.6965,22.0668,20.6683,22.0516,21.5567,314.999998,314.999998,324.999988,324.999988,99.56052857142858,99.5076,99.5688,99.54885714285714,0.12125000000000008,-0.018749999999999933,-0.08499999999999996,0.13783333333333325,-0.026666666666670835,-0.054999999999999716,1.5579999999999998,1.548,38.918,30.177,38.822,35.7295,56.361999999999995,35.6625,60.0015,53.1885,54.256,34.731,58.5605,51.488,53.379999999999995,34.2365,58.442,50.882666666666665,-0.11766666666666681,-0.04850000000000021,0.10878000000000002,0.10219,0.0,217.115,217.155,213.96,213.96,0.0,0.0
29,0.0,0.0,0.0,1.0,1.0,0.0,0.0,1.0,0.0,100.0,1.0,1.1856,26.0,0.0,0.0,0.0,65.999997,0.0,26.0,26.0,26.0,26.0,0.05049999999999999,0.26839999999999997,0.014450000000000001,291.733,-2.6731,-2.705,-1.5792000000000002,-1.5422500000000001,-177.73000000000002,215.45499999999998,190.3575,0.0,0.0,0.0,0.0,0.05853333333333334,-5.498166666666667,-5.498166666666667,-0.6024,-0.6136666666666667,0.006999999999999895,-0.765,69.497,0.0263,-0.21330000000000002,-0.40200000000000014,100.0,1.0,1.0,214.17333333333335,0.0,0.0,0.0,0.0,0.0,0.0,0.0,9078.0,0.0,55.0,5.0,250.16333333333336,1.0,0.0,0.0,0.0,0.0,0.0,0.0,0.0,1.4549999999999983,1.4549999999999983,0.0,0.0,1.0,55.0,616.79921,10000.0,85.000001,85.000001,85.000001,85.000001,395.0,0.0,0.0,0.0,1.0,166.665,52.246,52.246,46.585,46.585,34.0,-22.0175,25.246666666666666,-29.2125,31.3625,0.0,1781.141,-0.48499999999999943,100.0,28.095,28.524,43.718,44.150999999999996,0.0,0.0,100.0,0.0,0.0,0.0,0.0,3097.333333333333,3044.1,4259.222222222223,4293.0,305.594,304.9685,314.51075,314.20375,22.0762,20.674,22.0621,21.566,314.999998,314.999998,324.999988,324.999988,99.56054285714286,99.50761666666666,99.56894285714286,99.549,0.11375000000000002,-0.029749999999999943,-0.08966666666666656,0.13566666666666682,-0.05333333333332746,-0.046666666666666856,1.4855,1.4825,38.976,30.2125,38.888,35.7875,56.349000000000004,35.6975,60.0385,53.247,54.244,34.7635,58.595,51.5445,53.366,34.2675,58.4735,50.938,-0.11966666666666681,-0.04300000000000015,0.10455,0.11190000000000001,0.0,217.53,217.54000000000002,214.17333333333335,214.17333333333335,0.0,0.0
30,0.0,0.0,0.0,1.0,1.0,0.0,0.0,1.0,0.0,100.0,1.0,1.1856,26.0,0.0,0.0,0.0,65.999997,0.0,26.0,26.0,26.0,26.0,0.07437500000000008,0.2558,0.0035,291.214,-2.7375,-2.72825,-1.5561,-1.5925,-174.39,215.4475,190.332625,0.0,0.0,0.0,0.0,0.06046666666666667,-5.498166666666667,-5.498166666666667,-0.6094,0.615,0.010444444444444256,-0.41400000000000003,69.617,0.0262,-0.22175,-0.4720000000000004,100.0,1.0,1.0,214.69,0.0,0.0,0.0,0.0,0.0,0.0,0.0,9099.9,0.0,55.0,5.0,250.59666666666666,0.0,0.0,0.0,0.0,0.0,0.0,1.0,0.0,1.5030000000000001,1.5030000000000001,0.0,0.0,0.0,55.0,616.79921,10000.0,85.000001,85.000001,85.000001,85.000001,395.0,0.0,0.0,0.0,1.0,166.665,50.476,50.476,47.318,47.318,34.0,-25.5325,29.226666666666667,-26.5125,30.677500000000002,0.0,1781.093,-0.495000000000001,100.0,28.874,29.076999999999998,43.488,44.106,0.0,0.0,100.0,0.0,0.0,0.0,0.0,3430.833333333333,3427.1,4059.0,4111.8,304.4565,303.8885,315.065,314.6085,22.0853,20.6796,22.0719,21.5747,314.999998,314.999998,324.999988,324.999988,99.56055714285715,99.50761666666666,99.56907142857143,99.54914285714285,0.11650000000000005,-0.02574999999999994,-0.07966666666666666,0.1403333333333332,-0.03999999999999915,-0.04333333333332945,1.5225,1.5034999999999998,39.033,30.247500000000002,38.949,35.842,56.34,35.7355,60.071,53.3035,54.235,34.798500000000004,58.625,51.599000000000004,53.357,34.3015,58.5005,50.99133333333333,-0.123,-0.04600000000000026,0.10447500000000001,0.10444,0.0,217.91,217.945,214.69,214.69,0.0,0.0
31,0.0,0.0,0.0,1.0,1.0,0.0,0.0,1.0,0.0,100.0,1.0,1.1856,26.0,0.0,0.0,0.0,65.999997,0.0,26.0,26.0,26.0,26.0,0.03137499999999993,0.26750000000000007,0.0675,290.741,-2.7736,-2.6241250000000003,-1.6479,-1.492625,-170.84,215.4425,190.306625,0.0,0.0,0.0,0.0,0.06253333333333334,-5.498166666666667,-5.498166666666667,-0.5854,-0.3226666666666667,0.018888888888888955,0.79,69.751,0.0328,-0.21632500000000002,-0.492,100.0,1.0,1.0,214.86333333333334,0.0,0.0,0.0,0.0,0.0,0.0,0.0,9107.3,0.0,55.0,5.0,251.07666666666665,1.0,0.0,0.0,0.0,0.0,0.0,1.0,0.0,1.5539999999999985,1.5539999999999985,0.0,0.0,1.0,55.0,616.79921,10000.0,85.000001,85.000001,85.000001,85.000001,395.0,0.0,0.0,0.0,1.0,166.665,51.269999999999996,51.269999999999996,45.516999999999996,45.516999999999996,34.0,-22.275,27.6,-30.8,33.3525,0.0,1781.042,-0.495000000000001,100.0,28.977,29.079,44.33,44.765,0.0,0.0,100.0,0.0,0.0,0.0,0.0,3084.833333333333,3342.9,4383.222222222223,4482.2,305.53,304.3845,314.115,313.73375,22.0948,20.6855,22.0825,21.5842,314.999998,314.999998,324.999988,324.999988,99.56057142857142,99.50761666666666,99.56922857142857,99.5493,0.13000000000000012,-0.01474999999999993,-0.0738333333333333,0.14883333333333337,-0.023333333333326323,-0.06499999999999773,1.4289999999999998,1.4220000000000002,39.092,30.284,39.016,35.900999999999996,56.329,35.775,60.111,53.368,54.224000000000004,34.835499999999996,58.6625,51.661500000000004,53.345,34.3365,58.5345,51.052,-0.11999999999999988,-0.04800000000000004,0.11470500000000002,0.10652,0.0,218.32,218.36,214.86333333333334,214.86333333333334,0.0,0.0
32,0.0,0.0,0.0,1.0,1.0,0.0,0.0,1.0,0.0,100.0,1.0,1.1856,26.0,0.0,0.0,0.0,65.999997,0.0,26.0,26.0,26.0,26.0,0.062000000000000055,0.26900000000000013,-0.027800000000000002,291.29,-2.7075,-2.674125,-1.6623,-1.544,-167.26999999999998,215.4375,190.28125,0.0,0.0,0.0,0.0,0.06463333333333333,-5.498166666666667,-5.498166666666667,-0.6055,-0.249,0.0016666666666667052,-0.865,69.878,0.038,-0.23095000000000002,-0.45999999999999996,100.0,1.0,1.0,215.41,0.0,0.0,0.0,0.0,0.0,0.0,0.0,9130.4,0.0,55.0,5.0,251.53666666666666,0.0,0.0,0.0,0.0,0.0,0.0,1.0,0.0,1.6050000000000004,1.6050000000000004,0.0,0.0,0.0,55.0,616.79921,10000.0,85.000001,85.000001,85.000001,85.000001,395.0,0.0,0.0,0.0,1.0,333.33500000000004,51.528999999999996,51.528999999999996,46.448,46.448,34.0,-22.59,25.901666666666667,-28.32,32.322500000000005,0.0,1780.989,-0.4450000000000003,100.0,28.68,29.117,44.112,44.684,0.0,0.0,100.0,0.0,0.0,0.0,0.0,3169.5,3110.0,4228.777777777777,4264.7,305.357,304.806,314.7125,314.376,22.1041,20.6913,22.093,21.5934,314.999998,314.999998,324.999988,324.999988,99.5606,99.50761666666666,99.56938571428572,99.54945714285714,0.12274999999999991,-0.021499999999999964,-0.0615,0.16133333333333333,-0.07499999999999574,-0.03499999999999659,1.5244999999999997,1.495,39.150999999999996,30.3205,39.081,35.959,56.316,35.8165,60.149,53.4315,54.212,34.8735,58.6975,51.7225,53.331,34.3735,58.566,51.112,-0.11999999999999988,-0.053999999999999826,0.092465,0.11480000000000001,0.0,218.72500000000002,218.72,215.41,215.41,0.0,0.0
33,0.0,0.0,0.0,1.0,1.0,0.0,0.0,1.0,0.0,100.0,1.0,1.1856,26.0,0.0,0.0,0.0,65.999997,0.0,26.0,26.0,26.0,26.0,0.059374999999999956,0.26150000000000007,-0.060250000000000005,291.611,-2.7334,-2.69025,-1.5976,-1.5815000000000001,-163.70999999999998,215.435,190.25475,0.0,0.0,0.0,0.0,0.06670000000000001,-5.498166666666667,-5.498166666666667,-0.6137,-0.187,-0.00011111111111095084,0.9299999999999999,70.007,0.0364,-0.2162,-0.4820000000000002,100.0,1.0,1.0,215.82333333333332,0.0,0.0,0.0,0.0,0.0,0.0,0.0,9148.0,0.0,55.0,5.0,251.99666666666667,1.0,0.0,0.0,0.0,0.0,0.0,1.0,0.0,1.6559999999999988,1.6559999999999988,0.0,0.0,1.0,55.0,616.79921,10000.0,85.000001,85.000001,85.000001,85.000001,395.0,0.0,0.0,0.0,1.0,166.665,51.91,51.91,46.875,46.875,34.0,-21.53,26.373333333333335,-26.72,32.405,0.0,1780.94,-0.495000000000001,100.0,28.634,28.665,43.961,44.423,0.0,0.0,100.0,0.0,0.0,0.0,0.0,3060.166666666667,3134.8,4100.111111111111,4230.9,305.592,304.90625,314.90475,314.46175,22.1134,20.697,22.1033,21.6027,314.999998,314.999998,324.999988,324.999988,99.56061428571428,99.50763333333333,99.56952857142858,99.5496,0.13424999999999998,-0.014249999999999985,-0.0651666666666666,0.15966666666666685,-0.02833333333332888,-0.05666666666667197,1.5324999999999998,1.5044999999999997,39.209,30.3565,39.146,36.0165,56.304,35.851,60.182,53.4875,54.201,34.906,58.7285,51.7765,53.319,34.4045,58.594,51.16433333333333,-0.11933333333333329,-0.047499999999999876,0.10434500000000001,0.10755,0.0,219.11,219.14499999999998,215.82333333333332,215.82333333333332,0.0,0.0
34,0.0,0.0,0.0,1.0,1.0,0.0,0.0,1.0,0.0,100.0,1.0,1.1856,26.0,0.0,0.0,0.0,65.999997,0.0,26.0,26.0,26.0,26.0,0.05950000000000011,0.254,-0.076,291.931,-2.6743,-2.674625,-1.6312,-1.51975,-160.13,215.4325,190.22675,0.0,0.0,0.0,0.0,0.06876666666666667,-5.498166666666667,-5.498166666666667,-0.6402,-0.9043333333333334,0.018777777777777782,-0.21099999999999997,70.136,0.0393,-0.21995,-0.4479999999999995,100.0,1.0,1.0,216.2,0.0,0.0,0.0,0.0,0.0,0.0,0.0,9164.0,0.0,55.0,5.0,252.46333333333334,0.0,0.0,0.0,0.0,0.0,0.0,1.0,0.0,1.7070000000000007,1.7070000000000007,0.0,0.0,0.0,55.0,616.79921,10000.0,85.000001,85.000001,85.000001,85.000001,395.0,0.0,0.0,0.0,1.0,166.665,52.49,52.49,47.18,47.18,34.0,-21.6175,25.036666666666665,-28.4275,31.005,0.0,1780.889,-0.4800000000000004,100.0,28.173000000000002,28.428,43.725,44.493,0.0,0.0,100.0,0.0,0.0,0.0,0.0,3061.5,3008.7,4138.555555555556,4198.4,305.7395,305.26475,314.88225,314.4855,22.1225,20.7026,22.1137,21.612000000000002,314.999998,314.999998,324.999988,324.999988,99.56062857142857,99.50763333333333,99.56965714285714,99.54974285714286,0.1160000000000001,-0.01474999999999993,-0.08383333333333332,0.15200000000000014,-0.05333333333332746,-0.03833333333332689,1.5204999999999997,1.4929999999999999,39.266,30.3915,39.211,36.075,56.291,35.887,60.2175,53.548500000000004,54.188,34.939,58.760999999999996,51.835,53.305,34.436,58.623,51.221666666666664,-0.11399999999999988,-0.04249999999999998,0.11257,0.105645,0.0,219.49,219.51,216.2,216.2,0.0,0.0
35,0.0,0.0,0.0,1.0,1.0,0.0,0.0,1.0,0.0,100.0,1.0,1.1856,26.0,0.0,0.0,0.0,65.999997,0.0,26.0,26.0,26.0,26.0,0.07387499999999991,0.2499,-0.05455,291.901,-2.7408,-2.643375,-1.5473,-1.57225,-156.76,215.4325,190.198625,0.0,0.0,0.0,0.0,0.07073333333333334,-5.498166666666667,-5.498166666666667,-0.6778000000000001,-0.227,0.00533333333333319,-1.188,70.255,0.042300000000000004,-0.22615000000000002,-0.46999999999999975,100.0,1.0,1.0,216.65,0.0,0.0,0.0,0.0,0.0,0.0,0.0,9183.0,0.0,55.0,5.0,252.89333333333335,1.0,0.0,0.0,0.0,0.0,0.0,1.0,0.0,1.754999999999999,1.754999999999999,0.0,0.0,1.0,55.0,616.79921,10000.0,85.000001,85.000001,85.000001,85.000001,395.0,0.0,0.0,0.0,1.0,166.665,51.804,51.804,46.906,46.906,34.0,-23.105,27.373333333333335,-25.855,30.005,0.0,1780.842,-0.3299999999999983,100.0,27.968,28.783,43.481,43.996,0.0,0.0,100.0,0.0,0.0,0.0,0.0,3155.333333333333,3297.0,4090.3333333333335,4010.9,305.4435,304.251,315.04275,315.0415,22.131,20.7082,22.1234,21.6206,314.999998,314.999998,324.999988,324.999988,99.56064285714285,99.50763333333333,99.56981428571429,99.54988571428571,0.11499999999999999,-0.022249999999999992,-0.06866666666666665,0.15966666666666685,-0.05666666666667197,-0.04999999999999716,1.565,1.5499999999999998,39.319,30.426000000000002,39.271,36.1285,56.277,35.9235,60.249,53.6015,54.175,34.9725,58.7905,51.8865,53.291,34.4685,58.6495,51.272,-0.10499999999999998,-0.05900000000000016,0.10651000000000001,0.10614000000000001,0.0,219.865,219.89,216.65,216.65,0.0,0.0
36,0.0,0.0,0.0,1.0,1.0,0.0,0.0,1.0,0.0,100.0,1.0,1.1856,26.0,0.0,0.0,0.0,65.999997,0.0,26.0,26.0,26.0,26.0,0.054624999999999924,0.2593000000000001,0.052500000000000005,291.10699999999997,-2.653,-2.708625,-1.6533,-1.586625,-153.18,215.4325,190.167375,0.0,0.0,0.0,0.0,0.0728,-5.498166666666667,-5.498166666666667,-0.6622,0.11066666666666668,-0.03588888888888908,0.17700000000000005,70.385,0.0378,-0.20265,-0.30799999999999983,100.0,1.0,1.0,216.83666666666667,0.0,0.0,0.0,0.0,0.0,0.0,0.0,9191.0,0.0,55.0,5.0,253.36,0.0,0.0,0.0,0.0,0.0,0.0,1.0,0.0,1.806000000000001,1.806000000000001,0.0,0.0,0.0,55.0,616.79921,10000.0,85.000001,85.000001,85.000001,85.000001,395.0,0.0,0.0,0.0,1.0,166.665,51.635999999999996,51.635999999999996,46.417,46.417,34.0,-20.9775,26.551666666666666,-30.322499999999998,35.4725,0.0,1780.789,-0.2699999999999996,100.0,28.859,28.810000000000002,43.807,44.254999999999995,0.0,0.0,100.0,0.0,0.0,0.0,0.0,3030.833333333333,3151.1,4360.444444444444,4512.8,305.4835,304.77925,314.2775,313.7875,22.1403,20.7141,22.1338,21.6299,314.999998,314.999998,324.999988,324.999988,99.56065714285714,99.50765,99.56995714285715,99.55004285714286,0.12975000000000003,-0.020499999999999963,-0.07099999999999995,0.1605000000000001,-0.03333333333333144,-0.054999999999999716,1.4474999999999998,1.4425,39.376999999999995,30.463,39.336,36.187,56.265,35.9625,60.2855,53.6635,54.164,35.009,58.8245,51.946,53.278999999999996,34.5035,58.6805,51.33,-0.10666666666666669,-0.06050000000000022,0.10616500000000001,0.11411500000000001,0.0,220.285,220.32,216.83666666666664,216.83666666666667,0.0,0.0
