,ABS Active,ABS Enabled,AID Allow Tire Blankets,AID Auto Blip,AID Auto Clutch,AID Auto Shift,AID Fuel Rate,AID Ideal Line,AID Mech Damage,AID Stability,AID Tire Wear Rate,Air Density,Air Temp,Ballast,Best Lap Delta,Best Lap Time,Brake Bias,Brake Pos,Brake Temp FL,Brake Temp FR,Brake Temp RL,Brake Temp RR,CG Accel Lateral,CG Accel Longitudinal,CG Accel Vertical,CG Height,Camber FL,Camber FR,Camber RL,Camber RR,Car Coord X,Car Coord Y,Car Coord Z,Car Damage Front,Car Damage Left,Car Damage Rear,Car Damage Right,Car Pos Norm,Caster FL,Caster FR,Chassis Pitch Angle,Chassis Pitch Rate,Chassis Roll Angle,Chassis Roll Rate,Chassis Velocity X,Chassis Velocity Y,Chassis Velocity Z,Chassis Yaw Rate,Clutch Pos,DRS Active,DRS Available,Drive Train Speed,ERS Heat Charging,ERS Is Charging,ERS Max Energy,ERS Power Level,ERS Recovery Level,Engine Brake Setting,Engine Limiter,Engine RPM,Flags,Fuel Level,Gear,Ground Speed,HR Sample Clock,In Pit,KERS Charge,KERS Deployed Energy,KERS Input,KERS Max Energy,LR Sample Clock,Lap Invalidated,Lap Time,Lap Time2,Last Lap Time,Last Sector Time,MR Sample Clock,Max Fuel,Max Power,Max RPM,Max Sus Travel FL,Max Sus Travel FR,Max Sus Travel RL,Max Sus Travel RR,Max Torque,Max Turbo Boost,Num Tires Off Track,Penalties Enabled,Position,Raw Data Sample Rate,Ride Height FL,Ride Height FR,Ride Height RL,Ride Height RR,Road Temp,Self Align Torque FL,Self Align Torque FR,Self Align Torque RL,Self Align Torque RR,Session Lap Count,Session Time Left,Steering Angle,Surface Grip,Suspension Travel FL,Suspension Travel FR,Suspension Travel RL,Suspension Travel RR,TC Active,TC Enabled,Throttle Pos,Tire Dirt Level FL,Tire Dirt Level FR,Tire Dirt Level RL,Tire Dirt Level RR,Tire Load FL,Tire Load FR,Tire Load RL,Tire Load RR,Tire Loaded Radius FL,Tire Loaded Radius FR,Tire Loaded Radius RL,Tire Loaded Radius RR,Tire Pressure FL,Tire Pressure FR,Tire Pressure RL,Tire Pressure RR,Tire Radius FL,Tire Radius FR,Tire Radius RL,Tire Radius RR,Tire Rubber Grip FL,Tire Rubber Grip FR,Tire Rubber Grip RL,Tire Rubber Grip RR,Tire Slip Angle FL,Tire Slip Angle FR,Tire Slip Angle RL,Tire Slip Angle RR,Tire Slip Ratio FL,Tire Slip Ratio FR,Tire Slip Ratio RL,Tire Slip Ratio RR,Tire Temp Core FL,Tire Temp Core FR,Tire Temp Core RL,Tire Temp Core RR,Tire Temp Inner FL,Tire Temp Inner FR,Tire Temp Inner RL,Tire Temp Inner RR,Tire Temp Middle FL,Tire Temp Middle FR,Tire Temp Middle RL,Tire Temp Middle RR,Tire Temp Outer FL,Tire Temp Outer FR,Tire Temp Outer RL,Tire Temp Outer RR,Toe In FL,Toe In FR,Toe In RL,Toe In RR,Turbo Boost,Wheel Angular Speed FL,Wheel Angular Speed FR,Wheel Angular Speed RL,Wheel Angular Speed RR,Wind Direction,Wind Speed
0,0.0,0.0,0.0,1.0,1.0,0.0,0.0,1.0,0.0,100.0,1.0,1.1856,26.0,0.0,0.0,0.0,65.99999,0.0,26.0,26.0,26.0,26.0,-0.0862222222222222,0.3014000000000001,-0.012100000000000001,293.961,-2.7138,-2.6626666666666665,-1.5084,-1.5641,-275.63,216.285,190.98725,0.0,0.0,0.0,0.0,0.0016333333333333755,-5.498166666666667,-5.498166666666667,-0.5491,1.607,-0.016125000000000167,-0.9559999999999995,65.551,-0.037000000000000005,-0.21582500000000002,1.0179999999999998,100.0,1.0,1.0,202.37666666666667,0.0,0.0,0.0,0.0,0.0,0.0,0.0,8578.0,0.0,55.0,5.0,235.95333333333332,0.0,0.0,0.0,0.0,0.0,0.0,0.0,0.0,0.0030000000000001137,0.0030000000000001137,0.0,0.0,0.0,55.0,616.79921,10000.0,85.0,85.0,85.0,85.0,395.0,0.0,0.0,0.0,1.0,20.0,52.673,52.673,49.53,49.53,34.0,-27.0125,23.105,-31.04,24.6425,0.0,1780.49,0.8249999999999993,100.0,27.428,27.047,40.548,40.472,0.0,0.0,100.0,0.0,0.0,0.0,0.0,3075.5714285714284,3334.4,4172.5,3975.2,305.4475,304.1195,314.73975,314.9095,21.81625,20.527,21.7652,21.3094,314.99999,314.99999,324.99998,324.99998,99.5611,99.50751666666666,99.56488571428571,99.54488571428571,0.0013333333333331865,-0.12349999999999994,-0.16833333333333333,0.060833333333333295,-0.07000000000000028,-0.026666666666670835,1.556,1.591,37.352000000000004,29.2935,37.033,34.184,57.088,34.714,58.9995,51.545500000000004,54.936,33.848,57.6275,49.903999999999996,54.07,33.387,57.5935,49.32933333333334,-0.014999999999999902,-0.1379999999999999,0.10929000000000001,0.10375000000000001,0.0,205.43,205.32999999999998,202.37666666666667,202.37666666666667,0.0,0.0
1,0.0,0.0,0.0,1.0,1.0,0.0,0.0,1.0,0.0,100.0,1.0,1.1856,26.0,0.0,0.0,0.0,65.999997,0.0,26.0,26.0,26.0,26.0,-0.09088888888888891,0.3197000000000001,0.15230000000000002,293.106,-2.6408,-2.765888888888889,-1.5305,-1.5488000000000002,-272.28,216.28,190.967125,0.0,0.0,0.0,0.0,0.003566666666666607,-5.498166666666667,-5.498166666666667,-0.4927,-0.5760000000000001,-0.05425000000000013,-0.7869999999999999,65.705,-0.052500000000000005,-0.187775,1.4060000000000006,100.0,1.0,1.0,202.55666666666667,0.0,0.0,0.0,0.0,0.0,0.0,0.0,8585.7,0.0,55.0,5.0,236.50666666666666,1.0,0.0,0.0,0.0,0.0,0.0,0.0,0.0,0.053999999999998494,0.053999999999998494,0.0,0.0,1.0,55.0,616.79921,10000.0,85.000001,85.000001,85.000001,85.000001,395.0,0.0,0.0,0.0,1.0,166.665,53.757,53.757,48.248,48.248,34.0,-27.3375,17.956666666666667,-33.25333333333333,29.4075,0.0,1780.439,0.9149999999999991,100.0,27.416,26.896,42.915,41.672,0.0,0.0,100.0,0.0,0.0,0.0,0.0,3113.5714285714284,2666.6,4248.75,4728.8,305.454,306.356,314.4455,313.07025,21.826375,20.5321,21.776,21.3185,314.999998,314.999998,324.999988,324.999988,99.56111428571428,99.50753333333333,99.56502857142857,99.54502857142857,-0.016666666666666607,-0.138,-0.1768333333333334,0.04150000000000009,-0.03499999999999659,-0.046666666666666856,1.4260000000000002,1.483,37.414,29.325499999999998,37.099999999999994,34.241,57.07,34.754,59.044,51.611000000000004,54.918,33.885,57.6695,49.967,54.052,33.422,57.6325,49.391333333333336,-0.00550000000000006,-0.14500000000000002,0.10385000000000001,0.11023000000000001,0.0,205.88,205.76,202.55666666666667,202.55666666666667,0.0,0.0
2,0.0,0.0,0.0,1.0,1.0,0.0,0.0,1.0,0.0,100.0,1.0,1.1856,26.0,0.0,0.0,0.0,65.999997,0.0,26.0,26.0,26.0,26.0,-0.15622222222222215,0.2813000000000001,-0.09356666666666667,293.655,-2.5943,-2.8049999999999997,-1.48195,-1.6191,-268.93,216.2725,190.94825,0.0,0.0,0.0,0.0,0.00553333333333339,-5.498166666666667,-5.498166666666667,-0.5456,-0.038000000000000256,-0.05624999999999991,2.497,65.84700000000001,-0.0741,-0.24707500000000002,1.6340000000000003,100.0,1.0,1.0,203.42666666666668,0.0,0.0,0.0,0.0,0.0,0.0,0.0,8622.6,0.0,55.0,5.0,237.01999999999998,0.0,0.0,0.0,0.0,0.0,0.0,0.0,0.0,0.10500000000000043,0.10500000000000043,0.0,0.0,0.0,55.0,616.79921,10000.0,85.000001,85.000001,85.000001,85.000001,395.0,0.0,0.0,0.0,1.0,166.665,52.504999999999995,52.504999999999995,50.034,50.034,34.0,-29.965,20.025,-29.213333333333335,20.265,0.0,1780.388,0.7750000000000021,100.0,28.361,26.841,42.719,41.389,0.0,0.0,100.0,0.0,0.0,0.0,0.0,3332.857142857143,2929.7,3793.375,3687.2,304.545,305.5695,315.528,315.7715,21.836624999999998,20.5371,21.7864,21.3273,314.999998,314.999998,324.999988,324.999988,99.56111428571428,99.50755,99.56515714285715,99.54517142857142,-0.02633333333333332,-0.14649999999999996,-0.21350000000000002,0.0076666666666667105,-0.06666666666666998,-0.05333333333332746,1.6355,1.691,37.479,29.3565,37.165,34.295500000000004,57.055,34.792,59.082499999999996,51.669,54.905,33.92,57.7055,50.0225,54.038,33.4555,57.6655,49.44566666666667,-0.018000000000000016,-0.13200000000000012,0.09786500000000001,0.110765,0.0,206.335,206.195,203.42666666666668,203.42666666666668,0.0,0.0
3,0.0,0.0,0.0,1.0,1.0,0.0,0.0,1.0,0.0,100.0,1.0,1.1856,26.0,0.0,0.0,0.0,65.999997,0.0,26.0,26.0,26.0,26.0,-0.15033333333333332,0.3347,0.07226666666666666,293.381,-2.726,-2.695333333333333,-1.5122499999999999,-1.5928,-265.76,216.26,190.929625,0.0,0.0,0.0,0.0,0.0073666666666665215,-5.498166666666667,-5.498166666666667,-0.5101,0.373,-0.008999999999999897,0.39000000000000057,65.99000000000001,-0.08940000000000001,-0.20085,1.218,100.0,1.0,1.0,203.57999999999998,0.0,0.0,0.0,0.0,0.0,0.0,0.0,8629.1,0.0,55.0,5.0,237.53333333333333,1.0,0.0,0.0,0.0,0.0,0.0,0.0,0.0,0.1529999999999987,0.1529999999999987,0.0,0.0,1.0,55.0,616.79921,10000.0,85.000001,85.000001,85.000001,85.000001,395.0,0.0,0.0,0.0,1.0,166.665,53.436,53.436,48.111,48.111,34.0,-26.0,18.740000000000002,-34.60666666666667,24.6025,0.0,1780.34,0.5800000000000018,100.0,27.976,26.96,42.567,41.394,0.0,0.0,100.0,0.0,0.0,0.0,0.0,2880.714285714286,2917.9,4266.0,4275.6,305.9865,305.56075,314.37975,314.27225,21.846,20.542,21.7962,21.3356,314.999998,314.999998,324.999988,324.999988,99.56111428571428,99.50756666666666,99.5653,99.5453,-0.01966666666666672,-0.15325,-0.21083333333333332,0.008499999999999952,-0.03499999999999659,-0.051666666666669414,1.5084999999999997,1.5305,37.538,29.3875,37.227000000000004,34.3475,57.038,34.832,59.1195,51.728,54.888999999999996,33.957,57.74,50.079,54.021,33.491,57.6975,49.501333333333335,-0.02849999999999997,-0.121,0.11024500000000001,0.10222,0.0,206.76999999999998,206.66500000000002,203.57999999999998,203.57999999999998,0.0,0.0
4,0.0,0.0,0.0,1.0,1.0,0.0,0.0,1.0,0.0,100.0,1.0,1.1856,26.0,0.0,0.0,0.0,65.999997,0.0,26.0,26.0,26.0,26.0,-0.14633333333333332,0.2693000000000001,-0.023633333333333336,293.61,-2.6597,-2.742888888888889,-1.5272000000000001,-1.6005,-262.39,216.2475,190.91,0.0,0.0,0.0,0.0,0.009333333333333305,-5.498166666666667,-5.498166666666667,-0.5426,-0.7440000000000002,-0.0807500000000001,-1.8339999999999996,66.136,-0.08950000000000001,-0.236525,1.2020000000000008,100.0,1.0,1.0,204.17000000000002,0.0,0.0,0.0,0.0,0.0,0.0,0.0,8654.0,0.0,55.0,5.0,238.06,0.0,0.0,0.0,0.0,0.0,0.0,0.0,0.0,0.20400000000000063,0.20400000000000063,0.0,0.0,0.0,55.0,616.79921,10000.0,85.000001,85.000001,85.000001,85.000001,395.0,0.0,0.0,0.0,1.0,166.665,53.101,53.101,48.706,48.706,34.0,-29.682499999999997,18.77166666666667,-33.57666666666667,20.8825,0.0,1780.289,0.5650000000000013,100.0,27.704,26.887,42.842,41.525999999999996,0.0,0.0,100.0,0.0,0.0,0.0,0.0,3267.0,2867.9,4115.375,3678.3,305.062,305.55225,314.782,315.651,21.855875,20.5472,21.8069,21.3445,314.999998,314.999998,324.999988,324.999988,99.56112857142857,99.50758333333333,99.56544285714286,99.54544285714286,-0.03200000000000003,-0.15725,-0.22183333333333333,0.016166666666666663,-0.03833333333332689,-0.05333333333332746,1.5594999999999999,1.5819999999999999,37.599000000000004,29.42,37.293,34.403,57.018,34.873,59.161500000000004,51.7875,54.870000000000005,33.9945,57.7795,50.135999999999996,54.001999999999995,33.527,57.734,49.557,-0.030999999999999917,-0.12300000000000022,0.107605,0.10858000000000001,0.0,207.175,207.095,204.17000000000002,204.17000000000002,0.0,0.0
5,0.0,0.0,0.0,1.0,1.0,0.0,0.0,1.0,0.0,100.0,1.0,1.1856,26.0,0.0,0.0,0.0,65.999997,0.0,26.0,26.0,26.0,26.0,-0.13088888888888894,0.30320000000000014,-0.0112,293.579,-2.6729,-2.7656666666666667,-1.51075,-1.5866,-258.82,216.22750000000002,190.888375,0.0,0.0,0.0,0.0,0.011399999999999966,-5.498166666666667,-5.498166666666667,-0.5338,0.34399999999999986,-0.0831249999999999,-0.1819999999999995,66.292,-0.09040000000000001,-0.21125000000000002,1.04,100.0,1.0,1.0,204.58333333333331,0.0,0.0,0.0,0.0,0.0,0.0,0.0,8671.6,0.0,55.0,5.0,238.62,1.0,0.0,0.0,0.0,0.0,0.0,0.0,0.0,0.2579999999999991,0.2579999999999991,0.0,0.0,1.0,55.0,616.79921,10000.0,85.000001,85.000001,85.000001,85.000001,395.0,0.0,0.0,0.0,1.0,166.665,53.467,53.467,48.874,48.874,34.0,-28.14,18.545,-34.239999999999995,22.8325,0.0,1780.235,0.2699999999999996,100.0,27.786,26.731,42.604,41.255,0.0,0.0,100.0,0.0,0.0,0.0,0.0,3196.142857142857,2767.6,4216.125,4054.5,305.235,305.924,314.6195,314.757,21.866625,20.552599999999998,21.8179,21.3537,314.999998,314.999998,324.999988,324.999988,99.56112857142857,99.5076,99.5656,99.54557142857144,-0.0086666666666666,-0.14725,-0.21816666666666662,0.006666666666666599,-0.05333333333332746,-0.05666666666667197,1.5190000000000001,1.5675,37.666,29.4535,37.361999999999995,34.460499999999996,57.001000000000005,34.915,59.204499999999996,51.8485,54.854,34.033500000000004,57.8195,50.1945,53.985,33.564499999999995,57.771,49.614,-0.05499999999999994,-0.09600000000000009,0.10294,0.10731,0.0,207.72,207.59,204.58333333333331,204.58333333333331,0.0,0.0
6,0.0,0.0,0.0,1.0,1.0,0.0,0.0,1.0,0.0,100.0,1.0,1.1856,26.0,0.0,0.0,0.0,65.999997,0.0,26.0,26.0,26.0,26.0,-0.12166666666666659,0.2784,0.008233333333333334,293.442,-2.6383,-2.742888888888889,-1.5532,-1.5823,-255.82999999999998,216.20749999999998,190.87025,0.0,0.0,0.0,0.0,0.01313333333333333,-5.498166666666667,-5.498166666666667,-0.5306000000000001,0.10499999999999998,-0.06137499999999996,0.9530000000000003,66.42,-0.0857,-0.2136,0.7199999999999998,100.0,1.0,1.0,204.98333333333335,0.0,0.0,0.0,0.0,0.0,0.0,0.0,8688.5,0.0,55.0,5.0,239.08333333333331,0.0,0.0,0.0,0.0,0.0,0.0,0.0,0.0,0.3030000000000008,0.3030000000000008,0.0,0.0,0.0,55.0,616.79921,10000.0,85.000001,85.000001,85.000001,85.000001,395.0,0.0,0.0,0.0,1.0,166.665,53.131,53.131,48.737,48.737,34.0,-26.5275,21.195,-32.22333333333333,23.692500000000003,0.0,1780.19,0.09499999999999886,100.0,27.851,26.715,42.778999999999996,41.498000000000005,0.0,0.0,100.0,0.0,0.0,0.0,0.0,3107.0,3006.5,4070.75,4051.1000000000004,305.2735,305.32025,314.902,314.84075,21.8755,20.5572,21.8272,21.3616,314.999998,314.999998,324.999988,324.999988,99.56112857142857,99.50761666666666,99.56572857142856,99.54571428571428,0.008333333333333304,-0.11975000000000002,-0.19433333333333336,0.02633333333333332,-0.02499999999999858,-0.06333333333333258,1.5425,1.566,37.722,29.4825,37.42,34.51,56.986000000000004,34.9505,59.24,51.903,54.839,34.066,57.853,50.2465,53.97,33.5955,57.802,49.665333333333336,-0.07000000000000006,-0.08349999999999991,0.10368000000000001,0.10892500000000001,0.0,208.075,208.025,204.98333333333335,204.98333333333335,0.0,0.0
7,0.0,0.0,0.0,1.0,1.0,0.0,0.0,1.0,0.0,100.0,1.0,1.1856,26.0,0.0,0.0,0.0,65.999997,0.0,26.0,26.0,26.0,26.0,-0.07166666666666666,0.2852000000000001,0.023966666666666667,293.198,-2.6103,-2.728777777777778,-1.51295,-1.6254000000000002,-252.44,216.185,190.84975,0.0,0.0,0.0,0.0,0.015100000000000002,-5.498166666666667,-5.498166666666667,-0.5342,-0.028999999999999915,-0.05312500000000009,-0.25099999999999945,66.56700000000001,-0.06810000000000001,-0.223475,0.4039999999999999,100.0,1.0,1.0,205.40666666666667,0.0,0.0,0.0,0.0,0.0,0.0,0.0,8706.4,0.0,55.0,5.0,239.61,1.0,0.0,0.0,0.0,0.0,0.0,0.0,0.0,0.3539999999999992,0.3539999999999992,0.0,0.0,1.0,55.0,616.79921,10000.0,85.000001,85.000001,85.000001,85.000001,395.0,0.0,0.0,0.0,1.0,166.665,52.811,52.811,48.813,48.813,34.0,-27.1425,21.89,-31.913333333333334,25.015,0.0,1780.139,-0.22499999999999787,100.0,27.792,26.924,42.713,41.841,0.0,0.0,100.0,0.0,0.0,0.0,0.0,3304.285714285714,2965.9,4104.25,4030.4,304.823,305.26525,314.8335,314.742,21.885625,20.5624,21.837699999999998,21.3706,314.999998,314.999998,324.999988,324.999988,99.56112857142857,99.50763333333333,99.56587142857143,99.54584285714286,0.028000000000000025,-0.09624999999999995,-0.1911666666666666,0.03833333333333333,-0.054999999999999716,-0.051666666666669414,1.525,1.5405,37.785,29.515,37.486000000000004,34.566,56.969,34.9895,59.2805,51.9645,54.823,34.102000000000004,57.8905,50.3055,53.953,33.629999999999995,57.8365,49.72266666666667,-0.08999999999999986,-0.04999999999999982,0.11041000000000001,0.108545,0.0,208.51,208.47,205.40666666666667,205.40666666666667,0.0,0.0
8,0.0,0.0,0.0,1.0,1.0,0.0,0.0,1.0,0.0,100.0,1.0,1.1856,26.0,0.0,0.0,0.0,65.999997,0.0,26.0,26.0,26.0,26.0,-0.04399999999999993,0.2977000000000001,0.023466666666666667,293.472,-2.6968,-2.717888888888889,-1.49965,-1.5759,-249.04,216.16,190.82925,0.0,0.0,0.0,0.0,0.017066666666666563,-5.498166666666667,-5.498166666666667,-0.5352,-0.5634999999999999,-0.03100000000000014,0.8550000000000004,66.712,-0.049800000000000004,-0.2146,-0.0420000000000007,100.0,1.0,1.0,205.78333333333333,0.0,0.0,0.0,0.0,0.0,0.0,0.0,8722.5,0.0,55.0,5.0,240.13666666666666,0.0,0.0,0.0,0.0,0.0,0.0,0.0,0.0,0.40500000000000114,0.40500000000000114,0.0,0.0,0.0,55.0,616.79921,10000.0,85.000001,85.000001,85.000001,85.000001,395.0,0.0,0.0,0.0,1.0,166.665,53.696,53.696,48.141,48.141,34.0,-23.4975,22.883333333333333,-30.076666666666664,27.1125,0.0,1780.088,-0.3550000000000004,100.0,27.463,26.725,42.782,41.851,0.0,0.0,100.0,0.0,0.0,0.0,0.0,2916.285714285714,3012.4,4118.25,4173.4,305.9585,305.318,314.689,314.4595,21.8955,20.5676,21.8482,21.3795,314.999998,314.999998,324.999988,324.999988,99.56114285714285,99.50765,99.56601428571429,99.54598571428572,0.046666666666666856,-0.07399999999999995,-0.15166666666666662,0.06950000000000012,-0.03166666666666629,-0.054999999999999716,1.5204999999999997,1.5030000000000001,37.847,29.548000000000002,37.551,34.622,56.951,35.027,59.32,52.0255,54.806,34.137,57.9275,50.364,53.935,33.6635,57.871,49.78,-0.09850000000000003,-0.04349999999999987,0.10459500000000001,0.10719000000000001,0.0,208.925,208.925,205.78333333333333,205.78333333333333,0.0,0.0
9,0.0,0.0,0.0,1.0,1.0,0.0,0.0,1.0,0.0,100.0,1.0,1.1856,26.0,0.0,0.0,0.0,65.999997,0.0,26.0,26.0,26.0,26.0,-0.01922222222222214,0.30110000000000015,-0.012100000000000001,293.121,-2.6264,-2.719222222222222,-1.5535999999999999,-1.5541,-245.63,216.1325,190.808125,0.0,0.0,0.0,0.0,0.019066666666666565,-5.498166666666667,-5.498166666666667,-0.5395,0.7215,-0.03462500000000013,-0.3689999999999998,66.855,-0.0285,-0.21425000000000002,-0.13600000000000012,100.0,1.0,1.0,206.33666666666667,0.0,0.0,0.0,0.0,0.0,0.0,0.0,8745.8,0.0,55.0,5.0,240.64666666666668,1.0,0.0,0.0,0.0,0.0,0.0,0.0,0.0,0.4559999999999995,0.4559999999999995,0.0,0.0,1.0,55.0,616.79921,10000.0,85.000001,85.000001,85.000001,85.000001,395.0,0.0,0.0,0.0,1.0,166.665,52.444,52.444,49.132999999999996,49.132999999999996,34.0,-25.9675,23.634999999999998,-28.79,26.27,0.0,1780.037,-0.5300000000000011,100.0,27.86,27.323,42.342,41.949,0.0,0.0,100.0,0.0,0.0,0.0,0.0,3347.857142857143,2994.8,4048.375,4070.4,304.698,305.1255,315.073,314.75275,21.9055,20.5731,21.8585,21.3884,314.999998,314.999998,324.999988,324.999988,99.56114285714285,99.50765,99.56615714285714,99.54612857142857,0.06599999999999984,-0.05899999999999994,-0.1346666666666666,0.08116666666666683,-0.03333333333333144,-0.061666666666667425,1.5789999999999997,1.5775000000000001,37.91,29.5815,37.616,34.6775,56.936,35.0655,59.3565,52.085,54.792,34.1725,57.9615,50.421,53.92,33.6975,57.902,49.836,-0.12050000000000005,-0.03699999999999992,0.10131000000000001,0.102885,0.0,209.39,209.4,206.33666666666667,206.33666666666667,0.0,0.0
10,0.0,0.0,0.0,1.0,1.0,0.0,0.0,1.0,0.0,100.0,1.0,1.1856,26.0,0.0,0.0,0.0,65.999997,0.0,26.0,26.0,26.0,26.0,0.010888888888888948,0.2965,-0.009666666666666667,292.984,-2.6627,-2.708222222222222,-1.5354999999999999,-1.5355,-242.42000000000002,216.10500000000002,190.788625,0.0,0.0,0.0,0.0,0.02093333333333336,-5.498166666666667,-5.498166666666667,-0.5177,-0.4285000000000001,0.005374999999999908,0.3540000000000001,66.992,-0.007,-0.20645000000000002,-0.4820000000000002,100.0,1.0,1.0,206.57,0.0,0.0,0.0,0.0,0.0,0.0,0.0,8755.7,0.0,55.0,5.0,241.14333333333332,0.0,0.0,0.0,0.0,0.0,0.0,1.0,0.0,0.5040000000000013,0.5040000000000013,0.0,0.0,0.0,55.0,616.79921,10000.0,85.000001,85.000001,85.000001,85.000001,395.0,0.0,0.0,0.0,1.0,333.33500000000004,53.497,53.497,47.592,47.592,34.0,-21.4625,22.795,-30.673333333333336,29.655,0.0,1779.988,-0.5899999999999999,100.0,27.714,27.308,42.799,42.724000000000004,0.0,0.0,100.0,0.0,0.0,0.0,0.0,2886.0,2867.4,4321.75,4264.3,306.11,305.56,314.291,314.18425,21.914875,20.5781,21.8685,21.397,314.999998,314.999998,324.999988,324.999988,99.56115714285714,99.50765,99.56628571428571,99.54627142857143,0.08233333333333359,-0.047250000000000014,-0.11916666666666664,0.1080000000000001,-0.03999999999999915,-0.03833333333332689,1.484,1.4455,37.968,29.613,37.678,34.7315,56.922,35.0995,59.396,52.1455,54.778,34.204,57.998,50.479,53.906,33.7275,57.9355,49.893,-0.11999999999999988,-0.02450000000000019,0.10942,0.10740000000000001,0.0,209.79500000000002,209.8,206.57,206.57,0.0,0.0
11,0.0,0.0,0.0,1.0,1.0,0.0,0.0,1.0,0.0,100.0,1.0,1.1856,26.0,0.0,0.0,0.0,65.999997,0.0,26.0,26.0,26.0,26.0,0.03022222222222215,0.27590000000000003,-0.06676666666666667,293.488,-2.7063,-2.687222222222222,-1.5897999999999999,-1.5244,-239.0,216.0775,190.767875,0.0,0.0,0.0,0.0,0.022599999999999953,-5.498166666666667,-5.498166666666667,-0.5615,-0.21950000000000003,0.03275000000000006,0.3799999999999999,67.131,0.012400000000000001,-0.23717500000000002,-0.6299999999999999,100.0,1.0,1.0,207.3,0.0,0.0,0.0,0.0,0.0,0.0,0.0,8786.7,0.0,55.0,5.0,241.64333333333332,1.0,0.0,0.0,0.0,0.0,0.0,1.0,0.0,0.5549999999999997,0.5549999999999997,0.0,0.0,1.0,55.0,616.79921,10000.0,85.000001,85.000001,85.000001,85.000001,395.0,0.0,0.0,0.0,1.0,166.665,52.811,52.811,49.254999999999995,49.254999999999995,34.0,-21.925,26.541666666666664,-23.729999999999997,27.189999999999998,0.0,1779.938,-0.5999999999999979,100.0,27.607,27.437,42.365,42.558,0.0,0.0,100.0,0.0,0.0,0.0,0.0,3003.4285714285716,3189.0,3693.125,3889.4,305.6745,304.7125,315.87925,315.208,21.924625,20.5835,21.8788,21.406,314.999998,314.999998,324.999988,324.999988,99.56117142857143,99.50766666666667,99.56642857142857,99.54641428571429,0.10766666666666636,-0.020499999999999963,-0.08416666666666661,0.14149999999999996,-0.045000000000001705,-0.06333333333333258,1.6534999999999997,1.6165,38.028999999999996,29.647,37.742000000000004,34.7875,56.905,35.137,59.43,52.2055,54.762,34.238,58.03,50.537,53.888999999999996,33.7605,57.9645,49.949666666666666,-0.12349999999999994,-0.03200000000000003,0.10282000000000001,0.10952500000000001,0.0,210.2,210.24,207.3,207.3,0.0,0.0
12,0.0,0.0,0.0,1.0,1.0,0.0,0.0,1.0,0.0,100.0,1.0,1.1856,26.0,0.0,0.0,0.0,65.999997,0.0,26.0,26.0,26.0,26.0,0.04988888888888887,0.2916000000000001,0.0132,292.892,-2.7576,-2.684333333333333,-1.55105,-1.5261,-235.78,216.0525,190.747,0.0,0.0,0.0,0.0,0.025466666666666526,-5.498166666666667,-5.498166666666667,-0.5457000000000001,0.31899999999999995,0.01912500000000006,0.609,67.268,0.0287,-0.20635,-0.7460000000000004,100.0,1.0,1.0,207.49,0.0,0.0,0.0,0.0,0.0,0.0,0.0,8794.8,0.0,55.0,5.0,242.13333333333333,0.0,0.0,0.0,0.0,0.0,0.0,1.0,0.0,0.602999999999998,0.602999999999998,0.0,0.0,0.0,55.0,616.79921,10000.0,85.000001,85.000001,85.000001,85.000001,395.0,0.0,0.0,0.0,1.0,166.665,52.765,52.765,47.897,47.897,34.0,-21.805,27.276666666666667,-26.593333333333334,31.505,0.0,1779.89,-0.6750000000000007,100.0,27.522,27.597,42.362,42.496,0.0,0.0,100.0,0.0,0.0,0.0,0.0,3029.857142857143,3195.9,4174.625,4235.3,305.6045,304.71775,314.6545,314.395,21.93375,20.5888,21.8885,21.4145,314.999998,314.999998,324.999988,324.999988,99.56118571428571,99.50766666666667,99.56657142857142,99.54654285714285,0.12666666666666648,-0.003249999999999975,-0.0651666666666666,0.15783333333333327,-0.051666666666669414,-0.03999999999999915,1.5299999999999998,1.504,38.086,29.68,37.803,34.8405,56.891,35.172,59.466,52.263,54.748999999999995,34.271,58.0635,50.592,53.875,33.792,57.9955,50.00366666666667,-0.127,-0.027499999999999858,0.10851000000000001,0.10996500000000001,0.0,210.64,210.69,207.49,207.49,0.0,0.0
13,0.0,0.0,0.0,1.0,1.0,0.0,0.0,1.0,0.0,100.0,1.0,1.1856,26.0,0.0,0.0,0.0,65.999997,0.0,26.0,26.0,26.0,26.0,0.08244444444444432,0.2782,0.035,292.526,-2.739,-2.670888888888889,-1.62445,-1.5413000000000001,-232.34,216.03,190.72525,0.0,0.0,0.0,0.0,0.026799999999999935,-5.498166666666667,-5.498166666666667,-0.5386000000000001,-0.09699999999999998,0.02387499999999987,-0.4790000000000001,67.41,0.0368,-0.214675,-0.7720000000000002,100.0,1.0,1.0,207.87666666666667,0.0,0.0,0.0,0.0,0.0,0.0,0.0,8811.2,0.0,55.0,5.0,242.64666666666665,1.0,0.0,0.0,0.0,0.0,0.0,1.0,0.0,0.6539999999999999,0.6539999999999999,0.0,0.0,1.0,55.0,616.79921,10000.0,85.000001,85.000001,85.000001,85.000001,395.0,0.0,0.0,0.0,1.0,333.33500000000004,52.49,52.49,47.836,47.836,34.0,-21.785,26.97833333333333,-28.563333333333333,31.9525,0.0,1779.836,-0.8599999999999994,100.0,27.671,27.947,42.525999999999996,43.113,0.0,0.0,100.0,0.0,0.0,0.0,0.0,3161.0,3079.1,4227.625,4287.7,305.367,304.893,314.601,314.15825,21.943625,20.5943,21.8991,21.4236,314.999998,314.999998,324.999988,324.999988,99.5612,99.50768333333333,99.56671428571428,99.54668571428572,0.14400000000000013,0.015000000000000124,-0.0738333333333333,0.14749999999999996,-0.051666666666669414,-0.046666666666666856,1.4979999999999998,1.468,38.147,29.7145,37.869,34.897999999999996,56.879000000000005,35.212,59.507,52.331,54.736999999999995,34.3075,58.1015,50.6575,53.861999999999995,33.827,58.03,50.068,-0.14900000000000002,-0.0045000000000001705,0.10937500000000001,0.10449000000000001,0.0,211.075,211.115,207.87666666666667,207.87666666666667,0.0,0.0
14,0.0,0.0,0.0,1.0,1.0,0.0,0.0,1.0,0.0,100.0,1.0,1.1856,26.0,0.0,0.0,0.0,65.999997,0.0,26.0,26.0,26.0,26.0,0.08200000000000007,0.2836000000000001,-0.008533333333333334,292.77,-2.7348,-2.616,-1.5982,-1.5121,-228.9,216.005,190.704,0.0,0.0,0.0,0.0,0.028799999999999937,-5.498166666666667,-5.498166666666667,-0.5481,-0.10099999999999998,0.052875000000000005,1.33,67.549,0.049600000000000005,-0.227575,-1.056,100.0,1.0,1.0,208.38666666666666,0.0,0.0,0.0,0.0,0.0,0.0,0.0,8832.7,0.0,55.0,5.0,243.15,0.0,0.0,0.0,0.0,0.0,0.0,1.0,0.0,0.7049999999999983,0.7049999999999983,0.0,0.0,0.0,55.0,616.79921,10000.0,85.000001,85.000001,85.000001,85.000001,395.0,0.0,0.0,0.0,1.0,333.33500000000004,52.597,52.597,48.065,48.065,34.0,-19.52,28.63,-24.376666666666665,32.18,0.0,1779.786,-0.9499999999999993,100.0,27.718,27.868,42.571,43.218,0.0,0.0,100.0,0.0,0.0,0.0,0.0,2933.285714285714,3258.5,3953.125,4227.8,305.8475,304.533,315.17125,314.40775,21.95325,20.599899999999998,21.9095,21.4328,314.999998,314.999998,324.999988,324.999988,99.56121428571429,99.50768333333333,99.56685714285715,99.54682857142858,0.15900000000000025,0.028750000000000053,-0.04399999999999993,0.1771666666666667,-0.04833333333333201,-0.04333333333332945,1.5625,1.5194999999999999,38.208,29.749499999999998,37.934,34.955,56.867000000000004,35.247,59.5415,52.39,54.726,34.3405,58.1335,50.714,53.849999999999994,33.8585,58.059,50.123666666666665,-0.14949999999999997,-0.0030000000000001137,0.101995,0.11068000000000001,0.0,211.49,211.555,208.38666666666666,208.38666666666666,0.0,0.0
15,0.0,0.0,0.0,1.0,1.0,0.0,0.0,1.0,0.0,100.0,1.0,1.1856,26.0,0.0,0.0,0.0,65.999997,0.0,26.0,26.0,26.0,26.0,0.1076666666666668,0.28910000000000013,0.013866666666666666,292.786,-2.7101,-2.5757777777777777,-1.62635,-1.4541000000000002,-225.66,215.985,190.683625,0.0,0.0,0.0,0.0,0.03066666666666651,-5.498166666666667,-5.498166666666667,-0.5386000000000001,0.27249999999999996,0.08274999999999988,1.0090000000000003,67.682,0.06380000000000001,-0.20805,-1.2219999999999995,100.0,1.0,1.0,208.7733333333333,0.0,0.0,0.0,0.0,0.0,0.0,0.0,8849.2,0.0,55.0,5.0,243.62333333333333,1.0,0.0,0.0,0.0,0.0,0.0,1.0,0.0,0.7530000000000001,0.7530000000000001,0.0,0.0,1.0,55.0,616.79921,10000.0,85.000001,85.000001,85.000001,85.000001,395.0,0.0,0.0,0.0,1.0,333.33500000000004,52.826,52.826,48.126,48.126,34.0,-17.724999999999998,28.538333333333334,-24.22,33.75,0.0,1779.74,-0.9899999999999984,100.0,27.698,27.903,42.317,43.291,0.0,0.0,100.0,0.0,0.0,0.0,0.0,2791.4285714285716,3233.9,3945.5,4405.8,306.252,304.60125,315.22425,314.00275,21.96225,20.6052,21.9192,21.4413,314.999998,314.999998,324.999988,324.999988,99.56124285714286,99.50768333333333,99.56698571428572,99.54697142857142,0.1716666666666664,0.040999999999999925,-0.03433333333333333,0.1915,-0.023333333333326323,-0.05333333333332746,1.552,1.518,38.263999999999996,29.7825,37.995000000000005,35.0085,56.855999999999995,35.283,59.575,52.4495,54.715,34.3735,58.164,50.7715,53.838,33.891,58.087,50.18,-0.15149999999999997,-0.000500000000000167,0.10762500000000001,0.102635,0.0,211.9,211.98000000000002,208.7733333333333,208.7733333333333,0.0,0.0
16,0.0,0.0,0.0,1.0,1.0,0.0,0.0,1.0,0.0,100.0,1.0,1.1856,26.0,0.0,0.0,0.0,65.999997,0.0,26.0,26.0,26.0,26.0,0.13111111111111118,0.27160000000000006,-0.0558,292.831,-2.8075,-2.579111111111111,-1.59985,-1.4539,-222.2,215.9675,190.661625,0.0,0.0,0.0,0.0,0.03269999999999995,-5.498166666666667,-5.498166666666667,-0.5609000000000001,-0.7240000000000002,0.06787499999999991,-1.029,67.821,0.0726,-0.2263,-1.1360000000000001,100.0,1.0,1.0,209.21333333333334,0.0,0.0,0.0,0.0,0.0,0.0,0.0,8867.8,0.0,55.0,5.0,244.13,0.0,0.0,0.0,0.0,0.0,0.0,1.0,0.0,0.8039999999999985,0.8039999999999985,0.0,0.0,0.0,55.0,616.79921,10000.0,85.000001,85.000001,85.000001,85.000001,395.0,0.0,0.0,0.0,1.0,166.665,52.689,52.689,47.897,47.897,34.0,-20.2,28.328333333333333,-23.509999999999998,31.9675,0.0,1779.689,-0.9349999999999987,100.0,27.223,28.156,42.482,43.476,0.0,0.0,100.0,0.0,0.0,0.0,0.0,3018.857142857143,3204.7,3954.25,4141.0,305.877,304.5475,315.24675,314.55925,21.971625,20.6109,21.9296,21.450499999999998,314.999998,314.999998,324.999988,324.999988,99.56125714285714,99.50768333333333,99.56712857142857,99.54711428571429,0.16700000000000026,0.03750000000000009,-0.027666666666666617,0.2028333333333332,-0.05666666666667197,-0.051666666666669414,1.5630000000000002,1.5245,38.323,29.817999999999998,38.06,35.0655,56.841,35.322,59.613,52.512,54.701,34.41,58.1995,50.832,53.823,33.9255,58.119,50.239333333333335,-0.15300000000000002,-0.004999999999999893,0.10792,0.11363500000000001,0.0,212.3,212.39,209.21333333333334,209.21333333333334,0.0,0.0
17,0.0,0.0,0.0,1.0,1.0,0.0,0.0,1.0,0.0,100.0,1.0,1.1856,26.0,0.0,0.0,0.0,65.999997,0.0,26.0,26.0,26.0,26.0,0.11311111111111116,0.28700000000000014,-0.017266666666666666,292.48,-2.7616,-2.567111111111111,-1.63985,-1.4775,-218.74,215.9525,190.639,0.0,0.0,0.0,0.0,0.03469999999999995,-5.498166666666667,-5.498166666666667,-0.5491,0.5534999999999999,0.04812499999999997,0.7270000000000003,67.96000000000001,0.0747,-0.2051,-1.1559999999999997,100.0,1.0,1.0,209.60333333333335,0.0,0.0,0.0,0.0,0.0,0.0,0.0,8884.3,0.0,55.0,5.0,244.62666666666667,1.0,0.0,0.0,0.0,0.0,0.0,1.0,0.0,0.8550000000000004,0.8550000000000004,0.0,0.0,1.0,55.0,616.79921,10000.0,85.000001,85.000001,85.000001,85.000001,395.0,0.0,0.0,0.0,1.0,166.665,52.444,52.444,47.745,47.745,34.0,-18.96,28.246666666666666,-25.523333333333333,34.335,0.0,1779.638,-1.0199999999999996,100.0,27.848,28.27,42.319,43.378,0.0,0.0,100.0,0.0,0.0,0.0,0.0,2990.857142857143,3162.1,4224.75,4329.6,305.745,304.8435,314.64175,314.23025,21.98125,20.6166,21.9399,21.459600000000002,314.999998,314.999998,324.999988,324.999988,99.56128571428572,99.50768333333333,99.56727142857143,99.54725714285715,0.18666666666666654,0.05325000000000002,-0.018166666666666553,0.20950000000000002,-0.026666666666670835,-0.04833333333333201,1.5510000000000002,1.499,38.382999999999996,29.854,38.123999999999995,35.1225,56.831,35.3625,59.647999999999996,52.574,54.691,34.4475,58.232,50.891999999999996,53.812,33.962,58.1485,50.298,-0.15449999999999986,-0.000500000000000167,0.10702500000000001,0.11442500000000001,0.0,212.76999999999998,212.86,209.60333333333335,209.60333333333335,0.0,0.0
18,0.0,0.0,0.0,1.0,1.0,0.0,0.0,1.0,0.0,100.0,1.0,1.1856,26.0,0.0,0.0,0.0,65.999997,0.0,26.0,26.0,26.0,26.0,0.11933333333333329,0.2704,-0.013566666666666666,292.45,-2.7941,-2.542,-1.6545,-1.4240000000000002,-215.47,215.9425,190.617875,0.0,0.0,0.0,0.0,0.036599999999999966,-5.498166666666667,-5.498166666666667,-0.5591,-0.5474999999999999,0.07250000000000001,1.1799999999999997,68.09,0.0791,-0.222,-1.322,100.0,1.0,1.0,210.01333333333332,0.0,0.0,0.0,0.0,0.0,0.0,0.0,8901.7,0.0,55.0,5.0,245.09666666666666,0.0,0.0,0.0,0.0,0.0,0.0,1.0,0.0,0.9029999999999987,0.9029999999999987,0.0,0.0,0.0,55.0,616.79921,10000.0,85.000001,85.000001,85.000001,85.000001,395.0,0.0,0.0,0.0,1.0,333.33500000000004,52.368,52.368,47.653,47.653,34.0,-18.9425,30.578333333333333,-23.97,33.144999999999996,0.0,1779.59,-1.2249999999999979,100.0,27.622,28.137,42.693,43.804,0.0,0.0,100.0,0.0,0.0,0.0,0.0,2990.142857142857,3375.0,4004.875,4233.9,305.814,304.27125,315.108,314.4215,21.99025,20.6219,21.9498,21.4683,314.999998,314.999998,324.999988,324.999988,99.5613,99.5077,99.5674,99.54741428571428,0.19233333333333347,0.06475000000000009,-0.014333333333333309,0.21616666666666684,-0.030000000000001137,-0.05666666666667197,1.5625,1.4965,38.439,29.887,38.186,35.177,56.82,35.3995,59.684,52.6345,54.681,34.482,58.2655,50.95,53.8,33.995,58.179,50.355333333333334,-0.16799999999999993,0.018000000000000016,0.10787000000000001,0.10883500000000002,0.0,213.13,213.22,210.01333333333332,210.01333333333332,0.0,0.0
19,0.0,0.0,0.0,1.0,1.0,0.0,0.0,1.0,0.0,100.0,1.0,1.1856,26.0,0.0,0.0,0.0,65.999997,0.0,26.0,26.0,26.0,26.0,0.1624444444444444,0.2822,0.03966666666666667,291.916,-2.7721,-2.522333333333333,-1.67515,-1.4020000000000001,-212.0,215.935,190.595375,0.0,0.0,0.0,0.0,0.0386333333333333,-5.498166666666667,-5.498166666666667,-0.548,0.8240000000000001,0.0871249999999999,-0.46199999999999974,68.227,0.09000000000000001,-0.21155000000000002,-1.6059999999999999,100.0,1.0,1.0,210.42000000000002,0.0,0.0,0.0,0.0,0.0,0.0,0.0,8918.9,0.0,55.0,5.0,245.58666666666664,1.0,0.0,0.0,0.0,0.0,0.0,1.0,0.0,0.9540000000000006,0.9540000000000006,0.0,0.0,1.0,55.0,616.79921,10000.0,85.000001,85.000001,85.000001,85.000001,395.0,0.0,0.0,0.0,1.0,333.33500000000004,51.635999999999996,51.635999999999996,47.485,47.485,34.0,-18.835,30.72,-25.396666666666665,34.68,0.0,1779.536,-1.5749999999999993,100.0,27.968,28.835,42.319,43.887,0.0,0.0,100.0,0.0,0.0,0.0,0.0,3137.0,3330.5,4191.25,4424.3,305.424,304.10925,314.77875,313.9545,21.999875,20.6278,21.9601,21.4775,314.999998,314.999998,324.999988,324.999988,99.56132857142858,99.5077,99.56755714285714,99.54755714285714,0.21300000000000008,0.07325000000000004,-0.010833333333333361,0.21616666666666684,-0.045000000000001705,-0.05833333333333002,1.537,1.4849999999999999,38.498999999999995,29.924,38.251000000000005,35.2345,56.812,35.446,59.721000000000004,52.702,54.673,34.5245,58.2995,51.0155,53.791,34.036,58.21,50.419333333333334,-0.1955,0.03749999999999987,0.10689000000000001,0.104495,0.0,213.595,213.7,210.42000000000002,210.42000000000002,0.0,0.0
20,0.0,0.0,0.0,1.0,1.0,0.0,0.0,1.0,0.0,100.0,1.0,1.1856,26.0,0.0,0.0,0.0,65.999997,0.0,26.0,26.0,26.0,26.0,0.20900000000000007,0.27259999999999995,0.04956666666666667,292.297,-2.8229,-2.583555555555556,-1.60945,-1.5163,-208.51,215.9325,190.573,0.0,0.0,0.0,0.0,0.0406333333333333,-5.498166666666667,-5.498166666666667,-0.5545,-1.2229999999999999,0.09612500000000002,0.5540000000000003,68.366,0.10650000000000001,-0.221925,-2.118,100.0,1.0,1.0,210.74666666666667,0.0,0.0,0.0,0.0,0.0,0.0,0.0,8932.8,0.0,55.0,5.0,246.09,0.0,0.0,0.0,0.0,0.0,0.0,0.0,0.0,1.004999999999999,1.004999999999999,0.0,0.0,0.0,55.0,616.79921,10000.0,85.000001,85.000001,85.000001,85.000001,395.0,0.0,0.0,0.0,1.0,333.33500000000004,52.811,52.811,46.921,46.921,34.0,-15.415,31.763333333333332,-22.423333333333332,38.18,0.0,1779.488,-1.7899999999999991,100.0,27.436,28.381,42.89,44.328,0.0,0.0,100.0,0.0,0.0,0.0,0.0,2777.0,3285.3,4063.125,4371.2,306.501,304.4685,314.86625,313.92075,22.00925,20.6336,21.9707,21.4869,314.999998,314.999998,324.999988,324.999988,99.56134285714286,99.50771666666667,99.5677,99.5477,0.2466666666666666,0.10400000000000009,0.018000000000000016,0.2510000000000001,-0.04333333333332945,-0.03999999999999915,1.4969999999999999,1.435,38.557,29.96,38.317,35.2935,56.8,35.486,59.757999999999996,52.763999999999996,54.662,34.562,58.334,51.075,53.778999999999996,34.072,58.241,50.47833333333333,-0.21750000000000003,0.057499999999999885,0.113295,0.10314500000000001,0.0,213.95499999999998,214.10000000000002,210.74666666666667,210.74666666666667,0.0,0.0
21,0.0,0.0,0.0,1.0,1.0,0.0,0.0,1.0,0.0,100.0,1.0,1.1856,26.0,0.0,0.0,0.0,65.999997,0.0,26.0,26.0,26.0,26.0,0.1874444444444443,0.27270000000000016,-0.05856666666666666,292.633,-2.7481999999999998,-2.626333333333333,-1.6788,-1.4702000000000002,-205.23000000000002,215.9325,190.55125,0.0,0.0,0.0,0.0,0.04256666666666653,-5.498166666666667,-5.498166666666667,-0.5788,0.49049999999999994,0.08674999999999988,0.31599999999999984,68.489,0.1288,-0.225475,-2.0639999999999996,100.0,1.0,1.0,211.37333333333333,0.0,0.0,0.0,0.0,0.0,0.0,0.0,8959.3,0.0,55.0,5.0,246.53333333333336,1.0,0.0,0.0,0.0,0.0,0.0,0.0,0.0,1.0530000000000008,1.0530000000000008,0.0,0.0,1.0,55.0,616.79921,10000.0,85.000001,85.000001,85.000001,85.000001,395.0,0.0,0.0,0.0,1.0,333.33500000000004,52.231,52.231,48.278999999999996,48.278999999999996,34.0,-17.6725,30.806666666666665,-20.056666666666665,35.055,0.0,1779.438,-0.875,100.0,27.69,28.605,42.107,43.921,0.0,0.0,100.0,0.0,0.0,0.0,0.0,2907.4285714285716,3310.1,3884.125,4119.0,305.929,304.3085,315.4935,314.7155,22.018125,20.6391,21.9802,21.4955,314.999998,314.999998,324.999988,324.999988,99.56137142857143,99.50773333333333,99.56782857142858,99.54785714285714,0.20166666666666666,0.062249999999999917,0.0471666666666668,0.27083333333333326,-0.03333333333333144,-0.07000000000000028,1.634,1.554,38.613,29.994500000000002,38.376000000000005,35.347,56.792,35.528,59.7875,52.821,54.653999999999996,34.601,58.3615,51.1305,53.769,34.1095,58.2655,50.532666666666664,-0.15399999999999991,-0.006000000000000227,0.10381000000000001,0.106005,0.0,214.37,214.53,211.37333333333333,211.37333333333333,0.0,0.0
22,0.0,0.0,0.0,1.0,1.0,0.0,0.0,1.0,0.0,100.0,1.0,1.1856,26.0,0.0,0.0,0.0,65.999997,0.0,26.0,26.0,26.0,26.0,0.1373333333333333,0.2763,-0.0063,292.145,-2.7303,-2.629666666666667,-1.6652,-1.4683000000000002,-201.53,215.94,190.526125,0.0,0.0,0.0,0.0,0.04469999999999996,-5.498166666666667,-5.498166666666667,-0.5575,-0.019000000000000128,0.08424999999999994,0.6040000000000001,68.636,0.1275,-0.2073,-0.7599999999999998,100.0,1.0,1.0,211.5966666666667,0.0,0.0,0.0,0.0,0.0,0.0,0.0,8968.8,0.0,55.0,5.0,247.06333333333333,0.0,0.0,0.0,0.0,0.0,0.0,0.0,0.0,1.1069999999999993,1.1069999999999993,0.0,0.0,0.0,55.0,616.79921,10000.0,85.000001,85.000001,85.000001,85.000001,395.0,0.0,0.0,0.0,1.0,166.665,52.46,52.46,47.104,47.104,34.0,-19.1025,27.191666666666666,-24.286666666666665,37.075,0.0,1779.386,0.365000000000002,100.0,27.811,28.65,42.614000000000004,44.204,0.0,0.0,100.0,0.0,0.0,0.0,0.0,2775.285714285714,3221.7,4157.0,4443.0,306.302,304.56075,314.7415,313.9325,22.02825,20.6453,21.9913,21.5054,314.999998,314.999998,324.999988,324.999988,99.5614,99.50773333333333,99.56798571428571,99.54801428571429,0.13900000000000023,-0.0030000000000000027,0.008166666666666655,0.238,-0.05833333333333002,-0.054999999999999716,1.4985,1.4695,38.676,30.033,38.446,35.408500000000004,56.778999999999996,35.570499999999996,59.8285,52.891,54.64,34.6405,58.399,51.1975,53.754999999999995,34.1475,58.3,50.59866666666667,-0.04899999999999993,-0.10650000000000004,0.11771500000000001,0.104635,0.0,214.87,214.93,211.5966666666667,211.5966666666667,0.0,0.0
23,0.0,0.0,0.0,1.0,1.0,0.0,0.0,1.0,0.0,100.0,1.0,1.1856,26.0,0.0,0.0,0.0,65.999997,0.0,26.0,26.0,26.0,26.0,0.08455555555555572,0.254,-0.049633333333333335,292.175,-2.7338,-2.6053333333333333,-1.6886999999999999,-1.5592000000000001,-198.01999999999998,215.95,190.502625,0.0,0.0,0.0,0.0,0.04673333333333329,-5.498166666666667,-5.498166666666667,-0.5772,-0.06400000000000006,0.049250000000000016,-1.096,68.769,0.0843,-0.232575,0.49799999999999933,100.0,1.0,1.0,212.15666666666667,0.0,0.0,0.0,0.0,0.0,0.0,0.0,8992.5,0.0,55.0,5.0,247.54333333333335,1.0,0.0,0.0,0.0,0.0,0.0,0.0,0.0,1.1580000000000013,1.1580000000000013,0.0,0.0,1.0,55.0,616.79921,10000.0,85.000001,85.000001,85.000001,85.000001,395.0,0.0,0.0,0.0,1.0,166.665,51.650999999999996,51.650999999999996,48.172,48.172,34.0,-24.99,24.676666666666666,-26.39,30.0275,0.0,1779.335,0.7950000000000017,100.0,28.167,28.721,42.797,44.271,0.0,0.0,100.0,0.0,0.0,0.0,0.0,3245.0,3146.9,4001.625,3932.5,305.086,304.67475,315.26475,315.038,22.037875,20.6511,22.0018,21.5146,314.999998,314.999998,324.999988,324.999988,99.56141428571429,99.50775,99.56812857142857,99.54815714285715,0.08999999999999986,-0.043749999999999956,-0.05499999999999994,0.1755,-0.04999999999999716,-0.051666666666669414,1.536,1.558,38.736999999999995,30.069499999999998,38.510999999999996,35.466499999999996,56.763999999999996,35.6095,59.8645,52.9535,54.626999999999995,34.677,58.4325,51.257999999999996,53.739999999999995,34.1825,58.33,50.657666666666664,-0.020499999999999963,-0.1379999999999999,0.112185,0.10354000000000001,0.0,215.325,215.26999999999998,212.15666666666667,212.15666666666667,0.0,0.0
24,0.0,0.0,0.0,1.0,1.0,0.0,0.0,1.0,0.0,100.0,1.0,1.1856,26.0,0.0,0.0,0.0,65.999997,0.0,26.0,26.0,26.0,26.0,-0.006222222222222129,0.27700000000000014,-0.10326666666666667,292.389,-2.7305,-2.6434444444444445,-1.58615,-1.5228000000000002,-194.92000000000002,215.96,190.4815,0.0,0.0,0.0,0.0,0.04853333333333332,-5.498166666666667,-5.498166666666667,-0.5793,-0.5540000000000003,0.03562500000000002,0.476,68.89,0.0329,-0.21810000000000002,0.9979999999999993,100.0,1.0,1.0,212.39333333333332,0.0,0.0,0.0,0.0,0.0,0.0,0.0,9002.6,0.0,55.0,5.0,247.97666666666666,0.0,0.0,0.0,0.0,0.0,0.0,0.0,0.0,1.2029999999999994,1.2029999999999994,0.0,0.0,0.0,55.0,616.79921,10000.0,85.000001,85.000001,85.000001,85.000001,395.0,0.0,0.0,0.0,1.0,166.665,52.887,52.887,47.104,47.104,34.0,-23.0325,22.083333333333336,-29.606666666666666,28.98,0.0,1779.29,0.9000000000000021,100.0,28.063,28.147,43.181,43.885,0.0,0.0,100.0,0.0,0.0,0.0,0.0,2865.142857142857,3008.6,4270.625,4134.4,306.117,305.3245,314.40625,314.6655,22.04625,20.656,22.0111,21.5227,314.999998,314.999998,324.999988,324.999988,99.56141428571429,99.50775,99.56825714285715,99.5483,0.05566666666666675,-0.07874999999999999,-0.09116666666666662,0.1266666666666667,-0.03333333333333144,-0.04999999999999716,1.475,1.5115,38.789,30.1,38.569,35.516999999999996,56.748999999999995,35.6435,59.897999999999996,53.007,54.611999999999995,34.708,58.464,51.3095,53.724999999999994,34.2125,58.358000000000004,50.708333333333336,-0.0024999999999999467,-0.15300000000000002,0.10330500000000001,0.104965,0.0,215.695,215.625,212.39333333333332,212.39333333333332,0.0,0.0
25,0.0,0.0,0.0,1.0,1.0,0.0,0.0,1.0,0.0,100.0,1.0,1.1856,26.0,0.0,0.0,0.0,65.999997,0.0,26.0,26.0,26.0,26.0,-0.05711111111111111,0.2599,-0.04106666666666667,292.297,-2.765,-2.638888888888889,-1.5731000000000002,-1.5552000000000001,-191.41,215.9725,190.456125,0.0,0.0,0.0,0.0,0.05059999999999998,-5.498166666666667,-5.498166666666667,-0.6128,0.02849999999999997,0.0022499999999998632,-1.819,69.022,-0.0239,-0.226,1.3940000000000001,100.0,1.0,1.0,212.95333333333332,0.0,0.0,0.0,0.0,0.0,0.0,0.0,9026.3,0.0,55.0,5.0,248.45,1.0,0.0,0.0,0.0,0.0,0.0,0.0,0.0,1.2540000000000013,1.2540000000000013,0.0,0.0,1.0,55.0,616.79921,10000.0,85.000001,85.000001,85.000001,85.000001,395.0,0.0,0.0,0.0,1.0,333.33500000000004,51.849000000000004,51.849000000000004,47.943,47.943,34.0,-29.572499999999998,21.9,-30.49,24.7325,0.0,1779.238,0.9000000000000021,100.0,28.105,28.266,43.114000000000004,43.343,0.0,0.0,100.0,0.0,0.0,0.0,0.0,3342.5714285714284,3200.3,4025.25,3952.4,304.9785,304.5835,315.14425,315.0675,22.055875,20.6617,22.0215,21.5318,314.999998,314.999998,324.999988,324.999988,99.56142857142858,99.50776666666667,99.5684,99.54844285714286,0.010666666666666824,-0.12249999999999994,-0.16333333333333333,0.06800000000000006,-0.06666666666666998,-0.03833333333332689,1.5419999999999998,1.595,38.849000000000004,30.1355,38.634,35.573499999999996,56.729,35.6845,59.9335,53.064,54.594,34.7465,58.4965,51.3645,53.706,34.2495,58.388,50.762,-0.007500000000000062,-0.15399999999999991,0.11335,0.10393000000000001,0.0,216.135,216.01,212.95333333333332,212.95333333333332,0.0,0.0
26,0.0,0.0,0.0,1.0,1.0,0.0,0.0,1.0,0.0,100.0,1.0,1.1856,26.0,0.0,0.0,0.0,65.999997,0.0,26.0,26.0,26.0,26.0,-0.122,0.28400000000000003,0.08286666666666667,291.153,-2.6653000000000002,-2.761333333333333,-1.5843,-1.5837,-187.88,215.98000000000002,190.430375,0.0,0.0,0.0,0.0,0.05263333333333331,-5.498166666666667,-5.498166666666667,-0.5701,0.752,-0.05250000000000021,0.1640000000000006,69.158,-0.0665,-0.19512500000000002,1.4699999999999998,100.0,1.0,1.0,213.10333333333335,0.0,0.0,0.0,0.0,0.0,0.0,0.0,9032.6,0.0,55.0,5.0,248.94,0.0,0.0,0.0,0.0,0.0,0.0,0.0,0.0,1.3049999999999997,1.3049999999999997,0.0,0.0,0.0,55.0,616.79921,10000.0,85.000001,85.000001,85.000001,85.000001,395.0,0.0,0.0,0.0,1.0,333.33500000000004,51.422,51.422,46.158,46.158,34.0,-28.362499999999997,21.168333333333333,-38.35666666666667,27.3475,0.0,1779.186,0.7250000000000014,100.0,29.349,28.466,44.104,43.324,0.0,0.0,100.0,0.0,0.0,0.0,0.0,3238.4285714285716,3050.3,4628.125,4436.4,304.9545,305.09525,313.6585,313.9795,22.06575,20.6674,22.0321,21.541,314.999998,314.999998,324.999988,324.999988,99.56142857142858,99.50778333333334,99.56855714285714,99.54858571428572,0.0033333333333334103,-0.137,-0.18666666666666665,0.03400000000000003,-0.03833333333332689,-0.05666666666667197,1.4180000000000001,1.468,38.911,30.1715,38.701,35.631,56.715,35.7295,59.9755,53.1245,54.58,34.7875,58.536,51.4225,53.691,34.289,58.424,50.818666666666665,-0.018999999999999906,-0.13850000000000007,0.10906500000000001,0.10762500000000001,0.0,216.57999999999998,216.465,213.10333333333335,213.10333333333335,0.0,0.0
27,0.0,0.0,0.0,1.0,1.0,0.0,0.0,1.0,0.0,100.0,1.0,1.1856,26.0,0.0,0.0,0.0,65.999997,0.0,26.0,26.0,26.0,26.0,-0.13244444444444448,0.2491000000000001,-0.018500000000000003,291.626,-2.6159,-2.7476666666666665,-1.56165,-1.6703000000000001,-184.56,215.9875,190.40725,0.0,0.0,0.0,0.0,0.05456666666666654,-5.498166666666667,-5.498166666666667,-0.5978,-1.0715,-0.06612499999999999,0.593,69.281,-0.08900000000000001,-0.24385,1.3179999999999996,100.0,1.0,1.0,213.60333333333335,0.0,0.0,0.0,0.0,0.0,0.0,0.0,9053.9,0.0,55.0,5.0,249.39,1.0,0.0,0.0,0.0,0.0,0.0,0.0,0.0,1.352999999999998,1.352999999999998,0.0,0.0,1.0,55.0,616.79921,10000.0,85.000001,85.000001,85.000001,85.000001,395.0,0.0,0.0,0.0,1.0,166.665,51.772999999999996,51.772999999999996,46.707,46.707,34.0,-28.095,20.721666666666668,-34.11666666666666,24.72,0.0,1779.14,0.620000000000001,100.0,29.136,28.07,44.942,43.721000000000004,0.0,0.0,100.0,0.0,0.0,0.0,0.0,3203.142857142857,3084.0,4148.875,4014.9,305.0565,305.119,314.719,314.8725,22.07475,20.6726,22.0423,21.5497,314.999998,314.999998,324.999988,324.999988,99.56142857142858,99.5078,99.5687,99.54872857142857,-0.009333333333333194,-0.14774999999999994,-0.20499999999999996,0.02100000000000013,-0.045000000000001705,-0.060000000000002274,1.4725000000000001,1.522,38.967,30.2035,38.763999999999996,35.686,56.698,35.769,60.0155,53.1815,54.564,34.824,58.573499999999996,51.4775,53.674,34.323499999999996,58.459,50.87233333333333,-0.03849999999999998,-0.1280000000000001,0.10307500000000001,0.10904000000000001,0.0,216.91500000000002,216.79500000000002,213.60333333333335,213.60333333333335,0.0,0.0
28,0.0,0.0,0.0,1.0,1.0,0.0,0.0,1.0,0.0,100.0,1.0,1.1856,26.0,0.0,0.0,0.0,65.999997,0.0,26.0,26.0,26.0,26.0,-0.12611111111111106,0.26480000000000015,-0.039400000000000004,291.87,-2.6418,-2.7335555555555557,-1.5061,-1.6339000000000001,-181.01999999999998,215.99,190.381875,0.0,0.0,0.0,0.0,0.05663333333333331,-5.498166666666667,-5.498166666666667,-0.6003000000000001,0.6515,-0.07725000000000026,-0.6509999999999998,69.412,-0.1024,-0.215475,1.338,100.0,1.0,1.0,214.07999999999998,0.0,0.0,0.0,0.0,0.0,0.0,0.0,9074.1,0.0,55.0,5.0,249.85666666666668,0.0,0.0,0.0,0.0,0.0,0.0,0.0,0.0,1.404,1.404,0.0,0.0,0.0,55.0,616.79921,10000.0,85.000001,85.000001,85.000001,85.000001,395.0,0.0,0.0,0.0,1.0,333.33500000000004,51.757999999999996,51.757999999999996,47.485,47.485,34.0,-30.362499999999997,19.16166666666667,-34.19,23.0475,0.0,1779.088,0.4250000000000007,100.0,29.128,28.126,44.215,43.141,0.0,0.0,100.0,0.0,0.0,0.0,0.0,3371.5714285714284,2914.1,4206.375,4054.6000000000004,304.7715,305.43025,314.76975,314.83175,22.084625,20.6781,22.0527,21.5587,314.999998,314.999998,324.999988,324.999988,99.56142857142858,99.50781666666667,99.56884285714285,99.54887142857143,-0.022333333333333316,-0.15600000000000003,-0.22066666666666657,-0.002666666666666595,-0.04999999999999716,-0.05333333333332746,1.521,1.573,39.028999999999996,30.238,38.829,35.742,56.683,35.812,60.0515,53.2375,54.549,34.864,58.6075,51.531,53.659,34.3615,58.4895,50.92433333333334,-0.04349999999999987,-0.11299999999999999,0.09821500000000001,0.10507000000000001,0.0,217.36,217.255,214.07999999999998,214.07999999999998,0.0,0.0
29,0.0,0.0,0.0,1.0,1.0,0.0,0.0,1.0,0.0,100.0,1.0,1.1856,26.0,0.0,0.0,0.0,65.999997,0.0,26.0,26.0,26.0,26.0,-0.13122222222222213,0.24029999999999996,0.038700000000000005,291.58,-2.5813,-2.791888888888889,-1.54035,-1.6119,-177.26999999999998,215.99,190.353875,0.0,0.0,0.0,0.0,0.05879999999999996,-5.498166666666667,-5.498166666666667,-0.6088,-0.6724999999999999,-0.07725000000000026,-0.7069999999999999,69.553,-0.10260000000000001,-0.2212,1.016,100.0,1.0,1.0,214.38,0.0,0.0,0.0,0.0,0.0,0.0,0.0,9086.8,0.0,55.0,5.0,250.36666666666667,1.0,0.0,0.0,0.0,0.0,0.0,0.0,0.0,1.4579999999999984,1.4579999999999984,0.0,0.0,1.0,55.0,616.79921,10000.0,85.000001,85.000001,85.000001,85.000001,395.0,0.0,0.0,0.0,1.0,166.665,51.757999999999996,51.757999999999996,46.768,46.768,34.0,-29.585,20.311666666666667,-35.79,23.8375,0.0,1779.035,0.3000000000000007,100.0,28.866,28.008,44.659,43.409,0.0,0.0,100.0,0.0,0.0,0.0,0.0,3391.285714285714,2974.6,4267.25,4118.8,304.7045,305.18,314.4915,314.62775,22.094625,20.6839,22.064,21.5685,314.999998,314.999998,324.999988,324.999988,99.56144285714285,99.50783333333334,99.56901428571429,99.54902857142856,-0.013333333333333197,-0.15349999999999997,-0.22083333333333333,0.0035000000000000586,-0.05333333333332746,-0.041666666666671404,1.4634999999999998,1.4965,39.092,30.274,38.9,35.803,56.664,35.856,60.0965,53.3005,54.532,34.9045,58.6495,51.591499999999996,53.641,34.4005,58.528,50.983333333333334,-0.062000000000000055,-0.0990000000000002,0.10271000000000001,0.10890000000000001,0.0,217.74,217.655,214.38,214.38,0.0,0.0
30,0.0,0.0,0.0,1.0,1.0,0.0,0.0,1.0,0.0,100.0,1.0,1.1856,26.0,0.0,0.0,0.0,65.999997,0.0,26.0,26.0,26.0,26.0,-0.12466666666666659,0.26249999999999996,0.05653333333333334,291.046,-2.6330999999999998,-2.6831111111111112,-1.48095,-1.6722000000000001,-174.14,215.9875,190.330375,0.0,0.0,0.0,0.0,0.06063333333333332,-5.498166666666667,-5.498166666666667,-0.6021000000000001,0.7909999999999999,-0.07650000000000023,0.8050000000000006,69.667,-0.09340000000000001,-0.215725,0.8100000000000005,100.0,1.0,1.0,214.75333333333333,0.0,0.0,0.0,0.0,0.0,0.0,0.0,9102.5,0.0,55.0,5.0,250.77666666666664,0.0,0.0,0.0,0.0,0.0,0.0,1.0,0.0,1.5030000000000001,1.5030000000000001,0.0,0.0,0.0,55.0,616.79921,10000.0,85.000001,85.000001,85.000001,85.000001,395.0,0.0,0.0,0.0,1.0,333.33500000000004,50.873,50.873,46.829,46.829,34.0,-29.6625,20.634999999999998,-34.446666666666665,26.25,0.0,1778.989,0.17999999999999972,100.0,29.837,28.496000000000002,44.616,43.33,0.0,0.0,100.0,0.0,0.0,0.0,0.0,3430.4285714285716,3077.9,4318.125,4243.5,304.3895,305.04925,314.36125,314.3475,22.103375,20.6889,22.0732,21.5766,314.999998,314.999998,324.999988,324.999988,99.56144285714285,99.50785,99.56914285714285,99.54915714285714,0.010666666666666824,-0.13724999999999998,-0.2011666666666666,0.016166666666666663,-0.03833333333332689,-0.07000000000000028,1.4649999999999999,1.5030000000000001,39.146,30.305999999999997,38.958,35.854,56.652,35.8955,60.1295,53.352000000000004,54.519999999999996,34.941,58.6805,51.641,53.629000000000005,34.4355,58.5565,51.031333333333336,-0.07099999999999995,-0.09399999999999986,0.10292000000000001,0.10381000000000001,0.0,218.13,218.075,214.75333333333333,214.75333333333333,0.0,0.0
31,0.0,0.0,0.0,1.0,1.0,0.0,0.0,1.0,0.0,100.0,1.0,1.1856,26.0,0.0,0.0,0.0,65.999997,0.0,26.0,26.0,26.0,26.0,-0.10577777777777786,0.2614000000000001,-0.0092,291.016,-2.7055,-2.6573333333333333,-1.5718,-1.6624,-170.57999999999998,215.98000000000002,190.304625,0.0,0.0,0.0,0.0,0.06269999999999998,-5.498166666666667,-5.498166666666667,-0.5895,-0.6110000000000002,-0.06875000000000009,-0.7599999999999998,69.799,-0.0746,-0.21955000000000002,0.5200000000000005,100.0,1.0,1.0,215.06333333333333,0.0,0.0,0.0,0.0,0.0,0.0,0.0,9115.7,0.0,55.0,5.0,251.25,1.0,0.0,0.0,0.0,0.0,0.0,1.0,0.0,1.5539999999999985,1.5539999999999985,0.0,0.0,1.0,55.0,616.79921,10000.0,85.000001,85.000001,85.000001,85.000001,395.0,0.0,0.0,0.0,1.0,333.33500000000004,51.559,51.559,45.501999999999995,45.501999999999995,34.0,-28.4425,20.37833333333333,-36.86666666666667,27.2975,0.0,1778.938,0.14000000000000057,100.0,29.288,28.672,45.149,44.041,0.0,0.0,100.0,0.0,0.0,0.0,0.0,3269.714285714286,3044.8,4501.125,4234.1,305.1915,305.191,313.9875,314.4135,22.113,20.6946,22.084,21.586,314.999998,314.999998,324.999988,324.999988,99.56144285714285,99.50786666666667,99.5693,99.54931428571429,0.0076666666666667105,-0.13124999999999998,-0.19033333333333335,0.03766666666666674,-0.060000000000002274,-0.03333333333333144,1.4649999999999999,1.4705,39.206,30.341,39.025,35.9125,56.634,35.9385,60.173,53.413,54.504000000000005,34.9805,58.721000000000004,51.7,53.611999999999995,34.4735,58.594,51.08866666666667,-0.07450000000000001,-0.08899999999999997,0.11059000000000001,0.11192,0.0,218.51,218.45,215.06333333333333,215.06333333333333,0.0,0.0
32,0.0,0.0,0.0,1.0,1.0,0.0,0.0,1.0,0.0,100.0,1.0,1.1856,26.0,0.0,0.0,0.0,65.999997,0.0,26.0,26.0,26.0,26.0,-0.11411111111111105,0.27249999999999996,-0.0529,291.275,-2.6376,-2.7004444444444444,-1.5963500000000002,-1.5717,-167.01999999999998,215.9725,190.279,0.0,0.0,0.0,0.0,0.06476666666666653,-5.498166666666667,-5.498166666666667,-0.6088,0.20399999999999996,-0.08800000000000008,0.2469999999999999,69.926,-0.0618,-0.2283,0.5140000000000002,100.0,1.0,1.0,215.61666666666667,0.0,0.0,0.0,0.0,0.0,0.0,0.0,9139.2,0.0,55.0,5.0,251.70666666666665,0.0,0.0,0.0,0.0,0.0,0.0,1.0,0.0,1.6050000000000004,1.6050000000000004,0.0,0.0,0.0,55.0,616.79921,10000.0,85.000001,85.000001,85.000001,85.000001,395.0,0.0,0.0,0.0,1.0,166.665,51.208,51.208,46.661,46.661,34.0,-27.4825,22.208333333333336,-33.41,25.7875,0.0,1778.888,0.05999999999999872,100.0,29.476,28.622,44.781,43.733000000000004,0.0,0.0,100.0,0.0,0.0,0.0,0.0,3309.4285714285716,3104.3,4239.0,4167.3,304.802,305.0175,314.67775,314.7075,22.122625,20.7003,22.0944,21.5952,314.999998,314.999998,324.999988,324.999988,99.56145714285714,99.50788333333334,99.56945714285715,99.54945714285714,0.03166666666666673,-0.10824999999999996,-0.17399999999999993,0.051833333333333176,-0.01833333333333087,-0.07166666666666544,1.524,1.546,39.266,30.377,39.09,35.97,56.617999999999995,35.981,60.209,53.47,54.489000000000004,35.019999999999996,58.754999999999995,51.7545,53.595,34.5115,58.625,51.141999999999996,-0.07850000000000001,-0.08499999999999996,0.10576500000000001,0.10477500000000001,0.0,218.885,218.865,215.61666666666667,215.61666666666667,0.0,0.0
33,0.0,0.0,0.0,1.0,1.0,0.0,0.0,1.0,0.0,100.0,1.0,1.1856,26.0,0.0,0.0,0.0,65.999997,0.0,26.0,26.0,26.0,26.0,-0.07177777777777783,0.26449999999999996,-0.0448,291.351,-2.6566,-2.748333333333333,-1.53335,-1.5827,-163.66,215.96,190.253875,0.0,0.0,0.0,0.0,0.06673333333333331,-5.498166666666667,-5.498166666666667,-0.6116,-0.38850000000000007,-0.07537500000000019,1.4329999999999998,70.049,-0.054200000000000005,-0.215875,0.3440000000000003,100.0,1.0,1.0,215.87333333333333,0.0,0.0,0.0,0.0,0.0,0.0,0.0,9150.0,0.0,55.0,5.0,252.15,1.0,0.0,0.0,0.0,0.0,0.0,1.0,0.0,1.6529999999999987,1.6529999999999987,0.0,0.0,1.0,55.0,616.79921,10000.0,85.000001,85.000001,85.000001,85.000001,395.0,0.0,0.0,0.0,1.0,166.665,51.834,51.834,46.402,46.402,34.0,-25.299999999999997,22.361666666666665,-32.54666666666667,27.67,0.0,1778.84,-0.09999999999999787,100.0,29.22,28.36,44.763,43.806,0.0,0.0,100.0,0.0,0.0,0.0,0.0,3157.285714285714,3014.0,4280.0,4306.4,305.2995,305.301,314.43075,314.2925,22.131625,20.7055,22.1044,21.6039,314.999998,314.999998,324.999988,324.999988,99.56145714285714,99.5079,99.5696,99.5496,0.051000000000000156,-0.09675,-0.15800000000000003,0.05783333333333318,-0.060000000000002274,-0.036666666666668846,1.475,1.4885,39.323,30.409,39.152,36.0245,56.602000000000004,36.016999999999996,60.2455,53.525999999999996,54.474000000000004,35.0535,58.789,51.8085,53.58,34.543,58.656,51.19433333333333,-0.09250000000000003,-0.07450000000000001,0.10116000000000001,0.10676000000000001,0.0,219.275,219.22500000000002,215.87333333333333,215.87333333333333,0.0,0.0
34,0.0,0.0,0.0,1.0,1.0,0.0,0.0,1.0,0.0,100.0,1.0,1.1856,26.0,0.0,0.0,0.0,65.999997,0.0,26.0,26.0,26.0,26.0,-0.05511111111111111,0.25370000000000004,-0.07806666666666667,291.794,-2.675,-2.6981111111111113,-1.6013000000000002,-1.6022,-160.07999999999998,215.9475,190.226,0.0,0.0,0.0,0.0,0.06879999999999997,-5.498166666666667,-5.498166666666667,-0.6467,-0.7989999999999999,-0.04137499999999994,-0.13999999999999968,70.176,-0.040400000000000005,-0.228575,0.258,100.0,1.0,1.0,216.3466666666667,0.0,0.0,0.0,0.0,0.0,0.0,0.0,9170.1,0.0,55.0,5.0,252.61,0.0,0.0,0.0,0.0,0.0,0.0,1.0,0.0,1.7040000000000006,1.7040000000000006,0.0,0.0,0.0,55.0,616.79921,10000.0,85.000001,85.000001,85.000001,85.000001,395.0,0.0,0.0,0.0,1.0,333.33500000000004,52.078,52.078,47.379,47.379,34.0,-25.9775,21.74666666666667,-31.686666666666664,26.8625,0.0,1778.786,-0.11499999999999844,100.0,28.756,28.171,44.335,43.95,0.0,0.0,100.0,0.0,0.0,0.0,0.0,3206.714285714286,2955.8,4087.875,4109.0,305.1435,305.3705,315.00175,314.6515,22.141125,20.711,22.1148,21.6131,314.999998,314.999998,324.999988,324.999988,99.56145714285714,99.50791666666667,99.56975714285714,99.54975714285715,0.050666666666666416,-0.09199999999999997,-0.16516666666666657,0.0668333333333333,-0.041666666666671404,-0.05333333333332746,1.5219999999999998,1.5335,39.382,30.444,39.217,36.082,56.584,36.0575,60.2825,53.589,54.457,35.0905,58.823499999999996,51.8685,53.562,34.579,58.687,51.253,-0.09650000000000003,-0.06550000000000011,0.10780500000000001,0.105035,0.0,219.64,219.61,216.3466666666667,216.3466666666667,0.0,0.0
35,0.0,0.0,0.0,1.0,1.0,0.0,0.0,1.0,0.0,100.0,1.0,1.1856,26.0,0.0,0.0,0.0,65.999997,0.0,26.0,26.0,26.0,26.0,-0.019555555555555548,0.24609999999999999,-0.053566666666666665,291.794,-2.6782,-2.679444444444444,-1.56715,-1.6108,-156.29,215.9325,190.194125,0.0,0.0,0.0,0.0,0.07099999999999995,-5.498166666666667,-5.498166666666667,-0.6848000000000001,-0.1775000000000002,-0.05149999999999988,-0.9889999999999999,70.31,-0.025900000000000003,-0.22712500000000002,0.08399999999999963,100.0,1.0,1.0,216.8466666666667,0.0,0.0,0.0,0.0,0.0,0.0,0.0,9191.3,0.0,55.0,5.0,253.09,1.0,0.0,0.0,0.0,0.0,0.0,1.0,0.0,1.7579999999999991,1.7579999999999991,0.0,0.0,1.0,55.0,616.79921,10000.0,85.000001,85.000001,85.000001,85.000001,395.0,0.0,0.0,0.0,1.0,166.665,51.544,51.544,47.058,47.058,34.0,-26.155,24.993333333333332,-29.599999999999998,26.835,0.0,1778.735,-0.08999999999999986,100.0,28.532,28.512999999999998,44.027,43.464,0.0,0.0,100.0,0.0,0.0,0.0,0.0,3265.285714285714,3280.4,4017.5,3940.5,305.104,304.35475,315.13325,315.13175,22.151,20.7171,22.1257,21.622700000000002,314.999998,314.999998,324.999988,324.999988,99.56147142857142,99.50791666666667,99.56991428571429,99.5499,0.05600000000000005,-0.07824999999999993,-0.14633333333333332,0.09416666666666673,-0.054999999999999716,-0.04999999999999716,1.5499999999999998,1.553,39.444,30.4815,39.286,36.141999999999996,56.566,36.097,60.317,53.644,54.44,35.1275,58.856,51.922,53.544,34.614,58.716499999999996,51.30466666666667,-0.08850000000000002,-0.07200000000000006,0.109405,0.11311500000000001,0.0,220.075,220.03,216.8466666666667,216.8466666666667,0.0,0.0
