,ABS Active,ABS Enabled,AID Allow Tire Blankets,AID Auto Blip,AID Auto Clutch,AID Auto Shift,AID Fuel Rate,AID Ideal Line,AID Mech Damage,AID Stability,AID Tire Wear Rate,Air Density,Air Temp,Ballast,Best Lap Delta,Best Lap Time,Brake Bias,Brake Pos,Brake Temp FL,Brake Temp FR,Brake Temp RL,Brake Temp RR,CG Accel Lateral,CG Accel Longitudinal,CG Accel Vertical,CG Height,Camber FL,Camber FR,Camber RL,Camber RR,Car Coord X,Car Coord Y,Car Coord Z,Car Damage Front,Car Damage Left,Car Damage Rear,Car Damage Right,Car Pos Norm,Caster FL,Caster FR,Chassis Pitch Angle,Chassis Pitch Rate,Chassis Roll Angle,Chassis Roll Rate,Chassis Velocity X,Chassis Velocity Y,Chassis Velocity Z,Chassis Yaw Rate,Clutch Pos,DRS Active,DRS Available,Drive Train Speed,ERS Heat Charging,ERS Is Charging,ERS Max Energy,ERS Power Level,ERS Recovery Level,Engine Brake Setting,Engine Limiter,Engine RPM,Flags,Fuel Level,Gear,Ground Speed,HR Sample Clock,In Pit,KERS Charge,KERS Deployed Energy,KERS Input,KERS Max Energy,LR Sample Clock,Lap Invalidated,Lap Time,Lap Time2,Last Lap Time,Last Sector Time,MR Sample Clock,Max Fuel,Max Power,Max RPM,Max Sus Travel FL,Max Sus Travel FR,Max Sus Travel RL,Max Sus Travel RR,Max Torque,Max Turbo Boost,Num Tires Off Track,Penalties Enabled,Position,Raw Data Sample Rate,Ride Height FL,Ride Height FR,Ride Height RL,Ride Height RR,Road Temp,Self Align Torque FL,Self Align Torque FR,Self Align Torque RL,Self Align Torque RR,Session Lap Count,Session Time Left,Steering Angle,Surface Grip,Suspension Travel FL,Suspension Travel FR,Suspension Travel RL,Suspension Travel RR,TC Active,TC Enabled,Throttle Pos,Tire Dirt Level FL,Tire Dirt Level FR,Tire Dirt Level RL,Tire Dirt Level RR,Tire Load FL,Tire Load FR,Tire Load RL,Tire Load RR,Tire Loaded Radius FL,Tire Loaded Radius FR,Tire Loaded Radius RL,Tire Loaded Radius RR,Tire Pressure FL,Tire Pressure FR,Tire Pressure RL,Tire Pressure RR,Tire Radius FL,Tire Radius FR,Tire Radius RL,Tire Radius RR,Tire Rubber Grip FL,Tire Rubber Grip FR,Tire Rubber Grip RL,Tire Rubber Grip RR,Tire Slip Angle FL,Tire Slip Angle FR,Tire Slip Angle RL,Tire Slip Angle RR,Tire Slip Ratio FL,Tire Slip Ratio FR,Tire Slip Ratio RL,Tire Slip Ratio RR,Tire Temp Core FL,Tire Temp Core FR,Tire Temp Core RL,Tire Temp Core RR,Tire Temp Inner FL,Tire Temp Inner FR,Tire Temp Inner RL,Tire Temp Inner RR,Tire Temp Middle FL,Tire Temp Middle FR,Tire Temp Middle RL,Tire Temp Middle RR,Tire Temp Outer FL,Tire Temp Outer FR,Tire Temp Outer RL,Tire Temp Outer RR,Toe In FL,Toe In FR,Toe In RL,Toe In RR,Turbo Boost,Wheel Angular Speed FL,Wheel Angular Speed FR,Wheel Angular Speed RL,Wheel Angular Speed RR,Wind Direction,Wind Speed
0,0.0,0.0,0.0,1.0,1.0,0.0,0.0,1.0,0.0,100.0,1.0,1.1856,26.0,0.0,0.0,0.0,59.99999,0.0,26.0,26.0,26.0,26.0,-0.0758888888888889,0.3024,0.068425,293.976,-2.7154,-2.6596,-1.51525,-1.5573000000000001,-275.65,216.29500000000002,190.987375,0.0,0.0,0.0,0.0,0.0015999999999999348,-5.498166666666667,-5.498166666666667,-0.5481,1.4443333333333332,-0.008999999999999897,-0.492,65.486,-0.0396,-0.21382500000000002,1.0299999999999994,100.0,1.0,1.0,202.17333333333335,0.0,0.0,0.0,0.0,0.0,0.0,0.0,8569.4,0.0,55.0,5.0,235.71666666666667,0.0,0.0,0.0,0.0,0.0,0.0,0.0,0.0,0.0030000000000001137,0.0030000000000001137,0.0,0.0,0.0,55.0,616.79921,10000.0,85.0,85.0,85.0,85.0,395.0,0.0,0.0,0.0,1.0,20.0,52.719,52.719,49.515,49.515,34.0,-25.8525,23.485999999999997,-30.473333333333336,24.9325,0.0,1783.764,0.75,100.0,27.627,27.016,40.544,40.46,0.0,0.0,100.0,0.0,0.0,0.0,0.0,2972.5,3373.0,4133.875,4046.5,305.787,304.10825,314.77425,314.761,21.7783,20.5117,21.7591,21.3055,314.99999,314.99999,324.99998,324.99998,99.55891428571428,99.50713333333333,99.56462857142857,99.54494285714286,0.0027500000000002522,-0.1186666666666667,-0.15833333333333333,0.058499999999999996,-0.04833333333333201,-0.03833333333332689,1.5296666666666665,1.5909999999999997,37.114999999999995,29.198,36.995000000000005,34.1595,56.265,34.43,58.8795,51.491,54.183,33.6135,57.512,49.8595,53.352000000000004,33.1845,57.4745,49.28966666666666,-0.013000000000000012,-0.13250000000000006,0.10357000000000001,0.10522000000000001,0.0,205.23000000000002,205.14,202.17333333333335,202.17333333333335,0.0,0.0
1,0.0,0.0,0.0,1.0,1.0,0.0,0.0,1.0,0.0,100.0,1.0,1.1856,26.0,0.0,0.0,0.0,59.999996,0.0,26.0,26.0,26.0,26.0,-0.10811111111111105,0.3107,0.177675,293.106,-2.6381,-2.7641999999999998,-1.52685,-1.548,-272.3,216.29000000000002,190.96725,0.0,0.0,0.0,0.0,0.003566666666666607,-5.498166666666667,-5.498166666666667,-0.49960000000000004,-0.7036666666666667,-0.05525000000000002,-0.7840000000000003,65.64,-0.053700000000000005,-0.1955,1.3979999999999997,100.0,1.0,1.0,202.36,0.0,0.0,0.0,0.0,0.0,0.0,0.0,8577.3,0.0,55.0,5.0,236.2733333333333,1.0,0.0,0.0,0.0,0.0,0.0,0.0,0.0,0.053999999999998494,0.053999999999998494,0.0,0.0,1.0,55.0,616.79921,10000.0,85.000001,85.000001,85.000001,85.000001,395.0,0.0,0.0,0.0,1.0,333.33500000000004,53.513,53.513,48.416,48.416,34.0,-27.634999999999998,17.872,-34.193333333333335,28.34,0.0,1783.715,0.865000000000002,100.0,27.548000000000002,27.034,42.683,41.584,0.0,0.0,100.0,0.0,0.0,0.0,0.0,3141.75,2689.4,4285.5,4682.4,305.3515,306.28375,314.358,313.18125,21.7883,20.5168,21.7699,21.3146,314.999998,314.999998,324.999988,324.999988,99.55891428571428,99.50715,99.56478571428572,99.54508571428572,-0.01749999999999985,-0.14500000000000002,-0.18866666666666665,0.028833333333333266,-0.045000000000001705,-0.05333333333332746,1.422,1.4685000000000001,37.177,29.2295,37.062,34.216499999999996,56.248999999999995,34.4705,58.926,51.556,54.167,33.6505,57.555,49.9215,53.336,33.22,57.515,49.351,-0.005499999999999949,-0.14200000000000013,0.105395,0.10869000000000001,0.0,205.66,205.57,202.36,202.36,0.0,0.0
2,0.0,0.0,0.0,1.0,1.0,0.0,0.0,1.0,0.0,100.0,1.0,1.1856,26.0,0.0,0.0,0.0,59.999996,0.0,26.0,26.0,26.0,26.0,-0.12711111111111106,0.28500000000000014,-0.02205,293.671,-2.6037,-2.7943,-1.4888,-1.6073,-268.76,216.28,190.94725,0.0,0.0,0.0,0.0,0.005633333333333379,-5.498166666666667,-5.498166666666667,-0.5495,0.268,-0.04862499999999992,1.702,65.791,-0.07390000000000001,-0.250425,1.6159999999999997,100.0,1.0,1.0,203.28333333333333,0.0,0.0,0.0,0.0,0.0,0.0,0.0,8616.4,0.0,55.0,5.0,236.82,0.0,0.0,0.0,0.0,0.0,0.0,0.0,0.0,0.10800000000000054,0.10800000000000054,0.0,0.0,0.0,55.0,616.79921,10000.0,85.000001,85.000001,85.000001,85.000001,395.0,0.0,0.0,0.0,1.0,166.665,52.414,52.414,50.186,50.186,34.0,-30.302500000000002,19.869999999999997,-29.64,20.305,0.0,1783.661,0.7300000000000004,100.0,28.328,27.058,42.468,41.269999999999996,0.0,0.0,100.0,0.0,0.0,0.0,0.0,3381.625,2922.7,3771.875,3729.6,304.533,305.482,315.607,315.65225,21.7991,20.522,21.7809,21.323900000000002,314.999998,314.999998,324.999988,324.999988,99.55892857142857,99.50718333333333,99.56492857142857,99.54522857142857,-0.025499999999999856,-0.14866666666666672,-0.22683333333333333,0.005166666666666542,-0.051666666666669414,-0.06499999999999773,1.6343333333333334,1.6909999999999998,37.244,29.2625,37.131,34.274,56.236000000000004,34.512,58.966499999999996,51.617,54.155,33.689,57.593,49.980000000000004,53.323,33.257,57.55,49.40833333333333,-0.021499999999999964,-0.131,0.11252000000000001,0.11044500000000002,0.0,206.16500000000002,206.0,203.28333333333333,203.28333333333333,0.0,0.0
3,0.0,0.0,0.0,1.0,1.0,0.0,0.0,1.0,0.0,100.0,1.0,1.1856,26.0,0.0,0.0,0.0,59.999996,0.0,26.0,26.0,26.0,26.0,-0.14577777777777778,0.2986,-0.04165,293.442,-2.7288,-2.6912000000000003,-1.5097,-1.5911,-265.59,216.26999999999998,190.92875,0.0,0.0,0.0,0.0,0.0074666666666665105,-5.498166666666667,-5.498166666666667,-0.509,0.36933333333333335,-0.01200000000000001,-0.996,65.935,-0.0886,-0.20172500000000002,1.2720000000000002,100.0,1.0,1.0,203.39333333333332,0.0,0.0,0.0,0.0,0.0,0.0,0.0,8621.1,0.0,55.0,5.0,237.33666666666667,1.0,0.0,0.0,0.0,0.0,0.0,0.0,0.0,0.1559999999999988,0.1559999999999988,0.0,0.0,1.0,55.0,616.79921,10000.0,85.000001,85.000001,85.000001,85.000001,395.0,0.0,0.0,0.0,1.0,166.665,53.619,53.619,48.111,48.111,34.0,-25.9375,17.7,-35.63666666666666,24.36,0.0,1783.614,0.5899999999999999,100.0,27.912,27.08,42.397,41.452,0.0,0.0,100.0,0.0,0.0,0.0,0.0,2853.375,2784.4,4347.125,4233.8,306.127,305.7775,314.26175,314.2915,21.8083,20.5269,21.7907,21.3323,314.999998,314.999998,324.999988,324.999988,99.55892857142857,99.5072,99.56505714285714,99.54535714285714,-0.028249999999999886,-0.15833333333333321,-0.21483333333333332,0.007833333333333359,-0.04999999999999716,-0.054999999999999716,1.4703333333333333,1.5219999999999998,37.302,29.293,37.192,34.326499999999996,56.22,34.552,59.0045,51.677,54.14,33.726,57.6285,50.0375,53.307,33.292,57.583,49.464333333333336,-0.025499999999999967,-0.121,0.09833000000000001,0.11499500000000001,0.0,206.60000000000002,206.505,203.39333333333332,203.39333333333332,0.0,0.0
4,0.0,0.0,0.0,1.0,1.0,0.0,0.0,1.0,0.0,100.0,1.0,1.1856,26.0,0.0,0.0,0.0,59.999996,0.0,26.0,26.0,26.0,26.0,-0.138,0.28790000000000004,-0.024425000000000002,293.655,-2.6619,-2.7426,-1.5267,-1.5979,-262.43,216.255,190.91025,0.0,0.0,0.0,0.0,0.009299999999999975,-5.498166666666667,-5.498166666666667,-0.5448000000000001,-0.742,-0.07925000000000004,-1.7840000000000003,66.072,-0.08800000000000001,-0.23802500000000001,1.1240000000000006,100.0,1.0,1.0,203.98666666666668,0.0,0.0,0.0,0.0,0.0,0.0,0.0,8646.3,0.0,55.0,5.0,237.82999999999998,0.0,0.0,0.0,0.0,0.0,0.0,0.0,0.0,0.20400000000000063,0.20400000000000063,0.0,0.0,0.0,55.0,616.79921,10000.0,85.000001,85.000001,85.000001,85.000001,395.0,0.0,0.0,0.0,1.0,166.665,53.085,53.085,48.798,48.798,34.0,-29.240000000000002,19.037999999999997,-32.97666666666667,20.884999999999998,0.0,1783.566,0.5850000000000009,100.0,27.691,26.894,42.755,41.472,0.0,0.0,100.0,0.0,0.0,0.0,0.0,3264.875,2875.5,4106.625,3671.1,305.051,305.5255,314.801,315.66975,21.8173,20.5316,21.8006,21.3406,314.999998,314.999998,324.999988,324.999988,99.55892857142857,99.50721666666666,99.5652,99.5455,-0.02200000000000002,-0.1519999999999999,-0.21233333333333337,0.018166666666666664,-0.06833333333332803,-0.03833333333332689,1.5646666666666667,1.5855000000000001,37.358000000000004,29.323,37.254000000000005,34.3785,56.203,34.591,59.044,51.7325,54.123999999999995,33.7615,57.666,50.091,53.291,33.326499999999996,57.6175,49.516666666666666,-0.030000000000000027,-0.11499999999999999,0.10325000000000001,0.11273000000000001,0.0,206.995,206.885,203.98666666666668,203.98666666666668,0.0,0.0
5,0.0,0.0,0.0,1.0,1.0,0.0,0.0,1.0,0.0,100.0,1.0,1.1856,26.0,0.0,0.0,0.0,59.999996,0.0,26.0,26.0,26.0,26.0,-0.12244444444444447,0.30110000000000015,-0.011125000000000001,293.625,-2.6744,-2.7646,-1.51,-1.5855000000000001,-258.85,216.2375,190.888625,0.0,0.0,0.0,0.0,0.011366666666666525,-5.498166666666667,-5.498166666666667,-0.5345,0.36433333333333334,-0.08174999999999999,-0.21700000000000008,66.22800000000001,-0.0907,-0.211975,1.1280000000000001,100.0,1.0,1.0,204.39333333333332,0.0,0.0,0.0,0.0,0.0,0.0,0.0,8663.5,0.0,55.0,5.0,238.39,1.0,0.0,0.0,0.0,0.0,0.0,0.0,0.0,0.2579999999999991,0.2579999999999991,0.0,0.0,1.0,55.0,616.79921,10000.0,85.000001,85.000001,85.000001,85.000001,395.0,0.0,0.0,0.0,1.0,166.665,53.467,53.467,48.92,48.92,34.0,-28.240000000000002,19.064,-33.89333333333333,23.0375,0.0,1783.512,0.18499999999999872,100.0,27.744,26.742,42.519999999999996,41.194,0.0,0.0,100.0,0.0,0.0,0.0,0.0,3195.0,2764.4,4220.375,4063.7,305.2235,305.92725,314.608,314.73025,21.8279,20.537,21.8116,21.3498,314.999998,314.999998,324.999988,324.999988,99.55892857142857,99.50723333333333,99.56535714285714,99.54562857142857,-0.011249999999999982,-0.1323333333333332,-0.21150000000000002,0.0086666666666666,-0.03499999999999659,-0.060000000000002274,1.5266666666666666,1.5514999999999999,37.424,29.3565,37.323,34.4365,56.188,34.634,59.087,51.794,54.11,33.801,57.706,50.1495,53.275999999999996,33.3645,57.655,49.574,-0.05899999999999994,-0.08600000000000008,0.10024500000000001,0.11290000000000001,0.0,207.505,207.42000000000002,204.39333333333332,204.39333333333332,0.0,0.0
6,0.0,0.0,0.0,1.0,1.0,0.0,0.0,1.0,0.0,100.0,1.0,1.1856,26.0,0.0,0.0,0.0,59.999996,0.0,26.0,26.0,26.0,26.0,-0.12155555555555553,0.29080000000000017,0.01005,293.457,-2.6368,-2.7456,-1.5514999999999999,-1.5822,-255.87,216.2175,190.8705,0.0,0.0,0.0,0.0,0.0131,-5.498166666666667,-5.498166666666667,-0.5315,0.08266666666666668,-0.06237499999999985,0.871,66.358,-0.08560000000000001,-0.215125,0.7100000000000009,100.0,1.0,1.0,204.7866666666667,0.0,0.0,0.0,0.0,0.0,0.0,0.0,8680.1,0.0,55.0,5.0,238.86,0.0,0.0,0.0,0.0,0.0,0.0,0.0,0.0,0.3030000000000008,0.3030000000000008,0.0,0.0,0.0,55.0,616.79921,10000.0,85.000001,85.000001,85.000001,85.000001,395.0,0.0,0.0,0.0,1.0,166.665,53.101,53.101,48.766999999999996,48.766999999999996,34.0,-26.7875,21.314,-32.156666666666666,23.3625,0.0,1783.466,0.045000000000001705,100.0,27.857,26.714,42.754,41.467,0.0,0.0,100.0,0.0,0.0,0.0,0.0,3123.25,2998.5,4068.25,4042.1000000000004,305.2465,305.32475,314.906,314.85975,21.8365,20.5416,21.8209,21.3577,314.999998,314.999998,324.999988,324.999988,99.55894285714285,99.50723333333333,99.56548571428571,99.54575714285714,0.004249999999999865,-0.11633333333333318,-0.19466666666666665,0.021166666666666556,-0.036666666666668846,-0.051666666666669414,1.5483333333333333,1.5665,37.477999999999994,29.384999999999998,37.381,34.486,56.175,34.67,59.123,51.8485,54.097,33.834,57.7395,50.202,53.262,33.3955,57.686,49.62533333333333,-0.06499999999999995,-0.07499999999999996,0.10518000000000001,0.10458500000000001,0.0,207.87,207.8,204.7866666666667,204.7866666666667,0.0,0.0
7,0.0,0.0,0.0,1.0,1.0,0.0,0.0,1.0,0.0,100.0,1.0,1.1856,26.0,0.0,0.0,0.0,59.999996,0.0,26.0,26.0,26.0,26.0,-0.0825555555555555,0.29100000000000015,0.015025,293.182,-2.6116,-2.7278000000000002,-1.5147,-1.6252,-252.48,216.1925,190.85,0.0,0.0,0.0,0.0,0.015066666666666562,-5.498166666666667,-5.498166666666667,-0.5349,-0.018333333333333333,-0.05224999999999991,-0.14500000000000002,66.504,-0.0689,-0.224025,0.4220000000000006,100.0,1.0,1.0,205.21333333333334,0.0,0.0,0.0,0.0,0.0,0.0,0.0,8698.3,0.0,55.0,5.0,239.38333333333333,1.0,0.0,0.0,0.0,0.0,0.0,0.0,0.0,0.3539999999999992,0.3539999999999992,0.0,0.0,1.0,55.0,616.79921,10000.0,85.000001,85.000001,85.000001,85.000001,395.0,0.0,0.0,0.0,1.0,333.33500000000004,52.765,52.765,48.813,48.813,34.0,-27.0325,21.854,-31.686666666666667,25.189999999999998,0.0,1783.413,-0.254999999999999,100.0,27.821,26.953,42.719,41.814,0.0,0.0,100.0,0.0,0.0,0.0,0.0,3300.875,2963.8,4093.75,4041.0,304.8115,305.26875,314.8525,314.71525,21.8464,20.5467,21.8314,21.3667,314.999998,314.999998,324.999988,324.999988,99.55894285714285,99.50725,99.56562857142858,99.5459,0.03000000000000025,-0.09633333333333316,-0.1881666666666666,0.04066666666666685,-0.054999999999999716,-0.03999999999999915,1.5296666666666665,1.5444999999999998,37.54,29.417,37.446,34.542,56.16,34.7095,59.1635,51.91,54.083,33.8705,57.7775,50.2605,53.247,33.4305,57.721000000000004,49.68266666666666,-0.09350000000000003,-0.050999999999999934,0.10051500000000001,0.11202500000000001,0.0,208.32,208.275,205.21333333333334,205.21333333333334,0.0,0.0
8,0.0,0.0,0.0,1.0,1.0,0.0,0.0,1.0,0.0,100.0,1.0,1.1856,26.0,0.0,0.0,0.0,59.999996,0.0,26.0,26.0,26.0,26.0,-0.0464444444444444,0.3055000000000001,0.042625,293.472,-2.6948,-2.7175000000000002,-1.4978,-1.5514999999999999,-249.09,216.16750000000002,190.8295,0.0,0.0,0.0,0.0,0.017066666666666563,-5.498166666666667,-5.498166666666667,-0.5352,-0.581,-0.03149999999999986,0.758,66.65,-0.0499,-0.213925,-0.07000000000000028,100.0,1.0,1.0,205.59,0.0,0.0,0.0,0.0,0.0,0.0,0.0,8714.3,0.0,55.0,5.0,239.91,0.0,0.0,0.0,0.0,0.0,0.0,0.0,0.0,0.40500000000000114,0.40500000000000114,0.0,0.0,0.0,55.0,616.79921,10000.0,85.000001,85.000001,85.000001,85.000001,395.0,0.0,0.0,0.0,1.0,333.33500000000004,53.696,53.696,48.126,48.126,34.0,-23.0425,22.706,-29.903333333333336,26.65,0.0,1783.363,-0.39000000000000057,100.0,27.509,26.768,42.769,41.866,0.0,0.0,100.0,0.0,0.0,0.0,0.0,2905.25,2995.3,4135.625,4179.7,305.993,305.3675,314.64675,314.463,21.856,20.5519,21.8418,21.3756,314.999998,314.999998,324.999988,324.999988,99.55894285714285,99.50726666666667,99.56577142857142,99.54604285714285,0.05449999999999999,-0.07433333333333314,-0.14633333333333332,0.06766666666666676,-0.03166666666666629,-0.046666666666666856,1.5266666666666666,1.5145,37.599999999999994,29.4495,37.510999999999996,34.5975,56.143,34.7475,59.2035,51.971000000000004,54.067,33.9055,57.814499999999995,50.319,53.230999999999995,33.464,57.754999999999995,49.74,-0.11049999999999993,-0.044499999999999984,0.09606,0.102675,0.0,208.73000000000002,208.73000000000002,205.59,205.59,0.0,0.0
9,0.0,0.0,0.0,1.0,1.0,0.0,0.0,1.0,0.0,100.0,1.0,1.1856,26.0,0.0,0.0,0.0,59.999996,0.0,26.0,26.0,26.0,26.0,-0.01100000000000001,0.29310000000000014,-0.014875000000000001,293.106,-2.6245,-2.718,-1.55345,-1.5554999999999999,-245.68,216.14,190.808375,0.0,0.0,0.0,0.0,0.019033333333333347,-5.498166666666667,-5.498166666666667,-0.5416000000000001,0.6986666666666667,-0.035375000000000156,-0.3490000000000002,66.792,-0.028800000000000003,-0.21645,-0.1280000000000001,100.0,1.0,1.0,206.16333333333333,0.0,0.0,0.0,0.0,0.0,0.0,0.0,8738.5,0.0,55.0,5.0,240.42000000000002,1.0,0.0,0.0,0.0,0.0,0.0,0.0,0.0,0.4559999999999995,0.4559999999999995,0.0,0.0,1.0,55.0,616.79921,10000.0,85.000001,85.000001,85.000001,85.000001,395.0,0.0,0.0,0.0,1.0,166.665,52.353,52.353,49.179,49.179,34.0,-25.5675,23.614,-28.476666666666667,26.4175,0.0,1783.313,-0.48999999999999844,100.0,27.902,27.36,42.345,41.947,0.0,0.0,100.0,0.0,0.0,0.0,0.0,3357.625,3001.7,4032.875,4044.8,304.656,305.09875,315.10725,314.81725,21.8658,20.5573,21.8522,21.3845,314.999998,314.999998,324.999988,324.999988,99.55895714285714,99.50726666666667,99.56591428571429,99.54618571428571,0.0757500000000002,-0.06066666666666665,-0.1323333333333333,0.08683333333333332,-0.054999999999999716,-0.061666666666667425,1.5903333333333334,1.5670000000000002,37.662,29.483,37.576,34.653,56.131,34.7875,59.2405,52.0305,54.055,33.942,57.849000000000004,50.376,53.218,33.499,57.786500000000004,49.796,-0.119,-0.038999999999999924,0.10108500000000001,0.108785,0.0,209.215,209.21,206.16333333333333,206.16333333333333,0.0,0.0
10,0.0,0.0,0.0,1.0,1.0,0.0,0.0,1.0,0.0,100.0,1.0,1.1856,26.0,0.0,0.0,0.0,59.999996,0.0,26.0,26.0,26.0,26.0,0.006111111111111178,0.2925,0.000675,292.969,-2.6615,-2.7051,-1.5350000000000001,-1.5350000000000001,-242.47,216.115,190.788875,0.0,0.0,0.0,0.0,0.02089999999999992,-5.498166666666667,-5.498166666666667,-0.5177,-0.355,0.006249999999999867,0.387,66.931,-0.009600000000000001,-0.206675,-0.4800000000000004,100.0,1.0,1.0,206.37333333333333,0.0,0.0,0.0,0.0,0.0,0.0,0.0,8747.4,0.0,55.0,5.0,240.92000000000002,0.0,0.0,0.0,0.0,0.0,0.0,1.0,0.0,0.5040000000000013,0.5040000000000013,0.0,0.0,0.0,55.0,616.79921,10000.0,85.000001,85.000001,85.000001,85.000001,395.0,0.0,0.0,0.0,1.0,333.33500000000004,53.482,53.482,47.623,47.623,34.0,-21.095,22.706,-30.566666666666663,29.65,0.0,1783.263,-0.6149999999999984,100.0,27.723,27.354,42.769999999999996,42.7,0.0,0.0,100.0,0.0,0.0,0.0,0.0,2888.75,2859.3,4326.5,4275.1,306.0835,305.579,314.2795,314.1575,21.875,20.5622,21.862099999999998,21.3931,314.999998,314.999998,324.999988,324.999988,99.55895714285714,99.50728333333333,99.56604285714286,99.54631428571429,0.09175000000000022,-0.04699999999999993,-0.11716666666666664,0.10716666666666685,-0.02833333333332888,-0.041666666666671404,1.4883333333333333,1.455,37.719,29.514,37.638,34.707,56.117999999999995,34.822,59.28,52.091,54.043,33.974000000000004,57.8855,50.4345,53.205,33.5295,57.820499999999996,49.853,-0.129,-0.024499999999999966,0.10749500000000001,0.11023000000000001,0.0,209.57999999999998,209.62,206.37333333333333,206.37333333333333,0.0,0.0
11,0.0,0.0,0.0,1.0,1.0,0.0,0.0,1.0,0.0,100.0,1.0,1.1856,26.0,0.0,0.0,0.0,59.999996,0.0,26.0,26.0,26.0,26.0,0.026000000000000023,0.2619,-0.07125000000000001,293.533,-2.7052,-2.6875,-1.5902,-1.5242,-239.06,216.0875,190.76825,0.0,0.0,0.0,0.0,0.022599999999999953,-5.498166666666667,-5.498166666666667,-0.561,-0.26766666666666666,0.03325,0.31499999999999995,67.069,0.012100000000000001,-0.2371,-0.6660000000000004,100.0,1.0,1.0,207.12,0.0,0.0,0.0,0.0,0.0,0.0,0.0,8779.1,0.0,55.0,5.0,241.42000000000002,1.0,0.0,0.0,0.0,0.0,0.0,1.0,0.0,0.5549999999999997,0.5549999999999997,0.0,0.0,1.0,55.0,616.79921,10000.0,85.000001,85.000001,85.000001,85.000001,395.0,0.0,0.0,0.0,1.0,166.665,52.856,52.856,49.286,49.286,34.0,-21.705,26.562,-23.983333333333327,27.14,0.0,1783.215,-0.6400000000000006,100.0,27.564,27.412,42.357,42.567,0.0,0.0,100.0,0.0,0.0,0.0,0.0,2998.625,3181.1,3683.375,3878.7,305.6785,304.73125,315.89825,315.227,21.8845,20.5676,21.8724,21.4021,314.999998,314.999998,324.999988,324.999988,99.55897142857143,99.50728333333333,99.56618571428571,99.54645714285714,0.11149999999999993,-0.018000000000000016,-0.08966666666666656,0.14116666666666666,-0.046666666666666856,-0.054999999999999716,1.6316666666666666,1.6019999999999999,37.778,29.548000000000002,37.703,34.763,56.104,34.8595,59.314499999999995,52.1515,54.028999999999996,34.009,57.918,50.4925,53.19,33.563,57.85,49.909666666666666,-0.129,-0.026000000000000023,0.1082,0.10511500000000001,0.0,210.005,210.055,207.12,207.12,0.0,0.0
12,0.0,0.0,0.0,1.0,1.0,0.0,0.0,1.0,0.0,100.0,1.0,1.1856,26.0,0.0,0.0,0.0,59.999996,0.0,26.0,26.0,26.0,26.0,0.04633333333333334,0.2896000000000001,0.0074,292.969,-2.7587,-2.6842,-1.552,-1.5241,-235.82999999999998,216.0625,190.7475,0.0,0.0,0.0,0.0,0.025466666666666526,-5.498166666666667,-5.498166666666667,-0.5464,0.3006666666666667,0.019749999999999934,0.6639999999999999,67.206,0.029900000000000003,-0.2068,-0.7420000000000009,100.0,1.0,1.0,207.31333333333333,0.0,0.0,0.0,0.0,0.0,0.0,0.0,8787.2,0.0,55.0,5.0,241.91333333333333,0.0,0.0,0.0,0.0,0.0,0.0,1.0,0.0,0.602999999999998,0.602999999999998,0.0,0.0,0.0,55.0,616.79921,10000.0,85.000001,85.000001,85.000001,85.000001,395.0,0.0,0.0,0.0,1.0,333.33500000000004,52.841,52.841,47.989,47.989,34.0,-21.884999999999998,27.1,-26.836666666666666,31.72,0.0,1783.166,-0.6550000000000011,100.0,27.473,27.562,42.294,42.456,0.0,0.0,100.0,0.0,0.0,0.0,0.0,3019.25,3193.6,4171.125,4227.3,305.6235,304.72175,314.65825,314.41375,21.8935,20.5728,21.8822,21.4105,314.999998,314.999998,324.999988,324.999988,99.55898571428571,99.5073,99.56632857142857,99.5466,0.12274999999999991,-0.006666666666666599,-0.0695,0.16433333333333322,-0.05333333333332746,-0.04999999999999716,1.5230000000000001,1.5044999999999997,37.834,29.58,37.763999999999996,34.8155,56.092,34.8955,59.351,52.2085,54.018,34.042,57.951499999999996,50.5475,53.178,33.595,57.881,49.964,-0.12649999999999995,-0.028000000000000025,0.11218000000000002,0.11200500000000001,0.0,210.46,210.51,207.31333333333333,207.31333333333333,0.0,0.0
13,0.0,0.0,0.0,1.0,1.0,0.0,0.0,1.0,0.0,100.0,1.0,1.1856,26.0,0.0,0.0,0.0,59.999996,0.0,26.0,26.0,26.0,26.0,0.07233333333333336,0.2856000000000001,0.054125,292.572,-2.7381,-2.6748000000000003,-1.59165,-1.5064000000000002,-232.2,216.035,190.7245,0.0,0.0,0.0,0.0,0.026866666666666594,-5.498166666666667,-5.498166666666667,-0.5392,-0.085,0.02562500000000001,0.9969999999999999,67.357,0.039,-0.21595,-0.879999999999999,100.0,1.0,1.0,207.71666666666667,0.0,0.0,0.0,0.0,0.0,0.0,0.0,8804.3,0.0,55.0,5.0,242.45666666666665,1.0,0.0,0.0,0.0,0.0,0.0,1.0,0.0,0.657,0.657,0.0,0.0,1.0,55.0,616.79921,10000.0,85.000001,85.000001,85.000001,85.000001,395.0,0.0,0.0,0.0,1.0,166.665,52.49,52.49,47.928,47.928,34.0,-20.785,28.1,-26.773333333333333,32.712500000000006,0.0,1783.112,-0.8599999999999994,100.0,27.799,27.772,42.552,42.99,0.0,0.0,100.0,0.0,0.0,0.0,0.0,3048.5,3192.4,4128.125,4367.4,305.5075,304.713,314.7265,314.0545,21.9037,20.5787,21.8933,21.4202,314.999998,314.999998,324.999988,324.999988,99.559,99.5073,99.56647142857143,99.54674285714286,0.15050000000000008,0.019000000000000128,-0.06183333333333341,0.16066666666666674,-0.051666666666669414,-0.05333333333332746,1.5066666666666668,1.4754999999999998,37.897999999999996,29.616500000000002,37.833,34.8765,56.081,34.936,59.391999999999996,52.2765,54.007,34.079499999999996,57.99,50.613,53.166,33.6305,57.916,50.028,-0.14649999999999996,-0.01200000000000001,0.11382,0.09909000000000001,0.0,210.905,210.965,207.71666666666667,207.71666666666667,0.0,0.0
14,0.0,0.0,0.0,1.0,1.0,0.0,0.0,1.0,0.0,100.0,1.0,1.1856,26.0,0.0,0.0,0.0,59.999996,0.0,26.0,26.0,26.0,26.0,0.07944444444444443,0.28600000000000003,-0.013525,292.816,-2.7342,-2.6185,-1.59605,-1.5127000000000002,-228.96,216.0125,190.7045,0.0,0.0,0.0,0.0,0.028766666666666607,-5.498166666666667,-5.498166666666667,-0.5489,-0.13,0.05187499999999989,1.428,67.489,0.051300000000000005,-0.22787500000000002,-1.0620000000000003,100.0,1.0,1.0,208.20333333333332,0.0,0.0,0.0,0.0,0.0,0.0,0.0,8825.0,0.0,55.0,5.0,242.93,0.0,0.0,0.0,0.0,0.0,0.0,1.0,0.0,0.7049999999999983,0.7049999999999983,0.0,0.0,0.0,55.0,616.79921,10000.0,85.000001,85.000001,85.000001,85.000001,395.0,0.0,0.0,0.0,1.0,333.33500000000004,52.643,52.643,48.126,48.126,34.0,-19.537499999999998,28.83,-24.556666666666672,32.0225,0.0,1783.062,-0.9499999999999993,100.0,27.711,27.814,42.504,43.166,0.0,0.0,100.0,0.0,0.0,0.0,0.0,2926.875,3252.0,3960.375,4213.7,305.851,304.55225,315.14425,314.442,21.9128,20.5838,21.903,21.4288,314.999998,314.999998,324.999988,324.999988,99.55901428571428,99.5073,99.56661428571428,99.5469,0.15700000000000003,0.034666666666666845,-0.04683333333333339,0.17666666666666675,-0.04333333333332945,-0.05833333333333002,1.5613333333333332,1.5185,37.955,29.649,37.894,34.93,56.071,34.974000000000004,59.4295,52.3395,53.997,34.1145,58.0245,50.673500000000004,53.155,33.664500000000004,57.947,50.08733333333333,-0.15300000000000002,0.0004999999999999449,0.10423,0.10865000000000001,0.0,211.305,211.37,208.20333333333332,208.20333333333332,0.0,0.0
15,0.0,0.0,0.0,1.0,1.0,0.0,0.0,1.0,0.0,100.0,1.0,1.1856,26.0,0.0,0.0,0.0,59.999996,0.0,26.0,26.0,26.0,26.0,0.10677777777777786,0.2784,0.0111,292.862,-2.7138,-2.5747,-1.6308500000000001,-1.4513,-225.72,215.995,190.684125,0.0,0.0,0.0,0.0,0.0306333333333334,-5.498166666666667,-5.498166666666667,-0.5403,0.2916666666666667,0.08437499999999987,1.089,67.62100000000001,0.0645,-0.2104,-1.1679999999999993,100.0,1.0,1.0,208.61,0.0,0.0,0.0,0.0,0.0,0.0,0.0,8842.2,0.0,55.0,5.0,243.40333333333334,1.0,0.0,0.0,0.0,0.0,0.0,1.0,0.0,0.7530000000000001,0.7530000000000001,0.0,0.0,1.0,55.0,616.79921,10000.0,85.000001,85.000001,85.000001,85.000001,395.0,0.0,0.0,0.0,1.0,166.665,52.811,52.811,48.218,48.218,34.0,-17.9225,28.302,-23.91666666666667,34.2775,0.0,1783.017,-0.9499999999999993,100.0,27.672,27.881,42.226,43.202,0.0,0.0,100.0,0.0,0.0,0.0,0.0,2793.375,3230.9,3932.125,4391.8,306.2255,304.60475,315.25825,314.03675,21.9217,20.5891,21.9127,21.4374,314.999998,314.999998,324.999988,324.999988,99.55904285714286,99.5073,99.56674285714286,99.54702857142857,0.16800000000000015,0.03633333333333333,-0.02949999999999997,0.20300000000000007,-0.03499999999999659,-0.061666666666667425,1.5536666666666665,1.499,38.010999999999996,29.6815,37.954,34.9835,56.062,35.0085,59.460499999999996,52.394999999999996,53.989000000000004,34.1465,58.0535,50.727000000000004,53.146,33.695,57.9735,50.14,-0.15300000000000002,-0.001000000000000112,0.10239000000000001,0.11222000000000001,0.0,211.715,211.81,208.61,208.61,0.0,0.0
16,0.0,0.0,0.0,1.0,1.0,0.0,0.0,1.0,0.0,100.0,1.0,1.1856,26.0,0.0,0.0,0.0,59.999996,0.0,26.0,26.0,26.0,26.0,0.11966666666666681,0.27980000000000005,-0.01565,292.877,-2.8002,-2.5892,-1.5977999999999999,-1.5147,-222.07,215.975,190.660875,0.0,0.0,0.0,0.0,0.03276666666666661,-5.498166666666667,-5.498166666666667,-0.5629000000000001,-0.68,0.0674999999999999,0.08899999999999997,67.769,0.0766,-0.22692500000000002,-1.2220000000000004,100.0,1.0,1.0,209.07333333333332,0.0,0.0,0.0,0.0,0.0,0.0,0.0,8861.8,0.0,55.0,5.0,243.94,0.0,0.0,0.0,0.0,0.0,0.0,1.0,0.0,0.8069999999999986,0.8069999999999986,0.0,0.0,0.0,55.0,616.79921,10000.0,85.000001,85.000001,85.000001,85.000001,395.0,0.0,0.0,0.0,1.0,166.665,52.658,52.658,48.019,48.019,34.0,-19.81,29.714,-22.67666666666667,33.04,0.0,1782.963,-0.8649999999999984,100.0,27.32,27.97,42.461,43.36,0.0,0.0,100.0,0.0,0.0,0.0,0.0,2983.5,3327.2,3904.375,4122.3,305.879,304.36725,315.296,314.59375,21.9315,20.595,21.9237,21.447,314.999998,314.999998,324.999988,324.999988,99.55905714285714,99.50731666666667,99.5669,99.54718571428572,0.17025000000000023,0.044333333333333336,-0.01766666666666661,0.21100000000000008,-0.03333333333333144,-0.05833333333333002,1.572,1.5185,38.072,29.719,38.022999999999996,35.044,56.049,35.0505,59.501,52.4615,53.976,34.1855,58.091,50.791,53.132,33.7325,58.0075,50.203,-0.14149999999999996,-0.007000000000000117,0.104275,0.11264,0.0,212.135,212.235,209.07333333333332,209.07333333333332,0.0,0.0
17,0.0,0.0,0.0,1.0,1.0,0.0,0.0,1.0,0.0,100.0,1.0,1.1856,26.0,0.0,0.0,0.0,59.999996,0.0,26.0,26.0,26.0,26.0,0.11177777777777775,0.2902,-0.026350000000000002,292.557,-2.7629,-2.5659,-1.6386,-1.4756,-218.81,215.96,190.6395,0.0,0.0,0.0,0.0,0.03466666666666651,-5.498166666666667,-5.498166666666667,-0.5502,0.5576666666666666,0.04937499999999995,0.754,67.9,0.0796,-0.206125,-1.1739999999999995,100.0,1.0,1.0,209.42333333333335,0.0,0.0,0.0,0.0,0.0,0.0,0.0,8876.7,0.0,55.0,5.0,244.41,1.0,0.0,0.0,0.0,0.0,0.0,1.0,0.0,0.8550000000000004,0.8550000000000004,0.0,0.0,1.0,55.0,616.79921,10000.0,85.000001,85.000001,85.000001,85.000001,395.0,0.0,0.0,0.0,1.0,333.33500000000004,52.475,52.475,47.867,47.867,34.0,-19.162499999999998,27.982,-25.25,33.8025,0.0,1782.913,-0.9699999999999989,100.0,27.804,28.244,42.259,43.304,0.0,0.0,100.0,0.0,0.0,0.0,0.0,2983.625,3161.4,4191.375,4323.7,305.749,304.8325,314.72175,314.249,21.9405,20.6004,21.9334,21.4556,314.999998,314.999998,324.999988,324.999988,99.55908571428571,99.50731666666667,99.56702857142857,99.54731428571428,0.1807500000000002,0.047666666666666746,-0.017833333333333368,0.20250000000000012,-0.03833333333332689,-0.07333333333333059,1.55,1.516,38.128,29.752499999999998,38.084,35.097,56.041,35.0895,59.5345,52.519999999999996,53.968,34.2215,58.122,50.8475,53.123000000000005,33.766999999999996,58.0355,50.25833333333333,-0.15349999999999997,-0.007500000000000062,0.10778000000000001,0.10083500000000001,0.0,212.57999999999998,212.675,209.42333333333335,209.42333333333335,0.0,0.0
18,0.0,0.0,0.0,1.0,1.0,0.0,0.0,1.0,0.0,100.0,1.0,1.1856,26.0,0.0,0.0,0.0,59.999996,0.0,26.0,26.0,26.0,26.0,0.13622222222222224,0.2862,-0.006775000000000001,292.45,-2.8017,-2.5343999999999998,-1.65815,-1.4188,-215.34,215.95,190.617125,0.0,0.0,0.0,0.0,0.036666666666666514,-5.498166666666667,-5.498166666666667,-0.5608000000000001,-0.512,0.07312499999999988,-0.19300000000000006,68.038,0.0824,-0.224025,-1.2279999999999998,100.0,1.0,1.0,209.86333333333334,0.0,0.0,0.0,0.0,0.0,0.0,0.0,8895.3,0.0,55.0,5.0,244.91,0.0,0.0,0.0,0.0,0.0,0.0,1.0,0.0,0.9059999999999988,0.9059999999999988,0.0,0.0,0.0,55.0,616.79921,10000.0,85.000001,85.000001,85.000001,85.000001,395.0,0.0,0.0,0.0,1.0,166.665,52.292,52.292,47.684,47.684,34.0,-19.9375,29.747999999999998,-24.78,31.9225,0.0,1782.863,-1.174999999999999,100.0,27.387,28.269,42.495000000000005,43.817,0.0,0.0,100.0,0.0,0.0,0.0,0.0,3111.25,3302.4,4058.75,4195.4,305.604,304.28925,315.03425,314.45475,21.9498,20.606,21.9438,21.4648,314.999998,314.999998,324.999988,324.999988,99.5591,99.50731666666667,99.56717142857143,99.54747142857143,0.18774999999999986,0.05833333333333357,-0.022833333333333372,0.2018333333333333,-0.05666666666667197,-0.02833333333332888,1.5613333333333332,1.5274999999999999,38.186,29.7875,38.149,35.155,56.032,35.1295,59.573,52.5845,53.959,34.2585,58.1575,50.9095,53.113,33.803,58.068,50.31933333333333,-0.16999999999999993,0.011499999999999955,0.10472500000000001,0.10769500000000001,0.0,212.99,213.055,209.86333333333334,209.86333333333334,0.0,0.0
19,0.0,0.0,0.0,1.0,1.0,0.0,0.0,1.0,0.0,100.0,1.0,1.1856,26.0,0.0,0.0,0.0,59.999996,0.0,26.0,26.0,26.0,26.0,0.16599999999999993,0.30310000000000015,0.028125,292.053,-2.7752,-2.5221,-1.6754,-1.4002,-212.07,215.9425,190.595875,0.0,0.0,0.0,0.0,0.03856666666666653,-5.498166666666667,-5.498166666666667,-0.5518000000000001,0.8096666666666666,0.08599999999999985,-0.43599999999999994,68.168,0.0906,-0.211975,-1.5899999999999999,100.0,1.0,1.0,210.24666666666667,0.0,0.0,0.0,0.0,0.0,0.0,0.0,8911.7,0.0,55.0,5.0,245.37333333333333,1.0,0.0,0.0,0.0,0.0,0.0,1.0,0.0,0.9540000000000006,0.9540000000000006,0.0,0.0,1.0,55.0,616.79921,10000.0,85.000001,85.000001,85.000001,85.000001,395.0,0.0,0.0,0.0,1.0,333.33500000000004,51.697,51.697,47.668,47.668,34.0,-18.724999999999998,30.614,-24.75333333333333,34.3475,0.0,1782.814,-1.5350000000000001,100.0,27.89,28.768,42.224000000000004,43.786,0.0,0.0,100.0,0.0,0.0,0.0,0.0,3131.125,3319.3,4151.875,4398.7,305.428,304.14325,314.8735,314.01875,21.9587,20.6115,21.9535,21.473399999999998,314.999998,314.999998,324.999988,324.999988,99.55912857142857,99.50733333333334,99.5673,99.54761428571429,0.21499999999999986,0.0733333333333337,-0.005499999999999949,0.21666666666666679,-0.041666666666671404,-0.051666666666669414,1.5553333333333335,1.504,38.242000000000004,29.8215,38.209,35.2085,56.025999999999996,35.1715,59.6055,52.644,53.954,34.2975,58.188,50.967,53.105999999999995,33.84,58.0955,50.376,-0.19799999999999995,0.03749999999999998,0.10734,0.09898000000000001,0.0,213.39,213.51999999999998,210.24666666666667,210.24666666666667,0.0,0.0
20,0.0,0.0,0.0,1.0,1.0,0.0,0.0,1.0,0.0,100.0,1.0,1.1856,26.0,0.0,0.0,0.0,59.999996,0.0,26.0,26.0,26.0,26.0,0.2032222222222222,0.2752000000000001,0.047150000000000004,292.328,-2.8256,-2.5842,-1.60805,-1.5147,-208.59,215.94,190.573625,0.0,0.0,0.0,0.0,0.04059999999999997,-5.498166666666667,-5.498166666666667,-0.554,-1.1916666666666669,0.09749999999999992,0.6339999999999999,68.307,0.1056,-0.220475,-2.034,100.0,1.0,1.0,210.55666666666667,0.0,0.0,0.0,0.0,0.0,0.0,0.0,8924.8,0.0,55.0,5.0,245.87666666666667,0.0,0.0,0.0,0.0,0.0,0.0,0.0,0.0,1.004999999999999,1.004999999999999,0.0,0.0,0.0,55.0,616.79921,10000.0,85.000001,85.000001,85.000001,85.000001,395.0,0.0,0.0,0.0,1.0,166.665,52.856,52.856,46.906,46.906,34.0,-15.689999999999998,31.796,-22.64666666666667,38.0525,0.0,1782.764,-1.7799999999999994,100.0,27.394,28.337,42.781,44.245999999999995,0.0,0.0,100.0,0.0,0.0,0.0,0.0,2751.25,3278.6,4089.875,4400.8,306.565,304.4875,314.7935,313.848,21.9678,20.6171,21.964,21.4828,314.999998,314.999998,324.999988,324.999988,99.55915714285715,99.50735,99.56745714285714,99.54775714285714,0.2360000000000002,0.10666666666666647,0.016000000000000014,0.244,-0.03833333333332689,-0.045000000000001705,1.5116666666666667,1.4415,38.299,29.857,38.275,35.2675,56.016,35.2145,59.6455,52.710499999999996,53.944,34.3375,58.2245,51.031,53.095,33.8785,58.129,50.43866666666666,-0.20650000000000002,0.056499999999999995,0.11447000000000002,0.10734500000000001,0.0,213.78,213.92000000000002,210.55666666666667,210.55666666666667,0.0,0.0
21,0.0,0.0,0.0,1.0,1.0,0.0,0.0,1.0,0.0,100.0,1.0,1.1856,26.0,0.0,0.0,0.0,59.999996,0.0,26.0,26.0,26.0,26.0,0.19611111111111112,0.26750000000000007,-0.059725,292.648,-2.7507,-2.6254,-1.68255,-1.4658,-205.31,215.94,190.551875,0.0,0.0,0.0,0.0,0.04249999999999998,-5.498166666666667,-5.498166666666667,-0.5796,0.4936666666666667,0.09074999999999989,0.4119999999999999,68.43,0.126,-0.226275,-2.268,100.0,1.0,1.0,211.20333333333332,0.0,0.0,0.0,0.0,0.0,0.0,0.0,8952.2,0.0,55.0,5.0,246.32333333333332,1.0,0.0,0.0,0.0,0.0,0.0,0.0,0.0,1.0530000000000008,1.0530000000000008,0.0,0.0,1.0,55.0,616.79921,10000.0,85.000001,85.000001,85.000001,85.000001,395.0,0.0,0.0,0.0,1.0,333.33500000000004,52.185,52.185,48.355000000000004,48.355000000000004,34.0,-16.5325,32.02,-20.133333333333333,34.91,0.0,1782.716,-1.2400000000000002,100.0,27.684,28.617,42.055,43.929,0.0,0.0,100.0,0.0,0.0,0.0,0.0,2900.5,3324.8,3863.375,4112.1,305.933,304.2505,315.54275,314.73425,21.9765,20.622700000000002,21.973399999999998,21.4913,314.999998,314.999998,324.999988,324.999988,99.55918571428572,99.50735,99.56758571428571,99.5479,0.2277499999999999,0.08733333333333348,0.043333333333333224,0.27016666666666667,-0.05333333333332746,-0.045000000000001705,1.6416666666666666,1.5459999999999998,38.352999999999994,29.8915,38.334,35.320499999999996,56.010999999999996,35.2585,59.675,52.7675,53.938,34.378,58.2525,51.0865,53.088,33.917500000000004,58.1535,50.49333333333333,-0.18299999999999994,0.02200000000000002,0.10693000000000001,0.10902500000000001,0.0,214.185,214.345,211.20333333333332,211.20333333333332,0.0,0.0
22,0.0,0.0,0.0,1.0,1.0,0.0,0.0,1.0,0.0,100.0,1.0,1.1856,26.0,0.0,0.0,0.0,59.999996,0.0,26.0,26.0,26.0,26.0,0.16788888888888898,0.25860000000000016,-0.00125,292.13,-2.7395,-2.6217,-1.6733500000000001,-1.4596,-201.61,215.9475,190.52675,0.0,0.0,0.0,0.0,0.04466666666666652,-5.498166666666667,-5.498166666666667,-0.5576,0.014,0.09437499999999988,0.72,68.578,0.13670000000000002,-0.20747500000000002,-1.154,100.0,1.0,1.0,211.42333333333335,0.0,0.0,0.0,0.0,0.0,0.0,0.0,8961.4,0.0,55.0,5.0,246.85333333333335,0.0,0.0,0.0,0.0,0.0,0.0,0.0,0.0,1.1069999999999993,1.1069999999999993,0.0,0.0,0.0,55.0,616.79921,10000.0,85.000001,85.000001,85.000001,85.000001,395.0,0.0,0.0,0.0,1.0,166.665,52.382999999999996,52.382999999999996,47.134,47.134,34.0,-18.715,28.212,-22.97,37.9725,0.0,1782.663,0.21999999999999886,100.0,27.732,28.693,42.516,44.263000000000005,0.0,0.0,100.0,0.0,0.0,0.0,0.0,2776.625,3264.4,4126.875,4448.7,306.275,304.41125,314.80625,313.92075,21.9863,20.6288,21.9845,21.5012,314.999998,314.999998,324.999988,324.999988,99.5592,99.50736666666667,99.56774285714286,99.54807142857143,0.1512500000000001,0.012333333333333307,0.030833333333333268,0.2553333333333332,-0.046666666666666856,-0.04333333333332945,1.4986666666666668,1.46,38.414,29.93,38.403,35.3825,56.0,35.303,59.716,52.838,53.928,34.419,58.2905,51.153999999999996,53.076,33.957,58.188,50.559666666666665,-0.0685,-0.09149999999999991,0.108105,0.10279,0.0,214.67000000000002,214.76,211.42333333333335,211.42333333333335,0.0,0.0
23,0.0,0.0,0.0,1.0,1.0,0.0,0.0,1.0,0.0,100.0,1.0,1.1856,26.0,0.0,0.0,0.0,59.999996,0.0,26.0,26.0,26.0,26.0,0.09877777777777785,0.25639999999999996,-0.0173,292.099,-2.7456,-2.5963000000000003,-1.5766,-1.5495999999999999,-198.32,215.95749999999998,190.504625,0.0,0.0,0.0,0.0,0.046566666666666534,-5.498166666666667,-5.498166666666667,-0.5765,-0.3323333333333333,0.06412499999999999,0.052000000000000046,68.70400000000001,0.1047,-0.23390000000000002,0.11599999999999966,100.0,1.0,1.0,211.92333333333335,0.0,0.0,0.0,0.0,0.0,0.0,0.0,8982.7,0.0,55.0,5.0,247.30666666666667,1.0,0.0,0.0,0.0,0.0,0.0,0.0,0.0,1.1550000000000011,1.1550000000000011,0.0,0.0,1.0,55.0,616.79921,10000.0,85.000001,85.000001,85.000001,85.000001,395.0,0.0,0.0,0.0,1.0,166.665,51.666,51.666,48.096000000000004,48.096000000000004,34.0,-23.607499999999998,26.323999999999998,-22.75,33.065,0.0,1782.614,0.7699999999999996,100.0,28.079,28.6,42.78,44.346000000000004,0.0,0.0,100.0,0.0,0.0,0.0,0.0,3154.875,3270.7,3898.125,4045.5,305.182,304.48025,315.2875,314.7835,21.995,20.6343,21.9943,21.509900000000002,314.999998,314.999998,324.999988,324.999988,99.55921428571429,99.50736666666667,99.56788571428571,99.54821428571428,0.10950000000000015,-0.024666666666666615,-0.021166666666666556,0.21716666666666673,-0.021666666666668277,-0.06833333333332803,1.5276666666666667,1.5270000000000001,38.469,29.964,38.464,35.437,55.989000000000004,35.3405,59.751,52.897999999999996,53.917,34.454,58.3225,51.212,53.064,33.9905,58.217,50.61666666666667,-0.02300000000000002,-0.13250000000000006,0.11176000000000001,0.10850000000000001,0.0,215.07,215.10000000000002,211.92333333333335,211.92333333333335,0.0,0.0
24,0.0,0.0,0.0,1.0,1.0,0.0,0.0,1.0,0.0,100.0,1.0,1.1856,26.0,0.0,0.0,0.0,59.999996,0.0,26.0,26.0,26.0,26.0,0.012555555555555653,0.2773000000000001,-0.10185000000000001,292.389,-2.7426,-2.6336,-1.5944,-1.5152,-195.01999999999998,215.97,190.482125,0.0,0.0,0.0,0.0,0.04849999999999999,-5.498166666666667,-5.498166666666667,-0.5780000000000001,-0.5046666666666667,0.04525000000000001,0.44799999999999995,68.832,0.0495,-0.21660000000000001,0.9179999999999993,100.0,1.0,1.0,212.22,0.0,0.0,0.0,0.0,0.0,0.0,0.0,8995.2,0.0,55.0,5.0,247.76666666666665,0.0,0.0,0.0,0.0,0.0,0.0,0.0,0.0,1.2029999999999994,1.2029999999999994,0.0,0.0,0.0,55.0,616.79921,10000.0,85.000001,85.000001,85.000001,85.000001,395.0,0.0,0.0,0.0,1.0,333.33500000000004,52.902,52.902,47.104,47.104,34.0,-22.48,22.282,-29.003333333333337,29.8125,0.0,1782.565,0.9499999999999993,100.0,27.991,28.21,43.042,43.977000000000004,0.0,0.0,100.0,0.0,0.0,0.0,0.0,2843.5,3014.6,4287.25,4145.1,306.1665,305.29725,314.364,314.63825,22.0038,20.639499999999998,22.0041,21.5185,314.999998,314.999998,324.999988,324.999988,99.55922857142858,99.50736666666667,99.56801428571428,99.54835714285714,0.06725000000000003,-0.07299999999999995,-0.07599999999999996,0.14283333333333337,-0.03499999999999659,-0.05333333333332746,1.4826666666666668,1.5105,38.524,29.996499999999997,38.525,35.4905,55.974999999999994,35.3765,59.786,52.955,53.903,34.4875,58.355000000000004,51.266999999999996,53.05,34.022999999999996,58.247,50.67066666666666,-0.00649999999999995,-0.15749999999999997,0.10122,0.111695,0.0,215.51999999999998,215.465,212.22,212.22,0.0,0.0
25,0.0,0.0,0.0,1.0,1.0,0.0,0.0,1.0,0.0,100.0,1.0,1.1856,26.0,0.0,0.0,0.0,59.999996,0.0,26.0,26.0,26.0,26.0,-0.06855555555555548,0.2622,-0.07165,292.313,-2.766,-2.6374,-1.57435,-1.5511,-191.3,215.985,190.455375,0.0,0.0,0.0,0.0,0.05063333333333331,-5.498166666666667,-5.498166666666667,-0.6142000000000001,0.03833333333333334,0.008000000000000007,-0.8730000000000002,68.97200000000001,-0.015600000000000001,-0.22692500000000002,1.3840000000000003,100.0,1.0,1.0,212.80333333333334,0.0,0.0,0.0,0.0,0.0,0.0,0.0,9020.0,0.0,55.0,5.0,248.27333333333334,1.0,0.0,0.0,0.0,0.0,0.0,0.0,0.0,1.256999999999998,1.256999999999998,0.0,0.0,1.0,55.0,616.79921,10000.0,85.000001,85.000001,85.000001,85.000001,395.0,0.0,0.0,0.0,1.0,166.665,51.727000000000004,51.727000000000004,48.004,48.004,34.0,-28.545,22.922,-29.266666666666666,25.245,0.0,1782.512,1.0199999999999996,100.0,28.201,28.179000000000002,43.057,43.329,0.0,0.0,100.0,0.0,0.0,0.0,0.0,3261.875,3313.0,3978.0,3957.3,305.0265,304.3885,315.2085,315.086,22.0137,20.6454,22.015,21.528,314.999998,314.999998,324.999988,324.999988,99.55922857142858,99.50738333333334,99.56817142857143,99.5485,0.020500000000000185,-0.1156666666666668,-0.14483333333333337,0.08000000000000007,-0.03166666666666629,-0.07666666666666799,1.5396666666666667,1.5985,38.586,30.034,38.594,35.55,55.957,35.4215,59.823499999999996,53.016,53.885999999999996,34.528999999999996,58.39,51.326,53.032,34.0625,58.2785,50.72833333333333,-0.0004999999999999449,-0.16300000000000003,0.10773500000000001,0.10329,0.0,215.965,215.88,212.80333333333334,212.80333333333334,0.0,0.0
26,0.0,0.0,0.0,1.0,1.0,0.0,0.0,1.0,0.0,100.0,1.0,1.1856,26.0,0.0,0.0,0.0,59.999996,0.0,26.0,26.0,26.0,26.0,-0.12188888888888894,0.2744,0.072425,291.183,-2.6719,-2.7545,-1.588,-1.5801,-187.98000000000002,215.995,190.431,0.0,0.0,0.0,0.0,0.05256666666666654,-5.498166666666667,-5.498166666666667,-0.5717,0.8226666666666667,-0.04875000000000007,0.06299999999999994,69.1,-0.060500000000000005,-0.19565000000000002,1.5559999999999992,100.0,1.0,1.0,212.93333333333334,0.0,0.0,0.0,0.0,0.0,0.0,0.0,9025.5,0.0,55.0,5.0,248.73333333333335,0.0,0.0,0.0,0.0,0.0,0.0,0.0,0.0,1.3049999999999997,1.3049999999999997,0.0,0.0,0.0,55.0,616.79921,10000.0,85.000001,85.000001,85.000001,85.000001,395.0,0.0,0.0,0.0,1.0,333.33500000000004,51.376,51.376,46.249,46.249,34.0,-28.18,21.036,-38.11666666666666,27.6175,0.0,1782.463,0.8449999999999989,100.0,29.32,28.498,43.976,43.313,0.0,0.0,100.0,0.0,0.0,0.0,0.0,3231.875,3076.9,4600.375,4416.1,304.958,304.99175,313.723,314.0285,22.0229,20.6508,22.025,21.5366,314.999998,314.999998,324.999988,324.999988,99.55924285714286,99.5074,99.56831428571428,99.54864285714285,0.007000000000000117,-0.1443333333333332,-0.18699999999999994,0.04249999999999998,-0.05833333333333002,-0.04833333333333201,1.4253333333333333,1.472,38.643,30.0675,38.656,35.604,55.945,35.464,59.8635,53.073,53.875,34.5685,58.4275,51.3805,53.019999999999996,34.1005,58.313,50.781333333333336,-0.015000000000000013,-0.15650000000000008,0.11249,0.112475,0.0,216.41500000000002,216.29000000000002,212.93333333333334,212.93333333333334,0.0,0.0
27,0.0,0.0,0.0,1.0,1.0,0.0,0.0,1.0,0.0,100.0,1.0,1.1856,26.0,0.0,0.0,0.0,59.999996,0.0,26.0,26.0,26.0,26.0,-0.12588888888888894,0.2541,-0.029400000000000003,291.672,-2.6194,-2.7445,-1.5623,-1.6688,-184.45,216.005,190.4065,0.0,0.0,0.0,0.0,0.05463333333333331,-5.498166666666667,-5.498166666666667,-0.6005,-1.0703333333333334,-0.06987500000000013,-0.8839999999999999,69.232,-0.0898,-0.24532500000000002,1.5459999999999994,100.0,1.0,1.0,213.46333333333334,0.0,0.0,0.0,0.0,0.0,0.0,0.0,9047.9,0.0,55.0,5.0,249.21,1.0,0.0,0.0,0.0,0.0,0.0,0.0,0.0,1.355999999999998,1.355999999999998,0.0,0.0,1.0,55.0,616.79921,10000.0,85.000001,85.000001,85.000001,85.000001,395.0,0.0,0.0,0.0,1.0,166.665,51.743,51.743,46.799,46.799,34.0,-29.61,19.025999999999996,-35.06666666666666,23.375,0.0,1782.413,0.745000000000001,100.0,28.977,28.265,44.79,43.739000000000004,0.0,0.0,100.0,0.0,0.0,0.0,0.0,3312.375,2975.3,4159.25,3932.9,304.9065,305.259,314.69275,315.01275,22.0324,20.6562,22.035800000000002,21.5459,314.999998,314.999998,324.999988,324.999988,99.55924285714286,99.50741666666667,99.56847142857143,99.54878571428571,-0.023749999999999938,-0.17199999999999993,-0.22199999999999998,0.007000000000000117,-0.041666666666671404,-0.041666666666671404,1.4743333333333333,1.5459999999999998,38.703,30.101,38.724000000000004,35.662,55.929,35.507,59.907,53.1335,53.86,34.608000000000004,58.468,51.439,53.004000000000005,34.138,58.35,50.838,-0.025499999999999967,-0.14549999999999996,0.10666,0.11389500000000001,0.0,216.755,216.635,213.46333333333334,213.46333333333334,0.0,0.0
28,0.0,0.0,0.0,1.0,1.0,0.0,0.0,1.0,0.0,100.0,1.0,1.1856,26.0,0.0,0.0,0.0,59.999996,0.0,26.0,26.0,26.0,26.0,-0.14800000000000002,0.26890000000000014,-0.03995,291.87,-2.6374,-2.7395,-1.5045000000000002,-1.6371,-181.13,216.01,190.382625,0.0,0.0,0.0,0.0,0.05656666666666654,-5.498166666666667,-5.498166666666667,-0.6024,0.6686666666666666,-0.08187500000000014,-0.6280000000000001,69.354,-0.10790000000000001,-0.218175,1.4640000000000004,100.0,1.0,1.0,213.92000000000002,0.0,0.0,0.0,0.0,0.0,0.0,0.0,9067.3,0.0,55.0,5.0,249.65,0.0,0.0,0.0,0.0,0.0,0.0,0.0,0.0,1.404,1.404,0.0,0.0,0.0,55.0,616.79921,10000.0,85.000001,85.000001,85.000001,85.000001,395.0,0.0,0.0,0.0,1.0,333.33500000000004,51.743,51.743,47.531,47.531,34.0,-30.5375,18.4,-34.96666666666667,22.3925,0.0,1782.364,0.5199999999999996,100.0,29.165,28.115000000000002,44.203,43.086,0.0,0.0,100.0,0.0,0.0,0.0,0.0,3383.375,2906.0,4179.5,4035.6000000000004,304.714,305.44925,314.759,314.91075,22.0416,20.6613,22.0455,21.5543,314.999998,314.999998,324.999988,324.999988,99.55925714285715,99.50745,99.5686,99.54892857142858,-0.024499999999999966,-0.17433333333333323,-0.23949999999999994,-0.012666666666666604,-0.045000000000001705,-0.05833333333333002,1.521,1.5745,38.76,30.133499999999998,38.784,35.7145,55.917,35.5485,59.941,53.186,53.849000000000004,34.646,58.5,51.489,52.992000000000004,34.1745,58.3795,50.887,-0.04349999999999998,-0.12850000000000006,0.107965,0.10473,0.0,217.19,217.06,213.92000000000002,213.92000000000002,0.0,0.0
29,0.0,0.0,0.0,1.0,1.0,0.0,0.0,1.0,0.0,100.0,1.0,1.1856,26.0,0.0,0.0,0.0,59.999996,0.0,26.0,26.0,26.0,26.0,-0.15855555555555556,0.2673000000000001,0.004475,291.443,-2.5708,-2.8031,-1.5346000000000002,-1.6229,-177.59,216.0125,190.35625,0.0,0.0,0.0,0.0,0.058633333333333315,-5.498166666666667,-5.498166666666667,-0.6067,-0.7633333333333334,-0.08174999999999999,0.71,69.489,-0.1073,-0.21832500000000002,1.0600000000000005,100.0,1.0,1.0,214.16333333333333,0.0,0.0,0.0,0.0,0.0,0.0,0.0,9077.6,0.0,55.0,5.0,250.13333333333333,1.0,0.0,0.0,0.0,0.0,0.0,0.0,0.0,1.4549999999999983,1.4549999999999983,0.0,0.0,1.0,55.0,616.79921,10000.0,85.000001,85.000001,85.000001,85.000001,395.0,0.0,0.0,0.0,1.0,333.33500000000004,51.635999999999996,51.635999999999996,46.509,46.509,34.0,-29.0925,20.964,-35.92666666666666,24.802500000000002,0.0,1782.314,0.45500000000000185,100.0,29.048000000000002,27.772,44.818,43.236000000000004,0.0,0.0,100.0,0.0,0.0,0.0,0.0,3315.875,3117.2,4284.75,4191.3,304.7235,304.86375,314.343,314.51,22.051,20.6667,22.0562,21.5635,314.999998,314.999998,324.999988,324.999988,99.55925714285715,99.50746666666667,99.56875714285714,99.54907142857142,-0.016000000000000014,-0.16366666666666663,-0.21850000000000003,0.010666666666666602,-0.054999999999999716,-0.036666666666668846,1.4633333333333334,1.5030000000000001,38.819,30.167,38.851,35.772,55.900999999999996,35.591499999999996,59.984,53.246,53.834,34.6855,58.5405,51.5465,52.976,34.212,58.417,50.943,-0.046499999999999986,-0.11699999999999999,0.109295,0.11042500000000001,0.0,217.565,217.445,214.16333333333333,214.16333333333333,0.0,0.0
30,0.0,0.0,0.0,1.0,1.0,0.0,0.0,1.0,0.0,100.0,1.0,1.1856,26.0,0.0,0.0,0.0,59.999996,0.0,26.0,26.0,26.0,26.0,-0.132,0.2674000000000001,0.032125,291.092,-2.6285,-2.787,-1.4751,-1.6972,-174.04,216.01,190.32975,0.0,0.0,0.0,0.0,0.060666666666666536,-5.498166666666667,-5.498166666666667,-0.6021000000000001,0.8343333333333334,-0.08574999999999999,-0.5180000000000002,69.618,-0.099,-0.21695,1.072000000000001,100.0,1.0,1.0,214.60666666666668,0.0,0.0,0.0,0.0,0.0,0.0,0.0,9096.4,0.0,55.0,5.0,250.60000000000002,0.0,0.0,0.0,0.0,0.0,0.0,1.0,0.0,1.5060000000000002,1.5060000000000002,0.0,0.0,0.0,55.0,616.79921,10000.0,85.000001,85.000001,85.000001,85.000001,395.0,0.0,0.0,0.0,1.0,166.665,50.903,50.903,46.89,46.89,34.0,-31.11,20.198,-35.95333333333333,25.255000000000003,0.0,1782.263,0.3099999999999987,100.0,29.789,28.597,44.558,43.32,0.0,0.0,100.0,0.0,0.0,0.0,0.0,3518.625,2997.9,4382.875,4154.1,304.271,305.26325,314.27275,314.48775,22.0609,20.6724,22.0667,21.5726,314.999998,314.999998,324.999988,324.999988,99.55925714285715,99.50748333333334,99.56891428571429,99.54922857142857,-0.00649999999999995,-0.15566666666666662,-0.22066666666666657,0.0023333333333332984,-0.051666666666669414,-0.04999999999999716,1.4583333333333333,1.5105,38.881,30.2025,38.917,35.829,55.89,35.6375,60.022999999999996,53.304,53.823,34.728,58.577,51.6025,52.965,34.253,58.45,50.99733333333333,-0.0675,-0.10899999999999999,0.103425,0.11288500000000001,0.0,217.985,217.89499999999998,214.60666666666668,214.60666666666668,0.0,0.0
31,0.0,0.0,0.0,1.0,1.0,0.0,0.0,1.0,0.0,100.0,1.0,1.1856,26.0,0.0,0.0,0.0,59.999996,0.0,26.0,26.0,26.0,26.0,-0.11988888888888893,0.26180000000000003,0.004125,291.031,-2.6954,-2.6694,-1.5249000000000001,-1.6714,-170.49,216.005,190.304,0.0,0.0,0.0,0.0,0.06273333333333331,-5.498166666666667,-5.498166666666667,-0.5924,-0.7856666666666666,-0.07374999999999998,0.611,69.75,-0.0847,-0.22345,0.597999999999999,100.0,1.0,1.0,214.93,0.0,0.0,0.0,0.0,0.0,0.0,0.0,9110.1,0.0,55.0,5.0,251.07333333333332,1.0,0.0,0.0,0.0,0.0,0.0,1.0,0.0,1.5569999999999986,1.5569999999999986,0.0,0.0,1.0,55.0,616.79921,10000.0,85.000001,85.000001,85.000001,85.000001,395.0,0.0,0.0,0.0,1.0,166.665,51.468,51.468,45.624,45.624,34.0,-27.884999999999998,21.004,-35.18333333333334,27.735,0.0,1782.213,0.21000000000000085,100.0,29.497,28.488,45.293,43.863,0.0,0.0,100.0,0.0,0.0,0.0,0.0,3200.5,3156.4,4364.0,4274.7,305.24,305.04175,314.15925,314.37075,22.0704,20.678,22.0774,21.582,314.999998,314.999998,324.999988,324.999988,99.55925714285715,99.5075,99.56907142857143,99.54937142857143,0.00649999999999995,-0.1343333333333332,-0.19099999999999995,0.038833333333333275,-0.04333333333332945,-0.036666666666668846,1.4536666666666667,1.471,38.94,30.237499999999997,38.983999999999995,35.8875,55.875,35.6815,60.0665,53.3655,53.809,34.7685,58.6175,51.661500000000004,52.949,34.2915,58.4875,51.05466666666666,-0.06599999999999995,-0.09600000000000009,0.109045,0.11339,0.0,218.345,218.285,214.93,214.93,0.0,0.0
32,0.0,0.0,0.0,1.0,1.0,0.0,0.0,1.0,0.0,100.0,1.0,1.1856,26.0,0.0,0.0,0.0,59.999996,0.0,26.0,26.0,26.0,26.0,-0.11622222222222212,0.2614000000000001,-0.048850000000000005,291.351,-2.6469,-2.7083,-1.5888499999999999,-1.5771000000000002,-167.14,215.995,190.279875,0.0,0.0,0.0,0.0,0.06469999999999998,-5.498166666666667,-5.498166666666667,-0.6107,0.21166666666666667,-0.09562500000000007,0.2669999999999999,69.869,-0.0746,-0.23042500000000002,0.6080000000000005,100.0,1.0,1.0,215.46333333333334,0.0,0.0,0.0,0.0,0.0,0.0,0.0,9132.7,0.0,55.0,5.0,251.50333333333333,0.0,0.0,0.0,0.0,0.0,0.0,1.0,0.0,1.6050000000000004,1.6050000000000004,0.0,0.0,0.0,55.0,616.79921,10000.0,85.000001,85.000001,85.000001,85.000001,395.0,0.0,0.0,0.0,1.0,333.33500000000004,51.208,51.208,46.829,46.829,34.0,-27.9,21.934,-33.21333333333333,25.22,0.0,1782.162,0.08000000000000185,100.0,29.531,28.547,44.799,43.6,0.0,0.0,100.0,0.0,0.0,0.0,0.0,3323.375,3102.8,4206.75,4109.9,304.7445,305.02075,314.75725,314.86325,22.0793,20.6833,22.0873,21.5906,314.999998,314.999998,324.999988,324.999988,99.55927142857144,99.50751666666666,99.5692,99.5495,0.027249999999999996,-0.11599999999999988,-0.1801666666666666,0.0491666666666668,-0.046666666666666856,-0.046666666666666856,1.5443333333333333,1.5590000000000002,38.995999999999995,30.2705,39.045,35.941,55.861000000000004,35.7225,60.101,53.419,53.796,34.8065,58.65,51.7125,52.936,34.3275,58.5175,51.10466666666667,-0.07999999999999996,-0.08650000000000002,0.10043,0.111615,0.0,218.735,218.675,215.46333333333334,215.46333333333334,0.0,0.0
33,0.0,0.0,0.0,1.0,1.0,0.0,0.0,1.0,0.0,100.0,1.0,1.1856,26.0,0.0,0.0,0.0,59.999996,0.0,26.0,26.0,26.0,26.0,-0.09311111111111103,0.25849999999999995,-0.028175000000000002,291.397,-2.6448,-2.743,-1.55375,-1.5895000000000001,-163.78,215.985,190.25475,0.0,0.0,0.0,0.0,0.06663333333333332,-5.498166666666667,-5.498166666666667,-0.6103000000000001,-0.35733333333333334,-0.08499999999999996,1.343,69.993,-0.06520000000000001,-0.21507500000000002,0.3979999999999997,100.0,1.0,1.0,215.71,0.0,0.0,0.0,0.0,0.0,0.0,0.0,9143.1,0.0,55.0,5.0,251.94666666666666,1.0,0.0,0.0,0.0,0.0,0.0,1.0,0.0,1.6529999999999987,1.6529999999999987,0.0,0.0,1.0,55.0,616.79921,10000.0,85.000001,85.000001,85.000001,85.000001,395.0,0.0,0.0,0.0,1.0,166.665,51.879999999999995,51.879999999999995,46.387,46.387,34.0,-25.552500000000002,22.008,-34.166666666666664,27.0225,0.0,1782.117,-0.05999999999999872,100.0,29.277,28.23,44.806,43.703,0.0,0.0,100.0,0.0,0.0,0.0,0.0,3149.625,3029.7,4317.0,4294.5,305.318,305.2885,314.38725,314.3265,22.0881,20.6884,22.0972,21.5993,314.999998,314.999998,324.999988,324.999988,99.55927142857144,99.50753333333333,99.56935714285714,99.54965714285714,0.040750000000000064,-0.10599999999999987,-0.17766666666666664,0.045666666666666744,-0.03999999999999915,-0.036666666666668846,1.4723333333333333,1.4809999999999999,39.051,30.302500000000002,39.108000000000004,35.9955,55.847,35.76,60.138,53.475,53.783,34.841,58.685,51.7665,52.922,34.3605,58.549,51.157,-0.08699999999999997,-0.07450000000000001,0.10436000000000001,0.10225000000000001,0.0,219.095,219.05,215.71,215.71,0.0,0.0
34,0.0,0.0,0.0,1.0,1.0,0.0,0.0,1.0,0.0,100.0,1.0,1.1856,26.0,0.0,0.0,0.0,59.999996,0.0,26.0,26.0,26.0,26.0,-0.07844444444444443,0.24460000000000015,-0.062825,291.824,-2.6645,-2.739,-1.5923,-1.6083,-160.0,215.9725,190.22525,0.0,0.0,0.0,0.0,0.0688333333333333,-5.498166666666667,-5.498166666666667,-0.6445000000000001,-0.7403333333333334,-0.0495000000000001,1.177,70.128,-0.0504,-0.226275,0.27399999999999913,100.0,1.0,1.0,216.21,0.0,0.0,0.0,0.0,0.0,0.0,0.0,9164.4,0.0,55.0,5.0,252.43666666666667,0.0,0.0,0.0,0.0,0.0,0.0,1.0,0.0,1.7070000000000007,1.7070000000000007,0.0,0.0,0.0,55.0,616.79921,10000.0,85.000001,85.000001,85.000001,85.000001,395.0,0.0,0.0,0.0,1.0,166.665,52.155,52.155,47.363,47.363,34.0,-24.7025,22.176,-31.423333333333332,27.64,0.0,1782.063,-0.0799999999999983,100.0,28.955,27.963,44.447,43.786,0.0,0.0,100.0,0.0,0.0,0.0,0.0,3073.75,2999.7,4064.5,4150.4,305.3605,305.31375,315.01975,314.62375,22.0979,20.6942,22.1082,21.609099999999998,314.999998,314.999998,324.999988,324.999988,99.55928571428572,99.50755,99.56951428571429,99.5498,0.053749999999999964,-0.09699999999999998,-0.16466666666666663,0.07483333333333331,-0.04999999999999716,-0.041666666666671404,1.5123333333333333,1.5234999999999999,39.111999999999995,30.3385,39.176,36.0565,55.831,35.801,60.176,53.5375,53.766999999999996,34.879,58.72,51.826,52.905,34.397,58.581,51.215333333333334,-0.09450000000000003,-0.0685,0.10725000000000001,0.11193000000000002,0.0,219.495,219.45,216.21,216.21,0.0,0.0
35,0.0,0.0,0.0,1.0,1.0,0.0,0.0,1.0,0.0,100.0,1.0,1.1856,26.0,0.0,0.0,0.0,59.999996,0.0,26.0,26.0,26.0,26.0,-0.05933333333333335,0.25560000000000005,-0.030950000000000002,291.779,-2.7208,-2.6912000000000003,-1.5631,-1.616,-156.63,215.95749999999998,190.197,0.0,0.0,0.0,0.0,0.07079999999999997,-5.498166666666667,-5.498166666666667,-0.6861,-0.5533333333333333,-0.05549999999999988,-0.17600000000000016,70.248,-0.0345,-0.230775,0.10599999999999987,100.0,1.0,1.0,216.62666666666667,0.0,0.0,0.0,0.0,0.0,0.0,0.0,9182.0,0.0,55.0,5.0,252.86666666666667,1.0,0.0,0.0,0.0,0.0,0.0,1.0,0.0,1.754999999999999,1.754999999999999,0.0,0.0,1.0,55.0,616.79921,10000.0,85.000001,85.000001,85.000001,85.000001,395.0,0.0,0.0,0.0,1.0,166.665,51.62,51.62,46.982,46.982,34.0,-26.535,24.922,-29.46,26.625,0.0,1782.014,-0.03999999999999915,100.0,28.698,28.249,44.165,43.424,0.0,0.0,100.0,0.0,0.0,0.0,0.0,3238.0,3328.0,4049.25,3948.7,305.1975,304.3735,314.985,315.1055,22.1064,20.6995,22.118,21.6176,314.999998,314.999998,324.999988,324.999988,99.55928571428572,99.50756666666666,99.56965714285714,99.54994285714285,0.04974999999999996,-0.08699999999999997,-0.137,0.0858333333333332,-0.04833333333333201,-0.03999999999999915,1.554,1.537,39.165,30.372,39.236999999999995,36.11,55.815,35.839,60.2095,53.5895,53.751999999999995,34.914,58.7515,51.8765,52.888999999999996,34.431,58.6095,51.26433333333333,-0.08999999999999997,-0.07650000000000001,0.10326,0.10857000000000001,0.0,219.86,219.835,216.62666666666667,216.62666666666667,0.0,0.0
36,0.0,0.0,0.0,1.0,1.0,0.0,0.0,1.0,0.0,100.0,1.0,1.1856,26.0,0.0,0.0,0.0,59.999996,0.0,26.0,26.0,26.0,26.0,-0.04999999999999993,0.27180000000000004,0.040975000000000004,290.848,-2.725,-2.6502,-1.53555,-1.607,-153.25,215.945,190.16725,0.0,0.0,0.0,0.0,0.07276666666666654,-5.498166666666667,-5.498166666666667,-0.666,0.3963333333333333,-0.08824999999999994,0.11399999999999988,70.37,-0.0241,-0.19892500000000002,0.17799999999999905,100.0,1.0,1.0,216.78,0.0,0.0,0.0,0.0,0.0,0.0,0.0,9188.4,0.0,55.0,5.0,253.30666666666667,0.0,0.0,0.0,0.0,0.0,0.0,1.0,0.0,1.8030000000000008,1.8030000000000008,0.0,0.0,0.0,55.0,616.79921,10000.0,85.000001,85.000001,85.000001,85.000001,395.0,0.0,0.0,0.0,1.0,333.33500000000004,51.285,51.285,46.158,46.158,34.0,-26.6575,23.63,-32.99666666666666,32.18,0.0,1781.965,-0.03500000000000014,100.0,29.234,28.642,44.272,43.623000000000005,0.0,0.0,100.0,0.0,0.0,0.0,0.0,3312.375,3177.4,4495.75,4551.4,304.884,304.87025,313.94225,313.7265,22.1152,20.705,22.1278,21.6263,314.999998,314.999998,324.999988,324.999988,99.55928571428572,99.50756666666666,99.5698,99.55008571428571,0.0665,-0.07733333333333325,-0.1273333333333333,0.09383333333333321,-0.04333333333332945,-0.04833333333333201,1.434,1.4615,39.22,30.4065,39.299,36.164500000000004,55.803,35.8795,60.245,53.6455,53.741,34.951,58.7845,51.9305,52.876999999999995,34.466,58.6395,51.31666666666666,-0.08450000000000002,-0.08150000000000013,0.10434,0.10665500000000001,0.0,220.29000000000002,220.245,216.78,216.78,0.0,0.0
