,ABS Active,ABS Enabled,AID Allow Tire Blankets,AID Auto Blip,AID Auto Clutch,AID Auto Shift,AID Fuel Rate,AID Ideal Line,AID Mech Damage,AID Stability,AID Tire Wear Rate,Air Density,Air Temp,Ballast,Best Lap Delta,Best Lap Time,Brake Bias,Brake Pos,Brake Temp FL,Brake Temp FR,Brake Temp RL,Brake Temp RR,CG Accel Lateral,CG Accel Longitudinal,CG Accel Vertical,CG Height,Camber FL,Camber FR,Camber RL,Camber RR,Car Coord X,Car Coord Y,Car Coord Z,Car Damage Front,Car Damage Left,Car Damage Rear,Car Damage Right,Car Pos Norm,Caster FL,Caster FR,Chassis Pitch Angle,Chassis Pitch Rate,Chassis Roll Angle,Chassis Roll Rate,Chassis Velocity X,Chassis Velocity Y,Chassis Velocity Z,Chassis Yaw Rate,Clutch Pos,DRS Active,DRS Available,Drive Train Speed,ERS Heat Charging,ERS Is Charging,ERS Max Energy,ERS Power Level,ERS Recovery Level,Engine Brake Setting,Engine Limiter,Engine RPM,Flags,Fuel Level,Gear,Ground Speed,HR Sample Clock,In Pit,KERS Charge,KERS Deployed Energy,KERS Input,KERS Max Energy,LR Sample Clock,Lap Invalidated,Lap Time,Lap Time2,Last Lap Time,Last Sector Time,MR Sample Clock,Max Fuel,Max Power,Max RPM,Max Sus Travel FL,Max Sus Travel FR,Max Sus Travel RL,Max Sus Travel RR,Max Torque,Max Turbo Boost,Num Tires Off Track,Penalties Enabled,Position,Raw Data Sample Rate,Ride Height FL,Ride Height FR,Ride Height RL,Ride Height RR,Road Temp,Self Align Torque FL,Self Align Torque FR,Self Align Torque RL,Self Align Torque RR,Session Lap Count,Session Time Left,Steering Angle,Surface Grip,Suspension Travel FL,Suspension Travel FR,Suspension Travel RL,Suspension Travel RR,TC Active,TC Enabled,Throttle Pos,Tire Dirt Level FL,Tire Dirt Level FR,Tire Dirt Level RL,Tire Dirt Level RR,Tire Load FL,Tire Load FR,Tire Load RL,Tire Load RR,Tire Loaded Radius FL,Tire Loaded Radius FR,Tire Loaded Radius RL,Tire Loaded Radius RR,Tire Pressure FL,Tire Pressure FR,Tire Pressure RL,Tire Pressure RR,Tire Radius FL,Tire Radius FR,Tire Radius RL,Tire Radius RR,Tire Rubber Grip FL,Tire Rubber Grip FR,Tire Rubber Grip RL,Tire Rubber Grip RR,Tire Slip Angle FL,Tire Slip Angle FR,Tire Slip Angle RL,Tire Slip Angle RR,Tire Slip Ratio FL,Tire Slip Ratio FR,Tire Slip Ratio RL,Tire Slip Ratio RR,Tire Temp Core FL,Tire Temp Core FR,Tire Temp Core RL,Tire Temp Core RR,Tire Temp Inner FL,Tire Temp Inner FR,Tire Temp Inner RL,Tire Temp Inner RR,Tire Temp Middle FL,Tire Temp Middle FR,Tire Temp Middle RL,Tire Temp Middle RR,Tire Temp Outer FL,Tire Temp Outer FR,Tire Temp Outer RL,Tire Temp Outer RR,Toe In FL,Toe In FR,Toe In RL,Toe In RR,Turbo Boost,Wheel Angular Speed FL,Wheel Angular Speed FR,Wheel Angular Speed RL,Wheel Angular Speed RR,Wind Direction,Wind Speed
0,0.0,0.0,0.0,1.0,1.0,0.0,0.0,1.0,0.0,100.0,1.0,1.1856,26.0,0.0,0.0,0.0,59.99999,0.0,26.0,26.0,26.0,26.0,-0.08366666666666656,0.31210000000000004,0.11510000000000001,293.823,-2.7182,-2.659125,-1.5107,-1.5626,-275.42,216.29500000000002,190.985875,0.0,0.0,0.0,0.0,0.0017333333333333645,-5.498166666666667,-5.498166666666667,-0.5441,1.623,-0.016125000000000167,-1.6189999999999998,65.494,-0.0378,-0.21202500000000002,1.0020000000000007,100.0,1.0,1.0,202.19,0.0,0.0,0.0,0.0,0.0,0.0,0.0,8570.1,0.0,55.0,5.0,235.74666666666667,0.0,0.0,0.0,0.0,0.0,0.0,0.0,0.0,0.006000000000000227,0.006000000000000227,0.0,0.0,0.0,55.0,616.79921,10000.0,85.0,85.0,85.0,85.0,395.0,0.0,0.0,0.0,1.0,20.0,52.551,52.551,49.21,49.21,34.0,-28.3125,23.189999999999998,-31.476666666666663,24.8275,0.0,1783.659,0.7950000000000017,100.0,27.236,27.229,40.528,40.549,0.0,0.0,100.0,0.0,0.0,0.0,0.0,3169.714285714286,3352.7,4262.0,3956.2,305.2825,304.03166666666664,314.53,314.9285,21.7861,20.5116,21.7636,21.306,314.99999,314.99999,324.99998,324.99998,99.55925714285715,99.50713333333333,99.56471428571429,99.54485714285714,-0.010000000000000009,-0.1246666666666667,-0.15933333333333335,0.0641666666666667,-0.05333333333332746,-0.03399999999999892,1.5373333333333332,1.548,37.163,29.197666666666667,37.022999999999996,34.1625,56.382,34.451,58.9,51.4675,54.289,33.6165,57.531,49.837,53.453,33.171,57.4925,49.266999999999996,-0.011499999999999955,-0.13649999999999984,0.10491,0.11531000000000001,0.0,205.26999999999998,205.15,202.19,202.19,0.0,0.0
1,0.0,0.0,0.0,1.0,1.0,0.0,0.0,1.0,0.0,100.0,1.0,1.1856,26.0,0.0,0.0,0.0,59.999996,0.0,26.0,26.0,26.0,26.0,-0.10988888888888892,0.2781,-0.00842,293.121,-2.6414999999999997,-2.7625,-1.5331000000000001,-1.5484,-272.08,216.29000000000002,190.966,0.0,0.0,0.0,0.0,0.0036999999999999256,-5.498166666666667,-5.498166666666667,-0.4969,-0.7996666666666666,-0.05049999999999999,-0.5329999999999995,65.647,-0.0507,-0.20042500000000002,1.306000000000001,100.0,1.0,1.0,202.38666666666666,0.0,0.0,0.0,0.0,0.0,0.0,0.0,8578.4,0.0,55.0,5.0,236.29666666666668,1.0,0.0,0.0,0.0,0.0,0.0,0.0,0.0,0.05699999999999861,0.05699999999999861,0.0,0.0,1.0,55.0,616.79921,10000.0,85.000001,85.000001,85.000001,85.000001,395.0,0.0,0.0,0.0,1.0,166.665,53.726,53.726,48.37,48.37,34.0,-26.045,18.18,-33.2,29.7075,0.0,1783.609,0.8850000000000016,100.0,27.526,26.903,42.803,41.805,0.0,0.0,100.0,0.0,0.0,0.0,0.0,3000.857142857143,2696.4,4211.25,4721.9,305.625,306.25266666666664,314.5105,313.07425,21.796,20.5166,21.7744,21.3151,314.999998,314.999998,324.999988,324.999988,99.55925714285715,99.50715,99.56485714285714,99.545,-0.008000000000000007,-0.1376666666666666,-0.1795,0.04499999999999993,-0.03833333333332689,-0.028999999999999915,1.4066666666666667,1.4529999999999998,37.224999999999994,29.229,37.09,34.2195,56.364999999999995,34.4905,58.945499999999996,51.534,54.272999999999996,33.653,57.573499999999996,49.900999999999996,53.436,33.206,57.532,49.32966666666667,-0.008000000000000007,-0.14700000000000024,0.10514000000000001,0.10747000000000001,0.0,205.715,205.575,202.38666666666666,202.38666666666666,0.0,0.0
2,0.0,0.0,0.0,1.0,1.0,0.0,0.0,1.0,0.0,100.0,1.0,1.1856,26.0,0.0,0.0,0.0,59.999996,0.0,26.0,26.0,26.0,26.0,-0.1531111111111111,0.3069000000000002,-0.08066000000000001,293.686,-2.607,-2.7891250000000003,-1.4956,-1.6009,-268.53,216.28,190.946,0.0,0.0,0.0,0.0,0.005766666666666587,-5.498166666666667,-5.498166666666667,-0.5466,0.433,-0.04037500000000005,2.5730000000000004,65.799,-0.0714,-0.24452500000000002,1.58,100.0,1.0,1.0,203.30333333333334,0.0,0.0,0.0,0.0,0.0,0.0,0.0,8617.3,0.0,55.0,5.0,236.8466666666667,0.0,0.0,0.0,0.0,0.0,0.0,0.0,0.0,0.11100000000000065,0.11100000000000065,0.0,0.0,0.0,55.0,616.79921,10000.0,85.000001,85.000001,85.000001,85.000001,395.0,0.0,0.0,0.0,1.0,166.665,52.444,52.444,50.156,50.156,34.0,-29.127499999999998,20.456,-29.193333333333335,21.0825,0.0,1783.553,0.7600000000000016,100.0,28.381,26.954,42.473,41.235,0.0,0.0,100.0,0.0,0.0,0.0,0.0,3253.0,3008.1,3728.375,3818.9,304.761,305.31266666666664,315.7135,315.4535,21.8068,20.5219,21.7853,21.3243,314.999998,314.999998,324.999988,324.999988,99.55927142857144,99.50716666666666,99.565,99.54515714285715,-0.023333333333333206,-0.14733333333333332,-0.2235,0.01100000000000012,-0.02833333333332888,-0.05699999999999861,1.6253333333333333,1.6880000000000002,37.292,29.261666666666667,37.158,34.277,56.352000000000004,34.532,58.9855,51.594,54.26,33.691,57.6105,49.9585,53.422,33.2425,57.566,49.385999999999996,-0.01849999999999996,-0.1339999999999999,0.11161000000000001,0.10849500000000001,0.0,206.16500000000002,206.05,203.30333333333334,203.30333333333334,0.0,0.0
3,0.0,0.0,0.0,1.0,1.0,0.0,0.0,1.0,0.0,100.0,1.0,1.1856,26.0,0.0,0.0,0.0,59.999996,0.0,26.0,26.0,26.0,26.0,-0.14300000000000002,0.29690000000000016,-0.0263,293.396,-2.7303,-2.69075,-1.5126,-1.5916000000000001,-265.56,216.26999999999998,190.9285,0.0,0.0,0.0,0.0,0.0074666666666665105,-5.498166666666667,-5.498166666666667,-0.509,0.3706666666666667,-0.010874999999999968,-0.9939999999999998,65.93299999999999,-0.08320000000000001,-0.201625,1.2479999999999993,100.0,1.0,1.0,203.40333333333334,0.0,0.0,0.0,0.0,0.0,0.0,0.0,8621.5,0.0,55.0,5.0,237.32999999999998,1.0,0.0,0.0,0.0,0.0,0.0,0.0,0.0,0.1559999999999988,0.1559999999999988,0.0,0.0,1.0,55.0,616.79921,10000.0,85.000001,85.000001,85.000001,85.000001,395.0,0.0,0.0,0.0,1.0,333.33500000000004,53.558,53.558,48.05,48.05,34.0,-26.134999999999998,17.945999999999998,-35.596666666666664,24.77,0.0,1783.508,0.615000000000002,100.0,27.852,27.094,42.444,41.511,0.0,0.0,100.0,0.0,0.0,0.0,0.0,2884.285714285714,2797.9,4348.625,4239.1,306.051,305.7316666666667,314.2615,314.27625,21.8154,20.5264,21.7946,21.3322,314.999998,314.999998,324.999988,324.999988,99.55927142857144,99.50718333333333,99.56512857142857,99.54527142857143,-0.02499999999999991,-0.15466666666666673,-0.2125,0.013666666666666716,-0.04833333333333201,-0.04199999999999804,1.463,1.513,37.346000000000004,29.29,37.216,34.326,56.337,34.5695,59.0215,51.6505,54.245999999999995,33.7255,57.644,50.0125,53.407,33.2755,57.5975,49.439,-0.02949999999999997,-0.12049999999999983,0.107615,0.11154000000000001,0.0,206.61,206.5,203.40333333333334,203.40333333333334,0.0,0.0
4,0.0,0.0,0.0,1.0,1.0,0.0,0.0,1.0,0.0,100.0,1.0,1.1856,26.0,0.0,0.0,0.0,59.999996,0.0,26.0,26.0,26.0,26.0,-0.15544444444444439,0.28380000000000005,-0.044860000000000004,293.671,-2.6577,-2.746625,-1.5258,-1.5998,-262.2,216.255,190.908875,0.0,0.0,0.0,0.0,0.009433333333333294,-5.498166666666667,-5.498166666666667,-0.5456,-0.723,-0.07799999999999985,-0.5439999999999996,66.08,-0.0852,-0.23927500000000002,1.0920000000000005,100.0,1.0,1.0,204.0233333333333,0.0,0.0,0.0,0.0,0.0,0.0,0.0,8647.8,0.0,55.0,5.0,237.86,0.0,0.0,0.0,0.0,0.0,0.0,0.0,0.0,0.20700000000000074,0.20700000000000074,0.0,0.0,0.0,55.0,616.79921,10000.0,85.000001,85.000001,85.000001,85.000001,395.0,0.0,0.0,0.0,1.0,166.665,53.024,53.024,48.92,48.92,34.0,-28.9025,19.984,-31.896666666666665,21.185000000000002,0.0,1783.458,0.5850000000000009,100.0,27.795,26.734,42.856,41.449,0.0,0.0,100.0,0.0,0.0,0.0,0.0,3216.4285714285716,2983.6,4007.5,3671.4,305.0655,305.373,314.9835,315.69975,21.8252,20.5315,21.8051,21.341,314.999998,314.999998,324.999988,324.999988,99.55927142857144,99.5072,99.56527142857144,99.54541428571429,-0.022333333333333316,-0.1459999999999999,-0.20700000000000002,0.02633333333333332,-0.046666666666666856,-0.04899999999999949,1.5563333333333333,1.6030000000000002,37.407,29.322,37.282,34.3815,56.319,34.611,59.063,51.7095,54.229,33.763999999999996,57.6835,50.069,53.388999999999996,33.312,57.6335,49.49466666666667,-0.03200000000000003,-0.1160000000000001,0.11031500000000001,0.102815,0.0,207.01,206.9,204.0233333333333,204.0233333333333,0.0,0.0
5,0.0,0.0,0.0,1.0,1.0,0.0,0.0,1.0,0.0,100.0,1.0,1.1856,26.0,0.0,0.0,0.0,59.999996,0.0,26.0,26.0,26.0,26.0,-0.12511111111111106,0.3096000000000001,-0.009040000000000001,293.625,-2.6736,-2.765375,-1.5089000000000001,-1.5859,-258.82,216.235,190.888375,0.0,0.0,0.0,0.0,0.011399999999999966,-5.498166666666667,-5.498166666666667,-0.5342,0.33266666666666667,-0.08262500000000017,-0.20099999999999962,66.227,-0.0855,-0.21130000000000002,1.056000000000001,100.0,1.0,1.0,204.37666666666667,0.0,0.0,0.0,0.0,0.0,0.0,0.0,8662.7,0.0,55.0,5.0,238.38666666666666,1.0,0.0,0.0,0.0,0.0,0.0,0.0,0.0,0.2579999999999991,0.2579999999999991,0.0,0.0,1.0,55.0,616.79921,10000.0,85.000001,85.000001,85.000001,85.000001,395.0,0.0,0.0,0.0,1.0,166.665,53.467,53.467,48.903999999999996,48.903999999999996,34.0,-28.405,19.146,-33.78,22.7575,0.0,1783.407,0.23000000000000043,100.0,27.743,26.731,42.544,41.223,0.0,0.0,100.0,0.0,0.0,0.0,0.0,3197.142857142857,2760.7,4220.5,4052.1000000000004,305.2235,305.94266666666664,314.60825,314.761,21.8352,20.5366,21.8155,21.3497,314.999998,314.999998,324.999988,324.999988,99.55928571428572,99.50721666666666,99.56541428571428,99.54554285714286,-0.014666666666666606,-0.1293333333333333,-0.2105,0.006666666666666599,-0.045000000000001705,-0.03500000000000014,1.5353333333333334,1.5825,37.47,29.353666666666665,37.347,34.436,56.304,34.650999999999996,59.104,51.768,54.215,33.801,57.7215,50.125,53.375,33.3475,57.669,49.549,-0.04949999999999999,-0.08650000000000002,0.10230500000000001,0.103525,0.0,207.515,207.4,204.37666666666667,204.37666666666667,0.0,0.0
6,0.0,0.0,0.0,1.0,1.0,0.0,0.0,1.0,0.0,100.0,1.0,1.1856,26.0,0.0,0.0,0.0,59.999996,0.0,26.0,26.0,26.0,26.0,-0.10388888888888892,0.2914000000000001,-0.0047799999999999995,293.442,-2.6444,-2.791875,-1.5571000000000002,-1.581,-255.64,216.215,190.869125,0.0,0.0,0.0,0.0,0.01323333333333332,-5.498166666666667,-5.498166666666667,-0.5311,0.09333333333333332,-0.06199999999999983,-0.508,66.36500000000001,-0.081,-0.214375,0.766,100.0,1.0,1.0,204.82,0.0,0.0,0.0,0.0,0.0,0.0,0.0,8681.6,0.0,55.0,5.0,238.88333333333333,0.0,0.0,0.0,0.0,0.0,0.0,0.0,0.0,0.30600000000000094,0.30600000000000094,0.0,0.0,0.0,55.0,616.79921,10000.0,85.000001,85.000001,85.000001,85.000001,395.0,0.0,0.0,0.0,1.0,333.33500000000004,53.162,53.162,48.721000000000004,48.721000000000004,34.0,-27.564999999999998,20.604,-33.416666666666664,23.377499999999998,0.0,1783.357,0.06500000000000128,100.0,27.665,26.902,42.658,41.578,0.0,0.0,100.0,0.0,0.0,0.0,0.0,3200.5714285714284,2873.1,4126.25,4004.0,305.1705,305.4773333333333,314.82875,314.8745,21.8446,20.5414,21.8254,21.3581,314.999998,314.999998,324.999988,324.999988,99.55928571428572,99.50723333333333,99.56555714285714,99.54568571428571,0.0009999999999998899,-0.12433333333333318,-0.20816666666666667,0.026000000000000023,-0.04333333333332945,-0.045999999999999375,1.5346666666666666,1.573,37.528999999999996,29.384,37.409,34.4885,56.288,34.689,59.1445,51.826,54.201,33.836,57.757,50.1805,53.36,33.382999999999996,57.702,49.60666666666667,-0.07099999999999995,-0.07500000000000018,0.10763500000000001,0.11517500000000001,0.0,207.9,207.825,204.82,204.82,0.0,0.0
7,0.0,0.0,0.0,1.0,1.0,0.0,0.0,1.0,0.0,100.0,1.0,1.1856,26.0,0.0,0.0,0.0,59.999996,0.0,26.0,26.0,26.0,26.0,-0.06311111111111112,0.2893000000000001,0.04854,293.243,-2.6115,-2.752125,-1.5177,-1.6205,-252.25,216.1925,190.848625,0.0,0.0,0.0,0.0,0.015199999999999991,-5.498166666666667,-5.498166666666667,-0.5346000000000001,0.05333333333333334,-0.04600000000000026,1.13,66.511,-0.0678,-0.224425,0.3439999999999994,100.0,1.0,1.0,205.24,0.0,0.0,0.0,0.0,0.0,0.0,0.0,8699.4,0.0,55.0,5.0,239.41,1.0,0.0,0.0,0.0,0.0,0.0,0.0,0.0,0.3569999999999993,0.3569999999999993,0.0,0.0,1.0,55.0,616.79921,10000.0,85.000001,85.000001,85.000001,85.000001,395.0,0.0,0.0,0.0,1.0,333.33500000000004,52.841,52.841,48.859,48.859,34.0,-25.487499999999997,22.984,-30.683333333333334,25.61,0.0,1783.307,-0.254999999999999,100.0,27.97,26.859,42.737,41.755,0.0,0.0,100.0,0.0,0.0,0.0,0.0,3144.857142857143,3029.8,4020.125,4081.4,305.101,305.1476666666667,314.974,314.6995,21.8545,20.5466,21.8359,21.3671,314.999998,314.999998,324.999988,324.999988,99.55928571428572,99.50723333333333,99.5657,99.54582857142857,0.03699999999999992,-0.08599999999999985,-0.1795,0.0471666666666668,-0.03166666666666629,-0.06299999999999883,1.531,1.5594999999999999,37.591,29.416333333333334,37.474000000000004,34.5445,56.274,34.7285,59.182,51.888,54.187,33.872,57.7945,50.24,53.345,33.416,57.7365,49.66133333333333,-0.08850000000000002,-0.04999999999999982,0.11299500000000001,0.11163500000000001,0.0,208.325,208.305,205.24,205.24,0.0,0.0
8,0.0,0.0,0.0,1.0,1.0,0.0,0.0,1.0,0.0,100.0,1.0,1.1856,26.0,0.0,0.0,0.0,59.999996,0.0,26.0,26.0,26.0,26.0,-0.03933333333333333,0.29090000000000016,-0.03452,293.488,-2.6983,-2.7196249999999997,-1.4991,-1.5754000000000001,-248.86,216.16500000000002,190.828125,0.0,0.0,0.0,0.0,0.017199999999999993,-5.498166666666667,-5.498166666666667,-0.5376000000000001,-0.5373333333333333,-0.03400000000000025,-0.54,66.657,-0.0478,-0.217675,-0.05200000000000049,100.0,1.0,1.0,205.63,0.0,0.0,0.0,0.0,0.0,0.0,0.0,8716.0,0.0,55.0,5.0,239.93666666666667,0.0,0.0,0.0,0.0,0.0,0.0,0.0,0.0,0.40800000000000125,0.40800000000000125,0.0,0.0,0.0,55.0,616.79921,10000.0,85.000001,85.000001,85.000001,85.000001,395.0,0.0,0.0,0.0,1.0,166.665,53.604,53.604,48.248,48.248,34.0,-24.2075,22.148,-30.853333333333335,26.2725,0.0,1783.258,-0.375,100.0,27.385,26.939,42.657,41.955,0.0,0.0,100.0,0.0,0.0,0.0,0.0,3010.714285714286,2918.9,4147.25,4074.8,305.8245,305.42766666666665,314.70725,314.6305,21.8641,20.5518,21.8464,21.3761,314.999998,314.999998,324.999988,324.999988,99.55928571428572,99.50725,99.56584285714285,99.54597142857143,0.046333333333333115,-0.07699999999999996,-0.1645,0.06766666666666676,-0.05666666666667197,-0.036999999999999034,1.518,1.5185,37.650999999999996,29.448666666666668,37.54,34.6005,56.257,34.7665,59.2225,51.948499999999996,54.171,33.907,57.832,50.298,53.328,33.4495,57.771,49.718333333333334,-0.10449999999999993,-0.03949999999999987,0.11261000000000002,0.10978,0.0,208.76999999999998,208.755,205.63,205.63,0.0,0.0
9,0.0,0.0,0.0,1.0,1.0,0.0,0.0,1.0,0.0,100.0,1.0,1.1856,26.0,0.0,0.0,0.0,59.999996,0.0,26.0,26.0,26.0,26.0,-0.01055555555555554,0.28190000000000004,-0.012640000000000002,293.121,-2.6273999999999997,-2.7182500000000003,-1.5542,-1.5544,-245.65,216.14,190.80825,0.0,0.0,0.0,0.0,0.019066666666666565,-5.498166666666667,-5.498166666666667,-0.5408000000000001,0.7156666666666667,-0.03400000000000025,-0.2869999999999999,66.791,-0.0258,-0.21627500000000002,-0.13600000000000012,100.0,1.0,1.0,206.15333333333334,0.0,0.0,0.0,0.0,0.0,0.0,0.0,8738.0,0.0,55.0,5.0,240.41666666666669,1.0,0.0,0.0,0.0,0.0,0.0,0.0,0.0,0.4559999999999995,0.4559999999999995,0.0,0.0,1.0,55.0,616.79921,10000.0,85.000001,85.000001,85.000001,85.000001,395.0,0.0,0.0,0.0,1.0,333.33500000000004,52.414,52.414,49.179,49.179,34.0,-25.9375,23.793999999999997,-28.7,26.62,0.0,1783.208,-0.46000000000000085,100.0,27.881,27.354,42.318,41.933,0.0,0.0,100.0,0.0,0.0,0.0,0.0,3347.4285714285716,2997.0,4038.75,4062.4,304.6865,305.114,315.09225,314.77175,21.8734,20.5568,21.856099999999998,21.3844,314.999998,314.999998,324.999988,324.999988,99.5593,99.50726666666667,99.56597142857143,99.5461,0.06666666666666643,-0.055333333333333234,-0.13366666666666666,0.08883333333333332,-0.03499999999999659,-0.053000000000000824,1.5686666666666667,1.573,37.709,29.480333333333334,37.601,34.6525,56.245000000000005,34.8035,59.257,52.0045,54.159,33.9415,57.864,50.352000000000004,53.316,33.482,57.8005,49.77133333333333,-0.11599999999999999,-0.032500000000000195,0.105105,0.106465,0.0,209.195,209.195,206.15333333333334,206.15333333333334,0.0,0.0
10,0.0,0.0,0.0,1.0,1.0,0.0,0.0,1.0,0.0,100.0,1.0,1.1856,26.0,0.0,0.0,0.0,59.999996,0.0,26.0,26.0,26.0,26.0,0.016000000000000014,0.2841,-0.05044,293.091,-2.709,-2.6985,-1.5424,-1.5419,-242.04,216.11,190.786375,0.0,0.0,0.0,0.0,0.021166666666666556,-5.498166666666667,-5.498166666666667,-0.5221,-0.6853333333333333,0.013249999999999984,0.3070000000000004,66.946,-0.0045000000000000005,-0.211475,-0.4720000000000004,100.0,1.0,1.0,206.44,0.0,0.0,0.0,0.0,0.0,0.0,0.0,8750.2,0.0,55.0,5.0,240.97666666666666,0.0,0.0,0.0,0.0,0.0,0.0,1.0,0.0,0.509999999999998,0.509999999999998,0.0,0.0,0.0,55.0,616.79921,10000.0,85.000001,85.000001,85.000001,85.000001,395.0,0.0,0.0,0.0,1.0,166.665,53.574,53.574,47.745,47.745,34.0,-21.315,22.915999999999997,-29.726666666666663,29.6675,0.0,1783.155,-0.6050000000000004,100.0,27.595,27.294,42.772,42.749,0.0,0.0,100.0,0.0,0.0,0.0,0.0,2865.285714285714,2884.1,4246.25,4228.0,306.2045,305.517,314.49175,314.263,21.8836,20.5624,21.8673,21.3941,314.999998,314.999998,324.999988,324.999988,99.55931428571428,99.50726666666667,99.56612857142858,99.54625714285714,0.08999999999999986,-0.045666666666666744,-0.11316666666666668,0.11416666666666675,-0.04833333333333201,-0.04199999999999804,1.495,1.475,37.772999999999996,29.515,37.671,34.713499999999996,56.230000000000004,34.842,59.301,52.073,54.144999999999996,33.977000000000004,57.905,50.417500000000004,53.301,33.5165,57.838,49.83533333333334,-0.127,-0.028999999999999915,0.10837000000000001,0.10903000000000002,0.0,209.635,209.66500000000002,206.44,206.44,0.0,0.0
11,0.0,0.0,0.0,1.0,1.0,0.0,0.0,1.0,0.0,100.0,1.0,1.1856,26.0,0.0,0.0,0.0,59.999996,0.0,26.0,26.0,26.0,26.0,0.05266666666666686,0.2771000000000001,-0.09942000000000001,293.51800000000003,-2.7118,-2.6835,-1.5897000000000001,-1.5235,-238.82999999999998,216.085,190.76675,0.0,0.0,0.0,0.0,0.022599999999999953,-5.498166666666667,-5.498166666666667,-0.5613,-0.06566666666666668,0.030999999999999917,-0.7859999999999996,67.076,0.0134,-0.23500000000000001,-0.6179999999999994,100.0,1.0,1.0,207.14666666666668,0.0,0.0,0.0,0.0,0.0,0.0,0.0,8780.2,0.0,55.0,5.0,241.44666666666666,1.0,0.0,0.0,0.0,0.0,0.0,1.0,0.0,0.5579999999999998,0.5579999999999998,0.0,0.0,1.0,55.0,616.79921,10000.0,85.000001,85.000001,85.000001,85.000001,395.0,0.0,0.0,0.0,1.0,333.33500000000004,52.811,52.811,49.24,49.24,34.0,-22.5225,25.59,-24.566666666666663,26.7725,0.0,1783.106,-0.6699999999999982,100.0,27.441,27.592,42.258,42.587,0.0,0.0,100.0,0.0,0.0,0.0,0.0,3091.285714285714,3083.6,3731.0,3858.2,305.556,304.853,315.82125,315.25675,21.8925,20.5675,21.877,21.4025,314.999998,314.999998,324.999988,324.999988,99.55931428571428,99.50726666666667,99.56625714285714,99.54638571428572,0.1080000000000001,-0.023666666666666725,-0.09716666666666668,0.1383333333333332,-0.054999999999999716,-0.07000000000000028,1.6503333333333332,1.6225,37.828,29.547,37.730999999999995,34.766,56.217,34.878,59.332499999999996,52.129,54.132,34.01,57.9345,50.4715,53.287,33.548,57.865,49.888333333333335,-0.132,-0.026000000000000245,0.10841500000000001,0.11123000000000001,0.0,210.04000000000002,210.085,207.14666666666668,207.14666666666668,0.0,0.0
12,0.0,0.0,0.0,1.0,1.0,0.0,0.0,1.0,0.0,100.0,1.0,1.1856,26.0,0.0,0.0,0.0,59.999996,0.0,26.0,26.0,26.0,26.0,0.06066666666666687,0.2793000000000001,0.03506,292.892,-2.7607,-2.6803749999999997,-1.5573000000000001,-1.5263,-235.6,216.06,190.746,0.0,0.0,0.0,0.0,0.025466666666666526,-5.498166666666667,-5.498166666666667,-0.5439,0.28300000000000003,0.01924999999999999,-0.7999999999999998,67.213,0.029400000000000003,-0.2061,-0.6439999999999992,100.0,1.0,1.0,207.32333333333332,0.0,0.0,0.0,0.0,0.0,0.0,0.0,8787.7,0.0,55.0,5.0,241.94,0.0,0.0,0.0,0.0,0.0,0.0,1.0,0.0,0.6059999999999981,0.6059999999999981,0.0,0.0,0.0,55.0,616.79921,10000.0,85.000001,85.000001,85.000001,85.000001,395.0,0.0,0.0,0.0,1.0,333.33500000000004,52.765,52.765,47.882,47.882,34.0,-22.8975,26.316,-27.696666666666665,30.8075,0.0,1783.057,-0.6699999999999982,100.0,27.324,27.743,42.243,42.596000000000004,0.0,0.0,100.0,0.0,0.0,0.0,0.0,3139.285714285714,3100.1,4251.625,4179.9,305.4395,304.828,314.551,314.444,21.9015,20.5727,21.8868,21.411,314.999998,314.999998,324.999988,324.999988,99.55932857142857,99.50728333333333,99.5664,99.54652857142857,0.11866666666666648,-0.008333333333333304,-0.07433333333333333,0.15149999999999997,-0.051666666666669414,-0.038000000000000256,1.5223333333333333,1.5015,37.884,29.579333333333334,37.792,34.8185,56.204,34.916,59.372,52.191,54.120000000000005,34.045,57.971000000000004,50.531,53.274,33.582,57.8985,49.946666666666665,-0.12449999999999994,-0.021500000000000075,0.10105000000000001,0.11422500000000001,0.0,210.49,210.515,207.32333333333332,207.32333333333332,0.0,0.0
13,0.0,0.0,0.0,1.0,1.0,0.0,0.0,1.0,0.0,100.0,1.0,1.1856,26.0,0.0,0.0,0.0,59.999996,0.0,26.0,26.0,26.0,26.0,0.06788888888888889,0.28590000000000004,0.056220000000000006,292.587,-2.7371,-2.6745,-1.5910000000000002,-1.5063,-232.17000000000002,216.035,190.72425,0.0,0.0,0.0,0.0,0.026899999999999924,-5.498166666666667,-5.498166666666667,-0.5391,-0.10266666666666667,0.025374999999999925,1.0339999999999998,67.356,0.0383,-0.21632500000000002,-0.9039999999999999,100.0,1.0,1.0,207.71666666666667,0.0,0.0,0.0,0.0,0.0,0.0,0.0,8804.3,0.0,55.0,5.0,242.45333333333335,1.0,0.0,0.0,0.0,0.0,0.0,1.0,0.0,0.657,0.657,0.0,0.0,1.0,55.0,616.79921,10000.0,85.000001,85.000001,85.000001,85.000001,395.0,0.0,0.0,0.0,1.0,333.33500000000004,52.49,52.49,47.928,47.928,34.0,-20.585,28.006,-26.546666666666663,32.832499999999996,0.0,1783.007,-0.8399999999999999,100.0,27.785,27.765,42.559,42.988,0.0,0.0,100.0,0.0,0.0,0.0,0.0,3049.142857142857,3188.3,4115.875,4361.0,305.5075,304.72833333333335,314.75725,314.06975,21.9111,20.5782,21.8973,21.4202,314.999998,314.999998,324.999988,324.999988,99.55934285714285,99.50728333333333,99.56654285714286,99.54665714285714,0.15500000000000025,0.01766666666666694,-0.059166666666666666,0.1641666666666668,-0.04333333333332945,-0.05699999999999861,1.5033333333333334,1.48,37.944,29.613666666666667,37.858000000000004,34.876,56.195,34.951499999999996,59.408,52.2515,54.111000000000004,34.0785,58.004999999999995,50.5895,53.263999999999996,33.6135,57.9295,50.004,-0.14849999999999997,-0.012500000000000178,0.11046,0.10576500000000001,0.0,210.91,210.965,207.71666666666667,207.71666666666667,0.0,0.0
14,0.0,0.0,0.0,1.0,1.0,0.0,0.0,1.0,0.0,100.0,1.0,1.1856,26.0,0.0,0.0,0.0,59.999996,0.0,26.0,26.0,26.0,26.0,0.10666666666666669,0.29100000000000015,-0.009940000000000001,292.862,-2.7376,-2.613125,-1.5991,-1.5105,-228.73,216.0125,190.703125,0.0,0.0,0.0,0.0,0.028899999999999926,-5.498166666666667,-5.498166666666667,-0.5491,-0.153,0.05187499999999989,-0.11399999999999988,67.49600000000001,0.0524,-0.228025,-0.992,100.0,1.0,1.0,208.23333333333335,0.0,0.0,0.0,0.0,0.0,0.0,0.0,8826.2,0.0,55.0,5.0,242.95666666666665,0.0,0.0,0.0,0.0,0.0,0.0,1.0,0.0,0.7079999999999984,0.7079999999999984,0.0,0.0,0.0,55.0,616.79921,10000.0,85.000001,85.000001,85.000001,85.000001,395.0,0.0,0.0,0.0,1.0,166.665,52.643,52.643,48.172,48.172,34.0,-20.39,27.602,-25.036666666666665,31.355,0.0,1782.957,-0.9349999999999987,100.0,27.471,27.968,42.355000000000004,43.239000000000004,0.0,0.0,100.0,0.0,0.0,0.0,0.0,3029.285714285714,3172.4,3990.625,4157.3,305.744,304.61266666666666,315.14375,314.5025,21.9207,20.5837,21.9077,21.4293,314.999998,314.999998,324.999988,324.999988,99.55935714285714,99.50728333333333,99.56668571428571,99.54681428571429,0.1516666666666664,0.020000000000000018,-0.05316666666666667,0.17183333333333328,-0.026666666666670835,-0.06799999999999784,1.5683333333333334,1.5190000000000001,38.004000000000005,29.648333333333333,37.923,34.933,56.184,34.9895,59.445,52.314499999999995,54.099999999999994,34.1135,58.039,50.6495,53.251999999999995,33.6475,57.960499999999996,50.063,-0.15600000000000003,-0.0015000000000000568,0.10075500000000001,0.11048500000000001,0.0,211.31,211.4,208.23333333333335,208.23333333333335,0.0,0.0
15,0.0,0.0,0.0,1.0,1.0,0.0,0.0,1.0,0.0,100.0,1.0,1.1856,26.0,0.0,0.0,0.0,59.999996,0.0,26.0,26.0,26.0,26.0,0.1136666666666668,0.29100000000000015,-0.0568,292.892,-2.7522,-2.569,-1.6296,-1.4492,-225.49,215.9925,190.68275,0.0,0.0,0.0,0.0,0.03076666666666661,-5.498166666666667,-5.498166666666667,-0.5398000000000001,0.21233333333333335,0.08337499999999998,-0.5129999999999999,67.628,0.065,-0.21022500000000002,-1.1020000000000003,100.0,1.0,1.0,208.61333333333334,0.0,0.0,0.0,0.0,0.0,0.0,0.0,8842.3,0.0,55.0,5.0,243.43,1.0,0.0,0.0,0.0,0.0,0.0,1.0,0.0,0.7560000000000002,0.7560000000000002,0.0,0.0,1.0,55.0,616.79921,10000.0,85.000001,85.000001,85.000001,85.000001,395.0,0.0,0.0,0.0,1.0,333.33500000000004,52.887,52.887,48.203,48.203,34.0,-19.0275,27.322,-24.853333333333335,33.1,0.0,1782.907,-0.9699999999999989,100.0,27.476,28.047,42.104,43.317,0.0,0.0,100.0,0.0,0.0,0.0,0.0,2868.714285714286,3142.1,3973.875,4358.2,306.2085,304.696,315.2125,314.02125,21.9296,20.5889,21.9174,21.4379,314.999998,314.999998,324.999988,324.999988,99.55938571428571,99.5073,99.56681428571429,99.54695714285714,0.15766666666666662,0.029666666666666952,-0.042833333333333334,0.18599999999999994,-0.036666666666668846,-0.053000000000000824,1.547,1.5100000000000002,38.06,29.680999999999997,37.983999999999995,34.9865,56.175,35.0265,59.4785,52.3745,54.091,34.1475,58.07,50.707499999999996,53.242000000000004,33.68,57.9885,50.12,-0.14849999999999997,-0.0045000000000001705,0.10735000000000001,0.10696000000000001,0.0,211.75,211.825,208.61333333333334,208.61333333333334,0.0,0.0
16,0.0,0.0,0.0,1.0,1.0,0.0,0.0,1.0,0.0,100.0,1.0,1.1856,26.0,0.0,0.0,0.0,59.999996,0.0,26.0,26.0,26.0,26.0,0.12200000000000011,0.27459999999999996,-0.01018,292.862,-2.8021,-2.5869999999999997,-1.5982,-1.5148000000000001,-222.04,215.975,190.660625,0.0,0.0,0.0,0.0,0.03276666666666661,-5.498166666666667,-5.498166666666667,-0.5638000000000001,-0.6883333333333334,0.06812499999999999,0.12600000000000033,67.768,0.0748,-0.228225,-1.2400000000000002,100.0,1.0,1.0,209.07,0.0,0.0,0.0,0.0,0.0,0.0,0.0,8861.7,0.0,55.0,5.0,243.93666666666667,0.0,0.0,0.0,0.0,0.0,0.0,1.0,0.0,0.8069999999999986,0.8069999999999986,0.0,0.0,0.0,55.0,616.79921,10000.0,85.000001,85.000001,85.000001,85.000001,395.0,0.0,0.0,0.0,1.0,166.665,52.612,52.612,48.065,48.065,34.0,-19.9175,29.683999999999997,-22.956666666666663,33.0025,0.0,1782.858,-0.8999999999999986,100.0,27.325,27.988,42.417,43.328,0.0,0.0,100.0,0.0,0.0,0.0,0.0,2993.5714285714284,3331.6,3904.125,4130.2,305.849,304.352,315.296,314.5935,21.9389,20.5946,21.9278,21.447,314.999998,314.999998,324.999988,324.999988,99.55941428571428,99.5073,99.56695714285715,99.5471,0.16999999999999993,0.04300000000000015,-0.022833333333333334,0.20916666666666672,-0.03333333333333144,-0.05099999999999838,1.567,1.5225,38.117999999999995,29.716,38.049,35.0435,56.161,35.066,59.5165,52.4365,54.078,34.1845,58.1055,50.7675,53.227999999999994,33.7155,58.021,50.179,-0.14849999999999997,-0.004999999999999893,0.10822000000000001,0.10933500000000002,0.0,212.115,212.22500000000002,209.07,209.07,0.0,0.0
17,0.0,0.0,0.0,1.0,1.0,0.0,0.0,1.0,0.0,100.0,1.0,1.1856,26.0,0.0,0.0,0.0,59.999996,0.0,26.0,26.0,26.0,26.0,0.12711111111111117,0.2861,0.0205,292.435,-2.7671,-2.5623750000000003,-1.6417000000000002,-1.4754,-218.57999999999998,215.96,190.638,0.0,0.0,0.0,0.0,0.03479999999999994,-5.498166666666667,-5.498166666666667,-0.5499,0.4556666666666667,0.04812499999999997,-0.6139999999999999,67.907,0.0781,-0.20620000000000002,-1.0700000000000003,100.0,1.0,1.0,209.42000000000002,0.0,0.0,0.0,0.0,0.0,0.0,0.0,8876.5,0.0,55.0,5.0,244.43666666666667,1.0,0.0,0.0,0.0,0.0,0.0,1.0,0.0,0.8580000000000005,0.8580000000000005,0.0,0.0,1.0,55.0,616.79921,10000.0,85.000001,85.000001,85.000001,85.000001,395.0,0.0,0.0,0.0,1.0,166.665,52.399,52.399,47.714,47.714,34.0,-20.035,27.164,-26.66,33.9025,0.0,1782.807,-0.995000000000001,100.0,27.67,28.413,42.195,43.419,0.0,0.0,100.0,0.0,0.0,0.0,0.0,3107.857142857143,3094.3,4303.75,4312.7,305.5655,304.89233333333334,314.50825,314.188,21.9485,20.6002,21.9381,21.4561,314.999998,314.999998,324.999988,324.999988,99.55942857142857,99.5073,99.5671,99.54724285714286,0.17866666666666653,0.04033333333333333,-0.0275,0.20166666666666666,-0.046666666666666856,-0.04899999999999949,1.5336666666666667,1.4935,38.178,29.751333333333335,38.113,35.1005,56.153,35.107,59.5525,52.499,54.07,34.2225,58.138999999999996,50.828,53.219,33.751999999999995,58.051,50.23833333333333,-0.15900000000000003,-0.0009999999999998899,0.11042,0.10944000000000001,0.0,212.61,212.7,209.42000000000002,209.42000000000002,0.0,0.0
18,0.0,0.0,0.0,1.0,1.0,0.0,0.0,1.0,0.0,100.0,1.0,1.1856,26.0,0.0,0.0,0.0,59.999996,0.0,26.0,26.0,26.0,26.0,0.13511111111111118,0.2743,-0.013219999999999999,292.45,-2.8021,-2.536125,-1.6587,-1.4193,-215.31,215.95,190.617,0.0,0.0,0.0,0.0,0.036699999999999955,-5.498166666666667,-5.498166666666667,-0.5615,-0.5006666666666667,0.07337499999999997,-0.22799999999999976,68.037,0.0795,-0.22445,-1.2579999999999991,100.0,1.0,1.0,209.85333333333335,0.0,0.0,0.0,0.0,0.0,0.0,0.0,8894.9,0.0,55.0,5.0,244.90666666666667,0.0,0.0,0.0,0.0,0.0,0.0,1.0,0.0,0.9059999999999988,0.9059999999999988,0.0,0.0,0.0,55.0,616.79921,10000.0,85.000001,85.000001,85.000001,85.000001,395.0,0.0,0.0,0.0,1.0,333.33500000000004,52.261,52.261,47.684,47.684,34.0,-20.169999999999998,29.774,-24.733333333333334,32.265,0.0,1782.758,-1.2250000000000014,100.0,27.402,28.296,42.501,43.819,0.0,0.0,100.0,0.0,0.0,0.0,0.0,3117.714285714286,3310.8,4053.75,4194.9,305.588,304.25933333333336,315.05,314.455,21.9573,20.6055,21.948,21.4648,314.999998,314.999998,324.999988,324.999988,99.55944285714286,99.50731666666667,99.56724285714286,99.54738571428571,0.18400000000000016,0.056333333333333346,-0.022833333333333334,0.20716666666666672,-0.03833333333332689,-0.05999999999999872,1.5683333333333334,1.5085000000000002,38.233000000000004,29.784333333333336,38.175,35.155,56.144,35.1455,59.588499999999996,52.56,54.061,34.2575,58.172,50.8865,53.209,33.786,58.0815,50.29566666666666,-0.1745,0.020000000000000018,0.10391,0.10704500000000002,0.0,212.99,213.05,209.85333333333335,209.85333333333335,0.0,0.0
19,0.0,0.0,0.0,1.0,1.0,0.0,0.0,1.0,0.0,100.0,1.0,1.1856,26.0,0.0,0.0,0.0,59.999996,0.0,26.0,26.0,26.0,26.0,0.16144444444444428,0.2984,0.05716,291.931,-2.7168,-2.637625,-1.6741000000000001,-1.4012,-211.84,215.9425,190.594375,0.0,0.0,0.0,0.0,0.03869999999999996,-5.498166666666667,-5.498166666666667,-0.5488000000000001,0.841,0.08749999999999991,0.8849999999999998,68.175,0.0908,-0.2107,-1.7299999999999995,100.0,1.0,1.0,210.22333333333333,0.0,0.0,0.0,0.0,0.0,0.0,0.0,8910.7,0.0,55.0,5.0,245.4,1.0,0.0,0.0,0.0,0.0,0.0,1.0,0.0,0.9570000000000007,0.9570000000000007,0.0,0.0,1.0,55.0,616.79921,10000.0,85.000001,85.000001,85.000001,85.000001,395.0,0.0,0.0,0.0,1.0,166.665,51.712,51.712,47.394,47.394,34.0,-17.04,32.494,-24.426666666666666,35.9775,0.0,1782.708,-1.5549999999999997,100.0,28.083,28.68,42.359,43.75,0.0,0.0,100.0,0.0,0.0,0.0,0.0,2975.857142857143,3349.8,4167.875,4529.5,305.6575,304.038,314.76725,313.75975,21.9668,20.6114,21.958199999999998,21.474,314.999998,314.999998,324.999988,324.999988,99.55947142857143,99.50731666666667,99.56737142857143,99.54754285714286,0.22133333333333338,0.08466666666666667,0.005,0.22366666666666668,-0.03999999999999915,-0.06199999999999761,1.538,1.4905,38.293,29.820999999999998,38.239000000000004,35.2125,56.138,35.189499999999995,59.6235,52.6235,54.055,34.299,58.204499999999996,50.948,53.201,33.826,58.1105,50.35633333333333,-0.2025,0.03699999999999992,0.108475,0.09889,0.0,213.425,213.55,210.22333333333333,210.22333333333333,0.0,0.0
20,0.0,0.0,0.0,1.0,1.0,0.0,0.0,1.0,0.0,100.0,1.0,1.1856,26.0,0.0,0.0,0.0,59.999996,0.0,26.0,26.0,26.0,26.0,0.22488888888888892,0.2594000000000001,-0.06004,292.389,-2.8261,-2.579625,-1.6076000000000001,-1.516,-208.36,215.9375,190.572,0.0,0.0,0.0,0.0,0.0407333333333334,-5.498166666666667,-5.498166666666667,-0.5578000000000001,-1.1613333333333333,0.09375,-0.5969999999999995,68.313,0.10880000000000001,-0.22595,-2.047999999999999,100.0,1.0,1.0,210.60666666666668,0.0,0.0,0.0,0.0,0.0,0.0,0.0,8926.8,0.0,55.0,5.0,245.9,0.0,0.0,0.0,0.0,0.0,0.0,0.0,0.0,1.0079999999999991,1.0079999999999991,0.0,0.0,0.0,55.0,616.79921,10000.0,85.000001,85.000001,85.000001,85.000001,395.0,0.0,0.0,0.0,1.0,166.665,52.75,52.75,47.089,47.089,34.0,-16.095,31.076,-22.476666666666663,36.567499999999995,0.0,1782.658,-1.754999999999999,100.0,27.344,28.529,42.743,44.359,0.0,0.0,100.0,0.0,0.0,0.0,0.0,2845.0,3185.6,4077.375,4266.4,306.3665,304.57866666666666,314.89975,314.15175,21.976,20.617,21.9688,21.4833,314.999998,314.999998,324.999988,324.999988,99.5595,99.50733333333334,99.56751428571428,99.54768571428572,0.23966666666666647,0.10866666666666669,0.01666666666666667,0.2423333333333333,-0.03166666666666629,-0.036999999999999034,1.5026666666666666,1.4569999999999999,38.349999999999994,29.856333333333332,38.305,35.271,56.126999999999995,35.233000000000004,59.663,52.689,54.045,34.339,58.241,51.0115,53.19,33.864,58.144,50.41833333333334,-0.21750000000000003,0.06149999999999989,0.10873000000000001,0.10637,0.0,213.785,213.925,210.60666666666668,210.60666666666668,0.0,0.0
21,0.0,0.0,0.0,1.0,1.0,0.0,0.0,1.0,0.0,100.0,1.0,1.1856,26.0,0.0,0.0,0.0,59.999996,0.0,26.0,26.0,26.0,26.0,0.2382222222222221,0.27449999999999997,-0.07014000000000001,292.618,-2.8055,-2.619375,-1.6843,-1.4634,-205.07999999999998,215.94,190.55025,0.0,0.0,0.0,0.0,0.0426333333333333,-5.498166666666667,-5.498166666666667,-0.5783,0.5416666666666666,0.09050000000000002,-0.7089999999999996,68.438,0.1297,-0.22385000000000002,-2.2560000000000002,100.0,1.0,1.0,211.20333333333332,0.0,0.0,0.0,0.0,0.0,0.0,0.0,8952.1,0.0,55.0,5.0,246.34666666666666,1.0,0.0,0.0,0.0,0.0,0.0,0.0,0.0,1.056000000000001,1.056000000000001,0.0,0.0,1.0,55.0,616.79921,10000.0,85.000001,85.000001,85.000001,85.000001,395.0,0.0,0.0,0.0,1.0,333.33500000000004,52.231,52.231,48.203,48.203,34.0,-17.5475,31.242,-20.78333333333333,35.0175,0.0,1782.608,-1.4250000000000007,100.0,27.514,28.807000000000002,41.983000000000004,44.0,0.0,0.0,100.0,0.0,0.0,0.0,0.0,3012.5714285714284,3212.8,3940.0,4119.5,305.8555,304.418,315.39,314.67325,21.9848,20.6225,21.9783,21.4918,314.999998,314.999998,324.999988,324.999988,99.55952857142857,99.50735,99.56765714285714,99.54782857142857,0.2280000000000002,0.09366666666666656,0.041666666666666664,0.27049999999999996,-0.05333333333332746,-0.045999999999999375,1.6163333333333334,1.5505,38.405,29.890666666666668,38.364000000000004,35.324,56.122,35.277,59.692499999999995,52.747,54.039,34.3795,58.2685,51.067,53.183,33.9035,58.1685,50.473,-0.1965,0.034499999999999975,0.10343000000000001,0.11458000000000002,0.0,214.21,214.365,211.20333333333332,211.20333333333332,0.0,0.0
22,0.0,0.0,0.0,1.0,1.0,0.0,0.0,1.0,0.0,100.0,1.0,1.1856,26.0,0.0,0.0,0.0,59.999996,0.0,26.0,26.0,26.0,26.0,0.1744444444444444,0.2683,-0.0036600000000000005,292.16,-2.7453,-2.61675,-1.6803,-1.4518,-201.57999999999998,215.9475,190.5265,0.0,0.0,0.0,0.0,0.04466666666666652,-5.498166666666667,-5.498166666666667,-0.5577,0.01666666666666667,0.10137499999999999,0.7300000000000004,68.576,0.1419,-0.20720000000000002,-1.4179999999999993,100.0,1.0,1.0,211.42000000000002,0.0,0.0,0.0,0.0,0.0,0.0,0.0,8961.3,0.0,55.0,5.0,246.84666666666666,0.0,0.0,0.0,0.0,0.0,0.0,0.0,0.0,1.1069999999999993,1.1069999999999993,0.0,0.0,0.0,55.0,616.79921,10000.0,85.000001,85.000001,85.000001,85.000001,395.0,0.0,0.0,0.0,1.0,166.665,52.444,52.444,47.119,47.119,34.0,-17.884999999999998,28.862000000000002,-22.54,38.447500000000005,0.0,1782.558,0.13500000000000156,100.0,27.673000000000002,28.726,42.441,44.288,0.0,0.0,100.0,0.0,0.0,0.0,0.0,2748.0,3270.1,4115.875,4466.9,306.367,304.396,314.83675,313.875,21.9941,20.6284,21.9887,21.5012,314.999998,314.999998,324.999988,324.999988,99.55955714285714,99.50735,99.5678,99.54798571428572,0.16800000000000015,0.02733333333333343,0.038,0.26116666666666677,-0.045000000000001705,-0.047999999999998266,1.5176666666666667,1.447,38.463,29.927333333333333,38.429,35.3825,56.111999999999995,35.32,59.7315,52.8135,54.03,34.4195,58.3045,51.1315,53.172,33.942,58.201,50.53633333333333,-0.08099999999999996,-0.07750000000000012,0.11218000000000002,0.100875,0.0,214.66500000000002,214.76,211.42000000000002,211.42000000000002,0.0,0.0
23,0.0,0.0,0.0,1.0,1.0,0.0,0.0,1.0,0.0,100.0,1.0,1.1856,26.0,0.0,0.0,0.0,59.999996,0.0,26.0,26.0,26.0,26.0,0.08366666666666678,0.2533000000000001,-0.045860000000000005,292.175,-2.7446,-2.595875,-1.7008,-1.4603000000000002,-197.88,215.96,190.501625,0.0,0.0,0.0,0.0,0.04683333333333339,-5.498166666666667,-5.498166666666667,-0.5766,-0.044,0.06537499999999996,0.1120000000000001,68.717,0.11,-0.231,0.11800000000000033,100.0,1.0,1.0,212.00333333333333,0.0,0.0,0.0,0.0,0.0,0.0,0.0,8986.0,0.0,55.0,5.0,247.35666666666668,1.0,0.0,0.0,0.0,0.0,0.0,0.0,0.0,1.1610000000000014,1.1610000000000014,0.0,0.0,1.0,55.0,616.79921,10000.0,85.000001,85.000001,85.000001,85.000001,395.0,0.0,0.0,0.0,1.0,166.665,51.712,51.712,48.111,48.111,34.0,-23.2075,26.234,-24.676666666666666,31.63,0.0,1782.503,0.8000000000000007,100.0,28.17,28.609,42.699,44.32,0.0,0.0,100.0,0.0,0.0,0.0,0.0,3108.714285714286,3273.4,3968.375,4029.0,305.3335,304.464,315.28275,314.9625,22.004,20.6345,21.9997,21.511,314.999998,314.999998,324.999988,324.999988,99.55957142857143,99.50735,99.56795714285714,99.54814285714286,0.10899999999999999,-0.02733333333333321,-0.021666666666666667,0.2226666666666668,-0.03499999999999659,-0.06299999999999883,1.546,1.565,38.525,29.965666666666664,38.498000000000005,35.4435,56.099000000000004,35.362,59.7695,52.881,54.016999999999996,34.459,58.34,51.196,53.159,33.9795,58.233000000000004,50.6,-0.01849999999999996,-0.1419999999999999,0.111445,0.11434500000000002,0.0,215.135,215.14,212.00333333333333,212.00333333333333,0.0,0.0
24,0.0,0.0,0.0,1.0,1.0,0.0,0.0,1.0,0.0,100.0,1.0,1.1856,26.0,0.0,0.0,0.0,59.999996,0.0,26.0,26.0,26.0,26.0,0.019444444444444375,0.27090000000000014,-0.00232,292.404,-2.7537,-2.6235,-1.6029,-1.5081,-194.78,215.9725,190.4805,0.0,0.0,0.0,0.0,0.048633333333333306,-5.498166666666667,-5.498166666666667,-0.5797,-0.5583333333333333,0.05037500000000006,-0.5750000000000002,68.838,0.0558,-0.21615,0.9860000000000007,100.0,1.0,1.0,212.23666666666668,0.0,0.0,0.0,0.0,0.0,0.0,0.0,8995.9,0.0,55.0,5.0,247.79000000000002,0.0,0.0,0.0,0.0,0.0,0.0,0.0,0.0,1.2059999999999995,1.2059999999999995,0.0,0.0,0.0,55.0,616.79921,10000.0,85.000001,85.000001,85.000001,85.000001,395.0,0.0,0.0,0.0,1.0,333.33500000000004,52.917,52.917,47.089,47.089,34.0,-23.25,21.927999999999997,-29.396666666666665,29.7575,0.0,1782.458,1.0199999999999996,100.0,27.779,28.335,42.974000000000004,44.084,0.0,0.0,100.0,0.0,0.0,0.0,0.0,2908.0,2980.6,4302.75,4127.8,306.1205,305.282,314.4245,314.63775,22.0121,20.6394,22.0089,21.519,314.999998,314.999998,324.999988,324.999988,99.55957142857143,99.50736666666667,99.56808571428571,99.54827142857143,0.06066666666666665,-0.07566666666666677,-0.08133333333333333,0.1463333333333332,-0.051666666666669414,-0.038999999999997925,1.4889999999999999,1.5194999999999999,38.576,29.996000000000002,38.556,35.494,56.085,35.396,59.8035,52.935,54.004000000000005,34.49,58.371,51.2485,53.144,34.01,58.2615,50.65133333333333,-0.0004999999999999449,-0.15850000000000009,0.10348500000000001,0.10922000000000001,0.0,215.55,215.45499999999998,212.23666666666668,212.23666666666668,0.0,0.0
25,0.0,0.0,0.0,1.0,1.0,0.0,0.0,1.0,0.0,100.0,1.0,1.1856,26.0,0.0,0.0,0.0,59.999996,0.0,26.0,26.0,26.0,26.0,-0.07388888888888889,0.2723,-0.07222,292.297,-2.7707,-2.6327499999999997,-1.5761,-1.5497,-191.26999999999998,215.9875,190.455125,0.0,0.0,0.0,0.0,0.05066666666666653,-5.498166666666667,-5.498166666666667,-0.6126,0.061,0.01024999999999987,-0.9879999999999995,68.97,-0.0095,-0.22565000000000002,1.4700000000000006,100.0,1.0,1.0,212.79666666666668,0.0,0.0,0.0,0.0,0.0,0.0,0.0,9019.6,0.0,55.0,5.0,248.26666666666665,1.0,0.0,0.0,0.0,0.0,0.0,0.0,0.0,1.256999999999998,1.256999999999998,0.0,0.0,1.0,55.0,616.79921,10000.0,85.000001,85.000001,85.000001,85.000001,395.0,0.0,0.0,0.0,1.0,166.665,51.788,51.788,47.989,47.989,34.0,-28.7725,23.1,-29.126666666666665,25.295,0.0,1782.408,1.0800000000000018,100.0,28.135,28.167,43.016999999999996,43.371,0.0,0.0,100.0,0.0,0.0,0.0,0.0,3262.0,3311.8,3990.875,3962.2,305.0265,304.3883333333333,315.17775,315.0705,22.0215,20.645,22.019199999999998,21.5281,314.999998,314.999998,324.999988,324.999988,99.55957142857143,99.50738333333334,99.56822857142858,99.54842857142857,0.016666666666666607,-0.11099999999999999,-0.14016666666666666,0.08116666666666683,-0.03499999999999659,-0.05099999999999838,1.5503333333333333,1.609,38.634,30.031333333333336,38.620000000000005,35.5505,56.068,35.4385,59.838,52.993,53.986999999999995,34.5295,58.4035,51.304,53.126999999999995,34.0475,58.2905,50.706,0.007500000000000062,-0.16349999999999998,0.10133,0.10447500000000001,0.0,215.965,215.85500000000002,212.79666666666668,212.79666666666668,0.0,0.0
26,0.0,0.0,0.0,1.0,1.0,0.0,0.0,1.0,0.0,100.0,1.0,1.1856,26.0,0.0,0.0,0.0,59.999996,0.0,26.0,26.0,26.0,26.0,-0.12988888888888894,0.2713000000000001,0.10308,291.168,-2.667,-2.7645,-1.5854,-1.5859,-187.54,216.0,190.428,0.0,0.0,0.0,0.0,0.0528333333333334,-5.498166666666667,-5.498166666666667,-0.5677,0.48333333333333334,-0.05237500000000006,0.21199999999999974,69.11500000000001,-0.0658,-0.19575,1.636000000000001,100.0,1.0,1.0,212.93333333333334,0.0,0.0,0.0,0.0,0.0,0.0,0.0,9025.5,0.0,55.0,5.0,248.78666666666666,0.0,0.0,0.0,0.0,0.0,0.0,0.0,0.0,1.311,1.311,0.0,0.0,0.0,55.0,616.79921,10000.0,85.000001,85.000001,85.000001,85.000001,395.0,0.0,0.0,0.0,1.0,166.665,51.682,51.682,45.99,45.99,34.0,-27.7,20.490000000000002,-39.35333333333333,27.5575,0.0,1782.353,0.865000000000002,100.0,29.254,28.401,44.185,43.42,0.0,0.0,100.0,0.0,0.0,0.0,0.0,3162.0,3003.5,4687.375,4511.3,305.0955,305.28066666666666,313.50925,313.814,22.0317,20.651,22.0305,21.5378,314.999998,314.999998,324.999988,324.999988,99.55958571428572,99.5074,99.56838571428571,99.54857142857144,0.0030000000000001137,-0.1436666666666666,-0.191,0.02750000000000008,-0.03333333333333144,-0.047999999999998266,1.3943333333333334,1.4649999999999999,38.698,30.068666666666665,38.691,35.611,56.054,35.486,59.884,53.0575,53.974000000000004,34.573499999999996,58.4465,51.366,53.113,34.0895,58.33,50.766333333333336,-0.016000000000000014,-0.15050000000000008,0.10397500000000001,0.10683000000000001,0.0,216.465,216.325,212.93333333333334,212.93333333333334,0.0,0.0
27,0.0,0.0,0.0,1.0,1.0,0.0,0.0,1.0,0.0,100.0,1.0,1.1856,26.0,0.0,0.0,0.0,59.999996,0.0,26.0,26.0,26.0,26.0,-0.12977777777777777,0.24629999999999996,-0.028860000000000004,291.687,-2.6203,-2.74275,-1.562,-1.6695,-184.43,216.01,190.406375,0.0,0.0,0.0,0.0,0.05463333333333331,-5.498166666666667,-5.498166666666667,-0.6006,-1.0553333333333332,-0.06962499999999983,-0.8819999999999997,69.23,-0.0952,-0.24505000000000002,1.6280000000000001,100.0,1.0,1.0,213.47,0.0,0.0,0.0,0.0,0.0,0.0,0.0,9048.2,0.0,55.0,5.0,249.20333333333335,1.0,0.0,0.0,0.0,0.0,0.0,0.0,0.0,1.355999999999998,1.355999999999998,0.0,0.0,1.0,55.0,616.79921,10000.0,85.000001,85.000001,85.000001,85.000001,395.0,0.0,0.0,0.0,1.0,333.33500000000004,51.758,51.758,46.814,46.814,34.0,-29.822499999999998,19.336,-35.10666666666667,23.322499999999998,0.0,1782.308,0.7750000000000021,100.0,28.947,28.228,44.782,43.723,0.0,0.0,100.0,0.0,0.0,0.0,0.0,3308.4285714285716,2979.8,4146.625,3927.8,304.922,305.2436666666667,314.7235,315.028,22.0401,20.6558,22.04,21.546,314.999998,314.999998,324.999988,324.999988,99.5596,99.50741666666667,99.56852857142857,99.5487,-0.02966666666666673,-0.16500000000000004,-0.22466666666666665,0.005666666666666709,-0.045000000000001705,-0.027999999999998693,1.4666666666666666,1.5335,38.751000000000005,30.098666666666666,38.75,35.6625,56.04,35.524,59.921,53.1105,53.961,34.608000000000004,58.481,51.417,53.099000000000004,34.123,58.362,50.816,-0.025000000000000022,-0.13900000000000023,0.10408500000000001,0.10748,0.0,216.76,216.625,213.47,213.47,0.0,0.0
28,0.0,0.0,0.0,1.0,1.0,0.0,0.0,1.0,0.0,100.0,1.0,1.1856,26.0,0.0,0.0,0.0,59.999996,0.0,26.0,26.0,26.0,26.0,-0.16366666666666663,0.2652000000000001,-0.058879999999999995,291.885,-2.6298,-2.748,-1.4969000000000001,-1.6426,-180.89,216.015,190.380875,0.0,0.0,0.0,0.0,0.05669999999999997,-5.498166666666667,-5.498166666666667,-0.5996,0.6916666666666667,-0.08499999999999996,0.5570000000000004,69.361,-0.11330000000000001,-0.21365,1.4740000000000002,100.0,1.0,1.0,213.92000000000002,0.0,0.0,0.0,0.0,0.0,0.0,0.0,9067.4,0.0,55.0,5.0,249.67333333333335,0.0,0.0,0.0,0.0,0.0,0.0,0.0,0.0,1.407,1.407,0.0,0.0,0.0,55.0,616.79921,10000.0,85.000001,85.000001,85.000001,85.000001,395.0,0.0,0.0,0.0,1.0,166.665,51.849000000000004,51.849000000000004,47.424,47.424,34.0,-29.244999999999997,18.985999999999997,-35.11333333333333,22.697499999999998,0.0,1782.258,0.5850000000000009,100.0,29.336,27.897,44.298,42.982,0.0,0.0,100.0,0.0,0.0,0.0,0.0,3234.4285714285716,2979.1,4224.0,4075.0,304.898,305.388,314.666,314.83475,22.0498,20.6613,22.0503,21.5549,314.999998,314.999998,324.999988,324.999988,99.5596,99.50743333333334,99.56868571428572,99.54885714285714,-0.02400000000000002,-0.17100000000000004,-0.23550000000000001,-0.013000000000000012,-0.04333333333332945,-0.053000000000000824,1.5156666666666667,1.576,38.811,30.132666666666665,38.814,35.718,56.027,35.568,59.958,53.1665,53.949,34.649,58.5155,51.4705,53.086,34.162,58.394,50.868,-0.03749999999999998,-0.1280000000000001,0.10837500000000001,0.109835,0.0,217.21,217.085,213.92000000000002,213.92000000000002,0.0,0.0
29,0.0,0.0,0.0,1.0,1.0,0.0,0.0,1.0,0.0,100.0,1.0,1.1856,26.0,0.0,0.0,0.0,59.999996,0.0,26.0,26.0,26.0,26.0,-0.14966666666666661,0.25890000000000013,0.043660000000000004,291.55,-2.5722,-2.802,-1.5318,-1.6207,-177.35,216.01749999999998,190.3545,0.0,0.0,0.0,0.0,0.05876666666666652,-5.498166666666667,-5.498166666666667,-0.6087,-0.6886666666666666,-0.08700000000000019,-0.5720000000000001,69.495,-0.1139,-0.2202,1.2300000000000004,100.0,1.0,1.0,214.20333333333332,0.0,0.0,0.0,0.0,0.0,0.0,0.0,9079.2,0.0,55.0,5.0,250.15666666666667,1.0,0.0,0.0,0.0,0.0,0.0,0.0,0.0,1.4579999999999984,1.4579999999999984,0.0,0.0,1.0,55.0,616.79921,10000.0,85.000001,85.000001,85.000001,85.000001,395.0,0.0,0.0,0.0,1.0,166.665,51.697,51.697,46.722,46.722,34.0,-30.7775,19.522,-36.586666666666666,23.33,0.0,1782.206,0.490000000000002,100.0,28.918,27.911,44.734,43.3,0.0,0.0,100.0,0.0,0.0,0.0,0.0,3420.5714285714284,2979.4,4302.0,4105.1,304.5855,305.1533333333333,314.4035,314.66175,22.0593,20.6666,22.0609,21.5641,314.999998,314.999998,324.999988,324.999988,99.55961428571429,99.50745,99.56882857142857,99.549,-0.03433333333333333,-0.17566666666666664,-0.2315,-0.00649999999999995,-0.03499999999999659,-0.0470000000000006,1.4613333333333334,1.4975,38.870000000000005,30.166333333333334,38.881,35.775999999999996,56.012,35.611,60.0015,53.226,53.934,34.6885,58.5565,51.528,53.07,34.1995,58.4315,50.92366666666666,-0.04399999999999993,-0.11799999999999988,0.10036,0.10731,0.0,217.565,217.47500000000002,214.20333333333332,214.20333333333332,0.0,0.0
30,0.0,0.0,0.0,1.0,1.0,0.0,0.0,1.0,0.0,100.0,1.0,1.1856,26.0,0.0,0.0,0.0,59.999996,0.0,26.0,26.0,26.0,26.0,-0.1406666666666666,0.26060000000000016,0.03642,291.10699999999997,-2.6239,-2.79325,-1.4732,-1.6992,-173.8,216.01749999999998,190.328,0.0,0.0,0.0,0.0,0.060833333333333295,-5.498166666666667,-5.498166666666667,-0.5978,0.8393333333333334,-0.08450000000000024,0.9729999999999999,69.624,-0.108,-0.212175,1.0660000000000007,100.0,1.0,1.0,214.63333333333333,0.0,0.0,0.0,0.0,0.0,0.0,0.0,9097.5,0.0,55.0,5.0,250.62333333333333,0.0,0.0,0.0,0.0,0.0,0.0,1.0,0.0,1.5090000000000003,1.5090000000000003,0.0,0.0,0.0,55.0,616.79921,10000.0,85.000001,85.000001,85.000001,85.000001,395.0,0.0,0.0,0.0,1.0,166.665,50.888,50.888,46.783,46.783,34.0,-30.185,21.232,-35.336666666666666,25.1325,0.0,1782.155,0.254999999999999,100.0,29.931,28.379,44.71,43.236000000000004,0.0,0.0,100.0,0.0,0.0,0.0,0.0,3411.285714285714,3133.7,4314.875,4170.4,304.438,305.01866666666666,314.364,314.53325,22.0691,20.6723,22.0714,21.5733,314.999998,314.999998,324.999988,324.999988,99.55961428571429,99.50748333333334,99.56898571428572,99.54914285714285,-0.006999999999999895,-0.15366666666666662,-0.21983333333333335,-0.0016666666666665941,-0.03333333333333144,-0.0470000000000006,1.4566666666666666,1.499,38.932,30.201666666666668,38.946,35.833,56.001000000000005,35.657,60.04,53.2845,53.924,34.7315,58.593,51.584,53.059,34.2405,58.465,50.978,-0.0615,-0.10550000000000015,0.10589000000000001,0.10849,0.0,218.015,217.92000000000002,214.63333333333333,214.63333333333333,0.0,0.0
31,0.0,0.0,0.0,1.0,1.0,0.0,0.0,1.0,0.0,100.0,1.0,1.1856,26.0,0.0,0.0,0.0,59.999996,0.0,26.0,26.0,26.0,26.0,-0.13211111111111107,0.25450000000000017,0.00568,291.016,-2.6931,-2.673,-1.5205000000000002,-1.674,-170.45999999999998,216.0125,190.30375,0.0,0.0,0.0,0.0,0.06276666666666653,-5.498166666666667,-5.498166666666667,-0.5913,-0.805,-0.07787500000000014,0.6349999999999998,69.749,-0.093,-0.221675,0.6260000000000012,100.0,1.0,1.0,214.92333333333335,0.0,0.0,0.0,0.0,0.0,0.0,0.0,9109.8,0.0,55.0,5.0,251.07,1.0,0.0,0.0,0.0,0.0,0.0,1.0,0.0,1.5569999999999986,1.5569999999999986,0.0,0.0,1.0,55.0,616.79921,10000.0,85.000001,85.000001,85.000001,85.000001,395.0,0.0,0.0,0.0,1.0,166.665,51.483,51.483,45.593,45.593,34.0,-28.095,20.71,-35.74666666666667,27.03,0.0,1782.108,0.21999999999999886,100.0,29.501,28.411,45.363,43.856,0.0,0.0,100.0,0.0,0.0,0.0,0.0,3206.5714285714284,3156.9,4371.875,4280.1,305.2245,305.042,314.14425,314.3555,22.078,20.6775,22.0815,21.5821,314.999998,314.999998,324.999988,324.999988,99.55961428571429,99.5075,99.56912857142858,99.54928571428572,0.002666666666666817,-0.1416666666666666,-0.20016666666666666,0.02416666666666667,-0.04999999999999716,-0.04899999999999949,1.4423333333333335,1.4649999999999999,38.986999999999995,30.234333333333332,39.009,35.888,55.986000000000004,35.698499999999996,60.0815,53.342,53.909,34.7695,58.632,51.6395,53.044,34.277,58.501,51.032333333333334,-0.07099999999999995,-0.10000000000000009,0.11293,0.102995,0.0,218.345,218.29000000000002,214.92333333333335,214.92333333333335,0.0,0.0
32,0.0,0.0,0.0,1.0,1.0,0.0,0.0,1.0,0.0,100.0,1.0,1.1856,26.0,0.0,0.0,0.0,59.999996,0.0,26.0,26.0,26.0,26.0,-0.11644444444444446,0.26280000000000014,-0.0412,291.245,-2.6452,-2.709375,-1.5846,-1.5806,-166.89999999999998,216.0025,190.278125,0.0,0.0,0.0,0.0,0.0648333333333333,-5.498166666666667,-5.498166666666667,-0.6097,0.22766666666666666,-0.1027499999999999,-0.8789999999999996,69.876,-0.0772,-0.228575,0.6739999999999995,100.0,1.0,1.0,215.45333333333332,0.0,0.0,0.0,0.0,0.0,0.0,0.0,9132.3,0.0,55.0,5.0,251.52666666666664,0.0,0.0,0.0,0.0,0.0,0.0,1.0,0.0,1.6080000000000005,1.6080000000000005,0.0,0.0,0.0,55.0,616.79921,10000.0,85.000001,85.000001,85.000001,85.000001,395.0,0.0,0.0,0.0,1.0,166.665,51.224000000000004,51.224000000000004,46.677,46.677,34.0,-29.6425,20.464,-34.989999999999995,24.655,0.0,1782.057,0.14499999999999957,100.0,29.411,28.622,44.78,43.64,0.0,0.0,100.0,0.0,0.0,0.0,0.0,3437.857142857143,2998.5,4309.375,4144.1,304.5765,305.173,314.54375,314.726,22.0875,20.6832,22.0919,21.5912,314.999998,314.999998,324.999988,324.999988,99.55961428571429,99.5075,99.56928571428571,99.54944285714285,0.008999999999999897,-0.1353333333333333,-0.195,0.030333333333333323,-0.054999999999999716,-0.05000000000000071,1.5173333333333332,1.5474999999999999,39.047,30.269666666666666,39.074,35.945,55.971000000000004,35.7425,60.119,53.399,53.896,34.81,58.667,51.694,53.03,34.316,58.5325,51.08533333333334,-0.07050000000000001,-0.09399999999999986,0.10519500000000001,0.104855,0.0,218.765,218.69,215.45333333333332,215.45333333333332,0.0,0.0
33,0.0,0.0,0.0,1.0,1.0,0.0,0.0,1.0,0.0,100.0,1.0,1.1856,26.0,0.0,0.0,0.0,59.999996,0.0,26.0,26.0,26.0,26.0,-0.08744444444444444,0.26270000000000016,-0.0105,291.443,-2.6479,-2.7592499999999998,-1.5293,-1.6436000000000002,-163.32999999999998,215.9925,190.251375,0.0,0.0,0.0,0.0,0.06689999999999996,-5.498166666666667,-5.498166666666667,-0.6123000000000001,-0.49633333333333335,-0.0831249999999999,1.4379999999999997,70.006,-0.0685,-0.2152,0.4480000000000004,100.0,1.0,1.0,215.76,0.0,0.0,0.0,0.0,0.0,0.0,0.0,9145.3,0.0,55.0,5.0,251.99666666666667,1.0,0.0,0.0,0.0,0.0,0.0,1.0,0.0,1.658999999999999,1.658999999999999,0.0,0.0,1.0,55.0,616.79921,10000.0,85.000001,85.000001,85.000001,85.000001,395.0,0.0,0.0,0.0,1.0,166.665,51.926,51.926,46.57,46.57,34.0,-25.905,21.948,-32.986666666666665,27.7375,0.0,1782.006,-0.04499999999999815,100.0,29.243,28.162,44.851,43.743,0.0,0.0,100.0,0.0,0.0,0.0,0.0,3148.0,3000.0,4211.5,4271.3,305.2865,305.35,314.57125,314.3115,22.097,20.6886,22.1024,21.6005,314.999998,314.999998,324.999988,324.999988,99.55961428571429,99.50753333333333,99.56942857142857,99.54958571428571,0.03400000000000025,-0.1056666666666668,-0.17866666666666667,0.04600000000000004,-0.03333333333333144,-0.05099999999999838,1.472,1.4825,39.105999999999995,30.303666666666665,39.14,36.003,55.956,35.782,60.158,53.4585,53.881,34.8465,58.7035,51.751,53.013999999999996,34.351,58.5665,51.14066666666667,-0.08850000000000002,-0.0714999999999999,0.10078500000000001,0.109365,0.0,219.15,219.07999999999998,215.76,215.76,0.0,0.0
34,0.0,0.0,0.0,1.0,1.0,0.0,0.0,1.0,0.0,100.0,1.0,1.1856,26.0,0.0,0.0,0.0,59.999996,0.0,26.0,26.0,26.0,26.0,-0.05355555555555558,0.2571000000000001,-0.09598,291.946,-2.6703,-2.73675,-1.5993,-1.6059999999999999,-159.76,215.98000000000002,190.223375,0.0,0.0,0.0,0.0,0.06899999999999995,-5.498166666666667,-5.498166666666667,-0.6475000000000001,-0.8073333333333333,-0.05162500000000003,-0.1639999999999997,70.134,-0.053000000000000005,-0.22740000000000002,0.3179999999999996,100.0,1.0,1.0,216.2266666666667,0.0,0.0,0.0,0.0,0.0,0.0,0.0,9165.1,0.0,55.0,5.0,252.45666666666665,0.0,0.0,0.0,0.0,0.0,0.0,1.0,0.0,1.7100000000000009,1.7100000000000009,0.0,0.0,0.0,55.0,616.79921,10000.0,85.000001,85.000001,85.000001,85.000001,395.0,0.0,0.0,0.0,1.0,166.665,52.322,52.322,47.348,47.348,34.0,-25.53,21.4,-31.88,25.985,0.0,1781.956,-0.04499999999999815,100.0,28.757,28.014,44.364000000000004,43.844,0.0,0.0,100.0,0.0,0.0,0.0,0.0,3129.285714285714,2916.0,4099.625,4072.0,305.4055,305.42033333333336,314.9885,314.7605,22.1063,20.6941,22.1128,21.6097,314.999998,314.999998,324.999988,324.999988,99.55962857142858,99.50753333333333,99.56958571428571,99.54974285714286,0.04166666666666696,-0.10233333333333317,-0.16816666666666666,0.055333333333333234,-0.04333333333332945,-0.04499999999999815,1.525,1.5405000000000002,39.164,30.338,39.205,36.0605,55.94,35.821,60.1935,53.516999999999996,53.866,34.8825,58.737,51.8075,52.998000000000005,34.3855,58.5965,51.19566666666667,-0.09299999999999997,-0.06999999999999984,0.10148000000000001,0.107575,0.0,219.51999999999998,219.465,216.22666666666666,216.2266666666667,0.0,0.0
35,0.0,0.0,0.0,1.0,1.0,0.0,0.0,1.0,0.0,100.0,1.0,1.1856,26.0,0.0,0.0,0.0,59.999996,0.0,26.0,26.0,26.0,26.0,-0.03744444444444439,0.25550000000000006,-0.0726,291.824,-2.6683,-2.69025,-1.5599,-1.6183,-156.39,215.965,190.195,0.0,0.0,0.0,0.0,0.0709333333333334,-5.498166666666667,-5.498166666666667,-0.6859000000000001,-0.269,-0.06037500000000007,-0.915,70.253,-0.0375,-0.22975,0.17999999999999972,100.0,1.0,1.0,216.66333333333333,0.0,0.0,0.0,0.0,0.0,0.0,0.0,9183.5,0.0,55.0,5.0,252.88666666666666,1.0,0.0,0.0,0.0,0.0,0.0,1.0,0.0,1.7579999999999991,1.7579999999999991,0.0,0.0,1.0,55.0,616.79921,10000.0,85.000001,85.000001,85.000001,85.000001,395.0,0.0,0.0,0.0,1.0,333.33500000000004,51.575,51.575,47.104,47.104,34.0,-26.747500000000002,24.311999999999998,-29.256666666666664,26.442500000000003,0.0,1781.906,-0.015000000000000568,100.0,28.6,28.387,44.09,43.376,0.0,0.0,100.0,0.0,0.0,0.0,0.0,3275.142857142857,3259.6,4036.125,3924.1000000000004,305.031,304.4193333333333,315.07575,315.16575,22.1149,20.6994,22.1225,21.6182,314.999998,314.999998,324.999988,324.999988,99.55962857142858,99.50755,99.56972857142857,99.54987142857142,0.04366666666666674,-0.09133333333333327,-0.1385,0.08683333333333332,-0.036666666666668846,-0.05099999999999838,1.5606666666666666,1.5525000000000002,39.218,30.371333333333332,39.265,36.1135,55.923,35.8595,60.227000000000004,53.569,53.851,34.9185,58.768,51.857,52.982,34.4195,58.6245,51.24433333333333,-0.08299999999999996,-0.07699999999999996,0.1004,0.118885,0.0,219.87,219.85500000000002,216.66333333333336,216.66333333333333,0.0,0.0
36,0.0,0.0,0.0,1.0,1.0,0.0,0.0,1.0,0.0,100.0,1.0,1.1856,26.0,0.0,0.0,0.0,59.999996,0.0,26.0,26.0,26.0,26.0,-0.052999999999999936,0.2670000000000001,0.07684,290.878,-2.6182,-2.768125,-1.5336,-1.6138,-152.8,215.9475,190.163375,0.0,0.0,0.0,0.0,0.0730333333333334,-5.498166666666667,-5.498166666666667,-0.6626000000000001,0.17866666666666667,-0.09275000000000011,0.18299999999999983,70.384,-0.0296,-0.199025,0.2599999999999998,100.0,1.0,1.0,216.79666666666668,0.0,0.0,0.0,0.0,0.0,0.0,0.0,9189.2,0.0,55.0,5.0,253.35666666666668,0.0,0.0,0.0,0.0,0.0,0.0,1.0,0.0,1.809000000000001,1.809000000000001,0.0,0.0,0.0,55.0,616.79921,10000.0,85.000001,85.000001,85.000001,85.000001,395.0,0.0,0.0,0.0,1.0,166.665,51.468,51.468,46.082,46.082,34.0,-24.0325,23.762,-33.239999999999995,32.485,0.0,1781.856,-0.120000000000001,100.0,29.264,28.58,44.405,43.822,0.0,0.0,100.0,0.0,0.0,0.0,0.0,3092.714285714286,3065.2,4444.875,4584.1,305.1945,304.89,314.04975,313.61975,22.1244,20.7052,22.1329,21.6275,314.999998,314.999998,324.999988,324.999988,99.55964285714286,99.50756666666666,99.56987142857143,99.55001428571428,0.06666666666666643,-0.08499999999999996,-0.13883333333333334,0.08899999999999997,-0.03499999999999659,-0.05600000000000094,1.4226666666666667,1.4264999999999999,39.277,30.407666666666664,39.331,36.172,55.91,35.9015,60.265,53.6295,53.838,34.957,58.8035,51.9155,52.969,34.4565,58.657,51.301,-0.08799999999999997,-0.08300000000000018,0.11106500000000001,0.114765,0.0,220.315,220.285,216.79666666666668,216.79666666666668,0.0,0.0
