,ABS Active,ABS Enabled,AID Allow Tire Blankets,AID Auto Blip,AID Auto Clutch,AID Auto Shift,AID Fuel Rate,AID Ideal Line,AID Mech Damage,AID Stability,AID Tire Wear Rate,Air Density,Air Temp,Ballast,Best Lap Delta,Best Lap Time,Brake Bias,Brake Pos,Brake Temp FL,Brake Temp FR,Brake Temp RL,Brake Temp RR,CG Accel Lateral,CG Accel Longitudinal,CG Accel Vertical,CG Height,Camber FL,Camber FR,Camber RL,Camber RR,Car Coord X,Car Coord Y,Car Coord Z,Car Damage Front,Car Damage Left,Car Damage Rear,Car Damage Right,Car Pos Norm,Caster FL,Caster FR,Chassis Pitch Angle,Chassis Pitch Rate,Chassis Roll Angle,Chassis Roll Rate,Chassis Velocity X,Chassis Velocity Y,Chassis Velocity Z,Chassis Yaw Rate,Clutch Pos,DRS Active,DRS Available,Drive Train Speed,ERS Heat Charging,ERS Is Charging,ERS Max Energy,ERS Power Level,ERS Recovery Level,Engine Brake Setting,Engine Limiter,Engine RPM,Flags,Fuel Level,Gear,Ground Speed,HR Sample Clock,In Pit,KERS Charge,KERS Deployed Energy,KERS Input,KERS Max Energy,LR Sample Clock,Lap Invalidated,Lap Time,Lap Time2,Last Lap Time,Last Sector Time,MR Sample Clock,Max Fuel,Max Power,Max RPM,Max Sus Travel FL,Max Sus Travel FR,Max Sus Travel RL,Max Sus Travel RR,Max Torque,Max Turbo Boost,Num Tires Off Track,Penalties Enabled,Position,Raw Data Sample Rate,Ride Height FL,Ride Height FR,Ride Height RL,Ride Height RR,Road Temp,Self Align Torque FL,Self Align Torque FR,Self Align Torque RL,Self Align Torque RR,Session Lap Count,Session Time Left,Steering Angle,Surface Grip,Suspension Travel FL,Suspension Travel FR,Suspension Travel RL,Suspension Travel RR,TC Active,TC Enabled,Throttle Pos,Tire Dirt Level FL,Tire Dirt Level FR,Tire Dirt Level RL,Tire Dirt Level RR,Tire Load FL,Tire Load FR,Tire Load RL,Tire Load RR,Tire Loaded Radius FL,Tire Loaded Radius FR,Tire Loaded Radius RL,Tire Loaded Radius RR,Tire Pressure FL,Tire Pressure FR,Tire Pressure RL,Tire Pressure RR,Tire Radius FL,Tire Radius FR,Tire Radius RL,Tire Radius RR,Tire Rubber Grip FL,Tire Rubber Grip FR,Tire Rubber Grip RL,Tire Rubber Grip RR,Tire Slip Angle FL,Tire Slip Angle FR,Tire Slip Angle RL,Tire Slip Angle RR,Tire Slip Ratio FL,Tire Slip Ratio FR,Tire Slip Ratio RL,Tire Slip Ratio RR,Tire Temp Core FL,Tire Temp Core FR,Tire Temp Core RL,Tire Temp Core RR,Tire Temp Inner FL,Tire Temp Inner FR,Tire Temp Inner RL,Tire Temp Inner RR,Tire Temp Middle FL,Tire Temp Middle FR,Tire Temp Middle RL,Tire Temp Middle RR,Tire Temp Outer FL,Tire Temp Outer FR,Tire Temp Outer RL,Tire Temp Outer RR,Toe In FL,Toe In FR,Toe In RL,Toe In RR,Turbo Boost,Wheel Angular Speed FL,Wheel Angular Speed FR,Wheel Angular Speed RL,Wheel Angular Speed RR,Wind Direction,Wind Speed
0,0.0,0.0,0.0,1.0,1.0,0.0,0.0,1.0,0.0,100.0,1.0,1.1856,26.0,0.0,0.0,0.0,59.99999,0.0,26.0,26.0,26.0,26.0,-0.028749999999999942,0.3017000000000001,0.08673333333333334,293.457,-2.7397,-2.62875,-1.5531000000000001,-1.5121,-275.76,215.5875,190.988,0.0,0.0,0.0,0.0,0.0015333333333333334,-5.498166666666667,-5.498166666666667,-0.5609000000000001,1.9086666666666665,-0.003750000000000142,0.04499999999999993,65.462,-0.0357,-0.221925,0.12600000000000033,100.0,1.0,1.0,202.11333333333334,0.0,0.0,0.0,0.0,0.0,0.0,0.0,8566.8,0.0,55.0,5.0,235.63333333333333,0.0,0.0,0.0,0.0,0.0,0.0,0.0,0.0,0.0030000000000001137,0.0030000000000001137,0.0,0.0,0.0,55.0,616.79921,10000.0,85.0,85.0,85.0,85.0,395.0,0.0,0.0,0.0,1.0,20.0,51.376,51.376,49.132999999999996,49.132999999999996,34.0,-28.415,30.89,-29.166666666666664,26.1575,0.0,1783.782,0.245000000000001,100.0,27.305,27.004,40.394,40.051,0.0,0.0,100.0,0.0,0.0,0.0,0.0,3263.75,4159.7,4055.1111111111113,4122.5,304.7966666666667,302.01575,314.97425,314.62425,21.7669,20.509900000000002,21.7624,21.3053,314.99999,314.99999,324.99998,324.99998,99.55835714285715,99.50711666666666,99.56481428571429,99.5448,0.020999999999999908,-0.08966666666666678,-0.13866666666666666,0.083,-0.05333333333332746,-0.05833333333333002,1.5593333333333332,1.571,37.043,29.186999999999998,37.015,34.158500000000004,56.095,34.3715,58.922,51.4505,54.03,33.5815,57.5565,49.822,53.208,33.1785,57.5235,49.253,-0.055499999999999994,-0.09299999999999997,0.10486000000000001,0.10558000000000001,0.0,205.135,205.125,202.11333333333334,202.11333333333334,0.0,0.0
1,0.0,0.0,0.0,1.0,1.0,0.0,0.0,1.0,0.0,100.0,1.0,1.1856,26.0,0.0,0.0,0.0,59.999996,0.0,26.0,26.0,26.0,26.0,-0.06825000000000003,0.32030000000000003,0.16663333333333333,292.511,-2.6501,-2.709,-1.5921,-1.3827,-272.22,215.60250000000002,190.966875,0.0,0.0,0.0,0.0,0.0036000000000000003,-5.498166666666667,-5.498166666666667,-0.4781,-1.7726666666666664,-0.05237500000000006,-0.3129999999999997,65.629,-0.0309,-0.184425,0.7000000000000002,100.0,1.0,1.0,202.04333333333335,0.0,0.0,0.0,0.0,0.0,0.0,0.0,8563.9,0.0,55.0,5.0,236.23333333333335,1.0,0.0,0.0,0.0,0.0,0.0,0.0,0.0,0.05699999999999861,0.05699999999999861,0.0,0.0,1.0,55.0,616.79921,10000.0,85.000001,85.000001,85.000001,85.000001,395.0,0.0,0.0,0.0,1.0,111.11,54.352000000000004,54.352000000000004,47.562,47.562,34.0,-23.1475,16.608333333333334,-37.41666666666667,32.165,0.0,1783.73,0.5199999999999996,100.0,27.501,26.979,42.445,43.031,0.0,0.0,100.0,0.0,0.0,0.0,0.0,2831.375,2443.9,4733.444444444444,5165.6,306.2076666666667,307.033,313.15875,311.64925,21.7772,20.5152,21.774,21.3152,314.999998,314.999998,324.999988,324.999988,99.55837142857143,99.50713333333333,99.56497142857143,99.54495714285714,0.02300000000000013,-0.11399999999999988,-0.14,0.06133333333333334,-0.046666666666666856,-0.01999999999999602,1.3116666666666665,1.3159999999999998,37.108000000000004,29.22,37.087,34.22,56.077,34.412,58.973,51.5245,54.012,33.619,57.6045,49.8925,53.19,33.2145,57.5685,49.32233333333333,-0.040999999999999925,-0.1140000000000001,0.09566500000000001,0.11342,0.0,205.60500000000002,205.55,202.04333333333335,202.04333333333335,0.0,0.0
2,0.0,0.0,0.0,1.0,1.0,0.0,0.0,1.0,0.0,100.0,1.0,1.1856,26.0,0.0,0.0,0.0,59.999996,0.0,26.0,26.0,26.0,26.0,-0.09599999999999997,0.28780000000000006,0.034800000000000005,293.991,-2.6362,-2.6595,-1.5275,-1.5164,-268.87,215.6125,190.948,0.0,0.0,0.0,0.0,0.005566666666666667,-5.498166666666667,-5.498166666666667,-0.5768,0.5249999999999999,-0.012375000000000025,1.968,65.765,-0.037000000000000005,-0.2675,1.0060000000000002,100.0,1.0,1.0,203.45,0.0,0.0,0.0,0.0,0.0,0.0,0.0,8623.6,0.0,55.0,5.0,236.72333333333333,0.0,0.0,0.0,0.0,0.0,0.0,0.0,0.0,0.10800000000000054,0.10800000000000054,0.0,0.0,0.0,55.0,616.79921,10000.0,85.000001,85.000001,85.000001,85.000001,395.0,0.0,0.0,0.0,1.0,166.665,52.002,52.002,50.888,50.888,34.0,-29.4525,21.303333333333335,-25.186666666666664,18.665,0.0,1783.678,0.6649999999999991,100.0,28.126,27.291,41.815,41.472,0.0,0.0,100.0,0.0,0.0,0.0,0.0,3368.125,3162.6,3501.8888888888887,3389.5,304.5656666666667,304.706,316.30625,316.49025,21.7873,20.5204,21.7842,21.3235,314.999998,314.999998,324.999988,324.999988,99.55838571428572,99.50715,99.56511428571429,99.54508571428572,-0.00275000000000003,-0.1313333333333333,-0.18266666666666667,0.051666666666666666,-0.05333333333332746,-0.07666666666666799,1.7546666666666666,1.796,37.17,29.252333333333333,37.150999999999996,34.272,56.064,34.453,59.007999999999996,51.574,54.0,33.6565,57.637,49.94,53.176,33.2505,57.598,49.369,-0.027000000000000024,-0.13000000000000012,0.11091000000000001,0.11085,0.0,206.055,205.965,203.45,203.45,0.0,0.0
3,0.0,0.0,0.0,1.0,1.0,0.0,0.0,1.0,0.0,100.0,1.0,1.1856,26.0,0.0,0.0,0.0,59.999996,0.0,26.0,26.0,26.0,26.0,-0.09537499999999999,0.3147,0.09063333333333334,293.121,-2.6498,-2.6946250000000003,-1.5098500000000001,-1.491,-265.71,215.6225,190.928875,0.0,0.0,0.0,0.0,0.0074,-5.498166666666667,-5.498166666666667,-0.5029,0.4076666666666666,-0.003750000000000142,-1.4180000000000001,65.913,-0.0536,-0.18837500000000001,0.8660000000000005,100.0,1.0,1.0,203.26333333333332,0.0,0.0,0.0,0.0,0.0,0.0,0.0,8615.6,0.0,55.0,5.0,237.25666666666666,1.0,0.0,0.0,0.0,0.0,0.0,0.0,0.0,0.1559999999999988,0.1559999999999988,0.0,0.0,1.0,55.0,616.79921,10000.0,85.000001,85.000001,85.000001,85.000001,395.0,0.0,0.0,0.0,1.0,166.665,53.36,53.36,47.699,47.699,34.0,-24.43,19.505,-33.92,26.14,0.0,1783.631,0.7050000000000018,100.0,27.818,27.315,42.125,41.849000000000004,0.0,0.0,100.0,0.0,0.0,0.0,0.0,2896.0,2914.9,4482.0,4286.1,306.0966666666667,305.51875,313.883,314.08225,21.7964,20.5253,21.794,21.332,314.999998,314.999998,324.999988,324.999988,99.55838571428572,99.50715,99.56524285714286,99.54521428571428,0.0030000000000001137,-0.1346666666666667,-0.1545,0.055,-0.03333333333333144,-0.05833333333333002,1.4266666666666667,1.474,37.227000000000004,29.28333333333333,37.212,34.325,56.047,34.494,59.046,51.637,53.983999999999995,33.694,57.6725,50.0005,53.16,33.286500000000004,57.631,49.428333333333335,-0.024499999999999966,-0.13000000000000012,0.100885,0.10709,0.0,206.525,206.46,203.26333333333332,203.26333333333332,0.0,0.0
4,0.0,0.0,0.0,1.0,1.0,0.0,0.0,1.0,0.0,100.0,1.0,1.1856,26.0,0.0,0.0,0.0,59.999996,0.0,26.0,26.0,26.0,26.0,-0.11675000000000002,0.30320000000000014,-0.039566666666666674,293.396,-2.6449,-2.7661249999999997,-1.4572500000000002,-1.6034000000000002,-262.54,215.6275,190.910625,0.0,0.0,0.0,0.0,0.009233333333333333,-5.498166666666667,-5.498166666666667,-0.5326000000000001,-0.9886666666666668,-0.05624999999999991,0.01100000000000012,66.051,-0.0653,-0.233575,1.2460000000000004,100.0,1.0,1.0,203.86666666666667,0.0,0.0,0.0,0.0,0.0,0.0,0.0,8641.1,0.0,55.0,5.0,237.75333333333333,0.0,0.0,0.0,0.0,0.0,0.0,0.0,0.0,0.20400000000000063,0.20400000000000063,0.0,0.0,0.0,55.0,616.79921,10000.0,85.000001,85.000001,85.000001,85.000001,395.0,0.0,0.0,0.0,1.0,166.665,53.024,53.024,48.737,48.737,34.0,-27.6475,19.776666666666667,-30.783333333333335,22.759999999999998,0.0,1783.582,0.740000000000002,100.0,27.951999999999998,27.012999999999998,42.891999999999996,41.983000000000004,0.0,0.0,100.0,0.0,0.0,0.0,0.0,3129.375,2907.8,4073.3333333333335,3840.3,305.28133333333335,305.6185,314.86275,315.275,21.8056,20.53,21.804,21.3404,314.999998,314.999998,324.999988,324.999988,99.55838571428572,99.50718333333333,99.56538571428571,99.54535714285714,-0.01550000000000007,-0.1399999999999999,-0.18966666666666665,0.0315,-0.04333333333332945,-0.02833333333332888,1.542,1.5795,37.285,29.312666666666665,37.275,34.3775,56.032,34.5315,59.087,51.6935,53.969,33.729,57.710499999999996,50.0545,53.144,33.3195,57.6665,49.48133333333333,-0.01749999999999996,-0.13200000000000012,0.10473500000000001,0.10686000000000001,0.0,206.9,206.79500000000002,203.86666666666667,203.86666666666667,0.0,0.0
5,0.0,0.0,0.0,1.0,1.0,0.0,0.0,1.0,0.0,100.0,1.0,1.1856,26.0,0.0,0.0,0.0,59.999996,0.0,26.0,26.0,26.0,26.0,-0.10162499999999997,0.30100000000000016,-0.037733333333333334,293.655,-2.7032,-2.7185,-1.5112999999999999,-1.5986,-259.17,215.6325,190.89075,0.0,0.0,0.0,0.0,0.0112,-5.498166666666667,-5.498166666666667,-0.5422,0.5206666666666666,-0.04787499999999989,-0.4740000000000002,66.196,-0.08320000000000001,-0.2296,1.2460000000000004,100.0,1.0,1.0,204.40666666666667,0.0,0.0,0.0,0.0,0.0,0.0,0.0,8664.1,0.0,55.0,5.0,238.2733333333333,1.0,0.0,0.0,0.0,0.0,0.0,0.0,0.0,0.254999999999999,0.254999999999999,0.0,0.0,1.0,55.0,616.79921,10000.0,85.000001,85.000001,85.000001,85.000001,395.0,0.0,0.0,0.0,1.0,333.33500000000004,53.024,53.024,49.301,49.301,34.0,-29.072499999999998,19.39,-31.46,21.7375,0.0,1783.53,0.46000000000000085,100.0,27.815,27.043,42.465,41.455,0.0,0.0,100.0,0.0,0.0,0.0,0.0,3231.25,2876.2,3983.8888888888887,3901.9,305.0876666666667,305.518,315.173,315.1575,21.8155,20.5352,21.8143,21.3491,314.999998,314.999998,324.999988,324.999988,99.55838571428572,99.5072,99.56552857142857,99.5455,-0.015249999999999986,-0.13866666666666672,-0.21066666666666667,0.006833333333333333,-0.021666666666668277,-0.06666666666666998,1.5566666666666666,1.6275,37.347,29.345,37.34,34.4315,56.016999999999996,34.576,59.1275,51.754,53.955,33.7695,57.749,50.113,53.129000000000005,33.3585,57.701499999999996,49.538333333333334,-0.04249999999999998,-0.10899999999999999,0.10613500000000001,0.10559,0.0,207.41,207.3,204.40666666666667,204.40666666666667,0.0,0.0
6,0.0,0.0,0.0,1.0,1.0,0.0,0.0,1.0,0.0,100.0,1.0,1.1856,26.0,0.0,0.0,0.0,59.999996,0.0,26.0,26.0,26.0,26.0,-0.119,0.3024,0.021366666666666666,293.533,-2.6444,-2.7898750000000003,-1.5517,-1.5756999999999999,-255.99,215.635,190.8715,0.0,0.0,0.0,0.0,0.013033333333333334,-5.498166666666667,-5.498166666666667,-0.5257000000000001,-0.05866666666666687,-0.06599999999999984,-1.096,66.336,-0.0883,-0.20535,1.0340000000000007,100.0,1.0,1.0,204.65666666666667,0.0,0.0,0.0,0.0,0.0,0.0,0.0,8674.7,0.0,55.0,5.0,238.78,0.0,0.0,0.0,0.0,0.0,0.0,0.0,0.0,0.3030000000000008,0.3030000000000008,0.0,0.0,0.0,55.0,616.79921,10000.0,85.000001,85.000001,85.000001,85.000001,395.0,0.0,0.0,0.0,1.0,166.665,53.65,53.65,48.462,48.462,34.0,-28.715,18.406666666666666,-35.81666666666666,22.9675,0.0,1783.483,0.5300000000000011,100.0,27.441,26.666,42.607,41.549,0.0,0.0,100.0,0.0,0.0,0.0,0.0,3200.125,2752.1,4343.0,4031.9,305.23266666666666,305.906,314.29775,314.786,21.8246,20.54,21.8242,21.3574,314.999998,314.999998,324.999988,324.999988,99.55838571428572,99.50721666666666,99.56565714285715,99.54562857142857,-0.028750000000000053,-0.1543333333333332,-0.211,0.013000000000000001,-0.05833333333333002,-0.023333333333326323,1.501,1.547,37.403999999999996,29.374666666666666,37.400999999999996,34.484,56.003,34.6115,59.165,51.8085,53.941,33.8025,57.783500000000004,50.165,53.114999999999995,33.39,57.7335,49.589333333333336,-0.03500000000000003,-0.10699999999999998,0.09943,0.11185500000000001,0.0,207.84,207.72,204.65666666666667,204.65666666666667,0.0,0.0
7,0.0,0.0,0.0,1.0,1.0,0.0,0.0,1.0,0.0,100.0,1.0,1.1856,26.0,0.0,0.0,0.0,59.999996,0.0,26.0,26.0,26.0,26.0,-0.11324999999999996,0.2934000000000001,-0.0088,293.51800000000003,-2.6057,-2.79325,-1.50695,-1.6221,-252.6,215.6325,190.851,0.0,0.0,0.0,0.0,0.015000000000000001,-5.498166666666667,-5.498166666666667,-0.535,0.09633333333333338,-0.053999999999999826,1.0679999999999996,66.48,-0.0912,-0.21910000000000002,0.8500000000000005,100.0,1.0,1.0,205.19333333333333,0.0,0.0,0.0,0.0,0.0,0.0,0.0,8697.4,0.0,55.0,5.0,239.3,1.0,0.0,0.0,0.0,0.0,0.0,0.0,0.0,0.3539999999999992,0.3539999999999992,0.0,0.0,1.0,55.0,616.79921,10000.0,85.000001,85.000001,85.000001,85.000001,395.0,0.0,0.0,0.0,1.0,166.665,53.177,53.177,48.888999999999996,48.888999999999996,34.0,-26.2025,21.48,-32.42666666666666,23.095,0.0,1783.431,-0.015000000000000568,100.0,27.875,26.665,42.731,41.536,0.0,0.0,100.0,0.0,0.0,0.0,0.0,3110.0,2949.5,4041.777777777778,3978.2,305.255,305.44,314.929,314.975,21.8345,20.5451,21.834699999999998,21.3663,314.999998,314.999998,324.999988,324.999988,99.5584,99.50723333333333,99.5658,99.54575714285714,0.009250000000000203,-0.11333333333333329,-0.215,0.013666666666666666,-0.054999999999999716,-0.051666666666669414,1.5383333333333333,1.5765,37.466,29.407,37.467,34.539500000000004,55.989000000000004,34.6525,59.205,51.8685,53.928,33.84,57.821,50.2225,53.101,33.426,57.7685,49.64566666666666,-0.07650000000000001,-0.07050000000000001,0.11103500000000001,0.10504500000000001,0.0,208.275,208.175,205.19333333333333,205.19333333333333,0.0,0.0
8,0.0,0.0,0.0,1.0,1.0,0.0,0.0,1.0,0.0,100.0,1.0,1.1856,26.0,0.0,0.0,0.0,59.999996,0.0,26.0,26.0,26.0,26.0,-0.06912499999999999,0.2872000000000001,-0.014566666666666667,293.533,-2.691,-2.721125,-1.48615,-1.6128,-249.2,215.6275,190.83025,0.0,0.0,0.0,0.0,0.017,-5.498166666666667,-5.498166666666667,-0.5368,-0.27900000000000014,-0.04400000000000004,-0.9589999999999996,66.626,-0.0799,-0.219275,0.5060000000000002,100.0,1.0,1.0,205.58666666666667,0.0,0.0,0.0,0.0,0.0,0.0,0.0,8714.1,0.0,55.0,5.0,239.82666666666665,0.0,0.0,0.0,0.0,0.0,0.0,0.0,0.0,0.40500000000000114,0.40500000000000114,0.0,0.0,0.0,55.0,616.79921,10000.0,85.000001,85.000001,85.000001,85.000001,395.0,0.0,0.0,0.0,1.0,166.665,53.452,53.452,48.538,48.538,34.0,-26.9775,20.49666666666667,-31.3,24.185000000000002,0.0,1783.381,-0.07000000000000028,100.0,27.363,26.884,42.706,41.768,0.0,0.0,100.0,0.0,0.0,0.0,0.0,3135.5,2908.8,4097.444444444444,3982.2,305.4146666666667,305.42975,314.8755,314.8605,21.8442,20.5503,21.8452,21.3753,314.999998,314.999998,324.999988,324.999988,99.5584,99.50723333333333,99.56594285714286,99.5459,0.007750000000000146,-0.11799999999999988,-0.189,0.03233333333333334,-0.060000000000002274,-0.02833333333332888,1.5363333333333333,1.539,37.525999999999996,29.439,37.532,34.5955,55.973,34.693,59.2455,51.93,53.913,33.876999999999995,57.859,50.281,53.085,33.461,57.8035,49.703,-0.07750000000000001,-0.06950000000000012,0.09956000000000001,0.10734500000000001,0.0,208.695,208.64,205.58666666666667,205.58666666666667,0.0,0.0
9,0.0,0.0,0.0,1.0,1.0,0.0,0.0,1.0,0.0,100.0,1.0,1.1856,26.0,0.0,0.0,0.0,59.999996,0.0,26.0,26.0,26.0,26.0,-0.071125,0.2913000000000001,0.017266666666666666,293.289,-2.605,-2.740125,-1.53555,-1.5714000000000001,-245.8,215.6225,190.809375,0.0,0.0,0.0,0.0,0.018966666666666666,-5.498166666666667,-5.498166666666667,-0.5353,0.33666666666666667,-0.05224999999999991,0.8159999999999998,66.771,-0.0641,-0.21285,0.17799999999999994,100.0,1.0,1.0,206.05,0.0,0.0,0.0,0.0,0.0,0.0,0.0,8733.7,0.0,55.0,5.0,240.34666666666666,1.0,0.0,0.0,0.0,0.0,0.0,0.0,0.0,0.4559999999999995,0.4559999999999995,0.0,0.0,1.0,55.0,616.79921,10000.0,85.000001,85.000001,85.000001,85.000001,395.0,0.0,0.0,0.0,1.0,166.665,52.948,52.948,48.813,48.813,34.0,-25.607499999999998,22.556666666666665,-30.75,25.509999999999998,0.0,1783.331,-0.23000000000000043,100.0,27.872,26.852,42.702,41.71,0.0,0.0,100.0,0.0,0.0,0.0,0.0,3165.875,3028.0,4045.1111111111113,4103.6,305.115,305.2375,314.95775,314.713,21.854,20.5555,21.8556,21.3842,314.999998,314.999998,324.999988,324.999988,99.5584,99.50725,99.5661,99.54604285714285,0.03500000000000014,-0.09099999999999997,-0.17400000000000002,0.056666666666666664,-0.03999999999999915,-0.061666666666667425,1.5503333333333333,1.565,37.588,29.472,37.597,34.650999999999996,55.958,34.733000000000004,59.285,51.9895,53.899,33.914,57.8955,50.338499999999996,53.071,33.4965,57.837,49.759,-0.09750000000000003,-0.056499999999999995,0.10801500000000001,0.11143000000000002,0.0,209.13,209.12,206.05,206.05,0.0,0.0
10,0.0,0.0,0.0,1.0,1.0,0.0,0.0,1.0,0.0,100.0,1.0,1.1856,26.0,0.0,0.0,0.0,59.999996,0.0,26.0,26.0,26.0,26.0,-0.043749999999999956,0.29510000000000014,0.015766666666666665,293.182,-2.6673999999999998,-2.714125,-1.50065,-1.5556999999999999,-242.59,215.615,190.78975,0.0,0.0,0.0,0.0,0.020833333333333336,-5.498166666666667,-5.498166666666667,-0.5261,-0.2463333333333333,-0.024624999999999897,1.6910000000000007,66.907,-0.045000000000000005,-0.20902500000000002,-0.09399999999999942,100.0,1.0,1.0,206.37666666666667,0.0,0.0,0.0,0.0,0.0,0.0,0.0,8747.5,0.0,55.0,5.0,240.83666666666664,0.0,0.0,0.0,0.0,0.0,0.0,1.0,0.0,0.5040000000000013,0.5040000000000013,0.0,0.0,0.0,55.0,616.79921,10000.0,85.000001,85.000001,85.000001,85.000001,395.0,0.0,0.0,0.0,1.0,166.665,53.36,53.36,48.233000000000004,48.233000000000004,34.0,-23.8825,22.298333333333332,-30.266666666666666,27.3525,0.0,1783.283,-0.2699999999999996,100.0,27.822,26.838,42.955,42.094,0.0,0.0,100.0,0.0,0.0,0.0,0.0,2981.125,2979.2,4128.333333333333,4266.0,305.672,305.44275,314.72175,314.3095,21.8632,20.5604,21.8655,21.3927,314.999998,314.999998,324.999988,324.999988,99.55841428571429,99.50726666666667,99.56622857142857,99.54617142857143,0.04850000000000021,-0.08033333333333315,-0.1545,0.068,-0.03999999999999915,-0.051666666666669414,1.5163333333333333,1.5105,37.644999999999996,29.502666666666666,37.659,34.704,55.945,34.769,59.323499999999996,52.048,53.885999999999996,33.9475,57.9315,50.3945,53.057,33.528,57.87,49.814,-0.09950000000000003,-0.052000000000000046,0.11292500000000001,0.096975,0.0,209.54000000000002,209.555,206.37666666666667,206.37666666666667,0.0,0.0
11,0.0,0.0,0.0,1.0,1.0,0.0,0.0,1.0,0.0,100.0,1.0,1.1856,26.0,0.0,0.0,0.0,59.999996,0.0,26.0,26.0,26.0,26.0,-0.022375000000000034,0.29410000000000003,-0.04216666666666667,293.488,-2.6775,-2.7032499999999997,-1.5585,-1.529,-238.98,215.60500000000002,190.767625,0.0,0.0,0.0,0.0,0.022600000000000002,-5.498166666666667,-5.498166666666667,-0.5514,-0.16300000000000003,0.001374999999999904,0.907,67.057,-0.027100000000000003,-0.22510000000000002,-0.11799999999999944,100.0,1.0,1.0,206.98000000000002,0.0,0.0,0.0,0.0,0.0,0.0,0.0,8773.2,0.0,55.0,5.0,241.37666666666667,1.0,0.0,0.0,0.0,0.0,0.0,1.0,0.0,0.5579999999999998,0.5579999999999998,0.0,0.0,1.0,55.0,616.79921,10000.0,85.000001,85.000001,85.000001,85.000001,395.0,0.0,0.0,0.0,1.0,166.665,53.207,53.207,48.92,48.92,34.0,-23.6875,24.035,-26.996666666666666,26.865000000000002,0.0,1783.228,-0.28000000000000114,100.0,27.516,26.962,42.625,42.179,0.0,0.0,100.0,0.0,0.0,0.0,0.0,3026.75,3099.8,3868.3333333333335,4038.0,305.5566666666667,305.03725,315.4125,314.878,21.8733,20.566,21.8764,21.4022,314.999998,314.999998,324.999988,324.999988,99.55841428571429,99.50726666666667,99.56638571428572,99.54632857142857,0.06499999999999995,-0.06233333333333313,-0.12583333333333332,0.1065,-0.041666666666671404,-0.05833333333333002,1.5853333333333333,1.5855,37.708,29.537666666666667,37.727999999999994,34.7635,55.929,34.8105,59.362,52.1125,53.870999999999995,33.985,57.968,50.4565,53.041,33.564499999999995,57.9035,49.87433333333333,-0.09799999999999998,-0.0515000000000001,0.098915,0.117485,0.0,209.985,210.005,206.98000000000002,206.98000000000002,0.0,0.0
12,0.0,0.0,0.0,1.0,1.0,0.0,0.0,1.0,0.0,100.0,1.0,1.1856,26.0,0.0,0.0,0.0,59.999996,0.0,26.0,26.0,26.0,26.0,-0.0031249999999999334,0.29280000000000017,0.0006333333333333333,293.137,-2.7094,-2.69475,-1.5401,-1.5441,-235.96,215.5975,190.748375,0.0,0.0,0.0,0.0,0.025466666666666665,-5.498166666666667,-5.498166666666667,-0.5432,0.3813333333333334,0.0003750000000000142,-0.6779999999999999,67.184,-0.0188,-0.20595000000000002,-0.06799999999999962,100.0,1.0,1.0,207.29000000000002,0.0,0.0,0.0,0.0,0.0,0.0,0.0,8786.2,0.0,55.0,5.0,241.82999999999998,0.0,0.0,0.0,0.0,0.0,0.0,1.0,0.0,0.602999999999998,0.602999999999998,0.0,0.0,0.0,55.0,616.79921,10000.0,85.000001,85.000001,85.000001,85.000001,395.0,0.0,0.0,0.0,1.0,166.665,52.963,52.963,48.248,48.248,34.0,-25.2075,23.5,-29.266666666666666,27.692500000000003,0.0,1783.182,-0.41000000000000014,100.0,27.42,27.36,42.428,42.274,0.0,0.0,100.0,0.0,0.0,0.0,0.0,3141.625,3039.6,4151.0,4121.7,305.3806666666667,305.02875,314.796,314.6275,21.8818,20.5708,21.8856,21.41,314.999998,314.999998,324.999988,324.999988,99.55842857142858,99.50728333333333,99.5665,99.54645714285714,0.05624999999999991,-0.06600000000000006,-0.12633333333333333,0.09983333333333333,-0.04833333333333201,-0.04999999999999716,1.545,1.5354999999999999,37.760999999999996,29.567333333333334,37.785,34.8125,55.917,34.8445,59.3955,52.166,53.86,34.016999999999996,57.9985,50.5075,53.028999999999996,33.5945,57.932,49.92466666666667,-0.09699999999999998,-0.0495000000000001,0.10127000000000001,0.10637500000000001,0.0,210.405,210.41,207.29000000000002,207.29000000000002,0.0,0.0
13,0.0,0.0,0.0,1.0,1.0,0.0,0.0,1.0,0.0,100.0,1.0,1.1856,26.0,0.0,0.0,0.0,59.999996,0.0,26.0,26.0,26.0,26.0,0.02499999999999991,0.2922,0.0274,292.786,-2.6791,-2.708625,-1.566,-1.5571000000000002,-232.32,215.5875,190.7255,0.0,0.0,0.0,0.0,0.0268,-5.498166666666667,-5.498166666666667,-0.5367000000000001,-0.22433333333333327,-0.005250000000000199,-0.3719999999999999,67.336,-0.0125,-0.21300000000000002,-0.2699999999999996,100.0,1.0,1.0,207.66,0.0,0.0,0.0,0.0,0.0,0.0,0.0,8802.0,0.0,55.0,5.0,242.38,1.0,0.0,0.0,0.0,0.0,0.0,1.0,0.0,0.657,0.657,0.0,0.0,1.0,55.0,616.79921,10000.0,85.000001,85.000001,85.000001,85.000001,395.0,0.0,0.0,0.0,1.0,166.665,52.826,52.826,48.004,48.004,34.0,-23.625,24.328333333333333,-30.193333333333335,28.71,0.0,1783.13,-0.4299999999999997,100.0,27.653,27.499,42.753,42.74,0.0,0.0,100.0,0.0,0.0,0.0,0.0,3159.875,2997.0,4198.888888888889,4217.2,305.326,305.15725,314.636,314.34525,21.892,20.5765,21.8967,21.4197,314.999998,314.999998,324.999988,324.999988,99.55842857142858,99.50728333333333,99.56667142857142,99.54661428571428,0.08999999999999986,-0.038999999999999924,-0.12516666666666668,0.097,-0.05666666666667197,-0.03999999999999915,1.5136666666666667,1.5030000000000001,37.825,29.603,37.854,34.873,55.903999999999996,34.8855,59.438,52.2325,53.847,34.0545,58.0385,50.572,53.015,33.6305,57.968,49.98733333333333,-0.12449999999999994,-0.030000000000000027,0.10833500000000001,0.104495,0.0,210.865,210.865,207.66,207.66,0.0,0.0
14,0.0,0.0,0.0,1.0,1.0,0.0,0.0,1.0,0.0,100.0,1.0,1.1856,26.0,0.0,0.0,0.0,59.999996,0.0,26.0,26.0,26.0,26.0,0.02487499999999998,0.2763,-0.020666666666666667,293.015,-2.6997,-2.7127499999999998,-1.5661,-1.5444,-228.89,215.5775,190.704125,0.0,0.0,0.0,0.0,0.028800000000000003,-5.498166666666667,-5.498166666666667,-0.5497000000000001,-0.038000000000000034,0.018874999999999975,1.0670000000000002,67.475,-0.0011,-0.225525,-0.37600000000000033,100.0,1.0,1.0,208.19666666666666,0.0,0.0,0.0,0.0,0.0,0.0,0.0,8824.7,0.0,55.0,5.0,242.88333333333333,0.0,0.0,0.0,0.0,0.0,0.0,1.0,0.0,0.7079999999999984,0.7079999999999984,0.0,0.0,0.0,55.0,616.79921,10000.0,85.000001,85.000001,85.000001,85.000001,395.0,0.0,0.0,0.0,1.0,166.665,52.811,52.811,48.355000000000004,48.355000000000004,34.0,-22.2125,25.368333333333332,-26.683333333333334,29.27,0.0,1783.078,-0.4299999999999997,100.0,27.786,27.529,42.733000000000004,42.719,0.0,0.0,100.0,0.0,0.0,0.0,0.0,2985.5,3130.0,3947.1111111111113,4139.2,305.66833333333335,304.875,315.2055,314.62525,21.9016,20.5819,21.9071,21.4288,314.999998,314.999998,324.999988,324.999988,99.55844285714285,99.5073,99.5668,99.54674285714286,0.09724999999999984,-0.04133333333333322,-0.10016666666666667,0.12933333333333336,-0.03499999999999659,-0.054999999999999716,1.5553333333333332,1.544,37.885,29.637,37.919,34.9295,55.891999999999996,34.924,59.475,52.294,53.835,34.09,58.073,50.6305,53.001999999999995,33.664500000000004,57.9995,50.045,-0.11649999999999994,-0.043500000000000094,0.10792500000000001,0.11207,0.0,211.285,211.31,208.19666666666666,208.19666666666666,0.0,0.0
15,0.0,0.0,0.0,1.0,1.0,0.0,0.0,1.0,0.0,100.0,1.0,1.1856,26.0,0.0,0.0,0.0,59.999996,0.0,26.0,26.0,26.0,26.0,0.02837500000000004,0.28390000000000004,0.0002666666666666667,292.908,-2.6957,-2.6858750000000002,-1.5773000000000001,-1.56,-225.64,215.57,190.683625,0.0,0.0,0.0,0.0,0.0307,-5.498166666666667,-5.498166666666667,-0.5418000000000001,0.23466666666666658,0.030874999999999986,0.633,67.608,0.0109,-0.211075,-0.4579999999999993,100.0,1.0,1.0,208.55333333333334,0.0,0.0,0.0,0.0,0.0,0.0,0.0,8839.8,0.0,55.0,5.0,243.36,1.0,0.0,0.0,0.0,0.0,0.0,1.0,0.0,0.7560000000000002,0.7560000000000002,0.0,0.0,1.0,55.0,616.79921,10000.0,85.000001,85.000001,85.000001,85.000001,395.0,0.0,0.0,0.0,1.0,166.665,52.856,52.856,48.172,48.172,34.0,-21.912499999999998,25.273333333333333,-27.266666666666666,30.380000000000003,0.0,1783.03,-0.3049999999999997,100.0,27.79,27.612000000000002,42.595,42.813,0.0,0.0,100.0,0.0,0.0,0.0,0.0,2942.75,3108.3,4030.5555555555557,4235.9,305.798,304.9275,315.0155,314.3595,21.9107,20.5871,21.9169,21.4373,314.999998,314.999998,324.999988,324.999988,99.55845714285714,99.5073,99.56694285714286,99.54688571428571,0.09474999999999989,-0.033333333333333215,-0.093,0.12816666666666665,-0.051666666666669414,-0.051666666666669414,1.5276666666666667,1.525,37.942,29.669333333333334,37.980000000000004,34.983000000000004,55.879999999999995,34.96,59.51,52.3525,53.824,34.1235,58.105000000000004,50.687,52.989999999999995,33.6965,58.028999999999996,50.10033333333333,-0.09999999999999998,-0.0495000000000001,0.11090000000000001,0.10461000000000001,0.0,211.70499999999998,211.735,208.55333333333334,208.55333333333334,0.0,0.0
16,0.0,0.0,0.0,1.0,1.0,0.0,0.0,1.0,0.0,100.0,1.0,1.1856,26.0,0.0,0.0,0.0,59.999996,0.0,26.0,26.0,26.0,26.0,0.027374999999999927,0.27070000000000016,0.0026000000000000003,292.786,-2.7566,-2.634125,-1.5548000000000002,-1.557,-222.4,215.5625,190.662875,0.0,0.0,0.0,0.0,0.03256666666666667,-5.498166666666667,-5.498166666666667,-0.5533,-0.4973333333333332,0.02212499999999995,0.3380000000000001,67.74000000000001,0.0173,-0.22275,-0.25399999999999956,100.0,1.0,1.0,208.93666666666667,0.0,0.0,0.0,0.0,0.0,0.0,0.0,8856.1,0.0,55.0,5.0,243.83666666666664,0.0,0.0,0.0,0.0,0.0,0.0,1.0,0.0,0.8039999999999985,0.8039999999999985,0.0,0.0,0.0,55.0,616.79921,10000.0,85.000001,85.000001,85.000001,85.000001,395.0,0.0,0.0,0.0,1.0,166.665,52.673,52.673,47.852000000000004,47.852000000000004,34.0,-23.4575,25.688333333333333,-26.126666666666665,30.305,0.0,1782.983,-0.1999999999999993,100.0,27.536,27.639,42.865,42.976,0.0,0.0,100.0,0.0,0.0,0.0,0.0,3065.25,3213.0,4033.222222222222,4122.2,305.51466666666664,304.67525,314.97775,314.6115,21.9195,20.5922,21.9268,21.4459,314.999998,314.999998,324.999988,324.999988,99.55845714285714,99.5073,99.56707142857142,99.54701428571428,0.09425000000000017,-0.033666666666666734,-0.07566666666666667,0.14533333333333334,-0.03833333333332689,-0.03999999999999915,1.5336666666666667,1.5190000000000001,37.997,29.701333333333334,38.042,35.037,55.867000000000004,34.996,59.547,52.4105,53.811,34.1565,58.1395,50.7425,52.976,33.7285,58.0605,50.155,-0.09050000000000002,-0.06150000000000011,0.09607500000000001,0.11367000000000001,0.0,212.085,212.10000000000002,208.93666666666667,208.93666666666667,0.0,0.0
17,0.0,0.0,0.0,1.0,1.0,0.0,0.0,1.0,0.0,100.0,1.0,1.1856,26.0,0.0,0.0,0.0,59.999996,0.0,26.0,26.0,26.0,26.0,0.01462500000000011,0.28570000000000007,0.012533333333333334,292.542,-2.7246,-2.6125,-1.5998,-1.5165000000000002,-218.94,215.555,190.640625,0.0,0.0,0.0,0.0,0.0346,-5.498166666666667,-5.498166666666667,-0.5493,0.2466666666666666,-0.0007500000000000284,-1.093,67.879,0.0135,-0.21097500000000002,-0.12199999999999989,100.0,1.0,1.0,209.35000000000002,0.0,0.0,0.0,0.0,0.0,0.0,0.0,8873.6,0.0,55.0,5.0,244.33666666666664,1.0,0.0,0.0,0.0,0.0,0.0,1.0,0.0,0.8550000000000004,0.8550000000000004,0.0,0.0,1.0,55.0,616.79921,10000.0,85.000001,85.000001,85.000001,85.000001,395.0,0.0,0.0,0.0,1.0,166.665,52.46,52.46,47.76,47.76,34.0,-24.8275,23.893333333333334,-30.256666666666664,29.0775,0.0,1782.93,-0.18499999999999872,100.0,27.729,27.919,42.659,43.013,0.0,0.0,100.0,0.0,0.0,0.0,0.0,3215.25,3076.5,4273.444444444444,4178.2,305.21566666666666,304.91025,314.541,314.48,21.9291,20.5978,21.9372,21.4549,314.999998,314.999998,324.999988,324.999988,99.55848571428571,99.50731666666667,99.56721428571429,99.54717142857143,0.08274999999999988,-0.04733333333333323,-0.10783333333333334,0.12283333333333334,-0.060000000000002274,-0.03499999999999659,1.525,1.518,38.057,29.736,38.107,35.0935,55.855000000000004,35.0355,59.5835,52.471000000000004,53.799,34.193,58.174,50.801,52.964,33.763,58.092,50.21233333333333,-0.09350000000000003,-0.06150000000000011,0.11563500000000002,0.10315500000000001,0.0,212.56,212.55,209.35000000000002,209.35000000000002,0.0,0.0
18,0.0,0.0,0.0,1.0,1.0,0.0,0.0,1.0,0.0,100.0,1.0,1.1856,26.0,0.0,0.0,0.0,59.999996,0.0,26.0,26.0,26.0,26.0,0.012250000000000094,0.2804,0.021433333333333335,292.435,-2.7345,-2.605125,-1.59385,-1.4809,-215.68,215.55,190.6195,0.0,0.0,0.0,0.0,0.03646666666666667,-5.498166666666667,-5.498166666666667,-0.5584,-0.4073333333333333,0.0026249999999998774,-0.44099999999999984,68.01,0.0088,-0.220675,-0.002000000000000668,100.0,1.0,1.0,209.72333333333333,0.0,0.0,0.0,0.0,0.0,0.0,0.0,8889.4,0.0,55.0,5.0,244.81,0.0,0.0,0.0,0.0,0.0,0.0,1.0,0.0,0.9029999999999987,0.9029999999999987,0.0,0.0,0.0,55.0,616.79921,10000.0,85.000001,85.000001,85.000001,85.000001,395.0,0.0,0.0,0.0,1.0,166.665,52.338,52.338,47.638,47.638,34.0,-25.44,24.64,-29.843333333333334,28.5225,0.0,1782.883,-0.1999999999999993,100.0,27.681,27.801000000000002,42.870000000000005,43.169,0.0,0.0,100.0,0.0,0.0,0.0,0.0,3254.25,3184.2,4235.333333333333,4200.6,305.1313333333333,304.65825,314.61,314.427,21.938,20.602899999999998,21.9471,21.4635,314.999998,314.999998,324.999988,324.999988,99.55848571428571,99.50731666666667,99.56735714285715,99.5473,0.07850000000000001,-0.04899999999999993,-0.10633333333333334,0.11683333333333333,-0.051666666666669414,-0.04333333333332945,1.5166666666666666,1.5070000000000001,38.111999999999995,29.768,38.169,35.147,55.842,35.071,59.6205,52.5295,53.787,34.2255,58.208,50.8575,52.951,33.7945,58.1235,50.26733333333333,-0.08799999999999997,-0.06150000000000011,0.107005,0.10372500000000001,0.0,212.95,212.925,209.72333333333333,209.72333333333333,0.0,0.0
19,0.0,0.0,0.0,1.0,1.0,0.0,0.0,1.0,0.0,100.0,1.0,1.1856,26.0,0.0,0.0,0.0,59.999996,0.0,26.0,26.0,26.0,26.0,0.014124999999999943,0.2845,0.051866666666666665,292.145,-2.651,-2.7055,-1.5283,-1.6047,-212.0,215.54250000000002,190.5955,0.0,0.0,0.0,0.0,0.03863333333333333,-5.498166666666667,-5.498166666666667,-0.5511,0.607,0.008874999999999966,-0.8730000000000002,68.156,0.0047,-0.21482500000000002,-0.036000000000000476,100.0,1.0,1.0,210.16666666666669,0.0,0.0,0.0,0.0,0.0,0.0,0.0,8908.1,0.0,55.0,5.0,245.33333333333334,1.0,0.0,0.0,0.0,0.0,0.0,1.0,0.0,0.9570000000000007,0.9570000000000007,0.0,0.0,1.0,55.0,616.79921,10000.0,85.000001,85.000001,85.000001,85.000001,395.0,0.0,0.0,0.0,1.0,166.665,51.971000000000004,51.971000000000004,47.684,47.684,34.0,-24.02,24.288333333333334,-29.233333333333334,30.387500000000003,0.0,1782.83,-0.16999999999999815,100.0,28.262999999999998,28.320999999999998,42.823,43.266,0.0,0.0,100.0,0.0,0.0,0.0,0.0,3179.75,3053.1,4209.666666666667,4266.6,305.23,304.84925,314.64875,314.146,21.9481,20.6088,21.9581,21.4731,314.999998,314.999998,324.999988,324.999988,99.5585,99.50731666666667,99.5675,99.54745714285714,0.08099999999999996,-0.05666666666666664,-0.113,0.10383333333333333,-0.046666666666666856,-0.061666666666667425,1.4826666666666666,1.4885,38.176,29.805333333333333,38.238,35.207,55.83,35.114,59.659,52.5945,53.775999999999996,34.265,58.244,50.92,52.939,33.832499999999996,58.156,50.32866666666666,-0.09499999999999997,-0.0645,0.10685000000000001,0.098085,0.0,213.435,213.425,210.16666666666669,210.16666666666669,0.0,0.0
20,0.0,0.0,0.0,1.0,1.0,0.0,0.0,1.0,0.0,100.0,1.0,1.1856,26.0,0.0,0.0,0.0,59.999996,0.0,26.0,26.0,26.0,26.0,0.005125000000000046,0.25890000000000013,-0.009633333333333334,292.343,-2.7153,-2.6648750000000003,-1.53095,-1.5903,-208.51999999999998,215.5375,190.573,0.0,0.0,0.0,0.0,0.040633333333333334,-5.498166666666667,-5.498166666666667,-0.5557,-0.8913333333333333,0.01012499999999994,0.5970000000000004,68.294,0.0028,-0.22590000000000002,-0.05799999999999983,100.0,1.0,1.0,210.56666666666666,0.0,0.0,0.0,0.0,0.0,0.0,0.0,8925.2,0.0,55.0,5.0,245.83333333333334,0.0,0.0,0.0,0.0,0.0,0.0,0.0,0.0,1.0079999999999991,1.0079999999999991,0.0,0.0,0.0,55.0,616.79921,10000.0,85.000001,85.000001,85.000001,85.000001,395.0,0.0,0.0,0.0,1.0,166.665,52.521,52.521,47.318,47.318,34.0,-23.072499999999998,24.716666666666665,-27.506666666666664,30.0225,0.0,1782.778,-0.134999999999998,100.0,28.032,27.885,43.516999999999996,43.545,0.0,0.0,100.0,0.0,0.0,0.0,0.0,3017.5,3129.7,4090.222222222222,4139.3,305.63433333333336,304.9475,314.809,314.53475,21.9574,20.6143,21.9687,21.4824,314.999998,314.999998,324.999988,324.999988,99.55851428571428,99.50731666666667,99.56765714285714,99.5476,0.08574999999999999,-0.045666666666666744,-0.09533333333333333,0.12316666666666667,-0.041666666666671404,-0.051666666666669414,1.4913333333333334,1.4815,38.233999999999995,29.839333333333336,38.304,35.2645,55.816,35.1525,59.699,52.657,53.762,34.301,58.2815,50.980000000000004,52.924,33.8665,58.1905,50.38766666666667,-0.08799999999999997,-0.06800000000000006,0.10539000000000001,0.105465,0.0,213.815,213.815,210.56666666666666,210.56666666666666,0.0,0.0
21,0.0,0.0,0.0,1.0,1.0,0.0,0.0,1.0,0.0,100.0,1.0,1.1856,26.0,0.0,0.0,0.0,59.999996,0.0,26.0,26.0,26.0,26.0,0.007125000000000048,0.27259999999999995,-0.053266666666666664,292.633,-2.7164,-2.6633750000000003,-1.6042,-1.5468000000000002,-205.44,215.5325,190.552875,0.0,0.0,0.0,0.0,0.04243333333333334,-5.498166666666667,-5.498166666666667,-0.5744,0.08566666666666656,-0.004375000000000018,-0.7999999999999998,68.412,-0.0011,-0.22512500000000002,0.03200000000000092,100.0,1.0,1.0,211.08333333333331,0.0,0.0,0.0,0.0,0.0,0.0,0.0,8947.1,0.0,55.0,5.0,246.25666666666666,1.0,0.0,0.0,0.0,0.0,0.0,0.0,0.0,1.0530000000000008,1.0530000000000008,0.0,0.0,1.0,55.0,616.79921,10000.0,85.000001,85.000001,85.000001,85.000001,395.0,0.0,0.0,0.0,1.0,333.33500000000004,52.399,52.399,48.08,48.08,34.0,-25.009999999999998,23.848333333333333,-28.599999999999998,26.942500000000003,0.0,1782.732,-0.18499999999999872,100.0,27.967,27.975,43.031,43.239000000000004,0.0,0.0,100.0,0.0,0.0,0.0,0.0,3215.625,3041.6,4070.8888888888887,3985.7,305.22933333333333,305.07675,315.0415,314.98075,21.9658,20.6192,21.9778,21.4903,314.999998,314.999998,324.999988,324.999988,99.55851428571428,99.50733333333334,99.56778571428572,99.54772857142858,0.07725000000000026,-0.05066666666666664,-0.1125,0.1085,-0.02833333333332888,-0.05333333333332746,1.5786666666666667,1.575,38.286,29.869999999999997,38.361000000000004,35.314,55.805,35.187,59.7295,52.7085,53.751999999999995,34.332499999999996,58.31,51.0295,52.913,33.897,58.216499999999996,50.436,-0.09899999999999998,-0.05950000000000011,0.09913500000000001,0.11027,0.0,214.185,214.19,211.08333333333331,211.08333333333331,0.0,0.0
22,0.0,0.0,0.0,1.0,1.0,0.0,0.0,1.0,0.0,100.0,1.0,1.1856,26.0,0.0,0.0,0.0,59.999996,0.0,26.0,26.0,26.0,26.0,0.00012499999999993072,0.26870000000000016,-0.00013333333333333334,292.252,-2.7714,-2.6328750000000003,-1.59595,-1.5323,-201.74,215.5275,190.52775,0.0,0.0,0.0,0.0,0.04456666666666667,-5.498166666666667,-5.498166666666667,-0.5582,0.03200000000000003,0.002874999999999961,-0.5419999999999998,68.559,-0.0041,-0.202125,-0.006000000000000227,100.0,1.0,1.0,211.36666666666667,0.0,0.0,0.0,0.0,0.0,0.0,0.0,8959.1,0.0,55.0,5.0,246.78,0.0,0.0,0.0,0.0,0.0,0.0,0.0,0.0,1.1069999999999993,1.1069999999999993,0.0,0.0,0.0,55.0,616.79921,10000.0,85.000001,85.000001,85.000001,85.000001,395.0,0.0,0.0,0.0,1.0,166.665,52.597,52.597,47.226,47.226,34.0,-24.7675,23.085,-31.506666666666664,29.975,0.0,1782.679,-0.2749999999999986,100.0,27.982,28.038,43.141,43.315,0.0,0.0,100.0,0.0,0.0,0.0,0.0,3127.0,3023.0,4319.666666666667,4318.6,305.571,305.159,314.4255,314.16575,21.9757,20.625,21.9889,21.4999,314.999998,314.999998,324.999988,324.999988,99.55852857142857,99.50735,99.56794285714285,99.54788571428571,0.07350000000000012,-0.05800000000000005,-0.12066666666666667,0.10983333333333332,-0.041666666666671404,-0.03333333333333144,1.488,1.478,38.348,29.906666666666666,38.43,35.3745,55.792,35.228,59.7705,52.7735,53.739000000000004,34.3705,58.3485,51.092,52.899,33.9335,58.2515,50.497,-0.09599999999999997,-0.0605,0.10477,0.11678000000000001,0.0,214.66,214.65,211.36666666666667,211.36666666666667,0.0,0.0
23,0.0,0.0,0.0,1.0,1.0,0.0,0.0,1.0,0.0,100.0,1.0,1.1856,26.0,0.0,0.0,0.0,59.999996,0.0,26.0,26.0,26.0,26.0,0.00012499999999993072,0.25690000000000013,-0.06613333333333334,292.175,-2.6808,-2.66625,-1.64885,-1.5089000000000001,-198.45,215.5225,190.505625,0.0,0.0,0.0,0.0,0.0465,-5.498166666666667,-5.498166666666667,-0.5736,-0.2416666666666667,0.0017499999999999183,-0.7610000000000001,68.685,-0.0022,-0.22485000000000002,-0.05799999999999983,100.0,1.0,1.0,211.8466666666667,0.0,0.0,0.0,0.0,0.0,0.0,0.0,8979.4,0.0,55.0,5.0,247.23666666666668,1.0,0.0,0.0,0.0,0.0,0.0,0.0,0.0,1.1550000000000011,1.1550000000000011,0.0,0.0,1.0,55.0,616.79921,10000.0,85.000001,85.000001,85.000001,85.000001,395.0,0.0,0.0,0.0,1.0,166.665,51.926,51.926,47.806,47.806,34.0,-25.732499999999998,23.97833333333333,-30.46,27.4775,0.0,1782.631,-0.23999999999999844,100.0,28.167,28.184,43.321,43.5,0.0,0.0,100.0,0.0,0.0,0.0,0.0,3346.0,3076.6,4128.666666666667,4092.1000000000004,304.87666666666667,304.90825,314.9195,314.7365,21.9846,20.6303,21.9987,21.5086,314.999998,314.999998,324.999988,324.999988,99.55854285714285,99.50735,99.56807142857143,99.54802857142857,0.07900000000000018,-0.05800000000000005,-0.12266666666666667,0.10916666666666668,-0.054999999999999716,-0.041666666666671404,1.5206666666666666,1.534,38.403999999999996,29.939666666666668,38.492000000000004,35.429,55.78,35.2655,59.806,52.8315,53.727999999999994,34.405,58.3815,51.147999999999996,52.887,33.966499999999996,58.2815,50.55166666666666,-0.10199999999999998,-0.05600000000000005,0.111875,0.10489000000000001,0.0,215.035,215.03,211.8466666666667,211.8466666666667,0.0,0.0
24,0.0,0.0,0.0,1.0,1.0,0.0,0.0,1.0,0.0,100.0,1.0,1.1856,26.0,0.0,0.0,0.0,59.999996,0.0,26.0,26.0,26.0,26.0,0.015625,0.278,-0.0219,292.404,-2.6841,-2.677375,-1.56265,-1.5402,-195.14999999999998,215.51749999999998,190.483125,0.0,0.0,0.0,0.0,0.048400000000000006,-5.498166666666667,-5.498166666666667,-0.5826,-0.30833333333333335,0.008624999999999883,-0.17999999999999972,68.813,0.0002,-0.22010000000000002,-0.04600000000000026,100.0,1.0,1.0,212.18,0.0,0.0,0.0,0.0,0.0,0.0,0.0,8993.5,0.0,55.0,5.0,247.69666666666666,0.0,0.0,0.0,0.0,0.0,0.0,0.0,0.0,1.2029999999999994,1.2029999999999994,0.0,0.0,0.0,55.0,616.79921,10000.0,85.000001,85.000001,85.000001,85.000001,395.0,0.0,0.0,0.0,1.0,166.665,52.734,52.734,47.394,47.394,34.0,-23.265,23.023333333333333,-29.906666666666666,28.79,0.0,1782.584,-0.23999999999999844,100.0,28.046,27.951999999999998,43.244,43.46,0.0,0.0,100.0,0.0,0.0,0.0,0.0,3072.875,2960.8,4326.222222222223,4130.2,305.604,305.313,314.45425,314.6235,21.9934,20.6355,22.008499999999998,21.5172,314.999998,314.999998,324.999988,324.999988,99.55854285714285,99.50735,99.56821428571429,99.54815714285715,0.08274999999999988,-0.05666666666666664,-0.10300000000000001,0.11866666666666667,-0.05666666666667197,-0.03833333333332689,1.5253333333333332,1.5225,38.459,29.971666666666664,38.553,35.4825,55.768,35.3015,59.841499999999996,52.8885,53.716,34.438,58.414,51.2025,52.875,33.998,58.3115,50.605333333333334,-0.10099999999999998,-0.062000000000000055,0.09710500000000001,0.112125,0.0,215.43,215.425,212.18,212.18,0.0,0.0
25,0.0,0.0,0.0,1.0,1.0,0.0,0.0,1.0,0.0,100.0,1.0,1.1856,26.0,0.0,0.0,0.0,59.999996,0.0,26.0,26.0,26.0,26.0,0.00825000000000009,0.2583,-0.023733333333333335,292.236,-2.7481,-2.647125,-1.5905,-1.5387,-191.43,215.5125,190.4565,0.0,0.0,0.0,0.0,0.05056666666666667,-5.498166666666667,-5.498166666666667,-0.6041000000000001,0.02100000000000002,0.01949999999999985,-0.9399999999999995,68.95400000000001,-0.00030000000000000003,-0.22082500000000002,-0.1120000000000001,100.0,1.0,1.0,212.68333333333334,0.0,0.0,0.0,0.0,0.0,0.0,0.0,9014.9,0.0,55.0,5.0,248.20666666666665,1.0,0.0,0.0,0.0,0.0,0.0,0.0,0.0,1.256999999999998,1.256999999999998,0.0,0.0,1.0,55.0,616.79921,10000.0,85.000001,85.000001,85.000001,85.000001,395.0,0.0,0.0,0.0,1.0,166.665,51.849000000000004,51.849000000000004,47.867,47.867,34.0,-25.9325,26.12,-28.59,28.067500000000003,0.0,1782.53,-0.3200000000000003,100.0,27.939,28.164,43.032,43.278999999999996,0.0,0.0,100.0,0.0,0.0,0.0,0.0,3326.5,3255.1,4044.8888888888887,4119.4,304.95233333333334,304.38825,315.11825,314.66025,22.0033,20.6414,22.0194,21.5268,314.999998,314.999998,324.999988,324.999988,99.55855714285714,99.50736666666667,99.56837142857142,99.54832857142857,0.08499999999999996,-0.040999999999999925,-0.11750000000000001,0.10733333333333334,-0.03999999999999915,-0.051666666666669414,1.5456666666666667,1.529,38.519999999999996,30.008666666666667,38.622,35.542500000000004,55.754000000000005,35.343,59.8785,52.951499999999996,53.703,34.4765,58.449,51.2635,52.86,34.035,58.343,50.66466666666666,-0.10599999999999998,-0.05249999999999999,0.10670500000000001,0.10328000000000001,0.0,215.86,215.87,212.68333333333334,212.68333333333334,0.0,0.0
26,0.0,0.0,0.0,1.0,1.0,0.0,0.0,1.0,0.0,100.0,1.0,1.1856,26.0,0.0,0.0,0.0,59.999996,0.0,26.0,26.0,26.0,26.0,0.011749999999999927,0.26780000000000004,0.059166666666666666,291.397,-2.6758,-2.729875,-1.60975,-1.5423,-188.12,215.5075,190.432375,0.0,0.0,0.0,0.0,0.052500000000000005,-5.498166666666667,-5.498166666666667,-0.5753,0.5916666666666667,0.00275000000000003,-0.827,69.082,0.0045000000000000005,-0.201575,-0.18200000000000038,100.0,1.0,1.0,212.87333333333333,0.0,0.0,0.0,0.0,0.0,0.0,0.0,9022.9,0.0,55.0,5.0,248.66666666666666,0.0,0.0,0.0,0.0,0.0,0.0,0.0,0.0,1.3049999999999997,1.3049999999999997,0.0,0.0,0.0,55.0,616.79921,10000.0,85.000001,85.000001,85.000001,85.000001,395.0,0.0,0.0,0.0,1.0,166.665,51.636,51.636,46.539,46.539,34.0,-24.6225,24.546666666666667,-33.22,31.87,0.0,1782.482,-0.3049999999999997,100.0,28.675,28.707,43.412,43.650999999999996,0.0,0.0,100.0,0.0,0.0,0.0,0.0,3257.375,3021.2,4566.111111111111,4446.4,305.052,304.992,313.87675,313.84675,22.0123,20.6468,22.0293,21.5355,314.999998,314.999998,324.999988,324.999988,99.55857142857143,99.50736666666667,99.5685,99.54845714285715,0.08749999999999991,-0.04800000000000004,-0.10683333333333334,0.11816666666666667,-0.03333333333333144,-0.04833333333333201,1.4573333333333334,1.443,38.577,30.042666666666666,38.683,35.597,55.744,35.3815,59.9155,53.01,53.694,34.512,58.4835,51.3195,52.849999999999994,34.069,58.3745,50.72,-0.10549999999999993,-0.05049999999999999,0.10802,0.10855000000000001,0.0,216.28,216.285,212.87333333333333,212.87333333333333,0.0,0.0
27,0.0,0.0,0.0,1.0,1.0,0.0,0.0,1.0,0.0,100.0,1.0,1.1856,26.0,0.0,0.0,0.0,59.999996,0.0,26.0,26.0,26.0,26.0,0.03200000000000003,0.26370000000000005,-0.019700000000000002,291.794,-2.6999,-2.663625,-1.5799,-1.6194000000000002,-184.8,215.5025,190.40925,0.0,0.0,0.0,0.0,0.05443333333333334,-5.498166666666667,-5.498166666666667,-0.5936,-0.9253333333333333,0.009624999999999995,-0.6589999999999998,69.207,0.0073,-0.2361,-0.16600000000000037,100.0,1.0,1.0,213.3466666666667,0.0,0.0,0.0,0.0,0.0,0.0,0.0,9042.9,0.0,55.0,5.0,249.11666666666667,1.0,0.0,0.0,0.0,0.0,0.0,0.0,0.0,1.352999999999998,1.352999999999998,0.0,0.0,1.0,55.0,616.79921,10000.0,85.000001,85.000001,85.000001,85.000001,395.0,0.0,0.0,0.0,1.0,166.665,52.016999999999996,52.016999999999996,46.707,46.707,34.0,-23.5225,24.615000000000002,-29.086666666666666,29.59,0.0,1782.434,-0.28500000000000014,100.0,28.348,28.549,43.985,44.128,0.0,0.0,100.0,0.0,0.0,0.0,0.0,3105.625,3103.8,4163.888888888889,4076.0,305.535,304.83175,314.7545,314.64875,22.021,20.6521,22.0393,21.5443,314.999998,314.999998,324.999988,324.999988,99.55858571428571,99.50736666666667,99.56864285714286,99.5486,0.08650000000000002,-0.04800000000000004,-0.10433333333333333,0.11666666666666667,-0.045000000000001705,-0.02833333333332888,1.5063333333333333,1.4985,38.631,30.075666666666663,38.745999999999995,35.652,55.732,35.418,59.953,53.069,53.682,34.546,58.518,51.3765,52.837,34.101,58.406,50.775333333333336,-0.10099999999999998,-0.05800000000000005,0.097595,0.110795,0.0,216.625,216.625,213.3466666666667,213.3466666666667,0.0,0.0
28,0.0,0.0,0.0,1.0,1.0,0.0,0.0,1.0,0.0,100.0,1.0,1.1856,26.0,0.0,0.0,0.0,59.999996,0.0,26.0,26.0,26.0,26.0,0.03612499999999996,0.26770000000000005,-0.05656666666666667,291.977,-2.6808,-2.658875,-1.6225,-1.5702,-181.06,215.5,190.382375,0.0,0.0,0.0,0.0,0.056600000000000004,-5.498166666666667,-5.498166666666667,-0.602,0.5863333333333334,-0.0011250000000000426,-0.8389999999999995,69.344,0.0063,-0.21705000000000002,-0.17799999999999905,100.0,1.0,1.0,213.88666666666666,0.0,0.0,0.0,0.0,0.0,0.0,0.0,9065.9,0.0,55.0,5.0,249.61,0.0,0.0,0.0,0.0,0.0,0.0,0.0,0.0,1.407,1.407,0.0,0.0,0.0,55.0,616.79921,10000.0,85.000001,85.000001,85.000001,85.000001,395.0,0.0,0.0,0.0,1.0,166.665,51.88,51.88,47.47,47.47,34.0,-23.575,24.813333333333333,-29.216666666666665,28.5775,0.0,1782.38,-0.3999999999999986,100.0,28.463,28.562,43.4,43.725,0.0,0.0,100.0,0.0,0.0,0.0,0.0,3186.875,3082.6,4149.555555555556,4098.4,305.266,304.8835,314.94075,314.7285,22.031,20.6581,22.0502,21.5539,314.999998,314.999998,324.999988,324.999988,99.5586,99.50738333333334,99.5688,99.54875714285714,0.09850000000000003,-0.038000000000000034,-0.106,0.1135,-0.03833333333332689,-0.046666666666666856,1.5556666666666668,1.5465,38.694,30.113333333333333,38.814,35.712,55.721000000000004,35.460499999999996,59.9885,53.1305,53.671,34.5845,58.5515,51.436,52.825,34.1385,58.436,50.833333333333336,-0.11449999999999994,-0.0515000000000001,0.105035,0.10301500000000001,0.0,217.09,217.10000000000002,213.88666666666666,213.88666666666666,0.0,0.0
29,0.0,0.0,0.0,1.0,1.0,0.0,0.0,1.0,0.0,100.0,1.0,1.1856,26.0,0.0,0.0,0.0,59.999996,0.0,26.0,26.0,26.0,26.0,0.029749999999999943,0.27390000000000003,0.019033333333333336,291.748,-2.6624,-2.716625,-1.5699,-1.5499,-177.73000000000002,215.4975,190.3575,0.0,0.0,0.0,0.0,0.05853333333333334,-5.498166666666667,-5.498166666666667,-0.6025,-0.6083333333333334,-0.003375000000000128,-0.7610000000000001,69.471,0.012,-0.21325000000000002,-0.3260000000000005,100.0,1.0,1.0,214.10000000000002,0.0,0.0,0.0,0.0,0.0,0.0,0.0,9075.0,0.0,55.0,5.0,250.07,1.0,0.0,0.0,0.0,0.0,0.0,0.0,0.0,1.4549999999999983,1.4549999999999983,0.0,0.0,1.0,55.0,616.79921,10000.0,85.000001,85.000001,85.000001,85.000001,395.0,0.0,0.0,0.0,1.0,166.665,52.216,52.216,46.6,46.6,34.0,-22.9,24.695,-30.196666666666665,30.6425,0.0,1782.332,-0.384999999999998,100.0,28.143,28.418,43.818,44.034,0.0,0.0,100.0,0.0,0.0,0.0,0.0,3131.25,3036.5,4270.555555555556,4280.0,305.47333333333336,304.9855,314.4815,314.23575,22.0397,20.6634,22.0601,21.5626,314.999998,314.999998,324.999988,324.999988,99.55861428571428,99.50738333333334,99.56894285714286,99.5489,0.09775,-0.044333333333333114,-0.108,0.12166666666666667,-0.041666666666671404,-0.03833333333332689,1.4813333333333334,1.4755,38.748000000000005,30.146333333333335,38.876000000000005,35.7665,55.708,35.496,60.025999999999996,53.189,53.659,34.6175,58.586,51.492,52.812,34.17,58.4675,50.888,-0.11449999999999994,-0.04699999999999993,0.11484000000000001,0.10605500000000001,0.0,217.45499999999998,217.45,214.10000000000002,214.10000000000002,0.0,0.0
30,0.0,0.0,0.0,1.0,1.0,0.0,0.0,1.0,0.0,100.0,1.0,1.1856,26.0,0.0,0.0,0.0,59.999996,0.0,26.0,26.0,26.0,26.0,0.04787500000000011,0.2632000000000001,0.007,291.199,-2.7212,-2.6001250000000002,-1.54595,-1.6018,-174.39,215.495,190.332625,0.0,0.0,0.0,0.0,0.06046666666666667,-5.498166666666667,-5.498166666666667,-0.6089,0.6093333333333333,-0.00024999999999986144,-0.532,69.592,0.0159,-0.221425,-0.28000000000000025,100.0,1.0,1.0,214.59333333333333,0.0,0.0,0.0,0.0,0.0,0.0,0.0,9095.9,0.0,55.0,5.0,250.50666666666666,0.0,0.0,0.0,0.0,0.0,0.0,1.0,0.0,1.5030000000000001,1.5030000000000001,0.0,0.0,0.0,55.0,616.79921,10000.0,85.000001,85.000001,85.000001,85.000001,395.0,0.0,0.0,0.0,1.0,166.665,50.461,50.461,47.256,47.256,34.0,-26.355,26.106666666666666,-27.813333333333333,30.0775,0.0,1782.284,-0.35999999999999943,100.0,28.947,29.03,43.588,43.99,0.0,0.0,100.0,0.0,0.0,0.0,0.0,3466.5,3315.9,4089.777777777778,4120.5,304.41066666666666,304.00075,314.9905,314.57975,22.0487,20.6689,22.0699,21.5713,314.999998,314.999998,324.999988,324.999988,99.55862857142857,99.5074,99.56908571428572,99.54902857142856,0.10075000000000012,-0.04966666666666675,-0.10250000000000001,0.126,-0.046666666666666856,-0.05666666666667197,1.5146666666666666,1.5195,38.804,30.180666666666667,38.937,35.820499999999996,55.7,35.535,60.0585,53.2455,53.650999999999996,34.6535,58.6165,51.5465,52.803,34.204499999999996,58.495,50.94133333333333,-0.11399999999999999,-0.05600000000000005,0.10733500000000001,0.10347,0.0,217.85000000000002,217.85500000000002,214.59333333333333,214.59333333333333,0.0,0.0
31,0.0,0.0,0.0,1.0,1.0,0.0,0.0,1.0,0.0,100.0,1.0,1.1856,26.0,0.0,0.0,0.0,59.999996,0.0,26.0,26.0,26.0,26.0,0.03212499999999996,0.2532000000000001,0.0453,290.802,-2.7675,-2.629625,-1.6394000000000002,-1.4994,-170.63,215.4925,190.30525,0.0,0.0,0.0,0.0,0.06266666666666666,-5.498166666666667,-5.498166666666667,-0.5888,-0.42566666666666686,0.00649999999999995,-0.8040000000000003,69.733,0.0175,-0.22125,-0.25399999999999956,100.0,1.0,1.0,214.84,0.0,0.0,0.0,0.0,0.0,0.0,0.0,9106.3,0.0,55.0,5.0,251.01333333333332,1.0,0.0,0.0,0.0,0.0,0.0,1.0,0.0,1.5569999999999986,1.5569999999999986,0.0,0.0,1.0,55.0,616.79921,10000.0,85.000001,85.000001,85.000001,85.000001,395.0,0.0,0.0,0.0,1.0,166.665,51.117,51.117,45.685,45.685,34.0,-24.13,26.333333333333336,-31.406666666666666,31.1325,0.0,1782.229,-0.4450000000000003,100.0,28.865000000000002,29.209,44.332,44.727000000000004,0.0,0.0,100.0,0.0,0.0,0.0,0.0,3247.5,3258.5,4372.555555555556,4331.8,305.22633333333334,304.43125,314.23775,314.0245,22.0586,20.675,22.0811,21.5813,314.999998,314.999998,324.999988,324.999988,99.55864285714286,99.5074,99.56924285714285,99.5492,0.11299999999999999,-0.032333333333333325,-0.09216666666666667,0.12916666666666665,-0.05666666666667197,-0.036666666666668846,1.442,1.4220000000000002,38.866,30.219,39.007,35.882999999999996,55.689,35.5775,60.1015,53.3135,53.64,34.693,58.6565,51.612,52.791,34.242,58.5315,51.004999999999995,-0.118,-0.04899999999999993,0.1015,0.10859500000000001,0.0,218.285,218.275,214.84,214.84,0.0,0.0
32,0.0,0.0,0.0,1.0,1.0,0.0,0.0,1.0,0.0,100.0,1.0,1.1856,26.0,0.0,0.0,0.0,59.999996,0.0,26.0,26.0,26.0,26.0,0.035374999999999934,0.26570000000000005,-0.03046666666666667,291.306,-2.6944,-2.6803749999999997,-1.6508500000000002,-1.5525,-167.28,215.4925,190.28125,0.0,0.0,0.0,0.0,0.0646,-5.498166666666667,-5.498166666666667,-0.6054,-0.20700000000000007,-0.012249999999999872,-1.037,69.85300000000001,0.0207,-0.231275,-0.3439999999999994,100.0,1.0,1.0,215.34,0.0,0.0,0.0,0.0,0.0,0.0,0.0,9127.5,0.0,55.0,5.0,251.44333333333333,0.0,0.0,0.0,0.0,0.0,0.0,1.0,0.0,1.6050000000000004,1.6050000000000004,0.0,0.0,0.0,55.0,616.79921,10000.0,85.000001,85.000001,85.000001,85.000001,395.0,0.0,0.0,0.0,1.0,166.665,51.514,51.514,46.539,46.539,34.0,-23.1425,25.248333333333335,-29.623333333333335,30.942500000000003,0.0,1782.18,-0.3949999999999996,100.0,28.743,29.048000000000002,44.164,44.525,0.0,0.0,100.0,0.0,0.0,0.0,0.0,3199.25,3091.5,4230.222222222223,4245.5,305.2513333333333,304.8685,314.714,314.423,22.0673,20.6805,22.0909,21.59,314.999998,314.999998,324.999988,324.999988,99.55865714285714,99.5074,99.56938571428572,99.54934285714286,0.11324999999999985,-0.03433333333333333,-0.089,0.1375,-0.05333333333332746,-0.04833333333333201,1.526,1.5105,38.92,30.253,39.068,35.9375,55.679,35.615,60.135,53.37,53.629999999999995,34.7275,58.6875,51.666,52.78,34.275,58.5595,51.058,-0.11599999999999999,-0.05049999999999999,0.10526,0.10667000000000001,0.0,218.635,218.655,215.34,215.34,0.0,0.0
33,0.0,0.0,0.0,1.0,1.0,0.0,0.0,1.0,0.0,100.0,1.0,1.1856,26.0,0.0,0.0,0.0,59.999996,0.0,26.0,26.0,26.0,26.0,0.04200000000000004,0.2653000000000001,-0.04346666666666667,291.595,-2.7249,-2.68325,-1.58615,-1.592,-163.92000000000002,215.4925,190.256375,0.0,0.0,0.0,0.0,0.06656666666666666,-5.498166666666667,-5.498166666666667,-0.6138,-0.20966666666666667,-0.015499999999999847,-0.242,69.974,0.0207,-0.21707500000000002,-0.242,100.0,1.0,1.0,215.71666666666667,0.0,0.0,0.0,0.0,0.0,0.0,0.0,9143.4,0.0,55.0,5.0,251.88333333333333,1.0,0.0,0.0,0.0,0.0,0.0,1.0,0.0,1.6529999999999987,1.6529999999999987,0.0,0.0,1.0,55.0,616.79921,10000.0,85.000001,85.000001,85.000001,85.000001,395.0,0.0,0.0,0.0,1.0,166.665,51.894999999999996,51.894999999999996,46.783,46.783,34.0,-23.4675,24.42,-28.616666666666664,30.555,0.0,1782.132,-0.40500000000000114,100.0,28.579,28.752,43.945,44.332,0.0,0.0,100.0,0.0,0.0,0.0,0.0,3159.0,3033.7,4196.777777777777,4177.1,305.44166666666666,305.0455,314.72375,314.54,22.0759,20.6858,22.1006,21.5987,314.999998,314.999998,324.999988,324.999988,99.55867142857143,99.5074,99.56951428571429,99.54948571428571,0.1030000000000002,-0.04200000000000004,-0.09016666666666667,0.129,-0.04833333333333201,-0.041666666666671404,1.523,1.502,38.974000000000004,30.286,39.129,35.9915,55.668,35.6505,60.1685,53.4255,53.620000000000005,34.7605,58.719,51.7195,52.769,34.3065,58.5875,51.11033333333333,-0.11299999999999999,-0.0495000000000001,0.10108,0.11010500000000001,0.0,219.015,219.025,215.71666666666667,215.71666666666667,0.0,0.0
34,0.0,0.0,0.0,1.0,1.0,0.0,0.0,1.0,0.0,100.0,1.0,1.1856,26.0,0.0,0.0,0.0,59.999996,0.0,26.0,26.0,26.0,26.0,0.047250000000000014,0.26039999999999996,-0.06893333333333335,291.885,-2.6644,-2.684875,-1.62215,-1.5258,-160.14,215.4925,190.22675,0.0,0.0,0.0,0.0,0.06876666666666667,-5.498166666666667,-5.498166666666667,-0.6412,-0.8793333333333333,0.009500000000000064,-0.2290000000000001,70.111,0.0218,-0.22190000000000001,-0.3020000000000005,100.0,1.0,1.0,216.12666666666667,0.0,0.0,0.0,0.0,0.0,0.0,0.0,9160.8,0.0,55.0,5.0,252.37333333333333,0.0,0.0,0.0,0.0,0.0,0.0,1.0,0.0,1.7070000000000007,1.7070000000000007,0.0,0.0,0.0,55.0,616.79921,10000.0,85.000001,85.000001,85.000001,85.000001,395.0,0.0,0.0,0.0,1.0,166.665,52.399,52.399,47.226,47.226,34.0,-22.265,24.311666666666667,-28.903333333333336,29.8375,0.0,1782.08,-0.40500000000000114,100.0,28.268,28.4,43.798,44.393,0.0,0.0,100.0,0.0,0.0,0.0,0.0,3101.375,3000.8,4143.111111111111,4183.9,305.60366666666664,305.28175,314.8685,314.5175,22.0856,20.6916,22.1116,21.6085,314.999998,314.999998,324.999988,324.999988,99.55868571428572,99.50741666666667,99.56967142857143,99.54964285714286,0.10650000000000004,-0.033333333333333215,-0.09283333333333334,0.13166666666666665,-0.051666666666669414,-0.05666666666667197,1.496,1.5065,39.035,30.322666666666667,39.197,36.053,55.655,35.689499999999995,60.2055,53.49,53.608000000000004,34.796,58.7535,51.7815,52.754999999999995,34.341,58.6185,51.171,-0.11449999999999994,-0.0495000000000001,0.10879000000000001,0.10409,0.0,219.425,219.43,216.12666666666667,216.12666666666667,0.0,0.0
35,0.0,0.0,0.0,1.0,1.0,0.0,0.0,1.0,0.0,100.0,1.0,1.1856,26.0,0.0,0.0,0.0,59.999996,0.0,26.0,26.0,26.0,26.0,0.03374999999999995,0.254,-0.09480000000000001,291.84,-2.7218,-2.6235,-1.5383499999999999,-1.5844,-156.56,215.495,190.196875,0.0,0.0,0.0,0.0,0.07083333333333335,-5.498166666666667,-5.498166666666667,-0.6792,-0.19500000000000006,-0.004624999999999879,0.001000000000000334,70.238,0.0263,-0.226975,-0.3460000000000001,100.0,1.0,1.0,216.59,0.0,0.0,0.0,0.0,0.0,0.0,0.0,9180.4,0.0,55.0,5.0,252.82999999999998,1.0,0.0,0.0,0.0,0.0,0.0,1.0,0.0,1.7579999999999991,1.7579999999999991,0.0,0.0,1.0,55.0,616.79921,10000.0,85.000001,85.000001,85.000001,85.000001,395.0,0.0,0.0,0.0,1.0,166.665,51.804,51.804,46.783,46.783,34.0,-22.8425,27.541666666666668,-26.426666666666666,30.1175,0.0,1782.029,-0.19500000000000028,100.0,28.222,28.586,43.631,43.832,0.0,0.0,100.0,0.0,0.0,0.0,0.0,3062.125,3386.4,4104.777777777777,4065.9,305.53566666666666,304.14525,314.95225,314.9205,22.0945,20.6975,22.1219,21.6176,314.999998,314.999998,324.999988,324.999988,99.5587,99.50741666666667,99.56982857142857,99.5498,0.1030000000000002,-0.02833333333333332,-0.0775,0.14933333333333335,-0.03999999999999915,-0.04833333333333201,1.5516666666666667,1.5554999999999999,39.091,30.359,39.262,36.11,55.641,35.729,60.24,53.5465,53.594,34.833,58.785,51.836,52.741,34.376,58.6475,51.224333333333334,-0.08999999999999997,-0.06000000000000005,0.10653000000000001,0.113225,0.0,219.815,219.84,216.59,216.59,0.0,0.0
