,ABS Active,ABS Enabled,AID Allow Tire Blankets,AID Auto Blip,AID Auto Clutch,AID Auto Shift,AID Fuel Rate,AID Ideal Line,AID Mech Damage,AID Stability,AID Tire Wear Rate,Air Density,Air Temp,Ballast,Best Lap Delta,Best Lap Time,Brake Bias,Brake Pos,Brake Temp FL,Brake Temp FR,Brake Temp RL,Brake Temp RR,CG Accel Lateral,CG Accel Longitudinal,CG Accel Vertical,CG Height,Camber FL,Camber FR,Camber RL,Camber RR,Car Coord X,Car Coord Y,Car Coord Z,Car Damage Front,Car Damage Left,Car Damage Rear,Car Damage Right,Car Pos Norm,Caster FL,Caster FR,Chassis Pitch Angle,Chassis Pitch Rate,Chassis Roll Angle,Chassis Roll Rate,Chassis Velocity X,Chassis Velocity Y,Chassis Velocity Z,Chassis Yaw Rate,Clutch Pos,DRS Active,DRS Available,Drive Train Speed,ERS Heat Charging,ERS Is Charging,ERS Max Energy,ERS Power Level,ERS Recovery Level,Engine Brake Setting,Engine Limiter,Engine RPM,Flags,Fuel Level,Gear,Ground Speed,HR Sample Clock,In Pit,KERS Charge,KERS Deployed Energy,KERS Input,KERS Max Energy,LR Sample Clock,Lap Invalidated,Lap Time,Lap Time2,Last Lap Time,Last Sector Time,MR Sample Clock,Max Fuel,Max Power,Max RPM,Max Sus Travel FL,Max Sus Travel FR,Max Sus Travel RL,Max Sus Travel RR,Max Torque,Max Turbo Boost,Num Tires Off Track,Penalties Enabled,Position,Raw Data Sample Rate,Ride Height FL,Ride Height FR,Ride Height RL,Ride Height RR,Road Temp,Self Align Torque FL,Self Align Torque FR,Self Align Torque RL,Self Align Torque RR,Session Lap Count,Session Time Left,Steering Angle,Surface Grip,Suspension Travel FL,Suspension Travel FR,Suspension Travel RL,Suspension Travel RR,TC Active,TC Enabled,Throttle Pos,Tire Dirt Level FL,Tire Dirt Level FR,Tire Dirt Level RL,Tire Dirt Level RR,Tire Load FL,Tire Load FR,Tire Load RL,Tire Load RR,Tire Loaded Radius FL,Tire Loaded Radius FR,Tire Loaded Radius RL,Tire Loaded Radius RR,Tire Pressure FL,Tire Pressure FR,Tire Pressure RL,Tire Pressure RR,Tire Radius FL,Tire Radius FR,Tire Radius RL,Tire Radius RR,Tire Rubber Grip FL,Tire Rubber Grip FR,Tire Rubber Grip RL,Tire Rubber Grip RR,Tire Slip Angle FL,Tire Slip Angle FR,Tire Slip Angle RL,Tire Slip Angle RR,Tire Slip Ratio FL,Tire Slip Ratio FR,Tire Slip Ratio RL,Tire Slip Ratio RR,Tire Temp Core FL,Tire Temp Core FR,Tire Temp Core RL,Tire Temp Core RR,Tire Temp Inner FL,Tire Temp Inner FR,Tire Temp Inner RL,Tire Temp Inner RR,Tire Temp Middle FL,Tire Temp Middle FR,Tire Temp Middle RL,Tire Temp Middle RR,Tire Temp Outer FL,Tire Temp Outer FR,Tire Temp Outer RL,Tire Temp Outer RR,Toe In FL,Toe In FR,Toe In RL,Toe In RR,Turbo Boost,Wheel Angular Speed FL,Wheel Angular Speed FR,Wheel Angular Speed RL,Wheel Angular Speed RR,Wind Direction,Wind Speed
0,0.0,0.0,0.0,1.0,1.0,0.0,0.0,1.0,0.0,100.0,1.0,1.1856,26.0,0.0,0.0,0.0,59.99999,0.0,26.0,26.0,26.0,26.0,-0.084,0.30889999999999995,0.013080000000000001,294.006,-2.7105,-2.6621,-1.50975,-1.5615,-275.67,216.22,190.9875,0.0,0.0,0.0,0.0,0.0016,-5.498166666666667,-5.498166666666667,-0.5485,1.492,-0.014111111111111185,-1.246,65.503,-0.0461,-0.21252500000000002,1.0380000000000003,100.0,1.0,1.0,202.23333333333335,0.0,0.0,0.0,0.0,0.0,0.0,0.0,8572.0,0.0,55.0,5.0,235.78,0.0,0.0,0.0,0.0,0.0,0.0,0.0,0.0,0.0030000000000001137,0.0030000000000001137,0.0,0.0,0.0,55.0,616.79921,10000.0,85.0,85.0,85.0,85.0,395.0,0.0,0.0,0.0,1.0,20.0,52.734,52.734,49.576,49.576,34.0,-26.7,22.634999999999998,-30.916666666666664,24.4125,0.0,1783.781,0.8200000000000003,100.0,27.681,27.042,40.519999999999996,40.441,0.0,0.0,100.0,0.0,0.0,0.0,0.0,2984.5714285714284,3315.0,4161.375,3986.1000000000004,305.801,304.18375,314.77325,314.8665,21.7791,20.5118,21.764499999999998,21.307,314.99999,314.99999,324.99998,324.99998,99.55901428571428,99.50718333333333,99.56481428571429,99.54491428571428,-0.018750000000000044,-0.1296666666666666,-0.16716666666666657,0.05333333333333323,-0.05833333333333002,-0.054999999999999716,1.549,1.5685,37.119,29.1985,37.028,34.1685,56.314,34.4695,58.9335,51.496,54.223,33.6335,57.5625,49.8635,53.385,33.187,57.522999999999996,49.293,-0.008000000000000007,-0.13850000000000007,0.10624000000000001,0.11180000000000001,0.0,205.29500000000002,205.19,202.23333333333335,202.23333333333335,0.0,0.0
1,0.0,0.0,0.0,1.0,1.0,0.0,0.0,1.0,0.0,100.0,1.0,1.1856,26.0,0.0,0.0,0.0,59.999996,0.0,26.0,26.0,26.0,26.0,-0.130625,0.33010000000000006,-0.02508,292.999,-2.6330999999999998,-2.7825,-1.5129000000000001,-1.5648,-272.33,216.225,190.96725,0.0,0.0,0.0,0.0,0.0035333333333333336,-5.498166666666667,-5.498166666666667,-0.4974,-0.5170000000000001,-0.06999999999999984,-0.3460000000000001,65.658,-0.059300000000000005,-0.1948,1.4499999999999993,100.0,1.0,1.0,202.4,0.0,0.0,0.0,0.0,0.0,0.0,0.0,8578.9,0.0,55.0,5.0,236.33666666666667,1.0,0.0,0.0,0.0,0.0,0.0,0.0,0.0,0.053999999999998494,0.053999999999998494,0.0,0.0,1.0,55.0,616.79921,10000.0,85.000001,85.000001,85.000001,85.000001,395.0,0.0,0.0,0.0,1.0,166.665,53.513,53.513,48.263999999999996,48.263999999999996,34.0,-27.405,17.565,-34.599999999999994,28.7325,0.0,1783.731,1.0850000000000009,100.0,27.819,26.926000000000002,42.868,41.513,0.0,0.0,100.0,0.0,0.0,0.0,0.0,3070.4285714285716,2656.7,4343.5,4690.3,305.3655,306.3895,314.174,313.18025,21.789,20.5169,21.7753,21.3161,314.999998,314.999998,324.999988,324.999988,99.55901428571428,99.50721666666666,99.56497142857143,99.54505714285715,-0.024249999999999883,-0.1499999999999999,-0.1878333333333334,0.030666666666666842,-0.03999999999999915,-0.041666666666671404,1.417,1.474,37.181,29.2305,37.095,34.2255,56.298,34.510999999999996,58.9795,51.5615,54.208,33.672,57.6055,49.926,53.369,33.224000000000004,57.5635,49.354,0.01550000000000007,-0.15949999999999998,0.103565,0.10792500000000001,0.0,205.74,205.615,202.4,202.4,0.0,0.0
2,0.0,0.0,0.0,1.0,1.0,0.0,0.0,1.0,0.0,100.0,1.0,1.1856,26.0,0.0,0.0,0.0,59.999996,0.0,26.0,26.0,26.0,26.0,-0.16825,0.30310000000000015,-0.07506,293.686,-2.5873,-2.8074,-1.4769,-1.6187,-268.78,216.22750000000002,190.947375,0.0,0.0,0.0,0.0,0.0056,-5.498166666666667,-5.498166666666667,-0.5511,0.25249999999999995,-0.05744444444444419,2.885,65.80799999999999,-0.0839,-0.2548,1.862,100.0,1.0,1.0,203.35,0.0,0.0,0.0,0.0,0.0,0.0,0.0,8619.3,0.0,55.0,5.0,236.88,0.0,0.0,0.0,0.0,0.0,0.0,0.0,0.0,0.10800000000000054,0.10800000000000054,0.0,0.0,0.0,55.0,616.79921,10000.0,85.000001,85.000001,85.000001,85.000001,395.0,0.0,0.0,0.0,1.0,166.665,52.353,52.353,50.217,50.217,34.0,-30.439999999999998,19.453333333333333,-29.48,20.07,0.0,1783.678,1.0100000000000016,100.0,28.599,26.849,42.677,41.150999999999996,0.0,0.0,100.0,0.0,0.0,0.0,0.0,3309.142857142857,2988.9,3738.125,3716.9,304.5775,305.4045,315.667,315.712,21.7998,20.522100000000002,21.7864,21.3253,314.999998,314.999998,324.999988,324.999988,99.55902857142857,99.50723333333333,99.56511428571429,99.5452,-0.043749999999999956,-0.17100000000000004,-0.23183333333333334,0.0001666666666666483,-0.07000000000000028,-0.07333333333333059,1.621,1.7035,37.248999999999995,29.262999999999998,37.165,34.283,56.287,34.5535,59.0205,51.622,54.197,33.711,57.6445,49.984,53.357,33.2615,57.599000000000004,49.411,0.0,-0.15300000000000002,0.10178000000000001,0.11830500000000001,0.0,206.24,206.065,203.35000000000002,203.35,0.0,0.0
3,0.0,0.0,0.0,1.0,1.0,0.0,0.0,1.0,0.0,100.0,1.0,1.1856,26.0,0.0,0.0,0.0,59.999996,0.0,26.0,26.0,26.0,26.0,-0.161625,0.32800000000000007,0.08746000000000001,293.457,-2.7116,-2.7077,-1.49945,-1.6038999999999999,-265.62,216.2225,190.928875,0.0,0.0,0.0,0.0,0.0074333333333333335,-5.498166666666667,-5.498166666666667,-0.5097,0.242,-0.023777777777777676,-0.07299999999999995,65.952,-0.10400000000000001,-0.1996,1.5839999999999996,100.0,1.0,1.0,203.46333333333334,0.0,0.0,0.0,0.0,0.0,0.0,0.0,8624.0,0.0,55.0,5.0,237.39666666666668,1.0,0.0,0.0,0.0,0.0,0.0,0.0,0.0,0.1559999999999988,0.1559999999999988,0.0,0.0,1.0,55.0,616.79921,10000.0,85.000001,85.000001,85.000001,85.000001,395.0,0.0,0.0,0.0,1.0,166.665,53.528,53.528,48.157,48.157,34.0,-26.9625,17.48333333333333,-35.486666666666665,23.845,0.0,1783.629,0.9800000000000004,100.0,28.054,26.852,42.588,41.259,0.0,0.0,100.0,0.0,0.0,0.0,0.0,2879.142857142857,2863.2,4302.75,4238.6,306.019,305.73125,314.29075,314.35125,21.809,20.527,21.7962,21.3336,314.999998,314.999998,324.999988,324.999988,99.55904285714286,99.50723333333333,99.56524285714286,99.54534285714286,-0.05125000000000002,-0.17700000000000005,-0.22083333333333333,-0.0030000000000000027,-0.02499999999999858,-0.0799999999999983,1.4729999999999999,1.5415,37.306,29.2935,37.226,34.335499999999996,56.272,34.5945,59.0585,51.6815,54.183,33.749,57.6795,50.0415,53.343,33.2975,57.6315,49.467,0.0020000000000000018,-0.14900000000000002,0.09749000000000001,0.1136,0.0,206.655,206.56,203.46333333333334,203.46333333333334,0.0,0.0
4,0.0,0.0,0.0,1.0,1.0,0.0,0.0,1.0,0.0,100.0,1.0,1.1856,26.0,0.0,0.0,0.0,59.999996,0.0,26.0,26.0,26.0,26.0,-0.20075,0.2864,-0.02458,293.61,-2.641,-2.7618,-1.5104000000000002,-1.6155,-262.45,216.2175,190.91025,0.0,0.0,0.0,0.0,0.009300000000000001,-5.498166666666667,-5.498166666666667,-0.5436,-0.8915,-0.0952222222222221,-0.7610000000000001,66.09,-0.11330000000000001,-0.23715,1.6739999999999995,100.0,1.0,1.0,204.01666666666665,0.0,0.0,0.0,0.0,0.0,0.0,0.0,8647.6,0.0,55.0,5.0,237.89666666666668,0.0,0.0,0.0,0.0,0.0,0.0,0.0,0.0,0.20400000000000063,0.20400000000000063,0.0,0.0,0.0,55.0,616.79921,10000.0,85.000001,85.000001,85.000001,85.000001,395.0,0.0,0.0,0.0,1.0,333.33500000000004,53.055,53.055,48.706,48.706,34.0,-30.82,17.849999999999998,-34.44333333333333,19.77,0.0,1783.581,0.995000000000001,100.0,27.925,26.625,43.037,41.317,0.0,0.0,100.0,0.0,0.0,0.0,0.0,3237.4285714285716,2940.7,4106.125,3673.3,305.019,305.51025,314.72375,315.68425,21.8182,20.5317,21.8062,21.342,314.999998,314.999998,324.999988,324.999988,99.55904285714286,99.50726666666667,99.56538571428571,99.54545714285715,-0.06674999999999986,-0.19300000000000006,-0.24283333333333335,-0.008166666666666655,-0.05333333333332746,-0.07166666666666544,1.5525,1.6225,37.364000000000004,29.323,37.289,34.387,56.257999999999996,34.635,59.099000000000004,51.7375,54.169,33.786,57.7175,50.0945,53.328,33.333,57.667,49.519,0.008000000000000007,-0.16100000000000003,0.113335,0.10912000000000001,0.0,207.055,206.92000000000002,204.01666666666665,204.01666666666665,0.0,0.0
5,0.0,0.0,0.0,1.0,1.0,0.0,0.0,1.0,0.0,100.0,1.0,1.1856,26.0,0.0,0.0,0.0,59.999996,0.0,26.0,26.0,26.0,26.0,-0.195875,0.2994000000000001,-0.01922,293.594,-2.6466,-2.7928,-1.48885,-1.6064,-258.87,216.20499999999998,190.88875,0.0,0.0,0.0,0.0,0.011366666666666667,-5.498166666666667,-5.498166666666667,-0.5354,0.42100000000000004,-0.1030000000000002,1.119,66.245,-0.1231,-0.21405000000000002,1.6059999999999999,100.0,1.0,1.0,204.44666666666666,0.0,0.0,0.0,0.0,0.0,0.0,0.0,8665.7,0.0,55.0,5.0,238.45333333333332,1.0,0.0,0.0,0.0,0.0,0.0,0.0,0.0,0.2579999999999991,0.2579999999999991,0.0,0.0,1.0,55.0,616.79921,10000.0,85.000001,85.000001,85.000001,85.000001,395.0,0.0,0.0,0.0,1.0,166.665,53.406,53.406,48.903999999999996,48.903999999999996,34.0,-29.427500000000002,17.805,-35.97333333333333,21.35,0.0,1783.528,0.6600000000000001,100.0,28.111,26.456,42.859,40.905,0.0,0.0,100.0,0.0,0.0,0.0,0.0,3142.714285714286,2811.6,4188.0,4079.4,305.1915,305.942,314.62225,314.775,21.8288,20.537,21.8173,21.3511,314.999998,314.999998,324.999988,324.999988,99.55905714285714,99.50728333333333,99.56554285714286,99.54561428571428,-0.05274999999999985,-0.17666666666666675,-0.2613333333333333,-0.026666666666666616,-0.02833333333332888,-0.051666666666669414,1.5075,1.596,37.43,29.3565,37.358000000000004,34.4445,56.245999999999995,34.68,59.1435,51.798,54.158,33.8275,57.759,50.153,53.316,33.3725,57.7055,49.576,-0.020000000000000018,-0.127,0.11262000000000001,0.10895500000000001,0.0,207.575,207.435,204.44666666666666,204.44666666666666,0.0,0.0
6,0.0,0.0,0.0,1.0,1.0,0.0,0.0,1.0,0.0,100.0,1.0,1.1856,26.0,0.0,0.0,0.0,59.999996,0.0,26.0,26.0,26.0,26.0,-0.188,0.28200000000000003,0.00078,293.457,-2.6089,-2.8255,-1.5277500000000002,-1.6078000000000001,-255.69,216.19,190.869375,0.0,0.0,0.0,0.0,0.013233333333333335,-5.498166666666667,-5.498166666666667,-0.5306000000000001,0.10099999999999998,-0.09066666666666645,0.8360000000000001,66.383,-0.12390000000000001,-0.214675,1.3800000000000008,100.0,1.0,1.0,204.86333333333334,0.0,0.0,0.0,0.0,0.0,0.0,0.0,8683.4,0.0,55.0,5.0,238.94666666666666,0.0,0.0,0.0,0.0,0.0,0.0,0.0,0.0,0.30600000000000094,0.30600000000000094,0.0,0.0,0.0,55.0,616.79921,10000.0,85.000001,85.000001,85.000001,85.000001,395.0,0.0,0.0,0.0,1.0,166.665,53.177,53.177,48.691,48.691,34.0,-28.884999999999998,19.105,-35.22,21.535,0.0,1783.479,0.5250000000000004,100.0,28.05,26.546,43.009,41.192,0.0,0.0,100.0,0.0,0.0,0.0,0.0,3146.142857142857,2901.3,4134.5,4022.7,305.1385,305.5835,314.73625,314.904,21.8382,20.5418,21.8273,21.3595,314.999998,314.999998,324.999988,324.999988,99.55905714285714,99.5073,99.56568571428572,99.54574285714286,-0.04499999999999993,-0.16966666666666663,-0.249,-0.01749999999999996,-0.03833333333332689,-0.046666666666666856,1.537,1.584,37.489000000000004,29.386499999999998,37.42,34.497,56.233999999999995,34.7195,59.183,51.856,54.147,33.864,57.796,50.208,53.304,33.4075,57.74,49.629999999999995,-0.033499999999999974,-0.1100000000000001,0.10724,0.11034500000000001,0.0,207.97500000000002,207.86,204.86333333333334,204.86333333333334,0.0,0.0
7,0.0,0.0,0.0,1.0,1.0,0.0,0.0,1.0,0.0,100.0,1.0,1.1856,26.0,0.0,0.0,0.0,59.999996,0.0,26.0,26.0,26.0,26.0,-0.15862500000000002,0.28910000000000013,0.03804,293.198,-2.5771,-2.7654,-1.485,-1.6518000000000002,-252.5,216.17000000000002,190.850125,0.0,0.0,0.0,0.0,0.015066666666666666,-5.498166666666667,-5.498166666666667,-0.5352,-0.018000000000000016,-0.0825555555555555,1.125,66.52,-0.11380000000000001,-0.224175,1.0679999999999996,100.0,1.0,1.0,205.26,0.0,0.0,0.0,0.0,0.0,0.0,0.0,8700.2,0.0,55.0,5.0,239.44333333333333,1.0,0.0,0.0,0.0,0.0,0.0,0.0,0.0,0.3539999999999992,0.3539999999999992,0.0,0.0,1.0,55.0,616.79921,10000.0,85.000001,85.000001,85.000001,85.000001,395.0,0.0,0.0,0.0,1.0,166.665,52.78,52.78,48.843,48.843,34.0,-28.8575,20.44833333333333,-32.91,22.8125,0.0,1783.431,0.125,100.0,28.176000000000002,26.573,43.097,41.433,0.0,0.0,100.0,0.0,0.0,0.0,0.0,3270.857142857143,2997.6,4079.625,4038.0,304.7335,305.34475,314.821,314.80575,21.8476,20.5466,21.8372,21.3679,314.999998,314.999998,324.999988,324.999988,99.55905714285714,99.50731666666667,99.56581428571428,99.54587142857143,-0.01949999999999985,-0.14100000000000001,-0.22183333333333333,-0.009666666666666601,-0.041666666666671404,-0.054999999999999716,1.529,1.56,37.547,29.4165,37.482,34.5495,56.222,34.7585,59.222,51.913,54.135,33.8995,57.833,50.263,53.291,33.4415,57.774,49.68333333333334,-0.0635,-0.08600000000000008,0.09778,0.10777,0.0,208.385,208.305,205.26,205.26,0.0,0.0
8,0.0,0.0,0.0,1.0,1.0,0.0,0.0,1.0,0.0,100.0,1.0,1.1856,26.0,0.0,0.0,0.0,59.999996,0.0,26.0,26.0,26.0,26.0,-0.12125,0.28770000000000007,-0.02784,293.442,-2.6641,-2.7478,-1.46915,-1.5795,-249.1,216.14499999999998,190.829625,0.0,0.0,0.0,0.0,0.017033333333333334,-5.498166666666667,-5.498166666666667,-0.535,-0.4635,-0.06666666666666643,-0.516,66.666,-0.0965,-0.215,0.5579999999999998,100.0,1.0,1.0,205.64666666666668,0.0,0.0,0.0,0.0,0.0,0.0,0.0,8716.6,0.0,55.0,5.0,239.97,0.0,0.0,0.0,0.0,0.0,0.0,0.0,0.0,0.40500000000000114,0.40500000000000114,0.0,0.0,0.0,55.0,616.79921,10000.0,85.000001,85.000001,85.000001,85.000001,395.0,0.0,0.0,0.0,1.0,333.33500000000004,53.68,53.68,48.126,48.126,34.0,-26.505,19.36,-33.736666666666665,23.485,0.0,1783.38,-0.015000000000000568,100.0,27.624,26.692,42.997,41.616,0.0,0.0,100.0,0.0,0.0,0.0,0.0,3043.0,2834.4,4232.75,4090.6000000000004,305.6715,305.6875,314.49325,314.6145,21.8574,20.5517,21.8477,21.3768,314.999998,314.999998,324.999988,324.999988,99.55907142857143,99.50733333333334,99.56595714285714,99.54601428571429,-0.008499999999999952,-0.1363333333333332,-0.21166666666666656,0.012166666666666659,-0.046666666666666856,-0.041666666666671404,1.5035,1.5265,37.608000000000004,29.4485,37.548,34.605000000000004,56.205,34.798,59.2635,51.9735,54.119,33.9365,57.8715,50.320499999999996,53.275,33.4765,57.81,49.74,-0.08050000000000002,-0.07299999999999995,0.10494500000000001,0.10879000000000001,0.0,208.81,208.745,205.64666666666668,205.64666666666668,0.0,0.0
9,0.0,0.0,0.0,1.0,1.0,0.0,0.0,1.0,0.0,100.0,1.0,1.1856,26.0,0.0,0.0,0.0,59.999996,0.0,26.0,26.0,26.0,26.0,-0.08875,0.28059999999999996,-0.020180000000000003,293.182,-2.6506,-2.7617000000000003,-1.52405,-1.5841,-245.9,216.12,190.80975,0.0,0.0,0.0,0.0,0.0189,-5.498166666666667,-5.498166666666667,-0.5429,0.586,-0.06977777777777794,-0.43400000000000016,66.799,-0.07440000000000001,-0.218125,0.42600000000000016,100.0,1.0,1.0,206.2,0.0,0.0,0.0,0.0,0.0,0.0,0.0,8740.1,0.0,55.0,5.0,240.44666666666666,1.0,0.0,0.0,0.0,0.0,0.0,0.0,0.0,0.4529999999999994,0.4529999999999994,0.0,0.0,1.0,55.0,616.79921,10000.0,85.000001,85.000001,85.000001,85.000001,395.0,0.0,0.0,0.0,1.0,166.665,52.429,52.429,49.179,49.179,34.0,-29.41,21.491666666666667,-31.096666666666664,23.725,0.0,1783.333,-0.16000000000000014,100.0,28.048000000000002,27.088,42.694,41.594,0.0,0.0,100.0,0.0,0.0,0.0,0.0,3437.142857142857,2937.9,4028.875,3976.3,304.4865,305.312,315.077,314.96975,21.8667,20.5567,21.8575,21.3852,314.999998,314.999998,324.999988,324.999988,99.55907142857143,99.50735,99.5661,99.54614285714285,0.013749999999999929,-0.10866666666666669,-0.18999999999999995,0.03550000000000009,-0.04999999999999716,-0.045000000000001705,1.551,1.568,37.667,29.4795,37.608999999999995,34.657,56.192,34.837,59.299,52.028999999999996,54.105999999999995,33.972,57.905,50.3735,53.260999999999996,33.510999999999996,57.841,49.791666666666664,-0.09150000000000003,-0.06150000000000011,0.10602500000000001,0.11205500000000002,0.0,209.245,209.20499999999998,206.2,206.2,0.0,0.0
10,0.0,0.0,0.0,1.0,1.0,0.0,0.0,1.0,0.0,100.0,1.0,1.1856,26.0,0.0,0.0,0.0,59.999996,0.0,26.0,26.0,26.0,26.0,-0.061875,0.2948000000000002,0.0519,292.984,-2.6244,-2.7444,-1.50495,-1.5631,-242.49,216.09,190.789,0.0,0.0,0.0,0.0,0.020900000000000002,-5.498166666666667,-5.498166666666667,-0.5186000000000001,-0.45300000000000007,-0.02477777777777801,1.899,66.947,-0.050800000000000005,-0.2061,-0.07399999999999984,100.0,1.0,1.0,206.42666666666668,0.0,0.0,0.0,0.0,0.0,0.0,0.0,8749.6,0.0,55.0,5.0,240.98000000000002,0.0,0.0,0.0,0.0,0.0,0.0,1.0,0.0,0.5040000000000013,0.5040000000000013,0.0,0.0,0.0,55.0,616.79921,10000.0,85.000001,85.000001,85.000001,85.000001,395.0,0.0,0.0,0.0,1.0,166.665,53.452,53.452,47.653,47.653,34.0,-22.525,21.92666666666667,-31.996666666666666,27.595,0.0,1783.282,-0.33000000000000007,100.0,28.029,26.918,43.175,42.233000000000004,0.0,0.0,100.0,0.0,0.0,0.0,0.0,2888.142857142857,2917.0,4283.125,4308.5,305.945,305.60925,314.29375,314.17175,21.8766,20.5619,21.8681,21.3943,314.999998,314.999998,324.999988,324.999988,99.55907142857143,99.50736666666667,99.56624285714285,99.5463,0.052000000000000046,-0.08266666666666667,-0.15449999999999997,0.061166666666666814,-0.041666666666671404,-0.05833333333333002,1.471,1.4785,37.729,29.512,37.675,34.714,56.177,34.8755,59.341499999999996,52.0925,54.092,34.0075,57.9445,50.4345,53.247,33.5445,57.8775,49.851333333333336,-0.10350000000000004,-0.04699999999999993,0.10672000000000001,0.10102000000000001,0.0,209.66,209.655,206.42666666666668,206.42666666666668,0.0,0.0
11,0.0,0.0,0.0,1.0,1.0,0.0,0.0,1.0,0.0,100.0,1.0,1.1856,26.0,0.0,0.0,0.0,59.999996,0.0,26.0,26.0,26.0,26.0,-0.003125,0.2723,-0.09788,293.549,-2.6793,-2.7138999999999998,-1.56685,-1.5476,-239.07,216.06,190.768375,0.0,0.0,0.0,0.0,0.022600000000000002,-5.498166666666667,-5.498166666666667,-0.5607,-0.23649999999999993,0.002666666666666595,-0.569,67.08500000000001,-0.0257,-0.237825,-0.16799999999999926,100.0,1.0,1.0,207.15666666666667,0.0,0.0,0.0,0.0,0.0,0.0,0.0,8780.6,0.0,55.0,5.0,241.48000000000002,1.0,0.0,0.0,0.0,0.0,0.0,1.0,0.0,0.5549999999999997,0.5549999999999997,0.0,0.0,1.0,55.0,616.79921,10000.0,85.000001,85.000001,85.000001,85.000001,395.0,0.0,0.0,0.0,1.0,166.665,52.887,52.887,49.316,49.316,34.0,-24.72,23.560000000000002,-25.823333333333334,24.665,0.0,1783.231,-0.3349999999999991,100.0,27.609,27.326999999999998,42.594,42.277,0.0,0.0,100.0,0.0,0.0,0.0,0.0,3142.857142857143,3031.0,3732.5,3835.3,305.3875,305.03575,315.806,315.3025,21.8862,20.5672,21.8784,21.4032,314.999998,314.999998,324.999988,324.999988,99.55908571428571,99.50736666666667,99.56638571428572,99.54644285714286,0.06125000000000025,-0.06699999999999995,-0.12916666666666665,0.09000000000000008,-0.05833333333333002,-0.041666666666671404,1.635,1.62,37.789,29.5455,37.739999999999995,34.769999999999996,56.161,34.914,59.376999999999995,52.152,54.077,34.043,57.978,50.492,53.230999999999995,33.579,57.908,49.907333333333334,-0.10199999999999998,-0.04600000000000004,0.09947500000000001,0.10895500000000001,0.0,210.07999999999998,210.07999999999998,207.15666666666667,207.15666666666667,0.0,0.0
12,0.0,0.0,0.0,1.0,1.0,0.0,0.0,1.0,0.0,100.0,1.0,1.1856,26.0,0.0,0.0,0.0,59.999996,0.0,26.0,26.0,26.0,26.0,0.00075,0.28480000000000016,0.02032,292.938,-2.7277,-2.7129000000000003,-1.53045,-1.5777999999999999,-235.65,216.0275,190.74625,0.0,0.0,0.0,0.0,0.025466666666666665,-5.498166666666667,-5.498166666666667,-0.5448000000000001,0.2845,-0.009222222222222243,0.7190000000000001,67.23,-0.0073,-0.206025,-0.2699999999999996,100.0,1.0,1.0,207.38,0.0,0.0,0.0,0.0,0.0,0.0,0.0,8790.1,0.0,55.0,5.0,242.0,0.0,0.0,0.0,0.0,0.0,0.0,1.0,0.0,0.6059999999999981,0.6059999999999981,0.0,0.0,0.0,55.0,616.79921,10000.0,85.000001,85.000001,85.000001,85.000001,395.0,0.0,0.0,0.0,1.0,166.665,52.795,52.795,47.943,47.943,34.0,-23.655,25.485,-28.656666666666666,29.8825,0.0,1783.18,-0.3699999999999992,100.0,27.642,27.339,42.585,42.157,0.0,0.0,100.0,0.0,0.0,0.0,0.0,3092.5714285714284,3142.0,4204.0,4214.9,305.3925,304.88875,314.5805,314.443,21.8958,20.5727,21.8888,21.4122,314.999998,314.999998,324.999988,324.999988,99.55908571428571,99.50738333333334,99.56652857142858,99.54658571428571,0.08999999999999986,-0.03933333333333322,-0.10466666666666657,0.1160000000000001,-0.060000000000002274,-0.046666666666666856,1.5265,1.4969999999999999,37.849000000000004,29.579,37.805,34.826,56.147,34.953,59.416,52.2125,54.063,34.079,58.013999999999996,50.55,53.216,33.6135,57.941,49.964,-0.10749999999999993,-0.04699999999999993,0.10138000000000001,0.11021500000000001,0.0,210.565,210.55,207.38,207.38,0.0,0.0
13,0.0,0.0,0.0,1.0,1.0,0.0,0.0,1.0,0.0,100.0,1.0,1.1856,26.0,0.0,0.0,0.0,59.999996,0.0,26.0,26.0,26.0,26.0,0.007875,0.2912000000000001,0.05384,292.603,-2.7102,-2.7009,-1.6025,-1.5615999999999999,-232.42000000000002,215.9975,190.725875,0.0,0.0,0.0,0.0,0.02673333333333333,-5.498166666666667,-5.498166666666667,-0.5383,-0.05750000000000011,-0.0018888888888888289,1.0110000000000001,67.36500000000001,0.0033,-0.21330000000000002,-0.35599999999999987,100.0,1.0,1.0,207.74666666666667,0.0,0.0,0.0,0.0,0.0,0.0,0.0,8805.5,0.0,55.0,5.0,242.48333333333335,1.0,0.0,0.0,0.0,0.0,0.0,1.0,0.0,0.6539999999999999,0.6539999999999999,0.0,0.0,1.0,55.0,616.79921,10000.0,85.000001,85.000001,85.000001,85.000001,395.0,0.0,0.0,0.0,1.0,166.665,52.567,52.567,47.928,47.928,34.0,-23.474999999999998,25.755,-29.4,31.305,0.0,1783.132,-0.5099999999999998,100.0,27.925,27.534,42.803,42.676,0.0,0.0,100.0,0.0,0.0,0.0,0.0,3102.857142857143,3136.6,4180.625,4331.8,305.3385,304.8965,314.634,314.1455,21.9049,20.5778,21.898699999999998,21.4208,314.999998,314.999998,324.999988,324.999988,99.5591,99.50738333333334,99.56667142857142,99.54671428571429,0.09324999999999983,-0.030000000000000027,-0.10133333333333339,0.127,-0.03999999999999915,-0.06833333333332803,1.504,1.4885,37.906,29.6115,37.867000000000004,34.879999999999995,56.135,34.989,59.453,52.272,54.052,34.112,58.0485,50.6075,53.204,33.644999999999996,57.9725,50.02033333333333,-0.11049999999999993,-0.038999999999999924,0.10968000000000001,0.10552,0.0,210.95,210.965,207.74666666666667,207.74666666666667,0.0,0.0
14,0.0,0.0,0.0,1.0,1.0,0.0,0.0,1.0,0.0,100.0,1.0,1.1856,26.0,0.0,0.0,0.0,59.999996,0.0,26.0,26.0,26.0,26.0,0.029125,0.2843,-0.00742,292.816,-2.7106,-2.6438,-1.5727,-1.5378,-228.98,215.9675,190.7045,0.0,0.0,0.0,0.0,0.028733333333333333,-5.498166666666667,-5.498166666666667,-0.5484,-0.1785000000000001,0.01922222222222203,-0.11299999999999999,67.504,0.0166,-0.2275,-0.41600000000000037,100.0,1.0,1.0,208.25333333333333,0.0,0.0,0.0,0.0,0.0,0.0,0.0,8827.1,0.0,55.0,5.0,242.98666666666668,0.0,0.0,0.0,0.0,0.0,0.0,1.0,0.0,0.7049999999999983,0.7049999999999983,0.0,0.0,0.0,55.0,616.79921,10000.0,85.000001,85.000001,85.000001,85.000001,395.0,0.0,0.0,0.0,1.0,166.665,52.628,52.628,48.111,48.111,34.0,-23.0825,25.023333333333333,-27.516666666666666,28.6125,0.0,1783.08,-0.5,100.0,27.726,27.755,42.699,42.997,0.0,0.0,100.0,0.0,0.0,0.0,0.0,3104.142857142857,3107.6,4050.75,4115.7,305.514,304.82625,314.99075,314.60875,21.9145,20.5833,21.9091,21.4299,314.999998,314.999998,324.999988,324.999988,99.55911428571429,99.5074,99.56681428571429,99.54685714285715,0.09775,-0.033333333333333215,-0.09783333333333333,0.1200000000000001,-0.05333333333332746,-0.05666666666667197,1.545,1.5425,37.966,29.6455,37.932,34.9365,56.123000000000005,35.025999999999996,59.4905,52.334,54.041,34.1465,58.0835,50.667,53.192,33.6785,58.0045,50.07866666666666,-0.11399999999999999,-0.038000000000000034,0.10726000000000001,0.10104,0.0,211.375,211.405,208.25333333333333,208.25333333333333,0.0,0.0
15,0.0,0.0,0.0,1.0,1.0,0.0,0.0,1.0,0.0,100.0,1.0,1.1856,26.0,0.0,0.0,0.0,59.999996,0.0,26.0,26.0,26.0,26.0,0.043250000000000004,0.2923,-0.03866000000000001,292.847,-2.6858,-2.599,-1.6007,-1.4777,-225.74,215.9375,190.68425,0.0,0.0,0.0,0.0,0.030633333333333332,-5.498166666666667,-5.498166666666667,-0.5402,0.279,0.04988888888888887,-0.26000000000000023,67.636,0.027700000000000002,-0.210875,-0.4720000000000004,100.0,1.0,1.0,208.65333333333334,0.0,0.0,0.0,0.0,0.0,0.0,0.0,8844.0,0.0,55.0,5.0,243.46333333333334,1.0,0.0,0.0,0.0,0.0,0.0,1.0,0.0,0.7530000000000001,0.7530000000000001,0.0,0.0,1.0,55.0,616.79921,10000.0,85.000001,85.000001,85.000001,85.000001,395.0,0.0,0.0,0.0,1.0,166.665,52.811,52.811,48.172,48.172,34.0,-21.11,24.671666666666667,-27.34,30.3975,0.0,1783.032,-0.4800000000000004,100.0,27.734,27.84,42.463,43.065,0.0,0.0,100.0,0.0,0.0,0.0,0.0,2943.142857142857,3086.4,4017.125,4285.8,305.934,304.879,315.10475,314.219,21.9235,20.5884,21.9189,21.4384,314.999998,314.999998,324.999988,324.999988,99.55912857142857,99.5074,99.56694285714286,99.547,0.10850000000000026,-0.027666666666666728,-0.09233333333333338,0.14116666666666666,-0.051666666666669414,-0.051666666666669414,1.5325,1.52,38.022,29.677999999999997,37.992999999999995,34.99,56.111999999999995,35.0615,59.5245,52.3925,54.03,34.1795,58.115,50.723,53.18,33.71,58.033,50.134,-0.11249999999999993,-0.03849999999999998,0.11118000000000001,0.11385,0.0,211.8,211.82,208.65333333333334,208.65333333333334,0.0,0.0
16,0.0,0.0,0.0,1.0,1.0,0.0,0.0,1.0,0.0,100.0,1.0,1.1856,26.0,0.0,0.0,0.0,59.999996,0.0,26.0,26.0,26.0,26.0,0.043125000000000004,0.2695000000000001,-0.01174,292.831,-2.7725,-2.6162,-1.5734,-1.4834,-222.28,215.9075,190.662125,0.0,0.0,0.0,0.0,0.032633333333333334,-5.498166666666667,-5.498166666666667,-0.5592,-0.718,0.03588888888888886,0.06600000000000006,67.777,0.0354,-0.223675,-0.5199999999999996,100.0,1.0,1.0,209.07,0.0,0.0,0.0,0.0,0.0,0.0,0.0,8861.7,0.0,55.0,5.0,243.97,0.0,0.0,0.0,0.0,0.0,0.0,1.0,0.0,0.8039999999999985,0.8039999999999985,0.0,0.0,0.0,55.0,616.79921,10000.0,85.000001,85.000001,85.000001,85.000001,395.0,0.0,0.0,0.0,1.0,333.33500000000004,52.75,52.75,47.882,47.882,34.0,-22.232499999999998,26.564999999999998,-25.223333333333333,30.085,0.0,1782.98,-0.3249999999999993,100.0,27.53,27.743,42.822,43.104,0.0,0.0,100.0,0.0,0.0,0.0,0.0,2999.0,3237.5,3973.625,4154.3,305.7875,304.6275,315.143,314.5775,21.9328,20.594,21.9294,21.447499999999998,314.999998,314.999998,324.999988,324.999988,99.55914285714286,99.5074,99.5671,99.54714285714286,0.11100000000000021,-0.014333333333333309,-0.06233333333333335,0.1563333333333332,-0.04833333333333201,-0.060000000000002274,1.5325,1.5194999999999999,38.08,29.7125,38.058,35.047,56.097,35.0995,59.563,52.454,54.015,34.2145,58.150999999999996,50.7825,53.164,33.7435,58.066,50.19233333333334,-0.10399999999999998,-0.0495000000000001,0.09963000000000001,0.10240500000000001,0.0,212.195,212.215,209.07,209.07,0.0,0.0
17,0.0,0.0,0.0,1.0,1.0,0.0,0.0,1.0,0.0,100.0,1.0,1.1856,26.0,0.0,0.0,0.0,59.999996,0.0,26.0,26.0,26.0,26.0,0.036125,0.2923,0.02306,292.48,-2.7298,-2.5992,-1.60635,-1.5101,-218.82,215.88,190.639625,0.0,0.0,0.0,0.0,0.03466666666666667,-5.498166666666667,-5.498166666666667,-0.5498000000000001,0.482,0.0067777777777777715,-0.7800000000000002,67.916,0.0356,-0.20620000000000002,-0.29000000000000004,100.0,1.0,1.0,209.46666666666667,0.0,0.0,0.0,0.0,0.0,0.0,0.0,8878.5,0.0,55.0,5.0,244.46666666666667,1.0,0.0,0.0,0.0,0.0,0.0,1.0,0.0,0.8550000000000004,0.8550000000000004,0.0,0.0,1.0,55.0,616.79921,10000.0,85.000001,85.000001,85.000001,85.000001,395.0,0.0,0.0,0.0,1.0,333.33500000000004,52.429,52.429,47.791,47.791,34.0,-23.27,24.42,-28.88,30.635,0.0,1782.928,-0.3349999999999991,100.0,27.907,28.131999999999998,42.577,43.113,0.0,0.0,100.0,0.0,0.0,0.0,0.0,3181.285714285714,3026.8,4309.0,4212.6,305.3355,305.10625,314.50725,314.4465,21.9424,20.5996,21.9397,21.4565,314.999998,314.999998,324.999988,324.999988,99.55915714285715,99.5074,99.56724285714286,99.54728571428572,0.11175000000000024,-0.019333333333333202,-0.07699999999999996,0.15016666666666678,-0.05833333333333002,-0.05333333333332746,1.5345,1.521,38.14,29.747500000000002,38.123000000000005,35.1035,56.085,35.138,59.602000000000004,52.515,54.004999999999995,34.2505,58.1845,50.8445,53.153,33.78,58.097,50.253,-0.10299999999999998,-0.04600000000000004,0.10389500000000002,0.11137500000000002,0.0,212.675,212.69,209.46666666666667,209.46666666666667,0.0,0.0
18,0.0,0.0,0.0,1.0,1.0,0.0,0.0,1.0,0.0,100.0,1.0,1.1856,26.0,0.0,0.0,0.0,59.999996,0.0,26.0,26.0,26.0,26.0,0.037,0.2751000000000001,-0.0166,292.45,-2.7602,-2.5778,-1.61985,-1.46,-215.56,215.85500000000002,190.6185,0.0,0.0,0.0,0.0,0.036533333333333334,-5.498166666666667,-5.498166666666667,-0.5585,-0.516,0.026999999999999913,-0.27,68.04599999999999,0.0324,-0.22125,-0.25,100.0,1.0,1.0,209.87,0.0,0.0,0.0,0.0,0.0,0.0,0.0,8895.6,0.0,55.0,5.0,244.94,0.0,0.0,0.0,0.0,0.0,0.0,1.0,0.0,0.9029999999999987,0.9029999999999987,0.0,0.0,0.0,55.0,616.79921,10000.0,85.000001,85.000001,85.000001,85.000001,395.0,0.0,0.0,0.0,1.0,333.33500000000004,52.368,52.368,47.638,47.638,34.0,-23.669999999999998,25.833333333333336,-27.966666666666665,29.12,0.0,1782.88,-0.379999999999999,100.0,27.678,27.986,42.926,43.463,0.0,0.0,100.0,0.0,0.0,0.0,0.0,3177.714285714286,3195.5,4121.875,4158.7,305.404,304.64075,314.88175,314.5465,21.9513,20.6048,21.9496,21.4652,314.999998,314.999998,324.999988,324.999988,99.55917142857143,99.5074,99.56737142857143,99.54742857142857,0.10725000000000007,-0.0173333333333332,-0.08216666666666661,0.1423333333333332,-0.04999999999999716,-0.04999999999999716,1.523,1.521,38.195,29.78,38.185,35.1575,56.074,35.173,59.635999999999996,52.574,53.994,34.2825,58.2185,50.897999999999996,53.141,33.809,58.128,50.30533333333334,-0.11049999999999993,-0.046499999999999986,0.10461000000000001,0.11288000000000001,0.0,213.04500000000002,213.055,209.87,209.87,0.0,0.0
19,0.0,0.0,0.0,1.0,1.0,0.0,0.0,1.0,0.0,100.0,1.0,1.1856,26.0,0.0,0.0,0.0,59.999996,0.0,26.0,26.0,26.0,26.0,0.03925,0.28970000000000007,0.058120000000000005,291.946,-2.6715999999999998,-2.6814999999999998,-1.54825,-1.4474,-211.88,215.8275,190.594625,0.0,0.0,0.0,0.0,0.038700000000000005,-5.498166666666667,-5.498166666666667,-0.549,0.767,0.029444444444444384,-0.8599999999999999,68.19200000000001,0.032,-0.21200000000000002,-0.3200000000000003,100.0,1.0,1.0,210.27666666666667,0.0,0.0,0.0,0.0,0.0,0.0,0.0,8912.9,0.0,55.0,5.0,245.46333333333334,1.0,0.0,0.0,0.0,0.0,0.0,1.0,0.0,0.9570000000000007,0.9570000000000007,0.0,0.0,1.0,55.0,616.79921,10000.0,85.000001,85.000001,85.000001,85.000001,395.0,0.0,0.0,0.0,1.0,166.665,51.819,51.819,47.409,47.409,34.0,-22.765,25.78,-28.419999999999998,31.315,0.0,1782.828,-0.33999999999999986,100.0,28.246,28.514,42.756,43.448,0.0,0.0,100.0,0.0,0.0,0.0,0.0,3167.142857142857,3116.8,4253.375,4402.8,305.2585,304.6025,314.539,313.988,21.9615,20.6109,21.9606,21.4748,314.999998,314.999998,324.999988,324.999988,99.55918571428572,99.5074,99.56751428571428,99.54758571428572,0.11149999999999993,-0.03133333333333321,-0.08733333333333337,0.14616666666666678,-0.041666666666671404,-0.03333333333333144,1.505,1.491,38.259,29.817999999999998,38.254000000000005,35.2175,56.063,35.215,59.674,52.6395,53.983000000000004,34.3215,58.254,50.9615,53.129000000000005,33.8465,58.16,50.367666666666665,-0.10799999999999998,-0.05049999999999999,0.10917,0.11019000000000001,0.0,213.535,213.53,210.27666666666667,210.27666666666667,0.0,0.0
20,0.0,0.0,0.0,1.0,1.0,0.0,0.0,1.0,0.0,100.0,1.0,1.1856,26.0,0.0,0.0,0.0,59.999996,0.0,26.0,26.0,26.0,26.0,0.0455,0.2681,-0.022500000000000003,292.313,-2.7691,-2.6389,-1.5521500000000001,-1.5708,-208.6,215.8025,190.573625,0.0,0.0,0.0,0.0,0.040600000000000004,-5.498166666666667,-5.498166666666667,-0.5535,-1.0394999999999999,0.02677777777777779,-0.9580000000000002,68.32300000000001,0.028800000000000003,-0.2223,-0.23599999999999977,100.0,1.0,1.0,210.60333333333335,0.0,0.0,0.0,0.0,0.0,0.0,0.0,8926.7,0.0,55.0,5.0,245.93666666666667,0.0,0.0,0.0,0.0,0.0,0.0,0.0,0.0,1.004999999999999,1.004999999999999,0.0,0.0,0.0,55.0,616.79921,10000.0,85.000001,85.000001,85.000001,85.000001,395.0,0.0,0.0,0.0,1.0,166.665,52.78,52.78,47.012,47.012,34.0,-22.5325,24.651666666666667,-28.043333333333333,31.105,0.0,1782.781,-0.33000000000000007,100.0,27.684,28.118000000000002,43.299,43.793,0.0,0.0,100.0,0.0,0.0,0.0,0.0,3012.714285714286,3045.2,4209.875,4218.3,305.8765,305.02175,314.59425,314.2285,21.9702,20.616,21.9706,21.4836,314.999998,314.999998,324.999988,324.999988,99.5592,99.50741666666667,99.56765714285714,99.54772857142858,0.1027499999999999,-0.027666666666666728,-0.08316666666666661,0.13149999999999995,-0.041666666666671404,-0.041666666666671404,1.491,1.47,38.314,29.85,38.316,35.2725,56.049,35.25,59.712,52.6995,53.97,34.354,58.289500000000004,51.019,53.114999999999995,33.8775,58.192499999999995,50.424,-0.10250000000000004,-0.05249999999999999,0.10750000000000001,0.10366,0.0,213.89,213.91,210.60333333333335,210.60333333333335,0.0,0.0
21,0.0,0.0,0.0,1.0,1.0,0.0,0.0,1.0,0.0,100.0,1.0,1.1856,26.0,0.0,0.0,0.0,59.999996,0.0,26.0,26.0,26.0,26.0,0.055,0.2662,-0.0738,292.709,-2.73,-2.6488,-1.6165,-1.5307,-205.32,215.78,190.552,0.0,0.0,0.0,0.0,0.0425,-5.498166666666667,-5.498166666666667,-0.5770000000000001,0.3215,0.00911111111111107,-0.919,68.44800000000001,0.024900000000000002,-0.22490000000000002,-0.23799999999999955,100.0,1.0,1.0,211.22333333333333,0.0,0.0,0.0,0.0,0.0,0.0,0.0,8953.0,0.0,55.0,5.0,246.38333333333333,1.0,0.0,0.0,0.0,0.0,0.0,0.0,0.0,1.0530000000000008,1.0530000000000008,0.0,0.0,1.0,55.0,616.79921,10000.0,85.000001,85.000001,85.000001,85.000001,395.0,0.0,0.0,0.0,1.0,166.665,52.414,52.414,48.294,48.294,34.0,-23.55,24.851666666666667,-26.723333333333333,28.4125,0.0,1782.733,-0.375,100.0,27.927,28.151,42.739000000000004,43.301,0.0,0.0,100.0,0.0,0.0,0.0,0.0,3170.142857142857,3062.2,4023.5,3993.3,305.38,304.998,315.17625,314.97825,21.9792,20.6213,21.9802,21.492,314.999998,314.999998,324.999988,324.999988,99.55921428571429,99.50741666666667,99.5678,99.54785714285714,0.10375000000000023,-0.028000000000000025,-0.07966666666666666,0.1413333333333333,-0.054999999999999716,-0.046666666666666856,1.5755,1.5615,38.370000000000005,29.883499999999998,38.376000000000005,35.325,56.039,35.286500000000004,59.743,52.7545,53.959,34.3875,58.3185,51.072,53.104,33.91,58.2185,50.47566666666667,-0.11099999999999999,-0.0495000000000001,0.09982,0.105105,0.0,214.315,214.31,211.22333333333333,211.22333333333333,0.0,0.0
22,0.0,0.0,0.0,1.0,1.0,0.0,0.0,1.0,0.0,100.0,1.0,1.1856,26.0,0.0,0.0,0.0,59.999996,0.0,26.0,26.0,26.0,26.0,0.034375,0.2711000000000001,-0.0022600000000000003,292.236,-2.6611,-2.7024,-1.611,-1.5188000000000001,-201.82999999999998,215.755,190.52825,0.0,0.0,0.0,0.0,0.044533333333333334,-5.498166666666667,-5.498166666666667,-0.5577,0.07850000000000001,0.02111111111111108,1.19,68.587,0.0227,-0.20422500000000002,-0.33000000000000007,100.0,1.0,1.0,211.45333333333332,0.0,0.0,0.0,0.0,0.0,0.0,0.0,8962.7,0.0,55.0,5.0,246.88333333333333,0.0,0.0,0.0,0.0,0.0,0.0,0.0,0.0,1.1039999999999992,1.1039999999999992,0.0,0.0,0.0,55.0,616.79921,10000.0,85.000001,85.000001,85.000001,85.000001,395.0,0.0,0.0,0.0,1.0,333.33500000000004,52.521,52.521,47.165,47.165,34.0,-20.41,26.106666666666666,-29.06,31.79,0.0,1782.681,-0.4499999999999993,100.0,28.164,28.109,43.153,43.415,0.0,0.0,100.0,0.0,0.0,0.0,0.0,2889.4285714285716,3123.4,4202.25,4381.7,305.9225,304.86975,314.6225,314.10325,21.9887,20.627,21.9907,21.5012,314.999998,314.999998,324.999988,324.999988,99.55922857142858,99.50743333333334,99.56794285714285,99.548,0.11500000000000021,-0.021333333333333204,-0.08799999999999997,0.13883333333333336,-0.041666666666671404,-0.06333333333333258,1.4929999999999999,1.4745,38.429,29.9185,38.442,35.3825,56.027,35.3245,59.782,52.817,53.948,34.423,58.355000000000004,51.1315,53.091,33.944,58.251999999999995,50.534666666666666,-0.10799999999999998,-0.04400000000000004,0.10465500000000001,0.11185,0.0,214.745,214.75,211.45333333333332,211.45333333333332,0.0,0.0
23,0.0,0.0,0.0,1.0,1.0,0.0,0.0,1.0,0.0,100.0,1.0,1.1856,26.0,0.0,0.0,0.0,59.999996,0.0,26.0,26.0,26.0,26.0,0.051875000000000004,0.25239999999999996,-0.06346,292.191,-2.6972,-2.6475,-1.666,-1.5806,-198.32999999999998,215.73250000000002,190.50475,0.0,0.0,0.0,0.0,0.04656666666666667,-5.498166666666667,-5.498166666666667,-0.5758,-0.22100000000000009,0.018111111111110967,-0.7200000000000002,68.72,0.0253,-0.2298,-0.2999999999999998,100.0,1.0,1.0,211.98000000000002,0.0,0.0,0.0,0.0,0.0,0.0,0.0,8985.1,0.0,55.0,5.0,247.36666666666667,1.0,0.0,0.0,0.0,0.0,0.0,0.0,0.0,1.1550000000000011,1.1550000000000011,0.0,0.0,1.0,55.0,616.79921,10000.0,85.000001,85.000001,85.000001,85.000001,395.0,0.0,0.0,0.0,1.0,333.33500000000004,51.743,51.743,48.065,48.065,34.0,-24.02,25.491666666666667,-27.893333333333334,29.1375,0.0,1782.629,-0.35999999999999943,100.0,28.188,28.39,43.149,43.771,0.0,0.0,100.0,0.0,0.0,0.0,0.0,3298.5714285714284,3105.2,4021.5,3982.9,304.907,304.81425,315.20725,314.889,21.9982,20.6326,22.0012,21.5105,314.999998,314.999998,324.999988,324.999988,99.55924285714286,99.50743333333334,99.56808571428571,99.54815714285715,0.11324999999999985,-0.023666666666666725,-0.08733333333333337,0.1383333333333332,-0.054999999999999716,-0.03833333333332689,1.5354999999999999,1.53,38.489000000000004,29.954,38.507,35.4405,56.015,35.363,59.819,52.879,53.937,34.4585,58.388999999999996,51.1915,53.079,33.978,58.283,50.593,-0.11349999999999993,-0.046499999999999986,0.10239500000000001,0.10697500000000001,0.0,215.135,215.15,211.98000000000002,211.98000000000002,0.0,0.0
24,0.0,0.0,0.0,1.0,1.0,0.0,0.0,1.0,0.0,100.0,1.0,1.1856,26.0,0.0,0.0,0.0,59.999996,0.0,26.0,26.0,26.0,26.0,0.03975,0.28100000000000014,-0.03416,292.419,-2.7205,-2.6545,-1.5853000000000002,-1.5207000000000002,-195.01999999999998,215.7125,190.48225,0.0,0.0,0.0,0.0,0.0485,-5.498166666666667,-5.498166666666667,-0.5807,-0.37450000000000006,0.029111111111111088,-0.11699999999999999,68.848,0.029300000000000003,-0.21815,-0.31599999999999984,100.0,1.0,1.0,212.28333333333333,0.0,0.0,0.0,0.0,0.0,0.0,0.0,8997.9,0.0,55.0,5.0,247.82666666666665,0.0,0.0,0.0,0.0,0.0,0.0,0.0,0.0,1.2029999999999994,1.2029999999999994,0.0,0.0,0.0,55.0,616.79921,10000.0,85.000001,85.000001,85.000001,85.000001,395.0,0.0,0.0,0.0,1.0,333.33500000000004,52.841,52.841,47.241,47.241,34.0,-21.7775,23.99666666666667,-29.263333333333335,29.9075,0.0,1782.58,-0.35999999999999943,100.0,27.941,28.11,43.117000000000004,43.712,0.0,0.0,100.0,0.0,0.0,0.0,0.0,2972.714285714286,2977.7,4283.125,4157.8,305.907,305.265,314.46925,314.5605,22.006999999999998,20.6378,22.0109,21.5191,314.999998,314.999998,324.999988,324.999988,99.55925714285715,99.50743333333334,99.56822857142858,99.5483,0.10524999999999984,-0.030999999999999917,-0.08783333333333332,0.1393333333333333,-0.03333333333333144,-0.054999999999999716,1.5045,1.5025,38.544,29.9865,38.568,35.494,56.003,35.3975,59.854,52.9365,53.925,34.4905,58.4215,51.247,53.067,34.009,58.3125,50.647333333333336,-0.10549999999999993,-0.050999999999999934,0.104705,0.10935,0.0,215.525,215.55,212.28333333333333,212.28333333333333,0.0,0.0
25,0.0,0.0,0.0,1.0,1.0,0.0,0.0,1.0,0.0,100.0,1.0,1.1856,26.0,0.0,0.0,0.0,59.999996,0.0,26.0,26.0,26.0,26.0,0.02825,0.26770000000000005,-0.04454,292.282,-2.7885,-2.6170999999999998,-1.6025,-1.5267,-191.51,215.69,190.457,0.0,0.0,0.0,0.0,0.05053333333333333,-5.498166666666667,-5.498166666666667,-0.6076,-0.030000000000000027,0.03588888888888886,0.09699999999999998,68.981,0.029300000000000003,-0.222775,-0.387999999999999,100.0,1.0,1.0,212.8,0.0,0.0,0.0,0.0,0.0,0.0,0.0,9019.9,0.0,55.0,5.0,248.30333333333334,1.0,0.0,0.0,0.0,0.0,0.0,0.0,0.0,1.2540000000000013,1.2540000000000013,0.0,0.0,1.0,55.0,616.79921,10000.0,85.000001,85.000001,85.000001,85.000001,395.0,0.0,0.0,0.0,1.0,166.665,51.88,51.88,47.882,47.882,34.0,-23.735,28.181666666666665,-26.006666666666664,30.045,0.0,1782.532,-0.41999999999999993,100.0,27.941,28.182000000000002,42.991,43.453,0.0,0.0,100.0,0.0,0.0,0.0,0.0,3194.142857142857,3369.9,3937.5,4126.4,305.2105,304.20325,315.29975,314.70375,22.0163,20.6435,22.0212,21.5282,314.999998,314.999998,324.999988,324.999988,99.55927142857144,99.50743333333334,99.56837142857142,99.54844285714286,0.1200000000000001,-0.008000000000000007,-0.07833333333333337,0.15149999999999997,-0.036666666666668846,-0.04999999999999716,1.5525,1.5485,38.602000000000004,30.022,38.632999999999996,35.551,55.989000000000004,35.4365,59.8885,52.9955,53.912,34.5265,58.4535,51.304,53.053,34.043,58.341499999999996,50.70333333333333,-0.11149999999999993,-0.046499999999999986,0.10706,0.112115,0.0,215.94,215.95499999999998,212.8,212.8,0.0,0.0
26,0.0,0.0,0.0,1.0,1.0,0.0,0.0,1.0,0.0,100.0,1.0,1.1856,26.0,0.0,0.0,0.0,59.999996,0.0,26.0,26.0,26.0,26.0,0.0445,0.28790000000000004,0.075,291.214,-2.742,-2.6879,-1.6506,-1.5158,-187.99,215.67000000000002,190.43125,0.0,0.0,0.0,0.0,0.052566666666666664,-5.498166666666667,-5.498166666666667,-0.5720000000000001,0.6265000000000001,0.018444444444444263,-0.7450000000000001,69.117,0.0302,-0.1986,-0.3360000000000003,100.0,1.0,1.0,212.96333333333334,0.0,0.0,0.0,0.0,0.0,0.0,0.0,9026.8,0.0,55.0,5.0,248.79333333333335,0.0,0.0,0.0,0.0,0.0,0.0,0.0,0.0,1.3049999999999997,1.3049999999999997,0.0,0.0,0.0,55.0,616.79921,10000.0,85.000001,85.000001,85.000001,85.000001,395.0,0.0,0.0,0.0,1.0,333.33500000000004,51.498,51.498,46.31,46.31,34.0,-23.285,25.561666666666667,-32.61666666666666,33.322500000000005,0.0,1782.479,-0.4450000000000003,100.0,28.678,28.936,43.36,43.946,0.0,0.0,100.0,0.0,0.0,0.0,0.0,3211.857142857143,3073.3,4576.875,4497.5,305.2025,304.822,313.8445,313.72275,22.0259,20.6494,22.0317,21.537399999999998,314.999998,314.999998,324.999988,324.999988,99.55928571428572,99.50745,99.56851428571429,99.54858571428572,0.12225000000000019,-0.02633333333333332,-0.08266666666666656,0.14316666666666666,-0.04833333333333201,-0.05666666666667197,1.4435,1.4435,38.662,30.058500000000002,38.698,35.609,55.980999999999995,35.4765,59.9275,53.059,53.903999999999996,34.5635,58.49,51.3645,53.043,34.079,58.375,50.76266666666667,-0.119,-0.05249999999999999,0.10209000000000001,0.11291500000000002,0.0,216.39499999999998,216.39499999999998,212.96333333333334,212.96333333333334,0.0,0.0
27,0.0,0.0,0.0,1.0,1.0,0.0,0.0,1.0,0.0,100.0,1.0,1.1856,26.0,0.0,0.0,0.0,59.999996,0.0,26.0,26.0,26.0,26.0,0.05575,0.24980000000000002,-0.02624,291.702,-2.7128,-2.649,-1.59225,-1.5874000000000001,-184.67000000000002,215.6525,190.408125,0.0,0.0,0.0,0.0,0.0545,-5.498166666666667,-5.498166666666667,-0.5951000000000001,-1.0225,0.02155555555555555,-0.7589999999999999,69.241,0.0287,-0.239575,-0.3620000000000001,100.0,1.0,1.0,213.46333333333334,0.0,0.0,0.0,0.0,0.0,0.0,0.0,9047.9,0.0,55.0,5.0,249.24333333333334,1.0,0.0,0.0,0.0,0.0,0.0,0.0,0.0,1.352999999999998,1.352999999999998,0.0,0.0,1.0,55.0,616.79921,10000.0,85.000001,85.000001,85.000001,85.000001,395.0,0.0,0.0,0.0,1.0,333.33500000000004,51.926,51.926,46.616,46.616,34.0,-22.005,25.566666666666666,-28.356666666666666,30.580000000000002,0.0,1782.43,-0.4900000000000002,100.0,28.317,28.78,43.966,44.494,0.0,0.0,100.0,0.0,0.0,0.0,0.0,3089.5714285714284,3128.8,4145.375,4064.2,305.5945,304.7535,314.79825,314.677,22.0346,20.6547,22.0417,21.5463,314.999998,314.999998,324.999988,324.999988,99.5593,99.50745,99.56865714285715,99.54874285714286,0.121,-0.027666666666666728,-0.08816666666666662,0.14600000000000013,-0.04333333333332945,-0.03999999999999915,1.4845000000000002,1.486,38.716,30.092,38.76,35.664500000000004,55.968,35.5125,59.966499999999996,53.1185,53.893,34.597,58.5245,51.422,53.031,34.113,58.406,50.821666666666665,-0.12,-0.04899999999999993,0.10348,0.10772500000000002,0.0,216.715,216.735,213.46333333333334,213.46333333333334,0.0,0.0
28,0.0,0.0,0.0,1.0,1.0,0.0,0.0,1.0,0.0,100.0,1.0,1.1856,26.0,0.0,0.0,0.0,59.999996,0.0,26.0,26.0,26.0,26.0,0.04475,0.26960000000000006,-0.05318,291.962,-2.6874000000000002,-2.6496,-1.6329500000000001,-1.5553,-181.13,215.635,190.382875,0.0,0.0,0.0,0.0,0.05656666666666667,-5.498166666666667,-5.498166666666667,-0.6035,0.6365000000000001,0.012222222222222134,0.5369999999999999,69.37100000000001,0.0307,-0.219025,-0.4660000000000002,100.0,1.0,1.0,213.99,0.0,0.0,0.0,0.0,0.0,0.0,0.0,9070.2,0.0,55.0,5.0,249.70666666666665,0.0,0.0,0.0,0.0,0.0,0.0,0.0,0.0,1.404,1.404,0.0,0.0,0.0,55.0,616.79921,10000.0,85.000001,85.000001,85.000001,85.000001,395.0,0.0,0.0,0.0,1.0,333.33500000000004,51.743,51.743,47.623,47.623,34.0,-21.6725,26.828333333333333,-27.123333333333335,30.855,0.0,1782.38,-0.5299999999999994,100.0,28.62,28.549,43.349000000000004,43.862,0.0,0.0,100.0,0.0,0.0,0.0,0.0,3072.714285714286,3213.5,4033.0,4145.1,305.4175,304.66825,315.153,314.68025,22.0439,20.6605,22.0519,21.5554,314.999998,314.999998,324.999988,324.999988,99.55931428571428,99.50745,99.5688,99.54888571428572,0.1259999999999999,-0.01200000000000001,-0.08033333333333337,0.1561666666666668,-0.03833333333332689,-0.054999999999999716,1.5685,1.546,38.775,30.128,38.824,35.721000000000004,55.958,35.5515,59.9975,53.1765,53.882999999999996,34.632999999999996,58.555,51.478,53.019,34.1455,58.4335,50.873333333333335,-0.11949999999999994,-0.04499999999999993,0.11081500000000001,0.10881,0.0,217.14499999999998,217.19,213.99,213.99,0.0,0.0
29,0.0,0.0,0.0,1.0,1.0,0.0,0.0,1.0,0.0,100.0,1.0,1.1856,26.0,0.0,0.0,0.0,59.999996,0.0,26.0,26.0,26.0,26.0,0.060625,0.2581,0.02496,291.687,-2.6789,-2.6958,-1.5866500000000001,-1.5372,-177.59,215.6175,190.356375,0.0,0.0,0.0,0.0,0.05863333333333334,-5.498166666666667,-5.498166666666667,-0.6044,-0.6785000000000001,0.014333333333333309,-0.657,69.506,0.0333,-0.21535,-0.4939999999999998,100.0,1.0,1.0,214.20666666666668,0.0,0.0,0.0,0.0,0.0,0.0,0.0,9079.4,0.0,55.0,5.0,250.19333333333333,1.0,0.0,0.0,0.0,0.0,0.0,0.0,0.0,1.4549999999999983,1.4549999999999983,0.0,0.0,1.0,55.0,616.79921,10000.0,85.000001,85.000001,85.000001,85.000001,395.0,0.0,0.0,0.0,1.0,166.665,52.078,52.078,46.631,46.631,34.0,-21.8375,26.261666666666667,-28.343333333333334,31.9925,0.0,1782.33,-0.5549999999999997,100.0,28.086,28.593,43.676,44.241,0.0,0.0,100.0,0.0,0.0,0.0,0.0,3127.4285714285716,3090.5,4226.5,4282.8,305.517,304.8005,314.5865,314.204,22.0531,20.6661,22.0624,21.5647,314.999998,314.999998,324.999988,324.999988,99.55932857142857,99.50745,99.56895714285714,99.54902857142856,0.12400000000000011,-0.014666666666666606,-0.07599999999999996,0.14733333333333332,-0.03833333333332689,-0.046666666666666856,1.48,1.454,38.832,30.163,38.89,35.7795,55.946,35.589,60.037,53.239,53.870000000000005,34.667500000000004,58.591499999999996,51.538,53.006,34.179,58.467,50.93233333333333,-0.12749999999999995,-0.03299999999999992,0.10676000000000001,0.10597000000000001,0.0,217.535,217.56,214.20666666666668,214.20666666666668,0.0,0.0
30,0.0,0.0,0.0,1.0,1.0,0.0,0.0,1.0,0.0,100.0,1.0,1.1856,26.0,0.0,0.0,0.0,59.999996,0.0,26.0,26.0,26.0,26.0,0.054625,0.25350000000000006,0.04462,291.214,-2.6925,-2.5866,-1.6526,-1.5902,-174.04,215.60250000000002,190.33,0.0,0.0,0.0,0.0,0.06066666666666667,-5.498166666666667,-5.498166666666667,-0.6041000000000001,0.895,0.015333333333333199,0.565,69.634,0.0369,-0.217,-0.5479999999999992,100.0,1.0,1.0,214.7266666666667,0.0,0.0,0.0,0.0,0.0,0.0,0.0,9101.4,0.0,55.0,5.0,250.65666666666667,0.0,0.0,0.0,0.0,0.0,0.0,1.0,0.0,1.5060000000000002,1.5060000000000002,0.0,0.0,0.0,55.0,616.79921,10000.0,85.000001,85.000001,85.000001,85.000001,395.0,0.0,0.0,0.0,1.0,166.665,50.674,50.674,47.134,47.134,34.0,-22.5825,27.755,-28.126666666666665,31.7775,0.0,1782.28,-0.5299999999999994,100.0,29.155,29.182000000000002,43.516999999999996,44.138999999999996,0.0,0.0,100.0,0.0,0.0,0.0,0.0,3238.714285714286,3330.2,4167.125,4153.8,304.8825,304.1955,314.90875,314.577,22.0626,20.6721,22.0727,21.573900000000002,314.999998,314.999998,324.999988,324.999988,99.55934285714285,99.50745,99.56908571428572,99.54918571428571,0.1379999999999999,-0.006666666666666599,-0.07099999999999995,0.15749999999999997,-0.041666666666671404,-0.061666666666667425,1.5190000000000001,1.5070000000000001,38.891,30.200499999999998,38.955,35.837,55.938,35.629999999999995,60.071,53.2995,53.861999999999995,34.706,58.6235,51.5965,52.997,34.2155,58.4955,50.989333333333335,-0.126,-0.04049999999999998,0.10327000000000001,0.112335,0.0,217.97,218.01999999999998,214.7266666666667,214.7266666666667,0.0,0.0
31,0.0,0.0,0.0,1.0,1.0,0.0,0.0,1.0,0.0,100.0,1.0,1.1856,26.0,0.0,0.0,0.0,59.999996,0.0,26.0,26.0,26.0,26.0,0.054,0.24570000000000003,0.047900000000000005,290.817,-2.7772,-2.6188000000000002,-1.6059999999999999,-1.4903,-170.7,215.59,190.305625,0.0,0.0,0.0,0.0,0.06263333333333335,-5.498166666666667,-5.498166666666667,-0.5887,-0.4595,0.02111111111111108,0.681,69.759,0.039400000000000004,-0.220775,-0.556,100.0,1.0,1.0,214.92000000000002,0.0,0.0,0.0,0.0,0.0,0.0,0.0,9109.6,0.0,55.0,5.0,251.10666666666668,1.0,0.0,0.0,0.0,0.0,0.0,1.0,0.0,1.5539999999999985,1.5539999999999985,0.0,0.0,1.0,55.0,616.79921,10000.0,85.000001,85.000001,85.000001,85.000001,395.0,0.0,0.0,0.0,1.0,333.33500000000004,51.178,51.178,45.609,45.609,34.0,-22.065,28.286666666666665,-28.606666666666666,32.845,0.0,1782.23,-0.5549999999999997,100.0,28.91,29.154,44.331,44.844,0.0,0.0,100.0,0.0,0.0,0.0,0.0,3092.142857142857,3374.6,4303.625,4365.3,305.5145,304.27725,314.3125,314.038,22.0713,20.677599999999998,22.0828,21.5829,314.999998,314.999998,324.999988,324.999988,99.55935714285714,99.50746666666667,99.56924285714285,99.54932857142857,0.13624999999999998,-0.00533333333333319,-0.059666666666666646,0.16033333333333322,-0.02833333333332888,-0.046666666666666856,1.451,1.4295,38.946,30.235,39.016999999999996,35.893,55.928,35.667,60.109,53.3605,53.852999999999994,34.74,58.659,51.6555,52.986000000000004,34.2485,58.528,51.047,-0.12449999999999994,-0.045500000000000096,0.103245,0.10729500000000002,0.0,218.32,218.365,214.92000000000002,214.92000000000002,0.0,0.0
32,0.0,0.0,0.0,1.0,1.0,0.0,0.0,1.0,0.0,100.0,1.0,1.1856,26.0,0.0,0.0,0.0,59.999996,0.0,26.0,26.0,26.0,26.0,0.06925,0.268,-0.02316,291.229,-2.7071,-2.6726,-1.66065,-1.5444,-167.14,215.5775,190.280125,0.0,0.0,0.0,0.0,0.06470000000000001,-5.498166666666667,-5.498166666666667,-0.6053000000000001,-0.1605000000000001,-0.0014444444444445814,-1.021,69.887,0.042100000000000005,-0.2298,-0.5120000000000005,100.0,1.0,1.0,215.43333333333334,0.0,0.0,0.0,0.0,0.0,0.0,0.0,9131.4,0.0,55.0,5.0,251.56666666666666,0.0,0.0,0.0,0.0,0.0,0.0,1.0,0.0,1.6050000000000004,1.6050000000000004,0.0,0.0,0.0,55.0,616.79921,10000.0,85.000001,85.000001,85.000001,85.000001,395.0,0.0,0.0,0.0,1.0,166.665,51.468,51.468,46.432,46.432,34.0,-22.14,26.313333333333333,-28.786666666666665,32.1125,0.0,1782.18,-0.5199999999999996,100.0,28.69,29.207,44.025999999999996,44.754999999999995,0.0,0.0,100.0,0.0,0.0,0.0,0.0,3171.4285714285716,3118.2,4249.75,4284.9,305.341,304.7745,314.666,314.3295,22.0806,20.6834,22.0932,21.5921,314.999998,314.999998,324.999988,324.999988,99.55938571428571,99.50746666666667,99.56938571428572,99.54947142857142,0.133,-0.013333333333333197,-0.06699999999999995,0.15599999999999992,-0.05833333333333002,-0.04999999999999716,1.5195,1.52,39.004000000000005,30.2715,39.082,35.951,55.917,35.7065,60.1445,53.421,53.843,34.7765,58.692,51.713499999999996,52.975,34.283500000000004,58.5575,51.10366666666667,-0.126,-0.04699999999999993,0.10197,0.11173000000000001,0.0,218.73000000000002,218.78,215.43333333333334,215.43333333333334,0.0,0.0
33,0.0,0.0,0.0,1.0,1.0,0.0,0.0,1.0,0.0,100.0,1.0,1.1856,26.0,0.0,0.0,0.0,59.999996,0.0,26.0,26.0,26.0,26.0,0.06775,0.2573000000000001,-0.03536,291.519,-2.7413,-2.6666,-1.60005,-1.5806,-163.78,215.5675,190.255125,0.0,0.0,0.0,0.0,0.06663333333333334,-5.498166666666667,-5.498166666666667,-0.6149,-0.28400000000000003,-0.0014444444444445814,-0.14400000000000013,70.008,0.0431,-0.218275,-0.5199999999999996,100.0,1.0,1.0,215.80666666666667,0.0,0.0,0.0,0.0,0.0,0.0,0.0,9147.3,0.0,55.0,5.0,252.00333333333333,1.0,0.0,0.0,0.0,0.0,0.0,1.0,0.0,1.6529999999999987,1.6529999999999987,0.0,0.0,1.0,55.0,616.79921,10000.0,85.000001,85.000001,85.000001,85.000001,395.0,0.0,0.0,0.0,1.0,333.33500000000004,51.819,51.819,46.753,46.753,34.0,-22.14,25.673333333333332,-27.533333333333335,31.642500000000002,0.0,1782.13,-0.5350000000000001,100.0,28.546,28.947,43.884,44.59,0.0,0.0,100.0,0.0,0.0,0.0,0.0,3136.857142857143,3063.2,4165.375,4196.1,305.516,304.96675,314.79825,314.4925,22.0893,20.6887,22.103,21.6008,314.999998,314.999998,324.999988,324.999988,99.5594,99.50746666666667,99.56952857142858,99.54961428571428,0.13224999999999998,-0.014000000000000012,-0.07050000000000001,0.14983333333333326,-0.04833333333333201,-0.03833333333332689,1.522,1.5055,39.058,30.304499999999997,39.144,36.0055,55.907,35.741,60.178,53.477000000000004,53.833,34.8085,58.723,51.7675,52.964,34.314,58.585499999999996,51.156333333333336,-0.129,-0.04200000000000004,0.10623,0.10839000000000001,0.0,219.10500000000002,219.135,215.80666666666667,215.80666666666667,0.0,0.0
34,0.0,0.0,0.0,1.0,1.0,0.0,0.0,1.0,0.0,100.0,1.0,1.1856,26.0,0.0,0.0,0.0,59.999996,0.0,26.0,26.0,26.0,26.0,0.0565,0.25270000000000015,-0.05858,291.748,-2.6772,-2.6602,-1.6643,-1.5416,-160.2,215.56,190.227125,0.0,0.0,0.0,0.0,0.06873333333333334,-5.498166666666667,-5.498166666666667,-0.6409,-0.7755000000000001,0.027111111111111086,0.9019999999999999,70.137,0.044700000000000004,-0.22212500000000002,-0.5139999999999993,100.0,1.0,1.0,216.2,0.0,0.0,0.0,0.0,0.0,0.0,0.0,9163.9,0.0,55.0,5.0,252.46666666666667,0.0,0.0,0.0,0.0,0.0,0.0,1.0,0.0,1.7040000000000006,1.7040000000000006,0.0,0.0,0.0,55.0,616.79921,10000.0,85.000001,85.000001,85.000001,85.000001,395.0,0.0,0.0,0.0,1.0,166.665,52.2,52.2,47.134,47.134,34.0,-20.197499999999998,25.946666666666665,-27.606666666666666,31.990000000000002,0.0,1782.081,-0.504999999999999,100.0,28.432,28.527,43.755,44.557,0.0,0.0,100.0,0.0,0.0,0.0,0.0,2983.0,3076.5,4090.0,4247.1,305.785,305.008,314.95875,314.3945,22.098399999999998,20.6944,22.1133,21.6102,314.999998,314.999998,324.999988,324.999988,99.55941428571428,99.50748333333334,99.56967142857143,99.54977142857143,0.13949999999999996,-0.006666666666666599,-0.06533333333333335,0.15799999999999992,-0.03499999999999659,-0.05333333333332746,1.513,1.498,39.114999999999995,30.34,39.208,36.0635,55.894999999999996,35.777,60.212,53.5385,53.821,34.842,58.7545,51.826499999999996,52.952,34.3465,58.614,51.214,-0.12049999999999994,-0.04249999999999998,0.10593500000000002,0.10858000000000001,0.0,219.48000000000002,219.525,216.2,216.2,0.0,0.0
35,0.0,0.0,0.0,1.0,1.0,0.0,0.0,1.0,0.0,100.0,1.0,1.1856,26.0,0.0,0.0,0.0,59.999996,0.0,26.0,26.0,26.0,26.0,0.07675,0.2541,-0.04454,291.687,-2.7405,-2.6038,-1.6355,-1.5706,-156.62,215.5525,190.19725,0.0,0.0,0.0,0.0,0.0708,-5.498166666666667,-5.498166666666667,-0.6811,-0.2815000000000001,0.006999999999999895,-1.291,70.263,0.0487,-0.229525,-0.5379999999999994,100.0,1.0,1.0,216.67000000000002,0.0,0.0,0.0,0.0,0.0,0.0,0.0,9183.8,0.0,55.0,5.0,252.92333333333335,1.0,0.0,0.0,0.0,0.0,0.0,1.0,0.0,1.754999999999999,1.754999999999999,0.0,0.0,1.0,55.0,616.79921,10000.0,85.000001,85.000001,85.000001,85.000001,395.0,0.0,0.0,0.0,1.0,333.33500000000004,51.636,51.636,46.722,46.722,34.0,-22.79,27.47833333333333,-27.15,30.64,0.0,1782.028,-0.33000000000000007,100.0,28.096,28.948999999999998,43.513,44.156,0.0,0.0,100.0,0.0,0.0,0.0,0.0,3160.4285714285716,3327.2,4103.75,4047.1000000000004,305.4275,304.15925,314.9075,314.9345,22.1074,20.7002,22.1236,21.6193,314.999998,314.999998,324.999988,324.999988,99.55942857142857,99.50748333333334,99.56982857142857,99.54991428571428,0.12250000000000005,-0.01766666666666672,-0.0641666666666666,0.16433333333333322,-0.045000000000001705,-0.07333333333333059,1.546,1.5350000000000001,39.172,30.3765,39.272999999999996,36.1205,55.881,35.816,60.246,53.5955,53.808,34.878,58.786,51.8815,52.938,34.381,58.641999999999996,51.268,-0.10899999999999999,-0.05699999999999994,0.11044000000000001,0.10909,0.0,219.885,219.93,216.67000000000002,216.67000000000002,0.0,0.0
36,0.0,0.0,0.0,1.0,1.0,0.0,0.0,1.0,0.0,100.0,1.0,1.1856,26.0,0.0,0.0,0.0,59.999996,0.0,26.0,26.0,26.0,26.0,0.054,0.25770000000000004,0.025480000000000003,290.939,-2.661,-2.6982,-1.5829,-1.5453000000000001,-153.25,215.5475,190.167875,0.0,0.0,0.0,0.0,0.07276666666666666,-5.498166666666667,-5.498166666666667,-0.6633,0.279,-0.03500000000000014,-1.3040000000000003,70.386,0.0455,-0.20325000000000001,-0.2759999999999998,100.0,1.0,1.0,216.84333333333333,0.0,0.0,0.0,0.0,0.0,0.0,0.0,9191.2,0.0,55.0,5.0,253.36333333333334,0.0,0.0,0.0,0.0,0.0,0.0,1.0,0.0,1.8030000000000008,1.8030000000000008,0.0,0.0,0.0,55.0,616.79921,10000.0,85.000001,85.000001,85.000001,85.000001,395.0,0.0,0.0,0.0,1.0,333.33500000000004,51.285,51.285,46.356,46.356,34.0,-22.3525,26.275,-29.88,34.182500000000005,0.0,1781.981,-0.254999999999999,100.0,28.793,29.129,43.697,44.400999999999996,0.0,0.0,100.0,0.0,0.0,0.0,0.0,3172.4285714285716,3103.1,4421.25,4463.9,305.163,304.71825,314.216,313.833,22.1162,20.7058,22.1334,21.6281,314.999998,314.999998,324.999988,324.999988,99.55944285714286,99.50748333333334,99.56995714285715,99.55005714285714,0.12349999999999994,-0.020000000000000018,-0.07533333333333336,0.15483333333333338,-0.03999999999999915,-0.051666666666669414,1.4525000000000001,1.4425,39.226,30.411,39.334,36.1755,55.872,35.8535,60.2805,53.653,53.799,34.913,58.818,51.9375,52.927,34.414500000000004,58.671,51.32266666666666,-0.10599999999999998,-0.05800000000000005,0.11230500000000002,0.10357500000000001,0.0,220.285,220.32,216.84333333333333,216.84333333333333,0.0,0.0
