,ABS Active,ABS Enabled,AID Allow Tire Blankets,AID Auto Blip,AID Auto Clutch,AID Auto Shift,AID Fuel Rate,AID Ideal Line,AID Mech Damage,AID Stability,AID Tire Wear Rate,Air Density,Air Temp,Ballast,Best Lap Delta,Best Lap Time,Brake Bias,Brake Pos,Brake Temp FL,Brake Temp FR,Brake Temp RL,Brake Temp RR,CG Accel Lateral,CG Accel Longitudinal,CG Accel Vertical,CG Height,Camber FL,Camber FR,Camber RL,Camber RR,Car Coord X,Car Coord Y,Car Coord Z,Car Damage Front,Car Damage Left,Car Damage Rear,Car Damage Right,Car Pos Norm,Caster FL,Caster FR,Chassis Pitch Angle,Chassis Pitch Rate,Chassis Roll Angle,Chassis Roll Rate,Chassis Velocity X,Chassis Velocity Y,Chassis Velocity Z,Chassis Yaw Rate,Clutch Pos,DRS Active,DRS Available,Drive Train Speed,ERS Heat Charging,ERS Is Charging,ERS Max Energy,ERS Power Level,ERS Recovery Level,Engine Brake Setting,Engine Limiter,Engine RPM,Flags,Fuel Level,Gear,Ground Speed,HR Sample Clock,In Pit,KERS Charge,KERS Deployed Energy,KERS Input,KERS Max Energy,LR Sample Clock,Lap Invalidated,Lap Time,Lap Time2,Last Lap Time,Last Sector Time,MR Sample Clock,Max Fuel,Max Power,Max RPM,Max Sus Travel FL,Max Sus Travel FR,Max Sus Travel RL,Max Sus Travel RR,Max Torque,Max Turbo Boost,Num Tires Off Track,Penalties Enabled,Position,Raw Data Sample Rate,Ride Height FL,Ride Height FR,Ride Height RL,Ride Height RR,Road Temp,Self Align Torque FL,Self Align Torque FR,Self Align Torque RL,Self Align Torque RR,Session Lap Count,Session Time Left,Steering Angle,Surface Grip,Suspension Travel FL,Suspension Travel FR,Suspension Travel RL,Suspension Travel RR,TC Active,TC Enabled,Throttle Pos,Tire Dirt Level FL,Tire Dirt Level FR,Tire Dirt Level RL,Tire Dirt Level RR,Tire Load FL,Tire Load FR,Tire Load RL,Tire Load RR,Tire Loaded Radius FL,Tire Loaded Radius FR,Tire Loaded Radius RL,Tire Loaded Radius RR,Tire Pressure FL,Tire Pressure FR,Tire Pressure RL,Tire Pressure RR,Tire Radius FL,Tire Radius FR,Tire Radius RL,Tire Radius RR,Tire Rubber Grip FL,Tire Rubber Grip FR,Tire Rubber Grip RL,Tire Rubber Grip RR,Tire Slip Angle FL,Tire Slip Angle FR,Tire Slip Angle RL,Tire Slip Angle RR,Tire Slip Ratio FL,Tire Slip Ratio FR,Tire Slip Ratio RL,Tire Slip Ratio RR,Tire Temp Core FL,Tire Temp Core FR,Tire Temp Core RL,Tire Temp Core RR,Tire Temp Inner FL,Tire Temp Inner FR,Tire Temp Inner RL,Tire Temp Inner RR,Tire Temp Middle FL,Tire Temp Middle FR,Tire Temp Middle RL,Tire Temp Middle RR,Tire Temp Outer FL,Tire Temp Outer FR,Tire Temp Outer RL,Tire Temp Outer RR,Toe In FL,Toe In FR,Toe In RL,Toe In RR,Turbo Boost,Wheel Angular Speed FL,Wheel Angular Speed FR,Wheel Angular Speed RL,Wheel Angular Speed RR,Wind Direction,Wind Speed
0,0.0,0.0,0.0,1.0,1.0,0.0,0.0,1.0,0.0,100.0,1.0,1.1856,26.0,0.0,0.0,0.0,59.99999,0.0,26.0,26.0,26.0,26.0,-0.06788888888888889,0.31730000000000014,0.136575,293.976,-2.72045,-2.6612,-1.5125000000000002,-1.5582,-275.79,216.29500000000002,190.98825,0.0,0.0,0.0,0.0,0.0015333333333333865,-5.498166666666667,-5.498166666666667,-0.5557,1.3306666666666667,-0.009777777777777885,-0.617,65.471,-0.0302,-0.21945,0.9399999999999995,100.0,1.0,1.0,202.15,0.0,0.0,0.0,0.0,0.0,0.0,0.0,8568.3,0.0,55.0,5.0,235.66666666666669,0.0,0.0,0.0,0.0,0.0,0.0,0.0,0.0,0.0030000000000001137,0.0030000000000001137,0.0,0.0,0.0,55.0,616.79921,10000.0,85.0,85.0,85.0,85.0,395.0,0.0,0.0,0.0,1.0,20.0,52.597,52.597,49.744,49.744,34.0,-27.622500000000002,23.95,-29.299999999999997,25.1,0.0,1783.688,0.8249999999999993,100.0,27.35,27.002,40.439,40.511,0.0,0.0,100.0,0.0,0.0,0.0,0.0,3144.857142857143,3387.8,4118.875,3999.3,305.315,304.07875,314.8205,314.853,21.7812,20.5075,21.755,21.2999,314.99999,314.99999,324.99998,324.99998,99.55901428571428,99.50701666666667,99.56437142857143,99.54464285714286,0.002000000000000224,-0.11133333333333328,-0.14183333333333337,0.06699999999999995,-0.054999999999999716,-0.05749999999999744,1.5645,1.5745,37.132999999999996,29.172,36.969,34.1245,56.303,34.379999999999995,58.788,51.3835,54.215,33.557,57.4225,49.7585,53.379999999999995,33.1205,57.3845,49.19166666666666,-0.013000000000000012,-0.135,0.09819000000000001,0.10579000000000001,0.0,205.18,205.10500000000002,202.15,202.15,0.0,0.0
1,0.0,0.0,0.0,1.0,1.0,0.0,0.0,1.0,0.0,100.0,1.0,1.1856,26.0,0.0,0.0,0.0,59.999996,0.0,26.0,26.0,26.0,26.0,-0.1113333333333334,0.31500000000000017,-0.010075,293.137,-2.66125,-2.7556000000000003,-1.5401,-1.5392,-272.45,216.29000000000002,190.968125,0.0,0.0,0.0,0.0,0.003466666666666507,-5.498166666666667,-5.498166666666667,-0.4907,-0.17566666666666667,-0.04388888888888909,-0.18999999999999995,65.626,-0.0483,-0.18732500000000002,1.3920000000000012,100.0,1.0,1.0,202.33666666666667,0.0,0.0,0.0,0.0,0.0,0.0,0.0,8576.3,0.0,55.0,5.0,236.22,1.0,0.0,0.0,0.0,0.0,0.0,0.0,0.0,0.053999999999998494,0.053999999999998494,0.0,0.0,1.0,55.0,616.79921,10000.0,85.000001,85.000001,85.000001,85.000001,395.0,0.0,0.0,0.0,1.0,333.33500000000004,53.772,53.772,48.233000000000004,48.233000000000004,34.0,-26.177500000000002,17.778333333333332,-33.09,29.42,0.0,1783.638,0.9050000000000011,100.0,27.553,27.032,42.933,41.573,0.0,0.0,100.0,0.0,0.0,0.0,0.0,2975.285714285714,2652.4,4215.875,4750.1,305.642,306.39125,314.54125,313.044,21.7912,20.5127,21.7658,21.309,314.999998,314.999998,324.999988,324.999988,99.55901428571428,99.50703333333334,99.56451428571428,99.54478571428571,-0.011666666666666714,-0.1376666666666666,-0.17799999999999994,0.0431666666666668,-0.01833333333333087,-0.04124999999999801,1.4295,1.495,37.195,29.204,37.036,34.181,56.287,34.421,58.8335,51.449,54.199,33.595,57.4655,49.821,53.363,33.157,57.4245,49.253,-0.0020000000000000018,-0.14500000000000002,0.097515,0.11384000000000001,0.0,205.635,205.51999999999998,202.33666666666667,202.33666666666667,0.0,0.0
2,0.0,0.0,0.0,1.0,1.0,0.0,0.0,1.0,0.0,100.0,1.0,1.1856,26.0,0.0,0.0,0.0,59.999996,0.0,26.0,26.0,26.0,26.0,-0.1426666666666666,0.2925,-0.099425,293.61,-2.5917,-2.8066,-1.482,-1.6198,-268.9,216.2825,190.948,0.0,0.0,0.0,0.0,0.00553333333333339,-5.498166666666667,-5.498166666666667,-0.5458000000000001,-0.009666666666666665,-0.057111111111111335,2.463,65.777,-0.0721,-0.247125,1.5940000000000012,100.0,1.0,1.0,203.23000000000002,0.0,0.0,0.0,0.0,0.0,0.0,0.0,8614.1,0.0,55.0,5.0,236.76999999999998,0.0,0.0,0.0,0.0,0.0,0.0,0.0,0.0,0.10800000000000054,0.10800000000000054,0.0,0.0,0.0,55.0,616.79921,10000.0,85.000001,85.000001,85.000001,85.000001,395.0,0.0,0.0,0.0,1.0,166.665,52.444,52.444,50.003,50.003,34.0,-29.4725,20.085,-29.096666666666664,20.2575,0.0,1783.584,0.7050000000000018,100.0,28.396,26.917,42.735,41.433,0.0,0.0,100.0,0.0,0.0,0.0,0.0,3331.142857142857,2921.8,3790.5,3678.6,304.5345,305.58875,315.532,315.79075,21.8019,20.5178,21.7768,21.3182,314.999998,314.999998,324.999988,324.999988,99.55901428571428,99.50705,99.56465714285714,99.54492857142857,-0.016666666666666607,-0.14300000000000002,-0.21066666666666656,0.008166666666666655,-0.05333333333332746,-0.042499999999996874,1.625,1.6835,37.262,29.2365,37.105000000000004,34.239,56.272999999999996,34.4615,58.8745,51.5115,54.186,33.632,57.5035,49.881,53.349000000000004,33.192499999999995,57.4595,49.312,-0.02300000000000002,-0.129,0.10005000000000001,0.10304,0.0,206.09,205.97500000000002,203.23000000000002,203.23000000000002,0.0,0.0
3,0.0,0.0,0.0,1.0,1.0,0.0,0.0,1.0,0.0,100.0,1.0,1.1856,26.0,0.0,0.0,0.0,59.999996,0.0,26.0,26.0,26.0,26.0,-0.13455555555555554,0.31279999999999997,-0.00645,293.35,-2.7307,-2.6875,-1.514,-1.5896,-265.94,216.2725,190.930625,0.0,0.0,0.0,0.0,0.0072666666666665325,-5.498166666666667,-5.498166666666667,-0.5116,0.657,-0.008222222222222353,-0.5859999999999999,65.912,-0.08650000000000001,-0.203575,1.267999999999999,100.0,1.0,1.0,203.37,0.0,0.0,0.0,0.0,0.0,0.0,0.0,8620.2,0.0,55.0,5.0,237.25,1.0,0.0,0.0,0.0,0.0,0.0,0.0,0.0,0.1529999999999987,0.1529999999999987,0.0,0.0,1.0,55.0,616.79921,10000.0,85.000001,85.000001,85.000001,85.000001,395.0,0.0,0.0,0.0,1.0,333.33500000000004,53.36,53.36,48.157,48.157,34.0,-26.65,18.313333333333333,-35.803333333333335,24.1425,0.0,1783.538,0.5549999999999997,100.0,27.921,27.17,42.4,41.442,0.0,0.0,100.0,0.0,0.0,0.0,0.0,2944.4285714285716,2823.5,4325.0,4200.9,305.839,305.641,314.323,314.3985,21.8107,20.5224,21.785899999999998,21.326,314.999998,314.999998,324.999988,324.999988,99.55902857142857,99.50706666666666,99.56478571428572,99.54505714285715,-0.02066666666666661,-0.14966666666666661,-0.22450000000000003,0.010499999999999954,-0.054999999999999716,-0.03249999999999886,1.5015,1.5425,37.317,29.265,37.162,34.2875,56.259,34.4995,58.9095,51.567,54.173,33.667,57.536,49.9345,53.336,33.226,57.49,49.364333333333335,-0.03700000000000003,-0.1180000000000001,0.11241000000000001,0.10856,0.0,206.53,206.44,203.37,203.37,0.0,0.0
4,0.0,0.0,0.0,1.0,1.0,0.0,0.0,1.0,0.0,100.0,1.0,1.1856,26.0,0.0,0.0,0.0,59.999996,0.0,26.0,26.0,26.0,26.0,-0.1353333333333333,0.29410000000000003,-0.018775,293.671,-2.6635,-2.7413,-1.5323,-1.595,-262.57,216.2575,190.911125,0.0,0.0,0.0,0.0,0.009199999999999986,-5.498166666666667,-5.498166666666667,-0.541,-0.936,-0.07211111111111146,-0.9010000000000002,66.05799999999999,-0.0881,-0.23592500000000002,1.056000000000001,100.0,1.0,1.0,203.91666666666669,0.0,0.0,0.0,0.0,0.0,0.0,0.0,8643.3,0.0,55.0,5.0,237.78333333333333,0.0,0.0,0.0,0.0,0.0,0.0,0.0,0.0,0.20400000000000063,0.20400000000000063,0.0,0.0,0.0,55.0,616.79921,10000.0,85.000001,85.000001,85.000001,85.000001,395.0,0.0,0.0,0.0,1.0,166.665,53.238,53.238,48.691,48.691,34.0,-27.535,20.155,-32.57,21.1175,0.0,1783.488,0.5749999999999993,100.0,27.726,26.729,42.856,41.552,0.0,0.0,100.0,0.0,0.0,0.0,0.0,3153.142857142857,2963.3,4072.125,3710.4,305.2955,305.435,314.80225,315.5795,21.8203,20.5275,21.7965,21.3349,314.999998,314.999998,324.999988,324.999988,99.55902857142857,99.50708333333333,99.56492857142857,99.5452,-0.00533333333333319,-0.1363333333333332,-0.20533333333333337,0.01983333333333337,-0.04999999999999716,-0.033749999999997726,1.553,1.604,37.376999999999995,29.2965,37.227999999999994,34.343,56.239999999999995,34.541,58.952,51.628,54.155,33.7055,57.576,49.993,53.317,33.2625,57.527,49.42133333333334,-0.041999999999999926,-0.1120000000000001,0.10383500000000001,0.10585000000000001,0.0,206.94,206.82999999999998,203.91666666666669,203.91666666666669,0.0,0.0
5,0.0,0.0,0.0,1.0,1.0,0.0,0.0,1.0,0.0,100.0,1.0,1.1856,26.0,0.0,0.0,0.0,59.999996,0.0,26.0,26.0,26.0,26.0,-0.12788888888888894,0.3127,-0.032350000000000004,293.73199999999997,-2.6741,-2.7641999999999998,-1.5078,-1.5866,-259.2,216.2375,190.89075,0.0,0.0,0.0,0.0,0.011166666666666547,-5.498166666666667,-5.498166666666667,-0.5359,0.431,-0.08311111111111114,-0.17899999999999983,66.205,-0.0876,-0.21327500000000002,1.0520000000000014,100.0,1.0,1.0,204.34,0.0,0.0,0.0,0.0,0.0,0.0,0.0,8661.3,0.0,55.0,5.0,238.31,1.0,0.0,0.0,0.0,0.0,0.0,0.0,0.0,0.254999999999999,0.254999999999999,0.0,0.0,1.0,55.0,616.79921,10000.0,85.000001,85.000001,85.000001,85.000001,395.0,0.0,0.0,0.0,1.0,333.33500000000004,53.543,53.543,49.072,49.072,34.0,-28.240000000000002,18.65,-33.233333333333334,22.125,0.0,1783.435,0.23000000000000043,100.0,27.734,26.738,42.531,41.196,0.0,0.0,100.0,0.0,0.0,0.0,0.0,3183.142857142857,2740.5,4159.125,4012.5,305.2555,306.00475,314.76125,314.86825,21.8303,20.5325,21.8069,21.3436,314.999998,314.999998,324.999988,324.999988,99.55904285714286,99.5071,99.56508571428571,99.54532857142857,-0.014333333333333309,-0.1379999999999999,-0.21433333333333338,0.0011666666666667602,-0.05666666666667197,-0.028750000000002274,1.5615,1.6059999999999999,37.44,29.3285,37.293,34.397,56.226,34.5815,58.9925,51.6855,54.141999999999996,33.7425,57.614,50.048,53.303,33.2985,57.562,49.475,-0.05799999999999994,-0.09600000000000009,0.09990500000000001,0.10763500000000001,0.0,207.45,207.32999999999998,204.34,204.34,0.0,0.0
6,0.0,0.0,0.0,1.0,1.0,0.0,0.0,1.0,0.0,100.0,1.0,1.1856,26.0,0.0,0.0,0.0,59.999996,0.0,26.0,26.0,26.0,26.0,-0.11522222222222211,0.2812000000000001,0.013225,293.457,-2.6385,-2.7443,-1.5523,-1.5831,-255.82,216.2175,190.87025,0.0,0.0,0.0,0.0,0.01313333333333333,-5.498166666666667,-5.498166666666667,-0.5302,0.08533333333333333,-0.061666666666666536,0.839,66.352,-0.0818,-0.213225,0.7579999999999991,100.0,1.0,1.0,204.77666666666667,0.0,0.0,0.0,0.0,0.0,0.0,0.0,8679.8,0.0,55.0,5.0,238.83666666666667,0.0,0.0,0.0,0.0,0.0,0.0,0.0,0.0,0.30600000000000094,0.30600000000000094,0.0,0.0,0.0,55.0,616.79921,10000.0,85.000001,85.000001,85.000001,85.000001,395.0,0.0,0.0,0.0,1.0,166.665,53.146,53.146,48.706,48.706,34.0,-26.439999999999998,21.118333333333332,-32.29333333333334,24.192500000000003,0.0,1783.386,0.10000000000000142,100.0,27.822,26.688,42.743,41.480000000000004,0.0,0.0,100.0,0.0,0.0,0.0,0.0,3102.4285714285716,3001.1,4079.875,4052.6,305.278,305.32475,314.87575,314.8295,21.8402,20.5377,21.8174,21.3525,314.999998,314.999998,324.999988,324.999988,99.55904285714286,99.50711666666666,99.56521428571429,99.54547142857143,0.008999999999999897,-0.121,-0.19299999999999995,0.035666666666666735,-0.03999999999999915,-0.06875000000000142,1.5275,1.564,37.501000000000005,29.360500000000002,37.358000000000004,34.453,56.21,34.6225,59.033500000000004,51.7475,54.126999999999995,33.78,57.652,50.1075,53.287,33.334,57.5975,49.53333333333333,-0.0645,-0.07850000000000001,0.10226,0.11573000000000001,0.0,207.865,207.81,204.77666666666667,204.77666666666667,0.0,0.0
7,0.0,0.0,0.0,1.0,1.0,0.0,0.0,1.0,0.0,100.0,1.0,1.1856,26.0,0.0,0.0,0.0,59.999996,0.0,26.0,26.0,26.0,26.0,-0.0892222222222222,0.28980000000000006,0.038900000000000004,293.182,-2.6926,-2.7366,-1.5112,-1.5714,-252.63,216.195,190.851,0.0,0.0,0.0,0.0,0.014999999999999902,-5.498166666666667,-5.498166666666667,-0.5347000000000001,-0.06633333333333333,-0.052000000000000046,1.117,66.49000000000001,-0.067,-0.22305,0.3680000000000003,100.0,1.0,1.0,205.16,0.0,0.0,0.0,0.0,0.0,0.0,0.0,8696.0,0.0,55.0,5.0,239.33333333333331,1.0,0.0,0.0,0.0,0.0,0.0,0.0,0.0,0.3539999999999992,0.3539999999999992,0.0,0.0,1.0,55.0,616.79921,10000.0,85.000001,85.000001,85.000001,85.000001,395.0,0.0,0.0,0.0,1.0,333.33500000000004,52.78,52.78,48.813,48.813,34.0,-27.552500000000002,22.743333333333332,-31.07,25.0425,0.0,1783.337,-0.20500000000000007,100.0,27.903,26.742,42.789,41.717,0.0,0.0,100.0,0.0,0.0,0.0,0.0,3269.5714285714284,3053.5,4070.0,4112.7,304.8415,305.16325,314.838,314.6695,21.8495,20.5425,21.8272,21.3609,314.999998,314.999998,324.999988,324.999988,99.55904285714286,99.50713333333333,99.56535714285714,99.5456,0.03100000000000014,-0.09066666666666667,-0.17816666666666658,0.045500000000000096,-0.045000000000001705,-0.060000000000002274,1.52,1.553,37.559,29.391,37.42,34.5055,56.197,34.6595,59.072,51.806,54.114000000000004,33.814499999999995,57.688,50.163,53.272999999999996,33.367,57.631,49.588,-0.09599999999999997,-0.0605,0.10960500000000001,0.10593500000000002,0.0,208.26999999999998,208.23000000000002,205.16,205.16,0.0,0.0
8,0.0,0.0,0.0,1.0,1.0,0.0,0.0,1.0,0.0,100.0,1.0,1.1856,26.0,0.0,0.0,0.0,59.999996,0.0,26.0,26.0,26.0,26.0,-0.046222222222222165,0.2995000000000001,-0.032625,293.457,-2.68925,-2.7118,-1.4996,-1.5503,-249.24,216.16750000000002,190.830375,0.0,0.0,0.0,0.0,0.016966666666666574,-5.498166666666667,-5.498166666666667,-0.5335,-0.3813333333333333,-0.032333333333333325,-0.43800000000000017,66.636,-0.0492,-0.212975,0.002000000000000668,100.0,1.0,1.0,205.55333333333334,0.0,0.0,0.0,0.0,0.0,0.0,0.0,8712.7,0.0,55.0,5.0,239.86,0.0,0.0,0.0,0.0,0.0,0.0,0.0,0.0,0.40500000000000114,0.40500000000000114,0.0,0.0,0.0,55.0,616.79921,10000.0,85.000001,85.000001,85.000001,85.000001,395.0,0.0,0.0,0.0,1.0,333.33500000000004,53.726,53.726,48.065,48.065,34.0,-23.8275,21.501666666666665,-31.496666666666663,26.285,0.0,1783.285,-0.35999999999999943,100.0,27.393,26.893,42.656,41.93,0.0,0.0,100.0,0.0,0.0,0.0,0.0,2955.714285714286,2888.8,4237.375,4149.4,305.918,305.50575,314.5095,314.50875,21.859099999999998,20.5477,21.837699999999998,21.369799999999998,314.999998,314.999998,324.999988,324.999988,99.55904285714286,99.50713333333333,99.5655,99.54574285714286,0.04300000000000015,-0.08566666666666678,-0.16149999999999998,0.06566666666666676,-0.06499999999999773,-0.05624999999999858,1.518,1.524,37.619,29.423000000000002,37.485,34.561,56.179,34.698,59.1145,51.8705,54.097,33.852000000000004,57.728,50.2255,53.257,33.403,57.6655,49.648666666666664,-0.10299999999999998,-0.040999999999999925,0.10791500000000001,0.10858000000000001,0.0,208.715,208.695,205.55333333333334,205.55333333333334,0.0,0.0
9,0.0,0.0,0.0,1.0,1.0,0.0,0.0,1.0,0.0,100.0,1.0,1.1856,26.0,0.0,0.0,0.0,59.999996,0.0,26.0,26.0,26.0,26.0,-0.01011111111111107,0.2832000000000001,-0.019975,293.198,-2.68665,-2.7206,-1.5413999999999999,-1.5565,-246.04,216.14249999999998,190.810625,0.0,0.0,0.0,0.0,0.01883333333333337,-5.498166666666667,-5.498166666666667,-0.5438000000000001,0.5086666666666667,-0.036555555555555674,-0.492,66.769,-0.028800000000000003,-0.218,-0.1120000000000001,100.0,1.0,1.0,206.11,0.0,0.0,0.0,0.0,0.0,0.0,0.0,8736.3,0.0,55.0,5.0,240.34,1.0,0.0,0.0,0.0,0.0,0.0,0.0,0.0,0.4529999999999994,0.4529999999999994,0.0,0.0,1.0,55.0,616.79921,10000.0,85.000001,85.000001,85.000001,85.000001,395.0,0.0,0.0,0.0,1.0,333.33500000000004,52.475,52.475,49.164,49.164,34.0,-26.627499999999998,23.86,-28.689999999999998,26.345,0.0,1783.237,-0.4599999999999991,100.0,27.748,27.293,42.374,41.94,0.0,0.0,100.0,0.0,0.0,0.0,0.0,3375.0,3009.0,3985.125,3998.5,304.687,305.08475,315.1705,314.9105,21.8683,20.5527,21.8474,21.3781,314.999998,314.999998,324.999988,324.999988,99.55905714285714,99.50715,99.56562857142858,99.54587142857143,0.06766666666666676,-0.05666666666666664,-0.14516666666666667,0.09183333333333321,-0.04333333333332945,-0.04124999999999801,1.5685,1.565,37.677,29.4545,37.546,34.6135,56.167,34.735,59.1475,51.923500000000004,54.086,33.884,57.7585,50.275999999999996,53.244,33.4335,57.695499999999996,49.698,-0.11599999999999999,-0.040999999999999925,0.11177500000000001,0.11856000000000001,0.0,209.13,209.12,206.11,206.11,0.0,0.0
10,0.0,0.0,0.0,1.0,1.0,0.0,0.0,1.0,0.0,100.0,1.0,1.1856,26.0,0.0,0.0,0.0,59.999996,0.0,26.0,26.0,26.0,26.0,0.003444444444444583,0.3025,-0.011875,292.969,-2.66345,-2.7053000000000003,-1.5364,-1.5333999999999999,-242.43,216.1125,190.788625,0.0,0.0,0.0,0.0,0.02093333333333336,-5.498166666666667,-5.498166666666667,-0.5181,-0.42333333333333334,0.007888888888888834,0.397,66.925,-0.0079,-0.20722500000000002,-0.44200000000000017,100.0,1.0,1.0,206.35666666666668,0.0,0.0,0.0,0.0,0.0,0.0,0.0,8746.8,0.0,55.0,5.0,240.9,0.0,0.0,0.0,0.0,0.0,0.0,1.0,0.0,0.5069999999999979,0.5069999999999979,0.0,0.0,0.0,55.0,616.79921,10000.0,85.000001,85.000001,85.000001,85.000001,395.0,0.0,0.0,0.0,1.0,166.665,53.497,53.497,47.623,47.623,34.0,-21.215,22.97,-30.523333333333333,29.4975,0.0,1783.185,-0.5949999999999989,100.0,27.695,27.338,42.757,42.714,0.0,0.0,100.0,0.0,0.0,0.0,0.0,2878.857142857143,2869.1,4318.25,4273.3,306.1145,305.549,314.29475,314.1575,21.8786,20.5583,21.8586,21.3878,314.999998,314.999998,324.999988,324.999988,99.55905714285714,99.50715,99.56578571428571,99.54602857142856,0.08733333333333348,-0.04233333333333311,-0.1173333333333334,0.10733333333333328,-0.030000000000001137,-0.05250000000000199,1.4915,1.483,37.741,29.4895,37.616,34.6735,56.153999999999996,34.7745,59.1915,51.9915,54.073,33.92,57.7995,50.341499999999996,53.230000000000004,33.4685,57.7335,49.76233333333333,-0.12349999999999994,-0.026499999999999968,0.10459,0.10967500000000001,0.0,209.565,209.61,206.35666666666668,206.35666666666668,0.0,0.0
11,0.0,0.0,0.0,1.0,1.0,0.0,0.0,1.0,0.0,100.0,1.0,1.1856,26.0,0.0,0.0,0.0,59.999996,0.0,26.0,26.0,26.0,26.0,0.053444444444444406,0.2610000000000001,-0.10097500000000001,293.503,-2.70815,-2.6827,-1.554,-1.523,-239.21,216.0875,190.769125,0.0,0.0,0.0,0.0,0.022599999999999953,-5.498166666666667,-5.498166666666667,-0.5612,-0.361,0.03211111111111098,-0.629,67.056,0.01,-0.24002500000000002,-0.5879999999999992,100.0,1.0,1.0,207.07,0.0,0.0,0.0,0.0,0.0,0.0,0.0,8776.9,0.0,55.0,5.0,241.37333333333333,1.0,0.0,0.0,0.0,0.0,0.0,1.0,0.0,0.5549999999999997,0.5549999999999997,0.0,0.0,1.0,55.0,616.79921,10000.0,85.000001,85.000001,85.000001,85.000001,395.0,0.0,0.0,0.0,1.0,166.665,52.841,52.841,49.271,49.271,34.0,-22.794999999999998,25.575,-24.08,26.59,0.0,1783.137,-0.6749999999999989,100.0,27.448,27.556,42.367000000000004,42.636,0.0,0.0,100.0,0.0,0.0,0.0,0.0,3088.142857142857,3086.4,3681.25,3849.0,305.5575,304.85425,315.88475,315.2585,21.8875,20.5634,21.8682,21.3962,314.999998,314.999998,324.999988,324.999988,99.55907142857143,99.50715,99.56591428571429,99.54617142857143,0.10033333333333339,-0.02400000000000002,-0.10116666666666663,0.1346666666666667,-0.06666666666666998,-0.054999999999999716,1.6275,1.612,37.797,29.521,37.677,34.7265,56.14,34.81,59.2245,52.048500000000004,54.06,33.953,57.83,50.3965,53.216,33.5,57.760999999999996,49.81633333333333,-0.124,-0.026000000000000023,0.11283000000000001,0.10746000000000001,0.0,209.98000000000002,210.005,207.07,207.07,0.0,0.0
12,0.0,0.0,0.0,1.0,1.0,0.0,0.0,1.0,0.0,100.0,1.0,1.1856,26.0,0.0,0.0,0.0,59.999996,0.0,26.0,26.0,26.0,26.0,0.05888888888888899,0.29059999999999997,0.030375000000000003,292.969,-2.7596,-2.6801,-1.5508000000000002,-1.5262,-235.99,216.0625,190.748375,0.0,0.0,0.0,0.0,0.025466666666666526,-5.498166666666667,-5.498166666666667,-0.5467000000000001,0.3283333333333333,0.015333333333333199,-0.9100000000000001,67.19200000000001,0.0285,-0.20615,-0.6999999999999993,100.0,1.0,1.0,207.2733333333333,0.0,0.0,0.0,0.0,0.0,0.0,0.0,8785.5,0.0,55.0,5.0,241.86333333333334,0.0,0.0,0.0,0.0,0.0,0.0,1.0,0.0,0.602999999999998,0.602999999999998,0.0,0.0,0.0,55.0,616.79921,10000.0,85.000001,85.000001,85.000001,85.000001,395.0,0.0,0.0,0.0,1.0,166.665,52.856,52.856,47.958,47.958,34.0,-22.825,25.968333333333334,-27.659999999999997,30.267500000000002,0.0,1783.09,-0.6649999999999991,100.0,27.33,27.716,42.203,42.539,0.0,0.0,100.0,0.0,0.0,0.0,0.0,3126.0,3076.1,4244.75,4152.5,305.502,304.90575,314.56725,314.52125,21.8965,20.5685,21.878,21.4046,314.999998,314.999998,324.999988,324.999988,99.55908571428571,99.50715,99.56605714285715,99.5463,0.1166666666666667,-0.010999999999999899,-0.07833333333333337,0.14650000000000007,-0.054999999999999716,-0.05375000000000085,1.5465,1.5070000000000001,37.852999999999994,29.552999999999997,37.736999999999995,34.7785,56.128,34.846000000000004,59.260999999999996,52.106,54.048,33.986,57.864,50.451499999999996,53.204,33.5315,57.792,49.870333333333335,-0.13,-0.02400000000000002,0.11368,0.103135,0.0,210.41500000000002,210.465,207.2733333333333,207.2733333333333,0.0,0.0
13,0.0,0.0,0.0,1.0,1.0,0.0,0.0,1.0,0.0,100.0,1.0,1.1856,26.0,0.0,0.0,0.0,59.999996,0.0,26.0,26.0,26.0,26.0,0.07455555555555571,0.2773000000000001,0.054175,292.603,-2.73485,-2.6758,-1.623,-1.5084,-232.56,216.0375,190.726625,0.0,0.0,0.0,0.0,0.026666666666666505,-5.498166666666667,-5.498166666666667,-0.5384,-0.022,0.023555555555555552,1.059,67.33500000000001,0.039900000000000005,-0.21300000000000002,-0.8460000000000001,100.0,1.0,1.0,207.65333333333334,0.0,0.0,0.0,0.0,0.0,0.0,0.0,8801.7,0.0,55.0,5.0,242.37666666666667,1.0,0.0,0.0,0.0,0.0,0.0,1.0,0.0,0.6539999999999999,0.6539999999999999,0.0,0.0,1.0,55.0,616.79921,10000.0,85.000001,85.000001,85.000001,85.000001,395.0,0.0,0.0,0.0,1.0,333.33500000000004,52.551,52.551,47.913,47.913,34.0,-21.0,28.163333333333334,-27.15,33.087500000000006,0.0,1783.037,-0.8699999999999992,100.0,27.781,27.741,42.55,42.916,0.0,0.0,100.0,0.0,0.0,0.0,0.0,3042.857142857143,3183.2,4149.0,4361.2,305.524,304.74475,314.712,314.071,21.9061,20.573999999999998,21.8885,21.4137,314.999998,314.999998,324.999988,324.999988,99.5591,99.50716666666666,99.5662,99.54644285714286,0.1436666666666664,0.02300000000000013,-0.058499999999999996,0.16933333333333334,-0.054999999999999716,-0.054999999999999716,1.5075,1.488,37.913,29.5875,37.803,34.836,56.117999999999995,34.884,59.3,52.170500000000004,54.038,34.0215,57.9005,50.5135,53.192,33.5655,57.8255,49.931,-0.14100000000000001,-0.008499999999999952,0.10882000000000001,0.108935,0.0,210.85000000000002,210.9,207.65333333333334,207.65333333333334,0.0,0.0
14,0.0,0.0,0.0,1.0,1.0,0.0,0.0,1.0,0.0,100.0,1.0,1.1856,26.0,0.0,0.0,0.0,59.999996,0.0,26.0,26.0,26.0,26.0,0.08600000000000008,0.28080000000000016,-0.013075,292.847,-2.73685,-2.6170999999999998,-1.5982,-1.5114999999999998,-228.92000000000002,216.0125,190.70425,0.0,0.0,0.0,0.0,0.028766666666666607,-5.498166666666667,-5.498166666666667,-0.5481,-0.116,0.05333333333333323,1.351,67.483,0.0507,-0.227075,-1.0079999999999991,100.0,1.0,1.0,208.19666666666666,0.0,0.0,0.0,0.0,0.0,0.0,0.0,8824.7,0.0,55.0,5.0,242.91333333333336,0.0,0.0,0.0,0.0,0.0,0.0,1.0,0.0,0.7079999999999984,0.7079999999999984,0.0,0.0,0.0,55.0,616.79921,10000.0,85.000001,85.000001,85.000001,85.000001,395.0,0.0,0.0,0.0,1.0,166.665,52.658,52.658,48.126,48.126,34.0,-19.349999999999998,28.575,-24.836666666666666,31.92,0.0,1782.985,-0.9649999999999999,100.0,27.666,27.81,42.492000000000004,43.178,0.0,0.0,100.0,0.0,0.0,0.0,0.0,2922.4285714285716,3255.6,3955.5,4218.7,305.867,304.537,315.15975,314.42675,21.9162,20.5798,21.8995,21.4234,314.999998,314.999998,324.999988,324.999988,99.55911428571429,99.50716666666666,99.56634285714286,99.5466,0.16133333333333333,0.028000000000000025,-0.05133333333333334,0.17533333333333334,-0.04999999999999716,-0.05375000000000085,1.5425,1.5340000000000003,37.976,29.624000000000002,37.872,34.896,56.107,34.9245,59.3395,52.2375,54.027,34.059,57.937,50.578,53.181,33.6015,57.859,49.99433333333333,-0.15049999999999997,-0.0020000000000000018,0.10935500000000001,0.102605,0.0,211.28,211.35500000000002,208.19666666666666,208.19666666666666,0.0,0.0
15,0.0,0.0,0.0,1.0,1.0,0.0,0.0,1.0,0.0,100.0,1.0,1.1856,26.0,0.0,0.0,0.0,59.999996,0.0,26.0,26.0,26.0,26.0,0.119,0.2876000000000001,-0.035475,292.847,-2.71415,-2.5733,-1.6301,-1.4521,-225.88,215.995,190.685125,0.0,0.0,0.0,0.0,0.0305333333333333,-5.498166666666667,-5.498166666666667,-0.5399,0.3086666666666667,0.08066666666666666,-0.07799999999999985,67.607,0.0635,-0.21077500000000002,-1.1179999999999994,100.0,1.0,1.0,208.56333333333333,0.0,0.0,0.0,0.0,0.0,0.0,0.0,8840.3,0.0,55.0,5.0,243.35666666666668,1.0,0.0,0.0,0.0,0.0,0.0,1.0,0.0,0.7530000000000001,0.7530000000000001,0.0,0.0,1.0,55.0,616.79921,10000.0,85.000001,85.000001,85.000001,85.000001,395.0,0.0,0.0,0.0,1.0,166.665,52.795,52.795,48.248,48.248,34.0,-19.05,27.371666666666666,-24.513333333333335,32.435,0.0,1782.939,-0.9749999999999996,100.0,27.54,28.005,42.192,43.302,0.0,0.0,100.0,0.0,0.0,0.0,0.0,2917.142857142857,3123.8,3985.625,4309.6,306.0125,304.75825,315.18275,314.1595,21.924599999999998,20.5847,21.9086,21.4314,314.999998,314.999998,324.999988,324.999988,99.55914285714286,99.50716666666666,99.56647142857143,99.54672857142857,0.15933333333333355,0.034666666666666845,-0.035666666666666624,0.18199999999999994,-0.051666666666669414,-0.05375000000000085,1.5635000000000001,1.512,38.028999999999996,29.6545,37.929,34.946,56.098,34.959,59.3715,52.2935,54.019,34.091,57.966499999999996,50.6315,53.172,33.632,57.8855,50.047333333333334,-0.15249999999999997,0.005499999999999949,0.10506000000000001,0.108965,0.0,211.695,211.76,208.56333333333333,208.56333333333333,0.0,0.0
16,0.0,0.0,0.0,1.0,1.0,0.0,0.0,1.0,0.0,100.0,1.0,1.1856,26.0,0.0,0.0,0.0,59.999996,0.0,26.0,26.0,26.0,26.0,0.12422222222222223,0.28100000000000014,-0.010025000000000001,292.892,-2.7635,-2.6099,-1.6013000000000002,-1.4525000000000001,-222.43,215.97750000000002,190.663125,0.0,0.0,0.0,0.0,0.03256666666666652,-5.498166666666667,-5.498166666666667,-0.5584,-0.8083333333333333,0.07133333333333325,0.17500000000000004,67.747,0.0757,-0.22340000000000002,-1.2939999999999996,100.0,1.0,1.0,208.98333333333335,0.0,0.0,0.0,0.0,0.0,0.0,0.0,8858.0,0.0,55.0,5.0,243.86333333333334,0.0,0.0,0.0,0.0,0.0,0.0,1.0,0.0,0.8039999999999985,0.8039999999999985,0.0,0.0,0.0,55.0,616.79921,10000.0,85.000001,85.000001,85.000001,85.000001,395.0,0.0,0.0,0.0,1.0,333.33500000000004,52.841,52.841,47.821,47.821,34.0,-18.69,29.285,-23.00333333333333,32.575,0.0,1782.887,-0.8849999999999998,100.0,27.278,27.949,42.539,43.393,0.0,0.0,100.0,0.0,0.0,0.0,0.0,2881.142857142857,3276.7,3930.875,4169.8,306.111,304.46125,315.23625,314.53325,21.9339,20.5903,21.919,21.4405,314.999998,314.999998,324.999988,324.999988,99.55915714285715,99.50718333333333,99.56661428571428,99.54687142857144,0.17233333333333345,0.04066666666666663,-0.019333333333333313,0.21016666666666683,-0.04333333333332945,-0.05375000000000085,1.568,1.5110000000000001,38.087,29.689500000000002,37.994,35.0035,56.085,34.999,59.41,52.357,54.006,34.128,58.0025,50.693,53.158,33.667500000000004,57.9185,50.10733333333333,-0.14649999999999996,-0.007000000000000117,0.11332,0.10809500000000001,0.0,212.075,212.155,208.98333333333335,208.98333333333335,0.0,0.0
17,0.0,0.0,0.0,1.0,1.0,0.0,0.0,1.0,0.0,100.0,1.0,1.1856,26.0,0.0,0.0,0.0,59.999996,0.0,26.0,26.0,26.0,26.0,0.10633333333333339,0.2811000000000001,-0.024325000000000003,292.526,-2.7617,-2.5674,-1.6398000000000001,-1.4771,-218.76,215.96,190.63925,0.0,0.0,0.0,0.0,0.03466666666666651,-5.498166666666667,-5.498166666666667,-0.5497000000000001,0.5546666666666666,0.048555555555555685,0.7,67.894,0.082,-0.20525000000000002,-1.1579999999999995,100.0,1.0,1.0,209.41666666666669,0.0,0.0,0.0,0.0,0.0,0.0,0.0,8876.4,0.0,55.0,5.0,244.39,1.0,0.0,0.0,0.0,0.0,0.0,1.0,0.0,0.8580000000000005,0.8580000000000005,0.0,0.0,1.0,55.0,616.79921,10000.0,85.000001,85.000001,85.000001,85.000001,395.0,0.0,0.0,0.0,1.0,166.665,52.49,52.49,47.836,47.836,34.0,-18.9925,27.715,-25.423333333333332,34.0925,0.0,1782.834,-0.9450000000000003,100.0,27.826,28.247,42.298,43.34,0.0,0.0,100.0,0.0,0.0,0.0,0.0,2980.857142857143,3153.5,4198.25,4314.4,305.7645,304.86275,314.70675,314.2645,21.944,20.5964,21.9299,21.4501,314.999998,314.999998,324.999988,324.999988,99.55918571428572,99.50718333333333,99.56677142857143,99.54702857142857,0.18400000000000016,0.043333333333333446,-0.019333333333333313,0.20783333333333331,-0.03166666666666629,-0.060000000000002274,1.5425,1.5020000000000002,38.15,29.727,38.062,35.0635,56.076,35.042500000000004,59.448,52.423,53.998000000000005,34.1685,58.0375,50.7565,53.147999999999996,33.7065,57.95,50.17,-0.15000000000000002,-0.006000000000000005,0.11009500000000001,0.10953,0.0,212.565,212.66500000000002,209.41666666666669,209.41666666666669,0.0,0.0
18,0.0,0.0,0.0,1.0,1.0,0.0,0.0,1.0,0.0,100.0,1.0,1.1856,26.0,0.0,0.0,0.0,59.999996,0.0,26.0,26.0,26.0,26.0,0.13555555555555565,0.274,-0.064875,292.603,-2.798,-2.5399000000000003,-1.6558000000000002,-1.4228,-215.70999999999998,215.95,190.6195,0.0,0.0,0.0,0.0,0.036466666666666536,-5.498166666666667,-5.498166666666667,-0.5576,-0.5823333333333334,0.06966666666666677,-0.08899999999999997,68.017,0.0829,-0.22010000000000002,-1.2000000000000002,100.0,1.0,1.0,209.8,0.0,0.0,0.0,0.0,0.0,0.0,0.0,8892.7,0.0,55.0,5.0,244.83333333333334,0.0,0.0,0.0,0.0,0.0,0.0,1.0,0.0,0.9029999999999987,0.9029999999999987,0.0,0.0,0.0,55.0,616.79921,10000.0,85.000001,85.000001,85.000001,85.000001,395.0,0.0,0.0,0.0,1.0,166.665,52.567,52.567,47.76,47.76,34.0,-19.2725,28.66,-24.759999999999998,31.2825,0.0,1782.789,-1.1850000000000005,100.0,27.437,28.221,42.602000000000004,43.844,0.0,0.0,100.0,0.0,0.0,0.0,0.0,3036.142857142857,3210.7,4025.625,4158.1,305.834,304.61125,315.11225,314.548,21.9523,20.6013,21.9391,21.4583,314.999998,314.999998,324.999988,324.999988,99.5592,99.5072,99.5669,99.54715714285715,0.18933333333333335,0.055333333333333456,-0.026833333333333376,0.19450000000000012,-0.04333333333332945,-0.054999999999999716,1.5465,1.516,38.202,29.758,38.120000000000005,35.1145,56.068,35.078,59.482,52.4805,53.989000000000004,34.201,58.0695,50.8115,53.138,33.738,57.9795,50.224000000000004,-0.1725,0.010499999999999954,0.10738500000000001,0.10028000000000001,0.0,212.92000000000002,213.005,209.8,209.8,0.0,0.0
19,0.0,0.0,0.0,1.0,1.0,0.0,0.0,1.0,0.0,100.0,1.0,1.1856,26.0,0.0,0.0,0.0,59.999996,0.0,26.0,26.0,26.0,26.0,0.1411111111111112,0.29510000000000014,0.025,292.053,-2.768,-2.5296000000000003,-1.6722000000000001,-1.4031,-212.23000000000002,215.9425,190.596875,0.0,0.0,0.0,0.0,0.03846666666666654,-5.498166666666667,-5.498166666666667,-0.5531,0.8383333333333334,0.08455555555555572,0.978,68.154,0.094,-0.212725,-1.6720000000000006,100.0,1.0,1.0,210.23333333333335,0.0,0.0,0.0,0.0,0.0,0.0,0.0,8911.0,0.0,55.0,5.0,245.32333333333332,1.0,0.0,0.0,0.0,0.0,0.0,1.0,0.0,0.9540000000000006,0.9540000000000006,0.0,0.0,1.0,55.0,616.79921,10000.0,85.000001,85.000001,85.000001,85.000001,395.0,0.0,0.0,0.0,1.0,333.33500000000004,51.666,51.666,47.714,47.714,34.0,-18.155,31.613333333333333,-23.936666666666667,34.4075,0.0,1782.737,-1.4049999999999994,100.0,28.07,28.597,42.352000000000004,43.708,0.0,0.0,100.0,0.0,0.0,0.0,0.0,3052.142857142857,3404.8,4086.375,4392.1,305.4895,304.05275,314.9805,314.1105,21.9618,20.6071,21.9494,21.4675,314.999998,314.999998,324.999988,324.999988,99.55922857142858,99.5072,99.56704285714285,99.54731428571428,0.21733333333333338,0.08000000000000007,-0.0006666666666665932,0.22216666666666685,-0.04333333333332945,-0.05250000000000199,1.583,1.5230000000000001,38.260999999999996,29.7945,38.183,35.172,56.062,35.122,59.516999999999996,52.5435,53.983000000000004,34.242,58.1015,50.873,53.131,33.7775,58.0085,50.284333333333336,-0.19199999999999995,0.026499999999999968,0.1106,0.10431000000000001,0.0,213.365,213.465,210.23333333333335,210.23333333333335,0.0,0.0
20,0.0,0.0,0.0,1.0,1.0,0.0,0.0,1.0,0.0,100.0,1.0,1.1856,26.0,0.0,0.0,0.0,59.999996,0.0,26.0,26.0,26.0,26.0,0.2128888888888889,0.27990000000000004,0.051275,292.297,-2.82295,-2.5836,-1.6078000000000001,-1.5167,-208.55,215.9375,190.57325,0.0,0.0,0.0,0.0,0.0406333333333333,-5.498166666666667,-5.498166666666667,-0.5546,-1.2296666666666667,0.09588888888888891,0.5780000000000001,68.30199999999999,0.1125,-0.221725,-2.0700000000000003,100.0,1.0,1.0,210.54666666666668,0.0,0.0,0.0,0.0,0.0,0.0,0.0,8924.3,0.0,55.0,5.0,245.86,0.0,0.0,0.0,0.0,0.0,0.0,0.0,0.0,1.0079999999999991,1.0079999999999991,0.0,0.0,0.0,55.0,616.79921,10000.0,85.000001,85.000001,85.000001,85.000001,395.0,0.0,0.0,0.0,1.0,166.665,52.811,52.811,46.906,46.906,34.0,-15.4575,31.656666666666666,-21.979999999999997,38.1775,0.0,1782.684,-1.7149999999999999,100.0,27.459,28.393,42.878,44.306,0.0,0.0,100.0,0.0,0.0,0.0,0.0,2763.0,3277.6,4071.75,4380.1,306.5355,304.488,314.83975,313.89425,21.9714,20.6131,21.9605,21.4774,314.999998,314.999998,324.999988,324.999988,99.55925714285715,99.50721666666666,99.56718571428571,99.54747142857143,0.24299999999999988,0.10366666666666635,0.026000000000000023,0.2486666666666668,-0.026666666666670835,-0.06750000000000256,1.5105,1.4300000000000002,38.322,29.832,38.253,35.234,56.051,35.168,59.5595,52.614,53.973,34.2845,58.141,50.941,53.119,33.8185,58.0445,50.351,-0.21099999999999997,0.05249999999999999,0.109215,0.09932500000000001,0.0,213.735,213.92000000000002,210.54666666666668,210.54666666666668,0.0,0.0
21,0.0,0.0,0.0,1.0,1.0,0.0,0.0,1.0,0.0,100.0,1.0,1.1856,26.0,0.0,0.0,0.0,59.999996,0.0,26.0,26.0,26.0,26.0,0.23588888888888904,0.27300000000000013,-0.079225,292.618,-2.75245,-2.6206,-1.6844000000000001,-1.4642,-205.47,215.94,190.552875,0.0,0.0,0.0,0.0,0.04239999999999999,-5.498166666666667,-5.498166666666667,-0.5811000000000001,0.41400000000000003,0.09011111111111103,-0.6989999999999998,68.417,0.1298,-0.23012500000000002,-2.2379999999999995,100.0,1.0,1.0,211.17666666666668,0.0,0.0,0.0,0.0,0.0,0.0,0.0,8951.0,0.0,55.0,5.0,246.27666666666664,1.0,0.0,0.0,0.0,0.0,0.0,0.0,0.0,1.0530000000000008,1.0530000000000008,0.0,0.0,1.0,55.0,616.79921,10000.0,85.000001,85.000001,85.000001,85.000001,395.0,0.0,0.0,0.0,1.0,166.665,52.078,52.078,48.416,48.416,34.0,-17.1775,31.568333333333335,-20.35,34.08,0.0,1782.639,-1.2599999999999998,100.0,27.562,28.812,42.08,44.025,0.0,0.0,100.0,0.0,0.0,0.0,0.0,3029.142857142857,3239.2,3831.625,4067.8,305.7205,304.328,315.65,314.79575,21.9796,20.6182,21.9694,21.4854,314.999998,314.999998,324.999988,324.999988,99.55928571428572,99.50723333333333,99.56731428571429,99.5476,0.2293333333333334,0.09399999999999986,0.03416666666666668,0.26416666666666666,-0.04833333333333201,-0.05375000000000085,1.6455,1.5725000000000002,38.373000000000005,29.863999999999997,38.309,35.284,56.046,35.2095,59.5875,52.668,53.968,34.323,58.167,50.993,53.113,33.8555,58.067499999999995,50.40233333333333,-0.19199999999999995,0.03300000000000003,0.11494000000000001,0.10364000000000001,0.0,214.13,214.3,211.17666666666668,211.17666666666668,0.0,0.0
22,0.0,0.0,0.0,1.0,1.0,0.0,0.0,1.0,0.0,100.0,1.0,1.1856,26.0,0.0,0.0,0.0,59.999996,0.0,26.0,26.0,26.0,26.0,0.1955555555555557,0.27059999999999995,0.033225000000000005,292.023,-2.7407,-2.6168,-1.6754,-1.506,-201.98000000000002,215.9475,190.529125,0.0,0.0,0.0,0.0,0.044433333333333325,-5.498166666666667,-5.498166666666667,-0.5574,0.17533333333333334,0.09833333333333316,0.942,68.557,0.1414,-0.20775000000000002,-1.2699999999999996,100.0,1.0,1.0,211.36,0.0,0.0,0.0,0.0,0.0,0.0,0.0,8958.7,0.0,55.0,5.0,246.77666666666664,0.0,0.0,0.0,0.0,0.0,0.0,0.0,0.0,1.1039999999999992,1.1039999999999992,0.0,0.0,0.0,55.0,616.79921,10000.0,85.000001,85.000001,85.000001,85.000001,395.0,0.0,0.0,0.0,1.0,333.33500000000004,52.109,52.109,47.15,47.15,34.0,-18.5875,29.33833333333333,-21.81666666666667,38.85,0.0,1782.587,-0.004999999999999005,100.0,27.775,28.761,42.481,44.265,0.0,0.0,100.0,0.0,0.0,0.0,0.0,2833.4285714285716,3321.7,4102.125,4418.7,306.078,304.1835,314.86875,313.9385,21.9889,20.6241,21.9798,21.4947,314.999998,314.999998,324.999988,324.999988,99.5593,99.50723333333333,99.56745714285714,99.54775714285714,0.16633333333333367,0.02400000000000002,0.04933333333333323,0.26383333333333336,-0.03499999999999659,-0.038750000000000284,1.5010000000000001,1.4620000000000002,38.431,29.9005,38.373999999999995,35.342,56.037,35.2525,59.6265,52.735,53.959,34.363,58.203,51.0575,53.102999999999994,33.894,58.1,50.465333333333334,-0.08150000000000002,-0.07800000000000007,0.09895000000000001,0.108825,0.0,214.595,214.69,211.36,211.36,0.0,0.0
23,0.0,0.0,0.0,1.0,1.0,0.0,0.0,1.0,0.0,100.0,1.0,1.1856,26.0,0.0,0.0,0.0,59.999996,0.0,26.0,26.0,26.0,26.0,0.08611111111111103,0.26080000000000014,-0.0172,292.16,-2.74655,-2.5962,-1.5756000000000001,-1.5504,-198.26999999999998,215.95749999999998,190.504375,0.0,0.0,0.0,0.0,0.046599999999999975,-5.498166666666667,-5.498166666666667,-0.5764,-0.3123333333333333,0.0644444444444443,-0.014000000000000234,68.699,0.10540000000000001,-0.2333,0.18599999999999994,100.0,1.0,1.0,211.91,0.0,0.0,0.0,0.0,0.0,0.0,0.0,8982.1,0.0,55.0,5.0,247.29000000000002,1.0,0.0,0.0,0.0,0.0,0.0,0.0,0.0,1.1580000000000013,1.1580000000000013,0.0,0.0,1.0,55.0,616.79921,10000.0,85.000001,85.000001,85.000001,85.000001,395.0,0.0,0.0,0.0,1.0,166.665,51.727000000000004,51.727000000000004,48.141,48.141,34.0,-23.7125,26.256666666666668,-22.53333333333333,32.6025,0.0,1782.534,0.7749999999999986,100.0,28.07,28.603,42.747,44.355000000000004,0.0,0.0,100.0,0.0,0.0,0.0,0.0,3146.142857142857,3267.7,3892.625,4026.4,305.213,304.49575,315.30275,314.8295,21.9987,20.6302,21.9908,21.5045,314.999998,314.999998,324.999988,324.999988,99.55931428571428,99.50723333333333,99.56761428571428,99.54791428571428,0.10566666666666658,-0.025333333333333208,-0.018166666666666553,0.21216666666666684,-0.046666666666666856,-0.05250000000000199,1.5315,1.5375,38.492000000000004,29.938499999999998,38.443,35.403,56.024,35.295,59.6655,52.803,53.946,34.402,58.239,51.123,53.089,33.9315,58.132999999999996,50.53,-0.016000000000000014,-0.14500000000000002,0.10380500000000001,0.10967500000000001,0.0,215.06,215.06,211.91,211.91,0.0,0.0
24,0.0,0.0,0.0,1.0,1.0,0.0,0.0,1.0,0.0,100.0,1.0,1.1856,26.0,0.0,0.0,0.0,59.999996,0.0,26.0,26.0,26.0,26.0,0.020000000000000018,0.2841,-0.0037,292.404,-2.73095,-2.6444,-1.5933000000000002,-1.5114999999999998,-195.18,215.97,190.483375,0.0,0.0,0.0,0.0,0.0484,-5.498166666666667,-5.498166666666667,-0.5772,-0.373,0.045333333333333226,-0.6379999999999999,68.819,0.051500000000000004,-0.21507500000000002,0.9500000000000011,100.0,1.0,1.0,212.17666666666668,0.0,0.0,0.0,0.0,0.0,0.0,0.0,8993.4,0.0,55.0,5.0,247.72,0.0,0.0,0.0,0.0,0.0,0.0,0.0,0.0,1.2029999999999994,1.2029999999999994,0.0,0.0,0.0,55.0,616.79921,10000.0,85.000001,85.000001,85.000001,85.000001,395.0,0.0,0.0,0.0,1.0,333.33500000000004,52.872,52.872,47.18,47.18,34.0,-23.185000000000002,21.67666666666667,-30.026666666666664,28.925,0.0,1782.489,0.9649999999999999,100.0,27.845,28.334,42.857,44.028,0.0,0.0,100.0,0.0,0.0,0.0,0.0,2939.4285714285716,2937.3,4392.75,4101.4,306.0,305.37475,314.28675,314.7,22.0069,20.635,22.0,21.5126,314.999998,314.999998,324.999988,324.999988,99.55932857142857,99.50725,99.56774285714286,99.54805714285715,0.06566666666666654,-0.07833333333333314,-0.08399999999999996,0.13366666666666682,-0.05333333333332746,-0.03750000000000142,1.4865,1.5220000000000002,38.543,29.969,38.5,35.4535,56.010999999999996,35.329,59.699,52.857,53.934,34.434,58.269999999999996,51.175,53.076,33.962,58.161,50.581,-0.0040000000000000036,-0.15450000000000008,0.096975,0.10698500000000001,0.0,215.49,215.4,212.17666666666668,212.17666666666668,0.0,0.0
25,0.0,0.0,0.0,1.0,1.0,0.0,0.0,1.0,0.0,100.0,1.0,1.1856,26.0,0.0,0.0,0.0,59.999996,0.0,26.0,26.0,26.0,26.0,-0.04299999999999993,0.27500000000000013,-0.043025,292.343,-2.7729,-2.6295,-1.5777,-1.5476999999999999,-191.45999999999998,215.985,190.4565,0.0,0.0,0.0,0.0,0.05056666666666654,-5.498166666666667,-5.498166666666667,-0.614,-0.005666666666666667,0.009333333333333194,-1.9929999999999999,68.959,-0.0154,-0.22765000000000002,1.4840000000000018,100.0,1.0,1.0,212.76,0.0,0.0,0.0,0.0,0.0,0.0,0.0,9018.1,0.0,55.0,5.0,248.22666666666666,1.0,0.0,0.0,0.0,0.0,0.0,0.0,0.0,1.256999999999998,1.256999999999998,0.0,0.0,1.0,55.0,616.79921,10000.0,85.000001,85.000001,85.000001,85.000001,395.0,0.0,0.0,0.0,1.0,166.665,51.894999999999996,51.894999999999996,47.974000000000004,47.974000000000004,34.0,-29.3375,21.916666666666668,-29.913333333333334,24.802500000000002,0.0,1782.435,1.0450000000000017,100.0,27.99,28.32,42.977000000000004,43.413,0.0,0.0,100.0,0.0,0.0,0.0,0.0,3329.285714285714,3195.0,4028.375,3950.8,305.0125,304.5875,315.13275,315.10125,22.0167,20.641,22.011,21.522100000000002,314.999998,314.999998,324.999988,324.999988,99.55932857142857,99.50726666666667,99.5679,99.54821428571428,0.013666666666666938,-0.11933333333333329,-0.15066666666666662,0.0738333333333332,-0.05833333333333002,-0.04749999999999943,1.5515,1.6115,38.605000000000004,30.006,38.569,35.513,55.992000000000004,35.3735,59.7365,52.9185,53.916,34.475,58.3055,51.2345,53.057,34.0015,58.193,50.638999999999996,0.0044999999999999485,-0.16349999999999998,0.11207,0.10423,0.0,215.935,215.82,212.76,212.76,0.0,0.0
26,0.0,0.0,0.0,1.0,1.0,0.0,0.0,1.0,0.0,100.0,1.0,1.1856,26.0,0.0,0.0,0.0,59.999996,0.0,26.0,26.0,26.0,26.0,-0.11855555555555553,0.2593000000000001,0.0555,291.229,-2.6776999999999997,-2.7537000000000003,-1.5889,-1.5779999999999998,-188.14999999999998,215.995,190.43225,0.0,0.0,0.0,0.0,0.05246666666666655,-5.498166666666667,-5.498166666666667,-0.5730000000000001,0.908,-0.05011111111111122,-1.4740000000000002,69.087,-0.0658,-0.196025,1.7620000000000005,100.0,1.0,1.0,212.92666666666668,0.0,0.0,0.0,0.0,0.0,0.0,0.0,9025.2,0.0,55.0,5.0,248.68333333333334,0.0,0.0,0.0,0.0,0.0,0.0,0.0,0.0,1.3049999999999997,1.3049999999999997,0.0,0.0,0.0,55.0,616.79921,10000.0,85.000001,85.000001,85.000001,85.000001,395.0,0.0,0.0,0.0,1.0,333.33500000000004,51.3,51.3,46.356,46.356,34.0,-29.814999999999998,19.97,-39.483333333333334,25.83,0.0,1782.386,0.8449999999999989,100.0,29.14,28.664,43.818,43.406,0.0,0.0,100.0,0.0,0.0,0.0,0.0,3352.714285714286,3004.4,4631.0,4319.7,304.7755,305.008,313.7385,314.19675,22.0259,20.6463,22.021,21.5307,314.999998,314.999998,324.999988,324.999988,99.55934285714285,99.50728333333333,99.56804285714286,99.54834285714286,-0.006333333333333302,-0.16033333333333322,-0.2068333333333333,0.02416666666666667,-0.060000000000002274,-0.033749999999997726,1.413,1.4900000000000002,38.662,30.0395,38.631,35.567,55.980000000000004,35.417,59.7765,52.975,53.905,34.515,58.3425,51.289,53.045,34.04,58.2275,50.69233333333334,-0.01849999999999996,-0.15700000000000003,0.11244000000000001,0.11398000000000001,0.0,216.41,216.22500000000002,212.92666666666668,212.92666666666668,0.0,0.0
27,0.0,0.0,0.0,1.0,1.0,0.0,0.0,1.0,0.0,100.0,1.0,1.1856,26.0,0.0,0.0,0.0,59.999996,0.0,26.0,26.0,26.0,26.0,-0.14100000000000001,0.23940000000000006,0.012,291.489,-2.61715,-2.7473,-1.5602,-1.6728,-184.82999999999998,216.005,190.409125,0.0,0.0,0.0,0.0,0.054400000000000004,-5.498166666666667,-5.498166666666667,-0.5936,-1.133,-0.07266666666666666,-0.9550000000000001,69.212,-0.0935,-0.23952500000000002,1.5920000000000005,100.0,1.0,1.0,213.3466666666667,0.0,0.0,0.0,0.0,0.0,0.0,0.0,9042.9,0.0,55.0,5.0,249.13666666666666,1.0,0.0,0.0,0.0,0.0,0.0,0.0,0.0,1.352999999999998,1.352999999999998,0.0,0.0,1.0,55.0,616.79921,10000.0,85.000001,85.000001,85.000001,85.000001,395.0,0.0,0.0,0.0,1.0,166.665,51.697,51.697,46.585,46.585,34.0,-29.77,19.026666666666667,-36.346666666666664,24.1,0.0,1782.34,0.754999999999999,100.0,28.997,28.262,44.897999999999996,43.811,0.0,0.0,100.0,0.0,0.0,0.0,0.0,3337.142857142857,2949.1,4266.375,4042.1,304.801,305.35175,314.49525,314.70975,22.0349,20.6514,22.0311,21.5395,314.999998,314.999998,324.999988,324.999988,99.55934285714285,99.5073,99.56818571428572,99.54848571428572,-0.020999999999999908,-0.16766666666666663,-0.22533333333333339,0.0015000000000000568,-0.04333333333332945,-0.030000000000001137,1.4445000000000001,1.509,38.718,30.070999999999998,38.694,35.622,55.965,35.457499999999996,59.8185,53.033500000000004,53.891,34.5525,58.382,51.3445,53.03,34.0755,58.2635,50.74666666666667,-0.025000000000000022,-0.14250000000000007,0.10721000000000001,0.10619,0.0,216.70499999999998,216.565,213.3466666666667,213.3466666666667,0.0,0.0
28,0.0,0.0,0.0,1.0,1.0,0.0,0.0,1.0,0.0,100.0,1.0,1.1856,26.0,0.0,0.0,0.0,59.999996,0.0,26.0,26.0,26.0,26.0,-0.15155555555555555,0.2734000000000001,-0.040725000000000004,291.885,-2.63305,-2.7422,-1.4985,-1.6411,-181.09,216.01,190.38225,0.0,0.0,0.0,0.0,0.056599999999999984,-5.498166666666667,-5.498166666666667,-0.6013000000000001,0.6653333333333333,-0.08566666666666656,-0.6299999999999999,69.349,-0.11170000000000001,-0.215925,1.5020000000000007,100.0,1.0,1.0,213.90333333333334,0.0,0.0,0.0,0.0,0.0,0.0,0.0,9066.5,0.0,55.0,5.0,249.63,0.0,0.0,0.0,0.0,0.0,0.0,0.0,0.0,1.407,1.407,0.0,0.0,0.0,55.0,616.79921,10000.0,85.000001,85.000001,85.000001,85.000001,395.0,0.0,0.0,0.0,1.0,166.665,51.757999999999996,51.757999999999996,47.501,47.501,34.0,-31.0575,18.256666666666668,-35.28333333333333,22.3275,0.0,1782.285,0.5650000000000013,100.0,29.179000000000002,28.076,44.28,43.069,0.0,0.0,100.0,0.0,0.0,0.0,0.0,3389.142857142857,2897.1,4209.25,4040.2,304.6985,305.47975,314.758,314.89575,22.045099999999998,20.6572,22.042,21.549,314.999998,314.999998,324.999988,324.999988,99.55934285714285,99.50731666666667,99.56834285714285,99.54864285714285,-0.035666666666666735,-0.17666666666666675,-0.24316666666666664,-0.015166666666666662,-0.036666666666668846,-0.033749999999997726,1.5135,1.5820000000000003,38.782,30.107,38.763,35.681,55.952,35.5045,59.8575,53.0925,53.878,34.5955,58.4185,51.4015,53.016999999999996,34.117,58.297,50.80166666666666,-0.03700000000000003,-0.12349999999999994,0.11163500000000001,0.10455500000000001,0.0,217.175,217.035,213.90333333333334,213.90333333333334,0.0,0.0
29,0.0,0.0,0.0,1.0,1.0,0.0,0.0,1.0,0.0,100.0,1.0,1.1856,26.0,0.0,0.0,0.0,59.999996,0.0,26.0,26.0,26.0,26.0,-0.16400000000000003,0.2642,0.0327,291.428,-2.6445,-2.693,-1.5419,-1.6239,-177.75,216.0125,190.357375,0.0,0.0,0.0,0.0,0.058533333333333326,-5.498166666666667,-5.498166666666667,-0.6065,-0.7603333333333334,-0.08511111111111136,-0.7690000000000001,69.476,-0.112,-0.21450000000000002,1.2260000000000009,100.0,1.0,1.0,214.11333333333334,0.0,0.0,0.0,0.0,0.0,0.0,0.0,9075.5,0.0,55.0,5.0,250.08666666666664,1.0,0.0,0.0,0.0,0.0,0.0,0.0,0.0,1.4549999999999983,1.4549999999999983,0.0,0.0,1.0,55.0,616.79921,10000.0,85.000001,85.000001,85.000001,85.000001,395.0,0.0,0.0,0.0,1.0,333.33500000000004,51.697,51.697,46.387,46.387,34.0,-31.7225,19.261666666666667,-37.989999999999995,23.822499999999998,0.0,1782.235,0.4800000000000004,100.0,28.88,27.844,44.75,43.318,0.0,0.0,100.0,0.0,0.0,0.0,0.0,3472.0,3074.7,4414.0,4153.9,304.5695,305.0445,314.13,314.54075,22.054,20.6622,22.0521,21.5576,314.999998,314.999998,324.999988,324.999988,99.55935714285714,99.50733333333334,99.5685,99.54878571428571,-0.03200000000000003,-0.17033333333333323,-0.2333333333333334,-0.0040000000000000036,-0.05333333333332746,-0.02499999999999858,1.4615,1.5035000000000003,38.838,30.1385,38.825,35.7355,55.937,35.5475,59.900999999999996,53.153,53.863,34.635,58.4595,51.459,53.001000000000005,34.1545,58.335,50.858000000000004,-0.04399999999999993,-0.11499999999999999,0.110405,0.11213500000000001,0.0,217.525,217.4,214.11333333333334,214.11333333333334,0.0,0.0
30,0.0,0.0,0.0,1.0,1.0,0.0,0.0,1.0,0.0,100.0,1.0,1.1856,26.0,0.0,0.0,0.0,59.999996,0.0,26.0,26.0,26.0,26.0,-0.1567777777777778,0.2775000000000001,0.04235,291.016,-2.6273999999999997,-2.6893000000000002,-1.4726,-1.5718999999999999,-174.42000000000002,216.01,190.3325,0.0,0.0,0.0,0.0,0.06046666666666656,-5.498166666666667,-5.498166666666667,-0.6052000000000001,0.8176666666666667,-0.08922222222222231,-0.6379999999999999,69.598,-0.1063,-0.21935000000000002,1.097999999999999,100.0,1.0,1.0,214.53333333333333,0.0,0.0,0.0,0.0,0.0,0.0,0.0,9093.3,0.0,55.0,5.0,250.52666666666664,0.0,0.0,0.0,0.0,0.0,0.0,1.0,0.0,1.5030000000000001,1.5030000000000001,0.0,0.0,0.0,55.0,616.79921,10000.0,85.000001,85.000001,85.000001,85.000001,395.0,0.0,0.0,0.0,1.0,333.33500000000004,50.842,50.842,46.783,46.783,34.0,-31.7275,18.846666666666668,-35.60333333333334,24.615000000000002,0.0,1782.188,0.3000000000000007,100.0,29.694,28.558,44.609,43.247,0.0,0.0,100.0,0.0,0.0,0.0,0.0,3556.5714285714284,2982.7,4383.625,4319.3,304.165,305.09975,314.25825,314.28625,22.063299999999998,20.6675,22.0619,21.5662,314.999998,314.999998,324.999988,324.999988,99.55935714285714,99.50735,99.56862857142858,99.54891428571429,-0.011666666666666714,-0.16900000000000004,-0.21633333333333338,0.007500000000000062,-0.04833333333333201,-0.042499999999996874,1.479,1.5195000000000003,38.896,30.172,38.887,35.789,55.927,35.588499999999996,59.9355,53.204,53.854,34.673,58.4915,51.5085,52.991,34.191,58.364,50.906,-0.06399999999999995,-0.11050000000000004,0.09986500000000001,0.107575,0.0,217.945,217.82,214.53333333333333,214.53333333333333,0.0,0.0
31,0.0,0.0,0.0,1.0,1.0,0.0,0.0,1.0,0.0,100.0,1.0,1.1856,26.0,0.0,0.0,0.0,59.999996,0.0,26.0,26.0,26.0,26.0,-0.12855555555555553,0.25229999999999997,0.021025000000000002,291.061,-2.62325,-2.7679,-1.5636,-1.6718,-170.86,216.0025,190.306625,0.0,0.0,0.0,0.0,0.06253333333333333,-5.498166666666667,-5.498166666666667,-0.5868,-0.6063333333333334,-0.07466666666666644,0.5939999999999999,69.73,-0.0949,-0.21625,0.6379999999999999,100.0,1.0,1.0,214.85666666666668,0.0,0.0,0.0,0.0,0.0,0.0,0.0,9107.0,0.0,55.0,5.0,251.0,1.0,0.0,0.0,0.0,0.0,0.0,1.0,0.0,1.5539999999999985,1.5539999999999985,0.0,0.0,1.0,55.0,616.79921,10000.0,85.000001,85.000001,85.000001,85.000001,395.0,0.0,0.0,0.0,1.0,333.33500000000004,51.605000000000004,51.605000000000004,45.425,45.425,34.0,-26.38,20.901666666666667,-37.25666666666666,27.2575,0.0,1782.136,0.14999999999999858,100.0,29.505,28.459,45.299,43.832,0.0,0.0,100.0,0.0,0.0,0.0,0.0,3097.142857142857,3055.5,4451.25,4252.4,305.4105,305.09175,314.00725,314.4485,22.0728,20.6731,22.0726,21.5756,314.999998,314.999998,324.999988,324.999988,99.55935714285714,99.50738333333334,99.56878571428571,99.54907142857142,0.00633333333333308,-0.1456666666666666,-0.2025,0.03316666666666679,-0.023333333333326323,-0.04625000000000057,1.431,1.4580000000000002,38.955,30.2065,38.954,35.8475,55.912,35.6325,59.979,53.266,53.84,34.713499999999996,58.5325,51.568,52.976,34.2295,58.402,50.96366666666667,-0.07099999999999995,-0.09450000000000003,0.10342000000000001,0.11241000000000001,0.0,218.28,218.22,214.85666666666668,214.85666666666668,0.0,0.0
32,0.0,0.0,0.0,1.0,1.0,0.0,0.0,1.0,0.0,100.0,1.0,1.1856,26.0,0.0,0.0,0.0,59.999996,0.0,26.0,26.0,26.0,26.0,-0.09744444444444444,0.25239999999999996,-0.086275,291.428,-2.65145,-2.7053000000000003,-1.5892,-1.5774,-167.3,215.995,190.281125,0.0,0.0,0.0,0.0,0.06459999999999999,-5.498166666666667,-5.498166666666667,-0.6103000000000001,0.106,-0.09766666666666657,-0.9729999999999999,69.856,-0.0804,-0.231775,0.6739999999999995,100.0,1.0,1.0,215.45,0.0,0.0,0.0,0.0,0.0,0.0,0.0,9132.2,0.0,55.0,5.0,251.45666666666665,0.0,0.0,0.0,0.0,0.0,0.0,1.0,0.0,1.6050000000000004,1.6050000000000004,0.0,0.0,0.0,55.0,616.79921,10000.0,85.000001,85.000001,85.000001,85.000001,395.0,0.0,0.0,0.0,1.0,333.33500000000004,51.193,51.193,46.89,46.89,34.0,-29.627499999999998,20.571666666666665,-33.39666666666666,23.997500000000002,0.0,1782.085,0.07000000000000028,100.0,29.36,28.663,44.789,43.678,0.0,0.0,100.0,0.0,0.0,0.0,0.0,3425.0,3007.6,4175.875,3997.9,304.6235,305.14375,314.8645,315.09275,22.0824,20.6787,22.083,21.584699999999998,314.999998,314.999998,324.999988,324.999988,99.55935714285714,99.5074,99.56895714285714,99.54922857142857,0.007333333333333414,-0.1333333333333333,-0.1901666666666666,0.040166666666666684,-0.03333333333333144,-0.04625000000000057,1.5350000000000001,1.5580000000000003,39.015,30.241500000000002,39.019,35.9045,55.896,35.679,60.019,53.326499999999996,53.825,34.7565,58.57,51.626,52.961,34.2705,58.4365,51.02033333333333,-0.07699999999999996,-0.09149999999999991,0.10540000000000001,0.11005500000000001,0.0,218.67000000000002,218.625,215.45,215.45,0.0,0.0
33,0.0,0.0,0.0,1.0,1.0,0.0,0.0,1.0,0.0,100.0,1.0,1.1856,26.0,0.0,0.0,0.0,59.999996,0.0,26.0,26.0,26.0,26.0,-0.09466666666666657,0.2631000000000001,-0.022350000000000002,291.412,-2.5949,-2.7441,-1.5493999999999999,-1.5945,-163.95,215.98250000000002,190.256,0.0,0.0,0.0,0.0,0.06653333333333333,-5.498166666666667,-5.498166666666667,-0.6088,-0.2563333333333333,-0.09311111111111137,0.026999999999999913,69.98,-0.0661,-0.2141,0.45000000000000107,100.0,1.0,1.0,215.67666666666668,0.0,0.0,0.0,0.0,0.0,0.0,0.0,9141.7,0.0,55.0,5.0,251.9,1.0,0.0,0.0,0.0,0.0,0.0,1.0,0.0,1.6529999999999987,1.6529999999999987,0.0,0.0,1.0,55.0,616.79921,10000.0,85.000001,85.000001,85.000001,85.000001,395.0,0.0,0.0,0.0,1.0,333.33500000000004,51.941,51.941,46.387,46.387,34.0,-25.8925,20.75333333333333,-35.46,25.8525,0.0,1782.038,-0.07000000000000028,100.0,29.189,28.354,44.735,43.757,0.0,0.0,100.0,0.0,0.0,0.0,0.0,3197.5714285714284,2915.0,4389.75,4214.9,305.2285,305.47275,314.281,314.449,22.0912,20.6838,22.0929,21.5934,314.999998,314.999998,324.999988,324.999988,99.55937142857142,99.5074,99.56908571428572,99.54935714285715,0.03100000000000014,-0.11833333333333318,-0.19266666666666665,0.033333333333333215,-0.04833333333333201,-0.04374999999999574,1.4795,1.4940000000000002,39.07,30.2735,39.081,35.959,55.882999999999996,35.714,60.054,53.379,53.813,34.789,58.603,51.6765,52.948,34.302,58.466499999999996,51.06933333333333,-0.08950000000000002,-0.07800000000000007,0.11249500000000001,0.10271000000000001,0.0,219.07999999999998,219.01,215.67666666666668,215.67666666666668,0.0,0.0
34,0.0,0.0,0.0,1.0,1.0,0.0,0.0,1.0,0.0,100.0,1.0,1.1856,26.0,0.0,0.0,0.0,59.999996,0.0,26.0,26.0,26.0,26.0,-0.08077777777777784,0.25780000000000003,-0.056525000000000006,291.794,-2.71005,-2.7138999999999998,-1.5886,-1.6106,-160.38,215.97,190.228375,0.0,0.0,0.0,0.0,0.06863333333333332,-5.498166666666667,-5.498166666666667,-0.641,-0.8056666666666666,-0.05188888888888865,1.2650000000000001,70.108,-0.048600000000000004,-0.22585000000000002,0.2579999999999991,100.0,1.0,1.0,216.13,0.0,0.0,0.0,0.0,0.0,0.0,0.0,9161.0,0.0,55.0,5.0,252.36333333333334,0.0,0.0,0.0,0.0,0.0,0.0,1.0,0.0,1.7040000000000006,1.7040000000000006,0.0,0.0,0.0,55.0,616.79921,10000.0,85.000001,85.000001,85.000001,85.000001,395.0,0.0,0.0,0.0,1.0,333.33500000000004,52.094,52.094,47.455,47.455,34.0,-26.560000000000002,22.19833333333333,-31.11,27.5625,0.0,1781.987,-0.0649999999999995,100.0,28.973,27.896,44.481,43.769999999999996,0.0,0.0,100.0,0.0,0.0,0.0,0.0,3205.714285714286,3026.0,4073.75,4187.1,305.1895,305.344,315.02025,314.53325,22.1005,20.6892,22.1033,21.6027,314.999998,314.999998,324.999988,324.999988,99.55938571428571,99.50741666666667,99.56924285714285,99.5495,0.04300000000000015,-0.09333333333333327,-0.15933333333333333,0.06699999999999995,-0.023333333333326323,-0.05749999999999744,1.5225,1.5215,39.128,30.307499999999997,39.146,36.0165,55.867999999999995,35.7535,60.0905,53.4385,53.798,34.8255,58.637,51.7335,52.932,34.3365,58.498,51.12466666666667,-0.08599999999999997,-0.07600000000000007,0.10198000000000002,0.10826000000000001,0.0,219.42000000000002,219.405,216.13,216.13,0.0,0.0
35,0.0,0.0,0.0,1.0,1.0,0.0,0.0,1.0,0.0,100.0,1.0,1.1856,26.0,0.0,0.0,0.0,59.999996,0.0,26.0,26.0,26.0,26.0,-0.05255555555555558,0.2492000000000001,-0.021075,291.779,-2.72045,-2.689,-1.5645,-1.6159,-156.59,215.9525,190.196625,0.0,0.0,0.0,0.0,0.0708333333333333,-5.498166666666667,-5.498166666666667,-0.6859000000000001,-0.5156666666666666,-0.05522222222222206,-0.2709999999999999,70.243,-0.034,-0.22967500000000002,0.09600000000000009,100.0,1.0,1.0,216.61666666666667,0.0,0.0,0.0,0.0,0.0,0.0,0.0,9181.6,0.0,55.0,5.0,252.85000000000002,1.0,0.0,0.0,0.0,0.0,0.0,1.0,0.0,1.7579999999999991,1.7579999999999991,0.0,0.0,1.0,55.0,616.79921,10000.0,85.000001,85.000001,85.000001,85.000001,395.0,0.0,0.0,0.0,1.0,166.665,51.575,51.575,46.982,46.982,34.0,-26.552500000000002,25.121666666666666,-29.606666666666662,26.6575,0.0,1781.934,-0.049999999999998934,100.0,28.704,28.286,44.175,43.434,0.0,0.0,100.0,0.0,0.0,0.0,0.0,3247.714285714286,3326.3,4038.625,3941.7,305.1825,304.374,315.01575,315.121,22.1101,20.6952,22.1142,21.6123,314.999998,314.999998,324.999988,324.999988,99.55938571428571,99.50743333333334,99.56938571428572,99.54965714285714,0.051000000000000156,-0.08199999999999985,-0.14100000000000001,0.08833333333333337,-0.03499999999999659,-0.05124999999999602,1.545,1.5460000000000003,39.188,30.345,39.214,36.076499999999996,55.849999999999994,35.7965,60.128,53.498,53.781,34.865,58.672,51.7905,52.914,34.3745,58.5295,51.18033333333334,-0.08599999999999997,-0.07350000000000012,0.10545500000000001,0.10974,0.0,219.835,219.825,216.61666666666667,216.61666666666667,0.0,0.0
36,0.0,0.0,0.0,1.0,1.0,0.0,0.0,1.0,0.0,100.0,1.0,1.1856,26.0,0.0,0.0,0.0,59.999996,0.0,26.0,26.0,26.0,26.0,-0.049111111111111105,0.2634000000000001,0.012950000000000001,290.939,-2.7293,-2.6441,-1.5874000000000001,-1.6040999999999999,-153.42,215.9375,190.16875,0.0,0.0,0.0,0.0,0.07266666666666655,-5.498166666666667,-5.498166666666667,-0.6668000000000001,0.4966666666666667,-0.0905555555555555,-1.5020000000000002,70.357,-0.024,-0.198575,0.22799999999999976,100.0,1.0,1.0,216.75,0.0,0.0,0.0,0.0,0.0,0.0,0.0,9187.3,0.0,55.0,5.0,253.25666666666666,0.0,0.0,0.0,0.0,0.0,0.0,1.0,0.0,1.8030000000000008,1.8030000000000008,0.0,0.0,0.0,55.0,616.79921,10000.0,85.000001,85.000001,85.000001,85.000001,395.0,0.0,0.0,0.0,1.0,333.33500000000004,51.331,51.331,46.173,46.173,34.0,-27.8525,22.278333333333332,-35.236666666666665,31.16,0.0,1781.889,-0.0649999999999995,100.0,29.08,28.846,44.105000000000004,43.658,0.0,0.0,100.0,0.0,0.0,0.0,0.0,3391.4285714285716,3051.4,4613.25,4469.4,304.839,305.05375,313.8645,313.849,22.1184,20.7003,22.1234,21.6204,314.999998,314.999998,324.999988,324.999988,99.55938571428571,99.50745,99.56952857142858,99.54978571428572,0.05233333333333334,-0.08766666666666678,-0.14116666666666666,0.08616666666666672,-0.03833333333332689,-0.04124999999999801,1.458,1.4485000000000001,39.239999999999995,30.377000000000002,39.271,36.1275,55.839,35.834,60.161500000000004,53.5505,53.771,34.9,58.7035,51.841,52.903,34.4075,58.558,51.22966666666667,-0.08399999999999996,-0.08150000000000013,0.10962000000000001,0.10637500000000001,0.0,220.24,220.22,216.75,216.75,0.0,0.0
