,ABS Active,ABS Enabled,AID Allow Tire Blankets,AID Auto Blip,AID Auto Clutch,AID Auto Shift,AID Fuel Rate,AID Ideal Line,AID Mech Damage,AID Stability,AID Tire Wear Rate,Air Density,Air Temp,Ballast,Best Lap Delta,Best Lap Time,Brake Bias,Brake Pos,Brake Temp FL,Brake Temp FR,Brake Temp RL,Brake Temp RR,CG Accel Lateral,CG Accel Longitudinal,CG Accel Vertical,CG Height,Camber FL,Camber FR,Camber RL,Camber RR,Car Coord X,Car Coord Y,Car Coord Z,Car Damage Front,Car Damage Left,Car Damage Rear,Car Damage Right,Car Pos Norm,Caster FL,Caster FR,Chassis Pitch Angle,Chassis Pitch Rate,Chassis Roll Angle,Chassis Roll Rate,Chassis Velocity X,Chassis Velocity Y,Chassis Velocity Z,Chassis Yaw Rate,Clutch Pos,DRS Active,DRS Available,Drive Train Speed,ERS Heat Charging,ERS Is Charging,ERS Max Energy,ERS Power Level,ERS Recovery Level,Engine Brake Setting,Engine Limiter,Engine RPM,Flags,Fuel Level,Gear,Ground Speed,HR Sample Clock,In Pit,KERS Charge,KERS Deployed Energy,KERS Input,KERS Max Energy,LR Sample Clock,Lap Invalidated,Lap Time,Lap Time2,Last Lap Time,Last Sector Time,MR Sample Clock,Max Fuel,Max Power,Max RPM,Max Sus Travel FL,Max Sus Travel FR,Max Sus Travel RL,Max Sus Travel RR,Max Torque,Max Turbo Boost,Num Tires Off Track,Penalties Enabled,Position,Raw Data Sample Rate,Ride Height FL,Ride Height FR,Ride Height RL,Ride Height RR,Road Temp,Self Align Torque FL,Self Align Torque FR,Self Align Torque RL,Self Align Torque RR,Session Lap Count,Session Time Left,Steering Angle,Surface Grip,Suspension Travel FL,Suspension Travel FR,Suspension Travel RL,Suspension Travel RR,TC Active,TC Enabled,Throttle Pos,Tire Dirt Level FL,Tire Dirt Level FR,Tire Dirt Level RL,Tire Dirt Level RR,Tire Load FL,Tire Load FR,Tire Load RL,Tire Load RR,Tire Loaded Radius FL,Tire Loaded Radius FR,Tire Loaded Radius RL,Tire Loaded Radius RR,Tire Pressure FL,Tire Pressure FR,Tire Pressure RL,Tire Pressure RR,Tire Radius FL,Tire Radius FR,Tire Radius RL,Tire Radius RR,Tire Rubber Grip FL,Tire Rubber Grip FR,Tire Rubber Grip RL,Tire Rubber Grip RR,Tire Slip Angle FL,Tire Slip Angle FR,Tire Slip Angle RL,Tire Slip Angle RR,Tire Slip Ratio FL,Tire Slip Ratio FR,Tire Slip Ratio RL,Tire Slip Ratio RR,Tire Temp Core FL,Tire Temp Core FR,Tire Temp Core RL,Tire Temp Core RR,Tire Temp Inner FL,Tire Temp Inner FR,Tire Temp Inner RL,Tire Temp Inner RR,Tire Temp Middle FL,Tire Temp Middle FR,Tire Temp Middle RL,Tire Temp Middle RR,Tire Temp Outer FL,Tire Temp Outer FR,Tire Temp Outer RL,Tire Temp Outer RR,Toe In FL,Toe In FR,Toe In RL,Toe In RR,Turbo Boost,Wheel Angular Speed FL,Wheel Angular Speed FR,Wheel Angular Speed RL,Wheel Angular Speed RR,Wind Direction,Wind Speed
0,0.0,0.0,0.0,1.0,1.0,0.0,0.0,1.0,0.0,0.0,1.0,1.1856,26.0,0.0,0.0,0.0,59.99999,0.0,26.0,26.0,26.0,26.0,-0.03066666666666662,0.29900000000000015,0.23363333333333336,292.999,-2.79995,-2.6079,-1.56455,-1.5,-275.6,215.3875,190.987,0.0,0.0,0.0,0.0,0.0016333333333333332,-5.498166666666667,-5.498166666666667,-0.5726,2.138,0.006555555555555648,-0.567,65.84100000000001,-0.028299999999999992,-0.23570000000000002,0.02200000000000024,100.0,1.0,1.0,203.31,0.0,0.0,0.0,0.0,0.0,0.0,0.0,8617.6,0.0,25.0,5.0,236.99333333333334,0.0,0.0,0.0,0.0,0.0,0.0,0.0,0.0,0.006000000000000227,0.006000000000000227,0.0,0.0,0.0,55.0,616.79921,10000.0,85.0,85.0,85.0,85.0,395.0,0.0,0.0,0.0,1.0,20.0,50.156,50.156,48.935,48.935,34.0,-31.0925,34.23166666666667,-28.2975,25.605,0.0,1783.416,0.040000000000000924,100.0,27.319,27.661,40.241,40.071,0.0,0.0,100.0,0.0,0.0,0.0,0.0,3502.625,4436.8,3997.8888888888887,4033.7,304.1333333333333,300.90975,315.1645,314.799,21.7581,20.4918,21.7483,21.2961,314.99999,314.99999,324.99998,324.99998,99.55872857142857,99.50673333333333,99.56448571428571,99.54472857142858,0.027000000000000135,-0.07466666666666666,-0.13149999999999995,0.08800000000000008,-0.061666666666667425,-0.05666666666667197,1.5786666666666667,1.5724999999999998,36.988,29.073666666666668,36.927,34.1005,56.179,34.1515,58.765,51.382,54.091,33.3455,57.4045,49.760999999999996,53.253,32.9165,57.373,49.2,-0.07150000000000001,-0.07650000000000001,0.09723000000000001,0.11973,0.0,206.29000000000002,206.26,203.31,203.31,0.0,0.0
1,0.0,0.0,0.0,1.0,1.0,0.0,0.0,1.0,0.0,0.0,1.0,1.1856,26.0,0.0,0.0,0.0,59.999996,0.0,26.0,26.0,26.0,26.0,-0.04488888888888887,0.3417000000000001,0.20783333333333337,292.236,-2.6965,-2.6955,-1.60655,-1.3755,-272.23,215.39249999999998,190.967125,0.0,0.0,0.0,0.0,0.0036000000000000003,-5.498166666666667,-5.498166666666667,-0.47490000000000004,-1.693,-0.04266666666666685,-0.395,66.004,-0.02299999999999991,-0.177575,0.476,100.0,1.0,1.0,203.13,0.0,0.0,0.0,0.0,0.0,0.0,0.0,8609.9,0.0,25.0,5.0,237.58333333333331,1.0,0.0,0.0,0.0,0.0,0.0,0.0,0.0,0.05699999999999861,0.05699999999999861,0.0,0.0,1.0,55.0,616.79921,10000.0,85.000001,85.000001,85.000001,85.000001,395.0,0.0,0.0,0.0,1.0,333.33500000000004,54.596000000000004,54.596000000000004,47.012,47.012,34.0,-21.565,16.62333333333333,-37.71,35.072500000000005,0.0,1783.362,0.2400000000000002,100.0,27.447,27.195999999999998,42.586,43.324,0.0,0.0,100.0,0.0,0.0,0.0,0.0,2718.0,2370.7,4808.222222222223,5501.3,306.56666666666666,307.27025,312.92325,310.7575,21.7678,20.4967,21.7593,21.3054,314.999998,314.999998,324.999988,324.999988,99.55874285714286,99.50675,99.56465714285714,99.54488571428571,0.04600000000000026,-0.09133333333333327,-0.1253333333333334,0.06766666666666676,-0.036666666666668846,-0.045000000000001705,1.2736666666666667,1.319,37.049,29.104333333333333,36.995999999999995,34.159,56.16,34.19,58.817499999999995,51.459,54.073,33.3815,57.4535,49.8345,53.235,32.951,57.4185,49.272,-0.05699999999999994,-0.08899999999999997,0.096295,0.10508,0.0,206.74,206.7,203.13,203.13,0.0,0.0
2,0.0,0.0,0.0,1.0,1.0,0.0,0.0,1.0,0.0,0.0,1.0,1.1856,26.0,0.0,0.0,0.0,59.999996,0.0,26.0,26.0,26.0,26.0,-0.07011111111111101,0.3147,0.0371,294.113,-2.67005,-2.653,-1.5698500000000002,-1.5114,-268.87,215.3975,190.94825,0.0,0.0,0.0,0.0,0.005566666666666667,-5.498166666666667,-5.498166666666667,-0.5820000000000001,0.45699999999999996,-0.00633333333333308,2.0709999999999997,66.138,-0.02749999999999997,-0.27415,0.6879999999999997,100.0,1.0,1.0,204.66333333333333,0.0,0.0,0.0,0.0,0.0,0.0,0.0,8674.9,0.0,25.0,5.0,238.07,0.0,0.0,0.0,0.0,0.0,0.0,0.0,0.0,0.10800000000000054,0.10800000000000054,0.0,0.0,0.0,55.0,616.79921,10000.0,85.000001,85.000001,85.000001,85.000001,395.0,0.0,0.0,0.0,1.0,333.33500000000004,52.002,52.002,51.01,51.01,34.0,-28.6875,22.65,-24.1525,18.759999999999998,0.0,1783.312,0.370000000000001,100.0,27.943,27.32,41.674,41.599000000000004,0.0,0.0,100.0,0.0,0.0,0.0,0.0,3358.75,3223.0,3440.8888888888887,3313.1,304.589,304.49975,316.45,316.695,21.7778,20.5018,21.7695,21.3138,314.999998,314.999998,324.999988,324.999988,99.55874285714286,99.50675,99.56477142857143,99.545,0.019000000000000128,-0.11066666666666669,-0.16266666666666663,0.07250000000000001,-0.07166666666666544,-0.05833333333333002,1.7966666666666666,1.835,37.111000000000004,29.136,37.059,34.211,56.147,34.228,58.849000000000004,51.503,54.061,33.4165,57.4825,49.876999999999995,53.222,32.984,57.445,49.31366666666666,-0.04899999999999993,-0.10749999999999993,0.10852500000000001,0.10455,0.0,207.20499999999998,207.12,204.66333333333333,204.66333333333333,0.0,0.0
3,0.0,0.0,0.0,1.0,1.0,0.0,0.0,1.0,0.0,0.0,1.0,1.1856,26.0,0.0,0.0,0.0,59.999996,0.0,26.0,26.0,26.0,26.0,-0.05588888888888888,0.2882,0.05416666666666667,293.274,-2.6871,-2.6851,-1.5486,-1.4818,-265.49,215.4,190.92775,0.0,0.0,0.0,0.0,0.007533333333333333,-5.498166666666667,-5.498166666666667,-0.4974,0.522,0.004555555555555646,-2.166,66.299,-0.0361999999999999,-0.18775,0.6200000000000001,100.0,1.0,1.0,204.42000000000002,0.0,0.0,0.0,0.0,0.0,0.0,0.0,8664.6,0.0,25.0,5.0,238.64333333333332,1.0,0.0,0.0,0.0,0.0,0.0,0.0,0.0,0.15899999999999892,0.15899999999999892,0.0,0.0,1.0,55.0,616.79921,10000.0,85.000001,85.000001,85.000001,85.000001,395.0,0.0,0.0,0.0,1.0,166.665,53.68,53.68,47.714,47.714,34.0,-23.5,19.62833333333333,-34.5,27.8875,0.0,1783.262,0.495000000000001,100.0,27.541,27.361,41.848,41.946,0.0,0.0,100.0,0.0,0.0,0.0,0.0,2830.0,2818.1,4538.888888888889,4351.0,306.3016666666667,305.6625,313.78375,313.907,21.787399999999998,20.507,21.78,21.3228,314.999998,314.999998,324.999988,324.999988,99.55874285714286,99.50676666666666,99.56491428571428,99.54515714285715,0.018000000000000238,-0.11399999999999988,-0.1456666666666666,0.07683333333333331,-0.015000000000000568,-0.041666666666671404,1.4173333333333333,1.4379999999999997,37.171,29.168666666666667,37.125,34.2675,56.129000000000005,34.2705,58.8895,51.570499999999996,54.043,33.4555,57.5205,49.942,53.203,33.022,57.480000000000004,49.37733333333333,-0.03600000000000003,-0.11349999999999993,0.10272,0.11061000000000001,0.0,207.70499999999998,207.66,204.42000000000002,204.42000000000002,0.0,0.0
4,0.0,0.0,0.0,1.0,1.0,0.0,0.0,1.0,0.0,0.0,1.0,1.1856,26.0,0.0,0.0,0.0,59.999996,0.0,26.0,26.0,26.0,26.0,-0.07122222222222219,0.29380000000000006,0.006900000000000001,293.793,-2.6812,-2.7434,-1.4915500000000002,-1.5878,-262.3,215.4,190.909625,0.0,0.0,0.0,0.0,0.009366666666666667,-5.498166666666667,-5.498166666666667,-0.5329,-1.0260000000000002,-0.04211111111111121,-0.5189999999999999,66.438,-0.04169999999999996,-0.23742500000000002,0.944,100.0,1.0,1.0,205.08333333333331,0.0,0.0,0.0,0.0,0.0,0.0,0.0,8692.7,0.0,25.0,5.0,239.14666666666668,0.0,0.0,0.0,0.0,0.0,0.0,0.0,0.0,0.20700000000000074,0.20700000000000074,0.0,0.0,0.0,55.0,616.79921,10000.0,85.000001,85.000001,85.000001,85.000001,395.0,0.0,0.0,0.0,1.0,333.33500000000004,53.406,53.406,49.21,49.21,34.0,-27.412499999999998,19.673333333333332,-29.4875,22.9425,0.0,1783.212,0.5600000000000005,100.0,27.446,26.981,42.506,41.963,0.0,0.0,100.0,0.0,0.0,0.0,0.0,3157.75,2822.0,3991.8888888888887,3784.0,305.3346666666667,305.77775,315.098,315.38825,21.796599999999998,20.5117,21.79,21.3312,314.999998,314.999998,324.999988,324.999988,99.55875714285715,99.50678333333333,99.56505714285714,99.54528571428571,0.0,-0.1226666666666667,-0.1728333333333334,0.04966666666666675,-0.06666666666666998,-0.04833333333333201,1.5683333333333334,1.6055000000000001,37.227999999999994,29.198,37.188,34.32,56.111999999999995,34.307,58.93,51.6265,54.028,33.489,57.558,49.9955,53.187,33.054,57.5145,49.43,-0.031000000000000028,-0.121,0.11214500000000001,0.10089000000000001,0.0,208.09,208.025,205.08333333333331,205.08333333333331,0.0,0.0
5,0.0,0.0,0.0,1.0,1.0,0.0,0.0,1.0,0.0,0.0,1.0,1.1856,26.0,0.0,0.0,0.0,59.999996,0.0,26.0,26.0,26.0,26.0,-0.0888888888888889,0.30090000000000017,-0.04946666666666667,294.067,-2.65325,-2.7251,-1.5423499999999999,-1.5667,-258.91,215.4,190.889625,0.0,0.0,0.0,0.0,0.011333333333333334,-5.498166666666667,-5.498166666666667,-0.5406000000000001,0.636,-0.02344444444444438,0.6579999999999999,66.584,-0.0595,-0.225075,0.9639999999999995,100.0,1.0,1.0,205.62333333333333,0.0,0.0,0.0,0.0,0.0,0.0,0.0,8715.6,0.0,25.0,5.0,239.67333333333335,1.0,0.0,0.0,0.0,0.0,0.0,0.0,0.0,0.2579999999999991,0.2579999999999991,0.0,0.0,1.0,55.0,616.79921,10000.0,85.000001,85.000001,85.000001,85.000001,395.0,0.0,0.0,0.0,1.0,333.33500000000004,53.543,53.543,49.561,49.561,34.0,-24.6425,21.006666666666668,-29.495,23.345,0.0,1783.163,0.10999999999999943,100.0,27.519,26.862000000000002,42.064,41.281,0.0,0.0,100.0,0.0,0.0,0.0,0.0,2965.5,2938.1,3880.5555555555557,3965.3,305.67566666666664,305.448,315.393,315.057,21.8064,20.5168,21.8003,21.3399,314.999998,314.999998,324.999988,324.999988,99.55875714285715,99.5068,99.5652,99.54541428571429,0.023333333333333428,-0.10833333333333317,-0.1831666666666666,0.04033333333333333,-0.03166666666666629,-0.06333333333333258,1.5859999999999999,1.621,37.29,29.229666666666667,37.251999999999995,34.3745,56.097,34.348,58.967,51.6845,54.013,33.527,57.5925,50.051,53.172,33.0905,57.5465,49.48433333333333,-0.0595,-0.09299999999999997,0.109835,0.11418,0.0,208.57999999999998,208.53,205.62333333333333,205.62333333333333,0.0,0.0
6,0.0,0.0,0.0,1.0,1.0,0.0,0.0,1.0,0.0,0.0,1.0,1.1856,26.0,0.0,0.0,0.0,59.999996,0.0,26.0,26.0,26.0,26.0,-0.09866666666666657,0.2884,-0.0356,293.869,-2.6839,-2.776,-1.48805,-1.581,-255.71,215.3975,190.870125,0.0,0.0,0.0,0.0,0.0132,-5.498166666666667,-5.498166666666667,-0.5301,-0.2945,-0.04388888888888909,0.39700000000000024,66.72800000000001,-0.06369999999999998,-0.209625,0.7599999999999998,100.0,1.0,1.0,205.88,0.0,0.0,0.0,0.0,0.0,0.0,0.0,8726.5,0.0,25.0,5.0,240.19,0.0,0.0,0.0,0.0,0.0,0.0,0.0,0.0,0.30600000000000094,0.30600000000000094,0.0,0.0,0.0,55.0,616.79921,10000.0,85.000001,85.000001,85.000001,85.000001,395.0,0.0,0.0,0.0,1.0,333.33500000000004,53.894,53.894,49.103,49.103,34.0,-26.7125,19.696666666666665,-31.22,25.0275,0.0,1783.114,0.35999999999999943,100.0,27.271,26.521,42.29,41.45,0.0,0.0,100.0,0.0,0.0,0.0,0.0,3078.25,2800.4,4127.111111111111,4063.4,305.43766666666664,305.91275,314.70175,314.7475,21.8155,20.5214,21.810200000000002,21.348300000000002,314.999998,314.999998,324.999988,324.999988,99.55875714285715,99.5068,99.56532857142857,99.54555714285715,0.0030000000000001137,-0.123,-0.17633333333333334,0.04849999999999999,-0.041666666666671404,-0.04833333333333201,1.5083333333333333,1.545,37.347,29.259,37.314,34.427,56.08,34.3845,59.006,51.7435,53.997,33.5605,57.629,50.1075,53.155,33.1225,57.58,49.53966666666666,-0.044499999999999984,-0.10250000000000004,0.10651500000000001,0.10563000000000002,0.0,209.01,208.95,205.88,205.88,0.0,0.0
7,0.0,0.0,0.0,1.0,1.0,0.0,0.0,1.0,0.0,0.0,1.0,1.1856,26.0,0.0,0.0,0.0,59.999996,0.0,26.0,26.0,26.0,26.0,-0.07177777777777783,0.30269999999999997,-0.0049,293.839,-2.68955,-2.7697,-1.5429,-1.537,-252.3,215.39249999999998,190.849375,0.0,0.0,0.0,0.0,0.0152,-5.498166666666667,-5.498166666666667,-0.5347000000000001,0.15600000000000003,-0.03588888888888908,-0.23699999999999988,66.874,-0.06629999999999991,-0.218725,0.5499999999999998,100.0,1.0,1.0,206.39,0.0,0.0,0.0,0.0,0.0,0.0,0.0,8748.1,0.0,25.0,5.0,240.71666666666667,1.0,0.0,0.0,0.0,0.0,0.0,0.0,0.0,0.3569999999999993,0.3569999999999993,0.0,0.0,1.0,55.0,616.79921,10000.0,85.000001,85.000001,85.000001,85.000001,395.0,0.0,0.0,0.0,1.0,166.665,53.604,53.604,49.072,49.072,34.0,-26.5575,21.005,-32.412499999999994,22.69,0.0,1783.064,-0.08999999999999986,100.0,27.353,26.772,42.269,41.497,0.0,0.0,100.0,0.0,0.0,0.0,0.0,3155.875,2819.6,4133.666666666667,3957.8,305.32233333333335,305.675,314.81275,315.02625,21.8254,20.5266,21.8207,21.3572,314.999998,314.999998,324.999988,324.999988,99.55875714285715,99.50681666666667,99.56547142857143,99.54568571428571,0.02300000000000013,-0.09633333333333316,-0.1928333333333333,0.031166666666666787,-0.060000000000002274,-0.05666666666667197,1.561,1.5739999999999998,37.409,29.291,37.379999999999995,34.4825,56.065,34.4245,59.046,51.803,53.982,33.5975,57.6665,50.165,53.14,33.158,57.6145,49.596000000000004,-0.08650000000000002,-0.05899999999999994,0.10862500000000001,0.10270000000000001,0.0,209.48000000000002,209.405,206.39,206.39,0.0,0.0
8,0.0,0.0,0.0,1.0,1.0,0.0,0.0,1.0,0.0,0.0,1.0,1.1856,26.0,0.0,0.0,0.0,59.999996,0.0,26.0,26.0,26.0,26.0,-0.06777777777777783,0.2922,-0.020766666666666666,293.945,-2.69365,-2.7142,-1.5484499999999999,-1.5988,-248.89,215.385,190.828875,0.0,0.0,0.0,0.0,0.017166666666666667,-5.498166666666667,-5.498166666666667,-0.5357000000000001,-0.028999999999999915,-0.029666666666666952,0.28200000000000003,67.021,-0.05369999999999997,-0.221,0.19200000000000017,100.0,1.0,1.0,206.86,0.0,0.0,0.0,0.0,0.0,0.0,0.0,8768.0,0.0,25.0,5.0,241.24666666666667,0.0,0.0,0.0,0.0,0.0,0.0,0.0,0.0,0.40800000000000125,0.40800000000000125,0.0,0.0,0.0,55.0,616.79921,10000.0,85.000001,85.000001,85.000001,85.000001,395.0,0.0,0.0,0.0,1.0,333.33500000000004,53.802,53.802,48.888999999999996,48.888999999999996,34.0,-24.56,22.36333333333333,-29.925,25.0375,0.0,1783.012,-0.1349999999999998,100.0,27.181,26.618,42.321,41.53,0.0,0.0,100.0,0.0,0.0,0.0,0.0,2979.75,3002.2,4019.0,3945.3,305.725,305.299,315.01775,315.04875,21.8351,20.5317,21.8312,21.3662,314.999998,314.999998,324.999988,324.999988,99.55875714285715,99.50683333333333,99.56561428571429,99.54584285714286,0.03500000000000014,-0.08466666666666667,-0.16049999999999998,0.06400000000000006,-0.036666666666668846,-0.061666666666667425,1.5663333333333334,1.5755,37.47,29.323333333333334,37.445,34.5385,56.048,34.4645,59.085499999999996,51.8645,53.967,33.6345,57.703,50.224000000000004,53.123999999999995,33.1935,57.6485,49.653666666666666,-0.08250000000000002,-0.05750000000000011,0.09992000000000001,0.105325,0.0,209.905,209.885,206.86,206.86,0.0,0.0
9,0.0,0.0,0.0,1.0,1.0,0.0,0.0,1.0,0.0,0.0,1.0,1.1856,26.0,0.0,0.0,0.0,59.999996,0.0,26.0,26.0,26.0,26.0,-0.0461111111111111,0.3022,0.0066,293.793,-2.67535,-2.7298999999999998,-1.53445,-1.5545,-245.67000000000002,215.3775,190.809125,0.0,0.0,0.0,0.0,0.019033333333333336,-5.498166666666667,-5.498166666666667,-0.5322,0.1915,-0.037555555555555564,0.7240000000000002,67.16,-0.04259999999999997,-0.2124,0.0600000000000005,100.0,1.0,1.0,207.24333333333334,0.0,0.0,0.0,0.0,0.0,0.0,0.0,8784.3,0.0,25.0,5.0,241.74333333333334,1.0,0.0,0.0,0.0,0.0,0.0,0.0,0.0,0.4559999999999995,0.4559999999999995,0.0,0.0,1.0,55.0,616.79921,10000.0,85.000001,85.000001,85.000001,85.000001,395.0,0.0,0.0,0.0,1.0,333.33500000000004,53.604,53.604,49.132999999999996,49.132999999999996,34.0,-24.445,23.471666666666664,-29.185,26.255,0.0,1782.964,-0.3200000000000003,100.0,27.293,26.546,42.253,41.564,0.0,0.0,100.0,0.0,0.0,0.0,0.0,3057.5,3016.6,4014.3333333333335,4094.1000000000004,305.4576666666667,305.275,315.0555,314.72,21.8443,20.5366,21.841,21.3745,314.999998,314.999998,324.999988,324.999988,99.55877142857143,99.50683333333333,99.56575714285714,99.54597142857143,0.052999999999999936,-0.06366666666666676,-0.15033333333333332,0.07699999999999996,-0.04833333333333201,-0.05333333333332746,1.5663333333333334,1.5675,37.527,29.353666666666665,37.506,34.591,56.034,34.5015,59.1225,51.9215,53.953,33.6685,57.7375,50.2785,53.108999999999995,33.2255,57.6805,49.707,-0.09650000000000003,-0.04600000000000004,0.10416500000000001,0.10805500000000001,0.0,210.32999999999998,210.31,207.24333333333334,207.24333333333334,0.0,0.0
10,0.0,0.0,0.0,1.0,1.0,0.0,0.0,1.0,0.0,0.0,1.0,1.1856,26.0,0.0,0.0,0.0,59.999996,0.0,26.0,26.0,26.0,26.0,-0.005555555555555536,0.2874000000000001,0.0012333333333333335,293.655,-2.6895,-2.7006,-1.553,-1.5399,-242.24,215.3675,190.788125,0.0,0.0,0.0,0.0,0.021033333333333334,-5.498166666666667,-5.498166666666667,-0.5285000000000001,-0.26150000000000007,-0.015000000000000124,-0.1279999999999999,67.306,-0.027999999999999914,-0.2117,-0.14399999999999924,100.0,1.0,1.0,207.63666666666666,0.0,0.0,0.0,0.0,0.0,0.0,0.0,8800.9,0.0,25.0,5.0,242.27333333333334,0.0,0.0,0.0,0.0,0.0,0.0,1.0,0.0,0.5069999999999979,0.5069999999999979,0.0,0.0,0.0,55.0,616.79921,10000.0,85.000001,85.000001,85.000001,85.000001,395.0,0.0,0.0,0.0,1.0,333.33500000000004,53.802,53.802,48.798,48.798,34.0,-23.9975,22.786666666666665,-30.134999999999998,27.392500000000002,0.0,1782.912,-0.42499999999999893,100.0,27.113,26.727,42.338,42.028,0.0,0.0,100.0,0.0,0.0,0.0,0.0,3056.625,2906.7,4103.0,4159.5,305.6476666666667,305.449,314.88,314.453,21.8541,20.5417,21.8515,21.3836,314.999998,314.999998,324.999988,324.999988,99.55877142857143,99.50685,99.5659,99.54611428571428,0.06099999999999994,-0.05433333333333312,-0.14633333333333332,0.0858333333333332,-0.03333333333333144,-0.04333333333332945,1.5283333333333333,1.508,37.588,29.386,37.572,34.647,56.019,34.5385,59.1625,51.9835,53.939,33.703,57.775,50.338,53.094,33.2585,57.7145,49.76533333333333,-0.10749999999999993,-0.03499999999999992,0.11170000000000001,0.10626000000000001,0.0,210.765,210.76999999999998,207.63666666666666,207.63666666666666,0.0,0.0
11,0.0,0.0,0.0,1.0,1.0,0.0,0.0,1.0,0.0,0.0,1.0,1.1856,26.0,0.0,0.0,0.0,59.999996,0.0,26.0,26.0,26.0,26.0,0.022555555555555662,0.29469999999999996,-0.03743333333333333,293.93,-2.72365,-2.6963,-1.5580500000000002,-1.5138,-238.6,215.35750000000002,190.76575,0.0,0.0,0.0,0.0,0.022600000000000002,-5.498166666666667,-5.498166666666667,-0.5498000000000001,-0.2330000000000001,0.009666666666666712,-0.5429999999999999,67.459,-0.011399999999999966,-0.223725,-0.2779999999999996,100.0,1.0,1.0,208.19,0.0,0.0,0.0,0.0,0.0,0.0,0.0,8824.5,0.0,25.0,5.0,242.82333333333332,1.0,0.0,0.0,0.0,0.0,0.0,1.0,0.0,0.5609999999999999,0.5609999999999999,0.0,0.0,1.0,55.0,616.79921,10000.0,85.000001,85.000001,85.000001,85.000001,395.0,0.0,0.0,0.0,1.0,166.665,53.757,53.757,49.286,49.286,34.0,-23.685,24.346666666666664,-27.0825,26.4525,0.0,1782.86,-0.6799999999999997,100.0,26.821,26.769,42.008,42.021,0.0,0.0,100.0,0.0,0.0,0.0,0.0,3074.125,3015.0,3909.0,4019.4,305.62333333333333,305.104,315.35775,314.82375,21.8643,20.5473,21.8625,21.3931,314.999998,314.999998,324.999988,324.999988,99.55878571428572,99.50685,99.56604285714286,99.54627142857143,0.07900000000000018,-0.03933333333333322,-0.12149999999999994,0.10299999999999998,-0.04833333333333201,-0.04999999999999716,1.58,1.5884999999999998,37.652,29.420666666666666,37.64,34.7065,56.003,34.579,59.201499999999996,52.048,53.923,33.74,57.8115,50.4005,53.078,33.294,57.748,49.82633333333334,-0.11649999999999994,-0.02100000000000013,0.10622500000000001,0.10506000000000001,0.0,211.23000000000002,211.24,208.19,208.19,0.0,0.0
12,0.0,0.0,0.0,1.0,1.0,0.0,0.0,1.0,0.0,0.0,1.0,1.1856,26.0,0.0,0.0,0.0,59.999996,0.0,26.0,26.0,26.0,26.0,0.02633333333333332,0.2924,0.013866666666666666,293.549,-2.71485,-2.6814,-1.5739,-1.5292,-235.36,215.3475,190.745125,0.0,0.0,0.0,0.0,0.025466666666666665,-5.498166666666667,-5.498166666666667,-0.5384,0.36049999999999993,0.014111111111110963,-0.9769999999999999,67.595,0.0050000000000001155,-0.204075,-0.39399999999999924,100.0,1.0,1.0,208.53333333333333,0.0,0.0,0.0,0.0,0.0,0.0,0.0,8839.0,0.0,25.0,5.0,243.31333333333333,0.0,0.0,0.0,0.0,0.0,0.0,1.0,0.0,0.6089999999999982,0.6089999999999982,0.0,0.0,0.0,55.0,616.79921,10000.0,85.000001,85.000001,85.000001,85.000001,395.0,0.0,0.0,0.0,1.0,166.665,53.497,53.497,48.599000000000004,48.599000000000004,34.0,-23.55,24.098333333333333,-28.5625,29.125,0.0,1782.812,-0.375,100.0,26.929,27.12,41.907,42.065,0.0,0.0,100.0,0.0,0.0,0.0,0.0,3048.75,3045.7,4133.0,4193.1,305.67633333333333,304.988,314.86225,314.41975,21.8734,20.5523,21.8722,21.4015,314.999998,314.999998,324.999988,324.999988,99.5588,99.50686666666667,99.56618571428571,99.5464,0.07533333333333347,-0.050000000000000044,-0.10716666666666663,0.1186666666666667,-0.06333333333333258,-0.03333333333333144,1.544,1.5234999999999999,37.709,29.451999999999998,37.701,34.7595,55.989999999999995,34.6155,59.237,52.106,53.911,33.774,57.8445,50.4555,53.065,33.326499999999996,57.778,49.88066666666667,-0.09899999999999998,-0.04499999999999993,0.10866500000000001,0.10618500000000002,0.0,211.675,211.685,208.53333333333333,208.53333333333333,0.0,0.0
13,0.0,0.0,0.0,1.0,1.0,0.0,0.0,1.0,0.0,0.0,1.0,1.1856,26.0,0.0,0.0,0.0,59.999996,0.0,26.0,26.0,26.0,26.0,0.04455555555555568,0.29000000000000004,0.0106,293.381,-2.7021,-2.6954,-1.5929,-1.5369,-232.11,215.34,190.72475,0.0,0.0,0.0,0.0,0.026933333333333333,-5.498166666666667,-5.498166666666667,-0.5371,-0.3135000000000001,0.010444444444444256,-0.5920000000000001,67.731,0.009400000000000075,-0.215125,-0.33999999999999986,100.0,1.0,1.0,208.89666666666668,0.0,0.0,0.0,0.0,0.0,0.0,0.0,8854.3,0.0,25.0,5.0,243.80333333333334,1.0,0.0,0.0,0.0,0.0,0.0,1.0,0.0,0.657,0.657,0.0,0.0,1.0,55.0,616.79921,10000.0,85.000001,85.000001,85.000001,85.000001,395.0,0.0,0.0,0.0,1.0,333.33500000000004,53.436,53.436,48.584,48.584,34.0,-22.74,24.645,-28.285,29.6125,0.0,1782.763,-0.40499999999999936,100.0,27.09,27.169,42.207,42.456,0.0,0.0,100.0,0.0,0.0,0.0,0.0,3067.5,2983.1,4116.666666666667,4202.9,305.622,305.19425,314.8705,314.36675,21.8824,20.5573,21.8821,21.4101,314.999998,314.999998,324.999988,324.999988,99.5588,99.50686666666667,99.56632857142857,99.54654285714285,0.09600000000000009,-0.024666666666666615,-0.09750000000000003,0.12233333333333318,-0.05666666666667197,-0.046666666666666856,1.5333333333333334,1.5105,37.765,29.483333333333334,37.763,34.8135,55.977000000000004,34.650999999999996,59.2745,52.1655,53.899,33.8065,57.8795,50.513,53.052,33.3585,57.8105,49.93666666666667,-0.10899999999999999,-0.03200000000000003,0.10505500000000001,0.10522000000000001,0.0,212.09,212.07999999999998,208.89666666666668,208.89666666666668,0.0,0.0
14,0.0,0.0,0.0,1.0,1.0,0.0,0.0,1.0,0.0,0.0,1.0,1.1856,26.0,0.0,0.0,0.0,59.999996,0.0,26.0,26.0,26.0,26.0,0.056777777777777816,0.2948000000000002,-0.052066666666666664,293.655,-2.7500999999999998,-2.7072,-1.59325,-1.5328,-228.45,215.32999999999998,190.701875,0.0,0.0,0.0,0.0,0.02906666666666667,-5.498166666666667,-5.498166666666667,-0.5491,-0.008499999999999952,0.023111111111111082,-0.538,67.881,0.017300000000000093,-0.221975,-0.38200000000000056,100.0,1.0,1.0,209.46666666666667,0.0,0.0,0.0,0.0,0.0,0.0,0.0,8878.5,0.0,25.0,5.0,244.34333333333336,0.0,0.0,0.0,0.0,0.0,0.0,1.0,0.0,0.7109999999999985,0.7109999999999985,0.0,0.0,0.0,55.0,616.79921,10000.0,85.000001,85.000001,85.000001,85.000001,395.0,0.0,0.0,0.0,1.0,166.665,53.543,53.543,48.996,48.996,34.0,-23.345,23.993333333333332,-26.5225,28.75,0.0,1782.71,-0.4299999999999997,100.0,27.071,27.252,42.082,42.45,0.0,0.0,100.0,0.0,0.0,0.0,0.0,3070.125,2938.4,3983.0,4024.4,305.6886666666667,305.2925,315.21025,314.799,21.8925,20.563,21.893,21.4197,314.999998,314.999998,324.999988,324.999988,99.55882857142858,99.50686666666667,99.56647142857143,99.54668571428572,0.09066666666666645,-0.03433333333333333,-0.08883333333333332,0.14050000000000007,-0.07000000000000028,-0.03999999999999915,1.5856666666666666,1.5604999999999998,37.828,29.519,37.831,34.873,55.963,34.6915,59.314,52.230000000000004,53.885,33.844,57.916,50.575,53.037,33.394,57.8435,49.99766666666667,-0.10549999999999993,-0.03950000000000009,0.104135,0.11336,0.0,212.555,212.555,209.46666666666667,209.46666666666667,0.0,0.0
15,0.0,0.0,0.0,1.0,1.0,0.0,0.0,1.0,0.0,0.0,1.0,1.1856,26.0,0.0,0.0,0.0,59.999996,0.0,26.0,26.0,26.0,26.0,0.043888888888888866,0.28570000000000007,-0.020300000000000002,293.488,-2.6789,-2.6936,-1.6029499999999999,-1.557,-225.39,215.325,190.6825,0.0,0.0,0.0,0.0,0.030833333333333334,-5.498166666666667,-5.498166666666667,-0.5409,0.20499999999999996,0.030777777777777793,0.7930000000000001,68.007,0.019200000000000106,-0.20855,-0.41600000000000037,100.0,1.0,1.0,209.81,0.0,0.0,0.0,0.0,0.0,0.0,0.0,8893.0,0.0,25.0,5.0,244.79666666666668,1.0,0.0,0.0,0.0,0.0,0.0,1.0,0.0,0.7560000000000002,0.7560000000000002,0.0,0.0,1.0,55.0,616.79921,10000.0,85.000001,85.000001,85.000001,85.000001,395.0,0.0,0.0,0.0,1.0,166.665,53.513,53.513,48.66,48.66,34.0,-20.9225,25.105,-26.78,29.990000000000002,0.0,1782.665,-0.375,100.0,27.326,27.240000000000002,42.169,42.494,0.0,0.0,100.0,0.0,0.0,0.0,0.0,2892.25,3037.1,4041.222222222222,4126.8,305.95633333333336,305.178,315.0355,314.63975,21.9009,20.5678,21.9022,21.4277,314.999998,314.999998,324.999988,324.999988,99.55882857142858,99.50686666666667,99.5666,99.54682857142858,0.10433333333333339,-0.020999999999999908,-0.07799999999999996,0.14100000000000001,-0.03833333333332689,-0.05833333333333002,1.5510000000000002,1.5364999999999998,37.881,29.548666666666666,37.888999999999996,34.923,55.952,34.725,59.347,52.285,53.873999999999995,33.875,57.9465,50.628,53.025,33.424,57.8715,50.04933333333334,-0.10399999999999998,-0.044499999999999984,0.10468000000000001,0.10712500000000001,0.0,212.94,212.96,209.81,209.81,0.0,0.0
16,0.0,0.0,0.0,1.0,1.0,0.0,0.0,1.0,0.0,0.0,1.0,1.1856,26.0,0.0,0.0,0.0,59.999996,0.0,26.0,26.0,26.0,26.0,0.0494444444444444,0.2822,-0.012833333333333335,293.243,-2.7145,-2.6314,-1.58495,-1.553,-221.92000000000002,215.3175,190.660375,0.0,0.0,0.0,0.0,0.03286666666666667,-5.498166666666667,-5.498166666666667,-0.5515,-0.20599999999999996,0.019555555555555548,-1.002,68.149,0.02100000000000013,-0.22362500000000002,-0.26200000000000045,100.0,1.0,1.0,210.24666666666667,0.0,0.0,0.0,0.0,0.0,0.0,0.0,8911.6,0.0,25.0,5.0,245.30666666666667,0.0,0.0,0.0,0.0,0.0,0.0,1.0,0.0,0.8069999999999986,0.8069999999999986,0.0,0.0,0.0,55.0,616.79921,10000.0,85.000001,85.000001,85.000001,85.000001,395.0,0.0,0.0,0.0,1.0,333.33500000000004,53.009,53.009,48.34,48.34,34.0,-23.33,25.401666666666667,-27.1125,28.212500000000002,0.0,1782.612,-0.3100000000000005,100.0,27.139,27.552,42.323,42.727000000000004,0.0,0.0,100.0,0.0,0.0,0.0,0.0,3102.25,3122.9,4040.4444444444443,3970.4,305.49066666666664,304.77175,315.028,314.9515,21.9103,20.5733,21.9126,21.436799999999998,314.999998,314.999998,324.999988,324.999988,99.55884285714286,99.50688333333333,99.56674285714286,99.54697142857142,0.09333333333333371,-0.024666666666666615,-0.08899999999999997,0.13349999999999995,-0.07000000000000028,-0.045000000000001705,1.548,1.5575,37.94,29.583,37.954,34.980000000000004,55.938,34.7635,59.3855,52.347,53.861000000000004,33.911,57.983000000000004,50.6875,53.010999999999996,33.458,57.9045,50.108000000000004,-0.09550000000000003,-0.043500000000000094,0.107615,0.10763500000000001,0.0,213.38,213.37,210.24666666666667,210.24666666666667,0.0,0.0
17,0.0,0.0,0.0,1.0,1.0,0.0,0.0,1.0,0.0,0.0,1.0,1.1856,26.0,0.0,0.0,0.0,59.999996,0.0,26.0,26.0,26.0,26.0,0.04366666666666674,0.28310000000000013,0.008466666666666667,293.121,-2.66445,-2.7268,-1.54315,-1.5753,-218.44,215.3125,190.638,0.0,0.0,0.0,0.0,0.03486666666666667,-5.498166666666667,-5.498166666666667,-0.548,0.11849999999999994,-0.0013333333333331865,0.42900000000000027,68.28999999999999,0.019100000000000117,-0.21615,-0.25200000000000067,100.0,1.0,1.0,210.62,0.0,0.0,0.0,0.0,0.0,0.0,0.0,8927.4,0.0,25.0,5.0,245.81666666666666,1.0,0.0,0.0,0.0,0.0,0.0,1.0,0.0,0.8580000000000005,0.8580000000000005,0.0,0.0,1.0,55.0,616.79921,10000.0,85.000001,85.000001,85.000001,85.000001,395.0,0.0,0.0,0.0,1.0,166.665,53.192,53.192,48.187,48.187,34.0,-21.669999999999998,25.183333333333334,-26.822499999999998,30.695,0.0,1782.563,-0.20999999999999908,100.0,27.485,27.463,42.463,42.641999999999996,0.0,0.0,100.0,0.0,0.0,0.0,0.0,2940.5,3036.5,4103.888888888889,4189.9,305.77166666666665,305.08575,314.807,314.47125,21.9198,20.5787,21.923000000000002,21.4458,314.999998,314.999998,324.999988,324.999988,99.55885714285715,99.50688333333333,99.56688571428572,99.54711428571429,0.0943333333333336,-0.02933333333333321,-0.08050000000000002,0.1373333333333333,-0.04333333333332945,-0.054999999999999716,1.5213333333333334,1.5204999999999997,37.998999999999995,29.616999999999997,38.019,35.036500000000004,55.924,34.8025,59.4235,52.408500000000004,53.848,33.9465,58.018,50.747,52.997,33.4925,57.937,50.166,-0.09199999999999997,-0.05750000000000011,0.10608000000000001,0.103715,0.0,213.82,213.825,210.62,210.62,0.0,0.0
18,0.0,0.0,0.0,1.0,1.0,0.0,0.0,1.0,0.0,0.0,1.0,1.1856,26.0,0.0,0.0,0.0,59.999996,0.0,26.0,26.0,26.0,26.0,0.03699999999999992,0.26550000000000007,0.0014666666666666667,293.198,-2.66065,-2.7509,-1.5283,-1.5849,-215.16,215.31,190.61675,0.0,0.0,0.0,0.0,0.03676666666666667,-5.498166666666667,-5.498166666666667,-0.5598000000000001,-0.33350000000000013,0.001777777777777878,0.9060000000000001,68.422,0.01550000000000007,-0.2247,-0.18200000000000038,100.0,1.0,1.0,211.04333333333335,0.0,0.0,0.0,0.0,0.0,0.0,0.0,8945.3,0.0,25.0,5.0,246.29333333333335,0.0,0.0,0.0,0.0,0.0,0.0,1.0,0.0,0.9059999999999988,0.9059999999999988,0.0,0.0,0.0,55.0,616.79921,10000.0,85.000001,85.000001,85.000001,85.000001,395.0,0.0,0.0,0.0,1.0,333.33500000000004,53.162,53.162,48.538,48.538,34.0,-22.099999999999998,25.411666666666665,-26.0675,29.9925,0.0,1782.513,-0.1850000000000005,100.0,27.488,27.343,42.57,42.775999999999996,0.0,0.0,100.0,0.0,0.0,0.0,0.0,2983.25,3071.1,3958.222222222222,4110.3,305.68766666666664,305.032,315.1355,314.61725,21.9287,20.5838,21.9328,21.4544,314.999998,314.999998,324.999988,324.999988,99.55887142857142,99.50688333333333,99.56702857142857,99.54724285714286,0.09100000000000019,-0.03533333333333322,-0.09116666666666662,0.133,-0.046666666666666856,-0.030000000000001137,1.5156666666666667,1.5215,38.054,29.648333333333333,38.08,35.09,55.911,34.8375,59.4595,52.466499999999996,53.835,33.979,58.0515,50.8025,52.983999999999995,33.524,57.9675,50.220333333333336,-0.08850000000000002,-0.05750000000000011,0.110475,0.10831,0.0,214.2,214.20499999999998,211.04333333333335,211.04333333333335,0.0,0.0
19,0.0,0.0,0.0,1.0,1.0,0.0,0.0,1.0,0.0,0.0,1.0,1.1856,26.0,0.0,0.0,0.0,59.999996,0.0,26.0,26.0,26.0,26.0,0.04788888888888887,0.2783,-0.03013333333333333,293.03,-2.7356,-2.7107,-1.5299,-1.5995,-211.67000000000002,215.305,190.593875,0.0,0.0,0.0,0.0,0.0388,-5.498166666666667,-5.498166666666667,-0.5481,0.48450000000000004,0.010000000000000009,-0.8109999999999999,68.561,0.007000000000000117,-0.2104,0.043999999999999595,100.0,1.0,1.0,211.48000000000002,0.0,0.0,0.0,0.0,0.0,0.0,0.0,8963.8,0.0,25.0,5.0,246.79333333333335,1.0,0.0,0.0,0.0,0.0,0.0,1.0,0.0,0.9570000000000007,0.9570000000000007,0.0,0.0,1.0,55.0,616.79921,10000.0,85.000001,85.000001,85.000001,85.000001,395.0,0.0,0.0,0.0,1.0,166.665,52.933,52.933,48.522999999999996,48.522999999999996,34.0,-24.2575,23.308333333333334,-27.425,28.8425,0.0,1782.465,-0.17999999999999972,100.0,27.689,27.82,42.378,42.863,0.0,0.0,100.0,0.0,0.0,0.0,0.0,3132.75,2914.4,4083.222222222222,4080.1000000000004,305.53933333333333,305.3125,314.9585,314.63875,21.938299999999998,20.5893,21.9431,21.4635,314.999998,314.999998,324.999988,324.999988,99.55887142857142,99.5069,99.56717142857143,99.5474,0.07900000000000018,-0.04933333333333323,-0.10166666666666657,0.11116666666666686,-0.046666666666666856,-0.054999999999999716,1.5263333333333335,1.5339999999999998,38.114000000000004,29.683,38.144999999999996,35.147,55.899,34.8775,59.496,52.528,53.824,34.016,58.085499999999996,50.8615,52.971000000000004,33.5595,57.998,50.278333333333336,-0.09050000000000002,-0.05600000000000005,0.09479000000000001,0.10592000000000001,0.0,214.675,214.685,211.48000000000002,211.48000000000002,0.0,0.0
20,0.0,0.0,0.0,1.0,1.0,0.0,0.0,1.0,0.0,0.0,1.0,1.1856,26.0,0.0,0.0,0.0,59.999996,0.0,26.0,26.0,26.0,26.0,0.0016666666666667052,0.26370000000000005,-0.0472,293.03,-2.70525,-2.6725,-1.6001500000000002,-1.536,-208.17000000000002,215.3025,190.571375,0.0,0.0,0.0,0.0,0.04083333333333333,-5.498166666666667,-5.498166666666667,-0.5566,-0.647,0.008000000000000007,0.6000000000000001,68.701,0.0030000000000001137,-0.22610000000000002,-0.08399999999999963,100.0,1.0,1.0,211.9,0.0,0.0,0.0,0.0,0.0,0.0,0.0,8981.6,0.0,25.0,5.0,247.29666666666668,0.0,0.0,0.0,0.0,0.0,0.0,0.0,0.0,1.0079999999999991,1.0079999999999991,0.0,0.0,0.0,55.0,616.79921,10000.0,85.000001,85.000001,85.000001,85.000001,395.0,0.0,0.0,0.0,1.0,333.33500000000004,53.101,53.101,47.974000000000004,47.974000000000004,34.0,-22.7125,24.611666666666665,-28.2,27.8675,0.0,1782.411,-0.20999999999999908,100.0,27.573,27.448999999999998,42.968,43.096000000000004,0.0,0.0,100.0,0.0,0.0,0.0,0.0,2976.125,3108.2,4045.777777777778,4025.2,305.74666666666667,305.01425,314.94975,314.9335,21.9476,20.5947,21.9536,21.4727,314.999998,314.999998,324.999988,324.999988,99.55888571428571,99.5069,99.56732857142858,99.54754285714286,0.08366666666666678,-0.04400000000000004,-0.10333333333333339,0.12183333333333324,-0.03999999999999915,-0.05833333333333002,1.546,1.5284999999999997,38.173,29.716666666666665,38.21,35.204499999999996,55.884,34.916,59.5355,52.5905,53.809,34.0515,58.1225,50.922,52.956,33.5935,58.032,50.33733333333333,-0.09450000000000003,-0.0625,0.108475,0.103595,0.0,215.065,215.065,211.9,211.9,0.0,0.0
21,0.0,0.0,0.0,1.0,1.0,0.0,0.0,1.0,0.0,0.0,1.0,1.1856,26.0,0.0,0.0,0.0,59.999996,0.0,26.0,26.0,26.0,26.0,0.024222222222222145,0.2775000000000001,-0.022433333333333336,293.045,-2.7022,-2.725,-1.5622,-1.5246,-204.66,215.3,190.54825,0.0,0.0,0.0,0.0,0.0429,-5.498166666666667,-5.498166666666667,-0.5709000000000001,0.1895,0.000888888888888939,-0.698,68.838,0.0021999999999999797,-0.220025,-0.012000000000000455,100.0,1.0,1.0,212.37666666666667,0.0,0.0,0.0,0.0,0.0,0.0,0.0,9001.9,0.0,25.0,5.0,247.78666666666666,1.0,0.0,0.0,0.0,0.0,0.0,0.0,0.0,1.059000000000001,1.059000000000001,0.0,0.0,1.0,55.0,616.79921,10000.0,85.000001,85.000001,85.000001,85.000001,395.0,0.0,0.0,0.0,1.0,166.665,52.872,52.872,48.507999999999996,48.507999999999996,34.0,-24.5275,24.695,-27.7175,27.01,0.0,1782.362,-0.20500000000000007,100.0,27.498,27.546,42.563,42.851,0.0,0.0,100.0,0.0,0.0,0.0,0.0,3179.5,3056.7,4026.3333333333335,4043.7,305.34066666666666,304.929,315.12325,314.84825,21.9571,20.6001,21.9639,21.4817,314.999998,314.999998,324.999988,324.999988,99.5589,99.50691666666667,99.56747142857142,99.54768571428572,0.0773333333333337,-0.04899999999999993,-0.1123333333333334,0.1060000000000001,-0.054999999999999716,-0.036666666666668846,1.5710000000000002,1.564,38.232,29.750999999999998,38.275,35.2605,55.870000000000005,34.955,59.5715,52.6495,53.796,34.088,58.156,50.9785,52.942,33.628,58.0625,50.393,-0.09499999999999997,-0.05750000000000011,0.10182000000000001,0.10128000000000001,0.0,215.53,215.5,212.37666666666667,212.37666666666667,0.0,0.0
22,0.0,0.0,0.0,1.0,1.0,0.0,0.0,1.0,0.0,0.0,1.0,1.1856,26.0,0.0,0.0,0.0,59.999996,0.0,26.0,26.0,26.0,26.0,0.013222222222222246,0.28490000000000015,0.03963333333333333,292.526,-2.7676,-2.6678,-1.5686,-1.5846,-201.35,215.2975,190.525625,0.0,0.0,0.0,0.0,0.0448,-5.498166666666667,-5.498166666666667,-0.5565,-0.009500000000000064,0.006555555555555648,-0.6379999999999999,68.97,0.0029000000000001247,-0.2019,-0.10599999999999987,100.0,1.0,1.0,212.60666666666668,0.0,0.0,0.0,0.0,0.0,0.0,0.0,9011.7,0.0,25.0,5.0,248.26333333333332,0.0,0.0,0.0,0.0,0.0,0.0,0.0,0.0,1.1069999999999993,1.1069999999999993,0.0,0.0,0.0,55.0,616.79921,10000.0,85.000001,85.000001,85.000001,85.000001,395.0,0.0,0.0,0.0,1.0,333.33500000000004,52.765,52.765,47.668,47.668,34.0,-24.982499999999998,24.178333333333335,-30.68,30.9575,0.0,1782.313,-0.23499999999999943,100.0,27.553,27.641,42.769999999999996,43.078,0.0,0.0,100.0,0.0,0.0,0.0,0.0,3217.875,3070.4,4321.888888888889,4291.3,305.256,304.966,314.4315,314.1575,21.966,20.6053,21.9738,21.4903,314.999998,314.999998,324.999988,324.999988,99.55891428571428,99.50691666666667,99.5676,99.54782857142857,0.08833333333333337,-0.050000000000000044,-0.1123333333333334,0.11616666666666675,-0.046666666666666856,-0.030000000000001137,1.4809999999999999,1.4739999999999998,38.288,29.783,38.336,35.314499999999995,55.858000000000004,34.992,59.6085,52.707499999999996,53.784,34.1215,58.19,51.0345,52.929,33.6605,58.094,50.44766666666666,-0.10499999999999998,-0.05249999999999999,0.10691500000000001,0.10806500000000001,0.0,215.925,215.905,212.60666666666668,212.60666666666668,0.0,0.0
23,0.0,0.0,0.0,1.0,1.0,0.0,0.0,1.0,0.0,0.0,1.0,1.1856,26.0,0.0,0.0,0.0,59.999996,0.0,26.0,26.0,26.0,26.0,0.002666666666666595,0.28859999999999997,0.0038333333333333336,292.618,-2.6647,-2.6947,-1.52855,-1.5354,-197.82999999999998,215.29500000000002,190.502,0.0,0.0,0.0,0.0,0.04686666666666667,-5.498166666666667,-5.498166666666667,-0.5718,-0.33499999999999996,0.008999999999999897,0.9540000000000002,69.106,0.005700000000000038,-0.22595,-0.19599999999999973,100.0,1.0,1.0,213.07666666666665,0.0,0.0,0.0,0.0,0.0,0.0,0.0,9031.6,0.0,25.0,5.0,248.75333333333333,1.0,0.0,0.0,0.0,0.0,0.0,0.0,0.0,1.1580000000000013,1.1580000000000013,0.0,0.0,1.0,55.0,616.79921,10000.0,85.000001,85.000001,85.000001,85.000001,395.0,0.0,0.0,0.0,1.0,166.665,52.78,52.78,47.791,47.791,34.0,-22.61,24.638333333333335,-27.7225,30.215,0.0,1782.264,-0.254999999999999,100.0,27.896,27.584,43.088,43.167,0.0,0.0,100.0,0.0,0.0,0.0,0.0,3040.0,3095.8,4125.777777777777,4226.0,305.4943333333333,305.00525,314.699,314.4525,21.9755,20.6108,21.9842,21.4995,314.999998,314.999998,324.999988,324.999988,99.55892857142857,99.50691666666667,99.56775714285715,99.54797142857143,0.09266666666666667,-0.04699999999999993,-0.09599999999999997,0.13316666666666666,-0.041666666666671404,-0.06499999999999773,1.5186666666666666,1.517,38.347,29.817333333333334,38.400999999999996,35.372,55.844,35.0315,59.6465,52.7695,53.772,34.158,58.226,51.094,52.915,33.695499999999996,58.1265,50.50566666666667,-0.09950000000000003,-0.05950000000000011,0.09675,0.11592000000000001,0.0,216.315,216.345,213.07666666666665,213.07666666666665,0.0,0.0
24,0.0,0.0,0.0,1.0,1.0,0.0,0.0,1.0,0.0,0.0,1.0,1.1856,26.0,0.0,0.0,0.0,59.999996,0.0,26.0,26.0,26.0,26.0,0.015111111111111075,0.2714000000000001,-0.05896666666666667,293.106,-2.7171,-2.694,-1.545,-1.5483,-194.51,215.29250000000002,190.47925,0.0,0.0,0.0,0.0,0.0488,-5.498166666666667,-5.498166666666667,-0.5861000000000001,-0.4285000000000001,0.01966666666666672,0.9980000000000002,69.233,0.0049000000000001265,-0.22055000000000002,-0.18799999999999972,100.0,1.0,1.0,213.52666666666667,0.0,0.0,0.0,0.0,0.0,0.0,0.0,9050.5,0.0,25.0,5.0,249.21333333333334,0.0,0.0,0.0,0.0,0.0,0.0,0.0,0.0,1.2059999999999995,1.2059999999999995,0.0,0.0,0.0,55.0,616.79921,10000.0,85.000001,85.000001,85.000001,85.000001,395.0,0.0,0.0,0.0,1.0,333.33500000000004,53.36,53.36,48.233000000000004,48.233000000000004,34.0,-22.044999999999998,24.496666666666666,-27.05,28.6925,0.0,1782.214,-0.27999999999999936,100.0,27.584,27.323,42.899,43.016999999999996,0.0,0.0,100.0,0.0,0.0,0.0,0.0,2928.5,3055.6,3994.222222222222,4112.2,305.9286666666667,305.16575,315.08675,314.70475,21.9844,20.6159,21.9939,21.5081,314.999998,314.999998,324.999988,324.999988,99.55892857142857,99.50693333333334,99.56788571428571,99.54811428571429,0.09166666666666634,-0.04033333333333311,-0.10216666666666663,0.11983333333333324,-0.051666666666669414,-0.04999999999999716,1.533,1.5339999999999998,38.402,29.849333333333334,38.462,35.4255,55.831,35.067,59.6805,52.8255,53.757999999999996,34.191,58.2575,51.147999999999996,52.902,33.727000000000004,58.1555,50.55866666666667,-0.09999999999999998,-0.05449999999999999,0.109505,0.10720500000000001,0.0,216.72500000000002,216.73000000000002,213.52666666666667,213.52666666666667,0.0,0.0
25,0.0,0.0,0.0,1.0,1.0,0.0,0.0,1.0,0.0,0.0,1.0,1.1856,26.0,0.0,0.0,0.0,59.999996,0.0,26.0,26.0,26.0,26.0,0.032333333333333325,0.2703,-0.006233333333333334,292.648,-2.68735,-2.6681,-1.5813000000000001,-1.5501,-190.97,215.29000000000002,190.453625,0.0,0.0,0.0,0.0,0.050833333333333335,-5.498166666666667,-5.498166666666667,-0.5976,0.26749999999999996,0.01644444444444426,-0.9590000000000001,69.368,0.007800000000000029,-0.214975,-0.1979999999999995,100.0,1.0,1.0,213.95,0.0,0.0,0.0,0.0,0.0,0.0,0.0,9068.6,0.0,25.0,5.0,249.7,1.0,0.0,0.0,0.0,0.0,0.0,0.0,0.0,1.256999999999998,1.256999999999998,0.0,0.0,1.0,55.0,616.79921,10000.0,85.000001,85.000001,85.000001,85.000001,395.0,0.0,0.0,0.0,1.0,166.665,52.368,52.368,48.035,48.035,34.0,-24.5875,25.541666666666664,-28.58,28.45,0.0,1782.165,-0.3149999999999995,100.0,27.622,27.872,42.655,42.947,0.0,0.0,100.0,0.0,0.0,0.0,0.0,3238.25,3166.9,4115.666666666667,4083.1000000000004,305.14166666666665,304.57725,314.9405,314.72725,21.9938,20.6214,22.0043,21.5172,314.999998,314.999998,324.999988,324.999988,99.55894285714285,99.50693333333334,99.56804285714286,99.54825714285714,0.08599999999999985,-0.04200000000000004,-0.10766666666666658,0.11749999999999994,-0.04333333333332945,-0.04999999999999716,1.5443333333333333,1.5324999999999998,38.461,29.884,38.527,35.4825,55.817,35.1065,59.716499999999996,52.885,53.745000000000005,34.2275,58.291,51.2055,52.887,33.762,58.1855,50.614666666666665,-0.10050000000000003,-0.052000000000000046,0.11028500000000001,0.10902,0.0,217.155,217.155,213.95,213.95,0.0,0.0
26,0.0,0.0,0.0,1.0,1.0,0.0,0.0,1.0,0.0,0.0,1.0,1.1856,26.0,0.0,0.0,0.0,59.999996,0.0,26.0,26.0,26.0,26.0,0.03833333333333333,0.2650000000000001,0.05643333333333334,291.977,-2.71985,-2.6561,-1.611,-1.5491,-187.22,215.29000000000002,190.426625,0.0,0.0,0.0,0.0,0.05303333333333334,-5.498166666666667,-5.498166666666667,-0.5729000000000001,-0.021500000000000075,0.010555555555555651,-0.627,69.514,0.010199999999999987,-0.206925,-0.18399999999999928,100.0,1.0,1.0,214.22333333333333,0.0,0.0,0.0,0.0,0.0,0.0,0.0,9080.1,0.0,25.0,5.0,250.22333333333336,0.0,0.0,0.0,0.0,0.0,0.0,0.0,0.0,1.311,1.311,0.0,0.0,0.0,55.0,616.79921,10000.0,85.000001,85.000001,85.000001,85.000001,395.0,0.0,0.0,0.0,1.0,166.665,52.246,52.246,47.028,47.028,34.0,-23.5825,24.458333333333336,-31.47,31.2175,0.0,1782.111,-0.3149999999999995,100.0,28.194,28.217,43.231,43.576,0.0,0.0,100.0,0.0,0.0,0.0,0.0,3123.375,3082.7,4399.555555555556,4315.5,305.4236666666667,304.91825,314.29275,314.096,22.0039,20.6274,22.0154,21.5271,314.999998,314.999998,324.999988,324.999988,99.55895714285714,99.50693333333334,99.56818571428572,99.54842857142857,0.0943333333333336,-0.044333333333333114,-0.10199999999999998,0.12383333333333324,-0.03999999999999915,-0.036666666666668846,1.4586666666666668,1.448,38.524,29.921333333333333,38.596000000000004,35.544,55.805,35.1485,59.759,52.952,53.733999999999995,34.266999999999996,58.3305,51.269999999999996,52.875,33.7995,58.2215,50.678,-0.10649999999999993,-0.0535000000000001,0.101595,0.109505,0.0,217.60500000000002,217.60000000000002,214.22333333333333,214.22333333333333,0.0,0.0
27,0.0,0.0,0.0,1.0,1.0,0.0,0.0,1.0,0.0,0.0,1.0,1.1856,26.0,0.0,0.0,0.0,59.999996,0.0,26.0,26.0,26.0,26.0,0.008000000000000007,0.2621,-0.0432,292.358,-2.7602,-2.6743,-1.6114000000000002,-1.5298,-184.09,215.29000000000002,190.40475,0.0,0.0,0.0,0.0,0.05483333333333334,-5.498166666666667,-5.498166666666667,-0.6002000000000001,-0.6819999999999999,0.02200000000000002,0.7280000000000002,69.63,0.012499999999999956,-0.23975000000000002,-0.2939999999999996,100.0,1.0,1.0,214.72,0.0,0.0,0.0,0.0,0.0,0.0,0.0,9101.1,0.0,25.0,5.0,250.64333333333335,1.0,0.0,0.0,0.0,0.0,0.0,0.0,0.0,1.355999999999998,1.355999999999998,0.0,0.0,1.0,55.0,616.79921,10000.0,85.000001,85.000001,85.000001,85.000001,395.0,0.0,0.0,0.0,1.0,333.33500000000004,52.382999999999996,52.382999999999996,47.623,47.623,34.0,-23.525,25.82,-26.8325,29.625,0.0,1782.065,-0.3249999999999993,100.0,28.066,28.057000000000002,43.569,43.631,0.0,0.0,100.0,0.0,0.0,0.0,0.0,3081.75,3197.5,3931.222222222222,4146.0,305.5226666666667,304.7445,315.2165,314.64975,22.0121,20.6323,22.0246,21.5352,314.999998,314.999998,324.999988,324.999988,99.55897142857143,99.50695,99.56832857142857,99.54855714285715,0.09666666666666668,-0.03600000000000003,-0.09183333333333332,0.13783333333333325,-0.051666666666669414,-0.04999999999999716,1.562,1.5385,38.576,29.951999999999998,38.653999999999996,35.595,55.793,35.1835,59.792500000000004,53.006,53.723,34.298500000000004,58.3615,51.3215,52.863,33.83,58.25,50.72866666666667,-0.10150000000000003,-0.05049999999999999,0.10445000000000002,0.111265,0.0,217.935,217.96,214.72,214.72,0.0,0.0
28,0.0,0.0,0.0,1.0,1.0,0.0,0.0,1.0,0.0,0.0,1.0,1.1856,26.0,0.0,0.0,0.0,59.999996,0.0,26.0,26.0,26.0,26.0,0.041777777777777914,0.27360000000000007,-0.024066666666666667,292.419,-2.7266,-2.6798,-1.5639,-1.5629,-180.54,215.29000000000002,190.379,0.0,0.0,0.0,0.0,0.056900000000000006,-5.498166666666667,-5.498166666666667,-0.5966,0.45299999999999996,0.002777777777777768,-1.072,69.764,0.013700000000000045,-0.21047500000000002,-0.26399999999999935,100.0,1.0,1.0,215.12,0.0,0.0,0.0,0.0,0.0,0.0,0.0,9118.1,0.0,25.0,5.0,251.12,0.0,0.0,0.0,0.0,0.0,0.0,0.0,0.0,1.407,1.407,0.0,0.0,0.0,55.0,616.79921,10000.0,85.000001,85.000001,85.000001,85.000001,395.0,0.0,0.0,0.0,1.0,333.33500000000004,52.643,52.643,47.394,47.394,34.0,-23.02,24.18,-28.735,29.81,0.0,1782.014,-0.3550000000000004,100.0,27.907,28.186,43.05,43.384,0.0,0.0,100.0,0.0,0.0,0.0,0.0,3092.75,3004.3,4236.333333333333,4140.0,305.60633333333334,305.0575,314.628,314.62725,22.0214,20.6379,22.0349,21.5443,314.999998,314.999998,324.999988,324.999988,99.55898571428571,99.50695,99.56847142857143,99.5487,0.10033333333333339,-0.04166666666666674,-0.09399999999999997,0.13050000000000006,-0.05333333333332746,-0.04833333333333201,1.5346666666666666,1.5185,38.634,29.987000000000002,38.718,35.652,55.781,35.223,59.8275,53.065,53.711,34.335499999999996,58.394,51.3785,52.849999999999994,33.8655,58.278999999999996,50.784,-0.10899999999999999,-0.04849999999999999,0.10108,0.10942,0.0,218.39,218.385,215.12,215.12,0.0,0.0
29,0.0,0.0,0.0,1.0,1.0,0.0,0.0,1.0,0.0,0.0,1.0,1.1856,26.0,0.0,0.0,0.0,59.999996,0.0,26.0,26.0,26.0,26.0,0.021666666666666723,0.2563,0.016666666666666666,292.145,-2.76345,-2.5954,-1.59695,-1.5666,-176.98000000000002,215.29250000000002,190.3525,0.0,0.0,0.0,0.0,0.05896666666666667,-5.498166666666667,-5.498166666666667,-0.6082000000000001,-0.6305000000000001,-0.0005555555555556424,0.6779999999999999,69.898,0.017100000000000115,-0.21965,-0.34999999999999964,100.0,1.0,1.0,215.47333333333333,0.0,0.0,0.0,0.0,0.0,0.0,0.0,9133.2,0.0,25.0,5.0,251.60666666666668,1.0,0.0,0.0,0.0,0.0,0.0,0.0,0.0,1.4579999999999984,1.4579999999999984,0.0,0.0,1.0,55.0,616.79921,10000.0,85.000001,85.000001,85.000001,85.000001,395.0,0.0,0.0,0.0,1.0,166.665,52.17,52.17,47.47,47.47,34.0,-24.65,26.543333333333333,-27.9625,31.052500000000002,0.0,1781.963,-0.42499999999999893,100.0,27.922,27.807000000000002,43.447,43.533,0.0,0.0,100.0,0.0,0.0,0.0,0.0,3240.375,3325.2,4091.4444444444443,4195.5,305.124,304.48275,314.896,314.4845,22.0306,20.6435,22.0454,21.5536,314.999998,314.999998,324.999988,324.999988,99.559,99.50695,99.56862857142858,99.54885714285714,0.10233333333333361,-0.02633333333333332,-0.08999999999999997,0.1423333333333332,-0.045000000000001705,-0.04999999999999716,1.5196666666666667,1.5,38.691,30.02166666666667,38.784,35.71,55.766999999999996,35.260999999999996,59.866,53.127,53.698,34.3705,58.43,51.438,52.836,33.899,58.312,50.842333333333336,-0.11249999999999993,-0.0515000000000001,0.10999,0.10862000000000001,0.0,218.755,218.78,215.47333333333333,215.47333333333333,0.0,0.0
30,0.0,0.0,0.0,1.0,1.0,0.0,0.0,1.0,0.0,0.0,1.0,1.1856,26.0,0.0,0.0,0.0,59.999996,0.0,26.0,26.0,26.0,26.0,0.01911111111111108,0.2875000000000001,0.05876666666666667,291.458,-2.7302,-2.6528,-1.64765,-1.4603,-173.62,215.29250000000002,190.3275,0.0,0.0,0.0,0.0,0.06093333333333334,-5.498166666666667,-5.498166666666667,-0.5994,0.8525,0.007777777777777883,1.041,70.022,0.01990000000000003,-0.21432500000000002,-0.45999999999999996,100.0,1.0,1.0,215.82,0.0,0.0,0.0,0.0,0.0,0.0,0.0,9147.8,0.0,25.0,5.0,252.05,0.0,0.0,0.0,0.0,0.0,0.0,1.0,0.0,1.5060000000000002,1.5060000000000002,0.0,0.0,0.0,55.0,616.79921,10000.0,85.000001,85.000001,85.000001,85.000001,395.0,0.0,0.0,0.0,1.0,166.665,51.407,51.407,46.921,46.921,34.0,-23.2175,26.913333333333334,-30.645,31.3825,0.0,1781.916,-0.4800000000000004,100.0,28.852,28.595,43.345,43.601,0.0,0.0,100.0,0.0,0.0,0.0,0.0,3157.5,3256.6,4378.555555555556,4477.2,305.133,304.40075,314.33675,313.97075,22.0396,20.6489,22.0551,21.5623,314.999998,314.999998,324.999988,324.999988,99.559,99.50696666666667,99.56875714285714,99.549,0.11699999999999999,-0.024333333333333318,-0.08366666666666656,0.13516666666666666,-0.03999999999999915,-0.054999999999999716,1.505,1.4895,38.747,30.055999999999997,38.845,35.7645,55.759,35.3,59.9,53.184,53.69,34.4065,58.4615,51.493,52.827,33.9335,58.3405,50.896,-0.11649999999999994,-0.044499999999999984,0.10497000000000001,0.09837000000000001,0.0,219.195,219.19,215.82,215.82,0.0,0.0
31,0.0,0.0,0.0,1.0,1.0,0.0,0.0,1.0,0.0,0.0,1.0,1.1856,26.0,0.0,0.0,0.0,59.999996,0.0,26.0,26.0,26.0,26.0,0.05966666666666676,0.24550000000000005,0.03983333333333333,291.458,-2.71465,-2.6961,-1.6445,-1.5341,-170.04,215.2975,190.301625,0.0,0.0,0.0,0.0,0.063,-5.498166666666667,-5.498166666666667,-0.5875,-0.391,0.016666666666666607,-0.813,70.154,0.02520000000000011,-0.223475,-0.4379999999999997,100.0,1.0,1.0,216.18666666666667,0.0,0.0,0.0,0.0,0.0,0.0,0.0,9163.3,0.0,25.0,5.0,252.53,1.0,0.0,0.0,0.0,0.0,0.0,1.0,0.0,1.5569999999999986,1.5569999999999986,0.0,0.0,1.0,55.0,616.79921,10000.0,85.000001,85.000001,85.000001,85.000001,395.0,0.0,0.0,0.0,1.0,166.665,51.772999999999996,51.772999999999996,46.234,46.234,34.0,-22.5075,26.335,-29.8825,30.7625,0.0,1781.864,-0.41499999999999915,100.0,28.436,28.896,43.958,44.413,0.0,0.0,100.0,0.0,0.0,0.0,0.0,3073.625,3173.7,4229.666666666667,4219.4,305.6143333333333,304.54525,314.59275,314.303,22.0488,20.6547,22.0657,21.5718,314.999998,314.999998,324.999988,324.999988,99.55902857142857,99.50696666666667,99.56891428571429,99.54914285714285,0.10766666666666636,-0.03166666666666673,-0.08766666666666656,0.13416666666666677,-0.041666666666671404,-0.05333333333332746,1.4636666666666667,1.4539999999999997,38.805,30.091666666666665,38.911,35.823499999999996,55.747,35.34,59.939499999999995,53.2475,53.679,34.444,58.499,51.554,52.815,33.9695,58.3745,50.955666666666666,-0.11399999999999999,-0.043500000000000094,0.10724,0.104065,0.0,219.57,219.59,216.18666666666667,216.18666666666667,0.0,0.0
32,0.0,0.0,0.0,1.0,1.0,0.0,0.0,1.0,0.0,0.0,1.0,1.1856,26.0,0.0,0.0,0.0,59.999996,0.0,26.0,26.0,26.0,26.0,0.05122222222222228,0.24839999999999995,-0.07923333333333334,292.099,-2.7672499999999998,-2.6534,-1.5826500000000001,-1.6146,-166.45999999999998,215.3,190.276,0.0,0.0,0.0,0.0,0.0651,-5.498166666666667,-5.498166666666667,-0.6081,-0.27100000000000013,-0.0032222222222220154,0.09799999999999986,70.283,0.02520000000000011,-0.23070000000000002,-0.38200000000000056,100.0,1.0,1.0,216.73666666666668,0.0,0.0,0.0,0.0,0.0,0.0,0.0,9186.7,0.0,25.0,5.0,252.99333333333334,0.0,0.0,0.0,0.0,0.0,0.0,1.0,0.0,1.6080000000000005,1.6080000000000005,0.0,0.0,0.0,55.0,616.79921,10000.0,85.000001,85.000001,85.000001,85.000001,395.0,0.0,0.0,0.0,1.0,166.665,52.185,52.185,47.546,47.546,34.0,-22.4325,25.67,-25.775,30.8825,0.0,1781.813,-0.4350000000000005,100.0,28.389,28.509999999999998,43.739000000000004,44.138999999999996,0.0,0.0,100.0,0.0,0.0,0.0,0.0,3058.25,3121.4,3911.0,4092.0,305.62033333333335,304.9645,315.33,314.7195,22.058,20.6603,22.076,21.581,314.999998,314.999998,324.999988,324.999988,99.55904285714286,99.50696666666667,99.56905714285715,99.5493,0.11900000000000022,-0.018999999999999906,-0.08116666666666661,0.14716666666666667,-0.030000000000001137,-0.060000000000002274,1.5476666666666667,1.537,38.861999999999995,30.127000000000002,38.975,35.8815,55.735,35.379,59.9745,53.3075,53.667,34.480000000000004,58.531,51.612,52.802,34.004,58.4035,51.01233333333333,-0.11749999999999994,-0.04200000000000004,0.10598500000000001,0.102635,0.0,219.95499999999998,219.985,216.73666666666668,216.73666666666668,0.0,0.0
33,0.0,0.0,0.0,1.0,1.0,0.0,0.0,1.0,0.0,0.0,1.0,1.1856,26.0,0.0,0.0,0.0,59.999996,0.0,26.0,26.0,26.0,26.0,0.05277777777777781,0.25880000000000014,-0.030600000000000002,291.992,-2.72515,-2.6465,-1.63335,-1.5368,-162.88,215.3075,190.248875,0.0,0.0,0.0,0.0,0.06716666666666667,-5.498166666666667,-5.498166666666667,-0.617,-0.22100000000000009,-0.00044444444444424747,-0.23199999999999998,70.414,0.026599999999999957,-0.2137,-0.3620000000000001,100.0,1.0,1.0,217.06333333333333,0.0,0.0,0.0,0.0,0.0,0.0,0.0,9200.5,0.0,25.0,5.0,253.46333333333334,1.0,0.0,0.0,0.0,0.0,0.0,1.0,0.0,1.658999999999999,1.658999999999999,0.0,0.0,1.0,55.0,616.79921,10000.0,85.000001,85.000001,85.000001,85.000001,395.0,0.0,0.0,0.0,1.0,166.665,52.368,52.368,47.165,47.165,34.0,-22.865,24.751666666666665,-29.14,29.9075,0.0,1781.762,-0.4399999999999995,100.0,28.093,28.39,43.519999999999996,43.999,0.0,0.0,100.0,0.0,0.0,0.0,0.0,3142.75,3050.8,4231.111111111111,4195.3,305.47633333333334,305.04825,314.71075,314.513,22.0672,20.6659,22.0864,21.5902,314.999998,314.999998,324.999988,324.999988,99.55905714285714,99.50698333333334,99.56921428571428,99.54944285714285,0.11366666666666658,-0.027666666666666728,-0.08516666666666661,0.1306666666666667,-0.054999999999999716,-0.02833333333332888,1.5346666666666666,1.525,38.92,30.162,39.04,35.9385,55.723,35.4165,60.010999999999996,53.367,53.655,34.5145,58.565,51.669,52.789,34.037,58.434,51.068,-0.11749999999999994,-0.045500000000000096,0.10255,0.104955,0.0,220.38,220.385,217.06333333333333,217.06333333333333,0.0,0.0
34,0.0,0.0,0.0,1.0,1.0,0.0,0.0,1.0,0.0,0.0,1.0,1.1856,26.0,0.0,0.0,0.0,59.999996,0.0,26.0,26.0,26.0,26.0,0.056222222222222173,0.25540000000000007,-0.07413333333333334,292.282,-2.67935,-2.6792,-1.6008,-1.5144,-159.49,215.3125,190.222,0.0,0.0,0.0,0.0,0.06913333333333334,-5.498166666666667,-5.498166666666667,-0.6487,-1.0335,0.017888888888888843,-0.391,70.537,0.027200000000000113,-0.2247,-0.4079999999999995,100.0,1.0,1.0,217.42666666666668,0.0,0.0,0.0,0.0,0.0,0.0,0.0,9216.0,0.0,25.0,5.0,253.90666666666667,0.0,0.0,0.0,0.0,0.0,0.0,1.0,0.0,1.7070000000000007,1.7070000000000007,0.0,0.0,0.0,55.0,616.79921,10000.0,85.000001,85.000001,85.000001,85.000001,395.0,0.0,0.0,0.0,1.0,333.33500000000004,52.811,52.811,47.485,47.485,34.0,-21.7075,25.143333333333334,-27.9,30.54,0.0,1781.712,-0.41999999999999993,100.0,27.798000000000002,28.073,43.43,44.081,0.0,0.0,100.0,0.0,0.0,0.0,0.0,3031.375,3062.8,4071.8888888888887,4211.2,305.822,305.08825,314.99625,314.446,22.0757,20.6711,22.0961,21.599,314.999998,314.999998,324.999988,324.999988,99.55907142857143,99.50698333333334,99.56935714285714,99.54958571428571,0.10866666666666669,-0.025666666666666726,-0.09133333333333338,0.14383333333333326,-0.041666666666671404,-0.054999999999999716,1.5176666666666665,1.508,38.973,30.194333333333333,39.101,35.9935,55.71,35.4505,60.0435,53.4245,53.643,34.546,58.5955,51.7245,52.775999999999996,34.067499999999995,58.461,51.12233333333333,-0.11099999999999999,-0.04849999999999999,0.10691500000000001,0.112225,0.0,220.715,220.735,217.42666666666668,217.42666666666668,0.0,0.0
35,0.0,0.0,0.0,1.0,1.0,0.0,0.0,1.0,0.0,0.0,1.0,1.1856,26.0,0.0,0.0,0.0,59.999996,0.0,26.0,26.0,26.0,26.0,0.03922222222222227,0.2513000000000001,-0.050966666666666674,292.068,-2.7867,-2.6678,-1.608,-1.5163,-155.89,215.32,190.191625,0.0,0.0,0.0,0.0,0.07123333333333334,-5.498166666666667,-5.498166666666667,-0.6761,0.22750000000000004,-0.010000000000000231,-0.2569999999999999,70.664,0.029000000000000137,-0.2205,-0.3700000000000001,100.0,1.0,1.0,217.91,0.0,0.0,0.0,0.0,0.0,0.0,0.0,9236.4,0.0,25.0,5.0,254.36333333333334,1.0,0.0,0.0,0.0,0.0,0.0,1.0,0.0,1.7579999999999991,1.7579999999999991,0.0,0.0,1.0,55.0,616.79921,10000.0,85.000001,85.000001,85.000001,85.000001,395.0,0.0,0.0,0.0,1.0,333.33500000000004,51.926,51.926,47.409,47.409,34.0,-23.965,27.621666666666666,-26.9775,30.015,0.0,1781.663,-0.28500000000000014,100.0,28.012999999999998,28.44,43.232,43.471000000000004,0.0,0.0,100.0,0.0,0.0,0.0,0.0,3188.25,3322.7,4038.6666666666665,4101.1,305.32366666666667,304.2725,315.08025,314.7745,22.0848,20.6769,22.1063,21.608,314.999998,314.999998,324.999988,324.999988,99.55908571428571,99.50698333333334,99.5695,99.54974285714286,0.11166666666666636,-0.02400000000000002,-0.07950000000000002,0.1561666666666668,-0.03999999999999915,-0.061666666666667425,1.5533333333333332,1.537,39.03,30.230666666666664,39.165,36.05,55.696,35.491,60.0775,53.4805,53.629999999999995,34.5835,58.626999999999995,51.7785,52.762,34.1035,58.49,51.175,-0.10449999999999993,-0.05400000000000005,0.11158000000000001,0.11019500000000002,0.0,221.13,221.17000000000002,217.91,217.91,0.0,0.0
