,ABS Active,ABS Enabled,AID Allow Tire Blankets,AID Auto Blip,AID Auto Clutch,AID Auto Shift,AID Fuel Rate,AID Ideal Line,AID Mech Damage,AID Stability,AID Tire Wear Rate,Air Density,Air Temp,Ballast,Best Lap Delta,Best Lap Time,Brake Bias,Brake Pos,Brake Temp FL,Brake Temp FR,Brake Temp RL,Brake Temp RR,CG Accel Lateral,CG Accel Longitudinal,CG Accel Vertical,CG Height,Camber FL,Camber FR,Camber RL,Camber RR,Car Coord X,Car Coord Y,Car Coord Z,Car Damage Front,Car Damage Left,Car Damage Rear,Car Damage Right,Car Pos Norm,Caster FL,Caster FR,Chassis Pitch Angle,Chassis Pitch Rate,Chassis Roll Angle,Chassis Roll Rate,Chassis Velocity X,Chassis Velocity Y,Chassis Velocity Z,Chassis Yaw Rate,Clutch Pos,DRS Active,DRS Available,Drive Train Speed,ERS Heat Charging,ERS Is Charging,ERS Max Energy,ERS Power Level,ERS Recovery Level,Engine Brake Setting,Engine Limiter,Engine RPM,Flags,Fuel Level,Gear,Ground Speed,HR Sample Clock,In Pit,KERS Charge,KERS Deployed Energy,KERS Input,KERS Max Energy,LR Sample Clock,Lap Invalidated,Lap Time,Lap Time2,Last Lap Time,Last Sector Time,MR Sample Clock,Max Fuel,Max Power,Max RPM,Max Sus Travel FL,Max Sus Travel FR,Max Sus Travel RL,Max Sus Travel RR,Max Torque,Max Turbo Boost,Num Tires Off Track,Penalties Enabled,Position,Raw Data Sample Rate,Ride Height FL,Ride Height FR,Ride Height RL,Ride Height RR,Road Temp,Self Align Torque FL,Self Align Torque FR,Self Align Torque RL,Self Align Torque RR,Session Lap Count,Session Time Left,Steering Angle,Surface Grip,Suspension Travel FL,Suspension Travel FR,Suspension Travel RL,Suspension Travel RR,TC Active,TC Enabled,Throttle Pos,Tire Dirt Level FL,Tire Dirt Level FR,Tire Dirt Level RL,Tire Dirt Level RR,Tire Load FL,Tire Load FR,Tire Load RL,Tire Load RR,Tire Loaded Radius FL,Tire Loaded Radius FR,Tire Loaded Radius RL,Tire Loaded Radius RR,Tire Pressure FL,Tire Pressure FR,Tire Pressure RL,Tire Pressure RR,Tire Radius FL,Tire Radius FR,Tire Radius RL,Tire Radius RR,Tire Rubber Grip FL,Tire Rubber Grip FR,Tire Rubber Grip RL,Tire Rubber Grip RR,Tire Slip Angle FL,Tire Slip Angle FR,Tire Slip Angle RL,Tire Slip Angle RR,Tire Slip Ratio FL,Tire Slip Ratio FR,Tire Slip Ratio RL,Tire Slip Ratio RR,Tire Temp Core FL,Tire Temp Core FR,Tire Temp Core RL,Tire Temp Core RR,Tire Temp Inner FL,Tire Temp Inner FR,Tire Temp Inner RL,Tire Temp Inner RR,Tire Temp Middle FL,Tire Temp Middle FR,Tire Temp Middle RL,Tire Temp Middle RR,Tire Temp Outer FL,Tire Temp Outer FR,Tire Temp Outer RL,Tire Temp Outer RR,Toe In FL,Toe In FR,Toe In RL,Toe In RR,Turbo Boost,Wheel Angular Speed FL,Wheel Angular Speed FR,Wheel Angular Speed RL,Wheel Angular Speed RR,Wind Direction,Wind Speed
0,0.0,0.0,0.0,1.0,1.0,0.0,0.0,1.0,0.0,0.0,1.0,1.1856,26.0,0.0,0.0,0.0,59.99999,0.0,26.0,26.0,26.0,26.0,-0.09666666666666657,0.30580000000000007,0.008025000000000001,293.777,-2.7113,-2.4828888888888887,-1.50905,-1.5387,-275.69,216.075,190.9875,0.0,0.0,0.0,0.0,0.0016,-5.498166666666667,-5.498166666666667,-0.5699000000000001,1.1606666666666667,-0.014333333333333087,-0.33499999999999996,65.66499999999999,-0.043300000000000005,-0.23217500000000002,0.8200000000000003,100.0,1.0,1.0,202.81,0.0,0.0,0.0,0.0,0.0,0.0,0.0,8596.4,0.0,45.0,5.0,236.36666666666667,0.0,0.0,0.0,0.0,0.0,0.0,0.0,0.0,0.0030000000000001137,0.0030000000000001137,0.0,0.0,0.0,55.0,616.79921,10000.0,85.0,85.0,85.0,85.0,395.0,0.0,0.0,0.0,1.0,20.0,51.712,51.712,49.85,49.85,34.0,-29.575,24.448,-28.793333333333333,23.5675,0.0,1783.31,0.7699999999999996,100.0,27.512,26.96,40.601,40.291,0.0,0.0,100.0,0.0,0.0,0.0,0.0,3259.4285714285716,3717.9,3938.5,3877.9,304.846,302.9715,315.28075,315.191,21.7757,20.5073,21.7733,21.3126,314.99999,314.99999,324.99998,324.99998,99.55918571428572,99.50706666666666,99.56548571428571,99.54528571428571,-0.013749999999999929,-0.11633333333333318,-0.1685,0.062,-0.03499999999999659,-0.06833333333332803,1.6023333333333334,1.6,37.098,29.170666666666666,37.083,34.2035,56.364000000000004,34.3845,59.147,51.64,54.275,33.5545,57.772999999999996,49.9975,53.441,33.1115,57.739,49.42333333333333,-0.0129999999999999,-0.1259999999999999,0.11028,0.10242000000000001,0.0,205.735,205.68,202.81,202.81,0.0,0.0
1,0.0,0.0,0.0,1.0,1.0,0.0,0.0,1.0,0.0,0.0,1.0,1.1856,26.0,0.0,0.0,0.0,59.999996,0.0,26.0,26.0,26.0,26.0,-0.13255555555555554,0.3023,0.18645,293.015,-2.6397,-2.8032222222222223,-1.5152,-1.3738000000000001,-272.33,216.07999999999998,190.967375,0.0,0.0,0.0,0.0,0.0035333333333333336,-5.498166666666667,-5.498166666666667,-0.4897,-0.3173333333333333,-0.06411111111111145,-0.851,65.821,-0.0519,-0.193,1.2840000000000007,100.0,1.0,1.0,202.83333333333331,0.0,0.0,0.0,0.0,0.0,0.0,0.0,8597.4,0.0,45.0,5.0,236.92333333333335,1.0,0.0,0.0,0.0,0.0,0.0,0.0,0.0,0.053999999999998494,0.053999999999998494,0.0,0.0,1.0,55.0,616.79921,10000.0,85.000001,85.000001,85.000001,85.000001,395.0,0.0,0.0,0.0,1.0,166.665,53.879,53.879,48.141,48.141,34.0,-26.2,16.669999999999998,-36.04666666666667,26.795,0.0,1783.262,0.9349999999999987,100.0,27.751,27.082,42.561,41.667,0.0,0.0,100.0,0.0,0.0,0.0,0.0,3014.5714285714284,2516.6,4506.625,4835.7,305.66,306.8365,313.78425,312.74725,21.785800000000002,20.5125,21.7841,21.3217,314.999998,314.999998,324.999988,324.999988,99.55918571428572,99.50708333333333,99.56564285714286,99.54544285714286,-0.011249999999999982,-0.14866666666666672,-0.17916666666666667,0.030333333333333334,-0.011666666666670267,-0.054999999999999716,1.3496666666666666,1.4184999999999999,37.161,29.203333333333333,37.150999999999996,34.260999999999996,56.349000000000004,34.4275,59.193,51.706,54.26,33.594,57.816,50.061,53.425,33.1495,57.7795,49.48566666666667,-0.0029999999999998916,-0.14900000000000002,0.10329500000000001,0.11021,0.0,206.25,206.16500000000002,202.83333333333331,202.83333333333331,0.0,0.0
2,0.0,0.0,0.0,1.0,1.0,0.0,0.0,1.0,0.0,0.0,1.0,1.1856,26.0,0.0,0.0,0.0,59.999996,0.0,26.0,26.0,26.0,26.0,-0.1537777777777778,0.2724,-0.15615,294.022,-2.58745,-2.7907777777777776,-1.49125,-1.6480000000000001,-268.97,216.08249999999998,190.94875,0.0,0.0,0.0,0.0,0.0055000000000000005,-5.498166666666667,-5.498166666666667,-0.5564,-0.137,-0.0564444444444443,2.81,65.962,-0.0674,-0.259325,1.677999999999999,100.0,1.0,1.0,203.89666666666668,0.0,0.0,0.0,0.0,0.0,0.0,0.0,8642.4,0.0,45.0,5.0,237.43666666666667,0.0,0.0,0.0,0.0,0.0,0.0,0.0,0.0,0.10500000000000043,0.10500000000000043,0.0,0.0,0.0,55.0,616.79921,10000.0,85.000001,85.000001,85.000001,85.000001,395.0,0.0,0.0,0.0,1.0,333.33500000000004,52.582,52.582,50.613,50.613,34.0,-30.247500000000002,19.11,-27.846666666666664,19.5625,0.0,1783.209,0.9849999999999994,100.0,28.343,26.854,42.508,41.211,0.0,0.0,100.0,0.0,0.0,0.0,0.0,3323.5714285714284,2897.1,3661.5,3501.6,304.5685,305.68475,315.84,316.26625,21.796,20.5174,21.7946,21.3305,314.999998,314.999998,324.999988,324.999988,99.5592,99.5071,99.56578571428571,99.54557142857144,-0.037250000000000005,-0.15900000000000003,-0.2115,0.0155,-0.054999999999999716,-0.06333333333333258,1.6776666666666666,1.7155,37.224999999999994,29.233333333333334,37.216,34.3155,56.336,34.4655,59.2315,51.760999999999996,54.247,33.6295,57.852000000000004,50.1135,53.411,33.1835,57.812,49.537333333333336,0.0040000000000000036,-0.15200000000000014,0.099055,0.10931500000000001,0.0,206.68,206.535,203.89666666666668,203.89666666666668,0.0,0.0
3,0.0,0.0,0.0,1.0,1.0,0.0,0.0,1.0,0.0,0.0,1.0,1.1856,26.0,0.0,0.0,0.0,59.999996,0.0,26.0,26.0,26.0,26.0,-0.15166666666666662,0.3114000000000001,0.069275,293.457,-2.6368,-2.6885555555555554,-1.5027,-1.5777,-265.8,216.08249999999998,190.929875,0.0,0.0,0.0,0.0,0.007333333333333333,-5.498166666666667,-5.498166666666667,-0.5132,0.6436666666666666,-0.012444444444444258,-0.07600000000000007,66.107,-0.0896,-0.200275,1.4179999999999993,100.0,1.0,1.0,203.95333333333332,0.0,0.0,0.0,0.0,0.0,0.0,0.0,8644.8,0.0,45.0,5.0,237.95333333333332,1.0,0.0,0.0,0.0,0.0,0.0,0.0,0.0,0.1529999999999987,0.1529999999999987,0.0,0.0,1.0,55.0,616.79921,10000.0,85.000001,85.000001,85.000001,85.000001,395.0,0.0,0.0,0.0,1.0,333.33500000000004,53.345,53.345,48.325,48.325,34.0,-26.8,18.234,-35.17,24.16,0.0,1783.161,0.8949999999999996,100.0,27.939,27.007,42.247,41.16,0.0,0.0,100.0,0.0,0.0,0.0,0.0,2955.142857142857,2919.5,4310.875,4239.3,305.8405,305.52325,314.296,314.37175,21.8053,20.5223,21.8043,21.3388,314.999998,314.999998,324.999988,324.999988,99.5592,99.50711666666666,99.56591428571429,99.54571428571428,-0.04299999999999993,-0.16500000000000004,-0.21483333333333335,0.0095,-0.05833333333333002,-0.06833333333332803,1.492,1.5345,37.283,29.264,37.277,34.3675,56.321,34.5075,59.266999999999996,51.820499999999996,54.233000000000004,33.668,57.885,50.170500000000004,53.397,33.22,57.843,49.593,-0.007500000000000062,-0.14500000000000002,0.10900000000000001,0.10233500000000001,0.0,207.16500000000002,207.03,203.95333333333332,203.95333333333332,0.0,0.0
4,0.0,0.0,0.0,1.0,1.0,0.0,0.0,1.0,0.0,0.0,1.0,1.1856,26.0,0.0,0.0,0.0,59.999996,0.0,26.0,26.0,26.0,26.0,-0.16833333333333333,0.2896000000000001,-0.042475,293.701,-2.6464499999999997,-2.8004444444444445,-1.51315,-1.6072000000000002,-262.23,216.075,190.909125,0.0,0.0,0.0,0.0,0.0094,-5.498166666666667,-5.498166666666667,-0.5395,-0.8316666666666667,-0.08966666666666656,-0.29899999999999993,66.263,-0.09970000000000001,-0.2389,1.5820000000000007,100.0,1.0,1.0,204.5366666666667,0.0,0.0,0.0,0.0,0.0,0.0,0.0,8669.6,0.0,45.0,5.0,238.51999999999998,0.0,0.0,0.0,0.0,0.0,0.0,0.0,0.0,0.20700000000000074,0.20700000000000074,0.0,0.0,0.0,55.0,616.79921,10000.0,85.000001,85.000001,85.000001,85.000001,395.0,0.0,0.0,0.0,1.0,166.665,53.253,53.253,48.766999999999996,48.766999999999996,34.0,-30.145,19.226,-33.51,20.46,0.0,1783.108,0.9250000000000007,100.0,27.75,26.53,42.948,41.335,0.0,0.0,100.0,0.0,0.0,0.0,0.0,3223.5714285714284,2917.9,4120.5,3704.2,305.008,305.59075,314.668,315.61325,21.8157,20.5276,21.8157,21.348300000000002,314.999998,314.999998,324.999988,324.999988,99.5592,99.50713333333333,99.56605714285715,99.54584285714286,-0.05149999999999988,-0.16300000000000003,-0.21583333333333335,0.0031666666666666666,-0.05333333333332746,-0.041666666666671404,1.5166666666666666,1.597,37.348,29.297333333333334,37.348,34.427,56.304,34.552,59.3125,51.8835,54.217,33.709,57.9275,50.231,53.379999999999995,33.2595,57.8825,49.65233333333333,0.0040000000000000036,-0.14349999999999996,0.10053500000000001,0.11096,0.0,207.60500000000002,207.45,204.5366666666667,204.5366666666667,0.0,0.0
5,0.0,0.0,0.0,1.0,1.0,0.0,0.0,1.0,0.0,0.0,1.0,1.1856,26.0,0.0,0.0,0.0,59.999996,0.0,26.0,26.0,26.0,26.0,-0.17488888888888887,0.30069999999999997,-0.032525,293.915,-2.66595,-2.77,-1.5002,-1.6347,-259.04,216.0675,190.890125,0.0,0.0,0.0,0.0,0.011266666666666668,-5.498166666666667,-5.498166666666667,-0.5377000000000001,0.417,-0.08844444444444433,0.964,66.402,-0.1121,-0.217725,1.5540000000000003,100.0,1.0,1.0,204.96666666666667,0.0,0.0,0.0,0.0,0.0,0.0,0.0,8687.8,0.0,45.0,5.0,239.01333333333332,1.0,0.0,0.0,0.0,0.0,0.0,0.0,0.0,0.254999999999999,0.254999999999999,0.0,0.0,1.0,55.0,616.79921,10000.0,85.000001,85.000001,85.000001,85.000001,395.0,0.0,0.0,0.0,1.0,166.665,53.635,53.635,49.316,49.316,34.0,-28.737499999999997,18.465999999999998,-33.74333333333334,21.6525,0.0,1783.06,0.5599999999999987,100.0,27.811,26.37,42.597,40.871,0.0,0.0,100.0,0.0,0.0,0.0,0.0,3121.142857142857,2821.5,4082.875,4009.0,305.2585,305.902,314.9015,314.9475,21.8251,20.5323,21.825499999999998,21.3565,314.999998,314.999998,324.999988,324.999988,99.55921428571429,99.50715,99.5662,99.54598571428572,-0.03774999999999995,-0.15700000000000003,-0.24166666666666667,-0.017166666666666667,-0.03999999999999915,-0.036666666666668846,1.5706666666666667,1.631,37.407,29.326999999999998,37.41,34.478,56.292,34.591,59.3495,51.9365,54.206,33.745,57.9625,50.282,53.367999999999995,33.294,57.914500000000004,49.702,-0.02949999999999986,-0.11249999999999982,0.10409,0.10339500000000001,0.0,208.04500000000002,207.91,204.96666666666667,204.96666666666667,0.0,0.0
6,0.0,0.0,0.0,1.0,1.0,0.0,0.0,1.0,0.0,0.0,1.0,1.1856,26.0,0.0,0.0,0.0,59.999996,0.0,26.0,26.0,26.0,26.0,-0.16833333333333333,0.3003,0.00685,293.61,-2.6193,-2.815777777777778,-1.5338,-1.5902,-255.85,216.055,190.870625,0.0,0.0,0.0,0.0,0.013133333333333335,-5.498166666666667,-5.498166666666667,-0.5284,0.11666666666666667,-0.08366666666666678,0.7210000000000001,66.53999999999999,-0.1144,-0.20950000000000002,1.234,100.0,1.0,1.0,205.34333333333333,0.0,0.0,0.0,0.0,0.0,0.0,0.0,8703.8,0.0,45.0,5.0,239.51333333333332,0.0,0.0,0.0,0.0,0.0,0.0,0.0,0.0,0.3030000000000008,0.3030000000000008,0.0,0.0,0.0,55.0,616.79921,10000.0,85.000001,85.000001,85.000001,85.000001,395.0,0.0,0.0,0.0,1.0,333.33500000000004,53.421,53.421,48.751999999999995,48.751999999999995,34.0,-28.4725,19.182000000000002,-35.46666666666667,22.2425,0.0,1783.012,0.5100000000000016,100.0,27.798000000000002,26.41,42.804,41.141999999999996,0.0,0.0,100.0,0.0,0.0,0.0,0.0,3131.142857142857,2887.1,4171.625,4040.4,305.1895,305.63475,314.6505,314.864,21.8345,20.5371,21.8355,21.3649,314.999998,314.999998,324.999988,324.999988,99.55921428571429,99.50716666666666,99.56634285714286,99.54611428571428,-0.03699999999999992,-0.16266666666666674,-0.24316666666666667,-0.0018333333333333333,-0.023333333333326323,-0.061666666666667425,1.5233333333333334,1.5795,37.465,29.356666666666666,37.472,34.5305,56.278999999999996,34.629999999999995,59.388,51.994,54.193,33.781,57.9985,50.337,53.354,33.3285,57.948,49.75566666666667,-0.03600000000000003,-0.1120000000000001,0.10971500000000001,0.111545,0.0,208.45499999999998,208.37,205.34333333333333,205.34333333333333,0.0,0.0
7,0.0,0.0,0.0,1.0,1.0,0.0,0.0,1.0,0.0,0.0,1.0,1.1856,26.0,0.0,0.0,0.0,59.999996,0.0,26.0,26.0,26.0,26.0,-0.12644444444444447,0.2863,0.019725,293.488,-2.5923,-2.8064444444444443,-1.49135,-1.6357,-252.46,216.0375,190.850125,0.0,0.0,0.0,0.0,0.0151,-5.498166666666667,-5.498166666666667,-0.5351,-0.028333333333333332,-0.07555555555555582,-0.2570000000000001,66.686,-0.1063,-0.225,1.0620000000000012,100.0,1.0,1.0,205.7866666666667,0.0,0.0,0.0,0.0,0.0,0.0,0.0,8722.5,0.0,45.0,5.0,240.04000000000002,1.0,0.0,0.0,0.0,0.0,0.0,0.0,0.0,0.3539999999999992,0.3539999999999992,0.0,0.0,1.0,55.0,616.79921,10000.0,85.000001,85.000001,85.000001,85.000001,395.0,0.0,0.0,0.0,1.0,333.33500000000004,53.085,53.085,49.072,49.072,34.0,-29.1,19.804000000000002,-33.42666666666666,22.085,0.0,1782.96,0.10999999999999943,100.0,27.793,26.623,42.763,41.397,0.0,0.0,100.0,0.0,0.0,0.0,0.0,3307.857142857143,2861.8,4094.75,3958.0,304.815,305.50375,314.8565,314.933,21.8444,20.5422,21.8461,21.3739,314.999998,314.999998,324.999988,324.999988,99.55922857142858,99.50718333333333,99.56648571428572,99.54625714285714,-0.01949999999999985,-0.1456666666666666,-0.22883333333333336,-0.01,-0.05333333333332746,-0.045000000000001705,1.518,1.5655000000000001,37.528,29.388666666666666,37.538,34.5865,56.265,34.6715,59.429,52.0545,54.18,33.819,58.037,50.394999999999996,53.34,33.3645,57.9835,49.812333333333335,-0.06549999999999989,-0.07699999999999996,0.10398,0.10967500000000001,0.0,208.91,208.805,205.7866666666667,205.7866666666667,0.0,0.0
8,0.0,0.0,0.0,1.0,1.0,0.0,0.0,1.0,0.0,0.0,1.0,1.1856,26.0,0.0,0.0,0.0,59.999996,0.0,26.0,26.0,26.0,26.0,-0.10233333333333339,0.27649999999999997,0.028,293.701,-2.66995,-2.747,-1.47075,-1.6261999999999999,-249.05,216.01749999999998,190.8295,0.0,0.0,0.0,0.0,0.017066666666666667,-5.498166666666667,-5.498166666666667,-0.5368,-0.4996666666666667,-0.06011111111111145,0.69,66.832,-0.0877,-0.217175,0.4239999999999995,100.0,1.0,1.0,206.18,0.0,0.0,0.0,0.0,0.0,0.0,0.0,8739.2,0.0,45.0,5.0,240.56666666666666,0.0,0.0,0.0,0.0,0.0,0.0,0.0,0.0,0.40500000000000114,0.40500000000000114,0.0,0.0,0.0,55.0,616.79921,10000.0,85.000001,85.000001,85.000001,85.000001,395.0,0.0,0.0,0.0,1.0,333.33500000000004,53.818,53.818,48.492,48.492,34.0,-25.5825,20.706,-31.816666666666663,25.1175,0.0,1782.909,0.010000000000001563,100.0,27.514,26.417,42.854,41.381,0.0,0.0,100.0,0.0,0.0,0.0,0.0,2985.142857142857,2949.3,4102.75,4094.4,305.722,305.5245,314.74225,314.66575,21.8542,20.5473,21.8566,21.3828,314.999998,314.999998,324.999988,324.999988,99.55922857142858,99.50721666666666,99.56662857142857,99.5464,0.005250000000000199,-0.1206666666666667,-0.19566666666666666,0.03183333333333333,-0.03833333333332689,-0.05833333333333002,1.505,1.5295,37.589,29.420333333333332,37.604,34.6425,56.247,34.7115,59.4695,52.1145,54.163,33.8555,58.0745,50.4525,53.323,33.3995,58.018,49.86833333333333,-0.07299999999999995,-0.06999999999999984,0.11181500000000001,0.10922000000000001,0.0,209.32999999999998,209.28,206.18,206.18,0.0,0.0
9,0.0,0.0,0.0,1.0,1.0,0.0,0.0,1.0,0.0,0.0,1.0,1.1856,26.0,0.0,0.0,0.0,59.999996,0.0,26.0,26.0,26.0,26.0,-0.0932222222222222,0.2873000000000001,0.03425,293.365,-2.59345,-2.763,-1.52645,-1.5767,-245.84,215.995,190.809625,0.0,0.0,0.0,0.0,0.018933333333333337,-5.498166666666667,-5.498166666666667,-0.5399,0.585,-0.061666666666666536,0.935,66.967,-0.0716,-0.215375,0.402000000000001,100.0,1.0,1.0,206.69,0.0,0.0,0.0,0.0,0.0,0.0,0.0,8760.9,0.0,45.0,5.0,241.05,1.0,0.0,0.0,0.0,0.0,0.0,0.0,0.0,0.4529999999999994,0.4529999999999994,0.0,0.0,1.0,55.0,616.79921,10000.0,85.000001,85.000001,85.000001,85.000001,395.0,0.0,0.0,0.0,1.0,166.665,52.765,52.765,49.301,49.301,34.0,-26.8175,22.323999999999998,-30.419999999999998,24.905,0.0,1782.863,-0.1750000000000007,100.0,27.997,26.792,42.567,41.386,0.0,0.0,100.0,0.0,0.0,0.0,0.0,3265.857142857143,3009.2,4005.875,4066.6000000000004,304.7825,305.27125,315.08225,314.82225,21.8635,20.5522,21.8664,21.3912,314.999998,314.999998,324.999988,324.999988,99.55922857142858,99.50721666666666,99.56677142857143,99.54652857142857,0.027750000000000163,-0.09833333333333316,-0.17883333333333334,0.050833333333333335,-0.036666666666668846,-0.060000000000002274,1.5596666666666668,1.5885,37.647,29.451333333333334,37.665,34.695,56.233999999999995,34.7495,59.5045,52.1695,54.15,33.891,58.107,50.504999999999995,53.309,33.4335,58.048,49.92,-0.08899999999999997,-0.0625,0.10795,0.11289,0.0,209.745,209.735,206.69,206.69,0.0,0.0
10,0.0,0.0,0.0,1.0,1.0,0.0,0.0,1.0,0.0,0.0,1.0,1.1856,26.0,0.0,0.0,0.0,59.999996,0.0,26.0,26.0,26.0,26.0,-0.0431111111111111,0.2812000000000001,0.03255,293.289,-2.6684,-2.711333333333333,-1.50645,-1.5498,-242.22,215.97,190.787625,0.0,0.0,0.0,0.0,0.021033333333333334,-5.498166666666667,-5.498166666666667,-0.5236000000000001,-0.6466666666666666,-0.021111111111111303,1.678,67.122,-0.048600000000000004,-0.2109,-0.08399999999999963,100.0,1.0,1.0,206.99666666666667,0.0,0.0,0.0,0.0,0.0,0.0,0.0,8773.8,0.0,45.0,5.0,241.61,0.0,0.0,0.0,0.0,0.0,0.0,1.0,0.0,0.5069999999999979,0.5069999999999979,0.0,0.0,0.0,55.0,616.79921,10000.0,85.000001,85.000001,85.000001,85.000001,395.0,0.0,0.0,0.0,1.0,166.665,53.68,53.68,48.08,48.08,34.0,-22.82,22.09,-30.71,27.3875,0.0,1782.808,-0.33500000000000085,100.0,27.756,26.741,42.991,42.097,0.0,0.0,100.0,0.0,0.0,0.0,0.0,2901.714285714286,2942.5,4182.75,4255.0,305.964,305.5825,314.57225,314.298,21.8739,20.5577,21.8777,21.4009,314.999998,314.999998,324.999988,324.999988,99.55922857142858,99.50723333333333,99.56692857142858,99.54667142857143,0.05549999999999988,-0.07566666666666677,-0.14883333333333335,0.069,-0.03333333333333144,-0.04999999999999716,1.4863333333333335,1.4875,37.712,29.485666666666667,37.736000000000004,34.7555,56.218,34.79,59.548,52.236000000000004,54.135,33.9285,58.147999999999996,50.569,53.293,33.469,58.086,49.98266666666667,-0.10699999999999998,-0.04600000000000026,0.10350000000000001,0.10822000000000001,0.0,210.2,210.2,206.99666666666667,206.99666666666667,0.0,0.0
11,0.0,0.0,0.0,1.0,1.0,0.0,0.0,1.0,0.0,0.0,1.0,1.1856,26.0,0.0,0.0,0.0,59.999996,0.0,26.0,26.0,26.0,26.0,-0.03166666666666662,0.27790000000000004,-0.066025,293.747,-2.6824500000000002,-2.722777777777778,-1.56195,-1.5206,-238.99,215.945,190.768,0.0,0.0,0.0,0.0,0.022600000000000002,-5.498166666666667,-5.498166666666667,-0.5577,-0.10433333333333333,0.003555555555555534,0.6149999999999998,67.254,-0.0258,-0.23272500000000002,-0.2560000000000002,100.0,1.0,1.0,207.65666666666667,0.0,0.0,0.0,0.0,0.0,0.0,0.0,8801.7,0.0,45.0,5.0,242.08333333333334,1.0,0.0,0.0,0.0,0.0,0.0,1.0,0.0,0.5549999999999997,0.5549999999999997,0.0,0.0,1.0,55.0,616.79921,10000.0,85.000001,85.000001,85.000001,85.000001,395.0,0.0,0.0,0.0,1.0,333.33500000000004,53.207,53.207,49.408,49.408,34.0,-23.695,24.256,-26.143333333333334,25.135,0.0,1782.758,-0.35999999999999943,100.0,27.487000000000002,26.954,42.435,42.007,0.0,0.0,100.0,0.0,0.0,0.0,0.0,3034.285714285714,3096.3,3755.625,3911.3,305.5445,305.0105,315.71975,315.2005,21.883,20.5627,21.8874,21.4093,314.999998,314.999998,324.999988,324.999988,99.55924285714286,99.50723333333333,99.56705714285714,99.54681428571429,0.06725000000000003,-0.06166666666666676,-0.13066666666666665,0.096,-0.03166666666666629,-0.054999999999999716,1.616,1.612,37.769,29.517,37.796,34.8085,56.203,34.826499999999996,59.5805,52.2915,54.120000000000005,33.962,58.178,50.622,53.278,33.5015,58.1135,50.034666666666666,-0.10850000000000004,-0.05049999999999999,0.11059000000000001,0.104425,0.0,210.585,210.60000000000002,207.65666666666667,207.65666666666667,0.0,0.0
12,0.0,0.0,0.0,1.0,1.0,0.0,0.0,1.0,0.0,0.0,1.0,1.1856,26.0,0.0,0.0,0.0,59.999996,0.0,26.0,26.0,26.0,26.0,-0.005111111111111066,0.29300000000000015,0.015075,293.228,-2.7374,-2.712777777777778,-1.5323,-1.5731000000000002,-235.76,215.92000000000002,190.74725,0.0,0.0,0.0,0.0,0.025466666666666665,-5.498166666666667,-5.498166666666667,-0.5442,0.305,-0.004777777777777992,0.782,67.39,-0.0058000000000000005,-0.20600000000000002,-0.2699999999999996,100.0,1.0,1.0,207.89,0.0,0.0,0.0,0.0,0.0,0.0,0.0,8811.7,0.0,45.0,5.0,242.57666666666665,0.0,0.0,0.0,0.0,0.0,0.0,1.0,0.0,0.602999999999998,0.602999999999998,0.0,0.0,0.0,55.0,616.79921,10000.0,85.000001,85.000001,85.000001,85.000001,395.0,0.0,0.0,0.0,1.0,333.33500000000004,53.116,53.116,48.294,48.294,34.0,-24.035,25.112000000000002,-28.75,29.6875,0.0,1782.711,-0.3299999999999983,100.0,27.432,27.122,42.391,42.012,0.0,0.0,100.0,0.0,0.0,0.0,0.0,3069.714285714286,3129.5,4154.375,4179.0,305.459,304.92475,314.70775,314.53975,21.8921,20.5678,21.8973,21.4178,314.999998,314.999998,324.999988,324.999988,99.55925714285715,99.50723333333333,99.56718571428571,99.54694285714285,0.07825000000000015,-0.045333333333333226,-0.1135,0.12216666666666667,-0.03499999999999659,-0.041666666666671404,1.521,1.5255,37.825,29.548666666666666,37.858000000000004,34.861,56.189,34.863,59.6165,52.348,54.107,33.996,58.2115,50.6765,53.263999999999996,33.534,58.144,50.088,-0.09799999999999986,-0.045500000000000096,0.11644000000000002,0.10938500000000001,0.0,211.04000000000002,211.035,207.89,207.89,0.0,0.0
13,0.0,0.0,0.0,1.0,1.0,0.0,0.0,1.0,0.0,0.0,1.0,1.1856,26.0,0.0,0.0,0.0,59.999996,0.0,26.0,26.0,26.0,26.0,0.02677777777777779,0.2795000000000001,0.038900000000000004,292.831,-2.68415,-2.6994444444444445,-1.5664,-1.5596999999999999,-232.32,215.89249999999998,190.7255,0.0,0.0,0.0,0.0,0.0268,-5.498166666666667,-5.498166666666667,-0.5374,-0.13233333333333336,-0.004222222222222349,-0.484,67.533,0.0031000000000000003,-0.213125,-0.24399999999999977,100.0,1.0,1.0,208.26333333333332,0.0,0.0,0.0,0.0,0.0,0.0,0.0,8827.6,0.0,45.0,5.0,243.09,1.0,0.0,0.0,0.0,0.0,0.0,1.0,0.0,0.6539999999999999,0.6539999999999999,0.0,0.0,1.0,55.0,616.79921,10000.0,85.000001,85.000001,85.000001,85.000001,395.0,0.0,0.0,0.0,1.0,333.33500000000004,52.811,52.811,48.141,48.141,34.0,-23.4375,24.322000000000003,-29.66,30.21,0.0,1782.66,-0.47499999999999787,100.0,27.605,27.5,42.543,42.625,0.0,0.0,100.0,0.0,0.0,0.0,0.0,3166.0,3008.2,4221.75,4242.3,305.2985,305.11475,314.5935,314.2725,21.9018,20.5732,21.9078,21.427,314.999998,314.999998,324.999988,324.999988,99.55925714285715,99.50725,99.56734285714286,99.5471,0.09699999999999998,-0.040000000000000036,-0.11033333333333332,0.11966666666666667,-0.054999999999999716,-0.054999999999999716,1.501,1.4965,37.885999999999996,29.582666666666668,37.924,34.9185,56.176,34.9015,59.655,52.411,54.095,34.031,58.2475,50.737,53.251000000000005,33.567499999999995,58.177,50.147333333333336,-0.11699999999999999,-0.0365000000000002,0.106895,0.11479500000000001,0.0,211.47500000000002,211.485,208.26333333333332,208.26333333333332,0.0,0.0
14,0.0,0.0,0.0,1.0,1.0,0.0,0.0,1.0,0.0,0.0,1.0,1.1856,26.0,0.0,0.0,0.0,59.999996,0.0,26.0,26.0,26.0,26.0,0.02066666666666661,0.2825,-0.01685,293.045,-2.7048,-2.709,-1.5700500000000002,-1.5386000000000002,-228.87,215.865,190.704125,0.0,0.0,0.0,0.0,0.028800000000000003,-5.498166666666667,-5.498166666666667,-0.5494,-0.09966666666666667,0.022555555555555662,1.166,67.674,0.014700000000000001,-0.227975,-0.47799999999999976,100.0,1.0,1.0,208.78333333333333,0.0,0.0,0.0,0.0,0.0,0.0,0.0,8849.5,0.0,45.0,5.0,243.59666666666666,0.0,0.0,0.0,0.0,0.0,0.0,1.0,0.0,0.7049999999999983,0.7049999999999983,0.0,0.0,0.0,55.0,616.79921,10000.0,85.000001,85.000001,85.000001,85.000001,395.0,0.0,0.0,0.0,1.0,333.33500000000004,52.826,52.826,48.37,48.37,34.0,-21.915,26.538,-26.493333333333336,29.8525,0.0,1782.609,-0.48999999999999844,100.0,27.694,27.48,42.582,42.684,0.0,0.0,100.0,0.0,0.0,0.0,0.0,2974.4285714285716,3173.1,3959.625,4162.0,305.702,304.71025,315.1635,314.56775,21.9115,20.5787,21.9183,21.4361,314.999998,314.999998,324.999988,324.999988,99.55927142857144,99.50725,99.56748571428571,99.54722857142858,0.1030000000000002,-0.023666666666666725,-0.09366666666666668,0.13633333333333333,-0.02833333333332888,-0.051666666666669414,1.567,1.521,37.947,29.616666666666667,37.989000000000004,34.9755,56.163,34.939,59.6915,52.4725,54.083,34.066,58.2815,50.796,53.238,33.601,58.208,50.205333333333336,-0.11099999999999999,-0.03500000000000014,0.10819000000000001,0.107605,0.0,211.875,211.92000000000002,208.78333333333333,208.78333333333333,0.0,0.0
15,0.0,0.0,0.0,1.0,1.0,0.0,0.0,1.0,0.0,0.0,1.0,1.1856,26.0,0.0,0.0,0.0,59.999996,0.0,26.0,26.0,26.0,26.0,0.03588888888888886,0.28570000000000007,0.012450000000000001,293.015,-2.71215,-2.6694444444444443,-1.5939,-1.5417,-225.62,215.84,190.68375,0.0,0.0,0.0,0.0,0.0307,-5.498166666666667,-5.498166666666667,-0.54,0.28600000000000003,0.0474444444444444,0.839,67.806,0.0262,-0.209375,-0.5479999999999992,100.0,1.0,1.0,209.16666666666669,0.0,0.0,0.0,0.0,0.0,0.0,0.0,8865.7,0.0,45.0,5.0,244.07333333333332,1.0,0.0,0.0,0.0,0.0,0.0,1.0,0.0,0.7530000000000001,0.7530000000000001,0.0,0.0,1.0,55.0,616.79921,10000.0,85.000001,85.000001,85.000001,85.000001,395.0,0.0,0.0,0.0,1.0,333.33500000000004,53.009,53.009,48.309,48.309,34.0,-20.705,26.195999999999998,-26.37,32.082499999999996,0.0,1782.561,-0.4250000000000007,100.0,27.667,27.545,42.403,42.783,0.0,0.0,100.0,0.0,0.0,0.0,0.0,2865.285714285714,3143.6,3975.875,4339.4,306.045,304.7935,315.15575,314.10325,21.9205,20.5838,21.9281,21.4447,314.999998,314.999998,324.999988,324.999988,99.55928571428572,99.50726666666667,99.56761428571428,99.54737142857142,0.11149999999999993,-0.01633333333333331,-0.07966666666666668,0.14616666666666667,-0.04833333333333201,-0.06333333333333258,1.5276666666666667,1.5075,38.003,29.649,38.051,35.0295,56.150999999999996,34.9745,59.725,52.5305,54.071,34.099000000000004,58.3125,50.852000000000004,53.225,33.6325,58.236,50.26,-0.10749999999999993,-0.03699999999999992,0.10944500000000001,0.10178000000000001,0.0,212.32,212.35000000000002,209.16666666666669,209.16666666666669,0.0,0.0
16,0.0,0.0,0.0,1.0,1.0,0.0,0.0,1.0,0.0,0.0,1.0,1.1856,26.0,0.0,0.0,0.0,59.999996,0.0,26.0,26.0,26.0,26.0,0.05266666666666686,0.28200000000000003,-0.019425,293.03,-2.775,-2.6181111111111113,-1.56685,-1.5416,-222.16,215.815,190.661625,0.0,0.0,0.0,0.0,0.0327,-5.498166666666667,-5.498166666666667,-0.5582,-0.622,0.030777777777777793,-1.2240000000000002,67.946,0.0339,-0.224675,-0.37600000000000033,100.0,1.0,1.0,209.60000000000002,0.0,0.0,0.0,0.0,0.0,0.0,0.0,8884.1,0.0,45.0,5.0,244.57999999999998,0.0,0.0,0.0,0.0,0.0,0.0,1.0,0.0,0.8039999999999985,0.8039999999999985,0.0,0.0,0.0,55.0,616.79921,10000.0,85.000001,85.000001,85.000001,85.000001,395.0,0.0,0.0,0.0,1.0,333.33500000000004,52.872,52.872,48.126,48.126,34.0,-23.4975,25.438,-26.223333333333333,29.63,0.0,1782.51,-0.28999999999999915,100.0,27.16,27.707,42.564,42.983000000000004,0.0,0.0,100.0,0.0,0.0,0.0,0.0,3130.0,3136.0,4017.5,4054.8,305.533,304.73875,315.102,314.70525,21.9299,20.5893,21.9386,21.4538,314.999998,314.999998,324.999988,324.999988,99.5593,99.50726666666667,99.56775714285715,99.54751428571429,0.10499999999999998,-0.02400000000000002,-0.0795,0.14633333333333334,-0.054999999999999716,-0.04833333333333201,1.543,1.5270000000000001,38.062,29.683333333333334,38.116,35.0865,56.135999999999996,35.0125,59.763,52.591499999999996,54.057,34.134,58.348,50.911,53.21,33.6665,58.268,50.318,-0.10299999999999998,-0.05250000000000021,0.10895500000000001,0.10784500000000001,0.0,212.71,212.755,209.60000000000002,209.60000000000002,0.0,0.0
17,0.0,0.0,0.0,1.0,1.0,0.0,0.0,1.0,0.0,0.0,1.0,1.1856,26.0,0.0,0.0,0.0,59.999996,0.0,26.0,26.0,26.0,26.0,0.02444444444444427,0.28200000000000003,5e-05,292.633,-2.727,-2.6097777777777775,-1.60285,-1.5077,-218.69,215.79250000000002,190.639125,0.0,0.0,0.0,0.0,0.03473333333333333,-5.498166666666667,-5.498166666666667,-0.5487000000000001,0.3606666666666667,0.008444444444444255,0.6459999999999999,68.087,0.030600000000000002,-0.20672500000000002,-0.3020000000000005,100.0,1.0,1.0,209.9766666666667,0.0,0.0,0.0,0.0,0.0,0.0,0.0,8900.2,0.0,45.0,5.0,245.07999999999998,1.0,0.0,0.0,0.0,0.0,0.0,1.0,0.0,0.8550000000000004,0.8550000000000004,0.0,0.0,1.0,55.0,616.79921,10000.0,85.000001,85.000001,85.000001,85.000001,395.0,0.0,0.0,0.0,1.0,333.33500000000004,52.612,52.612,47.867,47.867,34.0,-22.425,25.442,-28.836666666666666,31.225,0.0,1782.459,-0.3249999999999993,100.0,27.835,27.779,42.54,42.843,0.0,0.0,100.0,0.0,0.0,0.0,0.0,3077.142857142857,3124.4,4266.0,4286.7,305.462,304.959,314.52775,314.32975,21.9395,20.5949,21.948999999999998,21.4629,314.999998,314.999998,324.999988,324.999988,99.55931428571428,99.50726666666667,99.5679,99.54767142857143,0.11549999999999994,-0.014333333333333309,-0.07966666666666668,0.15033333333333335,-0.04333333333332945,-0.04999999999999716,1.512,1.5095,38.122,29.718,38.181,35.1435,56.125,35.051,59.799,52.652,54.046,34.1695,58.381,50.9695,53.198,33.7005,58.2985,50.375,-0.10250000000000004,-0.052999999999999936,0.10966500000000001,0.11024500000000001,0.0,213.195,213.19,209.9766666666667,209.9766666666667,0.0,0.0
18,0.0,0.0,0.0,1.0,1.0,0.0,0.0,1.0,0.0,0.0,1.0,1.1856,26.0,0.0,0.0,0.0,59.999996,0.0,26.0,26.0,26.0,26.0,0.02388888888888885,0.27580000000000005,0.00655,292.557,-2.7516,-2.589888888888889,-1.60945,-1.4635,-215.42000000000002,215.76999999999998,190.617875,0.0,0.0,0.0,0.0,0.03663333333333333,-5.498166666666667,-5.498166666666667,-0.5602,-0.4366666666666667,0.022666666666666613,0.9129999999999998,68.217,0.0275,-0.22340000000000002,-0.29600000000000026,100.0,1.0,1.0,210.38,0.0,0.0,0.0,0.0,0.0,0.0,0.0,8917.2,0.0,45.0,5.0,245.55333333333334,0.0,0.0,0.0,0.0,0.0,0.0,1.0,0.0,0.9029999999999987,0.9029999999999987,0.0,0.0,0.0,55.0,616.79921,10000.0,85.000001,85.000001,85.000001,85.000001,395.0,0.0,0.0,0.0,1.0,333.33500000000004,52.429,52.429,47.821,47.821,34.0,-23.205,26.972,-27.443333333333335,30.29,0.0,1782.411,-0.34499999999999886,100.0,27.703,27.683,42.821,43.115,0.0,0.0,100.0,0.0,0.0,0.0,0.0,3118.857142857143,3314.8,4100.75,4232.4,305.3785,304.41625,314.8715,314.42925,21.9485,20.6001,21.9589,21.4716,314.999998,314.999998,324.999988,324.999988,99.55932857142857,99.50726666666667,99.56804285714286,99.5478,0.10975000000000001,-0.015333333333333199,-0.07733333333333332,0.15383333333333335,-0.03833333333332689,-0.03333333333333144,1.5336666666666667,1.526,38.178,29.750333333333334,38.242999999999995,35.1975,56.111999999999995,35.086,59.8345,52.710499999999996,54.034,34.202,58.414500000000004,51.025999999999996,53.185,33.732,58.3285,50.43033333333334,-0.10199999999999987,-0.04999999999999982,0.10172,0.115875,0.0,213.56,213.57999999999998,210.38,210.38,0.0,0.0
19,0.0,0.0,0.0,1.0,1.0,0.0,0.0,1.0,0.0,0.0,1.0,1.1856,26.0,0.0,0.0,0.0,59.999996,0.0,26.0,26.0,26.0,26.0,0.026555555555555665,0.29920000000000013,0.074825,292.16,-2.67135,-2.688777777777778,-1.54195,-1.4489,-211.94,215.7475,190.59525,0.0,0.0,0.0,0.0,0.03866666666666667,-5.498166666666667,-5.498166666666667,-0.5497000000000001,0.7453333333333334,0.025333333333333208,-0.8460000000000001,68.355,0.0228,-0.21330000000000002,-0.21200000000000063,100.0,1.0,1.0,210.77666666666667,0.0,0.0,0.0,0.0,0.0,0.0,0.0,8934.0,0.0,45.0,5.0,246.05,1.0,0.0,0.0,0.0,0.0,0.0,1.0,0.0,0.9540000000000006,0.9540000000000006,0.0,0.0,1.0,55.0,616.79921,10000.0,85.000001,85.000001,85.000001,85.000001,395.0,0.0,0.0,0.0,1.0,333.33500000000004,52.016999999999996,52.016999999999996,47.638,47.638,34.0,-23.197499999999998,25.406,-28.68,30.6075,0.0,1782.36,-0.34999999999999787,100.0,28.107,28.325,42.625,43.256,0.0,0.0,100.0,0.0,0.0,0.0,0.0,3161.714285714286,3107.0,4233.5,4407.1,305.279,304.6535,314.59025,313.97825,21.9581,20.6057,21.9693,21.4808,314.999998,314.999998,324.999988,324.999988,99.55932857142857,99.50728333333333,99.56818571428572,99.54795714285714,0.10050000000000026,-0.038999999999999924,-0.09616666666666668,0.13316666666666666,-0.045000000000001705,-0.05666666666667197,1.498,1.5025,38.238,29.786,38.308,35.254999999999995,56.101,35.126,59.8695,52.772,54.022999999999996,34.239,58.447,51.085,53.173,33.7675,58.3585,50.48866666666667,-0.10650000000000004,-0.05049999999999999,0.10781,0.11597,0.0,214.04000000000002,214.06,210.77666666666667,210.77666666666667,0.0,0.0
20,0.0,0.0,0.0,1.0,1.0,0.0,0.0,1.0,0.0,0.0,1.0,1.1856,26.0,0.0,0.0,0.0,59.999996,0.0,26.0,26.0,26.0,26.0,0.03688888888888897,0.2614000000000001,0.011375,292.496,-2.7577,-2.650888888888889,-1.54475,-1.5767,-208.45,215.72750000000002,190.57275,0.0,0.0,0.0,0.0,0.04066666666666667,-5.498166666666667,-5.498166666666667,-0.5559000000000001,-1.077,0.023111111111111082,0.5139999999999998,68.494,0.0187,-0.22590000000000002,-0.25399999999999956,100.0,1.0,1.0,211.17000000000002,0.0,0.0,0.0,0.0,0.0,0.0,0.0,8950.7,0.0,45.0,5.0,246.55,0.0,0.0,0.0,0.0,0.0,0.0,0.0,0.0,1.004999999999999,1.004999999999999,0.0,0.0,0.0,55.0,616.79921,10000.0,85.000001,85.000001,85.000001,85.000001,395.0,0.0,0.0,0.0,1.0,333.33500000000004,52.78,52.78,47.302,47.302,34.0,-21.9325,25.492,-26.939999999999998,31.5475,0.0,1782.309,-0.3299999999999983,100.0,27.771,27.822,43.342,43.584,0.0,0.0,100.0,0.0,0.0,0.0,0.0,2970.0,3146.6,4088.5,4176.3,305.8505,304.905,314.81225,314.43125,21.9675,20.6112,21.9799,21.490099999999998,314.999998,314.999998,324.999988,324.999988,99.55934285714285,99.50728333333333,99.56832857142857,99.5481,0.10999999999999988,-0.026999999999999913,-0.08066666666666668,0.14883333333333335,-0.03499999999999659,-0.054999999999999716,1.4883333333333333,1.475,38.297,29.820333333333334,38.373999999999995,35.313,56.086,35.1635,59.909,52.835,54.009,34.2735,58.4835,51.1455,53.158,33.8005,58.391999999999996,50.547666666666665,-0.10450000000000004,-0.04999999999999982,0.09883,0.11477500000000002,0.0,214.41500000000002,214.43,211.17000000000002,211.17000000000002,0.0,0.0
21,0.0,0.0,0.0,1.0,1.0,0.0,0.0,1.0,0.0,0.0,1.0,1.1856,26.0,0.0,0.0,0.0,59.999996,0.0,26.0,26.0,26.0,26.0,0.030999999999999917,0.27249999999999996,-0.038700000000000005,292.709,-2.7278000000000002,-2.654111111111111,-1.5845500000000001,-1.5349,-204.95,215.70499999999998,190.549625,0.0,0.0,0.0,0.0,0.0427,-5.498166666666667,-5.498166666666667,-0.5735,0.39866666666666667,0.004444444444444251,-0.839,68.628,0.0194,-0.219775,-0.28000000000000025,100.0,1.0,1.0,211.74333333333334,0.0,0.0,0.0,0.0,0.0,0.0,0.0,8975.1,0.0,45.0,5.0,247.03333333333336,1.0,0.0,0.0,0.0,0.0,0.0,0.0,0.0,1.056000000000001,1.056000000000001,0.0,0.0,1.0,55.0,616.79921,10000.0,85.000001,85.000001,85.000001,85.000001,395.0,0.0,0.0,0.0,1.0,166.665,52.46,52.46,48.141,48.141,34.0,-23.78,25.16,-27.453333333333333,28.16,0.0,1782.259,-0.34999999999999787,100.0,27.835,28.002,42.733000000000004,43.183,0.0,0.0,100.0,0.0,0.0,0.0,0.0,3183.0,3083.0,4078.875,4018.2,305.3235,304.92575,315.0135,314.922,21.977,20.6168,21.9902,21.4991,314.999998,314.999998,324.999988,324.999988,99.55935714285714,99.5073,99.56847142857143,99.54824285714285,0.10099999999999998,-0.02633333333333332,-0.09366666666666668,0.12983333333333336,-0.07000000000000028,-0.046666666666666856,1.585,1.5545,38.355999999999995,29.855,38.439,35.3695,56.074,35.202,59.942,52.8925,53.997,34.3095,58.5145,51.201,53.144999999999996,33.835,58.4195,50.602000000000004,-0.10599999999999987,-0.044500000000000206,0.10911000000000001,0.10259000000000001,0.0,214.87,214.875,211.74333333333334,211.74333333333334,0.0,0.0
22,0.0,0.0,0.0,1.0,1.0,0.0,0.0,1.0,0.0,0.0,1.0,1.1856,26.0,0.0,0.0,0.0,59.999996,0.0,26.0,26.0,26.0,26.0,0.0387777777777778,0.28200000000000003,-0.0034000000000000002,292.435,-2.79015,-2.704111111111111,-1.6087500000000001,-1.5190000000000001,-201.64999999999998,215.6875,190.52725,0.0,0.0,0.0,0.0,0.04463333333333333,-5.498166666666667,-5.498166666666667,-0.5564,-0.025666666666666667,0.016000000000000014,-0.47699999999999987,68.759,0.0219,-0.20242500000000002,-0.2599999999999998,100.0,1.0,1.0,211.97,0.0,0.0,0.0,0.0,0.0,0.0,0.0,8984.6,0.0,45.0,5.0,247.50333333333333,0.0,0.0,0.0,0.0,0.0,0.0,0.0,0.0,1.1039999999999992,1.1039999999999992,0.0,0.0,0.0,55.0,616.79921,10000.0,85.000001,85.000001,85.000001,85.000001,395.0,0.0,0.0,0.0,1.0,333.33500000000004,52.856,52.856,47.302,47.302,34.0,-23.0175,24.128,-30.003333333333334,31.212500000000002,0.0,1782.21,-0.3200000000000003,100.0,27.797,28.059,42.966,43.393,0.0,0.0,100.0,0.0,0.0,0.0,0.0,3037.285714285714,2968.7,4286.75,4340.7,305.864,305.17925,314.50525,314.108,21.9859,20.622,22.0001,21.5078,314.999998,314.999998,324.999988,324.999988,99.55938571428571,99.5073,99.56861428571429,99.54838571428571,0.09925000000000006,-0.03933333333333322,-0.09433333333333332,0.133,-0.05333333333332746,-0.04999999999999716,1.4843333333333333,1.4805,38.412,29.887666666666668,38.501000000000005,35.4235,56.062,35.238,59.9785,52.951,53.986000000000004,34.3425,58.5485,51.257,53.132999999999996,33.867,58.4505,50.657,-0.10299999999999998,-0.05250000000000021,0.10757000000000001,0.113,0.0,215.275,215.285,211.97,211.97,0.0,0.0
23,0.0,0.0,0.0,1.0,1.0,0.0,0.0,1.0,0.0,0.0,1.0,1.1856,26.0,0.0,0.0,0.0,59.999996,0.0,26.0,26.0,26.0,26.0,0.013666666666666716,0.26480000000000015,-0.009250000000000001,292.343,-2.693,-2.6545555555555556,-1.66135,-1.4941,-198.14,215.66750000000002,190.50375,0.0,0.0,0.0,0.0,0.04666666666666667,-5.498166666666667,-5.498166666666667,-0.5756,-0.17066666666666666,0.019333333333333202,0.5829999999999997,68.893,0.0224,-0.22855,-0.2999999999999998,100.0,1.0,1.0,212.5,0.0,0.0,0.0,0.0,0.0,0.0,0.0,9007.1,0.0,45.0,5.0,247.98666666666668,1.0,0.0,0.0,0.0,0.0,0.0,0.0,0.0,1.1550000000000011,1.1550000000000011,0.0,0.0,1.0,55.0,616.79921,10000.0,85.000001,85.000001,85.000001,85.000001,395.0,0.0,0.0,0.0,1.0,333.33500000000004,52.002,52.002,48.08,48.08,34.0,-22.9975,26.348,-28.043333333333333,29.055,0.0,1782.158,-0.34499999999999886,100.0,28.223,28.033,43.076,43.494,0.0,0.0,100.0,0.0,0.0,0.0,0.0,3166.285714285714,3207.5,4039.125,4106.1,305.1405,304.68175,315.10475,314.76925,21.9954,20.6277,22.0106,21.5171,314.999998,314.999998,324.999988,324.999988,99.55938571428571,99.5073,99.56875714285714,99.54852857142858,0.11450000000000005,-0.022333333333333316,-0.08833333333333333,0.145,-0.054999999999999716,-0.03499999999999659,1.551,1.553,38.471000000000004,29.923000000000002,38.566,35.4815,56.05,35.277,60.0145,53.0125,53.974000000000004,34.3785,58.582,51.3165,53.120000000000005,33.9015,58.481,50.715333333333334,-0.10949999999999993,-0.04800000000000004,0.1106,0.10543000000000001,0.0,215.66500000000002,215.66,212.5,212.5,0.0,0.0
24,0.0,0.0,0.0,1.0,1.0,0.0,0.0,1.0,0.0,0.0,1.0,1.1856,26.0,0.0,0.0,0.0,59.999996,0.0,26.0,26.0,26.0,26.0,0.025111111111111084,0.2751000000000001,-0.056150000000000005,292.618,-2.7201,-2.6643333333333334,-1.54665,-1.5230000000000001,-194.82999999999998,215.65,190.481125,0.0,0.0,0.0,0.0,0.048600000000000004,-5.498166666666667,-5.498166666666667,-0.5831000000000001,-0.48333333333333334,0.02822222222222215,1.161,69.021,0.0245,-0.22007500000000002,-0.30799999999999983,100.0,1.0,1.0,212.81,0.0,0.0,0.0,0.0,0.0,0.0,0.0,9020.2,0.0,45.0,5.0,248.44666666666666,0.0,0.0,0.0,0.0,0.0,0.0,0.0,0.0,1.2029999999999994,1.2029999999999994,0.0,0.0,0.0,55.0,616.79921,10000.0,85.000001,85.000001,85.000001,85.000001,395.0,0.0,0.0,0.0,1.0,333.33500000000004,52.994,52.994,47.47,47.47,34.0,-21.2225,24.816000000000003,-27.683333333333334,30.125,0.0,1782.11,-0.3249999999999993,100.0,27.915,27.792,43.122,43.43,0.0,0.0,100.0,0.0,0.0,0.0,0.0,2884.714285714286,3075.9,4160.25,4206.7,306.0185,305.13225,314.65825,314.5045,22.0042,20.6329,22.0204,21.5257,314.999998,314.999998,324.999988,324.999988,99.5594,99.5073,99.5689,99.54867142857142,0.10450000000000026,-0.03066666666666662,-0.0855,0.13633333333333333,-0.03999999999999915,-0.04999999999999716,1.518,1.5030000000000001,38.525999999999996,29.955333333333336,38.628,35.5355,56.037,35.3115,60.049,53.069,53.962,34.411,58.6135,51.371,53.107,33.9325,58.5095,50.76866666666667,-0.09799999999999986,-0.05600000000000005,0.10796000000000001,0.10326500000000001,0.0,216.06,216.085,212.81,212.81,0.0,0.0
25,0.0,0.0,0.0,1.0,1.0,0.0,0.0,1.0,0.0,0.0,1.0,1.1856,26.0,0.0,0.0,0.0,59.999996,0.0,26.0,26.0,26.0,26.0,0.01866666666666661,0.26839999999999997,-0.001225,292.313,-2.78005,-2.626888888888889,-1.633,-1.5236,-191.1,215.6325,190.45425,0.0,0.0,0.0,0.0,0.05076666666666667,-5.498166666666667,-5.498166666666667,-0.6049,0.245,0.030111111111110977,0.07099999999999973,69.161,0.0221,-0.22007500000000002,-0.2939999999999996,100.0,1.0,1.0,213.33666666666667,0.0,0.0,0.0,0.0,0.0,0.0,0.0,9042.6,0.0,45.0,5.0,248.95333333333335,1.0,0.0,0.0,0.0,0.0,0.0,0.0,0.0,1.256999999999998,1.256999999999998,0.0,0.0,1.0,55.0,616.79921,10000.0,85.000001,85.000001,85.000001,85.000001,395.0,0.0,0.0,0.0,1.0,166.665,51.804,51.804,48.05,48.05,34.0,-24.38,27.694,-27.06,29.615000000000002,0.0,1782.058,-0.4349999999999987,100.0,27.974,28.11,42.837,43.231,0.0,0.0,100.0,0.0,0.0,0.0,0.0,3254.4285714285716,3368.8,3994.0,4131.7,305.016,304.177,315.212,314.67825,22.0141,20.6389,22.031399999999998,21.5354,314.999998,314.999998,324.999988,324.999988,99.55941428571428,99.50731666666667,99.56905714285715,99.54882857142857,0.11575000000000024,-0.021333333333333204,-0.0835,0.14266666666666666,-0.03333333333333144,-0.06666666666666998,1.5516666666666667,1.5525,38.588,29.993000000000002,38.696,35.596000000000004,56.022999999999996,35.353,60.0845,53.1315,53.948,34.449,58.647,51.4315,53.092,33.969,58.539500000000004,50.827666666666666,-0.11349999999999993,-0.0495000000000001,0.10906500000000001,0.10361000000000001,0.0,216.49,216.53,213.33666666666667,213.33666666666667,0.0,0.0
26,0.0,0.0,0.0,1.0,1.0,0.0,0.0,1.0,0.0,0.0,1.0,1.1856,26.0,0.0,0.0,0.0,59.999996,0.0,26.0,26.0,26.0,26.0,0.027444444444444382,0.2884,0.092,291.412,-2.68775,-2.7222222222222223,-1.5924,-1.5196,-187.78,215.6175,190.43,0.0,0.0,0.0,0.0,0.052700000000000004,-5.498166666666667,-5.498166666666667,-0.5712,0.4443333333333333,0.017777777777777892,0.8399999999999999,69.291,0.025400000000000002,-0.199525,-0.4679999999999991,100.0,1.0,1.0,213.4766666666667,0.0,0.0,0.0,0.0,0.0,0.0,0.0,9048.5,0.0,45.0,5.0,249.42000000000002,0.0,0.0,0.0,0.0,0.0,0.0,0.0,0.0,1.3049999999999997,1.3049999999999997,0.0,0.0,0.0,55.0,616.79921,10000.0,85.000001,85.000001,85.000001,85.000001,395.0,0.0,0.0,0.0,1.0,166.665,51.834,51.834,46.478,46.478,34.0,-22.085,26.177999999999997,-30.39,34.6575,0.0,1782.01,-0.4250000000000007,100.0,28.666,28.535,43.447,43.727000000000004,0.0,0.0,100.0,0.0,0.0,0.0,0.0,3094.142857142857,3126.6,4484.375,4587.8,305.375,304.87225,313.927,313.62025,22.0231,20.6443,22.0414,21.5442,314.999998,314.999998,324.999988,324.999988,99.55942857142857,99.50731666666667,99.5692,99.54897142857143,0.1200000000000001,-0.024666666666666615,-0.07066666666666667,0.15233333333333335,-0.03833333333332689,-0.054999999999999716,1.452,1.4224999999999999,38.644,30.026666666666664,38.759,35.650999999999996,56.013999999999996,35.3905,60.1215,53.191,53.939,34.484,58.681,51.4885,53.082,34.0025,58.571,50.88366666666667,-0.11599999999999988,-0.04999999999999982,0.10437,0.11489500000000001,0.0,216.91500000000002,216.95,213.4766666666667,213.4766666666667,0.0,0.0
27,0.0,0.0,0.0,1.0,1.0,0.0,0.0,1.0,0.0,0.0,1.0,1.1856,26.0,0.0,0.0,0.0,59.999996,0.0,26.0,26.0,26.0,26.0,0.034222222222222154,0.2471000000000001,-0.056475000000000004,291.992,-2.75835,-2.6580000000000004,-1.6184500000000002,-1.5848,-184.45,215.60250000000002,190.406875,0.0,0.0,0.0,0.0,0.05463333333333334,-5.498166666666667,-5.498166666666667,-0.5974,-0.9636666666666667,0.022333333333333316,0.6659999999999999,69.414,0.027800000000000002,-0.240375,-0.3979999999999997,100.0,1.0,1.0,214.02666666666667,0.0,0.0,0.0,0.0,0.0,0.0,0.0,9071.8,0.0,45.0,5.0,249.86333333333334,1.0,0.0,0.0,0.0,0.0,0.0,0.0,0.0,1.352999999999998,1.352999999999998,0.0,0.0,1.0,55.0,616.79921,10000.0,85.000001,85.000001,85.000001,85.000001,395.0,0.0,0.0,0.0,1.0,333.33500000000004,52.185,52.185,46.875,46.875,34.0,-21.974999999999998,26.54,-27.303333333333335,30.1175,0.0,1781.962,-0.41000000000000014,100.0,28.286,28.397,43.885,44.157,0.0,0.0,100.0,0.0,0.0,0.0,0.0,2994.142857142857,3228.4,4035.625,4049.7,305.7805,304.636,314.94075,314.803,22.0319,20.6496,22.0514,21.553,314.999998,314.999998,324.999988,324.999988,99.55944285714286,99.50731666666667,99.56934285714286,99.54911428571428,0.11500000000000021,-0.023333333333333206,-0.078,0.14383333333333334,-0.036666666666668846,-0.03833333333332689,1.522,1.502,38.699,30.060000000000002,38.821,35.7065,56.001000000000005,35.427,60.157,53.249,53.927,34.5175,58.7145,51.5445,53.07,34.0345,58.601,50.93833333333333,-0.11250000000000004,-0.04999999999999982,0.104675,0.103635,0.0,217.25,217.275,214.02666666666667,214.02666666666667,0.0,0.0
28,0.0,0.0,0.0,1.0,1.0,0.0,0.0,1.0,0.0,0.0,1.0,1.1856,26.0,0.0,0.0,0.0,59.999996,0.0,26.0,26.0,26.0,26.0,0.03388888888888886,0.26380000000000003,-0.04285,292.068,-2.6895,-2.654333333333333,-1.6289500000000001,-1.562,-180.7,215.5875,190.37975,0.0,0.0,0.0,0.0,0.0568,-5.498166666666667,-5.498166666666667,-0.5989,0.6106666666666667,0.010666666666666602,0.5699999999999998,69.553,0.0298,-0.211475,-0.4639999999999995,100.0,1.0,1.0,214.50333333333333,0.0,0.0,0.0,0.0,0.0,0.0,0.0,9092.0,0.0,45.0,5.0,250.36,0.0,0.0,0.0,0.0,0.0,0.0,0.0,0.0,1.407,1.407,0.0,0.0,0.0,55.0,616.79921,10000.0,85.000001,85.000001,85.000001,85.000001,395.0,0.0,0.0,0.0,1.0,166.665,52.17,52.17,47.333,47.333,34.0,-21.035,26.369999999999997,-28.173333333333336,31.2225,0.0,1781.909,-0.46000000000000085,100.0,28.409,28.355,43.261,43.685,0.0,0.0,100.0,0.0,0.0,0.0,0.0,2988.857142857143,3172.6,4182.125,4212.4,305.6505,304.7645,314.8065,314.5325,22.0419,20.6557,22.0623,21.5627,314.999998,314.999998,324.999988,324.999988,99.55945714285714,99.50731666666667,99.56948571428572,99.54927142857143,0.12575000000000003,-0.015666666666666718,-0.076,0.14883333333333335,-0.036666666666668846,-0.060000000000002274,1.5416666666666667,1.5270000000000001,38.762,30.097666666666665,38.89,35.7665,55.989000000000004,35.468,60.1915,53.311,53.916,34.5555,58.7465,51.6035,53.057,34.0715,58.6295,50.99633333333333,-0.11650000000000005,-0.051000000000000156,0.10721000000000001,0.10636500000000002,0.0,217.73000000000002,217.755,214.50333333333333,214.50333333333333,0.0,0.0
29,0.0,0.0,0.0,1.0,1.0,0.0,0.0,1.0,0.0,0.0,1.0,1.1856,26.0,0.0,0.0,0.0,59.999996,0.0,26.0,26.0,26.0,26.0,0.05333333333333323,0.26290000000000013,-0.011325,292.007,-2.6753,-2.704777777777778,-1.5822,-1.5385,-177.36,215.575,190.354875,0.0,0.0,0.0,0.0,0.05876666666666667,-5.498166666666667,-5.498166666666667,-0.6056,-0.7033333333333334,0.014333333333333309,0.875,69.679,0.029900000000000003,-0.21605000000000002,-0.48799999999999955,100.0,1.0,1.0,214.76,0.0,0.0,0.0,0.0,0.0,0.0,0.0,9103.0,0.0,45.0,5.0,250.81666666666666,1.0,0.0,0.0,0.0,0.0,0.0,0.0,0.0,1.4549999999999983,1.4549999999999983,0.0,0.0,1.0,55.0,616.79921,10000.0,85.000001,85.000001,85.000001,85.000001,395.0,0.0,0.0,0.0,1.0,333.33500000000004,52.414,52.414,47.073,47.073,34.0,-20.7175,26.631999999999998,-27.083333333333336,32.8,0.0,1781.859,-0.5150000000000006,100.0,28.089,28.201,43.658,43.971000000000004,0.0,0.0,100.0,0.0,0.0,0.0,0.0,2996.285714285714,3142.7,4089.0,4325.4,305.7195,304.851,314.85,314.19275,22.0505,20.6609,22.0723,21.5715,314.999998,314.999998,324.999988,324.999988,99.55947142857143,99.50731666666667,99.56962857142857,99.54941428571429,0.12950000000000017,-0.013333333333333197,-0.07416666666666667,0.15916666666666665,-0.036666666666668846,-0.06333333333333258,1.5030000000000001,1.477,38.816,30.130666666666666,38.952,35.822,55.977000000000004,35.5035,60.2275,53.369,53.903999999999996,34.588499999999996,58.78,51.66,53.044,34.1025,58.66,51.05133333333333,-0.11949999999999994,-0.039000000000000146,0.10632000000000001,0.11159500000000001,0.0,218.07999999999998,218.115,214.76,214.76,0.0,0.0
30,0.0,0.0,0.0,1.0,1.0,0.0,0.0,1.0,0.0,0.0,1.0,1.1856,26.0,0.0,0.0,0.0,59.999996,0.0,26.0,26.0,26.0,26.0,0.04788888888888887,0.2630000000000001,-0.014825000000000001,291.336,-2.6951,-2.5869999999999997,-1.64975,-1.4553,-173.8,215.5625,190.328375,0.0,0.0,0.0,0.0,0.06083333333333334,-5.498166666666667,-5.498166666666667,-0.6002000000000001,0.9713333333333334,0.011555555555555541,-0.5260000000000002,69.80799999999999,0.031100000000000003,-0.21277500000000002,-0.44200000000000017,100.0,1.0,1.0,215.22333333333333,0.0,0.0,0.0,0.0,0.0,0.0,0.0,9122.5,0.0,45.0,5.0,251.28333333333336,0.0,0.0,0.0,0.0,0.0,0.0,1.0,0.0,1.5060000000000002,1.5060000000000002,0.0,0.0,0.0,55.0,616.79921,10000.0,85.000001,85.000001,85.000001,85.000001,395.0,0.0,0.0,0.0,1.0,166.665,51.025,51.025,46.921,46.921,34.0,-23.395,26.055999999999997,-30.0,29.34,0.0,1781.81,-0.5199999999999996,100.0,28.9,29.157,43.403999999999996,44.058,0.0,0.0,100.0,0.0,0.0,0.0,0.0,3275.5714285714284,3188.4,4322.0,4244.7,304.9485,304.45975,314.5625,314.532,22.0601,20.6669,22.0827,21.5807,314.999998,314.999998,324.999988,324.999988,99.5595,99.50733333333334,99.56977142857143,99.54955714285714,0.12349999999999994,-0.01966666666666672,-0.08383333333333333,0.13633333333333333,-0.054999999999999716,-0.06333333333333258,1.527,1.5110000000000001,38.876000000000005,30.168,39.016999999999996,35.8795,55.968,35.5445,60.262,53.429,53.896,34.6265,58.8115,51.7175,53.035,34.1395,58.6885,51.10766666666667,-0.12549999999999994,-0.040999999999999925,0.10924,0.103455,0.0,218.515,218.54500000000002,215.22333333333333,215.22333333333333,0.0,0.0
31,0.0,0.0,0.0,1.0,1.0,0.0,0.0,1.0,0.0,0.0,1.0,1.1856,26.0,0.0,0.0,0.0,59.999996,0.0,26.0,26.0,26.0,26.0,0.052000000000000046,0.2529000000000001,0.0395,290.97,-2.78105,-2.620333333333333,-1.6019,-1.49,-170.45,215.5525,190.304,0.0,0.0,0.0,0.0,0.06276666666666667,-5.498166666666667,-5.498166666666667,-0.5886,-0.43033333333333335,0.016555555555555657,-0.827,69.93299999999999,0.0342,-0.22205,-0.4739999999999993,100.0,1.0,1.0,215.4766666666667,0.0,0.0,0.0,0.0,0.0,0.0,0.0,9133.3,0.0,45.0,5.0,251.73333333333335,1.0,0.0,0.0,0.0,0.0,0.0,1.0,0.0,1.5539999999999985,1.5539999999999985,0.0,0.0,1.0,55.0,616.79921,10000.0,85.000001,85.000001,85.000001,85.000001,395.0,0.0,0.0,0.0,1.0,333.33500000000004,51.208,51.208,45.868,45.868,34.0,-23.482499999999998,27.102,-28.759999999999998,31.235,0.0,1781.76,-0.5199999999999996,100.0,28.635,29.198999999999998,44.147999999999996,44.813,0.0,0.0,100.0,0.0,0.0,0.0,0.0,3231.142857142857,3294.5,4304.125,4245.2,305.275,304.3125,314.4085,314.256,22.0689,20.6723,22.0928,21.5897,314.999998,314.999998,324.999988,324.999988,99.55951428571429,99.50733333333334,99.56991428571429,99.5497,0.12725000000000009,-0.02066666666666661,-0.06683333333333333,0.14866666666666667,-0.04833333333333201,-0.04333333333332945,1.4666666666666666,1.434,38.93,30.201999999999998,39.08,35.936,55.958,35.582,60.299,53.489,53.885999999999996,34.661,58.8465,51.7755,53.024,34.1725,58.72,51.16433333333333,-0.12450000000000006,-0.04499999999999993,0.097015,0.10798500000000001,0.0,218.885,218.885,215.4766666666667,215.4766666666667,0.0,0.0
32,0.0,0.0,0.0,1.0,1.0,0.0,0.0,1.0,0.0,0.0,1.0,1.1856,26.0,0.0,0.0,0.0,59.999996,0.0,26.0,26.0,26.0,26.0,0.0624444444444443,0.26439999999999997,-0.0261,291.443,-2.70025,-2.6823333333333332,-1.5869,-1.6188,-166.88,215.54250000000002,190.2785,0.0,0.0,0.0,0.0,0.06483333333333334,-5.498166666666667,-5.498166666666667,-0.6056,-0.20833333333333334,-0.002666666666666817,0.31800000000000006,70.061,0.038700000000000005,-0.2303,-0.5640000000000001,100.0,1.0,1.0,215.9766666666667,0.0,0.0,0.0,0.0,0.0,0.0,0.0,9154.4,0.0,45.0,5.0,252.19333333333333,0.0,0.0,0.0,0.0,0.0,0.0,1.0,0.0,1.6050000000000004,1.6050000000000004,0.0,0.0,0.0,55.0,616.79921,10000.0,85.000001,85.000001,85.000001,85.000001,395.0,0.0,0.0,0.0,1.0,166.665,51.727000000000004,51.727000000000004,46.722,46.722,34.0,-21.06,27.02,-26.343333333333334,34.09,0.0,1781.71,-0.46999999999999886,100.0,28.72,28.868000000000002,44.027,44.561,0.0,0.0,100.0,0.0,0.0,0.0,0.0,3041.857142857143,3184.1,4098.375,4298.7,305.559,304.749,314.8715,314.22975,22.0781,20.6781,22.1033,21.599,314.999998,314.999998,324.999988,324.999988,99.55952857142857,99.50733333333334,99.57007142857142,99.54985714285715,0.13624999999999998,-0.008333333333333304,-0.059666666666666666,0.16733333333333333,-0.036666666666668846,-0.03833333333332689,1.5226666666666666,1.5005000000000002,38.988,30.238333333333333,39.144999999999996,35.994,55.947,35.621,60.3335,53.549,53.875,34.6975,58.8785,51.8335,53.010999999999996,34.207,58.749,51.220666666666666,-0.11749999999999994,-0.04349999999999987,0.10569,0.10866500000000001,0.0,219.26,219.29500000000002,215.9766666666667,215.9766666666667,0.0,0.0
33,0.0,0.0,0.0,1.0,1.0,0.0,0.0,1.0,0.0,0.0,1.0,1.1856,26.0,0.0,0.0,0.0,59.999996,0.0,26.0,26.0,26.0,26.0,0.05788888888888888,0.26350000000000007,-0.059425000000000006,291.687,-2.7393,-2.671222222222222,-1.5997,-1.5793,-163.51,215.535,190.25325,0.0,0.0,0.0,0.0,0.0668,-5.498166666666667,-5.498166666666667,-0.6149,-0.225,0.0006666666666665932,1.093,70.18299999999999,0.038900000000000004,-0.216225,-0.47799999999999976,100.0,1.0,1.0,216.35666666666668,0.0,0.0,0.0,0.0,0.0,0.0,0.0,9170.6,0.0,45.0,5.0,252.63,1.0,0.0,0.0,0.0,0.0,0.0,1.0,0.0,1.6529999999999987,1.6529999999999987,0.0,0.0,1.0,55.0,616.79921,10000.0,85.000001,85.000001,85.000001,85.000001,395.0,0.0,0.0,0.0,1.0,333.33500000000004,51.987,51.987,47.012,47.012,34.0,-21.63,26.156,-26.956666666666663,32.2475,0.0,1781.661,-0.48499999999999943,100.0,28.54,28.639,43.855000000000004,44.354,0.0,0.0,100.0,0.0,0.0,0.0,0.0,3048.142857142857,3123.7,4074.625,4256.5,305.567,304.94125,314.94075,314.40525,22.0868,20.6834,22.1131,21.6078,314.999998,314.999998,324.999988,324.999988,99.55954285714286,99.50735,99.5702,99.55,0.13224999999999998,-0.012333333333333307,-0.07150000000000001,0.15366666666666667,-0.03499999999999659,-0.06499999999999773,1.5186666666666666,1.514,39.043,30.271333333333335,39.207,36.0485,55.936,35.656,60.366,53.6045,53.864000000000004,34.7295,58.908500000000004,51.887,53.0,34.238,58.775999999999996,51.272999999999996,-0.11850000000000005,-0.044500000000000206,0.1092,0.10313000000000001,0.0,219.64,219.695,216.35666666666668,216.35666666666668,0.0,0.0
34,0.0,0.0,0.0,1.0,1.0,0.0,0.0,1.0,0.0,0.0,1.0,1.1856,26.0,0.0,0.0,0.0,59.999996,0.0,26.0,26.0,26.0,26.0,0.05655555555555569,0.2702,-0.072725,291.916,-2.67975,-2.6702222222222223,-1.63455,-1.5141,-159.93,215.5275,190.225125,0.0,0.0,0.0,0.0,0.0689,-5.498166666666667,-5.498166666666667,-0.6433,-0.8966666666666666,0.02299999999999991,-0.20000000000000018,70.312,0.041600000000000005,-0.222675,-0.4639999999999995,100.0,1.0,1.0,216.73333333333335,0.0,0.0,0.0,0.0,0.0,0.0,0.0,9186.5,0.0,45.0,5.0,253.09666666666666,0.0,0.0,0.0,0.0,0.0,0.0,1.0,0.0,1.7040000000000006,1.7040000000000006,0.0,0.0,0.0,55.0,616.79921,10000.0,85.000001,85.000001,85.000001,85.000001,395.0,0.0,0.0,0.0,1.0,333.33500000000004,52.368,52.368,47.226,47.226,34.0,-21.6475,25.506,-27.64,30.5325,0.0,1781.609,-0.46999999999999886,100.0,28.121,28.488,43.650999999999996,44.495999999999995,0.0,0.0,100.0,0.0,0.0,0.0,0.0,3084.714285714286,3053.7,4114.625,4199.4,305.6525,305.11675,314.94775,314.49,22.096,20.689,22.1235,21.6171,314.999998,314.999998,324.999988,324.999988,99.55955714285714,99.50735,99.57035714285715,99.55015714285715,0.12124999999999986,-0.0129999999999999,-0.07333333333333333,0.146,-0.03999999999999915,-0.03499999999999659,1.5413333333333332,1.509,39.1,30.306333333333335,39.272,36.107,55.923,35.692,60.4,53.6655,53.852000000000004,34.763,58.94,51.945499999999996,52.986999999999995,34.269999999999996,58.804,51.33,-0.11699999999999999,-0.045500000000000096,0.10253500000000002,0.10859,0.0,220.015,220.04000000000002,216.73333333333335,216.73333333333335,0.0,0.0
35,0.0,0.0,0.0,1.0,1.0,0.0,0.0,1.0,0.0,0.0,1.0,1.1856,26.0,0.0,0.0,0.0,59.999996,0.0,26.0,26.0,26.0,26.0,0.06811111111111101,0.25250000000000017,-0.032875,291.885,-2.7359999999999998,-2.609,-1.6293000000000002,-1.5048,-156.13,215.5225,190.193125,0.0,0.0,0.0,0.0,0.0711,-5.498166666666667,-5.498166666666667,-0.68,-0.008666666666666666,0.0011111111111110628,-1.4510000000000005,70.446,0.0442,-0.22542500000000001,-0.4900000000000002,100.0,1.0,1.0,217.23666666666668,0.0,0.0,0.0,0.0,0.0,0.0,0.0,9207.9,0.0,45.0,5.0,253.57999999999998,1.0,0.0,0.0,0.0,0.0,0.0,1.0,0.0,1.7579999999999991,1.7579999999999991,0.0,0.0,1.0,55.0,616.79921,10000.0,85.000001,85.000001,85.000001,85.000001,395.0,0.0,0.0,0.0,1.0,166.665,51.757999999999996,51.757999999999996,46.967,46.967,34.0,-22.6575,27.548,-26.426666666666666,29.21,0.0,1781.557,-0.3249999999999993,100.0,27.978,28.884999999999998,43.39,43.955,0.0,0.0,100.0,0.0,0.0,0.0,0.0,3125.285714285714,3337.3,4009.0,4036.3,305.523,304.117,315.17125,314.89475,22.1056,20.6952,22.1344,21.6268,314.999998,314.999998,324.999988,324.999988,99.55957142857143,99.50735,99.57051428571428,99.55031428571428,0.11799999999999988,-0.01966666666666672,-0.06816666666666667,0.15333333333333335,-0.045000000000001705,-0.03499999999999659,1.5586666666666666,1.5415,39.16,30.345333333333336,39.34,36.167500000000004,55.908,35.734,60.435,53.725,53.838,34.802,58.9725,52.003,52.972,34.3075,58.833,51.38633333333333,-0.10549999999999993,-0.059499999999999886,0.10774500000000001,0.103415,0.0,220.465,220.48000000000002,217.23666666666668,217.23666666666668,0.0,0.0
36,0.0,0.0,0.0,1.0,1.0,0.0,0.0,1.0,0.0,0.0,1.0,1.1856,26.0,0.0,0.0,0.0,59.999996,0.0,26.0,26.0,26.0,26.0,0.06577777777777793,0.24120000000000008,0.04275,291.29,-2.65705,-2.711888888888889,-1.6508,-1.5507,-152.96,215.51999999999998,190.1655,0.0,0.0,0.0,0.0,0.07293333333333334,-5.498166666666667,-5.498166666666667,-0.6616000000000001,0.064,-0.03788888888888886,0.21300000000000008,70.562,0.039900000000000005,-0.202125,-0.3279999999999994,100.0,1.0,1.0,217.37,0.0,0.0,0.0,0.0,0.0,0.0,0.0,9213.6,0.0,45.0,5.0,253.99333333333334,0.0,0.0,0.0,0.0,0.0,0.0,1.0,0.0,1.8030000000000008,1.8030000000000008,0.0,0.0,0.0,55.0,616.79921,10000.0,85.000001,85.000001,85.000001,85.000001,395.0,0.0,0.0,0.0,1.0,333.33500000000004,51.926,51.926,46.524,46.524,34.0,-20.335,26.1,-29.509999999999998,35.24,0.0,1781.51,-0.23499999999999943,100.0,28.726,28.714,43.730000000000004,44.233000000000004,0.0,0.0,100.0,0.0,0.0,0.0,0.0,2934.142857142857,3125.2,4330.875,4527.4,305.703,304.87525,314.3585,313.7615,22.1137,20.7004,22.1437,21.6351,314.999998,314.999998,324.999988,324.999988,99.55958571428572,99.50735,99.57064285714286,99.55044285714285,0.12875000000000014,-0.02499999999999991,-0.0615,0.163,-0.03833333333332689,-0.041666666666671404,1.4463333333333335,1.435,39.211,30.377333333333333,39.397999999999996,36.2195,55.899,35.7685,60.467,53.7795,53.829,34.834,59.001999999999995,52.0555,52.962,34.338499999999996,58.86,51.438,-0.10599999999999987,-0.06800000000000006,0.10348500000000001,0.10883500000000002,0.0,220.84,220.86,217.37,217.37,0.0,0.0
