,ABS Active,ABS Enabled,AID Allow Tire Blankets,AID Auto Blip,AID Auto Clutch,AID Auto Shift,AID Fuel Rate,AID Ideal Line,AID Mech Damage,AID Stability,AID Tire Wear Rate,Air Density,Air Temp,Ballast,Best Lap Delta,Best Lap Time,Brake Bias,Brake Pos,Brake Temp FL,Brake Temp FR,Brake Temp RL,Brake Temp RR,CG Accel Lateral,CG Accel Longitudinal,CG Accel Vertical,CG Height,Camber FL,Camber FR,Camber RL,Camber RR,Car Coord X,Car Coord Y,Car Coord Z,Car Damage Front,Car Damage Left,Car Damage Rear,Car Damage Right,Car Pos Norm,Caster FL,Caster FR,Chassis Pitch Angle,Chassis Pitch Rate,Chassis Roll Angle,Chassis Roll Rate,Chassis Velocity X,Chassis Velocity Y,Chassis Velocity Z,Chassis Yaw Rate,Clutch Pos,DRS Active,DRS Available,Drive Train Speed,ERS Heat Charging,ERS Is Charging,ERS Max Energy,ERS Power Level,ERS Recovery Level,Engine Brake Setting,Engine Limiter,Engine RPM,Flags,Fuel Level,Gear,Ground Speed,HR Sample Clock,In Pit,KERS Charge,KERS Deployed Energy,KERS Input,KERS Max Energy,LR Sample Clock,Lap Invalidated,Lap Time,Lap Time2,Last Lap Time,Last Sector Time,MR Sample Clock,Max Fuel,Max Power,Max RPM,Max Sus Travel FL,Max Sus Travel FR,Max Sus Travel RL,Max Sus Travel RR,Max Torque,Max Turbo Boost,Num Tires Off Track,Penalties Enabled,Position,Raw Data Sample Rate,Ride Height FL,Ride Height FR,Ride Height RL,Ride Height RR,Road Temp,Self Align Torque FL,Self Align Torque FR,Self Align Torque RL,Self Align Torque RR,Session Lap Count,Session Time Left,Steering Angle,Surface Grip,Suspension Travel FL,Suspension Travel FR,Suspension Travel RL,Suspension Travel RR,TC Active,TC Enabled,Throttle Pos,Tire Dirt Level FL,Tire Dirt Level FR,Tire Dirt Level RL,Tire Dirt Level RR,Tire Load FL,Tire Load FR,Tire Load RL,Tire Load RR,Tire Loaded Radius FL,Tire Loaded Radius FR,Tire Loaded Radius RL,Tire Loaded Radius RR,Tire Pressure FL,Tire Pressure FR,Tire Pressure RL,Tire Pressure RR,Tire Radius FL,Tire Radius FR,Tire Radius RL,Tire Radius RR,Tire Rubber Grip FL,Tire Rubber Grip FR,Tire Rubber Grip RL,Tire Rubber Grip RR,Tire Slip Angle FL,Tire Slip Angle FR,Tire Slip Angle RL,Tire Slip Angle RR,Tire Slip Ratio FL,Tire Slip Ratio FR,Tire Slip Ratio RL,Tire Slip Ratio RR,Tire Temp Core FL,Tire Temp Core FR,Tire Temp Core RL,Tire Temp Core RR,Tire Temp Inner FL,Tire Temp Inner FR,Tire Temp Inner RL,Tire Temp Inner RR,Tire Temp Middle FL,Tire Temp Middle FR,Tire Temp Middle RL,Tire Temp Middle RR,Tire Temp Outer FL,Tire Temp Outer FR,Tire Temp Outer RL,Tire Temp Outer RR,Toe In FL,Toe In FR,Toe In RL,Toe In RR,Turbo Boost,Wheel Angular Speed FL,Wheel Angular Speed FR,Wheel Angular Speed RL,Wheel Angular Speed RR,Wind Direction,Wind Speed
0,0.0,0.0,0.0,1.0,1.0,0.0,0.0,1.0,0.0,0.0,1.0,1.1856,26.0,0.0,0.0,0.0,59.99999,0.0,26.0,26.0,26.0,26.0,-0.03366666666666662,0.2996000000000001,0.16490000000000002,293.243,-2.7976,-2.6131,-1.5626,-1.501,-275.72,215.4275,190.98775,0.0,0.0,0.0,0.0,0.0015666666666666667,-5.498166666666667,-5.498166666666667,-0.5796,1.884,0.0068749999999999645,0.2110000000000003,65.848,-0.028200000000000003,-0.23927500000000002,0.03399999999999981,100.0,1.0,1.0,203.36,0.0,0.0,0.0,0.0,0.0,0.0,0.0,8619.7,0.0,24.0,5.0,237.0233333333333,0.0,0.0,0.0,0.0,0.0,0.0,0.0,0.0,0.0030000000000001137,0.0030000000000001137,0.0,0.0,0.0,55.0,616.79921,10000.0,85.0,85.0,85.0,85.0,395.0,0.0,0.0,0.0,1.0,20.0,50.415,50.415,49.408,49.408,34.0,-30.785,33.751666666666665,-28.05,25.615000000000002,0.0,1783.599,0.07500000000000107,100.0,27.336,27.318,40.214,39.945,0.0,0.0,100.0,0.0,0.0,0.0,0.0,3483.125,4386.6,3924.1111111111113,4042.7,304.133,301.16875,315.316,314.82875,21.7397,20.4882,21.7515,21.2965,314.99999,314.99999,324.99998,324.99998,99.5578,99.50663333333333,99.56444285714285,99.54468571428572,0.03000000000000025,-0.07433333333333314,-0.1406666666666666,0.08833333333333337,-0.05666666666667197,-0.021428571428565135,1.5939999999999999,1.579,36.873000000000005,29.051333333333332,36.947,34.1035,55.855999999999995,34.028,58.744,51.354,53.796,33.257,57.3855,49.7355,52.975,32.8595,57.3545,49.175333333333334,-0.06899999999999995,-0.08150000000000013,0.10884,0.10900000000000001,0.0,206.31,206.235,203.36,203.36,0.0,0.0
1,0.0,0.0,0.0,1.0,1.0,0.0,0.0,1.0,0.0,0.0,1.0,1.1856,26.0,0.0,0.0,0.0,59.999996,0.0,26.0,26.0,26.0,26.0,-0.055333333333333345,0.34430000000000005,0.192,292.328,-2.694,-2.6964,-1.6019999999999999,-1.5261,-272.35,215.4375,190.96775,0.0,0.0,0.0,0.0,0.0035333333333333336,-5.498166666666667,-5.498166666666667,-0.4671,-1.1506666666666665,-0.04400000000000004,-0.24899999999999967,66.011,-0.0234,-0.1728,0.5679999999999996,100.0,1.0,1.0,203.16333333333333,0.0,0.0,0.0,0.0,0.0,0.0,0.0,8611.4,0.0,24.0,5.0,237.60333333333335,1.0,0.0,0.0,0.0,0.0,0.0,0.0,0.0,0.053999999999998494,0.053999999999998494,0.0,0.0,1.0,55.0,616.79921,10000.0,85.000001,85.000001,85.000001,85.000001,395.0,0.0,0.0,0.0,1.0,333.33500000000004,54.535,54.535,47.058,47.058,34.0,-21.8175,16.28333333333333,-38.7375,39.7325,0.0,1783.547,0.29499999999999993,100.0,27.59,27.315,42.439,42.866,0.0,0.0,100.0,0.0,0.0,0.0,0.0,2711.5,2354.9,4853.888888888889,5669.700000000001,306.566,307.29925,312.83075,310.88825,21.7494,20.4932,21.7624,21.3059,314.999998,314.999998,324.999988,324.999988,99.55781428571429,99.50666666666666,99.5646,99.54484285714285,0.03733333333333322,-0.09899999999999998,-0.13683333333333336,0.07933333333333326,-0.03333333333333144,-0.021428571428565135,1.2814999999999999,1.321,36.934,29.082333333333334,37.015,34.161500000000004,55.84,34.067,58.793,51.4255,53.781,33.2935,57.4315,49.804,52.958,32.8945,57.3975,49.242333333333335,-0.050999999999999934,-0.10099999999999998,0.10799,0.11088,0.0,206.76999999999998,206.75,203.16333333333333,203.16333333333333,0.0,0.0
2,0.0,0.0,0.0,1.0,1.0,0.0,0.0,1.0,0.0,0.0,1.0,1.1856,26.0,0.0,0.0,0.0,59.999996,0.0,26.0,26.0,26.0,26.0,-0.07055555555555548,0.2763,-0.09586666666666667,294.159,-2.6752,-2.6491,-1.5714000000000001,-1.5081,-268.78,215.445,190.94775,0.0,0.0,0.0,0.0,0.0056,-5.498166666666667,-5.498166666666667,-0.5787,0.773,-0.0045000000000001705,1.673,66.155,-0.026500000000000003,-0.27090000000000003,0.7479999999999993,100.0,1.0,1.0,204.7,0.0,0.0,0.0,0.0,0.0,0.0,0.0,8676.5,0.0,24.0,5.0,238.12666666666667,0.0,0.0,0.0,0.0,0.0,0.0,0.0,0.0,0.10800000000000054,0.10800000000000054,0.0,0.0,0.0,55.0,616.79921,10000.0,85.000001,85.000001,85.000001,85.000001,395.0,0.0,0.0,0.0,1.0,166.665,52.155,52.155,51.025,51.025,34.0,-28.88,21.583333333333336,-24.71,18.7525,0.0,1783.494,0.47499999999999964,100.0,27.938,27.427,41.605000000000004,41.484,0.0,0.0,100.0,0.0,0.0,0.0,0.0,3328.625,3108.9,3471.6666666666665,3354.6,304.6795,304.712,316.4035,316.5875,21.759900000000002,20.4985,21.7732,21.314799999999998,314.999998,314.999998,324.999988,324.999988,99.55781428571429,99.50666666666666,99.56475714285715,99.54497142857143,0.008999999999999897,-0.1166666666666667,-0.16899999999999993,0.06433333333333335,-0.06333333333333258,-0.07428571428571473,1.7805,1.816,37.0,29.115666666666666,37.082,34.2175,55.825,34.109,58.83,51.478,53.766999999999996,33.332,57.466,49.8545,52.943,32.9315,57.429,49.292,-0.04249999999999998,-0.11250000000000004,0.10926500000000001,0.1078,0.0,207.26,207.2,204.7,204.7,0.0,0.0
3,0.0,0.0,0.0,1.0,1.0,0.0,0.0,1.0,0.0,0.0,1.0,1.1856,26.0,0.0,0.0,0.0,59.999996,0.0,26.0,26.0,26.0,26.0,-0.07022222222222219,0.30190000000000006,0.19933333333333333,293.289,-2.6922,-2.6805,-1.5522,-1.4744000000000002,-265.8,215.4475,190.929625,0.0,0.0,0.0,0.0,0.007333333333333333,-5.498166666666667,-5.498166666666667,-0.5013000000000001,0.7236666666666667,0.013749999999999929,-1.3120000000000003,66.298,-0.038900000000000004,-0.18705000000000002,0.6739999999999995,100.0,1.0,1.0,204.43666666666667,0.0,0.0,0.0,0.0,0.0,0.0,0.0,8665.3,0.0,24.0,5.0,238.63666666666666,1.0,0.0,0.0,0.0,0.0,0.0,0.0,0.0,0.1529999999999987,0.1529999999999987,0.0,0.0,1.0,55.0,616.79921,10000.0,85.000001,85.000001,85.000001,85.000001,395.0,0.0,0.0,0.0,1.0,166.665,53.665,53.665,47.852000000000004,47.852000000000004,34.0,-23.0925,20.82,-34.385,28.3125,0.0,1783.449,0.5099999999999998,100.0,27.587,27.264,41.755,41.81,0.0,0.0,100.0,0.0,0.0,0.0,0.0,2791.0,2950.0,4470.888888888889,4439.1,306.3935,305.403,313.9205,313.73825,21.7684,20.5031,21.7823,21.3228,314.999998,314.999998,324.999988,324.999988,99.55782857142857,99.50668333333333,99.56487142857142,99.5451,0.02066666666666661,-0.10633333333333317,-0.15400000000000003,0.0778333333333332,-0.03333333333333144,-0.04571428571428271,1.4325,1.471,37.053,29.144666666666666,37.14,34.2675,55.81,34.1475,58.866,51.538,53.751999999999995,33.3675,57.499,49.9125,52.928,32.965,57.4595,49.34866666666667,-0.03600000000000003,-0.1140000000000001,0.11304000000000002,0.111725,0.0,207.72,207.67000000000002,204.43666666666667,204.43666666666667,0.0,0.0
4,0.0,0.0,0.0,1.0,1.0,0.0,0.0,1.0,0.0,0.0,1.0,1.1856,26.0,0.0,0.0,0.0,59.999996,0.0,26.0,26.0,26.0,26.0,-0.0802222222222222,0.29269999999999996,0.014700000000000001,293.823,-2.6794000000000002,-2.7483,-1.4868999999999999,-1.5923,-262.42,215.4525,190.910375,0.0,0.0,0.0,0.0,0.009300000000000001,-5.498166666666667,-5.498166666666667,-0.5291,-0.9810000000000001,-0.04662500000000014,-0.6819999999999995,66.445,-0.0459,-0.234625,1.0060000000000002,100.0,1.0,1.0,205.11,0.0,0.0,0.0,0.0,0.0,0.0,0.0,8693.8,0.0,24.0,5.0,239.17333333333335,0.0,0.0,0.0,0.0,0.0,0.0,0.0,0.0,0.20400000000000063,0.20400000000000063,0.0,0.0,0.0,55.0,616.79921,10000.0,85.000001,85.000001,85.000001,85.000001,395.0,0.0,0.0,0.0,1.0,333.33500000000004,53.543,53.543,49.132999999999996,49.132999999999996,34.0,-27.48,19.325,-30.1625,23.247500000000002,0.0,1783.397,0.625,100.0,27.373,26.895,42.544,41.96,0.0,0.0,100.0,0.0,0.0,0.0,0.0,3158.125,2790.0,4031.4444444444443,3787.9,305.3335,305.869,315.00575,315.37225,21.7782,20.5081,21.793,21.331699999999998,314.999998,314.999998,324.999988,324.999988,99.55782857142857,99.50668333333333,99.56501428571428,99.54522857142857,-0.0023333333333332984,-0.1263333333333332,-0.1811666666666666,0.05366666666666675,-0.05666666666667197,-0.03857142857143003,1.5725,1.597,37.113,29.175333333333334,37.206,34.323,55.793,34.1865,58.9095,51.5985,53.736000000000004,33.4035,57.539500000000004,49.97,52.911,33.0,57.497,49.40533333333333,-0.021499999999999964,-0.12250000000000005,0.10807000000000001,0.10924500000000001,0.0,208.135,208.035,205.11,205.11,0.0,0.0
5,0.0,0.0,0.0,1.0,1.0,0.0,0.0,1.0,0.0,0.0,1.0,1.1856,26.0,0.0,0.0,0.0,59.999996,0.0,26.0,26.0,26.0,26.0,-0.09688888888888891,0.30930000000000013,-0.05903333333333334,294.144,-2.6511,-2.7037,-1.5393,-1.5693000000000001,-259.03,215.4525,190.8905,0.0,0.0,0.0,0.0,0.011266666666666668,-5.498166666666667,-5.498166666666667,-0.5402,0.5623333333333334,-0.02562500000000023,0.8300000000000001,66.593,-0.06570000000000001,-0.225525,0.9820000000000002,100.0,1.0,1.0,205.66333333333333,0.0,0.0,0.0,0.0,0.0,0.0,0.0,8717.4,0.0,24.0,5.0,239.70333333333332,1.0,0.0,0.0,0.0,0.0,0.0,0.0,0.0,0.254999999999999,0.254999999999999,0.0,0.0,1.0,55.0,616.79921,10000.0,85.000001,85.000001,85.000001,85.000001,395.0,0.0,0.0,0.0,1.0,166.665,53.604,53.604,49.652,49.652,34.0,-25.1,20.655,-29.49,23.04,0.0,1783.348,0.34500000000000064,100.0,27.431,26.733,42.068,41.247,0.0,0.0,100.0,0.0,0.0,0.0,0.0,2985.625,2949.9,3860.6666666666665,3935.8,305.5985,305.44775,315.43775,315.1325,21.788,20.5131,21.8033,21.3404,314.999998,314.999998,324.999988,324.999988,99.55782857142857,99.5067,99.56515714285715,99.54538571428571,0.01633333333333331,-0.11399999999999988,-0.1901666666666666,0.03816666666666668,-0.054999999999999716,-0.06571428571428584,1.6115,1.629,37.175,29.207,37.269999999999996,34.3775,55.778,34.2275,58.947,51.656,53.721000000000004,33.4415,57.5745,50.0255,52.896,33.036,57.528999999999996,49.45933333333333,-0.052999999999999936,-0.10149999999999992,0.10577500000000001,0.10539000000000001,0.0,208.63,208.535,205.66333333333333,205.66333333333333,0.0,0.0
6,0.0,0.0,0.0,1.0,1.0,0.0,0.0,1.0,0.0,0.0,1.0,1.1856,26.0,0.0,0.0,0.0,59.999996,0.0,26.0,26.0,26.0,26.0,-0.10655555555555551,0.2852000000000001,-0.022866666666666667,293.884,-2.6828,-2.7808,-1.4847000000000001,-1.558,-255.82999999999998,215.4525,190.870875,0.0,0.0,0.0,0.0,0.013133333333333335,-5.498166666666667,-5.498166666666667,-0.5279,-0.2426666666666668,-0.04662500000000014,0.33000000000000007,66.735,-0.0702,-0.20722500000000002,0.822000000000001,100.0,1.0,1.0,205.89333333333332,0.0,0.0,0.0,0.0,0.0,0.0,0.0,8727.1,0.0,24.0,5.0,240.21666666666667,0.0,0.0,0.0,0.0,0.0,0.0,0.0,0.0,0.3030000000000008,0.3030000000000008,0.0,0.0,0.0,55.0,616.79921,10000.0,85.000001,85.000001,85.000001,85.000001,395.0,0.0,0.0,0.0,1.0,166.665,53.97,53.97,48.965,48.965,34.0,-26.759999999999998,19.858333333333334,-31.6875,24.197499999999998,0.0,1783.3,0.46000000000000085,100.0,27.213,26.394,42.299,41.393,0.0,0.0,100.0,0.0,0.0,0.0,0.0,3061.875,2822.4,4163.444444444444,4087.8,305.4825,305.85125,314.60975,314.716,21.7971,20.5178,21.8131,21.3488,314.999998,314.999998,324.999988,324.999988,99.55782857142857,99.50671666666666,99.5653,99.54551428571429,-0.002666666666666595,-0.12433333333333318,-0.1795,0.03616666666666668,-0.03333333333333144,-0.05571428571428072,1.5075,1.556,37.232,29.236333333333334,37.332,34.43,55.762,34.265,58.9855,51.715,53.706,33.4755,57.6105,50.082,52.879999999999995,33.069,57.5625,49.51466666666666,-0.04049999999999998,-0.10549999999999993,0.10501,0.10709500000000001,0.0,209.04500000000002,208.97500000000002,205.89333333333332,205.89333333333332,0.0,0.0
7,0.0,0.0,0.0,1.0,1.0,0.0,0.0,1.0,0.0,0.0,1.0,1.1856,26.0,0.0,0.0,0.0,59.999996,0.0,26.0,26.0,26.0,26.0,-0.06777777777777783,0.2946,-0.005033333333333334,293.961,-2.6834,-2.7789,-1.5346000000000002,-1.6061,-252.42,215.45,190.85025,0.0,0.0,0.0,0.0,0.015133333333333335,-5.498166666666667,-5.498166666666667,-0.5341,0.13,-0.04312499999999986,-0.3069999999999995,66.882,-0.0752,-0.219275,0.7220000000000004,100.0,1.0,1.0,206.42666666666668,0.0,0.0,0.0,0.0,0.0,0.0,0.0,8749.7,0.0,24.0,5.0,240.74666666666667,1.0,0.0,0.0,0.0,0.0,0.0,0.0,0.0,0.3539999999999992,0.3539999999999992,0.0,0.0,1.0,55.0,616.79921,10000.0,85.000001,85.000001,85.000001,85.000001,395.0,0.0,0.0,0.0,1.0,166.665,53.741,53.741,49.194,49.194,34.0,-26.605,20.698333333333334,-32.6025,22.9525,0.0,1783.248,-0.10999999999999943,100.0,27.287,26.628,42.223,41.411,0.0,0.0,100.0,0.0,0.0,0.0,0.0,3167.875,2801.1,4127.555555555556,3894.6000000000004,305.336,305.72025,314.8275,315.11825,21.8069,20.5229,21.8235,21.357599999999998,314.999998,314.999998,324.999988,324.999988,99.55784285714286,99.50673333333333,99.56544285714286,99.54565714285714,0.021333333333333204,-0.10266666666666668,-0.1991666666666666,0.025833333333333375,-0.054999999999999716,-0.05142857142856627,1.553,1.576,37.293,29.268,37.397,34.4855,55.748000000000005,34.306,59.025999999999996,51.7745,53.692,33.5135,57.6485,50.138999999999996,52.866,33.1045,57.5975,49.57066666666667,-0.08150000000000002,-0.0665,0.10992500000000001,0.10639000000000001,0.0,209.515,209.425,206.42666666666668,206.42666666666668,0.0,0.0
8,0.0,0.0,0.0,1.0,1.0,0.0,0.0,1.0,0.0,0.0,1.0,1.1856,26.0,0.0,0.0,0.0,59.999996,0.0,26.0,26.0,26.0,26.0,-0.06599999999999995,0.28880000000000017,-0.024066666666666667,294.067,-2.672,-2.7193,-1.5455999999999999,-1.5984,-249.0,215.445,190.829625,0.0,0.0,0.0,0.0,0.0171,-5.498166666666667,-5.498166666666667,-0.5355,-0.08033333333333337,-0.030749999999999833,0.40500000000000025,67.029,-0.0658,-0.21987500000000001,0.24200000000000088,100.0,1.0,1.0,206.87333333333333,0.0,0.0,0.0,0.0,0.0,0.0,0.0,8768.6,0.0,24.0,5.0,241.27666666666667,0.0,0.0,0.0,0.0,0.0,0.0,0.0,0.0,0.40500000000000114,0.40500000000000114,0.0,0.0,0.0,55.0,616.79921,10000.0,85.000001,85.000001,85.000001,85.000001,395.0,0.0,0.0,0.0,1.0,333.33500000000004,53.925,53.925,48.996,48.996,34.0,-24.2,22.32,-29.71,24.6725,0.0,1783.197,-0.1899999999999995,100.0,27.128,26.496,42.303,41.43,0.0,0.0,100.0,0.0,0.0,0.0,0.0,2944.5,2990.5,3987.0,3965.0,305.7865,305.34425,315.094,315.00275,21.8165,20.528,21.8339,21.3666,314.999998,314.999998,324.999988,324.999988,99.55784285714286,99.50675,99.56558571428572,99.54578571428571,0.03200000000000003,-0.08433333333333315,-0.16183333333333338,0.05366666666666675,-0.03333333333333144,-0.044285714285713595,1.56,1.5750000000000002,37.352999999999994,29.299999999999997,37.462,34.541,55.730999999999995,34.346000000000004,59.0655,51.836,53.677,33.5505,57.6855,50.198,52.849999999999994,33.14,57.6315,49.62833333333333,-0.08850000000000002,-0.05449999999999999,0.10574000000000001,0.10270000000000001,0.0,209.925,209.89,206.87333333333333,206.87333333333333,0.0,0.0
9,0.0,0.0,0.0,1.0,1.0,0.0,0.0,1.0,0.0,0.0,1.0,1.1856,26.0,0.0,0.0,0.0,59.999996,0.0,26.0,26.0,26.0,26.0,-0.03633333333333333,0.3003,-0.009466666666666668,293.823,-2.6747,-2.7318,-1.5324,-1.5578,-245.57999999999998,215.4375,190.808625,0.0,0.0,0.0,0.0,0.019100000000000002,-5.498166666666667,-5.498166666666667,-0.5327000000000001,0.18499999999999994,-0.044500000000000206,-0.782,67.176,-0.0492,-0.212375,0.13200000000000056,100.0,1.0,1.0,207.29666666666668,0.0,0.0,0.0,0.0,0.0,0.0,0.0,8786.5,0.0,24.0,5.0,241.80333333333334,1.0,0.0,0.0,0.0,0.0,0.0,0.0,0.0,0.4559999999999995,0.4559999999999995,0.0,0.0,1.0,55.0,616.79921,10000.0,85.000001,85.000001,85.000001,85.000001,395.0,0.0,0.0,0.0,1.0,166.665,53.604,53.604,49.164,49.164,34.0,-26.1525,22.181666666666665,-30.4675,24.9025,0.0,1783.147,-0.3249999999999993,100.0,27.112000000000002,26.635,42.134,41.55,0.0,0.0,100.0,0.0,0.0,0.0,0.0,3180.5,2911.9,4086.3333333333335,4025.9,305.2585,305.411,314.94775,314.8105,21.8261,20.5332,21.8443,21.3755,314.999998,314.999998,324.999988,324.999988,99.55784285714286,99.50675,99.56572857142856,99.54592857142858,0.034666666666666845,-0.07833333333333314,-0.16466666666666663,0.058499999999999996,-0.06333333333333258,-0.05285714285714249,1.552,1.574,37.413,29.332333333333334,37.527,34.597,55.717,34.3855,59.105000000000004,51.8965,53.663,33.5865,57.7225,50.256,52.835,33.1745,57.6655,49.685,-0.09450000000000003,-0.04249999999999998,0.111515,0.10752500000000001,0.0,210.39499999999998,210.37,207.29666666666668,207.29666666666668,0.0,0.0
10,0.0,0.0,0.0,1.0,1.0,0.0,0.0,1.0,0.0,0.0,1.0,1.1856,26.0,0.0,0.0,0.0,59.999996,0.0,26.0,26.0,26.0,26.0,-0.026111111111111085,0.2811000000000001,0.015633333333333336,293.747,-2.6806,-2.7081,-1.55,-1.5425,-242.15,215.43,190.78775,0.0,0.0,0.0,0.0,0.0211,-5.498166666666667,-5.498166666666667,-0.5292,-0.2430000000000001,-0.014874999999999972,1.5300000000000002,67.32300000000001,-0.0317,-0.21277500000000002,-0.20399999999999974,100.0,1.0,1.0,207.68333333333334,0.0,0.0,0.0,0.0,0.0,0.0,0.0,8802.9,0.0,24.0,5.0,242.33333333333334,0.0,0.0,0.0,0.0,0.0,0.0,1.0,0.0,0.5069999999999979,0.5069999999999979,0.0,0.0,0.0,55.0,616.79921,10000.0,85.000001,85.000001,85.000001,85.000001,395.0,0.0,0.0,0.0,1.0,166.665,53.879,53.879,48.874,48.874,34.0,-23.1475,23.518333333333334,-29.572499999999998,28.1225,0.0,1783.096,-0.379999999999999,100.0,27.233,26.488,42.364000000000004,41.777,0.0,0.0,100.0,0.0,0.0,0.0,0.0,2940.25,3003.1,4045.4444444444443,4230.5,305.784,305.341,314.94,314.37575,21.8358,20.5383,21.8547,21.3845,314.999998,314.999998,324.999988,324.999988,99.55785714285715,99.50676666666666,99.56587142857143,99.54607142857142,0.06000000000000005,-0.05366666666666675,-0.14383333333333337,0.09133333333333327,-0.041666666666671404,-0.044285714285713595,1.529,1.52,37.474000000000004,29.364333333333335,37.592,34.6535,55.703,34.4235,59.1455,51.9585,53.65,33.6215,57.76,50.3155,52.821,33.208,57.7,49.74333333333333,-0.10250000000000004,-0.034499999999999975,0.11266500000000002,0.11013500000000001,0.0,210.82999999999998,210.825,207.68333333333334,207.68333333333334,0.0,0.0
11,0.0,0.0,0.0,1.0,1.0,0.0,0.0,1.0,0.0,0.0,1.0,1.1856,26.0,0.0,0.0,0.0,59.999996,0.0,26.0,26.0,26.0,26.0,-0.004222222222222127,0.2804,-0.02946666666666667,294.052,-2.6936999999999998,-2.7021,-1.5582,-1.5145,-238.92000000000002,215.42000000000002,190.767875,0.0,0.0,0.0,0.0,0.022600000000000002,-5.498166666666667,-5.498166666666667,-0.55,-0.2430000000000001,0.008874999999999966,0.9779999999999998,67.458,-0.016900000000000002,-0.22360000000000002,-0.3120000000000003,100.0,1.0,1.0,208.20666666666668,0.0,0.0,0.0,0.0,0.0,0.0,0.0,8825.1,0.0,24.0,5.0,242.82,1.0,0.0,0.0,0.0,0.0,0.0,1.0,0.0,0.5549999999999997,0.5549999999999997,0.0,0.0,1.0,55.0,616.79921,10000.0,85.000001,85.000001,85.000001,85.000001,395.0,0.0,0.0,0.0,1.0,333.33500000000004,53.864,53.864,49.393,49.393,34.0,-22.745,24.553333333333335,-26.6275,27.0925,0.0,1783.045,-0.39000000000000057,100.0,26.946,26.532,42.057,41.819,0.0,0.0,100.0,0.0,0.0,0.0,0.0,2953.125,3081.3,3852.5555555555557,4064.2,305.776,305.08875,315.434,314.808,21.8447,20.5432,21.8644,21.393,314.999998,314.999998,324.999988,324.999988,99.55785714285715,99.50678333333333,99.56601428571429,99.54621428571429,0.07466666666666644,-0.04499999999999993,-0.12066666666666659,0.10949999999999993,-0.02499999999999858,-0.05142857142856627,1.588,1.57,37.53,29.394666666666666,37.652,34.706,55.688,34.4615,59.1825,52.0195,53.635999999999996,33.657,57.7945,50.374,52.806,33.242,57.7315,49.800666666666665,-0.10399999999999998,-0.04299999999999993,0.11194000000000001,0.108395,0.0,211.22500000000002,211.24,208.20666666666668,208.20666666666668,0.0,0.0
12,0.0,0.0,0.0,1.0,1.0,0.0,0.0,1.0,0.0,0.0,1.0,1.1856,26.0,0.0,0.0,0.0,59.999996,0.0,26.0,26.0,26.0,26.0,0.010000000000000009,0.2901,0.013333333333333334,293.716,-2.7245,-2.6931000000000003,-1.5556,-1.5323,-235.68,215.4125,190.74725,0.0,0.0,0.0,0.0,0.025466666666666665,-5.498166666666667,-5.498166666666667,-0.5411,0.42266666666666663,0.012375000000000025,0.6840000000000002,67.595,-0.0024000000000000002,-0.20550000000000002,-0.3279999999999994,100.0,1.0,1.0,208.55,0.0,0.0,0.0,0.0,0.0,0.0,0.0,8839.6,0.0,24.0,5.0,243.31,0.0,0.0,0.0,0.0,0.0,0.0,1.0,0.0,0.602999999999998,0.602999999999998,0.0,0.0,0.0,55.0,616.79921,10000.0,85.000001,85.000001,85.000001,85.000001,395.0,0.0,0.0,0.0,1.0,333.33500000000004,53.589,53.589,48.843,48.843,34.0,-22.825,25.003333333333334,-27.4,29.365000000000002,0.0,1782.998,-0.39000000000000057,100.0,27.059,26.828,41.903,41.783,0.0,0.0,100.0,0.0,0.0,0.0,0.0,2961.5,3124.1,4055.3333333333335,4202.2,305.737,304.927,314.954,314.49575,21.8538,20.5482,21.8741,21.4014,314.999998,314.999998,324.999988,324.999988,99.55787142857143,99.50678333333333,99.56614285714285,99.54634285714286,0.08199999999999985,-0.043333333333333224,-0.09966666666666657,0.125,-0.041666666666671404,-0.048571428571428044,1.5495,1.5430000000000001,37.586,29.426000000000002,37.713,34.7585,55.676,34.4965,59.2155,52.073,53.623999999999995,33.6885,57.825,50.4255,52.794,33.2725,57.76,49.851333333333336,-0.10050000000000003,-0.0475000000000001,0.10209000000000001,0.10533500000000001,0.0,211.675,211.695,208.55,208.55,0.0,0.0
13,0.0,0.0,0.0,1.0,1.0,0.0,0.0,1.0,0.0,0.0,1.0,1.1856,26.0,0.0,0.0,0.0,59.999996,0.0,26.0,26.0,26.0,26.0,0.04255555555555568,0.28300000000000014,0.0167,293.442,-2.6994,-2.7022,-1.552,-1.5390000000000001,-232.22,215.405,190.7255,0.0,0.0,0.0,0.0,0.02686666666666667,-5.498166666666667,-5.498166666666667,-0.5375,-0.29800000000000004,0.0068749999999999645,-0.45500000000000007,67.74000000000001,0.002,-0.21527500000000002,-0.3360000000000003,100.0,1.0,1.0,208.92333333333335,0.0,0.0,0.0,0.0,0.0,0.0,0.0,8855.5,0.0,24.0,5.0,243.83333333333334,1.0,0.0,0.0,0.0,0.0,0.0,1.0,0.0,0.6539999999999999,0.6539999999999999,0.0,0.0,1.0,55.0,616.79921,10000.0,85.000001,85.000001,85.000001,85.000001,395.0,0.0,0.0,0.0,1.0,333.33500000000004,53.482,53.482,48.66,48.66,34.0,-22.9025,24.573333333333334,-28.7075,28.965,0.0,1782.946,-0.375,100.0,27.078,27.098,42.17,42.32,0.0,0.0,100.0,0.0,0.0,0.0,0.0,3078.25,2974.6,4114.111111111111,4198.2,305.576,305.2245,314.84,314.3815,21.8633,20.5535,21.8846,21.4105,314.999998,314.999998,324.999988,324.999988,99.55788571428572,99.50678333333333,99.56628571428571,99.5465,0.09399999999999986,-0.025666666666666726,-0.11499999999999999,0.1100000000000001,-0.054999999999999716,-0.034285714285715585,1.5190000000000001,1.5070000000000001,37.646,29.459,37.778,34.8155,55.664,34.5345,59.256,52.1365,53.611999999999995,33.724000000000004,57.8625,50.4865,52.781,33.306,57.7945,49.911,-0.11749999999999994,-0.02849999999999997,0.11040000000000001,0.10770500000000001,0.0,212.10500000000002,212.095,208.92333333333335,208.92333333333335,0.0,0.0
14,0.0,0.0,0.0,1.0,1.0,0.0,0.0,1.0,0.0,0.0,1.0,1.1856,26.0,0.0,0.0,0.0,59.999996,0.0,26.0,26.0,26.0,26.0,0.04922222222222228,0.28980000000000006,-0.044033333333333334,293.671,-2.716,-2.7108,-1.5901,-1.5333999999999999,-228.56,215.3975,190.702625,0.0,0.0,0.0,0.0,0.029,-5.498166666666667,-5.498166666666667,-0.5501,-0.013000000000000123,0.020874999999999977,-0.5270000000000001,67.89,0.0112,-0.224425,-0.36600000000000055,100.0,1.0,1.0,209.49,0.0,0.0,0.0,0.0,0.0,0.0,0.0,8879.5,0.0,24.0,5.0,244.37333333333333,0.0,0.0,0.0,0.0,0.0,0.0,1.0,0.0,0.7079999999999984,0.7079999999999984,0.0,0.0,0.0,55.0,616.79921,10000.0,85.000001,85.000001,85.000001,85.000001,395.0,0.0,0.0,0.0,1.0,166.665,53.528,53.528,49.072,49.072,34.0,-23.0425,24.051666666666666,-27.05,28.165,0.0,1782.895,-0.41499999999999915,100.0,27.084,27.25,42.041,42.366,0.0,0.0,100.0,0.0,0.0,0.0,0.0,3038.375,2949.2,3971.222222222222,4029.9,305.704,305.26175,315.24025,314.78325,21.8734,20.5591,21.8955,21.420099999999998,314.999998,314.999998,324.999988,324.999988,99.55788571428572,99.50678333333333,99.56644285714286,99.54664285714286,0.08599999999999985,-0.03633333333333311,-0.10166666666666657,0.1283333333333332,-0.04833333333333201,-0.060000000000002274,1.578,1.572,37.709,29.494666666666667,37.847,34.8755,55.65,34.5755,59.295,52.201,53.599000000000004,33.7615,57.899,50.549,52.766999999999996,33.342,57.8275,49.972,-0.10499999999999998,-0.03849999999999998,0.10806500000000001,0.11368500000000001,0.0,212.57,212.585,209.49,209.49,0.0,0.0
15,0.0,0.0,0.0,1.0,1.0,0.0,0.0,1.0,0.0,0.0,1.0,1.1856,26.0,0.0,0.0,0.0,59.999996,0.0,26.0,26.0,26.0,26.0,0.0564444444444443,0.28290000000000015,-0.03253333333333333,293.518,-2.7038,-2.6897,-1.603,-1.5545,-225.3,215.39249999999998,190.682,0.0,0.0,0.0,0.0,0.0309,-5.498166666666667,-5.498166666666667,-0.5413,0.18933333333333335,0.02762500000000001,-0.8179999999999996,68.024,0.0179,-0.20977500000000002,-0.3620000000000001,100.0,1.0,1.0,209.85666666666668,0.0,0.0,0.0,0.0,0.0,0.0,0.0,8895.0,0.0,24.0,5.0,244.85666666666668,1.0,0.0,0.0,0.0,0.0,0.0,1.0,0.0,0.7560000000000002,0.7560000000000002,0.0,0.0,1.0,55.0,616.79921,10000.0,85.000001,85.000001,85.000001,85.000001,395.0,0.0,0.0,0.0,1.0,166.665,53.528,53.528,48.721000000000004,48.721000000000004,34.0,-22.2825,23.701666666666668,-27.44,29.1175,0.0,1782.847,-0.27500000000000036,100.0,27.132,27.378,42.048,42.506,0.0,0.0,100.0,0.0,0.0,0.0,0.0,3007.25,2923.3,4092.0,4076.6000000000004,305.8025,305.32925,314.9885,314.6695,21.8823,20.5642,21.9052,21.4286,314.999998,314.999998,324.999988,324.999988,99.5579,99.5068,99.56657142857142,99.54678571428572,0.0950000000000002,-0.03499999999999992,-0.08499999999999996,0.13116666666666688,-0.05333333333332746,-0.05285714285714249,1.5535,1.544,37.765,29.526,37.908,34.929,55.638,34.612,59.33,52.2595,53.588,33.795,57.9315,50.605000000000004,52.754999999999995,33.3745,57.8575,50.027,-0.09950000000000003,-0.04699999999999993,0.10445000000000002,0.10379000000000001,0.0,213.005,213.01999999999998,209.85666666666668,209.85666666666668,0.0,0.0
16,0.0,0.0,0.0,1.0,1.0,0.0,0.0,1.0,0.0,0.0,1.0,1.1856,26.0,0.0,0.0,0.0,59.999996,0.0,26.0,26.0,26.0,26.0,0.04677777777777781,0.2783,-0.007533333333333333,293.274,-2.6672,-2.6374,-1.5806,-1.5537,-222.03,215.385,190.661125,0.0,0.0,0.0,0.0,0.0328,-5.498166666666667,-5.498166666666667,-0.5524,-0.28866666666666685,0.01737499999999992,-0.9669999999999996,68.157,0.0198,-0.22425,-0.1639999999999997,100.0,1.0,1.0,210.26333333333332,0.0,0.0,0.0,0.0,0.0,0.0,0.0,8912.4,0.0,24.0,5.0,245.34,0.0,0.0,0.0,0.0,0.0,0.0,1.0,0.0,0.8039999999999985,0.8039999999999985,0.0,0.0,0.0,55.0,616.79921,10000.0,85.000001,85.000001,85.000001,85.000001,395.0,0.0,0.0,0.0,1.0,166.665,53.04,53.04,48.492,48.492,34.0,-23.1225,24.79,-27.15,28.4825,0.0,1782.799,-0.25,100.0,27.079,27.478,42.291,42.638,0.0,0.0,100.0,0.0,0.0,0.0,0.0,3138.875,3101.6,4042.6666666666665,3980.3,305.368,304.84775,315.02775,314.92075,21.8912,20.5693,21.915,21.4372,314.999998,314.999998,324.999988,324.999988,99.55791428571429,99.5068,99.56671428571428,99.54691428571428,0.09533333333333349,-0.035666666666666735,-0.09050000000000002,0.13583333333333325,-0.03999999999999915,-0.057142857142849834,1.5455,1.544,37.82,29.558,37.969,34.9825,55.625,34.6485,59.3665,52.318,53.575,33.829,57.966,50.661,52.741,33.407,57.8885,50.08233333333334,-0.09399999999999997,-0.05449999999999999,0.10647500000000001,0.1145,0.0,213.38,213.41,210.26333333333332,210.26333333333332,0.0,0.0
17,0.0,0.0,0.0,1.0,1.0,0.0,0.0,1.0,0.0,0.0,1.0,1.1856,26.0,0.0,0.0,0.0,59.999996,0.0,26.0,26.0,26.0,26.0,0.033666666666666734,0.27880000000000016,0.0281,293.076,-2.6301,-2.7236000000000002,-1.5426,-1.5165000000000002,-218.55,215.3825,190.63875,0.0,0.0,0.0,0.0,0.034800000000000005,-5.498166666666667,-5.498166666666667,-0.5492,0.15166666666666662,-0.0006249999999998757,0.4299999999999997,68.299,0.0152,-0.21725,-0.2079999999999993,100.0,1.0,1.0,210.63333333333333,0.0,0.0,0.0,0.0,0.0,0.0,0.0,8927.9,0.0,24.0,5.0,245.85000000000002,1.0,0.0,0.0,0.0,0.0,0.0,1.0,0.0,0.8550000000000004,0.8550000000000004,0.0,0.0,1.0,55.0,616.79921,10000.0,85.000001,85.000001,85.000001,85.000001,395.0,0.0,0.0,0.0,1.0,166.665,53.04,53.04,48.187,48.187,34.0,-21.565,25.27,-27.105,30.265,0.0,1782.747,-0.17499999999999893,100.0,27.501,27.45,42.406,42.555,0.0,0.0,100.0,0.0,0.0,0.0,0.0,2976.75,3079.6,4122.222222222223,4246.3,305.6495,304.917,314.761,314.3935,21.9007,20.5747,21.9254,21.4462,314.999998,314.999998,324.999988,324.999988,99.55792857142858,99.5068,99.56685714285715,99.54707142857143,0.09733333333333372,-0.03766666666666674,-0.08283333333333331,0.1363333333333332,-0.04999999999999716,-0.04999999999999716,1.5165,1.514,37.879000000000005,29.592,38.034,35.039,55.613,34.688,59.4045,52.3795,53.563,33.8655,58.001,50.7205,52.727999999999994,33.4415,57.920500000000004,50.14033333333333,-0.08750000000000002,-0.05950000000000011,0.10359000000000002,0.10516,0.0,213.84,213.85500000000002,210.63333333333333,210.63333333333333,0.0,0.0
18,0.0,0.0,0.0,1.0,1.0,0.0,0.0,1.0,0.0,0.0,1.0,1.1856,26.0,0.0,0.0,0.0,59.999996,0.0,26.0,26.0,26.0,26.0,0.022666666666666613,0.27790000000000004,0.012333333333333333,293.106,-2.6478,-2.7566,-1.5247000000000002,-1.5876000000000001,-215.26999999999998,215.3775,190.6175,0.0,0.0,0.0,0.0,0.0367,-5.498166666666667,-5.498166666666667,-0.5602,-0.3383333333333334,-0.0016250000000002096,0.7720000000000002,68.432,0.0129,-0.22615000000000002,-0.18200000000000038,100.0,1.0,1.0,211.04333333333335,0.0,0.0,0.0,0.0,0.0,0.0,0.0,8945.3,0.0,24.0,5.0,246.32666666666665,0.0,0.0,0.0,0.0,0.0,0.0,1.0,0.0,0.9029999999999987,0.9029999999999987,0.0,0.0,0.0,55.0,616.79921,10000.0,85.000001,85.000001,85.000001,85.000001,395.0,0.0,0.0,0.0,1.0,166.665,53.085,53.085,48.447,48.447,34.0,-22.3425,25.509999999999998,-26.685,29.9825,0.0,1782.699,-0.16499999999999915,100.0,27.493,27.326999999999998,42.539,42.683,0.0,0.0,100.0,0.0,0.0,0.0,0.0,3014.625,3096.1,4010.777777777778,4157.7,305.5805,304.925,314.998,314.47975,21.9095,20.5797,21.935200000000002,21.4548,314.999998,314.999998,324.999988,324.999988,99.55794285714286,99.50681666666667,99.567,99.5472,0.08899999999999997,-0.04133333333333322,-0.09533333333333338,0.12250000000000005,-0.051666666666669414,-0.054285714285711606,1.5110000000000001,1.5110000000000001,37.935,29.623333333333335,38.095,35.0925,55.599999999999994,34.7235,59.4405,52.4375,53.551,33.8985,58.0345,50.7765,52.715,33.4735,57.951499999999996,50.195,-0.08899999999999997,-0.06600000000000006,0.10483500000000001,0.10550000000000001,0.0,214.245,214.235,211.04333333333335,211.04333333333335,0.0,0.0
19,0.0,0.0,0.0,1.0,1.0,0.0,0.0,1.0,0.0,0.0,1.0,1.1856,26.0,0.0,0.0,0.0,59.999996,0.0,26.0,26.0,26.0,26.0,0.035222222222222266,0.278,-0.0022,292.969,-2.6448,-2.7144,-1.528,-1.5998999999999999,-211.78,215.375,190.594625,0.0,0.0,0.0,0.0,0.038733333333333335,-5.498166666666667,-5.498166666666667,-0.5493,0.5283333333333333,0.007749999999999924,-0.6739999999999995,68.57,0.0074,-0.2131,0.009999999999999787,100.0,1.0,1.0,211.49333333333334,0.0,0.0,0.0,0.0,0.0,0.0,0.0,8964.5,0.0,24.0,5.0,246.82666666666665,1.0,0.0,0.0,0.0,0.0,0.0,1.0,0.0,0.9540000000000006,0.9540000000000006,0.0,0.0,1.0,55.0,616.79921,10000.0,85.000001,85.000001,85.000001,85.000001,395.0,0.0,0.0,0.0,1.0,333.33500000000004,52.841,52.841,48.462,48.462,34.0,-23.4325,23.465,-28.58,29.1625,0.0,1782.648,-0.11999999999999922,100.0,27.764,27.823999999999998,42.349000000000004,42.81,0.0,0.0,100.0,0.0,0.0,0.0,0.0,3087.625,2940.9,4119.111111111111,4121.7,305.525,305.2205,314.86675,314.53175,21.9191,20.5852,21.9455,21.4639,314.999998,314.999998,324.999988,324.999988,99.55794285714286,99.50681666666667,99.56714285714285,99.54734285714285,0.0733333333333337,-0.05266666666666664,-0.11699999999999999,0.10916666666666686,-0.05666666666667197,-0.044285714285713595,1.5035,1.521,37.994,29.657666666666664,38.159,35.1495,55.588,34.763999999999996,59.4775,52.4985,53.54,33.936,58.069,50.835,52.703,33.509,57.9825,50.25266666666667,-0.08899999999999997,-0.0645,0.10977,0.10612500000000001,0.0,214.72500000000002,214.695,211.49333333333334,211.49333333333334,0.0,0.0
20,0.0,0.0,0.0,1.0,1.0,0.0,0.0,1.0,0.0,0.0,1.0,1.1856,26.0,0.0,0.0,0.0,59.999996,0.0,26.0,26.0,26.0,26.0,0.003666666666666707,0.2662,-0.04003333333333333,293.06,-2.7062,-2.662,-1.5998999999999999,-1.5878999999999999,-208.28,215.37,190.572125,0.0,0.0,0.0,0.0,0.04076666666666667,-5.498166666666667,-5.498166666666667,-0.5568000000000001,-0.7263333333333333,0.007374999999999909,0.5819999999999999,68.71000000000001,0.0035,-0.227025,-0.012000000000000455,100.0,1.0,1.0,211.91333333333333,0.0,0.0,0.0,0.0,0.0,0.0,0.0,8982.2,0.0,24.0,5.0,247.32999999999998,0.0,0.0,0.0,0.0,0.0,0.0,0.0,0.0,1.004999999999999,1.004999999999999,0.0,0.0,0.0,55.0,616.79921,10000.0,85.000001,85.000001,85.000001,85.000001,395.0,0.0,0.0,0.0,1.0,333.33500000000004,53.116,53.116,48.035,48.035,34.0,-22.8825,24.403333333333332,-28.14,28.57,0.0,1782.597,-0.129999999999999,100.0,27.565,27.41,42.976,43.028,0.0,0.0,100.0,0.0,0.0,0.0,0.0,2980.0,3104.1,4025.222222222222,4016.3,305.7305,305.029,314.9955,314.889,21.9284,20.5906,21.956,21.4731,314.999998,314.999998,324.999988,324.999988,99.55795714285715,99.50683333333333,99.56728571428572,99.5475,0.08033333333333337,-0.04600000000000004,-0.10366666666666657,0.12166666666666681,-0.03999999999999915,-0.05857142857143316,1.5265,1.528,38.053,29.691333333333333,38.225,35.207,55.574,34.803,59.516999999999996,52.5615,53.525999999999996,33.972,58.106,50.8955,52.688,33.5435,58.0165,50.31166666666667,-0.08499999999999996,-0.07200000000000006,0.10690500000000001,0.1067,0.0,215.10500000000002,215.085,211.91333333333333,211.91333333333333,0.0,0.0
21,0.0,0.0,0.0,1.0,1.0,0.0,0.0,1.0,0.0,0.0,1.0,1.1856,26.0,0.0,0.0,0.0,59.999996,0.0,26.0,26.0,26.0,26.0,-0.011555555555555541,0.2862,-0.0422,293.106,-2.7205,-2.6739,-1.5596999999999999,-1.5269,-204.97,215.3675,190.550375,0.0,0.0,0.0,0.0,0.0427,-5.498166666666667,-5.498166666666667,-0.5729000000000001,0.08266666666666656,-0.0003750000000000142,0.7270000000000003,68.839,-0.0001,-0.22305,-0.013999999999999346,100.0,1.0,1.0,212.37666666666667,0.0,0.0,0.0,0.0,0.0,0.0,0.0,9001.9,0.0,24.0,5.0,247.79333333333335,1.0,0.0,0.0,0.0,0.0,0.0,0.0,0.0,1.0530000000000008,1.0530000000000008,0.0,0.0,1.0,55.0,616.79921,10000.0,85.000001,85.000001,85.000001,85.000001,395.0,0.0,0.0,0.0,1.0,166.665,52.887,52.887,48.569,48.569,34.0,-24.009999999999998,25.171666666666667,-27.634999999999998,27.43,0.0,1782.549,-0.1899999999999995,100.0,27.668,27.355,42.621,42.692,0.0,0.0,100.0,0.0,0.0,0.0,0.0,3086.25,3165.5,3993.4444444444443,4053.0,305.417,304.8525,315.1385,314.87875,21.9372,20.5957,21.9657,21.4816,314.999998,314.999998,324.999988,324.999988,99.55797142857143,99.50683333333333,99.56742857142856,99.54764285714286,0.07933333333333348,-0.043333333333333224,-0.11499999999999999,0.11499999999999999,-0.04333333333332945,-0.057142857142849834,1.571,1.579,38.108000000000004,29.723,38.285,35.26,55.562,34.84,59.551,52.6165,53.515,34.006,58.1375,50.948499999999996,52.676,33.576,58.045,50.36366666666667,-0.08699999999999997,-0.06099999999999994,0.11718,0.11363500000000001,0.0,215.515,215.505,212.37666666666667,212.37666666666667,0.0,0.0
22,0.0,0.0,0.0,1.0,1.0,0.0,0.0,1.0,0.0,0.0,1.0,1.1856,26.0,0.0,0.0,0.0,59.999996,0.0,26.0,26.0,26.0,26.0,-0.0003333333333332966,0.28290000000000015,0.03656666666666667,292.587,-2.7658,-2.6688,-1.565,-1.5257,-201.45999999999998,215.365,190.526375,0.0,0.0,0.0,0.0,0.04473333333333333,-5.498166666666667,-5.498166666666667,-0.5584,-0.0050000000000001155,0.0036249999999999893,-0.7439999999999998,68.979,-0.0008,-0.20350000000000001,-0.06200000000000028,100.0,1.0,1.0,212.63333333333333,0.0,0.0,0.0,0.0,0.0,0.0,0.0,9012.8,0.0,24.0,5.0,248.29666666666668,0.0,0.0,0.0,0.0,0.0,0.0,0.0,0.0,1.1039999999999992,1.1039999999999992,0.0,0.0,0.0,55.0,616.79921,10000.0,85.000001,85.000001,85.000001,85.000001,395.0,0.0,0.0,0.0,1.0,333.33500000000004,52.811,52.811,47.714,47.714,34.0,-25.322499999999998,24.161666666666665,-30.95,28.8625,0.0,1782.498,-0.27999999999999936,100.0,27.568,27.631999999999998,42.756,42.95,0.0,0.0,100.0,0.0,0.0,0.0,0.0,3197.625,3055.9,4304.888888888889,4305.9,305.3315,305.011,314.4765,314.12625,21.9466,20.6011,21.9761,21.4907,314.999998,314.999998,324.999988,324.999988,99.55797142857143,99.50683333333333,99.56757142857143,99.54778571428571,0.07533333333333347,-0.047666666666666746,-0.1223333333333334,0.09349999999999992,-0.045000000000001705,-0.047142857142851824,1.496,1.499,38.166,29.756999999999998,38.351,35.317,55.549,34.8795,59.59,52.6785,53.501999999999995,34.042,58.1735,51.007999999999996,52.663,33.6105,58.078,50.422,-0.09399999999999997,-0.0495000000000001,0.11086000000000001,0.09709000000000001,0.0,215.95,215.96,212.63333333333333,212.63333333333333,0.0,0.0
23,0.0,0.0,0.0,1.0,1.0,0.0,0.0,1.0,0.0,0.0,1.0,1.1856,26.0,0.0,0.0,0.0,59.999996,0.0,26.0,26.0,26.0,26.0,-0.0014444444444444704,0.2791000000000001,0.0187,292.603,-2.6576,-2.7005,-1.6293000000000002,-1.5054,-197.94,215.3625,190.50275,0.0,0.0,0.0,0.0,0.0468,-5.498166666666667,-5.498166666666667,-0.5725,-0.2596666666666667,0.0029999999999998916,0.8529999999999998,69.11500000000001,0.0051,-0.22615000000000002,-0.23399999999999999,100.0,1.0,1.0,213.10333333333335,0.0,0.0,0.0,0.0,0.0,0.0,0.0,9032.7,0.0,24.0,5.0,248.78666666666666,1.0,0.0,0.0,0.0,0.0,0.0,0.0,0.0,1.1550000000000011,1.1550000000000011,0.0,0.0,1.0,55.0,616.79921,10000.0,85.000001,85.000001,85.000001,85.000001,395.0,0.0,0.0,0.0,1.0,333.33500000000004,52.689,52.689,47.852000000000004,47.852000000000004,34.0,-22.875,24.971666666666668,-29.945,29.34,0.0,1782.446,-0.22499999999999964,100.0,27.982,27.58,43.077,43.025999999999996,0.0,0.0,100.0,0.0,0.0,0.0,0.0,3073.0,3094.2,4205.777777777777,4221.1,305.386,305.00475,314.65,314.46725,21.956,20.6066,21.9866,21.4999,314.999998,314.999998,324.999988,324.999988,99.55798571428572,99.50685,99.56771428571429,99.54792857142857,0.09166666666666634,-0.040000000000000036,-0.10333333333333339,0.12516666666666687,-0.02833333333332888,-0.06142857142857139,1.5314999999999999,1.514,38.224999999999994,29.791333333333334,38.416,35.3745,55.536,34.919,59.6285,52.74,53.489999999999995,34.0785,58.2095,51.067499999999995,52.65,33.6455,58.111,50.480000000000004,-0.09850000000000003,-0.05750000000000011,0.11032000000000002,0.111475,0.0,216.36,216.37,213.10333333333335,213.10333333333335,0.0,0.0
24,0.0,0.0,0.0,1.0,1.0,0.0,0.0,1.0,0.0,0.0,1.0,1.1856,26.0,0.0,0.0,0.0,59.999996,0.0,26.0,26.0,26.0,26.0,0.010666666666666602,0.2619,-0.049433333333333336,293.06,-2.7108,-2.6992000000000003,-1.5413000000000001,-1.5516,-194.62,215.36,190.48,0.0,0.0,0.0,0.0,0.04873333333333334,-5.498166666666667,-5.498166666666667,-0.5866,-0.44300000000000006,0.015374999999999917,1.1429999999999998,69.243,0.007500000000000001,-0.22257500000000002,-0.16000000000000014,100.0,1.0,1.0,213.54333333333335,0.0,0.0,0.0,0.0,0.0,0.0,0.0,9051.3,0.0,24.0,5.0,249.24666666666667,0.0,0.0,0.0,0.0,0.0,0.0,0.0,0.0,1.2029999999999994,1.2029999999999994,0.0,0.0,0.0,55.0,616.79921,10000.0,85.000001,85.000001,85.000001,85.000001,395.0,0.0,0.0,0.0,1.0,333.33500000000004,53.314,53.314,48.126,48.126,34.0,-22.28,24.29,-27.2725,29.075,0.0,1782.398,-0.22499999999999964,100.0,27.673000000000002,27.334,42.948,42.963,0.0,0.0,100.0,0.0,0.0,0.0,0.0,2925.25,3054.5,4022.3333333333335,4112.6,305.928,305.16525,315.01,314.70425,21.9648,20.6117,21.996299999999998,21.508499999999998,314.999998,314.999998,324.999988,324.999988,99.558,99.50685,99.56785714285714,99.54807142857143,0.08366666666666678,-0.046333333333333115,-0.10366666666666657,0.12583333333333324,-0.026666666666670835,-0.048571428571428044,1.543,1.5310000000000001,38.28,29.823,38.477000000000004,35.428,55.522999999999996,34.954499999999996,59.6625,52.7965,53.477999999999994,34.1115,58.2415,51.1215,52.637,33.6775,58.14,50.533,-0.08899999999999997,-0.06150000000000011,0.106605,0.109475,0.0,216.74,216.755,213.54333333333335,213.54333333333335,0.0,0.0
25,0.0,0.0,0.0,1.0,1.0,0.0,0.0,1.0,0.0,0.0,1.0,1.1856,26.0,0.0,0.0,0.0,59.999996,0.0,26.0,26.0,26.0,26.0,0.021666666666666723,0.27170000000000005,0.011466666666666668,292.603,-2.6831,-2.6718,-1.5817999999999999,-1.5507,-190.87,215.35750000000002,190.452875,0.0,0.0,0.0,0.0,0.0509,-5.498166666666667,-5.498166666666667,-0.5981000000000001,0.353,0.01837500000000003,0.29000000000000004,69.386,0.0046,-0.215675,-0.1720000000000006,100.0,1.0,1.0,214.00333333333333,0.0,0.0,0.0,0.0,0.0,0.0,0.0,9070.8,0.0,24.0,5.0,249.76333333333332,1.0,0.0,0.0,0.0,0.0,0.0,0.0,0.0,1.256999999999998,1.256999999999998,0.0,0.0,1.0,55.0,616.79921,10000.0,85.000001,85.000001,85.000001,85.000001,395.0,0.0,0.0,0.0,1.0,166.665,52.322,52.322,48.08,48.08,34.0,-23.445,26.68,-27.965,29.45,0.0,1782.346,-0.33000000000000007,100.0,27.837,27.781,42.735,42.858000000000004,0.0,0.0,100.0,0.0,0.0,0.0,0.0,3150.125,3250.5,4076.222222222222,4135.1,305.232,304.47,314.98525,314.665,21.9746,20.6175,22.0072,21.5181,314.999998,314.999998,324.999988,324.999988,99.558,99.50686666666667,99.56801428571428,99.54822857142857,0.09766666666666657,-0.030333333333333323,-0.10016666666666663,0.13083333333333336,-0.03333333333333144,-0.06571428571428584,1.542,1.541,38.341,29.859666666666666,38.545,35.4885,55.51,34.9975,59.7005,52.86,53.465,34.150999999999996,58.2765,51.1825,52.622,33.715,58.172,50.592666666666666,-0.10499999999999998,-0.04849999999999999,0.10734,0.109755,0.0,217.2,217.2,214.00333333333333,214.00333333333333,0.0,0.0
26,0.0,0.0,0.0,1.0,1.0,0.0,0.0,1.0,0.0,0.0,1.0,1.1856,26.0,0.0,0.0,0.0,59.999996,0.0,26.0,26.0,26.0,26.0,0.015444444444444372,0.27770000000000006,0.0634,291.87,-2.7128,-2.6639,-1.5488,-1.5529000000000002,-187.54,215.35750000000002,190.42875,0.0,0.0,0.0,0.0,0.052833333333333336,-5.498166666666667,-5.498166666666667,-0.5723,0.1263333333333334,0.010000000000000009,0.9870000000000001,69.515,0.0047,-0.20500000000000002,-0.20999999999999996,100.0,1.0,1.0,214.21333333333334,0.0,0.0,0.0,0.0,0.0,0.0,0.0,9079.7,0.0,24.0,5.0,250.23000000000002,0.0,0.0,0.0,0.0,0.0,0.0,0.0,0.0,1.3049999999999997,1.3049999999999997,0.0,0.0,0.0,55.0,616.79921,10000.0,85.000001,85.000001,85.000001,85.000001,395.0,0.0,0.0,0.0,1.0,166.665,52.2,52.2,47.058,47.058,34.0,-22.895,25.196666666666665,-30.1475,31.9225,0.0,1782.298,-0.34499999999999886,100.0,28.426000000000002,28.049,43.334,43.438,0.0,0.0,100.0,0.0,0.0,0.0,0.0,3057.0,3152.9,4345.0,4418.9,305.3935,304.903,314.24875,313.9285,21.9835,20.6228,22.0171,21.5269,314.999998,314.999998,324.999988,324.999988,99.55802857142857,99.50686666666667,99.56815714285715,99.54837142857143,0.10133333333333372,-0.03833333333333311,-0.09716666666666662,0.12183333333333324,-0.04833333333333201,-0.07000000000000028,1.438,1.453,38.397,29.892666666666663,38.607,35.543,55.5,35.0355,59.738,52.9195,53.456,34.186,58.3115,51.24,52.611999999999995,33.7485,58.204,50.649,-0.10749999999999993,-0.05249999999999999,0.10656,0.10902500000000001,0.0,217.60000000000002,217.63,214.21333333333334,214.21333333333334,0.0,0.0
27,0.0,0.0,0.0,1.0,1.0,0.0,0.0,1.0,0.0,0.0,1.0,1.1856,26.0,0.0,0.0,0.0,59.999996,0.0,26.0,26.0,26.0,26.0,0.002888888888888941,0.2594000000000001,-0.054200000000000005,292.404,-2.754,-2.6791,-1.6076000000000001,-1.5333,-184.2,215.35500000000002,190.405625,0.0,0.0,0.0,0.0,0.054766666666666665,-5.498166666666667,-5.498166666666667,-0.5991000000000001,-0.7433333333333334,0.01749999999999985,0.7640000000000002,69.64,0.010100000000000001,-0.239875,-0.3179999999999996,100.0,1.0,1.0,214.74666666666667,0.0,0.0,0.0,0.0,0.0,0.0,0.0,9102.3,0.0,24.0,5.0,250.67666666666668,1.0,0.0,0.0,0.0,0.0,0.0,0.0,0.0,1.352999999999998,1.352999999999998,0.0,0.0,1.0,55.0,616.79921,10000.0,85.000001,85.000001,85.000001,85.000001,395.0,0.0,0.0,0.0,1.0,333.33500000000004,52.49,52.49,47.546,47.546,34.0,-23.2175,25.705,-27.4525,28.7725,0.0,1782.249,-0.3249999999999993,100.0,28.057,28.002,43.601,43.606,0.0,0.0,100.0,0.0,0.0,0.0,0.0,3052.0,3177.5,3957.6666666666665,4114.5,305.6135,304.80525,315.13975,314.72575,21.9922,20.628,22.027,21.5356,314.999998,314.999998,324.999988,324.999988,99.55802857142857,99.50686666666667,99.5683,99.54851428571429,0.09600000000000009,-0.03533333333333322,-0.09899999999999998,0.1253333333333333,-0.046666666666666856,-0.054285714285711606,1.543,1.5390000000000001,38.451,29.925333333333334,38.669,35.5975,55.488,35.0725,59.7745,52.977000000000004,53.444,34.2205,58.3455,51.295500000000004,52.599999999999994,33.7815,58.2345,50.703,-0.10350000000000004,-0.05449999999999999,0.113295,0.10525500000000002,0.0,217.95499999999998,217.97500000000002,214.74666666666667,214.74666666666667,0.0,0.0
28,0.0,0.0,0.0,1.0,1.0,0.0,0.0,1.0,0.0,0.0,1.0,1.1856,26.0,0.0,0.0,0.0,59.999996,0.0,26.0,26.0,26.0,26.0,0.017444444444444374,0.28200000000000003,-0.03226666666666667,292.419,-2.7206,-2.6888,-1.5614,-1.5451000000000001,-180.44,215.35500000000002,190.37825,0.0,0.0,0.0,0.0,0.056966666666666665,-5.498166666666667,-5.498166666666667,-0.5955,0.42799999999999994,0.002874999999999961,0.4900000000000002,69.781,0.011300000000000001,-0.2082,-0.2999999999999998,100.0,1.0,1.0,215.16333333333333,0.0,0.0,0.0,0.0,0.0,0.0,0.0,9120.0,0.0,24.0,5.0,251.18333333333334,0.0,0.0,0.0,0.0,0.0,0.0,0.0,0.0,1.407,1.407,0.0,0.0,0.0,55.0,616.79921,10000.0,85.000001,85.000001,85.000001,85.000001,395.0,0.0,0.0,0.0,1.0,166.665,52.704,52.704,47.363,47.363,34.0,-21.9175,25.316666666666666,-28.224999999999998,30.12,0.0,1782.196,-0.3849999999999998,100.0,28.07,27.953,43.184,43.278999999999996,0.0,0.0,100.0,0.0,0.0,0.0,0.0,2972.5,3102.6,4187.666666666667,4225.1,305.773,304.9495,314.67275,314.51875,22.0021,20.634,22.0379,21.5452,314.999998,314.999998,324.999988,324.999988,99.55805714285714,99.50688333333333,99.56845714285714,99.54867142857142,0.10566666666666658,-0.03266666666666662,-0.09099999999999997,0.1306666666666667,-0.04833333333333201,-0.04999999999999716,1.5385,1.528,38.513,29.962333333333333,38.736999999999995,35.6575,55.476,35.1145,59.8115,53.039500000000004,53.432,34.2595,58.379999999999995,51.3555,52.586,33.8185,58.2655,50.76166666666667,-0.10849999999999993,-0.0495000000000001,0.10835000000000002,0.103605,0.0,218.445,218.44,215.16333333333333,215.16333333333333,0.0,0.0
29,0.0,0.0,0.0,1.0,1.0,0.0,0.0,1.0,0.0,0.0,1.0,1.1856,26.0,0.0,0.0,0.0,59.999996,0.0,26.0,26.0,26.0,26.0,0.021777777777777896,0.26090000000000013,-0.026533333333333332,292.252,-2.7551,-2.597,-1.5958,-1.5676999999999999,-177.07999999999998,215.35500000000002,190.353375,0.0,0.0,0.0,0.0,0.0589,-5.498166666666667,-5.498166666666667,-0.6071000000000001,-0.7130000000000001,-0.0015000000000000568,0.7270000000000003,69.907,0.012400000000000001,-0.21805000000000002,-0.3179999999999996,100.0,1.0,1.0,215.49,0.0,0.0,0.0,0.0,0.0,0.0,0.0,9133.8,0.0,24.0,5.0,251.64,1.0,0.0,0.0,0.0,0.0,0.0,0.0,0.0,1.4549999999999983,1.4549999999999983,0.0,0.0,1.0,55.0,616.79921,10000.0,85.000001,85.000001,85.000001,85.000001,395.0,0.0,0.0,0.0,1.0,333.33500000000004,52.444,52.444,47.516,47.516,34.0,-24.1,26.618333333333332,-27.6775,31.04,0.0,1782.146,-0.42499999999999893,100.0,27.835,27.691,43.449,43.522,0.0,0.0,100.0,0.0,0.0,0.0,0.0,3198.625,3281.5,4095.777777777778,4210.8,305.245,304.65,314.8805,314.4385,22.0108,20.6391,22.0478,21.554,314.999998,314.999998,324.999988,324.999988,99.55805714285714,99.50688333333333,99.56858571428572,99.5488,0.10400000000000009,-0.014666666666666606,-0.08350000000000002,0.13866666666666672,-0.02833333333332888,-0.057142857142849834,1.5145,1.494,38.567,29.994666666666667,38.799,35.7125,55.463,35.1505,59.848,53.098,53.42,34.292500000000004,58.414,51.412,52.574,33.8505,58.2965,50.81666666666666,-0.11399999999999999,-0.038000000000000034,0.10294500000000001,0.11007000000000002,0.0,218.785,218.815,215.49,215.49,0.0,0.0
30,0.0,0.0,0.0,1.0,1.0,0.0,0.0,1.0,0.0,0.0,1.0,1.1856,26.0,0.0,0.0,0.0,59.999996,0.0,26.0,26.0,26.0,26.0,0.02288888888888896,0.28180000000000005,0.0601,291.504,-2.7349,-2.6526,-1.6375000000000002,-1.4623,-173.51,215.35750000000002,190.32675,0.0,0.0,0.0,0.0,0.061000000000000006,-5.498166666666667,-5.498166666666667,-0.5962000000000001,0.8906666666666667,0.0026249999999998774,-0.5350000000000001,70.039,0.020300000000000002,-0.211075,-0.4139999999999997,100.0,1.0,1.0,215.86333333333334,0.0,0.0,0.0,0.0,0.0,0.0,0.0,9149.7,0.0,24.0,5.0,252.11333333333334,0.0,0.0,0.0,0.0,0.0,0.0,1.0,0.0,1.5060000000000002,1.5060000000000002,0.0,0.0,0.0,55.0,616.79921,10000.0,85.000001,85.000001,85.000001,85.000001,395.0,0.0,0.0,0.0,1.0,166.665,51.605000000000004,51.605000000000004,46.844,46.844,34.0,-24.1275,25.438333333333333,-32.0025,30.62,0.0,1782.096,-0.39000000000000057,100.0,28.628,28.679000000000002,43.293,43.674,0.0,0.0,100.0,0.0,0.0,0.0,0.0,3228.875,3125.7,4464.666666666667,4436.6,305.0865,304.64375,314.1985,314.00025,22.0203,20.6449,22.0582,21.5632,314.999998,314.999998,324.999988,324.999988,99.55807142857142,99.50688333333333,99.56872857142857,99.54895714285715,0.1070000000000002,-0.03466666666666662,-0.09850000000000003,0.12450000000000006,-0.05666666666667197,-0.05142857142856627,1.4985,1.479,38.626999999999995,30.030666666666665,38.864000000000004,35.769999999999996,55.455,35.192499999999995,59.884,53.158500000000004,53.412,34.331,58.4475,51.47,52.565,33.8875,58.3275,50.873666666666665,-0.11499999999999999,-0.04600000000000004,0.11239,0.09878500000000001,0.0,219.25,219.255,215.86333333333334,215.86333333333334,0.0,0.0
31,0.0,0.0,0.0,1.0,1.0,0.0,0.0,1.0,0.0,0.0,1.0,1.1856,26.0,0.0,0.0,0.0,59.999996,0.0,26.0,26.0,26.0,26.0,0.048555555555555685,0.25060000000000016,0.05193333333333334,291.428,-2.7101,-2.7013,-1.6405,-1.5379,-170.14999999999998,215.35750000000002,190.302375,0.0,0.0,0.0,0.0,0.06293333333333334,-5.498166666666667,-5.498166666666667,-0.5862,-0.42066666666666674,0.012124999999999941,-0.7989999999999995,70.164,0.0241,-0.221275,-0.36600000000000055,100.0,1.0,1.0,216.21,0.0,0.0,0.0,0.0,0.0,0.0,0.0,9164.4,0.0,24.0,5.0,252.56666666666666,1.0,0.0,0.0,0.0,0.0,0.0,1.0,0.0,1.5539999999999985,1.5539999999999985,0.0,0.0,1.0,55.0,616.79921,10000.0,85.000001,85.000001,85.000001,85.000001,395.0,0.0,0.0,0.0,1.0,333.33500000000004,51.727000000000004,51.727000000000004,46.219,46.219,34.0,-22.8975,26.18,-29.544999999999998,30.580000000000002,0.0,1782.047,-0.40000000000000036,100.0,28.407,28.822,44.008,44.407,0.0,0.0,100.0,0.0,0.0,0.0,0.0,3098.25,3186.4,4233.444444444444,4225.4,305.5225,304.49875,314.577,314.287,22.029,20.6503,22.0682,21.5721,314.999998,314.999998,324.999988,324.999988,99.55808571428571,99.50688333333333,99.56887142857143,99.5491,0.10266666666666646,-0.03966666666666674,-0.08199999999999996,0.12883333333333336,-0.04833333333333201,-0.05285714285714249,1.4675,1.458,38.681,30.064333333333334,38.926,35.8255,55.444,35.2305,59.922,53.2185,53.402,34.3665,58.483000000000004,51.528,52.553,33.921,58.3595,50.93,-0.10899999999999999,-0.05249999999999999,0.10405500000000001,0.09959000000000001,0.0,219.59,219.62,216.21,216.21,0.0,0.0
32,0.0,0.0,0.0,1.0,1.0,0.0,0.0,1.0,0.0,0.0,1.0,1.1856,26.0,0.0,0.0,0.0,59.999996,0.0,26.0,26.0,26.0,26.0,0.04677777777777781,0.24740000000000006,-0.0654,292.068,-2.7611,-2.6917,-1.5802,-1.6188,-166.57,215.3625,190.27675,0.0,0.0,0.0,0.0,0.06503333333333335,-5.498166666666667,-5.498166666666667,-0.6067,-0.2646666666666668,-0.006750000000000256,0.1770000000000005,70.293,0.0236,-0.2298,-0.3639999999999999,100.0,1.0,1.0,216.75,0.0,0.0,0.0,0.0,0.0,0.0,0.0,9187.2,0.0,24.0,5.0,253.03,0.0,0.0,0.0,0.0,0.0,0.0,1.0,0.0,1.6050000000000004,1.6050000000000004,0.0,0.0,0.0,55.0,616.79921,10000.0,85.000001,85.000001,85.000001,85.000001,395.0,0.0,0.0,0.0,1.0,166.665,52.277,52.277,47.379,47.379,34.0,-21.97,25.655,-26.322499999999998,31.095,0.0,1781.997,-0.41499999999999915,100.0,28.383,28.45,43.807,44.156,0.0,0.0,100.0,0.0,0.0,0.0,0.0,3023.375,3100.1,3940.4444444444443,4119.2,305.7115,304.9495,315.25375,314.643,22.0382,20.6559,22.0786,21.5813,314.999998,314.999998,324.999988,324.999988,99.5581,99.5069,99.56902857142857,99.54925714285714,0.12133333333333374,-0.02499999999999991,-0.08650000000000002,0.14383333333333326,-0.046666666666666856,-0.047142857142851824,1.528,1.525,38.739000000000004,30.099666666666664,38.991,35.8835,55.433,35.269999999999996,59.957,53.2785,53.391,34.4025,58.5155,51.585499999999996,52.541,33.956,58.3885,50.986666666666665,-0.11549999999999994,-0.04849999999999999,0.10755500000000001,0.10332000000000001,0.0,219.985,220.005,216.75,216.75,0.0,0.0
33,0.0,0.0,0.0,1.0,1.0,0.0,0.0,1.0,0.0,0.0,1.0,1.1856,26.0,0.0,0.0,0.0,59.999996,0.0,26.0,26.0,26.0,26.0,0.03388888888888886,0.25880000000000014,-0.08323333333333334,292.068,-2.7180999999999997,-2.6550000000000002,-1.6514,-1.542,-163.19,215.365,190.25125,0.0,0.0,0.0,0.0,0.067,-5.498166666666667,-5.498166666666667,-0.6144000000000001,-0.14666666666666672,-0.002874999999999961,1.024,70.416,0.023700000000000002,-0.21252500000000002,-0.3959999999999999,100.0,1.0,1.0,217.0966666666667,0.0,0.0,0.0,0.0,0.0,0.0,0.0,9201.9,0.0,24.0,5.0,253.47,1.0,0.0,0.0,0.0,0.0,0.0,1.0,0.0,1.6529999999999987,1.6529999999999987,0.0,0.0,1.0,55.0,616.79921,10000.0,85.000001,85.000001,85.000001,85.000001,395.0,0.0,0.0,0.0,1.0,333.33500000000004,52.399,52.399,47.333,47.333,34.0,-21.7075,25.47,-28.675,30.6975,0.0,1781.948,-0.4399999999999995,100.0,28.258,28.239,43.641999999999996,43.935,0.0,0.0,100.0,0.0,0.0,0.0,0.0,3030.875,3099.0,4113.777777777777,4203.7,305.6135,305.0335,314.9545,314.55825,22.0468,20.6611,22.0883,21.59,314.999998,314.999998,324.999988,324.999988,99.55811428571428,99.5069,99.56917142857142,99.5494,0.12199999999999989,-0.019333333333333202,-0.08950000000000002,0.14416666666666678,-0.036666666666668846,-0.05285714285714249,1.5354999999999999,1.516,38.793,30.131999999999998,39.052,35.9375,55.422,35.305,59.991,53.3345,53.381,34.4355,58.5465,51.6395,52.53,33.987,58.417,51.039,-0.11749999999999994,-0.04249999999999998,0.10593500000000002,0.10444500000000001,0.0,220.37,220.39,217.09666666666666,217.0966666666667,0.0,0.0
34,0.0,0.0,0.0,1.0,1.0,0.0,0.0,1.0,0.0,0.0,1.0,1.1856,26.0,0.0,0.0,0.0,59.999996,0.0,26.0,26.0,26.0,26.0,0.055777777777777926,0.26160000000000005,-0.0545,292.389,-2.7635,-2.6096,-1.6019,-1.5702,-159.17000000000002,215.3725,190.219375,0.0,0.0,0.0,0.0,0.06933333333333334,-5.498166666666667,-5.498166666666667,-0.6534,-1.0783333333333336,0.01749999999999985,-0.5940000000000003,70.562,0.0247,-0.22795,-0.35799999999999965,100.0,1.0,1.0,217.51666666666665,0.0,0.0,0.0,0.0,0.0,0.0,0.0,9219.8,0.0,24.0,5.0,253.99666666666667,0.0,0.0,0.0,0.0,0.0,0.0,1.0,0.0,1.7100000000000009,1.7100000000000009,0.0,0.0,0.0,55.0,616.79921,10000.0,85.000001,85.000001,85.000001,85.000001,395.0,0.0,0.0,0.0,1.0,83.335,52.902,52.902,47.485,47.485,34.0,-22.055,24.656666666666666,-27.16,30.3325,0.0,1781.892,-0.41000000000000014,100.0,27.734,28.092,43.4,44.088,0.0,0.0,100.0,0.0,0.0,0.0,0.0,2972.875,3056.7,4028.6666666666665,4117.2,305.959,304.99675,315.087,314.58375,22.0569,20.6673,22.099899999999998,21.6004,314.999998,314.999998,324.999988,324.999988,99.55814285714285,99.50691666666667,99.56934285714286,99.54955714285714,0.1070000000000002,-0.024666666666666615,-0.08366666666666656,0.139,-0.05333333333332746,-0.048571428571428044,1.5225,1.516,38.855999999999995,30.170333333333332,39.124,36.001999999999995,55.408,35.346000000000004,60.03,53.403,53.367000000000004,34.4735,58.583,51.7055,52.515,34.0235,58.4495,51.10333333333333,-0.10899999999999999,-0.03849999999999998,0.101125,0.1101,0.0,220.805,220.815,217.51666666666665,217.51666666666665,0.0,0.0
35,0.0,0.0,0.0,1.0,1.0,0.0,0.0,1.0,0.0,0.0,1.0,1.1856,26.0,0.0,0.0,0.0,59.999996,0.0,26.0,26.0,26.0,26.0,0.0257777777777779,0.26249999999999996,-0.06016666666666667,292.175,-2.792,-2.6648,-1.6107,-1.5137,-155.99,215.3775,190.1925,0.0,0.0,0.0,0.0,0.07116666666666667,-5.498166666666667,-5.498166666666667,-0.6775,0.15766666666666662,-0.00749999999999984,-0.3639999999999999,70.674,0.0261,-0.223525,-0.32200000000000006,100.0,1.0,1.0,217.95333333333332,0.0,0.0,0.0,0.0,0.0,0.0,0.0,9238.2,0.0,24.0,5.0,254.4,1.0,0.0,0.0,0.0,0.0,0.0,1.0,0.0,1.754999999999999,1.754999999999999,0.0,0.0,1.0,55.0,616.79921,10000.0,85.000001,85.000001,85.000001,85.000001,395.0,0.0,0.0,0.0,1.0,166.665,52.048,52.048,47.409,47.409,34.0,-23.995,27.501666666666665,-26.555,29.080000000000002,0.0,1781.848,-0.25,100.0,27.937,28.424,43.241,43.505,0.0,0.0,100.0,0.0,0.0,0.0,0.0,3142.875,3350.8,4001.5555555555557,4062.1000000000004,305.4605,304.2255,315.171,314.86525,22.064799999999998,20.6724,22.1089,21.6083,314.999998,314.999998,324.999988,324.999988,99.55814285714285,99.50691666666667,99.56947142857143,99.54968571428572,0.10266666666666646,-0.030999999999999917,-0.07733333333333337,0.14549999999999996,-0.041666666666671404,-0.04571428571428271,1.565,1.546,38.905,30.202666666666666,39.181,36.052,55.396,35.3825,60.06,53.452,53.355000000000004,34.507,58.611,51.753,52.503,34.0555,58.4745,51.14966666666667,-0.09699999999999998,-0.0645,0.10546000000000001,0.10960500000000001,0.0,221.16500000000002,221.185,217.95333333333335,217.95333333333332,0.0,0.0
36,0.0,0.0,0.0,1.0,1.0,0.0,0.0,1.0,0.0,0.0,1.0,1.1856,26.0,0.0,0.0,0.0,59.999996,0.0,26.0,26.0,26.0,26.0,0.04066666666666685,0.26090000000000013,-0.014166666666666666,291.824,-2.7713,-2.7257,-1.6291,-1.5951,-152.6,215.385,190.163,0.0,0.0,0.0,0.0,0.07313333333333334,-5.498166666666667,-5.498166666666667,-0.6621,-0.43866666666666676,-0.05037499999999984,0.12400000000000055,70.799,0.0223,-0.20270000000000002,-0.2400000000000002,100.0,1.0,1.0,218.07999999999998,0.0,0.0,0.0,0.0,0.0,0.0,0.0,9243.6,0.0,24.0,5.0,254.85000000000002,0.0,0.0,0.0,0.0,0.0,0.0,1.0,0.0,1.8030000000000008,1.8030000000000008,0.0,0.0,0.0,55.0,616.79921,10000.0,85.000001,85.000001,85.000001,85.000001,395.0,0.0,0.0,0.0,1.0,166.665,52.887,52.887,46.555,46.555,34.0,-21.8675,23.611666666666665,-31.405,33.8125,0.0,1781.8,-0.20500000000000007,100.0,28.371,28.187,43.711,43.933,0.0,0.0,100.0,0.0,0.0,0.0,0.0,2927.0,2890.2,4489.666666666667,4435.6,306.0805,305.5205,314.0665,313.9315,22.0734,20.6777,22.1188,21.6172,314.999998,314.999998,324.999988,324.999988,99.55815714285714,99.50691666666667,99.56961428571428,99.54984285714286,0.10433333333333339,-0.03633333333333311,-0.07983333333333331,0.1393333333333333,-0.036666666666668846,-0.05285714285714249,1.4485000000000001,1.43,38.959,30.235666666666667,39.243,36.1075,55.385,35.419,60.096000000000004,53.510999999999996,53.345,34.5405,58.644999999999996,51.8095,52.491,34.088,58.5055,51.205333333333336,-0.09899999999999998,-0.0605,0.10508,0.10858500000000001,0.0,221.56,221.57,218.07999999999998,218.07999999999998,0.0,0.0
