,ABS Active,ABS Enabled,AID Allow Tire Blankets,AID Auto Blip,AID Auto Clutch,AID Auto Shift,AID Fuel Rate,AID Ideal Line,AID Mech Damage,AID Stability,AID Tire Wear Rate,Air Density,Air Temp,Ballast,Best Lap Delta,Best Lap Time,Brake Bias,Brake Pos,Brake Temp FL,Brake Temp FR,Brake Temp RL,Brake Temp RR,CG Accel Lateral,CG Accel Longitudinal,CG Accel Vertical,CG Height,Camber FL,Camber FR,Camber RL,Camber RR,Car Coord X,Car Coord Y,Car Coord Z,Car Damage Front,Car Damage Left,Car Damage Rear,Car Damage Right,Car Pos Norm,Caster FL,Caster FR,Chassis Pitch Angle,Chassis Pitch Rate,Chassis Roll Angle,Chassis Roll Rate,Chassis Velocity X,Chassis Velocity Y,Chassis Velocity Z,Chassis Yaw Rate,Clutch Pos,DRS Active,DRS Available,Drive Train Speed,ERS Heat Charging,ERS Is Charging,ERS Max Energy,ERS Power Level,ERS Recovery Level,Engine Brake Setting,Engine Limiter,Engine RPM,Flags,Fuel Level,Gear,Ground Speed,HR Sample Clock,In Pit,KERS Charge,KERS Deployed Energy,KERS Input,KERS Max Energy,LR Sample Clock,Lap Invalidated,Lap Time,Lap Time2,Last Lap Time,Last Sector Time,MR Sample Clock,Max Fuel,Max Power,Max RPM,Max Sus Travel FL,Max Sus Travel FR,Max Sus Travel RL,Max Sus Travel RR,Max Torque,Max Turbo Boost,Num Tires Off Track,Penalties Enabled,Position,Raw Data Sample Rate,Ride Height FL,Ride Height FR,Ride Height RL,Ride Height RR,Road Temp,Self Align Torque FL,Self Align Torque FR,Self Align Torque RL,Self Align Torque RR,Session Lap Count,Session Time Left,Steering Angle,Surface Grip,Suspension Travel FL,Suspension Travel FR,Suspension Travel RL,Suspension Travel RR,TC Active,TC Enabled,Throttle Pos,Tire Dirt Level FL,Tire Dirt Level FR,Tire Dirt Level RL,Tire Dirt Level RR,Tire Load FL,Tire Load FR,Tire Load RL,Tire Load RR,Tire Loaded Radius FL,Tire Loaded Radius FR,Tire Loaded Radius RL,Tire Loaded Radius RR,Tire Pressure FL,Tire Pressure FR,Tire Pressure RL,Tire Pressure RR,Tire Radius FL,Tire Radius FR,Tire Radius RL,Tire Radius RR,Tire Rubber Grip FL,Tire Rubber Grip FR,Tire Rubber Grip RL,Tire Rubber Grip RR,Tire Slip Angle FL,Tire Slip Angle FR,Tire Slip Angle RL,Tire Slip Angle RR,Tire Slip Ratio FL,Tire Slip Ratio FR,Tire Slip Ratio RL,Tire Slip Ratio RR,Tire Temp Core FL,Tire Temp Core FR,Tire Temp Core RL,Tire Temp Core RR,Tire Temp Inner FL,Tire Temp Inner FR,Tire Temp Inner RL,Tire Temp Inner RR,Tire Temp Middle FL,Tire Temp Middle FR,Tire Temp Middle RL,Tire Temp Middle RR,Tire Temp Outer FL,Tire Temp Outer FR,Tire Temp Outer RL,Tire Temp Outer RR,Toe In FL,Toe In FR,Toe In RL,Toe In RR,Turbo Boost,Wheel Angular Speed FL,Wheel Angular Speed FR,Wheel Angular Speed RL,Wheel Angular Speed RR,Wind Direction,Wind Speed
0,0.0,0.0,0.0,1.0,1.0,0.0,0.0,1.0,0.0,0.0,1.0,1.1856,26.0,0.0,0.0,0.0,59.99999,0.0,26.0,26.0,26.0,26.0,-0.0868888888888889,0.30490000000000017,0.1777,293.93,-2.7137000000000002,-2.4855,-1.5219,-1.5387,-275.79,216.03,190.988375,0.0,0.0,0.0,0.0,0.0015333333333333865,-5.498166666666667,-5.498166666666667,-0.5765,1.27,-0.015666666666666718,-0.728,65.974,-0.03979999999999995,-0.23915,0.7620000000000005,100.0,1.0,1.0,203.80666666666667,0.0,0.0,0.0,0.0,0.0,0.0,0.0,8638.6,0.0,19.0,5.0,237.47333333333333,0.0,0.0,0.0,0.0,0.0,0.0,0.0,0.0,0.0030000000000001137,0.0030000000000001137,0.0,0.0,0.0,55.0,616.79921,10000.0,85.0,85.0,85.0,85.0,395.0,0.0,0.0,0.0,1.0,20.0,51.743,51.743,50.171,50.171,34.0,-30.1725,24.063333333333333,-28.509999999999998,22.77,0.0,1783.581,0.7000000000000011,100.0,27.297,26.879,40.331,40.186,0.0,0.0,100.0,0.0,0.0,0.0,0.0,3369.125,3760.9,3919.222222222222,3807.7,304.6135,302.83,315.338,315.33925,21.7827,20.4952,21.7506,21.2953,314.99999,314.99999,324.99998,324.99998,99.56041428571429,99.50686666666667,99.56485714285714,99.54478571428571,-0.003666666666666707,-0.1296666666666666,-0.1632,0.057599999999999874,-0.07666666666666799,-0.03833333333332689,1.5995,1.6225,37.141999999999996,29.095,36.941,34.0955,56.774,34.2115,58.905,51.421,54.641,33.3995,57.5435,49.796,53.781,32.967,57.5165,49.23266666666667,-0.028000000000000025,-0.13000000000000012,0.10687,0.10371000000000001,0.0,206.72500000000002,206.63,203.80666666666667,203.80666666666667,0.0,0.0
1,0.0,0.0,0.0,1.0,1.0,0.0,0.0,1.0,0.0,0.0,1.0,1.1856,26.0,0.0,0.0,0.0,59.999996,0.0,26.0,26.0,26.0,26.0,-0.15200000000000002,0.3380000000000001,0.072275,293.274,-2.6489,-2.7082,-1.5155,-1.365,-272.43,216.035,190.96825,0.0,0.0,0.0,0.0,0.0034999999999999476,-5.498166666666667,-5.498166666666667,-0.4793,-0.19599999999999995,-0.05566666666666675,-0.16799999999999993,66.135,-0.05289999999999995,-0.187,1.3239999999999998,100.0,1.0,1.0,203.73666666666668,0.0,0.0,0.0,0.0,0.0,0.0,0.0,8635.6,0.0,19.0,5.0,238.05333333333334,1.0,0.0,0.0,0.0,0.0,0.0,0.0,0.0,0.053999999999998494,0.053999999999998494,0.0,0.0,1.0,55.0,616.79921,10000.0,85.000001,85.000001,85.000001,85.000001,395.0,0.0,0.0,0.0,1.0,333.33500000000004,54.459,54.459,48.203,48.203,34.0,-24.455,15.341666666666669,-37.2125,27.8425,0.0,1783.529,0.7949999999999999,100.0,27.576999999999998,26.925,42.174,41.443,0.0,0.0,100.0,0.0,0.0,0.0,0.0,2836.875,2392.7,4616.0,4981.3,306.0845,307.09433333333334,313.476,312.37825,21.7927,20.5003,21.761499999999998,21.3044,314.999998,314.999998,324.999988,324.999988,99.56041428571429,99.50688333333333,99.56501428571428,99.54492857142857,-0.006666666666666599,-0.1436666666666666,-0.1804,0.03320000000000012,-0.03166666666666629,-0.041666666666671404,1.353,1.4055,37.204,29.127,37.009,34.1525,56.757,34.2545,58.9525,51.488,54.623999999999995,33.439,57.588,49.86,53.763999999999996,33.0045,57.558,49.29533333333333,-0.013499999999999956,-0.14000000000000012,0.10558500000000001,0.109115,0.0,207.195,207.095,203.73666666666668,203.73666666666668,0.0,0.0
2,0.0,0.0,0.0,1.0,1.0,0.0,0.0,1.0,0.0,0.0,1.0,1.1856,26.0,0.0,0.0,0.0,59.999996,0.0,26.0,26.0,26.0,26.0,-0.1406666666666666,0.2892000000000001,-0.07455,294.51,-2.6063,-2.7855,-1.4965,-1.6349,-269.05,216.0375,190.949625,0.0,0.0,0.0,0.0,0.005433333333333401,-5.498166666666667,-5.498166666666667,-0.5632,-0.40000000000000013,-0.04977777777777792,1.65,66.275,-0.06829999999999992,-0.268425,1.5839999999999996,100.0,1.0,1.0,204.93666666666667,0.0,0.0,0.0,0.0,0.0,0.0,0.0,8686.6,0.0,19.0,5.0,238.56,0.0,0.0,0.0,0.0,0.0,0.0,0.0,0.0,0.10500000000000043,0.10500000000000043,0.0,0.0,0.0,55.0,616.79921,10000.0,85.000001,85.000001,85.000001,85.000001,395.0,0.0,0.0,0.0,1.0,333.33500000000004,52.902,52.902,51.239,51.239,34.0,-31.225,18.98833333333333,-26.912499999999998,18.29,0.0,1783.477,0.9350000000000005,100.0,27.826,26.697,42.042,41.032,0.0,0.0,100.0,0.0,0.0,0.0,0.0,3407.0,2868.6,3569.4444444444443,3350.3,304.489,305.71133333333336,316.07875,316.627,21.8028,20.5051,21.7719,21.3131,314.999998,314.999998,324.999988,324.999988,99.56042857142857,99.5069,99.56515714285715,99.54505714285715,-0.04066666666666663,-0.15700000000000003,-0.21339999999999992,0.016599999999999948,-0.07166666666666544,-0.04833333333333201,1.7205,1.7650000000000001,37.268,29.157,37.075,34.207,56.739999999999995,34.292500000000004,58.99,51.543,54.608000000000004,33.474000000000004,57.623,49.913,53.748000000000005,33.0385,57.5905,49.34733333333333,-0.008499999999999952,-0.14250000000000007,0.10607000000000001,0.10684500000000001,0.0,207.635,207.495,204.93666666666667,204.93666666666667,0.0,0.0
3,0.0,0.0,0.0,1.0,1.0,0.0,0.0,1.0,0.0,0.0,1.0,1.1856,26.0,0.0,0.0,0.0,59.999996,0.0,26.0,26.0,26.0,26.0,-0.14588888888888885,0.31100000000000017,-0.0241,293.93,-2.6446,-2.6922,-1.4936,-1.5741,-265.86,216.0375,190.93075,0.0,0.0,0.0,0.0,0.007299999999999973,-5.498166666666667,-5.498166666666667,-0.5119,1.025,-0.016888888888888953,-1.298,66.422,-0.08439999999999992,-0.20022500000000001,1.3860000000000001,100.0,1.0,1.0,204.93666666666667,0.0,0.0,0.0,0.0,0.0,0.0,0.0,8686.5,0.0,19.0,5.0,239.09,1.0,0.0,0.0,0.0,0.0,0.0,0.0,0.0,0.1529999999999987,0.1529999999999987,0.0,0.0,1.0,55.0,616.79921,10000.0,85.000001,85.000001,85.000001,85.000001,395.0,0.0,0.0,0.0,1.0,333.33500000000004,53.879,53.879,48.737,48.737,34.0,-26.965,17.165,-35.315,23.127499999999998,0.0,1783.429,0.8900000000000006,100.0,27.53,26.867,41.683,40.881,0.0,0.0,100.0,0.0,0.0,0.0,0.0,2956.5,2760.4,4391.555555555556,4139.2,305.9125,305.808,314.16975,314.566,21.8123,20.51,21.7816,21.3214,314.999998,314.999998,324.999988,324.999988,99.56042857142857,99.50691666666667,99.56528571428571,99.5452,-0.04833333333333312,-0.16866666666666674,-0.2076,0.0034000000000000696,-0.04999999999999716,-0.03499999999999659,1.4929999999999999,1.534,37.327,29.187333333333335,37.135,34.2585,56.724999999999994,34.334,59.0265,51.602000000000004,54.593,33.5125,57.657,49.97,53.732,33.075,57.622,49.403,-0.0030000000000000027,-0.14149999999999996,0.09677500000000001,0.10870500000000001,0.0,208.14,208.01999999999998,204.93666666666667,204.93666666666667,0.0,0.0
4,0.0,0.0,0.0,1.0,1.0,0.0,0.0,1.0,0.0,0.0,1.0,1.1856,26.0,0.0,0.0,0.0,59.999996,0.0,26.0,26.0,26.0,26.0,-0.15444444444444438,0.2977000000000001,0.004350000000000001,294.113,-2.6643,-2.7951,-1.4293,-1.5951,-262.27,216.0325,190.909875,0.0,0.0,0.0,0.0,0.009399999999999964,-5.498166666666667,-5.498166666666667,-0.5359,-0.889,-0.08411111111111147,-1.687,66.581,-0.09449999999999992,-0.23605,1.6340000000000003,100.0,1.0,1.0,205.50333333333333,0.0,0.0,0.0,0.0,0.0,0.0,0.0,8710.5,0.0,19.0,5.0,239.66333333333333,0.0,0.0,0.0,0.0,0.0,0.0,0.0,0.0,0.20700000000000074,0.20700000000000074,0.0,0.0,0.0,55.0,616.79921,10000.0,85.000001,85.000001,85.000001,85.000001,395.0,0.0,0.0,0.0,1.0,166.665,53.818,53.818,49.088,49.088,34.0,-30.53,17.794999999999998,-33.2225,20.0325,0.0,1783.376,0.9399999999999995,100.0,27.189,26.362000000000002,42.494,41.141,0.0,0.0,100.0,0.0,0.0,0.0,0.0,3259.625,2776.5,4203.222222222223,3683.3,305.096,305.846,314.6165,315.609,21.8227,20.5152,21.7929,21.3308,314.999998,314.999998,324.999988,324.999988,99.56042857142857,99.50693333333334,99.56544285714286,99.54534285714286,-0.05433333333333312,-0.17533333333333312,-0.22520000000000007,-0.00039999999999995595,-0.054999999999999716,-0.045000000000001705,1.5554999999999999,1.608,37.391999999999996,29.22,37.206,34.317499999999995,56.705,34.378,59.0725,51.6665,54.575,33.5525,57.7,50.0315,53.713,33.1135,57.662,49.46366666666667,0.0050000000000001155,-0.14650000000000007,0.10204,0.11370500000000001,0.0,208.565,208.42000000000002,205.50333333333333,205.50333333333333,0.0,0.0
5,0.0,0.0,0.0,1.0,1.0,0.0,0.0,1.0,0.0,0.0,1.0,1.1856,26.0,0.0,0.0,0.0,59.999996,0.0,26.0,26.0,26.0,26.0,-0.1591111111111111,0.3046,-0.017750000000000002,294.35699999999997,-2.6756,-2.7665,-1.5,-1.6271,-259.07,216.025,190.89075,0.0,0.0,0.0,0.0,0.011233333333333317,-5.498166666666667,-5.498166666666667,-0.5388000000000001,0.40800000000000003,-0.08899999999999997,-0.388,66.72,-0.10599999999999998,-0.21910000000000002,1.58,100.0,1.0,1.0,205.98666666666668,0.0,0.0,0.0,0.0,0.0,0.0,0.0,8731.0,0.0,19.0,5.0,240.16,1.0,0.0,0.0,0.0,0.0,0.0,0.0,0.0,0.254999999999999,0.254999999999999,0.0,0.0,1.0,55.0,616.79921,10000.0,85.000001,85.000001,85.000001,85.000001,395.0,0.0,0.0,0.0,1.0,166.665,54.031,54.031,49.82,49.82,34.0,-30.2175,17.365,-33.83,20.6925,0.0,1783.329,0.6699999999999999,100.0,27.295,26.192,42.156,40.643,0.0,0.0,100.0,0.0,0.0,0.0,0.0,3214.0,2714.5,4073.4444444444443,3893.4,305.163,306.081,314.97325,315.17175,21.8323,20.5199,21.8027,21.3389,314.999998,314.999998,324.999988,324.999988,99.56044285714286,99.50695,99.56558571428572,99.54547142857143,-0.05366666666666675,-0.1673333333333331,-0.24739999999999995,-0.020000000000000018,-0.041666666666671404,-0.061666666666667425,1.5695000000000001,1.6404999999999998,37.452,29.249333333333333,37.266999999999996,34.3685,56.692,34.417,59.1095,51.72,54.562,33.588499999999996,57.735,50.082499999999996,53.699,33.147999999999996,57.694,49.513333333333335,-0.016000000000000014,-0.123,0.10813500000000001,0.10448500000000001,0.0,209.025,208.91500000000002,205.98666666666668,205.98666666666668,0.0,0.0
6,0.0,0.0,0.0,1.0,1.0,0.0,0.0,1.0,0.0,0.0,1.0,1.1856,26.0,0.0,0.0,0.0,59.999996,0.0,26.0,26.0,26.0,26.0,-0.1547777777777778,0.29490000000000016,0.0187,294.159,-2.6339,-2.814,-1.5312999999999999,-1.5802,-255.87,216.0125,190.87125,0.0,0.0,0.0,0.0,0.0131,-5.498166666666667,-5.498166666666667,-0.5254,0.11499999999999999,-0.0822222222222222,-0.721,66.861,-0.11069999999999991,-0.20627500000000001,1.338,100.0,1.0,1.0,206.32333333333332,0.0,0.0,0.0,0.0,0.0,0.0,0.0,8745.3,0.0,19.0,5.0,240.67000000000002,0.0,0.0,0.0,0.0,0.0,0.0,0.0,0.0,0.3030000000000008,0.3030000000000008,0.0,0.0,0.0,55.0,616.79921,10000.0,85.000001,85.000001,85.000001,85.000001,395.0,0.0,0.0,0.0,1.0,166.665,54.108,54.108,49.225,49.225,34.0,-29.1,18.061666666666667,-35.605000000000004,21.225,0.0,1783.281,0.5050000000000008,100.0,27.141,26.106,42.243,40.835,0.0,0.0,100.0,0.0,0.0,0.0,0.0,3190.0,2747.5,4226.777777777777,3977.1000000000004,305.246,305.905,314.58525,314.93625,21.8418,20.5246,21.8126,21.3473,314.999998,314.999998,324.999988,324.999988,99.56044285714286,99.50696666666667,99.56571428571428,99.54561428571428,-0.04200000000000004,-0.16766666666666663,-0.23760000000000003,-0.01200000000000001,-0.036666666666668846,-0.03499999999999659,1.5195,1.5845,37.510999999999996,29.278666666666666,37.329,34.420500000000004,56.677,34.4555,59.1485,51.778,54.548,33.6245,57.7715,50.138,53.684,33.182,57.728,49.56733333333334,-0.033499999999999974,-0.10899999999999999,0.10419500000000001,0.11228500000000001,0.0,209.45,209.325,206.32333333333332,206.32333333333332,0.0,0.0
7,0.0,0.0,0.0,1.0,1.0,0.0,0.0,1.0,0.0,0.0,1.0,1.1856,26.0,0.0,0.0,0.0,59.999996,0.0,26.0,26.0,26.0,26.0,-0.1283333333333333,0.2864,0.02995,293.945,-2.5953,-2.8149,-1.4888,-1.6293000000000002,-252.45,215.995,190.850625,0.0,0.0,0.0,0.0,0.015100000000000002,-5.498166666666667,-5.498166666666667,-0.5343,-0.007000000000000117,-0.07077777777777783,1.053,67.009,-0.10409999999999997,-0.224725,0.9699999999999998,100.0,1.0,1.0,206.79666666666668,0.0,0.0,0.0,0.0,0.0,0.0,0.0,8765.4,0.0,19.0,5.0,241.20333333333332,1.0,0.0,0.0,0.0,0.0,0.0,0.0,0.0,0.3539999999999992,0.3539999999999992,0.0,0.0,1.0,55.0,616.79921,10000.0,85.000001,85.000001,85.000001,85.000001,395.0,0.0,0.0,0.0,1.0,333.33500000000004,53.574,53.574,49.469,49.469,34.0,-27.419999999999998,20.811666666666667,-31.9625,22.685000000000002,0.0,1783.228,0.09999999999999964,100.0,27.593,26.139,42.480000000000004,41.028999999999996,0.0,0.0,100.0,0.0,0.0,0.0,0.0,3159.5,2924.2,4011.222222222222,3965.1,305.1005,305.484,314.98875,314.989,21.8519,20.5297,21.8232,21.3562,314.999998,314.999998,324.999988,324.999988,99.56045714285715,99.50698333333334,99.56587142857143,99.54575714285714,-0.009666666666666712,-0.1299999999999999,-0.21660000000000001,0.006000000000000005,-0.041666666666671404,-0.05333333333332746,1.5455,1.5875,37.574,29.310333333333332,37.394999999999996,34.4765,56.661,34.4965,59.189499999999995,51.839,54.533,33.662,57.81,50.1965,53.669,33.218,57.7635,49.62466666666667,-0.0615,-0.07600000000000007,0.09896500000000001,0.10791500000000001,0.0,209.89,209.8,206.79666666666668,206.79666666666668,0.0,0.0
8,0.0,0.0,0.0,1.0,1.0,0.0,0.0,1.0,0.0,0.0,1.0,1.1856,26.0,0.0,0.0,0.0,59.999996,0.0,26.0,26.0,26.0,26.0,-0.09411111111111103,0.29110000000000014,-0.018125000000000002,294.067,-2.6837999999999997,-2.7413,-1.4712,-1.6183,-249.03,215.975,190.82975,0.0,0.0,0.0,0.0,0.017100000000000004,-5.498166666666667,-5.498166666666667,-0.5354,-0.40900000000000003,-0.05677777777777804,-0.639,67.157,-0.08919999999999995,-0.2175,0.5499999999999998,100.0,1.0,1.0,207.19,0.0,0.0,0.0,0.0,0.0,0.0,0.0,8782.0,0.0,19.0,5.0,241.73666666666668,0.0,0.0,0.0,0.0,0.0,0.0,0.0,0.0,0.40500000000000114,0.40500000000000114,0.0,0.0,0.0,55.0,616.79921,10000.0,85.000001,85.000001,85.000001,85.000001,395.0,0.0,0.0,0.0,1.0,166.665,54.214,54.214,48.859,48.859,34.0,-26.4425,19.825,-32.18,23.8925,0.0,1783.179,-0.0600000000000005,100.0,27.047,26.326,42.455,41.274,0.0,0.0,100.0,0.0,0.0,0.0,0.0,3034.375,2830.0,4116.333333333333,4002.1000000000004,305.7175,305.703,314.78325,314.81325,21.8617,20.5347,21.8337,21.365099999999998,314.999998,314.999998,324.999988,324.999988,99.56045714285715,99.507,99.56601428571429,99.54588571428572,-0.005666666666666709,-0.12166666666666681,-0.2056,0.02279999999999993,-0.045000000000001705,-0.04999999999999716,1.5314999999999999,1.5470000000000002,37.635999999999996,29.342,37.461,34.532,56.641999999999996,34.536,59.2305,51.899,54.515,33.698499999999996,57.848,50.254,53.65,33.2525,57.7985,49.681,-0.07150000000000001,-0.06600000000000006,0.109225,0.11583500000000001,0.0,210.32999999999998,210.28,207.19,207.19,0.0,0.0
9,0.0,0.0,0.0,1.0,1.0,0.0,0.0,1.0,0.0,0.0,1.0,1.1856,26.0,0.0,0.0,0.0,59.999996,0.0,26.0,26.0,26.0,26.0,-0.07155555555555548,0.28390000000000004,-0.0102,293.793,-2.609,-2.7603,-1.5268000000000002,-1.5697,-245.81,215.9525,190.809875,0.0,0.0,0.0,0.0,0.018966666666666576,-5.498166666666667,-5.498166666666667,-0.5366000000000001,0.5549999999999999,-0.0604444444444443,-0.44599999999999995,67.293,-0.07269999999999999,-0.2144,0.3879999999999999,100.0,1.0,1.0,207.7,0.0,0.0,0.0,0.0,0.0,0.0,0.0,8803.7,0.0,19.0,5.0,242.2266666666667,1.0,0.0,0.0,0.0,0.0,0.0,0.0,0.0,0.4529999999999994,0.4529999999999994,0.0,0.0,1.0,55.0,616.79921,10000.0,85.000001,85.000001,85.000001,85.000001,395.0,0.0,0.0,0.0,1.0,166.665,53.299,53.299,49.606,49.606,34.0,-27.3075,21.416666666666668,-31.1225,23.2425,0.0,1783.131,-0.24499999999999922,100.0,27.473,26.61,42.188,41.281,0.0,0.0,100.0,0.0,0.0,0.0,0.0,3299.875,2874.7,4031.222222222222,3988.3,304.8545,305.511,315.06225,314.93975,21.8712,20.5396,21.8435,21.3735,314.999998,314.999998,324.999988,324.999988,99.56045714285715,99.50701666666667,99.56614285714285,99.54602857142856,0.022333333333333094,-0.09599999999999986,-0.19099999999999995,0.029200000000000115,-0.054999999999999716,-0.04333333333332945,1.57,1.5835,37.695,29.372666666666667,37.522,34.584,56.626000000000005,34.574,59.266,51.955,54.5,33.7335,57.881,50.3075,53.635,33.286,57.829,49.733333333333334,-0.09150000000000003,-0.0475000000000001,0.106675,0.101665,0.0,210.765,210.715,207.7,207.7,0.0,0.0
10,0.0,0.0,0.0,1.0,1.0,0.0,0.0,1.0,0.0,0.0,1.0,1.1856,26.0,0.0,0.0,0.0,59.999996,0.0,26.0,26.0,26.0,26.0,-0.05399999999999994,0.2901,0.030500000000000003,293.747,-2.6748,-2.7514000000000003,-1.5004,-1.5486,-242.37,215.93,190.789,0.0,0.0,0.0,0.0,0.020966666666666578,-5.498166666666667,-5.498166666666667,-0.5209,-0.5395000000000001,-0.02244444444444449,1.7970000000000002,67.44200000000001,-0.0484,-0.20922500000000002,-0.10599999999999987,100.0,1.0,1.0,207.99,0.0,0.0,0.0,0.0,0.0,0.0,0.0,8815.9,0.0,19.0,5.0,242.76,0.0,0.0,0.0,0.0,0.0,0.0,1.0,0.0,0.5040000000000013,0.5040000000000013,0.0,0.0,0.0,55.0,616.79921,10000.0,85.000001,85.000001,85.000001,85.000001,395.0,0.0,0.0,0.0,1.0,333.33500000000004,54.169,54.169,48.522999999999996,48.522999999999996,34.0,-22.634999999999998,21.80166666666667,-30.537499999999998,27.11,0.0,1783.079,-0.3650000000000002,100.0,27.387,26.39,42.644999999999996,41.739000000000004,0.0,0.0,100.0,0.0,0.0,0.0,0.0,2873.625,2876.7,4150.888888888889,4240.1,306.036,305.74666666666667,314.629,314.35425,21.881,20.5447,21.8541,21.3826,314.999998,314.999998,324.999988,324.999988,99.56045714285715,99.50703333333334,99.5663,99.54617142857143,0.055333333333333456,-0.07766666666666677,-0.15339999999999998,0.06800000000000006,-0.041666666666671404,-0.060000000000002274,1.4969999999999999,1.498,37.756,29.404666666666664,37.588,34.641,56.608999999999995,34.612,59.3075,52.018,54.483999999999995,33.7685,57.92,50.368,53.617999999999995,33.3195,57.865,49.79266666666666,-0.11149999999999993,-0.04400000000000004,0.108295,0.10661500000000002,0.0,211.19,211.195,207.99,207.99,0.0,0.0
11,0.0,0.0,0.0,1.0,1.0,0.0,0.0,1.0,0.0,0.0,1.0,1.1856,26.0,0.0,0.0,0.0,59.999996,0.0,26.0,26.0,26.0,26.0,0.0006666666666665932,0.2732000000000001,-0.08655,294.189,-2.6931,-2.7001,-1.5608,-1.5152999999999999,-238.93,215.9025,190.768,0.0,0.0,0.0,0.0,0.022599999999999953,-5.498166666666667,-5.498166666666667,-0.5556,-0.1120000000000001,0.0040000000000000036,-0.517,67.583,-0.024799999999999933,-0.23045000000000002,-0.19599999999999973,100.0,1.0,1.0,208.69333333333333,0.0,0.0,0.0,0.0,0.0,0.0,0.0,8845.7,0.0,19.0,5.0,243.26999999999998,1.0,0.0,0.0,0.0,0.0,0.0,1.0,0.0,0.5549999999999997,0.5549999999999997,0.0,0.0,1.0,55.0,616.79921,10000.0,85.000001,85.000001,85.000001,85.000001,395.0,0.0,0.0,0.0,1.0,333.33500000000004,53.741,53.741,49.789,49.789,34.0,-24.474999999999998,23.05833333333333,-26.395,24.8125,0.0,1783.028,-0.3699999999999992,100.0,26.947,26.742,42.028999999999996,41.788,0.0,0.0,100.0,0.0,0.0,0.0,0.0,3094.125,2972.4,3760.6666666666665,3862.0,305.555,305.249,315.72975,315.2715,21.8907,20.55,21.8644,21.3915,314.999998,314.999998,324.999988,324.999988,99.56047142857143,99.50703333333334,99.56644285714286,99.54631428571429,0.05866666666666642,-0.06266666666666665,-0.137,0.09840000000000004,-0.07333333333333059,-0.045000000000001705,1.619,1.619,37.817,29.437333333333335,37.653,34.697,56.592,34.6505,59.3425,52.0775,54.467,33.804,57.9525,50.425,53.601,33.3535,57.894999999999996,49.84866666666667,-0.10150000000000003,-0.04499999999999993,0.10629500000000001,0.10926000000000001,0.0,211.65,211.615,208.69333333333333,208.69333333333333,0.0,0.0
12,0.0,0.0,0.0,1.0,1.0,0.0,0.0,1.0,0.0,0.0,1.0,1.1856,26.0,0.0,0.0,0.0,59.999996,0.0,26.0,26.0,26.0,26.0,0.003555555555555534,0.29869999999999997,0.030775,293.579,-2.7084,-2.7073,-1.5298,-1.5447000000000002,-235.48,215.8775,190.745875,0.0,0.0,0.0,0.0,0.025466666666666526,-5.498166666666667,-5.498166666666667,-0.5407000000000001,0.2975,-0.0032222222222220154,0.766,67.73,-0.00649999999999995,-0.20505,-0.2939999999999996,100.0,1.0,1.0,208.92666666666668,0.0,0.0,0.0,0.0,0.0,0.0,0.0,8855.6,0.0,19.0,5.0,243.8,0.0,0.0,0.0,0.0,0.0,0.0,1.0,0.0,0.6059999999999981,0.6059999999999981,0.0,0.0,0.0,55.0,616.79921,10000.0,85.000001,85.000001,85.000001,85.000001,395.0,0.0,0.0,0.0,1.0,166.665,53.528,53.528,48.553,48.553,34.0,-22.919999999999998,25.28333333333333,-27.9775,29.4425,0.0,1782.978,-0.28500000000000014,100.0,27.123,26.839,42.094,41.755,0.0,0.0,100.0,0.0,0.0,0.0,0.0,3005.625,3107.4,4144.666666666667,4203.7,305.622,304.99533333333335,314.71775,314.48825,21.9005,20.5553,21.8749,21.4004,314.999998,314.999998,324.999988,324.999988,99.56047142857143,99.50705,99.56658571428571,99.54645714285714,0.08599999999999985,-0.03499999999999992,-0.10179999999999989,0.12040000000000006,-0.045000000000001705,-0.07166666666666544,1.5335,1.5150000000000001,37.878,29.471,37.718,34.753,56.576,34.689,59.3815,52.1385,54.452,33.8395,57.9885,50.484,53.584,33.388,57.928,49.906333333333336,-0.09950000000000003,-0.04150000000000009,0.10604000000000001,0.103285,0.0,212.09,212.125,208.92666666666668,208.92666666666668,0.0,0.0
13,0.0,0.0,0.0,1.0,1.0,0.0,0.0,1.0,0.0,0.0,1.0,1.1856,26.0,0.0,0.0,0.0,59.999996,0.0,26.0,26.0,26.0,26.0,0.03600000000000003,0.28269999999999995,0.028425000000000002,293.304,-2.6927,-2.7062,-1.5646,-1.5478,-232.01999999999998,215.85,190.724,0.0,0.0,0.0,0.0,0.026966666666666583,-5.498166666666667,-5.498166666666667,-0.5374,-0.21100000000000008,-0.0013333333333331865,-0.393,67.875,0.0037000000000000366,-0.21710000000000002,-0.29600000000000026,100.0,1.0,1.0,209.33333333333331,0.0,0.0,0.0,0.0,0.0,0.0,0.0,8872.9,0.0,19.0,5.0,244.32,1.0,0.0,0.0,0.0,0.0,0.0,1.0,0.0,0.657,0.657,0.0,0.0,1.0,55.0,616.79921,10000.0,85.000001,85.000001,85.000001,85.000001,395.0,0.0,0.0,0.0,1.0,166.665,53.314,53.314,48.615,48.615,34.0,-23.21,24.403333333333336,-28.5075,29.9725,0.0,1782.927,-0.46499999999999986,100.0,27.256,27.177,42.241,42.376,0.0,0.0,100.0,0.0,0.0,0.0,0.0,3111.625,2984.2,4136.111111111111,4213.1,305.476,305.18533333333335,314.78625,314.34275,21.9102,20.5607,21.8855,21.4096,314.999998,314.999998,324.999988,324.999988,99.5605,99.50705,99.56672857142857,99.5466,0.09299999999999997,-0.033333333333333215,-0.10379999999999989,0.12400000000000011,-0.05333333333332746,-0.03999999999999915,1.5185,1.504,37.939,29.504333333333335,37.784,34.81,56.561,34.7265,59.420500000000004,52.202,54.438,33.8745,58.025,50.545,53.57,33.4215,57.961,49.966,-0.11049999999999993,-0.03400000000000003,0.10360000000000001,0.11718500000000001,0.0,212.525,212.53,209.33333333333331,209.33333333333331,0.0,0.0
14,0.0,0.0,0.0,1.0,1.0,0.0,0.0,1.0,0.0,0.0,1.0,1.1856,26.0,0.0,0.0,0.0,59.999996,0.0,26.0,26.0,26.0,26.0,0.03155555555555578,0.2803,-0.018825,293.61,-2.7164,-2.7095000000000002,-1.569,-1.5304,-228.55,215.825,190.702625,0.0,0.0,0.0,0.0,0.028999999999999915,-5.498166666666667,-5.498166666666667,-0.5486,-0.046499999999999986,0.02633333333333332,0.9630000000000001,68.016,0.014700000000000157,-0.2268,-0.5020000000000007,100.0,1.0,1.0,209.86666666666667,0.0,0.0,0.0,0.0,0.0,0.0,0.0,8895.4,0.0,19.0,5.0,244.82999999999998,0.0,0.0,0.0,0.0,0.0,0.0,1.0,0.0,0.7079999999999984,0.7079999999999984,0.0,0.0,0.0,55.0,616.79921,10000.0,85.000001,85.000001,85.000001,85.000001,395.0,0.0,0.0,0.0,1.0,166.665,53.482,53.482,48.92,48.92,34.0,-21.474999999999998,25.945,-25.785,29.2825,0.0,1782.876,-0.504999999999999,100.0,27.249,27.137999999999998,42.161,42.315,0.0,0.0,100.0,0.0,0.0,0.0,0.0,2909.125,3106.3,3912.8888888888887,4120.2,305.91,304.9336666666667,315.3095,314.6235,21.9199,20.5661,21.8959,21.4186,314.999998,314.999998,324.999988,324.999988,99.56051428571429,99.50705,99.56687142857143,99.54674285714286,0.10233333333333361,-0.020999999999999908,-0.08820000000000006,0.13559999999999994,-0.045000000000001705,-0.08500000000000085,1.568,1.5465,38.0,29.538,37.849000000000004,34.8665,56.546,34.7645,59.457,52.263999999999996,54.424,33.909,58.059,50.6045,53.555,33.454499999999996,57.992,50.02433333333333,-0.11249999999999993,-0.03699999999999992,0.102635,0.10076,0.0,212.95499999999998,212.995,209.86666666666667,209.86666666666667,0.0,0.0
15,0.0,0.0,0.0,1.0,1.0,0.0,0.0,1.0,0.0,0.0,1.0,1.1856,26.0,0.0,0.0,0.0,59.999996,0.0,26.0,26.0,26.0,26.0,0.05033333333333334,0.28869999999999996,0.019925000000000002,293.51800000000003,-2.7178,-2.6768,-1.5852,-1.5394999999999999,-225.28,215.8,190.682,0.0,0.0,0.0,0.0,0.030899999999999928,-5.498166666666667,-5.498166666666667,-0.5387000000000001,0.17399999999999993,0.044777777777777805,0.484,68.151,0.025000000000000133,-0.207175,-0.54,100.0,1.0,1.0,210.23000000000002,0.0,0.0,0.0,0.0,0.0,0.0,0.0,8910.8,0.0,19.0,5.0,245.31333333333333,1.0,0.0,0.0,0.0,0.0,0.0,1.0,0.0,0.7560000000000002,0.7560000000000002,0.0,0.0,1.0,55.0,616.79921,10000.0,85.000001,85.000001,85.000001,85.000001,395.0,0.0,0.0,0.0,1.0,166.665,53.574,53.574,48.721000000000004,48.721000000000004,34.0,-20.7,25.638333333333335,-26.1875,31.47,0.0,1782.828,-0.39000000000000057,100.0,27.289,27.198999999999998,42.024,42.483000000000004,0.0,0.0,100.0,0.0,0.0,0.0,0.0,2821.75,3070.3,4020.777777777778,4249.4,306.207,305.047,315.1485,314.31125,21.9291,20.5712,21.9057,21.4272,314.999998,314.999998,324.999988,324.999988,99.56051428571429,99.50705,99.56701428571428,99.54688571428571,0.10233333333333361,-0.0129999999999999,-0.07439999999999991,0.1504000000000001,-0.054999999999999716,-0.06333333333333258,1.531,1.5105,38.057,29.57,37.91,34.92,56.532,34.8,59.491,52.323,54.411,33.942,58.0905,50.661,53.541,33.486000000000004,58.0205,50.08,-0.10299999999999998,-0.03649999999999998,0.10463000000000001,0.103275,0.0,213.39,213.41500000000002,210.23000000000002,210.23000000000002,0.0,0.0
16,0.0,0.0,0.0,1.0,1.0,0.0,0.0,1.0,0.0,0.0,1.0,1.1856,26.0,0.0,0.0,0.0,59.999996,0.0,26.0,26.0,26.0,26.0,0.04788888888888887,0.27380000000000004,-0.0219,293.35,-2.7732,-2.6263,-1.5572,-1.5430000000000001,-221.81,215.7775,190.65975,0.0,0.0,0.0,0.0,0.03289999999999993,-5.498166666666667,-5.498166666666667,-0.56,-0.4395,0.02588888888888885,-1.255,68.292,0.03160000000000007,-0.226975,-0.36799999999999944,100.0,1.0,1.0,210.70333333333332,0.0,0.0,0.0,0.0,0.0,0.0,0.0,8930.9,0.0,19.0,5.0,245.82333333333332,0.0,0.0,0.0,0.0,0.0,0.0,1.0,0.0,0.8069999999999986,0.8069999999999986,0.0,0.0,0.0,55.0,616.79921,10000.0,85.000001,85.000001,85.000001,85.000001,395.0,0.0,0.0,0.0,1.0,166.665,53.009,53.009,48.691,48.691,34.0,-24.232499999999998,26.013333333333335,-25.66,28.83,0.0,1782.777,-0.3149999999999995,100.0,26.957,27.453,42.216,42.649,0.0,0.0,100.0,0.0,0.0,0.0,0.0,3198.5,3155.8,3955.6666666666665,3988.0,305.3435,304.68666666666667,315.23325,314.897,21.9386,20.5766,21.9162,21.4362,314.999998,314.999998,324.999988,324.999988,99.56052857142858,99.50706666666666,99.56715714285714,99.54702857142857,0.10099999999999998,-0.016000000000000014,-0.08179999999999998,0.14440000000000008,-0.045000000000001705,-0.04333333333332945,1.561,1.5470000000000002,38.116,29.604,37.976,34.9765,56.516,34.838,59.528999999999996,52.384,54.394999999999996,33.977000000000004,58.126,50.7195,53.524,33.519999999999996,58.053,50.13766666666667,-0.10199999999999998,-0.046499999999999986,0.11241500000000001,0.10389000000000001,0.0,213.78,213.81,210.70333333333332,210.70333333333332,0.0,0.0
17,0.0,0.0,0.0,1.0,1.0,0.0,0.0,1.0,0.0,0.0,1.0,1.1856,26.0,0.0,0.0,0.0,59.999996,0.0,26.0,26.0,26.0,26.0,0.02677777777777779,0.2875000000000001,0.049925000000000004,292.847,-2.7297,-2.6152,-1.5975000000000001,-1.5084,-218.32,215.755,190.637,0.0,0.0,0.0,0.0,0.03493333333333337,-5.498166666666667,-5.498166666666667,-0.5458000000000001,0.25449999999999995,0.007111111111111068,0.8660000000000001,68.435,0.030299999999999994,-0.20885,-0.2999999999999998,100.0,1.0,1.0,210.99666666666667,0.0,0.0,0.0,0.0,0.0,0.0,0.0,8943.4,0.0,19.0,5.0,246.33333333333334,1.0,0.0,0.0,0.0,0.0,0.0,1.0,0.0,0.8580000000000005,0.8580000000000005,0.0,0.0,1.0,55.0,616.79921,10000.0,85.000001,85.000001,85.000001,85.000001,395.0,0.0,0.0,0.0,1.0,166.665,52.948,52.948,47.928,47.928,34.0,-22.785,25.546666666666667,-28.72,31.9925,0.0,1782.726,-0.29499999999999993,100.0,27.58,27.441,42.359,42.58,0.0,0.0,100.0,0.0,0.0,0.0,0.0,3061.75,3138.5,4325.444444444444,4336.0,305.502,304.9216666666667,314.33975,314.1875,21.9483,20.5822,21.9266,21.4453,314.999998,314.999998,324.999988,324.999988,99.56054285714286,99.50706666666666,99.5673,99.54718571428572,0.10466666666666669,-0.015666666666666718,-0.0696,0.15459999999999985,-0.03999999999999915,-0.03999999999999915,1.514,1.4935,38.177,29.638333333333335,38.041,35.033,56.503,34.8765,59.5665,52.445499999999996,54.382,34.0125,58.161,50.778999999999996,53.510999999999996,33.554,58.085,50.19566666666667,-0.09550000000000003,-0.05400000000000005,0.10443500000000001,0.11045,0.0,214.275,214.285,210.99666666666667,210.99666666666667,0.0,0.0
18,0.0,0.0,0.0,1.0,1.0,0.0,0.0,1.0,0.0,0.0,1.0,1.1856,26.0,0.0,0.0,0.0,59.999996,0.0,26.0,26.0,26.0,26.0,0.0257777777777779,0.28049999999999997,0.027525,292.923,-2.6791,-2.5891,-1.6067,-1.4577,-215.24,215.735,190.61725,0.0,0.0,0.0,0.0,0.036733333333333396,-5.498166666666667,-5.498166666666667,-0.5612,-0.40900000000000003,0.023111111111111082,-0.46799999999999997,68.55799999999999,0.024900000000000144,-0.226575,-0.21200000000000063,100.0,1.0,1.0,211.44,0.0,0.0,0.0,0.0,0.0,0.0,0.0,8962.1,0.0,19.0,5.0,246.78,0.0,0.0,0.0,0.0,0.0,0.0,1.0,0.0,0.9029999999999987,0.9029999999999987,0.0,0.0,0.0,55.0,616.79921,10000.0,85.000001,85.000001,85.000001,85.000001,395.0,0.0,0.0,0.0,1.0,333.33500000000004,52.78,52.78,48.141,48.141,34.0,-23.349999999999998,26.188333333333333,-28.5925,28.47,0.0,1782.678,-0.35999999999999943,100.0,27.234,27.531,42.41,42.882,0.0,0.0,100.0,0.0,0.0,0.0,0.0,3155.25,3227.4,4134.555555555556,4163.1,305.3285,304.50266666666664,314.85075,314.51525,21.956699999999998,20.587,21.9359,21.4534,314.999998,314.999998,324.999988,324.999988,99.56055714285715,99.50706666666666,99.56744285714285,99.54731428571428,0.09633333333333338,-0.018999999999999906,-0.09639999999999993,0.12979999999999992,-0.03499999999999659,-0.054999999999999716,1.529,1.5285,38.230000000000004,29.668333333333333,38.099000000000004,35.0835,56.488,34.911500000000004,59.602000000000004,52.504,54.369,34.045500000000004,58.1935,50.835499999999996,53.495999999999995,33.585499999999996,58.115,50.251333333333335,-0.09699999999999998,-0.040000000000000036,0.10740500000000001,0.10281000000000001,0.0,214.61,214.63,211.44,211.44,0.0,0.0
19,0.0,0.0,0.0,1.0,1.0,0.0,0.0,1.0,0.0,0.0,1.0,1.1856,26.0,0.0,0.0,0.0,59.999996,0.0,26.0,26.0,26.0,26.0,0.03488888888888897,0.28300000000000014,0.054950000000000006,292.709,-2.6681,-2.7029,-1.5329000000000002,-1.588,-211.74,215.7125,190.594375,0.0,0.0,0.0,0.0,0.038766666666666505,-5.498166666666667,-5.498166666666667,-0.5444,0.6935,0.020777777777777784,0.6719999999999999,68.697,0.024599999999999955,-0.21105000000000002,-0.32399999999999984,100.0,1.0,1.0,211.82999999999998,0.0,0.0,0.0,0.0,0.0,0.0,0.0,8978.7,0.0,19.0,5.0,247.28333333333336,1.0,0.0,0.0,0.0,0.0,0.0,1.0,0.0,0.9540000000000006,0.9540000000000006,0.0,0.0,1.0,55.0,616.79921,10000.0,85.000001,85.000001,85.000001,85.000001,395.0,0.0,0.0,0.0,1.0,333.33500000000004,52.719,52.719,48.141,48.141,34.0,-21.5775,25.948333333333334,-27.252499999999998,32.9275,0.0,1782.627,-0.28999999999999915,100.0,27.896,27.783,42.385,42.844,0.0,0.0,100.0,0.0,0.0,0.0,0.0,2985.75,3097.0,4146.0,4351.5,305.6395,304.89233333333334,314.7225,314.0215,21.9665,20.5925,21.9463,21.4625,314.999998,314.999998,324.999988,324.999988,99.56055714285715,99.50706666666666,99.56758571428571,99.54745714285714,0.1070000000000002,-0.020000000000000018,-0.08279999999999998,0.14280000000000004,-0.051666666666669414,-0.06499999999999773,1.492,1.476,38.291,29.703333333333333,38.164,35.1405,56.474999999999994,34.951,59.6375,52.566,54.355999999999995,34.082,58.227000000000004,50.894999999999996,53.483000000000004,33.6205,58.144999999999996,50.309666666666665,-0.09799999999999998,-0.052999999999999936,0.10848500000000001,0.10815000000000001,0.0,215.10000000000002,215.11,211.82999999999998,211.82999999999998,0.0,0.0
20,0.0,0.0,0.0,1.0,1.0,0.0,0.0,1.0,0.0,0.0,1.0,1.1856,26.0,0.0,0.0,0.0,59.999996,0.0,26.0,26.0,26.0,26.0,0.039111111111111097,0.25780000000000003,-0.021725,293.045,-2.7434,-2.6512000000000002,-1.5413999999999999,-1.569,-208.23000000000002,215.6925,190.571875,0.0,0.0,0.0,0.0,0.04079999999999995,-5.498166666666667,-5.498166666666667,-0.5608000000000001,-1.0310000000000001,0.023333333333333206,-0.952,68.837,0.02429999999999999,-0.227825,-0.2060000000000004,100.0,1.0,1.0,212.26,0.0,0.0,0.0,0.0,0.0,0.0,0.0,8996.9,0.0,19.0,5.0,247.78666666666666,0.0,0.0,0.0,0.0,0.0,0.0,0.0,0.0,1.004999999999999,1.004999999999999,0.0,0.0,0.0,55.0,616.79921,10000.0,85.000001,85.000001,85.000001,85.000001,395.0,0.0,0.0,0.0,1.0,333.33500000000004,53.238,53.238,47.989,47.989,34.0,-22.9975,24.299999999999997,-27.14,29.12,0.0,1782.576,-0.2599999999999998,100.0,27.194,27.604,42.853,43.298,0.0,0.0,100.0,0.0,0.0,0.0,0.0,3061.375,3019.5,4045.222222222222,4040.0,305.7235,305.0973333333333,314.98925,314.7295,21.9759,20.598,21.9569,21.4718,314.999998,314.999998,324.999988,324.999988,99.56057142857142,99.50708333333333,99.56772857142857,99.54761428571429,0.09666666666666668,-0.03266666666666662,-0.09739999999999993,0.12919999999999998,-0.046666666666666856,-0.04333333333332945,1.5245,1.5095,38.349999999999994,29.737333333333332,38.230999999999995,35.198499999999996,56.458,34.9885,59.677,52.6285,54.34,34.1165,58.2635,50.955,53.466,33.6535,58.1785,50.36833333333333,-0.09550000000000003,-0.0515000000000001,0.11286000000000002,0.10794000000000001,0.0,215.47500000000002,215.49,212.26,212.26,0.0,0.0
21,0.0,0.0,0.0,1.0,1.0,0.0,0.0,1.0,0.0,0.0,1.0,1.1856,26.0,0.0,0.0,0.0,59.999996,0.0,26.0,26.0,26.0,26.0,0.03866666666666685,0.27970000000000006,-0.032275,293.167,-2.7343,-2.6601,-1.5815000000000001,-1.529,-204.92000000000002,215.675,190.549875,0.0,0.0,0.0,0.0,0.0427333333333334,-5.498166666666667,-5.498166666666667,-0.5718,0.375,0.00533333333333319,-0.821,68.965,0.020499999999999963,-0.218625,-0.1739999999999995,100.0,1.0,1.0,212.79000000000002,0.0,0.0,0.0,0.0,0.0,0.0,0.0,9019.5,0.0,19.0,5.0,248.24333333333334,1.0,0.0,0.0,0.0,0.0,0.0,0.0,0.0,1.0530000000000008,1.0530000000000008,0.0,0.0,1.0,55.0,616.79921,10000.0,85.000001,85.000001,85.000001,85.000001,395.0,0.0,0.0,0.0,1.0,333.33500000000004,52.994,52.994,48.569,48.569,34.0,-23.787499999999998,24.905,-27.474999999999998,28.0925,0.0,1782.53,-0.3100000000000005,100.0,27.433,27.595,42.355000000000004,42.844,0.0,0.0,100.0,0.0,0.0,0.0,0.0,3151.75,3062.4,4066.222222222222,3998.6000000000004,305.4245,304.9816666666667,315.03875,314.96225,21.985,20.6032,21.9666,21.4802,314.999998,314.999998,324.999988,324.999988,99.56058571428571,99.50708333333333,99.56785714285714,99.54774285714285,0.09566666666666634,-0.02933333333333321,-0.09639999999999993,0.13459999999999983,-0.05333333333332746,-0.051666666666669414,1.575,1.5670000000000002,38.406,29.77,38.291,35.2515,56.446,35.0225,59.7065,52.68,54.328,34.147999999999996,58.291,51.004999999999995,53.453,33.684,58.2035,50.41733333333333,-0.10350000000000004,-0.05049999999999999,0.11039500000000001,0.10884,0.0,215.91500000000002,215.9,212.79000000000002,212.79000000000002,0.0,0.0
22,0.0,0.0,0.0,1.0,1.0,0.0,0.0,1.0,0.0,0.0,1.0,1.1856,26.0,0.0,0.0,0.0,59.999996,0.0,26.0,26.0,26.0,26.0,0.007888888888888834,0.2803,-0.0005,292.74,-2.7917,-2.6255,-1.6045,-1.5152999999999999,-201.39999999999998,215.655,190.526,0.0,0.0,0.0,0.0,0.04476666666666651,-5.498166666666667,-5.498166666666667,-0.5556,-0.139,0.01922222222222203,1.065,69.105,0.02069999999999994,-0.20270000000000002,-0.3439999999999994,100.0,1.0,1.0,213.03,0.0,0.0,0.0,0.0,0.0,0.0,0.0,9029.6,0.0,19.0,5.0,248.75,0.0,0.0,0.0,0.0,0.0,0.0,0.0,0.0,1.1039999999999992,1.1039999999999992,0.0,0.0,0.0,55.0,616.79921,10000.0,85.000001,85.000001,85.000001,85.000001,395.0,0.0,0.0,0.0,1.0,333.33500000000004,53.162,53.162,47.668,47.668,34.0,-22.5,25.14333333333333,-29.1375,31.5225,0.0,1782.478,-0.33000000000000007,100.0,27.598,27.534,42.798,43.022999999999996,0.0,0.0,100.0,0.0,0.0,0.0,0.0,2963.125,3124.7,4198.555555555556,4371.5,305.8885,305.034,314.6215,314.0575,21.9945,20.6087,21.9771,21.4894,314.999998,314.999998,324.999988,324.999988,99.56061428571428,99.50708333333333,99.568,99.54788571428571,0.10199999999999987,-0.02299999999999991,-0.09179999999999988,0.1354000000000002,-0.03499999999999659,-0.061666666666667425,1.4954999999999998,1.4809999999999999,38.466,29.804333333333332,38.357,35.309,56.431,35.0605,59.7455,52.7425,54.315,34.183,58.3275,51.065,53.438,33.7175,58.2365,50.476333333333336,-0.10250000000000004,-0.05049999999999999,0.10736000000000001,0.105565,0.0,216.325,216.36,213.03,213.03,0.0,0.0
23,0.0,0.0,0.0,1.0,1.0,0.0,0.0,1.0,0.0,0.0,1.0,1.1856,26.0,0.0,0.0,0.0,59.999996,0.0,26.0,26.0,26.0,26.0,0.03400000000000003,0.26960000000000006,-0.031625,292.694,-2.668,-2.6814999999999998,-1.6557,-1.49,-197.87,215.6375,190.502375,0.0,0.0,0.0,0.0,0.04683333333333339,-5.498166666666667,-5.498166666666667,-0.5742,-0.08850000000000002,0.014999999999999902,-0.592,69.24000000000001,0.02400000000000002,-0.22817500000000002,-0.266,100.0,1.0,1.0,213.56,0.0,0.0,0.0,0.0,0.0,0.0,0.0,9052.0,0.0,19.0,5.0,249.23666666666668,1.0,0.0,0.0,0.0,0.0,0.0,0.0,0.0,1.1550000000000011,1.1550000000000011,0.0,0.0,1.0,55.0,616.79921,10000.0,85.000001,85.000001,85.000001,85.000001,395.0,0.0,0.0,0.0,1.0,333.33500000000004,52.536,52.536,48.248,48.248,34.0,-23.1875,24.884999999999998,-29.015,28.39,0.0,1782.427,-0.3149999999999995,100.0,27.786,27.88,42.75,43.239000000000004,0.0,0.0,100.0,0.0,0.0,0.0,0.0,3180.125,3036.3,4125.0,4088.7,305.2265,304.98133333333334,314.931,314.74825,22.0041,20.6143,21.9876,21.4987,314.999998,314.999998,324.999988,324.999988,99.56061428571428,99.5071,99.56814285714286,99.54802857142857,0.10400000000000009,-0.030999999999999917,-0.09579999999999989,0.13440000000000007,-0.054999999999999716,-0.036666666666668846,1.5495,1.5510000000000002,38.525999999999996,29.839333333333336,38.422,35.3665,56.418,35.0995,59.782,52.804,54.302,34.219,58.3615,51.1245,53.424,33.752,58.2675,50.534333333333336,-0.10749999999999993,-0.04899999999999993,0.112085,0.10912000000000001,0.0,216.75,216.745,213.56,213.56,0.0,0.0
24,0.0,0.0,0.0,1.0,1.0,0.0,0.0,1.0,0.0,0.0,1.0,1.1856,26.0,0.0,0.0,0.0,59.999996,0.0,26.0,26.0,26.0,26.0,0.03955555555555579,0.2724,-0.047525000000000005,293.06,-2.729,-2.6630000000000003,-1.5455,-1.5418,-194.55,215.62,190.4795,0.0,0.0,0.0,0.0,0.048766666666666514,-5.498166666666667,-5.498166666666667,-0.5838,-0.478,0.02777777777777768,-0.20199999999999996,69.37,0.0253000000000001,-0.220525,-0.24600000000000044,100.0,1.0,1.0,213.90333333333334,0.0,0.0,0.0,0.0,0.0,0.0,0.0,9066.5,0.0,19.0,5.0,249.70333333333335,0.0,0.0,0.0,0.0,0.0,0.0,0.0,0.0,1.2029999999999994,1.2029999999999994,0.0,0.0,0.0,55.0,616.79921,10000.0,85.000001,85.000001,85.000001,85.000001,395.0,0.0,0.0,0.0,1.0,333.33500000000004,53.482,53.482,47.928,47.928,34.0,-21.5425,23.776666666666664,-27.5925,29.830000000000002,0.0,1782.379,-0.3100000000000005,100.0,27.413,27.585,42.753,43.216,0.0,0.0,100.0,0.0,0.0,0.0,0.0,2913.25,2952.2,4122.111111111111,4109.6,306.089,305.295,314.83525,314.63625,22.012999999999998,20.6194,21.9974,21.5073,314.999998,314.999998,324.999988,324.999988,99.56062857142857,99.5071,99.56828571428571,99.54818571428571,0.10033333333333339,-0.033333333333333215,-0.09339999999999993,0.14000000000000012,-0.03999999999999915,-0.051666666666669414,1.5305,1.5055,38.581,29.871333333333332,38.483999999999995,35.420500000000004,56.403,35.134,59.8165,52.8615,54.287,34.251,58.3935,51.1795,53.41,33.783,58.2965,50.58833333333333,-0.09650000000000003,-0.0535000000000001,0.10392000000000001,0.11371,0.0,217.14,217.15,213.90333333333334,213.90333333333334,0.0,0.0
25,0.0,0.0,0.0,1.0,1.0,0.0,0.0,1.0,0.0,0.0,1.0,1.1856,26.0,0.0,0.0,0.0,59.999996,0.0,26.0,26.0,26.0,26.0,0.048222222222222166,0.2784,-0.0066,292.572,-2.7307,-2.6974,-1.6258,-1.5209000000000001,-190.8,215.60250000000002,190.45225,0.0,0.0,0.0,0.0,0.050933333333333386,-5.498166666666667,-5.498166666666667,-0.6015,0.41000000000000003,0.02544444444444438,-1.06,69.512,0.020399999999999974,-0.21782500000000002,-0.24600000000000044,100.0,1.0,1.0,214.40666666666667,0.0,0.0,0.0,0.0,0.0,0.0,0.0,9087.9,0.0,19.0,5.0,250.21666666666667,1.0,0.0,0.0,0.0,0.0,0.0,0.0,0.0,1.256999999999998,1.256999999999998,0.0,0.0,1.0,55.0,616.79921,10000.0,85.000001,85.000001,85.000001,85.000001,395.0,0.0,0.0,0.0,1.0,166.665,52.138999999999996,52.138999999999996,48.233000000000004,48.233000000000004,34.0,-24.3925,26.9,-27.575,28.505000000000003,0.0,1782.327,-0.42499999999999893,100.0,27.677,28.022,42.515,43.028,0.0,0.0,100.0,0.0,0.0,0.0,0.0,3276.5,3210.6,4076.1111111111113,4072.3,305.011,304.41566666666665,315.0535,314.76375,22.023,20.6254,22.0083,21.5169,314.999998,314.999998,324.999988,324.999988,99.56064285714285,99.5071,99.56844285714286,99.54832857142857,0.10766666666666636,-0.02733333333333321,-0.08460000000000001,0.12959999999999994,-0.060000000000002274,-0.030000000000001137,1.5675,1.546,38.644,29.908666666666665,38.552,35.4805,56.387,35.1755,59.853,52.9245,54.272999999999996,34.289500000000004,58.427,51.2405,53.394,33.82,58.327,50.647666666666666,-0.10849999999999993,-0.04600000000000004,0.098195,0.102735,0.0,217.595,217.585,214.40666666666667,214.40666666666667,0.0,0.0
26,0.0,0.0,0.0,1.0,1.0,0.0,0.0,1.0,0.0,0.0,1.0,1.1856,26.0,0.0,0.0,0.0,59.999996,0.0,26.0,26.0,26.0,26.0,0.045222222222222275,0.26480000000000015,0.06535,291.855,-2.7246,-2.651,-1.5572,-1.5875,-187.45999999999998,215.5875,190.428125,0.0,0.0,0.0,0.0,0.05289999999999995,-5.498166666666667,-5.498166666666667,-0.5695,0.22250000000000003,0.014777777777777779,-0.612,69.642,0.021700000000000053,-0.20325000000000001,-0.2999999999999998,100.0,1.0,1.0,214.57999999999998,0.0,0.0,0.0,0.0,0.0,0.0,0.0,9095.2,0.0,19.0,5.0,250.68333333333334,0.0,0.0,0.0,0.0,0.0,0.0,0.0,0.0,1.3049999999999997,1.3049999999999997,0.0,0.0,0.0,55.0,616.79921,10000.0,85.000001,85.000001,85.000001,85.000001,395.0,0.0,0.0,0.0,1.0,166.665,52.338,52.338,46.829,46.829,34.0,-23.02,24.461666666666666,-31.072499999999998,33.11,0.0,1782.279,-0.46499999999999986,100.0,28.224,28.344,43.185,43.653,0.0,0.0,100.0,0.0,0.0,0.0,0.0,3100.0,3029.4,4473.0,4407.8,305.477,305.093,314.0125,313.86025,22.032,20.6308,22.0183,21.5257,314.999998,314.999998,324.999988,324.999988,99.56065714285714,99.50711666666666,99.56858571428572,99.54847142857143,0.10433333333333339,-0.030999999999999917,-0.09399999999999997,0.131,-0.045000000000001705,-0.03333333333333144,1.4369999999999998,1.4224999999999999,38.7,29.942333333333334,38.614999999999995,35.5355,56.376000000000005,35.213,59.8905,52.9845,54.262,34.3245,58.462,51.298,53.382,33.853,58.359,50.70433333333334,-0.11349999999999993,-0.04499999999999993,0.11035500000000001,0.10408,0.0,218.0,218.015,214.57999999999998,214.57999999999998,0.0,0.0
27,0.0,0.0,0.0,1.0,1.0,0.0,0.0,1.0,0.0,0.0,1.0,1.1856,26.0,0.0,0.0,0.0,59.999996,0.0,26.0,26.0,26.0,26.0,0.049555555555555575,0.25480000000000014,-0.051000000000000004,292.496,-2.7641,-2.6713,-1.6129,-1.5303,-184.11,215.575,190.405,0.0,0.0,0.0,0.0,0.0548333333333334,-5.498166666666667,-5.498166666666667,-0.6002000000000001,-0.8680000000000001,0.017888888888888843,-0.671,69.766,0.023700000000000054,-0.242325,-0.4079999999999995,100.0,1.0,1.0,215.15,0.0,0.0,0.0,0.0,0.0,0.0,0.0,9119.4,0.0,19.0,5.0,251.13,1.0,0.0,0.0,0.0,0.0,0.0,0.0,0.0,1.352999999999998,1.352999999999998,0.0,0.0,1.0,55.0,616.79921,10000.0,85.000001,85.000001,85.000001,85.000001,395.0,0.0,0.0,0.0,1.0,166.665,52.567,52.567,47.653,47.653,34.0,-23.2125,25.595,-27.1825,28.5625,0.0,1782.231,-0.4499999999999993,100.0,27.79,28.209,43.445,43.813,0.0,0.0,100.0,0.0,0.0,0.0,0.0,3139.5,3087.1,3953.222222222222,4014.0,305.5755,304.90366666666665,315.2235,314.91625,22.0409,20.636,22.0283,21.5345,314.999998,314.999998,324.999988,324.999988,99.56067142857142,99.50711666666666,99.56872857142857,99.54862857142857,0.11066666666666647,-0.021333333333333204,-0.09599999999999997,0.13880000000000003,-0.054999999999999716,-0.023333333333326323,1.5554999999999999,1.5485,38.754999999999995,29.97533333333333,38.677,35.5905,56.361999999999995,35.249,59.926,53.042500000000004,54.248999999999995,34.3575,58.495,51.3535,53.367999999999995,33.885,58.388999999999996,50.75866666666667,-0.11649999999999994,-0.03649999999999998,0.11558000000000002,0.10488000000000001,0.0,218.34,218.365,215.15,215.15,0.0,0.0
28,0.0,0.0,0.0,1.0,1.0,0.0,0.0,1.0,0.0,0.0,1.0,1.1856,26.0,0.0,0.0,0.0,59.999996,0.0,26.0,26.0,26.0,26.0,0.03444444444444428,0.27280000000000015,-0.029175000000000003,292.496,-2.693,-2.6599,-1.624,-1.557,-180.55,215.56,190.379125,0.0,0.0,0.0,0.0,0.05689999999999995,-5.498166666666667,-5.498166666666667,-0.5976,0.5755,0.010666666666666602,0.6180000000000001,69.899,0.029200000000000115,-0.20997500000000002,-0.5120000000000005,100.0,1.0,1.0,215.55333333333334,0.0,0.0,0.0,0.0,0.0,0.0,0.0,9136.6,0.0,19.0,5.0,251.60666666666668,0.0,0.0,0.0,0.0,0.0,0.0,0.0,0.0,1.404,1.404,0.0,0.0,0.0,55.0,616.79921,10000.0,85.000001,85.000001,85.000001,85.000001,395.0,0.0,0.0,0.0,1.0,333.33500000000004,52.704,52.704,47.577,47.577,34.0,-20.7425,25.805,-28.34,30.93,0.0,1782.178,-0.41499999999999915,100.0,28.062,28.005,42.964,43.34,0.0,0.0,100.0,0.0,0.0,0.0,0.0,2924.125,3137.2,4191.0,4200.6,305.8585,304.8806666666667,314.77025,314.5575,22.0504,20.6417,22.0386,21.5436,314.999998,314.999998,324.999988,324.999988,99.56068571428571,99.50711666666666,99.56887142857143,99.54877142857143,0.1206666666666667,-0.021333333333333204,-0.07920000000000005,0.14700000000000002,-0.036666666666668846,-0.05833333333333002,1.5455,1.5335,38.815,30.010666666666665,38.741,35.647,56.349000000000004,35.288,59.9595,53.1015,54.236000000000004,34.394,58.525999999999996,51.4105,53.354,33.92,58.4165,50.81433333333334,-0.11099999999999999,-0.04800000000000004,0.11200500000000001,0.10813,0.0,218.79500000000002,218.825,215.55333333333334,215.55333333333334,0.0,0.0
29,0.0,0.0,0.0,1.0,1.0,0.0,0.0,1.0,0.0,0.0,1.0,1.1856,26.0,0.0,0.0,0.0,59.999996,0.0,26.0,26.0,26.0,26.0,0.048555555555555685,0.25690000000000013,-0.0477,292.267,-2.7738,-2.5742000000000003,-1.6099,-1.5546,-176.98000000000002,215.5475,190.3525,0.0,0.0,0.0,0.0,0.05896666666666661,-5.498166666666667,-5.498166666666667,-0.6083000000000001,-0.7175,0.010999999999999899,-0.775,70.033,0.030000000000000027,-0.21957500000000002,-0.35599999999999987,100.0,1.0,1.0,215.88333333333333,0.0,0.0,0.0,0.0,0.0,0.0,0.0,9150.5,0.0,19.0,5.0,252.09333333333336,1.0,0.0,0.0,0.0,0.0,0.0,0.0,0.0,1.4549999999999983,1.4549999999999983,0.0,0.0,1.0,55.0,616.79921,10000.0,85.000001,85.000001,85.000001,85.000001,395.0,0.0,0.0,0.0,1.0,333.33500000000004,52.49,52.49,47.623,47.623,34.0,-24.165,25.163333333333334,-27.735,31.2575,0.0,1782.128,-0.48499999999999943,100.0,27.659,28.041,43.22,43.771,0.0,0.0,100.0,0.0,0.0,0.0,0.0,3260.125,3159.1,4114.888888888889,4189.2,305.284,304.856,314.9185,314.40025,22.0597,20.6473,22.0491,21.5529,314.999998,314.999998,324.999988,324.999988,99.5607,99.50713333333333,99.56902857142857,99.54891428571429,0.11333333333333373,-0.02200000000000002,-0.07879999999999998,0.14640000000000009,-0.046666666666666856,-0.036666666666668846,1.5015,1.4845,38.873000000000005,30.045666666666666,38.807,35.7055,56.334,35.3255,59.9975,53.164,54.222,34.4285,58.5615,51.4705,53.339,33.953,58.449,50.873,-0.11449999999999994,-0.046499999999999986,0.10502,0.10730500000000001,0.0,219.175,219.185,215.88333333333333,215.88333333333333,0.0,0.0
30,0.0,0.0,0.0,1.0,1.0,0.0,0.0,1.0,0.0,0.0,1.0,1.1856,26.0,0.0,0.0,0.0,59.999996,0.0,26.0,26.0,26.0,26.0,0.019777777777777894,0.2946,0.026025,291.595,-2.6948,-2.5976,-1.6434000000000002,-1.4534,-173.41,215.5375,190.325875,0.0,0.0,0.0,0.0,0.0610666666666666,-5.498166666666667,-5.498166666666667,-0.5946,0.861,0.01344444444444437,1.021,70.16499999999999,0.03269999999999995,-0.210175,-0.5179999999999998,100.0,1.0,1.0,216.25333333333333,0.0,0.0,0.0,0.0,0.0,0.0,0.0,9166.1,0.0,19.0,5.0,252.56666666666666,0.0,0.0,0.0,0.0,0.0,0.0,1.0,0.0,1.5060000000000002,1.5060000000000002,0.0,0.0,0.0,55.0,616.79921,10000.0,85.000001,85.000001,85.000001,85.000001,395.0,0.0,0.0,0.0,1.0,166.665,51.743,51.743,46.86,46.86,34.0,-21.669999999999998,25.921666666666667,-30.03,32.105000000000004,0.0,1782.078,-0.5199999999999996,100.0,28.727,28.65,43.271,43.672,0.0,0.0,100.0,0.0,0.0,0.0,0.0,3062.75,3193.5,4398.222222222223,4464.2,305.4295,304.651,314.2825,314.008,22.0693,20.6532,22.0595,21.5621,314.999998,314.999998,324.999988,324.999988,99.56072857142857,99.50713333333333,99.56917142857142,99.54907142857142,0.12666666666666648,-0.01966666666666672,-0.07020000000000004,0.15159999999999996,-0.045000000000001705,-0.045000000000001705,1.501,1.4849999999999999,38.933,30.082333333333334,38.872,35.7635,56.324,35.367,60.033,53.2245,54.212,34.467,58.595,51.528999999999996,53.328,33.99,58.479,50.93033333333334,-0.121,-0.04849999999999999,0.09982,0.107395,0.0,219.62,219.655,216.25333333333333,216.25333333333333,0.0,0.0
31,0.0,0.0,0.0,1.0,1.0,0.0,0.0,1.0,0.0,0.0,1.0,1.1856,26.0,0.0,0.0,0.0,59.999996,0.0,26.0,26.0,26.0,26.0,0.0431111111111111,0.2571000000000001,0.0082,291.519,-2.7119,-2.7005,-1.6023,-1.5831,-170.03,215.5275,190.301625,0.0,0.0,0.0,0.0,0.06299999999999994,-5.498166666666667,-5.498166666666667,-0.5898,-0.3235000000000001,0.017888888888888843,0.5270000000000001,70.289,0.03290000000000015,-0.22595,-0.5659999999999998,100.0,1.0,1.0,216.61666666666667,0.0,0.0,0.0,0.0,0.0,0.0,0.0,9181.5,0.0,19.0,5.0,253.01666666666665,1.0,0.0,0.0,0.0,0.0,0.0,1.0,0.0,1.5539999999999985,1.5539999999999985,0.0,0.0,1.0,55.0,616.79921,10000.0,85.000001,85.000001,85.000001,85.000001,395.0,0.0,0.0,0.0,1.0,333.33500000000004,51.650999999999996,51.650999999999996,46.402,46.402,34.0,-21.2175,28.483333333333334,-27.502499999999998,32.2025,0.0,1782.028,-0.5449999999999999,100.0,28.487000000000002,28.782,43.899,44.329,0.0,0.0,100.0,0.0,0.0,0.0,0.0,2997.5,3320.6,4142.333333333333,4292.2,305.637,304.232,314.78125,314.35275,22.0781,20.6586,22.069499999999998,21.5711,314.999998,314.999998,324.999988,324.999988,99.56072857142857,99.50713333333333,99.5693,99.54921428571429,0.1280000000000001,-0.01200000000000001,-0.06899999999999995,0.14379999999999993,-0.030000000000001137,-0.046666666666666856,1.488,1.4765000000000001,38.988,30.116333333333333,38.935,35.819,56.312,35.4045,60.0695,53.285,54.2,34.5015,58.629,51.587,53.316,34.0235,58.51,50.987,-0.123,-0.04150000000000009,0.10941000000000001,0.09885500000000001,0.0,219.965,219.99,216.61666666666667,216.61666666666667,0.0,0.0
32,0.0,0.0,0.0,1.0,1.0,0.0,0.0,1.0,0.0,0.0,1.0,1.1856,26.0,0.0,0.0,0.0,59.999996,0.0,26.0,26.0,26.0,26.0,0.08433333333333337,0.25350000000000006,-0.0439,292.099,-2.709,-2.6854,-1.5812,-1.6144,-166.45,215.51999999999998,190.27575,0.0,0.0,0.0,0.0,0.06509999999999994,-5.498166666666667,-5.498166666666667,-0.6066,-0.27649999999999997,-0.006888888888889166,-1.04,70.418,0.0354000000000001,-0.22895000000000001,-0.4379999999999997,100.0,1.0,1.0,217.12333333333333,0.0,0.0,0.0,0.0,0.0,0.0,0.0,9203.1,0.0,19.0,5.0,253.48000000000002,0.0,0.0,0.0,0.0,0.0,0.0,1.0,0.0,1.6050000000000004,1.6050000000000004,0.0,0.0,0.0,55.0,616.79921,10000.0,85.000001,85.000001,85.000001,85.000001,395.0,0.0,0.0,0.0,1.0,333.33500000000004,52.353,52.353,47.424,47.424,34.0,-21.9325,25.173333333333332,-26.4225,31.47,0.0,1781.978,-0.5099999999999998,100.0,28.149,28.612000000000002,43.569,44.281,0.0,0.0,100.0,0.0,0.0,0.0,0.0,3068.5,3007.3,4009.0,4102.7,305.66,305.079,315.1395,314.6205,22.0875,20.6643,22.0799,21.5803,314.999998,314.999998,324.999988,324.999988,99.56075714285714,99.50713333333333,99.56945714285715,99.54935714285715,0.11866666666666648,-0.01866666666666661,-0.0786,0.1524000000000001,-0.03999999999999915,-0.04999999999999716,1.5274999999999999,1.512,39.047,30.152,39.0,35.876999999999995,56.298,35.443,60.1045,53.345,54.188,34.5375,58.661,51.644999999999996,53.302,34.0575,58.5385,51.04333333333334,-0.11749999999999994,-0.04150000000000009,0.10914000000000001,0.11657000000000001,0.0,220.36,220.41500000000002,217.12333333333333,217.12333333333333,0.0,0.0
33,0.0,0.0,0.0,1.0,1.0,0.0,0.0,1.0,0.0,0.0,1.0,1.1856,26.0,0.0,0.0,0.0,59.999996,0.0,26.0,26.0,26.0,26.0,0.0665555555555557,0.25029999999999997,-0.054150000000000004,292.16,-2.7288,-2.6461,-1.6572,-1.5693000000000001,-163.06,215.5125,190.25025,0.0,0.0,0.0,0.0,0.06706666666666661,-5.498166666666667,-5.498166666666667,-0.6146,-0.23399999999999999,0.0015555555555555323,-0.19699999999999995,70.541,0.03479999999999994,-0.213175,-0.4299999999999997,100.0,1.0,1.0,217.4766666666667,0.0,0.0,0.0,0.0,0.0,0.0,0.0,9218.1,0.0,19.0,5.0,253.92333333333335,1.0,0.0,0.0,0.0,0.0,0.0,1.0,0.0,1.6529999999999987,1.6529999999999987,0.0,0.0,1.0,55.0,616.79921,10000.0,85.000001,85.000001,85.000001,85.000001,395.0,0.0,0.0,0.0,1.0,333.33500000000004,52.49,52.49,47.47,47.47,34.0,-22.412499999999998,25.251666666666665,-28.6725,30.5125,0.0,1781.929,-0.5399999999999991,100.0,27.996,28.326,43.391999999999996,44.085,0.0,0.0,100.0,0.0,0.0,0.0,0.0,3118.0,3037.8,4146.666666666667,4137.6,305.56,305.08666666666664,314.93175,314.59775,22.0963,20.6696,22.0897,21.589,314.999998,314.999998,324.999988,324.999988,99.56075714285714,99.50713333333333,99.5696,99.5495,0.1200000000000001,-0.012333333333333307,-0.08420000000000005,0.1414000000000002,-0.05333333333332746,-0.03833333333332689,1.537,1.514,39.102000000000004,30.185000000000002,39.061,35.9315,56.286,35.478,60.138,53.400999999999996,54.176,34.5695,58.692,51.699,53.289,34.088499999999996,58.5665,51.096000000000004,-0.12449999999999994,-0.034499999999999975,0.10955000000000001,0.10883500000000002,0.0,220.76999999999998,220.765,217.4766666666667,217.4766666666667,0.0,0.0
34,0.0,0.0,0.0,1.0,1.0,0.0,0.0,1.0,0.0,0.0,1.0,1.1856,26.0,0.0,0.0,0.0,59.999996,0.0,26.0,26.0,26.0,26.0,0.053888888888888875,0.2630000000000001,-0.07262500000000001,292.435,-2.7658,-2.6112,-1.629,-1.5097,-159.45999999999998,215.5075,190.221875,0.0,0.0,0.0,0.0,0.0691666666666666,-5.498166666666667,-5.498166666666667,-0.647,-0.9770000000000001,0.024111111111110972,0.7390000000000001,70.672,0.03980000000000006,-0.22437500000000002,-0.5979999999999999,100.0,1.0,1.0,217.84,0.0,0.0,0.0,0.0,0.0,0.0,0.0,9233.4,0.0,19.0,5.0,254.39333333333335,0.0,0.0,0.0,0.0,0.0,0.0,1.0,0.0,1.7040000000000006,1.7040000000000006,0.0,0.0,0.0,55.0,616.79921,10000.0,85.000001,85.000001,85.000001,85.000001,395.0,0.0,0.0,0.0,1.0,166.665,53.04,53.04,47.501,47.501,34.0,-20.41,25.89666666666667,-26.68,31.17,0.0,1781.88,-0.46499999999999986,100.0,27.807,27.897,43.356,44.048,0.0,0.0,100.0,0.0,0.0,0.0,0.0,2834.25,3111.7,4055.8888888888887,4228.7,306.1515,304.975,315.03275,314.46825,22.1054,20.6751,22.1001,21.598399999999998,314.999998,314.999998,324.999988,324.999988,99.56077142857143,99.50713333333333,99.56974285714286,99.54965714285714,0.1259999999999999,-0.0029999999999998916,-0.06420000000000003,0.1564000000000001,-0.030000000000001137,-0.06333333333333258,1.538,1.5125,39.159,30.219666666666665,39.125,35.99,56.271,35.513999999999996,60.1725,53.462,54.161,34.603,58.724000000000004,51.757999999999996,53.274,34.1205,58.5955,51.153666666666666,-0.11099999999999999,-0.038000000000000034,0.10807000000000001,0.10475500000000001,0.0,221.12,221.16,217.84,217.84,0.0,0.0
35,0.0,0.0,0.0,1.0,1.0,0.0,0.0,1.0,0.0,0.0,1.0,1.1856,26.0,0.0,0.0,0.0,59.999996,0.0,26.0,26.0,26.0,26.0,0.06544444444444442,0.25140000000000007,-0.053825000000000005,292.282,-2.8045,-2.6528,-1.6163,-1.5087000000000002,-155.85,215.5025,190.19125,0.0,0.0,0.0,0.0,0.07126666666666659,-5.498166666666667,-5.498166666666667,-0.6784,0.16000000000000003,-0.004444444444444251,-1.514,70.799,0.04479999999999995,-0.221525,-0.48799999999999955,100.0,1.0,1.0,218.3466666666667,0.0,0.0,0.0,0.0,0.0,0.0,0.0,9254.9,0.0,19.0,5.0,254.85000000000002,1.0,0.0,0.0,0.0,0.0,0.0,1.0,0.0,1.754999999999999,1.754999999999999,0.0,0.0,1.0,55.0,616.79921,10000.0,85.000001,85.000001,85.000001,85.000001,395.0,0.0,0.0,0.0,1.0,333.33500000000004,52.078,52.078,47.577,47.577,34.0,-24.634999999999998,27.318333333333335,-26.1525,29.2775,0.0,1781.828,-0.28500000000000014,100.0,27.65,28.536,43.013,43.549,0.0,0.0,100.0,0.0,0.0,0.0,0.0,3243.375,3270.7,4000.0,4039.8,305.346,304.264,315.2395,314.96225,22.1146,20.681,22.1104,21.6074,314.999998,314.999998,324.999988,324.999988,99.5608,99.50715,99.5699,99.54981428571429,0.10666666666666647,-0.021333333333333204,-0.06979999999999997,0.1574000000000002,-0.051666666666669414,-0.036666666666668846,1.5665,1.56,39.216,30.256333333333334,39.19,36.0465,56.256,35.554,60.2055,53.518,54.147,34.64,58.754999999999995,51.812,53.257999999999996,34.1565,58.623,51.20666666666666,-0.10150000000000003,-0.0535000000000001,0.108365,0.0981,0.0,221.555,221.57999999999998,218.34666666666666,218.3466666666667,0.0,0.0
36,0.0,0.0,0.0,1.0,1.0,0.0,0.0,1.0,0.0,0.0,1.0,1.1856,26.0,0.0,0.0,0.0,59.999996,0.0,26.0,26.0,26.0,26.0,0.06099999999999994,0.268,-0.027275,291.84,-2.7853,-2.7124,-1.6373,-1.5882,-152.45,215.5,190.161625,0.0,0.0,0.0,0.0,0.07323333333333337,-5.498166666666667,-5.498166666666667,-0.6614,-0.4455,-0.04377777777777769,-1.23,70.924,0.03890000000000016,-0.201125,-0.18599999999999994,100.0,1.0,1.0,218.44333333333333,0.0,0.0,0.0,0.0,0.0,0.0,0.0,9259.1,0.0,19.0,5.0,255.3,0.0,0.0,0.0,0.0,0.0,0.0,1.0,0.0,1.8030000000000008,1.8030000000000008,0.0,0.0,0.0,55.0,616.79921,10000.0,85.000001,85.000001,85.000001,85.000001,395.0,0.0,0.0,0.0,1.0,111.11,53.07,53.07,46.494,46.494,34.0,-22.16,22.545,-32.0325,33.7725,0.0,1781.781,-0.22499999999999964,100.0,28.086,28.383,43.488,44.164,0.0,0.0,100.0,0.0,0.0,0.0,0.0,2991.0,2772.4,4596.555555555556,4406.8,306.073,305.711,313.8915,313.90875,22.1234,20.6864,22.1203,21.6163,314.999998,314.999998,324.999988,324.999988,99.5608,99.50715,99.57004285714285,99.54995714285714,0.10899999999999999,-0.038000000000000034,-0.07399999999999995,0.1432,-0.045000000000001705,-0.036666666666668846,1.436,1.4355,39.271,30.29,39.251999999999995,36.102000000000004,56.242999999999995,35.59,60.2415,53.5775,54.135,34.673500000000004,58.7885,51.8695,53.245000000000005,34.188,58.653,51.26266666666667,-0.09550000000000003,-0.06499999999999995,0.10690000000000001,0.10774500000000001,0.0,221.95499999999998,221.95,218.44333333333333,218.44333333333333,0.0,0.0
