,ABS Active,ABS Enabled,AID Allow Tire Blankets,AID Auto Blip,AID Auto Clutch,AID Auto Shift,AID Fuel Rate,AID Ideal Line,AID Mech Damage,AID Stability,AID Tire Wear Rate,Air Density,Air Temp,Ballast,Best Lap Delta,Best Lap Time,Brake Bias,Brake Pos,Brake Temp FL,Brake Temp FR,Brake Temp RL,Brake Temp RR,CG Accel Lateral,CG Accel Longitudinal,CG Accel Vertical,CG Height,Camber FL,Camber FR,Camber RL,Camber RR,Car Coord X,Car Coord Y,Car Coord Z,Car Damage Front,Car Damage Left,Car Damage Rear,Car Damage Right,Car Pos Norm,Caster FL,Caster FR,Chassis Pitch Angle,Chassis Pitch Rate,Chassis Roll Angle,Chassis Roll Rate,Chassis Velocity X,Chassis Velocity Y,Chassis Velocity Z,Chassis Yaw Rate,Clutch Pos,DRS Active,DRS Available,Drive Train Speed,ERS Heat Charging,ERS Is Charging,ERS Max Energy,ERS Power Level,ERS Recovery Level,Engine Brake Setting,Engine Limiter,Engine RPM,Flags,Fuel Level,Gear,Ground Speed,HR Sample Clock,In Pit,KERS Charge,KERS Deployed Energy,KERS Input,KERS Max Energy,LR Sample Clock,Lap Invalidated,Lap Time,Lap Time2,Last Lap Time,Last Sector Time,MR Sample Clock,Max Fuel,Max Power,Max RPM,Max Sus Travel FL,Max Sus Travel FR,Max Sus Travel RL,Max Sus Travel RR,Max Torque,Max Turbo Boost,Num Tires Off Track,Penalties Enabled,Position,Raw Data Sample Rate,Ride Height FL,Ride Height FR,Ride Height RL,Ride Height RR,Road Temp,Self Align Torque FL,Self Align Torque FR,Self Align Torque RL,Self Align Torque RR,Session Lap Count,Session Time Left,Steering Angle,Surface Grip,Suspension Travel FL,Suspension Travel FR,Suspension Travel RL,Suspension Travel RR,TC Active,TC Enabled,Throttle Pos,Tire Dirt Level FL,Tire Dirt Level FR,Tire Dirt Level RL,Tire Dirt Level RR,Tire Load FL,Tire Load FR,Tire Load RL,Tire Load RR,Tire Loaded Radius FL,Tire Loaded Radius FR,Tire Loaded Radius RL,Tire Loaded Radius RR,Tire Pressure FL,Tire Pressure FR,Tire Pressure RL,Tire Pressure RR,Tire Radius FL,Tire Radius FR,Tire Radius RL,Tire Radius RR,Tire Rubber Grip FL,Tire Rubber Grip FR,Tire Rubber Grip RL,Tire Rubber Grip RR,Tire Slip Angle FL,Tire Slip Angle FR,Tire Slip Angle RL,Tire Slip Angle RR,Tire Slip Ratio FL,Tire Slip Ratio FR,Tire Slip Ratio RL,Tire Slip Ratio RR,Tire Temp Core FL,Tire Temp Core FR,Tire Temp Core RL,Tire Temp Core RR,Tire Temp Inner FL,Tire Temp Inner FR,Tire Temp Inner RL,Tire Temp Inner RR,Tire Temp Middle FL,Tire Temp Middle FR,Tire Temp Middle RL,Tire Temp Middle RR,Tire Temp Outer FL,Tire Temp Outer FR,Tire Temp Outer RL,Tire Temp Outer RR,Toe In FL,Toe In FR,Toe In RL,Toe In RR,Turbo Boost,Wheel Angular Speed FL,Wheel Angular Speed FR,Wheel Angular Speed RL,Wheel Angular Speed RR,Wind Direction,Wind Speed
0,0.0,0.0,0.0,1.0,1.0,0.0,0.0,1.0,0.0,0.0,1.0,1.1856,26.0,0.0,0.0,0.0,59.99999,0.0,26.0,26.0,26.0,26.0,-0.15866666666666662,0.30310000000000015,0.0184,294.128,-2.6917999999999997,-2.5029,-1.4857,-1.5554000000000001,-275.63,216.16,190.9875,0.0,0.0,0.0,0.0,0.0016333333333333332,-5.498166666666667,-5.498166666666667,-0.5695,1.5,-0.035250000000000004,-0.45199999999999996,65.951,-0.07069999999999999,-0.23567500000000002,1.790000000000001,100.0,1.0,1.0,203.71333333333334,0.0,0.0,0.0,0.0,0.0,0.0,0.0,8634.7,0.0,17.0,5.0,237.39333333333332,0.0,0.0,0.0,0.0,0.0,0.0,0.0,0.0,0.0030000000000001137,0.0030000000000001137,0.0,0.0,0.0,55.0,616.79921,10000.0,85.0,85.0,85.0,85.0,395.0,0.0,0.0,0.0,1.0,20.0,52.17,52.17,50.247,50.247,34.0,-31.3425,20.605,-30.643333333333334,21.1175,0.0,1783.64,1.4600000000000009,100.0,27.512999999999998,26.709,40.462,39.938,0.0,0.0,100.0,0.0,0.0,0.0,0.0,3266.25,3551.6,4006.875,3784.7,304.797,303.5035,315.11,315.43225,21.75288888888889,20.4893,21.747,21.2938,314.99999,314.99999,324.99998,324.99998,99.55865714285714,99.50663333333333,99.56442857142856,99.54468571428572,-0.05699999999999994,-0.16966666666666663,-0.2001666666666666,0.02416666666666667,-0.03333333333333144,-0.04333333333332945,1.5939999999999999,1.6515,36.956,29.058,36.919,34.0865,56.128,34.067,58.7355,51.337,54.045,33.269,57.3785,49.721000000000004,53.21,32.8445,57.3485,49.164,0.03649999999999998,-0.18399999999999994,0.10370000000000001,0.11494000000000001,0.0,206.66,206.51999999999998,203.71333333333334,203.71333333333334,0.0,0.0
1,0.0,0.0,0.0,1.0,1.0,0.0,0.0,1.0,0.0,0.0,1.0,1.1856,26.0,0.0,0.0,0.0,59.999996,0.0,26.0,26.0,26.0,26.0,-0.17355555555555557,0.3215000000000001,0.1648666666666667,293.442,-2.6228,-2.8314,-1.4928,-1.5769000000000002,-272.26,216.175,190.967375,0.0,0.0,0.0,0.0,0.0035666666666666668,-5.498166666666667,-5.498166666666667,-0.4893,-0.3993333333333333,-0.09162500000000007,-1.0700000000000003,66.11,-0.10070000000000001,-0.19262500000000002,2.2220000000000013,100.0,1.0,1.0,203.76999999999998,0.0,0.0,0.0,0.0,0.0,0.0,0.0,8637.1,0.0,17.0,5.0,237.96333333333334,1.0,0.0,0.0,0.0,0.0,0.0,0.0,0.0,0.053999999999998494,0.053999999999998494,0.0,0.0,1.0,55.0,616.79921,10000.0,85.000001,85.000001,85.000001,85.000001,395.0,0.0,0.0,0.0,1.0,333.33500000000004,54.306,54.306,48.431,48.431,34.0,-28.59,14.675,-37.739999999999995,26.07,0.0,1783.588,1.4600000000000009,100.0,27.595,26.614,42.792,41.108000000000004,0.0,0.0,100.0,0.0,0.0,0.0,0.0,3025.5,2451.1,4410.125,4733.1,305.643,307.034,314.025,313.0465,21.762888888888888,20.4942,21.7578,21.3029,314.999998,314.999998,324.999988,324.999988,99.55867142857143,99.50666666666666,99.5646,99.54484285714285,-0.07450000000000001,-0.19966666666666666,-0.2363333333333334,-0.02066666666666661,-0.060000000000002274,-0.02499999999999858,1.3796666666666666,1.4625,37.018,29.089,36.986000000000004,34.143,56.114999999999995,34.1135,58.786500000000004,51.408,54.032,33.3115,57.426,49.789,53.197,32.8855,57.393,49.230666666666664,0.038999999999999924,-0.18300000000000005,0.10216000000000001,0.10694500000000001,0.0,207.175,206.96,203.76999999999998,203.76999999999998,0.0,0.0
2,0.0,0.0,0.0,1.0,1.0,0.0,0.0,1.0,0.0,0.0,1.0,1.1856,26.0,0.0,0.0,0.0,59.999996,0.0,26.0,26.0,26.0,26.0,-0.22244444444444444,0.2957000000000001,0.010633333333333333,294.312,-2.5667,-2.8277,-1.4455,-1.6411,-268.69,216.1875,190.9475,0.0,0.0,0.0,0.0,0.005666666666666667,-5.498166666666667,-5.498166666666667,-0.5524,-0.1093333333333334,-0.08924999999999983,2.172,66.261,-0.12929999999999997,-0.252475,2.5359999999999996,100.0,1.0,1.0,204.82333333333332,0.0,0.0,0.0,0.0,0.0,0.0,0.0,8681.8,0.0,17.0,5.0,238.51333333333332,0.0,0.0,0.0,0.0,0.0,0.0,0.0,0.0,0.10800000000000054,0.10800000000000054,0.0,0.0,0.0,55.0,616.79921,10000.0,85.000001,85.000001,85.000001,85.000001,395.0,0.0,0.0,0.0,1.0,166.665,52.979,52.979,50.919,50.919,34.0,-33.725,16.356666666666666,-30.933333333333334,16.6675,0.0,1783.536,1.3000000000000007,100.0,28.145,26.313,42.543,40.507,0.0,0.0,100.0,0.0,0.0,0.0,0.0,3430.125,2824.2,3682.25,3551.3,304.382,305.896,315.821,316.11025,21.773666666666667,20.4991,21.7689,21.312,314.999998,314.999998,324.999988,324.999988,99.55867142857143,99.50668333333333,99.56474285714286,99.54497142857143,-0.09850000000000003,-0.2226666666666668,-0.29166666666666663,-0.05599999999999994,-0.07666666666666799,-0.07499999999999574,1.6456666666666666,1.7545000000000002,37.086,29.119500000000002,37.056,34.2,56.107,34.153999999999996,58.826,51.4625,54.024,33.349000000000004,57.463,49.841499999999996,53.188,32.921,57.4275,49.282,0.02400000000000002,-0.1845000000000001,0.10547500000000001,0.11068000000000001,0.0,207.66,207.44,204.82333333333332,204.82333333333332,0.0,0.0
3,0.0,0.0,0.0,1.0,1.0,0.0,0.0,1.0,0.0,0.0,1.0,1.1856,26.0,0.0,0.0,0.0,59.999996,0.0,26.0,26.0,26.0,26.0,-0.23877777777777787,0.32200000000000006,0.07970000000000001,293.884,-2.6897,-2.7363,-1.4721,-1.6211,-265.5,216.1925,190.928625,0.0,0.0,0.0,0.0,0.007500000000000001,-5.498166666666667,-5.498166666666667,-0.5096,0.3603333333333334,-0.050124999999999975,-0.12300000000000022,66.40899999999999,-0.14989999999999992,-0.19985,2.042,100.0,1.0,1.0,204.88333333333333,0.0,0.0,0.0,0.0,0.0,0.0,0.0,8684.3,0.0,17.0,5.0,239.04000000000002,1.0,0.0,0.0,0.0,0.0,0.0,0.0,0.0,0.1559999999999988,0.1559999999999988,0.0,0.0,1.0,55.0,616.79921,10000.0,85.000001,85.000001,85.000001,85.000001,395.0,0.0,0.0,0.0,1.0,166.665,54.016,54.016,48.599000000000004,48.599000000000004,34.0,-28.549999999999997,15.588333333333331,-38.16333333333333,20.0875,0.0,1783.488,1.0850000000000009,100.0,27.858,26.313,42.474000000000004,40.63,0.0,0.0,100.0,0.0,0.0,0.0,0.0,2910.375,2786.6,4302.875,4179.4,305.9135,305.96275,314.293,314.4755,21.783,20.5038,21.7787,21.3203,314.999998,314.999998,324.999988,324.999988,99.5587,99.50671666666666,99.56488571428571,99.54511428571429,-0.09024999999999994,-0.21733333333333316,-0.28116666666666656,-0.0678333333333333,-0.03499999999999659,-0.07000000000000028,1.4786666666666668,1.5675,37.144,29.149,37.117000000000004,34.2515,56.095,34.197,58.8655,51.5225,54.013,33.3885,57.5,49.8985,53.176,32.959,57.462,49.338,0.0040000000000000036,-0.15300000000000002,0.10511500000000001,0.105645,0.0,208.12,207.95,204.88333333333333,204.88333333333333,0.0,0.0
4,0.0,0.0,0.0,1.0,1.0,0.0,0.0,1.0,0.0,0.0,1.0,1.1856,26.0,0.0,0.0,0.0,59.999996,0.0,26.0,26.0,26.0,26.0,-0.246,0.2963,-0.014733333333333334,294.144,-2.6183,-2.7964,-1.4835,-1.6338,-262.31,216.1925,190.91,0.0,0.0,0.0,0.0,0.009366666666666667,-5.498166666666667,-5.498166666666667,-0.5397000000000001,-0.937,-0.12062499999999998,-0.6699999999999999,66.549,-0.15049999999999997,-0.23747500000000002,1.8920000000000012,100.0,1.0,1.0,205.44,0.0,0.0,0.0,0.0,0.0,0.0,0.0,8707.8,0.0,17.0,5.0,239.54666666666668,0.0,0.0,0.0,0.0,0.0,0.0,0.0,0.0,0.20400000000000063,0.20400000000000063,0.0,0.0,0.0,55.0,616.79921,10000.0,85.000001,85.000001,85.000001,85.000001,395.0,0.0,0.0,0.0,1.0,166.665,53.711,53.711,49.179,49.179,34.0,-31.6875,16.94333333333333,-35.3,17.795,0.0,1783.44,1.0549999999999997,100.0,27.685,25.98,42.933,40.697,0.0,0.0,100.0,0.0,0.0,0.0,0.0,3228.75,2839.9,4099.375,3625.3,305.036,305.83275,314.72625,315.79375,21.79222222222222,20.5084,21.7887,21.3286,314.999998,314.999998,324.999988,324.999988,99.55871428571429,99.50673333333333,99.56502857142857,99.54522857142857,-0.09525000000000006,-0.20433333333333326,-0.2693333333333333,-0.04966666666666664,-0.041666666666671404,-0.03833333333332689,1.5550000000000002,1.623,37.201,29.177500000000002,37.18,34.3035,56.083,34.238,58.908,51.5785,54.001000000000005,33.4265,57.54,49.952,53.163,32.995,57.4995,49.39,0.01200000000000001,-0.15349999999999997,0.098625,0.10593500000000002,0.0,208.485,208.32,205.44,205.44,0.0,0.0
5,0.0,0.0,0.0,1.0,1.0,0.0,0.0,1.0,0.0,0.0,1.0,1.1856,26.0,0.0,0.0,0.0,59.999996,0.0,26.0,26.0,26.0,26.0,-0.2185555555555555,0.30100000000000016,-0.016066666666666667,294.266,-2.6351,-2.8162000000000003,-1.4671,-1.6157,-258.91,216.1875,190.889625,0.0,0.0,0.0,0.0,0.011333333333333334,-5.498166666666667,-5.498166666666667,-0.5357000000000001,0.3856666666666668,-0.12349999999999994,-0.06999999999999984,66.69800000000001,-0.1521,-0.215875,1.7799999999999994,100.0,1.0,1.0,205.88333333333333,0.0,0.0,0.0,0.0,0.0,0.0,0.0,8726.6,0.0,17.0,5.0,240.08333333333331,1.0,0.0,0.0,0.0,0.0,0.0,0.0,0.0,0.254999999999999,0.254999999999999,0.0,0.0,1.0,55.0,616.79921,10000.0,85.000001,85.000001,85.000001,85.000001,395.0,0.0,0.0,0.0,1.0,333.33500000000004,54.092,54.092,49.622,49.622,34.0,-31.395,15.936666666666667,-36.46,18.759999999999998,0.0,1783.389,0.4900000000000002,100.0,27.61,25.977,42.536,40.333,0.0,0.0,100.0,0.0,0.0,0.0,0.0,3231.5,2636.0,4167.625,3933.2,305.088,306.342,314.73125,315.067,21.802333333333333,20.5132,21.7992,21.3372,314.999998,314.999998,324.999988,324.999988,99.55871428571429,99.50676666666666,99.56517142857143,99.54538571428571,-0.08574999999999999,-0.20066666666666677,-0.28716666666666657,-0.0625,-0.041666666666671404,-0.03999999999999915,1.5363333333333333,1.6095000000000002,37.265,29.2075,37.245000000000005,34.3575,56.073,34.2805,58.9505,51.635,53.992000000000004,33.4655,57.579499999999996,50.0065,53.153,33.0325,57.536500000000004,49.443,-0.025000000000000022,-0.119,0.11017500000000001,0.11005000000000001,0.0,208.965,208.805,205.88333333333333,205.88333333333333,0.0,0.0
6,0.0,0.0,0.0,1.0,1.0,0.0,0.0,1.0,0.0,0.0,1.0,1.1856,26.0,0.0,0.0,0.0,59.999996,0.0,26.0,26.0,26.0,26.0,-0.19166666666666665,0.3013000000000001,-0.005,294.098,-2.6062,-2.8440000000000003,-1.512,-1.6099999999999999,-255.71,216.1775,190.87025,0.0,0.0,0.0,0.0,0.0132,-5.498166666666667,-5.498166666666667,-0.5276000000000001,0.13200000000000012,-0.10375000000000023,-0.5580000000000003,66.838,-0.1398999999999999,-0.211675,1.2940000000000005,100.0,1.0,1.0,206.28,0.0,0.0,0.0,0.0,0.0,0.0,0.0,8743.4,0.0,17.0,5.0,240.59,0.0,0.0,0.0,0.0,0.0,0.0,0.0,0.0,0.3030000000000008,0.3030000000000008,0.0,0.0,0.0,55.0,616.79921,10000.0,85.000001,85.000001,85.000001,85.000001,395.0,0.0,0.0,0.0,1.0,166.665,53.94,53.94,49.286,49.286,34.0,-29.947499999999998,17.553333333333335,-35.74666666666667,19.5325,0.0,1783.341,0.3100000000000005,100.0,27.409,26.066,42.586,40.665,0.0,0.0,100.0,0.0,0.0,0.0,0.0,3225.0,2723.9,4161.375,3934.1000000000004,305.08,305.9525,314.73875,315.044,21.811666666666667,20.5179,21.8091,21.3455,314.999998,314.999998,324.999988,324.999988,99.55872857142857,99.50678333333333,99.56531428571428,99.54551428571429,-0.05774999999999997,-0.18333333333333313,-0.2623333333333333,-0.04816666666666658,-0.04833333333333201,-0.06499999999999773,1.5503333333333333,1.5779999999999998,37.323,29.2365,37.307,34.4095,56.062,34.320499999999996,58.9905,51.693,53.980999999999995,33.5025,57.6175,50.062,53.141,33.067499999999995,57.5715,49.49733333333333,-0.04299999999999993,-0.09949999999999992,0.1039,0.11094500000000002,0.0,209.39499999999998,209.28,206.28,206.28,0.0,0.0
7,0.0,0.0,0.0,1.0,1.0,0.0,0.0,1.0,0.0,0.0,1.0,1.1856,26.0,0.0,0.0,0.0,59.999996,0.0,26.0,26.0,26.0,26.0,-0.13955555555555554,0.28910000000000013,0.05263333333333334,293.991,-2.5784,-2.8043,-1.4742,-1.6503999999999999,-252.3,216.16,190.84975,0.0,0.0,0.0,0.0,0.0152,-5.498166666666667,-5.498166666666667,-0.5325,0.023666666666666725,-0.08612500000000001,1.291,66.987,-0.11769999999999992,-0.223475,0.8499999999999996,100.0,1.0,1.0,206.7266666666667,0.0,0.0,0.0,0.0,0.0,0.0,0.0,8762.4,0.0,17.0,5.0,241.12333333333333,1.0,0.0,0.0,0.0,0.0,0.0,0.0,0.0,0.3539999999999992,0.3539999999999992,0.0,0.0,1.0,55.0,616.79921,10000.0,85.000001,85.000001,85.000001,85.000001,395.0,0.0,0.0,0.0,1.0,166.665,53.65,53.65,49.545,49.545,34.0,-27.884999999999998,20.366666666666667,-32.276666666666664,22.7375,0.0,1783.29,0.025000000000000355,100.0,27.634,25.951999999999998,42.652,40.791,0.0,0.0,100.0,0.0,0.0,0.0,0.0,3174.25,2896.7,3998.5,3989.3,304.9955,305.57675,315.02075,314.9295,21.821666666666665,20.5228,21.8196,21.3544,314.999998,314.999998,324.999988,324.999988,99.55872857142857,99.5068,99.56545714285714,99.54565714285714,-0.01924999999999999,-0.133,-0.2303333333333334,-0.0024999999999999467,-0.04833333333333201,-0.04999999999999716,1.5486666666666666,1.5745,37.385999999999996,29.2675,37.373000000000005,34.465,56.048,34.362,59.0325,51.7545,53.968,33.54,57.6565,50.1205,53.128,33.1035,57.608000000000004,49.55433333333333,-0.06899999999999995,-0.0685,0.10781,0.10844000000000001,0.0,209.82,209.74,206.7266666666667,206.7266666666667,0.0,0.0
8,0.0,0.0,0.0,1.0,1.0,0.0,0.0,1.0,0.0,0.0,1.0,1.1856,26.0,0.0,0.0,0.0,59.999996,0.0,26.0,26.0,26.0,26.0,-0.09888888888888892,0.28790000000000004,-0.03676666666666667,294.189,-2.6747,-2.7636000000000003,-1.4652,-1.5951,-248.88,216.14249999999998,190.828875,0.0,0.0,0.0,0.0,0.017166666666666667,-5.498166666666667,-5.498166666666667,-0.5352,-0.5246666666666666,-0.06437500000000007,-0.4590000000000001,67.136,-0.09319999999999995,-0.21575,0.36599999999999966,100.0,1.0,1.0,207.12666666666667,0.0,0.0,0.0,0.0,0.0,0.0,0.0,8779.3,0.0,17.0,5.0,241.65666666666667,0.0,0.0,0.0,0.0,0.0,0.0,0.0,0.0,0.40500000000000114,0.40500000000000114,0.0,0.0,0.0,55.0,616.79921,10000.0,85.000001,85.000001,85.000001,85.000001,395.0,0.0,0.0,0.0,1.0,166.665,54.382,54.382,48.903999999999996,48.903999999999996,34.0,-26.197499999999998,19.93,-32.43333333333334,23.825000000000003,0.0,1783.24,-0.19500000000000028,100.0,27.016,26.112000000000002,42.495000000000005,41.078,0.0,0.0,100.0,0.0,0.0,0.0,0.0,3017.375,2812.8,4113.5,4017.6000000000004,305.7945,305.765,314.7845,314.769,21.831444444444443,20.5278,21.8301,21.3633,314.999998,314.999998,324.999988,324.999988,99.55872857142857,99.5068,99.5656,99.54578571428571,-0.007249999999999979,-0.11999999999999988,-0.21183333333333332,0.024666666666666837,-0.04833333333333201,-0.054999999999999716,1.5216666666666665,1.537,37.446,29.2985,37.438,34.5205,56.031,34.400999999999996,59.073499999999996,51.815,53.951,33.576499999999996,57.695,50.1785,53.111000000000004,33.138,57.6435,49.611000000000004,-0.08799999999999997,-0.05249999999999999,0.10935,0.10837000000000001,0.0,210.26,210.23000000000002,207.12666666666667,207.12666666666667,0.0,0.0
9,0.0,0.0,0.0,1.0,1.0,0.0,0.0,1.0,0.0,0.0,1.0,1.1856,26.0,0.0,0.0,0.0,59.999996,0.0,26.0,26.0,26.0,26.0,-0.06711111111111112,0.30310000000000015,-0.016566666666666667,293.869,-2.6053,-2.7629,-1.5248,-1.5729000000000002,-245.65,216.12,190.809,0.0,0.0,0.0,0.0,0.019066666666666666,-5.498166666666667,-5.498166666666667,-0.5381,0.6856666666666669,-0.06174999999999997,-0.266,67.272,-0.0676,-0.21432500000000002,0.17999999999999972,100.0,1.0,1.0,207.65666666666667,0.0,0.0,0.0,0.0,0.0,0.0,0.0,8801.8,0.0,17.0,5.0,242.14666666666668,1.0,0.0,0.0,0.0,0.0,0.0,0.0,0.0,0.4529999999999994,0.4529999999999994,0.0,0.0,1.0,55.0,616.79921,10000.0,85.000001,85.000001,85.000001,85.000001,395.0,0.0,0.0,0.0,1.0,333.33500000000004,53.238,53.238,49.835,49.835,34.0,-27.3825,21.865000000000002,-30.893333333333334,24.384999999999998,0.0,1783.19,-0.40499999999999936,100.0,27.462,26.519,42.073,41.087,0.0,0.0,100.0,0.0,0.0,0.0,0.0,3333.25,2891.1,4023.375,3998.1000000000004,304.7185,305.45125,315.1235,314.92525,21.840777777777777,20.5327,21.8398,21.3716,314.999998,314.999998,324.999988,324.999988,99.55874285714286,99.50681666666667,99.56572857142856,99.54592857142858,0.027750000000000163,-0.08899999999999997,-0.1901666666666666,0.05016666666666669,-0.046666666666666856,-0.06499999999999773,1.5766666666666667,1.584,37.504999999999995,29.3295,37.498999999999995,34.5725,56.016999999999996,34.439499999999995,59.109,51.871,53.938,33.6115,57.728,50.232,53.097,33.172,57.674,49.663333333333334,-0.09799999999999998,-0.03600000000000003,0.11419000000000001,0.109365,0.0,210.68,210.675,207.65666666666667,207.65666666666667,0.0,0.0
10,0.0,0.0,0.0,1.0,1.0,0.0,0.0,1.0,0.0,0.0,1.0,1.1856,26.0,0.0,0.0,0.0,59.999996,0.0,26.0,26.0,26.0,26.0,-0.03066666666666662,0.3006,0.0531,293.793,-2.6818,-2.7413,-1.5101,-1.5462,-242.22,216.0975,190.788125,0.0,0.0,0.0,0.0,0.021033333333333334,-5.498166666666667,-5.498166666666667,-0.5189,-0.6733333333333333,-0.012125000000000163,1.825,67.42099999999999,-0.03969999999999996,-0.20750000000000002,-0.3099999999999996,100.0,1.0,1.0,207.90666666666667,0.0,0.0,0.0,0.0,0.0,0.0,0.0,8812.3,0.0,17.0,5.0,242.68666666666667,0.0,0.0,0.0,0.0,0.0,0.0,1.0,0.0,0.5040000000000013,0.5040000000000013,0.0,0.0,0.0,55.0,616.79921,10000.0,85.000001,85.000001,85.000001,85.000001,395.0,0.0,0.0,0.0,1.0,333.33500000000004,54.321,54.321,48.400999999999996,48.400999999999996,34.0,-21.7175,22.259999999999998,-30.296666666666663,28.1675,0.0,1783.14,-0.5199999999999996,100.0,27.3,26.36,42.593,41.778,0.0,0.0,100.0,0.0,0.0,0.0,0.0,2808.5,2884.9,4169.5,4258.2,306.251,305.7175,314.58475,314.29475,21.850444444444445,20.5378,21.8504,21.3807,314.999998,314.999998,324.999988,324.999988,99.55874285714286,99.50683333333333,99.56588571428571,99.54607142857142,0.06400000000000006,-0.06533333333333324,-0.14316666666666666,0.08499999999999996,-0.041666666666671404,-0.07166666666666544,1.4993333333333334,1.4955,37.565,29.361,37.565,34.6295,56.001999999999995,34.477000000000004,59.1515,51.935,53.924,33.6465,57.7675,50.2935,53.082,33.205,57.710499999999996,49.72366666666667,-0.11499999999999999,-0.031500000000000083,0.11077000000000001,0.11388500000000001,0.0,211.125,211.135,207.90666666666667,207.90666666666667,0.0,0.0
11,0.0,0.0,0.0,1.0,1.0,0.0,0.0,1.0,0.0,0.0,1.0,1.1856,26.0,0.0,0.0,0.0,59.999996,0.0,26.0,26.0,26.0,26.0,0.019888888888888845,0.28280000000000016,-0.10463333333333333,294.22,-2.7012,-2.7129000000000003,-1.566,-1.5311,-238.76999999999998,216.0725,190.767125,0.0,0.0,0.0,0.0,0.022600000000000002,-5.498166666666667,-5.498166666666667,-0.5596,-0.05999999999999994,0.01200000000000001,-0.6989999999999998,67.562,-0.014399999999999968,-0.2328,-0.4239999999999995,100.0,1.0,1.0,208.64666666666668,0.0,0.0,0.0,0.0,0.0,0.0,0.0,8843.8,0.0,17.0,5.0,243.19666666666666,1.0,0.0,0.0,0.0,0.0,0.0,1.0,0.0,0.5549999999999997,0.5549999999999997,0.0,0.0,1.0,55.0,616.79921,10000.0,85.000001,85.000001,85.000001,85.000001,395.0,0.0,0.0,0.0,1.0,166.665,53.635,53.635,49.927,49.927,34.0,-23.515,24.08,-25.193333333333335,24.9525,0.0,1783.09,-0.7300000000000004,100.0,26.989,26.857,41.876,41.791,0.0,0.0,100.0,0.0,0.0,0.0,0.0,3072.75,2997.4,3733.5,3818.3,305.602,305.1285,315.83675,315.364,21.86,20.543,21.860599999999998,21.3896,314.999998,314.999998,324.999988,324.999988,99.55875714285715,99.50683333333333,99.56602857142857,99.54621428571429,0.07850000000000001,-0.046333333333333115,-0.11849999999999994,0.10616666666666674,-0.05333333333332746,-0.04833333333333201,1.6576666666666666,1.6444999999999999,37.625,29.394,37.629000000000005,34.685,55.986000000000004,34.5155,59.186,51.9945,53.909,33.682,57.8,50.3505,53.066,33.239,57.74,49.779666666666664,-0.12049999999999994,-0.02499999999999991,0.10473500000000001,0.10955500000000001,0.0,211.555,211.56,208.64666666666668,208.64666666666668,0.0,0.0
12,0.0,0.0,0.0,1.0,1.0,0.0,0.0,1.0,0.0,0.0,1.0,1.1856,26.0,0.0,0.0,0.0,59.999996,0.0,26.0,26.0,26.0,26.0,0.022666666666666613,0.2933000000000001,0.0393,293.61,-2.7544,-2.7021,-1.5365,-1.5304,-235.53,216.05,190.74625,0.0,0.0,0.0,0.0,0.025466666666666665,-5.498166666666667,-5.498166666666667,-0.5439,0.28400000000000003,0.0029999999999998916,-0.7640000000000002,67.702,0.005700000000000038,-0.20700000000000002,-0.5039999999999996,100.0,1.0,1.0,208.83666666666667,0.0,0.0,0.0,0.0,0.0,0.0,0.0,8851.8,0.0,17.0,5.0,243.69666666666666,0.0,0.0,0.0,0.0,0.0,0.0,1.0,0.0,0.602999999999998,0.602999999999998,0.0,0.0,0.0,55.0,616.79921,10000.0,85.000001,85.000001,85.000001,85.000001,395.0,0.0,0.0,0.0,1.0,333.33500000000004,53.497,53.497,48.584,48.584,34.0,-24.5875,24.361666666666665,-28.54,28.835,0.0,1783.039,-0.3550000000000004,100.0,26.845,27.045,41.816,41.843,0.0,0.0,100.0,0.0,0.0,0.0,0.0,3117.875,3035.2,4210.625,4134.0,305.486,305.0275,314.6435,314.55175,21.869,20.5481,21.8704,21.398,314.999998,314.999998,324.999988,324.999988,99.55875714285715,99.50685,99.56615714285714,99.54634285714286,0.07374999999999998,-0.045333333333333226,-0.10150000000000003,0.1206666666666667,-0.036666666666668846,-0.054999999999999716,1.5183333333333335,1.5075,37.681,29.4255,37.69,34.7375,55.973,34.5515,59.223,52.052,53.896,33.715,57.8345,50.406,53.052,33.271,57.7715,49.834,-0.10150000000000003,-0.040999999999999925,0.10423,0.10610000000000001,0.0,211.98000000000002,212.01999999999998,208.83666666666667,208.83666666666667,0.0,0.0
13,0.0,0.0,0.0,1.0,1.0,0.0,0.0,1.0,0.0,0.0,1.0,1.1856,26.0,0.0,0.0,0.0,59.999996,0.0,26.0,26.0,26.0,26.0,0.06166666666666676,0.28480000000000016,0.03466666666666667,293.335,-2.7,-2.6963,-1.5739,-1.5372,-231.87,216.0275,190.723125,0.0,0.0,0.0,0.0,0.02706666666666667,-5.498166666666667,-5.498166666666667,-0.5382,-0.16133333333333333,0.009874999999999856,-0.40900000000000025,67.855,0.021400000000000086,-0.21825,-0.7539999999999996,100.0,1.0,1.0,209.26999999999998,0.0,0.0,0.0,0.0,0.0,0.0,0.0,8870.3,0.0,17.0,5.0,244.25,1.0,0.0,0.0,0.0,0.0,0.0,1.0,0.0,0.657,0.657,0.0,0.0,1.0,55.0,616.79921,10000.0,85.000001,85.000001,85.000001,85.000001,395.0,0.0,0.0,0.0,1.0,166.665,53.299,53.299,48.66,48.66,34.0,-22.037499999999998,25.803333333333335,-27.386666666666663,30.3425,0.0,1782.988,-0.7899999999999991,100.0,27.153,27.247,42.044,42.446,0.0,0.0,100.0,0.0,0.0,0.0,0.0,3090.125,3009.8,4137.5,4192.8,305.5235,305.0945,314.80225,314.34475,21.87911111111111,20.5537,21.8815,21.4077,314.999998,314.999998,324.999988,324.999988,99.55878571428572,99.50685,99.56631428571428,99.5465,0.11724999999999985,-0.0023333333333332984,-0.08150000000000002,0.13616666666666677,-0.07166666666666544,-0.036666666666668846,1.5346666666666666,1.5035,37.744,29.461,37.76,34.798,55.96,34.591499999999996,59.263999999999996,52.12,53.884,33.751999999999995,57.8725,50.471000000000004,53.039,33.3065,57.8065,49.897666666666666,-0.14100000000000001,-0.0040000000000000036,0.101675,0.10273,0.0,212.465,212.485,209.26999999999998,209.26999999999998,0.0,0.0
14,0.0,0.0,0.0,1.0,1.0,0.0,0.0,1.0,0.0,0.0,1.0,1.1856,26.0,0.0,0.0,0.0,59.999996,0.0,26.0,26.0,26.0,26.0,0.08288888888888901,0.2876000000000001,-0.0143,293.61,-2.7347,-2.6913,-1.5863,-1.5124,-228.4,216.005,190.70175,0.0,0.0,0.0,0.0,0.02906666666666667,-5.498166666666667,-5.498166666666667,-0.5483,-0.07333333333333336,0.046875,1.142,67.997,0.04049999999999998,-0.226775,-1.0520000000000005,100.0,1.0,1.0,209.8,0.0,0.0,0.0,0.0,0.0,0.0,0.0,8892.6,0.0,17.0,5.0,244.76,0.0,0.0,0.0,0.0,0.0,0.0,1.0,0.0,0.7079999999999984,0.7079999999999984,0.0,0.0,0.0,55.0,616.79921,10000.0,85.000001,85.000001,85.000001,85.000001,395.0,0.0,0.0,0.0,1.0,166.665,53.421,53.421,48.935,48.935,34.0,-20.145,27.955,-24.25,30.8275,0.0,1782.937,-0.8849999999999998,100.0,27.097,27.224,41.963,42.47,0.0,0.0,100.0,0.0,0.0,0.0,0.0,2939.375,3156.6,3902.375,4138.6,305.9405,304.75125,315.326,314.579,21.888555555555556,20.5591,21.8919,21.4167,314.999998,314.999998,324.999988,324.999988,99.55878571428572,99.50685,99.56645714285715,99.54664285714286,0.14124999999999988,0.019000000000000128,-0.054333333333333345,0.16733333333333333,-0.045000000000001705,-0.05333333333332746,1.574,1.537,37.804,29.494500000000002,37.824,34.8545,55.948,34.6295,59.301,52.1825,53.872,33.787,57.9065,50.531,53.027,33.34,57.8375,49.95666666666666,-0.14249999999999996,-0.0040000000000000036,0.10293000000000001,0.10591500000000001,0.0,212.885,212.93,209.8,209.8,0.0,0.0
15,0.0,0.0,0.0,1.0,1.0,0.0,0.0,1.0,0.0,0.0,1.0,1.1856,26.0,0.0,0.0,0.0,59.999996,0.0,26.0,26.0,26.0,26.0,0.12277777777777787,0.29200000000000004,-0.05896666666666667,293.579,-2.7521,-2.6446,-1.6137000000000001,-1.5095,-225.34,215.9875,190.6825,0.0,0.0,0.0,0.0,0.03086666666666667,-5.498166666666667,-5.498166666666667,-0.5382,0.19333333333333336,0.07487500000000002,-0.6499999999999999,68.123,0.05500000000000016,-0.2087,-1.0860000000000003,100.0,1.0,1.0,210.14333333333332,0.0,0.0,0.0,0.0,0.0,0.0,0.0,8907.2,0.0,17.0,5.0,245.21333333333334,1.0,0.0,0.0,0.0,0.0,0.0,1.0,0.0,0.7530000000000001,0.7530000000000001,0.0,0.0,1.0,55.0,616.79921,10000.0,85.000001,85.000001,85.000001,85.000001,395.0,0.0,0.0,0.0,1.0,333.33500000000004,53.65,53.65,48.843,48.843,34.0,-19.0,26.91,-24.116666666666667,32.792500000000004,0.0,1782.889,-0.9350000000000005,100.0,26.954,27.448,41.639,42.722,0.0,0.0,100.0,0.0,0.0,0.0,0.0,2826.875,3045.9,3942.375,4290.3,306.331,304.91075,315.289,314.11425,21.897,20.5639,21.9009,21.4247,314.999998,314.999998,324.999988,324.999988,99.55881428571429,99.50685,99.56658571428571,99.54677142857143,0.14975000000000005,0.02499999999999991,-0.03816666666666657,0.17500000000000004,-0.04833333333333201,-0.03999999999999915,1.5566666666666666,1.5215,37.855999999999995,29.5245,37.881,34.9045,55.938,34.6635,59.332,52.2385,53.863,33.8185,57.9355,50.585499999999996,53.016,33.3705,57.864,50.01,-0.14349999999999996,-0.0015000000000000568,0.1005,0.10854000000000001,0.0,213.285,213.335,210.14333333333332,210.14333333333332,0.0,0.0
16,0.0,0.0,0.0,1.0,1.0,0.0,0.0,1.0,0.0,0.0,1.0,1.1856,26.0,0.0,0.0,0.0,59.999996,0.0,26.0,26.0,26.0,26.0,0.10044444444444434,0.27080000000000015,-0.009533333333333333,293.503,-2.805,-2.5986000000000002,-1.5829,-1.5167000000000002,-221.86,215.97,190.66025,0.0,0.0,0.0,0.0,0.03286666666666667,-5.498166666666667,-5.498166666666667,-0.5629000000000001,-0.5903333333333334,0.06000000000000005,0.018999999999999906,68.265,0.06920000000000015,-0.228,-1.0360000000000005,100.0,1.0,1.0,210.62333333333333,0.0,0.0,0.0,0.0,0.0,0.0,0.0,8927.6,0.0,17.0,5.0,245.72666666666666,0.0,0.0,0.0,0.0,0.0,0.0,1.0,0.0,0.8039999999999985,0.8039999999999985,0.0,0.0,0.0,55.0,616.79921,10000.0,85.000001,85.000001,85.000001,85.000001,395.0,0.0,0.0,0.0,1.0,166.665,53.207,53.207,48.782,48.782,34.0,-21.4725,28.238333333333333,-22.236666666666665,32.542500000000004,0.0,1782.84,-0.4949999999999992,100.0,26.815,27.394,41.951,42.726,0.0,0.0,100.0,0.0,0.0,0.0,0.0,2998.5,3289.9,3849.5,4077.7,305.803,304.459,315.433,314.7305,21.906222222222222,20.5694,21.9113,21.433799999999998,314.999998,314.999998,324.999988,324.999988,99.55882857142858,99.50686666666667,99.56672857142857,99.54691428571428,0.1352500000000001,0.016999999999999904,-0.021499999999999964,0.21199999999999997,-0.03833333333332689,-0.05333333333332746,1.5816666666666666,1.5394999999999999,37.914,29.558999999999997,37.946,34.9615,55.924,34.703,59.3705,52.3005,53.849000000000004,33.855000000000004,57.971000000000004,50.644999999999996,53.001000000000005,33.4055,57.8965,50.068666666666665,-0.11149999999999993,-0.033500000000000085,0.10441,0.11339500000000001,0.0,213.67000000000002,213.76,210.62333333333333,210.62333333333333,0.0,0.0
17,0.0,0.0,0.0,1.0,1.0,0.0,0.0,1.0,0.0,0.0,1.0,1.1856,26.0,0.0,0.0,0.0,59.999996,0.0,26.0,26.0,26.0,26.0,0.07333333333333325,0.2932000000000001,0.04343333333333333,293.091,-2.7609,-2.5861,-1.6174,-1.4839,-218.38,215.95499999999998,190.6375,0.0,0.0,0.0,0.0,0.0349,-5.498166666666667,-5.498166666666667,-0.5462,0.399,0.03212499999999996,-0.883,68.407,0.06820000000000004,-0.205425,-0.5259999999999998,100.0,1.0,1.0,210.94333333333333,0.0,0.0,0.0,0.0,0.0,0.0,0.0,8941.1,0.0,17.0,5.0,246.23666666666668,1.0,0.0,0.0,0.0,0.0,0.0,1.0,0.0,0.8550000000000004,0.8550000000000004,0.0,0.0,1.0,55.0,616.79921,10000.0,85.000001,85.000001,85.000001,85.000001,395.0,0.0,0.0,0.0,1.0,333.33500000000004,53.177,53.177,48.278999999999996,48.278999999999996,34.0,-22.48,24.9,-27.786666666666665,31.885,0.0,1782.787,-0.17999999999999972,100.0,27.144,27.651,41.729,42.735,0.0,0.0,100.0,0.0,0.0,0.0,0.0,3102.875,3020.4,4362.75,4263.8,305.565,305.10675,314.356,314.29525,21.915777777777777,20.575,21.921599999999998,21.4429,314.999998,314.999998,324.999988,324.999988,99.55884285714286,99.50686666666667,99.56688571428572,99.54708571428571,0.121,-0.0033333333333331883,-0.04599999999999993,0.17033333333333323,-0.041666666666671404,-0.05333333333332746,1.5296666666666665,1.5025,37.973,29.5935,38.01,35.018,55.912,34.7445,59.4095,52.367,53.838,33.8935,58.007999999999996,50.709,52.989000000000004,33.442499999999995,57.9295,50.13133333333333,-0.09150000000000003,-0.05600000000000005,0.10898000000000001,0.10094500000000001,0.0,214.175,214.20499999999998,210.94333333333333,210.94333333333333,0.0,0.0
18,0.0,0.0,0.0,1.0,1.0,0.0,0.0,1.0,0.0,0.0,1.0,1.1856,26.0,0.0,0.0,0.0,59.999996,0.0,26.0,26.0,26.0,26.0,0.03688888888888897,0.28770000000000007,0.0117,292.984,-2.782,-2.5682,-1.6245,-1.4379,-214.88,215.9425,190.615,0.0,0.0,0.0,0.0,0.03693333333333333,-5.498166666666667,-5.498166666666667,-0.5621,-0.33566666666666667,0.04600000000000004,0.635,68.548,0.055600000000000094,-0.2283,-0.29000000000000004,100.0,1.0,1.0,211.41666666666669,0.0,0.0,0.0,0.0,0.0,0.0,0.0,8961.1,0.0,17.0,5.0,246.74333333333334,0.0,0.0,0.0,0.0,0.0,0.0,1.0,0.0,0.9059999999999988,0.9059999999999988,0.0,0.0,0.0,55.0,616.79921,10000.0,85.000001,85.000001,85.000001,85.000001,395.0,0.0,0.0,0.0,1.0,166.665,52.734,52.734,48.263999999999996,48.263999999999996,34.0,-23.224999999999998,27.431666666666665,-26.136666666666663,30.1825,0.0,1782.739,-0.0649999999999995,100.0,27.207,27.521,42.228,42.922,0.0,0.0,100.0,0.0,0.0,0.0,0.0,3080.25,3352.5,4051.25,4192.8,305.48,304.25925,314.9885,314.5155,21.92522222222222,20.5805,21.9321,21.451999999999998,314.999998,314.999998,324.999988,324.999988,99.55885714285715,99.50686666666667,99.56701428571428,99.54721428571429,0.1080000000000001,-0.008999999999999897,-0.057499999999999996,0.16599999999999993,-0.023333333333326323,-0.03499999999999659,1.5556666666666668,1.5325,38.032,29.628,38.075,35.0755,55.9,34.78,59.445499999999996,52.4265,53.826,33.9265,58.041,50.7665,52.976,33.4745,57.9595,50.187666666666665,-0.07550000000000001,-0.0685,0.10899,0.10236500000000001,0.0,214.57999999999998,214.575,211.41666666666669,211.41666666666669,0.0,0.0
19,0.0,0.0,0.0,1.0,1.0,0.0,0.0,1.0,0.0,0.0,1.0,1.1856,26.0,0.0,0.0,0.0,59.999996,0.0,26.0,26.0,26.0,26.0,0.03577777777777791,0.2965,0.0651,292.679,-2.687,-2.6843,-1.5448,-1.4383,-211.59,215.9325,190.5935,0.0,0.0,0.0,0.0,0.03886666666666667,-5.498166666666667,-5.498166666666667,-0.5448000000000001,0.7446666666666668,0.038999999999999924,0.492,68.679,0.03820000000000001,-0.208925,-0.0039999999999995595,100.0,1.0,1.0,211.76666666666665,0.0,0.0,0.0,0.0,0.0,0.0,0.0,8976.1,0.0,17.0,5.0,247.21666666666667,1.0,0.0,0.0,0.0,0.0,0.0,1.0,0.0,0.9540000000000006,0.9540000000000006,0.0,0.0,1.0,55.0,616.79921,10000.0,85.000001,85.000001,85.000001,85.000001,395.0,0.0,0.0,0.0,1.0,166.665,52.704,52.704,48.08,48.08,34.0,-21.8375,25.638333333333335,-26.689999999999998,32.405,0.0,1782.69,0.04499999999999993,100.0,27.799,27.815,42.202,42.865,0.0,0.0,100.0,0.0,0.0,0.0,0.0,2969.375,3129.9,4184.375,4472.8,305.671,304.756,314.61625,313.882,21.93422222222222,20.5857,21.9418,21.4606,314.999998,314.999998,324.999988,324.999988,99.55887142857142,99.50686666666667,99.56715714285714,99.54735714285714,0.10175000000000001,-0.032333333333333325,-0.0645,0.1601666666666668,-0.03166666666666629,-0.054999999999999716,1.5066666666666668,1.501,38.089,29.6605,38.135999999999996,35.129,55.888,34.818,59.479,52.485,53.815,33.962,58.072,50.823,52.964,33.507999999999996,57.988,50.24333333333333,-0.07350000000000001,-0.08050000000000002,0.101885,0.11053500000000001,0.0,215.04000000000002,215.055,211.76666666666665,211.76666666666665,0.0,0.0
20,0.0,0.0,0.0,1.0,1.0,0.0,0.0,1.0,0.0,0.0,1.0,1.1856,26.0,0.0,0.0,0.0,59.999996,0.0,26.0,26.0,26.0,26.0,0.027888888888888852,0.2721,-0.041100000000000005,293.106,-2.7707,-2.6542,-1.5367000000000002,-1.5743,-208.07999999999998,215.9225,190.571,0.0,0.0,0.0,0.0,0.0409,-5.498166666666667,-5.498166666666667,-0.5605,-1.1523333333333334,0.01749999999999985,-1.3290000000000002,68.819,0.01859999999999995,-0.229225,0.2240000000000002,100.0,1.0,1.0,212.2,0.0,0.0,0.0,0.0,0.0,0.0,0.0,8994.4,0.0,17.0,5.0,247.72333333333336,0.0,0.0,0.0,0.0,0.0,0.0,0.0,0.0,1.004999999999999,1.004999999999999,0.0,0.0,0.0,55.0,616.79921,10000.0,85.000001,85.000001,85.000001,85.000001,395.0,0.0,0.0,0.0,1.0,333.33500000000004,53.375,53.375,47.958,47.958,34.0,-24.085,23.53333333333333,-27.723333333333333,28.9125,0.0,1782.638,0.13000000000000078,100.0,27.137999999999998,27.524,42.835,43.244,0.0,0.0,100.0,0.0,0.0,0.0,0.0,3054.375,2994.8,4083.25,4028.5,305.7695,305.17525,314.89875,314.746,21.943555555555555,20.5911,21.9523,21.4698,314.999998,314.999998,324.999988,324.999988,99.55888571428571,99.50688333333333,99.5673,99.54751428571429,0.07350000000000012,-0.046666666666666634,-0.10250000000000004,0.12616666666666676,-0.03833333333332689,-0.041666666666671404,1.5063333333333333,1.5194999999999999,38.147,29.694499999999998,38.202,35.1865,55.872,34.856,59.5195,52.5475,53.799,33.997,58.11,50.882999999999996,52.948,33.5415,58.0225,50.30233333333334,-0.07050000000000001,-0.07650000000000001,0.10559,0.11198500000000002,0.0,215.425,215.4,212.2,212.2,0.0,0.0
21,0.0,0.0,0.0,1.0,1.0,0.0,0.0,1.0,0.0,0.0,1.0,1.1856,26.0,0.0,0.0,0.0,59.999996,0.0,26.0,26.0,26.0,26.0,0.001000000000000112,0.2792000000000001,-0.041,293.198,-2.719,-2.6738,-1.5924,-1.5417,-204.78,215.9125,190.548875,0.0,0.0,0.0,0.0,0.042800000000000005,-5.498166666666667,-5.498166666666667,-0.5723,0.577,-0.009250000000000203,-1.021,68.947,0.0009000000000001229,-0.215875,0.31400000000000006,100.0,1.0,1.0,212.74666666666667,0.0,0.0,0.0,0.0,0.0,0.0,0.0,9017.5,0.0,17.0,5.0,248.18,1.0,0.0,0.0,0.0,0.0,0.0,0.0,0.0,1.0530000000000008,1.0530000000000008,0.0,0.0,1.0,55.0,616.79921,10000.0,85.000001,85.000001,85.000001,85.000001,395.0,0.0,0.0,0.0,1.0,333.33500000000004,53.009,53.009,48.599000000000004,48.599000000000004,34.0,-25.134999999999998,23.21333333333333,-28.763333333333335,26.7825,0.0,1782.589,0.0649999999999995,100.0,27.562,27.595,42.383,42.652,0.0,0.0,100.0,0.0,0.0,0.0,0.0,3162.875,3005.2,4113.5,3978.9,305.3795,305.166,314.96275,315.024,21.952555555555556,20.5963,21.962,21.4782,314.999998,314.999998,324.999988,324.999988,99.55888571428571,99.50688333333333,99.56744285714285,99.54764285714286,0.0637500000000002,-0.06033333333333313,-0.11316666666666664,0.1096666666666668,-0.04333333333332945,-0.046666666666666856,1.5863333333333334,1.5825,38.203,29.7265,38.262,35.2385,55.858999999999995,34.8935,59.5515,52.602000000000004,53.787,34.0315,58.1395,50.935,52.935,33.575,58.0495,50.35333333333333,-0.07099999999999995,-0.08000000000000007,0.10284000000000001,0.10644,0.0,215.88,215.84,212.74666666666667,212.74666666666667,0.0,0.0
22,0.0,0.0,0.0,1.0,1.0,0.0,0.0,1.0,0.0,0.0,1.0,1.1856,26.0,0.0,0.0,0.0,59.999996,0.0,26.0,26.0,26.0,26.0,-0.019888888888888845,0.27680000000000016,0.004666666666666667,292.892,-2.7701,-2.6465,-1.5885,-1.5325,-201.26,215.9025,190.525,0.0,0.0,0.0,0.0,0.04486666666666667,-5.498166666666667,-5.498166666666667,-0.5557,-0.19899999999999995,-0.00024999999999986144,0.8919999999999999,69.088,-0.014100000000000001,-0.20450000000000002,0.28200000000000003,100.0,1.0,1.0,212.98666666666668,0.0,0.0,0.0,0.0,0.0,0.0,0.0,9027.7,0.0,17.0,5.0,248.69,0.0,0.0,0.0,0.0,0.0,0.0,0.0,0.0,1.1039999999999992,1.1039999999999992,0.0,0.0,0.0,55.0,616.79921,10000.0,85.000001,85.000001,85.000001,85.000001,395.0,0.0,0.0,0.0,1.0,166.665,53.375,53.375,47.699,47.699,34.0,-23.365,22.990000000000002,-30.5,29.03,0.0,1782.541,-0.04499999999999993,100.0,27.708,27.387,42.966,42.831,0.0,0.0,100.0,0.0,0.0,0.0,0.0,2928.125,3041.7,4197.25,4304.8,306.0115,305.31025,314.6225,314.22625,21.962,20.6017,21.9725,21.4874,314.999998,314.999998,324.999988,324.999988,99.5589,99.50688333333333,99.56758571428571,99.5478,0.06674999999999986,-0.06099999999999994,-0.12183333333333335,0.09816666666666674,-0.046666666666666856,-0.04833333333333201,1.4916666666666667,1.5105,38.263,29.7605,38.328,35.296,55.844,34.9335,59.592,52.664500000000004,53.772999999999996,34.0685,58.1775,50.9955,52.92,33.61,58.0845,50.412333333333336,-0.07850000000000001,-0.07550000000000012,0.10487,0.11003500000000001,0.0,216.31,216.275,212.98666666666668,212.98666666666668,0.0,0.0
23,0.0,0.0,0.0,1.0,1.0,0.0,0.0,1.0,0.0,0.0,1.0,1.1856,26.0,0.0,0.0,0.0,59.999996,0.0,26.0,26.0,26.0,26.0,-0.036666666666666625,0.26970000000000005,-0.06583333333333334,292.877,-2.6755,-2.6834,-1.6323,-1.5107,-197.73000000000002,215.89249999999998,190.5015,0.0,0.0,0.0,0.0,0.046900000000000004,-5.498166666666667,-5.498166666666667,-0.5748,0.004666666666666597,-0.009250000000000203,-0.5710000000000002,69.223,-0.020199999999999996,-0.22890000000000002,0.33000000000000007,100.0,1.0,1.0,213.55666666666667,0.0,0.0,0.0,0.0,0.0,0.0,0.0,9051.9,0.0,17.0,5.0,249.17666666666668,1.0,0.0,0.0,0.0,0.0,0.0,0.0,0.0,1.1550000000000011,1.1550000000000011,0.0,0.0,1.0,55.0,616.79921,10000.0,85.000001,85.000001,85.000001,85.000001,395.0,0.0,0.0,0.0,1.0,333.33500000000004,52.551,52.551,48.644999999999996,48.644999999999996,34.0,-25.9425,22.593333333333334,-30.293333333333333,25.045,0.0,1782.487,-0.09999999999999964,100.0,27.953,27.646,42.884,42.921,0.0,0.0,100.0,0.0,0.0,0.0,0.0,3259.875,2987.6,4046.5,3979.0,305.028,305.181,315.12975,315.03825,21.971555555555554,20.6072,21.9829,21.4965,314.999998,314.999998,324.999988,324.999988,99.5589,99.5069,99.56772857142857,99.54794285714286,0.05874999999999986,-0.07533333333333325,-0.14383333333333337,0.08216666666666672,-0.046666666666666856,-0.046666666666666856,1.5686666666666667,1.5765,38.322,29.7945,38.393,35.3535,55.831,34.9735,59.629,52.725,53.76,34.1055,58.212,51.0535,52.906,33.646,58.116,50.469,-0.08250000000000002,-0.07099999999999995,0.11252000000000001,0.10953,0.0,216.715,216.67000000000002,213.55666666666667,213.55666666666667,0.0,0.0
24,0.0,0.0,0.0,1.0,1.0,0.0,0.0,1.0,0.0,0.0,1.0,1.1856,26.0,0.0,0.0,0.0,59.999996,0.0,26.0,26.0,26.0,26.0,-0.026666666666666616,0.27690000000000015,-0.030000000000000002,293.182,-2.7001,-2.6951,-1.5242,-1.5621,-194.2,215.88,190.477125,0.0,0.0,0.0,0.0,0.04896666666666667,-5.498166666666667,-5.498166666666667,-0.5864,-0.8816666666666667,0.005249999999999977,0.994,69.361,-0.01959999999999995,-0.22005000000000002,0.10599999999999987,100.0,1.0,1.0,213.86666666666667,0.0,0.0,0.0,0.0,0.0,0.0,0.0,9065.0,0.0,17.0,5.0,249.67333333333335,0.0,0.0,0.0,0.0,0.0,0.0,0.0,0.0,1.2059999999999995,1.2059999999999995,0.0,0.0,0.0,55.0,616.79921,10000.0,85.000001,85.000001,85.000001,85.000001,395.0,0.0,0.0,0.0,1.0,166.665,53.665,53.665,47.958,47.958,34.0,-22.2675,22.831666666666663,-28.83,27.57,0.0,1782.438,-0.10500000000000043,100.0,27.636,27.147,43.109,42.831,0.0,0.0,100.0,0.0,0.0,0.0,0.0,2846.125,3000.5,4078.875,4117.3,306.181,305.37225,314.85125,314.6675,21.980888888888888,20.6124,21.9933,21.5057,314.999998,314.999998,324.999988,324.999988,99.55892857142857,99.50691666666667,99.56788571428571,99.54808571428572,0.06325000000000003,-0.06833333333333313,-0.12683333333333335,0.09250000000000003,-0.02833333333332888,-0.05333333333332746,1.518,1.5335,38.379999999999995,29.8275,38.458,35.4105,55.814,35.0115,59.668,52.7855,53.744,34.1405,58.2485,51.1115,52.888999999999996,33.6795,58.149,50.525666666666666,-0.08599999999999997,-0.07000000000000006,0.11057000000000002,0.104855,0.0,217.11,217.10500000000002,213.86666666666667,213.86666666666667,0.0,0.0
25,0.0,0.0,0.0,1.0,1.0,0.0,0.0,1.0,0.0,0.0,1.0,1.1856,26.0,0.0,0.0,0.0,59.999996,0.0,26.0,26.0,26.0,26.0,-0.04022222222222216,0.26980000000000004,-0.012366666666666668,292.755,-2.7518,-2.6644,-1.5968,-1.5511,-190.86,215.87,190.452875,0.0,0.0,0.0,0.0,0.0509,-5.498166666666667,-5.498166666666667,-0.6076,0.42199999999999993,-0.0034999999999998366,-0.16900000000000004,69.487,-0.015799999999999925,-0.22025,0.11599999999999966,100.0,1.0,1.0,214.38666666666666,0.0,0.0,0.0,0.0,0.0,0.0,0.0,9087.0,0.0,17.0,5.0,250.12666666666667,1.0,0.0,0.0,0.0,0.0,0.0,0.0,0.0,1.2540000000000013,1.2540000000000013,0.0,0.0,1.0,55.0,616.79921,10000.0,85.000001,85.000001,85.000001,85.000001,395.0,0.0,0.0,0.0,1.0,333.33500000000004,52.138999999999996,52.138999999999996,48.599000000000004,48.599000000000004,34.0,-26.677500000000002,25.745,-28.396666666666665,26.7125,0.0,1782.389,-0.11999999999999922,100.0,27.881,27.588,42.7,42.532,0.0,0.0,100.0,0.0,0.0,0.0,0.0,3299.375,3327.7,3971.25,4020.6000000000004,304.8735,304.35475,315.283,314.9475,21.989666666666665,20.6177,22.003,21.5141,314.999998,314.999998,324.999988,324.999988,99.55892857142857,99.50691666666667,99.56802857142857,99.54822857142857,0.06824999999999992,-0.06233333333333313,-0.12716666666666665,0.09800000000000009,-0.041666666666671404,-0.051666666666669414,1.5736666666666665,1.5745,38.436,29.860500000000002,38.519,35.463,55.8,35.0505,59.7005,52.8395,53.730999999999995,34.177,58.2785,51.164,52.875,33.714,58.1765,50.577,-0.08350000000000002,-0.07050000000000001,0.11138500000000001,0.10572000000000001,0.0,217.53,217.51999999999998,214.38666666666666,214.38666666666666,0.0,0.0
26,0.0,0.0,0.0,1.0,1.0,0.0,0.0,1.0,0.0,0.0,1.0,1.1856,26.0,0.0,0.0,0.0,59.999996,0.0,26.0,26.0,26.0,26.0,-0.012333333333333307,0.27960000000000007,0.07786666666666667,291.885,-2.7195,-2.735,-1.5642,-1.613,-187.32,215.85750000000002,190.427125,0.0,0.0,0.0,0.0,0.05296666666666667,-5.498166666666667,-5.498166666666667,-0.5668000000000001,0.17199999999999993,-0.01587499999999986,-0.41100000000000003,69.626,-0.014499999999999957,-0.20035,0.09200000000000053,100.0,1.0,1.0,214.50333333333333,0.0,0.0,0.0,0.0,0.0,0.0,0.0,9092.0,0.0,17.0,5.0,250.62666666666667,0.0,0.0,0.0,0.0,0.0,0.0,0.0,0.0,1.3049999999999997,1.3049999999999997,0.0,0.0,0.0,55.0,616.79921,10000.0,85.000001,85.000001,85.000001,85.000001,395.0,0.0,0.0,0.0,1.0,166.665,52.521,52.521,46.616,46.616,34.0,-24.1375,22.735,-33.97666666666666,32.2475,0.0,1782.34,-0.25,100.0,28.325,28.134999999999998,43.472,43.328,0.0,0.0,100.0,0.0,0.0,0.0,0.0,3094.125,2912.7,4536.5,4469.7,305.5085,305.38575,313.83075,313.69375,21.999222222222222,20.6233,22.0136,21.5234,314.999998,314.999998,324.999988,324.999988,99.55894285714285,99.50693333333334,99.56817142857143,99.54837142857143,0.0754999999999999,-0.06733333333333325,-0.1303333333333333,0.09866666666666668,-0.05833333333333002,-0.03833333333332689,1.4163333333333332,1.424,38.495000000000005,29.8955,38.585,35.5215,55.788,35.092,59.7425,52.903,53.72,34.215,58.318,51.225,52.863,33.7505,58.2125,50.63666666666667,-0.10350000000000004,-0.06099999999999994,0.10634500000000001,0.11548000000000001,0.0,217.99,217.945,214.50333333333333,214.50333333333333,0.0,0.0
27,0.0,0.0,0.0,1.0,1.0,0.0,0.0,1.0,0.0,0.0,1.0,1.1856,26.0,0.0,0.0,0.0,59.999996,0.0,26.0,26.0,26.0,26.0,0.007000000000000117,0.2574000000000001,-0.08750000000000001,292.603,-2.7138999999999998,-2.6709,-1.6098,-1.5635,-183.97,215.845,190.403875,0.0,0.0,0.0,0.0,0.054900000000000004,-5.498166666666667,-5.498166666666667,-0.6037,-0.85,-0.012125000000000163,-0.673,69.75,-0.009499999999999953,-0.24485,-0.04999999999999982,100.0,1.0,1.0,215.14,0.0,0.0,0.0,0.0,0.0,0.0,0.0,9119.0,0.0,17.0,5.0,251.07333333333332,1.0,0.0,0.0,0.0,0.0,0.0,0.0,0.0,1.352999999999998,1.352999999999998,0.0,0.0,1.0,55.0,616.79921,10000.0,85.000001,85.000001,85.000001,85.000001,395.0,0.0,0.0,0.0,1.0,333.33500000000004,52.521,52.521,47.897,47.897,34.0,-24.8475,23.759999999999998,-27.783333333333335,26.5475,0.0,1782.29,-0.27999999999999936,100.0,27.955,28.009,43.644999999999996,43.542,0.0,0.0,100.0,0.0,0.0,0.0,0.0,3192.125,3049.8,3890.125,3938.4,305.3925,305.02775,315.3765,315.115,22.008,20.6284,22.0235,21.5321,314.999998,314.999998,324.999988,324.999988,99.55894285714285,99.50693333333334,99.56831428571428,99.54851428571429,0.07325000000000026,-0.05699999999999994,-0.12066666666666659,0.10299999999999998,-0.041666666666671404,-0.04999999999999716,1.557,1.5635,38.55,29.927999999999997,38.647,35.576,55.775,35.129,59.7785,52.96,53.706,34.2495,58.3515,51.2795,52.849000000000004,33.783500000000004,58.243,50.69,-0.10050000000000003,-0.05699999999999994,0.10023000000000001,0.11377000000000001,0.0,218.31,218.29000000000002,215.14,215.14,0.0,0.0
28,0.0,0.0,0.0,1.0,1.0,0.0,0.0,1.0,0.0,0.0,1.0,1.1856,26.0,0.0,0.0,0.0,59.999996,0.0,26.0,26.0,26.0,26.0,-0.009888888888888947,0.2823,-0.027933333333333334,292.511,-2.6699,-2.6843,-1.5838,-1.546,-180.41,215.82999999999998,190.378,0.0,0.0,0.0,0.0,0.056966666666666665,-5.498166666666667,-5.498166666666667,-0.5953,0.5993333333333333,-0.012624999999999886,0.891,69.884,-0.0044999999999999485,-0.2064,-0.16600000000000037,100.0,1.0,1.0,215.49,0.0,0.0,0.0,0.0,0.0,0.0,0.0,9133.8,0.0,17.0,5.0,251.55333333333334,0.0,0.0,0.0,0.0,0.0,0.0,0.0,0.0,1.404,1.404,0.0,0.0,0.0,55.0,616.79921,10000.0,85.000001,85.000001,85.000001,85.000001,395.0,0.0,0.0,0.0,1.0,333.33500000000004,52.765,52.765,47.623,47.623,34.0,-21.995,24.383333333333333,-29.766666666666666,29.4475,0.0,1782.24,-0.3249999999999993,100.0,28.223,27.788,43.174,43.075,0.0,0.0,100.0,0.0,0.0,0.0,0.0,2952.375,3078.1,4212.625,4233.9,305.7525,305.08,314.71025,314.48225,22.017444444444443,20.634,22.0337,21.5412,314.999998,314.999998,324.999988,324.999988,99.55895714285714,99.50695,99.56847142857143,99.54867142857142,0.09149999999999991,-0.04699999999999993,-0.11349999999999993,0.11616666666666675,-0.03833333333332689,-0.04833333333333201,1.545,1.532,38.608999999999995,29.9625,38.711,35.6325,55.762,35.169,59.8135,53.019,53.694,34.286,58.384,51.336,52.836,33.819,58.2725,50.745,-0.10599999999999998,-0.05600000000000005,0.11253,0.11045500000000001,0.0,218.76,218.755,215.49,215.49,0.0,0.0
29,0.0,0.0,0.0,1.0,1.0,0.0,0.0,1.0,0.0,0.0,1.0,1.1856,26.0,0.0,0.0,0.0,59.999996,0.0,26.0,26.0,26.0,26.0,0.027666666666666728,0.25870000000000015,-0.04546666666666667,292.419,-2.7528,-2.5954,-1.5927,-1.5503,-176.84,215.8175,190.351375,0.0,0.0,0.0,0.0,0.05906666666666666,-5.498166666666667,-5.498166666666667,-0.6106,-0.7063333333333333,-0.009625000000000217,-0.77,70.019,0.0026000000000001577,-0.22275,-0.15399999999999991,100.0,1.0,1.0,215.85000000000002,0.0,0.0,0.0,0.0,0.0,0.0,0.0,9149.0,0.0,17.0,5.0,252.04000000000002,1.0,0.0,0.0,0.0,0.0,0.0,0.0,0.0,1.4549999999999983,1.4549999999999983,0.0,0.0,1.0,55.0,616.79921,10000.0,85.000001,85.000001,85.000001,85.000001,395.0,0.0,0.0,0.0,1.0,166.665,52.628,52.628,47.882,47.882,34.0,-25.39,23.40833333333333,-28.553333333333335,28.96,0.0,1782.189,-0.3200000000000003,100.0,27.822,27.887,43.42,43.539,0.0,0.0,100.0,0.0,0.0,0.0,0.0,3270.875,3059.1,4071.0,4149.5,305.254,305.193,315.02575,314.5375,22.026666666666667,20.639499999999998,22.0442,21.5505,314.999998,314.999998,324.999988,324.999988,99.55897142857143,99.50695,99.56861428571429,99.54881428571429,0.08349999999999991,-0.04600000000000004,-0.10816666666666663,0.11383333333333323,-0.04333333333332945,-0.04333333333332945,1.5196666666666667,1.5135,38.667,29.997,38.775999999999996,35.6905,55.747,35.207499999999996,59.852000000000004,53.081,53.68,34.322,58.42,51.3955,52.821,33.853,58.3055,50.803333333333335,-0.10699999999999998,-0.05499999999999994,0.10701000000000001,0.103995,0.0,219.13,219.13,215.85000000000002,215.85000000000002,0.0,0.0
30,0.0,0.0,0.0,1.0,1.0,0.0,0.0,1.0,0.0,0.0,1.0,1.1856,26.0,0.0,0.0,0.0,59.999996,0.0,26.0,26.0,26.0,26.0,-0.0011111111111110628,0.2731000000000001,-0.0021333333333333334,291.656,-2.6709,-2.7194000000000003,-1.6264,-1.4732,-173.26999999999998,215.805,190.32475,0.0,0.0,0.0,0.0,0.06113333333333334,-5.498166666666667,-5.498166666666667,-0.5914,0.8633333333333333,-0.007124999999999826,1.214,70.15,0.007500000000000062,-0.205825,-0.27200000000000024,100.0,1.0,1.0,216.2266666666667,0.0,0.0,0.0,0.0,0.0,0.0,0.0,9165.1,0.0,17.0,5.0,252.51333333333332,0.0,0.0,0.0,0.0,0.0,0.0,1.0,0.0,1.5060000000000002,1.5060000000000002,0.0,0.0,0.0,55.0,616.79921,10000.0,85.000001,85.000001,85.000001,85.000001,395.0,0.0,0.0,0.0,1.0,166.665,51.757999999999996,51.757999999999996,46.844,46.844,34.0,-22.855,26.651666666666667,-31.28,30.4725,0.0,1782.138,-0.3699999999999992,100.0,28.816,28.425,43.455,43.427,0.0,0.0,100.0,0.0,0.0,0.0,0.0,3119.875,3241.0,4415.125,4390.3,305.3225,304.64975,314.2525,314.23675,22.03622222222222,20.6453,22.0546,21.5597,314.999998,314.999998,324.999988,324.999988,99.55898571428571,99.50695,99.56875714285714,99.54897142857143,0.10325000000000006,-0.03499999999999992,-0.09416666666666662,0.12966666666666682,-0.046666666666666856,-0.04833333333333201,1.491,1.4849999999999999,38.726,30.033,38.841,35.748,55.738,35.2495,59.8885,53.141,53.671,34.3605,58.454,51.4535,52.811,33.8905,58.336,50.86,-0.10699999999999998,-0.05600000000000005,0.10440500000000001,0.11238000000000001,0.0,219.57999999999998,219.585,216.2266666666667,216.2266666666667,0.0,0.0
31,0.0,0.0,0.0,1.0,1.0,0.0,0.0,1.0,0.0,0.0,1.0,1.1856,26.0,0.0,0.0,0.0,59.999996,0.0,26.0,26.0,26.0,26.0,0.04755555555555557,0.2572000000000001,0.04643333333333333,291.534,-2.7104,-2.6663,-1.5756999999999999,-1.6027,-169.69,215.79250000000002,190.299,0.0,0.0,0.0,0.0,0.0632,-5.498166666666667,-5.498166666666667,-0.5952000000000001,-0.47166666666666657,-0.00649999999999995,-0.9940000000000002,70.283,0.010599999999999943,-0.23087500000000002,-0.19200000000000017,100.0,1.0,1.0,216.61,0.0,0.0,0.0,0.0,0.0,0.0,0.0,9181.2,0.0,17.0,5.0,252.99333333333334,1.0,0.0,0.0,0.0,0.0,0.0,1.0,0.0,1.5569999999999986,1.5569999999999986,0.0,0.0,1.0,55.0,616.79921,10000.0,85.000001,85.000001,85.000001,85.000001,395.0,0.0,0.0,0.0,1.0,166.665,51.682,51.682,46.417,46.417,34.0,-23.06,25.933333333333334,-28.986666666666665,30.7225,0.0,1782.087,-0.375,100.0,28.35,28.777,43.962,44.224000000000004,0.0,0.0,100.0,0.0,0.0,0.0,0.0,3133.0,3204.3,4204.375,4235.3,305.4085,304.38575,314.70475,314.3685,22.045444444444446,20.651,22.0652,21.5691,314.999998,314.999998,324.999988,324.999988,99.55898571428571,99.50696666666667,99.56891428571429,99.54911428571428,0.10650000000000004,-0.04299999999999993,-0.09699999999999998,0.11816666666666675,-0.041666666666671404,-0.060000000000002274,1.4946666666666668,1.491,38.784,30.0685,38.907,35.807,55.724000000000004,35.2905,59.9285,53.204499999999996,53.658,34.3985,58.491,51.5145,52.797,33.9265,58.37,50.919666666666664,-0.11199999999999999,-0.0515000000000001,0.100015,0.10461500000000001,0.0,219.96,219.965,216.61,216.61,0.0,0.0
32,0.0,0.0,0.0,1.0,1.0,0.0,0.0,1.0,0.0,0.0,1.0,1.1856,26.0,0.0,0.0,0.0,59.999996,0.0,26.0,26.0,26.0,26.0,0.047111111111111104,0.2590000000000001,-0.006733333333333333,292.007,-2.6817,-2.7119,-1.5563,-1.5875,-166.31,215.7825,190.274625,0.0,0.0,0.0,0.0,0.06516666666666666,-5.498166666666667,-5.498166666666667,-0.6055,-0.1476666666666666,-0.03287500000000021,-0.9039999999999999,70.405,0.014800000000000146,-0.224675,-0.26399999999999935,100.0,1.0,1.0,217.0366666666667,0.0,0.0,0.0,0.0,0.0,0.0,0.0,9199.3,0.0,17.0,5.0,253.43333333333334,0.0,0.0,0.0,0.0,0.0,0.0,1.0,0.0,1.6050000000000004,1.6050000000000004,0.0,0.0,0.0,55.0,616.79921,10000.0,85.000001,85.000001,85.000001,85.000001,395.0,0.0,0.0,0.0,1.0,333.33500000000004,52.338,52.338,47.272,47.272,34.0,-22.724999999999998,24.208333333333336,-27.783333333333335,30.6825,0.0,1782.038,-0.33999999999999986,100.0,28.296,28.503,43.676,44.022999999999996,0.0,0.0,100.0,0.0,0.0,0.0,0.0,3104.25,2963.9,4120.375,4173.9,305.523,305.2325,314.86625,314.45375,22.054222222222222,20.6563,22.0749,21.5778,314.999998,314.999998,324.999988,324.999988,99.559,99.50696666666667,99.56905714285715,99.54925714285714,0.10199999999999987,-0.03733333333333322,-0.09283333333333332,0.13116666666666688,-0.03833333333332689,-0.045000000000001705,1.514,1.5070000000000001,38.839,30.1015,38.968,35.8615,55.713,35.327,59.9615,53.2605,53.647,34.4325,58.522,51.5685,52.785,33.959,58.397999999999996,50.97233333333333,-0.11199999999999999,-0.04899999999999993,0.10476,0.115305,0.0,220.345,220.36,217.0366666666667,217.0366666666667,0.0,0.0
33,0.0,0.0,0.0,1.0,1.0,0.0,0.0,1.0,0.0,0.0,1.0,1.1856,26.0,0.0,0.0,0.0,59.999996,0.0,26.0,26.0,26.0,26.0,0.033222222222222264,0.25860000000000016,-0.05533333333333334,292.191,-2.7401,-2.6619,-1.6428,-1.5852,-162.93,215.7725,190.249,0.0,0.0,0.0,0.0,0.06713333333333334,-5.498166666666667,-5.498166666666667,-0.617,-0.45599999999999996,-0.01662499999999989,0.040999999999999925,70.528,0.016000000000000014,-0.21657500000000002,-0.16799999999999926,100.0,1.0,1.0,217.43,0.0,0.0,0.0,0.0,0.0,0.0,0.0,9216.0,0.0,17.0,5.0,253.87666666666667,1.0,0.0,0.0,0.0,0.0,0.0,1.0,0.0,1.6529999999999987,1.6529999999999987,0.0,0.0,1.0,55.0,616.79921,10000.0,85.000001,85.000001,85.000001,85.000001,395.0,0.0,0.0,0.0,1.0,166.665,52.475,52.475,47.592,47.592,34.0,-23.4075,23.886666666666667,-28.913333333333334,29.8625,0.0,1781.991,-0.3699999999999992,100.0,28.114,28.251,43.586,43.955,0.0,0.0,100.0,0.0,0.0,0.0,0.0,3140.875,3008.9,4082.75,4132.3,305.4845,305.2095,315.0705,314.599,22.06288888888889,20.6614,22.084699999999998,21.5865,314.999998,314.999998,324.999988,324.999988,99.55901428571428,99.50696666666667,99.5692,99.5494,0.10400000000000009,-0.04200000000000004,-0.10216666666666663,0.12416666666666676,-0.03499999999999659,-0.04833333333333201,1.528,1.508,38.893,30.134,39.028999999999996,35.9155,55.701,35.362,59.9955,53.317,53.635999999999996,34.465,58.5535,51.6225,52.772999999999996,33.99,58.4265,51.025,-0.11049999999999993,-0.05400000000000005,0.10321500000000002,0.108895,0.0,220.71,220.735,217.43,217.43,0.0,0.0
34,0.0,0.0,0.0,1.0,1.0,0.0,0.0,1.0,0.0,0.0,1.0,1.1856,26.0,0.0,0.0,0.0,59.999996,0.0,26.0,26.0,26.0,26.0,0.03511111111111109,0.26960000000000006,-0.11280000000000001,292.542,-2.7528,-2.6208,-1.6438000000000001,-1.5211000000000001,-159.12,215.76,190.218875,0.0,0.0,0.0,0.0,0.06936666666666666,-5.498166666666667,-5.498166666666667,-0.653,-0.9543333333333334,0.006624999999999881,-0.6040000000000001,70.666,0.018100000000000005,-0.22740000000000002,-0.19200000000000017,100.0,1.0,1.0,217.84,0.0,0.0,0.0,0.0,0.0,0.0,0.0,9233.4,0.0,17.0,5.0,254.37,0.0,0.0,0.0,0.0,0.0,0.0,1.0,0.0,1.7070000000000007,1.7070000000000007,0.0,0.0,0.0,55.0,616.79921,10000.0,85.000001,85.000001,85.000001,85.000001,395.0,0.0,0.0,0.0,1.0,166.665,53.223,53.223,47.546,47.546,34.0,-21.4775,23.678333333333335,-29.06,29.6125,0.0,1781.937,-0.379999999999999,100.0,27.801000000000002,27.948999999999998,43.354,43.936,0.0,0.0,100.0,0.0,0.0,0.0,0.0,2889.0,2969.4,4108.875,4167.1,306.1965,305.28025,314.97175,314.55975,22.072555555555557,20.6672,22.0956,21.5963,314.999998,314.999998,324.999988,324.999988,99.55904285714286,99.50698333333334,99.56935714285714,99.54955714285714,0.10150000000000015,-0.03066666666666662,-0.09950000000000003,0.1333333333333333,-0.03333333333333144,-0.046666666666666856,1.5293333333333334,1.5265,38.954,30.17,39.098,35.977000000000004,55.686,35.4015,60.032,53.3815,53.620999999999995,34.501,58.5875,51.685,52.757,34.025,58.457,51.086,-0.10599999999999998,-0.04699999999999993,0.11089500000000001,0.11484000000000001,0.0,221.13,221.13,217.84,217.84,0.0,0.0
35,0.0,0.0,0.0,1.0,1.0,0.0,0.0,1.0,0.0,0.0,1.0,1.1856,26.0,0.0,0.0,0.0,59.999996,0.0,26.0,26.0,26.0,26.0,0.036111111111111205,0.24770000000000003,-0.0541,292.328,-2.8106,-2.6471,-1.5823,-1.5227,-155.72,215.75,190.189875,0.0,0.0,0.0,0.0,0.07133333333333335,-5.498166666666667,-5.498166666666667,-0.682,0.18999999999999995,-0.022250000000000103,-1.5420000000000003,70.786,0.021300000000000097,-0.2222,-0.28799999999999937,100.0,1.0,1.0,218.32,0.0,0.0,0.0,0.0,0.0,0.0,0.0,9253.8,0.0,17.0,5.0,254.80333333333334,1.0,0.0,0.0,0.0,0.0,0.0,1.0,0.0,1.754999999999999,1.754999999999999,0.0,0.0,1.0,55.0,616.79921,10000.0,85.000001,85.000001,85.000001,85.000001,395.0,0.0,0.0,0.0,1.0,333.33500000000004,52.078,52.078,47.638,47.638,34.0,-25.4125,26.156666666666666,-26.576666666666664,28.6525,0.0,1781.888,-0.20500000000000007,100.0,27.779,28.457,43.114000000000004,43.293,0.0,0.0,100.0,0.0,0.0,0.0,0.0,3251.5,3233.2,3990.0,4038.7,305.347,304.342,315.285,314.97825,22.081222222222223,20.6727,22.1053,21.6048,314.999998,314.999998,324.999988,324.999988,99.55904285714286,99.50698333333334,99.5695,99.5497,0.09125000000000005,-0.03966666666666674,-0.09050000000000002,0.14066666666666672,-0.04999999999999716,-0.06333333333333258,1.5753333333333335,1.552,39.007,30.2045,39.158,36.03,55.672,35.439499999999995,60.064,53.4335,53.608000000000004,34.536500000000004,58.6175,51.735,52.742999999999995,34.059,58.4835,51.135,-0.09550000000000003,-0.05899999999999994,0.10852,0.11119000000000001,0.0,221.525,221.56,218.32,218.32,0.0,0.0
