,ABS Active,ABS Enabled,AID Allow Tire Blankets,AID Auto Blip,AID Auto Clutch,AID Auto Shift,AID Fuel Rate,AID Ideal Line,AID Mech Damage,AID Stability,AID Tire Wear Rate,Air Density,Air Temp,Ballast,Best Lap Delta,Best Lap Time,Brake Bias,Brake Pos,Brake Temp FL,Brake Temp FR,Brake Temp RL,Brake Temp RR,CG Accel Lateral,CG Accel Longitudinal,CG Accel Vertical,CG Height,Camber FL,Camber FR,Camber RL,Camber RR,Car Coord X,Car Coord Y,Car Coord Z,Car Damage Front,Car Damage Left,Car Damage Rear,Car Damage Right,Car Pos Norm,Caster FL,Caster FR,Chassis Pitch Angle,Chassis Pitch Rate,Chassis Roll Angle,Chassis Roll Rate,Chassis Velocity X,Chassis Velocity Y,Chassis Velocity Z,Chassis Yaw Rate,Clutch Pos,DRS Active,DRS Available,Drive Train Speed,ERS Heat Charging,ERS Is Charging,ERS Max Energy,ERS Power Level,ERS Recovery Level,Engine Brake Setting,Engine Limiter,Engine RPM,Flags,Fuel Level,Gear,Ground Speed,HR Sample Clock,In Pit,KERS Charge,KERS Deployed Energy,KERS Input,KERS Max Energy,LR Sample Clock,Lap Invalidated,Lap Time,Lap Time2,Last Lap Time,Last Sector Time,MR Sample Clock,Max Fuel,Max Power,Max RPM,Max Sus Travel FL,Max Sus Travel FR,Max Sus Travel RL,Max Sus Travel RR,Max Torque,Max Turbo Boost,Num Tires Off Track,Penalties Enabled,Position,Raw Data Sample Rate,Ride Height FL,Ride Height FR,Ride Height RL,Ride Height RR,Road Temp,Self Align Torque FL,Self Align Torque FR,Self Align Torque RL,Self Align Torque RR,Session Lap Count,Session Time Left,Steering Angle,Surface Grip,Suspension Travel FL,Suspension Travel FR,Suspension Travel RL,Suspension Travel RR,TC Active,TC Enabled,Throttle Pos,Tire Dirt Level FL,Tire Dirt Level FR,Tire Dirt Level RL,Tire Dirt Level RR,Tire Load FL,Tire Load FR,Tire Load RL,Tire Load RR,Tire Loaded Radius FL,Tire Loaded Radius FR,Tire Loaded Radius RL,Tire Loaded Radius RR,Tire Pressure FL,Tire Pressure FR,Tire Pressure RL,Tire Pressure RR,Tire Radius FL,Tire Radius FR,Tire Radius RL,Tire Radius RR,Tire Rubber Grip FL,Tire Rubber Grip FR,Tire Rubber Grip RL,Tire Rubber Grip RR,Tire Slip Angle FL,Tire Slip Angle FR,Tire Slip Angle RL,Tire Slip Angle RR,Tire Slip Ratio FL,Tire Slip Ratio FR,Tire Slip Ratio RL,Tire Slip Ratio RR,Tire Temp Core FL,Tire Temp Core FR,Tire Temp Core RL,Tire Temp Core RR,Tire Temp Inner FL,Tire Temp Inner FR,Tire Temp Inner RL,Tire Temp Inner RR,Tire Temp Middle FL,Tire Temp Middle FR,Tire Temp Middle RL,Tire Temp Middle RR,Tire Temp Outer FL,Tire Temp Outer FR,Tire Temp Outer RL,Tire Temp Outer RR,Toe In FL,Toe In FR,Toe In RL,Toe In RR,Turbo Boost,Wheel Angular Speed FL,Wheel Angular Speed FR,Wheel Angular Speed RL,Wheel Angular Speed RR,Wind Direction,Wind Speed
0,0.0,0.0,0.0,1.0,1.0,0.0,0.0,1.0,0.0,0.0,1.0,1.1856,26.0,0.0,0.0,0.0,59.99999,0.0,26.0,26.0,26.0,26.0,-0.03011111111111109,0.29300000000000015,0.15536666666666668,293.335,-2.7934,-2.6181,-1.55715,-1.5058,-275.7,215.48000000000002,190.98775,0.0,0.0,0.0,0.0,0.0015666666666666051,-5.498166666666667,-5.498166666666667,-0.5820000000000001,1.847,0.0022499999999998632,0.19999999999999996,65.985,-0.0258,-0.2431,0.07600000000000051,100.0,1.0,1.0,203.80333333333334,0.0,0.0,0.0,0.0,0.0,0.0,0.0,8638.5,0.0,16.0,5.0,237.51333333333332,0.0,0.0,0.0,0.0,0.0,0.0,0.0,0.0,0.0030000000000001137,0.0030000000000001137,0.0,0.0,0.0,55.0,616.79921,10000.0,85.0,85.0,85.0,85.0,395.0,0.0,0.0,0.0,1.0,20.0,50.476,50.476,49.561,49.561,34.0,-30.82,33.93666666666667,-27.786666666666665,24.896,0.0,1783.697,0.2699999999999996,100.0,27.344,27.281,40.182,39.903999999999996,0.0,0.0,100.0,0.0,0.0,0.0,0.0,3484.875,4384.0,3896.222222222222,3971.4,304.13966666666664,301.1755,315.38325,315.00275,21.7454,20.4854,21.7416,21.2892,314.99999,314.99999,324.99998,324.99998,99.55835714285715,99.50656666666667,99.56444285714285,99.54465714285715,0.02833333333333332,-0.07233333333333314,-0.14400000000000002,0.08666666666666667,-0.03999999999999915,-0.044285714285713595,1.6179999999999999,1.617,36.909,29.0335,36.885,34.0575,56.038,34.0045,58.75,51.335499999999996,53.965,33.226,57.393,49.7185,53.137,32.8195,57.365,49.160333333333334,-0.05999999999999994,-0.09349999999999992,0.11333000000000001,0.10051,0.0,206.71,206.695,203.80333333333334,203.80333333333334,0.0,0.0
1,0.0,0.0,0.0,1.0,1.0,0.0,0.0,1.0,0.0,0.0,1.0,1.1856,26.0,0.0,0.0,0.0,59.999996,0.0,26.0,26.0,26.0,26.0,-0.07799999999999996,0.32889999999999997,0.22393333333333337,292.465,-2.6938,-2.697,-1.60345,-1.377,-272.13,215.49,190.966625,0.0,0.0,0.0,0.0,0.003666666666666596,-5.498166666666667,-5.498166666666667,-0.4733,-1.7503333333333333,-0.042625000000000135,-0.5820000000000001,66.157,-0.0216,-0.188025,0.5400000000000009,100.0,1.0,1.0,203.65333333333334,0.0,0.0,0.0,0.0,0.0,0.0,0.0,8632.1,0.0,16.0,5.0,238.13333333333333,1.0,0.0,0.0,0.0,0.0,0.0,0.0,0.0,0.05699999999999861,0.05699999999999861,0.0,0.0,1.0,55.0,616.79921,10000.0,85.000001,85.000001,85.000001,85.000001,395.0,0.0,0.0,0.0,1.0,166.665,54.672,54.672,47.394,47.394,34.0,-21.81,16.328333333333333,-37.78666666666666,33.648,0.0,1783.644,0.375,100.0,27.538,27.126,42.496,43.455,0.0,0.0,100.0,0.0,0.0,0.0,0.0,2698.875,2365.1,4737.555555555556,5266.1,306.6333333333333,307.2755,313.112,311.358,21.7557,20.4906,21.7532,21.2992,314.999998,314.999998,324.999988,324.999988,99.55837142857143,99.50658333333334,99.56461428571428,99.54481428571428,0.03299999999999992,-0.09999999999999987,-0.13933333333333334,0.07183333333333333,-0.04833333333333201,-0.030000000000001137,1.283,1.3094999999999999,36.973,29.066499999999998,36.957,34.1195,56.019999999999996,34.046,58.802,51.411500000000004,53.948,33.263999999999996,57.441,49.7915,53.119,32.856,57.4105,49.23166666666667,-0.04349999999999998,-0.10299999999999998,0.10730500000000001,0.10905500000000001,0.0,207.235,207.19,203.65333333333334,203.65333333333334,0.0,0.0
2,0.0,0.0,0.0,1.0,1.0,0.0,0.0,1.0,0.0,0.0,1.0,1.1856,26.0,0.0,0.0,0.0,59.999996,0.0,26.0,26.0,26.0,26.0,-0.08311111111111102,0.2993000000000001,0.03976666666666667,294.266,-2.6672,-2.662,-1.5635,-1.5175,-268.95,215.4975,190.948875,0.0,0.0,0.0,0.0,0.005499999999999949,-5.498166666666667,-5.498166666666667,-0.5779000000000001,0.13566666666666682,-0.012125000000000163,2.056,66.285,-0.027,-0.273,0.8520000000000003,100.0,1.0,1.0,205.09666666666666,0.0,0.0,0.0,0.0,0.0,0.0,0.0,8693.2,0.0,16.0,5.0,238.5966666666667,0.0,0.0,0.0,0.0,0.0,0.0,0.0,0.0,0.10500000000000043,0.10500000000000043,0.0,0.0,0.0,55.0,616.79921,10000.0,85.000001,85.000001,85.000001,85.000001,395.0,0.0,0.0,0.0,1.0,333.33500000000004,52.307,52.307,51.117,51.117,34.0,-28.927500000000002,22.38,-24.436666666666664,18.576,0.0,1783.594,0.5649999999999995,100.0,27.816,27.09,41.711,41.584,0.0,0.0,100.0,0.0,0.0,0.0,0.0,3348.25,3170.1,3443.0,3279.0,304.6413333333333,304.68925,316.42625,316.76275,21.7651,20.4953,21.7628,21.307,314.999998,314.999998,324.999988,324.999988,99.55837142857143,99.5066,99.56474285714286,99.54494285714286,0.010000000000000231,-0.10833333333333317,-0.171,0.07183333333333333,-0.060000000000002274,-0.06857142857142406,1.8014999999999999,1.8305,37.032,29.0955,37.016999999999996,34.169,56.007,34.0835,58.835,51.4565,53.934,33.299,57.4715,49.835,53.105000000000004,32.888999999999996,57.438,49.27433333333333,-0.034499999999999975,-0.119,0.112405,0.104925,0.0,207.635,207.57999999999998,205.0966666666667,205.09666666666666,0.0,0.0
3,0.0,0.0,0.0,1.0,1.0,0.0,0.0,1.0,0.0,0.0,1.0,1.1856,26.0,0.0,0.0,0.0,59.999996,0.0,26.0,26.0,26.0,26.0,-0.07766666666666666,0.29920000000000013,0.03116666666666667,293.457,-2.6849,-2.6889000000000003,-1.5430000000000001,-1.4814,-265.57,215.505,190.928375,0.0,0.0,0.0,0.0,0.0074666666666665105,-5.498166666666667,-5.498166666666667,-0.5005000000000001,0.6243333333333332,0.0020000000000000018,-2.165,66.446,-0.0434,-0.19110000000000002,0.782,100.0,1.0,1.0,204.88,0.0,0.0,0.0,0.0,0.0,0.0,0.0,8684.1,0.0,16.0,5.0,239.17333333333335,1.0,0.0,0.0,0.0,0.0,0.0,0.0,0.0,0.1559999999999988,0.1559999999999988,0.0,0.0,1.0,55.0,616.79921,10000.0,85.000001,85.000001,85.000001,85.000001,395.0,0.0,0.0,0.0,1.0,166.665,53.772,53.772,47.989,47.989,34.0,-23.9925,19.358333333333334,-34.75333333333333,26.368000000000002,0.0,1783.545,0.6449999999999996,100.0,27.493,27.23,41.733000000000004,41.766999999999996,0.0,0.0,100.0,0.0,0.0,0.0,0.0,2839.75,2816.5,4500.444444444444,4282.5,306.26233333333334,305.654,313.88125,314.08075,21.7748,20.5005,21.7731,21.316,314.999998,314.999998,324.999988,324.999988,99.55837142857143,99.5066,99.56488571428571,99.54508571428572,0.007333333333333414,-0.12166666666666681,-0.1595,0.0625,-0.03833333333332689,-0.03857142857142293,1.4335,1.48,37.092,29.1285,37.082,34.225,55.989000000000004,34.126999999999995,58.875,51.5235,53.917,33.339,57.509,49.899,53.087,32.9275,57.473,49.337666666666664,-0.029000000000000026,-0.12250000000000005,0.10740500000000001,0.10654000000000001,0.0,208.175,208.085,204.88,204.88,0.0,0.0
4,0.0,0.0,0.0,1.0,1.0,0.0,0.0,1.0,0.0,0.0,1.0,1.1856,26.0,0.0,0.0,0.0,59.999996,0.0,26.0,26.0,26.0,26.0,-0.08133333333333337,0.28859999999999997,-0.0009333333333333334,293.961,-2.6741,-2.761,-1.48235,-1.5947,-262.37,215.51,190.91025,0.0,0.0,0.0,0.0,0.009333333333333305,-5.498166666666667,-5.498166666666667,-0.5301,-0.97,-0.05074999999999985,-0.7330000000000001,66.58500000000001,-0.051800000000000006,-0.23535,1.0879999999999992,100.0,1.0,1.0,205.53333333333333,0.0,0.0,0.0,0.0,0.0,0.0,0.0,8711.7,0.0,16.0,5.0,239.67666666666668,0.0,0.0,0.0,0.0,0.0,0.0,0.0,0.0,0.20400000000000063,0.20400000000000063,0.0,0.0,0.0,55.0,616.79921,10000.0,85.000001,85.000001,85.000001,85.000001,395.0,0.0,0.0,0.0,1.0,333.33500000000004,53.65,53.65,49.24,49.24,34.0,-27.4075,19.29,-30.716666666666665,22.898,0.0,1783.495,0.6950000000000003,100.0,27.379,26.767,42.429,41.792,0.0,0.0,100.0,0.0,0.0,0.0,0.0,3132.125,2782.4,4046.5555555555557,3772.7,305.401,305.87625,314.96725,315.41,21.7839,20.5052,21.7831,21.3244,314.999998,314.999998,324.999988,324.999988,99.55837142857143,99.50661666666667,99.56502857142857,99.54521428571428,-0.007333333333333192,-0.1286666666666667,-0.18833333333333335,0.047,-0.03333333333333144,-0.04285714285714448,1.5445,1.583,37.15,29.1575,37.144999999999996,34.2775,55.972,34.164,58.916,51.58,53.902,33.373,57.5475,49.953,53.071,32.96,57.507999999999996,49.39033333333333,-0.020000000000000018,-0.12200000000000011,0.11461500000000001,0.10491500000000001,0.0,208.55,208.44,205.53333333333333,205.53333333333333,0.0,0.0
5,0.0,0.0,0.0,1.0,1.0,0.0,0.0,1.0,0.0,0.0,1.0,1.1856,26.0,0.0,0.0,0.0,59.999996,0.0,26.0,26.0,26.0,26.0,-0.1093333333333334,0.30520000000000014,-0.0454,294.205,-2.6432,-2.7138,-1.5298,-1.5769000000000002,-258.97,215.5125,190.89025,0.0,0.0,0.0,0.0,0.011299999999999977,-5.498166666666667,-5.498166666666667,-0.5409,0.6020000000000001,-0.033500000000000085,0.9,66.733,-0.0688,-0.22645,1.0540000000000003,100.0,1.0,1.0,206.07999999999998,0.0,0.0,0.0,0.0,0.0,0.0,0.0,8735.0,0.0,16.0,5.0,240.20666666666668,1.0,0.0,0.0,0.0,0.0,0.0,0.0,0.0,0.254999999999999,0.254999999999999,0.0,0.0,1.0,55.0,616.79921,10000.0,85.000001,85.000001,85.000001,85.000001,395.0,0.0,0.0,0.0,1.0,166.665,53.696,53.696,49.805,49.805,34.0,-26.065,20.403333333333332,-29.246666666666666,23.186,0.0,1783.446,0.5199999999999996,100.0,27.441,26.575,42.025999999999996,41.108000000000004,0.0,0.0,100.0,0.0,0.0,0.0,0.0,3003.625,2945.0,3874.4444444444443,3921.3,305.544,305.4695,315.399,315.16975,21.7938,20.5102,21.7934,21.3331,314.999998,314.999998,324.999988,324.999988,99.55838571428572,99.50663333333333,99.56515714285715,99.54535714285714,-0.004666666666666597,-0.1213333333333333,-0.18566666666666667,0.042166666666666665,-0.036666666666668846,-0.04142857142857537,1.6235,1.637,37.211,29.189,37.209,34.332,55.957,34.205,58.954,51.6375,53.887,33.411,57.582499999999996,50.007999999999996,53.055,32.9965,57.5405,49.444,-0.034499999999999975,-0.10549999999999993,0.09999000000000001,0.10515000000000001,0.0,209.065,208.95,206.07999999999998,206.07999999999998,0.0,0.0
6,0.0,0.0,0.0,1.0,1.0,0.0,0.0,1.0,0.0,0.0,1.0,1.1856,26.0,0.0,0.0,0.0,59.999996,0.0,26.0,26.0,26.0,26.0,-0.11644444444444446,0.3004,-0.017966666666666666,294.022,-2.7115,-2.7867,-1.47995,-1.5615999999999999,-255.77,215.51,190.870625,0.0,0.0,0.0,0.0,0.013166666666666549,-5.498166666666667,-5.498166666666667,-0.5257000000000001,-0.22366666666666657,-0.05125000000000002,0.378,66.876,-0.0743,-0.20625000000000002,0.9320000000000004,100.0,1.0,1.0,206.32,0.0,0.0,0.0,0.0,0.0,0.0,0.0,8745.2,0.0,16.0,5.0,240.72333333333333,0.0,0.0,0.0,0.0,0.0,0.0,0.0,0.0,0.3030000000000008,0.3030000000000008,0.0,0.0,0.0,55.0,616.79921,10000.0,85.000001,85.000001,85.000001,85.000001,395.0,0.0,0.0,0.0,1.0,333.33500000000004,54.153,54.153,49.010999999999996,49.010999999999996,34.0,-27.3575,19.456666666666667,-32.239999999999995,23.98,0.0,1783.397,0.3200000000000003,100.0,27.136,26.223,42.291,41.265,0.0,0.0,100.0,0.0,0.0,0.0,0.0,3049.0,2808.8,4169.444444444444,4083.7,305.52,305.904,314.58625,314.72275,21.8029,20.5149,21.8033,21.3415,314.999998,314.999998,324.999988,324.999988,99.55838571428572,99.50665,99.5653,99.54548571428572,-0.014333333333333309,-0.1326666666666667,-0.19016666666666665,0.031,-0.04833333333333201,-0.05285714285714249,1.5035,1.5455,37.268,29.2185,37.271,34.3845,55.94,34.243,58.993,51.696,53.870999999999995,33.446,57.619,50.064499999999995,53.039,33.0295,57.5745,49.49933333333333,-0.03500000000000003,-0.1060000000000001,0.10824500000000001,0.10998500000000001,0.0,209.49,209.405,206.32,206.32,0.0,0.0
7,0.0,0.0,0.0,1.0,1.0,0.0,0.0,1.0,0.0,0.0,1.0,1.1856,26.0,0.0,0.0,0.0,59.999996,0.0,26.0,26.0,26.0,26.0,-0.09588888888888891,0.2995000000000001,-0.024766666666666666,294.113,-2.6717,-2.7914,-1.5304,-1.6086,-252.15,215.5075,190.84875,0.0,0.0,0.0,0.0,0.01526666666666654,-5.498166666666667,-5.498166666666667,-0.5323,0.09899999999999998,-0.04475000000000007,1.2690000000000001,67.031,-0.0816,-0.21710000000000002,0.6859999999999999,100.0,1.0,1.0,206.9,0.0,0.0,0.0,0.0,0.0,0.0,0.0,8769.8,0.0,16.0,5.0,241.28333333333333,1.0,0.0,0.0,0.0,0.0,0.0,0.0,0.0,0.3569999999999993,0.3569999999999993,0.0,0.0,1.0,55.0,616.79921,10000.0,85.000001,85.000001,85.000001,85.000001,395.0,0.0,0.0,0.0,1.0,166.665,53.955,53.955,49.254999999999995,49.254999999999995,34.0,-25.482499999999998,21.21,-31.626666666666665,23.602,0.0,1783.344,-0.07000000000000028,100.0,27.343,26.271,42.293,41.197,0.0,0.0,100.0,0.0,0.0,0.0,0.0,3027.25,2885.8,4074.3333333333335,3925.5,305.526,305.66525,314.87925,315.109,21.8134,20.5203,21.8144,21.3509,314.999998,314.999998,324.999988,324.999988,99.55838571428572,99.50666666666666,99.56545714285714,99.54562857142857,0.020000000000000018,-0.10466666666666669,-0.18883333333333335,0.035166666666666666,-0.046666666666666856,-0.05142857142857338,1.557,1.571,37.334,29.252,37.34,34.4435,55.924,34.286,59.0355,51.7595,53.855999999999995,33.4855,57.659,50.125,53.022999999999996,33.067499999999995,57.6115,49.55866666666667,-0.07799999999999996,-0.06350000000000011,0.10193500000000001,0.11286500000000001,0.0,209.97,209.885,206.9,206.9,0.0,0.0
8,0.0,0.0,0.0,1.0,1.0,0.0,0.0,1.0,0.0,0.0,1.0,1.1856,26.0,0.0,0.0,0.0,59.999996,0.0,26.0,26.0,26.0,26.0,-0.07699999999999996,0.29500000000000015,-0.020466666666666668,294.144,-2.6994,-2.7239,-1.54315,-1.6001,-248.93,215.5025,190.82925,0.0,0.0,0.0,0.0,0.017166666666666552,-5.498166666666667,-5.498166666666667,-0.5355,-0.10966666666666658,-0.03437499999999982,0.30999999999999994,67.17,-0.0717,-0.219975,0.3020000000000014,100.0,1.0,1.0,207.31,0.0,0.0,0.0,0.0,0.0,0.0,0.0,8787.1,0.0,16.0,5.0,241.78333333333333,0.0,0.0,0.0,0.0,0.0,0.0,0.0,0.0,0.40500000000000114,0.40500000000000114,0.0,0.0,0.0,55.0,616.79921,10000.0,85.000001,85.000001,85.000001,85.000001,395.0,0.0,0.0,0.0,1.0,166.665,54.016,54.016,49.088,49.088,34.0,-24.5675,22.191666666666666,-30.126666666666665,24.404000000000003,0.0,1783.296,-0.17499999999999893,100.0,27.064,26.387999999999998,42.287,41.343,0.0,0.0,100.0,0.0,0.0,0.0,0.0,2953.625,2983.9,3978.8888888888887,3959.6000000000004,305.76233333333334,305.3665,315.11575,315.00925,21.822499999999998,20.5251,21.8242,21.3594,314.999998,314.999998,324.999988,324.999988,99.55838571428572,99.50668333333333,99.56558571428572,99.54577142857143,0.030666666666666842,-0.08666666666666667,-0.17416666666666666,0.0485,-0.030000000000001137,-0.0714285714285694,1.57,1.575,37.391,29.282,37.402,34.4965,55.908,34.324,59.073,51.817499999999995,53.841,33.5205,57.694,50.1805,53.007,33.101,57.6435,49.613,-0.08450000000000002,-0.05449999999999999,0.10872000000000001,0.10126500000000001,0.0,210.365,210.335,207.31,207.31,0.0,0.0
9,0.0,0.0,0.0,1.0,1.0,0.0,0.0,1.0,0.0,0.0,1.0,1.1856,26.0,0.0,0.0,0.0,59.999996,0.0,26.0,26.0,26.0,26.0,-0.05266666666666664,0.2874000000000001,0.013466666666666667,293.961,-2.6193,-2.7415000000000003,-1.5327000000000002,-1.5614,-245.7,215.4975,190.8095,0.0,0.0,0.0,0.0,0.019033333333333347,-5.498166666666667,-5.498166666666667,-0.5323,0.2406666666666668,-0.04637499999999983,0.773,67.309,-0.056,-0.21230000000000002,0.06600000000000072,100.0,1.0,1.0,207.71333333333334,0.0,0.0,0.0,0.0,0.0,0.0,0.0,8804.1,0.0,16.0,5.0,242.28,1.0,0.0,0.0,0.0,0.0,0.0,0.0,0.0,0.4529999999999994,0.4529999999999994,0.0,0.0,1.0,55.0,616.79921,10000.0,85.000001,85.000001,85.000001,85.000001,395.0,0.0,0.0,0.0,1.0,166.665,53.741,53.741,49.332,49.332,34.0,-24.759999999999998,22.73833333333333,-29.676666666666666,25.59,0.0,1783.248,-0.29999999999999893,100.0,27.252,26.375,42.206,41.32,0.0,0.0,100.0,0.0,0.0,0.0,0.0,3077.125,2985.8,4012.3333333333335,4074.0,305.3876666666667,305.37225,315.0615,314.77175,21.831699999999998,20.53,21.8341,21.3678,314.999998,314.999998,324.999988,324.999988,99.5584,99.50668333333333,99.56572857142856,99.5459,0.03766666666666696,-0.07699999999999996,-0.16,0.06583333333333333,-0.04333333333332945,-0.04714285714285893,1.551,1.5735000000000001,37.448,29.3125,37.463,34.549,55.894,34.361,59.1105,51.874,53.827,33.5545,57.729,50.235,52.992999999999995,33.1335,57.6755,49.666333333333334,-0.09299999999999997,-0.050000000000000044,0.11072000000000001,0.10411500000000001,0.0,210.78,210.775,207.71333333333334,207.71333333333334,0.0,0.0
10,0.0,0.0,0.0,1.0,1.0,0.0,0.0,1.0,0.0,0.0,1.0,1.1856,26.0,0.0,0.0,0.0,59.999996,0.0,26.0,26.0,26.0,26.0,-0.013777777777777778,0.29810000000000003,-0.005033333333333334,293.839,-2.6859,-2.709,-1.50135,-1.5433,-242.26,215.49,190.7885,0.0,0.0,0.0,0.0,0.02103333333333335,-5.498166666666667,-5.498166666666667,-0.5274,-0.2826666666666666,-0.02024999999999988,0.0020000000000000018,67.456,-0.038900000000000004,-0.21155000000000002,-0.009999999999999787,100.0,1.0,1.0,208.08333333333331,0.0,0.0,0.0,0.0,0.0,0.0,0.0,8819.9,0.0,16.0,5.0,242.81333333333333,0.0,0.0,0.0,0.0,0.0,0.0,1.0,0.0,0.5040000000000013,0.5040000000000013,0.0,0.0,0.0,55.0,616.79921,10000.0,85.000001,85.000001,85.000001,85.000001,395.0,0.0,0.0,0.0,1.0,166.665,54.016,54.016,48.95,48.95,34.0,-24.63,21.66166666666667,-29.816666666666663,26.810000000000002,0.0,1783.196,-0.3249999999999993,100.0,27.017,26.542,42.269999999999996,41.801,0.0,0.0,100.0,0.0,0.0,0.0,0.0,3046.25,2868.7,4100.555555555556,4155.9,305.66966666666667,305.57725,314.87125,314.47425,21.8414,20.5351,21.8445,21.3769,314.999998,314.999998,324.999988,324.999988,99.5584,99.5067,99.56587142857143,99.54604285714285,0.04266666666666685,-0.07600000000000007,-0.1545,0.0765,-0.06499999999999773,-0.044285714285713595,1.533,1.5314999999999999,37.509,29.344,37.528,34.6055,55.879000000000005,34.3995,59.1505,51.9365,53.813,33.5895,57.7665,50.295,52.977999999999994,33.167,57.71,49.724666666666664,-0.09650000000000003,-0.04200000000000004,0.09964500000000001,0.11459000000000001,0.0,211.24,211.22500000000002,208.08333333333331,208.08333333333331,0.0,0.0
11,0.0,0.0,0.0,1.0,1.0,0.0,0.0,1.0,0.0,0.0,1.0,1.1856,26.0,0.0,0.0,0.0,59.999996,0.0,26.0,26.0,26.0,26.0,-0.021888888888888847,0.28070000000000017,-0.03176666666666667,294.128,-2.6888,-2.7095000000000002,-1.5543,-1.5188000000000001,-238.82,215.48000000000002,190.767375,0.0,0.0,0.0,0.0,0.022599999999999953,-5.498166666666667,-5.498166666666667,-0.549,-0.21033333333333337,0.004874999999999963,0.774,67.6,-0.024900000000000002,-0.22365000000000002,-0.24600000000000044,100.0,1.0,1.0,208.64333333333332,0.0,0.0,0.0,0.0,0.0,0.0,0.0,8843.6,0.0,16.0,5.0,243.32999999999998,1.0,0.0,0.0,0.0,0.0,0.0,1.0,0.0,0.5549999999999997,0.5549999999999997,0.0,0.0,1.0,55.0,616.79921,10000.0,85.000001,85.000001,85.000001,85.000001,395.0,0.0,0.0,0.0,1.0,333.33500000000004,53.97,53.97,49.5,49.5,34.0,-23.3625,24.306666666666665,-26.77,26.43,0.0,1783.144,-0.379999999999999,100.0,26.899,26.433,42.046,41.730000000000004,0.0,0.0,100.0,0.0,0.0,0.0,0.0,2967.0,3067.5,3851.6666666666665,4041.5,305.737,305.126,315.4405,314.86025,21.851,20.5403,21.8549,21.3859,314.999998,314.999998,324.999988,324.999988,99.55841428571429,99.5067,99.56601428571429,99.54618571428571,0.061666666666666536,-0.04966666666666675,-0.12616666666666668,0.09933333333333333,-0.03499999999999659,-0.0628571428571405,1.5979999999999999,1.5775000000000001,37.569,29.3765,37.593,34.662,55.863,34.4375,59.1875,51.9975,53.798,33.625,57.8005,50.3535,52.962,33.201,57.7415,49.782333333333334,-0.09650000000000003,-0.038999999999999924,0.106395,0.105825,0.0,211.66,211.68,208.64333333333332,208.64333333333332,0.0,0.0
12,0.0,0.0,0.0,1.0,1.0,0.0,0.0,1.0,0.0,0.0,1.0,1.1856,26.0,0.0,0.0,0.0,59.999996,0.0,26.0,26.0,26.0,26.0,0.00022222222222212373,0.29710000000000014,0.010066666666666668,293.777,-2.7148,-2.7029,-1.534,-1.5383,-235.57,215.4725,190.746625,0.0,0.0,0.0,0.0,0.025466666666666526,-5.498166666666667,-5.498166666666667,-0.5392,0.42133333333333334,0.004249999999999865,0.738,67.737,-0.0091,-0.20367500000000002,-0.31599999999999984,100.0,1.0,1.0,208.98333333333335,0.0,0.0,0.0,0.0,0.0,0.0,0.0,8858.0,0.0,16.0,5.0,243.82333333333332,0.0,0.0,0.0,0.0,0.0,0.0,1.0,0.0,0.602999999999998,0.602999999999998,0.0,0.0,0.0,55.0,616.79921,10000.0,85.000001,85.000001,85.000001,85.000001,395.0,0.0,0.0,0.0,1.0,333.33500000000004,53.726,53.726,48.874,48.874,34.0,-22.875,24.923333333333332,-27.63,29.068,0.0,1783.096,0.3650000000000002,100.0,27.004,26.691,41.936,41.667,0.0,0.0,100.0,0.0,0.0,0.0,0.0,2964.5,3098.5,4068.6666666666665,4204.3,305.72833333333335,305.01,314.915,314.48725,21.8601,20.5453,21.8646,21.3943,314.999998,314.999998,324.999988,324.999988,99.55841428571429,99.50671666666666,99.56614285714285,99.54632857142857,0.07900000000000018,-0.04133333333333322,-0.10816666666666667,0.11566666666666667,-0.04833333333333201,-0.03714285714285381,1.5525,1.5234999999999999,37.626000000000005,29.408,37.653999999999996,34.7145,55.849999999999994,34.4745,59.223,52.0545,53.785,33.659,57.834,50.408500000000004,52.949,33.2335,57.772,49.836,-0.07850000000000001,-0.06150000000000011,0.10924,0.11338500000000001,0.0,212.12,212.115,208.98333333333335,208.98333333333335,0.0,0.0
13,0.0,0.0,0.0,1.0,1.0,0.0,0.0,1.0,0.0,0.0,1.0,1.1856,26.0,0.0,0.0,0.0,59.999996,0.0,26.0,26.0,26.0,26.0,0.03400000000000003,0.2892000000000001,0.015033333333333334,293.533,-2.6971,-2.7066,-1.5664500000000001,-1.5416,-232.11,215.465,190.724875,0.0,0.0,0.0,0.0,0.026933333333333365,-5.498166666666667,-5.498166666666667,-0.5366000000000001,-0.33066666666666666,0.003374999999999906,-0.3700000000000001,67.882,-0.0008,-0.21495,-0.36799999999999944,100.0,1.0,1.0,209.36333333333334,0.0,0.0,0.0,0.0,0.0,0.0,0.0,8874.1,0.0,16.0,5.0,244.34666666666666,1.0,0.0,0.0,0.0,0.0,0.0,1.0,0.0,0.6539999999999999,0.6539999999999999,0.0,0.0,1.0,55.0,616.79921,10000.0,85.000001,85.000001,85.000001,85.000001,395.0,0.0,0.0,0.0,1.0,166.665,53.619,53.619,48.737,48.737,34.0,-23.02,24.221666666666668,-28.523333333333333,29.168,0.0,1783.047,-0.379999999999999,100.0,27.025,26.974,42.150999999999996,42.233000000000004,0.0,0.0,100.0,0.0,0.0,0.0,0.0,3067.875,2962.7,4102.333333333333,4194.1,305.61266666666666,305.2615,314.86175,314.388,21.8697,20.5505,21.8752,21.4035,314.999998,314.999998,324.999988,324.999988,99.55842857142858,99.50671666666666,99.5663,99.54647142857142,0.08866666666666667,-0.03266666666666662,-0.11083333333333333,0.11466666666666668,-0.03333333333333144,-0.07285714285713851,1.5354999999999999,1.517,37.686,29.441,37.72,34.772,55.836,34.5125,59.2635,52.118,53.772,33.6945,57.8715,50.469,52.935,33.2675,57.8065,49.89566666666666,-0.11449999999999994,-0.02499999999999991,0.10775000000000001,0.108685,0.0,212.535,212.575,209.36333333333334,209.36333333333334,0.0,0.0
14,0.0,0.0,0.0,1.0,1.0,0.0,0.0,1.0,0.0,0.0,1.0,1.1856,26.0,0.0,0.0,0.0,59.999996,0.0,26.0,26.0,26.0,26.0,0.03055555555555567,0.27849999999999997,-0.0234,293.73199999999997,-2.7122,-2.7148,-1.5612,-1.5332,-228.65,215.45499999999998,190.70325,0.0,0.0,0.0,0.0,0.028933333333333366,-5.498166666666667,-5.498166666666667,-0.5494,0.010333333333333306,0.023125000000000062,0.91,68.024,0.0082,-0.22407500000000002,-0.4220000000000006,100.0,1.0,1.0,209.9,0.0,0.0,0.0,0.0,0.0,0.0,0.0,8896.9,0.0,16.0,5.0,244.85666666666668,0.0,0.0,0.0,0.0,0.0,0.0,1.0,0.0,0.7049999999999983,0.7049999999999983,0.0,0.0,0.0,55.0,616.79921,10000.0,85.000001,85.000001,85.000001,85.000001,395.0,0.0,0.0,0.0,1.0,333.33500000000004,53.589,53.589,49.103,49.103,34.0,-21.73,25.381666666666668,-25.763333333333335,29.016,0.0,1782.994,-0.41999999999999993,100.0,27.214,27.051000000000002,42.099000000000004,42.204,0.0,0.0,100.0,0.0,0.0,0.0,0.0,2916.625,3052.0,3900.5555555555557,4115.1,305.879,305.131,315.32425,314.683,21.8793,20.5559,21.8855,21.4125,314.999998,314.999998,324.999988,324.999988,99.55842857142858,99.50671666666666,99.56644285714286,99.54661428571428,0.09666666666666668,-0.022333333333333316,-0.092,0.1345,-0.04333333333332945,-0.054285714285711606,1.5715,1.5765,37.745000000000005,29.4745,37.785,34.8285,55.823,34.5515,59.3,52.1795,53.759,33.730000000000004,57.9055,50.5285,52.921,33.3015,57.8375,49.95333333333333,-0.10599999999999998,-0.03600000000000003,0.1063,0.10411000000000001,0.0,212.985,213.01,209.9,209.9,0.0,0.0
15,0.0,0.0,0.0,1.0,1.0,0.0,0.0,1.0,0.0,0.0,1.0,1.1856,26.0,0.0,0.0,0.0,59.999996,0.0,26.0,26.0,26.0,26.0,0.04499999999999993,0.2814000000000001,-0.03216666666666667,293.61,-2.7057,-2.6915,-1.51915,-1.5562,-225.18,215.45,190.68125,0.0,0.0,0.0,0.0,0.030966666666666587,-5.498166666666667,-5.498166666666667,-0.5406000000000001,0.15666666666666673,0.026375000000000037,-0.8800000000000001,68.168,0.013600000000000001,-0.20945,-0.2779999999999996,100.0,1.0,1.0,210.29000000000002,0.0,0.0,0.0,0.0,0.0,0.0,0.0,8913.4,0.0,16.0,5.0,245.37333333333333,1.0,0.0,0.0,0.0,0.0,0.0,1.0,0.0,0.7560000000000002,0.7560000000000002,0.0,0.0,1.0,55.0,616.79921,10000.0,85.000001,85.000001,85.000001,85.000001,395.0,0.0,0.0,0.0,1.0,166.665,53.696,53.696,48.737,48.737,34.0,-22.44,23.511666666666667,-27.066666666666663,29.024,0.0,1782.945,-0.33000000000000007,100.0,27.048000000000002,27.281,41.988,42.436,0.0,0.0,100.0,0.0,0.0,0.0,0.0,2983.0,2915.1,4125.333333333333,4065.9,305.8553333333333,305.38125,314.90375,314.69125,21.8888,20.5613,21.8959,21.421599999999998,314.999998,314.999998,324.999988,324.999988,99.55844285714285,99.50673333333333,99.56658571428571,99.54675714285715,0.08700000000000019,-0.03733333333333322,-0.09466666666666668,0.13116666666666665,-0.041666666666671404,-0.03857142857142293,1.549,1.5485,37.805,29.508,37.849000000000004,34.885,55.81,34.59,59.3375,52.2415,53.745999999999995,33.7655,57.94,50.588499999999996,52.907,33.335499999999996,57.8695,50.01233333333333,-0.09750000000000003,-0.04699999999999993,0.10013000000000001,0.11309000000000001,0.0,213.43,213.45499999999998,210.29000000000002,210.29000000000002,0.0,0.0
16,0.0,0.0,0.0,1.0,1.0,0.0,0.0,1.0,0.0,0.0,1.0,1.1856,26.0,0.0,0.0,0.0,59.999996,0.0,26.0,26.0,26.0,26.0,0.03400000000000003,0.2724,-0.014233333333333336,293.442,-2.6678,-2.6384,-1.56875,-1.5534,-221.9,215.4425,190.6605,0.0,0.0,0.0,0.0,0.0328666666666666,-5.498166666666667,-5.498166666666667,-0.5532,-0.2606666666666666,0.016750000000000043,-1.052,68.301,0.0146,-0.22475,-0.20199999999999996,100.0,1.0,1.0,210.72,0.0,0.0,0.0,0.0,0.0,0.0,0.0,8931.7,0.0,16.0,5.0,245.85333333333335,0.0,0.0,0.0,0.0,0.0,0.0,1.0,0.0,0.8039999999999985,0.8039999999999985,0.0,0.0,0.0,55.0,616.79921,10000.0,85.000001,85.000001,85.000001,85.000001,395.0,0.0,0.0,0.0,1.0,333.33500000000004,53.146,53.146,48.706,48.706,34.0,-23.395,25.165,-27.003333333333334,27.886,0.0,1782.896,-0.29999999999999893,100.0,26.989,27.364,42.211,42.503,0.0,0.0,100.0,0.0,0.0,0.0,0.0,3143.0,3103.1,4003.1111111111113,3971.4,305.359,304.83875,315.12575,314.94225,21.8977,20.5664,21.9058,21.4301,314.999998,314.999998,324.999988,324.999988,99.55845714285714,99.50673333333333,99.56671428571428,99.5469,0.08999999999999986,-0.02733333333333321,-0.098,0.125,-0.051666666666669414,-0.044285714285713595,1.5525,1.54,37.86,29.54,37.911,34.9385,55.796,34.6265,59.374,52.3,53.733000000000004,33.7995,57.974000000000004,50.644,52.893,33.368,57.9005,50.067,-0.09299999999999997,-0.046499999999999986,0.10581000000000002,0.101925,0.0,213.845,213.84,210.72,210.72,0.0,0.0
17,0.0,0.0,0.0,1.0,1.0,0.0,0.0,1.0,0.0,0.0,1.0,1.1856,26.0,0.0,0.0,0.0,59.999996,0.0,26.0,26.0,26.0,26.0,0.04422222222222216,0.27570000000000006,0.0256,293.274,-2.6323,-2.7281,-1.49405,-1.5764,-218.21,215.4375,190.63675,0.0,0.0,0.0,0.0,0.03499999999999992,-5.498166666666667,-5.498166666666667,-0.5477000000000001,0.08133333333333326,-0.00749999999999984,-0.964,68.451,0.014400000000000001,-0.215175,-0.13999999999999968,100.0,1.0,1.0,211.0966666666667,0.0,0.0,0.0,0.0,0.0,0.0,0.0,8947.7,0.0,16.0,5.0,246.39666666666665,1.0,0.0,0.0,0.0,0.0,0.0,1.0,0.0,0.8580000000000005,0.8580000000000005,0.0,0.0,1.0,55.0,616.79921,10000.0,85.000001,85.000001,85.000001,85.000001,395.0,0.0,0.0,0.0,1.0,166.665,53.406,53.406,48.34,48.34,34.0,-22.6375,23.505,-27.746666666666666,29.502000000000002,0.0,1782.842,-0.16499999999999915,100.0,27.241,27.423000000000002,42.271,42.565,0.0,0.0,100.0,0.0,0.0,0.0,0.0,3046.5,2915.2,4188.888888888889,4140.9,305.64,305.28925,314.6755,314.5075,21.9077,20.5721,21.9168,21.4397,314.999998,314.999998,324.999988,324.999988,99.55847142857142,99.50675,99.56688571428572,99.54704285714286,0.08099999999999996,-0.04833333333333312,-0.09983333333333333,0.12,-0.05666666666667197,-0.0357142857142847,1.5155,1.5205,37.923,29.575499999999998,37.980000000000004,34.9985,55.782,34.668,59.414500000000004,52.365,53.72,33.8375,58.012,50.707,52.879000000000005,33.4045,57.935,50.12833333333333,-0.08550000000000002,-0.06099999999999994,0.10873500000000001,0.10849,0.0,214.335,214.31,211.0966666666667,211.0966666666667,0.0,0.0
18,0.0,0.0,0.0,1.0,1.0,0.0,0.0,1.0,0.0,0.0,1.0,1.1856,26.0,0.0,0.0,0.0,59.999996,0.0,26.0,26.0,26.0,26.0,0.030999999999999917,0.2802,0.010566666666666667,293.259,-2.6527,-2.7519,-1.49095,-1.5817,-215.12,215.4325,190.616625,0.0,0.0,0.0,0.0,0.036799999999999944,-5.498166666666667,-5.498166666666667,-0.5598000000000001,-0.32099999999999995,0.002375000000000016,0.876,68.575,0.0086,-0.2257,-0.09999999999999964,100.0,1.0,1.0,211.49666666666667,0.0,0.0,0.0,0.0,0.0,0.0,0.0,8964.6,0.0,16.0,5.0,246.84333333333336,0.0,0.0,0.0,0.0,0.0,0.0,1.0,0.0,0.9029999999999987,0.9029999999999987,0.0,0.0,0.0,55.0,616.79921,10000.0,85.000001,85.000001,85.000001,85.000001,395.0,0.0,0.0,0.0,1.0,166.665,53.223,53.223,48.584,48.584,34.0,-22.22,25.458333333333336,-26.236666666666665,29.882,0.0,1782.797,-0.1850000000000005,100.0,27.391,27.23,42.47,42.569,0.0,0.0,100.0,0.0,0.0,0.0,0.0,2992.25,3095.8,3970.777777777778,4158.6,305.6476666666667,304.93125,315.096,314.486,21.916,20.5768,21.926099999999998,21.4478,314.999998,314.999998,324.999988,324.999988,99.55848571428571,99.50675,99.567,99.54718571428572,0.08833333333333337,-0.040999999999999925,-0.10266666666666667,0.12316666666666667,-0.026666666666670835,-0.04571428571428271,1.5205,1.521,37.974999999999994,29.605,38.038,35.0485,55.769,34.702,59.448,52.4195,53.708,33.869,58.043,50.7595,52.866,33.4345,57.963499999999996,50.18,-0.08599999999999997,-0.06099999999999994,0.11236000000000002,0.10414000000000001,0.0,214.67000000000002,214.685,211.49666666666667,211.49666666666667,0.0,0.0
19,0.0,0.0,0.0,1.0,1.0,0.0,0.0,1.0,0.0,0.0,1.0,1.1856,26.0,0.0,0.0,0.0,59.999996,0.0,26.0,26.0,26.0,26.0,0.024222222222222145,0.276,-0.010666666666666668,293.182,-2.6823,-2.7208,-1.5163,-1.6,-211.42000000000002,215.4275,190.5925,0.0,0.0,0.0,0.0,0.038966666666666594,-5.498166666666667,-5.498166666666667,-0.5462,0.4833333333333334,0.01012499999999994,0.843,68.723,0.0032,-0.20925000000000002,-0.06399999999999917,100.0,1.0,1.0,211.97,0.0,0.0,0.0,0.0,0.0,0.0,0.0,8984.6,0.0,16.0,5.0,247.37333333333333,1.0,0.0,0.0,0.0,0.0,0.0,1.0,0.0,0.9570000000000007,0.9570000000000007,0.0,0.0,1.0,55.0,616.79921,10000.0,85.000001,85.000001,85.000001,85.000001,395.0,0.0,0.0,0.0,1.0,166.665,53.146,53.146,48.615,48.615,34.0,-22.28,24.041666666666668,-26.8,29.752000000000002,0.0,1782.744,-0.1349999999999998,100.0,27.787,27.499,42.368,42.637,0.0,0.0,100.0,0.0,0.0,0.0,0.0,2953.25,3011.7,4046.6666666666665,4124.9,305.7746666666667,305.2565,314.964,314.614,21.9262,20.5826,21.9371,21.4574,314.999998,314.999998,324.999988,324.999988,99.55848571428571,99.50675,99.56715714285714,99.54734285714285,0.0853333333333337,-0.04833333333333312,-0.09683333333333333,0.12233333333333334,-0.041666666666671404,-0.060000000000002274,1.528,1.5165,38.039,29.6415,38.107,35.109,55.756,34.7445,59.4865,52.4845,53.695,33.908,58.079,50.822,52.852000000000004,33.472,57.9965,50.24133333333333,-0.08799999999999997,-0.06299999999999994,0.10129,0.104355,0.0,215.18,215.18,211.97,211.97,0.0,0.0
20,0.0,0.0,0.0,1.0,1.0,0.0,0.0,1.0,0.0,0.0,1.0,1.1856,26.0,0.0,0.0,0.0,59.999996,0.0,26.0,26.0,26.0,26.0,-0.0022222222222221255,0.26660000000000017,-0.04826666666666667,293.198,-2.7214,-2.6629,-1.5505499999999999,-1.5868,-208.12,215.425,190.57125,0.0,0.0,0.0,0.0,0.04086666666666661,-5.498166666666667,-5.498166666666667,-0.5577,-0.7123333333333333,0.008249999999999869,0.516,68.854,0.0018000000000000002,-0.2272,-0.04600000000000026,100.0,1.0,1.0,212.37333333333333,0.0,0.0,0.0,0.0,0.0,0.0,0.0,9001.8,0.0,16.0,5.0,247.84666666666666,0.0,0.0,0.0,0.0,0.0,0.0,0.0,0.0,1.004999999999999,1.004999999999999,0.0,0.0,0.0,55.0,616.79921,10000.0,85.000001,85.000001,85.000001,85.000001,395.0,0.0,0.0,0.0,1.0,333.33500000000004,53.253,53.253,48.203,48.203,34.0,-22.7825,24.608333333333334,-27.08,27.984,0.0,1782.695,-0.14000000000000057,100.0,27.458,27.314,42.893,42.956,0.0,0.0,100.0,0.0,0.0,0.0,0.0,2970.625,3101.5,3988.4444444444443,3993.8,305.7676666666667,305.0355,315.093,314.94075,21.935,20.587699999999998,21.9471,21.4661,314.999998,314.999998,324.999988,324.999988,99.5585,99.50676666666666,99.56728571428572,99.54747142857143,0.08400000000000007,-0.04066666666666663,-0.10366666666666667,0.11566666666666667,-0.026666666666670835,-0.05714285714285694,1.5434999999999999,1.546,38.094,29.673000000000002,38.169,35.163,55.742000000000004,34.781,59.524,52.5435,53.682,33.942,58.114,50.8785,52.838,33.5045,58.0285,50.29666666666667,-0.08450000000000002,-0.05950000000000011,0.106065,0.10801500000000001,0.0,215.54000000000002,215.54000000000002,212.37333333333333,212.37333333333333,0.0,0.0
21,0.0,0.0,0.0,1.0,1.0,0.0,0.0,1.0,0.0,0.0,1.0,1.1856,26.0,0.0,0.0,0.0,59.999996,0.0,26.0,26.0,26.0,26.0,-0.01100000000000001,0.2844,-0.03646666666666667,293.167,-2.7183,-2.677,-1.55565,-1.5295,-204.81,215.42000000000002,190.54925,0.0,0.0,0.0,0.0,0.04279999999999995,-5.498166666666667,-5.498166666666667,-0.5711,0.15133333333333332,-0.002874999999999961,0.635,68.983,0.0002,-0.21987500000000001,-0.04600000000000026,100.0,1.0,1.0,212.81666666666666,0.0,0.0,0.0,0.0,0.0,0.0,0.0,9020.5,0.0,16.0,5.0,248.31333333333333,1.0,0.0,0.0,0.0,0.0,0.0,0.0,0.0,1.0530000000000008,1.0530000000000008,0.0,0.0,1.0,55.0,616.79921,10000.0,85.000001,85.000001,85.000001,85.000001,395.0,0.0,0.0,0.0,1.0,333.33500000000004,52.963,52.963,48.553,48.553,34.0,-23.9675,25.015,-27.41,27.428,0.0,1782.647,-0.1999999999999993,100.0,27.573999999999998,27.28,42.582,42.628,0.0,0.0,100.0,0.0,0.0,0.0,0.0,3089.875,3161.4,4010.8888888888887,4056.3,305.40833333333336,304.85875,315.099,314.87,21.9439,20.5928,21.9568,21.4746,314.999998,314.999998,324.999988,324.999988,99.55851428571428,99.50676666666666,99.56742857142856,99.54761428571429,0.08066666666666666,-0.04699999999999993,-0.1095,0.1135,-0.05666666666667197,-0.0628571428571405,1.5785,1.576,38.149,29.705,38.230000000000004,35.216,55.729,34.817499999999995,59.558,52.5985,53.669,33.976,58.1455,50.932,52.825,33.537,58.057,50.34866666666667,-0.08699999999999997,-0.06099999999999994,0.11332500000000001,0.10513000000000002,0.0,215.97,215.965,212.81666666666666,212.81666666666666,0.0,0.0
22,0.0,0.0,0.0,1.0,1.0,0.0,0.0,1.0,0.0,0.0,1.0,1.1856,26.0,0.0,0.0,0.0,59.999996,0.0,26.0,26.0,26.0,26.0,0.004888888888888943,0.28100000000000014,0.037200000000000004,292.648,-2.7644,-2.6383,-1.56535,-1.5234,-201.28,215.41750000000002,190.525375,0.0,0.0,0.0,0.0,0.04483333333333339,-5.498166666666667,-5.498166666666667,-0.5566,-0.05033333333333334,0.003874999999999851,-0.702,69.124,0.0005,-0.20315,-0.05200000000000049,100.0,1.0,1.0,213.07999999999998,0.0,0.0,0.0,0.0,0.0,0.0,0.0,9031.6,0.0,16.0,5.0,248.81666666666666,0.0,0.0,0.0,0.0,0.0,0.0,0.0,0.0,1.1039999999999992,1.1039999999999992,0.0,0.0,0.0,55.0,616.79921,10000.0,85.000001,85.000001,85.000001,85.000001,395.0,0.0,0.0,0.0,1.0,166.665,52.933,52.933,47.699,47.699,34.0,-25.2525,23.725,-31.023333333333333,29.074,0.0,1782.597,-0.2400000000000002,100.0,27.481,27.547,42.741,42.953,0.0,0.0,100.0,0.0,0.0,0.0,0.0,3192.25,3054.6,4316.777777777777,4289.1,305.3383333333333,305.018,314.43725,314.16325,21.9533,20.5982,21.9674,21.4838,314.999998,314.999998,324.999988,324.999988,99.55851428571428,99.50678333333333,99.56758571428571,99.54775714285714,0.07600000000000007,-0.05133333333333323,-0.1205,0.099,-0.04999999999999716,-0.05142857142857338,1.4849999999999999,1.4795,38.208,29.738999999999997,38.296,35.2735,55.716,34.857,59.597,52.661,53.657,34.0125,58.182,50.9915,52.811,33.572,58.0905,50.407333333333334,-0.09350000000000003,-0.0535000000000001,0.11286000000000002,0.09829,0.0,216.4,216.39,213.07999999999998,213.07999999999998,0.0,0.0
23,0.0,0.0,0.0,1.0,1.0,0.0,0.0,1.0,0.0,0.0,1.0,1.1856,26.0,0.0,0.0,0.0,59.999996,0.0,26.0,26.0,26.0,26.0,-0.0014444444444444704,0.2743,0.011833333333333333,292.694,-2.6607,-2.6995,-1.6298,-1.5032999999999999,-197.76,215.4125,190.501625,0.0,0.0,0.0,0.0,0.04689999999999994,-5.498166666666667,-5.498166666666667,-0.5721,-0.2696666666666666,0.0044999999999999485,0.899,69.26,0.0039000000000000003,-0.22625,-0.1639999999999997,100.0,1.0,1.0,213.55,0.0,0.0,0.0,0.0,0.0,0.0,0.0,9051.6,0.0,16.0,5.0,249.31,1.0,0.0,0.0,0.0,0.0,0.0,0.0,0.0,1.1550000000000011,1.1550000000000011,0.0,0.0,1.0,55.0,616.79921,10000.0,85.000001,85.000001,85.000001,85.000001,395.0,0.0,0.0,0.0,1.0,333.33500000000004,52.872,52.872,47.897,47.897,34.0,-22.78,24.696666666666665,-29.373333333333335,29.26,0.0,1782.547,-0.25,100.0,27.892,27.512,43.022999999999996,43.022,0.0,0.0,100.0,0.0,0.0,0.0,0.0,3046.0,3084.9,4207.666666666667,4212.3,305.46933333333334,305.0415,314.64125,314.489,21.9628,20.6037,21.977899999999998,21.493,314.999998,314.999998,324.999988,324.999988,99.55852857142857,99.50678333333333,99.56772857142857,99.54791428571428,0.08899999999999997,-0.044333333333333114,-0.09166666666666667,0.12583333333333332,-0.03999999999999915,-0.04714285714285893,1.526,1.514,38.266999999999996,29.7735,38.361999999999995,35.331,55.702,34.897,59.6355,52.7225,53.644,34.049,58.2175,51.051,52.798,33.607,58.123,50.465333333333334,-0.09550000000000003,-0.06099999999999994,0.100735,0.10966000000000001,0.0,216.8,216.81,213.55,213.55,0.0,0.0
24,0.0,0.0,0.0,1.0,1.0,0.0,0.0,1.0,0.0,0.0,1.0,1.1856,26.0,0.0,0.0,0.0,59.999996,0.0,26.0,26.0,26.0,26.0,0.021222222222222253,0.26690000000000014,-0.0543,293.167,-2.7168,-2.6976,-1.54275,-1.5538,-194.43,215.41,190.47875,0.0,0.0,0.0,0.0,0.048833333333333395,-5.498166666666667,-5.498166666666667,-0.5863,-0.46166666666666667,0.018124999999999947,1.156,69.388,0.0001,-0.22130000000000002,-0.10999999999999943,100.0,1.0,1.0,213.99666666666667,0.0,0.0,0.0,0.0,0.0,0.0,0.0,9070.5,0.0,16.0,5.0,249.76999999999998,0.0,0.0,0.0,0.0,0.0,0.0,0.0,0.0,1.2029999999999994,1.2029999999999994,0.0,0.0,0.0,55.0,616.79921,10000.0,85.000001,85.000001,85.000001,85.000001,395.0,0.0,0.0,0.0,1.0,166.665,53.452,53.452,48.248,48.248,34.0,-21.905,24.548333333333332,-27.073333333333334,29.272000000000002,0.0,1782.498,-0.3149999999999995,100.0,27.535,27.268,42.877,42.931,0.0,0.0,100.0,0.0,0.0,0.0,0.0,2919.125,3046.4,4001.4444444444443,4115.1,305.94933333333336,305.20225,315.06225,314.6955,21.9715,20.6088,21.9877,21.5016,314.999998,314.999998,324.999988,324.999988,99.55854285714285,99.50678333333333,99.56785714285714,99.54805714285715,0.09299999999999997,-0.03733333333333322,-0.10200000000000001,0.1295,-0.046666666666666856,-0.05142857142857338,1.533,1.5405,38.322,29.805,38.423,35.385,55.689,34.9325,59.669,52.778999999999996,53.631,34.082,58.2495,51.1055,52.784,33.6385,58.1515,50.51866666666667,-0.10399999999999998,-0.05249999999999999,0.10458500000000001,0.11571500000000001,0.0,217.21,217.20499999999998,213.99666666666667,213.99666666666667,0.0,0.0
25,0.0,0.0,0.0,1.0,1.0,0.0,0.0,1.0,0.0,0.0,1.0,1.1856,26.0,0.0,0.0,0.0,59.999996,0.0,26.0,26.0,26.0,26.0,0.027444444444444382,0.276,-0.005533333333333334,292.74,-2.6893,-2.6675,-1.5822,-1.5479,-190.89,215.4075,190.453125,0.0,0.0,0.0,0.0,0.050899999999999945,-5.498166666666667,-5.498166666666667,-0.5975,0.33233333333333337,0.017249999999999988,-1.105,69.524,0.0014,-0.21555000000000002,-0.16199999999999992,100.0,1.0,1.0,214.43,0.0,0.0,0.0,0.0,0.0,0.0,0.0,9088.9,0.0,16.0,5.0,250.25666666666666,1.0,0.0,0.0,0.0,0.0,0.0,0.0,0.0,1.2540000000000013,1.2540000000000013,0.0,0.0,1.0,55.0,616.79921,10000.0,85.000001,85.000001,85.000001,85.000001,395.0,0.0,0.0,0.0,1.0,166.665,52.475,52.475,48.203,48.203,34.0,-24.575,25.299999999999997,-28.689999999999998,28.42,0.0,1782.447,-0.34500000000000064,100.0,27.564,27.803,42.574,42.868,0.0,0.0,100.0,0.0,0.0,0.0,0.0,3237.125,3161.3,4101.777777777777,4084.8,305.1326666666667,304.583,314.97675,314.71775,21.9809,20.6143,21.998,21.5107,314.999998,314.999998,324.999988,324.999988,99.55855714285714,99.5068,99.56801428571428,99.5482,0.08666666666666645,-0.046333333333333115,-0.112,0.11833333333333333,-0.06499999999999773,-0.04571428571428271,1.5445,1.5465,38.381,29.8395,38.488,35.4415,55.675,34.9725,59.705,52.839,53.617999999999995,34.119,58.2825,51.163,52.769999999999996,33.674,58.1815,50.575,-0.10150000000000003,-0.0515000000000001,0.104745,0.10824,0.0,217.635,217.635,214.43,214.43,0.0,0.0
26,0.0,0.0,0.0,1.0,1.0,0.0,0.0,1.0,0.0,0.0,1.0,1.1856,26.0,0.0,0.0,0.0,59.999996,0.0,26.0,26.0,26.0,26.0,0.027444444444444382,0.26839999999999997,0.04973333333333333,292.084,-2.7156000000000002,-2.6635,-1.5465499999999999,-1.5547,-187.13,215.405,190.426,0.0,0.0,0.0,0.0,0.053066666666666595,-5.498166666666667,-5.498166666666667,-0.5713,-0.06966666666666665,0.005249999999999977,-0.571,69.669,0.0059,-0.20635,-0.16999999999999993,100.0,1.0,1.0,214.69,0.0,0.0,0.0,0.0,0.0,0.0,0.0,9100.0,0.0,16.0,5.0,250.78333333333336,0.0,0.0,0.0,0.0,0.0,0.0,0.0,0.0,1.3079999999999998,1.3079999999999998,0.0,0.0,0.0,55.0,616.79921,10000.0,85.000001,85.000001,85.000001,85.000001,395.0,0.0,0.0,0.0,1.0,166.665,52.46,52.46,47.028,47.028,34.0,-23.515,24.25333333333333,-30.553333333333335,30.692,0.0,1782.393,-0.3349999999999991,100.0,28.105,28.092,43.238,43.493,0.0,0.0,100.0,0.0,0.0,0.0,0.0,3092.75,3058.1,4375.333333333333,4293.7,305.52133333333336,305.0,314.2545,314.148,21.991,20.6203,22.0093,21.5205,314.999998,314.999998,324.999988,324.999988,99.55857142857143,99.5068,99.56817142857143,99.54835714285714,0.08833333333333337,-0.045333333333333226,-0.10350000000000001,0.11666666666666667,-0.046666666666666856,-0.03857142857142293,1.451,1.451,38.444,29.8765,38.558,35.5035,55.663,35.015,59.7475,52.9055,53.605999999999995,34.158500000000004,58.322,51.2275,52.757,33.712,58.218,50.638,-0.10350000000000004,-0.05249999999999999,0.10638500000000001,0.11312000000000001,0.0,218.085,218.085,214.69,214.69,0.0,0.0
27,0.0,0.0,0.0,1.0,1.0,0.0,0.0,1.0,0.0,0.0,1.0,1.1856,26.0,0.0,0.0,0.0,59.999996,0.0,26.0,26.0,26.0,26.0,0.0043333333333333,0.2558,-0.06066666666666667,292.542,-2.7579,-2.68,-1.6053000000000002,-1.5326,-183.99,215.4025,190.40425,0.0,0.0,0.0,0.0,0.05489999999999995,-5.498166666666667,-5.498166666666667,-0.6007,-0.7033333333333334,0.017249999999999988,0.665,69.786,0.0083,-0.24005,-0.26200000000000045,100.0,1.0,1.0,215.21,0.0,0.0,0.0,0.0,0.0,0.0,0.0,9122.0,0.0,16.0,5.0,251.20333333333335,1.0,0.0,0.0,0.0,0.0,0.0,0.0,0.0,1.352999999999998,1.352999999999998,0.0,0.0,1.0,55.0,616.79921,10000.0,85.000001,85.000001,85.000001,85.000001,395.0,0.0,0.0,0.0,1.0,333.33500000000004,52.551,52.551,47.852000000000004,47.852000000000004,34.0,-23.4075,25.736666666666665,-26.413333333333334,28.986,0.0,1782.347,-0.35999999999999943,100.0,27.941,27.887999999999998,43.463,43.5,0.0,0.0,100.0,0.0,0.0,0.0,0.0,3072.875,3184.8,3892.3333333333335,4112.4,305.543,304.781,315.31375,314.732,21.9992,20.6252,22.0185,21.5287,314.999998,314.999998,324.999988,324.999988,99.55857142857143,99.5068,99.5683,99.54848571428572,0.09699999999999998,-0.03633333333333311,-0.091,0.13,-0.03333333333333144,-0.054285714285711606,1.554,1.5335,38.495000000000005,29.907,38.616,35.5545,55.650999999999996,35.05,59.7805,52.9595,53.595,34.1905,58.353,51.278999999999996,52.745000000000005,33.7425,58.246,50.68866666666666,-0.10749999999999993,-0.0515000000000001,0.10399000000000001,0.11095500000000001,0.0,218.41500000000002,218.425,215.21,215.21,0.0,0.0
28,0.0,0.0,0.0,1.0,1.0,0.0,0.0,1.0,0.0,0.0,1.0,1.1856,26.0,0.0,0.0,0.0,59.999996,0.0,26.0,26.0,26.0,26.0,0.03777777777777791,0.2781,-0.0304,292.526,-2.724,-2.6866,-1.5598,-1.5655000000000001,-180.43,215.4,190.378375,0.0,0.0,0.0,0.0,0.05696666666666661,-5.498166666666667,-5.498166666666667,-0.5954,0.4766666666666668,-0.0017499999999999183,-1.0350000000000001,69.919,0.01,-0.2078,-0.25399999999999956,100.0,1.0,1.0,215.5966666666667,0.0,0.0,0.0,0.0,0.0,0.0,0.0,9138.4,0.0,16.0,5.0,251.68,0.0,0.0,0.0,0.0,0.0,0.0,0.0,0.0,1.404,1.404,0.0,0.0,0.0,55.0,616.79921,10000.0,85.000001,85.000001,85.000001,85.000001,395.0,0.0,0.0,0.0,1.0,333.33500000000004,52.826,52.826,47.455,47.455,34.0,-23.115,24.08,-29.33,29.944000000000003,0.0,1782.295,-0.375,100.0,27.857,28.032,42.998000000000005,43.263,0.0,0.0,100.0,0.0,0.0,0.0,0.0,3062.75,2984.5,4253.0,4150.3,305.68833333333333,305.12425,314.588,314.6025,22.008499999999998,20.6308,22.0288,21.5378,314.999998,314.999998,324.999988,324.999988,99.5586,99.50681666666667,99.56845714285714,99.54864285714285,0.09166666666666634,-0.040999999999999925,-0.10383333333333333,0.13116666666666665,-0.03499999999999659,-0.03857142857142293,1.5345,1.521,38.553,29.942,38.68,35.6115,55.638999999999996,35.09,59.8155,53.019,53.583,34.2275,58.3855,51.336,52.732,33.778,58.2755,50.74433333333333,-0.10449999999999993,-0.0495000000000001,0.11238500000000001,0.10783500000000001,0.0,218.85500000000002,218.85000000000002,215.5966666666667,215.5966666666667,0.0,0.0
29,0.0,0.0,0.0,1.0,1.0,0.0,0.0,1.0,0.0,0.0,1.0,1.1856,26.0,0.0,0.0,0.0,59.999996,0.0,26.0,26.0,26.0,26.0,0.01855555555555566,0.26080000000000014,0.014133333333333335,292.236,-2.7506,-2.5983,-1.5925,-1.5671,-176.86,215.4,190.35175,0.0,0.0,0.0,0.0,0.05903333333333338,-5.498166666666667,-5.498166666666667,-0.6089,-0.628,-0.0030000000000001137,0.715,70.054,0.0148,-0.220775,-0.32399999999999984,100.0,1.0,1.0,215.95,0.0,0.0,0.0,0.0,0.0,0.0,0.0,9153.4,0.0,16.0,5.0,252.16666666666666,1.0,0.0,0.0,0.0,0.0,0.0,0.0,0.0,1.4549999999999983,1.4549999999999983,0.0,0.0,1.0,55.0,616.79921,10000.0,85.000001,85.000001,85.000001,85.000001,395.0,0.0,0.0,0.0,1.0,333.33500000000004,52.246,52.246,47.638,47.638,34.0,-24.515,26.310000000000002,-27.476666666666663,30.266,0.0,1782.244,-0.41999999999999993,100.0,27.9,27.733,43.4,43.453,0.0,0.0,100.0,0.0,0.0,0.0,0.0,3250.125,3312.5,4081.6666666666665,4186.1,305.084,304.51925,314.917,314.5055,22.0178,20.6363,22.0394,21.5471,314.999998,314.999998,324.999988,324.999988,99.5586,99.50681666666667,99.5686,99.54878571428571,0.10433333333333339,-0.02966666666666673,-0.08383333333333333,0.12966666666666665,-0.045000000000001705,-0.054285714285711606,1.526,1.509,38.611000000000004,29.9765,38.745999999999995,35.6695,55.625,35.128,59.854,53.081,53.57,34.263,58.4215,51.3955,52.718,33.812,58.3085,50.80233333333334,-0.11399999999999999,-0.0515000000000001,0.10136,0.10254500000000001,0.0,219.235,219.255,215.95,215.95,0.0,0.0
30,0.0,0.0,0.0,1.0,1.0,0.0,0.0,1.0,0.0,0.0,1.0,1.1856,26.0,0.0,0.0,0.0,59.999996,0.0,26.0,26.0,26.0,26.0,0.017111111111111077,0.2932000000000001,0.04026666666666667,291.58,-2.7314,-2.6539,-1.6367,-1.4623,-173.49,215.4,190.326625,0.0,0.0,0.0,0.0,0.06099999999999994,-5.498166666666667,-5.498166666666667,-0.5968,0.8660000000000001,0.006000000000000005,1.056,70.178,0.0193,-0.21327500000000002,-0.4579999999999993,100.0,1.0,1.0,216.29333333333335,0.0,0.0,0.0,0.0,0.0,0.0,0.0,9167.9,0.0,16.0,5.0,252.61333333333334,0.0,0.0,0.0,0.0,0.0,0.0,1.0,0.0,1.5030000000000001,1.5030000000000001,0.0,0.0,0.0,55.0,616.79921,10000.0,85.000001,85.000001,85.000001,85.000001,395.0,0.0,0.0,0.0,1.0,333.33500000000004,51.666,51.666,46.951,46.951,34.0,-22.912499999999998,25.96333333333333,-30.713333333333335,31.71,0.0,1782.197,-0.39000000000000057,100.0,28.787,28.557000000000002,43.341,43.519,0.0,0.0,100.0,0.0,0.0,0.0,0.0,3108.125,3203.8,4386.666666666667,4479.7,305.27633333333335,304.5895,314.312,313.96125,22.0268,20.6417,22.0492,21.5558,314.999998,314.999998,324.999988,324.999988,99.55861428571428,99.50681666666667,99.56874285714285,99.54892857142858,0.11500000000000021,-0.03400000000000003,-0.08650000000000001,0.14033333333333334,-0.03833333333332689,-0.0628571428571405,1.5015,1.492,38.667,30.011,38.807,35.724000000000004,55.617000000000004,35.167500000000004,59.888,53.138,53.562,34.299,58.453,51.451,52.709,33.8465,58.337,50.85633333333333,-0.11749999999999994,-0.05449999999999999,0.10855000000000001,0.10708000000000001,0.0,219.66,219.69,216.29333333333335,216.29333333333335,0.0,0.0
31,0.0,0.0,0.0,1.0,1.0,0.0,0.0,1.0,0.0,0.0,1.0,1.1856,26.0,0.0,0.0,0.0,59.999996,0.0,26.0,26.0,26.0,26.0,0.05233333333333334,0.2623,0.022266666666666667,291.641,-2.7111,-2.7004,-1.63945,-1.5390000000000001,-169.91,215.4025,190.30075,0.0,0.0,0.0,0.0,0.06309999999999993,-5.498166666666667,-5.498166666666667,-0.5893,-0.3856666666666666,0.011624999999999996,-0.9359999999999999,70.31,0.0188,-0.225575,-0.33399999999999963,100.0,1.0,1.0,216.69333333333333,0.0,0.0,0.0,0.0,0.0,0.0,0.0,9184.9,0.0,16.0,5.0,253.09333333333336,1.0,0.0,0.0,0.0,0.0,0.0,1.0,0.0,1.5539999999999985,1.5539999999999985,0.0,0.0,1.0,55.0,616.79921,10000.0,85.000001,85.000001,85.000001,85.000001,395.0,0.0,0.0,0.0,1.0,333.33500000000004,51.879999999999995,51.879999999999995,46.494,46.494,34.0,-22.5525,26.005,-28.963333333333335,30.636,0.0,1782.145,-0.4399999999999995,100.0,28.308,28.826,43.881,44.323,0.0,0.0,100.0,0.0,0.0,0.0,0.0,3071.0,3149.9,4166.222222222223,4216.9,305.605,304.5675,314.75025,314.428,22.036,20.6474,22.0598,21.5653,314.999998,314.999998,324.999988,324.999988,99.55862857142857,99.50683333333333,99.5689,99.54908571428571,0.10566666666666658,-0.036666666666666625,-0.08466666666666667,0.1355,-0.045000000000001705,-0.05142857142857338,1.4975,1.4735,38.724999999999994,30.0465,38.873999999999995,35.783,55.605000000000004,35.208,59.9275,53.202,53.55,34.3365,58.49,51.512,52.696,33.8825,58.3705,50.916333333333334,-0.11149999999999993,-0.04899999999999993,0.10221000000000001,0.10537,0.0,220.055,220.04500000000002,216.69333333333333,216.69333333333333,0.0,0.0
32,0.0,0.0,0.0,1.0,1.0,0.0,0.0,1.0,0.0,0.0,1.0,1.1856,26.0,0.0,0.0,0.0,59.999996,0.0,26.0,26.0,26.0,26.0,0.04555555555555557,0.2470000000000001,-0.07640000000000001,292.221,-2.759,-2.6628,-1.6551,-1.6212,-166.32,215.4025,190.275,0.0,0.0,0.0,0.0,0.0651666666666666,-5.498166666666667,-5.498166666666667,-0.6066,-0.20266666666666666,-0.01175000000000015,0.16700000000000004,70.44,0.019100000000000002,-0.2273,-0.3279999999999994,100.0,1.0,1.0,217.20666666666668,0.0,0.0,0.0,0.0,0.0,0.0,0.0,9206.5,0.0,16.0,5.0,253.55666666666667,0.0,0.0,0.0,0.0,0.0,0.0,1.0,0.0,1.6050000000000004,1.6050000000000004,0.0,0.0,0.0,55.0,616.79921,10000.0,85.000001,85.000001,85.000001,85.000001,395.0,0.0,0.0,0.0,1.0,333.33500000000004,52.382999999999996,52.382999999999996,47.638,47.638,34.0,-22.3425,25.525,-27.423333333333336,30.776,0.0,1782.095,-0.4399999999999995,100.0,28.299,28.311,43.669,44.028999999999996,0.0,0.0,100.0,0.0,0.0,0.0,0.0,3046.0,3100.3,3987.1111111111113,4080.3,305.641,305.0465,315.28775,314.756,22.0453,20.6531,22.0701,21.5745,314.999998,314.999998,324.999988,324.999988,99.55864285714286,99.50683333333333,99.56904285714286,99.54922857142857,0.11699999999999999,-0.018999999999999906,-0.08750000000000001,0.14516666666666667,-0.01999999999999602,-0.07428571428571473,1.5545,1.535,38.783,30.082,38.938,35.8405,55.593,35.2475,59.9625,53.262,53.539,34.373,58.5225,51.57,52.683,33.917500000000004,58.3995,50.97233333333333,-0.11549999999999994,-0.046499999999999986,0.10530500000000001,0.10926000000000001,0.0,220.43,220.485,217.20666666666668,217.20666666666668,0.0,0.0
33,0.0,0.0,0.0,1.0,1.0,0.0,0.0,1.0,0.0,0.0,1.0,1.1856,26.0,0.0,0.0,0.0,59.999996,0.0,26.0,26.0,26.0,26.0,0.05011111111111122,0.2663,-0.03453333333333333,292.114,-2.7236,-2.6529,-1.6508500000000002,-1.5402,-162.72,215.4075,190.24775,0.0,0.0,0.0,0.0,0.06726666666666659,-5.498166666666667,-5.498166666666667,-0.6158,-0.253,-0.004249999999999865,-0.18100000000000005,70.571,0.0224,-0.2124,-0.3520000000000003,100.0,1.0,1.0,217.54000000000002,0.0,0.0,0.0,0.0,0.0,0.0,0.0,9220.7,0.0,16.0,5.0,254.03,1.0,0.0,0.0,0.0,0.0,0.0,1.0,0.0,1.6559999999999988,1.6559999999999988,0.0,0.0,1.0,55.0,616.79921,10000.0,85.000001,85.000001,85.000001,85.000001,395.0,0.0,0.0,0.0,1.0,166.665,52.536,52.536,47.256,47.256,34.0,-23.02,24.625,-29.553333333333335,30.678,0.0,1782.044,-0.4350000000000005,100.0,28.001,28.191,43.483000000000004,43.921,0.0,0.0,100.0,0.0,0.0,0.0,0.0,3135.625,3041.5,4234.666666666667,4192.1,305.49733333333336,305.0695,314.7015,314.519,22.0544,20.6586,22.0805,21.5837,314.999998,314.999998,324.999988,324.999988,99.55865714285714,99.50683333333333,99.56918571428571,99.54938571428572,0.10833333333333339,-0.030333333333333323,-0.08733333333333333,0.14350000000000002,-0.04333333333332945,-0.04571428571428271,1.5285,1.5045,38.84,30.116500000000002,39.003,35.897999999999996,55.581,35.285,59.9995,53.321,53.527,34.408,58.5565,51.627,52.671,33.9505,58.4305,51.028,-0.119,-0.04600000000000004,0.10417000000000001,0.1121,0.0,220.85500000000002,220.865,217.54000000000002,217.54000000000002,0.0,0.0
34,0.0,0.0,0.0,1.0,1.0,0.0,0.0,1.0,0.0,0.0,1.0,1.1856,26.0,0.0,0.0,0.0,59.999996,0.0,26.0,26.0,26.0,26.0,0.029888888888888854,0.25690000000000013,-0.0533,292.587,-2.7580999999999998,-2.6216,-1.5972,-1.5705,-159.12,215.41,190.219125,0.0,0.0,0.0,0.0,0.06936666666666658,-5.498166666666667,-5.498166666666667,-0.6526000000000001,-1.053,0.01637500000000003,0.5449999999999999,70.701,0.0251,-0.226975,-0.44399999999999995,100.0,1.0,1.0,217.95333333333332,0.0,0.0,0.0,0.0,0.0,0.0,0.0,9238.2,0.0,16.0,5.0,254.49666666666667,0.0,0.0,0.0,0.0,0.0,0.0,1.0,0.0,1.7070000000000007,1.7070000000000007,0.0,0.0,0.0,55.0,616.79921,10000.0,85.000001,85.000001,85.000001,85.000001,395.0,0.0,0.0,0.0,1.0,166.665,53.162,53.162,47.653,47.653,34.0,-20.9975,25.183333333333334,-26.41,31.146,0.0,1781.994,-0.3699999999999992,100.0,27.727,27.706,43.369,43.866,0.0,0.0,100.0,0.0,0.0,0.0,0.0,2854.5,3137.3,3972.222222222222,4152.0,306.149,304.912,315.17,314.55975,22.0635,20.6641,22.0908,21.593,314.999998,314.999998,324.999988,324.999988,99.55867142857143,99.50685,99.56934285714286,99.54954285714285,0.11166666666666636,-0.027666666666666728,-0.07916666666666668,0.15033333333333335,-0.036666666666668846,-0.05142857142857338,1.54,1.5110000000000001,38.897,30.151,39.068,35.956,55.567,35.322,60.034,53.3825,53.513999999999996,34.442,58.588499999999996,51.686,52.657,33.9835,58.459,51.086,-0.10849999999999993,-0.04699999999999993,0.10987500000000001,0.11206,0.0,221.22,221.245,217.95333333333335,217.95333333333332,0.0,0.0
35,0.0,0.0,0.0,1.0,1.0,0.0,0.0,1.0,0.0,0.0,1.0,1.1856,26.0,0.0,0.0,0.0,59.999996,0.0,26.0,26.0,26.0,26.0,0.020333333333333314,0.2513000000000001,-0.0787,292.267,-2.7877,-2.6714,-1.6026500000000001,-1.5207000000000002,-155.73000000000002,215.41500000000002,190.19025,0.0,0.0,0.0,0.0,0.07133333333333336,-5.498166666666667,-5.498166666666667,-0.676,0.22199999999999998,-0.014375000000000249,-0.3400000000000001,70.821,0.0298,-0.21910000000000002,-0.3460000000000001,100.0,1.0,1.0,218.39666666666668,0.0,0.0,0.0,0.0,0.0,0.0,0.0,9257.1,0.0,16.0,5.0,254.93,1.0,0.0,0.0,0.0,0.0,0.0,1.0,0.0,1.754999999999999,1.754999999999999,0.0,0.0,1.0,55.0,616.79921,10000.0,85.000001,85.000001,85.000001,85.000001,395.0,0.0,0.0,0.0,1.0,166.665,52.078,52.078,47.668,47.668,34.0,-24.697499999999998,27.121666666666666,-26.373333333333335,29.586,0.0,1781.945,-0.1899999999999995,100.0,27.866,28.274,43.136,43.33,0.0,0.0,100.0,0.0,0.0,0.0,0.0,3202.875,3301.5,3994.1111111111113,4111.6,305.25233333333335,304.33925,315.19275,314.824,22.072,20.6696,22.1005,21.6015,314.999998,314.999998,324.999988,324.999988,99.55868571428572,99.50685,99.56948571428572,99.54968571428572,0.0990000000000002,-0.03133333333333321,-0.077,0.14716666666666667,-0.03333333333333144,-0.05285714285714249,1.5635,1.544,38.95,30.185000000000002,39.128,36.0095,55.554,35.361,60.066,53.435,53.501000000000005,34.478,58.6185,51.7365,52.643,34.018,58.486,51.135333333333335,-0.09150000000000003,-0.0685,0.10598500000000001,0.10898500000000001,0.0,221.635,221.65,218.39666666666665,218.39666666666668,0.0,0.0
36,0.0,0.0,0.0,1.0,1.0,0.0,0.0,1.0,0.0,0.0,1.0,1.1856,26.0,0.0,0.0,0.0,59.999996,0.0,26.0,26.0,26.0,26.0,0.023666666666666725,0.27090000000000014,-0.0257,291.885,-2.7726,-2.6233,-1.62845,-1.5955,-152.32,215.4225,190.160625,0.0,0.0,0.0,0.0,0.07329999999999992,-5.498166666666667,-5.498166666666667,-0.6644,-0.634,-0.05062500000000014,0.371,70.946,0.0221,-0.2044,-0.13399999999999945,100.0,1.0,1.0,218.51,0.0,0.0,0.0,0.0,0.0,0.0,0.0,9261.9,0.0,16.0,5.0,255.38,0.0,0.0,0.0,0.0,0.0,0.0,1.0,0.0,1.8030000000000008,1.8030000000000008,0.0,0.0,0.0,55.0,616.79921,10000.0,85.000001,85.000001,85.000001,85.000001,395.0,0.0,0.0,0.0,1.0,333.33500000000004,53.009,53.009,46.509,46.509,34.0,-22.205,23.563333333333333,-32.28,33.650000000000006,0.0,1781.897,-0.16499999999999915,100.0,28.206,27.996000000000002,43.635,43.847,0.0,0.0,100.0,0.0,0.0,0.0,0.0,2968.0,2990.1,4565.666666666667,4406.3,305.949,305.492,313.8595,313.999,22.0807,20.6749,22.1104,21.6104,314.999998,314.999998,324.999988,324.999988,99.5587,99.50685,99.56962857142857,99.54982857142858,0.10533333333333372,-0.03066666666666662,-0.08383333333333333,0.14283333333333334,-0.01666666666666572,-0.060000000000002274,1.454,1.4489999999999998,39.004000000000005,30.218,39.19,36.064499999999995,55.542,35.3975,60.103,53.4945,53.489999999999995,34.5115,58.653,51.794,52.631,34.05,58.5175,51.19133333333333,-0.09099999999999997,-0.06550000000000011,0.10829000000000001,0.107535,0.0,222.005,222.01999999999998,218.51,218.51,0.0,0.0
