,ABS Active,ABS Enabled,AID Allow Tire Blankets,AID Auto Blip,AID Auto Clutch,AID Auto Shift,AID Fuel Rate,AID Ideal Line,AID Mech Damage,AID Stability,AID Tire Wear Rate,Air Density,Air Temp,Ballast,Best Lap Delta,Best Lap Time,Brake Bias,Brake Pos,Brake Temp FL,Brake Temp FR,Brake Temp RL,Brake Temp RR,CG Accel Lateral,CG Accel Longitudinal,CG Accel Vertical,CG Height,Camber FL,Camber FR,Camber RL,Camber RR,Car Coord X,Car Coord Y,Car Coord Z,Car Damage Front,Car Damage Left,Car Damage Rear,Car Damage Right,Car Pos Norm,Caster FL,Caster FR,Chassis Pitch Angle,Chassis Pitch Rate,Chassis Roll Angle,Chassis Roll Rate,Chassis Velocity X,Chassis Velocity Y,Chassis Velocity Z,Chassis Yaw Rate,Clutch Pos,DRS Active,DRS Available,Drive Train Speed,ERS Heat Charging,ERS Is Charging,ERS Max Energy,ERS Power Level,ERS Recovery Level,Engine Brake Setting,Engine Limiter,Engine RPM,Flags,Fuel Level,Gear,Ground Speed,HR Sample Clock,In Pit,KERS Charge,KERS Deployed Energy,KERS Input,KERS Max Energy,LR Sample Clock,Lap Invalidated,Lap Time,Lap Time2,Last Lap Time,Last Sector Time,MR Sample Clock,Max Fuel,Max Power,Max RPM,Max Sus Travel FL,Max Sus Travel FR,Max Sus Travel RL,Max Sus Travel RR,Max Torque,Max Turbo Boost,Num Tires Off Track,Penalties Enabled,Position,Raw Data Sample Rate,Ride Height FL,Ride Height FR,Ride Height RL,Ride Height RR,Road Temp,Self Align Torque FL,Self Align Torque FR,Self Align Torque RL,Self Align Torque RR,Session Lap Count,Session Time Left,Steering Angle,Surface Grip,Suspension Travel FL,Suspension Travel FR,Suspension Travel RL,Suspension Travel RR,TC Active,TC Enabled,Throttle Pos,Tire Dirt Level FL,Tire Dirt Level FR,Tire Dirt Level RL,Tire Dirt Level RR,Tire Load FL,Tire Load FR,Tire Load RL,Tire Load RR,Tire Loaded Radius FL,Tire Loaded Radius FR,Tire Loaded Radius RL,Tire Loaded Radius RR,Tire Pressure FL,Tire Pressure FR,Tire Pressure RL,Tire Pressure RR,Tire Radius FL,Tire Radius FR,Tire Radius RL,Tire Radius RR,Tire Rubber Grip FL,Tire Rubber Grip FR,Tire Rubber Grip RL,Tire Rubber Grip RR,Tire Slip Angle FL,Tire Slip Angle FR,Tire Slip Angle RL,Tire Slip Angle RR,Tire Slip Ratio FL,Tire Slip Ratio FR,Tire Slip Ratio RL,Tire Slip Ratio RR,Tire Temp Core FL,Tire Temp Core FR,Tire Temp Core RL,Tire Temp Core RR,Tire Temp Inner FL,Tire Temp Inner FR,Tire Temp Inner RL,Tire Temp Inner RR,Tire Temp Middle FL,Tire Temp Middle FR,Tire Temp Middle RL,Tire Temp Middle RR,Tire Temp Outer FL,Tire Temp Outer FR,Tire Temp Outer RL,Tire Temp Outer RR,Toe In FL,Toe In FR,Toe In RL,Toe In RR,Turbo Boost,Wheel Angular Speed FL,Wheel Angular Speed FR,Wheel Angular Speed RL,Wheel Angular Speed RR,Wind Direction,Wind Speed
0,0.0,0.0,0.0,1.0,1.0,0.0,0.0,1.0,0.0,0.0,1.0,1.1856,26.0,0.0,0.0,0.0,59.99999,0.0,26.0,26.0,26.0,26.0,-0.031888888888888856,0.2945,0.1567,293.381,-2.7935,-2.6204444444444444,-1.5565,-1.5051999999999999,-275.68,215.5025,190.987625,0.0,0.0,0.0,0.0,0.0016,-5.498166666666667,-5.498166666666667,-0.5744,1.879,-0.0008750000000001812,0.127,66.005,-0.027700000000000002,-0.24202500000000002,0.08799999999999919,100.0,1.0,1.0,203.86666666666667,0.0,0.0,0.0,0.0,0.0,0.0,0.0,8641.2,0.0,13.0,5.0,237.59,0.0,0.0,0.0,0.0,0.0,0.0,0.0,0.0,0.0030000000000001137,0.0030000000000001137,0.0,0.0,0.0,55.0,616.79921,10000.0,85.0,85.0,85.0,85.0,395.0,0.0,0.0,0.0,1.0,20.0,50.522,50.522,49.545,49.545,34.0,-30.915,33.413333333333334,-27.146666666666665,24.9375,0.0,1783.583,0.3249999999999993,100.0,27.283,27.254,40.175,39.854,0.0,0.0,100.0,0.0,0.0,0.0,0.0,3472.4285714285716,4393.2,3884.75,3972.0,304.185,301.14375,315.4125,315.0015,21.746,20.4847,21.7354,21.2871,314.99999,314.99999,324.99998,324.99998,99.55844285714285,99.50653333333334,99.56395714285715,99.54448571428571,0.02375000000000016,-0.08233333333333315,-0.13283333333333336,0.08783333333333333,-0.07499999999999574,-0.03999999999999915,1.6185,1.6215,36.913,29.029666666666664,36.846000000000004,34.044,56.052,34.0035,58.573,51.2625,53.971000000000004,33.2115,57.219,49.6525,53.135999999999996,32.7905,57.1875,49.09866666666667,-0.05800000000000005,-0.09750000000000014,0.0999,0.11678000000000001,0.0,206.79500000000002,206.745,203.86666666666667,203.86666666666667,0.0,0.0
1,0.0,0.0,0.0,1.0,1.0,0.0,0.0,1.0,0.0,0.0,1.0,1.1856,26.0,0.0,0.0,0.0,59.999996,0.0,26.0,26.0,26.0,26.0,-0.08311111111111102,0.3379000000000001,0.2265,292.542,-2.6932,-2.6983333333333333,-1.603,-1.3786,-272.11,215.515,190.9665,0.0,0.0,0.0,0.0,0.0036666666666666666,-5.498166666666667,-5.498166666666667,-0.4738,-1.7926666666666666,-0.044500000000000206,-0.6260000000000001,66.178,-0.025500000000000002,-0.189925,0.6280000000000001,100.0,1.0,1.0,203.71666666666667,0.0,0.0,0.0,0.0,0.0,0.0,0.0,8634.8,0.0,13.0,5.0,238.21,1.0,0.0,0.0,0.0,0.0,0.0,0.0,0.0,0.05699999999999861,0.05699999999999861,0.0,0.0,1.0,55.0,616.79921,10000.0,85.000001,85.000001,85.000001,85.000001,395.0,0.0,0.0,0.0,1.0,166.665,54.703,54.703,47.455,47.455,34.0,-21.857499999999998,16.115,-37.79,32.57,0.0,1783.531,0.375,100.0,27.511,27.07,42.477000000000004,43.438,0.0,0.0,100.0,0.0,0.0,0.0,0.0,2700.0,2359.9,4725.5,5220.3,306.632,307.2895,313.1415,311.47925,21.7563,20.49,21.7469,21.2969,314.999998,314.999998,324.999988,324.999988,99.55845714285714,99.50655,99.56411428571428,99.54464285714286,0.03200000000000003,-0.10599999999999987,-0.1405,0.0615,-0.01833333333333087,-0.026666666666670835,1.27,1.306,36.977000000000004,29.062333333333335,36.918,34.106,56.035,34.0405,58.623,51.335499999999996,53.954,33.246,57.2655,49.722,53.118,32.824,57.231,49.167,-0.04200000000000004,-0.10850000000000026,0.10243000000000001,0.11030500000000001,0.0,207.275,207.245,203.71666666666667,203.71666666666667,0.0,0.0
2,0.0,0.0,0.0,1.0,1.0,0.0,0.0,1.0,0.0,0.0,1.0,1.1856,26.0,0.0,0.0,0.0,59.999996,0.0,26.0,26.0,26.0,26.0,-0.09344444444444444,0.30930000000000013,0.04016666666666667,294.327,-2.6647,-2.6653333333333333,-1.56115,-1.5183,-268.93,215.5225,190.948875,0.0,0.0,0.0,0.0,0.0055000000000000005,-5.498166666666667,-5.498166666666667,-0.5771000000000001,0.13800000000000012,-0.014375000000000249,2.0620000000000003,66.306,-0.0302,-0.27287500000000003,0.8659999999999997,100.0,1.0,1.0,205.16333333333333,0.0,0.0,0.0,0.0,0.0,0.0,0.0,8696.1,0.0,13.0,5.0,238.67333333333335,0.0,0.0,0.0,0.0,0.0,0.0,0.0,0.0,0.10500000000000043,0.10500000000000043,0.0,0.0,0.0,55.0,616.79921,10000.0,85.000001,85.000001,85.000001,85.000001,395.0,0.0,0.0,0.0,1.0,333.33500000000004,52.399,52.399,51.178,51.178,34.0,-28.96,21.74666666666667,-24.323333333333338,18.3325,0.0,1783.482,0.5500000000000007,100.0,27.793,27.036,41.699,41.482,0.0,0.0,100.0,0.0,0.0,0.0,0.0,3342.5714285714284,3144.3,3436.625,3277.7,304.655,304.7795,316.4405,316.76175,21.7657,20.4947,21.7565,21.3047,314.999998,314.999998,324.999988,324.999988,99.55845714285714,99.50655,99.56424285714286,99.54475714285714,0.00749999999999984,-0.11833333333333318,-0.16816666666666666,0.06283333333333334,-0.06333333333333258,-0.06666666666666998,1.781,1.801,37.036,29.091666666666665,36.977999999999994,34.1545,56.021,34.078,58.6565,51.3805,53.941,33.2805,57.2965,49.7655,53.104,32.857,57.2595,49.20933333333333,-0.035499999999999865,-0.11850000000000005,0.10561000000000001,0.10427000000000002,0.0,207.70499999999998,207.64,205.16333333333333,205.16333333333333,0.0,0.0
3,0.0,0.0,0.0,1.0,1.0,0.0,0.0,1.0,0.0,0.0,1.0,1.1856,26.0,0.0,0.0,0.0,59.999996,0.0,26.0,26.0,26.0,26.0,-0.08144444444444443,0.3166,0.13920000000000002,293.533,-2.68935,-2.689222222222222,-1.5448,-1.4768,-265.74,215.53,190.9295,0.0,0.0,0.0,0.0,0.007366666666666667,-5.498166666666667,-5.498166666666667,-0.5026,0.6383333333333332,0.006999999999999895,-1.318,66.458,-0.044700000000000004,-0.19015,0.7579999999999991,100.0,1.0,1.0,204.92333333333335,0.0,0.0,0.0,0.0,0.0,0.0,0.0,8685.9,0.0,13.0,5.0,239.22,1.0,0.0,0.0,0.0,0.0,0.0,0.0,0.0,0.1529999999999987,0.1529999999999987,0.0,0.0,1.0,55.0,616.79921,10000.0,85.000001,85.000001,85.000001,85.000001,395.0,0.0,0.0,0.0,1.0,333.33500000000004,53.802,53.802,48.111,48.111,34.0,-23.6125,20.241666666666667,-33.54333333333334,26.595,0.0,1783.434,0.6550000000000011,100.0,27.481,27.069,41.692,41.620000000000005,0.0,0.0,100.0,0.0,0.0,0.0,0.0,2811.0,2918.8,4426.0,4322.9,306.338,305.5005,314.0175,314.0035,21.7748,20.4996,21.7662,21.3131,314.999998,314.999998,324.999988,324.999988,99.55845714285714,99.50656666666667,99.56437142857143,99.5449,0.01100000000000012,-0.1156666666666668,-0.15,0.06366666666666666,-0.04333333333332945,-0.03999999999999915,1.45,1.4915,37.093,29.122333333333334,37.039,34.207,56.004000000000005,34.119,58.6945,51.4435,53.924,33.318,57.332,49.826,53.088,32.8935,57.292,49.269,-0.028999999999999915,-0.12250000000000005,0.10563000000000002,0.11320500000000001,0.0,208.22500000000002,208.125,204.92333333333335,204.92333333333335,0.0,0.0
4,0.0,0.0,0.0,1.0,1.0,0.0,0.0,1.0,0.0,0.0,1.0,1.1856,26.0,0.0,0.0,0.0,59.999996,0.0,26.0,26.0,26.0,26.0,-0.10711111111111105,0.2873000000000001,-0.07703333333333334,293.991,-2.65515,-2.760666666666667,-1.47795,-1.5963,-262.15,215.535,190.909,0.0,0.0,0.0,0.0,0.009466666666666668,-5.498166666666667,-5.498166666666667,-0.5323,-0.9053333333333333,-0.051124999999999865,0.21599999999999997,66.61500000000001,-0.0567,-0.23767500000000003,1.1240000000000006,100.0,1.0,1.0,205.63333333333333,0.0,0.0,0.0,0.0,0.0,0.0,0.0,8716.0,0.0,13.0,5.0,239.78333333333333,0.0,0.0,0.0,0.0,0.0,0.0,0.0,0.0,0.20700000000000074,0.20700000000000074,0.0,0.0,0.0,55.0,616.79921,10000.0,85.000001,85.000001,85.000001,85.000001,395.0,0.0,0.0,0.0,1.0,166.665,53.711,53.711,49.286,49.286,34.0,-26.5625,19.673333333333332,-29.996666666666666,22.6725,0.0,1783.381,0.6849999999999987,100.0,27.447,26.642,42.472,41.69,0.0,0.0,100.0,0.0,0.0,0.0,0.0,3058.0,2846.4,4009.125,3774.4,305.4755,305.798,315.01075,315.43825,21.7851,20.5048,21.7774,21.322499999999998,314.999998,314.999998,324.999988,324.999988,99.55845714285714,99.50658333333334,99.56452857142857,99.54504285714286,-0.0044999999999999485,-0.1286666666666667,-0.18216666666666667,0.044333333333333336,-0.03833333333332689,-0.04833333333333201,1.563,1.613,37.157,29.155,37.108999999999995,34.2655,55.985,34.161,58.741,51.5075,53.907,33.357,57.375,49.887,53.069,32.9305,57.332499999999996,49.32866666666666,-0.020999999999999908,-0.12700000000000022,0.10171500000000001,0.10583000000000001,0.0,208.655,208.55,205.63333333333333,205.63333333333333,0.0,0.0
5,0.0,0.0,0.0,1.0,1.0,0.0,0.0,1.0,0.0,0.0,1.0,1.1856,26.0,0.0,0.0,0.0,59.999996,0.0,26.0,26.0,26.0,26.0,-0.11788888888888893,0.3144,-0.05066666666666667,294.281,-2.6783,-2.7153333333333336,-1.52925,-1.5750000000000002,-258.95,215.5375,190.890125,0.0,0.0,0.0,0.0,0.011333333333333334,-5.498166666666667,-5.498166666666667,-0.5407000000000001,0.5803333333333334,-0.03462500000000013,0.878,66.754,-0.0742,-0.22625,1.1320000000000014,100.0,1.0,1.0,206.14666666666668,0.0,0.0,0.0,0.0,0.0,0.0,0.0,8737.8,0.0,13.0,5.0,240.28333333333333,1.0,0.0,0.0,0.0,0.0,0.0,0.0,0.0,0.254999999999999,0.254999999999999,0.0,0.0,1.0,55.0,616.79921,10000.0,85.000001,85.000001,85.000001,85.000001,395.0,0.0,0.0,0.0,1.0,166.665,53.741,53.741,49.835,49.835,34.0,-26.247500000000002,20.105,-29.57,22.365000000000002,0.0,1783.333,0.46499999999999986,100.0,27.4,26.552,42.002,41.056,0.0,0.0,100.0,0.0,0.0,0.0,0.0,3003.857142857143,2925.3,3867.5,3920.6000000000004,305.543,305.52925,315.41275,315.1685,21.7944,20.5096,21.7871,21.3306,314.999998,314.999998,324.999988,324.999988,99.55847142857142,99.5066,99.56467142857143,99.54517142857142,-0.0017499999999999183,-0.125,-0.1945,0.02666666666666667,-0.04833333333333201,-0.06833333333332803,1.6219999999999999,1.6525,37.215,29.184666666666665,37.169,34.3165,55.97,34.2,58.777,51.5615,53.893,33.3925,57.409,49.939,53.055,32.9645,57.3635,49.379666666666665,-0.03649999999999998,-0.10650000000000004,0.094905,0.10795,0.0,209.13,209.04500000000002,206.14666666666668,206.14666666666668,0.0,0.0
6,0.0,0.0,0.0,1.0,1.0,0.0,0.0,1.0,0.0,0.0,1.0,1.1856,26.0,0.0,0.0,0.0,59.999996,0.0,26.0,26.0,26.0,26.0,-0.12444444444444447,0.3055000000000001,-0.0284,294.037,-2.70785,-2.787111111111111,-1.4793,-1.562,-255.74,215.5375,190.8705,0.0,0.0,0.0,0.0,0.0132,-5.498166666666667,-5.498166666666667,-0.527,-0.22999999999999998,-0.051750000000000185,0.397,66.898,-0.08070000000000001,-0.20747500000000002,0.9560000000000013,100.0,1.0,1.0,206.39666666666668,0.0,0.0,0.0,0.0,0.0,0.0,0.0,8748.4,0.0,13.0,5.0,240.8,0.0,0.0,0.0,0.0,0.0,0.0,0.0,0.0,0.3030000000000008,0.3030000000000008,0.0,0.0,0.0,55.0,616.79921,10000.0,85.000001,85.000001,85.000001,85.000001,395.0,0.0,0.0,0.0,1.0,166.665,54.153,54.153,49.072,49.072,34.0,-27.21,19.211666666666666,-32.230000000000004,24.1025,0.0,1783.285,0.26000000000000156,100.0,27.152,26.269,42.265,41.209,0.0,0.0,100.0,0.0,0.0,0.0,0.0,3049.285714285714,2796.3,4163.625,4077.4,305.519,305.933,314.6,314.7365,21.8036,20.5142,21.7969,21.339,314.999998,314.999998,324.999988,324.999988,99.55847142857142,99.5066,99.5648,99.5453,-0.011749999999999927,-0.13666666666666671,-0.19166666666666665,0.034166666666666665,-0.04333333333332945,-0.05333333333332746,1.5085,1.5465,37.272,29.21366666666667,37.230999999999995,34.3685,55.954,34.2375,58.8165,51.6205,53.876999999999995,33.4275,57.445499999999996,49.9955,53.038,32.9975,57.3975,49.435,-0.040000000000000036,-0.09750000000000014,0.10197500000000001,0.108685,0.0,209.54500000000002,209.47500000000002,206.39666666666668,206.39666666666668,0.0,0.0
7,0.0,0.0,0.0,1.0,1.0,0.0,0.0,1.0,0.0,0.0,1.0,1.1856,26.0,0.0,0.0,0.0,59.999996,0.0,26.0,26.0,26.0,26.0,-0.07833333333333337,0.28680000000000017,-0.0059,294.113,-2.6228,-2.786666666666667,-1.5596999999999999,-1.6103,-252.32999999999998,215.535,190.849875,0.0,0.0,0.0,0.0,0.015166666666666667,-5.498166666666667,-5.498166666666667,-0.5342,0.14066666666666672,-0.048875000000000224,-0.30600000000000005,67.045,-0.0874,-0.220725,0.7859999999999996,100.0,1.0,1.0,206.94,0.0,0.0,0.0,0.0,0.0,0.0,0.0,8771.4,0.0,13.0,5.0,241.32999999999998,1.0,0.0,0.0,0.0,0.0,0.0,0.0,0.0,0.3539999999999992,0.3539999999999992,0.0,0.0,1.0,55.0,616.79921,10000.0,85.000001,85.000001,85.000001,85.000001,395.0,0.0,0.0,0.0,1.0,333.33500000000004,53.894,53.894,49.376999999999995,49.376999999999995,34.0,-26.045,20.58,-33.163333333333334,22.675,0.0,1783.233,-0.120000000000001,100.0,27.23,26.478,42.156,41.242000000000004,0.0,0.0,100.0,0.0,0.0,0.0,0.0,3126.4285714285716,2786.3,4103.375,3872.5,305.358,305.77125,314.8785,315.16925,21.8135,20.5193,21.8074,21.3478,314.999998,314.999998,324.999988,324.999988,99.55848571428571,99.50663333333333,99.56494285714285,99.54544285714286,0.015499999999999847,-0.1036666666666668,-0.21,0.02316666666666667,-0.046666666666666856,-0.03999999999999915,1.5655000000000001,1.589,37.334,29.245333333333335,37.296,34.4235,55.939,34.2785,58.8575,51.681,53.863,33.465,57.484,50.0535,53.024,33.033500000000004,57.433,49.49133333333333,-0.08299999999999996,-0.058499999999999996,0.10748,0.11217,0.0,210.015,209.91500000000002,206.94,206.94,0.0,0.0
8,0.0,0.0,0.0,1.0,1.0,0.0,0.0,1.0,0.0,0.0,1.0,1.1856,26.0,0.0,0.0,0.0,59.999996,0.0,26.0,26.0,26.0,26.0,-0.0852222222222222,0.28910000000000013,-0.024800000000000003,294.205,-2.69835,-2.727777777777778,-1.5336500000000002,-1.6055000000000001,-248.9,215.53,190.829125,0.0,0.0,0.0,0.0,0.017166666666666667,-5.498166666666667,-5.498166666666667,-0.5355,-0.09466666666666657,-0.03825000000000012,0.344,67.193,-0.0718,-0.22005000000000002,0.26200000000000045,100.0,1.0,1.0,207.38333333333333,0.0,0.0,0.0,0.0,0.0,0.0,0.0,8790.2,0.0,13.0,5.0,241.86333333333334,0.0,0.0,0.0,0.0,0.0,0.0,0.0,0.0,0.40500000000000114,0.40500000000000114,0.0,0.0,0.0,55.0,616.79921,10000.0,85.000001,85.000001,85.000001,85.000001,395.0,0.0,0.0,0.0,1.0,333.33500000000004,54.092,54.092,49.149,49.149,34.0,-24.9775,21.733333333333334,-30.396666666666665,24.7225,0.0,1783.182,-0.14000000000000057,100.0,27.04,26.321,42.26,41.278,0.0,0.0,100.0,0.0,0.0,0.0,0.0,2969.857142857143,2969.1,3984.0,3948.2,305.7605,305.41025,315.099,315.03825,21.8232,20.5244,21.8178,21.3567,314.999998,314.999998,324.999988,324.999988,99.55848571428571,99.50663333333333,99.56508571428571,99.5456,0.022749999999999826,-0.09599999999999986,-0.18183333333333335,0.0555,-0.04999999999999716,-0.03999999999999915,1.576,1.575,37.394999999999996,29.27733333333333,37.361000000000004,34.479,55.922,34.3185,58.897999999999996,51.742,53.847,33.501999999999995,57.522,50.112,53.007,33.069,57.468,49.549,-0.08499999999999996,-0.05900000000000016,0.10136,0.11042,0.0,210.44,210.405,207.38333333333333,207.38333333333333,0.0,0.0
9,0.0,0.0,0.0,1.0,1.0,0.0,0.0,1.0,0.0,0.0,1.0,1.1856,26.0,0.0,0.0,0.0,59.999996,0.0,26.0,26.0,26.0,26.0,-0.06388888888888888,0.2934000000000001,0.010400000000000001,294.022,-2.6218,-2.741111111111111,-1.53495,-1.5596,-245.67000000000002,215.5225,190.809375,0.0,0.0,0.0,0.0,0.019033333333333336,-5.498166666666667,-5.498166666666667,-0.5313,0.264,-0.04562500000000025,0.844,67.331,-0.053000000000000005,-0.210825,0.07399999999999984,100.0,1.0,1.0,207.78333333333333,0.0,0.0,0.0,0.0,0.0,0.0,0.0,8807.2,0.0,13.0,5.0,242.36333333333334,1.0,0.0,0.0,0.0,0.0,0.0,0.0,0.0,0.4529999999999994,0.4529999999999994,0.0,0.0,1.0,55.0,616.79921,10000.0,85.000001,85.000001,85.000001,85.000001,395.0,0.0,0.0,0.0,1.0,166.665,53.848,53.848,49.393,49.393,34.0,-24.9025,22.415,-29.713333333333335,25.92,0.0,1783.136,-0.259999999999998,100.0,27.201,26.292,42.147999999999996,41.275,0.0,0.0,100.0,0.0,0.0,0.0,0.0,3067.5714285714284,2980.5,4018.875,4081.8,305.4165,305.3865,315.04475,314.755,21.8324,20.5292,21.8275,21.365,314.999998,314.999998,324.999988,324.999988,99.55848571428571,99.50665,99.56522857142858,99.54572857142857,0.03275000000000006,-0.08399999999999985,-0.15983333333333336,0.07116666666666667,-0.041666666666671404,-0.07166666666666544,1.559,1.565,37.452,29.307333333333332,37.422,34.5315,55.908,34.3555,58.936,51.799,53.833,33.536,57.557,50.1665,52.992000000000004,33.102000000000004,57.5005,49.602333333333334,-0.08650000000000002,-0.051000000000000156,0.10936000000000001,0.11576000000000002,0.0,210.86,210.86,207.78333333333333,207.78333333333333,0.0,0.0
10,0.0,0.0,0.0,1.0,1.0,0.0,0.0,1.0,0.0,0.0,1.0,1.1856,26.0,0.0,0.0,0.0,59.999996,0.0,26.0,26.0,26.0,26.0,-0.03166666666666662,0.2925,0.0165,293.915,-2.6853,-2.7134444444444443,-1.49745,-1.5403,-242.03,215.515,190.787125,0.0,0.0,0.0,0.0,0.021166666666666667,-5.498166666666667,-5.498166666666667,-0.5286000000000001,-0.3383333333333334,-0.015000000000000124,1.412,67.488,-0.0375,-0.21305000000000002,-0.07399999999999984,100.0,1.0,1.0,208.19,0.0,0.0,0.0,0.0,0.0,0.0,0.0,8824.4,0.0,13.0,5.0,242.92666666666668,0.0,0.0,0.0,0.0,0.0,0.0,1.0,0.0,0.5069999999999979,0.5069999999999979,0.0,0.0,0.0,55.0,616.79921,10000.0,85.000001,85.000001,85.000001,85.000001,395.0,0.0,0.0,0.0,1.0,166.665,54.092,54.092,48.996,48.996,34.0,-23.14,23.001666666666665,-28.823333333333334,27.4525,0.0,1783.081,-0.3299999999999983,100.0,27.094,26.325,42.293,41.667,0.0,0.0,100.0,0.0,0.0,0.0,0.0,2923.4285714285716,2987.0,4034.5,4206.3,305.85,305.3925,314.9605,314.42675,21.8426,20.5346,21.8386,21.3745,314.999998,314.999998,324.999988,324.999988,99.55848571428571,99.50666666666666,99.56538571428571,99.54587142857143,0.05699999999999994,-0.06400000000000006,-0.14533333333333334,0.0835,-0.04833333333333201,-0.05333333333332746,1.5354999999999999,1.5285,37.516999999999996,29.34133333333333,37.491,34.591,55.891,34.396,58.9785,51.8655,53.817,33.573499999999996,57.597,50.2305,52.976,33.1375,57.5375,49.66466666666666,-0.09699999999999998,-0.04700000000000015,0.110575,0.10925000000000001,0.0,211.34,211.325,208.19,208.19,0.0,0.0
11,0.0,0.0,0.0,1.0,1.0,0.0,0.0,1.0,0.0,0.0,1.0,1.1856,26.0,0.0,0.0,0.0,59.999996,0.0,26.0,26.0,26.0,26.0,0.001000000000000112,0.3003,-0.048400000000000006,294.174,-2.69305,-2.703666666666667,-1.5318,-1.5156,-238.59,215.505,190.765875,0.0,0.0,0.0,0.0,0.022600000000000002,-5.498166666666667,-5.498166666666667,-0.5497000000000001,-0.17566666666666664,0.003374999999999906,-0.5589999999999999,67.632,-0.021400000000000002,-0.2235,-0.20399999999999974,100.0,1.0,1.0,208.74,0.0,0.0,0.0,0.0,0.0,0.0,0.0,8847.7,0.0,13.0,5.0,243.44666666666666,1.0,0.0,0.0,0.0,0.0,0.0,1.0,0.0,0.5579999999999998,0.5579999999999998,0.0,0.0,1.0,55.0,616.79921,10000.0,85.000001,85.000001,85.000001,85.000001,395.0,0.0,0.0,0.0,1.0,166.665,53.97,53.97,49.5,49.5,34.0,-24.33,23.251666666666665,-27.106666666666666,25.345,0.0,1783.031,-0.9800000000000004,100.0,26.709,26.583,41.887,41.74,0.0,0.0,100.0,0.0,0.0,0.0,0.0,3061.4285714285716,2970.9,3899.5,3976.1000000000004,305.643,305.246,315.3775,314.93475,21.8522,20.5398,21.8489,21.3834,314.999998,314.999998,324.999988,324.999988,99.5585,99.50666666666666,99.56551428571429,99.54601428571429,0.05449999999999999,-0.05800000000000005,-0.133,0.08783333333333333,-0.04833333333333201,-0.041666666666671404,1.603,1.5965,37.576,29.373666666666665,37.555,34.6465,55.876000000000005,34.4345,59.016,51.926,53.803,33.609,57.632,50.289,52.96,33.1715,57.5695,49.722,-0.11199999999999988,-0.03000000000000025,0.10946000000000002,0.10178000000000001,0.0,211.785,211.765,208.74,208.74,0.0,0.0
12,0.0,0.0,0.0,1.0,1.0,0.0,0.0,1.0,0.0,0.0,1.0,1.1856,26.0,0.0,0.0,0.0,59.999996,0.0,26.0,26.0,26.0,26.0,0.002555555555555644,0.2875000000000001,0.011600000000000001,293.839,-2.7199999999999998,-2.701888888888889,-1.5340500000000001,-1.5356,-235.54,215.4975,190.7465,0.0,0.0,0.0,0.0,0.025466666666666665,-5.498166666666667,-5.498166666666667,-0.5401,0.399,0.006249999999999867,0.721,67.761,-0.0071,-0.2049,-0.3039999999999994,100.0,1.0,1.0,209.05666666666667,0.0,0.0,0.0,0.0,0.0,0.0,0.0,8861.1,0.0,13.0,5.0,243.90666666666667,0.0,0.0,0.0,0.0,0.0,0.0,1.0,0.0,0.602999999999998,0.602999999999998,0.0,0.0,0.0,55.0,616.79921,10000.0,85.000001,85.000001,85.000001,85.000001,395.0,0.0,0.0,0.0,1.0,333.33500000000004,53.757,53.757,48.935,48.935,34.0,-23.072499999999998,24.795,-27.59,29.165,0.0,1782.984,0.41499999999999915,100.0,26.956,26.683,41.857,41.625,0.0,0.0,100.0,0.0,0.0,0.0,0.0,2960.714285714286,3104.0,4061.625,4197.4,305.742,304.993,314.92875,314.501,21.8607,20.5444,21.858,21.3913,314.999998,314.999998,324.999988,324.999988,99.55851428571428,99.50668333333333,99.56565714285715,99.54614285714285,0.07474999999999987,-0.04499999999999993,-0.10766666666666667,0.12,-0.051666666666669414,-0.03333333333333144,1.5425,1.5305,37.629000000000005,29.40266666666667,37.611999999999995,34.695499999999996,55.863,34.469,59.05,51.980000000000004,53.791,33.6405,57.6635,50.3405,52.947,33.202,57.5985,49.772666666666666,-0.0774999999999999,-0.06899999999999995,0.10654000000000001,0.11339,0.0,212.19,212.195,209.05666666666667,209.05666666666667,0.0,0.0
13,0.0,0.0,0.0,1.0,1.0,0.0,0.0,1.0,0.0,0.0,1.0,1.1856,26.0,0.0,0.0,0.0,59.999996,0.0,26.0,26.0,26.0,26.0,0.034666666666666845,0.2923,0.016466666666666668,293.594,-2.6995,-2.7053333333333334,-1.5665,-1.5417,-232.07999999999998,215.49,190.72475,0.0,0.0,0.0,0.0,0.026933333333333333,-5.498166666666667,-5.498166666666667,-0.5367000000000001,-0.2846666666666666,0.00374999999999992,-0.43500000000000005,67.906,-0.0031000000000000003,-0.21505000000000002,-0.26399999999999935,100.0,1.0,1.0,209.44666666666666,0.0,0.0,0.0,0.0,0.0,0.0,0.0,8877.7,0.0,13.0,5.0,244.43333333333334,1.0,0.0,0.0,0.0,0.0,0.0,1.0,0.0,0.6539999999999999,0.6539999999999999,0.0,0.0,1.0,55.0,616.79921,10000.0,85.000001,85.000001,85.000001,85.000001,395.0,0.0,0.0,0.0,1.0,333.33500000000004,53.665,53.665,48.798,48.798,34.0,-23.245,23.988333333333333,-28.646666666666665,29.2775,0.0,1782.932,-0.3550000000000004,100.0,26.977,26.943,42.092,42.19,0.0,0.0,100.0,0.0,0.0,0.0,0.0,3067.4285714285716,2962.3,4097.5,4193.9,305.6115,305.25975,314.8755,314.38625,21.8703,20.5497,21.8684,21.4004,314.999998,314.999998,324.999988,324.999988,99.55851428571428,99.50668333333333,99.5658,99.54628571428572,0.08375000000000021,-0.038000000000000034,-0.11366666666666668,0.11616666666666667,-0.05333333333332746,-0.03166666666666629,1.5285,1.51,37.689,29.435666666666666,37.678,34.7525,55.849999999999994,34.5075,59.0905,52.044,53.778,33.676,57.701499999999996,50.4015,52.934,33.236000000000004,57.6335,49.83233333333334,-0.10650000000000004,-0.034499999999999975,0.10953500000000001,0.114015,0.0,212.625,212.615,209.44666666666666,209.44666666666666,0.0,0.0
14,0.0,0.0,0.0,1.0,1.0,0.0,0.0,1.0,0.0,0.0,1.0,1.1856,26.0,0.0,0.0,0.0,59.999996,0.0,26.0,26.0,26.0,26.0,0.04588888888888887,0.29090000000000016,-0.049133333333333334,293.823,-2.7133,-2.7153333333333336,-1.5658,-1.5324,-228.41,215.48000000000002,190.701875,0.0,0.0,0.0,0.0,0.02906666666666667,-5.498166666666667,-5.498166666666667,-0.5486,-0.021333333333333315,0.01837500000000003,-0.577,68.056,0.0061,-0.22282500000000002,-0.3420000000000005,100.0,1.0,1.0,210.00333333333333,0.0,0.0,0.0,0.0,0.0,0.0,0.0,8901.3,0.0,13.0,5.0,244.97666666666666,0.0,0.0,0.0,0.0,0.0,0.0,1.0,0.0,0.7079999999999984,0.7079999999999984,0.0,0.0,0.0,55.0,616.79921,10000.0,85.000001,85.000001,85.000001,85.000001,395.0,0.0,0.0,0.0,1.0,166.665,53.696,53.696,49.194,49.194,34.0,-23.495,24.02166666666667,-26.29,27.580000000000002,0.0,1782.881,-0.3949999999999996,100.0,26.963,27.097,42.003,42.253,0.0,0.0,100.0,0.0,0.0,0.0,0.0,3097.5714285714284,2925.7,3960.625,4007.2,305.662,305.3275,315.26075,314.83425,21.8804,20.5554,21.8794,21.4099,314.999998,314.999998,324.999988,324.999988,99.55852857142857,99.50668333333333,99.56594285714286,99.54644285714286,0.08325000000000005,-0.032333333333333325,-0.09483333333333333,0.1205,-0.06833333333332803,-0.03833333333332689,1.58,1.5705,37.751999999999995,29.471,37.745999999999995,34.812,55.835,34.548,59.129999999999995,52.109,53.763999999999996,33.713499999999996,57.7385,50.4645,52.919,33.272,57.667,49.894,-0.10549999999999993,-0.035499999999999865,0.09760500000000001,0.10973000000000001,0.0,213.085,213.10500000000002,210.00333333333333,210.00333333333333,0.0,0.0
15,0.0,0.0,0.0,1.0,1.0,0.0,0.0,1.0,0.0,0.0,1.0,1.1856,26.0,0.0,0.0,0.0,59.999996,0.0,26.0,26.0,26.0,26.0,0.04366666666666674,0.2791000000000001,-0.0391,293.686,-2.7066,-2.6915555555555555,-1.51875,-1.5532,-225.14,215.4725,190.681125,0.0,0.0,0.0,0.0,0.03096666666666667,-5.498166666666667,-5.498166666666667,-0.5398000000000001,0.1373333333333333,0.02675000000000005,-0.907,68.19200000000001,0.0111,-0.20785,-0.28000000000000025,100.0,1.0,1.0,210.36333333333334,0.0,0.0,0.0,0.0,0.0,0.0,0.0,8916.6,0.0,13.0,5.0,245.46,1.0,0.0,0.0,0.0,0.0,0.0,1.0,0.0,0.7560000000000002,0.7560000000000002,0.0,0.0,1.0,55.0,616.79921,10000.0,85.000001,85.000001,85.000001,85.000001,395.0,0.0,0.0,0.0,1.0,166.665,53.802,53.802,48.751999999999995,48.751999999999995,34.0,-22.4575,23.331666666666663,-27.22,28.835,0.0,1782.833,-0.3099999999999987,100.0,26.968,27.198999999999998,41.929,42.389,0.0,0.0,100.0,0.0,0.0,0.0,0.0,2974.142857142857,2910.9,4136.75,4065.7,305.8845,305.39525,314.87175,314.68975,21.8893,20.5604,21.8891,21.4184,314.999998,314.999998,324.999988,324.999988,99.55854285714285,99.50668333333333,99.56608571428572,99.54658571428571,0.0847500000000001,-0.040999999999999925,-0.09566666666666668,0.12783333333333333,-0.051666666666669414,-0.04333333333332945,1.5474999999999999,1.5425,37.808,29.502666666666666,37.807,34.865,55.822,34.584,59.1655,52.168,53.751000000000005,33.747,57.7715,50.521,52.906,33.304,57.697,49.949333333333335,-0.09699999999999998,-0.045500000000000096,0.10223,0.11402000000000001,0.0,213.515,213.51999999999998,210.36333333333334,210.36333333333334,0.0,0.0
16,0.0,0.0,0.0,1.0,1.0,0.0,0.0,1.0,0.0,0.0,1.0,1.1856,26.0,0.0,0.0,0.0,59.999996,0.0,26.0,26.0,26.0,26.0,0.023333333333333428,0.2836000000000001,-0.014333333333333335,293.488,-2.663,-2.6444444444444444,-1.56685,-1.5561,-221.66,215.4675,190.659,0.0,0.0,0.0,0.0,0.033,-5.498166666666667,-5.498166666666667,-0.5541,-0.17866666666666664,0.017249999999999988,0.20699999999999996,68.333,0.0118,-0.22537500000000002,-0.2400000000000002,100.0,1.0,1.0,210.84333333333333,0.0,0.0,0.0,0.0,0.0,0.0,0.0,8936.9,0.0,13.0,5.0,245.97333333333336,0.0,0.0,0.0,0.0,0.0,0.0,1.0,0.0,0.8069999999999986,0.8069999999999986,0.0,0.0,0.0,55.0,616.79921,10000.0,85.000001,85.000001,85.000001,85.000001,395.0,0.0,0.0,0.0,1.0,166.665,53.146,53.146,48.737,48.737,34.0,-22.25,25.91,-26.433333333333334,28.4825,0.0,1782.781,-0.28000000000000114,100.0,27.129,27.203,42.223,42.371,0.0,0.0,100.0,0.0,0.0,0.0,0.0,3031.714285714286,3210.1,3935.0,3999.0,305.525,304.66875,315.22975,314.93975,21.8988,20.5658,21.8995,21.4274,314.999998,314.999998,324.999988,324.999988,99.55855714285714,99.50668333333333,99.56622857142857,99.54672857142857,0.09775,-0.030000000000000027,-0.09783333333333333,0.13566666666666666,-0.045000000000001705,-0.046666666666666856,1.5685,1.5665,37.867000000000004,29.53633333333333,37.872,34.9215,55.808,34.6235,59.204499999999996,52.2295,53.738,33.783500000000004,57.808,50.5805,52.891,33.339,57.7305,50.007666666666665,-0.09850000000000003,-0.052000000000000046,0.11151000000000001,0.111265,0.0,213.935,213.95,210.84333333333333,210.84333333333333,0.0,0.0
17,0.0,0.0,0.0,1.0,1.0,0.0,0.0,1.0,0.0,0.0,1.0,1.1856,26.0,0.0,0.0,0.0,59.999996,0.0,26.0,26.0,26.0,26.0,0.028000000000000025,0.28300000000000014,0.041,293.243,-2.62875,-2.7324444444444445,-1.49205,-1.5767,-218.38,215.4625,190.637875,0.0,0.0,0.0,0.0,0.0349,-5.498166666666667,-5.498166666666667,-0.5474,0.14600000000000013,-0.0045000000000001705,0.556,68.468,0.0118,-0.215225,-0.21200000000000063,100.0,1.0,1.0,211.14666666666668,0.0,0.0,0.0,0.0,0.0,0.0,0.0,8949.7,0.0,13.0,5.0,246.45666666666665,1.0,0.0,0.0,0.0,0.0,0.0,1.0,0.0,0.8550000000000004,0.8550000000000004,0.0,0.0,1.0,55.0,616.79921,10000.0,85.000001,85.000001,85.000001,85.000001,395.0,0.0,0.0,0.0,1.0,166.665,53.314,53.314,48.309,48.309,34.0,-21.775,24.869999999999997,-27.083333333333336,30.8325,0.0,1782.734,-0.19000000000000128,100.0,27.365,27.232,42.308,42.381,0.0,0.0,100.0,0.0,0.0,0.0,0.0,2971.0,3041.6,4152.375,4234.9,305.6695,305.0445,314.6745,314.35375,21.9077,20.5709,21.9093,21.4359,314.999998,314.999998,324.999988,324.999988,99.55855714285714,99.5067,99.56637142857143,99.54687142857144,0.09074999999999989,-0.040000000000000036,-0.09183333333333334,0.13083333333333336,-0.046666666666666856,-0.06499999999999773,1.5225,1.505,37.923,29.568333333333335,37.933,34.9745,55.795,34.66,59.2415,52.288,53.726,33.817499999999995,57.842,50.6365,52.878,33.3715,57.762,50.062666666666665,-0.08650000000000002,-0.059499999999999886,0.10929000000000001,0.10664000000000001,0.0,214.375,214.37,211.14666666666668,211.14666666666668,0.0,0.0
18,0.0,0.0,0.0,1.0,1.0,0.0,0.0,1.0,0.0,0.0,1.0,1.1856,26.0,0.0,0.0,0.0,59.999996,0.0,26.0,26.0,26.0,26.0,0.048222222222222166,0.2713000000000001,-0.010133333333333333,293.427,-2.65795,-2.75,-1.4901,-1.5803,-214.88,215.45749999999998,190.615125,0.0,0.0,0.0,0.0,0.03693333333333333,-5.498166666666667,-5.498166666666667,-0.5605,-0.30766666666666664,0.0,-0.575,68.608,0.0059,-0.226325,-0.009999999999999787,100.0,1.0,1.0,211.62333333333333,0.0,0.0,0.0,0.0,0.0,0.0,0.0,8969.9,0.0,13.0,5.0,246.96333333333334,0.0,0.0,0.0,0.0,0.0,0.0,1.0,0.0,0.9059999999999988,0.9059999999999988,0.0,0.0,0.0,55.0,616.79921,10000.0,85.000001,85.000001,85.000001,85.000001,395.0,0.0,0.0,0.0,1.0,166.665,53.36,53.36,48.798,48.798,34.0,-23.28,23.891666666666666,-26.433333333333334,28.22,0.0,1782.682,-0.17999999999999972,100.0,27.188,27.326999999999998,42.301,42.621,0.0,0.0,100.0,0.0,0.0,0.0,0.0,3081.714285714286,2958.0,3991.375,4024.8,305.5695,305.18875,315.124,314.74275,21.9172,20.5762,21.9197,21.445,314.999998,314.999998,324.999988,324.999988,99.55857142857143,99.5067,99.56651428571429,99.54701428571428,0.07774999999999999,-0.05233333333333312,-0.108,0.11316666666666668,-0.045000000000001705,-0.04999999999999716,1.548,1.541,37.982,29.601666666666667,37.998000000000005,35.031,55.781,34.698,59.2795,52.3495,53.712,33.8525,57.878,50.696,52.864000000000004,33.405,57.7945,50.120666666666665,-0.08949999999999991,-0.05900000000000016,0.10452,0.10715000000000001,0.0,214.79000000000002,214.79000000000002,211.62333333333333,211.62333333333333,0.0,0.0
19,0.0,0.0,0.0,1.0,1.0,0.0,0.0,1.0,0.0,0.0,1.0,1.1856,26.0,0.0,0.0,0.0,59.999996,0.0,26.0,26.0,26.0,26.0,0.027666666666666728,0.276,-0.011033333333333334,293.152,-2.66135,-2.717111111111111,-1.5173999999999999,-1.597,-211.57999999999998,215.4525,190.593625,0.0,0.0,0.0,0.0,0.03886666666666667,-5.498166666666667,-5.498166666666667,-0.547,0.4886666666666668,0.008000000000000007,-0.847,68.74000000000001,-0.0001,-0.21097500000000002,0.03200000000000003,100.0,1.0,1.0,212.01,0.0,0.0,0.0,0.0,0.0,0.0,0.0,8986.3,0.0,13.0,5.0,247.43666666666667,1.0,0.0,0.0,0.0,0.0,0.0,1.0,0.0,0.9540000000000006,0.9540000000000006,0.0,0.0,1.0,55.0,616.79921,10000.0,85.000001,85.000001,85.000001,85.000001,395.0,0.0,0.0,0.0,1.0,166.665,53.116,53.116,48.599000000000004,48.599000000000004,34.0,-23.105,22.858333333333334,-28.25,28.56,0.0,1782.635,-0.1750000000000007,100.0,27.59,27.669,42.234,42.698,0.0,0.0,100.0,0.0,0.0,0.0,0.0,3064.857142857143,2896.8,4121.5,4103.4,305.5915,305.36225,314.8565,314.56725,21.9262,20.5814,21.9295,21.4535,314.999998,314.999998,324.999988,324.999988,99.55858571428571,99.50671666666666,99.56664285714285,99.54715714285715,0.08000000000000007,-0.05800000000000005,-0.114,0.101,-0.045000000000001705,-0.03333333333333144,1.514,1.521,38.039,29.633666666666667,38.059,35.0845,55.769,34.736,59.314499999999995,52.408,53.701,33.8875,57.9105,50.752,52.852000000000004,33.439,57.8245,50.175666666666665,-0.09099999999999997,-0.06199999999999983,0.10677500000000001,0.10928,0.0,215.22500000000002,215.23000000000002,212.01,212.01,0.0,0.0
20,0.0,0.0,0.0,1.0,1.0,0.0,0.0,1.0,0.0,0.0,1.0,1.1856,26.0,0.0,0.0,0.0,59.999996,0.0,26.0,26.0,26.0,26.0,-0.004666666666666597,0.25980000000000003,-0.049600000000000005,293.259,-2.7199999999999998,-2.6644444444444444,-1.5508000000000002,-1.5857999999999999,-208.07,215.4475,190.571,0.0,0.0,0.0,0.0,0.0409,-5.498166666666667,-5.498166666666667,-0.5582,-0.7106666666666667,0.006750000000000034,0.567,68.879,-0.002,-0.22785000000000002,-0.019999999999999574,100.0,1.0,1.0,212.46333333333334,0.0,0.0,0.0,0.0,0.0,0.0,0.0,9005.6,0.0,13.0,5.0,247.94,0.0,0.0,0.0,0.0,0.0,0.0,0.0,0.0,1.004999999999999,1.004999999999999,0.0,0.0,0.0,55.0,616.79921,10000.0,85.000001,85.000001,85.000001,85.000001,395.0,0.0,0.0,0.0,1.0,166.665,53.314,53.314,48.294,48.294,34.0,-23.0775,24.57,-27.55,27.775000000000002,0.0,1782.583,-0.18499999999999872,100.0,27.403,27.262999999999998,42.870000000000005,42.908,0.0,0.0,100.0,0.0,0.0,0.0,0.0,2979.5714285714284,3097.8,3975.625,3975.8,305.7355,305.049,315.12175,314.98475,21.9356,20.5868,21.94,21.462699999999998,314.999998,314.999998,324.999988,324.999988,99.5586,99.50671666666666,99.5668,99.5473,0.07825000000000015,-0.04066666666666663,-0.11533333333333333,0.11483333333333333,-0.045000000000001705,-0.05833333333333002,1.543,1.5454999999999999,38.097,29.667333333333332,38.125,35.141999999999996,55.754000000000005,34.775,59.355000000000004,52.4705,53.686,33.923500000000004,57.948,50.812,52.836,33.473,57.859,50.23433333333333,-0.08599999999999985,-0.058499999999999996,0.109755,0.10887500000000001,0.0,215.63,215.63,212.46333333333334,212.46333333333334,0.0,0.0
21,0.0,0.0,0.0,1.0,1.0,0.0,0.0,1.0,0.0,0.0,1.0,1.1856,26.0,0.0,0.0,0.0,59.999996,0.0,26.0,26.0,26.0,26.0,0.009777777777777885,0.28180000000000005,-0.016766666666666666,293.182,-2.73035,-2.6724444444444444,-1.57065,-1.5265,-204.56,215.4425,190.547625,0.0,0.0,0.0,0.0,0.04293333333333333,-5.498166666666667,-5.498166666666667,-0.5695,0.2406666666666668,-0.0045000000000001705,-0.685,69.017,-0.0029000000000000002,-0.21727500000000002,-0.0039999999999995595,100.0,1.0,1.0,212.91666666666669,0.0,0.0,0.0,0.0,0.0,0.0,0.0,9024.8,0.0,13.0,5.0,248.43666666666667,1.0,0.0,0.0,0.0,0.0,0.0,0.0,0.0,1.056000000000001,1.056000000000001,0.0,0.0,1.0,55.0,616.79921,10000.0,85.000001,85.000001,85.000001,85.000001,395.0,0.0,0.0,0.0,1.0,166.665,53.024,53.024,48.615,48.615,34.0,-24.9925,23.891666666666666,-28.426666666666666,26.6,0.0,1782.532,-0.23999999999999844,100.0,27.395,27.39,42.451,42.662,0.0,0.0,100.0,0.0,0.0,0.0,0.0,3189.857142857143,3037.1,4066.75,4047.8,305.299,304.9945,315.021,314.8375,21.9451,20.5922,21.9503,21.4716,314.999998,314.999998,324.999988,324.999988,99.5586,99.50673333333333,99.56694285714286,99.54744285714285,0.07525000000000004,-0.05266666666666664,-0.1165,0.097,-0.05833333333333002,-0.041666666666671404,1.56,1.5635,38.157,29.701,38.189,35.198,55.739999999999995,34.814,59.391,52.5295,53.673,33.9595,57.9815,50.869,52.822,33.507999999999996,57.89,50.290333333333336,-0.09199999999999986,-0.05750000000000011,0.10215,0.10614000000000001,0.0,216.095,216.06,212.91666666666669,212.91666666666669,0.0,0.0
22,0.0,0.0,0.0,1.0,1.0,0.0,0.0,1.0,0.0,0.0,1.0,1.1856,26.0,0.0,0.0,0.0,59.999996,0.0,26.0,26.0,26.0,26.0,-0.0007777777777777661,0.28200000000000003,0.040933333333333335,292.725,-2.7659,-2.6382222222222222,-1.5649000000000002,-1.5223,-201.24,215.4375,190.525125,0.0,0.0,0.0,0.0,0.04486666666666667,-5.498166666666667,-5.498166666666667,-0.557,-0.10866666666666658,0.0035000000000000586,-0.698,69.15,-0.0018000000000000002,-0.20422500000000002,-0.07200000000000006,100.0,1.0,1.0,213.16,0.0,0.0,0.0,0.0,0.0,0.0,0.0,9035.0,0.0,13.0,5.0,248.91,0.0,0.0,0.0,0.0,0.0,0.0,0.0,0.0,1.1039999999999992,1.1039999999999992,0.0,0.0,0.0,55.0,616.79921,10000.0,85.000001,85.000001,85.000001,85.000001,395.0,0.0,0.0,0.0,1.0,166.665,53.009,53.009,47.791,47.791,34.0,-25.3775,23.691666666666666,-31.169999999999998,28.8275,0.0,1782.484,-0.2699999999999996,100.0,27.413,27.47,42.665,42.853,0.0,0.0,100.0,0.0,0.0,0.0,0.0,3189.0,3050.8,4314.375,4282.0,305.352,305.0315,314.43575,314.17675,21.954,20.5973,21.9602,21.4803,314.999998,314.999998,324.999988,324.999988,99.55861428571428,99.50673333333333,99.56708571428571,99.54758571428572,0.07224999999999993,-0.050999999999999934,-0.1245,0.09683333333333333,-0.05666666666667197,-0.04333333333332945,1.494,1.494,38.212,29.733,38.251000000000005,35.2515,55.727000000000004,34.851,59.4285,52.588499999999996,53.661,33.9935,58.016999999999996,50.9255,52.809,33.5405,57.922,50.345666666666666,-0.09699999999999998,-0.053999999999999826,0.11175000000000002,0.10548500000000001,0.0,216.49,216.47500000000002,213.16,213.16,0.0,0.0
23,0.0,0.0,0.0,1.0,1.0,0.0,0.0,1.0,0.0,0.0,1.0,1.1856,26.0,0.0,0.0,0.0,59.999996,0.0,26.0,26.0,26.0,26.0,-0.009333333333333305,0.27380000000000004,0.009933333333333334,292.755,-2.66305,-2.7008888888888887,-1.6293000000000002,-1.5023,-197.70999999999998,215.435,190.501375,0.0,0.0,0.0,0.0,0.046933333333333334,-5.498166666666667,-5.498166666666667,-0.5725,-0.22433333333333338,0.004874999999999963,0.859,69.286,0.0016,-0.225975,-0.2160000000000002,100.0,1.0,1.0,213.64,0.0,0.0,0.0,0.0,0.0,0.0,0.0,9055.4,0.0,13.0,5.0,249.40333333333334,1.0,0.0,0.0,0.0,0.0,0.0,0.0,0.0,1.1550000000000011,1.1550000000000011,0.0,0.0,1.0,55.0,616.79921,10000.0,85.000001,85.000001,85.000001,85.000001,395.0,0.0,0.0,0.0,1.0,333.33500000000004,52.917,52.917,47.958,47.958,34.0,-22.755,24.75,-30.233333333333334,29.0825,0.0,1782.432,-0.2699999999999996,100.0,27.838,27.473,42.957,42.956,0.0,0.0,100.0,0.0,0.0,0.0,0.0,3036.5714285714284,3074.8,4196.0,4207.9,305.4985,305.0705,314.67,314.5025,21.9634,20.6028,21.9706,21.4894,314.999998,314.999998,324.999988,324.999988,99.55862857142857,99.50675,99.56724285714286,99.54772857142858,0.08824999999999994,-0.04133333333333322,-0.11016666666666668,0.1235,-0.054999999999999716,-0.05333333333332746,1.5255,1.516,38.271,29.767333333333333,38.316,35.309,55.714,34.8905,59.467,52.65,53.647999999999996,34.0305,58.0525,50.9845,52.795,33.5755,57.954499999999996,50.403666666666666,-0.09749999999999992,-0.05149999999999988,0.11291000000000001,0.10919000000000001,0.0,216.9,216.89,213.64,213.64,0.0,0.0
24,0.0,0.0,0.0,1.0,1.0,0.0,0.0,1.0,0.0,0.0,1.0,1.1856,26.0,0.0,0.0,0.0,59.999996,0.0,26.0,26.0,26.0,26.0,0.01677777777777778,0.2764,-0.049300000000000004,293.243,-2.71405,-2.697888888888889,-1.5421,-1.5544,-194.38,215.43,190.4785,0.0,0.0,0.0,0.0,0.04886666666666667,-5.498166666666667,-5.498166666666667,-0.5858,-0.4713333333333334,0.01649999999999996,1.091,69.41499999999999,0.004,-0.22032500000000002,-0.16799999999999926,100.0,1.0,1.0,214.06666666666666,0.0,0.0,0.0,0.0,0.0,0.0,0.0,9073.5,0.0,13.0,5.0,249.86666666666667,0.0,0.0,0.0,0.0,0.0,0.0,0.0,0.0,1.2029999999999994,1.2029999999999994,0.0,0.0,0.0,55.0,616.79921,10000.0,85.000001,85.000001,85.000001,85.000001,395.0,0.0,0.0,0.0,1.0,333.33500000000004,53.528,53.528,48.294,48.294,34.0,-22.0925,24.233333333333334,-26.66,28.88,0.0,1782.384,-0.23999999999999844,100.0,27.506,27.187,42.863,42.88,0.0,0.0,100.0,0.0,0.0,0.0,0.0,2916.714285714286,3040.4,4001.5,4114.8,305.963,305.21575,315.06075,314.694,21.9722,20.6078,21.9803,21.498,314.999998,314.999998,324.999988,324.999988,99.55862857142857,99.50675,99.56737142857143,99.54787142857143,0.08700000000000019,-0.04400000000000004,-0.09533333333333333,0.12166666666666667,-0.03833333333332689,-0.04333333333332945,1.55,1.536,38.326,29.798666666666666,38.376999999999995,35.362,55.7,34.926,59.501999999999995,52.707,53.635,34.063,58.085,51.039500000000004,52.782,33.607,57.984,50.457,-0.09549999999999992,-0.05650000000000022,0.10079500000000001,0.10551,0.0,217.28,217.29000000000002,214.06666666666666,214.06666666666666,0.0,0.0
25,0.0,0.0,0.0,1.0,1.0,0.0,0.0,1.0,0.0,0.0,1.0,1.1856,26.0,0.0,0.0,0.0,59.999996,0.0,26.0,26.0,26.0,26.0,0.018444444444444485,0.27190000000000003,0.011566666666666668,292.74,-2.683,-2.6735555555555557,-1.57865,-1.5524,-190.63,215.4275,190.45125,0.0,0.0,0.0,0.0,0.05103333333333333,-5.498166666666667,-5.498166666666667,-0.5961000000000001,0.42599999999999993,0.016249999999999876,0.281,69.55799999999999,0.0066,-0.21400000000000002,-0.21399999999999952,100.0,1.0,1.0,214.53333333333333,0.0,0.0,0.0,0.0,0.0,0.0,0.0,9093.3,0.0,13.0,5.0,250.38,1.0,0.0,0.0,0.0,0.0,0.0,0.0,0.0,1.256999999999998,1.256999999999998,0.0,0.0,1.0,55.0,616.79921,10000.0,85.000001,85.000001,85.000001,85.000001,395.0,0.0,0.0,0.0,1.0,166.665,52.521,52.521,48.187,48.187,34.0,-23.86,26.255,-27.689999999999998,29.6375,0.0,1782.331,-0.254999999999999,100.0,27.718,27.623,42.638,42.726,0.0,0.0,100.0,0.0,0.0,0.0,0.0,3146.142857142857,3230.8,4084.875,4131.5,305.2365,304.53525,314.9595,314.66975,21.9821,20.6137,21.9912,21.5075,314.999998,314.999998,324.999988,324.999988,99.55864285714286,99.50675,99.56752857142857,99.54802857142857,0.08775000000000022,-0.035666666666666735,-0.09516666666666668,0.134,-0.03333333333333144,-0.061666666666667425,1.5525,1.5314999999999999,38.388,29.83566666666667,38.445,35.422,55.686,34.9685,59.54,52.7705,53.620999999999995,34.1025,58.1205,51.1005,52.766999999999996,33.644999999999996,58.0165,50.516666666666666,-0.09650000000000003,-0.0535000000000001,0.10902500000000001,0.10883500000000002,0.0,217.735,217.75,214.53333333333333,214.53333333333333,0.0,0.0
26,0.0,0.0,0.0,1.0,1.0,0.0,0.0,1.0,0.0,0.0,1.0,1.1856,26.0,0.0,0.0,0.0,59.999996,0.0,26.0,26.0,26.0,26.0,0.019777777777777894,0.2712000000000001,0.06406666666666666,292.13,-2.71485,-2.668555555555556,-1.5473,-1.5531000000000001,-187.29,215.425,190.42725,0.0,0.0,0.0,0.0,0.05296666666666667,-5.498166666666667,-5.498166666666667,-0.5701,0.04400000000000004,0.009500000000000064,1.037,69.688,0.0074,-0.204325,-0.1979999999999995,100.0,1.0,1.0,214.75,0.0,0.0,0.0,0.0,0.0,0.0,0.0,9102.4,0.0,13.0,5.0,250.85000000000002,0.0,0.0,0.0,0.0,0.0,0.0,0.0,0.0,1.3049999999999997,1.3049999999999997,0.0,0.0,0.0,55.0,616.79921,10000.0,85.000001,85.000001,85.000001,85.000001,395.0,0.0,0.0,0.0,1.0,166.665,52.551,52.551,47.119,47.119,34.0,-22.5875,25.006666666666668,-29.573333333333334,32.19,0.0,1782.283,-0.29499999999999815,100.0,28.226,27.846,43.266,43.338,0.0,0.0,100.0,0.0,0.0,0.0,0.0,2990.714285714286,3148.3,4319.0,4387.0,305.6265,304.9075,314.299,314.00925,21.991,20.6189,22.0011,21.5163,314.999998,314.999998,324.999988,324.999988,99.55865714285714,99.50676666666666,99.56767142857143,99.54817142857142,0.09474999999999989,-0.04266666666666663,-0.09283333333333334,0.13116666666666665,-0.04333333333332945,-0.05333333333332746,1.4615,1.4435,38.444,29.868333333333332,38.507,35.477000000000004,55.675,35.0065,59.5785,52.8305,53.611000000000004,34.1375,58.1565,51.158,52.756,33.6785,58.0495,50.57333333333334,-0.09650000000000003,-0.05600000000000005,0.11092,0.10839000000000001,0.0,218.16,218.155,214.75,214.75,0.0,0.0
27,0.0,0.0,0.0,1.0,1.0,0.0,0.0,1.0,0.0,0.0,1.0,1.1856,26.0,0.0,0.0,0.0,59.999996,0.0,26.0,26.0,26.0,26.0,0.004222222222222127,0.25950000000000006,-0.0671,292.618,-2.75665,-2.6847777777777777,-1.604,-1.5336,-183.94,215.4225,190.403875,0.0,0.0,0.0,0.0,0.05493333333333334,-5.498166666666667,-5.498166666666667,-0.6003000000000001,-0.7196666666666667,0.015125000000000055,0.6599999999999999,69.813,0.010100000000000001,-0.239375,-0.25,100.0,1.0,1.0,215.30666666666667,0.0,0.0,0.0,0.0,0.0,0.0,0.0,9126.1,0.0,13.0,5.0,251.3,1.0,0.0,0.0,0.0,0.0,0.0,0.0,0.0,1.352999999999998,1.352999999999998,0.0,0.0,1.0,55.0,616.79921,10000.0,85.000001,85.000001,85.000001,85.000001,395.0,0.0,0.0,0.0,1.0,333.33500000000004,52.628,52.628,47.958,47.958,34.0,-23.5275,25.848333333333333,-26.593333333333334,28.795,0.0,1782.234,-0.3249999999999993,100.0,27.848,27.798000000000002,43.412,43.455,0.0,0.0,100.0,0.0,0.0,0.0,0.0,3078.142857142857,3176.0,3885.0,4100.2,305.5265,304.81025,315.32725,314.7605,21.9997,20.6241,22.011,21.525,314.999998,314.999998,324.999988,324.999988,99.55867142857143,99.50676666666666,99.56781428571429,99.54831428571428,0.0950000000000002,-0.03266666666666662,-0.09533333333333333,0.12933333333333336,-0.045000000000001705,-0.051666666666669414,1.5415,1.5514999999999999,38.498000000000005,29.900666666666666,38.569,35.531,55.662,35.0435,59.6145,52.888,53.599000000000004,34.1715,58.19,51.213499999999996,52.742000000000004,33.711,58.08,50.62766666666667,-0.10050000000000003,-0.05250000000000021,0.10155,0.106075,0.0,218.5,218.495,215.30666666666667,215.30666666666667,0.0,0.0
28,0.0,0.0,0.0,1.0,1.0,0.0,0.0,1.0,0.0,0.0,1.0,1.1856,26.0,0.0,0.0,0.0,59.999996,0.0,26.0,26.0,26.0,26.0,0.033333333333333215,0.27890000000000015,-0.037533333333333335,292.603,-2.7259,-2.6847777777777777,-1.56105,-1.5629,-180.38,215.42000000000002,190.378,0.0,0.0,0.0,0.0,0.057,-5.498166666666667,-5.498166666666667,-0.5955,0.46233333333333326,0.00024999999999986144,-0.9630000000000001,69.947,0.0099,-0.20777500000000002,-0.23799999999999955,100.0,1.0,1.0,215.68333333333334,0.0,0.0,0.0,0.0,0.0,0.0,0.0,9142.1,0.0,13.0,5.0,251.78,0.0,0.0,0.0,0.0,0.0,0.0,0.0,0.0,1.404,1.404,0.0,0.0,0.0,55.0,616.79921,10000.0,85.000001,85.000001,85.000001,85.000001,395.0,0.0,0.0,0.0,1.0,166.665,52.902,52.902,47.531,47.531,34.0,-22.8175,23.90833333333333,-29.12,29.3075,0.0,1782.185,-0.370000000000001,100.0,27.776,27.996000000000002,42.96,43.222,0.0,0.0,100.0,0.0,0.0,0.0,0.0,3056.5714285714284,2981.4,4226.0,4156.8,305.7025,305.13775,314.64725,314.58575,22.009,20.6297,22.0212,21.534,314.999998,314.999998,324.999988,324.999988,99.55867142857143,99.50678333333333,99.56795714285714,99.54845714285715,0.09775,-0.04400000000000004,-0.10266666666666667,0.11933333333333333,-0.045000000000001705,-0.045000000000001705,1.5225,1.531,38.556,29.935666666666666,38.632,35.5875,55.65,35.083,59.65,52.9475,53.587,34.2085,58.223,51.2705,52.729,33.7465,58.1095,50.68333333333334,-0.10899999999999999,-0.04899999999999993,0.10509,0.09967500000000001,0.0,218.93,218.95,215.68333333333334,215.68333333333334,0.0,0.0
29,0.0,0.0,0.0,1.0,1.0,0.0,0.0,1.0,0.0,0.0,1.0,1.1856,26.0,0.0,0.0,0.0,59.999996,0.0,26.0,26.0,26.0,26.0,0.026999999999999913,0.25839999999999996,-0.003166666666666667,292.145,-2.75705,-2.591111111111111,-1.5965,-1.5658,-176.59,215.41750000000002,190.34975,0.0,0.0,0.0,0.0,0.0592,-5.498166666666667,-5.498166666666667,-0.6102000000000001,-0.4853333333333334,-0.0036249999999999893,-0.5050000000000001,70.089,0.0122,-0.22315000000000002,-0.1720000000000006,100.0,1.0,1.0,216.08333333333331,0.0,0.0,0.0,0.0,0.0,0.0,0.0,9159.0,0.0,13.0,5.0,252.29333333333335,1.0,0.0,0.0,0.0,0.0,0.0,0.0,0.0,1.4579999999999984,1.4579999999999984,0.0,0.0,1.0,55.0,616.79921,10000.0,85.000001,85.000001,85.000001,85.000001,395.0,0.0,0.0,0.0,1.0,166.665,51.971000000000004,51.971000000000004,47.684,47.684,34.0,-26.2075,26.205,-28.61,29.3425,0.0,1782.131,-0.4250000000000007,100.0,27.821,27.919,43.269999999999996,43.538,0.0,0.0,100.0,0.0,0.0,0.0,0.0,3398.142857142857,3290.3,4098.875,4088.7,304.7765,304.37975,314.91525,314.67075,22.0188,20.6356,22.0323,21.5438,314.999998,314.999998,324.999988,324.999988,99.5587,99.50678333333333,99.56811428571429,99.54862857142857,0.09425000000000017,-0.03133333333333321,-0.10316666666666667,0.12666666666666668,-0.03999999999999915,-0.046666666666666856,1.526,1.511,38.617999999999995,29.97233333333333,38.702,35.649,55.635999999999996,35.124,59.691,53.013,53.573,34.246,58.2615,51.3335,52.715,33.7825,58.1445,50.745,-0.11299999999999999,-0.044500000000000206,0.10566500000000001,0.11245500000000001,0.0,219.35000000000002,219.365,216.08333333333331,216.08333333333331,0.0,0.0
30,0.0,0.0,0.0,1.0,1.0,0.0,0.0,1.0,0.0,0.0,1.0,1.1856,26.0,0.0,0.0,0.0,59.999996,0.0,26.0,26.0,26.0,26.0,0.0041111111111111764,0.2976000000000001,0.04106666666666667,291.626,-2.7304,-2.6564444444444444,-1.63645,-1.4615,-173.44,215.41750000000002,190.32625,0.0,0.0,0.0,0.0,0.06103333333333334,-5.498166666666667,-5.498166666666667,-0.5951000000000001,0.8363333333333334,0.005624999999999991,1.02,70.206,0.014,-0.211675,-0.3899999999999997,100.0,1.0,1.0,216.36666666666667,0.0,0.0,0.0,0.0,0.0,0.0,0.0,9170.9,0.0,13.0,5.0,252.71333333333334,0.0,0.0,0.0,0.0,0.0,0.0,1.0,0.0,1.5030000000000001,1.5030000000000001,0.0,0.0,0.0,55.0,616.79921,10000.0,85.000001,85.000001,85.000001,85.000001,395.0,0.0,0.0,0.0,1.0,166.665,51.788,51.788,46.906,46.906,34.0,-22.765,25.928333333333335,-30.783333333333335,31.2175,0.0,1782.086,-0.46000000000000085,100.0,28.721,28.498,43.33,43.547,0.0,0.0,100.0,0.0,0.0,0.0,0.0,3090.4285714285716,3189.6,4402.0,4479.1,305.3355,304.63375,314.26475,313.95975,22.0272,20.6407,22.0414,21.5519,314.999998,314.999998,324.999988,324.999988,99.55871428571429,99.50678333333333,99.56824285714286,99.54875714285714,0.11425000000000018,-0.03200000000000003,-0.08600000000000001,0.13233333333333336,-0.046666666666666856,-0.060000000000002274,1.512,1.496,38.67,30.003999999999998,38.759,35.6995,55.628,35.161,59.724000000000004,53.067,53.565,34.2805,58.2915,51.3855,52.706,33.8155,58.172,50.796,-0.11799999999999988,-0.04700000000000015,0.10079500000000001,0.105355,0.0,219.75,219.775,216.36666666666667,216.36666666666667,0.0,0.0
31,0.0,0.0,0.0,1.0,1.0,0.0,0.0,1.0,0.0,0.0,1.0,1.1856,26.0,0.0,0.0,0.0,59.999996,0.0,26.0,26.0,26.0,26.0,0.044777777777777805,0.2703,-0.030500000000000003,291.779,-2.70495,-2.7102222222222223,-1.59395,-1.5445,-169.64,215.42000000000002,190.299,0.0,0.0,0.0,0.0,0.06323333333333334,-5.498166666666667,-5.498166666666667,-0.5906,-0.41300000000000003,0.01024999999999987,0.364,70.346,0.0165,-0.226525,-0.47799999999999976,100.0,1.0,1.0,216.81666666666666,0.0,0.0,0.0,0.0,0.0,0.0,0.0,9190.0,0.0,13.0,5.0,253.22,1.0,0.0,0.0,0.0,0.0,0.0,1.0,0.0,1.5569999999999986,1.5569999999999986,0.0,0.0,1.0,55.0,616.79921,10000.0,85.000001,85.000001,85.000001,85.000001,395.0,0.0,0.0,0.0,1.0,166.665,52.124,52.124,46.6,46.6,34.0,-20.8725,26.415,-27.883333333333333,31.3225,0.0,1782.031,-0.4400000000000013,100.0,28.414,28.594,43.948,44.18,0.0,0.0,100.0,0.0,0.0,0.0,0.0,2914.857142857143,3201.2,4108.25,4273.4,305.893,304.61075,314.8685,314.349,22.037,20.6467,22.0525,21.5619,314.999998,314.999998,324.999988,324.999988,99.55872857142857,99.50678333333333,99.5684,99.54891428571429,0.11775000000000002,-0.03499999999999992,-0.08583333333333333,0.14133333333333334,-0.046666666666666856,-0.05833333333333002,1.509,1.4945,38.730999999999995,30.042,38.828,35.762,55.614999999999995,35.204,59.766,53.1345,53.553,34.32,58.331,51.4505,52.693,33.8535,58.208,50.85933333333333,-0.11650000000000005,-0.04999999999999982,0.10557000000000001,0.10590000000000001,0.0,220.15,220.17000000000002,216.81666666666666,216.81666666666666,0.0,0.0
32,0.0,0.0,0.0,1.0,1.0,0.0,0.0,1.0,0.0,0.0,1.0,1.1856,26.0,0.0,0.0,0.0,59.999996,0.0,26.0,26.0,26.0,26.0,0.04588888888888887,0.2539,-0.0734,292.297,-2.7593,-2.664888888888889,-1.65305,-1.6217000000000001,-166.26,215.42000000000002,190.274625,0.0,0.0,0.0,0.0,0.06520000000000001,-5.498166666666667,-5.498166666666667,-0.6072000000000001,-0.20866666666666667,-0.015000000000000124,0.21299999999999997,70.468,0.0204,-0.2267,-0.3779999999999992,100.0,1.0,1.0,217.29666666666668,0.0,0.0,0.0,0.0,0.0,0.0,0.0,9210.4,0.0,13.0,5.0,253.66,0.0,0.0,0.0,0.0,0.0,0.0,1.0,0.0,1.6050000000000004,1.6050000000000004,0.0,0.0,0.0,55.0,616.79921,10000.0,85.000001,85.000001,85.000001,85.000001,395.0,0.0,0.0,0.0,1.0,333.33500000000004,52.444,52.444,47.699,47.699,34.0,-22.4075,25.586666666666666,-27.203333333333333,31.14,0.0,1781.981,-0.3949999999999996,100.0,28.243,28.212,43.6,43.963,0.0,0.0,100.0,0.0,0.0,0.0,0.0,3046.142857142857,3108.5,3998.75,4074.1000000000004,305.64,305.02925,315.25575,314.7695,22.0457,20.652,22.0622,21.5706,314.999998,314.999998,324.999988,324.999988,99.55874285714286,99.5068,99.56855714285714,99.54907142857142,0.11549999999999994,-0.01966666666666672,-0.0805,0.15266666666666667,-0.04999999999999716,-0.051666666666669414,1.5425,1.5245,38.786,30.075,38.888999999999996,35.816,55.602999999999994,35.2425,59.8015,53.1945,53.541,34.356,58.364,51.507999999999996,52.68,33.888,58.238,50.915333333333336,-0.11549999999999994,-0.04600000000000026,0.10534500000000001,0.109575,0.0,220.53,220.55,217.29666666666668,217.29666666666668,0.0,0.0
33,0.0,0.0,0.0,1.0,1.0,0.0,0.0,1.0,0.0,0.0,1.0,1.1856,26.0,0.0,0.0,0.0,59.999996,0.0,26.0,26.0,26.0,26.0,0.04644444444444429,0.2733000000000001,-0.03883333333333333,292.206,-2.7251,-2.6546666666666665,-1.64835,-1.5413000000000001,-162.67000000000002,215.4225,190.247375,0.0,0.0,0.0,0.0,0.0673,-5.498166666666667,-5.498166666666667,-0.6149,-0.22799999999999998,-0.006250000000000089,-0.22999999999999998,70.599,0.023700000000000002,-0.2121,-0.30799999999999894,100.0,1.0,1.0,217.62333333333333,0.0,0.0,0.0,0.0,0.0,0.0,0.0,9224.3,0.0,13.0,5.0,254.13,1.0,0.0,0.0,0.0,0.0,0.0,1.0,0.0,1.6559999999999988,1.6559999999999988,0.0,0.0,1.0,55.0,616.79921,10000.0,85.000001,85.000001,85.000001,85.000001,395.0,0.0,0.0,0.0,1.0,166.665,52.658,52.658,47.272,47.272,34.0,-23.0225,24.311666666666667,-29.68,30.155,0.0,1781.932,-0.40500000000000114,100.0,27.908,28.052,43.434,43.859,0.0,0.0,100.0,0.0,0.0,0.0,0.0,3130.142857142857,3037.6,4240.875,4186.0,305.511,305.068,314.6845,314.5325,22.0549,20.6575,22.0726,21.5798,314.999998,314.999998,324.999988,324.999988,99.55875714285715,99.5068,99.5687,99.54921428571429,0.10749999999999993,-0.03766666666666674,-0.0895,0.13533333333333333,-0.051666666666669414,-0.05333333333332746,1.529,1.521,38.843,30.109333333333332,38.953,35.8735,55.591,35.2785,59.8365,53.2505,53.53,34.388999999999996,58.397,51.562,52.668,33.9195,58.2675,50.968,-0.11099999999999999,-0.052000000000000046,0.10033500000000001,0.108685,0.0,220.94,220.96,217.62333333333333,217.62333333333333,0.0,0.0
34,0.0,0.0,0.0,1.0,1.0,0.0,0.0,1.0,0.0,0.0,1.0,1.1856,26.0,0.0,0.0,0.0,59.999996,0.0,26.0,26.0,26.0,26.0,0.06344444444444441,0.2654000000000001,-0.06703333333333333,292.618,-2.7661,-2.6176666666666666,-1.5958999999999999,-1.5715,-159.26999999999998,215.4275,190.2205,0.0,0.0,0.0,0.0,0.06926666666666667,-5.498166666666667,-5.498166666666667,-0.6487,-1.0033333333333334,0.014124999999999943,-0.5050000000000001,70.72200000000001,0.0233,-0.22445,-0.32399999999999984,100.0,1.0,1.0,218.01333333333332,0.0,0.0,0.0,0.0,0.0,0.0,0.0,9240.8,0.0,13.0,5.0,254.57333333333332,0.0,0.0,0.0,0.0,0.0,0.0,1.0,0.0,1.7040000000000006,1.7040000000000006,0.0,0.0,0.0,55.0,616.79921,10000.0,85.000001,85.000001,85.000001,85.000001,395.0,0.0,0.0,0.0,1.0,333.33500000000004,53.268,53.268,47.638,47.638,34.0,-21.7525,24.038333333333334,-27.436666666666664,30.5225,0.0,1781.884,-0.375,100.0,27.508,27.771,43.272,43.914,0.0,0.0,100.0,0.0,0.0,0.0,0.0,2933.285714285714,3014.4,4054.0,4138.3,306.0265,305.10875,315.04575,314.528,22.0634,20.6626,22.0823,21.5885,314.999998,314.999998,324.999988,324.999988,99.55875714285715,99.5068,99.56884285714285,99.54935714285715,0.10824999999999996,-0.032333333333333325,-0.08833333333333333,0.13983333333333334,-0.04999999999999716,-0.036666666666668846,1.5335,1.5245,38.896,30.141666666666666,39.013999999999996,35.928,55.577,35.313,59.8695,53.308,53.516999999999996,34.421,58.4275,51.6175,52.653999999999996,33.95,58.295,51.022333333333336,-0.11149999999999993,-0.044500000000000206,0.10236500000000001,0.11337000000000001,0.0,221.3,221.305,218.01333333333332,218.01333333333332,0.0,0.0
35,0.0,0.0,0.0,1.0,1.0,0.0,0.0,1.0,0.0,0.0,1.0,1.1856,26.0,0.0,0.0,0.0,59.999996,0.0,26.0,26.0,26.0,26.0,0.0257777777777779,0.25570000000000004,-0.05996666666666667,292.328,-2.7883,-2.6722222222222225,-1.6022,-1.5197,-155.66,215.43,190.189875,0.0,0.0,0.0,0.0,0.07136666666666666,-5.498166666666667,-5.498166666666667,-0.6746,0.23933333333333318,-0.014124999999999943,-0.42100000000000004,70.85,0.0257,-0.21680000000000002,-0.3120000000000003,100.0,1.0,1.0,218.49,0.0,0.0,0.0,0.0,0.0,0.0,0.0,9261.1,0.0,13.0,5.0,255.03333333333336,1.0,0.0,0.0,0.0,0.0,0.0,1.0,0.0,1.754999999999999,1.754999999999999,0.0,0.0,1.0,55.0,616.79921,10000.0,85.000001,85.000001,85.000001,85.000001,395.0,0.0,0.0,0.0,1.0,333.33500000000004,52.17,52.17,47.775,47.775,34.0,-24.685,27.39666666666667,-26.223333333333333,30.0625,0.0,1781.832,-0.21499999999999986,100.0,27.744,28.182000000000002,43.055,43.293,0.0,0.0,100.0,0.0,0.0,0.0,0.0,3218.142857142857,3302.4,3995.75,4122.9,305.2055,304.33725,315.19075,314.7915,22.072499999999998,20.6685,22.0925,21.5976,314.999998,314.999998,324.999988,324.999988,99.55877142857143,99.5068,99.56898571428572,99.5495,0.10250000000000004,-0.026000000000000023,-0.07433333333333333,0.155,-0.03833333333332689,-0.051666666666669414,1.5665,1.543,38.953,30.177999999999997,39.078,35.985,55.563,35.354,59.903999999999996,53.3645,53.504000000000005,34.459,58.4595,51.672,52.64,33.9865,58.324,51.07566666666666,-0.09099999999999997,-0.05900000000000016,0.09944000000000001,0.11441000000000001,0.0,221.70499999999998,221.74,218.49,218.49,0.0,0.0
36,0.0,0.0,0.0,1.0,1.0,0.0,0.0,1.0,0.0,0.0,1.0,1.1856,26.0,0.0,0.0,0.0,59.999996,0.0,26.0,26.0,26.0,26.0,0.014555555555555655,0.27859999999999996,-0.02266666666666667,291.901,-2.7706,-2.625888888888889,-1.6243500000000002,-1.5985,-152.26,215.435,190.160125,0.0,0.0,0.0,0.0,0.07333333333333333,-5.498166666666667,-5.498166666666667,-0.6638000000000001,-0.651,-0.05437499999999984,0.248,70.975,0.0213,-0.20405,-0.14200000000000035,100.0,1.0,1.0,218.59,0.0,0.0,0.0,0.0,0.0,0.0,0.0,9265.2,0.0,13.0,5.0,255.48333333333335,0.0,0.0,0.0,0.0,0.0,0.0,1.0,0.0,1.8030000000000008,1.8030000000000008,0.0,0.0,0.0,55.0,616.79921,10000.0,85.000001,85.000001,85.000001,85.000001,395.0,0.0,0.0,0.0,1.0,333.33500000000004,53.055,53.055,46.478,46.478,34.0,-22.5125,23.226666666666667,-32.34,33.06,0.0,1781.784,-0.16499999999999915,100.0,28.155,27.962,43.649,43.806,0.0,0.0,100.0,0.0,0.0,0.0,0.0,2979.857142857143,2963.2,4587.75,4405.8,305.917,305.55075,313.79675,313.9975,22.0811,20.6737,22.1024,21.6064,314.999998,314.999998,324.999988,324.999988,99.55878571428572,99.50681666666667,99.56912857142858,99.54964285714286,0.10000000000000009,-0.03433333333333333,-0.08216666666666668,0.13116666666666665,-0.045000000000001705,-0.04833333333333201,1.4465,1.4465,39.007,30.21066666666667,39.14,36.0405,55.551,35.39,59.9415,53.424,53.492999999999995,34.4925,58.4945,51.7295,52.626999999999995,34.0185,58.356,51.13166666666667,-0.08799999999999986,-0.06450000000000022,0.10374000000000001,0.1044,0.0,222.11,222.12,218.59,218.59,0.0,0.0
