,ABS Active,ABS Enabled,AID Allow Tire Blankets,AID Auto Blip,AID Auto Clutch,AID Auto Shift,AID Fuel Rate,AID Ideal Line,AID Mech Damage,AID Stability,AID Tire Wear Rate,Air Density,Air Temp,Ballast,Best Lap Delta,Best Lap Time,Brake Bias,Brake Pos,Brake Temp FL,Brake Temp FR,Brake Temp RL,Brake Temp RR,CG Accel Lateral,CG Accel Longitudinal,CG Accel Vertical,CG Height,Camber FL,Camber FR,Camber RL,Camber RR,Car Coord X,Car Coord Y,Car Coord Z,Car Damage Front,Car Damage Left,Car Damage Rear,Car Damage Right,Car Pos Norm,Caster FL,Caster FR,Chassis Pitch Angle,Chassis Pitch Rate,Chassis Roll Angle,Chassis Roll Rate,Chassis Velocity X,Chassis Velocity Y,Chassis Velocity Z,Chassis Yaw Rate,Clutch Pos,DRS Active,DRS Available,Drive Train Speed,ERS Heat Charging,ERS Is Charging,ERS Max Energy,ERS Power Level,ERS Recovery Level,Engine Brake Setting,Engine Limiter,Engine RPM,Flags,Fuel Level,Gear,Ground Speed,HR Sample Clock,In Pit,KERS Charge,KERS Deployed Energy,KERS Input,KERS Max Energy,LR Sample Clock,Lap Invalidated,Lap Time,Lap Time2,Last Lap Time,Last Sector Time,MR Sample Clock,Max Fuel,Max Power,Max RPM,Max Sus Travel FL,Max Sus Travel FR,Max Sus Travel RL,Max Sus Travel RR,Max Torque,Max Turbo Boost,Num Tires Off Track,Penalties Enabled,Position,Raw Data Sample Rate,Ride Height FL,Ride Height FR,Ride Height RL,Ride Height RR,Road Temp,Self Align Torque FL,Self Align Torque FR,Self Align Torque RL,Self Align Torque RR,Session Lap Count,Session Time Left,Steering Angle,Surface Grip,Suspension Travel FL,Suspension Travel FR,Suspension Travel RL,Suspension Travel RR,TC Active,TC Enabled,Throttle Pos,Tire Dirt Level FL,Tire Dirt Level FR,Tire Dirt Level RL,Tire Dirt Level RR,Tire Load FL,Tire Load FR,Tire Load RL,Tire Load RR,Tire Loaded Radius FL,Tire Loaded Radius FR,Tire Loaded Radius RL,Tire Loaded Radius RR,Tire Pressure FL,Tire Pressure FR,Tire Pressure RL,Tire Pressure RR,Tire Radius FL,Tire Radius FR,Tire Radius RL,Tire Radius RR,Tire Rubber Grip FL,Tire Rubber Grip FR,Tire Rubber Grip RL,Tire Rubber Grip RR,Tire Slip Angle FL,Tire Slip Angle FR,Tire Slip Angle RL,Tire Slip Angle RR,Tire Slip Ratio FL,Tire Slip Ratio FR,Tire Slip Ratio RL,Tire Slip Ratio RR,Tire Temp Core FL,Tire Temp Core FR,Tire Temp Core RL,Tire Temp Core RR,Tire Temp Inner FL,Tire Temp Inner FR,Tire Temp Inner RL,Tire Temp Inner RR,Tire Temp Middle FL,Tire Temp Middle FR,Tire Temp Middle RL,Tire Temp Middle RR,Tire Temp Outer FL,Tire Temp Outer FR,Tire Temp Outer RL,Tire Temp Outer RR,Toe In FL,Toe In FR,Toe In RL,Toe In RR,Turbo Boost,Wheel Angular Speed FL,Wheel Angular Speed FR,Wheel Angular Speed RL,Wheel Angular Speed RR,Wind Direction,Wind Speed
0,0.0,0.0,0.0,1.0,1.0,0.0,0.0,1.0,0.0,0.0,1.0,1.1856,26.0,0.0,0.0,0.0,59.99999,0.0,26.0,26.0,26.0,26.0,-0.12337500000000001,0.3056000000000001,0.027350000000000003,294.495,-2.7023,-2.6843,-1.4935,-1.5687,-275.7,216.2725,190.988125,0.0,0.0,0.0,0.0,0.0015666666666666667,-5.498166666666667,-5.498166666666667,-0.5700000000000001,1.42,-0.026444444444444493,-0.518,66.018,-0.0665,-0.2359,1.3260000000000005,100.0,1.0,1.0,203.95666666666668,0.0,0.0,0.0,0.0,0.0,0.0,0.0,8645.0,0.0,12.0,5.0,237.63666666666666,0.0,0.0,0.0,0.0,0.0,0.0,0.0,0.0,0.0030000000000001137,0.0030000000000001137,0.0,0.0,0.0,55.0,616.79921,10000.0,85.0,85.0,85.0,85.0,395.0,0.0,0.0,0.0,1.0,20.0,52.612,52.612,50.644,50.644,34.0,-28.9075,23.73,-29.81,21.697499999999998,0.0,1783.597,0.8550000000000004,100.0,27.463,26.485,40.249,39.847,0.0,0.0,100.0,0.0,0.0,0.0,0.0,3144.285714285714,3486.3,3929.6666666666665,3788.3,305.2355,303.71075,315.319,315.397,21.7459,20.4863,21.7331,21.2816,314.99999,314.99999,324.99998,324.99998,99.55835714285715,99.50666666666666,99.56391428571429,99.54425714285715,-0.030999999999999917,-0.1383333333333332,-0.1975,0.03266666666666666,-0.04333333333332945,-0.07499999999999574,1.6045,1.6589999999999998,36.912,29.03933333333333,36.832,34.01,56.036,34.045500000000004,58.57,51.1795,53.955,33.2495,57.2195,49.571,53.120000000000005,32.826,57.192499999999995,49.01566666666667,-0.006000000000000005,-0.13749999999999996,0.10650000000000001,0.1102,0.0,206.86,206.755,203.95666666666668,203.95666666666668,0.0,0.0
1,0.0,0.0,0.0,1.0,1.0,0.0,0.0,1.0,0.0,0.0,1.0,1.1856,26.0,0.0,0.0,0.0,59.999996,0.0,26.0,26.0,26.0,26.0,-0.14774999999999994,0.33210000000000006,0.16495,293.564,-2.62125,-2.7907,-1.5049000000000001,-1.5613000000000001,-272.33,216.2725,190.967875,0.0,0.0,0.0,0.0,0.0035333333333333336,-5.498166666666667,-5.498166666666667,-0.4874,-0.21199999999999997,-0.07477777777777783,-0.727,66.178,-0.07780000000000001,-0.1882,1.5820000000000007,100.0,1.0,1.0,203.97333333333333,0.0,0.0,0.0,0.0,0.0,0.0,0.0,8645.7,0.0,12.0,5.0,238.20666666666668,1.0,0.0,0.0,0.0,0.0,0.0,0.0,0.0,0.053999999999998494,0.053999999999998494,0.0,0.0,1.0,55.0,616.79921,10000.0,85.000001,85.000001,85.000001,85.000001,395.0,0.0,0.0,0.0,1.0,333.33500000000004,54.367,54.367,48.569,48.569,34.0,-27.0175,15.96,-36.66333333333333,27.6275,0.0,1783.544,0.9450000000000003,100.0,27.394,26.571,42.446,40.999,0.0,0.0,100.0,0.0,0.0,0.0,0.0,3013.857142857143,2506.5,4415.222222222223,4745.1,305.684,306.846,314.0055,313.027,21.7558,20.4913,21.7439,21.2906,314.999998,314.999998,324.999988,324.999988,99.55837142857143,99.50668333333333,99.56407142857142,99.5444,-0.03766666666666674,-0.16500000000000004,-0.21383333333333335,0.007666666666666667,-0.02499999999999858,-0.07000000000000028,1.395,1.4739999999999998,36.974000000000004,29.070666666666668,36.899,34.0665,56.021,34.088499999999996,58.618,51.246,53.94,33.289,57.2645,49.6345,53.105000000000004,32.8635,57.2345,49.078,0.0030000000000001137,-0.14800000000000013,0.108615,0.11044000000000001,0.0,207.365,207.24,203.97333333333333,203.97333333333333,0.0,0.0
2,0.0,0.0,0.0,1.0,1.0,0.0,0.0,1.0,0.0,0.0,1.0,1.1856,26.0,0.0,0.0,0.0,59.999996,0.0,26.0,26.0,26.0,26.0,-0.17974999999999997,0.27900000000000014,-0.15255000000000002,294.373,-2.5842,-2.8263,-1.46425,-1.6233,-268.95,216.26749999999998,190.949,0.0,0.0,0.0,0.0,0.0055000000000000005,-5.498166666666667,-5.498166666666667,-0.5505,-0.22049999999999992,-0.06866666666666665,2.521,66.322,-0.09000000000000001,-0.259025,1.7439999999999998,100.0,1.0,1.0,204.96666666666667,0.0,0.0,0.0,0.0,0.0,0.0,0.0,8687.9,0.0,12.0,5.0,238.73000000000002,0.0,0.0,0.0,0.0,0.0,0.0,0.0,0.0,0.10500000000000043,0.10500000000000043,0.0,0.0,0.0,55.0,616.79921,10000.0,85.000001,85.000001,85.000001,85.000001,395.0,0.0,0.0,0.0,1.0,166.665,53.101,53.101,50.888,50.888,34.0,-30.447499999999998,18.35333333333333,-28.84,18.5625,0.0,1783.495,0.870000000000001,100.0,28.033,26.41,42.4,40.766999999999996,0.0,0.0,100.0,0.0,0.0,0.0,0.0,3310.5714285714284,2831.0,3662.5555555555557,3554.3,304.592,305.84625,315.83325,316.092,21.766,20.496,21.7542,21.2993,314.999998,314.999998,324.999988,324.999988,99.55838571428572,99.50668333333333,99.56421428571429,99.54454285714286,-0.045666666666666744,-0.17366666666666664,-0.24266666666666667,-0.0085,-0.03499999999999659,-0.051666666666669414,1.6755,1.742,37.037,29.1,36.964,34.1205,56.009,34.126999999999995,58.658500000000004,51.3035,53.929,33.3245,57.302,49.69,53.093,32.8975,57.2695,49.132333333333335,-0.005499999999999949,-0.14250000000000007,0.10800000000000001,0.110475,0.0,207.785,207.625,204.96666666666667,204.96666666666667,0.0,0.0
3,0.0,0.0,0.0,1.0,1.0,0.0,0.0,1.0,0.0,0.0,1.0,1.1856,26.0,0.0,0.0,0.0,59.999996,0.0,26.0,26.0,26.0,26.0,-0.16249999999999998,0.3156000000000001,-0.028125,294.037,-2.72215,-2.7062,-1.4965,-1.5918,-265.76,216.26,190.93025,0.0,0.0,0.0,0.0,0.007366666666666667,-5.498166666666667,-5.498166666666667,-0.5112,0.845,-0.019777777777777672,-0.646,66.469,-0.1022,-0.20225,1.436,100.0,1.0,1.0,205.09666666666666,0.0,0.0,0.0,0.0,0.0,0.0,0.0,8693.3,0.0,12.0,5.0,239.25666666666666,1.0,0.0,0.0,0.0,0.0,0.0,0.0,0.0,0.1529999999999987,0.1529999999999987,0.0,0.0,1.0,55.0,616.79921,10000.0,85.000001,85.000001,85.000001,85.000001,395.0,0.0,0.0,0.0,1.0,166.665,54.062,54.062,48.782,48.782,34.0,-26.28,17.218333333333334,-35.52333333333333,22.7975,0.0,1783.447,0.6699999999999999,100.0,27.635,26.629,41.989000000000004,40.804,0.0,0.0,100.0,0.0,0.0,0.0,0.0,2840.0,2741.3,4288.444444444444,4176.1,306.109,305.897,314.41075,314.4865,21.7753,20.500799999999998,21.7639,21.3075,314.999998,314.999998,324.999988,324.999988,99.55838571428572,99.50671666666666,99.56434285714286,99.54467142857143,-0.04166666666666674,-0.16566666666666663,-0.2325,-0.010333333333333335,-0.01666666666666572,-0.036666666666668846,1.5135,1.5575,37.095,29.13,37.024,34.172,55.995000000000005,34.1685,58.695499999999996,51.363,53.915,33.3625,57.337,49.7465,53.079,32.934,57.3015,49.188,-0.021499999999999964,-0.121,0.10448500000000001,0.10890500000000002,0.0,208.245,208.155,205.0966666666667,205.09666666666666,0.0,0.0
4,0.0,0.0,0.0,1.0,1.0,0.0,0.0,1.0,0.0,0.0,1.0,1.1856,26.0,0.0,0.0,0.0,59.999996,0.0,26.0,26.0,26.0,26.0,-0.17199999999999993,0.29980000000000007,-0.007175,294.205,-2.65555,-2.765,-1.5129000000000001,-1.6041,-262.37,216.2475,190.910375,0.0,0.0,0.0,0.0,0.009333333333333334,-5.498166666666667,-5.498166666666667,-0.5394,-0.952,-0.08777777777777773,-0.7090000000000001,66.619,-0.09820000000000001,-0.23545000000000002,1.2100000000000009,100.0,1.0,1.0,205.66,0.0,0.0,0.0,0.0,0.0,0.0,0.0,8717.2,0.0,12.0,5.0,239.8,0.0,0.0,0.0,0.0,0.0,0.0,0.0,0.0,0.20400000000000063,0.20400000000000063,0.0,0.0,0.0,55.0,616.79921,10000.0,85.000001,85.000001,85.000001,85.000001,395.0,0.0,0.0,0.0,1.0,333.33500000000004,53.787,53.787,49.225,49.225,34.0,-28.64,19.15833333333333,-32.63666666666666,20.497500000000002,0.0,1783.394,0.6600000000000001,100.0,27.406,26.177,42.585,41.004,0.0,0.0,100.0,0.0,0.0,0.0,0.0,3149.4285714285716,2899.6,4046.222222222222,3655.0,305.2915,305.64525,314.85925,315.713,21.7849,20.5057,21.7745,21.3164,314.999998,314.999998,324.999988,324.999988,99.55838571428572,99.50673333333333,99.5645,99.54481428571428,-0.03499999999999992,-0.15300000000000002,-0.21883333333333335,0.012833333333333334,-0.03833333333332689,-0.054999999999999716,1.5665,1.6099999999999999,37.156,29.160666666666664,37.09,34.227000000000004,55.977000000000004,34.210499999999996,58.7395,51.423500000000004,53.899,33.400999999999996,57.3785,49.8045,53.061,32.971000000000004,57.34,49.24466666666667,-0.020000000000000018,-0.12200000000000011,0.11431000000000001,0.1106,0.0,208.69,208.56,205.66,205.66,0.0,0.0
5,0.0,0.0,0.0,1.0,1.0,0.0,0.0,1.0,0.0,0.0,1.0,1.1856,26.0,0.0,0.0,0.0,59.999996,0.0,26.0,26.0,26.0,26.0,-0.14774999999999994,0.30320000000000014,-0.005325,294.266,-2.6676,-2.7848,-1.4968,-1.5881,-258.76,216.23000000000002,190.88875,0.0,0.0,0.0,0.0,0.011433333333333334,-5.498166666666667,-5.498166666666667,-0.5341,0.395,-0.08700000000000019,1.2890000000000001,66.777,-0.0983,-0.21465,1.1639999999999997,100.0,1.0,1.0,206.11333333333334,0.0,0.0,0.0,0.0,0.0,0.0,0.0,8736.4,0.0,12.0,5.0,240.36666666666667,1.0,0.0,0.0,0.0,0.0,0.0,0.0,0.0,0.2579999999999991,0.2579999999999991,0.0,0.0,1.0,55.0,616.79921,10000.0,85.000001,85.000001,85.000001,85.000001,395.0,0.0,0.0,0.0,1.0,166.665,54.123,54.123,49.545,49.545,34.0,-27.3275,19.171666666666667,-32.946666666666665,23.065,0.0,1783.342,0.245000000000001,100.0,27.468,26.023,42.257,40.572,0.0,0.0,100.0,0.0,0.0,0.0,0.0,3060.4285714285716,2803.0,4104.888888888889,4045.8,305.434,305.97025,314.81825,314.849,21.7955,20.511,21.7854,21.325499999999998,314.999998,314.999998,324.999988,324.999988,99.5584,99.50675,99.56465714285714,99.54495714285714,-0.018333333333333313,-0.137,-0.2175,0.015166666666666667,-0.05666666666667197,-0.07000000000000028,1.5334999999999999,1.5875,37.222,29.193666666666665,37.159,34.2845,55.963,34.254,58.783500000000004,51.485,53.885,33.441,57.4195,49.8635,53.047,33.009,57.378,49.30233333333334,-0.04799999999999993,-0.09250000000000003,0.105885,0.11526000000000002,0.0,209.215,209.11,206.11333333333334,206.11333333333334,0.0,0.0
6,0.0,0.0,0.0,1.0,1.0,0.0,0.0,1.0,0.0,0.0,1.0,1.1856,26.0,0.0,0.0,0.0,59.999996,0.0,26.0,26.0,26.0,26.0,-0.132,0.2977000000000001,0.004825,294.25,-2.6405,-2.8146,-1.5406,-1.5807,-255.56,216.21,190.869375,0.0,0.0,0.0,0.0,0.013300000000000001,-5.498166666666667,-5.498166666666667,-0.5275000000000001,0.14500000000000002,-0.06700000000000017,0.9650000000000001,66.918,-0.09240000000000001,-0.21252500000000002,0.766,100.0,1.0,1.0,206.52666666666667,0.0,0.0,0.0,0.0,0.0,0.0,0.0,8754.0,0.0,12.0,5.0,240.87666666666667,0.0,0.0,0.0,0.0,0.0,0.0,0.0,0.0,0.30600000000000094,0.30600000000000094,0.0,0.0,0.0,55.0,616.79921,10000.0,85.000001,85.000001,85.000001,85.000001,395.0,0.0,0.0,0.0,1.0,166.665,54.108,54.108,49.423,49.423,34.0,-26.095,20.945,-32.446666666666665,23.0225,0.0,1783.294,0.0649999999999995,100.0,27.242,26.048000000000002,42.24,40.83,0.0,0.0,100.0,0.0,0.0,0.0,0.0,3019.4285714285716,2881.8,4052.222222222222,4020.2,305.518,305.642,314.9325,314.9015,21.8047,20.5157,21.7952,21.3339,314.999998,314.999998,324.999988,324.999988,99.5584,99.50676666666666,99.56478571428572,99.54508571428572,-0.002666666666666595,-0.1166666666666667,-0.20733333333333334,0.0195,-0.054999999999999716,-0.05833333333333002,1.5534999999999999,1.5884999999999998,37.28,29.223,37.22,34.3365,55.948,34.292,58.8225,51.544,53.870999999999995,33.476,57.4555,49.92,53.032,33.042500000000004,57.412,49.35733333333333,-0.0675,-0.07299999999999995,0.10510000000000001,0.10914000000000001,0.0,209.62,209.535,206.52666666666667,206.52666666666667,0.0,0.0
7,0.0,0.0,0.0,1.0,1.0,0.0,0.0,1.0,0.0,0.0,1.0,1.1856,26.0,0.0,0.0,0.0,59.999996,0.0,26.0,26.0,26.0,26.0,-0.085125,0.29180000000000006,0.050325,294.037,-2.6113,-2.7502,-1.501,-1.6208,-252.34,216.1875,190.85,0.0,0.0,0.0,0.0,0.015166666666666667,-5.498166666666667,-5.498166666666667,-0.5319,0.0010000000000000009,-0.055888888888888655,1.13,67.05799999999999,-0.0743,-0.22237500000000002,0.37399999999999967,100.0,1.0,1.0,206.94333333333333,0.0,0.0,0.0,0.0,0.0,0.0,0.0,8771.6,0.0,12.0,5.0,241.38,1.0,0.0,0.0,0.0,0.0,0.0,0.0,0.0,0.3539999999999992,0.3539999999999992,0.0,0.0,1.0,55.0,616.79921,10000.0,85.000001,85.000001,85.000001,85.000001,395.0,0.0,0.0,0.0,1.0,166.665,53.696,53.696,49.591,49.591,34.0,-25.5825,22.26833333333333,-30.413333333333334,25.0975,0.0,1783.246,-0.22499999999999964,100.0,27.311,26.079,42.233000000000004,41.063,0.0,0.0,100.0,0.0,0.0,0.0,0.0,3121.0,2967.3,3984.6666666666665,4022.2,305.1595,305.373,315.047,314.8335,21.814,20.5204,21.8051,21.3423,314.999998,314.999998,324.999988,324.999988,99.5584,99.50678333333333,99.56492857142857,99.54521428571428,0.028999999999999915,-0.08799999999999986,-0.18616666666666667,0.0465,-0.036666666666668846,-0.045000000000001705,1.5434999999999999,1.5644999999999998,37.337,29.252666666666666,37.282,34.388999999999996,55.933,34.329,58.861,51.6025,53.857,33.5105,57.4915,49.976,53.018,33.0755,57.445,49.412,-0.08850000000000002,-0.04899999999999993,0.11120000000000001,0.10664000000000001,0.0,210.01999999999998,209.98000000000002,206.94333333333333,206.94333333333333,0.0,0.0
8,0.0,0.0,0.0,1.0,1.0,0.0,0.0,1.0,0.0,0.0,1.0,1.1856,26.0,0.0,0.0,0.0,59.999996,0.0,26.0,26.0,26.0,26.0,-0.04212499999999997,0.30100000000000016,-0.036575,294.266,-2.7029,-2.729,-1.48705,-1.5703,-248.92000000000002,216.1625,190.82925,0.0,0.0,0.0,0.0,0.017166666666666667,-5.498166666666667,-5.498166666666667,-0.5342,-0.49750000000000005,-0.038000000000000256,-0.41700000000000004,67.207,-0.052000000000000005,-0.214675,0.016000000000000014,100.0,1.0,1.0,207.34333333333333,0.0,0.0,0.0,0.0,0.0,0.0,0.0,8788.5,0.0,12.0,5.0,241.91666666666669,0.0,0.0,0.0,0.0,0.0,0.0,0.0,0.0,0.40500000000000114,0.40500000000000114,0.0,0.0,0.0,55.0,616.79921,10000.0,85.000001,85.000001,85.000001,85.000001,395.0,0.0,0.0,0.0,1.0,166.665,54.489,54.489,48.903999999999996,48.903999999999996,34.0,-24.2025,21.48833333333333,-29.793333333333333,25.8625,0.0,1783.195,-0.3249999999999993,100.0,26.733,26.232,42.172,41.328,0.0,0.0,100.0,0.0,0.0,0.0,0.0,2957.857142857143,2847.8,4099.111111111111,4036.7,305.9735,305.6385,314.81075,314.71875,21.8235,20.5255,21.8155,21.3511,314.999998,314.999998,324.999988,324.999988,99.55841428571429,99.50678333333333,99.56507142857143,99.54535714285714,0.034333333333333105,-0.08000000000000007,-0.15683333333333335,0.06833333333333333,-0.05333333333332746,-0.054999999999999716,1.5345,1.5314999999999999,37.397,29.284333333333336,37.347,34.4445,55.916,34.3675,58.902,51.6635,53.84,33.545500000000004,57.53,50.0345,53.0,33.109,57.4805,49.46933333333333,-0.09599999999999997,-0.040000000000000036,0.10399000000000001,0.10607000000000001,0.0,210.47500000000002,210.465,207.34333333333333,207.34333333333333,0.0,0.0
9,0.0,0.0,0.0,1.0,1.0,0.0,0.0,1.0,0.0,0.0,1.0,1.1856,26.0,0.0,0.0,0.0,59.999996,0.0,26.0,26.0,26.0,26.0,-0.029249999999999998,0.28459999999999996,0.050925000000000005,293.869,-2.63025,-2.7338,-1.5457,-1.5556,-245.48,216.135,190.808,0.0,0.0,0.0,0.0,0.019166666666666665,-5.498166666666667,-5.498166666666667,-0.5351,0.765,-0.033444444444444166,0.944,67.352,-0.029500000000000002,-0.210575,-0.19599999999999973,100.0,1.0,1.0,207.88666666666666,0.0,0.0,0.0,0.0,0.0,0.0,0.0,8811.5,0.0,12.0,5.0,242.43666666666667,1.0,0.0,0.0,0.0,0.0,0.0,0.0,0.0,0.4559999999999995,0.4559999999999995,0.0,0.0,1.0,55.0,616.79921,10000.0,85.000001,85.000001,85.000001,85.000001,395.0,0.0,0.0,0.0,1.0,166.665,53.345,53.345,49.789,49.789,34.0,-24.43,24.049999999999997,-28.3,26.6925,0.0,1783.144,-0.45500000000000007,100.0,27.387,26.517,41.862,41.274,0.0,0.0,100.0,0.0,0.0,0.0,0.0,3174.285714285714,3019.4,3985.777777777778,4096.6,305.049,305.217,315.16475,314.7375,21.8333,20.5308,21.8258,21.36,314.999998,314.999998,324.999988,324.999988,99.55841428571429,99.5068,99.56521428571429,99.54551428571429,0.06966666666666654,-0.05166666666666675,-0.13683333333333333,0.08633333333333333,-0.03166666666666629,-0.054999999999999716,1.58,1.573,37.458,29.317333333333334,37.411,34.5,55.902,34.407,58.939,51.7245,53.827,33.582,57.564499999999995,50.0925,52.986999999999995,33.144,57.512,49.52633333333333,-0.11199999999999999,-0.03600000000000003,0.11078500000000001,0.10472000000000001,0.0,210.92000000000002,210.935,207.88666666666666,207.88666666666666,0.0,0.0
10,0.0,0.0,0.0,1.0,1.0,0.0,0.0,1.0,0.0,0.0,1.0,1.1856,26.0,0.0,0.0,0.0,59.999996,0.0,26.0,26.0,26.0,26.0,0.01287499999999997,0.28859999999999997,0.050775,293.839,-2.70505,-2.7233,-1.5247000000000002,-1.5303,-242.25,216.11,190.788375,0.0,0.0,0.0,0.0,0.021033333333333334,-5.498166666666667,-5.498166666666667,-0.5175000000000001,-0.6435,0.006444444444444253,1.79,67.493,-0.008400000000000001,-0.2064,-0.5259999999999998,100.0,1.0,1.0,208.13333333333333,0.0,0.0,0.0,0.0,0.0,0.0,0.0,8822.0,0.0,12.0,5.0,242.94666666666666,0.0,0.0,0.0,0.0,0.0,0.0,1.0,0.0,0.5040000000000013,0.5040000000000013,0.0,0.0,0.0,55.0,616.79921,10000.0,85.000001,85.000001,85.000001,85.000001,395.0,0.0,0.0,0.0,1.0,333.33500000000004,54.428,54.428,48.431,48.431,34.0,-20.61,23.575,-28.433333333333334,29.8525,0.0,1783.094,-0.5700000000000003,100.0,27.104,26.445,42.344,41.989000000000004,0.0,0.0,100.0,0.0,0.0,0.0,0.0,2762.857142857143,2909.5,4168.555555555556,4260.3,306.384,305.6365,314.58025,314.2755,21.8423,20.5356,21.8357,21.3686,314.999998,314.999998,324.999988,324.999988,99.55842857142858,99.5068,99.56535714285714,99.54564285714285,0.08766666666666634,-0.03266666666666662,-0.10416666666666667,0.11933333333333333,-0.046666666666666856,-0.06499999999999773,1.5005,1.4834999999999998,37.513999999999996,29.34733333333333,37.473,34.5535,55.888999999999996,34.441,58.979,51.7855,53.815,33.6135,57.6015,50.1515,52.973,33.1745,57.5465,49.584,-0.11549999999999994,-0.023500000000000076,0.10841500000000001,0.10535000000000001,0.0,211.345,211.365,208.13333333333333,208.13333333333333,0.0,0.0
11,0.0,0.0,0.0,1.0,1.0,0.0,0.0,1.0,0.0,0.0,1.0,1.1856,26.0,0.0,0.0,0.0,59.999996,0.0,26.0,26.0,26.0,26.0,0.054750000000000076,0.2833000000000001,-0.098775,294.327,-2.7206,-2.6922,-1.5806,-1.5145,-238.8,216.08249999999998,190.767375,0.0,0.0,0.0,0.0,0.022600000000000002,-5.498166666666667,-5.498166666666667,-0.5591,-0.09949999999999992,0.030777777777777793,-0.708,67.635,0.0115,-0.23347500000000002,-0.5700000000000003,100.0,1.0,1.0,208.87666666666667,0.0,0.0,0.0,0.0,0.0,0.0,0.0,8853.6,0.0,12.0,5.0,243.45666666666665,1.0,0.0,0.0,0.0,0.0,0.0,1.0,0.0,0.5549999999999997,0.5549999999999997,0.0,0.0,1.0,55.0,616.79921,10000.0,85.000001,85.000001,85.000001,85.000001,395.0,0.0,0.0,0.0,1.0,333.33500000000004,53.726,53.726,50.018,50.018,34.0,-22.375,25.178333333333335,-23.669999999999998,26.2875,0.0,1783.044,-0.6649999999999991,100.0,26.75,26.904,41.638,41.94,0.0,0.0,100.0,0.0,0.0,0.0,0.0,3034.5714285714284,3026.9,3695.3333333333335,3819.3,305.72,305.0325,315.92375,315.3445,21.8518,20.5409,21.846,21.3775,314.999998,314.999998,324.999988,324.999988,99.55842857142858,99.5068,99.56548571428571,99.54578571428571,0.10133333333333372,-0.021333333333333204,-0.08883333333333333,0.13783333333333334,-0.046666666666666856,-0.054999999999999716,1.6775,1.6244999999999998,37.574,29.380666666666666,37.537,34.609,55.873999999999995,34.479,59.0135,51.846000000000004,53.8,33.6485,57.634,50.2095,52.958,33.208,57.576,49.641,-0.123,-0.023500000000000076,0.10132500000000001,0.11091500000000001,0.0,211.76,211.79000000000002,208.87666666666667,208.87666666666667,0.0,0.0
12,0.0,0.0,0.0,1.0,1.0,0.0,0.0,1.0,0.0,0.0,1.0,1.1856,26.0,0.0,0.0,0.0,59.999996,0.0,26.0,26.0,26.0,26.0,0.04837500000000006,0.2994000000000001,0.037200000000000004,293.655,-2.7702,-2.6889000000000003,-1.5486,-1.5185,-235.55,216.0575,190.746375,0.0,0.0,0.0,0.0,0.025466666666666665,-5.498166666666667,-5.498166666666667,-0.5439,0.281,0.016222222222222138,-0.937,67.774,0.0263,-0.20652500000000001,-0.5999999999999996,100.0,1.0,1.0,209.06666666666666,0.0,0.0,0.0,0.0,0.0,0.0,0.0,8861.5,0.0,12.0,5.0,243.95666666666665,0.0,0.0,0.0,0.0,0.0,0.0,1.0,0.0,0.602999999999998,0.602999999999998,0.0,0.0,0.0,55.0,616.79921,10000.0,85.000001,85.000001,85.000001,85.000001,395.0,0.0,0.0,0.0,1.0,166.665,53.604,53.604,48.66,48.66,34.0,-23.224999999999998,25.39666666666667,-27.773333333333333,29.927500000000002,0.0,1782.997,-0.5449999999999999,100.0,26.694,27.12,41.627,41.956,0.0,0.0,100.0,0.0,0.0,0.0,0.0,3090.4285714285716,3050.0,4199.222222222223,4139.9,305.5735,304.977,314.66925,314.5315,21.8607,20.546,21.8557,21.3859,314.999998,314.999998,324.999988,324.999988,99.55844285714285,99.5068,99.56562857142858,99.54592857142858,0.1030000000000002,-0.02066666666666661,-0.08750000000000001,0.14516666666666667,-0.06666666666666998,-0.051666666666669414,1.542,1.5215,37.629000000000005,29.412333333333336,37.598,34.662,55.861000000000004,34.515,59.051,51.9045,53.788,33.682,57.6685,50.266,52.945,33.24,57.6075,49.696333333333335,-0.11649999999999994,-0.034499999999999975,0.11373000000000001,0.10809,0.0,212.21,212.255,209.06666666666666,209.06666666666666,0.0,0.0
13,0.0,0.0,0.0,1.0,1.0,0.0,0.0,1.0,0.0,0.0,1.0,1.1856,26.0,0.0,0.0,0.0,59.999996,0.0,26.0,26.0,26.0,26.0,0.05512500000000009,0.28280000000000016,0.057,293.35,-2.7028,-2.6903,-1.57345,-1.5418,-232.09,216.0325,190.724625,0.0,0.0,0.0,0.0,0.026933333333333333,-5.498166666666667,-5.498166666666667,-0.5379,-0.11050000000000004,0.014222222222222136,0.9590000000000001,67.919,0.0347,-0.217175,-0.5360000000000005,100.0,1.0,1.0,209.46666666666667,0.0,0.0,0.0,0.0,0.0,0.0,0.0,8878.5,0.0,12.0,5.0,244.48000000000002,1.0,0.0,0.0,0.0,0.0,0.0,1.0,0.0,0.6539999999999999,0.6539999999999999,0.0,0.0,1.0,55.0,616.79921,10000.0,85.000001,85.000001,85.000001,85.000001,395.0,0.0,0.0,0.0,1.0,166.665,53.314,53.314,48.691,48.691,34.0,-21.44,26.311666666666667,-25.98,32.6525,0.0,1782.945,-0.375,100.0,27.251,27.094,41.998000000000005,42.317,0.0,0.0,100.0,0.0,0.0,0.0,0.0,2998.5714285714284,3106.0,4099.333333333333,4284.6,305.6105,304.98375,314.7835,314.24875,21.8703,20.5514,21.8662,21.3951,314.999998,314.999998,324.999988,324.999988,99.55845714285714,99.50681666666667,99.56577142857142,99.54607142857142,0.11866666666666648,-0.006000000000000005,-0.05733333333333334,0.16566666666666666,-0.04999999999999716,-0.05333333333332746,1.526,1.487,37.69,29.445999999999998,37.664,34.719,55.849000000000004,34.5535,59.0905,51.969,53.775999999999996,33.7175,57.705,50.328,52.932,33.274,57.641,49.757333333333335,-0.10599999999999998,-0.04150000000000009,0.10151,0.11392000000000001,0.0,212.66,212.70499999999998,209.46666666666667,209.46666666666667,0.0,0.0
14,0.0,0.0,0.0,1.0,1.0,0.0,0.0,1.0,0.0,0.0,1.0,1.1856,26.0,0.0,0.0,0.0,59.999996,0.0,26.0,26.0,26.0,26.0,0.05800000000000005,0.2855000000000001,-0.0070750000000000006,293.625,-2.73675,-2.6314,-1.5796000000000001,-1.5164,-228.62,216.01,190.703125,0.0,0.0,0.0,0.0,0.02896666666666667,-5.498166666666667,-5.498166666666667,-0.5481,-0.13400000000000012,0.03777777777777769,-0.358,68.062,0.0345,-0.22737500000000002,-0.3260000000000005,100.0,1.0,1.0,210.00333333333333,0.0,0.0,0.0,0.0,0.0,0.0,0.0,8901.2,0.0,12.0,5.0,244.99333333333334,0.0,0.0,0.0,0.0,0.0,0.0,1.0,0.0,0.7049999999999983,0.7049999999999983,0.0,0.0,0.0,55.0,616.79921,10000.0,85.000001,85.000001,85.000001,85.000001,395.0,0.0,0.0,0.0,1.0,333.33500000000004,53.452,53.452,48.92,48.92,34.0,-22.197499999999998,25.13,-26.036666666666665,29.0225,0.0,1782.894,-0.29999999999999893,100.0,26.931,27.305,41.877,42.53,0.0,0.0,100.0,0.0,0.0,0.0,0.0,2996.857142857143,3089.9,3958.1111111111113,4087.4,305.831,304.86875,315.24575,314.66575,21.8799,20.5567,21.8766,21.4041,314.999998,314.999998,324.999988,324.999988,99.55847142857142,99.50681666666667,99.56591428571429,99.54621428571429,0.10199999999999987,-0.023666666666666725,-0.08416666666666667,0.13983333333333334,-0.03499999999999659,-0.04999999999999716,1.561,1.5550000000000002,37.748999999999995,29.479666666666667,37.729,34.775999999999996,55.836,34.591,59.128,52.032,53.763999999999996,33.751999999999995,57.74,50.3885,52.919,33.3075,57.673,49.81666666666666,-0.09750000000000003,-0.0515000000000001,0.10549000000000001,0.10888,0.0,213.085,213.10500000000002,210.00333333333333,210.00333333333333,0.0,0.0
15,0.0,0.0,0.0,1.0,1.0,0.0,0.0,1.0,0.0,0.0,1.0,1.1856,26.0,0.0,0.0,0.0,59.999996,0.0,26.0,26.0,26.0,26.0,0.05212499999999998,0.29780000000000006,-0.04265,293.594,-2.7357,-2.6593,-1.59695,-1.5264,-225.35,215.9875,190.682625,0.0,0.0,0.0,0.0,0.03086666666666667,-5.498166666666667,-5.498166666666667,-0.5373,0.21699999999999997,0.05455555555555569,-0.956,68.197,0.031400000000000004,-0.20777500000000002,-0.22200000000000042,100.0,1.0,1.0,210.37333333333333,0.0,0.0,0.0,0.0,0.0,0.0,0.0,8917.0,0.0,12.0,5.0,245.48000000000002,1.0,0.0,0.0,0.0,0.0,0.0,1.0,0.0,0.7530000000000001,0.7530000000000001,0.0,0.0,1.0,55.0,616.79921,10000.0,85.000001,85.000001,85.000001,85.000001,395.0,0.0,0.0,0.0,1.0,166.665,53.711,53.711,48.859,48.859,34.0,-21.04,24.568333333333335,-26.689999999999998,30.7025,0.0,1782.847,-0.2400000000000002,100.0,27.019,27.304000000000002,41.738,42.603,0.0,0.0,100.0,0.0,0.0,0.0,0.0,2875.142857142857,2998.0,4000.8888888888887,4236.8,306.189,305.0595,315.147,314.247,21.8889,20.561799999999998,21.8863,21.4127,314.999998,314.999998,324.999988,324.999988,99.55848571428571,99.50681666666667,99.56604285714286,99.54635714285715,0.10466666666666669,-0.02499999999999991,-0.085,0.14166666666666666,-0.045000000000001705,-0.04833333333333201,1.552,1.5419999999999998,37.805,29.511333333333333,37.789,34.829,55.824,34.626999999999995,59.1625,52.091499999999996,53.751999999999995,33.7855,57.772,50.446,52.906,33.339,57.702,49.873,-0.09650000000000003,-0.05499999999999994,0.105605,0.11432,0.0,213.51999999999998,213.535,210.37333333333333,210.37333333333333,0.0,0.0
16,0.0,0.0,0.0,1.0,1.0,0.0,0.0,1.0,0.0,0.0,1.0,1.1856,26.0,0.0,0.0,0.0,59.999996,0.0,26.0,26.0,26.0,26.0,0.01924999999999999,0.2794000000000001,-0.021775000000000003,293.564,-2.7732,-2.6306000000000003,-1.5561,-1.5424,-221.87,215.965,190.660375,0.0,0.0,0.0,0.0,0.03286666666666667,-5.498166666666667,-5.498166666666667,-0.5606,-0.5845,0.02822222222222215,-0.11599999999999999,68.339,0.0285,-0.2262,-0.16799999999999926,100.0,1.0,1.0,210.84333333333333,0.0,0.0,0.0,0.0,0.0,0.0,0.0,8936.9,0.0,12.0,5.0,245.99333333333334,0.0,0.0,0.0,0.0,0.0,0.0,1.0,0.0,0.8039999999999985,0.8039999999999985,0.0,0.0,0.0,55.0,616.79921,10000.0,85.000001,85.000001,85.000001,85.000001,395.0,0.0,0.0,0.0,1.0,333.33500000000004,53.36,53.36,48.798,48.798,34.0,-23.47,25.696666666666665,-24.986666666666665,29.495,0.0,1782.795,-0.03500000000000014,100.0,26.917,27.124,42.225,42.463,0.0,0.0,100.0,0.0,0.0,0.0,0.0,3050.4285714285716,3211.7,3897.6666666666665,4028.8,305.6305,304.715,315.30675,314.84825,21.8982,20.5672,21.8968,21.4217,314.999998,314.999998,324.999988,324.999988,99.5585,99.50683333333333,99.5662,99.5465,0.09200000000000008,-0.03133333333333321,-0.0765,0.153,-0.06833333333332803,-0.051666666666669414,1.564,1.548,37.864000000000004,29.545,37.855000000000004,34.885999999999996,55.807,34.6655,59.202,52.153,53.736000000000004,33.821,57.809,50.504999999999995,52.89,33.3735,57.736,49.93066666666667,-0.07750000000000001,-0.0685,0.10375000000000001,0.10969000000000001,0.0,213.96,213.94,210.84333333333333,210.84333333333333,0.0,0.0
17,0.0,0.0,0.0,1.0,1.0,0.0,0.0,1.0,0.0,0.0,1.0,1.1856,26.0,0.0,0.0,0.0,59.999996,0.0,26.0,26.0,26.0,26.0,0.005624999999999991,0.29390000000000005,0.047875,293.137,-2.7311,-2.6175,-1.59145,-1.5101,-218.38,215.945,190.637625,0.0,0.0,0.0,0.0,0.0349,-5.498166666666667,-5.498166666666667,-0.5448000000000001,0.39349999999999996,-0.0018888888888888289,-0.8180000000000001,68.482,0.0171,-0.20292500000000002,0.11000000000000032,100.0,1.0,1.0,211.17666666666668,0.0,0.0,0.0,0.0,0.0,0.0,0.0,8951.0,0.0,12.0,5.0,246.50333333333333,1.0,0.0,0.0,0.0,0.0,0.0,1.0,0.0,0.8550000000000004,0.8550000000000004,0.0,0.0,1.0,55.0,616.79921,10000.0,85.000001,85.000001,85.000001,85.000001,395.0,0.0,0.0,0.0,1.0,333.33500000000004,53.299,53.299,48.278999999999996,48.278999999999996,34.0,-24.287499999999998,23.08833333333333,-30.706666666666663,29.4475,0.0,1782.743,-0.07499999999999929,100.0,27.282,27.374,42.086,42.452,0.0,0.0,100.0,0.0,0.0,0.0,0.0,3151.714285714286,2953.4,4381.0,4228.0,305.4075,305.33125,314.30575,314.38225,21.9078,20.5727,21.9071,21.4307,314.999998,314.999998,324.999988,324.999988,99.55851428571428,99.50683333333333,99.56634285714286,99.54664285714286,0.08300000000000018,-0.03933333333333322,-0.10166666666666667,0.124,-0.04833333333333201,-0.041666666666671404,1.5145,1.5105,37.924,29.579,37.92,34.942,55.795,34.704499999999996,59.24,52.2145,53.724999999999994,33.8575,57.8445,50.564,52.876999999999995,33.408,57.7685,49.989,-0.08199999999999996,-0.06550000000000011,0.10746000000000001,0.10466500000000001,0.0,214.435,214.41500000000002,211.17666666666668,211.17666666666668,0.0,0.0
18,0.0,0.0,0.0,1.0,1.0,0.0,0.0,1.0,0.0,0.0,1.0,1.1856,26.0,0.0,0.0,0.0,59.999996,0.0,26.0,26.0,26.0,26.0,-0.00187499999999996,0.29110000000000014,0.016525,293.076,-2.7543,-2.5976,-1.6002,-1.461,-215.09,215.925,190.616375,0.0,0.0,0.0,0.0,0.036833333333333336,-5.498166666666667,-5.498166666666667,-0.5605,-0.4385000000000001,0.015555555555555545,-0.5700000000000001,68.614,0.0071,-0.22407500000000002,0.14000000000000057,100.0,1.0,1.0,211.62,0.0,0.0,0.0,0.0,0.0,0.0,0.0,8969.8,0.0,12.0,5.0,246.98333333333335,0.0,0.0,0.0,0.0,0.0,0.0,1.0,0.0,0.9029999999999987,0.9029999999999987,0.0,0.0,0.0,55.0,616.79921,10000.0,85.000001,85.000001,85.000001,85.000001,395.0,0.0,0.0,0.0,1.0,333.33500000000004,52.948,52.948,48.294,48.294,34.0,-25.1675,24.573333333333334,-28.746666666666666,27.1075,0.0,1782.695,-0.15499999999999936,100.0,27.176000000000002,27.320999999999998,42.475,42.695,0.0,0.0,100.0,0.0,0.0,0.0,0.0,3201.285714285714,3182.1,4109.777777777777,4110.0,305.293,304.652,314.908,314.64875,21.9168,20.5777,21.917,21.4394,314.999998,314.999998,324.999988,324.999988,99.55851428571428,99.50683333333333,99.56648571428572,99.5468,0.0773333333333337,-0.04833333333333312,-0.1075,0.11283333333333333,-0.060000000000002274,-0.03999999999999915,1.5545,1.5474999999999999,37.980000000000004,29.610666666666667,37.980999999999995,34.996,55.781,34.7435,59.2795,52.2775,53.711,33.893,57.881,50.6245,52.863,33.442499999999995,57.8015,50.04833333333333,-0.08750000000000002,-0.06550000000000011,0.10311000000000001,0.10958000000000001,0.0,214.81,214.78,211.62,211.62,0.0,0.0
19,0.0,0.0,0.0,1.0,1.0,0.0,0.0,1.0,0.0,0.0,1.0,1.1856,26.0,0.0,0.0,0.0,59.999996,0.0,26.0,26.0,26.0,26.0,0.013000000000000123,0.29310000000000014,0.069625,292.801,-2.66155,-2.7126,-1.5215,-1.595,-211.38,215.9025,190.59225,0.0,0.0,0.0,0.0,0.03896666666666667,-5.498166666666667,-5.498166666666667,-0.5423,0.642,0.008888888888888946,-0.965,68.763,0.0015,-0.20775000000000002,0.10000000000000053,100.0,1.0,1.0,212.00666666666666,0.0,0.0,0.0,0.0,0.0,0.0,0.0,8986.2,0.0,12.0,5.0,247.51666666666665,1.0,0.0,0.0,0.0,0.0,0.0,1.0,0.0,0.9570000000000007,0.9570000000000007,0.0,0.0,1.0,55.0,616.79921,10000.0,85.000001,85.000001,85.000001,85.000001,395.0,0.0,0.0,0.0,1.0,166.665,52.917,52.917,48.126,48.126,34.0,-23.45,23.369999999999997,-29.04,30.445,0.0,1782.643,-0.16499999999999915,100.0,27.736,27.758,42.402,42.777,0.0,0.0,100.0,0.0,0.0,0.0,0.0,3084.857142857143,2952.8,4249.222222222223,4272.5,305.514,305.208,314.551,314.10925,21.9269,20.5836,21.928,21.448999999999998,314.999998,314.999998,324.999988,324.999988,99.55852857142857,99.50685,99.56662857142857,99.54694285714285,0.07666666666666666,-0.056333333333333124,-0.10583333333333333,0.108,-0.05333333333332746,-0.03499999999999659,1.4889999999999999,1.5074999999999998,38.043,29.647333333333336,38.05,35.056,55.769,34.783500000000004,59.3165,52.3395,53.7,33.9305,57.9155,50.6845,52.849999999999994,33.4785,57.8335,50.107,-0.08850000000000002,-0.0645,0.09833000000000001,0.10423500000000001,0.0,215.3,215.29000000000002,212.00666666666666,212.00666666666666,0.0,0.0
20,0.0,0.0,0.0,1.0,1.0,0.0,0.0,1.0,0.0,0.0,1.0,1.1856,26.0,0.0,0.0,0.0,59.999996,0.0,26.0,26.0,26.0,26.0,0.014874999999999972,0.2590000000000001,-0.055025000000000004,293.167,-2.7554,-2.6685,-1.52735,-1.5811000000000002,-208.07999999999998,215.8825,190.571,0.0,0.0,0.0,0.0,0.0409,-5.498166666666667,-5.498166666666667,-0.5604,-1.1625,0.0067777777777777715,-1.02,68.895,0.00030000000000000003,-0.229975,0.036000000000000476,100.0,1.0,1.0,212.43,0.0,0.0,0.0,0.0,0.0,0.0,0.0,9004.2,0.0,12.0,5.0,247.99333333333334,0.0,0.0,0.0,0.0,0.0,0.0,0.0,0.0,1.004999999999999,1.004999999999999,0.0,0.0,0.0,55.0,616.79921,10000.0,85.000001,85.000001,85.000001,85.000001,395.0,0.0,0.0,0.0,1.0,166.665,53.406,53.406,48.035,48.035,34.0,-24.185,23.308333333333334,-27.669999999999998,28.1725,0.0,1782.595,-0.10999999999999943,100.0,27.227,27.397,42.941,43.022999999999996,0.0,0.0,100.0,0.0,0.0,0.0,0.0,3055.5714285714284,2983.6,4055.5555555555557,4034.3,305.75,305.2165,314.95525,314.726,21.9356,20.5886,21.938,21.4577,314.999998,314.999998,324.999988,324.999988,99.55854285714285,99.50685,99.56677142857143,99.54708571428571,0.06866666666666665,-0.05266666666666664,-0.10916666666666668,0.10866666666666668,-0.03499999999999659,-0.06666666666666998,1.515,1.5190000000000001,38.098,29.678666666666665,38.113,35.1105,55.753,34.8195,59.3555,52.3985,53.685,33.963499999999996,57.951499999999996,50.741,52.834,33.51,57.8665,50.16266666666667,-0.08650000000000002,-0.05950000000000011,0.101375,0.10376,0.0,215.635,215.66,212.43,212.43,0.0,0.0
21,0.0,0.0,0.0,1.0,1.0,0.0,0.0,1.0,0.0,0.0,1.0,1.1856,26.0,0.0,0.0,0.0,59.999996,0.0,26.0,26.0,26.0,26.0,-0.0004999999999999449,0.2782,-0.04115,293.243,-2.7163,-2.6777,-1.56365,-1.5439,-204.76999999999998,215.8625,190.548875,0.0,0.0,0.0,0.0,0.042833333333333334,-5.498166666666667,-5.498166666666667,-0.5728,0.5720000000000001,-0.012777777777777999,-0.922,69.022,-0.0021000000000000003,-0.217725,0.05200000000000049,100.0,1.0,1.0,212.9766666666667,0.0,0.0,0.0,0.0,0.0,0.0,0.0,9027.3,0.0,12.0,5.0,248.45,1.0,0.0,0.0,0.0,0.0,0.0,0.0,0.0,1.0530000000000008,1.0530000000000008,0.0,0.0,1.0,55.0,616.79921,10000.0,85.000001,85.000001,85.000001,85.000001,395.0,0.0,0.0,0.0,1.0,166.665,53.04,53.04,48.66,48.66,34.0,-24.6725,23.711666666666666,-28.57,26.62,0.0,1782.547,-0.20500000000000007,100.0,27.534,27.512,42.39,42.516,0.0,0.0,100.0,0.0,0.0,0.0,0.0,3172.0,3004.8,4087.5555555555557,3989.2,305.3445,305.161,314.989,314.98875,21.944499999999998,20.5937,21.9476,21.4661,314.999998,314.999998,324.999988,324.999988,99.55854285714285,99.50686666666667,99.56691428571429,99.54721428571429,0.07566666666666677,-0.04899999999999993,-0.12133333333333333,0.10483333333333333,-0.05666666666667197,-0.03333333333333144,1.5955,1.593,38.153,29.711,38.173,35.163,55.741,34.857,59.3875,52.453,53.673,33.998,57.982,50.794,52.822,33.5435,57.894,50.214,-0.09099999999999997,-0.06299999999999994,0.11479500000000001,0.10358500000000001,0.0,216.10500000000002,216.085,212.9766666666667,212.9766666666667,0.0,0.0
22,0.0,0.0,0.0,1.0,1.0,0.0,0.0,1.0,0.0,0.0,1.0,1.1856,26.0,0.0,0.0,0.0,59.999996,0.0,26.0,26.0,26.0,26.0,-0.0008749999999999591,0.2873000000000001,0.0043,292.953,-2.7759,-2.6441,-1.5916000000000001,-1.5264,-201.25,215.8425,190.525,0.0,0.0,0.0,0.0,0.04486666666666667,-5.498166666666667,-5.498166666666667,-0.5558000000000001,-0.23399999999999999,0.00377777777777788,1.009,69.163,-0.0023,-0.2043,-0.09200000000000053,100.0,1.0,1.0,213.22,0.0,0.0,0.0,0.0,0.0,0.0,0.0,9037.7,0.0,12.0,5.0,248.96,0.0,0.0,0.0,0.0,0.0,0.0,0.0,0.0,1.1039999999999992,1.1039999999999992,0.0,0.0,0.0,55.0,616.79921,10000.0,85.000001,85.000001,85.000001,85.000001,395.0,0.0,0.0,0.0,1.0,333.33500000000004,53.406,53.406,47.821,47.821,34.0,-23.02,23.913333333333334,-29.49,30.0025,0.0,1782.494,-0.27999999999999936,100.0,27.6,27.33,42.888,42.754,0.0,0.0,100.0,0.0,0.0,0.0,0.0,2945.0,3067.7,4172.444444444444,4327.9,305.961,305.2295,314.67875,314.1605,21.9539,20.5992,21.958199999999998,21.4753,314.999998,314.999998,324.999988,324.999988,99.55855714285714,99.50686666666667,99.56705714285714,99.54737142857142,0.08066666666666666,-0.043333333333333224,-0.10683333333333334,0.11416666666666668,-0.041666666666671404,-0.06333333333333258,1.5005,1.5110000000000001,38.212,29.744666666666667,38.239000000000004,35.2205,55.727000000000004,34.8955,59.4285,52.5165,53.66,34.034,58.019999999999996,50.855000000000004,52.808,33.5775,57.929,50.273666666666664,-0.09599999999999997,-0.05049999999999999,0.104465,0.104645,0.0,216.53,216.51999999999998,213.22,213.22,0.0,0.0
23,0.0,0.0,0.0,1.0,1.0,0.0,0.0,1.0,0.0,0.0,1.0,1.1856,26.0,0.0,0.0,0.0,59.999996,0.0,26.0,26.0,26.0,26.0,-0.0031249999999999334,0.2724,-0.058575,292.877,-2.6544,-2.6726,-1.64385,-1.4994,-197.72,215.82,190.501375,0.0,0.0,0.0,0.0,0.046933333333333334,-5.498166666666667,-5.498166666666667,-0.5744,0.012499999999999956,0.0020000000000000018,-0.477,69.299,0.0023,-0.22790000000000002,-0.08799999999999919,100.0,1.0,1.0,213.78,0.0,0.0,0.0,0.0,0.0,0.0,0.0,9061.3,0.0,12.0,5.0,249.44666666666666,1.0,0.0,0.0,0.0,0.0,0.0,0.0,0.0,1.1550000000000011,1.1550000000000011,0.0,0.0,1.0,55.0,616.79921,10000.0,85.000001,85.000001,85.000001,85.000001,395.0,0.0,0.0,0.0,1.0,166.665,52.643,52.643,48.553,48.553,34.0,-23.8675,23.72833333333333,-29.336666666666666,26.67,0.0,1782.445,-0.27999999999999936,100.0,27.841,27.703,42.755,42.995000000000005,0.0,0.0,100.0,0.0,0.0,0.0,0.0,3198.714285714286,3012.5,4064.4444444444443,4026.3,305.1615,305.0995,315.07925,314.91175,21.9634,20.6047,21.9686,21.4845,314.999998,314.999998,324.999988,324.999988,99.55857142857143,99.50686666666667,99.5672,99.54751428571429,0.08933333333333371,-0.05066666666666664,-0.11800000000000001,0.10966666666666668,-0.05333333333332746,-0.046666666666666856,1.569,1.5675,38.271,29.779,38.304,35.278,55.715,34.935,59.4655,52.578,53.647999999999996,34.070499999999996,58.0545,50.914,52.795,33.6125,57.960499999999996,50.33166666666666,-0.10699999999999998,-0.0535000000000001,0.105065,0.10309000000000001,0.0,216.94,216.93,213.78,213.78,0.0,0.0
24,0.0,0.0,0.0,1.0,1.0,0.0,0.0,1.0,0.0,0.0,1.0,1.1856,26.0,0.0,0.0,0.0,59.999996,0.0,26.0,26.0,26.0,26.0,0.02387500000000009,0.27290000000000014,-0.07,293.213,-2.7215,-2.6739,-1.53865,-1.5474999999999999,-194.39,215.8025,190.4785,0.0,0.0,0.0,0.0,0.04886666666666667,-5.498166666666667,-5.498166666666667,-0.5841000000000001,-0.641,0.01922222222222203,-0.11099999999999999,69.429,0.0078000000000000005,-0.22045,-0.21200000000000063,100.0,1.0,1.0,214.08333333333331,0.0,0.0,0.0,0.0,0.0,0.0,0.0,9074.2,0.0,12.0,5.0,249.91666666666666,0.0,0.0,0.0,0.0,0.0,0.0,0.0,0.0,1.2029999999999994,1.2029999999999994,0.0,0.0,0.0,55.0,616.79921,10000.0,85.000001,85.000001,85.000001,85.000001,395.0,0.0,0.0,0.0,1.0,333.33500000000004,53.696,53.696,47.974000000000004,47.974000000000004,34.0,-21.505,23.32,-28.373333333333335,29.185,0.0,1782.396,-0.27500000000000036,100.0,27.39,27.372,42.793,42.999,0.0,0.0,100.0,0.0,0.0,0.0,0.0,2878.285714285714,2923.8,4128.888888888889,4106.5,306.177,305.398,314.801,314.6325,21.972,20.6097,21.9784,21.4931,314.999998,314.999998,324.999988,324.999988,99.55857142857143,99.50688333333333,99.56734285714286,99.54765714285715,0.09166666666666634,-0.040000000000000036,-0.1085,0.12716666666666668,-0.041666666666671404,-0.03333333333333144,1.5235,1.5185,38.325,29.810666666666666,38.364999999999995,35.332,55.701,34.97,59.501999999999995,52.635999999999996,53.635,34.1025,58.088499999999996,50.9695,52.781,33.6435,57.9915,50.385999999999996,-0.10299999999999998,-0.04600000000000004,0.110615,0.10915000000000001,0.0,217.31,217.315,214.08333333333331,214.08333333333331,0.0,0.0
25,0.0,0.0,0.0,1.0,1.0,0.0,0.0,1.0,0.0,0.0,1.0,1.1856,26.0,0.0,0.0,0.0,59.999996,0.0,26.0,26.0,26.0,26.0,0.020499999999999963,0.2775000000000001,-0.007875,292.694,-2.71895,-2.7116,-1.6131,-1.5301,-190.63,215.78,190.45125,0.0,0.0,0.0,0.0,0.05103333333333333,-5.498166666666667,-5.498166666666667,-0.6035,0.604,0.01200000000000001,-1.1440000000000001,69.571,0.0134,-0.218025,-0.15200000000000014,100.0,1.0,1.0,214.62,0.0,0.0,0.0,0.0,0.0,0.0,0.0,9097.0,0.0,12.0,5.0,250.43,1.0,0.0,0.0,0.0,0.0,0.0,0.0,0.0,1.256999999999998,1.256999999999998,0.0,0.0,1.0,55.0,616.79921,10000.0,85.000001,85.000001,85.000001,85.000001,395.0,0.0,0.0,0.0,1.0,166.665,52.124,52.124,48.462,48.462,34.0,-25.595,26.588333333333335,-27.86,27.985,0.0,1782.342,-0.3100000000000005,100.0,27.668,27.878,42.419,42.766,0.0,0.0,100.0,0.0,0.0,0.0,0.0,3311.285714285714,3225.3,4060.8888888888887,4028.2,304.87,304.35125,315.095,314.8815,21.982,20.6156,21.9893,21.5027,314.999998,314.999998,324.999988,324.999988,99.5586,99.50688333333333,99.5675,99.54781428571428,0.0863333333333336,-0.04066666666666663,-0.09716666666666668,0.1275,-0.06333333333333258,-0.04333333333332945,1.5725,1.5795,38.387,29.847666666666665,38.433,35.3915,55.687,35.013,59.539,52.698499999999996,53.620999999999995,34.1425,58.1225,51.03,52.766,33.6815,58.0225,50.44533333333334,-0.09499999999999997,-0.058499999999999996,0.11021500000000001,0.11028,0.0,217.785,217.78,214.62,214.62,0.0,0.0
26,0.0,0.0,0.0,1.0,1.0,0.0,0.0,1.0,0.0,0.0,1.0,1.1856,26.0,0.0,0.0,0.0,59.999996,0.0,26.0,26.0,26.0,26.0,0.025875000000000092,0.27849999999999997,0.066175,291.992,-2.7398,-2.6713,-1.5824,-1.5958,-187.07999999999998,215.76,190.425625,0.0,0.0,0.0,0.0,0.0531,-5.498166666666667,-5.498166666666667,-0.5669000000000001,-0.06150000000000011,0.007444444444444365,1.0270000000000001,69.711,0.015000000000000001,-0.202375,-0.2860000000000005,100.0,1.0,1.0,214.76999999999998,0.0,0.0,0.0,0.0,0.0,0.0,0.0,9103.3,0.0,12.0,5.0,250.93,0.0,0.0,0.0,0.0,0.0,0.0,0.0,0.0,1.3079999999999998,1.3079999999999998,0.0,0.0,0.0,55.0,616.79921,10000.0,85.000001,85.000001,85.000001,85.000001,395.0,0.0,0.0,0.0,1.0,166.665,52.658,52.658,46.661,46.661,34.0,-21.305,25.716666666666665,-30.31,33.6225,0.0,1782.293,-0.40499999999999936,100.0,28.237000000000002,27.986,43.414,43.464,0.0,0.0,100.0,0.0,0.0,0.0,0.0,2914.0,3120.7,4390.222222222223,4464.4,305.87,305.01275,314.1155,313.78,21.9914,20.6213,21.9999,21.512,314.999998,314.999998,324.999988,324.999988,99.55861428571428,99.50688333333333,99.56765714285714,99.54797142857143,0.11433333333333362,-0.019333333333333202,-0.0845,0.13166666666666665,-0.03999999999999915,-0.060000000000002274,1.4455,1.4385,38.446,29.883,38.498999999999995,35.4505,55.675,35.0525,59.5805,52.7635,53.61,34.179,58.161500000000004,51.0925,52.754000000000005,33.717,58.0585,50.50633333333333,-0.11249999999999993,-0.044499999999999984,0.10298500000000001,0.10352000000000001,0.0,218.20499999999998,218.245,214.76999999999998,214.76999999999998,0.0,0.0
27,0.0,0.0,0.0,1.0,1.0,0.0,0.0,1.0,0.0,0.0,1.0,1.1856,26.0,0.0,0.0,0.0,59.999996,0.0,26.0,26.0,26.0,26.0,0.021625000000000005,0.27059999999999995,-0.06765,292.648,-2.7514,-2.6853,-1.6273,-1.5445,-183.73000000000002,215.74,190.402375,0.0,0.0,0.0,0.0,0.05503333333333334,-5.498166666666667,-5.498166666666667,-0.6049,-0.7364999999999999,0.009333333333333194,0.4690000000000001,69.834,0.0189,-0.24450000000000002,-0.38399999999999945,100.0,1.0,1.0,215.42000000000002,0.0,0.0,0.0,0.0,0.0,0.0,0.0,9130.8,0.0,12.0,5.0,251.37666666666667,1.0,0.0,0.0,0.0,0.0,0.0,0.0,0.0,1.355999999999998,1.355999999999998,0.0,0.0,1.0,55.0,616.79921,10000.0,85.000001,85.000001,85.000001,85.000001,395.0,0.0,0.0,0.0,1.0,166.665,52.504999999999995,52.504999999999995,48.111,48.111,34.0,-22.735,26.821666666666665,-25.653333333333336,28.68,0.0,1782.243,-0.4450000000000003,100.0,27.887999999999998,27.899,43.405,43.56,0.0,0.0,100.0,0.0,0.0,0.0,0.0,3093.285714285714,3203.9,3801.8888888888887,4024.6000000000004,305.495,304.71675,315.554,314.9415,22.0002,20.6265,22.0097,21.520699999999998,314.999998,314.999998,324.999988,324.999988,99.55862857142857,99.5069,99.56778571428572,99.5481,0.11533333333333351,-0.016666666666666607,-0.08733333333333333,0.13833333333333334,-0.046666666666666856,-0.03999999999999915,1.5755,1.5615,38.501000000000005,29.915666666666667,38.561,35.5045,55.663,35.089,59.616,52.8215,53.598,34.213,58.1945,51.147999999999996,52.742000000000004,33.749,58.088,50.56033333333333,-0.11199999999999999,-0.04249999999999998,0.109035,0.09979500000000001,0.0,218.55,218.575,215.42000000000002,215.42000000000002,0.0,0.0
28,0.0,0.0,0.0,1.0,1.0,0.0,0.0,1.0,0.0,0.0,1.0,1.1856,26.0,0.0,0.0,0.0,59.999996,0.0,26.0,26.0,26.0,26.0,0.030625000000000124,0.2714000000000001,-0.026925,292.572,-2.687,-2.6684,-1.6172,-1.5318,-180.38,215.7225,190.377875,0.0,0.0,0.0,0.0,0.057,-5.498166666666667,-5.498166666666667,-0.5955,0.5695,0.00377777777777788,0.8109999999999999,69.961,0.025900000000000003,-0.20725000000000002,-0.45999999999999996,100.0,1.0,1.0,215.73000000000002,0.0,0.0,0.0,0.0,0.0,0.0,0.0,9144.0,0.0,12.0,5.0,251.82999999999998,0.0,0.0,0.0,0.0,0.0,0.0,0.0,0.0,1.404,1.404,0.0,0.0,0.0,55.0,616.79921,10000.0,85.000001,85.000001,85.000001,85.000001,395.0,0.0,0.0,0.0,1.0,333.33500000000004,52.887,52.887,47.623,47.623,34.0,-20.447499999999998,25.653333333333332,-28.786666666666665,30.935000000000002,0.0,1782.194,-0.4599999999999991,100.0,28.022,27.86,42.928,43.207,0.0,0.0,100.0,0.0,0.0,0.0,0.0,2905.0,3106.9,4223.333333333333,4245.2,305.9005,304.98375,314.67525,314.44725,22.009,20.6318,22.0193,21.5293,314.999998,314.999998,324.999988,324.999988,99.55862857142857,99.5069,99.56792857142857,99.54824285714285,0.12233333333333363,-0.019333333333333202,-0.08366666666666667,0.14533333333333334,-0.046666666666666856,-0.05666666666667197,1.5365,1.5179999999999998,38.556,29.948333333333334,38.620999999999995,35.558,55.652,35.126,59.649,52.8775,53.588,34.2465,58.225,51.202,52.730000000000004,33.7815,58.1155,50.617,-0.11549999999999994,-0.044499999999999984,0.11012500000000001,0.10653000000000001,0.0,218.985,219.005,215.73000000000002,215.73000000000002,0.0,0.0
29,0.0,0.0,0.0,1.0,1.0,0.0,0.0,1.0,0.0,0.0,1.0,1.1856,26.0,0.0,0.0,0.0,59.999996,0.0,26.0,26.0,26.0,26.0,0.040874999999999995,0.25870000000000015,-0.053525,292.404,-2.7749,-2.5762,-1.60915,-1.5510000000000002,-176.81,215.70499999999998,190.35125,0.0,0.0,0.0,0.0,0.05906666666666666,-5.498166666666667,-5.498166666666667,-0.6102000000000001,-0.6945000000000001,0.011111111111111072,-0.629,70.095,0.0309,-0.22157500000000002,-0.3959999999999999,100.0,1.0,1.0,216.08666666666667,0.0,0.0,0.0,0.0,0.0,0.0,0.0,9159.1,0.0,12.0,5.0,252.31666666666666,1.0,0.0,0.0,0.0,0.0,0.0,0.0,0.0,1.4549999999999983,1.4549999999999983,0.0,0.0,1.0,55.0,616.79921,10000.0,85.000001,85.000001,85.000001,85.000001,395.0,0.0,0.0,0.0,1.0,333.33500000000004,52.551,52.551,47.882,47.882,34.0,-24.6025,25.405,-27.34,29.995,0.0,1782.143,-0.46499999999999986,100.0,27.601,27.914,43.141999999999996,43.67,0.0,0.0,100.0,0.0,0.0,0.0,0.0,3263.4285714285716,3176.5,4058.777777777778,4167.5,305.2495,304.82175,315.05175,314.457,22.0182,20.6373,22.0298,21.5386,314.999998,314.999998,324.999988,324.999988,99.55864285714286,99.5069,99.56808571428571,99.5484,0.10466666666666669,-0.020000000000000018,-0.08216666666666668,0.13,-0.045000000000001705,-0.041666666666671404,1.5195,1.5164999999999997,38.614000000000004,29.983,38.686,35.6165,55.638999999999996,35.1635,59.6875,52.9405,53.575,34.2815,58.260999999999996,51.2625,52.716,33.8155,58.1485,50.672666666666665,-0.11549999999999994,-0.03750000000000009,0.10749500000000001,0.10202000000000001,0.0,219.36,219.385,216.08666666666667,216.08666666666667,0.0,0.0
30,0.0,0.0,0.0,1.0,1.0,0.0,0.0,1.0,0.0,0.0,1.0,1.1856,26.0,0.0,0.0,0.0,59.999996,0.0,26.0,26.0,26.0,26.0,0.040124999999999966,0.2794000000000001,0.00205,291.84,-2.69885,-2.6961,-1.6406,-1.4544000000000001,-173.44,215.69,190.326125,0.0,0.0,0.0,0.0,0.06103333333333334,-5.498166666666667,-5.498166666666667,-0.5940000000000001,0.899,0.008000000000000007,-0.514,70.219,0.036000000000000004,-0.20805,-0.4220000000000006,100.0,1.0,1.0,216.45333333333332,0.0,0.0,0.0,0.0,0.0,0.0,0.0,9174.7,0.0,12.0,5.0,252.76333333333332,0.0,0.0,0.0,0.0,0.0,0.0,1.0,0.0,1.5030000000000001,1.5030000000000001,0.0,0.0,0.0,55.0,616.79921,10000.0,85.000001,85.000001,85.000001,85.000001,395.0,0.0,0.0,0.0,1.0,166.665,51.879999999999995,51.879999999999995,47.165,47.165,34.0,-23.03,26.053333333333335,-30.03,30.96,0.0,1782.097,-0.4299999999999997,100.0,28.447,28.653,43.037,43.63,0.0,0.0,100.0,0.0,0.0,0.0,0.0,3181.857142857143,3122.5,4414.555555555556,4298.4,305.2435,304.84375,314.32425,314.355,22.0272,20.6428,22.0395,21.5473,314.999998,314.999998,324.999988,324.999988,99.55865714285714,99.50691666666667,99.56821428571429,99.54854285714286,0.11433333333333362,-0.022333333333333316,-0.0725,0.15616666666666665,-0.061666666666667425,-0.046666666666666856,1.521,1.4925000000000002,38.67,30.017333333333333,38.747,35.670500000000004,55.631,35.203,59.722,52.998,53.567,34.318,58.293,51.318,52.708,33.85,58.1775,50.727000000000004,-0.11549999999999994,-0.04899999999999993,0.10547500000000001,0.11621000000000001,0.0,219.81,219.81,216.45333333333332,216.45333333333332,0.0,0.0
31,0.0,0.0,0.0,1.0,1.0,0.0,0.0,1.0,0.0,0.0,1.0,1.1856,26.0,0.0,0.0,0.0,59.999996,0.0,26.0,26.0,26.0,26.0,0.06862499999999994,0.26090000000000013,0.00485,291.641,-2.7106,-2.7025,-1.59055,-1.5877,-169.85,215.675,190.300375,0.0,0.0,0.0,0.0,0.06313333333333335,-5.498166666666667,-5.498166666666667,-0.5919,-0.3660000000000001,0.013222222222222024,0.4930000000000001,70.35300000000001,0.0349,-0.22785000000000002,-0.47799999999999976,100.0,1.0,1.0,216.82333333333332,0.0,0.0,0.0,0.0,0.0,0.0,0.0,9190.4,0.0,12.0,5.0,253.24333333333334,1.0,0.0,0.0,0.0,0.0,0.0,1.0,0.0,1.5539999999999985,1.5539999999999985,0.0,0.0,1.0,55.0,616.79921,10000.0,85.000001,85.000001,85.000001,85.000001,395.0,0.0,0.0,0.0,1.0,166.665,51.804,51.804,46.494,46.494,34.0,-21.1575,28.538333333333334,-27.076666666666664,33.0625,0.0,1782.046,-0.5250000000000004,100.0,28.316,28.657,43.786,44.191,0.0,0.0,100.0,0.0,0.0,0.0,0.0,2989.142857142857,3307.9,4140.777777777777,4289.9,305.6485,304.2135,314.77675,314.30325,22.0365,20.6485,22.0501,21.5568,314.999998,314.999998,324.999988,324.999988,99.55867142857143,99.50691666666667,99.56837142857142,99.54868571428571,0.12733333333333352,-0.010000000000000009,-0.06533333333333333,0.15883333333333335,-0.026666666666670835,-0.036666666666668846,1.501,1.4855,38.727999999999994,30.053333333333335,38.813,35.730000000000004,55.619,35.243,59.762,53.0625,53.556,34.3555,58.3305,51.3805,52.695,33.885999999999996,58.2115,50.78766666666667,-0.121,-0.04200000000000004,0.106505,0.106785,0.0,220.14499999999998,220.175,216.82333333333332,216.82333333333332,0.0,0.0
32,0.0,0.0,0.0,1.0,1.0,0.0,0.0,1.0,0.0,0.0,1.0,1.1856,26.0,0.0,0.0,0.0,59.999996,0.0,26.0,26.0,26.0,26.0,0.0711250000000001,0.24080000000000013,-0.078525,292.297,-2.7611499999999998,-2.6644,-1.5697999999999999,-1.6208,-166.05,215.66,190.272875,0.0,0.0,0.0,0.0,0.06533333333333334,-5.498166666666667,-5.498166666666667,-0.6061000000000001,-0.16749999999999998,-0.013222222222222246,0.2390000000000001,70.49000000000001,0.034800000000000005,-0.223725,-0.47799999999999976,100.0,1.0,1.0,217.3466666666667,0.0,0.0,0.0,0.0,0.0,0.0,0.0,9212.5,0.0,12.0,5.0,253.73666666666668,0.0,0.0,0.0,0.0,0.0,0.0,1.0,0.0,1.6080000000000005,1.6080000000000005,0.0,0.0,0.0,55.0,616.79921,10000.0,85.000001,85.000001,85.000001,85.000001,395.0,0.0,0.0,0.0,1.0,166.665,52.536,52.536,47.699,47.699,34.0,-21.71,25.693333333333335,-24.87,32.085,0.0,1781.992,-0.48499999999999943,100.0,28.141,28.305,43.458,44.019000000000005,0.0,0.0,100.0,0.0,0.0,0.0,0.0,3026.5714285714284,3070.8,3958.1111111111113,4136.6,305.715,305.1345,315.21125,314.616,22.0462,20.6545,22.0609,21.5666,314.999998,314.999998,324.999988,324.999988,99.5587,99.50691666666667,99.56852857142857,99.54885714285714,0.1280000000000001,-0.008333333333333304,-0.057833333333333334,0.15933333333333335,-0.046666666666666856,-0.04333333333332945,1.5334999999999999,1.5124999999999997,38.789,30.090666666666664,38.881,35.791,55.605999999999995,35.284,59.799,53.127,53.544,34.393,58.365,51.442499999999995,52.682,33.922,58.2425,50.84833333333333,-0.119,-0.046499999999999986,0.10354000000000001,0.10749500000000001,0.0,220.59,220.63,217.3466666666667,217.3466666666667,0.0,0.0
33,0.0,0.0,0.0,1.0,1.0,0.0,0.0,1.0,0.0,0.0,1.0,1.1856,26.0,0.0,0.0,0.0,59.999996,0.0,26.0,26.0,26.0,26.0,0.0651250000000001,0.2632000000000001,-0.064875,292.297,-2.7561999999999998,-2.6501,-1.65335,-1.5708,-162.88,215.6475,190.248875,0.0,0.0,0.0,0.0,0.06716666666666667,-5.498166666666667,-5.498166666666667,-0.616,-0.32899999999999996,-0.001777777777777878,-0.20099999999999996,70.605,0.033800000000000004,-0.214675,-0.36799999999999944,100.0,1.0,1.0,217.67333333333335,0.0,0.0,0.0,0.0,0.0,0.0,0.0,9226.4,0.0,12.0,5.0,254.15333333333334,1.0,0.0,0.0,0.0,0.0,0.0,1.0,0.0,1.6529999999999987,1.6529999999999987,0.0,0.0,1.0,55.0,616.79921,10000.0,85.000001,85.000001,85.000001,85.000001,395.0,0.0,0.0,0.0,1.0,166.665,52.628,52.628,47.607,47.607,34.0,-22.5425,25.261666666666667,-28.483333333333334,30.41,0.0,1781.947,-0.5549999999999997,100.0,27.876,28.179000000000002,43.297,43.953,0.0,0.0,100.0,0.0,0.0,0.0,0.0,3118.285714285714,3038.9,4132.777777777777,4127.2,305.5565,305.08275,314.9585,314.60925,22.0543,20.6594,22.0701,21.5747,314.999998,314.999998,324.999988,324.999988,99.55871428571429,99.50691666666667,99.56865714285715,99.54898571428572,0.12233333333333363,-0.0129999999999999,-0.08366666666666667,0.14100000000000001,-0.036666666666668846,-0.03999999999999915,1.535,1.5204999999999997,38.839,30.121333333333332,38.938,35.842,55.596000000000004,35.3165,59.8315,53.1805,53.534,34.423500000000004,58.394999999999996,51.4935,52.671,33.951,58.2695,50.89833333333333,-0.121,-0.038000000000000034,0.10725000000000001,0.107605,0.0,220.94,220.97,217.67333333333335,217.67333333333335,0.0,0.0
34,0.0,0.0,0.0,1.0,1.0,0.0,0.0,1.0,0.0,0.0,1.0,1.1856,26.0,0.0,0.0,0.0,59.999996,0.0,26.0,26.0,26.0,26.0,0.04062499999999991,0.25360000000000005,-0.06897500000000001,292.679,-2.7666,-2.6133,-1.654,-1.5094,-159.26999999999998,215.6375,190.220375,0.0,0.0,0.0,0.0,0.06926666666666667,-5.498166666666667,-5.498166666666667,-0.6495000000000001,-0.9755,0.02155555555555555,0.6120000000000001,70.736,0.0376,-0.22487500000000002,-0.5800000000000001,100.0,1.0,1.0,218.05333333333334,0.0,0.0,0.0,0.0,0.0,0.0,0.0,9242.5,0.0,12.0,5.0,254.62333333333333,0.0,0.0,0.0,0.0,0.0,0.0,1.0,0.0,1.7040000000000006,1.7040000000000006,0.0,0.0,0.0,55.0,616.79921,10000.0,85.000001,85.000001,85.000001,85.000001,395.0,0.0,0.0,0.0,1.0,333.33500000000004,53.375,53.375,47.668,47.668,34.0,-19.8125,25.665,-27.386666666666663,30.9225,0.0,1781.894,-0.46499999999999986,100.0,27.667,27.715,43.227000000000004,43.88,0.0,0.0,100.0,0.0,0.0,0.0,0.0,2778.285714285714,3094.7,4047.1111111111113,4222.8,306.3305,305.04675,315.059,314.47925,22.063299999999998,20.6649,22.0803,21.584,314.999998,314.999998,324.999988,324.999988,99.55872857142857,99.50693333333334,99.56881428571428,99.54914285714285,0.1286666666666667,-0.0043333333333333,-0.07283333333333333,0.154,-0.02833333333332888,-0.05666666666667197,1.533,1.525,38.896,30.155666666666665,39.001999999999995,35.9,55.583,35.353,59.8665,53.2425,53.522,34.457,58.4275,51.5535,52.658,33.9835,58.299,50.95666666666666,-0.11399999999999999,-0.03649999999999998,0.11182500000000001,0.11092500000000001,0.0,221.32999999999998,221.375,218.05333333333334,218.05333333333334,0.0,0.0
35,0.0,0.0,0.0,1.0,1.0,0.0,0.0,1.0,0.0,0.0,1.0,1.1856,26.0,0.0,0.0,0.0,59.999996,0.0,26.0,26.0,26.0,26.0,0.040750000000000064,0.26249999999999996,-0.055825,292.252,-2.8167,-2.6188000000000002,-1.5867,-1.4972,-155.45,215.6275,190.18775,0.0,0.0,0.0,0.0,0.07150000000000001,-5.498166666666667,-5.498166666666667,-0.6774,0.32299999999999995,-0.011777777777777665,-0.45599999999999996,70.872,0.0436,-0.21645,-0.47799999999999976,100.0,1.0,1.0,218.55666666666667,0.0,0.0,0.0,0.0,0.0,0.0,0.0,9263.8,0.0,12.0,5.0,255.11,1.0,0.0,0.0,0.0,0.0,0.0,1.0,0.0,1.7579999999999991,1.7579999999999991,0.0,0.0,1.0,55.0,616.79921,10000.0,85.000001,85.000001,85.000001,85.000001,395.0,0.0,0.0,0.0,1.0,166.665,52.002,52.002,47.867,47.867,34.0,-24.4425,27.811666666666667,-24.863333333333333,30.767500000000002,0.0,1781.842,-0.28999999999999915,100.0,27.788,28.291,42.945,43.307,0.0,0.0,100.0,0.0,0.0,0.0,0.0,3236.285714285714,3342.2,3987.8888888888887,4145.1,305.1585,304.22925,315.2495,314.71425,22.0728,20.6711,22.0911,21.5937,314.999998,314.999998,324.999988,324.999988,99.55874285714286,99.50693333333334,99.56895714285714,99.5493,0.11733333333333373,-0.0129999999999999,-0.055,0.1715,-0.03999999999999915,-0.07000000000000028,1.5855,1.5545,38.955,30.194333333333333,39.07,35.960499999999996,55.569,35.396,59.9025,53.3025,53.507999999999996,34.497,58.461,51.6115,52.643,34.022,58.329,51.013666666666666,-0.09899999999999998,-0.06099999999999994,0.10264500000000001,0.10737000000000001,0.0,221.78,221.825,218.55666666666667,218.55666666666667,0.0,0.0
36,0.0,0.0,0.0,1.0,1.0,0.0,0.0,1.0,0.0,0.0,1.0,1.1856,26.0,0.0,0.0,0.0,59.999996,0.0,26.0,26.0,26.0,26.0,0.02387500000000009,0.26260000000000017,-0.013250000000000001,291.885,-2.79935,-2.6152,-1.6345,-1.5397,-152.04,215.6175,190.158,0.0,0.0,0.0,0.0,0.07346666666666667,-5.498166666666667,-5.498166666666667,-0.6665,-0.7555000000000001,-0.045666666666666966,0.3660000000000001,70.997,0.0371,-0.2061,-0.30600000000000005,100.0,1.0,1.0,218.64666666666668,0.0,0.0,0.0,0.0,0.0,0.0,0.0,9267.6,0.0,12.0,5.0,255.56333333333333,0.0,0.0,0.0,0.0,0.0,0.0,1.0,0.0,1.806000000000001,1.806000000000001,0.0,0.0,0.0,55.0,616.79921,10000.0,85.000001,85.000001,85.000001,85.000001,395.0,0.0,0.0,0.0,1.0,166.665,53.116,53.116,46.387,46.387,34.0,-21.0325,24.275,-31.83,33.6575,0.0,1781.794,-0.27999999999999936,100.0,28.042,28.055,43.572,43.925,0.0,0.0,100.0,0.0,0.0,0.0,0.0,2838.5714285714284,2978.3,4600.444444444444,4441.0,305.999,305.519,313.76525,313.92,22.0813,20.6764,22.101,21.6026,314.999998,314.999998,324.999988,324.999988,99.55875714285715,99.50693333333334,99.56911428571429,99.54944285714285,0.12199999999999989,-0.008333333333333304,-0.06883333333333333,0.15016666666666667,-0.036666666666668846,-0.03166666666666629,1.4435,1.4224999999999999,39.007999999999996,30.227333333333334,39.131,36.016,55.557,35.4315,59.94,53.363,53.497,34.53,58.496,51.67,52.631,34.0535,58.361,51.07066666666667,-0.09150000000000003,-0.052999999999999936,0.10500500000000001,0.10408500000000001,0.0,222.17000000000002,222.175,218.64666666666665,218.64666666666668,0.0,0.0
