,ABS Active,ABS Enabled,AID Allow Tire Blankets,AID Auto Blip,AID Auto Clutch,AID Auto Shift,AID Fuel Rate,AID Ideal Line,AID Mech Damage,AID Stability,AID Tire Wear Rate,Air Density,Air Temp,Ballast,Best Lap Delta,Best Lap Time,Brake Bias,Brake Pos,Brake Temp FL,Brake Temp FR,Brake Temp RL,Brake Temp RR,CG Accel Lateral,CG Accel Longitudinal,CG Accel Vertical,CG Height,Camber FL,Camber FR,Camber RL,Camber RR,Car Coord X,Car Coord Y,Car Coord Z,Car Damage Front,Car Damage Left,Car Damage Rear,Car Damage Right,Car Pos Norm,Caster FL,Caster FR,Chassis Pitch Angle,Chassis Pitch Rate,Chassis Roll Angle,Chassis Roll Rate,Chassis Velocity X,Chassis Velocity Y,Chassis Velocity Z,Chassis Yaw Rate,Clutch Pos,DRS Active,DRS Available,Drive Train Speed,ERS Heat Charging,ERS Is Charging,ERS Max Energy,ERS Power Level,ERS Recovery Level,Engine Brake Setting,Engine Limiter,Engine RPM,Flags,Fuel Level,Gear,Ground Speed,HR Sample Clock,In Pit,KERS Charge,KERS Deployed Energy,KERS Input,KERS Max Energy,LR Sample Clock,Lap Invalidated,Lap Time,Lap Time2,Last Lap Time,Last Sector Time,MR Sample Clock,Max Fuel,Max Power,Max RPM,Max Sus Travel FL,Max Sus Travel FR,Max Sus Travel RL,Max Sus Travel RR,Max Torque,Max Turbo Boost,Num Tires Off Track,Penalties Enabled,Position,Raw Data Sample Rate,Ride Height FL,Ride Height FR,Ride Height RL,Ride Height RR,Road Temp,Self Align Torque FL,Self Align Torque FR,Self Align Torque RL,Self Align Torque RR,Session Lap Count,Session Time Left,Steering Angle,Surface Grip,Suspension Travel FL,Suspension Travel FR,Suspension Travel RL,Suspension Travel RR,TC Active,TC Enabled,Throttle Pos,Tire Dirt Level FL,Tire Dirt Level FR,Tire Dirt Level RL,Tire Dirt Level RR,Tire Load FL,Tire Load FR,Tire Load RL,Tire Load RR,Tire Loaded Radius FL,Tire Loaded Radius FR,Tire Loaded Radius RL,Tire Loaded Radius RR,Tire Pressure FL,Tire Pressure FR,Tire Pressure RL,Tire Pressure RR,Tire Radius FL,Tire Radius FR,Tire Radius RL,Tire Radius RR,Tire Rubber Grip FL,Tire Rubber Grip FR,Tire Rubber Grip RL,Tire Rubber Grip RR,Tire Slip Angle FL,Tire Slip Angle FR,Tire Slip Angle RL,Tire Slip Angle RR,Tire Slip Ratio FL,Tire Slip Ratio FR,Tire Slip Ratio RL,Tire Slip Ratio RR,Tire Temp Core FL,Tire Temp Core FR,Tire Temp Core RL,Tire Temp Core RR,Tire Temp Inner FL,Tire Temp Inner FR,Tire Temp Inner RL,Tire Temp Inner RR,Tire Temp Middle FL,Tire Temp Middle FR,Tire Temp Middle RL,Tire Temp Middle RR,Tire Temp Outer FL,Tire Temp Outer FR,Tire Temp Outer RL,Tire Temp Outer RR,Toe In FL,Toe In FR,Toe In RL,Toe In RR,Turbo Boost,Wheel Angular Speed FL,Wheel Angular Speed FR,Wheel Angular Speed RL,Wheel Angular Speed RR,Wind Direction,Wind Speed
0,0.0,0.0,0.0,1.0,1.0,0.0,0.0,1.0,0.0,0.0,1.0,1.1856,26.0,0.0,0.0,0.0,59.99999,0.0,26.0,26.0,26.0,26.0,-0.06977777777777783,0.30110000000000015,0.037333333333333336,294.693,-2.7348,-2.6574999999999998,-1.5177,-1.5417,-275.66,216.29250000000002,190.988125,0.0,0.0,0.0,0.0,0.0015999999999999348,-5.498166666666667,-5.498166666666667,-0.5622,1.5130000000000001,0.0015555555555555323,-0.524,66.081,-0.0284,-0.227725,0.9420000000000002,100.0,1.0,1.0,204.13,0.0,0.0,0.0,0.0,0.0,0.0,0.0,8652.3,0.0,5.0,5.0,237.86,0.0,0.0,0.0,0.0,0.0,0.0,0.0,0.0,0.0030000000000001137,0.0030000000000001137,0.0,0.0,0.0,55.0,616.79921,10000.0,85.0,85.0,85.0,85.0,395.0,0.0,0.0,0.0,1.0,20.0,53.024,53.024,50.583,50.583,34.0,-26.775,25.554000000000002,-27.939999999999998,23.412,0.0,1783.619,0.7300000000000004,100.0,26.973,26.37,39.888,40.044,0.0,0.0,100.0,0.0,0.0,0.0,0.0,3043.5714285714284,3515.8,3923.6666666666665,3842.3,305.537,303.5995,315.3155,315.2715,21.7281,20.474899999999998,21.729,21.2776,314.99999,314.99999,324.99998,324.99998,99.55737142857143,99.50631666666666,99.56368571428571,99.54414285714286,0.0023333333333335204,-0.10125000000000006,-0.15300000000000002,0.06800000000000006,-0.05333333333332746,-0.04999999999999716,1.619,1.6545,36.8,28.968,36.806,33.9845,55.649,33.7825,58.472,51.087,53.601,33.027,57.126999999999995,49.4865,52.786,32.6345,57.102000000000004,48.93566666666666,-0.012499999999999956,-0.12650000000000006,0.10502,0.10213000000000001,0.0,207.07,206.95499999999998,204.13,204.13,0.0,0.0
1,0.0,0.0,0.0,1.0,1.0,0.0,0.0,1.0,0.0,0.0,1.0,1.1856,26.0,0.0,0.0,0.0,59.999996,0.0,26.0,26.0,26.0,26.0,-0.10111111111111104,0.3206,0.24256666666666665,293.762,-2.65275,-2.77,-1.5252,-1.538,-272.29,216.28750000000002,190.967875,0.0,0.0,0.0,0.0,0.003566666666666607,-5.498166666666667,-5.498166666666667,-0.48560000000000003,-0.3575,-0.05077777777777781,-1.0419999999999998,66.241,-0.0456,-0.186775,1.3940000000000001,100.0,1.0,1.0,204.18333333333334,0.0,0.0,0.0,0.0,0.0,0.0,0.0,8654.6,0.0,5.0,5.0,238.43666666666667,1.0,0.0,0.0,0.0,0.0,0.0,0.0,0.0,0.053999999999998494,0.053999999999998494,0.0,0.0,1.0,55.0,616.79921,10000.0,85.000001,85.000001,85.000001,85.000001,395.0,0.0,0.0,0.0,1.0,166.665,54.626,54.626,48.721000000000004,48.721000000000004,34.0,-26.255,17.362,-33.9625,29.504,0.0,1783.57,0.8550000000000004,100.0,26.874,26.466,42.143,41.221000000000004,0.0,0.0,100.0,0.0,0.0,0.0,0.0,2995.0,2555.8,4363.333333333333,4736.1,305.7725,306.674,314.16925,313.03825,21.7378,20.4799,21.7397,21.2866,314.999998,314.999998,324.999988,324.999988,99.55737142857143,99.50633333333333,99.56382857142857,99.54428571428572,-0.018000000000000016,-0.131,-0.17016666666666658,0.04366666666666674,-0.060000000000002274,-0.05749999999999744,1.4060000000000001,1.4615,36.861999999999995,28.999000000000002,36.873000000000005,34.0415,55.632999999999996,33.8245,58.5195,51.153999999999996,53.586,33.066,57.1715,49.5505,52.769999999999996,32.6715,57.1435,48.998666666666665,0.0004999999999999449,-0.13600000000000012,0.106645,0.10819500000000001,0.0,207.55,207.44,204.18333333333334,204.18333333333334,0.0,0.0
2,0.0,0.0,0.0,1.0,1.0,0.0,0.0,1.0,0.0,0.0,1.0,1.1856,26.0,0.0,0.0,0.0,59.999996,0.0,26.0,26.0,26.0,26.0,-0.1286666666666666,0.30479999999999996,0.04543333333333333,294.586,-2.6225,-2.798375,-1.48785,-1.5929,-268.71,216.2775,190.947875,0.0,0.0,0.0,0.0,0.005633333333333379,-5.498166666666667,-5.498166666666667,-0.5466,-0.1665,-0.04022222222222238,2.1479999999999997,66.395,-0.068,-0.24835000000000002,1.6000000000000005,100.0,1.0,1.0,205.19666666666666,0.0,0.0,0.0,0.0,0.0,0.0,0.0,8697.6,0.0,5.0,5.0,238.99333333333334,0.0,0.0,0.0,0.0,0.0,0.0,0.0,0.0,0.10800000000000054,0.10800000000000054,0.0,0.0,0.0,55.0,616.79921,10000.0,85.000001,85.000001,85.000001,85.000001,395.0,0.0,0.0,0.0,1.0,166.665,53.391,53.391,51.025,51.025,34.0,-29.2025,20.022,-27.415,19.47,0.0,1783.516,0.7199999999999989,100.0,27.482,26.262,41.937,40.827,0.0,0.0,100.0,0.0,0.0,0.0,0.0,3287.142857142857,2920.7,3618.0,3631.6,304.817,305.59725,315.966,315.889,21.7484,20.4848,21.7506,21.2958,314.999998,314.999998,324.999988,324.999988,99.55738571428572,99.50635,99.56397142857143,99.54442857142857,-0.01966666666666672,-0.14225,-0.21399999999999997,0.009000000000000119,-0.08166666666667055,-0.04625000000000057,1.683,1.7455,36.927,29.03,36.941,34.0985,55.619,33.865,58.5605,51.2155,53.573,33.103,57.2095,49.6095,52.756,32.707,57.179,49.056666666666665,-0.019499999999999962,-0.13000000000000012,0.10029500000000001,0.109575,0.0,208.03,207.865,205.19666666666666,205.19666666666666,0.0,0.0
3,0.0,0.0,0.0,1.0,1.0,0.0,0.0,1.0,0.0,0.0,1.0,1.1856,26.0,0.0,0.0,0.0,59.999996,0.0,26.0,26.0,26.0,26.0,-0.1366666666666666,0.31410000000000005,-0.016466666666666668,294.25,-2.7451499999999998,-2.691875,-1.50815,-1.5779,-265.71,216.26749999999998,190.93025,0.0,0.0,0.0,0.0,0.007399999999999962,-5.498166666666667,-5.498166666666667,-0.5079,0.749,-0.004111111111110954,-0.669,66.533,-0.0823,-0.19805,1.2460000000000004,100.0,1.0,1.0,205.29666666666668,0.0,0.0,0.0,0.0,0.0,0.0,0.0,8701.8,0.0,5.0,5.0,239.48666666666668,1.0,0.0,0.0,0.0,0.0,0.0,0.0,0.0,0.1529999999999987,0.1529999999999987,0.0,0.0,1.0,55.0,616.79921,10000.0,85.000001,85.000001,85.000001,85.000001,395.0,0.0,0.0,0.0,1.0,166.665,54.428,54.428,48.935,48.935,34.0,-25.355,17.914,-34.5075,23.848,0.0,1783.47,0.5850000000000009,100.0,27.196,26.485,41.668,40.883,0.0,0.0,100.0,0.0,0.0,0.0,0.0,2793.857142857143,2747.6,4288.111111111111,4184.3,306.243,305.878,314.40675,314.46725,21.7569,20.4893,21.7597,21.3035,314.999998,314.999998,324.999988,324.999988,99.55738571428572,99.50636666666666,99.5641,99.54455714285714,-0.024666666666666615,-0.1459999999999999,-0.20966666666666656,0.011666666666666714,-0.045000000000001705,-0.05250000000000199,1.5150000000000001,1.552,36.980999999999995,29.058,36.998000000000005,34.147,55.605000000000004,33.9035,58.596000000000004,51.272,53.559,33.1385,57.243,49.6635,52.742000000000004,32.741,57.2095,49.10933333333333,-0.028000000000000025,-0.11099999999999999,0.10541500000000001,0.10905000000000001,0.0,208.45499999999998,208.36,205.29666666666668,205.29666666666668,0.0,0.0
4,0.0,0.0,0.0,1.0,1.0,0.0,0.0,1.0,0.0,0.0,1.0,1.1856,26.0,0.0,0.0,0.0,59.999996,0.0,26.0,26.0,26.0,26.0,-0.15000000000000002,0.3015000000000001,-0.023133333333333336,294.449,-2.67285,-2.750375,-1.5223499999999999,-1.5907,-262.32,216.2525,190.910375,0.0,0.0,0.0,0.0,0.009366666666666523,-5.498166666666667,-5.498166666666667,-0.5393,-0.8955000000000001,-0.07377777777777794,-0.702,66.684,-0.0814,-0.23442500000000002,1.0820000000000007,100.0,1.0,1.0,205.87333333333333,0.0,0.0,0.0,0.0,0.0,0.0,0.0,8726.2,0.0,5.0,5.0,240.03333333333333,0.0,0.0,0.0,0.0,0.0,0.0,0.0,0.0,0.20400000000000063,0.20400000000000063,0.0,0.0,0.0,55.0,616.79921,10000.0,85.000001,85.000001,85.000001,85.000001,395.0,0.0,0.0,0.0,1.0,166.665,54.016,54.016,49.484,49.484,34.0,-28.0425,19.607999999999997,-31.2675,20.842,0.0,1783.42,0.6000000000000014,100.0,27.068,26.072,42.254,40.998000000000005,0.0,0.0,100.0,0.0,0.0,0.0,0.0,3119.285714285714,2913.6,4012.0,3641.0,305.3645,305.595,314.94675,315.7545,21.7664,20.4942,21.7702,21.3124,314.999998,314.999998,324.999988,324.999988,99.55738571428572,99.50638333333333,99.56424285714286,99.5447,-0.024333333333333318,-0.14175000000000004,-0.19533333333333336,0.027166666666666783,-0.06833333333332803,-0.04999999999999716,1.574,1.6215,37.04,29.08866666666667,37.064,34.2025,55.587,33.945,58.6395,51.332499999999996,53.542,33.1765,57.283500000000004,49.7215,52.724000000000004,32.7775,57.2475,49.166333333333334,-0.01849999999999996,-0.11749999999999994,0.11024,0.11039000000000002,0.0,208.865,208.79000000000002,205.87333333333333,205.87333333333333,0.0,0.0
5,0.0,0.0,0.0,1.0,1.0,0.0,0.0,1.0,0.0,0.0,1.0,1.1856,26.0,0.0,0.0,0.0,59.999996,0.0,26.0,26.0,26.0,26.0,-0.13377777777777777,0.30879999999999996,0.004,294.434,-2.6837999999999997,-2.77475,-1.50535,-1.5756999999999999,-258.71,216.23250000000002,190.888625,0.0,0.0,0.0,0.0,0.011466666666666514,-5.498166666666667,-5.498166666666667,-0.5325,0.3705,-0.07588888888888867,1.279,66.844,-0.0833,-0.21302500000000002,1.0260000000000007,100.0,1.0,1.0,206.30666666666667,0.0,0.0,0.0,0.0,0.0,0.0,0.0,8744.6,0.0,5.0,5.0,240.60666666666668,1.0,0.0,0.0,0.0,0.0,0.0,0.0,0.0,0.2579999999999991,0.2579999999999991,0.0,0.0,1.0,55.0,616.79921,10000.0,85.000001,85.000001,85.000001,85.000001,395.0,0.0,0.0,0.0,1.0,166.665,54.337,54.337,49.652,49.652,34.0,-26.4375,19.936,-32.2575,23.238,0.0,1783.366,0.1999999999999993,100.0,27.209,25.892,42.005,40.574,0.0,0.0,100.0,0.0,0.0,0.0,0.0,3025.4285714285716,2828.7,4103.222222222223,4052.1000000000004,305.537,305.8895,314.81425,314.82975,21.7768,20.4994,21.7811,21.3215,314.999998,314.999998,324.999988,324.999988,99.5574,99.5064,99.5644,99.54484285714285,-0.0020000000000000018,-0.12024999999999997,-0.2025,0.021333333333333426,-0.036666666666668846,-0.045000000000001705,1.545,1.5915,37.105000000000004,29.121000000000002,37.132,34.2595,55.572,33.9885,58.6835,51.3945,53.528,33.216499999999996,57.3245,49.7805,52.71,32.8155,57.2855,49.224333333333334,-0.04999999999999993,-0.08750000000000013,0.10785000000000002,0.10679000000000001,0.0,209.39499999999998,209.31,206.30666666666667,206.30666666666667,0.0,0.0
6,0.0,0.0,0.0,1.0,1.0,0.0,0.0,1.0,0.0,0.0,1.0,1.1856,26.0,0.0,0.0,0.0,59.999996,0.0,26.0,26.0,26.0,26.0,-0.10066666666666657,0.3103,-0.009033333333333332,294.403,-2.65815,-2.800625,-1.5495999999999999,-1.5695999999999999,-255.7,216.2125,190.8705,0.0,0.0,0.0,0.0,0.01319999999999999,-5.498166666666667,-5.498166666666667,-0.5271,0.11750000000000001,-0.06000000000000005,-0.538,66.976,-0.0818,-0.21227500000000002,0.798,100.0,1.0,1.0,206.71666666666667,0.0,0.0,0.0,0.0,0.0,0.0,0.0,8762.0,0.0,5.0,5.0,241.08333333333331,0.0,0.0,0.0,0.0,0.0,0.0,0.0,0.0,0.3030000000000008,0.3030000000000008,0.0,0.0,0.0,55.0,616.79921,10000.0,85.000001,85.000001,85.000001,85.000001,395.0,0.0,0.0,0.0,1.0,166.665,54.245,54.245,49.591,49.591,34.0,-26.6475,20.357999999999997,-32.2975,22.374,0.0,1783.32,0.03500000000000014,100.0,26.846,26.11,41.923,40.897999999999996,0.0,0.0,100.0,0.0,0.0,0.0,0.0,3110.0,2804.0,4068.4444444444443,3947.4,305.4235,305.684,314.959,315.00475,21.7854,20.5038,21.7903,21.3294,314.999998,314.999998,324.999988,324.999988,99.5574,99.50641666666667,99.56452857142857,99.54497142857143,0.003666666666666707,-0.11775000000000002,-0.2021666666666666,0.019333333333333425,-0.060000000000002274,-0.048749999999998295,1.5670000000000002,1.608,37.159,29.148666666666664,37.19,34.3085,55.559,34.0245,58.7195,51.4495,53.515,33.2495,57.358000000000004,49.8335,52.696,32.847,57.317,49.275999999999996,-0.07099999999999995,-0.06699999999999995,0.10598,0.10563000000000002,0.0,209.79500000000002,209.71,206.71666666666667,206.71666666666667,0.0,0.0
7,0.0,0.0,0.0,1.0,1.0,0.0,0.0,1.0,0.0,0.0,1.0,1.1856,26.0,0.0,0.0,0.0,59.999996,0.0,26.0,26.0,26.0,26.0,-0.06477777777777782,0.28310000000000013,0.0119,294.25,-2.6278,-2.760875,-1.5078,-1.6114000000000002,-252.07999999999998,216.1875,190.848625,0.0,0.0,0.0,0.0,0.01529999999999998,-5.498166666666667,-5.498166666666667,-0.5315,0.012,-0.04899999999999993,-0.266,67.134,-0.0644,-0.22232500000000002,0.3720000000000008,100.0,1.0,1.0,207.2,0.0,0.0,0.0,0.0,0.0,0.0,0.0,8782.4,0.0,5.0,5.0,241.65333333333334,1.0,0.0,0.0,0.0,0.0,0.0,0.0,0.0,0.3569999999999993,0.3569999999999993,0.0,0.0,1.0,55.0,616.79921,10000.0,85.000001,85.000001,85.000001,85.000001,395.0,0.0,0.0,0.0,1.0,166.665,53.955,53.955,49.774,49.774,34.0,-26.0675,21.294,-30.369999999999997,23.758,0.0,1783.267,-0.2400000000000002,100.0,27.002,26.229,41.965,41.166,0.0,0.0,100.0,0.0,0.0,0.0,0.0,3152.142857142857,2839.0,3989.222222222222,3928.5,305.2465,305.58225,315.10325,314.9965,21.7957,20.5091,21.8013,21.3388,314.999998,314.999998,324.999988,324.999988,99.5574,99.50641666666667,99.56468571428572,99.54511428571429,0.022333333333333094,-0.09199999999999986,-0.18499999999999994,0.03499999999999992,-0.06333333333333258,-0.04749999999999943,1.5453333333333332,1.573,37.223,29.181666666666665,37.257999999999996,34.3675,55.543,34.0665,58.763,51.5155,53.5,33.288,57.3985,49.8965,52.68,32.884,57.354,49.337666666666664,-0.08550000000000002,-0.04800000000000004,0.105605,0.10458,0.0,210.26999999999998,210.22,207.2,207.2,0.0,0.0
8,0.0,0.0,0.0,1.0,1.0,0.0,0.0,1.0,0.0,0.0,1.0,1.1856,26.0,0.0,0.0,0.0,59.999996,0.0,26.0,26.0,26.0,26.0,-0.03300000000000003,0.28869999999999996,-0.02723333333333333,294.373,-2.71325,-2.729,-1.4919,-1.5631,-248.85,216.1625,190.829,0.0,0.0,0.0,0.0,0.017199999999999993,-5.498166666666667,-5.498166666666667,-0.535,-0.539,-0.031333333333333435,-0.506,67.275,-0.046400000000000004,-0.21632500000000002,0.0039999999999995595,100.0,1.0,1.0,207.55666666666667,0.0,0.0,0.0,0.0,0.0,0.0,0.0,8797.5,0.0,5.0,5.0,242.16,0.0,0.0,0.0,0.0,0.0,0.0,0.0,0.0,0.40500000000000114,0.40500000000000114,0.0,0.0,0.0,55.0,616.79921,10000.0,85.000001,85.000001,85.000001,85.000001,395.0,0.0,0.0,0.0,1.0,166.665,54.581,54.581,49.072,49.072,34.0,-23.982499999999998,21.914,-29.4825,26.0,0.0,1783.218,-0.35999999999999943,100.0,26.601,26.207,41.974000000000004,41.291,0.0,0.0,100.0,0.0,0.0,0.0,0.0,2944.285714285714,2856.2,4083.222222222222,4029.8,306.0155,305.61875,314.85225,314.72975,21.8046,20.5138,21.8111,21.3472,314.999998,314.999998,324.999988,324.999988,99.5574,99.50643333333333,99.56481428571429,99.54524285714285,0.03833333333333311,-0.07050000000000001,-0.15316666666666656,0.07350000000000012,-0.046666666666666856,-0.04749999999999943,1.5456666666666665,1.526,37.278999999999996,29.211,37.319,34.42,55.527,34.1025,58.8015,51.573499999999996,53.485,33.3215,57.4345,49.952,52.664,32.916,57.3875,49.391999999999996,-0.09750000000000003,-0.03649999999999998,0.10329500000000001,0.11294000000000001,0.0,210.67000000000002,210.67000000000002,207.55666666666667,207.55666666666667,0.0,0.0
9,0.0,0.0,0.0,1.0,1.0,0.0,0.0,1.0,0.0,0.0,1.0,1.1856,26.0,0.0,0.0,0.0,59.999996,0.0,26.0,26.0,26.0,26.0,-0.01055555555555554,0.2985,-0.0162,294.067,-2.64115,-2.725375,-1.5474999999999999,-1.5430000000000001,-245.62,216.1375,190.809,0.0,0.0,0.0,0.0,0.019066666666666565,-5.498166666666667,-5.498166666666667,-0.5383,0.6955,-0.03155555555555578,-0.399,67.412,-0.028800000000000003,-0.21527500000000002,-0.12600000000000033,100.0,1.0,1.0,208.09,0.0,0.0,0.0,0.0,0.0,0.0,0.0,8820.2,0.0,5.0,5.0,242.65333333333334,1.0,0.0,0.0,0.0,0.0,0.0,0.0,0.0,0.4529999999999994,0.4529999999999994,0.0,0.0,1.0,55.0,616.79921,10000.0,85.000001,85.000001,85.000001,85.000001,395.0,0.0,0.0,0.0,1.0,166.665,53.436,53.436,50.049,50.049,34.0,-25.057499999999997,23.2,-28.112499999999997,25.842,0.0,1783.17,-0.504999999999999,100.0,27.093,26.609,41.572,41.259,0.0,0.0,100.0,0.0,0.0,0.0,0.0,3262.857142857143,2928.7,3982.1111111111113,4004.9,304.924,305.32025,315.22175,314.90125,21.8137,20.5187,21.8207,21.3555,314.999998,314.999998,324.999988,324.999988,99.55741428571429,99.50643333333333,99.56494285714285,99.54538571428571,0.07166666666666677,-0.05600000000000005,-0.13549999999999995,0.08766666666666678,-0.07833333333332604,-0.06125000000000114,1.591,1.5995,37.336,29.241666666666667,37.379999999999995,34.472,55.516,34.14,58.8365,51.6305,53.474000000000004,33.356,57.467,50.007,52.652,32.949,57.417,49.44566666666667,-0.11399999999999999,-0.028999999999999915,0.10433500000000001,0.10820500000000001,0.0,211.13,211.12,208.09,208.09,0.0,0.0
10,0.0,0.0,0.0,1.0,1.0,0.0,0.0,1.0,0.0,0.0,1.0,1.1856,26.0,0.0,0.0,0.0,59.999996,0.0,26.0,26.0,26.0,26.0,0.010555555555555651,0.29090000000000016,0.05813333333333334,294.006,-2.71035,-2.7195,-1.5260500000000001,-1.5244,-242.18,216.11,190.788125,0.0,0.0,0.0,0.0,0.021066666666666567,-5.498166666666667,-5.498166666666667,-0.5193,-0.7020000000000001,0.009888888888888836,1.649,67.562,-0.0066,-0.20855,-0.5720000000000001,100.0,1.0,1.0,208.35000000000002,0.0,0.0,0.0,0.0,0.0,0.0,0.0,8831.1,0.0,5.0,5.0,243.19333333333333,0.0,0.0,0.0,0.0,0.0,0.0,1.0,0.0,0.5040000000000013,0.5040000000000013,0.0,0.0,0.0,55.0,616.79921,10000.0,85.000001,85.000001,85.000001,85.000001,395.0,0.0,0.0,0.0,1.0,333.33500000000004,54.535,54.535,48.599000000000004,48.599000000000004,34.0,-20.32,23.348,-28.4675,29.406,0.0,1783.118,-0.5949999999999989,100.0,26.981,26.379,42.16,41.873000000000005,0.0,0.0,100.0,0.0,0.0,0.0,0.0,2751.4285714285716,2909.0,4151.333333333333,4251.7,306.4255,305.632,314.62175,314.30125,21.8232,20.523699999999998,21.8312,21.3646,314.999998,314.999998,324.999988,324.999988,99.55742857142857,99.50645,99.5651,99.54552857142858,0.09333333333333371,-0.038000000000000034,-0.10833333333333339,0.11433333333333318,-0.03833333333332689,-0.03999999999999915,1.5153333333333334,1.488,37.394999999999996,29.273333333333333,37.445,34.528999999999996,55.501999999999995,34.177,58.879,51.696,53.461,33.39,57.5065,50.0695,52.638999999999996,32.9815,57.4535,49.507333333333335,-0.124,-0.026499999999999968,0.108475,0.10284000000000001,0.0,211.565,211.565,208.35000000000002,208.35000000000002,0.0,0.0
11,0.0,0.0,0.0,1.0,1.0,0.0,0.0,1.0,0.0,0.0,1.0,1.1856,26.0,0.0,0.0,0.0,59.999996,0.0,26.0,26.0,26.0,26.0,0.03400000000000003,0.2834000000000001,-0.06856666666666666,294.434,-2.71915,-2.676375,-1.57695,-1.5133,-238.53,216.07999999999998,190.76575,0.0,0.0,0.0,0.0,0.022599999999999953,-5.498166666666667,-5.498166666666667,-0.5595,0.10300000000000001,0.03133333333333321,0.28400000000000025,67.713,0.0137,-0.230525,-0.6779999999999999,100.0,1.0,1.0,209.12,0.0,0.0,0.0,0.0,0.0,0.0,0.0,8863.9,0.0,5.0,5.0,243.73666666666668,1.0,0.0,0.0,0.0,0.0,0.0,1.0,0.0,0.5579999999999998,0.5579999999999998,0.0,0.0,1.0,55.0,616.79921,10000.0,85.000001,85.000001,85.000001,85.000001,395.0,0.0,0.0,0.0,1.0,166.665,53.848,53.848,50.064,50.064,34.0,-20.94,26.274,-23.965,26.936,0.0,1783.065,-0.6950000000000003,100.0,26.813,26.688,41.476,41.715,0.0,0.0,100.0,0.0,0.0,0.0,0.0,2909.857142857143,3109.1,3731.5555555555557,3863.2,305.8835,304.93625,315.812,315.2935,21.833199999999998,20.5293,21.842,21.374,314.999998,314.999998,324.999988,324.999988,99.55742857142857,99.50645,99.56524285714286,99.54568571428571,0.11566666666666636,-0.005749999999999922,-0.08833333333333337,0.14683333333333337,-0.036666666666668846,-0.060000000000002274,1.6636666666666666,1.639,37.457,29.308,37.512,34.5875,55.486999999999995,34.218,58.9155,51.76,53.447,33.4275,57.541,50.131,52.623000000000005,33.0175,57.485,49.56766666666667,-0.128,-0.020000000000000018,0.10703000000000001,0.10951500000000002,0.0,211.985,212.035,209.12,209.12,0.0,0.0
12,0.0,0.0,0.0,1.0,1.0,0.0,0.0,1.0,0.0,0.0,1.0,1.1856,26.0,0.0,0.0,0.0,59.999996,0.0,26.0,26.0,26.0,26.0,0.0564444444444443,0.3016000000000001,0.04186666666666667,293.73199999999997,-2.7317,-2.693375,-1.54515,-1.5342,-235.26999999999998,216.055,190.74475,0.0,0.0,0.0,0.0,0.025466666666666526,-5.498166666666667,-5.498166666666667,-0.5428000000000001,0.2715,0.018000000000000016,0.6949999999999998,67.85300000000001,0.030600000000000002,-0.20752500000000002,-0.7480000000000002,100.0,1.0,1.0,209.30333333333334,0.0,0.0,0.0,0.0,0.0,0.0,0.0,8871.6,0.0,5.0,5.0,244.24333333333334,0.0,0.0,0.0,0.0,0.0,0.0,1.0,0.0,0.6059999999999981,0.6059999999999981,0.0,0.0,0.0,55.0,616.79921,10000.0,85.000001,85.000001,85.000001,85.000001,395.0,0.0,0.0,0.0,1.0,166.665,53.635,53.635,48.721000000000004,48.721000000000004,34.0,-21.0675,27.078,-26.175,31.52,0.0,1783.017,-0.6549999999999994,100.0,26.824,26.908,41.664,41.792,0.0,0.0,100.0,0.0,0.0,0.0,0.0,2955.857142857143,3150.4,4110.555555555556,4205.7,305.7525,304.835,314.75675,314.45075,21.842,20.5343,21.8517,21.3824,314.999998,314.999998,324.999988,324.999988,99.55744285714286,99.50645,99.56538571428571,99.54582857142857,0.1246666666666667,0.0009999999999998899,-0.06799999999999995,0.16166666666666685,-0.046666666666666856,-0.07000000000000028,1.5390000000000001,1.504,37.513,29.339333333333336,37.573,34.64,55.474999999999994,34.2545,58.9535,51.819,53.435,33.4615,57.576,50.188,52.611000000000004,33.05,57.516999999999996,49.623333333333335,-0.12449999999999994,-0.023500000000000076,0.10743000000000001,0.10780500000000001,0.0,212.435,212.51,209.30333333333334,209.30333333333334,0.0,0.0
13,0.0,0.0,0.0,1.0,1.0,0.0,0.0,1.0,0.0,0.0,1.0,1.1856,26.0,0.0,0.0,0.0,59.999996,0.0,26.0,26.0,26.0,26.0,0.06699999999999995,0.28590000000000004,0.05316666666666667,293.472,-2.71125,-2.685375,-1.58005,-1.5317,-232.01,216.0325,190.72425,0.0,0.0,0.0,0.0,0.026966666666666583,-5.498166666666667,-5.498166666666667,-0.5374,-0.0955,0.02388888888888885,1.134,67.99000000000001,0.0386,-0.21727500000000002,-0.8479999999999999,100.0,1.0,1.0,209.68333333333334,0.0,0.0,0.0,0.0,0.0,0.0,0.0,8887.7,0.0,5.0,5.0,244.73333333333335,1.0,0.0,0.0,0.0,0.0,0.0,1.0,0.0,0.6539999999999999,0.6539999999999999,0.0,0.0,1.0,55.0,616.79921,10000.0,85.000001,85.000001,85.000001,85.000001,395.0,0.0,0.0,0.0,1.0,333.33500000000004,53.467,53.467,48.798,48.798,34.0,-20.3375,27.326,-25.7175,32.446,0.0,1782.968,-0.8449999999999989,100.0,27.1,27.031,41.865,42.293,0.0,0.0,100.0,0.0,0.0,0.0,0.0,2951.857142857143,3119.5,4056.777777777778,4304.9,305.7435,304.934,314.886,314.19875,21.8509,20.5393,21.8615,21.391,314.999998,314.999998,324.999988,324.999988,99.55747142857143,99.50645,99.56551428571429,99.54595714285715,0.1376666666666666,0.01650000000000018,-0.05699999999999994,0.16233333333333322,-0.02833333333332888,-0.06499999999999773,1.528,1.502,37.568,29.370666666666665,37.634,34.6935,55.466,34.291,58.9905,51.8805,53.426,33.495,57.6105,50.247,52.601,33.082,57.549,49.681333333333335,-0.133,-0.008499999999999952,0.11208000000000001,0.10723,0.0,212.86,212.92000000000002,209.68333333333334,209.68333333333334,0.0,0.0
14,0.0,0.0,0.0,1.0,1.0,0.0,0.0,1.0,0.0,0.0,1.0,1.1856,26.0,0.0,0.0,0.0,59.999996,0.0,26.0,26.0,26.0,26.0,0.10744444444444445,0.28590000000000004,-0.015166666666666667,293.808,-2.7496,-2.681375,-1.59155,-1.502,-228.54,216.01,190.70275,0.0,0.0,0.0,0.0,0.028999999999999915,-5.498166666666667,-5.498166666666667,-0.5481,-0.1635,0.052444444444444294,-0.31299999999999994,68.133,0.0494,-0.22842500000000002,-0.9799999999999995,100.0,1.0,1.0,210.22,0.0,0.0,0.0,0.0,0.0,0.0,0.0,8910.4,0.0,5.0,5.0,245.25,0.0,0.0,0.0,0.0,0.0,0.0,1.0,0.0,0.7049999999999983,0.7049999999999983,0.0,0.0,0.0,55.0,616.79921,10000.0,85.000001,85.000001,85.000001,85.000001,395.0,0.0,0.0,0.0,1.0,166.665,53.635,53.635,49.088,49.088,34.0,-20.3475,27.258,-24.4575,29.944000000000003,0.0,1782.919,-0.9450000000000003,100.0,26.708,27.267,41.633,42.501,0.0,0.0,100.0,0.0,0.0,0.0,0.0,2952.142857142857,3077.0,3925.8888888888887,4079.9,305.965,304.819,315.31775,314.63175,21.8603,20.5447,21.8718,21.4,314.999998,314.999998,324.999988,324.999988,99.55748571428572,99.50646666666667,99.56565714285715,99.5461,0.14000000000000012,0.0182500000000001,-0.0548333333333334,0.16166666666666685,-0.054999999999999716,-0.048749999999998295,1.574,1.5505,37.626999999999995,29.404,37.699,34.75,55.455,34.329499999999996,59.028,51.944,53.416,33.531,57.644999999999996,50.308,52.589,33.1165,57.5805,49.74133333333333,-0.14049999999999996,-0.0015000000000000568,0.10541,0.108475,0.0,213.285,213.35000000000002,210.22,210.22,0.0,0.0
15,0.0,0.0,0.0,1.0,1.0,0.0,0.0,1.0,0.0,0.0,1.0,1.1856,26.0,0.0,0.0,0.0,59.999996,0.0,26.0,26.0,26.0,26.0,0.12488888888888883,0.28680000000000017,-0.0616,293.777,-2.756,-2.6425,-1.6141,-1.5059,-225.26999999999998,215.99,190.68225,0.0,0.0,0.0,0.0,0.030899999999999928,-5.498166666666667,-5.498166666666667,-0.5381,0.1835,0.07833333333333314,-0.778,68.268,0.0616,-0.209125,-1.1439999999999997,100.0,1.0,1.0,210.60000000000002,0.0,0.0,0.0,0.0,0.0,0.0,0.0,8926.6,0.0,5.0,5.0,245.73333333333335,1.0,0.0,0.0,0.0,0.0,0.0,1.0,0.0,0.7530000000000001,0.7530000000000001,0.0,0.0,1.0,55.0,616.79921,10000.0,85.000001,85.000001,85.000001,85.000001,395.0,0.0,0.0,0.0,1.0,333.33500000000004,53.879,53.879,49.025999999999996,49.025999999999996,34.0,-18.4,26.932000000000002,-24.5825,33.17,0.0,1782.87,-1.004999999999999,100.0,26.747,27.326,41.41,42.621,0.0,0.0,100.0,0.0,0.0,0.0,0.0,2792.0,3027.9,3994.3333333333335,4257.5,306.399,304.96275,315.263,314.18175,21.8691,20.5497,21.8814,21.4086,314.999998,314.999998,324.999988,324.999988,99.5575,99.50646666666667,99.5658,99.54624285714286,0.1596666666666664,0.030749999999999833,-0.04266666666666663,0.1878333333333333,-0.05666666666667197,-0.04374999999999574,1.561,1.512,37.682,29.435666666666666,37.759,34.8035,55.446,34.367,59.062,52.0045,53.406,33.5655,57.6765,50.3665,52.579,33.1495,57.609,49.79866666666666,-0.15200000000000002,0.0040000000000000036,0.10318500000000001,0.110825,0.0,213.73000000000002,213.79500000000002,210.60000000000002,210.60000000000002,0.0,0.0
16,0.0,0.0,0.0,1.0,1.0,0.0,0.0,1.0,0.0,0.0,1.0,1.1856,26.0,0.0,0.0,0.0,59.999996,0.0,26.0,26.0,26.0,26.0,0.1383333333333332,0.276,-0.03186666666666667,293.64,-2.81105,-2.59525,-1.584,-1.5085000000000002,-221.57999999999998,215.9725,190.6585,0.0,0.0,0.0,0.0,0.03303333333333336,-5.498166666666667,-5.498166666666667,-0.5643,-0.457,0.062000000000000055,-1.2570000000000001,68.419,0.07300000000000001,-0.22945000000000002,-1.1280000000000001,100.0,1.0,1.0,211.11333333333334,0.0,0.0,0.0,0.0,0.0,0.0,0.0,8948.3,0.0,5.0,5.0,246.28,0.0,0.0,0.0,0.0,0.0,0.0,1.0,0.0,0.8069999999999986,0.8069999999999986,0.0,0.0,0.0,55.0,616.79921,10000.0,85.000001,85.000001,85.000001,85.000001,395.0,0.0,0.0,0.0,1.0,166.665,53.192,53.192,49.088,49.088,34.0,-21.3275,28.864,-22.055,31.445999999999998,0.0,1782.816,-0.9199999999999999,100.0,26.549,27.48,41.632,42.676,0.0,0.0,100.0,0.0,0.0,0.0,0.0,3118.285714285714,3222.2,3845.4444444444443,4013.7,305.5805,304.46475,315.49975,314.82775,21.8788,20.5555,21.8923,21.4181,314.999998,314.999998,324.999988,324.999988,99.55751428571429,99.50646666666667,99.56595714285714,99.5464,0.1586666666666665,0.04200000000000026,-0.021166666666666556,0.2028333333333332,-0.051666666666669414,-0.045000000000001705,1.6026666666666667,1.543,37.742000000000004,29.471666666666664,37.827,34.8635,55.432,34.4105,59.1025,52.071,53.394,33.6055,57.7145,50.4305,52.565,33.188,57.6435,49.861666666666665,-0.14600000000000002,-0.0050000000000001155,0.10230500000000001,0.11797,0.0,214.14499999999998,214.235,211.11333333333334,211.11333333333334,0.0,0.0
17,0.0,0.0,0.0,1.0,1.0,0.0,0.0,1.0,0.0,0.0,1.0,1.1856,26.0,0.0,0.0,0.0,59.999996,0.0,26.0,26.0,26.0,26.0,0.12988888888888894,0.29920000000000013,0.0519,293.182,-2.7723,-2.5787500000000003,-1.6292499999999999,-1.4696,-218.29,215.95749999999998,190.637,0.0,0.0,0.0,0.0,0.03496666666666659,-5.498166666666667,-5.498166666666667,-0.5464,0.3635,0.04377777777777769,-0.5840000000000001,68.554,0.0766,-0.20597500000000002,-1.1179999999999999,100.0,1.0,1.0,211.39,0.0,0.0,0.0,0.0,0.0,0.0,0.0,8960.0,0.0,5.0,5.0,246.76333333333332,1.0,0.0,0.0,0.0,0.0,0.0,1.0,0.0,0.8550000000000004,0.8550000000000004,0.0,0.0,1.0,55.0,616.79921,10000.0,85.000001,85.000001,85.000001,85.000001,395.0,0.0,0.0,0.0,1.0,333.33500000000004,53.314,53.314,48.34,48.34,34.0,-20.0975,27.0,-26.607499999999998,33.46,0.0,1782.767,-1.004999999999999,100.0,26.977,27.647,41.599000000000004,42.769999999999996,0.0,0.0,100.0,0.0,0.0,0.0,0.0,3060.857142857143,3043.3,4329.666666666667,4293.8,305.6785,305.036,314.4235,314.21,21.8876,20.5606,21.902,21.4266,314.999998,314.999998,324.999988,324.999988,99.55752857142858,99.50648333333334,99.5661,99.54654285714285,0.17033333333333367,0.04600000000000026,-0.026666666666666616,0.1978333333333333,-0.04333333333332945,-0.045000000000001705,1.537,1.488,37.798,29.503999999999998,37.887,34.9165,55.425,34.4495,59.138,52.131,53.385999999999996,33.641999999999996,57.7475,50.4885,52.557,33.223,57.6735,49.91833333333334,-0.15200000000000002,0.0034999999999999476,0.10685000000000001,0.104965,0.0,214.595,214.69,211.39,211.39,0.0,0.0
18,0.0,0.0,0.0,1.0,1.0,0.0,0.0,1.0,0.0,0.0,1.0,1.1856,26.0,0.0,0.0,0.0,59.999996,0.0,26.0,26.0,26.0,26.0,0.129,0.2862,0.021966666666666666,293.076,-2.7244,-2.5465,-1.6489500000000001,-1.4113,-214.79,215.9475,190.6145,0.0,0.0,0.0,0.0,0.03699999999999992,-5.498166666666667,-5.498166666666667,-0.5618000000000001,-0.2955,0.07577777777777772,0.927,68.695,0.08020000000000001,-0.22862500000000002,-1.3819999999999997,100.0,1.0,1.0,211.88333333333333,0.0,0.0,0.0,0.0,0.0,0.0,0.0,8980.9,0.0,5.0,5.0,247.27333333333334,0.0,0.0,0.0,0.0,0.0,0.0,1.0,0.0,0.9059999999999988,0.9059999999999988,0.0,0.0,0.0,55.0,616.79921,10000.0,85.000001,85.000001,85.000001,85.000001,395.0,0.0,0.0,0.0,1.0,166.665,52.841,52.841,48.309,48.309,34.0,-18.4275,31.378,-23.765,32.874,0.0,1782.718,-1.254999999999999,100.0,26.955,27.606,41.944,43.051,0.0,0.0,100.0,0.0,0.0,0.0,0.0,2952.142857142857,3421.8,3985.0,4256.0,305.748,304.02075,315.14725,314.354,21.8969,20.5661,21.9123,21.4358,314.999998,314.999998,324.999988,324.999988,99.55755714285715,99.50648333333334,99.56622857142857,99.54668571428572,0.18599999999999994,0.06800000000000006,-0.014833333333333365,0.21250000000000013,-0.03166666666666629,-0.060000000000002274,1.564,1.5095,37.855000000000004,29.538333333333334,37.952,34.974000000000004,55.415,34.4915,59.176,52.196,53.376999999999995,33.6805,57.783,50.551,52.546,33.26,57.7055,49.980000000000004,-0.16300000000000003,0.01649999999999996,0.106255,0.10762000000000001,0.0,215.0,215.095,211.88333333333333,211.88333333333333,0.0,0.0
19,0.0,0.0,0.0,1.0,1.0,0.0,0.0,1.0,0.0,0.0,1.0,1.1856,26.0,0.0,0.0,0.0,59.999996,0.0,26.0,26.0,26.0,26.0,0.18022222222222228,0.2996000000000001,0.06766666666666667,292.816,-2.72845,-2.649,-1.5843,-1.5314999999999999,-211.49,215.94,190.593,0.0,0.0,0.0,0.0,0.038899999999999935,-5.498166666666667,-5.498166666666667,-0.5431,0.7225,0.08633333333333315,0.863,68.827,0.0882,-0.20875000000000002,-1.738,100.0,1.0,1.0,212.23000000000002,0.0,0.0,0.0,0.0,0.0,0.0,0.0,8995.6,0.0,5.0,5.0,247.75,1.0,0.0,0.0,0.0,0.0,0.0,1.0,0.0,0.9540000000000006,0.9540000000000006,0.0,0.0,1.0,55.0,616.79921,10000.0,85.000001,85.000001,85.000001,85.000001,395.0,0.0,0.0,0.0,1.0,166.665,52.917,52.917,48.187,48.187,34.0,-16.405,31.056,-22.735,37.632,0.0,1782.669,-1.6150000000000002,100.0,27.363,27.994,41.766,43.192,0.0,0.0,100.0,0.0,0.0,0.0,0.0,2837.142857142857,3214.0,4082.8888888888887,4488.7,306.06,304.532,314.86675,313.66225,21.9057,20.5714,21.9219,21.4444,314.999998,314.999998,324.999988,324.999988,99.55758571428571,99.5065,99.56637142857143,99.54684285714286,0.2163333333333335,0.08700000000000019,0.004166666666666652,0.22033333333333327,-0.03333333333333144,-0.07249999999999801,1.533,1.4795,37.91,29.571333333333335,38.012,35.0275,55.41,34.534,59.2095,52.2575,53.370999999999995,33.7195,57.814,50.6105,52.539,33.2975,57.7335,50.038333333333334,-0.1955,0.044499999999999984,0.10474000000000001,0.09867500000000001,0.0,215.435,215.56,212.23000000000002,212.23000000000002,0.0,0.0
20,0.0,0.0,0.0,1.0,1.0,0.0,0.0,1.0,0.0,0.0,1.0,1.1856,26.0,0.0,0.0,0.0,59.999996,0.0,26.0,26.0,26.0,26.0,0.2152222222222222,0.26360000000000006,-0.0027333333333333333,293.32,-2.80205,-2.59875,-1.5954000000000002,-1.5116,-207.76999999999998,215.9375,190.569,0.0,0.0,0.0,0.0,0.041066666666666585,-5.498166666666667,-5.498166666666667,-0.5660000000000001,-1.2075,0.09177777777777774,0.492,68.975,0.1068,-0.23365000000000002,-2.12,100.0,1.0,1.0,212.73333333333335,0.0,0.0,0.0,0.0,0.0,0.0,0.0,9017.0,0.0,5.0,5.0,248.28333333333336,0.0,0.0,0.0,0.0,0.0,0.0,0.0,0.0,1.0079999999999991,1.0079999999999991,0.0,0.0,0.0,55.0,616.79921,10000.0,85.000001,85.000001,85.000001,85.000001,395.0,0.0,0.0,0.0,1.0,166.665,53.406,53.406,48.385999999999996,48.385999999999996,34.0,-15.899999999999999,31.934,-20.107499999999998,34.664,0.0,1782.615,-1.7750000000000004,100.0,26.771,27.695999999999998,42.144,43.598,0.0,0.0,100.0,0.0,0.0,0.0,0.0,2806.5714285714284,3260.7,3821.8888888888887,4110.8,306.327,304.52325,315.468,314.61325,21.9152,20.5772,21.9329,21.4542,314.999998,314.999998,324.999988,324.999988,99.55761428571428,99.5065,99.56652857142858,99.54698571428571,0.23566666666666647,0.1120000000000001,0.022333333333333316,0.24716666666666676,-0.03999999999999915,-0.05624999999999858,1.5859999999999999,1.52,37.97,29.607666666666667,38.081,35.088499999999996,55.399,34.5805,59.2515,52.327,53.361000000000004,33.763,57.8525,50.677,52.527,33.339,57.769,50.104,-0.21250000000000002,0.0645,0.10373500000000001,0.10722500000000001,0.0,215.82,215.97,212.73333333333335,212.73333333333335,0.0,0.0
21,0.0,0.0,0.0,1.0,1.0,0.0,0.0,1.0,0.0,0.0,1.0,1.1856,26.0,0.0,0.0,0.0,59.999996,0.0,26.0,26.0,26.0,26.0,0.20366666666666666,0.2942,-0.04563333333333333,293.335,-2.81395,-2.5825,-1.6430500000000001,-1.4605000000000001,-204.66,215.94,190.54825,0.0,0.0,0.0,0.0,0.04286666666666661,-5.498166666666667,-5.498166666666667,-0.5731,0.6115,0.08244444444444432,-0.9470000000000001,69.096,0.1298,-0.21677500000000002,-2.0260000000000002,100.0,1.0,1.0,213.20666666666668,0.0,0.0,0.0,0.0,0.0,0.0,0.0,9037.0,0.0,5.0,5.0,248.71333333333334,1.0,0.0,0.0,0.0,0.0,0.0,0.0,0.0,1.0530000000000008,1.0530000000000008,0.0,0.0,1.0,55.0,616.79921,10000.0,85.000001,85.000001,85.000001,85.000001,395.0,0.0,0.0,0.0,1.0,166.665,53.116,53.116,48.751999999999995,48.751999999999995,34.0,-19.34,28.476,-21.3525,33.818,0.0,1782.571,-0.7300000000000004,100.0,26.851,28.056,41.365,43.287,0.0,0.0,100.0,0.0,0.0,0.0,0.0,2972.714285714286,3164.2,3991.4444444444443,4105.8,305.9675,304.5605,315.2285,314.69425,21.9233,20.5823,21.9418,21.4621,314.999998,314.999998,324.999988,324.999988,99.55762857142857,99.50651666666667,99.56664285714285,99.54712857142857,0.18100000000000005,0.04700000000000015,0.02633333333333332,0.2513333333333332,-0.05833333333333002,-0.03125,1.6176666666666666,1.566,38.021,29.639,38.135999999999996,35.138,55.393,34.6215,59.2805,52.3815,53.355000000000004,33.8005,57.8795,50.730000000000004,52.519999999999996,33.3755,57.793,50.156,-0.14449999999999996,-0.014000000000000012,0.11182500000000001,0.10386500000000001,0.0,216.245,216.39,213.20666666666668,213.20666666666668,0.0,0.0
22,0.0,0.0,0.0,1.0,1.0,0.0,0.0,1.0,0.0,0.0,1.0,1.1856,26.0,0.0,0.0,0.0,59.999996,0.0,26.0,26.0,26.0,26.0,0.14266666666666672,0.2816000000000001,-0.006,293.106,-2.8664,-2.55425,-1.65475,-1.459,-201.13,215.9475,190.524375,0.0,0.0,0.0,0.0,0.04493333333333338,-5.498166666666667,-5.498166666666667,-0.5562,-0.221,0.08288888888888879,0.40700000000000003,69.237,0.1316,-0.20675000000000002,-0.8380000000000001,100.0,1.0,1.0,213.46333333333334,0.0,0.0,0.0,0.0,0.0,0.0,0.0,9048.0,0.0,5.0,5.0,249.22333333333336,0.0,0.0,0.0,0.0,0.0,0.0,0.0,0.0,1.1039999999999992,1.1039999999999992,0.0,0.0,0.0,55.0,616.79921,10000.0,85.000001,85.000001,85.000001,85.000001,395.0,0.0,0.0,0.0,1.0,333.33500000000004,53.604,53.604,47.913,47.913,34.0,-20.134999999999998,26.014,-23.1725,36.629999999999995,0.0,1782.517,0.5949999999999989,100.0,26.953,27.832,41.942,43.528,0.0,0.0,100.0,0.0,0.0,0.0,0.0,2756.857142857143,3170.1,4112.555555555556,4344.5,306.537,304.87275,314.82675,314.11,21.9325,20.5879,21.9522,21.4714,314.999998,314.999998,324.999988,324.999988,99.55764285714285,99.50653333333334,99.5668,99.54728571428572,0.13033333333333363,0.0024999999999999467,0.019000000000000128,0.25083333333333324,-0.02833333333332888,-0.04749999999999943,1.5183333333333335,1.482,38.078,29.674333333333333,38.201,35.196,55.382,34.6625,59.32,52.448499999999996,53.344,33.839,57.916,50.7945,52.507999999999996,33.412,57.826499999999996,50.21933333333333,-0.04049999999999998,-0.10749999999999993,0.11018000000000001,0.10745500000000001,0.0,216.7,216.785,213.46333333333334,213.46333333333334,0.0,0.0
23,0.0,0.0,0.0,1.0,1.0,0.0,0.0,1.0,0.0,0.0,1.0,1.1856,26.0,0.0,0.0,0.0,59.999996,0.0,26.0,26.0,26.0,26.0,0.05455555555555569,0.2663,-0.050966666666666674,293.091,-2.74665,-2.6178749999999997,-1.6783000000000001,-1.4611,-197.6,215.95749999999998,190.50075,0.0,0.0,0.0,0.0,0.04699999999999993,-5.498166666666667,-5.498166666666667,-0.5742,0.099,0.04877777777777781,-1.117,69.372,0.08700000000000001,-0.22762500000000002,0.5579999999999998,100.0,1.0,1.0,214.02666666666667,0.0,0.0,0.0,0.0,0.0,0.0,0.0,9071.8,0.0,5.0,5.0,249.71333333333334,1.0,0.0,0.0,0.0,0.0,0.0,0.0,0.0,1.1550000000000011,1.1550000000000011,0.0,0.0,1.0,55.0,616.79921,10000.0,85.000001,85.000001,85.000001,85.000001,395.0,0.0,0.0,0.0,1.0,333.33500000000004,52.795,52.795,48.874,48.874,34.0,-24.4975,23.588,-26.3475,28.942,0.0,1782.468,0.9450000000000003,100.0,27.38,27.892,42.012,43.445,0.0,0.0,100.0,0.0,0.0,0.0,0.0,3131.857142857143,3067.9,4027.5555555555557,3993.9,305.4155,304.89725,315.16625,315.0135,21.9418,20.5935,21.9625,21.4805,314.999998,314.999998,324.999988,324.999988,99.55765714285714,99.50653333333334,99.56694285714286,99.54742857142857,0.07933333333333348,-0.05525000000000002,-0.05499999999999994,0.1741666666666668,-0.051666666666669414,-0.03999999999999915,1.57,1.5855,38.135999999999996,29.709,38.266,35.253,55.369,34.7035,59.357,52.5115,53.332,33.8765,57.95,50.8555,52.495000000000005,33.448499999999996,57.857,50.278999999999996,-0.0030000000000000027,-0.15050000000000008,0.11092,0.11017,0.0,217.185,217.12,214.02666666666667,214.02666666666667,0.0,0.0
24,0.0,0.0,0.0,1.0,1.0,0.0,0.0,1.0,0.0,0.0,1.0,1.1856,26.0,0.0,0.0,0.0,59.999996,0.0,26.0,26.0,26.0,26.0,-0.01722222222222214,0.2771000000000001,-0.0932,293.442,-2.7447,-2.6568750000000003,-1.5446,-1.5391,-194.06,215.97,190.476375,0.0,0.0,0.0,0.0,0.04903333333333337,-5.498166666666667,-5.498166666666667,-0.5859,-0.9115,0.03433333333333333,0.32699999999999996,69.512,0.0224,-0.219525,1.1760000000000002,100.0,1.0,1.0,214.33333333333331,0.0,0.0,0.0,0.0,0.0,0.0,0.0,9084.8,0.0,5.0,5.0,250.21666666666667,0.0,0.0,0.0,0.0,0.0,0.0,0.0,0.0,1.2059999999999995,1.2059999999999995,0.0,0.0,0.0,55.0,616.79921,10000.0,85.000001,85.000001,85.000001,85.000001,395.0,0.0,0.0,0.0,1.0,166.665,53.986,53.986,48.126,48.126,34.0,-22.94,21.716,-28.2225,27.810000000000002,0.0,1782.418,1.0100000000000016,100.0,27.097,27.234,42.546,43.09,0.0,0.0,100.0,0.0,0.0,0.0,0.0,2792.0,2980.3,4086.222222222222,4071.2,306.339,305.39425,314.82675,314.765,21.9508,20.5988,21.973,21.4895,314.999998,314.999998,324.999988,324.999988,99.55767142857142,99.50653333333334,99.5671,99.54758571428572,0.04133333333333322,-0.08450000000000002,-0.10749999999999993,0.1116666666666668,-0.03333333333333144,-0.045000000000001705,1.506,1.5465,38.193,29.742333333333335,38.331,35.3095,55.352000000000004,34.743,59.396,52.573,53.315,33.913,57.9865,50.914500000000004,52.477999999999994,33.483000000000004,57.8905,50.337,0.010499999999999954,-0.15250000000000008,0.10534,0.10806,0.0,217.60500000000002,217.525,214.33333333333331,214.33333333333331,0.0,0.0
25,0.0,0.0,0.0,1.0,1.0,0.0,0.0,1.0,0.0,0.0,1.0,1.1856,26.0,0.0,0.0,0.0,59.999996,0.0,26.0,26.0,26.0,26.0,-0.09411111111111103,0.2659,-0.03123333333333333,292.938,-2.7580999999999998,-2.6626250000000002,-1.58725,-1.5565,-190.72,215.98250000000002,190.452,0.0,0.0,0.0,0.0,0.050999999999999934,-5.498166666666667,-5.498166666666667,-0.6062000000000001,0.47900000000000004,-0.008444444444444255,-0.952,69.638,-0.035300000000000005,-0.2187,1.6160000000000005,100.0,1.0,1.0,214.86,0.0,0.0,0.0,0.0,0.0,0.0,0.0,9107.1,0.0,5.0,5.0,250.66666666666666,1.0,0.0,0.0,0.0,0.0,0.0,0.0,0.0,1.2540000000000013,1.2540000000000013,0.0,0.0,1.0,55.0,616.79921,10000.0,85.000001,85.000001,85.000001,85.000001,395.0,0.0,0.0,0.0,1.0,333.33500000000004,52.338,52.338,48.751999999999995,48.751999999999995,34.0,-29.795,22.922,-30.3525,24.573999999999998,0.0,1782.368,0.9499999999999993,100.0,27.681,27.473,42.427,42.515,0.0,0.0,100.0,0.0,0.0,0.0,0.0,3311.5714285714284,3294.0,4028.1111111111113,3932.5,304.8325,304.4385,315.136,315.15175,21.959600000000002,20.604,21.982599999999998,21.4979,314.999998,314.999998,324.999988,324.999988,99.55767142857142,99.50655,99.56722857142857,99.54772857142858,0.002666666666666817,-0.11775000000000002,-0.15883333333333338,0.0708333333333333,-0.04999999999999716,-0.06374999999999886,1.5646666666666667,1.623,38.248000000000005,29.77466666666667,38.391,35.362,55.337,34.785,59.4295,52.6275,53.301,33.952,58.018,50.967,52.463,33.5205,57.919,50.388333333333335,0.0035000000000000586,-0.15300000000000002,0.104855,0.10908500000000002,0.0,218.06,217.935,214.86,214.86,0.0,0.0
26,0.0,0.0,0.0,1.0,1.0,0.0,0.0,1.0,0.0,0.0,1.0,1.1856,26.0,0.0,0.0,0.0,59.999996,0.0,26.0,26.0,26.0,26.0,-0.12788888888888894,0.29720000000000013,0.0613,292.038,-2.6763,-2.77775,-1.5209000000000001,-1.6527,-187.16,215.99,190.42625,0.0,0.0,0.0,0.0,0.053066666666666595,-5.498166666666667,-5.498166666666667,-0.5647,0.04,-0.06088888888888855,-1.159,69.778,-0.0815,-0.198525,1.6179999999999994,100.0,1.0,1.0,214.96,0.0,0.0,0.0,0.0,0.0,0.0,0.0,9111.3,0.0,5.0,5.0,251.17333333333335,0.0,0.0,0.0,0.0,0.0,0.0,0.0,0.0,1.3049999999999997,1.3049999999999997,0.0,0.0,0.0,55.0,616.79921,10000.0,85.000001,85.000001,85.000001,85.000001,395.0,0.0,0.0,0.0,1.0,166.665,52.872,52.872,46.661,46.661,34.0,-27.86,18.598,-38.7325,26.628,0.0,1782.318,0.7149999999999999,100.0,28.342,27.739,43.712,42.957,0.0,0.0,100.0,0.0,0.0,0.0,0.0,3147.285714285714,2795.4,4629.222222222223,4381.3,305.3455,305.7595,313.5925,313.898,21.9692,20.6094,21.9933,21.5071,314.999998,314.999998,324.999988,324.999988,99.55767142857142,99.50656666666667,99.56738571428572,99.54787142857143,-0.010333333333333306,-0.15700000000000003,-0.2081666666666666,0.006666666666666599,-0.051666666666669414,-0.048749999999998295,1.4093333333333333,1.4735,38.307,29.808666666666667,38.458,35.4195,55.324,34.829499999999996,59.475,52.6905,53.289,33.993,58.0605,51.027,52.449,33.56,57.958,50.447,-0.027000000000000024,-0.13949999999999996,0.10845,0.10146500000000001,0.0,218.505,218.35000000000002,214.96,214.96,0.0,0.0
27,0.0,0.0,0.0,1.0,1.0,0.0,0.0,1.0,0.0,0.0,1.0,1.1856,26.0,0.0,0.0,0.0,59.999996,0.0,26.0,26.0,26.0,26.0,-0.15800000000000003,0.2521,-0.09983333333333334,292.816,-2.64545,-2.744125,-1.54745,-1.6195,-183.6,215.9975,190.401375,0.0,0.0,0.0,0.0,0.05513333333333337,-5.498166666666667,-5.498166666666667,-0.6061000000000001,-0.6365000000000001,-0.07544444444444443,0.363,69.90899999999999,-0.1051,-0.24402500000000002,1.4779999999999998,100.0,1.0,1.0,215.68666666666667,0.0,0.0,0.0,0.0,0.0,0.0,0.0,9142.1,0.0,5.0,5.0,251.64666666666665,1.0,0.0,0.0,0.0,0.0,0.0,0.0,0.0,1.355999999999998,1.355999999999998,0.0,0.0,1.0,55.0,616.79921,10000.0,85.000001,85.000001,85.000001,85.000001,395.0,0.0,0.0,0.0,1.0,166.665,52.643,52.643,48.477000000000004,48.477000000000004,34.0,-29.5,19.668,-30.939999999999998,22.07,0.0,1782.268,0.620000000000001,100.0,28.392,27.237000000000002,44.059,42.757,0.0,0.0,100.0,0.0,0.0,0.0,0.0,3258.5714285714284,3017.5,3845.1111111111113,3883.4,304.9695,305.32425,315.45725,315.30225,21.9786,20.6146,22.0038,21.5162,314.999998,314.999998,324.999988,324.999988,99.55768571428571,99.50658333333334,99.56752857142857,99.54801428571429,-0.026666666666666616,-0.1592499999999999,-0.21466666666666656,0.009500000000000064,-0.02499999999999858,-0.04625000000000057,1.5626666666666666,1.6115,38.366,29.84133333333333,38.524,35.476,55.309,34.8735,59.5155,52.749,53.275,34.033500000000004,58.098,51.0835,52.435,33.5985,57.993,50.501666666666665,-0.030000000000000027,-0.12850000000000006,0.09875500000000001,0.10881500000000001,0.0,218.845,218.72500000000002,215.68666666666667,215.68666666666667,0.0,0.0
28,0.0,0.0,0.0,1.0,1.0,0.0,0.0,1.0,0.0,0.0,1.0,1.1856,26.0,0.0,0.0,0.0,59.999996,0.0,26.0,26.0,26.0,26.0,-0.1507777777777778,0.2842,-0.024433333333333335,292.648,-2.6403499999999998,-2.7487500000000002,-1.5225,-1.6041,-180.03,216.0,190.375375,0.0,0.0,0.0,0.0,0.05719999999999992,-5.498166666666667,-5.498166666666667,-0.5905,0.4495,-0.08333333333333348,-0.685,70.045,-0.115,-0.20017500000000002,1.3100000000000005,100.0,1.0,1.0,215.95,0.0,0.0,0.0,0.0,0.0,0.0,0.0,9153.3,0.0,5.0,5.0,252.13333333333333,0.0,0.0,0.0,0.0,0.0,0.0,0.0,0.0,1.407,1.407,0.0,0.0,0.0,55.0,616.79921,10000.0,85.000001,85.000001,85.000001,85.000001,395.0,0.0,0.0,0.0,1.0,166.665,53.177,53.177,47.409,47.409,34.0,-28.1175,18.13,-37.5475,22.747999999999998,0.0,1782.217,0.3500000000000014,100.0,28.3,27.277,43.687,42.446,0.0,0.0,100.0,0.0,0.0,0.0,0.0,3128.142857142857,2798.9,4443.0,4124.0,305.4055,305.78825,314.19775,314.6715,21.9881,20.6199,22.0142,21.5251,314.999998,314.999998,324.999988,324.999988,99.55768571428571,99.5066,99.5677,99.54815714285715,-0.028999999999999915,-0.16274999999999995,-0.23383333333333334,-0.010166666666666657,-0.03833333333332689,-0.04124999999999801,1.504,1.551,38.425,29.874333333333333,38.589,35.532,55.296,34.917500000000004,59.555,52.807,53.262,34.074,58.1355,51.138999999999996,52.422,33.637,58.027,50.556,-0.04899999999999993,-0.1060000000000001,0.10404000000000001,0.109225,0.0,219.325,219.2,215.95,215.95,0.0,0.0
29,0.0,0.0,0.0,1.0,1.0,0.0,0.0,1.0,0.0,0.0,1.0,1.1856,26.0,0.0,0.0,0.0,59.999996,0.0,26.0,26.0,26.0,26.0,-0.1614444444444444,0.24680000000000013,-0.021433333333333335,292.465,-2.6698,-2.680625,-1.55945,-1.6118999999999999,-176.45999999999998,215.9975,190.348625,0.0,0.0,0.0,0.0,0.05926666666666658,-5.498166666666667,-5.498166666666667,-0.6129,-0.5585,-0.0812222222222223,0.7000000000000002,70.179,-0.1062,-0.22390000000000002,0.9779999999999998,100.0,1.0,1.0,216.39,0.0,0.0,0.0,0.0,0.0,0.0,0.0,9172.0,0.0,5.0,5.0,252.61666666666667,1.0,0.0,0.0,0.0,0.0,0.0,0.0,0.0,1.4579999999999984,1.4579999999999984,0.0,0.0,1.0,55.0,616.79921,10000.0,85.000001,85.000001,85.000001,85.000001,395.0,0.0,0.0,0.0,1.0,166.665,52.46,52.46,48.172,48.172,34.0,-30.525,20.07,-33.2975,24.326,0.0,1782.166,0.33000000000000185,100.0,28.453,27.07,44.071,42.594,0.0,0.0,100.0,0.0,0.0,0.0,0.0,3386.714285714286,3120.3,4039.4444444444443,4085.2,304.678,305.25975,315.016,314.77125,21.9975,20.6252,22.0247,21.5343,314.999998,314.999998,324.999988,324.999988,99.5577,99.50663333333333,99.56784285714286,99.54831428571428,-0.01633333333333331,-0.14849999999999985,-0.21599999999999997,0.022666666666666613,-0.021666666666668277,-0.04999999999999716,1.509,1.5514999999999999,38.483999999999995,29.907333333333334,38.653999999999996,35.589,55.282,34.960499999999996,59.597,52.8675,53.248999999999995,34.114,58.175,51.197,52.407,33.675,58.0635,50.61233333333333,-0.05699999999999994,-0.10250000000000004,0.10219500000000001,0.11708500000000001,0.0,219.67000000000002,219.59,216.39,216.39,0.0,0.0
30,0.0,0.0,0.0,1.0,1.0,0.0,0.0,1.0,0.0,0.0,1.0,1.1856,26.0,0.0,0.0,0.0,59.999996,0.0,26.0,26.0,26.0,26.0,-0.1153333333333334,0.26870000000000016,0.0086,291.901,-2.6053,-2.789625,-1.5654,-1.5305,-173.29,215.9925,190.325125,0.0,0.0,0.0,0.0,0.06109999999999993,-5.498166666666667,-5.498166666666667,-0.5910000000000001,0.8755000000000001,-0.07811111111111124,-0.125,70.29599999999999,-0.09730000000000001,-0.206375,0.9100000000000001,100.0,1.0,1.0,216.7,0.0,0.0,0.0,0.0,0.0,0.0,0.0,9185.2,0.0,5.0,5.0,253.03666666666666,0.0,0.0,0.0,0.0,0.0,0.0,1.0,0.0,1.5030000000000001,1.5030000000000001,0.0,0.0,0.0,55.0,616.79921,10000.0,85.000001,85.000001,85.000001,85.000001,395.0,0.0,0.0,0.0,1.0,333.33500000000004,51.834,51.834,47.119,47.119,34.0,-29.057499999999997,21.142,-37.0575,23.076,0.0,1782.118,0.15500000000000114,100.0,29.008,27.957,43.947,42.675,0.0,0.0,100.0,0.0,0.0,0.0,0.0,3364.714285714286,3032.0,4452.777777777777,4147.1,304.7485,305.1145,314.228,314.79225,22.006,20.6301,22.0339,21.5423,314.999998,314.999998,324.999988,324.999988,99.5577,99.50665,99.56797142857143,99.54844285714286,-0.0029999999999998916,-0.14124999999999988,-0.21150000000000002,0.014499999999999957,-0.06333333333333258,-0.03125,1.4916666666666667,1.5285,38.538,29.937666666666665,38.712,35.638999999999996,55.272999999999996,35.0015,59.632999999999996,52.92,53.239999999999995,34.1515,58.2085,51.247,52.397,33.711,58.094,50.66133333333333,-0.07299999999999995,-0.08750000000000013,0.09491500000000001,0.11363000000000001,0.0,220.085,219.995,216.7,216.7,0.0,0.0
31,0.0,0.0,0.0,1.0,1.0,0.0,0.0,1.0,0.0,0.0,1.0,1.1856,26.0,0.0,0.0,0.0,59.999996,0.0,26.0,26.0,26.0,26.0,-0.1093333333333334,0.2519,0.03123333333333333,291.656,-2.64165,-2.672625,-1.51655,-1.6592,-169.70999999999998,215.985,190.29925,0.0,0.0,0.0,0.0,0.06319999999999992,-5.498166666666667,-5.498166666666667,-0.5965,-0.613,-0.07100000000000017,0.3410000000000002,70.429,-0.0809,-0.2323,0.5520000000000005,100.0,1.0,1.0,217.05333333333334,0.0,0.0,0.0,0.0,0.0,0.0,0.0,9200.1,0.0,5.0,5.0,253.51666666666665,1.0,0.0,0.0,0.0,0.0,0.0,1.0,0.0,1.5539999999999985,1.5539999999999985,0.0,0.0,1.0,55.0,616.79921,10000.0,85.000001,85.000001,85.000001,85.000001,395.0,0.0,0.0,0.0,1.0,333.33500000000004,51.865,51.865,46.585,46.585,34.0,-26.9825,22.394,-33.03,27.939999999999998,0.0,1782.067,0.05999999999999872,100.0,28.78,27.941,44.611000000000004,43.301,0.0,0.0,100.0,0.0,0.0,0.0,0.0,3172.5714285714284,3233.6,4204.888888888889,4261.1,305.0935,304.64975,314.61975,314.35975,22.0153,20.6355,22.0446,21.5516,314.999998,314.999998,324.999988,324.999988,99.5577,99.50666666666666,99.56814285714286,99.5486,0.015666666666666718,-0.12050000000000005,-0.18666666666666665,0.04966666666666675,-0.051666666666669414,-0.026249999999997442,1.4763333333333333,1.5005,38.596000000000004,29.972,38.778999999999996,35.6975,55.257,35.046,59.6755,52.983000000000004,53.224999999999994,34.192499999999995,58.2485,51.3075,52.382,33.75,58.1315,50.72,-0.07599999999999996,-0.08800000000000008,0.10700000000000001,0.1155,0.0,220.445,220.38,217.05333333333334,217.05333333333334,0.0,0.0
32,0.0,0.0,0.0,1.0,1.0,0.0,0.0,1.0,0.0,0.0,1.0,1.1856,26.0,0.0,0.0,0.0,59.999996,0.0,26.0,26.0,26.0,26.0,-0.06266666666666665,0.27100000000000013,-0.0239,292.191,-2.6116,-2.785875,-1.5109,-1.643,-166.11,215.9725,190.273125,0.0,0.0,0.0,0.0,0.06529999999999991,-5.498166666666667,-5.498166666666667,-0.6045,0.053,-0.10099999999999998,-0.7709999999999999,70.56,-0.0656,-0.22195,0.4720000000000004,100.0,1.0,1.0,217.51333333333332,0.0,0.0,0.0,0.0,0.0,0.0,0.0,9219.6,0.0,5.0,5.0,253.99,0.0,0.0,0.0,0.0,0.0,0.0,1.0,0.0,1.6050000000000004,1.6050000000000004,0.0,0.0,0.0,55.0,616.79921,10000.0,85.000001,85.000001,85.000001,85.000001,395.0,0.0,0.0,0.0,1.0,333.33500000000004,52.551,52.551,47.424,47.424,34.0,-26.259999999999998,20.576,-32.0975,26.497999999999998,0.0,1782.016,-0.025000000000000355,100.0,28.626,27.904,44.13,43.147999999999996,0.0,0.0,100.0,0.0,0.0,0.0,0.0,3205.0,2818.3,4201.111111111111,4123.4,305.1925,305.6815,314.6735,314.5815,22.0247,20.6409,22.055,21.5607,314.999998,314.999998,324.999988,324.999988,99.5577,99.50668333333333,99.5683,99.54875714285714,0.027000000000000135,-0.11299999999999999,-0.17466666666666664,0.04583333333333317,-0.046666666666666856,-0.03999999999999915,1.5083333333333333,1.5205,38.653999999999996,30.006,38.843,35.7545,55.242000000000004,35.0905,59.7155,53.0445,53.211,34.2335,58.286,51.367,52.367000000000004,33.789,58.1655,50.77766666666667,-0.08299999999999996,-0.07250000000000001,0.10562500000000001,0.11479,0.0,220.86,220.8,217.51333333333332,217.51333333333332,0.0,0.0
33,0.0,0.0,0.0,1.0,1.0,0.0,0.0,1.0,0.0,0.0,1.0,1.1856,26.0,0.0,0.0,0.0,59.999996,0.0,26.0,26.0,26.0,26.0,-0.047222222222222165,0.2501,-0.08436666666666667,292.404,-2.6842,-2.722375,-1.5333999999999999,-1.6320999999999999,-162.72,215.96,190.2475,0.0,0.0,0.0,0.0,0.06726666666666659,-5.498166666666667,-5.498166666666667,-0.6157,-0.5690000000000001,-0.07111111111111157,0.16700000000000026,70.68299999999999,-0.0522,-0.21757500000000002,0.33399999999999963,100.0,1.0,1.0,217.9,0.0,0.0,0.0,0.0,0.0,0.0,0.0,9236.0,0.0,5.0,5.0,254.43333333333334,1.0,0.0,0.0,0.0,0.0,0.0,1.0,0.0,1.6529999999999987,1.6529999999999987,0.0,0.0,1.0,55.0,616.79921,10000.0,85.000001,85.000001,85.000001,85.000001,395.0,0.0,0.0,0.0,1.0,166.665,52.78,52.78,47.76,47.76,34.0,-26.182499999999997,21.484,-30.67,26.744,0.0,1781.97,-0.10500000000000043,100.0,28.318,27.628,44.034,43.254000000000005,0.0,0.0,100.0,0.0,0.0,0.0,0.0,3190.714285714286,2898.9,4055.3333333333335,4102.4,305.3225,305.55125,315.01725,314.65075,22.0334,20.6459,22.064799999999998,21.5693,314.999998,314.999998,324.999988,324.999988,99.55771428571428,99.50668333333333,99.56844285714286,99.54888571428572,0.039000000000000146,-0.09050000000000002,-0.16733333333333333,0.057666666666666755,-0.03333333333333144,-0.038750000000000284,1.5153333333333334,1.5305,38.709,30.037,38.905,35.8085,55.229,35.1255,59.75,53.0975,53.199,34.2655,58.318,51.417500000000004,52.354,33.82,58.195,50.827,-0.09450000000000003,-0.06000000000000005,0.10810000000000002,0.106355,0.0,221.2,221.19,217.9,217.9,0.0,0.0
34,0.0,0.0,0.0,1.0,1.0,0.0,0.0,1.0,0.0,0.0,1.0,1.1856,26.0,0.0,0.0,0.0,59.999996,0.0,26.0,26.0,26.0,26.0,-0.038000000000000034,0.2593000000000001,-0.15666666666666668,292.847,-2.68865,-2.658625,-1.60155,-1.5584,-158.89999999999998,215.945,190.21725,0.0,0.0,0.0,0.0,0.06946666666666657,-5.498166666666667,-5.498166666666667,-0.6558,-0.968,-0.040000000000000036,-0.363,70.821,-0.0359,-0.2273,0.14200000000000035,100.0,1.0,1.0,218.33666666666667,0.0,0.0,0.0,0.0,0.0,0.0,0.0,9254.5,0.0,5.0,5.0,254.93,0.0,0.0,0.0,0.0,0.0,0.0,1.0,0.0,1.7070000000000007,1.7070000000000007,0.0,0.0,0.0,55.0,616.79921,10000.0,85.000001,85.000001,85.000001,85.000001,395.0,0.0,0.0,0.0,1.0,166.665,53.528,53.528,47.897,47.897,34.0,-23.509999999999998,21.396,-30.7925,26.84,0.0,1781.916,-0.15000000000000036,100.0,27.87,27.358,43.612,43.233000000000004,0.0,0.0,100.0,0.0,0.0,0.0,0.0,2959.714285714286,2897.3,4098.555555555556,4104.5,305.9725,305.5905,314.9925,314.71775,22.0431,20.6516,22.0757,21.579,314.999998,314.999998,324.999988,324.999988,99.55771428571428,99.5067,99.5686,99.54904285714285,0.05266666666666664,-0.07774999999999999,-0.1476666666666666,0.08166666666666678,-0.04999999999999716,-0.05375000000000085,1.5373333333333332,1.547,38.769,30.072333333333333,38.973,35.869,55.213,35.1665,59.7875,53.161,53.183,34.3035,58.3535,51.4785,52.337,33.856,58.227000000000004,50.88666666666667,-0.09050000000000002,-0.0645,0.10877500000000001,0.105355,0.0,221.635,221.60000000000002,218.33666666666664,218.33666666666667,0.0,0.0
35,0.0,0.0,0.0,1.0,1.0,0.0,0.0,1.0,0.0,0.0,1.0,1.1856,26.0,0.0,0.0,0.0,59.999996,0.0,26.0,26.0,26.0,26.0,-0.008777777777777773,0.266,-0.05036666666666667,292.48,-2.77165,-2.6648750000000003,-1.5448,-1.5344,-155.5,215.93,190.188,0.0,0.0,0.0,0.0,0.07146666666666657,-5.498166666666667,-5.498166666666667,-0.683,0.28450000000000003,-0.06144444444444419,-1.391,70.94200000000001,-0.0221,-0.219175,0.10200000000000031,100.0,1.0,1.0,218.80333333333334,0.0,0.0,0.0,0.0,0.0,0.0,0.0,9274.3,0.0,5.0,5.0,255.36666666666667,1.0,0.0,0.0,0.0,0.0,0.0,1.0,0.0,1.754999999999999,1.754999999999999,0.0,0.0,1.0,55.0,616.79921,10000.0,85.000001,85.000001,85.000001,85.000001,395.0,0.0,0.0,0.0,1.0,333.33500000000004,52.231,52.231,47.806,47.806,34.0,-27.465,23.766,-28.509999999999998,25.9,0.0,1781.866,-0.049999999999998934,100.0,27.946,28.078,43.295,42.756,0.0,0.0,100.0,0.0,0.0,0.0,0.0,3326.285714285714,3158.9,4055.1111111111113,3985.7,305.108,304.6525,315.12275,315.09125,22.0516,20.6569,22.0853,21.5875,314.999998,314.999998,324.999988,324.999988,99.55772857142857,99.50671666666666,99.56872857142857,99.54918571428571,0.05266666666666664,-0.08000000000000007,-0.12916666666666665,0.09250000000000003,-0.05333333333332746,-0.05749999999999744,1.5796666666666668,1.5785,38.823,30.105666666666664,39.033,35.9215,55.198,35.207,59.821,53.213,53.169,34.341,58.3845,51.5285,52.323,33.8915,58.254999999999995,50.93533333333333,-0.08550000000000002,-0.07350000000000012,0.10596000000000001,0.10312500000000001,0.0,222.015,222.01,218.80333333333334,218.80333333333334,0.0,0.0
36,0.0,0.0,0.0,1.0,1.0,0.0,0.0,1.0,0.0,0.0,1.0,1.1856,26.0,0.0,0.0,0.0,59.999996,0.0,26.0,26.0,26.0,26.0,-0.036111111111111094,0.27280000000000015,-0.044700000000000004,292.099,-2.61105,-2.6455,-1.6228,-1.5781,-151.88,215.9125,190.156125,0.0,0.0,0.0,0.0,0.07356666666666656,-5.498166666666667,-5.498166666666667,-0.6674,-0.7955,-0.09111111111111114,0.41700000000000026,71.076,-0.0155,-0.205375,0.1200000000000001,100.0,1.0,1.0,218.89666666666668,0.0,0.0,0.0,0.0,0.0,0.0,0.0,9278.2,0.0,5.0,5.0,255.84666666666666,0.0,0.0,0.0,0.0,0.0,0.0,1.0,0.0,1.806000000000001,1.806000000000001,0.0,0.0,0.0,55.0,616.79921,10000.0,85.000001,85.000001,85.000001,85.000001,395.0,0.0,0.0,0.0,1.0,166.665,53.513,53.513,46.417,46.417,34.0,-20.705,20.206,-34.542500000000004,31.054000000000002,0.0,1781.818,-0.11999999999999922,100.0,28.378,27.839,43.949,43.495000000000005,0.0,0.0,100.0,0.0,0.0,0.0,0.0,2818.142857142857,2703.2,4603.555555555556,4392.6,306.294,306.0705,313.73075,314.03725,22.0608,20.662399999999998,22.0959,21.5968,314.999998,314.999998,324.999988,324.999988,99.55772857142857,99.50671666666666,99.5689,99.54934285714286,0.07833333333333359,-0.06600000000000006,-0.11566666666666658,0.10299999999999998,-0.03833333333332689,-0.045000000000001705,1.4336666666666666,1.4465,38.879999999999995,30.14,39.099000000000004,35.9805,55.185,35.2465,59.862,53.2765,53.157,34.3775,58.423,51.5895,52.31,33.927,58.29,50.995,-0.08950000000000002,-0.07200000000000006,0.103995,0.11190000000000001,0.0,222.425,222.405,218.89666666666665,218.89666666666668,0.0,0.0
