,ABS Active,ABS Enabled,AID Allow Tire Blankets,AID Auto Blip,AID Auto Clutch,AID Auto Shift,AID Fuel Rate,AID Ideal Line,AID Mech Damage,AID Stability,AID Tire Wear Rate,Air Density,Air Temp,Ballast,Best Lap Delta,Best Lap Time,Brake Bias,Brake Pos,Brake Temp FL,Brake Temp FR,Brake Temp RL,Brake Temp RR,CG Accel Lateral,CG Accel Longitudinal,CG Accel Vertical,CG Height,Camber FL,Camber FR,Camber RL,Camber RR,Car Coord X,Car Coord Y,Car Coord Z,Car Damage Front,Car Damage Left,Car Damage Rear,Car Damage Right,Car Pos Norm,Caster FL,Caster FR,Chassis Pitch Angle,Chassis Pitch Rate,Chassis Roll Angle,Chassis Roll Rate,Chassis Velocity X,Chassis Velocity Y,Chassis Velocity Z,Chassis Yaw Rate,Clutch Pos,DRS Active,DRS Available,Drive Train Speed,ERS Heat Charging,ERS Is Charging,ERS Max Energy,ERS Power Level,ERS Recovery Level,Engine Brake Setting,Engine Limiter,Engine RPM,Flags,Fuel Level,Gear,Ground Speed,HR Sample Clock,In Pit,KERS Charge,KERS Deployed Energy,KERS Input,KERS Max Energy,LR Sample Clock,Lap Invalidated,Lap Time,Lap Time2,Last Lap Time,Last Sector Time,MR Sample Clock,Max Fuel,Max Power,Max RPM,Max Sus Travel FL,Max Sus Travel FR,Max Sus Travel RL,Max Sus Travel RR,Max Torque,Max Turbo Boost,Num Tires Off Track,Penalties Enabled,Position,Raw Data Sample Rate,Ride Height FL,Ride Height FR,Ride Height RL,Ride Height RR,Road Temp,Self Align Torque FL,Self Align Torque FR,Self Align Torque RL,Self Align Torque RR,Session Lap Count,Session Time Left,Steering Angle,Surface Grip,Suspension Travel FL,Suspension Travel FR,Suspension Travel RL,Suspension Travel RR,TC Active,TC Enabled,Throttle Pos,Tire Dirt Level FL,Tire Dirt Level FR,Tire Dirt Level RL,Tire Dirt Level RR,Tire Load FL,Tire Load FR,Tire Load RL,Tire Load RR,Tire Loaded Radius FL,Tire Loaded Radius FR,Tire Loaded Radius RL,Tire Loaded Radius RR,Tire Pressure FL,Tire Pressure FR,Tire Pressure RL,Tire Pressure RR,Tire Radius FL,Tire Radius FR,Tire Radius RL,Tire Radius RR,Tire Rubber Grip FL,Tire Rubber Grip FR,Tire Rubber Grip RL,Tire Rubber Grip RR,Tire Slip Angle FL,Tire Slip Angle FR,Tire Slip Angle RL,Tire Slip Angle RR,Tire Slip Ratio FL,Tire Slip Ratio FR,Tire Slip Ratio RL,Tire Slip Ratio RR,Tire Temp Core FL,Tire Temp Core FR,Tire Temp Core RL,Tire Temp Core RR,Tire Temp Inner FL,Tire Temp Inner FR,Tire Temp Inner RL,Tire Temp Inner RR,Tire Temp Middle FL,Tire Temp Middle FR,Tire Temp Middle RL,Tire Temp Middle RR,Tire Temp Outer FL,Tire Temp Outer FR,Tire Temp Outer RL,Tire Temp Outer RR,Toe In FL,Toe In FR,Toe In RL,Toe In RR,Turbo Boost,Wheel Angular Speed FL,Wheel Angular Speed FR,Wheel Angular Speed RL,Wheel Angular Speed RR,Wind Direction,Wind Speed
0,0.0,0.0,0.0,1.0,1.0,0.0,0.0,1.0,0.0,0.0,1.0,1.1856,26.0,0.0,0.0,0.0,59.99999,0.0,26.0,26.0,26.0,26.0,-0.0357777777777778,0.29780000000000006,0.149625,293.884,-2.7518,-2.629666666666667,-1.52865,-1.5036,-275.66,215.6575,190.988,0.0,0.0,0.0,0.0,0.0016,-5.498166666666667,-5.498166666666667,-0.5733,1.9689999999999999,-0.0011250000000000426,-0.0030000000000001137,66.119,-0.0303,-0.23492500000000002,0.17799999999999994,100.0,1.0,1.0,204.23666666666668,0.0,0.0,0.0,0.0,0.0,0.0,0.0,8656.8,0.0,3.0,5.0,237.99666666666667,0.0,0.0,0.0,0.0,0.0,0.0,0.0,0.0,0.0030000000000001137,0.0030000000000001137,0.0,0.0,0.0,55.0,616.79921,10000.0,85.0,85.0,85.0,85.0,395.0,0.0,0.0,0.0,1.0,20.0,51.3,51.3,49.805,49.805,34.0,-30.07,32.825,-27.73,24.2425,0.0,1783.696,0.4400000000000013,100.0,26.795,26.75,39.897,39.624,0.0,0.0,100.0,0.0,0.0,0.0,0.0,3393.857142857143,4317.9,3901.4444444444443,3958.0,304.4365,301.39625,315.37475,315.04025,21.7465,20.4819,21.7429,21.2861,314.99999,314.99999,324.99998,324.99998,99.55871428571429,99.50655,99.56441428571429,99.54448571428571,0.015000000000000124,-0.08266666666666667,-0.14783333333333337,0.07650000000000001,-0.06333333333333258,-0.04749999999999943,1.5985,1.6255,36.915,29.011666666666667,36.893,34.038,56.141999999999996,33.969,58.7085,51.2365,54.05,33.18,57.353,49.6285,53.21,32.760999999999996,57.325,49.075,-0.04799999999999993,-0.10299999999999998,0.11021,0.09578,0.0,207.14499999999998,207.115,204.23666666666668,204.23666666666668,0.0,0.0
1,0.0,0.0,0.0,1.0,1.0,0.0,0.0,1.0,0.0,0.0,1.0,1.1856,26.0,0.0,0.0,0.0,59.999996,0.0,26.0,26.0,26.0,26.0,-0.0962222222222221,0.3135000000000001,0.19787500000000002,293.167,-2.6659,-2.704111111111111,-1.55035,-1.3728,-272.09,215.66250000000002,190.96675,0.0,0.0,0.0,0.0,0.0036666666666666666,-5.498166666666667,-5.498166666666667,-0.4762,-1.8075,-0.045250000000000234,-0.6400000000000001,66.292,-0.0308,-0.1915,0.8179999999999996,100.0,1.0,1.0,204.09333333333333,0.0,0.0,0.0,0.0,0.0,0.0,0.0,8650.7,0.0,3.0,5.0,238.62,1.0,0.0,0.0,0.0,0.0,0.0,0.0,0.0,0.05699999999999861,0.05699999999999861,0.0,0.0,1.0,55.0,616.79921,10000.0,85.000001,85.000001,85.000001,85.000001,395.0,0.0,0.0,0.0,1.0,166.665,55.069,55.069,48.111,48.111,34.0,-22.125,16.134999999999998,-36.99666666666667,30.29,0.0,1783.643,0.490000000000002,100.0,27.104,26.643,41.999,42.926,0.0,0.0,100.0,0.0,0.0,0.0,0.0,2716.714285714286,2357.7,4677.777777777777,5037.700000000001,306.563,307.29825,313.28625,311.9905,21.7568,20.487,21.7544,21.2959,314.999998,314.999998,324.999988,324.999988,99.55872857142857,99.50656666666667,99.56458571428571,99.54464285714286,0.02375000000000016,-0.10633333333333317,-0.15200000000000002,0.05266666666666686,-0.030000000000001137,-0.045000000000001705,1.298,1.3355,36.980000000000004,29.044,36.965,34.0995,56.123000000000005,34.0095,58.76,51.312,54.032,33.218,57.4015,49.701,53.191,32.797,57.3705,49.146,-0.03500000000000003,-0.1120000000000001,0.10773500000000001,0.10058500000000001,0.0,207.68,207.59,204.09333333333333,204.09333333333333,0.0,0.0
2,0.0,0.0,0.0,1.0,1.0,0.0,0.0,1.0,0.0,0.0,1.0,1.1856,26.0,0.0,0.0,0.0,59.999996,0.0,26.0,26.0,26.0,26.0,-0.09011111111111103,0.29100000000000015,-0.12935,294.769,-2.6409,-2.67,-1.5196,-1.5143,-268.9,215.66250000000002,190.949,0.0,0.0,0.0,0.0,0.005533333333333334,-5.498166666666667,-5.498166666666667,-0.5745,0.28300000000000003,-0.017875000000000085,1.4800000000000004,66.42099999999999,-0.0375,-0.27342500000000003,1.0779999999999994,100.0,1.0,1.0,205.51,0.0,0.0,0.0,0.0,0.0,0.0,0.0,8710.8,0.0,3.0,5.0,239.08666666666667,0.0,0.0,0.0,0.0,0.0,0.0,0.0,0.0,0.10500000000000043,0.10500000000000043,0.0,0.0,0.0,55.0,616.79921,10000.0,85.000001,85.000001,85.000001,85.000001,395.0,0.0,0.0,0.0,1.0,166.665,52.872,52.872,51.635999999999996,51.635999999999996,34.0,-29.134999999999998,20.328333333333333,-24.56,17.7425,0.0,1783.595,0.629999999999999,100.0,27.508,26.812,41.363,41.071,0.0,0.0,100.0,0.0,0.0,0.0,0.0,3325.142857142857,2986.9,3441.0,3254.6,304.709,305.12375,316.4485,316.80025,21.7662,20.4917,21.764,21.3038,314.999998,314.999998,324.999988,324.999988,99.55872857142857,99.50658333333334,99.5647,99.54475714285714,-0.00550000000000006,-0.127,-0.18766666666666665,0.055333333333333234,-0.05333333333332746,-0.0625,1.805,1.844,37.039,29.073333333333334,37.025,34.1485,56.108999999999995,34.047,58.793,51.358000000000004,54.018,33.2525,57.432,49.7445,53.177,32.83,57.3985,49.18933333333334,-0.028000000000000025,-0.12149999999999994,0.107035,0.10990000000000001,0.0,208.065,207.985,205.51,205.51,0.0,0.0
3,0.0,0.0,0.0,1.0,1.0,0.0,0.0,1.0,0.0,0.0,1.0,1.1856,26.0,0.0,0.0,0.0,59.999996,0.0,26.0,26.0,26.0,26.0,-0.10499999999999998,0.3264,-0.029525000000000003,293.945,-2.6652,-2.695555555555556,-1.5063,-1.477,-265.71,215.66250000000002,190.92975,0.0,0.0,0.0,0.0,0.0074,-5.498166666666667,-5.498166666666667,-0.5042,0.8140000000000001,-0.001875000000000071,-2.101,66.57300000000001,-0.052500000000000005,-0.19410000000000002,0.9139999999999997,100.0,1.0,1.0,205.33666666666667,0.0,0.0,0.0,0.0,0.0,0.0,0.0,8703.5,0.0,3.0,5.0,239.63,1.0,0.0,0.0,0.0,0.0,0.0,0.0,0.0,0.1529999999999987,0.1529999999999987,0.0,0.0,1.0,55.0,616.79921,10000.0,85.000001,85.000001,85.000001,85.000001,395.0,0.0,0.0,0.0,1.0,333.33500000000004,54.108,54.108,48.538,48.538,34.0,-24.6875,18.861666666666665,-34.663333333333334,24.375,0.0,1783.546,0.7100000000000009,100.0,27.201999999999998,26.909,41.370000000000005,41.269999999999996,0.0,0.0,100.0,0.0,0.0,0.0,0.0,2856.4285714285716,2781.9,4452.333333333333,4179.1,306.224,305.75225,314.0095,314.33075,21.7754,20.4966,21.7738,21.3122,314.999998,314.999998,324.999988,324.999988,99.55872857142857,99.50658333333334,99.56484285714286,99.54488571428571,-0.011749999999999927,-0.129,-0.17966666666666664,0.042333333333333334,-0.05833333333333002,-0.03249999999999886,1.4725,1.504,37.096000000000004,29.104,37.086,34.201,56.091,34.088,58.831,51.42,54.001999999999995,33.2905,57.467,49.8045,53.16,32.8665,57.431,49.248,-0.017000000000000015,-0.1200000000000001,0.11140000000000001,0.10856500000000001,0.0,208.60500000000002,208.51,205.33666666666667,205.33666666666667,0.0,0.0
4,0.0,0.0,0.0,1.0,1.0,0.0,0.0,1.0,0.0,0.0,1.0,1.1856,26.0,0.0,0.0,0.0,59.999996,0.0,26.0,26.0,26.0,26.0,-0.10388888888888892,0.3035000000000001,0.016975,294.373,-2.6644,-2.7724444444444445,-1.44845,-1.5946,-262.11,215.66,190.909125,0.0,0.0,0.0,0.0,0.0095,-5.498166666666667,-5.498166666666667,-0.5322,-0.9185000000000001,-0.05774999999999997,-0.8340000000000001,66.732,-0.0634,-0.23605,1.3360000000000003,100.0,1.0,1.0,205.98666666666668,0.0,0.0,0.0,0.0,0.0,0.0,0.0,8731.0,0.0,3.0,5.0,240.20666666666668,0.0,0.0,0.0,0.0,0.0,0.0,0.0,0.0,0.20700000000000074,0.20700000000000074,0.0,0.0,0.0,55.0,616.79921,10000.0,85.000001,85.000001,85.000001,85.000001,395.0,0.0,0.0,0.0,1.0,166.665,54.108,54.108,49.576,49.576,34.0,-28.33,18.876666666666665,-30.62333333333333,22.125,0.0,1783.493,0.7300000000000004,100.0,26.912,26.365000000000002,42.152,41.312,0.0,0.0,100.0,0.0,0.0,0.0,0.0,3163.714285714286,2759.3,4060.0,3744.8,305.3155,305.943,314.94275,315.477,21.785800000000002,20.5018,21.785,21.3216,314.999998,314.999998,324.999988,324.999988,99.55872857142857,99.5066,99.565,99.54504285714286,-0.024249999999999883,-0.1376666666666666,-0.1955,0.036833333333333274,-0.061666666666667425,-0.05375000000000085,1.5695,1.6125,37.161,29.136333333333333,37.156,34.26,56.073,34.1305,58.8765,51.4845,53.983999999999995,33.329,57.51,49.866,53.141,32.9035,57.471000000000004,49.30833333333334,-0.015499999999999958,-0.12400000000000011,0.10547000000000001,0.11636,0.0,209.04000000000002,208.935,205.98666666666668,205.98666666666668,0.0,0.0
5,0.0,0.0,0.0,1.0,1.0,0.0,0.0,1.0,0.0,0.0,1.0,1.1856,26.0,0.0,0.0,0.0,59.999996,0.0,26.0,26.0,26.0,26.0,-0.10888888888888892,0.2985,-0.04165,294.632,-2.6762,-2.728888888888889,-1.50275,-1.5868,-258.9,215.6525,190.890125,0.0,0.0,0.0,0.0,0.011333333333333334,-5.498166666666667,-5.498166666666667,-0.5397000000000001,0.5345,-0.04787499999999989,-0.4939999999999998,66.872,-0.0801,-0.223525,1.2640000000000002,100.0,1.0,1.0,206.50666666666666,0.0,0.0,0.0,0.0,0.0,0.0,0.0,8753.1,0.0,3.0,5.0,240.71,1.0,0.0,0.0,0.0,0.0,0.0,0.0,0.0,0.254999999999999,0.254999999999999,0.0,0.0,1.0,55.0,616.79921,10000.0,85.000001,85.000001,85.000001,85.000001,395.0,0.0,0.0,0.0,1.0,166.665,54.153,54.153,50.171,50.171,34.0,-27.7875,19.04,-30.30333333333333,21.09,0.0,1783.445,0.3049999999999997,100.0,26.938,26.229,41.69,40.754,0.0,0.0,100.0,0.0,0.0,0.0,0.0,3112.857142857143,2808.7,3918.8888888888887,3856.7,305.3985,305.73575,315.32925,315.26825,21.795099999999998,20.5065,21.7946,21.3297,314.999998,314.999998,324.999988,324.999988,99.55874285714286,99.50661666666667,99.56514285714286,99.54517142857142,-0.018999999999999906,-0.1356666666666666,-0.20499999999999996,0.006666666666666599,-0.05833333333333002,-0.04999999999999716,1.588,1.676,37.219,29.165666666666667,37.217,34.311,56.058,34.169,58.912,51.5385,53.97,33.3645,57.543,49.918,53.126,32.9375,57.5015,49.359,-0.035499999999999976,-0.10499999999999998,0.10166000000000001,0.10597500000000001,0.0,209.5,209.38,206.50666666666666,206.50666666666666,0.0,0.0
6,0.0,0.0,0.0,1.0,1.0,0.0,0.0,1.0,0.0,0.0,1.0,1.1856,26.0,0.0,0.0,0.0,59.999996,0.0,26.0,26.0,26.0,26.0,-0.11311111111111105,0.3117000000000001,0.027325000000000002,294.403,-2.6565,-2.800888888888889,-1.5011999999999999,-1.5643,-255.69,215.64499999999998,190.8705,0.0,0.0,0.0,0.0,0.013233333333333335,-5.498166666666667,-5.498166666666667,-0.5228,-0.09200000000000008,-0.06462499999999993,-0.9710000000000001,67.016,-0.0806,-0.20372500000000002,0.9160000000000004,100.0,1.0,1.0,206.76,0.0,0.0,0.0,0.0,0.0,0.0,0.0,8763.9,0.0,3.0,5.0,241.2266666666667,0.0,0.0,0.0,0.0,0.0,0.0,0.0,0.0,0.3030000000000008,0.3030000000000008,0.0,0.0,0.0,55.0,616.79921,10000.0,85.000001,85.000001,85.000001,85.000001,395.0,0.0,0.0,0.0,1.0,166.665,54.626,54.626,49.301,49.301,34.0,-27.502499999999998,18.62833333333333,-34.06666666666666,22.8475,0.0,1783.397,0.2950000000000017,100.0,26.696,25.917,41.955,40.935,0.0,0.0,100.0,0.0,0.0,0.0,0.0,3112.4285714285716,2685.6,4259.222222222223,4007.9,305.4505,306.094,314.45525,314.836,21.8043,20.5112,21.8045,21.3381,314.999998,314.999998,324.999988,324.999988,99.55874285714286,99.50663333333333,99.56527142857144,99.5453,-0.018000000000000016,-0.13666666666666671,-0.2081666666666666,0.01750000000000007,-0.045000000000001705,-0.042499999999996874,1.526,1.5494999999999999,37.277,29.194666666666667,37.278,34.363,56.041,34.2065,58.951499999999996,51.597,53.954,33.399,57.58,49.974000000000004,53.11,32.9705,57.5355,49.414,-0.04599999999999993,-0.09549999999999992,0.10761000000000001,0.10884,0.0,209.93,209.815,206.76,206.76,0.0,0.0
7,0.0,0.0,0.0,1.0,1.0,0.0,0.0,1.0,0.0,0.0,1.0,1.1856,26.0,0.0,0.0,0.0,59.999996,0.0,26.0,26.0,26.0,26.0,-0.10311111111111104,0.2943,-0.015025,294.495,-2.6250999999999998,-2.796555555555556,-1.5563,-1.6072000000000002,-252.27,215.6325,190.849875,0.0,0.0,0.0,0.0,0.0152,-5.498166666666667,-5.498166666666667,-0.531,0.08599999999999997,-0.04775000000000018,1.2620000000000005,67.164,-0.079,-0.21727500000000002,0.6539999999999999,100.0,1.0,1.0,207.31666666666666,0.0,0.0,0.0,0.0,0.0,0.0,0.0,8787.4,0.0,3.0,5.0,241.76,1.0,0.0,0.0,0.0,0.0,0.0,0.0,0.0,0.3539999999999992,0.3539999999999992,0.0,0.0,1.0,55.0,616.79921,10000.0,85.000001,85.000001,85.000001,85.000001,395.0,0.0,0.0,0.0,1.0,333.33500000000004,54.321,54.321,49.744,49.744,34.0,-24.895,21.186666666666667,-31.34,23.2525,0.0,1783.345,-0.03999999999999915,100.0,27.039,25.933,42.028999999999996,40.900999999999996,0.0,0.0,100.0,0.0,0.0,0.0,0.0,2988.285714285714,2871.8,3995.1111111111113,3920.9,305.58,305.703,315.0845,315.116,21.8142,20.5162,21.815,21.346899999999998,314.999998,314.999998,324.999988,324.999988,99.55874285714286,99.50665,99.56541428571428,99.54544285714286,0.01725000000000021,-0.10333333333333328,-0.19399999999999995,0.030999999999999917,-0.046666666666666856,-0.06374999999999886,1.5785,1.5979999999999999,37.339,29.226333333333336,37.344,34.4185,56.025999999999996,34.2465,58.992,51.6575,53.939,33.436,57.6175,50.032,53.094,33.006,57.570499999999996,49.470666666666666,-0.07499999999999996,-0.062000000000000055,0.10583500000000001,0.11028500000000001,0.0,210.375,210.31,207.31666666666666,207.31666666666666,0.0,0.0
8,0.0,0.0,0.0,1.0,1.0,0.0,0.0,1.0,0.0,0.0,1.0,1.1856,26.0,0.0,0.0,0.0,59.999996,0.0,26.0,26.0,26.0,26.0,-0.04966666666666664,0.2841,-0.033375,294.571,-2.7092,-2.7252222222222224,-1.53375,-1.5962,-248.84,215.6175,190.829125,0.0,0.0,0.0,0.0,0.0172,-5.498166666666667,-5.498166666666667,-0.5354,-0.22849999999999993,-0.038000000000000256,-1.0839999999999999,67.313,-0.0654,-0.217875,0.3639999999999999,100.0,1.0,1.0,207.76,0.0,0.0,0.0,0.0,0.0,0.0,0.0,8806.1,0.0,3.0,5.0,242.29666666666668,0.0,0.0,0.0,0.0,0.0,0.0,0.0,0.0,0.40500000000000114,0.40500000000000114,0.0,0.0,0.0,55.0,616.79921,10000.0,85.000001,85.000001,85.000001,85.000001,395.0,0.0,0.0,0.0,1.0,333.33500000000004,54.489,54.489,49.545,49.545,34.0,-25.862499999999997,21.171666666666667,-30.39,23.595,0.0,1783.293,-0.14999999999999858,100.0,26.477,26.168,41.864000000000004,41.103,0.0,0.0,100.0,0.0,0.0,0.0,0.0,3064.714285714286,2855.8,3992.222222222222,3892.4,305.677,305.58625,315.15275,315.092,21.8239,20.5213,21.8254,21.3559,314.999998,314.999998,324.999988,324.999988,99.55874285714286,99.50666666666666,99.56555714285714,99.5456,0.01949999999999985,-0.08999999999999986,-0.1805,0.042166666666666686,-0.045000000000001705,-0.04124999999999801,1.5565,1.5855,37.399,29.257666666666665,37.409,34.474000000000004,56.007999999999996,34.286,59.0315,51.719,53.923,33.4725,57.6545,50.091,53.077,33.0405,57.6045,49.528333333333336,-0.08499999999999996,-0.05249999999999999,0.10175500000000001,0.10888,0.0,210.81,210.765,207.76,207.76,0.0,0.0
9,0.0,0.0,0.0,1.0,1.0,0.0,0.0,1.0,0.0,0.0,1.0,1.1856,26.0,0.0,0.0,0.0,59.999996,0.0,26.0,26.0,26.0,26.0,-0.04488888888888887,0.2921,-0.002025,294.205,-2.6323,-2.737,-1.53775,-1.5546,-245.6,215.60250000000002,190.809125,0.0,0.0,0.0,0.0,0.019066666666666666,-5.498166666666667,-5.498166666666667,-0.5318,0.3095,-0.044500000000000206,-0.5739999999999998,67.452,-0.051000000000000004,-0.21052500000000002,0.1479999999999997,100.0,1.0,1.0,208.16333333333333,0.0,0.0,0.0,0.0,0.0,0.0,0.0,8823.3,0.0,3.0,5.0,242.79666666666668,1.0,0.0,0.0,0.0,0.0,0.0,0.0,0.0,0.4529999999999994,0.4529999999999994,0.0,0.0,1.0,55.0,616.79921,10000.0,85.000001,85.000001,85.000001,85.000001,395.0,0.0,0.0,0.0,1.0,166.665,53.986000000000004,53.986000000000004,49.637,49.637,34.0,-25.5975,21.548333333333332,-30.83,25.405,0.0,1783.247,-0.3150000000000013,100.0,26.858,26.306,41.789,41.191,0.0,0.0,100.0,0.0,0.0,0.0,0.0,3167.4285714285716,2883.4,4064.3333333333335,4022.8,305.287,305.501,315.00675,314.824,21.8331,20.5261,21.8352,21.3642,314.999998,314.999998,324.999988,324.999988,99.55875714285715,99.50666666666666,99.5657,99.54572857142857,0.03575000000000017,-0.08899999999999997,-0.1748333333333334,0.06950000000000012,-0.03999999999999915,-0.042499999999996874,1.5514999999999999,1.565,37.457,29.288,37.47,34.5265,55.992999999999995,34.323,59.068,51.775999999999996,53.909,33.5065,57.689,50.1455,53.062,33.073499999999996,57.635999999999996,49.58166666666666,-0.09750000000000003,-0.05049999999999999,0.1131,0.11069000000000001,0.0,211.23000000000002,211.215,208.16333333333333,208.16333333333333,0.0,0.0
10,0.0,0.0,0.0,1.0,1.0,0.0,0.0,1.0,0.0,0.0,1.0,1.1856,26.0,0.0,0.0,0.0,59.999996,0.0,26.0,26.0,26.0,26.0,-0.03411111111111109,0.2973000000000001,0.017750000000000002,294.159,-2.6907,-2.712888888888889,-1.5024000000000002,-1.5345,-242.16,215.585,190.788125,0.0,0.0,0.0,0.0,0.0211,-5.498166666666667,-5.498166666666667,-0.527,-0.37549999999999994,-0.012750000000000039,1.5360000000000005,67.601,-0.031200000000000002,-0.212425,-0.19399999999999995,100.0,1.0,1.0,208.51999999999998,0.0,0.0,0.0,0.0,0.0,0.0,0.0,8838.4,0.0,3.0,5.0,243.33333333333334,0.0,0.0,0.0,0.0,0.0,0.0,1.0,0.0,0.5040000000000013,0.5040000000000013,0.0,0.0,0.0,55.0,616.79921,10000.0,85.000001,85.000001,85.000001,85.000001,395.0,0.0,0.0,0.0,1.0,166.665,54.367,54.367,49.179,49.179,34.0,-22.71,22.72,-28.52,27.075000000000003,0.0,1783.196,-0.35999999999999943,100.0,26.927,26.162,42.084,41.49,0.0,0.0,100.0,0.0,0.0,0.0,0.0,2886.5714285714284,2958.3,4042.3333333333335,4213.7,305.9655,305.49225,314.9385,314.40475,21.8428,20.5312,21.8456,21.3733,314.999998,314.999998,324.999988,324.999988,99.55875714285715,99.50668333333333,99.56584285714285,99.54587142857143,0.060249999999999915,-0.06433333333333313,-0.1366666666666666,0.07733333333333325,-0.041666666666671404,-0.05749999999999744,1.5374999999999999,1.534,37.518,29.319666666666667,37.535,34.583,55.977999999999994,34.361,59.1085,51.839,53.894,33.5415,57.7265,50.206,53.047,33.1065,57.670500000000004,49.64066666666667,-0.09699999999999998,-0.044499999999999984,0.106005,0.103355,0.0,211.685,211.685,208.51999999999998,208.51999999999998,0.0,0.0
11,0.0,0.0,0.0,1.0,1.0,0.0,0.0,1.0,0.0,0.0,1.0,1.1856,26.0,0.0,0.0,0.0,59.999996,0.0,26.0,26.0,26.0,26.0,-0.005555555555555536,0.29370000000000007,-0.030075,294.418,-2.6965,-2.706666666666667,-1.5302,-1.5102,-238.51,215.565,190.765625,0.0,0.0,0.0,0.0,0.022600000000000002,-5.498166666666667,-5.498166666666667,-0.5508000000000001,-0.045500000000000096,0.008624999999999883,0.6750000000000003,67.754,-0.0146,-0.223025,-0.30600000000000005,100.0,1.0,1.0,209.14,0.0,0.0,0.0,0.0,0.0,0.0,0.0,8864.6,0.0,3.0,5.0,243.88333333333333,1.0,0.0,0.0,0.0,0.0,0.0,1.0,0.0,0.5579999999999998,0.5579999999999998,0.0,0.0,1.0,55.0,616.79921,10000.0,85.000001,85.000001,85.000001,85.000001,395.0,0.0,0.0,0.0,1.0,166.665,54.199,54.199,49.759,49.759,34.0,-22.1825,25.185,-25.466666666666665,26.5975,0.0,1783.141,-0.7850000000000001,100.0,26.657,26.296,41.692,41.462,0.0,0.0,100.0,0.0,0.0,0.0,0.0,2921.857142857143,3056.5,3845.8888888888887,4009.8,305.835,305.11675,315.47625,314.927,21.852899999999998,20.5367,21.8565,21.3827,314.999998,314.999998,324.999988,324.999988,99.55877142857143,99.50668333333333,99.566,99.54601428571429,0.08349999999999991,-0.026000000000000023,-0.10749999999999993,0.11066666666666669,-0.03166666666666629,-0.06125000000000114,1.6115,1.5905,37.581,29.354,37.602999999999994,34.641999999999996,55.961,34.400999999999996,59.1465,51.903,53.878,33.5785,57.762,50.2675,53.03,33.1425,57.7035,49.70133333333334,-0.11349999999999993,-0.02100000000000013,0.104675,0.10806,0.0,212.13,212.16500000000002,209.14,209.14,0.0,0.0
12,0.0,0.0,0.0,1.0,1.0,0.0,0.0,1.0,0.0,0.0,1.0,1.1856,26.0,0.0,0.0,0.0,59.999996,0.0,26.0,26.0,26.0,26.0,-0.0076666666666665995,0.29669999999999996,0.028200000000000003,293.961,-2.7325,-2.692222222222222,-1.5383,-1.5282,-235.25,215.55,190.744875,0.0,0.0,0.0,0.0,0.025466666666666665,-5.498166666666667,-5.498166666666667,-0.5384,0.367,0.011749999999999927,0.6350000000000002,67.892,0.0007,-0.204075,-0.35599999999999987,100.0,1.0,1.0,209.44333333333333,0.0,0.0,0.0,0.0,0.0,0.0,0.0,8877.5,0.0,3.0,5.0,244.38333333333333,0.0,0.0,0.0,0.0,0.0,0.0,1.0,0.0,0.6059999999999981,0.6059999999999981,0.0,0.0,0.0,55.0,616.79921,10000.0,85.000001,85.000001,85.000001,85.000001,395.0,0.0,0.0,0.0,1.0,166.665,53.94,53.94,49.010999999999996,49.010999999999996,34.0,-23.669999999999998,23.913333333333334,-26.669999999999998,29.677500000000002,0.0,1783.094,0.125,100.0,26.779,26.627,41.679,41.562,0.0,0.0,100.0,0.0,0.0,0.0,0.0,2919.142857142857,3119.0,4032.1111111111113,4225.7,305.8715,304.9395,314.9675,314.40225,21.862,20.5416,21.8663,21.3912,314.999998,314.999998,324.999988,324.999988,99.55878571428572,99.50668333333333,99.56612857142858,99.54615714285714,0.05250000000000021,-0.06733333333333325,-0.09316666666666662,0.1263333333333332,-0.03999999999999915,-0.04999999999999716,1.556,1.5265,37.637,29.385333333333335,37.664,34.695,55.947,34.4375,59.1825,51.9615,53.864999999999995,33.6125,57.795500000000004,50.323499999999996,53.016,33.1745,57.734,49.756,-0.0645,-0.07499999999999996,0.10116000000000001,0.10649000000000002,0.0,212.57999999999998,212.61,209.44333333333333,209.44333333333333,0.0,0.0
13,0.0,0.0,0.0,1.0,1.0,0.0,0.0,1.0,0.0,0.0,1.0,1.1856,26.0,0.0,0.0,0.0,59.999996,0.0,26.0,26.0,26.0,26.0,0.0431111111111111,0.28890000000000016,0.0088,293.793,-2.7035,-2.703888888888889,-1.5667499999999999,-1.536,-231.78,215.5325,190.723125,0.0,0.0,0.0,0.0,0.027100000000000003,-5.498166666666667,-5.498166666666667,-0.5389,-0.34450000000000003,0.006000000000000005,-0.585,68.038,0.008,-0.21932500000000002,-0.36600000000000055,100.0,1.0,1.0,209.85666666666668,0.0,0.0,0.0,0.0,0.0,0.0,0.0,8895.0,0.0,3.0,5.0,244.90666666666667,1.0,0.0,0.0,0.0,0.0,0.0,1.0,0.0,0.657,0.657,0.0,0.0,1.0,55.0,616.79921,10000.0,85.000001,85.000001,85.000001,85.000001,395.0,0.0,0.0,0.0,1.0,166.665,53.818,53.818,49.042,49.042,34.0,-22.974999999999998,24.009999999999998,-27.563333333333336,28.765,0.0,1783.042,-0.46499999999999986,100.0,26.836,26.872,41.883,42.126,0.0,0.0,100.0,0.0,0.0,0.0,0.0,3057.285714285714,2941.8,4078.777777777778,4120.2,305.6795,305.26775,314.94325,314.5165,21.8715,20.5469,21.8767,21.4003,314.999998,314.999998,324.999988,324.999988,99.55878571428572,99.50668333333333,99.56627142857143,99.5463,0.08775000000000022,-0.03433333333333333,-0.09599999999999997,0.11966666666666681,-0.045000000000001705,-0.05124999999999602,1.532,1.5245,37.697,29.418333333333333,37.730000000000004,34.751999999999995,55.933,34.4755,59.2225,52.025,53.852000000000004,33.6475,57.832499999999996,50.3845,53.001999999999995,33.208,57.768,49.816,-0.10699999999999998,-0.03649999999999998,0.10674000000000002,0.10831500000000001,0.0,213.015,213.04000000000002,209.85666666666668,209.85666666666668,0.0,0.0
14,0.0,0.0,0.0,1.0,1.0,0.0,0.0,1.0,0.0,0.0,1.0,1.1856,26.0,0.0,0.0,0.0,59.999996,0.0,26.0,26.0,26.0,26.0,0.05277777777777781,0.2764,-0.0461,294.022,-2.7244,-2.709,-1.5653000000000001,-1.5248,-228.51,215.515,190.70275,0.0,0.0,0.0,0.0,0.029,-5.498166666666667,-5.498166666666667,-0.5492,-0.010000000000000009,0.02499999999999991,-0.4630000000000001,68.172,0.0161,-0.22412500000000002,-0.42799999999999905,100.0,1.0,1.0,210.37333333333333,0.0,0.0,0.0,0.0,0.0,0.0,0.0,8917.0,0.0,3.0,5.0,245.39,0.0,0.0,0.0,0.0,0.0,0.0,1.0,0.0,0.7049999999999983,0.7049999999999983,0.0,0.0,0.0,55.0,616.79921,10000.0,85.000001,85.000001,85.000001,85.000001,395.0,0.0,0.0,0.0,1.0,166.665,53.879,53.879,49.362,49.362,34.0,-22.6475,24.47,-26.193333333333335,27.939999999999998,0.0,1782.994,-0.5300000000000011,100.0,26.79,27.016,41.769,42.15,0.0,0.0,100.0,0.0,0.0,0.0,0.0,3044.0,2944.0,3931.4444444444443,4016.8,305.823,305.2745,315.33,314.81175,21.8805,20.5519,21.886499999999998,21.4087,314.999998,314.999998,324.999988,324.999988,99.5588,99.5067,99.56641428571429,99.54644285714286,0.09425000000000017,-0.023666666666666725,-0.09766666666666657,0.1273333333333333,-0.051666666666669414,-0.045000000000001705,1.581,1.5574999999999999,37.753,29.449333333333335,37.79,34.8045,55.92,34.510999999999996,59.257,52.082499999999996,53.839,33.6805,57.8645,50.44,52.989000000000004,33.24,57.797,49.870333333333335,-0.11349999999999993,-0.030000000000000027,0.10892500000000001,0.10430500000000001,0.0,213.435,213.47,210.37333333333333,210.37333333333333,0.0,0.0
15,0.0,0.0,0.0,1.0,1.0,0.0,0.0,1.0,0.0,0.0,1.0,1.1856,26.0,0.0,0.0,0.0,59.999996,0.0,26.0,26.0,26.0,26.0,0.06266666666666687,0.2905,-0.03325,293.915,-2.7194,-2.685666666666667,-1.5771000000000002,-1.5422,-225.24,215.5,190.682,0.0,0.0,0.0,0.0,0.030933333333333334,-5.498166666666667,-5.498166666666667,-0.5393,0.16300000000000003,0.03587499999999988,-0.9449999999999998,68.30799999999999,0.0241,-0.208125,-0.47999999999999954,100.0,1.0,1.0,210.73000000000002,0.0,0.0,0.0,0.0,0.0,0.0,0.0,8932.0,0.0,3.0,5.0,245.88,1.0,0.0,0.0,0.0,0.0,0.0,1.0,0.0,0.7530000000000001,0.7530000000000001,0.0,0.0,1.0,55.0,616.79921,10000.0,85.000001,85.000001,85.000001,85.000001,395.0,0.0,0.0,0.0,1.0,166.665,54.001,54.001,49.042,49.042,34.0,-21.6025,23.961666666666666,-27.326666666666664,29.22,0.0,1782.947,-0.3949999999999996,100.0,26.741,27.095,41.67,42.303,0.0,0.0,100.0,0.0,0.0,0.0,0.0,2941.714285714286,2916.3,4100.111111111111,4078.7,305.984,305.37275,315.01625,314.652,21.889499999999998,20.557,21.8962,21.4172,314.999998,314.999998,324.999988,324.999988,99.55881428571429,99.5067,99.56655714285715,99.54657142857143,0.10150000000000015,-0.024666666666666615,-0.08999999999999997,0.13616666666666677,-0.04333333333332945,-0.04999999999999716,1.555,1.5445,37.809,29.481,37.851,34.858000000000004,55.908,34.547,59.2915,52.141999999999996,53.827,33.713499999999996,57.897,50.497,52.976,33.2715,57.826499999999996,49.92633333333333,-0.10699999999999998,-0.03750000000000009,0.112975,0.10077000000000001,0.0,213.87,213.89499999999998,210.73000000000002,210.73000000000002,0.0,0.0
16,0.0,0.0,0.0,1.0,1.0,0.0,0.0,1.0,0.0,0.0,1.0,1.1856,26.0,0.0,0.0,0.0,59.999996,0.0,26.0,26.0,26.0,26.0,0.032444444444444276,0.2764,-0.0082,293.61,-2.6738,-2.638777777777778,-1.5721500000000002,-1.5458,-221.75,215.485,190.659625,0.0,0.0,0.0,0.0,0.032933333333333335,-5.498166666666667,-5.498166666666667,-0.554,-0.22750000000000004,0.02562500000000001,0.22599999999999998,68.45,0.029300000000000003,-0.2252,-0.39399999999999924,100.0,1.0,1.0,211.2,0.0,0.0,0.0,0.0,0.0,0.0,0.0,8952.0,0.0,3.0,5.0,246.39333333333335,0.0,0.0,0.0,0.0,0.0,0.0,1.0,0.0,0.8039999999999985,0.8039999999999985,0.0,0.0,0.0,55.0,616.79921,10000.0,85.000001,85.000001,85.000001,85.000001,395.0,0.0,0.0,0.0,1.0,333.33500000000004,53.284,53.284,48.888999999999996,48.888999999999996,34.0,-21.87,26.461666666666666,-25.476666666666663,29.317500000000003,0.0,1782.895,-0.3000000000000007,100.0,26.95,27.121000000000002,42.049,42.361000000000004,0.0,0.0,100.0,0.0,0.0,0.0,0.0,3016.285714285714,3214.9,3921.0,4002.0,305.5635,304.66175,315.26875,314.933,21.8989,20.5624,21.9066,21.4263,314.999998,314.999998,324.999988,324.999988,99.55882857142858,99.5067,99.56668571428571,99.54672857142857,0.10625000000000018,-0.016666666666666607,-0.07850000000000001,0.15399999999999991,-0.041666666666671404,-0.060000000000002274,1.559,1.5505,37.867999999999995,29.514666666666663,37.917,34.914500000000004,55.893,34.585499999999996,59.33,52.2035,53.813,33.749,57.9325,50.5565,52.961,33.306,57.859,49.98466666666667,-0.09699999999999998,-0.0475000000000001,0.113085,0.10966500000000001,0.0,214.3,214.315,211.2,211.2,0.0,0.0
17,0.0,0.0,0.0,1.0,1.0,0.0,0.0,1.0,0.0,0.0,1.0,1.1856,26.0,0.0,0.0,0.0,59.999996,0.0,26.0,26.0,26.0,26.0,0.059111111111111114,0.28459999999999996,0.048400000000000006,293.411,-2.6448,-2.721222222222222,-1.4993,-1.5657,-218.26,215.4725,190.63725,0.0,0.0,0.0,0.0,0.034966666666666674,-5.498166666666667,-5.498166666666667,-0.5465,0.118,0.0017499999999999183,-0.98,68.594,0.026600000000000002,-0.214725,-0.2400000000000002,100.0,1.0,1.0,211.5233333333333,0.0,0.0,0.0,0.0,0.0,0.0,0.0,8965.8,0.0,3.0,5.0,246.91,1.0,0.0,0.0,0.0,0.0,0.0,1.0,0.0,0.8550000000000004,0.8550000000000004,0.0,0.0,1.0,55.0,616.79921,10000.0,85.000001,85.000001,85.000001,85.000001,395.0,0.0,0.0,0.0,1.0,333.33500000000004,53.543,53.543,48.447,48.447,34.0,-21.91,24.206666666666663,-27.046666666666663,30.2275,0.0,1782.842,-0.23000000000000043,100.0,27.025,27.316,42.012,42.497,0.0,0.0,100.0,0.0,0.0,0.0,0.0,3026.5714285714284,2933.8,4199.222222222223,4160.3,305.6925,305.21925,314.65175,314.45325,21.9084,20.5678,21.917,21.435299999999998,314.999998,314.999998,324.999988,324.999988,99.55884285714286,99.50671666666666,99.56682857142857,99.54687142857144,0.09699999999999998,-0.033666666666666734,-0.08433333333333337,0.13250000000000006,-0.04999999999999716,-0.06125000000000114,1.5235,1.5075,37.928,29.548666666666666,37.980999999999995,34.971000000000004,55.879999999999995,34.6245,59.368,52.266,53.8,33.785,57.968,50.6165,52.947,33.34,57.8915,50.04333333333334,-0.09399999999999997,-0.050000000000000044,0.102455,0.10824500000000001,0.0,214.765,214.79000000000002,211.5233333333333,211.5233333333333,0.0,0.0
18,0.0,0.0,0.0,1.0,1.0,0.0,0.0,1.0,0.0,0.0,1.0,1.1856,26.0,0.0,0.0,0.0,59.999996,0.0,26.0,26.0,26.0,26.0,0.05877777777777782,0.28059999999999996,0.0068000000000000005,293.549,-2.6692,-2.7414444444444444,-1.49805,-1.5705,-214.95999999999998,215.46,190.615875,0.0,0.0,0.0,0.0,0.0369,-5.498166666666667,-5.498166666666667,-0.5595,-0.3205,0.008375000000000021,-0.6739999999999999,68.727,0.0182,-0.22640000000000002,-0.11799999999999944,100.0,1.0,1.0,211.9766666666667,0.0,0.0,0.0,0.0,0.0,0.0,0.0,8985.0,0.0,3.0,5.0,247.39,0.0,0.0,0.0,0.0,0.0,0.0,1.0,0.0,0.9029999999999987,0.9029999999999987,0.0,0.0,0.0,55.0,616.79921,10000.0,85.000001,85.000001,85.000001,85.000001,395.0,0.0,0.0,0.0,1.0,333.33500000000004,53.528,53.528,48.888999999999996,48.888999999999996,34.0,-22.815,24.571666666666665,-25.666666666666664,28.7275,0.0,1782.795,-0.259999999999998,100.0,26.979,27.254,42.114000000000004,42.622,0.0,0.0,100.0,0.0,0.0,0.0,0.0,3053.857142857143,2976.9,3988.5555555555557,4037.7,305.654,305.12025,315.13225,314.70525,21.9173,20.5728,21.9269,21.4439,314.999998,314.999998,324.999988,324.999988,99.55885714285715,99.50671666666666,99.56697142857143,99.54701428571428,0.08524999999999983,-0.038000000000000034,-0.09083333333333332,0.12383333333333324,-0.05333333333332746,-0.0625,1.549,1.5394999999999999,37.983000000000004,29.58,38.043,35.0245,55.866,34.66,59.403,52.3245,53.787,33.817499999999995,58.001,50.673,52.933,33.372,57.9215,50.09866666666667,-0.09099999999999997,-0.050999999999999934,0.10394500000000001,0.1063,0.0,215.155,215.18,211.9766666666667,211.9766666666667,0.0,0.0
19,0.0,0.0,0.0,1.0,1.0,0.0,0.0,1.0,0.0,0.0,1.0,1.1856,26.0,0.0,0.0,0.0,59.999996,0.0,26.0,26.0,26.0,26.0,0.04366666666666674,0.2764,-0.032350000000000004,293.427,-2.6995,-2.661777777777778,-1.52265,-1.5892,-211.25,215.4475,190.591625,0.0,0.0,0.0,0.0,0.03906666666666667,-5.498166666666667,-5.498166666666667,-0.5434,0.45399999999999996,0.014999999999999902,-0.7589999999999999,68.875,0.011000000000000001,-0.2056,-0.09399999999999942,100.0,1.0,1.0,212.44333333333333,0.0,0.0,0.0,0.0,0.0,0.0,0.0,9004.7,0.0,3.0,5.0,247.92333333333335,1.0,0.0,0.0,0.0,0.0,0.0,1.0,0.0,0.9570000000000007,0.9570000000000007,0.0,0.0,1.0,55.0,616.79921,10000.0,85.000001,85.000001,85.000001,85.000001,395.0,0.0,0.0,0.0,1.0,166.665,53.436,53.436,48.721000000000004,48.721000000000004,34.0,-22.5875,23.36,-27.75,28.52,0.0,1782.742,-0.26500000000000057,100.0,27.345,27.511,42.059,42.664,0.0,0.0,100.0,0.0,0.0,0.0,0.0,3025.857142857143,2927.4,4132.111111111111,4056.0,305.7655,305.3985,314.9075,314.726,21.9275,20.5786,21.9378,21.4535,314.999998,314.999998,324.999988,324.999988,99.55887142857142,99.50671666666666,99.56712857142857,99.54717142857143,0.09050000000000002,-0.03633333333333311,-0.10483333333333333,0.11216666666666675,-0.046666666666666856,-0.03999999999999915,1.537,1.5294999999999999,38.047,29.616333333333333,38.111000000000004,35.0845,55.852000000000004,34.701499999999996,59.4415,52.39,53.774,33.8565,58.036500000000004,50.7355,52.92,33.409,57.954,50.160333333333334,-0.09899999999999998,-0.050999999999999934,0.10545,0.10431000000000001,0.0,215.64499999999998,215.635,212.44333333333333,212.44333333333333,0.0,0.0
20,0.0,0.0,0.0,1.0,1.0,0.0,0.0,1.0,0.0,0.0,1.0,1.1856,26.0,0.0,0.0,0.0,59.999996,0.0,26.0,26.0,26.0,26.0,0.03055555555555567,0.26849999999999996,-0.044025,293.472,-2.7354,-2.655222222222222,-1.55495,-1.5270000000000001,-207.94,215.4375,190.57025,0.0,0.0,0.0,0.0,0.04096666666666667,-5.498166666666667,-5.498166666666667,-0.5583,-0.6930000000000001,0.011374999999999913,-0.8620000000000001,69.007,0.0109,-0.227275,-0.07600000000000051,100.0,1.0,1.0,212.86333333333334,0.0,0.0,0.0,0.0,0.0,0.0,0.0,9022.5,0.0,3.0,5.0,248.4,0.0,0.0,0.0,0.0,0.0,0.0,0.0,0.0,1.004999999999999,1.004999999999999,0.0,0.0,0.0,55.0,616.79921,10000.0,85.000001,85.000001,85.000001,85.000001,395.0,0.0,0.0,0.0,1.0,166.665,53.543,53.543,48.507999999999996,48.507999999999996,34.0,-23.52,23.72833333333333,-27.333333333333336,27.197499999999998,0.0,1782.694,-0.254999999999999,100.0,27.0,27.307000000000002,42.556,42.879,0.0,0.0,100.0,0.0,0.0,0.0,0.0,3053.142857142857,2988.8,3999.1111111111113,3960.8,305.7125,305.19375,315.144,315.02125,21.9363,20.5837,21.9477,21.4621,314.999998,314.999998,324.999988,324.999988,99.55887142857142,99.50671666666666,99.56725714285714,99.5473,0.08124999999999982,-0.040999999999999925,-0.1093333333333334,0.12166666666666681,-0.04999999999999716,-0.03625000000000256,1.561,1.5525,38.102000000000004,29.648,38.173,35.1385,55.838,34.7375,59.479,52.449,53.76,33.8895,58.0715,50.792500000000004,52.905,33.441,57.986,50.216,-0.08999999999999997,-0.052999999999999936,0.10942500000000001,0.10554500000000001,0.0,216.025,216.0,212.86333333333334,212.86333333333334,0.0,0.0
21,0.0,0.0,0.0,1.0,1.0,0.0,0.0,1.0,0.0,0.0,1.0,1.1856,26.0,0.0,0.0,0.0,59.999996,0.0,26.0,26.0,26.0,26.0,0.025333333333333208,0.26649999999999996,-0.022500000000000003,293.381,-2.7397,-2.668555555555556,-1.57395,-1.5201,-204.62,215.4275,190.54825,0.0,0.0,0.0,0.0,0.0429,-5.498166666666667,-5.498166666666667,-0.5700000000000001,0.21599999999999997,0.0009999999999998899,-0.641,69.138,0.009300000000000001,-0.21825,-0.11600000000000055,100.0,1.0,1.0,213.29666666666668,0.0,0.0,0.0,0.0,0.0,0.0,0.0,9040.8,0.0,3.0,5.0,248.86666666666667,1.0,0.0,0.0,0.0,0.0,0.0,0.0,0.0,1.0530000000000008,1.0530000000000008,0.0,0.0,1.0,55.0,616.79921,10000.0,85.000001,85.000001,85.000001,85.000001,395.0,0.0,0.0,0.0,1.0,166.665,53.207,53.207,48.782,48.782,34.0,-24.322499999999998,24.586666666666666,-27.61,27.33,0.0,1782.647,-0.3299999999999983,100.0,27.183,27.292,42.249,42.567,0.0,0.0,100.0,0.0,0.0,0.0,0.0,3171.0,3039.2,4039.4444444444443,4032.2,305.353,304.98725,315.08975,314.87575,21.9453,20.5888,21.9574,21.4706,314.999998,314.999998,324.999988,324.999988,99.55888571428571,99.50673333333333,99.5674,99.54744285714285,0.0887500000000001,-0.03533333333333322,-0.10516666666666663,0.11616666666666675,-0.051666666666669414,-0.04749999999999943,1.5725,1.566,38.158,29.679666666666666,38.233999999999995,35.191,55.825,34.774,59.5125,52.5045,53.748000000000005,33.923,58.1025,50.846000000000004,52.891999999999996,33.473,58.013999999999996,50.26866666666667,-0.09950000000000003,-0.050000000000000044,0.105825,0.10479000000000001,0.0,216.435,216.44,213.29666666666668,213.29666666666668,0.0,0.0
22,0.0,0.0,0.0,1.0,1.0,0.0,0.0,1.0,0.0,0.0,1.0,1.1856,26.0,0.0,0.0,0.0,59.999996,0.0,26.0,26.0,26.0,26.0,0.01388888888888884,0.27370000000000005,0.04505,292.831,-2.7745,-2.634333333333333,-1.5713,-1.5147,-201.09,215.41750000000002,190.52425,0.0,0.0,0.0,0.0,0.04496666666666667,-5.498166666666667,-5.498166666666667,-0.5571,-0.13400000000000012,0.014874999999999972,0.9500000000000002,69.279,0.012100000000000001,-0.20605,-0.2759999999999998,100.0,1.0,1.0,213.55,0.0,0.0,0.0,0.0,0.0,0.0,0.0,9051.6,0.0,3.0,5.0,249.37333333333333,0.0,0.0,0.0,0.0,0.0,0.0,0.0,0.0,1.1039999999999992,1.1039999999999992,0.0,0.0,0.0,55.0,616.79921,10000.0,85.000001,85.000001,85.000001,85.000001,395.0,0.0,0.0,0.0,1.0,166.665,53.04,53.04,47.897,47.897,34.0,-23.82,25.613333333333333,-28.933333333333334,31.2675,0.0,1782.595,-0.3099999999999987,100.0,27.451999999999998,27.281,42.598,42.75,0.0,0.0,100.0,0.0,0.0,0.0,0.0,3073.714285714286,3178.5,4226.333333333333,4346.4,305.512,304.80975,314.55025,314.10825,21.9547,20.5942,21.9679,21.4797,314.999998,314.999998,324.999988,324.999988,99.5589,99.50673333333333,99.56755714285714,99.54758571428572,0.09125000000000005,-0.02733333333333321,-0.09250000000000003,0.1346666666666667,-0.046666666666666856,-0.04749999999999943,1.4945,1.4785,38.217,29.714,38.3,35.2485,55.811,34.8125,59.5515,52.567499999999995,53.735,33.959,58.138999999999996,50.9065,52.878,33.5075,58.0475,50.327666666666666,-0.09850000000000003,-0.0475000000000001,0.11177500000000001,0.11139,0.0,216.865,216.885,213.55,213.55,0.0,0.0
23,0.0,0.0,0.0,1.0,1.0,0.0,0.0,1.0,0.0,0.0,1.0,1.1856,26.0,0.0,0.0,0.0,59.999996,0.0,26.0,26.0,26.0,26.0,0.027111111111111086,0.27970000000000006,0.005275,292.984,-2.6788,-2.6871111111111112,-1.53255,-1.4925000000000002,-197.55,215.4075,190.5005,0.0,0.0,0.0,0.0,0.047,-5.498166666666667,-5.498166666666667,-0.5735,-0.2835000000000001,0.011624999999999996,-0.6179999999999999,69.416,0.014700000000000001,-0.228,-0.21999999999999975,100.0,1.0,1.0,214.04000000000002,0.0,0.0,0.0,0.0,0.0,0.0,0.0,9072.4,0.0,3.0,5.0,249.87,1.0,0.0,0.0,0.0,0.0,0.0,0.0,0.0,1.1550000000000011,1.1550000000000011,0.0,0.0,1.0,55.0,616.79921,10000.0,85.000001,85.000001,85.000001,85.000001,395.0,0.0,0.0,0.0,1.0,333.33500000000004,53.116,53.116,48.218,48.218,34.0,-23.009999999999998,23.866666666666667,-27.323333333333334,29.127499999999998,0.0,1782.543,-0.3299999999999983,100.0,27.485,27.584,42.658,43.032,0.0,0.0,100.0,0.0,0.0,0.0,0.0,3089.857142857143,2967.6,4112.444444444444,4172.4,305.5365,305.215,314.81725,314.525,21.9641,20.5997,21.9784,21.4889,314.999998,314.999998,324.999988,324.999988,99.5589,99.50675,99.5677,99.54774285714285,0.09100000000000019,-0.04066666666666663,-0.09166666666666656,0.13083333333333336,-0.04999999999999716,-0.04625000000000057,1.5205,1.5135,38.275999999999996,29.747999999999998,38.364999999999995,35.3055,55.798,34.852000000000004,59.589,52.6295,53.722,33.995,58.174,50.966,52.864000000000004,33.542,58.079,50.385999999999996,-0.10499999999999998,-0.052000000000000046,0.100525,0.11452500000000002,0.0,217.285,217.29500000000002,214.04000000000002,214.04000000000002,0.0,0.0
24,0.0,0.0,0.0,1.0,1.0,0.0,0.0,1.0,0.0,0.0,1.0,1.1856,26.0,0.0,0.0,0.0,59.999996,0.0,26.0,26.0,26.0,26.0,0.03577777777777791,0.26470000000000016,-0.069375,293.411,-2.7317,-2.686,-1.54785,-1.5394999999999999,-194.22,215.4,190.4775,0.0,0.0,0.0,0.0,0.04896666666666667,-5.498166666666667,-5.498166666666667,-0.5877,-0.4535,0.02287499999999998,-0.29800000000000004,69.545,0.0132,-0.221975,-0.18399999999999928,100.0,1.0,1.0,214.48666666666668,0.0,0.0,0.0,0.0,0.0,0.0,0.0,9091.3,0.0,3.0,5.0,250.33333333333334,0.0,0.0,0.0,0.0,0.0,0.0,0.0,0.0,1.2029999999999994,1.2029999999999994,0.0,0.0,0.0,55.0,616.79921,10000.0,85.000001,85.000001,85.000001,85.000001,395.0,0.0,0.0,0.0,1.0,333.33500000000004,53.635,53.635,48.522999999999996,48.522999999999996,34.0,-22.45,23.576666666666668,-27.276666666666664,28.1125,0.0,1782.495,-0.3550000000000004,100.0,27.198999999999998,27.309,42.511,42.900999999999996,0.0,0.0,100.0,0.0,0.0,0.0,0.0,2989.857142857143,2943.0,4018.6666666666665,4049.6000000000004,305.91,305.32975,315.09825,314.7925,21.9728,20.6047,21.9881,21.4975,314.999998,314.999998,324.999988,324.999988,99.55892857142857,99.50675,99.56782857142858,99.54788571428571,0.09299999999999997,-0.040999999999999925,-0.10483333333333333,0.12016666666666675,-0.046666666666666856,-0.038750000000000284,1.543,1.543,38.33,29.779666666666664,38.426,35.359,55.784,34.887,59.623,52.686,53.709,34.0275,58.2055,51.021,52.85,33.573,58.108000000000004,50.43966666666667,-0.10399999999999998,-0.05049999999999999,0.102635,0.10947000000000001,0.0,217.66500000000002,217.68,214.48666666666668,214.48666666666668,0.0,0.0
25,0.0,0.0,0.0,1.0,1.0,0.0,0.0,1.0,0.0,0.0,1.0,1.1856,26.0,0.0,0.0,0.0,59.999996,0.0,26.0,26.0,26.0,26.0,0.041777777777777914,0.27300000000000013,0.00355,292.923,-2.6955999999999998,-2.664888888888889,-1.5632000000000001,-1.5434,-190.45999999999998,215.39,190.45025,0.0,0.0,0.0,0.0,0.051133333333333336,-5.498166666666667,-5.498166666666667,-0.5956,0.49649999999999994,0.020499999999999963,-0.992,69.689,0.0146,-0.21432500000000002,-0.28200000000000003,100.0,1.0,1.0,214.93666666666667,0.0,0.0,0.0,0.0,0.0,0.0,0.0,9110.3,0.0,3.0,5.0,250.85000000000002,1.0,0.0,0.0,0.0,0.0,0.0,0.0,0.0,1.256999999999998,1.256999999999998,0.0,0.0,1.0,55.0,616.79921,10000.0,85.000001,85.000001,85.000001,85.000001,395.0,0.0,0.0,0.0,1.0,166.665,52.719,52.719,48.385999999999996,48.385999999999996,34.0,-23.815,25.605,-27.663333333333334,29.0375,0.0,1782.442,-0.379999999999999,100.0,27.436,27.736,42.315,42.712,0.0,0.0,100.0,0.0,0.0,0.0,0.0,3203.285714285714,3121.9,4121.111111111111,4084.9,305.2295,304.71,314.90625,314.723,21.9827,20.6107,21.9991,21.5071,314.999998,314.999998,324.999988,324.999988,99.55892857142857,99.50675,99.568,99.54802857142857,0.09850000000000003,-0.02966666666666673,-0.09283333333333332,0.13216666666666677,-0.06333333333333258,-0.03499999999999659,1.54,1.5454999999999999,38.391999999999996,29.816666666666666,38.494,35.419,55.769999999999996,34.929,59.6605,52.7495,53.695,34.067,58.2405,51.082,52.835,33.6105,58.1395,50.49933333333333,-0.10699999999999998,-0.04400000000000004,0.10323500000000001,0.11148000000000001,0.0,218.14499999999998,218.14499999999998,214.93666666666667,214.93666666666667,0.0,0.0
26,0.0,0.0,0.0,1.0,1.0,0.0,0.0,1.0,0.0,0.0,1.0,1.1856,26.0,0.0,0.0,0.0,59.999996,0.0,26.0,26.0,26.0,26.0,0.04366666666666674,0.27070000000000016,0.047825,292.374,-2.7308,-2.654777777777778,-1.55315,-1.5413999999999999,-187.11,215.385,190.42625,0.0,0.0,0.0,0.0,0.0531,-5.498166666666667,-5.498166666666667,-0.5708,-0.052999999999999936,0.01475000000000004,-0.6299999999999999,69.819,0.0167,-0.20650000000000002,-0.28200000000000003,100.0,1.0,1.0,215.16,0.0,0.0,0.0,0.0,0.0,0.0,0.0,9119.9,0.0,3.0,5.0,251.32,0.0,0.0,0.0,0.0,0.0,0.0,0.0,0.0,1.3049999999999997,1.3049999999999997,0.0,0.0,0.0,55.0,616.79921,10000.0,85.000001,85.000001,85.000001,85.000001,395.0,0.0,0.0,0.0,1.0,333.33500000000004,52.765,52.765,47.287,47.287,34.0,-22.335,24.551666666666666,-30.153333333333332,31.025,0.0,1782.394,-0.384999999999998,100.0,27.826999999999998,27.947,42.929,43.367000000000004,0.0,0.0,100.0,0.0,0.0,0.0,0.0,3044.857142857143,3054.6,4342.222222222223,4290.1,305.665,305.00625,314.33675,314.154,21.9916,20.6159,22.009,21.5158,314.999998,314.999998,324.999988,324.999988,99.55895714285714,99.50676666666666,99.56814285714286,99.54818571428571,0.10950000000000015,-0.03533333333333322,-0.10050000000000003,0.12716666666666687,-0.04999999999999716,-0.038750000000000284,1.4615,1.455,38.447,29.849666666666664,38.557,35.474000000000004,55.759,34.966499999999996,59.698499999999996,52.81,53.685,34.1015,58.2755,51.14,52.824,33.6435,58.1715,50.556333333333335,-0.11049999999999993,-0.04849999999999999,0.11073000000000001,0.10786000000000001,0.0,218.535,218.55,215.16,215.16,0.0,0.0
27,0.0,0.0,0.0,1.0,1.0,0.0,0.0,1.0,0.0,0.0,1.0,1.1856,26.0,0.0,0.0,0.0,59.999996,0.0,26.0,26.0,26.0,26.0,0.043888888888888866,0.25570000000000004,-0.055,292.801,-2.7713,-2.672555555555556,-1.63835,-1.5234,-183.76,215.3775,190.402875,0.0,0.0,0.0,0.0,0.05503333333333334,-5.498166666666667,-5.498166666666667,-0.6022000000000001,-0.6160000000000001,0.020499999999999963,-0.754,69.944,0.020900000000000002,-0.24075000000000002,-0.28799999999999937,100.0,1.0,1.0,215.72,0.0,0.0,0.0,0.0,0.0,0.0,0.0,9143.6,0.0,3.0,5.0,251.76999999999998,1.0,0.0,0.0,0.0,0.0,0.0,0.0,0.0,1.352999999999998,1.352999999999998,0.0,0.0,1.0,55.0,616.79921,10000.0,85.000001,85.000001,85.000001,85.000001,395.0,0.0,0.0,0.0,1.0,333.33500000000004,52.765,52.765,48.355000000000004,48.355000000000004,34.0,-24.2475,25.195,-26.936666666666664,28.905,0.0,1782.345,-0.3999999999999986,100.0,27.542,27.871000000000002,43.049,43.415,0.0,0.0,100.0,0.0,0.0,0.0,0.0,3185.285714285714,3080.0,3894.3333333333335,4067.8,305.3815,304.9085,315.425,314.78275,22.0003,20.6211,22.0189,21.5245,314.999998,314.999998,324.999988,324.999988,99.55895714285714,99.50676666666666,99.56827142857144,99.54832857142857,0.0987499999999999,-0.030333333333333323,-0.09766666666666657,0.13783333333333325,-0.03333333333333144,-0.04625000000000057,1.573,1.545,38.501999999999995,29.881999999999998,38.617999999999995,35.528,55.745999999999995,35.003,59.733000000000004,52.868,53.673,34.1355,58.308,51.195499999999996,52.811,33.676,58.201,50.61066666666667,-0.10799999999999998,-0.050999999999999934,0.10477500000000001,0.11298000000000001,0.0,218.885,218.91500000000002,215.72,215.72,0.0,0.0
28,0.0,0.0,0.0,1.0,1.0,0.0,0.0,1.0,0.0,0.0,1.0,1.1856,26.0,0.0,0.0,0.0,59.999996,0.0,26.0,26.0,26.0,26.0,0.03666666666666685,0.27760000000000007,-0.014175,292.786,-2.7306,-2.6847777777777777,-1.56265,-1.5385,-180.19,215.3725,190.37675,0.0,0.0,0.0,0.0,0.057100000000000005,-5.498166666666667,-5.498166666666667,-0.5942000000000001,0.35850000000000004,0.007749999999999924,0.5510000000000002,70.07900000000001,0.0201,-0.205875,-0.38200000000000056,100.0,1.0,1.0,216.07,0.0,0.0,0.0,0.0,0.0,0.0,0.0,9158.4,0.0,3.0,5.0,252.25666666666666,0.0,0.0,0.0,0.0,0.0,0.0,0.0,0.0,1.404,1.404,0.0,0.0,0.0,55.0,616.79921,10000.0,85.000001,85.000001,85.000001,85.000001,395.0,0.0,0.0,0.0,1.0,166.665,53.146,53.146,47.729,47.729,34.0,-21.31,25.47,-27.406666666666666,30.9925,0.0,1782.295,-0.4450000000000003,100.0,27.735,27.697,42.825,43.041,0.0,0.0,100.0,0.0,0.0,0.0,0.0,2925.714285714286,3066.6,4171.111111111111,4258.3,305.923,305.084,314.716,314.42475,22.0096,20.6267,22.0292,21.5336,314.999998,314.999998,324.999988,324.999988,99.55897142857143,99.50676666666666,99.56841428571428,99.54847142857143,0.11275000000000013,-0.01866666666666661,-0.0771666666666666,0.1423333333333332,-0.036666666666668846,-0.06499999999999773,1.5255,1.5125,38.56,29.917,38.683,35.585,55.733000000000004,35.042500000000004,59.7685,52.9275,53.66,34.1715,58.3405,51.253,52.797,33.711,58.2305,50.666666666666664,-0.11199999999999999,-0.043500000000000094,0.10265500000000001,0.11124500000000001,0.0,219.345,219.365,216.07,216.07,0.0,0.0
29,0.0,0.0,0.0,1.0,1.0,0.0,0.0,1.0,0.0,0.0,1.0,1.1856,26.0,0.0,0.0,0.0,59.999996,0.0,26.0,26.0,26.0,26.0,0.0431111111111111,0.25229999999999997,0.000475,292.328,-2.7671,-2.583555555555556,-1.6007500000000001,-1.5561,-176.61,215.3675,190.350125,0.0,0.0,0.0,0.0,0.0592,-5.498166666666667,-5.498166666666667,-0.611,-0.48449999999999993,0.004249999999999865,-0.5819999999999999,70.213,0.0218,-0.224675,-0.35799999999999965,100.0,1.0,1.0,216.47,0.0,0.0,0.0,0.0,0.0,0.0,0.0,9175.4,0.0,3.0,5.0,252.74,1.0,0.0,0.0,0.0,0.0,0.0,0.0,0.0,1.4549999999999983,1.4549999999999983,0.0,0.0,1.0,55.0,616.79921,10000.0,85.000001,85.000001,85.000001,85.000001,395.0,0.0,0.0,0.0,1.0,111.11,52.109,52.109,47.882,47.882,34.0,-25.515,27.031666666666666,-27.943333333333335,29.2175,0.0,1782.245,-0.5150000000000006,100.0,27.632,27.867,43.025,43.436,0.0,0.0,100.0,0.0,0.0,0.0,0.0,3374.857142857143,3305.9,4079.5555555555557,4078.7,304.8455,304.32575,314.9685,314.69375,22.0189,20.6323,22.0397,21.5428,314.999998,314.999998,324.999988,324.999988,99.55898571428571,99.50678333333333,99.56857142857143,99.54862857142857,0.10650000000000004,-0.014666666666666606,-0.09216666666666662,0.129,-0.045000000000001705,-0.038750000000000284,1.525,1.517,38.617999999999995,29.951666666666668,38.748000000000005,35.6425,55.72,35.0805,59.8065,52.9895,53.647999999999996,34.207,58.376,51.313,52.784,33.745,58.263,50.72533333333333,-0.119,-0.033500000000000085,0.10960500000000001,0.10394500000000001,0.0,219.73000000000002,219.76,216.47,216.47,0.0,0.0
30,0.0,0.0,0.0,1.0,1.0,0.0,0.0,1.0,0.0,0.0,1.0,1.1856,26.0,0.0,0.0,0.0,59.999996,0.0,26.0,26.0,26.0,26.0,0.03788888888888886,0.28659999999999997,0.077125,291.779,-2.7465,-2.645777777777778,-1.5231,-1.4534,-173.23000000000002,215.365,190.325,0.0,0.0,0.0,0.0,0.06116666666666667,-5.498166666666667,-5.498166666666667,-0.5940000000000001,0.7665,0.010624999999999885,-0.4870000000000001,70.339,0.0284,-0.21280000000000002,-0.492,100.0,1.0,1.0,216.75,0.0,0.0,0.0,0.0,0.0,0.0,0.0,9187.2,0.0,3.0,5.0,253.19,0.0,0.0,0.0,0.0,0.0,0.0,1.0,0.0,1.5030000000000001,1.5030000000000001,0.0,0.0,0.0,55.0,616.79921,10000.0,85.000001,85.000001,85.000001,85.000001,395.0,0.0,0.0,0.0,1.0,333.33500000000004,52.063,52.063,47.104,47.104,34.0,-23.2425,24.941666666666666,-28.786666666666665,32.525,0.0,1782.195,-0.46000000000000085,100.0,28.341,28.539,43.028999999999996,43.58,0.0,0.0,100.0,0.0,0.0,0.0,0.0,3153.0,3062.2,4368.777777777777,4540.0,305.3425,304.854,314.24575,313.7535,22.0279,20.6377,22.0495,21.5515,314.999998,314.999998,324.999988,324.999988,99.559,99.50678333333333,99.56871428571428,99.54875714285714,0.11399999999999988,-0.02966666666666673,-0.08050000000000002,0.14349999999999996,-0.05333333333332746,-0.03999999999999915,1.4805,1.459,38.674,29.985666666666667,38.81,35.697,55.711,35.1195,59.841,53.048,53.638999999999996,34.243,58.408,51.369,52.774,33.7795,58.292,50.78,-0.12249999999999994,-0.046499999999999986,0.10539000000000001,0.10597000000000001,0.0,220.17000000000002,220.185,216.75,216.75,0.0,0.0
31,0.0,0.0,0.0,1.0,1.0,0.0,0.0,1.0,0.0,0.0,1.0,1.1856,26.0,0.0,0.0,0.0,59.999996,0.0,26.0,26.0,26.0,26.0,0.047666666666666746,0.25239999999999996,-0.031900000000000005,292.023,-2.7185,-2.7015555555555557,-1.60155,-1.5337,-169.64,215.3625,190.29925,0.0,0.0,0.0,0.0,0.06323333333333334,-5.498166666666667,-5.498166666666667,-0.5894,-0.4495,0.02024999999999988,0.3660000000000001,70.471,0.0267,-0.22565000000000002,-0.5360000000000005,100.0,1.0,1.0,217.20666666666668,0.0,0.0,0.0,0.0,0.0,0.0,0.0,9206.5,0.0,3.0,5.0,253.67000000000002,1.0,0.0,0.0,0.0,0.0,0.0,1.0,0.0,1.5539999999999985,1.5539999999999985,0.0,0.0,1.0,55.0,616.79921,10000.0,85.000001,85.000001,85.000001,85.000001,395.0,0.0,0.0,0.0,1.0,333.33500000000004,52.399,52.399,46.814,46.814,34.0,-20.13,26.814999999999998,-27.669999999999998,31.825000000000003,0.0,1782.145,-0.5350000000000001,100.0,28.182,28.489,43.687,44.095,0.0,0.0,100.0,0.0,0.0,0.0,0.0,2867.857142857143,3183.0,4093.4444444444443,4288.1,306.038,304.67925,314.90675,314.31075,22.0371,20.6434,22.0601,21.561,314.999998,314.999998,324.999988,324.999988,99.55901428571428,99.50678333333333,99.56885714285714,99.54891428571429,0.12924999999999986,-0.01866666666666661,-0.08150000000000002,0.15000000000000013,-0.046666666666666856,-0.042499999999996874,1.503,1.4829999999999999,38.732,30.021333333333335,38.876000000000005,35.756,55.699,35.1595,59.8795,53.1115,53.626999999999995,34.28,58.444,51.4305,52.760999999999996,33.815,58.3245,50.84,-0.12749999999999995,-0.045500000000000096,0.109755,0.10879000000000001,0.0,220.54000000000002,220.555,217.20666666666668,217.20666666666668,0.0,0.0
32,0.0,0.0,0.0,1.0,1.0,0.0,0.0,1.0,0.0,0.0,1.0,1.1856,26.0,0.0,0.0,0.0,59.999996,0.0,26.0,26.0,26.0,26.0,0.05333333333333323,0.2619,-0.087175,292.419,-2.7727,-2.655555555555556,-1.6578,-1.5451000000000001,-166.05,215.3625,190.27325,0.0,0.0,0.0,0.0,0.06533333333333334,-5.498166666666667,-5.498166666666667,-0.6083000000000001,-0.21300000000000008,-0.0068749999999999645,-0.9460000000000002,70.601,0.030500000000000003,-0.22610000000000002,-0.4479999999999995,100.0,1.0,1.0,217.70666666666668,0.0,0.0,0.0,0.0,0.0,0.0,0.0,9227.8,0.0,3.0,5.0,254.13666666666666,0.0,0.0,0.0,0.0,0.0,0.0,1.0,0.0,1.6050000000000004,1.6050000000000004,0.0,0.0,0.0,55.0,616.79921,10000.0,85.000001,85.000001,85.000001,85.000001,395.0,0.0,0.0,0.0,1.0,166.665,52.551,52.551,47.821,47.821,34.0,-23.5175,24.986666666666665,-28.016666666666666,28.9075,0.0,1782.095,-0.504999999999999,100.0,27.89,28.272,43.277,43.908,0.0,0.0,100.0,0.0,0.0,0.0,0.0,3180.0,3024.3,4080.0,4047.5,305.418,305.11275,315.0945,314.896,22.0464,20.649,22.0705,21.5702,314.999998,314.999998,324.999988,324.999988,99.55904285714286,99.50678333333333,99.56901428571429,99.54907142857142,0.11474999999999991,-0.018000000000000016,-0.08433333333333337,0.1373333333333333,-0.04333333333332945,-0.03750000000000142,1.56,1.5514999999999999,38.79,30.056333333333335,38.94,35.8135,55.686,35.198,59.914500000000004,53.1715,53.614999999999995,34.3155,58.4765,51.488,52.748000000000005,33.849000000000004,58.3535,50.89633333333333,-0.118,-0.040999999999999925,0.11087000000000001,0.10146500000000001,0.0,220.94,220.95,217.70666666666668,217.70666666666668,0.0,0.0
33,0.0,0.0,0.0,1.0,1.0,0.0,0.0,1.0,0.0,0.0,1.0,1.1856,26.0,0.0,0.0,0.0,59.999996,0.0,26.0,26.0,26.0,26.0,0.05711111111111111,0.2793000000000001,-0.015875,292.358,-2.7126,-2.646111111111111,-1.65625,-1.53,-162.64999999999998,215.3625,190.2475,0.0,0.0,0.0,0.0,0.0673,-5.498166666666667,-5.498166666666667,-0.6159,-0.248,0.003874999999999851,-0.1589999999999998,70.726,0.037200000000000004,-0.212625,-0.5199999999999996,100.0,1.0,1.0,218.01,0.0,0.0,0.0,0.0,0.0,0.0,0.0,9240.7,0.0,3.0,5.0,254.58666666666664,1.0,0.0,0.0,0.0,0.0,0.0,1.0,0.0,1.6529999999999987,1.6529999999999987,0.0,0.0,1.0,55.0,616.79921,10000.0,85.000001,85.000001,85.000001,85.000001,395.0,0.0,0.0,0.0,1.0,333.33500000000004,52.826,52.826,47.44,47.44,34.0,-22.37,24.939999999999998,-29.32,30.5475,0.0,1782.046,-0.4549999999999983,100.0,27.715,28.045,43.176,43.745000000000005,0.0,0.0,100.0,0.0,0.0,0.0,0.0,3078.285714285714,3046.1,4236.555555555556,4207.6,305.6115,305.06,314.69225,314.479,22.0551,20.6542,22.0802,21.5788,314.999998,314.999998,324.999988,324.999988,99.55904285714286,99.50678333333333,99.56915714285714,99.54921428571429,0.11100000000000021,-0.02200000000000002,-0.08083333333333331,0.14200000000000013,-0.06499999999999773,-0.042499999999996874,1.525,1.5155,38.844,30.089,39.001999999999995,35.8675,55.675,35.2335,59.949,53.228,53.604,34.3485,58.5085,51.542,52.736000000000004,33.8805,58.3825,50.949333333333335,-0.11499999999999999,-0.040999999999999925,0.10473,0.10677,0.0,221.32,221.35500000000002,218.01,218.01,0.0,0.0
34,0.0,0.0,0.0,1.0,1.0,0.0,0.0,1.0,0.0,0.0,1.0,1.1856,26.0,0.0,0.0,0.0,59.999996,0.0,26.0,26.0,26.0,26.0,0.0755555555555556,0.24750000000000005,-0.11455,292.908,-2.775,-2.615666666666667,-1.6022500000000002,-1.5590000000000002,-158.82999999999998,215.365,190.217,0.0,0.0,0.0,0.0,0.06953333333333334,-5.498166666666667,-5.498166666666667,-0.6569,-1.0135,0.02212499999999995,-0.7839999999999998,70.863,0.0374,-0.2283,-0.45999999999999996,100.0,1.0,1.0,218.49,0.0,0.0,0.0,0.0,0.0,0.0,0.0,9261.0,0.0,3.0,5.0,255.08333333333334,0.0,0.0,0.0,0.0,0.0,0.0,1.0,0.0,1.7070000000000007,1.7070000000000007,0.0,0.0,0.0,55.0,616.79921,10000.0,85.000001,85.000001,85.000001,85.000001,395.0,0.0,0.0,0.0,1.0,166.665,53.345,53.345,47.958,47.958,34.0,-21.33,25.591666666666665,-25.8,29.4325,0.0,1781.993,-0.4299999999999997,100.0,27.288,27.753,42.965,43.755,0.0,0.0,100.0,0.0,0.0,0.0,0.0,2919.0,3109.4,3951.222222222222,3986.1000000000004,306.124,304.90025,315.29675,314.886,22.0647,20.66,22.0912,21.5886,314.999998,314.999998,324.999988,324.999988,99.55905714285714,99.5068,99.56931428571428,99.54937142857143,0.1160000000000001,-0.0129999999999999,-0.07266666666666666,0.14883333333333337,-0.054999999999999716,-0.058749999999996305,1.561,1.536,38.903999999999996,30.125333333333334,39.07,35.929,55.659,35.272,59.985,53.293,53.589,34.384,58.542,51.6045,52.72,33.915,58.4125,51.010333333333335,-0.10699999999999998,-0.04049999999999998,0.10371000000000001,0.10836000000000001,0.0,221.74,221.765,218.49,218.49,0.0,0.0
35,0.0,0.0,0.0,1.0,1.0,0.0,0.0,1.0,0.0,0.0,1.0,1.1856,26.0,0.0,0.0,0.0,59.999996,0.0,26.0,26.0,26.0,26.0,0.05966666666666676,0.2570000000000001,-0.0332,292.358,-2.7947,-2.666666666666667,-1.6043500000000002,-1.5152999999999999,-155.43,215.3675,190.188,0.0,0.0,0.0,0.0,0.07150000000000001,-5.498166666666667,-5.498166666666667,-0.6731,0.4315,-0.01200000000000001,-1.504,70.985,0.0375,-0.21655000000000002,-0.3200000000000003,100.0,1.0,1.0,218.88333333333333,0.0,0.0,0.0,0.0,0.0,0.0,0.0,9277.7,0.0,3.0,5.0,255.51666666666665,1.0,0.0,0.0,0.0,0.0,0.0,1.0,0.0,1.754999999999999,1.754999999999999,0.0,0.0,1.0,55.0,616.79921,10000.0,85.000001,85.000001,85.000001,85.000001,395.0,0.0,0.0,0.0,1.0,166.665,52.155,52.155,48.065,48.065,34.0,-25.1475,26.273333333333333,-26.81,30.5225,0.0,1781.945,-0.3150000000000013,100.0,27.629,28.3,42.737,43.264,0.0,0.0,100.0,0.0,0.0,0.0,0.0,3333.5714285714284,3176.4,4055.6666666666665,4159.4,304.9835,304.558,315.10675,314.6465,22.0733,20.6655,22.1008,21.5972,314.999998,314.999998,324.999988,324.999988,99.55907142857143,99.5068,99.56945714285715,99.54951428571428,0.11299999999999999,-0.02733333333333321,-0.07583333333333331,0.15566666666666684,-0.051666666666669414,-0.04374999999999574,1.545,1.5265,38.958,30.159666666666666,39.129999999999995,35.982,55.647,35.311,60.016999999999996,53.3465,53.578,34.42,58.572,51.6565,52.707,33.949,58.439499999999995,51.061,-0.10449999999999993,-0.058499999999999996,0.11165000000000001,0.1053,0.0,222.14,222.15,218.88333333333333,218.88333333333333,0.0,0.0
