,ABS Active,ABS Enabled,AID Allow Tire Blankets,AID Auto Blip,AID Auto Clutch,AID Auto Shift,AID Fuel Rate,AID Ideal Line,AID Mech Damage,AID Stability,AID Tire Wear Rate,Air Density,Air Temp,Ballast,Best Lap Delta,Best Lap Time,Brake Bias,Brake Pos,Brake Temp FL,Brake Temp FR,Brake Temp RL,Brake Temp RR,CG Accel Lateral,CG Accel Longitudinal,CG Accel Vertical,CG Height,Camber FL,Camber FR,Camber RL,Camber RR,Car Coord X,Car Coord Y,Car Coord Z,Car Damage Front,Car Damage Left,Car Damage Rear,Car Damage Right,Car Pos Norm,Caster FL,Caster FR,Chassis Pitch Angle,Chassis Pitch Rate,Chassis Roll Angle,Chassis Roll Rate,Chassis Velocity X,Chassis Velocity Y,Chassis Velocity Z,Chassis Yaw Rate,Clutch Pos,DRS Active,DRS Available,Drive Train Speed,ERS Heat Charging,ERS Is Charging,ERS Max Energy,ERS Power Level,ERS Recovery Level,Engine Brake Setting,Engine Limiter,Engine RPM,Flags,Fuel Level,Gear,Ground Speed,HR Sample Clock,In Pit,KERS Charge,KERS Deployed Energy,KERS Input,KERS Max Energy,LR Sample Clock,Lap Invalidated,Lap Time,Lap Time2,Last Lap Time,Last Sector Time,MR Sample Clock,Max Fuel,Max Power,Max RPM,Max Sus Travel FL,Max Sus Travel FR,Max Sus Travel RL,Max Sus Travel RR,Max Torque,Max Turbo Boost,Num Tires Off Track,Penalties Enabled,Position,Raw Data Sample Rate,Ride Height FL,Ride Height FR,Ride Height RL,Ride Height RR,Road Temp,Self Align Torque FL,Self Align Torque FR,Self Align Torque RL,Self Align Torque RR,Session Lap Count,Session Time Left,Steering Angle,Surface Grip,Suspension Travel FL,Suspension Travel FR,Suspension Travel RL,Suspension Travel RR,TC Active,TC Enabled,Throttle Pos,Tire Dirt Level FL,Tire Dirt Level FR,Tire Dirt Level RL,Tire Dirt Level RR,Tire Load FL,Tire Load FR,Tire Load RL,Tire Load RR,Tire Loaded Radius FL,Tire Loaded Radius FR,Tire Loaded Radius RL,Tire Loaded Radius RR,Tire Pressure FL,Tire Pressure FR,Tire Pressure RL,Tire Pressure RR,Tire Radius FL,Tire Radius FR,Tire Radius RL,Tire Radius RR,Tire Rubber Grip FL,Tire Rubber Grip FR,Tire Rubber Grip RL,Tire Rubber Grip RR,Tire Slip Angle FL,Tire Slip Angle FR,Tire Slip Angle RL,Tire Slip Angle RR,Tire Slip Ratio FL,Tire Slip Ratio FR,Tire Slip Ratio RL,Tire Slip Ratio RR,Tire Temp Core FL,Tire Temp Core FR,Tire Temp Core RL,Tire Temp Core RR,Tire Temp Inner FL,Tire Temp Inner FR,Tire Temp Inner RL,Tire Temp Inner RR,Tire Temp Middle FL,Tire Temp Middle FR,Tire Temp Middle RL,Tire Temp Middle RR,Tire Temp Outer FL,Tire Temp Outer FR,Tire Temp Outer RL,Tire Temp Outer RR,Toe In FL,Toe In FR,Toe In RL,Toe In RR,Turbo Boost,Wheel Angular Speed FL,Wheel Angular Speed FR,Wheel Angular Speed RL,Wheel Angular Speed RR,Wind Direction,Wind Speed
0,0.0,0.0,0.0,1.0,1.0,0.0,0.0,1.0,0.0,0.0,1.0,1.1856,26.0,0.0,0.0,0.0,59.99999,0.0,26.0,26.0,26.0,26.0,-0.06666666666666665,-0.33729999999999993,0.10046666666666666,293.884,-2.7263,-2.658444444444444,-1.5204,-1.5546,-275.73,216.29250000000002,190.98775,0.0,0.0,0.0,0.0,0.0015666666666666667,-5.498166666666667,-5.498166666666667,-0.5821000000000001,-0.375,-0.00533333333333319,-1.112,65.33,-0.03289999999999993,-0.238825,0.9420000000000002,100.0,1.0,1.0,198.59333333333333,0.0,0.0,0.0,0.0,0.0,0.0,0.0,9650.5,0.0,55.0,0.0,235.2266666666667,0.0,0.0,0.0,0.0,0.0,0.0,0.0,0.0,0.0030000000000001137,0.0030000000000001137,0.0,0.0,0.0,55.0,616.79921,10000.0,85.0,85.0,85.0,85.0,395.0,0.0,0.0,0.0,1.0,20.0,51.666,51.666,50.339,50.339,34.0,-30.5875,27.034,-31.433333333333334,25.7925,0.0,1782.869,0.75,100.0,27.196,26.686,40.548,40.696,0.0,1.0,0.0,0.0,0.0,0.0,0.0,3427.5714285714284,3748.0,3790.125,3669.4,304.543,302.911,315.59225,315.60925,21.7385,20.502299999999998,21.63811111111111,21.1927,314.99999,314.99999,324.99998,324.99998,99.55638571428571,99.50688333333333,99.55885714285715,99.54012857142857,-0.0009999999999998899,-0.10966666666666658,-0.15600000000000003,0.056499999999999995,0.00999999999999801,0.013333333333328312,-0.02333333333333333,0.017,36.864999999999995,29.139499999999998,36.238,33.454499999999996,55.297,34.260999999999996,56.9155,49.834,53.272,33.478,55.6245,48.294333333333334,52.463,33.07966666666667,55.602000000000004,47.76,-0.01849999999999996,-0.13050000000000006,0.09515000000000001,0.09918,0.0,204.78,204.66,198.62,198.56666666666666,0.0,0.0
1,0.0,0.0,0.0,1.0,1.0,0.0,0.0,1.0,0.0,0.0,1.0,1.1856,26.0,0.0,0.0,0.0,59.999996,0.0,26.0,26.0,26.0,26.0,-0.12788888888888894,0.32330000000000014,0.0801,292.648,-2.6309,-2.757888888888889,-1.5121,-1.5455,-272.4,216.28750000000002,190.967375,0.0,0.0,0.0,0.0,0.0035,-5.498166666666667,-5.498166666666667,-0.5221,1.067,-0.05833333333333357,-0.28500000000000003,65.37,-0.04830000000000001,-0.224725,1.346,100.0,1.0,1.0,201.53333333333333,0.0,0.0,0.0,0.0,0.0,0.0,0.0,8542.3,0.0,55.0,5.0,235.29666666666668,1.0,0.0,0.0,0.0,0.0,0.0,0.0,0.0,0.053999999999998494,0.053999999999998494,0.0,0.0,1.0,55.0,616.79921,10000.0,85.000001,85.000001,85.000001,85.000001,395.0,0.0,0.0,0.0,1.0,55.556,52.368,52.368,48.553,48.553,34.0,-27.064999999999998,18.534,-35.82666666666667,28.9775,0.0,1782.819,0.865000000000002,100.0,28.752,27.932,41.938,41.042,0.0,1.0,100.0,0.0,0.0,0.0,0.0,3104.4285714285716,2747.7,4508.75,4739.0,305.1535,305.94866666666667,313.79425,313.05975,21.7485,20.5078,21.648333333333333,21.2012,314.999998,314.999998,324.999988,324.999988,99.55638571428571,99.50691666666667,99.55897142857143,99.54024285714286,-0.004999999999999893,-0.14200000000000002,-0.1835,0.03533333333333322,-0.015000000000000568,-0.041666666666671404,1.4086666666666667,1.4706666666666668,36.928,29.174,36.302,33.5075,55.288,34.308,56.945,49.8795,53.263,33.5215,55.652,48.338,52.453,33.12133333333333,55.626999999999995,47.803,-0.01200000000000001,-0.14800000000000013,0.10818000000000001,0.10325000000000001,0.0,204.87,204.75,201.53333333333333,201.53333333333333,0.0,0.0
2,0.0,0.0,0.0,1.0,1.0,0.0,0.0,1.0,0.0,0.0,1.0,1.1856,26.0,0.0,0.0,0.0,59.999996,0.0,26.0,26.0,26.0,26.0,-0.13311111111111107,0.2974000000000001,-0.11863333333333333,293.808,-2.6316,-2.758,-1.5147,-1.5204,-268.08,216.275,190.9435,0.0,0.0,0.0,0.0,0.006,-5.498166666666667,-5.498166666666667,-0.5503,0.395,-0.01644444444444426,2.051,65.557,-0.07169999999999999,-0.251775,1.466000000000001,100.0,1.0,1.0,202.59333333333333,0.0,0.0,0.0,0.0,0.0,0.0,0.0,8587.1,0.0,55.0,5.0,235.9766666666667,0.0,0.0,0.0,0.0,0.0,0.0,0.0,0.0,0.120000000000001,0.120000000000001,0.0,0.0,0.0,55.0,616.79921,10000.0,85.000001,85.000001,85.000001,85.000001,395.0,0.0,0.0,0.0,1.0,55.556,52.429,52.429,50.415,50.415,34.0,-27.4775,19.742,-27.82333333333333,20.427500000000002,0.0,1782.752,0.6700000000000017,100.0,28.5,27.414,42.042,41.133,0.0,1.0,100.0,0.0,0.0,0.0,0.0,3090.142857142857,2985.0,3615.875,3861.6,305.2795,305.343,315.9565,315.20925,21.7611,20.5141,21.66133333333333,21.2122,314.999998,314.999998,324.999988,324.999988,99.55638571428571,99.50693333333334,99.55915714285715,99.5404,-0.020750000000000046,-0.15466666666666662,-0.21550000000000002,0.010833333333333472,-0.051666666666669414,-0.061666666666667425,1.659,1.6833333333333333,37.007,29.213,36.384,33.576499999999996,55.272,34.3585,57.003,49.963,53.248000000000005,33.568,55.706,48.418,52.437,33.16566666666667,55.6775,47.88166666666667,-0.020000000000000018,-0.14049999999999985,0.10084000000000001,0.10887000000000001,0.0,205.45,205.3,202.59333333333333,202.59333333333333,0.0,0.0
3,0.0,0.0,0.0,1.0,1.0,0.0,0.0,1.0,0.0,0.0,1.0,1.1856,26.0,0.0,0.0,0.0,59.999996,0.0,26.0,26.0,26.0,26.0,-0.13022222222222213,0.3136000000000001,-0.04086666666666667,293.51800000000003,-2.7296,-2.6782222222222223,-1.5138,-1.5796000000000001,-265.92,216.26749999999998,190.93075,0.0,0.0,0.0,0.0,0.007266666666666668,-5.498166666666667,-5.498166666666667,-0.5264,0.6505,-0.002777777777777768,-0.618,65.658,-0.08039999999999992,-0.21285,1.2739999999999991,100.0,1.0,1.0,202.66,0.0,0.0,0.0,0.0,0.0,0.0,0.0,8590.0,0.0,55.0,5.0,236.33333333333331,1.0,0.0,0.0,0.0,0.0,0.0,0.0,0.0,0.1529999999999987,0.1529999999999987,0.0,0.0,1.0,55.0,616.79921,10000.0,85.000001,85.000001,85.000001,85.000001,395.0,0.0,0.0,0.0,1.0,55.556,53.04,53.04,48.676,48.676,34.0,-26.255,18.226,-33.86666666666666,23.392500000000002,0.0,1782.719,0.6449999999999996,100.0,28.188,27.51,41.947,41.178,0.0,1.0,100.0,0.0,0.0,0.0,0.0,2902.857142857143,2835.8,4231.875,4109.7,305.9305,305.64166666666665,314.50475,314.611,21.7672,20.5174,21.66788888888889,21.2177,314.999998,314.999998,324.999988,324.999988,99.55638571428571,99.50693333333334,99.55924285714286,99.5405,-0.021749999999999936,-0.15100000000000002,-0.20799999999999996,0.01416666666666666,-0.02499999999999858,-0.023333333333326323,1.5283333333333333,1.574,37.045,29.234,36.424,33.611,55.262,34.385999999999996,57.0325,50.0065,53.238,33.5935,55.734,48.459666666666664,52.427,33.19,55.7035,47.922666666666665,-0.026499999999999968,-0.12550000000000017,0.10912000000000001,0.11230500000000002,0.0,205.735,205.625,202.66,202.66,0.0,0.0
4,0.0,0.0,0.0,1.0,1.0,0.0,0.0,1.0,0.0,0.0,1.0,1.1856,26.0,0.0,0.0,0.0,59.999996,0.0,26.0,26.0,26.0,26.0,-0.133,0.31610000000000005,0.012333333333333333,293.442,-2.6637,-2.732555555555556,-1.5332,-1.5904,-262.56,216.2525,190.91075,0.0,0.0,0.0,0.0,0.009233333333333333,-5.498166666666667,-5.498166666666667,-0.5484,-0.787,-0.06800000000000006,-0.7030000000000001,65.807,-0.08419999999999994,-0.24095000000000003,1.1340000000000003,100.0,1.0,1.0,203.12666666666667,0.0,0.0,0.0,0.0,0.0,0.0,0.0,8609.8,0.0,55.0,5.0,236.87666666666667,0.0,0.0,0.0,0.0,0.0,0.0,0.0,0.0,0.20400000000000063,0.20400000000000063,0.0,0.0,0.0,55.0,616.79921,10000.0,85.000001,85.000001,85.000001,85.000001,395.0,0.0,0.0,0.0,1.0,55.556,52.765,52.765,48.644999999999996,48.644999999999996,34.0,-28.112499999999997,20.164,-32.733333333333334,21.7975,0.0,1782.669,0.615000000000002,100.0,28.025,27.105,42.655,41.393,0.0,1.0,100.0,0.0,0.0,0.0,0.0,3178.0,3002.2,4118.625,3775.6,305.189,305.31333333333333,314.63475,315.3815,21.7766,20.5225,21.67811111111111,21.2263,314.999998,314.999998,324.999988,324.999988,99.55638571428571,99.50695,99.55938571428571,99.54064285714286,-0.0129999999999999,-0.1416666666666666,-0.1981666666666666,0.02750000000000008,-0.05333333333332746,-0.06666666666666998,1.538,1.6146666666666667,37.104,29.2655,36.488,33.664500000000004,55.245999999999995,34.4275,57.0815,50.0725,53.224000000000004,33.6315,55.7795,48.522666666666666,52.411,33.22666666666667,55.7465,47.984,-0.02949999999999986,-0.121,0.10021500000000001,0.10945,0.0,206.16,206.07,203.12666666666667,203.12666666666667,0.0,0.0
5,0.0,0.0,0.0,1.0,1.0,0.0,0.0,1.0,0.0,0.0,1.0,1.1856,26.0,0.0,0.0,0.0,59.999996,0.0,26.0,26.0,26.0,26.0,-0.12911111111111107,0.2834000000000001,-0.003166666666666667,293.503,-2.6729,-2.758111111111111,-1.5161,-1.5798,-258.22,216.23000000000002,190.88475,0.0,0.0,0.0,0.0,0.011733333333333333,-5.498166666666667,-5.498166666666667,-0.537,0.20450000000000002,-0.07288888888888856,1.189,65.998,-0.08579999999999999,-0.219775,0.9260000000000002,100.0,1.0,1.0,203.66333333333333,0.0,0.0,0.0,0.0,0.0,0.0,0.0,8632.5,0.0,55.0,5.0,237.56333333333333,1.0,0.0,0.0,0.0,0.0,0.0,0.0,0.0,0.2699999999999996,0.2699999999999996,0.0,0.0,1.0,55.0,616.79921,10000.0,85.000001,85.000001,85.000001,85.000001,395.0,0.0,0.0,0.0,1.0,55.556,53.268,53.268,48.828,48.828,34.0,-26.6875,19.934,-32.94,23.9375,0.0,1782.602,0.18499999999999872,100.0,28.017,26.817,42.564,41.17,0.0,1.0,100.0,0.0,0.0,0.0,0.0,3086.714285714286,2871.2,4170.0,4119.0,305.3595,305.743,314.59175,314.60725,21.7892,20.529,21.691111111111113,21.2373,314.999998,314.999998,324.999988,324.999988,99.5564,99.50696666666667,99.55957142857143,99.54081428571429,0.004750000000000032,-0.1266666666666666,-0.1998333333333333,0.023166666666666558,-0.041666666666671404,-0.05833333333333002,1.5413333333333332,1.5723333333333334,37.182,29.305999999999997,36.569,33.733000000000004,55.230999999999995,34.4805,57.143,50.155,53.209,33.68,55.837,48.601333333333336,52.394999999999996,33.272666666666666,55.8005,48.06133333333334,-0.05800000000000005,-0.08800000000000008,0.10397500000000001,0.10929000000000001,0.0,206.8,206.71,203.66333333333333,203.66333333333333,0.0,0.0
6,0.0,0.0,0.0,1.0,1.0,0.0,0.0,1.0,0.0,0.0,1.0,1.1856,26.0,0.0,0.0,0.0,59.999996,0.0,26.0,26.0,26.0,26.0,-0.09977777777777785,0.30000000000000004,-0.022733333333333335,293.625,-2.6427,-2.7384444444444442,-1.5517,-1.6177000000000001,-256.04,216.215,190.871625,0.0,0.0,0.0,0.0,0.013033333333333334,-5.498166666666667,-5.498166666666667,-0.5349,0.127,-0.062333333333333574,-0.488,66.093,-0.0824999999999999,-0.21825,0.8140000000000001,100.0,1.0,1.0,204.0233333333333,0.0,0.0,0.0,0.0,0.0,0.0,0.0,8647.8,0.0,55.0,5.0,237.90666666666667,0.0,0.0,0.0,0.0,0.0,0.0,0.0,0.0,0.3030000000000008,0.3030000000000008,0.0,0.0,0.0,55.0,616.79921,10000.0,85.000001,85.000001,85.000001,85.000001,395.0,0.0,0.0,0.0,1.0,55.556,53.162,53.162,49.057,49.057,34.0,-27.5775,19.912,-32.599999999999994,22.6675,0.0,1782.569,0.045000000000001705,100.0,27.634,26.878,42.425,41.367000000000004,0.0,1.0,100.0,0.0,0.0,0.0,0.0,3215.0,2880.2,4068.25,3933.2,305.141,305.50866666666667,314.92125,314.96725,21.7954,20.5323,21.697666666666667,21.2428,314.999998,314.999998,324.999988,324.999988,99.5564,99.50698333333334,99.55965714285715,99.54091428571428,0.0024999999999999467,-0.1303333333333333,-0.2068333333333333,0.013000000000000123,-0.054999999999999716,-0.05666666666667197,1.5553333333333332,1.5926666666666667,37.221000000000004,29.326999999999998,36.61,33.7675,55.222,34.5065,57.1725,50.1975,53.2,33.704,55.8645,48.64233333333333,52.387,33.29566666666666,55.826,48.101333333333336,-0.0734999999999999,-0.08000000000000007,0.10686000000000001,0.10359000000000002,0.0,207.055,206.99,204.0233333333333,204.0233333333333,0.0,0.0
7,0.0,0.0,0.0,1.0,1.0,0.0,0.0,1.0,0.0,0.0,1.0,1.1856,26.0,0.0,0.0,0.0,59.999996,0.0,26.0,26.0,26.0,26.0,-0.0842222222222222,0.2934000000000001,0.04616666666666667,293.304,-2.6965,-2.7346666666666666,-1.5101,-1.5678,-252.66,216.1925,190.85125,0.0,0.0,0.0,0.0,0.014966666666666666,-5.498166666666667,-5.498166666666667,-0.5348,-0.063,-0.05088888888888876,1.09,66.241,-0.06609999999999994,-0.221675,0.3680000000000003,100.0,1.0,1.0,204.41,0.0,0.0,0.0,0.0,0.0,0.0,0.0,8664.2,0.0,55.0,5.0,238.43666666666667,1.0,0.0,0.0,0.0,0.0,0.0,0.0,0.0,0.3539999999999992,0.3539999999999992,0.0,0.0,1.0,55.0,616.79921,10000.0,85.000001,85.000001,85.000001,85.000001,395.0,0.0,0.0,0.0,1.0,55.556,52.902,52.902,48.903999999999996,48.903999999999996,34.0,-27.54,22.65,-30.77,25.1725,0.0,1782.519,-0.1750000000000007,100.0,27.8,26.671,42.601,41.546,0.0,1.0,100.0,0.0,0.0,0.0,0.0,3249.285714285714,3041.4,4068.75,4108.0,304.887,305.209,314.792,314.6235,21.805,20.537399999999998,21.70777777777778,21.2515,314.999998,314.999998,324.999988,324.999988,99.5564,99.507,99.5598,99.54105714285714,0.027499999999999858,-0.08999999999999997,-0.17416666666666658,0.050000000000000044,-0.04833333333333201,-0.05666666666667197,1.532,1.5523333333333333,37.281,29.359,36.673,33.822,55.209,34.546,57.219,50.2645,53.188,33.7405,55.908500000000004,48.706,52.373999999999995,33.330333333333336,55.867,48.163666666666664,-0.08499999999999996,-0.05799999999999983,0.102995,0.10425500000000001,0.0,207.515,207.46,204.41,204.41,0.0,0.0
8,0.0,0.0,0.0,1.0,1.0,0.0,0.0,1.0,0.0,0.0,1.0,1.1856,26.0,0.0,0.0,0.0,59.999996,0.0,26.0,26.0,26.0,26.0,-0.03944444444444439,0.28400000000000003,0.0063,293.61,-2.698,-2.7223333333333333,-1.4969000000000001,-1.5727,-248.28,216.16,190.824625,0.0,0.0,0.0,0.0,0.017533333333333335,-5.498166666666667,-5.498166666666667,-0.5427000000000001,-0.5740000000000001,-0.031333333333333435,0.5640000000000001,66.43,-0.04269999999999996,-0.22132500000000002,-0.09200000000000053,100.0,1.0,1.0,205.00666666666666,0.0,0.0,0.0,0.0,0.0,0.0,0.0,8689.4,0.0,55.0,5.0,239.12,0.0,0.0,0.0,0.0,0.0,0.0,0.0,0.0,0.41999999999999815,0.41999999999999815,0.0,0.0,0.0,55.0,616.79921,10000.0,85.000001,85.000001,85.000001,85.000001,395.0,0.0,0.0,0.0,1.0,55.556,53.452,53.452,48.66,48.66,34.0,-24.02,23.46,-28.0,26.2475,0.0,1782.452,-0.375,100.0,27.392,26.761,42.597,41.788,0.0,1.0,100.0,0.0,0.0,0.0,0.0,3014.5714285714284,3057.5,3962.375,4026.7,305.6705,305.1673333333333,315.0555,314.78025,21.8171,20.5441,21.720777777777776,21.2627,314.999998,314.999998,324.999988,324.999988,99.55641428571428,99.50701666666667,99.56,99.54122857142858,0.05549999999999988,-0.07066666666666666,-0.14300000000000002,0.08099999999999996,-0.054999999999999716,-0.04833333333333201,1.561,1.5556666666666668,37.357,29.4005,36.754999999999995,33.891999999999996,55.191,34.596000000000004,57.278,50.3495,53.17,33.786500000000004,55.963499999999996,48.787333333333336,52.355000000000004,33.374,55.9185,48.24333333333333,-0.10149999999999992,-0.04499999999999993,0.10567000000000001,0.10559,0.0,208.06,208.04000000000002,205.00666666666666,205.00666666666666,0.0,0.0
9,0.0,0.0,0.0,1.0,1.0,0.0,0.0,1.0,0.0,0.0,1.0,1.1856,26.0,0.0,0.0,0.0,59.999996,0.0,26.0,26.0,26.0,26.0,-0.016111111111111076,0.2823,-0.024300000000000002,293.381,-2.6879,-2.721,-1.5390000000000001,-1.5532,-246.09,216.14249999999998,190.811125,0.0,0.0,0.0,0.0,0.0188,-5.498166666666667,-5.498166666666667,-0.5442,0.506,-0.035777777777777686,-0.499,66.522,-0.030099999999999905,-0.2187,-0.09399999999999942,100.0,1.0,1.0,205.37666666666667,0.0,0.0,0.0,0.0,0.0,0.0,0.0,8705.2,0.0,55.0,5.0,239.45,1.0,0.0,0.0,0.0,0.0,0.0,0.0,0.0,0.4529999999999994,0.4529999999999994,0.0,0.0,1.0,55.0,616.79921,10000.0,85.000001,85.000001,85.000001,85.000001,395.0,0.0,0.0,0.0,1.0,55.556,52.658,52.658,49.332,49.332,34.0,-26.4925,23.63,-27.89333333333333,25.7775,0.0,1782.419,-0.48499999999999943,100.0,27.613,27.179000000000002,42.231,41.741,0.0,1.0,100.0,0.0,0.0,0.0,0.0,3345.142857142857,2998.3,3946.875,3985.9,304.7635,305.115,315.2155,314.8945,21.8233,20.5475,21.727222222222224,21.2682,314.999998,314.999998,324.999988,324.999988,99.55641428571428,99.50701666666667,99.56008571428572,99.54131428571428,0.06475000000000009,-0.05999999999999994,-0.137,0.08550000000000013,-0.04333333333332945,-0.046666666666666856,1.5773333333333333,1.5856666666666668,37.396,29.422,36.795,33.9265,55.185,34.6215,57.3055,50.391,53.164,33.81,55.989,48.827,52.348,33.39666666666667,55.942499999999995,48.282333333333334,-0.11499999999999999,-0.03699999999999992,0.10558500000000001,0.10963,0.0,208.36,208.36,205.37666666666667,205.37666666666667,0.0,0.0
10,0.0,0.0,0.0,1.0,1.0,0.0,0.0,1.0,0.0,0.0,1.0,1.1856,26.0,0.0,0.0,0.0,59.999996,0.0,26.0,26.0,26.0,26.0,0.0050000000000001155,0.29990000000000006,0.04936666666666667,293.121,-2.6542,-2.717,-1.5856,-1.5385,-242.69,216.115,190.790375,0.0,0.0,0.0,0.0,0.020766666666666666,-5.498166666666667,-5.498166666666667,-0.516,-0.2655,0.002666666666666595,1.844,66.67099999999999,-0.009699999999999931,-0.20172500000000002,-0.5,100.0,1.0,1.0,205.60666666666668,0.0,0.0,0.0,0.0,0.0,0.0,0.0,8714.9,0.0,55.0,5.0,239.98666666666668,0.0,0.0,0.0,0.0,0.0,0.0,1.0,0.0,0.5040000000000013,0.5040000000000013,0.0,0.0,0.0,55.0,616.79921,10000.0,85.000001,85.000001,85.000001,85.000001,395.0,0.0,0.0,0.0,1.0,55.556,53.574,53.574,47.806,47.806,34.0,-20.5525,23.616,-30.566666666666663,30.5625,0.0,1782.369,-0.5850000000000009,100.0,27.711,27.008,42.647999999999996,42.344,0.0,1.0,100.0,0.0,0.0,0.0,0.0,2832.714285714286,2946.0,4292.875,4331.0,306.084,305.50333333333333,314.2785,314.06575,21.8328,20.5527,21.737333333333332,21.2771,314.999998,314.999998,324.999988,324.999988,99.55642857142857,99.50701666666667,99.56022857142857,99.54147142857143,0.09624999999999995,-0.040999999999999925,-0.10816666666666663,0.11916666666666687,-0.03833333333332689,-0.045000000000001705,1.4846666666666668,1.4763333333333333,37.455,29.4545,36.858000000000004,33.982,55.174,34.658500000000004,57.3525,50.460499999999996,53.153999999999996,33.844,56.033,48.89366666666667,52.337,33.42933333333333,55.9835,48.34766666666667,-0.11949999999999994,-0.025500000000000078,0.10706,0.11542500000000001,0.0,208.8,208.825,205.60666666666668,205.60666666666668,0.0,0.0
11,0.0,0.0,0.0,1.0,1.0,0.0,0.0,1.0,0.0,0.0,1.0,1.1856,26.0,0.0,0.0,0.0,59.999996,0.0,26.0,26.0,26.0,26.0,0.03511111111111109,0.2882,-0.05903333333333334,293.655,-2.7079,-2.6691111111111114,-1.5830000000000002,-1.5211999999999999,-238.29,216.07999999999998,190.7635,0.0,0.0,0.0,0.0,0.022600000000000002,-5.498166666666667,-5.498166666666667,-0.5598000000000001,0.251,0.03022222222222215,0.14,66.85300000000001,0.016599999999999948,-0.22667500000000002,-0.7239999999999993,100.0,1.0,1.0,206.45666666666668,0.0,0.0,0.0,0.0,0.0,0.0,0.0,8751.0,0.0,55.0,5.0,240.64333333333332,1.0,0.0,0.0,0.0,0.0,0.0,1.0,0.0,0.5700000000000003,0.5700000000000003,0.0,0.0,1.0,55.0,616.79921,10000.0,85.000001,85.000001,85.000001,85.000001,395.0,0.0,0.0,0.0,1.0,55.556,53.07,53.07,49.179,49.179,34.0,-21.1725,26.602,-24.490000000000002,27.6175,0.0,1782.302,-0.7899999999999991,100.0,27.378,27.312,41.953,42.237,0.0,1.0,100.0,0.0,0.0,0.0,0.0,2953.4285714285716,3151.2,3839.125,3933.1,305.753,304.805,315.51375,315.08675,21.8448,20.5597,21.75011111111111,21.2884,314.999998,314.999998,324.999988,324.999988,99.55644285714286,99.50703333333334,99.56041428571429,99.54164285714286,0.11675000000000013,-0.006666666666666599,-0.07799999999999996,0.14533333333333331,-0.041666666666671404,-0.061666666666667425,1.6400000000000001,1.6173333333333333,37.53,29.497999999999998,36.939,34.052,55.158,34.707499999999996,57.406,50.545,53.138999999999996,33.888999999999996,56.082499999999996,48.974333333333334,52.321,33.47233333333333,56.0295,48.427,-0.131,-0.016999999999999904,0.10733500000000001,0.10873500000000001,0.0,209.35500000000002,209.41500000000002,206.45666666666668,206.45666666666668,0.0,0.0
12,0.0,0.0,0.0,1.0,1.0,0.0,0.0,1.0,0.0,0.0,1.0,1.1856,26.0,0.0,0.0,0.0,59.999996,0.0,26.0,26.0,26.0,26.0,0.056111111111111,0.2852000000000001,0.0224,293.228,-2.766,-2.6803333333333335,-1.55,-1.5207000000000002,-236.07999999999998,216.0625,190.74925,0.0,0.0,0.0,0.0,0.025466666666666665,-5.498166666666667,-5.498166666666667,-0.547,0.313,0.017777777777777892,-0.9410000000000001,66.949,0.02960000000000007,-0.2056,-0.6899999999999995,100.0,1.0,1.0,206.55333333333334,0.0,0.0,0.0,0.0,0.0,0.0,0.0,8755.1,0.0,55.0,5.0,240.98666666666668,0.0,0.0,0.0,0.0,0.0,0.0,1.0,0.0,0.602999999999998,0.602999999999998,0.0,0.0,0.0,55.0,616.79921,10000.0,85.000001,85.000001,85.000001,85.000001,395.0,0.0,0.0,0.0,1.0,55.556,53.116,53.116,48.203,48.203,34.0,-23.365,25.734,-27.436666666666667,29.975,0.0,1782.269,-0.620000000000001,100.0,27.09,27.512,41.951,42.291,0.0,1.0,100.0,0.0,0.0,0.0,0.0,3100.142857142857,3066.4,4211.875,4139.0,305.5625,304.9356666666667,314.59675,314.505,21.8508,20.5632,21.756666666666668,21.294,314.999998,314.999998,324.999988,324.999988,99.55644285714286,99.50703333333334,99.56051428571429,99.54174285714285,0.10050000000000026,-0.014333333333333309,-0.07933333333333337,0.14683333333333337,-0.041666666666671404,-0.051666666666669414,1.543,1.5193333333333332,37.567,29.5195,36.979,34.0875,55.150999999999996,34.7315,57.4355,50.5875,53.132,33.911500000000004,56.1105,49.01566666666667,52.314,33.49366666666667,56.055,48.467666666666666,-0.11299999999999999,-0.032500000000000195,0.11391000000000001,0.11031500000000001,0.0,209.66,209.715,206.55333333333334,206.55333333333334,0.0,0.0
13,0.0,0.0,0.0,1.0,1.0,0.0,0.0,1.0,0.0,0.0,1.0,1.1856,26.0,0.0,0.0,0.0,59.999996,0.0,26.0,26.0,26.0,26.0,0.07422222222222219,0.2801,0.0553,292.801,-2.7334,-2.6821111111111113,-1.6169,-1.506,-232.66,216.0375,190.7275,0.0,0.0,0.0,0.0,0.026600000000000002,-5.498166666666667,-5.498166666666667,-0.5385,0.007,0.020888888888888957,0.985,67.092,0.03820000000000001,-0.210875,-0.8300000000000001,100.0,1.0,1.0,206.94333333333333,0.0,0.0,0.0,0.0,0.0,0.0,0.0,8771.5,0.0,55.0,5.0,241.50333333333333,1.0,0.0,0.0,0.0,0.0,0.0,1.0,0.0,0.6539999999999999,0.6539999999999999,0.0,0.0,1.0,55.0,616.79921,10000.0,85.000001,85.000001,85.000001,85.000001,395.0,0.0,0.0,0.0,1.0,55.556,52.719,52.719,48.111,48.111,34.0,-20.509999999999998,27.896,-27.009999999999998,32.31,0.0,1782.219,-0.8550000000000004,100.0,27.605,27.562,42.316,42.665,0.0,1.0,100.0,0.0,0.0,0.0,0.0,3038.5714285714284,3159.1,4143.25,4338.3,305.523,304.8206666666667,314.68025,314.085,21.8601,20.5686,21.766777777777776,21.3029,314.999998,314.999998,324.999988,324.999988,99.55647142857143,99.50703333333334,99.56064285714285,99.5419,0.1535000000000002,0.02066666666666661,-0.05899999999999994,0.16083333333333338,-0.03166666666666629,-0.051666666666669414,1.5110000000000001,1.495,37.626000000000005,29.554000000000002,37.042,34.143,55.143,34.769999999999996,57.4805,50.657,53.123999999999995,33.9465,56.1525,49.082,52.304,33.52766666666667,56.094,48.532666666666664,-0.14549999999999996,-0.00749999999999984,0.1097,0.10567000000000001,0.0,210.095,210.14499999999998,206.94333333333333,206.94333333333333,0.0,0.0
14,0.0,0.0,0.0,1.0,1.0,0.0,0.0,1.0,0.0,0.0,1.0,1.1856,26.0,0.0,0.0,0.0,59.999996,0.0,26.0,26.0,26.0,26.0,0.08922222222222209,0.28180000000000005,-0.008266666666666667,293.03,-2.7369,-2.675666666666667,-1.5992000000000002,-1.5101,-228.23,216.0075,190.7,0.0,0.0,0.0,0.0,0.02916666666666667,-5.498166666666667,-5.498166666666667,-0.5496,-0.033,0.055777777777777704,0.979,67.275,0.051100000000000145,-0.225825,-1.0279999999999996,100.0,1.0,1.0,207.60333333333335,0.0,0.0,0.0,0.0,0.0,0.0,0.0,8799.6,0.0,55.0,5.0,242.16333333333336,0.0,0.0,0.0,0.0,0.0,0.0,1.0,0.0,0.7199999999999989,0.7199999999999989,0.0,0.0,0.0,55.0,616.79921,10000.0,85.000001,85.000001,85.000001,85.000001,395.0,0.0,0.0,0.0,1.0,55.556,52.78,52.78,48.462,48.462,34.0,-19.9275,28.458,-24.28,32.03,0.0,1782.152,-0.9450000000000003,100.0,27.457,27.742,42.234,42.935,0.0,1.0,100.0,0.0,0.0,0.0,0.0,3001.5714285714284,3193.2,3930.875,4160.2,305.725,304.6426666666667,315.217,314.48525,21.8721,20.5757,21.779666666666667,21.3144,314.999998,314.999998,324.999988,324.999988,99.55648571428571,99.50705,99.56084285714286,99.54207142857143,0.15900000000000025,0.02499999999999991,-0.046499999999999986,0.18816666666666682,-0.03833333333332689,-0.07333333333333059,1.5636666666666668,1.532,37.701,29.598,37.123000000000005,34.215,55.132999999999996,34.8195,57.536,50.745,53.114000000000004,33.9925,56.204,49.166666666666664,52.293,33.571333333333335,56.1415,48.616,-0.15300000000000002,-0.008500000000000174,0.10666,0.11096500000000001,0.0,210.64,210.735,207.60333333333335,207.60333333333335,0.0,0.0
15,0.0,0.0,0.0,1.0,1.0,0.0,0.0,1.0,0.0,0.0,1.0,1.1856,26.0,0.0,0.0,0.0,59.999996,0.0,26.0,26.0,26.0,26.0,0.10588888888888892,0.2853000000000001,-0.0269,292.999,-2.7111,-2.578888888888889,-1.6242,-1.4525000000000001,-226.0,215.995,190.686125,0.0,0.0,0.0,0.0,0.03046666666666667,-5.498166666666667,-5.498166666666667,-0.5417000000000001,0.3355,0.07733333333333325,0.055,67.367,0.06099999999999994,-0.212225,-1.0920000000000005,100.0,1.0,1.0,207.86333333333334,0.0,0.0,0.0,0.0,0.0,0.0,0.0,8810.5,0.0,55.0,5.0,242.49,1.0,0.0,0.0,0.0,0.0,0.0,1.0,0.0,0.7530000000000001,0.7530000000000001,0.0,0.0,1.0,55.0,616.79921,10000.0,85.000001,85.000001,85.000001,85.000001,395.0,0.0,0.0,0.0,1.0,55.556,52.872,52.872,48.462,48.462,34.0,-19.425,26.868,-24.806666666666665,31.815,0.0,1782.119,-0.9849999999999994,100.0,27.464,27.859,42.008,43.069,0.0,1.0,100.0,0.0,0.0,0.0,0.0,2934.857142857143,3104.9,3977.625,4264.1,305.9355,304.8186666666667,315.151,314.2345,21.8781,20.5792,21.78611111111111,21.3201,314.999998,314.999998,324.999988,324.999988,99.5565,99.50705,99.56091428571429,99.54217142857142,0.1532499999999999,0.025666666666666726,-0.04466666666666663,0.1795,-0.04999999999999716,-0.046666666666666856,1.5656666666666668,1.5186666666666668,37.738,29.619999999999997,37.163,34.2505,55.128,34.8445,57.5635,50.789,53.11,34.0155,56.229,49.208666666666666,52.287,33.593666666666664,56.165,48.657333333333334,-0.15049999999999986,-0.0015000000000000568,0.11078500000000001,0.10822000000000001,0.0,210.95499999999998,211.005,207.86333333333334,207.86333333333334,0.0,0.0
16,0.0,0.0,0.0,1.0,1.0,0.0,0.0,1.0,0.0,0.0,1.0,1.1856,26.0,0.0,0.0,0.0,59.999996,0.0,26.0,26.0,26.0,26.0,0.11499999999999999,0.2853000000000001,-0.016766666666666666,293.045,-2.7656,-2.6113333333333335,-1.5665,-1.4505,-222.56,215.97750000000002,190.664125,0.0,0.0,0.0,0.0,0.03246666666666667,-5.498166666666667,-5.498166666666667,-0.557,-0.795,0.07122222222222208,0.331,67.509,0.07499999999999996,-0.221175,-1.2779999999999996,100.0,1.0,1.0,208.26333333333332,0.0,0.0,0.0,0.0,0.0,0.0,0.0,8827.5,0.0,55.0,5.0,243.00333333333333,0.0,0.0,0.0,0.0,0.0,0.0,1.0,0.0,0.8039999999999985,0.8039999999999985,0.0,0.0,0.0,55.0,616.79921,10000.0,85.000001,85.000001,85.000001,85.000001,395.0,0.0,0.0,0.0,1.0,55.556,53.024,53.024,47.897,47.897,34.0,-18.537499999999998,29.068,-22.586666666666666,32.195,0.0,1782.069,-0.875,100.0,27.139,27.807,42.369,43.191,0.0,1.0,100.0,0.0,0.0,0.0,0.0,2855.0,3254.2,3932.25,4157.4,306.1715,304.5366666666667,315.1445,314.51725,21.8871,20.5848,21.796222222222223,21.329,314.999998,314.999998,324.999988,324.999988,99.55651428571429,99.50705,99.56107142857142,99.54231428571428,0.17149999999999999,0.04033333333333333,-0.019333333333333313,0.20666666666666678,-0.045000000000001705,-0.045000000000001705,1.566,1.5163333333333333,37.794,29.655,37.227000000000004,34.3065,55.117000000000004,34.884,57.608000000000004,50.857,53.099000000000004,34.052,56.2705,49.27433333333333,52.275999999999996,33.62866666666667,56.2035,48.721666666666664,-0.14749999999999996,-0.006000000000000227,0.10558000000000001,0.109835,0.0,211.325,211.41500000000002,208.26333333333332,208.26333333333332,0.0,0.0
17,0.0,0.0,0.0,1.0,1.0,0.0,0.0,1.0,0.0,0.0,1.0,1.1856,26.0,0.0,0.0,0.0,59.999996,0.0,26.0,26.0,26.0,26.0,0.11977777777777776,0.3035000000000001,0.04223333333333333,292.389,-2.7666,-2.566666666666667,-1.6408,-1.4722,-218.1,215.95749999999998,190.635125,0.0,0.0,0.0,0.0,0.03506666666666667,-5.498166666666667,-5.498166666666667,-0.5457000000000001,0.2665,0.05188888888888887,1.091,67.691,0.0817000000000001,-0.20345000000000002,-1.1079999999999997,100.0,1.0,1.0,208.71333333333334,0.0,0.0,0.0,0.0,0.0,0.0,0.0,8846.6,0.0,55.0,5.0,243.66,1.0,0.0,0.0,0.0,0.0,0.0,1.0,0.0,0.870000000000001,0.870000000000001,0.0,0.0,1.0,55.0,616.79921,10000.0,85.000001,85.000001,85.000001,85.000001,395.0,0.0,0.0,0.0,1.0,55.556,52.521,52.521,47.485,47.485,34.0,-19.4275,28.556,-26.28,35.5275,0.0,1782.002,-1.0150000000000006,100.0,27.653,28.025,42.256,43.248000000000005,0.0,1.0,100.0,0.0,0.0,0.0,0.0,3001.142857142857,3229.0,4322.875,4454.0,305.67,304.647,314.29325,313.85125,21.899,20.5921,21.80911111111111,21.3405,314.999998,314.999998,324.999988,324.999988,99.55654285714286,99.50705,99.56125714285714,99.54251428571429,0.17874999999999996,0.045333333333333226,-0.015000000000000013,0.20850000000000013,-0.04333333333332945,-0.06833333333332803,1.5153333333333332,1.4726666666666668,37.869,29.700499999999998,37.307,34.378,55.108999999999995,34.9375,57.663,50.945499999999996,53.091,34.1015,56.322,49.359,52.266,33.676,56.2505,48.805,-0.14849999999999985,-0.008000000000000007,0.10158500000000001,0.107825,0.0,211.94,212.01999999999998,208.71333333333334,208.71333333333334,0.0,0.0
18,0.0,0.0,0.0,1.0,1.0,0.0,0.0,1.0,0.0,0.0,1.0,1.1856,26.0,0.0,0.0,0.0,59.999996,0.0,26.0,26.0,26.0,26.0,0.14622222222222225,0.26690000000000014,-0.07936666666666667,292.862,-2.7992,-2.543,-1.6508,-1.4218,-215.87,215.95,190.62075,0.0,0.0,0.0,0.0,0.03636666666666667,-5.498166666666667,-5.498166666666667,-0.5562,-0.6015,0.0685555555555557,-0.096,67.78,0.07790000000000008,-0.218125,-1.1059999999999999,100.0,1.0,1.0,209.09333333333333,0.0,0.0,0.0,0.0,0.0,0.0,0.0,8862.6,0.0,55.0,5.0,243.98000000000002,0.0,0.0,0.0,0.0,0.0,0.0,1.0,0.0,0.9029999999999987,0.9029999999999987,0.0,0.0,0.0,55.0,616.79921,10000.0,85.000001,85.000001,85.000001,85.000001,395.0,0.0,0.0,0.0,1.0,55.556,52.902,52.902,48.004,48.004,34.0,-19.165,28.23,-24.560000000000002,31.142500000000002,0.0,1781.969,-1.2249999999999979,100.0,27.241,28.041,42.378,43.637,0.0,1.0,100.0,0.0,0.0,0.0,0.0,3003.857142857143,3156.3,4018.875,4131.4,305.9245,304.79366666666664,315.0805,314.577,21.9049,20.5956,21.815666666666665,21.3463,314.999998,314.999998,324.999988,324.999988,99.55655714285714,99.50706666666666,99.56134285714286,99.5426,0.18599999999999994,0.05833333333333335,-0.026666666666666616,0.19833333333333325,-0.041666666666671404,-0.05833333333333002,1.5613333333333332,1.5213333333333332,37.906,29.7225,37.348,34.414500000000004,55.104,34.963,57.691,50.99,53.086,34.125,56.348,49.402,52.26,33.69866666666667,56.275,48.84733333333333,-0.16649999999999987,0.01749999999999985,0.10677500000000001,0.11133000000000001,0.0,212.175,212.275,209.09333333333333,209.09333333333333,0.0,0.0
19,0.0,0.0,0.0,1.0,1.0,0.0,0.0,1.0,0.0,0.0,1.0,1.1856,26.0,0.0,0.0,0.0,59.999996,0.0,26.0,26.0,26.0,26.0,0.13822222222222225,0.2872000000000001,0.011166666666666668,292.343,-2.7683,-2.5332222222222223,-1.6678000000000002,-1.4021,-212.41,215.9425,190.59825,0.0,0.0,0.0,0.0,0.03836666666666667,-5.498166666666667,-5.498166666666667,-0.5551,0.809,0.08377777777777773,0.997,67.918,0.08350000000000013,-0.2131,-1.5379999999999994,100.0,1.0,1.0,209.55666666666667,0.0,0.0,0.0,0.0,0.0,0.0,0.0,8882.3,0.0,55.0,5.0,244.47333333333336,1.0,0.0,0.0,0.0,0.0,0.0,1.0,0.0,0.9540000000000006,0.9540000000000006,0.0,0.0,1.0,55.0,616.79921,10000.0,85.000001,85.000001,85.000001,85.000001,395.0,0.0,0.0,0.0,1.0,55.556,51.879999999999995,51.879999999999995,48.065,48.065,34.0,-18.5225,31.468,-23.366666666666667,33.33,0.0,1781.919,-1.4899999999999984,100.0,27.896,28.417,42.129,43.464,0.0,1.0,100.0,0.0,0.0,0.0,0.0,3046.714285714286,3378.7,4025.25,4313.5,305.4885,304.14366666666666,315.08575,314.2615,21.9141,20.601399999999998,21.825555555555557,21.3552,314.999998,314.999998,324.999988,324.999988,99.55658571428572,99.50706666666666,99.56148571428571,99.54275714285714,0.20825000000000005,0.08233333333333337,-0.0010000000000000009,0.21849999999999992,-0.03499999999999659,-0.06833333333332803,1.6023333333333334,1.538,37.963,29.759,37.41,34.47,55.099999999999994,35.007,57.7315,51.058,53.081,34.166,56.3855,49.467333333333336,52.254000000000005,33.738,56.3095,48.91166666666666,-0.18799999999999994,0.03049999999999997,0.09772,0.11017,0.0,212.635,212.75,209.55666666666667,209.55666666666667,0.0,0.0
20,0.0,0.0,0.0,1.0,1.0,0.0,0.0,1.0,0.0,0.0,1.0,1.1856,26.0,0.0,0.0,0.0,59.999996,0.0,26.0,26.0,26.0,26.0,0.13788888888888895,0.2744,-0.0074,292.557,-2.8163,-2.5923333333333334,-1.5915,-1.5287000000000002,-207.92000000000002,215.9375,190.56925,0.0,0.0,0.0,0.0,0.041,-5.498166666666667,-5.498166666666667,-0.5666,-1.2550000000000001,0.07877777777777784,-0.052000000000000005,68.099,0.10030000000000006,-0.23292500000000002,-1.1920000000000002,100.0,1.0,1.0,210.03,0.0,0.0,0.0,0.0,0.0,0.0,0.0,8902.4,0.0,55.0,5.0,245.13,0.0,0.0,0.0,0.0,0.0,0.0,0.0,0.0,1.0199999999999996,1.0199999999999996,0.0,0.0,0.0,55.0,616.79921,10000.0,85.000001,85.000001,85.000001,85.000001,395.0,0.0,0.0,0.0,1.0,55.556,52.628,52.628,47.592,47.592,34.0,-20.072499999999998,28.302,-21.71333333333333,34.66,0.0,1781.852,-0.06500000000000128,100.0,27.393,28.216,42.704,44.068,0.0,1.0,100.0,0.0,0.0,0.0,0.0,2905.142857142857,3283.8,3931.125,4130.5,306.0745,304.45533333333333,315.1555,314.51425,21.9257,20.6087,21.838666666666665,21.367,314.999998,314.999998,324.999988,324.999988,99.55661428571429,99.50708333333333,99.56167142857143,99.54295714285715,0.1535000000000002,0.01966666666666672,0.006166666666666654,0.23683333333333323,-0.054999999999999716,-0.054999999999999716,1.5446666666666669,1.5023333333333333,38.036,29.804499999999997,37.492000000000004,34.5435,55.087,35.06,57.79,51.1495,53.069,34.2145,56.44,49.55533333333334,52.241,33.784666666666666,56.3595,48.998333333333335,-0.09949999999999992,-0.05650000000000022,0.10740000000000001,0.10796000000000001,0.0,213.14499999999998,213.25,210.03,210.03,0.0,0.0
21,0.0,0.0,0.0,1.0,1.0,0.0,0.0,1.0,0.0,0.0,1.0,1.1856,26.0,0.0,0.0,0.0,59.999996,0.0,26.0,26.0,26.0,26.0,0.1146666666666667,0.27470000000000017,-0.0845,292.755,-2.7262,-2.6500000000000004,-1.6486,-1.4954,-205.67000000000002,215.9375,190.554375,0.0,0.0,0.0,0.0,0.042300000000000004,-5.498166666666667,-5.498166666666667,-0.5823,0.3525,0.05044444444444429,-1.346,68.184,0.09420000000000006,-0.2328,-0.5279999999999996,100.0,1.0,1.0,210.48666666666668,0.0,0.0,0.0,0.0,0.0,0.0,0.0,8921.8,0.0,55.0,5.0,245.43666666666667,1.0,0.0,0.0,0.0,0.0,0.0,0.0,0.0,1.0530000000000008,1.0530000000000008,0.0,0.0,1.0,55.0,616.79921,10000.0,85.000001,85.000001,85.000001,85.000001,395.0,0.0,0.0,0.0,1.0,55.556,52.124,52.124,48.615,48.615,34.0,-22.732499999999998,26.456,-22.703333333333333,29.975,0.0,1781.819,0.2950000000000017,100.0,27.678,28.48,42.197,43.658,0.0,1.0,100.0,0.0,0.0,0.0,0.0,3126.714285714286,3159.7,3869.625,3930.1,305.3975,304.57233333333335,315.496,315.08425,21.9316,20.6124,21.845,21.3726,314.999998,314.999998,324.999988,324.999988,99.55662857142858,99.50708333333333,99.56177142857143,99.54304285714285,0.11525000000000007,-0.015666666666666607,-0.018000000000000016,0.20100000000000007,-0.05333333333332746,-0.046666666666666856,1.6353333333333333,1.6113333333333333,38.073,29.8275,37.531,34.5785,55.082,35.086,57.814499999999995,51.1905,53.064,34.239,56.4625,49.59466666666667,52.235,33.80766666666666,56.3805,49.037,-0.05899999999999994,-0.09699999999999998,0.10855000000000001,0.10317000000000001,0.0,213.485,213.515,210.48666666666668,210.48666666666668,0.0,0.0
22,0.0,0.0,0.0,1.0,1.0,0.0,0.0,1.0,0.0,0.0,1.0,1.1856,26.0,0.0,0.0,0.0,59.999996,0.0,26.0,26.0,26.0,26.0,0.05588888888888888,0.2733000000000001,0.045733333333333334,292.114,-2.6807,-2.6825555555555556,-1.5682,-1.5581,-202.19,215.94,190.530625,0.0,0.0,0.0,0.0,0.044333333333333336,-5.498166666666667,-5.498166666666667,-0.5568000000000001,0.2,0.03644444444444428,0.911,68.325,0.0625,-0.205325,0.386000000000001,100.0,1.0,1.0,210.66333333333333,0.0,0.0,0.0,0.0,0.0,0.0,0.0,8929.2,0.0,55.0,5.0,245.94333333333333,0.0,0.0,0.0,0.0,0.0,0.0,0.0,0.0,1.1039999999999992,1.1039999999999992,0.0,0.0,0.0,55.0,616.79921,10000.0,85.000001,85.000001,85.000001,85.000001,395.0,0.0,0.0,0.0,1.0,55.556,52.185,52.185,47.256,47.256,34.0,-22.5475,25.637999999999998,-26.880000000000003,32.980000000000004,0.0,1781.769,0.6400000000000006,100.0,28.04,28.215,42.854,43.588,0.0,1.0,100.0,0.0,0.0,0.0,0.0,2997.142857142857,3229.7,4184.5,4313.8,305.602,304.549,314.548,314.15075,21.9408,20.618,21.85511111111111,21.3815,314.999998,314.999998,324.999988,324.999988,99.55664285714286,99.5071,99.56191428571428,99.5432,0.08899999999999997,-0.05133333333333334,-0.05899999999999994,0.16199999999999992,-0.04999999999999716,-0.041666666666671404,1.4786666666666668,1.4916666666666667,38.129999999999995,29.863,37.595,34.6345,55.071,35.1255,57.86,51.2585,53.054,34.2755,56.5055,49.66,52.223,33.843,56.42,49.101,-0.03299999999999992,-0.13050000000000006,0.10726500000000001,0.10812000000000001,0.0,213.96,213.91,210.66333333333333,210.66333333333333,0.0,0.0
23,0.0,0.0,0.0,1.0,1.0,0.0,0.0,1.0,0.0,0.0,1.0,1.1856,26.0,0.0,0.0,0.0,59.999996,0.0,26.0,26.0,26.0,26.0,-0.046222222222222165,0.2692000000000001,-0.04966666666666667,292.374,-2.6824,-2.665222222222222,-1.6432,-1.5095,-197.67000000000002,215.9425,190.5005,0.0,0.0,0.0,0.0,0.046933333333333334,-5.498166666666667,-5.498166666666667,-0.5757,0.0325,0.0031111111111110645,0.17200000000000001,68.499,0.0015000000000000568,-0.22742500000000002,1.0139999999999993,100.0,1.0,1.0,211.35000000000002,0.0,0.0,0.0,0.0,0.0,0.0,0.0,8958.3,0.0,55.0,5.0,246.57,1.0,0.0,0.0,0.0,0.0,0.0,0.0,0.0,1.1699999999999982,1.1699999999999982,0.0,0.0,1.0,55.0,616.79921,10000.0,85.000001,85.000001,85.000001,85.000001,395.0,0.0,0.0,0.0,1.0,55.556,52.002,52.002,48.187,48.187,34.0,-25.72,23.246000000000002,-29.946666666666665,26.1175,0.0,1781.702,0.6600000000000001,100.0,28.413,27.98,43.064,43.452,0.0,1.0,100.0,0.0,0.0,0.0,0.0,3188.4285714285716,3139.1,4072.125,3990.6000000000004,305.072,304.89,314.975,315.00575,21.9528,20.6253,21.868222222222222,21.3931,314.999998,314.999998,324.999988,324.999988,99.55664285714286,99.5071,99.5621,99.54338571428572,0.054749999999999854,-0.08299999999999996,-0.126,0.10433333333333339,-0.051666666666669414,-0.045000000000001705,1.5473333333333332,1.5813333333333333,38.205,29.908,37.676,34.7065,55.056,35.1785,57.916,51.344,53.039,34.3245,56.5575,49.742333333333335,52.207,33.88966666666666,56.468,49.182,-0.027499999999999858,-0.13450000000000006,0.10791,0.11275,0.0,214.5,214.41500000000002,211.35000000000002,211.35000000000002,0.0,0.0
24,0.0,0.0,0.0,1.0,1.0,0.0,0.0,1.0,0.0,0.0,1.0,1.1856,26.0,0.0,0.0,0.0,59.999996,0.0,26.0,26.0,26.0,26.0,-0.06311111111111112,0.26900000000000013,-0.010066666666666668,292.557,-2.676,-2.704777777777778,-1.5481,-1.5528,-195.41,215.945,190.485125,0.0,0.0,0.0,0.0,0.04826666666666667,-5.498166666666667,-5.498166666666667,-0.5753,-0.2425,-0.006888888888889166,-0.584,68.589,-0.023599999999999954,-0.2141,1.1300000000000008,100.0,1.0,1.0,211.51666666666665,0.0,0.0,0.0,0.0,0.0,0.0,0.0,8965.4,0.0,55.0,5.0,246.89333333333335,0.0,0.0,0.0,0.0,0.0,0.0,0.0,0.0,1.2029999999999994,1.2029999999999994,0.0,0.0,0.0,55.0,616.79921,10000.0,85.000001,85.000001,85.000001,85.000001,395.0,0.0,0.0,0.0,1.0,55.556,52.948,52.948,47.47,47.47,34.0,-25.3375,19.914,-33.486666666666665,25.505,0.0,1781.669,0.6449999999999996,100.0,28.095,27.824,43.149,43.356,0.0,1.0,100.0,0.0,0.0,0.0,0.0,3056.857142857143,2839.6,4399.625,4040.4,305.617,305.664,314.2235,314.8045,21.9587,20.6287,21.874777777777776,21.3988,314.999998,314.999998,324.999988,324.999988,99.55664285714286,99.50711666666666,99.5622,99.54348571428571,0.028500000000000192,-0.11566666666666658,-0.15949999999999998,0.06750000000000012,-0.07000000000000028,-0.046666666666666856,1.5026666666666668,1.539,38.242000000000004,29.929499999999997,37.718,34.7425,55.047,35.204,57.945499999999996,51.385999999999996,53.03,34.348,56.585,49.782666666666664,52.198,33.912,56.4935,49.221333333333334,-0.03299999999999992,-0.13249999999999984,0.10663500000000001,0.10969500000000001,0.0,214.81,214.69,211.51666666666665,211.51666666666665,0.0,0.0
25,0.0,0.0,0.0,1.0,1.0,0.0,0.0,1.0,0.0,0.0,1.0,1.1856,26.0,0.0,0.0,0.0,59.999996,0.0,26.0,26.0,26.0,26.0,-0.08711111111111103,0.2642,-0.08033333333333334,292.633,-2.658,-2.7119999999999997,-1.5567,-1.5830000000000002,-191.91,215.945,190.460125,0.0,0.0,0.0,0.0,0.050300000000000004,-5.498166666666667,-5.498166666666667,-0.6113000000000001,-0.28300000000000003,-0.012222222222222356,-0.10200000000000001,68.723,-0.05499999999999994,-0.22805,1.112,100.0,1.0,1.0,212.06,0.0,0.0,0.0,0.0,0.0,0.0,0.0,8988.5,0.0,55.0,5.0,247.37333333333333,1.0,0.0,0.0,0.0,0.0,0.0,0.0,0.0,1.2540000000000013,1.2540000000000013,0.0,0.0,1.0,55.0,616.79921,10000.0,85.000001,85.000001,85.000001,85.000001,395.0,0.0,0.0,0.0,1.0,55.556,52.292,52.292,48.096000000000004,48.096000000000004,34.0,-26.8125,22.572000000000003,-30.083333333333336,24.105,0.0,1781.619,0.5850000000000009,100.0,28.139,27.687,43.321,42.897,0.0,1.0,100.0,0.0,0.0,0.0,0.0,3150.285714285714,3193.7,3942.625,3916.6,305.2275,304.7096666666667,315.223,315.14625,21.9678,20.6341,21.884888888888888,21.4075,314.999998,314.999998,324.999988,324.999988,99.55665714285715,99.50713333333333,99.56234285714285,99.54362857142857,0.015000000000000124,-0.1193333333333334,-0.17616666666666658,0.055333333333333234,-0.051666666666669414,-0.046666666666666856,1.5716666666666668,1.6033333333333333,38.299,29.9635,37.78,34.797,55.031,35.246,57.989,51.448,53.015,34.3865,56.626,49.842333333333336,52.182,33.949,56.5315,49.279666666666664,-0.035499999999999865,-0.12250000000000005,0.10790500000000001,0.10510000000000001,0.0,215.19,215.095,212.06,212.06,0.0,0.0
26,0.0,0.0,0.0,1.0,1.0,0.0,0.0,1.0,0.0,0.0,1.0,1.1856,26.0,0.0,0.0,0.0,59.999996,0.0,26.0,26.0,26.0,26.0,-0.12144444444444447,0.27680000000000016,0.09643333333333334,291.26,-2.6607,-2.7743333333333333,-1.5274,-1.5894,-187.37,215.9425,190.426875,0.0,0.0,0.0,0.0,0.05293333333333334,-5.498166666666667,-5.498166666666667,-0.5662,0.256,-0.058222222222222175,0.6920000000000001,68.901,-0.07450000000000001,-0.19590000000000002,0.9920000000000009,100.0,1.0,1.0,212.2733333333333,0.0,0.0,0.0,0.0,0.0,0.0,0.0,8997.5,0.0,55.0,5.0,248.01333333333332,0.0,0.0,0.0,0.0,0.0,0.0,0.0,0.0,1.3200000000000003,1.3200000000000003,0.0,0.0,0.0,55.0,616.79921,10000.0,85.000001,85.000001,85.000001,85.000001,395.0,0.0,0.0,0.0,1.0,55.556,51.941,51.941,45.959,45.959,34.0,-26.572499999999998,20.88,-37.69,28.4425,0.0,1781.552,0.3200000000000003,100.0,29.179000000000002,28.131,44.289,43.230000000000004,0.0,1.0,100.0,0.0,0.0,0.0,0.0,3119.285714285714,2981.9,4628.5,4552.7,305.216,305.36966666666666,313.493,313.62875,21.9801,20.6414,21.898222222222223,21.4191,314.999998,314.999998,324.999988,324.999988,99.55665714285715,99.50715,99.56254285714286,99.54382857142858,0.01750000000000007,-0.1316666666666666,-0.18666666666666665,0.03499999999999992,-0.026666666666670835,-0.04999999999999716,1.4036666666666668,1.4453333333333334,38.375,30.008499999999998,37.864000000000004,34.8695,55.016999999999996,35.3035,58.0515,51.533500000000004,53.001999999999995,34.4395,56.6845,49.924,52.168,33.99966666666667,56.586,49.35966666666667,-0.05400000000000005,-0.10850000000000026,0.10555500000000001,0.11243000000000002,0.0,215.76999999999998,215.685,212.2733333333333,212.2733333333333,0.0,0.0
27,0.0,0.0,0.0,1.0,1.0,0.0,0.0,1.0,0.0,0.0,1.0,1.1856,26.0,0.0,0.0,0.0,59.999996,0.0,26.0,26.0,26.0,26.0,-0.10833333333333339,0.2601,0.005733333333333334,291.55,-2.6288,-2.723222222222222,-1.568,-1.6037,-185.09,215.94,190.411125,0.0,0.0,0.0,0.0,0.054266666666666664,-5.498166666666667,-5.498166666666667,-0.5890000000000001,-1.119,-0.061666666666666536,-0.733,68.987,-0.07789999999999997,-0.234125,0.952,100.0,1.0,1.0,212.63666666666666,0.0,0.0,0.0,0.0,0.0,0.0,0.0,9012.9,0.0,55.0,5.0,248.32666666666665,1.0,0.0,0.0,0.0,0.0,0.0,0.0,0.0,1.352999999999998,1.352999999999998,0.0,0.0,1.0,55.0,616.79921,10000.0,85.000001,85.000001,85.000001,85.000001,395.0,0.0,0.0,0.0,1.0,55.556,51.879999999999995,51.879999999999995,46.646,46.646,34.0,-28.3575,20.310000000000002,-35.303333333333335,25.642500000000002,0.0,1781.519,0.23499999999999943,100.0,28.783,28.109,44.653999999999996,43.647999999999996,0.0,1.0,100.0,0.0,0.0,0.0,0.0,3315.714285714286,2972.3,4288.5,4176.0,304.8455,305.28866666666664,314.387,314.4015,21.986,20.6448,21.904888888888888,21.425,314.999998,314.999998,324.999988,324.999988,99.55665714285715,99.50715,99.56264285714286,99.54391428571428,0.007750000000000146,-0.1356666666666666,-0.1995,0.03216666666666668,-0.04333333333332945,-0.03333333333333144,1.4503333333333333,1.5010000000000001,38.413,30.0305,37.906,34.906,55.007999999999996,35.3305,58.083,51.576499999999996,52.992999999999995,34.4645,56.714,49.965,52.159,34.02333333333333,56.6135,49.39966666666667,-0.06699999999999995,-0.0990000000000002,0.10577,0.11194000000000001,0.0,215.995,215.885,212.63666666666666,212.63666666666666,0.0,0.0
28,0.0,0.0,0.0,1.0,1.0,0.0,0.0,1.0,0.0,0.0,1.0,1.1856,26.0,0.0,0.0,0.0,59.999996,0.0,26.0,26.0,26.0,26.0,-0.11288888888888893,0.2573000000000001,-0.0597,292.053,-2.6528,-2.726777777777778,-1.5171999999999999,-1.62,-181.57,215.9325,190.386,0.0,0.0,0.0,0.0,0.0563,-5.498166666666667,-5.498166666666667,-0.606,0.5405,-0.06188888888888888,0.781,69.117,-0.0784999999999999,-0.22487500000000002,0.7120000000000015,100.0,1.0,1.0,213.23333333333335,0.0,0.0,0.0,0.0,0.0,0.0,0.0,9038.1,0.0,55.0,5.0,248.79333333333335,0.0,0.0,0.0,0.0,0.0,0.0,0.0,0.0,1.404,1.404,0.0,0.0,0.0,55.0,616.79921,10000.0,85.000001,85.000001,85.000001,85.000001,395.0,0.0,0.0,0.0,1.0,55.556,51.849000000000004,51.849000000000004,47.638,47.638,34.0,-27.2725,21.345999999999997,-31.323333333333334,24.41,0.0,1781.469,0.10999999999999943,100.0,29.051000000000002,27.947,44.043,42.992000000000004,0.0,1.0,100.0,0.0,0.0,0.0,0.0,3234.4285714285716,3056.1,4064.0,4038.6000000000004,304.958,305.158,314.9255,314.89375,21.9954,20.6503,21.91488888888889,21.4337,314.999998,314.999998,324.999988,324.999988,99.55665714285715,99.50718333333333,99.56278571428571,99.54405714285714,0.023499999999999854,-0.12466666666666659,-0.1868333333333334,0.033333333333333215,-0.04999999999999716,-0.054999999999999716,1.5536666666666668,1.5893333333333333,38.471000000000004,30.064500000000002,37.968,34.960499999999996,54.995999999999995,35.373,58.1245,51.6375,52.982,34.5035,56.7525,50.023666666666664,52.146,34.061,56.6495,49.45666666666666,-0.0754999999999999,-0.09050000000000002,0.10639000000000001,0.10458,0.0,216.42000000000002,216.35500000000002,213.23333333333335,213.23333333333335,0.0,0.0
29,0.0,0.0,0.0,1.0,1.0,0.0,0.0,1.0,0.0,0.0,1.0,1.1856,26.0,0.0,0.0,0.0,59.999996,0.0,26.0,26.0,26.0,26.0,-0.07877777777777784,0.25229999999999997,-0.011133333333333334,291.855,-2.6001,-2.7750000000000004,-1.5223,-1.5893000000000002,-177.0,215.92000000000002,190.352,0.0,0.0,0.0,0.0,0.05896666666666667,-5.498166666666667,-5.498166666666667,-0.6108,-0.6985,-0.05311111111111133,0.868,69.291,-0.0643999999999999,-0.221225,0.3780000000000001,100.0,1.0,1.0,213.61666666666667,0.0,0.0,0.0,0.0,0.0,0.0,0.0,9054.4,0.0,55.0,5.0,249.42333333333335,1.0,0.0,0.0,0.0,0.0,0.0,0.0,0.0,1.4699999999999989,1.4699999999999989,0.0,0.0,1.0,55.0,616.79921,10000.0,85.000001,85.000001,85.000001,85.000001,395.0,0.0,0.0,0.0,1.0,55.556,52.063,52.063,47.134,47.134,34.0,-26.18,22.392,-30.503333333333334,26.8625,0.0,1781.402,-0.02499999999999858,100.0,28.713,27.831,44.35,43.316,0.0,1.0,100.0,0.0,0.0,0.0,0.0,3206.0,3056.3,4103.875,4189.9,305.056,305.1193333333333,314.76625,314.475,22.0072,20.6574,21.92811111111111,21.4453,314.999998,314.999998,324.999988,324.999988,99.55667142857143,99.5072,99.56298571428572,99.54425714285715,0.03025000000000011,-0.11099999999999999,-0.15533333333333332,0.05866666666666687,-0.036666666666668846,-0.046666666666666856,1.5046666666666668,1.4966666666666668,38.545,30.1085,38.051,35.033500000000004,54.977999999999994,35.426,58.1845,51.722,52.965,34.5525,56.8095,50.10433333333333,52.128,34.10733333333333,56.702,49.535666666666664,-0.0814999999999999,-0.08000000000000007,0.098345,0.11229000000000001,0.0,216.91,216.865,213.61666666666667,213.61666666666667,0.0,0.0
30,0.0,0.0,0.0,1.0,1.0,0.0,0.0,1.0,0.0,0.0,1.0,1.1856,26.0,0.0,0.0,0.0,59.999996,0.0,26.0,26.0,26.0,26.0,-0.06422222222222218,0.26380000000000003,0.046933333333333334,291.229,-2.6665,-2.6532222222222224,-1.5761,-1.5486,-174.72,215.9125,190.334875,0.0,0.0,0.0,0.0,0.0603,-5.498166666666667,-5.498166666666667,-0.6094,0.7145,-0.05255555555555569,-0.767,69.375,-0.056599999999999984,-0.221,0.34999999999999964,100.0,1.0,1.0,213.91666666666669,0.0,0.0,0.0,0.0,0.0,0.0,0.0,9067.2,0.0,55.0,5.0,249.72333333333336,0.0,0.0,0.0,0.0,0.0,0.0,1.0,0.0,1.5030000000000001,1.5030000000000001,0.0,0.0,0.0,55.0,616.79921,10000.0,85.000001,85.000001,85.000001,85.000001,395.0,0.0,0.0,0.0,1.0,55.556,50.934,50.934,46.799,46.799,34.0,-28.994999999999997,22.242,-33.693333333333335,27.1225,0.0,1781.369,-0.129999999999999,100.0,29.169,28.706,44.04,43.343,0.0,1.0,100.0,0.0,0.0,0.0,0.0,3487.4285714285716,3136.5,4325.75,4272.4,304.498,304.609,314.43675,314.3145,22.0133,20.6611,21.934666666666665,21.4511,314.999998,314.999998,324.999988,324.999988,99.55667142857143,99.5072,99.56308571428572,99.54434285714285,0.03474999999999984,-0.11066666666666658,-0.16949999999999998,0.0648333333333333,-0.03166666666666629,-0.045000000000001705,1.5123333333333333,1.5183333333333333,38.583,30.131999999999998,38.092,35.069,54.973,35.455,58.212,51.763,52.96,34.579,56.835,50.14366666666667,52.122,34.132999999999996,56.7255,49.574,-0.09549999999999992,-0.07500000000000018,0.10572500000000001,0.11297000000000001,0.0,217.21,217.175,213.91666666666669,213.91666666666669,0.0,0.0
31,0.0,0.0,0.0,1.0,1.0,0.0,0.0,1.0,0.0,0.0,1.0,1.1856,26.0,0.0,0.0,0.0,59.999996,0.0,26.0,26.0,26.0,26.0,-0.05077777777777781,0.2611000000000001,0.03036666666666667,291.077,-2.6576,-2.738,-1.5895000000000001,-1.5384,-171.17000000000002,215.9,190.309125,0.0,0.0,0.0,0.0,0.06236666666666667,-5.498166666666667,-5.498166666666667,-0.5862,-0.457,-0.04044444444444428,0.619,69.509,-0.0401999999999999,-0.21425000000000002,0.016000000000000014,100.0,1.0,1.0,214.17666666666668,0.0,0.0,0.0,0.0,0.0,0.0,0.0,9078.2,0.0,55.0,5.0,250.20666666666665,1.0,0.0,0.0,0.0,0.0,0.0,1.0,0.0,1.5539999999999985,1.5539999999999985,0.0,0.0,1.0,55.0,616.79921,10000.0,85.000001,85.000001,85.000001,85.000001,395.0,0.0,0.0,0.0,1.0,55.556,51.62,51.62,45.593,45.593,34.0,-24.0,24.168,-34.20666666666666,28.7375,0.0,1781.319,-0.16499999999999915,100.0,29.204,28.57,44.702,44.022999999999996,0.0,1.0,100.0,0.0,0.0,0.0,0.0,3069.142857142857,3181.5,4441.125,4284.6,305.5155,304.85833333333335,313.975,314.16,22.0225,20.6668,21.945,21.4602,314.999998,314.999998,324.999988,324.999988,99.55668571428572,99.50721666666666,99.56322857142857,99.5445,0.0625,-0.08366666666666656,-0.1436666666666666,0.08750000000000013,-0.051666666666669414,-0.04999999999999716,1.4396666666666669,1.4523333333333333,38.641,30.167,38.156,35.1265,54.962,35.497,58.2595,51.831,52.949,34.618,56.8795,50.209,52.111000000000004,34.17,56.766999999999996,49.63766666666667,-0.09799999999999986,-0.06800000000000006,0.10382000000000001,0.11167500000000001,0.0,217.595,217.57,214.17666666666668,214.17666666666668,0.0,0.0
32,0.0,0.0,0.0,1.0,1.0,0.0,0.0,1.0,0.0,0.0,1.0,1.1856,26.0,0.0,0.0,0.0,59.999996,0.0,26.0,26.0,26.0,26.0,-0.03322222222222215,0.28290000000000015,-0.0007333333333333333,291.306,-2.6408,-2.740555555555556,-1.5504,-1.5441,-166.57999999999998,215.88,190.275875,0.0,0.0,0.0,0.0,0.06503333333333335,-5.498166666666667,-5.498166666666667,-0.6062000000000001,0.1205,-0.06111111111111134,0.461,69.676,-0.020999999999999908,-0.22510000000000002,-0.017999999999999794,100.0,1.0,1.0,214.80666666666667,0.0,0.0,0.0,0.0,0.0,0.0,0.0,9104.8,0.0,55.0,5.0,250.80666666666667,0.0,0.0,0.0,0.0,0.0,0.0,1.0,0.0,1.620000000000001,1.620000000000001,0.0,0.0,0.0,55.0,616.79921,10000.0,85.000001,85.000001,85.000001,85.000001,395.0,0.0,0.0,0.0,1.0,55.556,51.575,51.575,46.555,46.555,34.0,-24.075,24.198,-29.993333333333332,29.585,0.0,1781.252,-0.21499999999999986,100.0,29.163,28.622,44.431,43.897,0.0,1.0,100.0,0.0,0.0,0.0,0.0,3132.714285714286,3082.2,4194.0,4344.6,305.216,305.00266666666664,314.57425,314.175,22.034399999999998,20.6741,21.958111111111112,21.471899999999998,314.999998,314.999998,324.999988,324.999988,99.5567,99.50723333333333,99.56342857142857,99.54468571428572,0.07374999999999998,-0.06733333333333336,-0.1223333333333334,0.10066666666666668,-0.04333333333332945,-0.05333333333332746,1.4993333333333332,1.5123333333333333,38.715,30.213,38.238,35.199,54.948,35.5505,58.3155,51.9135,52.936,34.667500000000004,56.9315,50.288,52.096000000000004,34.217333333333336,56.815,49.715,-0.09799999999999986,-0.06800000000000006,0.09967500000000001,0.10809500000000001,0.0,218.12,218.10000000000002,214.80666666666667,214.80666666666667,0.0,0.0
33,0.0,0.0,0.0,1.0,1.0,0.0,0.0,1.0,0.0,0.0,1.0,1.1856,26.0,0.0,0.0,0.0,59.999996,0.0,26.0,26.0,26.0,26.0,-0.01488888888888884,0.2752000000000001,-0.019433333333333334,291.519,-2.632,-2.7123333333333335,-1.5773000000000001,-1.6240999999999999,-164.28,215.87,190.25875,0.0,0.0,0.0,0.0,0.06636666666666667,-5.498166666666667,-5.498166666666667,-0.6087,-0.246,-0.05833333333333357,0.028,69.761,-0.015100000000000002,-0.214925,0.0039999999999995595,100.0,1.0,1.0,215.04000000000002,0.0,0.0,0.0,0.0,0.0,0.0,0.0,9114.8,0.0,55.0,5.0,251.11333333333334,1.0,0.0,0.0,0.0,0.0,0.0,1.0,0.0,1.6529999999999987,1.6529999999999987,0.0,0.0,1.0,55.0,616.79921,10000.0,85.000001,85.000001,85.000001,85.000001,395.0,0.0,0.0,0.0,1.0,55.556,51.926,51.926,46.616,46.616,34.0,-23.61,23.042,-31.303333333333335,29.05,0.0,1781.219,-0.2749999999999986,100.0,28.863,28.536,44.266,44.001999999999995,0.0,1.0,100.0,0.0,0.0,0.0,0.0,3155.142857142857,2976.7,4297.375,4210.0,305.334,305.272,314.446,314.4005,22.0403,20.677599999999998,21.964666666666666,21.4777,314.999998,314.999998,324.999988,324.999988,99.5567,99.50723333333333,99.56352857142858,99.54478571428571,0.08174999999999999,-0.06799999999999995,-0.12649999999999995,0.08733333333333326,-0.04333333333332945,-0.060000000000002274,1.5076666666666667,1.51,38.751999999999995,30.235500000000002,38.278999999999996,35.2355,54.941,35.575,58.3435,51.9555,52.929,34.69,56.958,50.328,52.089,34.23866666666667,56.8395,49.754,-0.10949999999999993,-0.06050000000000022,0.10425000000000001,0.10635000000000001,0.0,218.37,218.365,215.04000000000002,215.04000000000002,0.0,0.0
34,0.0,0.0,0.0,1.0,1.0,0.0,0.0,1.0,0.0,0.0,1.0,1.1856,26.0,0.0,0.0,0.0,59.999996,0.0,26.0,26.0,26.0,26.0,-0.010000000000000009,0.2490000000000001,-0.0716,291.916,-2.7478,-2.6790000000000003,-1.6174,-1.5633,-160.72,215.85500000000002,190.23125,0.0,0.0,0.0,0.0,0.06843333333333335,-5.498166666666667,-5.498166666666667,-0.6362,-0.7020000000000001,-0.019333333333333425,1.075,69.89,-0.005899999999999905,-0.221475,-0.1039999999999992,100.0,1.0,1.0,215.48000000000002,0.0,0.0,0.0,0.0,0.0,0.0,0.0,9133.4,0.0,55.0,5.0,251.57666666666665,0.0,0.0,0.0,0.0,0.0,0.0,1.0,0.0,1.7040000000000006,1.7040000000000006,0.0,0.0,0.0,55.0,616.79921,10000.0,85.000001,85.000001,85.000001,85.000001,395.0,0.0,0.0,0.0,1.0,55.556,52.277,52.277,47.501,47.501,34.0,-24.0125,23.78,-28.89666666666666,29.77,0.0,1781.169,-0.28500000000000014,100.0,28.597,28.092,44.038,43.954,0.0,1.0,100.0,0.0,0.0,0.0,0.0,3102.285714285714,3031.8,4027.875,4264.7,305.478,305.29566666666665,315.09425,314.31675,22.0493,20.6832,21.974777777777778,21.4867,314.999998,314.999998,324.999988,324.999988,99.55671428571429,99.50723333333333,99.56367142857142,99.54494285714286,0.08700000000000019,-0.04933333333333334,-0.11599999999999999,0.11116666666666686,-0.036666666666668846,-0.04333333333332945,1.52,1.5283333333333333,38.808,30.27,38.342,35.292,54.929,35.613,58.385,52.0205,52.918,34.7245,56.9965,50.39066666666667,52.077,34.272,56.875,49.815,-0.09899999999999998,-0.05750000000000011,0.10517000000000001,0.1067,0.0,218.75,218.745,215.48000000000002,215.48000000000002,0.0,0.0
35,0.0,0.0,0.0,1.0,1.0,0.0,0.0,1.0,0.0,0.0,1.0,1.1856,26.0,0.0,0.0,0.0,59.999996,0.0,26.0,26.0,26.0,26.0,-0.0050000000000000044,0.24730000000000008,-0.09813333333333334,291.931,-2.699,-2.661777777777778,-1.5998999999999999,-1.5314999999999999,-156.1,215.835,190.192625,0.0,0.0,0.0,0.0,0.0711,-5.498166666666667,-5.498166666666667,-0.6845,-0.0425,-0.028999999999999915,-0.14200000000000002,70.056,0.0051000000000001044,-0.2255,-0.2579999999999991,100.0,1.0,1.0,216.10000000000002,0.0,0.0,0.0,0.0,0.0,0.0,0.0,9159.7,0.0,55.0,5.0,252.17666666666668,1.0,0.0,0.0,0.0,0.0,0.0,1.0,0.0,1.7699999999999996,1.7699999999999996,0.0,0.0,1.0,55.0,616.79921,10000.0,85.000001,85.000001,85.000001,85.000001,395.0,0.0,0.0,0.0,1.0,55.556,51.62,51.62,47.18,47.18,34.0,-23.3675,27.552,-27.189999999999998,27.1,0.0,1781.102,-0.23499999999999943,100.0,28.377,28.488,43.666,43.472,0.0,1.0,100.0,0.0,0.0,0.0,0.0,3103.0,3415.1,3939.0,3970.2,305.3795,304.06466666666665,315.2395,315.05475,22.0607,20.6906,21.987666666666666,21.4982,314.999998,314.999998,324.999988,324.999988,99.55672857142856,99.50725,99.56387142857143,99.54512857142858,0.09450000000000003,-0.04166666666666663,-0.10366666666666657,0.1186666666666667,-0.03333333333333144,-0.06499999999999773,1.5736666666666668,1.563,38.879999999999995,30.316,38.423,35.364,54.913,35.6635,58.437,52.1005,52.903,34.7715,57.045,50.467333333333336,52.06,34.317,56.9195,49.89,-0.09749999999999992,-0.06050000000000022,0.10849500000000001,0.099735,0.0,219.26,219.285,216.10000000000002,216.10000000000002,0.0,0.0
