,ABS Active,ABS Enabled,AID Allow Tire Blankets,AID Auto Blip,AID Auto Clutch,AID Auto Shift,AID Fuel Rate,AID Ideal Line,AID Mech Damage,AID Stability,AID Tire Wear Rate,Air Density,Air Temp,Ballast,Best Lap Delta,Best Lap Time,Brake Bias,Brake Pos,Brake Temp FL,Brake Temp FR,Brake Temp RL,Brake Temp RR,CG Accel Lateral,CG Accel Longitudinal,CG Accel Vertical,CG Height,Camber FL,Camber FR,Camber RL,Camber RR,Car Coord X,Car Coord Y,Car Coord Z,Car Damage Front,Car Damage Left,Car Damage Rear,Car Damage Right,Car Pos Norm,Caster FL,Caster FR,Chassis Pitch Angle,Chassis Pitch Rate,Chassis Roll Angle,Chassis Roll Rate,Chassis Velocity X,Chassis Velocity Y,Chassis Velocity Z,Chassis Yaw Rate,Clutch Pos,DRS Active,DRS Available,Drive Train Speed,ERS Heat Charging,ERS Is Charging,ERS Max Energy,ERS Power Level,ERS Recovery Level,Engine Brake Setting,Engine Limiter,Engine RPM,Flags,Fuel Level,Gear,Ground Speed,HR Sample Clock,In Pit,KERS Charge,KERS Deployed Energy,KERS Input,KERS Max Energy,LR Sample Clock,Lap Invalidated,Lap Time,Lap Time2,Last Lap Time,Last Sector Time,MR Sample Clock,Max Fuel,Max Power,Max RPM,Max Sus Travel FL,Max Sus Travel FR,Max Sus Travel RL,Max Sus Travel RR,Max Torque,Max Turbo Boost,Num Tires Off Track,Penalties Enabled,Position,Raw Data Sample Rate,Ride Height FL,Ride Height FR,Ride Height RL,Ride Height RR,Road Temp,Self Align Torque FL,Self Align Torque FR,Self Align Torque RL,Self Align Torque RR,Session Lap Count,Session Time Left,Steering Angle,Surface Grip,Suspension Travel FL,Suspension Travel FR,Suspension Travel RL,Suspension Travel RR,TC Active,TC Enabled,Throttle Pos,Tire Dirt Level FL,Tire Dirt Level FR,Tire Dirt Level RL,Tire Dirt Level RR,Tire Load FL,Tire Load FR,Tire Load RL,Tire Load RR,Tire Loaded Radius FL,Tire Loaded Radius FR,Tire Loaded Radius RL,Tire Loaded Radius RR,Tire Pressure FL,Tire Pressure FR,Tire Pressure RL,Tire Pressure RR,Tire Radius FL,Tire Radius FR,Tire Radius RL,Tire Radius RR,Tire Rubber Grip FL,Tire Rubber Grip FR,Tire Rubber Grip RL,Tire Rubber Grip RR,Tire Slip Angle FL,Tire Slip Angle FR,Tire Slip Angle RL,Tire Slip Angle RR,Tire Slip Ratio FL,Tire Slip Ratio FR,Tire Slip Ratio RL,Tire Slip Ratio RR,Tire Temp Core FL,Tire Temp Core FR,Tire Temp Core RL,Tire Temp Core RR,Tire Temp Inner FL,Tire Temp Inner FR,Tire Temp Inner RL,Tire Temp Inner RR,Tire Temp Middle FL,Tire Temp Middle FR,Tire Temp Middle RL,Tire Temp Middle RR,Tire Temp Outer FL,Tire Temp Outer FR,Tire Temp Outer RL,Tire Temp Outer RR,Toe In FL,Toe In FR,Toe In RL,Toe In RR,Turbo Boost,Wheel Angular Speed FL,Wheel Angular Speed FR,Wheel Angular Speed RL,Wheel Angular Speed RR,Wind Direction,Wind Speed
0,0.0,0.0,0.0,1.0,1.0,0.0,0.0,1.0,0.0,0.0,1.0,1.1856,26.0,0.0,0.0,0.0,59.99999,0.0,26.0,26.0,26.0,26.0,-0.08062499999999995,0.29370000000000007,0.09093333333333334,293.777,-2.7349,-2.619111111111111,-1.5069,-1.5518,-274.92,216.29000000000002,190.982875,0.0,0.0,0.0,0.0,0.002033333333333333,-5.498166666666667,-5.498166666666667,-0.5336000000000001,1.5126666666666666,-0.020000000000000018,-2.0869999999999997,65.548,-0.0303,-0.20345000000000002,1.0099999999999998,100.0,1.0,1.0,202.35333333333332,0.0,0.0,0.0,0.0,0.0,0.0,0.0,8577.0,0.0,55.0,5.0,235.94333333333333,0.0,0.0,0.0,0.0,0.0,0.0,0.0,0.0,0.015000000000000568,0.015000000000000568,0.0,0.0,0.0,55.0,616.79921,10000.0,85.0,85.0,85.0,85.0,395.0,0.0,0.0,0.0,1.0,20.0,52.551,52.551,48.888999999999996,48.888999999999996,34.0,-26.935000000000002,21.61333333333333,-31.32666666666666,24.130000000000003,0.0,1782.602,0.8300000000000018,100.0,27.493,27.526,40.746,40.626,0.0,1.0,100.0,0.0,0.0,0.0,0.0,3057.5714285714284,3183.7,4240.375,3889.1000000000004,305.57,304.292,314.4675,315.123,21.7724,20.5124,21.7397,21.283,314.99999,314.99999,324.99998,324.99998,99.5584,99.50708333333333,99.56391428571429,99.54395714285714,0.0,-0.127,-0.15800000000000003,0.06666666666666687,-0.045000000000001705,-0.06285714285714761,1.537,1.581,37.078,29.202666666666666,36.873000000000005,34.0185,56.116,34.3785,58.658,51.2295,54.046,33.572,57.306,49.603,53.223,33.1535,57.2795,49.031,-0.013500000000000068,-0.1379999999999999,0.10815000000000001,0.10359000000000002,0.0,205.43,205.32999999999998,202.35333333333335,202.35333333333332,0.0,0.0
1,0.0,0.0,0.0,1.0,1.0,0.0,0.0,1.0,0.0,0.0,1.0,1.1856,26.0,0.0,0.0,0.0,59.999996,0.0,26.0,26.0,26.0,26.0,-0.10212500000000002,0.2815000000000001,-0.007500000000000001,293.06,-2.6236,-2.7763333333333335,-1.5061,-1.5248,-271.57,216.285,190.963,0.0,0.0,0.0,0.0,0.004,-5.498166666666667,-5.498166666666667,-0.5102,-1.1186666666666667,-0.06411111111111145,-0.5590000000000002,65.702,-0.051300000000000005,-0.21860000000000002,1.386000000000001,100.0,1.0,1.0,202.57666666666665,0.0,0.0,0.0,0.0,0.0,0.0,0.0,8586.5,0.0,55.0,5.0,236.49666666666667,1.0,0.0,0.0,0.0,0.0,0.0,0.0,0.0,0.06599999999999895,0.06599999999999895,0.0,0.0,1.0,55.0,616.79921,10000.0,85.000001,85.000001,85.000001,85.000001,395.0,0.0,0.0,0.0,1.0,55.556,53.299,53.299,48.477000000000004,48.477000000000004,34.0,-26.41,18.991666666666667,-32.65,27.025000000000002,0.0,1782.552,0.870000000000001,100.0,27.756,26.990000000000002,42.764,42.019,0.0,1.0,100.0,0.0,0.0,0.0,0.0,3096.0,2786.1,4231.5,4368.8,305.3475,305.9596666666667,314.4305,313.746,21.7823,20.5174,21.7504,21.2921,314.999998,314.999998,324.999988,324.999988,99.5584,99.50711666666666,99.56405714285714,99.5441,0.0023333333333335204,-0.1383333333333332,-0.1728333333333334,0.048833333333333284,-0.026666666666670835,-0.03999999999999915,1.417,1.4789999999999999,37.138999999999996,29.233666666666664,36.94,34.0755,56.101,34.417500000000004,58.7035,51.298,54.031,33.608000000000004,57.3485,49.6685,53.207,33.188,57.319,49.095333333333336,-0.004999999999999893,-0.15100000000000025,0.10272500000000001,0.10929000000000001,0.0,205.85000000000002,205.73000000000002,202.57666666666665,202.57666666666665,0.0,0.0
2,0.0,0.0,0.0,1.0,1.0,0.0,0.0,1.0,0.0,0.0,1.0,1.1856,26.0,0.0,0.0,0.0,59.999996,0.0,26.0,26.0,26.0,26.0,-0.10949999999999993,0.30069999999999997,-0.04073333333333334,293.625,-2.6271,-2.769222222222222,-1.5091999999999999,-1.5852,-268.22,216.275,190.944125,0.0,0.0,0.0,0.0,0.005933333333333334,-5.498166666666667,-5.498166666666667,-0.5438000000000001,0.6453333333333333,-0.027111111111111086,1.353,65.844,-0.07490000000000001,-0.24422500000000003,1.58,100.0,1.0,1.0,203.43666666666667,0.0,0.0,0.0,0.0,0.0,0.0,0.0,8623.0,0.0,55.0,5.0,237.01,0.0,0.0,0.0,0.0,0.0,0.0,0.0,0.0,0.11700000000000088,0.11700000000000088,0.0,0.0,0.0,55.0,616.79921,10000.0,85.000001,85.000001,85.000001,85.000001,395.0,0.0,0.0,0.0,1.0,55.556,52.444,52.444,50.034,50.034,34.0,-29.22,20.375,-29.166666666666664,21.1725,0.0,1782.502,0.6550000000000011,100.0,28.258,27.16,42.312,41.339,0.0,1.0,100.0,0.0,0.0,0.0,0.0,3268.714285714286,2983.9,3726.75,3904.5,304.8805,305.21866666666665,315.74125,315.19125,21.7924,20.5224,21.7608,21.3007,314.999998,314.999998,324.999988,324.999988,99.55841428571429,99.50713333333333,99.56421428571429,99.54422857142858,-0.02299999999999991,-0.14466666666666672,-0.21916666666666662,0.0028333333333334654,-0.05333333333332746,-0.05857142857143316,1.609,1.668,37.203,29.265,37.004999999999995,34.129,56.089,34.458,58.742,51.3545,54.019999999999996,33.644999999999996,57.3845,49.723,53.195,33.2235,57.352000000000004,49.148666666666664,-0.02499999999999991,-0.12449999999999983,0.10462,0.10813500000000001,0.0,206.335,206.18,203.43666666666667,203.43666666666667,0.0,0.0
3,0.0,0.0,0.0,1.0,1.0,0.0,0.0,1.0,0.0,0.0,1.0,1.1856,26.0,0.0,0.0,0.0,59.999996,0.0,26.0,26.0,26.0,26.0,-0.13287499999999997,0.28049999999999997,-0.05593333333333334,293.472,-2.7275,-2.697111111111111,-1.5087000000000002,-1.5973,-265.06,216.265,190.925625,0.0,0.0,0.0,0.0,0.007766666666666667,-5.498166666666667,-5.498166666666667,-0.5094000000000001,-0.05699999999999994,-0.01766666666666694,-1.5790000000000002,65.988,-0.0852,-0.20295000000000002,1.186,100.0,1.0,1.0,203.55333333333334,0.0,0.0,0.0,0.0,0.0,0.0,0.0,8627.9,0.0,55.0,5.0,237.52666666666667,1.0,0.0,0.0,0.0,0.0,0.0,0.0,0.0,0.16499999999999915,0.16499999999999915,0.0,0.0,1.0,55.0,616.79921,10000.0,85.000001,85.000001,85.000001,85.000001,395.0,0.0,0.0,0.0,1.0,66.667,53.772,53.772,48.035,48.035,34.0,-25.43,17.87833333333333,-35.28333333333333,24.66,0.0,1782.452,0.625,100.0,27.8,27.017,42.515,41.653999999999996,0.0,1.0,100.0,0.0,0.0,0.0,0.0,2832.857142857143,2770.3,4332.375,4207.4,306.2305,305.8353333333333,314.289,314.319,21.8015,20.5272,21.7706,21.3091,314.999998,314.999998,324.999988,324.999988,99.55841428571429,99.50713333333333,99.56434285714286,99.54437142857142,-0.022333333333333316,-0.1519999999999999,-0.21299999999999997,0.013833333333333364,-0.02833333333332888,-0.047142857142851824,1.4865,1.5125,37.259,29.295,37.066,34.1815,56.072,34.4975,58.782,51.4155,54.004000000000005,33.6815,57.422,49.7815,53.178,33.2585,57.387,49.206,-0.03200000000000003,-0.11549999999999994,0.104175,0.11127500000000001,0.0,206.75,206.66,203.55333333333334,203.55333333333334,0.0,0.0
4,0.0,0.0,0.0,1.0,1.0,0.0,0.0,1.0,0.0,0.0,1.0,1.1856,26.0,0.0,0.0,0.0,59.999996,0.0,26.0,26.0,26.0,26.0,-0.15387499999999998,0.2943,-0.05853333333333334,293.655,-2.648,-2.752666666666667,-1.5158,-1.6064,-261.69,216.25,190.90575,0.0,0.0,0.0,0.0,0.009733333333333333,-5.498166666666667,-5.498166666666667,-0.5487000000000001,-0.37,-0.08477777777777806,-0.05900000000000016,66.133,-0.08710000000000001,-0.23865,1.1679999999999993,100.0,1.0,1.0,204.21,0.0,0.0,0.0,0.0,0.0,0.0,0.0,8655.7,0.0,55.0,5.0,238.05,0.0,0.0,0.0,0.0,0.0,0.0,0.0,0.0,0.21600000000000108,0.21600000000000108,0.0,0.0,0.0,55.0,616.79921,10000.0,85.000001,85.000001,85.000001,85.000001,395.0,0.0,0.0,0.0,1.0,55.556,52.841,52.841,49.132999999999996,49.132999999999996,34.0,-29.14,20.30833333333333,-31.019999999999996,21.127499999999998,0.0,1782.402,0.5300000000000011,100.0,27.877,26.75,42.809,41.283,0.0,1.0,100.0,0.0,0.0,0.0,0.0,3276.0,2992.7,3976.0,3683.0,304.818,305.33866666666665,315.07075,315.6955,21.8113,20.5323,21.7812,21.3178,314.999998,314.999998,324.999988,324.999988,99.55841428571429,99.50715,99.56448571428571,99.54451428571429,-0.013333333333333197,-0.14100000000000001,-0.20350000000000001,0.024666666666666837,-0.06666666666666998,-0.04999999999999716,1.6105,1.63,37.321,29.326999999999998,37.132,34.236,56.056,34.539500000000004,58.8245,51.4735,53.989000000000004,33.72,57.4615,49.837,53.162,33.295,57.424,49.260333333333335,-0.03499999999999992,-0.11399999999999988,0.10012000000000001,0.10895,0.0,207.19,207.085,204.21,204.21,0.0,0.0
5,0.0,0.0,0.0,1.0,1.0,0.0,0.0,1.0,0.0,0.0,1.0,1.1856,26.0,0.0,0.0,0.0,59.999996,0.0,26.0,26.0,26.0,26.0,-0.12475000000000003,0.29490000000000016,0.018566666666666665,293.457,-2.6781,-2.759444444444444,-1.5154,-1.5826,-258.31,216.23000000000002,190.88525,0.0,0.0,0.0,0.0,0.0117,-5.498166666666667,-5.498166666666667,-0.5324,0.21733333333333338,-0.0778888888888889,-0.33499999999999996,66.281,-0.0874,-0.21185,0.9700000000000006,100.0,1.0,1.0,204.51666666666665,0.0,0.0,0.0,0.0,0.0,0.0,0.0,8668.8,0.0,55.0,5.0,238.57999999999998,1.0,0.0,0.0,0.0,0.0,0.0,0.0,0.0,0.26699999999999946,0.26699999999999946,0.0,0.0,1.0,55.0,616.79921,10000.0,85.000001,85.000001,85.000001,85.000001,395.0,0.0,0.0,0.0,1.0,55.556,53.345,53.345,48.66,48.66,34.0,-28.4575,19.221666666666668,-34.71333333333333,23.15,0.0,1782.352,0.1999999999999993,100.0,27.734,26.75,42.625,41.357,0.0,1.0,100.0,0.0,0.0,0.0,0.0,3218.714285714286,2809.1,4264.875,4096.3,305.1595,305.77166666666665,314.48375,314.62125,21.8212,20.537399999999998,21.7916,21.3265,314.999998,314.999998,324.999988,324.999988,99.55841428571429,99.50718333333333,99.56462857142857,99.54464285714286,-0.010333333333333306,-0.1373333333333333,-0.21450000000000002,0.006000000000000005,-0.03833333333332689,-0.03999999999999915,1.4965,1.5354999999999999,37.382999999999996,29.358666666666664,37.198,34.2905,56.042,34.58,58.8665,51.534,53.974999999999994,33.757,57.501,49.894999999999996,53.147999999999996,33.3305,57.46,49.31733333333334,-0.06349999999999989,-0.08800000000000008,0.10282000000000001,0.10769000000000001,0.0,207.65,207.56,204.51666666666665,204.51666666666665,0.0,0.0
6,0.0,0.0,0.0,1.0,1.0,0.0,0.0,1.0,0.0,0.0,1.0,1.1856,26.0,0.0,0.0,0.0,59.999996,0.0,26.0,26.0,26.0,26.0,-0.09699999999999998,0.29590000000000005,0.0008666666666666666,293.457,-2.6435,-2.7911111111111113,-1.558,-1.5804,-255.12,216.21,190.866,0.0,0.0,0.0,0.0,0.013533333333333335,-5.498166666666667,-5.498166666666667,-0.5301,0.06000000000000005,-0.061555555555555586,-0.548,66.418,-0.07970000000000001,-0.21405000000000002,0.6720000000000006,100.0,1.0,1.0,204.97333333333333,0.0,0.0,0.0,0.0,0.0,0.0,0.0,8688.1,0.0,55.0,5.0,239.07333333333332,0.0,0.0,0.0,0.0,0.0,0.0,0.0,0.0,0.3150000000000013,0.3150000000000013,0.0,0.0,0.0,55.0,616.79921,10000.0,85.000001,85.000001,85.000001,85.000001,395.0,0.0,0.0,0.0,1.0,66.667,53.299,53.299,48.584,48.584,34.0,-27.0,20.235,-34.01,23.705,0.0,1782.302,0.030000000000001137,100.0,27.655,26.907,42.679,41.628,0.0,1.0,100.0,0.0,0.0,0.0,0.0,3164.5714285714284,2830.4,4172.75,4041.7,305.2895,305.62666666666667,314.7035,314.7645,21.8305,20.5422,21.8015,21.3349,314.999998,314.999998,324.999988,324.999988,99.55841428571429,99.50718333333333,99.56477142857143,99.54477142857142,0.004999999999999893,-0.12433333333333318,-0.21099999999999997,0.026833333333333265,-0.046666666666666856,-0.054285714285711606,1.5374999999999999,1.5705,37.441,29.388666666666666,37.259,34.343,56.028,34.618,58.9055,51.593,53.962,33.792500000000004,57.537,49.951,53.134,33.364,57.494,49.37233333333333,-0.07600000000000007,-0.07399999999999984,0.11086000000000001,0.112655,0.0,208.065,208.005,204.97333333333333,204.97333333333333,0.0,0.0
7,0.0,0.0,0.0,1.0,1.0,0.0,0.0,1.0,0.0,0.0,1.0,1.1856,26.0,0.0,0.0,0.0,59.999996,0.0,26.0,26.0,26.0,26.0,-0.07074999999999998,0.2804,0.0035333333333333336,293.427,-2.6149,-2.749,-1.5190000000000001,-1.6191,-251.73,216.185,190.845625,0.0,0.0,0.0,0.0,0.015533333333333335,-5.498166666666667,-5.498166666666667,-0.5332,0.15300000000000002,-0.044222222222222385,1.159,66.563,-0.0646,-0.22205,0.31200000000000117,100.0,1.0,1.0,205.44,0.0,0.0,0.0,0.0,0.0,0.0,0.0,8707.9,0.0,55.0,5.0,239.60000000000002,1.0,0.0,0.0,0.0,0.0,0.0,0.0,0.0,0.36599999999999966,0.36599999999999966,0.0,0.0,1.0,55.0,616.79921,10000.0,85.000001,85.000001,85.000001,85.000001,395.0,0.0,0.0,0.0,1.0,55.556,53.085,53.085,48.92,48.92,34.0,-24.557499999999997,22.115000000000002,-29.943333333333335,25.6125,0.0,1782.252,-0.245000000000001,100.0,27.946,26.882,42.726,41.759,0.0,1.0,100.0,0.0,0.0,0.0,0.0,3052.0,2978.4,3973.75,4029.5,305.388,305.3426666666667,315.09225,314.833,21.8404,20.5474,21.812,21.3438,314.999998,314.999998,324.999988,324.999988,99.55842857142858,99.5072,99.56491428571428,99.54492857142857,0.03866666666666685,-0.09433333333333316,-0.17466666666666664,0.05499999999999994,-0.03333333333333144,-0.07000000000000028,1.547,1.5485,37.503,29.421,37.325,34.399,56.013,34.658,58.946,51.655,53.948,33.829,57.575,50.010999999999996,53.119,33.399,57.528999999999996,49.43066666666667,-0.08949999999999991,-0.05799999999999983,0.10800000000000001,0.10745500000000001,0.0,208.49,208.47500000000002,205.44,205.44,0.0,0.0
8,0.0,0.0,0.0,1.0,1.0,0.0,0.0,1.0,0.0,0.0,1.0,1.1856,26.0,0.0,0.0,0.0,59.999996,0.0,26.0,26.0,26.0,26.0,-0.025499999999999967,0.27500000000000013,-0.0385,293.533,-2.7002,-2.7205555555555554,-1.4979,-1.5746,-248.32999999999998,216.16,190.824875,0.0,0.0,0.0,0.0,0.0175,-5.498166666666667,-5.498166666666667,-0.5419,-0.6066666666666667,-0.034222222222222154,-0.6419999999999999,66.709,-0.0444,-0.221275,-0.03799999999999937,100.0,1.0,1.0,205.84,0.0,0.0,0.0,0.0,0.0,0.0,0.0,8724.9,0.0,55.0,5.0,240.12333333333333,0.0,0.0,0.0,0.0,0.0,0.0,0.0,0.0,0.41699999999999804,0.41699999999999804,0.0,0.0,0.0,55.0,616.79921,10000.0,85.000001,85.000001,85.000001,85.000001,395.0,0.0,0.0,0.0,1.0,55.556,53.406,53.406,48.553,48.553,34.0,-25.085,22.545,-29.17,25.8275,0.0,1782.202,-0.34999999999999787,100.0,27.309,26.94,42.627,41.958,0.0,1.0,100.0,0.0,0.0,0.0,0.0,3107.0,2961.6,4035.0,3989.8,305.5465,305.28766666666667,314.978,314.84025,21.85,20.552599999999998,21.822400000000002,21.3527,314.999998,314.999998,324.999988,324.999988,99.55842857142858,99.50721666666666,99.56505714285714,99.54505714285715,0.04700000000000015,-0.07699999999999996,-0.15133333333333332,0.07433333333333336,-0.04833333333333201,-0.047142857142851824,1.519,1.541,37.563,29.453333333333333,37.39,34.454499999999996,55.997,34.696,58.987,51.717,53.932,33.864,57.6135,50.07,53.102999999999994,33.4325,57.564,49.48866666666667,-0.10450000000000004,-0.04600000000000026,0.10040500000000001,0.11099,0.0,208.93,208.9,205.84,205.84,0.0,0.0
9,0.0,0.0,0.0,1.0,1.0,0.0,0.0,1.0,0.0,0.0,1.0,1.1856,26.0,0.0,0.0,0.0,59.999996,0.0,26.0,26.0,26.0,26.0,-0.004375000000000018,0.2954000000000001,0.004200000000000001,293.03,-2.6283,-2.729,-1.5563,-1.5591,-245.13,216.135,190.805,0.0,0.0,0.0,0.0,0.019366666666666667,-5.498166666666667,-5.498166666666667,-0.5343,0.8346666666666669,-0.03155555555555578,-0.23099999999999987,66.843,-0.024300000000000002,-0.21030000000000001,-0.1459999999999999,100.0,1.0,1.0,206.27666666666667,0.0,0.0,0.0,0.0,0.0,0.0,0.0,8743.2,0.0,55.0,5.0,240.60666666666668,1.0,0.0,0.0,0.0,0.0,0.0,0.0,0.0,0.46499999999999986,0.46499999999999986,0.0,0.0,1.0,55.0,616.79921,10000.0,85.000001,85.000001,85.000001,85.000001,395.0,0.0,0.0,0.0,1.0,66.667,52.505,52.505,48.903999999999996,48.903999999999996,34.0,-25.122500000000002,23.346666666666664,-29.58,27.75,0.0,1782.152,-0.5,100.0,27.969,27.381,42.31,41.984,0.0,1.0,100.0,0.0,0.0,0.0,0.0,3297.714285714286,2961.4,4139.375,4139.5,304.8665,305.21733333333333,314.83025,314.55575,21.8593,20.5576,21.8322,21.361,314.999998,314.999998,324.999988,324.999988,99.55844285714285,99.50721666666666,99.56518571428572,99.5452,0.07366666666666655,-0.06099999999999994,-0.13183333333333336,0.09549999999999992,-0.04833333333333201,-0.048571428571428044,1.5554999999999999,1.5494999999999999,37.620999999999995,29.485,37.451,34.5065,55.986000000000004,34.7335,59.022999999999996,51.774,53.922,33.8985,57.6465,50.125,53.091,33.4655,57.5945,49.54266666666666,-0.11549999999999994,-0.03849999999999998,0.10326,0.11594000000000002,0.0,209.345,209.37,206.27666666666667,206.27666666666667,0.0,0.0
10,0.0,0.0,0.0,1.0,1.0,0.0,0.0,1.0,0.0,0.0,1.0,1.1856,26.0,0.0,0.0,0.0,59.999996,0.0,26.0,26.0,26.0,26.0,0.0182500000000001,0.27590000000000003,0.049133333333333334,293.091,-2.7103,-2.6684444444444444,-1.5453000000000001,-1.5393,-241.72,216.10750000000002,190.784375,0.0,0.0,0.0,0.0,0.021333333333333336,-5.498166666666667,-5.498166666666667,-0.5268,-1.0013333333333334,0.017888888888888843,1.502,66.99000000000001,-0.0023,-0.21450000000000002,-0.5700000000000003,100.0,1.0,1.0,206.59,0.0,0.0,0.0,0.0,0.0,0.0,0.0,8756.6,0.0,55.0,5.0,241.13333333333333,0.0,0.0,0.0,0.0,0.0,0.0,1.0,0.0,0.5159999999999982,0.5159999999999982,0.0,0.0,0.0,55.0,616.79921,10000.0,85.000001,85.000001,85.000001,85.000001,395.0,0.0,0.0,0.0,1.0,66.667,53.452,53.452,47.836,47.836,34.0,-21.175,24.064999999999998,-28.659999999999997,30.03,0.0,1782.102,-0.5749999999999993,100.0,27.647,27.116,42.907,42.682,0.0,1.0,100.0,0.0,0.0,0.0,0.0,2863.285714285714,3034.1,4127.125,4250.9,306.1555,305.2703333333333,314.687,314.27525,21.8689,20.5628,21.8428,21.3702,314.999998,314.999998,324.999988,324.999988,99.55844285714285,99.50723333333333,99.56532857142857,99.54532857142857,0.0950000000000002,-0.03833333333333311,-0.10949999999999993,0.12200000000000011,-0.046666666666666856,-0.04999999999999716,1.502,1.498,37.68,29.517666666666663,37.516999999999996,34.5635,55.972,34.769999999999996,59.0655,51.8395,53.909,33.932,57.686,50.188,53.078,33.498,57.631,49.60433333333333,-0.12399999999999989,-0.027000000000000135,0.11041500000000001,0.11475,0.0,209.76999999999998,209.785,206.59,206.59,0.0,0.0
11,0.0,0.0,0.0,1.0,1.0,0.0,0.0,1.0,0.0,0.0,1.0,1.1856,26.0,0.0,0.0,0.0,59.999996,0.0,26.0,26.0,26.0,26.0,0.05112500000000009,0.2956000000000001,-0.08256666666666666,293.488,-2.7107,-2.6615555555555557,-1.585,-1.5219,-238.3,216.07999999999998,190.763375,0.0,0.0,0.0,0.0,0.022600000000000002,-5.498166666666667,-5.498166666666667,-0.5608000000000001,0.2386666666666668,0.028666666666666618,-0.9130000000000003,67.128,0.0171,-0.229075,-0.6679999999999993,100.0,1.0,1.0,207.27666666666667,0.0,0.0,0.0,0.0,0.0,0.0,0.0,8785.7,0.0,55.0,5.0,241.63333333333333,1.0,0.0,0.0,0.0,0.0,0.0,1.0,0.0,0.5670000000000002,0.5670000000000002,0.0,0.0,1.0,55.0,616.79921,10000.0,85.000001,85.000001,85.000001,85.000001,395.0,0.0,0.0,0.0,1.0,55.556,52.887,52.887,49.057,49.057,34.0,-22.0275,25.611666666666665,-25.049999999999997,27.3675,0.0,1782.052,-0.7249999999999979,100.0,27.417,27.623,42.09,42.461,0.0,1.0,100.0,0.0,0.0,0.0,0.0,3063.0,3071.0,3867.125,3915.0,305.599,304.88033333333334,315.51275,315.1315,21.8784,20.5683,21.853,21.379,314.999998,314.999998,324.999988,324.999988,99.55845714285714,99.50723333333333,99.56547142857143,99.54548571428572,0.11466666666666647,-0.015666666666666718,-0.08516666666666661,0.14116666666666666,-0.05333333333332746,-0.054285714285711606,1.64,1.6135,37.739999999999995,29.551666666666666,37.581,34.619,55.959,34.8085,59.1,51.9,53.896,33.9675,57.718,50.246,53.064,33.532,57.66,49.661,-0.13850000000000007,-0.02300000000000013,0.101345,0.10785000000000002,0.0,210.21,210.24,207.27666666666667,207.27666666666667,0.0,0.0
12,0.0,0.0,0.0,1.0,1.0,0.0,0.0,1.0,0.0,0.0,1.0,1.1856,26.0,0.0,0.0,0.0,59.999996,0.0,26.0,26.0,26.0,26.0,0.05624999999999991,0.29900000000000015,0.045033333333333335,292.816,-2.7283,-2.669666666666667,-1.5577,-1.5402,-235.07,216.055,190.7425,0.0,0.0,0.0,0.0,0.025466666666666665,-5.498166666666667,-5.498166666666667,-0.5437000000000001,0.2466666666666668,0.017111111111111077,-0.827,67.265,0.033100000000000004,-0.2079,-0.5839999999999996,100.0,1.0,1.0,207.47,0.0,0.0,0.0,0.0,0.0,0.0,0.0,8793.8,0.0,55.0,5.0,242.12666666666667,0.0,0.0,0.0,0.0,0.0,0.0,1.0,0.0,0.6149999999999984,0.6149999999999984,0.0,0.0,0.0,55.0,616.79921,10000.0,85.000001,85.000001,85.000001,85.000001,395.0,0.0,0.0,0.0,1.0,66.667,52.643,52.643,47.836,47.836,34.0,-23.18,25.341666666666665,-27.456666666666663,31.01,0.0,1782.002,-0.3949999999999996,100.0,27.394,27.836,42.283,42.643,0.0,1.0,100.0,0.0,0.0,0.0,0.0,3132.857142857143,3106.4,4209.25,4202.7,305.4365,304.74966666666666,314.61,314.365,21.8873,20.5734,21.8629,21.3875,314.999998,314.999998,324.999988,324.999988,99.55848571428571,99.50723333333333,99.5656,99.54561428571428,0.10433333333333339,-0.03299999999999992,-0.07533333333333336,0.14783333333333326,-0.04333333333332945,-0.03857142857143003,1.5265,1.5005,37.796,29.584,37.643,34.672,55.948,34.8445,59.138,51.959,53.885,34.001,57.754,50.303,53.052,33.564,57.693,49.717,-0.10650000000000004,-0.05149999999999988,0.11055000000000001,0.106685,0.0,210.635,210.66,207.47,207.47,0.0,0.0
13,0.0,0.0,0.0,1.0,1.0,0.0,0.0,1.0,0.0,0.0,1.0,1.1856,26.0,0.0,0.0,0.0,59.999996,0.0,26.0,26.0,26.0,26.0,0.07899999999999996,0.2784,0.047,292.587,-2.7039999999999997,-2.676222222222222,-1.5923,-1.5307,-231.64,216.03,190.720875,0.0,0.0,0.0,0.0,0.027200000000000002,-5.498166666666667,-5.498166666666667,-0.54,-0.14966666666666661,0.02677777777777779,1.089,67.407,0.0366,-0.219725,-0.8360000000000003,100.0,1.0,1.0,207.87666666666667,0.0,0.0,0.0,0.0,0.0,0.0,0.0,8811.1,0.0,55.0,5.0,242.63666666666666,1.0,0.0,0.0,0.0,0.0,0.0,1.0,0.0,0.6660000000000004,0.6660000000000004,0.0,0.0,1.0,55.0,616.79921,10000.0,85.000001,85.000001,85.000001,85.000001,395.0,0.0,0.0,0.0,1.0,55.556,52.49,52.49,47.943,47.943,34.0,-20.3075,27.81,-26.053333333333335,32.4725,0.0,1781.952,-0.9250000000000007,100.0,27.851,27.833,42.602000000000004,43.077,0.0,1.0,100.0,0.0,0.0,0.0,0.0,3023.285714285714,3156.3,4102.625,4304.6,305.581,304.772,314.79925,314.15875,21.8968,20.5789,21.8734,21.3967,314.999998,314.999998,324.999988,324.999988,99.5585,99.50723333333333,99.56574285714285,99.54575714285714,0.14933333333333332,0.019000000000000128,-0.053166666666666584,0.16066666666666674,-0.02499999999999858,-0.05571428571428072,1.52,1.4905,37.855000000000004,29.618333333333332,37.708,34.729,55.938,34.8825,59.1775,52.025,53.876000000000005,34.036,57.7905,50.366,53.042,33.5975,57.7265,49.778999999999996,-0.14849999999999985,-0.008500000000000174,0.10251,0.10527500000000001,0.0,211.04500000000002,211.11,207.87666666666667,207.87666666666667,0.0,0.0
14,0.0,0.0,0.0,1.0,1.0,0.0,0.0,1.0,0.0,0.0,1.0,1.1856,26.0,0.0,0.0,0.0,59.999996,0.0,26.0,26.0,26.0,26.0,0.10899999999999999,0.2614000000000001,-0.0302,292.816,-2.7379,-2.668222222222222,-1.6025,-1.5103,-228.2,216.0075,190.699625,0.0,0.0,0.0,0.0,0.0292,-5.498166666666667,-5.498166666666667,-0.5499,-0.057666666666666644,0.05433333333333312,-0.387,67.54599999999999,0.0502,-0.227725,-1.0199999999999996,100.0,1.0,1.0,208.41666666666669,0.0,0.0,0.0,0.0,0.0,0.0,0.0,8834.0,0.0,55.0,5.0,243.13666666666666,0.0,0.0,0.0,0.0,0.0,0.0,1.0,0.0,0.7169999999999987,0.7169999999999987,0.0,0.0,0.0,55.0,616.79921,10000.0,85.000001,85.000001,85.000001,85.000001,395.0,0.0,0.0,0.0,1.0,55.556,52.505,52.505,48.233000000000004,48.233000000000004,34.0,-21.27,27.53666666666667,-24.95666666666667,30.9775,0.0,1781.902,-0.9749999999999979,100.0,27.491,28.091,42.391,43.283,0.0,1.0,100.0,0.0,0.0,0.0,0.0,3129.857142857143,3113.8,3983.625,4101.1,305.5405,304.7176666666667,315.18575,314.59125,21.9063,20.5844,21.8837,21.4057,314.999998,314.999998,324.999988,324.999988,99.55851428571428,99.50723333333333,99.5659,99.5459,0.14700000000000024,0.018000000000000238,-0.052166666666666583,0.17399999999999993,-0.03166666666666629,-0.06571428571428584,1.5625,1.524,37.914,29.65266666666667,37.772999999999996,34.7855,55.929,34.921,59.2145,52.088499999999996,53.866,34.072,57.825,50.427,53.031,33.632,57.7575,49.839,-0.1519999999999999,-0.004999999999999893,0.10691,0.10906500000000001,0.0,211.47500000000002,211.555,208.41666666666669,208.41666666666669,0.0,0.0
15,0.0,0.0,0.0,1.0,1.0,0.0,0.0,1.0,0.0,0.0,1.0,1.1856,26.0,0.0,0.0,0.0,59.999996,0.0,26.0,26.0,26.0,26.0,0.13624999999999998,0.27890000000000015,-0.0761,292.801,-2.7487,-2.6318888888888887,-1.6269,-1.5156,-224.95,215.9875,190.67925,0.0,0.0,0.0,0.0,0.031100000000000003,-5.498166666666667,-5.498166666666667,-0.5379,0.08800000000000008,0.07899999999999996,-0.9319999999999999,67.679,0.06380000000000001,-0.20700000000000002,-1.1760000000000002,100.0,1.0,1.0,208.75333333333333,0.0,0.0,0.0,0.0,0.0,0.0,0.0,8848.2,0.0,55.0,5.0,243.61333333333334,1.0,0.0,0.0,0.0,0.0,0.0,1.0,0.0,0.7650000000000006,0.7650000000000006,0.0,0.0,1.0,55.0,616.79921,10000.0,85.000001,85.000001,85.000001,85.000001,395.0,0.0,0.0,0.0,1.0,66.667,52.994,52.994,47.745,47.745,34.0,-18.21,27.56,-25.939999999999998,34.1125,0.0,1781.852,-0.9800000000000004,100.0,27.467,28.105,42.217,43.47,0.0,1.0,100.0,0.0,0.0,0.0,0.0,2827.285714285714,3088.5,4152.5,4280.7,306.313,304.8156666666667,314.857,314.12675,21.9151,20.5896,21.8935,21.4143,314.999998,314.999998,324.999988,324.999988,99.55852857142857,99.50725,99.56602857142857,99.54605714285714,0.16966666666666663,0.033666666666666956,-0.03866666666666663,0.1975,-0.045000000000001705,-0.047142857142851824,1.523,1.4915,37.97,29.685333333333332,37.834,34.839,55.919,34.958,59.249,52.1495,53.857,34.106,57.857,50.486000000000004,53.021,33.664500000000004,57.787,49.897,-0.15799999999999992,0.0009999999999998899,0.10290500000000001,0.11558500000000001,0.0,211.9,211.97500000000002,208.75333333333333,208.75333333333333,0.0,0.0
16,0.0,0.0,0.0,1.0,1.0,0.0,0.0,1.0,0.0,0.0,1.0,1.1856,26.0,0.0,0.0,0.0,59.999996,0.0,26.0,26.0,26.0,26.0,0.12637500000000013,0.2594000000000001,-0.0223,292.664,-2.7953,-2.586888888888889,-1.5948,-1.5182,-221.49,215.9725,190.657,0.0,0.0,0.0,0.0,0.033100000000000004,-5.498166666666667,-5.498166666666667,-0.5665,-0.3963333333333333,0.06477777777777782,-0.019000000000000128,67.818,0.0753,-0.22985,-1.2000000000000002,100.0,1.0,1.0,209.26666666666665,0.0,0.0,0.0,0.0,0.0,0.0,0.0,8870.0,0.0,55.0,5.0,244.11666666666667,0.0,0.0,0.0,0.0,0.0,0.0,1.0,0.0,0.815999999999999,0.815999999999999,0.0,0.0,0.0,55.0,616.79921,10000.0,85.000001,85.000001,85.000001,85.000001,395.0,0.0,0.0,0.0,1.0,55.556,52.109,52.109,48.203,48.203,34.0,-20.6475,30.358333333333334,-22.34666666666667,33.1025,0.0,1781.802,-0.8949999999999996,100.0,27.469,28.134,42.423,43.385,0.0,1.0,100.0,0.0,0.0,0.0,0.0,3109.857142857143,3398.2,3856.625,4099.7,305.434,304.0896666666667,315.4295,314.68125,21.9244,20.5953,21.9039,21.4233,314.999998,314.999998,324.999988,324.999988,99.55854285714285,99.50725,99.56617142857142,99.5462,0.17399999999999993,0.04133333333333322,-0.019499999999999962,0.21916666666666673,-0.045000000000001705,-0.05857142857143316,1.5765,1.538,38.027,29.720333333333336,37.899,34.896,55.908,34.9985,59.288,52.212,53.846000000000004,34.1435,57.8925,50.546,53.007999999999996,33.7005,57.8195,49.95633333333333,-0.1459999999999999,-0.0129999999999999,0.10786000000000001,0.11232,0.0,212.29000000000002,212.385,209.26666666666665,209.26666666666665,0.0,0.0
17,0.0,0.0,0.0,1.0,1.0,0.0,0.0,1.0,0.0,0.0,1.0,1.1856,26.0,0.0,0.0,0.0,59.999996,0.0,26.0,26.0,26.0,26.0,0.12549999999999994,0.28690000000000015,0.0463,292.114,-2.766,-2.563111111111111,-1.6439,-1.4765,-218.03,215.95749999999998,190.634375,0.0,0.0,0.0,0.0,0.0351,-5.498166666666667,-5.498166666666667,-0.5467000000000001,0.2470000000000001,0.049222222222222056,-0.43599999999999994,67.958,0.08080000000000001,-0.20745000000000002,-1.096,100.0,1.0,1.0,209.50666666666666,0.0,0.0,0.0,0.0,0.0,0.0,0.0,8880.2,0.0,55.0,5.0,244.62,1.0,0.0,0.0,0.0,0.0,0.0,1.0,0.0,0.8670000000000009,0.8670000000000009,0.0,0.0,1.0,55.0,616.79921,10000.0,85.000001,85.000001,85.000001,85.000001,395.0,0.0,0.0,0.0,1.0,55.556,52.261,52.261,47.226,47.226,34.0,-20.315,27.865000000000002,-27.803333333333335,34.6025,0.0,1781.752,-0.995000000000001,100.0,27.733,28.414,42.391,43.628,0.0,1.0,100.0,0.0,0.0,0.0,0.0,3131.714285714286,3145.9,4419.125,4395.6,305.471,304.7063333333333,314.18625,313.94225,21.9339,20.6009,21.9143,21.4325,314.999998,314.999998,324.999988,324.999988,99.55857142857143,99.50726666666667,99.56631428571428,99.54634285714286,0.17666666666666675,0.04366666666666674,-0.029000000000000026,0.19566666666666688,-0.05333333333332746,-0.04285714285714448,1.505,1.456,38.087,29.755666666666666,37.964,34.953,55.9,35.039,59.326499999999996,52.2765,53.839,34.181,57.9285,50.608000000000004,53.0,33.7365,57.852000000000004,50.016999999999996,-0.15849999999999986,-0.0009999999999998899,0.10970500000000001,0.10817,0.0,212.76999999999998,212.84,209.50666666666666,209.50666666666666,0.0,0.0
18,0.0,0.0,0.0,1.0,1.0,0.0,0.0,1.0,0.0,0.0,1.0,1.1856,26.0,0.0,0.0,0.0,59.999996,0.0,26.0,26.0,26.0,26.0,0.13887500000000008,0.2762,0.03153333333333333,292.16,-2.7196,-2.5292222222222223,-1.6612,-1.4186999999999999,-214.76999999999998,215.9475,190.613375,0.0,0.0,0.0,0.0,0.037000000000000005,-5.498166666666667,-5.498166666666667,-0.5634,-0.31333333333333335,0.0754444444444442,-0.43400000000000016,68.087,0.08410000000000001,-0.22935,-1.3439999999999994,100.0,1.0,1.0,209.99,0.0,0.0,0.0,0.0,0.0,0.0,0.0,8900.7,0.0,55.0,5.0,245.08666666666664,0.0,0.0,0.0,0.0,0.0,0.0,1.0,0.0,0.9149999999999991,0.9149999999999991,0.0,0.0,0.0,55.0,616.79921,10000.0,85.000001,85.000001,85.000001,85.000001,395.0,0.0,0.0,0.0,1.0,66.667,51.865,51.865,47.379,47.379,34.0,-18.895,30.951666666666668,-24.85333333333333,32.792500000000004,0.0,1781.702,-1.25,100.0,27.548000000000002,28.512,42.558,43.881,0.0,1.0,100.0,0.0,0.0,0.0,0.0,3107.5714285714284,3401.3,4090.625,4254.5,305.4645,303.93533333333335,314.95575,314.2845,21.9426,20.6062,21.9241,21.4411,314.999998,314.999998,324.999988,324.999988,99.5586,99.50726666666667,99.56644285714286,99.54648571428571,0.19600000000000017,0.061666666666666536,-0.01749999999999996,0.2058333333333333,-0.05333333333332746,-0.03999999999999915,1.542,1.4989999999999999,38.141999999999996,29.789,38.025,35.007,55.891999999999996,35.078,59.362,52.3375,53.83,34.217,57.9615,50.667,52.989999999999995,33.7715,57.882,50.075,-0.16999999999999993,0.0129999999999999,0.10523,0.10550500000000002,0.0,213.15,213.21,209.99,209.99,0.0,0.0
19,0.0,0.0,0.0,1.0,1.0,0.0,0.0,1.0,0.0,0.0,1.0,1.1856,26.0,0.0,0.0,0.0,59.999996,0.0,26.0,26.0,26.0,26.0,0.19237499999999996,0.28480000000000016,0.04516666666666667,292.023,-2.7179,-2.6368888888888886,-1.5939,-1.5417,-211.29,215.94,190.59075,0.0,0.0,0.0,0.0,0.03903333333333334,-5.498166666666667,-5.498166666666667,-0.5429,0.6163333333333334,0.08766666666666678,0.8879999999999999,68.225,0.0932,-0.207675,-1.7560000000000002,100.0,1.0,1.0,210.36,0.0,0.0,0.0,0.0,0.0,0.0,0.0,8916.4,0.0,55.0,5.0,245.58333333333334,1.0,0.0,0.0,0.0,0.0,0.0,1.0,0.0,0.9660000000000011,0.9660000000000011,0.0,0.0,1.0,55.0,616.79921,10000.0,85.000001,85.000001,85.000001,85.000001,395.0,0.0,0.0,0.0,1.0,55.556,52.109,52.109,47.333,47.333,34.0,-15.884999999999998,31.533333333333335,-23.41666666666667,38.3625,0.0,1781.652,-1.5850000000000009,100.0,28.064,28.695999999999998,42.466,43.983000000000004,0.0,1.0,100.0,0.0,0.0,0.0,0.0,2867.285714285714,3263.0,4159.5,4473.3,305.99,304.41566666666665,314.75025,313.69925,21.9521,20.612,21.9344,21.4503,314.999998,314.999998,324.999988,324.999988,99.55862857142857,99.50728333333333,99.56658571428571,99.54664285714286,0.2313333333333336,0.08866666666666667,0.0038333333333333552,0.2310000000000001,-0.045000000000001705,-0.05571428571428072,1.511,1.452,38.201,29.825,38.09,35.064499999999995,55.885999999999996,35.1225,59.397999999999996,52.4025,53.824,34.257999999999996,57.9945,50.730000000000004,52.983000000000004,33.8105,57.912,50.137,-0.20500000000000007,0.040000000000000036,0.10907000000000001,0.10515500000000001,0.0,213.59,213.70499999999998,210.36,210.36,0.0,0.0
20,0.0,0.0,0.0,1.0,1.0,0.0,0.0,1.0,0.0,0.0,1.0,1.1856,26.0,0.0,0.0,0.0,59.999996,0.0,26.0,26.0,26.0,26.0,0.22275,0.2650000000000001,-0.06833333333333334,292.465,-2.8297,-2.578444444444444,-1.609,-1.5133999999999999,-207.81,215.9375,190.568375,0.0,0.0,0.0,0.0,0.04106666666666667,-5.498166666666667,-5.498166666666667,-0.5675,-1.1916666666666667,0.09577777777777774,-0.657,68.362,0.1101,-0.23445000000000002,-2.0700000000000003,100.0,1.0,1.0,210.82333333333332,0.0,0.0,0.0,0.0,0.0,0.0,0.0,8936.0,0.0,55.0,5.0,246.07666666666665,0.0,0.0,0.0,0.0,0.0,0.0,0.0,0.0,1.0169999999999995,1.0169999999999995,0.0,0.0,0.0,55.0,616.79921,10000.0,85.000001,85.000001,85.000001,85.000001,395.0,0.0,0.0,0.0,1.0,55.556,52.49,52.49,47.531,47.531,34.0,-16.665,31.746666666666666,-21.17666666666667,34.832499999999996,0.0,1781.602,-1.7699999999999996,100.0,27.313,28.557000000000002,42.667,44.370999999999995,0.0,1.0,100.0,0.0,0.0,0.0,0.0,2948.0,3244.3,3923.25,4138.6,306.0735,304.393,315.277,314.48325,21.961199999999998,20.6177,21.9448,21.459600000000002,314.999998,314.999998,324.999988,324.999988,99.55864285714286,99.5073,99.56674285714286,99.54678571428572,0.2426666666666666,0.10899999999999999,0.018333333333333313,0.24016666666666686,-0.01833333333333087,-0.054285714285711606,1.56,1.502,38.257,29.860333333333333,38.155,35.1225,55.876000000000005,35.166,59.4375,52.4685,53.815,34.2985,58.0315,50.7935,52.973,33.8495,57.945499999999996,50.199333333333335,-0.21999999999999997,0.06000000000000005,0.10976000000000001,0.10050500000000001,0.0,213.92000000000002,214.07,210.82333333333332,210.82333333333332,0.0,0.0
21,0.0,0.0,0.0,1.0,1.0,0.0,0.0,1.0,0.0,0.0,1.0,1.1856,26.0,0.0,0.0,0.0,59.999996,0.0,26.0,26.0,26.0,26.0,0.21987500000000004,0.2864,-0.03266666666666667,292.465,-2.8061,-2.567222222222222,-1.6569,-1.4653999999999998,-204.51999999999998,215.94,190.5465,0.0,0.0,0.0,0.0,0.042966666666666674,-5.498166666666667,-5.498166666666667,-0.5732,0.6576666666666668,0.08899999999999997,-0.774,68.488,0.13490000000000002,-0.21535,-2.2039999999999997,100.0,1.0,1.0,211.29666666666668,0.0,0.0,0.0,0.0,0.0,0.0,0.0,8956.1,0.0,55.0,5.0,246.52666666666664,1.0,0.0,0.0,0.0,0.0,0.0,0.0,0.0,1.0650000000000013,1.0650000000000013,0.0,0.0,1.0,55.0,616.79921,10000.0,85.000001,85.000001,85.000001,85.000001,395.0,0.0,0.0,0.0,1.0,66.667,52.2,52.2,47.882,47.882,34.0,-18.46,30.333333333333332,-20.78333333333333,35.845,0.0,1781.552,-1.120000000000001,100.0,27.481,28.798000000000002,41.954,43.998000000000005,0.0,1.0,100.0,0.0,0.0,0.0,0.0,3031.5714285714284,3224.4,4057.5,4189.0,305.791,304.384,315.068,314.488,21.97,20.6232,21.9544,21.4682,314.999998,314.999998,324.999988,324.999988,99.55867142857143,99.5073,99.56687142857143,99.54692857142857,0.21066666666666656,0.07933333333333348,0.0491666666666668,0.26900000000000013,-0.05333333333332746,-0.04571428571428271,1.6225,1.517,38.312,29.895,38.215,35.176,55.870999999999995,35.21,59.469,52.527,53.81,34.339,58.0605,50.85,52.966,33.8885,57.9715,50.254999999999995,-0.16399999999999992,0.01200000000000001,0.10641,0.10546000000000001,0.0,214.375,214.53,211.29666666666668,211.29666666666668,0.0,0.0
22,0.0,0.0,0.0,1.0,1.0,0.0,0.0,1.0,0.0,0.0,1.0,1.1856,26.0,0.0,0.0,0.0,59.999996,0.0,26.0,26.0,26.0,26.0,0.16175000000000006,0.26880000000000015,-0.0071,292.191,-2.8706,-2.532,-1.6756,-1.4575,-201.03,215.9475,190.52275,0.0,0.0,0.0,0.0,0.045000000000000005,-5.498166666666667,-5.498166666666667,-0.5588000000000001,-0.32633333333333336,0.09566666666666679,0.3579999999999999,68.625,0.1409,-0.20695000000000002,-1.1179999999999994,100.0,1.0,1.0,211.57,0.0,0.0,0.0,0.0,0.0,0.0,0.0,8967.7,0.0,55.0,5.0,247.02666666666664,0.0,0.0,0.0,0.0,0.0,0.0,0.0,0.0,1.1159999999999997,1.1159999999999997,0.0,0.0,0.0,55.0,616.79921,10000.0,85.000001,85.000001,85.000001,85.000001,395.0,0.0,0.0,0.0,1.0,55.556,52.551,52.551,47.073,47.073,34.0,-20.107499999999998,27.41166666666667,-22.75333333333333,37.817499999999995,0.0,1781.502,0.365000000000002,100.0,27.584,28.622,42.558,44.334,0.0,1.0,100.0,0.0,0.0,0.0,0.0,2833.714285714286,3288.0,4137.75,4413.3,306.331,304.5133333333333,314.77275,313.934,21.9792,20.629,21.9648,21.4775,314.999998,314.999998,324.999988,324.999988,99.5587,99.50731666666667,99.56701428571428,99.54708571428571,0.14900000000000002,0.0129999999999999,0.035833333333333384,0.25783333333333336,-0.04833333333333201,-0.03999999999999915,1.5135,1.4585,38.370000000000005,29.931333333333335,38.28,35.2345,55.861000000000004,35.251999999999995,59.5085,52.595,53.8,34.378,58.097,50.9155,52.955,33.926,58.004999999999995,50.31933333333333,-0.06000000000000005,-0.09299999999999997,0.11052500000000001,0.10330500000000001,0.0,214.815,214.905,211.57,211.57,0.0,0.0
23,0.0,0.0,0.0,1.0,1.0,0.0,0.0,1.0,0.0,0.0,1.0,1.1856,26.0,0.0,0.0,0.0,59.999996,0.0,26.0,26.0,26.0,26.0,0.08062499999999995,0.2702,-0.02996666666666667,292.099,-2.746,-2.5936666666666666,-1.6961,-1.4613,-197.51999999999998,215.96,190.49925,0.0,0.0,0.0,0.0,0.04703333333333334,-5.498166666666667,-5.498166666666667,-0.5769000000000001,0.14266666666666672,0.05944444444444441,-1.116,68.759,0.1018,-0.2291,0.33999999999999986,100.0,1.0,1.0,212.11,0.0,0.0,0.0,0.0,0.0,0.0,0.0,8990.6,0.0,55.0,5.0,247.50333333333333,1.0,0.0,0.0,0.0,0.0,0.0,0.0,0.0,1.166999999999998,1.166999999999998,0.0,0.0,1.0,55.0,616.79921,10000.0,85.000001,85.000001,85.000001,85.000001,395.0,0.0,0.0,0.0,1.0,55.556,51.757999999999996,51.757999999999996,47.913,47.913,34.0,-24.2575,24.585,-26.043333333333337,30.892500000000002,0.0,1781.452,0.865000000000002,100.0,28.117,28.79,42.613,44.271,0.0,1.0,100.0,0.0,0.0,0.0,0.0,3185.714285714286,3156.2,4101.25,4083.7,305.27,304.629,314.9905,314.792,21.988599999999998,20.6348,21.9752,21.4867,314.999998,314.999998,324.999988,324.999988,99.55871428571429,99.50731666666667,99.56715714285714,99.54722857142858,0.09633333333333338,-0.045666666666666744,-0.031166666666666565,0.19500000000000006,-0.061666666666667425,-0.02285714285714846,1.551,1.558,38.429,29.967333333333336,38.345,35.292,55.849999999999994,35.292,59.545500000000004,52.658500000000004,53.789,34.4155,58.131,50.977000000000004,52.943,33.962,58.036,50.379666666666665,-0.016000000000000014,-0.14900000000000002,0.1004,0.105785,0.0,215.29000000000002,215.24,212.11,212.11,0.0,0.0
24,0.0,0.0,0.0,1.0,1.0,0.0,0.0,1.0,0.0,0.0,1.0,1.1856,26.0,0.0,0.0,0.0,59.999996,0.0,26.0,26.0,26.0,26.0,0.0024999999999999467,0.2713000000000001,-0.022733333333333335,292.48,-2.7485,-2.628888888888889,-1.5659,-1.5371,-194.22,215.9725,190.476625,0.0,0.0,0.0,0.0,0.04896666666666667,-5.498166666666667,-5.498166666666667,-0.5871000000000001,-0.8029999999999999,0.04444444444444429,-0.6560000000000001,68.887,0.0414,-0.22037500000000002,1.112,100.0,1.0,1.0,212.4,0.0,0.0,0.0,0.0,0.0,0.0,0.0,9002.8,0.0,55.0,5.0,247.96666666666667,0.0,0.0,0.0,0.0,0.0,0.0,0.0,0.0,1.2149999999999999,1.2149999999999999,0.0,0.0,0.0,55.0,616.79921,10000.0,85.000001,85.000001,85.000001,85.000001,395.0,0.0,0.0,0.0,1.0,66.667,52.979,52.979,47.241,47.241,34.0,-23.607499999999998,21.37166666666667,-29.049999999999997,29.2975,0.0,1781.402,1.0399999999999991,100.0,27.763,28.276,43.045,43.965,0.0,1.0,100.0,0.0,0.0,0.0,0.0,2898.714285714286,2975.0,4215.125,4108.8,306.148,305.28,314.59025,314.6355,21.9973,20.6399,21.985,21.4953,314.999998,314.999998,324.999988,324.999988,99.55871428571429,99.50731666666667,99.5673,99.54737142857142,0.047666666666666746,-0.08999999999999986,-0.09716666666666662,0.13283333333333336,-0.02833333333332888,-0.05857142857143316,1.4845,1.531,38.483000000000004,29.999666666666666,38.406,35.346000000000004,55.834,35.3285,59.582499999999996,52.717,53.774,34.449,58.1655,51.033,52.927,33.994,58.067,50.434666666666665,0.0040000000000000036,-0.15850000000000009,0.10236500000000001,0.11316000000000001,0.0,215.685,215.60500000000002,212.4,212.4,0.0,0.0
25,0.0,0.0,0.0,1.0,1.0,0.0,0.0,1.0,0.0,0.0,1.0,1.1856,26.0,0.0,0.0,0.0,59.999996,0.0,26.0,26.0,26.0,26.0,-0.08050000000000002,0.26480000000000015,-0.0264,292.038,-2.7507,-2.646777777777778,-1.5995,-1.5629,-190.7,215.9875,190.451,0.0,0.0,0.0,0.0,0.051000000000000004,-5.498166666666667,-5.498166666666667,-0.6095,0.5146666666666668,-0.004999999999999893,-1.1350000000000002,69.018,-0.0206,-0.22012500000000002,1.556000000000001,100.0,1.0,1.0,212.93333333333334,0.0,0.0,0.0,0.0,0.0,0.0,0.0,9025.5,0.0,55.0,5.0,248.44,1.0,0.0,0.0,0.0,0.0,0.0,0.0,0.0,1.2659999999999982,1.2659999999999982,0.0,0.0,1.0,55.0,616.79921,10000.0,85.000001,85.000001,85.000001,85.000001,395.0,0.0,0.0,0.0,1.0,55.556,51.3,51.3,47.913,47.913,34.0,-30.18,23.181666666666665,-31.016666666666666,25.3,0.0,1781.352,1.0749999999999993,100.0,28.432,28.299,43.037,43.226,0.0,1.0,100.0,0.0,0.0,0.0,0.0,3385.857142857143,3367.3,4091.375,3985.0,304.6265,304.21666666666664,314.99125,315.022,22.0067,20.6456,21.9953,21.5043,314.999998,314.999998,324.999988,324.999988,99.55872857142857,99.50733333333334,99.56745714285714,99.54751428571429,0.010333333333333083,-0.12166666666666681,-0.15500000000000003,0.07350000000000012,-0.03999999999999915,-0.06571428571428584,1.5405,1.595,38.542,30.035,38.471000000000004,35.402,55.819,35.3725,59.618,52.775,53.759,34.4895,58.198499999999996,51.089,52.911,34.033,58.097,50.489666666666665,0.00749999999999984,-0.1665000000000001,0.113265,0.10561000000000001,0.0,216.14499999999998,216.025,212.93333333333334,212.93333333333334,0.0,0.0
26,0.0,0.0,0.0,1.0,1.0,0.0,0.0,1.0,0.0,0.0,1.0,1.1856,26.0,0.0,0.0,0.0,59.999996,0.0,26.0,26.0,26.0,26.0,-0.12837500000000002,0.2852000000000001,0.060366666666666666,291.122,-2.6692,-2.7632222222222222,-1.5314999999999999,-1.6607,-187.18,216.0,190.425375,0.0,0.0,0.0,0.0,0.05303333333333334,-5.498166666666667,-5.498166666666667,-0.5671,0.03833333333333333,-0.05833333333333357,-1.068,69.156,-0.0713,-0.198825,1.6820000000000004,100.0,1.0,1.0,213.0366666666667,0.0,0.0,0.0,0.0,0.0,0.0,0.0,9029.8,0.0,55.0,5.0,248.93333333333334,0.0,0.0,0.0,0.0,0.0,0.0,0.0,0.0,1.3170000000000002,1.3170000000000002,0.0,0.0,0.0,55.0,616.79921,10000.0,85.000001,85.000001,85.000001,85.000001,395.0,0.0,0.0,0.0,1.0,55.556,51.865,51.865,45.792,45.792,34.0,-28.545,18.97,-39.269999999999996,27.755,0.0,1781.302,0.8500000000000014,100.0,29.101,28.526,44.371,43.657,0.0,1.0,100.0,0.0,0.0,0.0,0.0,3215.714285714286,2871.5,4690.625,4447.4,305.1545,305.538,313.4475,313.73775,22.0163,20.6512,22.0061,21.5135,314.999998,314.999998,324.999988,324.999988,99.55872857142857,99.50735,99.5676,99.54767142857143,-0.010999999999999899,-0.15933333333333333,-0.2018333333333333,0.014333333333333309,-0.03999999999999915,-0.044285714285713595,1.3905,1.458,38.602000000000004,30.07,38.538,35.4595,55.806,35.417,59.6635,52.838,53.747,34.5305,58.241,51.1495,52.897999999999996,34.0725,58.1365,50.54866666666666,-0.01949999999999985,-0.1535000000000002,0.10818000000000001,0.10227000000000001,0.0,216.57999999999998,216.435,213.0366666666667,213.0366666666667,0.0,0.0
27,0.0,0.0,0.0,1.0,1.0,0.0,0.0,1.0,0.0,0.0,1.0,1.1856,26.0,0.0,0.0,0.0,59.999996,0.0,26.0,26.0,26.0,26.0,-0.13012499999999994,0.25140000000000007,-0.06626666666666667,291.901,-2.6425,-2.7247777777777777,-1.5622,-1.6267,-183.86,216.0075,190.402375,0.0,0.0,0.0,0.0,0.054966666666666664,-5.498166666666667,-5.498166666666667,-0.6076,-0.781,-0.07444444444444454,-0.847,69.277,-0.0999,-0.2474,1.6099999999999994,100.0,1.0,1.0,213.70666666666668,0.0,0.0,0.0,0.0,0.0,0.0,0.0,9058.3,0.0,55.0,5.0,249.37333333333333,1.0,0.0,0.0,0.0,0.0,0.0,0.0,0.0,1.3649999999999984,1.3649999999999984,0.0,0.0,1.0,55.0,616.79921,10000.0,85.000001,85.000001,85.000001,85.000001,395.0,0.0,0.0,0.0,1.0,66.667,51.682,51.682,47.409,47.409,34.0,-31.237499999999997,19.013333333333332,-33.68666666666667,21.700000000000003,0.0,1781.252,0.7600000000000016,100.0,28.958,28.2,44.721000000000004,43.567,0.0,1.0,100.0,0.0,0.0,0.0,0.0,3408.142857142857,2977.7,3973.75,3874.6000000000004,304.734,305.27133333333336,315.176,315.28075,22.0253,20.6563,22.016,21.522199999999998,314.999998,314.999998,324.999988,324.999988,99.55872857142857,99.50736666666667,99.56774285714286,99.5478,-0.036666666666666625,-0.16799999999999993,-0.23883333333333334,-0.0008333333333333526,-0.051666666666669414,-0.03999999999999915,1.517,1.597,38.658,30.101666666666667,38.6,35.5135,55.792,35.458,59.702,52.894,53.733999999999995,34.5685,58.2775,51.203,52.884,34.1085,58.17,50.60066666666667,-0.023499999999999854,-0.1339999999999999,0.110475,0.11139,0.0,216.905,216.78,213.70666666666668,213.70666666666668,0.0,0.0
28,0.0,0.0,0.0,1.0,1.0,0.0,0.0,1.0,0.0,0.0,1.0,1.1856,26.0,0.0,0.0,0.0,59.999996,0.0,26.0,26.0,26.0,26.0,-0.16025,0.2701,-0.049933333333333337,291.809,-2.6239,-2.744222222222222,-1.5275,-1.6175,-180.32,216.0125,190.376625,0.0,0.0,0.0,0.0,0.05703333333333334,-5.498166666666667,-5.498166666666667,-0.5939,0.5533333333333332,-0.08288888888888879,0.7409999999999999,69.41,-0.1187,-0.2036,1.468,100.0,1.0,1.0,214.01,0.0,0.0,0.0,0.0,0.0,0.0,0.0,9071.1,0.0,55.0,5.0,249.84666666666666,0.0,0.0,0.0,0.0,0.0,0.0,0.0,0.0,1.4160000000000004,1.4160000000000004,0.0,0.0,0.0,55.0,616.79921,10000.0,85.000001,85.000001,85.000001,85.000001,395.0,0.0,0.0,0.0,1.0,55.556,52.124,52.124,46.86,46.86,34.0,-28.0875,19.06833333333333,-36.93,23.64,0.0,1781.202,0.495000000000001,100.0,29.254,27.871000000000002,44.403999999999996,43.006,0.0,1.0,100.0,0.0,0.0,0.0,0.0,3129.0,2955.8,4376.375,4182.4,305.2305,305.47633333333334,314.29725,314.60325,22.0348,20.6617,22.0264,21.5311,314.999998,314.999998,324.999988,324.999988,99.55872857142857,99.5074,99.5679,99.54795714285714,-0.024333333333333318,-0.16399999999999992,-0.22983333333333333,-0.003666666666666596,-0.04833333333333201,-0.05142857142856627,1.4865,1.542,38.718,30.135666666666665,38.665,35.5695,55.778999999999996,35.501999999999995,59.7415,52.952,53.722,34.609,58.314,51.2585,52.870999999999995,34.1475,58.2035,50.654666666666664,-0.040999999999999925,-0.11900000000000022,0.09889500000000001,0.11450500000000001,0.0,217.37,217.245,214.01,214.01,0.0,0.0
29,0.0,0.0,0.0,1.0,1.0,0.0,0.0,1.0,0.0,0.0,1.0,1.1856,26.0,0.0,0.0,0.0,59.999996,0.0,26.0,26.0,26.0,26.0,-0.15037500000000004,0.25029999999999997,-0.025166666666666667,291.702,-2.5717,-2.7986666666666666,-1.5333,-1.6202,-176.78,216.0125,190.350125,0.0,0.0,0.0,0.0,0.0591,-5.498166666666667,-5.498166666666667,-0.6142000000000001,-0.6386666666666667,-0.08666666666666645,-0.7770000000000001,69.542,-0.1173,-0.225975,1.152000000000001,100.0,1.0,1.0,214.39333333333332,0.0,0.0,0.0,0.0,0.0,0.0,0.0,9087.3,0.0,55.0,5.0,250.32666666666665,1.0,0.0,0.0,0.0,0.0,0.0,0.0,0.0,1.4669999999999987,1.4669999999999987,0.0,0.0,1.0,55.0,616.79921,10000.0,85.000001,85.000001,85.000001,85.000001,395.0,0.0,0.0,0.0,1.0,55.556,51.788,51.788,47.195,47.195,34.0,-30.5775,19.001666666666665,-35.483333333333334,22.5875,0.0,1781.152,0.4200000000000017,100.0,29.001,27.974,44.727000000000004,43.318,0.0,1.0,100.0,0.0,0.0,0.0,0.0,3411.4285714285716,2898.3,4161.625,4079.7,304.6285,305.425,314.75075,314.719,22.0443,20.6671,22.037,21.540399999999998,314.999998,314.999998,324.999988,324.999988,99.55874285714286,99.50741666666667,99.56805714285714,99.5481,-0.03299999999999992,-0.17233333333333323,-0.24049999999999994,-0.014499999999999957,-0.02833333333332888,-0.03285714285714647,1.4809999999999999,1.533,38.777,30.169333333333334,38.730999999999995,35.626999999999995,55.765,35.545,59.7845,53.0125,53.708,34.649,58.3545,51.3165,52.857,34.185,58.241,50.711333333333336,-0.052999999999999936,-0.10950000000000015,0.10237,0.105495,0.0,217.7,217.60500000000002,214.39333333333332,214.39333333333332,0.0,0.0
30,0.0,0.0,0.0,1.0,1.0,0.0,0.0,1.0,0.0,0.0,1.0,1.1856,26.0,0.0,0.0,0.0,59.999996,0.0,26.0,26.0,26.0,26.0,-0.13587499999999997,0.262,0.007933333333333334,291.092,-2.5874,-2.7880000000000003,-1.5641,-1.6791,-173.44,216.01,190.32525,0.0,0.0,0.0,0.0,0.06103333333333334,-5.498166666666667,-5.498166666666667,-0.5938,0.9160000000000001,-0.08777777777777773,-0.22299999999999986,69.664,-0.10830000000000001,-0.20702500000000001,1.0839999999999996,100.0,1.0,1.0,214.7733333333333,0.0,0.0,0.0,0.0,0.0,0.0,0.0,9103.4,0.0,55.0,5.0,250.76333333333332,0.0,0.0,0.0,0.0,0.0,0.0,1.0,0.0,1.5150000000000006,1.5150000000000006,0.0,0.0,0.0,55.0,616.79921,10000.0,85.000001,85.000001,85.000001,85.000001,395.0,0.0,0.0,0.0,1.0,66.667,50.888,50.888,46.509,46.509,34.0,-30.4175,20.381666666666668,-38.74333333333334,23.7725,0.0,1781.102,0.28500000000000014,100.0,29.815,28.592,44.632,43.274,0.0,1.0,100.0,0.0,0.0,0.0,0.0,3435.142857142857,3062.1,4485.5,4047.0,304.467,305.03133333333335,314.16,314.77425,22.0535,20.6724,22.0469,21.5489,314.999998,314.999998,324.999988,324.999988,99.55874285714286,99.50743333333334,99.56818571428572,99.54824285714285,-0.01766666666666672,-0.16433333333333322,-0.23416666666666663,-0.0050000000000000044,-0.04333333333332945,-0.04571428571428271,1.4645,1.518,38.835,30.202666666666666,38.793,35.681,55.756,35.589,59.8225,53.067499999999995,53.699,34.689499999999995,58.3905,51.3695,52.847,34.224000000000004,58.2735,50.763,-0.062000000000000055,-0.10749999999999993,0.105215,0.11361,0.0,218.155,218.04000000000002,214.7733333333333,214.7733333333333,0.0,0.0
31,0.0,0.0,0.0,1.0,1.0,0.0,0.0,1.0,0.0,0.0,1.0,1.1856,26.0,0.0,0.0,0.0,59.999996,0.0,26.0,26.0,26.0,26.0,-0.11424999999999996,0.2502,0.0261,290.833,-2.6893,-2.671333333333333,-1.5171000000000001,-1.6738,-169.88,216.005,190.299625,0.0,0.0,0.0,0.0,0.0631,-5.498166666666667,-5.498166666666667,-0.5979,-0.73,-0.07833333333333359,0.5169999999999999,69.79599999999999,-0.08900000000000001,-0.23275,0.6440000000000001,100.0,1.0,1.0,215.07666666666665,0.0,0.0,0.0,0.0,0.0,0.0,0.0,9116.4,0.0,55.0,5.0,251.23666666666668,1.0,0.0,0.0,0.0,0.0,0.0,1.0,0.0,1.565999999999999,1.565999999999999,0.0,0.0,1.0,55.0,616.79921,10000.0,85.000001,85.000001,85.000001,85.000001,395.0,0.0,0.0,0.0,1.0,55.556,50.995,50.995,45.807,45.807,34.0,-29.02,21.803333333333335,-34.446666666666665,27.85,0.0,1781.052,0.19500000000000028,100.0,29.556,28.556,45.294,43.877,0.0,1.0,100.0,0.0,0.0,0.0,0.0,3303.857142857143,3263.7,4305.0,4303.5,304.871,304.582,314.369,314.24625,22.0629,20.678,22.0576,21.5583,314.999998,314.999998,324.999988,324.999988,99.55874285714286,99.50745,99.56835714285714,99.54838571428571,0.004999999999999893,-0.13866666666666672,-0.19233333333333336,0.03633333333333333,-0.03499999999999659,-0.04999999999999716,1.4545,1.4805,38.893,30.237333333333332,38.86,35.7395,55.739999999999995,35.6335,59.867,53.1305,53.685,34.730000000000004,58.432,51.43,52.832,34.263,58.312,50.822,-0.07099999999999995,-0.09750000000000014,0.09703,0.11464500000000001,0.0,218.48000000000002,218.43,215.07666666666665,215.07666666666665,0.0,0.0
32,0.0,0.0,0.0,1.0,1.0,0.0,0.0,1.0,0.0,0.0,1.0,1.1856,26.0,0.0,0.0,0.0,59.999996,0.0,26.0,26.0,26.0,26.0,-0.08787500000000004,0.2594000000000001,0.0022333333333333333,291.306,-2.6015,-2.775666666666667,-1.5183,-1.6514,-166.32,215.995,190.273875,0.0,0.0,0.0,0.0,0.06516666666666666,-5.498166666666667,-5.498166666666667,-0.6086,0.15200000000000014,-0.10199999999999987,-0.7669999999999999,69.923,-0.0747,-0.2265,0.6320000000000014,100.0,1.0,1.0,215.55,0.0,0.0,0.0,0.0,0.0,0.0,0.0,9136.4,0.0,55.0,5.0,251.69666666666666,0.0,0.0,0.0,0.0,0.0,0.0,1.0,0.0,1.6170000000000009,1.6170000000000009,0.0,0.0,0.0,55.0,616.79921,10000.0,85.000001,85.000001,85.000001,85.000001,395.0,0.0,0.0,0.0,1.0,55.556,51.513999999999996,51.513999999999996,46.631,46.631,34.0,-27.6575,20.531666666666666,-33.58,26.8125,0.0,1781.002,0.054999999999999716,100.0,29.35,28.587,44.701,43.665,0.0,1.0,100.0,0.0,0.0,0.0,0.0,3303.142857142857,2916.3,4280.25,4201.5,304.8955,305.36966666666666,314.48325,314.39125,22.072400000000002,20.6836,22.068,21.5674,314.999998,314.999998,324.999988,324.999988,99.55875714285715,99.50746666666667,99.5685,99.54854285714286,0.016000000000000014,-0.1333333333333333,-0.18499999999999994,0.03733333333333322,-0.036666666666668846,-0.04571428571428271,1.4905,1.5115,38.953,30.272333333333336,38.925,35.7965,55.726,35.6765,59.905,53.1885,53.672,34.769999999999996,58.4675,51.4855,52.818,34.301,58.3445,50.87566666666667,-0.08050000000000002,-0.08850000000000025,0.10261,0.116095,0.0,218.89,218.835,215.55,215.55,0.0,0.0
33,0.0,0.0,0.0,1.0,1.0,0.0,0.0,1.0,0.0,0.0,1.0,1.1856,26.0,0.0,0.0,0.0,59.999996,0.0,26.0,26.0,26.0,26.0,-0.07399999999999995,0.2632000000000001,-0.06223333333333334,291.58,-2.6687,-2.7462222222222223,-1.5354999999999999,-1.6347,-162.95999999999998,215.98250000000002,190.2485,0.0,0.0,0.0,0.0,0.06713333333333334,-5.498166666666667,-5.498166666666667,-0.6165,-0.5716666666666667,-0.07777777777777795,0.1259999999999999,70.045,-0.0664,-0.2182,0.46000000000000085,100.0,1.0,1.0,215.89333333333332,0.0,0.0,0.0,0.0,0.0,0.0,0.0,9151.0,0.0,55.0,5.0,252.13666666666666,1.0,0.0,0.0,0.0,0.0,0.0,1.0,0.0,1.6649999999999991,1.6649999999999991,0.0,0.0,1.0,55.0,616.79921,10000.0,85.000001,85.000001,85.000001,85.000001,395.0,0.0,0.0,0.0,1.0,66.667,51.91,51.91,46.875,46.875,34.0,-26.7275,21.118333333333332,-32.79666666666667,26.5825,0.0,1780.952,-0.08500000000000085,100.0,29.056,28.313,44.647,43.805,0.0,1.0,100.0,0.0,0.0,0.0,0.0,3242.4285714285716,2909.4,4176.75,4172.3,305.178,305.46933333333334,314.721,314.47675,22.0813,20.6887,22.0778,21.5761,314.999998,314.999998,324.999988,324.999988,99.55875714285715,99.50748333333334,99.56864285714286,99.54867142857142,0.03500000000000014,-0.10899999999999999,-0.18366666666666664,0.042166666666666686,-0.046666666666666856,-0.028571428571432023,1.4909999999999999,1.517,39.007999999999996,30.304333333333332,38.986999999999995,35.8505,55.712,35.713499999999996,59.942,53.245,53.658,34.804,58.5025,51.54,52.804,34.3335,58.3765,50.928666666666665,-0.09850000000000003,-0.0665,0.10592000000000001,0.10748,0.0,219.26,219.20499999999998,215.89333333333332,215.89333333333332,0.0,0.0
34,0.0,0.0,0.0,1.0,1.0,0.0,0.0,1.0,0.0,0.0,1.0,1.1856,26.0,0.0,0.0,0.0,59.999996,0.0,26.0,26.0,26.0,26.0,-0.0635,0.25439999999999996,-0.10350000000000001,292.053,-2.6698,-2.734222222222222,-1.6008,-1.5758,-159.38,215.97,190.220375,0.0,0.0,0.0,0.0,0.0692,-5.498166666666667,-5.498166666666667,-0.653,-0.8533333333333333,-0.04733333333333345,0.76,70.173,-0.0506,-0.22742500000000002,0.23600000000000065,100.0,1.0,1.0,216.35666666666668,0.0,0.0,0.0,0.0,0.0,0.0,0.0,9170.5,0.0,55.0,5.0,252.59666666666666,0.0,0.0,0.0,0.0,0.0,0.0,1.0,0.0,1.716000000000001,1.716000000000001,0.0,0.0,0.0,55.0,616.79921,10000.0,85.000001,85.000001,85.000001,85.000001,395.0,0.0,0.0,0.0,1.0,55.556,52.536,52.536,47.287,47.287,34.0,-23.695,21.95,-31.503333333333337,26.7375,0.0,1780.902,-0.125,100.0,28.808,27.967,44.344,43.694,0.0,1.0,100.0,0.0,0.0,0.0,0.0,2964.714285714286,2962.9,4084.875,4152.8,305.7545,305.448,314.986,314.6655,22.0905,20.6941,22.0882,21.5853,314.999998,314.999998,324.999988,324.999988,99.55875714285715,99.5075,99.5688,99.54881428571429,0.05266666666666664,-0.09299999999999997,-0.16200000000000003,0.06916666666666682,-0.03499999999999659,-0.044285714285713595,1.5215,1.5474999999999999,39.066,30.33833333333333,39.051,35.908,55.697,35.753,59.978,53.3045,53.644,34.8405,58.536,51.597,52.788,34.368,58.407,50.98466666666667,-0.09450000000000003,-0.06599999999999984,0.108115,0.104895,0.0,219.625,219.595,216.35666666666668,216.35666666666668,0.0,0.0
35,0.0,0.0,0.0,1.0,1.0,0.0,0.0,1.0,0.0,0.0,1.0,1.1856,26.0,0.0,0.0,0.0,59.999996,0.0,26.0,26.0,26.0,26.0,-0.023749999999999938,0.25,-0.049800000000000004,291.748,-2.6667,-2.682,-1.5524,-1.6214,-155.8,215.9525,190.18975,0.0,0.0,0.0,0.0,0.0713,-5.498166666666667,-5.498166666666667,-0.6867000000000001,0.16266666666666674,-0.06255555555555592,-1.1510000000000002,70.299,-0.0352,-0.224225,0.1379999999999999,100.0,1.0,1.0,216.81666666666666,0.0,0.0,0.0,0.0,0.0,0.0,0.0,9190.0,0.0,55.0,5.0,253.05333333333334,1.0,0.0,0.0,0.0,0.0,0.0,1.0,0.0,1.7669999999999995,1.7669999999999995,0.0,0.0,1.0,55.0,616.79921,10000.0,85.000001,85.000001,85.000001,85.000001,395.0,0.0,0.0,0.0,1.0,55.556,51.391999999999996,51.391999999999996,46.997,46.997,34.0,-26.345,24.318333333333335,-29.116666666666667,26.805,0.0,1780.852,-0.06500000000000128,100.0,28.608,28.658,43.980000000000004,43.301,0.0,1.0,100.0,0.0,0.0,0.0,0.0,3275.0,3236.6,4055.0,3981.3,305.0435,304.342,315.1165,315.085,22.0997,20.6999,22.098399999999998,21.5943,314.999998,314.999998,324.999988,324.999988,99.55877142857143,99.5075,99.56894285714286,99.54897142857143,0.05133333333333345,-0.08899999999999997,-0.13783333333333336,0.08716666666666684,-0.05666666666667197,-0.054285714285711606,1.568,1.5705,39.123000000000005,30.374333333333333,39.115,35.9645,55.681,35.7945,60.013999999999996,53.3605,53.629000000000005,34.879,58.5695,51.6505,52.772,34.405,58.4375,51.03666666666667,-0.08549999999999991,-0.07399999999999984,0.10261500000000001,0.107465,0.0,220.05,220.01,216.81666666666666,216.81666666666666,0.0,0.0
36,0.0,0.0,0.0,1.0,1.0,0.0,0.0,1.0,0.0,0.0,1.0,1.1856,26.0,0.0,0.0,0.0,59.999996,0.0,26.0,26.0,26.0,26.0,-0.022625000000000006,0.2563,0.03036666666666667,291.138,-2.6027,-2.7535555555555558,-1.625,-1.6107,-152.42,215.9375,190.160125,0.0,0.0,0.0,0.0,0.07326666666666666,-5.498166666666667,-5.498166666666667,-0.6643,-0.18466666666666665,-0.09622222222222243,-1.27,70.423,-0.025,-0.202025,0.21199999999999974,100.0,1.0,1.0,216.90333333333334,0.0,0.0,0.0,0.0,0.0,0.0,0.0,9193.7,0.0,55.0,5.0,253.49666666666667,0.0,0.0,0.0,0.0,0.0,0.0,1.0,0.0,1.8150000000000013,1.8150000000000013,0.0,0.0,0.0,55.0,616.79921,10000.0,85.000001,85.000001,85.000001,85.000001,395.0,0.0,0.0,0.0,1.0,66.667,52.002,52.002,46.112,46.112,34.0,-23.4,21.351666666666667,-35.38333333333333,30.7175,0.0,1780.802,-0.07000000000000028,100.0,29.089,28.748,44.348,44.076,0.0,1.0,100.0,0.0,0.0,0.0,0.0,3042.0,2815.6,4570.375,4419.4,305.574,305.5586666666667,313.99875,313.849,22.1085,20.7052,22.1083,21.6032,314.999998,314.999998,324.999988,324.999988,99.55878571428572,99.50751666666666,99.56908571428572,99.54911428571428,0.06099999999999994,-0.09033333333333315,-0.13849999999999996,0.0798333333333332,-0.02833333333332888,-0.054285714285711606,1.422,1.4275,39.178,30.407666666666664,39.177,36.0195,55.67,35.833,60.052,53.4195,53.617999999999995,34.914500000000004,58.605000000000004,51.707499999999996,52.76,34.439,58.47,51.09233333333333,-0.08650000000000002,-0.07799999999999985,0.10271000000000001,0.10414500000000002,0.0,220.41500000000002,220.41,216.90333333333334,216.90333333333334,0.0,0.0
