,ABS Active,ABS Enabled,AID Allow Tire Blankets,AID Auto Blip,AID Auto Clutch,AID Auto Shift,AID Fuel Rate,AID Ideal Line,AID Mech Damage,AID Stability,AID Tire Wear Rate,Air Density,Air Temp,Ballast,Best Lap Delta,Best Lap Time,Brake Bias,Brake Pos,Brake Temp FL,Brake Temp FR,Brake Temp RL,Brake Temp RR,CG Accel Lateral,CG Accel Longitudinal,CG Accel Vertical,CG Height,Camber FL,Camber FR,Camber RL,Camber RR,Car Coord X,Car Coord Y,Car Coord Z,Car Damage Front,Car Damage Left,Car Damage Rear,Car Damage Right,Car Pos Norm,Caster FL,Caster FR,Chassis Pitch Angle,Chassis Pitch Rate,Chassis Roll Angle,Chassis Roll Rate,Chassis Velocity X,Chassis Velocity Y,Chassis Velocity Z,Chassis Yaw Rate,Clutch Pos,DRS Active,DRS Available,Drive Train Speed,ERS Heat Charging,ERS Is Charging,ERS Max Energy,ERS Power Level,ERS Recovery Level,Engine Brake Setting,Engine Limiter,Engine RPM,Flags,Fuel Level,Gear,Ground Speed,HR Sample Clock,In Pit,KERS Charge,KERS Deployed Energy,KERS Input,KERS Max Energy,LR Sample Clock,Lap Invalidated,Lap Time,Lap Time2,Last Lap Time,Last Sector Time,MR Sample Clock,Max Fuel,Max Power,Max RPM,Max Sus Travel FL,Max Sus Travel FR,Max Sus Travel RL,Max Sus Travel RR,Max Torque,Max Turbo Boost,Num Tires Off Track,Penalties Enabled,Position,Raw Data Sample Rate,Ride Height FL,Ride Height FR,Ride Height RL,Ride Height RR,Road Temp,Self Align Torque FL,Self Align Torque FR,Self Align Torque RL,Self Align Torque RR,Session Lap Count,Session Time Left,Steering Angle,Surface Grip,Suspension Travel FL,Suspension Travel FR,Suspension Travel RL,Suspension Travel RR,TC Active,TC Enabled,Throttle Pos,Tire Dirt Level FL,Tire Dirt Level FR,Tire Dirt Level RL,Tire Dirt Level RR,Tire Load FL,Tire Load FR,Tire Load RL,Tire Load RR,Tire Loaded Radius FL,Tire Loaded Radius FR,Tire Loaded Radius RL,Tire Loaded Radius RR,Tire Pressure FL,Tire Pressure FR,Tire Pressure RL,Tire Pressure RR,Tire Radius FL,Tire Radius FR,Tire Radius RL,Tire Radius RR,Tire Rubber Grip FL,Tire Rubber Grip FR,Tire Rubber Grip RL,Tire Rubber Grip RR,Tire Slip Angle FL,Tire Slip Angle FR,Tire Slip Angle RL,Tire Slip Angle RR,Tire Slip Ratio FL,Tire Slip Ratio FR,Tire Slip Ratio RL,Tire Slip Ratio RR,Tire Temp Core FL,Tire Temp Core FR,Tire Temp Core RL,Tire Temp Core RR,Tire Temp Inner FL,Tire Temp Inner FR,Tire Temp Inner RL,Tire Temp Inner RR,Tire Temp Middle FL,Tire Temp Middle FR,Tire Temp Middle RL,Tire Temp Middle RR,Tire Temp Outer FL,Tire Temp Outer FR,Tire Temp Outer RL,Tire Temp Outer RR,Toe In FL,Toe In FR,Toe In RL,Toe In RR,Turbo Boost,Wheel Angular Speed FL,Wheel Angular Speed FR,Wheel Angular Speed RL,Wheel Angular Speed RR,Wind Direction,Wind Speed
0,0.0,1.0,0.0,1.0,1.0,0.0,0.0,1.0,0.0,0.0,1.0,1.1856,26.0,0.0,0.0,0.0,59.99999,0.0,26.0,26.0,26.0,26.0,-0.113375,0.29069999999999996,0.0699,293.701,-2.68925,-2.636,-1.49535,-1.579777777777778,-275.18,216.28750000000002,190.984375,0.0,0.0,0.0,0.0,0.001866666666666572,-5.498166666666667,-5.498166666666667,-0.5374,1.6215,-0.0344444444444445,-0.94,65.55,-0.06470000000000001,-0.20700000000000002,1.1560000000000006,100.0,1.0,1.0,202.34666666666666,0.0,0.0,0.0,0.0,0.0,0.0,0.0,8576.7,0.0,55.0,5.0,235.95,0.0,0.0,0.0,0.0,0.0,0.0,0.0,0.0,0.012000000000000455,0.012000000000000455,0.0,0.0,0.0,55.0,616.79921,10000.0,85.0,85.0,85.0,85.0,395.0,0.0,0.0,0.0,1.0,20.0,52.475,52.475,48.843,48.843,34.0,-26.895,21.798000000000002,-32.653333333333336,23.7725,0.0,1783.402,0.8900000000000006,100.0,27.778,27.246,40.928,40.338,0.0,0.0,100.0,0.0,0.0,0.0,0.0,3031.4285714285716,3333.8,4274.875,3971.8,305.584,304.0755,314.42,314.94075,21.775,20.5125,21.7733,21.3115,314.99999,314.99999,324.99998,324.99998,99.55875714285715,99.50721666666666,99.56538571428571,99.54518571428571,-0.013249999999999984,-0.14600000000000002,-0.1798333333333334,0.03866666666666685,-0.02833333333332888,-0.04999999999999716,1.522,1.568,37.093,29.203,37.083,34.197,56.242999999999995,34.45,59.1395,51.6225,54.169,33.635999999999996,57.768,49.9785,53.345,33.2125,57.736,49.40133333333333,-0.014999999999999902,-0.14700000000000024,0.10232000000000001,0.11054000000000001,0.0,205.435,205.345,202.34666666666666,202.34666666666666,0.0,0.0
1,0.0,1.0,0.0,1.0,1.0,0.0,0.0,1.0,0.0,0.0,1.0,1.1856,26.0,0.0,0.0,0.0,59.999996,0.0,26.0,26.0,26.0,26.0,-0.1235,0.31620000000000004,0.2092,293.015,-2.61735,-2.787,-1.532,-1.5324444444444443,-271.83,216.285,190.9645,0.0,0.0,0.0,0.0,0.0038333333333333552,-5.498166666666667,-5.498166666666667,-0.5061,-1.4064999999999999,-0.07477777777777783,-0.985,65.706,-0.0743,-0.21265,1.4540000000000006,100.0,1.0,1.0,202.51999999999998,0.0,0.0,0.0,0.0,0.0,0.0,0.0,8584.1,0.0,55.0,5.0,236.51333333333332,1.0,0.0,0.0,0.0,0.0,0.0,0.0,0.0,0.06299999999999883,0.06299999999999883,0.0,0.0,1.0,55.0,616.79921,10000.0,85.000001,85.000001,85.000001,85.000001,395.0,0.0,0.0,0.0,1.0,55.556,53.391,53.391,48.431,48.431,34.0,-28.45,17.796,-35.81666666666666,25.497500000000002,0.0,1783.352,0.8900000000000006,100.0,27.672,26.884,42.766999999999996,41.826,0.0,0.0,100.0,0.0,0.0,0.0,0.0,3193.0,2724.6,4344.75,4495.8,305.226,306.17375,314.20225,313.38075,21.7849,20.5174,21.7842,21.3208,314.999998,314.999998,324.999988,324.999988,99.55875714285715,99.50723333333333,99.56554285714286,99.54534285714286,-0.029749999999999943,-0.15900000000000003,-0.2031666666666666,0.00316666666666654,-0.041666666666671404,-0.03333333333333144,1.3866666666666667,1.4665,37.155,29.2335,37.150999999999996,34.254999999999995,56.227999999999994,34.4895,59.1855,51.689,54.155,33.6725,57.8115,50.042,53.33,33.247,57.7765,49.464,-0.008499999999999952,-0.14900000000000002,0.10447000000000001,0.09735500000000001,0.0,205.845,205.71,202.51999999999998,202.51999999999998,0.0,0.0
2,0.0,1.0,0.0,1.0,1.0,0.0,0.0,1.0,0.0,0.0,1.0,1.1856,26.0,0.0,0.0,0.0,59.999996,0.0,26.0,26.0,26.0,26.0,-0.139375,0.31610000000000005,-0.06715,293.73199999999997,-2.62135,-2.7302222222222223,-1.48575,-1.5207777777777778,-267.49,216.275,190.94,0.0,0.0,0.0,0.0,0.006366666666666521,-5.498166666666667,-5.498166666666667,-0.5354,1.2515,-0.024333333333333318,0.264,65.891,-0.09230000000000001,-0.22935,1.5500000000000007,100.0,1.0,1.0,203.52666666666667,0.0,0.0,0.0,0.0,0.0,0.0,0.0,8626.8,0.0,55.0,5.0,237.17666666666668,0.0,0.0,0.0,0.0,0.0,0.0,0.0,0.0,0.12900000000000134,0.12900000000000134,0.0,0.0,0.0,55.0,616.79921,10000.0,85.000001,85.000001,85.000001,85.000001,395.0,0.0,0.0,0.0,1.0,55.556,52.78,52.78,49.744,49.744,34.0,-28.13,18.676,-31.27,20.259999999999998,0.0,1783.285,0.6950000000000003,100.0,28.27,27.162,42.055,41.065,0.0,0.0,100.0,0.0,0.0,0.0,0.0,3118.714285714286,2908.0,3934.875,3954.4,305.3355,305.368,315.37175,315.00725,21.798000000000002,20.5239,21.7976,21.332,314.999998,314.999998,324.999988,324.999988,99.55877142857143,99.50725,99.56572857142856,99.54551428571429,-0.03600000000000003,-0.16549999999999998,-0.2303333333333334,-0.008166666666666655,-0.04833333333333201,-0.04833333333333201,1.592,1.646,37.238,29.2745,37.235,34.325,56.213,34.5435,59.2325,51.762,54.14,33.7225,57.855000000000004,50.112,53.315,33.2945,57.817,49.532666666666664,-0.025499999999999856,-0.13350000000000017,0.10469,0.10719500000000001,0.0,206.485,206.365,203.52666666666667,203.52666666666667,0.0,0.0
3,0.0,1.0,0.0,1.0,1.0,0.0,0.0,1.0,0.0,0.0,1.0,1.1856,26.0,0.0,0.0,0.0,59.999996,0.0,26.0,26.0,26.0,26.0,-0.149875,0.3107,0.09235,293.51800000000003,-2.7142,-2.71,-1.4987,-1.603222222222222,-265.31,216.26749999999998,190.927125,0.0,0.0,0.0,0.0,0.007633333333333381,-5.498166666666667,-5.498166666666667,-0.5085000000000001,-0.052000000000000046,-0.024222222222222367,-0.131,65.991,-0.09380000000000001,-0.19770000000000001,1.202,100.0,1.0,1.0,203.55333333333334,0.0,0.0,0.0,0.0,0.0,0.0,0.0,8627.9,0.0,55.0,5.0,237.5366666666667,1.0,0.0,0.0,0.0,0.0,0.0,0.0,0.0,0.16199999999999903,0.16199999999999903,0.0,0.0,1.0,55.0,616.79921,10000.0,85.000001,85.000001,85.000001,85.000001,395.0,0.0,0.0,0.0,1.0,66.667,53.772,53.772,48.126,48.126,34.0,-25.6,18.156,-35.52333333333333,24.497500000000002,0.0,1783.252,0.6999999999999993,100.0,27.918,26.754,42.586,41.294,0.0,0.0,100.0,0.0,0.0,0.0,0.0,2834.4285714285716,2850.8,4306.5,4276.8,306.185,305.7895,314.27375,314.24275,21.8042,20.5272,21.8045,21.3378,314.999998,314.999998,324.999988,324.999988,99.55877142857143,99.50726666666667,99.56581428571428,99.54561428571428,-0.02774999999999994,-0.15800000000000003,-0.22099999999999997,0.0020000000000000018,-0.03166666666666629,-0.05833333333333002,1.4763333333333333,1.5115,37.275999999999996,29.295,37.278,34.3615,56.201,34.570499999999996,59.260999999999996,51.8035,54.129000000000005,33.747,57.8815,50.1515,53.303,33.3185,57.841499999999996,49.571333333333335,-0.025499999999999856,-0.12349999999999994,0.11153,0.102055,0.0,206.745,206.68,203.55333333333334,203.55333333333334,0.0,0.0
4,0.0,1.0,0.0,1.0,1.0,0.0,0.0,1.0,0.0,0.0,1.0,1.1856,26.0,0.0,0.0,0.0,59.999996,0.0,26.0,26.0,26.0,26.0,-0.1515,0.2642,-0.0049,293.701,-2.64925,-2.7544444444444443,-1.5158,-1.608888888888889,-261.94,216.2525,190.907375,0.0,0.0,0.0,0.0,0.009566666666666612,-5.498166666666667,-5.498166666666667,-0.5499,-0.5140000000000002,-0.0902222222222222,-1.336,66.135,-0.0903,-0.24080000000000001,1.2479999999999993,100.0,1.0,1.0,204.21666666666667,0.0,0.0,0.0,0.0,0.0,0.0,0.0,8655.9,0.0,55.0,5.0,238.05666666666667,0.0,0.0,0.0,0.0,0.0,0.0,0.0,0.0,0.21300000000000097,0.21300000000000097,0.0,0.0,0.0,55.0,616.79921,10000.0,85.000001,85.000001,85.000001,85.000001,395.0,0.0,0.0,0.0,1.0,55.556,52.887,52.887,49.132999999999996,49.132999999999996,34.0,-31.0325,18.802,-32.78333333333333,20.265,0.0,1783.202,0.625,100.0,27.721,26.828,42.778999999999996,41.244,0.0,0.0,100.0,0.0,0.0,0.0,0.0,3379.714285714286,2895.9,4033.75,3652.2,304.6955,305.46075,314.99475,315.7415,21.814,20.5323,21.8151,21.3467,314.999998,314.999998,324.999988,324.999988,99.55877142857143,99.50728333333333,99.56595714285714,99.54574285714286,-0.037250000000000005,-0.16474999999999995,-0.2263333333333334,0.007833333333333359,-0.051666666666669414,-0.051666666666669414,1.5663333333333334,1.6245,37.338,29.326999999999998,37.345,34.4165,56.185,34.6125,59.3025,51.8605,54.114000000000004,33.7855,57.920500000000004,50.2065,53.287,33.355000000000004,57.878,49.625,-0.028999999999999915,-0.12300000000000022,0.11087000000000001,0.10323500000000001,0.0,207.19,207.09,204.21666666666667,204.21666666666667,0.0,0.0
5,0.0,1.0,0.0,1.0,1.0,0.0,0.0,1.0,0.0,0.0,1.0,1.1856,26.0,0.0,0.0,0.0,59.999996,0.0,26.0,26.0,26.0,26.0,-0.12025,0.28910000000000013,0.026225000000000002,293.427,-2.63595,-2.7586666666666666,-1.4896,-1.633,-257.57,216.23000000000002,190.88075,0.0,0.0,0.0,0.0,0.01213333333333333,-5.498166666666667,-5.498166666666667,-0.532,0.014999999999999902,-0.07644444444444431,-0.248,66.327,-0.09000000000000001,-0.21432500000000002,0.9620000000000006,100.0,1.0,1.0,204.64,0.0,0.0,0.0,0.0,0.0,0.0,0.0,8673.9,0.0,55.0,5.0,238.74666666666667,1.0,0.0,0.0,0.0,0.0,0.0,0.0,0.0,0.2789999999999999,0.2789999999999999,0.0,0.0,1.0,55.0,616.79921,10000.0,85.000001,85.000001,85.000001,85.000001,395.0,0.0,0.0,0.0,1.0,55.556,53.299,53.299,48.66,48.66,34.0,-28.1575,19.537999999999997,-34.49333333333333,24.1125,0.0,1783.135,0.19000000000000128,100.0,27.718,26.721,42.666,41.368,0.0,0.0,100.0,0.0,0.0,0.0,0.0,3218.142857142857,2839.5,4218.25,4107.4,305.157,305.647,314.55875,314.54375,21.8269,20.538899999999998,21.8288,21.3582,314.999998,314.999998,324.999988,324.999988,99.55878571428572,99.5073,99.56615714285714,99.54592857142858,-0.012249999999999872,-0.13549999999999995,-0.22283333333333333,0.006333333333333302,-0.05833333333333002,-0.07166666666666544,1.4806666666666666,1.5154999999999998,37.418,29.368000000000002,37.43,34.4885,56.167,34.665,59.355000000000004,51.938,54.096000000000004,33.834,57.9695,50.2805,53.269,33.400999999999996,57.923,49.69733333333333,-0.062000000000000055,-0.08650000000000002,0.11364,0.10849500000000001,0.0,207.805,207.72500000000002,204.64,204.64,0.0,0.0
6,0.0,1.0,0.0,1.0,1.0,0.0,0.0,1.0,0.0,0.0,1.0,1.1856,26.0,0.0,0.0,0.0,59.999996,0.0,26.0,26.0,26.0,26.0,-0.116375,0.29580000000000006,0.006675,293.472,-2.63535,-2.797111111111111,-1.55155,-1.584111111111111,-255.38,216.215,190.8675,0.0,0.0,0.0,0.0,0.013399999999999967,-5.498166666666667,-5.498166666666667,-0.5313,0.10149999999999992,-0.062444444444444525,0.9870000000000001,66.42,-0.08410000000000001,-0.2151,0.6679999999999993,100.0,1.0,1.0,204.98333333333335,0.0,0.0,0.0,0.0,0.0,0.0,0.0,8688.5,0.0,55.0,5.0,239.08333333333331,0.0,0.0,0.0,0.0,0.0,0.0,0.0,0.0,0.31200000000000117,0.31200000000000117,0.0,0.0,0.0,55.0,616.79921,10000.0,85.000001,85.000001,85.000001,85.000001,395.0,0.0,0.0,0.0,1.0,66.667,53.238,53.238,48.676,48.676,34.0,-26.372500000000002,21.34,-32.59,24.37,0.0,1783.102,-0.07000000000000028,100.0,27.858,26.751,42.761,41.434,0.0,0.0,100.0,0.0,0.0,0.0,0.0,3073.4285714285716,2942.9,4101.125,4079.6000000000004,305.3655,305.4585,314.8255,314.76425,21.8333,20.5422,21.8356,21.364,314.999998,314.999998,324.999988,324.999988,99.55878571428572,99.50731666666667,99.56624285714285,99.54601428571429,0.0030000000000001137,-0.11624999999999996,-0.1961666666666666,0.03433333333333333,-0.045000000000001705,-0.06333333333333258,1.541,1.557,37.458,29.389,37.473,34.5245,56.157,34.6915,59.3805,51.9775,54.087,33.858000000000004,57.993,50.318,53.259,33.4245,57.945,49.73433333333333,-0.07050000000000001,-0.07500000000000018,0.099845,0.109505,0.0,208.07999999999998,208.01999999999998,204.98333333333335,204.98333333333335,0.0,0.0
7,0.0,1.0,0.0,1.0,1.0,0.0,0.0,1.0,0.0,0.0,1.0,1.1856,26.0,0.0,0.0,0.0,59.999996,0.0,26.0,26.0,26.0,26.0,-0.058625000000000003,0.2824,0.0056500000000000005,293.365,-2.6134,-2.7505555555555556,-1.51455,-1.623888888888889,-251.99,216.19,190.847125,0.0,0.0,0.0,0.0,0.015366666666666529,-5.498166666666667,-5.498166666666667,-0.5351,0.08399999999999985,-0.05122222222222206,-0.254,66.566,-0.0665,-0.224725,0.3720000000000008,100.0,1.0,1.0,205.43333333333334,0.0,0.0,0.0,0.0,0.0,0.0,0.0,8707.5,0.0,55.0,5.0,239.61,1.0,0.0,0.0,0.0,0.0,0.0,0.0,0.0,0.36299999999999955,0.36299999999999955,0.0,0.0,1.0,55.0,616.79921,10000.0,85.000001,85.000001,85.000001,85.000001,395.0,0.0,0.0,0.0,1.0,55.556,52.948,52.948,48.935,48.935,34.0,-26.2425,21.612000000000002,-30.983333333333334,24.8375,0.0,1783.052,-0.23000000000000043,100.0,27.82,27.002,42.657,41.786,0.0,0.0,100.0,0.0,0.0,0.0,0.0,3217.142857142857,2903.1,4045.625,3981.7,305.0675,305.388,314.9855,314.879,21.8432,20.5474,21.8462,21.373,314.999998,314.999998,324.999988,324.999988,99.55878571428572,99.50731666666667,99.56638571428572,99.54615714285714,0.03000000000000025,-0.09624999999999995,-0.18366666666666664,0.043500000000000094,-0.05333333333332746,-0.054999999999999716,1.5313333333333334,1.5495,37.519999999999996,29.4215,37.538,34.581,56.141999999999996,34.731,59.4195,52.0385,54.073,33.8945,58.03,50.3765,53.244,33.459,57.979,49.791333333333334,-0.09099999999999997,-0.053999999999999826,0.10566500000000001,0.107615,0.0,208.515,208.48000000000002,205.43333333333334,205.43333333333334,0.0,0.0
8,0.0,1.0,0.0,1.0,1.0,0.0,0.0,1.0,0.0,0.0,1.0,1.1856,26.0,0.0,0.0,0.0,59.999996,0.0,26.0,26.0,26.0,26.0,-0.034125,0.2792000000000001,0.013625,293.51800000000003,-2.69455,-2.725111111111111,-1.4953,-1.576111111111111,-248.59,216.16500000000002,190.8265,0.0,0.0,0.0,0.0,0.01733333333333331,-5.498166666666667,-5.498166666666667,-0.5403,-0.6324999999999998,-0.033222222222222264,0.7630000000000001,66.712,-0.0444,-0.21937500000000001,-0.10200000000000031,100.0,1.0,1.0,205.81666666666666,0.0,0.0,0.0,0.0,0.0,0.0,0.0,8723.8,0.0,55.0,5.0,240.13333333333333,0.0,0.0,0.0,0.0,0.0,0.0,0.0,0.0,0.4139999999999979,0.4139999999999979,0.0,0.0,0.0,55.0,616.79921,10000.0,85.000001,85.000001,85.000001,85.000001,395.0,0.0,0.0,0.0,1.0,55.556,53.513,53.513,48.431,48.431,34.0,-23.9325,23.665999999999997,-28.956666666666663,27.127499999999998,0.0,1783.002,-0.33999999999999986,100.0,27.44,26.757,42.725,41.821,0.0,0.0,100.0,0.0,0.0,0.0,0.0,2996.4285714285716,3043.1,4033.125,4089.5,305.7445,305.226,314.9175,314.67275,21.852899999999998,20.552599999999998,21.8567,21.381999999999998,314.999998,314.999998,324.999988,324.999988,99.55878571428572,99.50733333333334,99.56652857142858,99.5463,0.05250000000000021,-0.06274999999999997,-0.1466666666666666,0.0838333333333332,-0.04833333333333201,-0.05833333333333002,1.5276666666666667,1.5185,37.58,29.454,37.604,34.637,56.125,34.769,59.4595,52.099000000000004,54.057,33.9295,58.067,50.435,53.227000000000004,33.4925,58.0125,49.848333333333336,-0.10050000000000003,-0.0405000000000002,0.10893000000000001,0.11314,0.0,208.935,208.94,205.81666666666666,205.81666666666666,0.0,0.0
9,0.0,1.0,0.0,1.0,1.0,0.0,0.0,1.0,0.0,0.0,1.0,1.1856,26.0,0.0,0.0,0.0,59.999996,0.0,26.0,26.0,26.0,26.0,-0.0205,0.2925,0.04975,293.06,-2.62365,-2.733777777777778,-1.5554000000000001,-1.5593333333333332,-245.39,216.14,190.8065,0.0,0.0,0.0,0.0,0.019199999999999995,-5.498166666666667,-5.498166666666667,-0.5375,0.8234999999999999,-0.029888888888888854,0.9970000000000001,66.846,-0.024900000000000002,-0.21250000000000002,-0.21999999999999975,100.0,1.0,1.0,206.3,0.0,0.0,0.0,0.0,0.0,0.0,0.0,8744.3,0.0,55.0,5.0,240.61666666666667,1.0,0.0,0.0,0.0,0.0,0.0,0.0,0.0,0.46199999999999974,0.46199999999999974,0.0,0.0,1.0,55.0,616.79921,10000.0,85.000001,85.000001,85.000001,85.000001,395.0,0.0,0.0,0.0,1.0,66.667,52.444,52.444,49.010999999999996,49.010999999999996,34.0,-24.2575,24.828,-28.906666666666666,27.8,0.0,1782.952,-0.5449999999999982,100.0,28.091,27.234,42.394,41.877,0.0,0.0,100.0,0.0,0.0,0.0,0.0,3222.857142857143,3081.5,4052.25,4162.8,304.927,305.019,315.01275,314.58575,21.8622,20.5577,21.8665,21.3904,314.999998,314.999998,324.999988,324.999988,99.5588,99.50733333333334,99.56667142857142,99.54642857142858,0.08150000000000013,-0.04749999999999999,-0.1333333333333333,0.09516666666666684,-0.03999999999999915,-0.061666666666667425,1.5653333333333332,1.5585,37.638999999999996,29.485500000000002,37.665,34.69,56.114000000000004,34.806,59.493,52.155,54.046,33.964,58.0985,50.4885,53.215,33.5255,58.0415,49.900999999999996,-0.11749999999999994,-0.03500000000000014,0.10993000000000001,0.10407000000000001,0.0,209.365,209.375,206.3,206.3,0.0,0.0
10,0.0,1.0,0.0,1.0,1.0,0.0,0.0,1.0,0.0,0.0,1.0,1.1856,26.0,0.0,0.0,0.0,59.999996,0.0,26.0,26.0,26.0,26.0,0.015,0.28,-0.057025,293.076,-2.70815,-2.6674444444444445,-1.5413000000000001,-1.541777777777778,-241.97,216.11,190.785875,0.0,0.0,0.0,0.0,0.021199999999999997,-5.498166666666667,-5.498166666666667,-0.5228,-0.7315,0.012666666666666604,0.32299999999999995,66.993,-0.0039000000000000003,-0.2122,-0.48799999999999955,100.0,1.0,1.0,206.57666666666665,0.0,0.0,0.0,0.0,0.0,0.0,0.0,8756.0,0.0,55.0,5.0,241.14333333333332,0.0,0.0,0.0,0.0,0.0,0.0,1.0,0.0,0.5129999999999981,0.5129999999999981,0.0,0.0,0.0,55.0,616.79921,10000.0,85.000001,85.000001,85.000001,85.000001,395.0,0.0,0.0,0.0,1.0,55.556,53.543,53.543,47.745,47.745,34.0,-21.4725,22.855999999999998,-29.54,29.1525,0.0,1782.902,-0.5899999999999999,100.0,27.603,27.287,42.827,42.774,0.0,0.0,100.0,0.0,0.0,0.0,0.0,2885.0,2900.8,4235.875,4223.6,306.1705,305.4835,314.5195,314.2755,21.8718,20.5629,21.8771,21.3996,314.999998,314.999998,324.999988,324.999988,99.55881428571429,99.50735,99.56681428571429,99.54657142857143,0.08924999999999983,-0.043749999999999956,-0.11149999999999993,0.10650000000000004,-0.03166666666666629,-0.02833333333332888,1.4963333333333333,1.4915,37.699,29.5185,37.732,34.7475,56.099999999999994,34.8425,59.534,52.219,54.033,33.9975,58.1365,50.5505,53.201,33.5575,58.076499999999996,49.961666666666666,-0.123,-0.02300000000000013,0.10296500000000001,0.102735,0.0,209.775,209.79500000000002,206.57666666666665,206.57666666666665,0.0,0.0
11,0.0,1.0,0.0,1.0,1.0,0.0,0.0,1.0,0.0,0.0,1.0,1.1856,26.0,0.0,0.0,0.0,59.999996,0.0,26.0,26.0,26.0,26.0,0.069875,0.29610000000000003,-0.06747500000000001,293.365,-2.70515,-2.6692222222222224,-1.57975,-1.5262222222222221,-237.55,216.075,190.7585,0.0,0.0,0.0,0.0,0.023799999999999932,-5.498166666666667,-5.498166666666667,-0.5563,0.4535,0.023333333333333206,-1.037,67.174,0.0204,-0.2184,-0.7220000000000004,100.0,1.0,1.0,207.34,0.0,0.0,0.0,0.0,0.0,0.0,0.0,8788.3,0.0,55.0,5.0,241.79666666666668,1.0,0.0,0.0,0.0,0.0,0.0,1.0,0.0,0.5790000000000006,0.5790000000000006,0.0,0.0,1.0,55.0,616.79921,10000.0,85.000001,85.000001,85.000001,85.000001,395.0,0.0,0.0,0.0,1.0,55.556,53.055,53.055,48.522999999999996,48.522999999999996,34.0,-21.23,25.924,-26.46,28.5225,0.0,1782.835,-0.7800000000000011,100.0,27.398,27.654,42.085,42.435,0.0,0.0,100.0,0.0,0.0,0.0,0.0,3002.4285714285716,3042.8,4064.75,4007.8,305.7795,304.96825,315.05325,314.91625,21.8842,20.57,21.8905,21.4112,314.999998,314.999998,324.999988,324.999988,99.55882857142858,99.50735,99.567,99.54675714285715,0.12049999999999983,-0.00275000000000003,-0.08033333333333337,0.14483333333333337,-0.05333333333332746,-0.046666666666666856,1.6019999999999999,1.585,37.775999999999996,29.5625,37.815,34.8195,56.082,34.8915,59.578,52.296,54.016,34.042500000000004,58.177,50.624,53.183,33.601,58.1135,50.034,-0.13650000000000007,-0.009500000000000064,0.10382500000000001,0.103285,0.0,210.34,210.41,207.34,207.34,0.0,0.0
12,0.0,1.0,0.0,1.0,1.0,0.0,0.0,1.0,0.0,0.0,1.0,1.1856,26.0,0.0,0.0,0.0,59.999996,0.0,26.0,26.0,26.0,26.0,0.046625,0.2948000000000002,0.032775,292.801,-2.7218,-2.6846666666666668,-1.5534,-1.528888888888889,-235.32999999999998,216.06,190.744125,0.0,0.0,0.0,0.0,0.025466666666666526,-5.498166666666667,-5.498166666666667,-0.5449,0.258,0.017111111111111077,0.7610000000000001,67.268,0.0328,-0.20770000000000002,-0.742,100.0,1.0,1.0,207.4766666666667,0.0,0.0,0.0,0.0,0.0,0.0,0.0,8794.2,0.0,55.0,5.0,242.13333333333333,0.0,0.0,0.0,0.0,0.0,0.0,1.0,0.0,0.6119999999999983,0.6119999999999983,0.0,0.0,0.0,55.0,616.79921,10000.0,85.000001,85.000001,85.000001,85.000001,395.0,0.0,0.0,0.0,1.0,66.667,52.643,52.643,47.806,47.806,34.0,-21.575,27.466,-26.826666666666664,31.587500000000002,0.0,1782.802,-0.5399999999999991,100.0,27.57,27.657,42.388,42.519999999999996,0.0,0.0,100.0,0.0,0.0,0.0,0.0,3034.285714285714,3217.2,4182.875,4264.7,305.5285,304.64175,314.5945,314.334,21.8904,20.5736,21.8973,21.4171,314.999998,314.999998,324.999988,324.999988,99.55884285714286,99.50735,99.56708571428571,99.54685714285715,0.1262500000000002,-0.0040000000000000036,-0.0658333333333333,0.15250000000000008,-0.041666666666671404,-0.04833333333333201,1.52,1.4845,37.815,29.585,37.858000000000004,34.8565,56.075,34.916,59.604,52.336,54.007999999999996,34.0655,58.201499999999996,50.6625,53.175,33.623,58.1355,50.072,-0.12850000000000006,-0.034499999999999975,0.11052000000000001,0.10797000000000001,0.0,210.63,210.685,207.4766666666667,207.4766666666667,0.0,0.0
13,0.0,1.0,0.0,1.0,1.0,0.0,0.0,1.0,0.0,0.0,1.0,1.1856,26.0,0.0,0.0,0.0,59.999996,0.0,26.0,26.0,26.0,26.0,0.082875,0.2881,0.031,292.526,-2.7085,-2.665,-1.5948,-1.5445555555555557,-231.89,216.035,190.7225,0.0,0.0,0.0,0.0,0.027066666666666572,-5.498166666666667,-5.498166666666667,-0.5401,-0.14100000000000001,0.024666666666666615,-0.469,67.41,0.040600000000000004,-0.21932500000000002,-0.8079999999999998,100.0,1.0,1.0,207.89,0.0,0.0,0.0,0.0,0.0,0.0,0.0,8811.7,0.0,55.0,5.0,242.64666666666665,1.0,0.0,0.0,0.0,0.0,0.0,1.0,0.0,0.6630000000000003,0.6630000000000003,0.0,0.0,1.0,55.0,616.79921,10000.0,85.000001,85.000001,85.000001,85.000001,395.0,0.0,0.0,0.0,1.0,55.556,52.429,52.429,47.913,47.913,34.0,-21.384999999999998,26.79,-27.443333333333335,32.5375,0.0,1782.752,-0.8200000000000003,100.0,27.699,28.009,42.519999999999996,43.183,0.0,0.0,100.0,0.0,0.0,0.0,0.0,3123.5714285714284,3099.7,4168.5,4268.6,305.4285,304.81675,314.73825,314.15875,21.9001,20.5791,21.907899999999998,21.4263,314.999998,314.999998,324.999988,324.999988,99.55885714285715,99.50735,99.56722857142857,99.547,0.14024999999999999,0.005749999999999922,-0.06999999999999995,0.1601666666666668,-0.03333333333333144,-0.04833333333333201,1.5056666666666667,1.476,37.875,29.619500000000002,37.924,34.914500000000004,56.065,34.954499999999996,59.641999999999996,52.4,53.998000000000005,34.1005,58.2365,50.7245,53.164,33.6565,58.167500000000004,50.132333333333335,-0.14449999999999985,-0.012500000000000178,0.10932000000000001,0.11073500000000001,0.0,211.065,211.12,207.89,207.89,0.0,0.0
14,0.0,1.0,0.0,1.0,1.0,0.0,0.0,1.0,0.0,0.0,1.0,1.1856,26.0,0.0,0.0,0.0,59.999996,0.0,26.0,26.0,26.0,26.0,0.09725,0.2722,-0.037200000000000004,292.786,-2.7427,-2.663222222222222,-1.60765,-1.5073333333333332,-227.44,216.005,190.694875,0.0,0.0,0.0,0.0,0.0296333333333334,-5.498166666666667,-5.498166666666667,-0.548,0.18399999999999994,0.05933333333333324,-0.118,67.59,0.0579,-0.22410000000000002,-1.0179999999999998,100.0,1.0,1.0,208.55666666666667,0.0,0.0,0.0,0.0,0.0,0.0,0.0,8839.9,0.0,55.0,5.0,243.29666666666668,0.0,0.0,0.0,0.0,0.0,0.0,1.0,0.0,0.7289999999999992,0.7289999999999992,0.0,0.0,0.0,55.0,616.79921,10000.0,85.000001,85.000001,85.000001,85.000001,395.0,0.0,0.0,0.0,1.0,55.556,52.414,52.414,48.492,48.492,34.0,-21.8275,26.945999999999998,-25.419999999999998,30.4725,0.0,1782.685,-0.9349999999999987,100.0,27.63,28.081,42.353,43.289,0.0,0.0,100.0,0.0,0.0,0.0,0.0,3215.857142857143,3045.7,4018.75,4056.5,305.233,304.9435,315.12175,314.741,21.912399999999998,20.5863,21.9214,21.4381,314.999998,314.999998,324.999988,324.999988,99.55887142857142,99.50736666666667,99.56741428571429,99.54718571428572,0.15225,0.022499999999999964,-0.055166666666666586,0.17466666666666675,-0.05666666666667197,-0.04333333333332945,1.5666666666666667,1.537,37.953,29.6645,38.009,34.9885,56.052,35.004,59.688,52.4805,53.986000000000004,34.1465,58.278999999999996,50.8015,53.15,33.7005,58.2065,50.208333333333336,-0.15100000000000002,-0.002000000000000224,0.11074500000000001,0.103275,0.0,211.635,211.685,208.55666666666667,208.55666666666667,0.0,0.0
15,0.0,1.0,0.0,1.0,1.0,0.0,0.0,1.0,0.0,0.0,1.0,1.1856,26.0,0.0,0.0,0.0,59.999996,0.0,26.0,26.0,26.0,26.0,0.11812500000000001,0.29269999999999996,0.034875,292.801,-2.7466,-2.632888888888889,-1.6259000000000001,-1.512888888888889,-225.21,215.9925,190.680875,0.0,0.0,0.0,0.0,0.030933333333333368,-5.498166666666667,-5.498166666666667,-0.5385,0.12149999999999994,0.08299999999999996,0.48,67.681,0.06720000000000001,-0.20675000000000002,-1.2359999999999998,100.0,1.0,1.0,208.75666666666666,0.0,0.0,0.0,0.0,0.0,0.0,0.0,8848.5,0.0,55.0,5.0,243.62333333333333,1.0,0.0,0.0,0.0,0.0,0.0,1.0,0.0,0.7620000000000005,0.7620000000000005,0.0,0.0,1.0,55.0,616.79921,10000.0,85.000001,85.000001,85.000001,85.000001,395.0,0.0,0.0,0.0,1.0,66.667,52.887,52.887,47.989,47.989,34.0,-17.7775,28.632,-24.38,34.870000000000005,0.0,1782.652,-0.9299999999999997,100.0,27.626,27.956,42.263,43.344,0.0,0.0,100.0,0.0,0.0,0.0,0.0,2766.4285714285716,3203.4,4030.5,4382.3,306.359,304.63225,315.13125,313.97375,21.9185,20.5899,21.9281,21.4441,314.999998,314.999998,324.999988,324.999988,99.5589,99.50736666666667,99.5675,99.54728571428572,0.17225000000000001,0.03649999999999998,-0.02733333333333332,0.1975,-0.045000000000001705,-0.051666666666669414,1.5453333333333332,1.5070000000000001,37.991,29.686999999999998,38.051,35.0255,56.045,35.0295,59.710499999999996,52.5225,53.979,34.17,58.3,50.842,53.143,33.723,58.225,50.248,-0.14900000000000002,-0.008000000000000007,0.10200000000000001,0.11089,0.0,211.9,211.985,208.75666666666666,208.75666666666666,0.0,0.0
16,0.0,1.0,0.0,1.0,1.0,0.0,0.0,1.0,0.0,0.0,1.0,1.1856,26.0,0.0,0.0,0.0,59.999996,0.0,26.0,26.0,26.0,26.0,0.1385,0.2672000000000001,-0.03435,292.74,-2.8026,-2.583555555555556,-1.5977999999999999,-1.5170000000000001,-221.75,215.975,190.65875,0.0,0.0,0.0,0.0,0.03293333333333337,-5.498166666666667,-5.498166666666667,-0.5661,-0.56,0.06433333333333313,-1.174,67.82,0.0784,-0.22985,-1.1360000000000001,100.0,1.0,1.0,209.25,0.0,0.0,0.0,0.0,0.0,0.0,0.0,8869.4,0.0,55.0,5.0,244.12666666666667,0.0,0.0,0.0,0.0,0.0,0.0,1.0,0.0,0.8129999999999988,0.8129999999999988,0.0,0.0,0.0,55.0,616.79921,10000.0,85.000001,85.000001,85.000001,85.000001,395.0,0.0,0.0,0.0,1.0,55.556,52.307,52.307,48.141,48.141,34.0,-21.4275,29.15,-22.793333333333333,32.4975,0.0,1782.602,-0.875,100.0,27.251,28.222,42.378,43.46,0.0,0.0,100.0,0.0,0.0,0.0,0.0,3166.5714285714284,3275.6,3909.0,4061.0,305.4645,304.3185,315.3535,314.72725,21.9278,20.5956,21.9386,21.4532,314.999998,314.999998,324.999988,324.999988,99.55891428571428,99.50736666666667,99.56764285714286,99.54742857142857,0.16349999999999998,0.03825000000000012,-0.02066666666666661,0.21150000000000002,-0.04833333333333201,-0.05333333333332746,1.5726666666666667,1.5285,38.048,29.7225,38.116,35.082499999999996,56.033,35.069,59.748,52.5835,53.967,34.207,58.335,50.9015,53.129999999999995,33.7585,58.2565,50.306333333333335,-0.14300000000000002,-0.011499999999999844,0.104315,0.113295,0.0,212.29500000000002,212.385,209.25,209.25,0.0,0.0
17,0.0,1.0,0.0,1.0,1.0,0.0,0.0,1.0,0.0,0.0,1.0,1.1856,26.0,0.0,0.0,0.0,59.999996,0.0,26.0,26.0,26.0,26.0,0.1475,0.28480000000000016,0.07395,292.16,-2.6824500000000002,-2.6564444444444444,-1.55955,-1.531777777777778,-217.26999999999998,215.95749999999998,190.6295,0.0,0.0,0.0,0.0,0.035566666666666524,-5.498166666666667,-5.498166666666667,-0.5468000000000001,-0.18000000000000016,0.056333333333333124,-0.18799999999999994,68.002,0.08120000000000001,-0.21452500000000002,-1.1220000000000008,100.0,1.0,1.0,209.61333333333334,0.0,0.0,0.0,0.0,0.0,0.0,0.0,8884.8,0.0,55.0,5.0,244.78,1.0,0.0,0.0,0.0,0.0,0.0,1.0,0.0,0.8790000000000013,0.8790000000000013,0.0,0.0,1.0,55.0,616.79921,10000.0,85.000001,85.000001,85.000001,85.000001,395.0,0.0,0.0,0.0,1.0,55.556,52.444,52.444,47.134,47.134,34.0,-18.2975,27.887999999999998,-25.746666666666666,35.510000000000005,0.0,1782.535,-1.0549999999999997,100.0,27.718,28.461,42.616,43.863,0.0,0.0,100.0,0.0,0.0,0.0,0.0,2995.5714285714284,3070.3,4290.375,4380.5,305.791,304.84275,314.38525,313.851,21.94,20.602899999999998,21.9522,21.4651,314.999998,314.999998,324.999988,324.999988,99.55894285714285,99.50738333333334,99.56782857142858,99.54762857142858,0.18400000000000016,0.04025000000000012,-0.02716666666666656,0.19366666666666688,-0.04333333333332945,-0.04333333333332945,1.475,1.4325,38.125,29.768,38.201,35.157,56.022999999999996,35.122,59.796,52.666,53.957,34.2555,58.3795,50.9805,53.117999999999995,33.8055,58.2975,50.38433333333333,-0.15949999999999998,-0.000500000000000167,0.10899,0.10505,0.0,212.89,212.97500000000002,209.61333333333334,209.61333333333334,0.0,0.0
18,0.0,1.0,0.0,1.0,1.0,0.0,0.0,1.0,0.0,0.0,1.0,1.1856,26.0,0.0,0.0,0.0,59.999996,0.0,26.0,26.0,26.0,26.0,0.12687500000000002,0.2695000000000001,0.000175,292.221,-2.7967,-2.534222222222222,-1.66065,-1.4182222222222223,-215.01999999999998,215.95,190.615,0.0,0.0,0.0,0.0,0.0368666666666666,-5.498166666666667,-5.498166666666667,-0.5635,-0.3919999999999999,0.07766666666666677,0.976,68.09,0.08370000000000001,-0.2283,-1.3579999999999997,100.0,1.0,1.0,210.00666666666666,0.0,0.0,0.0,0.0,0.0,0.0,0.0,8901.3,0.0,55.0,5.0,245.09333333333336,0.0,0.0,0.0,0.0,0.0,0.0,1.0,0.0,0.911999999999999,0.911999999999999,0.0,0.0,0.0,55.0,616.79921,10000.0,85.000001,85.000001,85.000001,85.000001,395.0,0.0,0.0,0.0,1.0,66.667,51.956,51.956,47.531,47.531,34.0,-19.145,31.63,-24.099999999999998,33.6275,0.0,1782.502,-1.2899999999999991,100.0,27.662,28.314,42.647,43.814,0.0,0.0,100.0,0.0,0.0,0.0,0.0,3053.5714285714284,3464.4,4020.25,4277.2,305.57,303.92025,315.07725,314.31475,21.9461,20.6066,21.9589,21.4711,314.999998,314.999998,324.999988,324.999988,99.55895714285714,99.50738333333334,99.56792857142857,99.54772857142858,0.19974999999999987,0.06624999999999992,-0.013000000000000012,0.22033333333333327,-0.02499999999999858,-0.06499999999999773,1.5606666666666666,1.506,38.163,29.791,38.242999999999995,35.1945,56.016,35.149,59.8185,52.7065,53.951,34.2805,58.4005,51.019999999999996,53.111000000000004,33.829499999999996,58.316,50.422666666666665,-0.17149999999999999,0.014999999999999902,0.10569500000000001,0.11453500000000001,0.0,213.13,213.23000000000002,210.00666666666666,210.00666666666666,0.0,0.0
19,0.0,1.0,0.0,1.0,1.0,0.0,0.0,1.0,0.0,0.0,1.0,1.1856,26.0,0.0,0.0,0.0,59.999996,0.0,26.0,26.0,26.0,26.0,0.181375,0.28690000000000015,0.066275,291.87,-2.7237999999999998,-2.6286666666666667,-1.59795,-1.4011111111111112,-211.55,215.9425,190.592375,0.0,0.0,0.0,0.0,0.038866666666666605,-5.498166666666667,-5.498166666666667,-0.5448000000000001,0.7415,0.08799999999999986,-0.646,68.22800000000001,0.09140000000000001,-0.20850000000000002,-1.646,100.0,1.0,1.0,210.35666666666668,0.0,0.0,0.0,0.0,0.0,0.0,0.0,8916.3,0.0,55.0,5.0,245.59,1.0,0.0,0.0,0.0,0.0,0.0,1.0,0.0,0.963000000000001,0.963000000000001,0.0,0.0,1.0,55.0,616.79921,10000.0,85.000001,85.000001,85.000001,85.000001,395.0,0.0,0.0,0.0,1.0,55.556,51.91,51.91,47.287,47.287,34.0,-17.3775,30.714,-24.203333333333333,36.42,0.0,1782.452,-1.5799999999999983,100.0,27.916,28.908,42.344,44.048,0.0,0.0,100.0,0.0,0.0,0.0,0.0,3018.142857142857,3202.4,4204.625,4543.9,305.7155,304.4005,314.65975,313.62025,21.9555,20.6124,21.9692,21.4803,314.999998,314.999998,324.999988,324.999988,99.55898571428571,99.5074,99.56807142857143,99.54787142857143,0.21750000000000025,0.08000000000000007,-0.003666666666666596,0.22233333333333327,-0.054999999999999716,-0.051666666666669414,1.5110000000000001,1.4465,38.222,29.8275,38.308,35.251999999999995,56.01,35.193,59.853,52.7705,53.945,34.3215,58.432,51.0815,53.104,33.8685,58.3445,50.483333333333334,-0.19799999999999995,0.03849999999999998,0.10473500000000001,0.10866,0.0,213.595,213.70499999999998,210.35666666666668,210.35666666666668,0.0,0.0
20,0.0,1.0,0.0,1.0,1.0,0.0,0.0,1.0,0.0,0.0,1.0,1.1856,26.0,0.0,0.0,0.0,59.999996,0.0,26.0,26.0,26.0,26.0,0.16525,0.25690000000000013,-0.066975,292.496,-2.7935,-2.574111111111111,-1.62355,-1.474777777777778,-207.04,215.94,190.563375,0.0,0.0,0.0,0.0,0.04149999999999998,-5.498166666666667,-5.498166666666667,-0.5787,-0.8290000000000002,0.07922222222222208,-1.28,68.403,0.1091,-0.241325,-1.3899999999999997,100.0,1.0,1.0,211.04666666666668,0.0,0.0,0.0,0.0,0.0,0.0,0.0,8945.5,0.0,55.0,5.0,246.22333333333336,0.0,0.0,0.0,0.0,0.0,0.0,0.0,0.0,1.029,1.029,0.0,0.0,0.0,55.0,616.79921,10000.0,85.000001,85.000001,85.000001,85.000001,395.0,0.0,0.0,0.0,1.0,55.556,52.124,52.124,47.958,47.958,34.0,-21.035,28.902,-21.443333333333335,32.5025,0.0,1782.385,-0.5300000000000011,100.0,27.362000000000002,28.584,42.612,44.217,0.0,0.0,100.0,0.0,0.0,0.0,0.0,3135.4285714285716,3283.8,3863.0,4029.2,305.552,304.26825,315.5005,314.874,21.9674,20.6198,21.9828,21.4923,314.999998,314.999998,324.999988,324.999988,99.559,99.5074,99.56825714285715,99.54807142857143,0.1655000000000002,0.031749999999999945,0.0050000000000001155,0.2330000000000001,-0.05666666666667197,-0.030000000000001137,1.5956666666666668,1.5510000000000002,38.296,29.874000000000002,38.391999999999996,35.327,55.995999999999995,35.247,59.9005,52.853,53.931,34.3715,58.476,51.161,53.088,33.917,58.3845,50.56133333333334,-0.11999999999999988,-0.03699999999999992,0.10502,0.10204500000000001,0.0,214.085,214.16500000000002,211.04666666666668,211.04666666666668,0.0,0.0
21,0.0,1.0,0.0,1.0,1.0,0.0,0.0,1.0,0.0,0.0,1.0,1.1856,26.0,0.0,0.0,0.0,59.999996,0.0,26.0,26.0,26.0,26.0,0.112125,0.27980000000000005,-0.07115,292.526,-2.77605,-2.600111111111111,-1.65195,-1.4964444444444445,-204.78,215.94,190.54825,0.0,0.0,0.0,0.0,0.04279999999999995,-5.498166666666667,-5.498166666666667,-0.5751000000000001,0.6405000000000001,0.05655555555555569,0.01200000000000001,68.49000000000001,0.10930000000000001,-0.218025,-0.9100000000000001,100.0,1.0,1.0,211.33333333333331,0.0,0.0,0.0,0.0,0.0,0.0,0.0,8957.6,0.0,55.0,5.0,246.53666666666666,1.0,0.0,0.0,0.0,0.0,0.0,0.0,0.0,1.0620000000000012,1.0620000000000012,0.0,0.0,1.0,55.0,616.79921,10000.0,85.000001,85.000001,85.000001,85.000001,395.0,0.0,0.0,0.0,1.0,66.667,52.246,52.246,48.004,48.004,34.0,-20.9625,27.63,-23.026666666666664,33.4775,0.0,1782.352,0.21000000000000085,100.0,27.843,28.471,42.302,43.739000000000004,0.0,0.0,100.0,0.0,0.0,0.0,0.0,2990.142857142857,3263.9,4051.25,4109.9,305.729,304.50625,315.08225,314.74675,21.9735,20.6236,21.9893,21.4981,314.999998,314.999998,324.999988,324.999988,99.55901428571428,99.5074,99.56835714285714,99.54815714285715,0.14300000000000024,0.00649999999999995,0.006166666666666654,0.23416666666666686,-0.05333333333332746,-0.041666666666671404,1.592,1.56,38.334,29.8975,38.433,35.363,55.989999999999995,35.272999999999996,59.9215,52.8915,53.925,34.396,58.4955,51.198,53.081,33.94,58.402,50.598,-0.07899999999999996,-0.08450000000000024,0.108295,0.109365,0.0,214.41500000000002,214.47500000000002,211.33333333333331,211.33333333333331,0.0,0.0
22,0.0,1.0,0.0,1.0,1.0,0.0,0.0,1.0,0.0,0.0,1.0,1.1856,26.0,0.0,0.0,0.0,59.999996,0.0,26.0,26.0,26.0,26.0,0.08175,0.2679,-0.0013750000000000001,292.145,-2.7028499999999998,-2.658333333333333,-1.6407,-1.4937777777777779,-201.28,215.945,190.524375,0.0,0.0,0.0,0.0,0.04483333333333339,-5.498166666666667,-5.498166666666667,-0.5563,-0.1419999999999999,0.05022222222222217,-1.004,68.629,0.0795,-0.2049,0.15799999999999947,100.0,1.0,1.0,211.56333333333333,0.0,0.0,0.0,0.0,0.0,0.0,0.0,8967.4,0.0,55.0,5.0,247.03666666666666,0.0,0.0,0.0,0.0,0.0,0.0,0.0,0.0,1.1129999999999995,1.1129999999999995,0.0,0.0,0.0,55.0,616.79921,10000.0,85.000001,85.000001,85.000001,85.000001,395.0,0.0,0.0,0.0,1.0,55.556,52.597,52.597,46.936,46.936,34.0,-21.544999999999998,24.144,-27.783333333333335,32.8725,0.0,1782.302,0.5350000000000001,100.0,27.797,28.566,42.903999999999996,44.119,0.0,0.0,100.0,0.0,0.0,0.0,0.0,2914.142857142857,3026.1,4279.875,4312.0,306.073,304.989,314.5285,314.11725,21.9829,20.6293,21.9999,21.5074,314.999998,314.999998,324.999988,324.999988,99.55904285714286,99.50741666666667,99.5685,99.54831428571428,0.09474999999999989,-0.04299999999999993,-0.04583333333333339,0.1731666666666667,-0.045000000000001705,-0.04999999999999716,1.478,1.4785,38.393,29.933,38.5,35.421,55.977000000000004,35.3125,59.960499999999996,52.9555,53.913,34.432,58.5315,51.26,53.068,33.9745,58.4345,50.65833333333333,-0.03249999999999997,-0.11699999999999999,0.09791000000000001,0.110185,0.0,214.87,214.87,211.56333333333333,211.56333333333333,0.0,0.0
23,0.0,1.0,0.0,1.0,1.0,0.0,0.0,1.0,0.0,0.0,1.0,1.1856,26.0,0.0,0.0,0.0,59.999996,0.0,26.0,26.0,26.0,26.0,-0.010625,0.2552000000000001,-0.050725,292.114,-2.69885,-2.640777777777778,-1.6653,-1.4944444444444445,-197.78,215.95,190.501,0.0,0.0,0.0,0.0,0.04689999999999994,-5.498166666666667,-5.498166666666667,-0.5761000000000001,-0.014000000000000234,0.02444444444444427,0.23199999999999998,68.761,0.028800000000000003,-0.2303,0.8279999999999994,100.0,1.0,1.0,212.13333333333333,0.0,0.0,0.0,0.0,0.0,0.0,0.0,8991.6,0.0,55.0,5.0,247.51333333333332,1.0,0.0,0.0,0.0,0.0,0.0,0.0,0.0,1.163999999999998,1.163999999999998,0.0,0.0,1.0,55.0,616.79921,10000.0,85.000001,85.000001,85.000001,85.000001,395.0,0.0,0.0,0.0,1.0,55.556,51.712,51.712,48.004,48.004,34.0,-25.0175,24.426,-28.546666666666663,27.5325,0.0,1782.252,0.625,100.0,28.506,28.344,43.17,43.928,0.0,0.0,100.0,0.0,0.0,0.0,0.0,3173.285714285714,3203.2,4031.625,4027.2,305.132,304.6905,315.12725,314.97475,21.9924,20.635,22.0104,21.5166,314.999998,314.999998,324.999988,324.999988,99.55905714285714,99.50741666666667,99.56864285714286,99.54845714285715,0.07125000000000004,-0.06374999999999997,-0.09933333333333338,0.13000000000000012,-0.045000000000001705,-0.04833333333333201,1.556,1.5745,38.452,29.9685,38.565,35.4785,55.964,35.353,59.996,53.0165,53.9,34.4695,58.565,51.3185,53.055,34.010999999999996,58.4645,50.716,-0.028999999999999915,-0.12749999999999995,0.10165500000000001,0.11601000000000002,0.0,215.31,215.245,212.13333333333333,212.13333333333333,0.0,0.0
24,0.0,1.0,0.0,1.0,1.0,0.0,0.0,1.0,0.0,0.0,1.0,1.1856,26.0,0.0,0.0,0.0,59.999996,0.0,26.0,26.0,26.0,26.0,-0.053875,0.28,-0.09675,292.404,-2.706,-2.6687777777777777,-1.57085,-1.541,-194.47,215.95749999999998,190.478375,0.0,0.0,0.0,0.0,0.048799999999999955,-5.498166666666667,-5.498166666666667,-0.5835,-0.7894999999999999,0.013666666666666716,0.55,68.89,-0.012100000000000001,-0.21915,0.9500000000000002,100.0,1.0,1.0,212.4,0.0,0.0,0.0,0.0,0.0,0.0,0.0,9002.8,0.0,55.0,5.0,247.97666666666666,0.0,0.0,0.0,0.0,0.0,0.0,0.0,0.0,1.2119999999999997,1.2119999999999997,0.0,0.0,0.0,55.0,616.79921,10000.0,85.000001,85.000001,85.000001,85.000001,395.0,0.0,0.0,0.0,1.0,66.667,52.917,52.917,47.104,47.104,34.0,-23.5125,21.298000000000002,-31.856666666666666,26.7775,0.0,1782.202,0.6099999999999994,100.0,28.16,27.959,43.51,43.662,0.0,0.0,100.0,0.0,0.0,0.0,0.0,2891.0,2985.0,4239.375,4125.8,306.041,305.371,314.49775,314.6805,22.0011,20.6401,22.0203,21.525199999999998,314.999998,314.999998,324.999988,324.999988,99.55905714285714,99.50743333333334,99.56878571428571,99.5486,0.04400000000000004,-0.09924999999999995,-0.14300000000000002,0.08166666666666678,-0.02499999999999858,-0.04333333333332945,1.482,1.53,38.507,30.000500000000002,38.626999999999995,35.5325,55.949,35.3895,60.0325,53.0725,53.885999999999996,34.5035,58.5985,51.3725,53.039,34.0435,58.4955,50.76866666666667,-0.03699999999999992,-0.12950000000000017,0.10815000000000001,0.10951500000000002,0.0,215.69,215.615,212.4,212.4,0.0,0.0
25,0.0,1.0,0.0,1.0,1.0,0.0,0.0,1.0,0.0,0.0,1.0,1.1856,26.0,0.0,0.0,0.0,59.999996,0.0,26.0,26.0,26.0,26.0,-0.07525,0.2599,-0.027950000000000003,292.114,-2.742,-2.658333333333333,-1.55715,-1.5695555555555556,-190.95999999999998,215.9625,190.45275,0.0,0.0,0.0,0.0,0.0508333333333334,-5.498166666666667,-5.498166666666667,-0.6113000000000001,0.36949999999999994,-0.015222222222222026,-1.6560000000000001,69.022,-0.045700000000000005,-0.22255,1.1879999999999988,100.0,1.0,1.0,212.95,0.0,0.0,0.0,0.0,0.0,0.0,0.0,9026.2,0.0,55.0,5.0,248.45,1.0,0.0,0.0,0.0,0.0,0.0,0.0,0.0,1.2629999999999981,1.2629999999999981,0.0,0.0,1.0,55.0,616.79921,10000.0,85.000001,85.000001,85.000001,85.000001,395.0,0.0,0.0,0.0,1.0,55.556,51.453,51.453,47.943,47.943,34.0,-30.5875,22.516,-31.043333333333333,23.9025,0.0,1782.152,0.6000000000000014,100.0,28.375,28.288,43.248000000000005,43.173,0.0,0.0,100.0,0.0,0.0,0.0,0.0,3447.714285714286,3241.5,4056.625,3958.2,304.5965,304.4755,315.08325,315.0675,22.0106,20.6457,22.0306,21.5341,314.999998,314.999998,324.999988,324.999988,99.55905714285714,99.50745,99.56892857142857,99.54874285714286,0.008750000000000036,-0.11975000000000002,-0.17433333333333334,0.046666666666666856,-0.06833333333332803,-0.03499999999999659,1.5536666666666668,1.5935000000000001,38.566,30.036,38.692,35.588499999999996,55.933,35.4325,60.067,53.129,53.870000000000005,34.543,58.631,51.427,53.022999999999996,34.0815,58.525,50.822,-0.03299999999999992,-0.1280000000000001,0.10867500000000001,0.10448500000000001,0.0,216.15,216.025,212.95,212.95,0.0,0.0
26,0.0,1.0,0.0,1.0,1.0,0.0,0.0,1.0,0.0,0.0,1.0,1.1856,26.0,0.0,0.0,0.0,59.999996,0.0,26.0,26.0,26.0,26.0,-0.11887500000000001,0.27790000000000004,0.098375,291.077,-2.66725,-2.7655555555555558,-1.5863,-1.5871111111111111,-187.43,215.965,190.427125,0.0,0.0,0.0,0.0,0.05289999999999995,-5.498166666666667,-5.498166666666667,-0.5671,0.361,-0.05233333333333334,0.45999999999999996,69.15899999999999,-0.0678,-0.19737500000000002,1.0099999999999998,100.0,1.0,1.0,213.04666666666668,0.0,0.0,0.0,0.0,0.0,0.0,0.0,9030.3,0.0,55.0,5.0,248.94333333333333,0.0,0.0,0.0,0.0,0.0,0.0,0.0,0.0,1.314,1.314,0.0,0.0,0.0,55.0,616.79921,10000.0,85.000001,85.000001,85.000001,85.000001,395.0,0.0,0.0,0.0,1.0,55.556,51.697,51.697,45.853,45.853,34.0,-26.6075,21.2,-38.263333333333335,28.785,0.0,1782.102,0.40000000000000213,100.0,29.325,28.407,44.373000000000005,43.467,0.0,0.0,100.0,0.0,0.0,0.0,0.0,3138.714285714286,3002.4,4678.0,4559.1,305.1695,305.293,313.52225,313.6745,22.0204,20.6514,22.0414,21.5434,314.999998,314.999998,324.999988,324.999988,99.55905714285714,99.50746666666667,99.56908571428572,99.5489,0.022749999999999826,-0.12649999999999995,-0.1738333333333334,0.03933333333333322,-0.02833333333332888,-0.051666666666669414,1.4016666666666666,1.435,38.626999999999995,30.070999999999998,38.757999999999996,35.6465,55.92,35.477000000000004,60.11,53.1905,53.858000000000004,34.584,58.6715,51.486000000000004,53.01,34.1205,58.562,50.879666666666665,-0.05499999999999994,-0.11549999999999994,0.10576500000000001,0.11001500000000002,0.0,216.575,216.47500000000002,213.04666666666668,213.04666666666668,0.0,0.0
27,0.0,1.0,0.0,1.0,1.0,0.0,0.0,1.0,0.0,0.0,1.0,1.1856,26.0,0.0,0.0,0.0,59.999996,0.0,26.0,26.0,26.0,26.0,-0.106875,0.23950000000000005,-0.0666,291.809,-2.62195,-2.740333333333333,-1.5698500000000002,-1.6605555555555558,-184.11,215.965,190.404125,0.0,0.0,0.0,0.0,0.0548333333333334,-5.498166666666667,-5.498166666666667,-0.6041000000000001,-0.9285000000000001,-0.058555555555555916,0.522,69.281,-0.0762,-0.247225,0.8920000000000003,100.0,1.0,1.0,213.67333333333335,0.0,0.0,0.0,0.0,0.0,0.0,0.0,9056.9,0.0,55.0,5.0,249.38666666666666,1.0,0.0,0.0,0.0,0.0,0.0,0.0,0.0,1.3619999999999983,1.3619999999999983,0.0,0.0,1.0,55.0,616.79921,10000.0,85.000001,85.000001,85.000001,85.000001,395.0,0.0,0.0,0.0,1.0,66.667,51.757999999999996,51.757999999999996,47.089,47.089,34.0,-27.36,21.605999999999998,-31.906666666666666,24.572499999999998,0.0,1782.052,0.3099999999999987,100.0,29.066,28.13,44.81,43.695,0.0,0.0,100.0,0.0,0.0,0.0,0.0,3208.5714285714284,3097.4,3972.375,3943.5,305.1165,305.02725,315.116,315.0845,22.0293,20.6565,22.0514,21.5521,314.999998,314.999998,324.999988,324.999988,99.55907142857143,99.50748333333334,99.56922857142857,99.54902857142856,0.007000000000000117,-0.12924999999999998,-0.1948333333333333,0.03433333333333333,-0.046666666666666856,-0.045000000000001705,1.5013333333333332,1.5514999999999999,38.683,30.1035,38.821,35.701,55.905,35.5165,60.1475,53.2465,53.844,34.6205,58.7065,51.539500000000004,52.995000000000005,34.155,58.594,50.931666666666665,-0.05600000000000005,-0.10650000000000004,0.10314500000000001,0.10946000000000002,0.0,216.9,216.805,213.67333333333335,213.67333333333335,0.0,0.0
28,0.0,1.0,0.0,1.0,1.0,0.0,0.0,1.0,0.0,0.0,1.0,1.1856,26.0,0.0,0.0,0.0,59.999996,0.0,26.0,26.0,26.0,26.0,-0.09325,0.2701,-0.0371,291.885,-2.64975,-2.715777777777778,-1.5484499999999999,-1.5945555555555557,-180.57,215.9625,190.3785,0.0,0.0,0.0,0.0,0.05686666666666651,-5.498166666666667,-5.498166666666667,-0.5965,0.6395,-0.06311111111111156,-0.53,69.412,-0.0796,-0.20825000000000002,0.8820000000000006,100.0,1.0,1.0,214.05,0.0,0.0,0.0,0.0,0.0,0.0,0.0,9072.7,0.0,55.0,5.0,249.85666666666668,0.0,0.0,0.0,0.0,0.0,0.0,0.0,0.0,1.4130000000000003,1.4130000000000003,0.0,0.0,0.0,55.0,616.79921,10000.0,85.000001,85.000001,85.000001,85.000001,395.0,0.0,0.0,0.0,1.0,55.556,52.016999999999996,52.016999999999996,47.134,47.134,34.0,-27.6525,19.881999999999998,-34.623333333333335,24.435000000000002,0.0,1782.002,0.1700000000000017,100.0,28.981,28.176000000000002,44.094,43.233000000000004,0.0,0.0,100.0,0.0,0.0,0.0,0.0,3228.714285714286,2915.2,4313.125,4132.3,305.1095,305.4145,314.54075,314.67875,22.038899999999998,20.6621,22.0617,21.5611,314.999998,314.999998,324.999988,324.999988,99.55907142857143,99.5075,99.56937142857143,99.54917142857143,0.009250000000000203,-0.135,-0.1965,0.022666666666666613,-0.061666666666667425,-0.03499999999999659,1.5056666666666667,1.545,38.742999999999995,30.137999999999998,38.885999999999996,35.757,55.891,35.559,60.183,53.303,53.83,34.6595,58.7395,51.594,52.980000000000004,34.192499999999995,58.624,50.98466666666667,-0.06800000000000006,-0.09299999999999997,0.10497500000000001,0.10677,0.0,217.35000000000002,217.265,214.05,214.05,0.0,0.0
29,0.0,1.0,0.0,1.0,1.0,0.0,0.0,1.0,0.0,0.0,1.0,1.1856,26.0,0.0,0.0,0.0,59.999996,0.0,26.0,26.0,26.0,26.0,-0.08775000000000001,0.25239999999999996,-0.0281,291.382,-2.6864,-2.639555555555556,-1.55625,-1.6223333333333332,-175.99,215.95499999999998,190.34425,0.0,0.0,0.0,0.0,0.059566666666666546,-5.498166666666667,-5.498166666666667,-0.6185,-0.18000000000000016,-0.05877777777777782,-0.534,69.582,-0.0689,-0.22845000000000001,0.6000000000000005,100.0,1.0,1.0,214.58666666666667,0.0,0.0,0.0,0.0,0.0,0.0,0.0,9095.5,0.0,55.0,5.0,250.47333333333336,1.0,0.0,0.0,0.0,0.0,0.0,0.0,0.0,1.4789999999999992,1.4789999999999992,0.0,0.0,1.0,55.0,616.79921,10000.0,85.000001,85.000001,85.000001,85.000001,395.0,0.0,0.0,0.0,1.0,55.556,50.735,50.735,47.379,47.379,34.0,-31.3275,22.932000000000002,-32.13666666666667,24.875,0.0,1781.935,0.07499999999999929,100.0,29.043,28.259999999999998,44.313,43.501,0.0,0.0,100.0,0.0,0.0,0.0,0.0,3637.714285714286,3314.7,4070.625,3996.8,304.044,304.34925,315.02125,314.91475,22.0512,20.6692,22.0754,21.5731,314.999998,314.999998,324.999988,324.999988,99.55907142857143,99.50751666666666,99.56957142857142,99.54935714285715,0.022250000000000103,-0.11749999999999994,-0.18899999999999995,0.04049999999999998,-0.05333333333332746,-0.02499999999999858,1.514,1.541,38.82,30.183,38.971000000000004,35.832,55.870999999999995,35.613,60.2335,53.3795,53.812,34.7095,58.786500000000004,51.667500000000004,52.961,34.2405,58.667,51.056666666666665,-0.08199999999999985,-0.08550000000000013,0.11336500000000001,0.11198500000000002,0.0,217.82,217.76,214.58666666666667,214.58666666666667,0.0,0.0
30,0.0,1.0,0.0,1.0,1.0,0.0,0.0,1.0,0.0,0.0,1.0,1.1856,26.0,0.0,0.0,0.0,59.999996,0.0,26.0,26.0,26.0,26.0,-0.079875,0.26270000000000016,0.027825000000000003,291.138,-2.6142,-2.762666666666667,-1.5,-1.6542222222222223,-173.69,215.95,190.327125,0.0,0.0,0.0,0.0,0.060899999999999954,-5.498166666666667,-5.498166666666667,-0.5979,0.857,-0.055111111111111555,1.1600000000000001,69.667,-0.0631,-0.21150000000000002,0.4939999999999998,100.0,1.0,1.0,214.7733333333333,0.0,0.0,0.0,0.0,0.0,0.0,0.0,9103.5,0.0,55.0,5.0,250.77666666666664,0.0,0.0,0.0,0.0,0.0,0.0,1.0,0.0,1.5120000000000005,1.5120000000000005,0.0,0.0,0.0,55.0,616.79921,10000.0,85.000001,85.000001,85.000001,85.000001,395.0,0.0,0.0,0.0,1.0,66.667,50.842,50.842,46.844,46.844,34.0,-27.14,23.536,-32.13666666666667,27.435000000000002,0.0,1781.902,-0.05000000000000071,100.0,29.784,28.629,44.415,43.491,0.0,0.0,100.0,0.0,0.0,0.0,0.0,3312.285714285714,3197.2,4255.875,4160.3,304.651,304.817,314.51375,314.576,22.0575,20.673000000000002,22.0822,21.5791,314.999998,314.999998,324.999988,324.999988,99.55908571428571,99.50753333333333,99.56965714285714,99.54945714285714,0.038000000000000256,-0.10699999999999998,-0.16466666666666663,0.05516666666666681,-0.05833333333333002,-0.04333333333332945,1.4776666666666665,1.5,38.858999999999995,30.2065,39.013999999999996,35.869,55.864000000000004,35.641999999999996,60.257999999999996,53.418,53.805,34.736000000000004,58.81,51.704499999999996,52.953,34.266,58.6885,51.092333333333336,-0.08899999999999997,-0.08599999999999985,0.10539000000000001,0.10733500000000001,0.0,218.125,218.075,214.7733333333333,214.7733333333333,0.0,0.0
31,0.0,1.0,0.0,1.0,1.0,0.0,0.0,1.0,0.0,0.0,1.0,1.1856,26.0,0.0,0.0,0.0,59.999996,0.0,26.0,26.0,26.0,26.0,-0.059625000000000004,0.24629999999999996,0.00185,290.878,-2.72545,-2.6367777777777777,-1.5481500000000001,-1.6466666666666667,-170.13,215.94,190.3015,0.0,0.0,0.0,0.0,0.06296666666666662,-5.498166666666667,-5.498166666666667,-0.5959,-0.6619999999999999,-0.04877777777777803,-0.806,69.799,-0.048600000000000004,-0.22765000000000002,0.27000000000000046,100.0,1.0,1.0,215.0966666666667,0.0,0.0,0.0,0.0,0.0,0.0,0.0,9117.2,0.0,55.0,5.0,251.25,1.0,0.0,0.0,0.0,0.0,0.0,1.0,0.0,1.5629999999999988,1.5629999999999988,0.0,0.0,1.0,55.0,616.79921,10000.0,85.000001,85.000001,85.000001,85.000001,395.0,0.0,0.0,0.0,1.0,55.556,51.071,51.071,45.807,45.807,34.0,-27.7025,22.838,-33.446666666666665,28.947499999999998,0.0,1781.852,-0.054999999999999716,100.0,29.194,28.883,44.947,44.259,0.0,0.0,100.0,0.0,0.0,0.0,0.0,3322.714285714286,3217.0,4314.625,4268.9,304.9935,304.59625,314.445,314.3215,22.0669,20.6787,22.0929,21.5885,314.999998,314.999998,324.999988,324.999988,99.55908571428571,99.50753333333333,99.56982857142857,99.5496,0.040750000000000064,-0.10324999999999995,-0.1658333333333334,0.06750000000000012,-0.05333333333332746,-0.045000000000001705,1.4533333333333334,1.4775,38.918,30.241999999999997,39.081,35.928,55.849000000000004,35.6845,60.2995,53.4795,53.791,34.7755,58.8485,51.763999999999996,52.938,34.3035,58.724000000000004,51.150333333333336,-0.09299999999999997,-0.0754999999999999,0.108865,0.10615000000000001,0.0,218.48000000000002,218.445,215.0966666666667,215.0966666666667,0.0,0.0
32,0.0,1.0,0.0,1.0,1.0,0.0,0.0,1.0,0.0,0.0,1.0,1.1856,26.0,0.0,0.0,0.0,59.999996,0.0,26.0,26.0,26.0,26.0,-0.044875,0.25980000000000003,-0.069925,291.458,-2.69085,-2.7143333333333333,-1.5741,-1.6293333333333333,-165.51999999999998,215.925,190.267875,0.0,0.0,0.0,0.0,0.06563333333333332,-5.498166666666667,-5.498166666666667,-0.6066,-0.08550000000000013,-0.07488888888888878,-0.595,69.964,-0.0341,-0.218125,0.22799999999999976,100.0,1.0,1.0,215.68333333333334,0.0,0.0,0.0,0.0,0.0,0.0,0.0,9142.1,0.0,55.0,5.0,251.84666666666666,0.0,0.0,0.0,0.0,0.0,0.0,1.0,0.0,1.6290000000000013,1.6290000000000013,0.0,0.0,0.0,55.0,616.79921,10000.0,85.000001,85.000001,85.000001,85.000001,395.0,0.0,0.0,0.0,1.0,55.556,51.666,51.666,46.86,46.86,34.0,-27.15,21.636,-31.9,27.8475,0.0,1781.785,-0.08500000000000085,100.0,29.07,28.66,44.478,44.041,0.0,0.0,100.0,0.0,0.0,0.0,0.0,3311.857142857143,2940.0,4232.5,4131.0,305.0285,305.41125,314.708,314.60225,22.0791,20.686,22.1064,21.6004,314.999998,314.999998,324.999988,324.999988,99.5591,99.50756666666666,99.57001428571428,99.5498,0.04349999999999987,-0.09499999999999997,-0.15049999999999997,0.07366666666666677,-0.05333333333332746,-0.030000000000001137,1.5056666666666667,1.512,38.994,30.2875,39.165,36.0025,55.832,35.7375,60.346000000000004,53.5545,53.774,34.8245,58.8915,51.836,52.921,34.35,58.763,51.220666666666666,-0.08699999999999997,-0.07650000000000023,0.101665,0.11113500000000001,0.0,219.015,218.97500000000002,215.68333333333334,215.68333333333334,0.0,0.0
33,0.0,1.0,0.0,1.0,1.0,0.0,0.0,1.0,0.0,0.0,1.0,1.1856,26.0,0.0,0.0,0.0,59.999996,0.0,26.0,26.0,26.0,26.0,-0.041875,0.25760000000000005,-0.036525,291.489,-2.67885,-2.7294444444444443,-1.5529000000000002,-1.6292222222222221,-163.20999999999998,215.91750000000002,190.2505,0.0,0.0,0.0,0.0,0.06696666666666651,-5.498166666666667,-5.498166666666667,-0.6153000000000001,-0.5249999999999999,-0.055111111111111555,1.4170000000000003,70.049,-0.0286,-0.218675,0.1460000000000008,100.0,1.0,1.0,215.89666666666668,0.0,0.0,0.0,0.0,0.0,0.0,0.0,9151.0,0.0,55.0,5.0,252.15,1.0,0.0,0.0,0.0,0.0,0.0,1.0,0.0,1.661999999999999,1.661999999999999,0.0,0.0,1.0,55.0,616.79921,10000.0,85.000001,85.000001,85.000001,85.000001,395.0,0.0,0.0,0.0,1.0,66.667,51.865,51.865,46.768,46.768,34.0,-24.447499999999998,23.184,-30.573333333333334,29.2775,0.0,1781.752,-0.16999999999999815,100.0,29.049,28.392,44.573,44.010999999999996,0.0,0.0,100.0,0.0,0.0,0.0,0.0,3119.0,3043.4,4134.875,4250.1,305.3615,305.2095,314.767,314.37,22.0851,20.6896,22.1133,21.6064,314.999998,314.999998,324.999988,324.999988,99.5591,99.50756666666666,99.57011428571428,99.5499,0.06824999999999992,-0.07874999999999999,-0.14049999999999996,0.08266666666666667,-0.061666666666667425,-0.030000000000001137,1.486,1.5,39.032,30.310000000000002,39.208,36.04,55.823,35.7625,60.37,53.593,53.766,34.8475,58.914500000000004,51.873,52.912,34.372,58.783500000000004,51.25666666666667,-0.09749999999999992,-0.06850000000000023,0.10725000000000001,0.10458500000000001,0.0,219.26999999999998,219.22500000000002,215.89666666666668,215.89666666666668,0.0,0.0
34,0.0,1.0,0.0,1.0,1.0,0.0,0.0,1.0,0.0,0.0,1.0,1.1856,26.0,0.0,0.0,0.0,59.999996,0.0,26.0,26.0,26.0,26.0,-0.022,0.25050000000000017,-0.10300000000000001,291.962,-2.698,-2.707,-1.62205,-1.5556666666666668,-159.63,215.905,190.222375,0.0,0.0,0.0,0.0,0.06906666666666661,-5.498166666666667,-5.498166666666667,-0.6496000000000001,-0.8174999999999999,-0.02477777777777801,-0.14,70.176,-0.020300000000000002,-0.227025,0.043999999999999595,100.0,1.0,1.0,216.35333333333335,0.0,0.0,0.0,0.0,0.0,0.0,0.0,9170.4,0.0,55.0,5.0,252.61,0.0,0.0,0.0,0.0,0.0,0.0,1.0,0.0,1.713000000000001,1.713000000000001,0.0,0.0,0.0,55.0,616.79921,10000.0,85.000001,85.000001,85.000001,85.000001,395.0,0.0,0.0,0.0,1.0,55.556,52.383,52.383,47.272,47.272,34.0,-23.544999999999998,22.732,-30.336666666666666,27.2275,0.0,1781.702,-0.21999999999999886,100.0,28.586,28.277,44.139,44.07,0.0,0.0,100.0,0.0,0.0,0.0,0.0,3046.857142857143,2939.0,4083.375,4121.9,305.648,305.3715,315.03175,314.696,22.0943,20.6951,22.1236,21.6156,314.999998,314.999998,324.999988,324.999988,99.55911428571429,99.50758333333333,99.57025714285714,99.55004285714286,0.07624999999999993,-0.06725000000000003,-0.135,0.08633333333333337,-0.06666666666666998,-0.046666666666666856,1.535,1.5375,39.09,30.3445,39.272999999999996,36.098,55.808,35.8,60.403999999999996,53.652,53.751999999999995,34.8825,58.946,51.9295,52.897,34.4055,58.812,51.312,-0.10149999999999992,-0.05750000000000011,0.10843000000000001,0.10386000000000001,0.0,219.64,219.62,216.35333333333335,216.35333333333335,0.0,0.0
35,0.0,1.0,0.0,1.0,1.0,0.0,0.0,1.0,0.0,0.0,1.0,1.1856,26.0,0.0,0.0,0.0,59.999996,0.0,26.0,26.0,26.0,26.0,-0.028625,0.2671000000000001,-0.032575,291.306,-2.7683,-2.6466666666666665,-1.55555,-1.5384444444444443,-155.0,215.8875,190.18275,0.0,0.0,0.0,0.0,0.07176666666666653,-5.498166666666667,-5.498166666666667,-0.6806,0.6119999999999999,-0.05455555555555591,-1.3719999999999999,70.34100000000001,-0.0029000000000000002,-0.21432500000000002,0.06200000000000028,100.0,1.0,1.0,216.87,0.0,0.0,0.0,0.0,0.0,0.0,0.0,9192.3,0.0,55.0,5.0,253.2,1.0,0.0,0.0,0.0,0.0,0.0,1.0,0.0,1.779,1.779,0.0,0.0,1.0,55.0,616.79921,10000.0,85.000001,85.000001,85.000001,85.000001,395.0,0.0,0.0,0.0,1.0,55.556,50.949,50.949,47.028,47.028,34.0,-28.447499999999998,24.348,-30.023333333333333,28.6875,0.0,1781.635,-0.05999999999999872,100.0,28.775,28.934,43.778999999999996,43.535,0.0,0.0,100.0,0.0,0.0,0.0,0.0,3477.714285714286,3222.9,4237.875,4191.9,304.52,304.44475,314.763,314.57975,22.1062,20.7027,22.137,21.6274,314.999998,314.999998,324.999988,324.999988,99.55911428571429,99.50758333333333,99.57044285714285,99.55024285714286,0.06725000000000003,-0.07650000000000001,-0.1223333333333334,0.10883333333333334,-0.05666666666667197,-0.04333333333332945,1.5296666666666667,1.5314999999999999,39.164,30.392,39.355999999999995,36.1715,55.79,35.853,60.448,53.724000000000004,53.733999999999995,34.9315,58.987,51.999,52.878,34.4525,58.849000000000004,51.379666666666665,-0.08749999999999991,-0.08700000000000019,0.114125,0.10513000000000002,0.0,220.17000000000002,220.16,216.87,216.87,0.0,0.0
36,0.0,1.0,0.0,1.0,1.0,0.0,0.0,1.0,0.0,0.0,1.0,1.1856,26.0,0.0,0.0,0.0,59.999996,0.0,26.0,26.0,26.0,26.0,0.0125,0.2553000000000001,0.075325,290.939,-2.61585,-2.737111111111111,-1.54955,-1.5963333333333334,-152.67,215.88,190.16225,0.0,0.0,0.0,0.0,0.07309999999999994,-5.498166666666667,-5.498166666666667,-0.6645,-0.016999999999999904,-0.07500000000000018,0.19100000000000006,70.426,-0.0041,-0.20367500000000002,0.11600000000000055,100.0,1.0,1.0,216.93,0.0,0.0,0.0,0.0,0.0,0.0,0.0,9194.8,0.0,55.0,5.0,253.50666666666666,0.0,0.0,0.0,0.0,0.0,0.0,1.0,0.0,1.8120000000000012,1.8120000000000012,0.0,0.0,0.0,55.0,616.79921,10000.0,85.000001,85.000001,85.000001,85.000001,395.0,0.0,0.0,0.0,1.0,66.667,51.59,51.59,46.112,46.112,34.0,-22.2725,24.064,-31.293333333333333,33.5125,0.0,1781.602,-0.129999999999999,100.0,29.222,28.793,44.299,44.120000000000005,0.0,0.0,100.0,0.0,0.0,0.0,0.0,3007.4285714285716,3037.9,4400.5,4530.6,305.4975,305.00925,314.154,313.65,22.1122,20.7064,22.1439,21.633499999999998,314.999998,314.999998,324.999988,324.999988,99.55912857142857,99.50758333333333,99.57055714285714,99.55034285714285,0.08824999999999994,-0.0645,-0.10599999999999998,0.11783333333333323,-0.046666666666666856,-0.046666666666666856,1.4123333333333332,1.4395,39.201,30.415,39.4,36.2095,55.782,35.879,60.4735,53.765,53.727000000000004,34.9555,59.0105,52.0385,52.870000000000005,34.4755,58.8705,51.418,-0.08999999999999986,-0.07299999999999995,0.10392000000000001,0.11286500000000001,0.0,220.435,220.42000000000002,216.93,216.93,0.0,0.0
