,ABS Active,ABS Enabled,AID Allow Tire Blankets,AID Auto Blip,AID Auto Clutch,AID Auto Shift,AID Fuel Rate,AID Ideal Line,AID Mech Damage,AID Stability,AID Tire Wear Rate,Air Density,Air Temp,Ballast,Best Lap Delta,Best Lap Time,Brake Bias,Brake Pos,Brake Temp FL,Brake Temp FR,Brake Temp RL,Brake Temp RR,CG Accel Lateral,CG Accel Longitudinal,CG Accel Vertical,CG Height,Camber FL,Camber FR,Camber RL,Camber RR,Car Coord X,Car Coord Y,Car Coord Z,Car Damage Front,Car Damage Left,Car Damage Rear,Car Damage Right,Car Pos Norm,Caster FL,Caster FR,Chassis Pitch Angle,Chassis Pitch Rate,Chassis Roll Angle,Chassis Roll Rate,Chassis Velocity X,Chassis Velocity Y,Chassis Velocity Z,Chassis Yaw Rate,Clutch Pos,DRS Active,DRS Available,Drive Train Speed,ERS Heat Charging,ERS Is Charging,ERS Max Energy,ERS Power Level,ERS Recovery Level,Engine Brake Setting,Engine Limiter,Engine RPM,Flags,Fuel Level,Gear,Ground Speed,HR Sample Clock,In Pit,KERS Charge,KERS Deployed Energy,KERS Input,KERS Max Energy,LR Sample Clock,Lap Invalidated,Lap Time,Lap Time2,Last Lap Time,Last Sector Time,MR Sample Clock,Max Fuel,Max Power,Max RPM,Max Sus Travel FL,Max Sus Travel FR,Max Sus Travel RL,Max Sus Travel RR,Max Torque,Max Turbo Boost,Num Tires Off Track,Penalties Enabled,Position,Raw Data Sample Rate,Ride Height FL,Ride Height FR,Ride Height RL,Ride Height RR,Road Temp,Self Align Torque FL,Self Align Torque FR,Self Align Torque RL,Self Align Torque RR,Session Lap Count,Session Time Left,Steering Angle,Surface Grip,Suspension Travel FL,Suspension Travel FR,Suspension Travel RL,Suspension Travel RR,TC Active,TC Enabled,Throttle Pos,Tire Dirt Level FL,Tire Dirt Level FR,Tire Dirt Level RL,Tire Dirt Level RR,Tire Load FL,Tire Load FR,Tire Load RL,Tire Load RR,Tire Loaded Radius FL,Tire Loaded Radius FR,Tire Loaded Radius RL,Tire Loaded Radius RR,Tire Pressure FL,Tire Pressure FR,Tire Pressure RL,Tire Pressure RR,Tire Radius FL,Tire Radius FR,Tire Radius RL,Tire Radius RR,Tire Rubber Grip FL,Tire Rubber Grip FR,Tire Rubber Grip RL,Tire Rubber Grip RR,Tire Slip Angle FL,Tire Slip Angle FR,Tire Slip Angle RL,Tire Slip Angle RR,Tire Slip Ratio FL,Tire Slip Ratio FR,Tire Slip Ratio RL,Tire Slip Ratio RR,Tire Temp Core FL,Tire Temp Core FR,Tire Temp Core RL,Tire Temp Core RR,Tire Temp Inner FL,Tire Temp Inner FR,Tire Temp Inner RL,Tire Temp Inner RR,Tire Temp Middle FL,Tire Temp Middle FR,Tire Temp Middle RL,Tire Temp Middle RR,Tire Temp Outer FL,Tire Temp Outer FR,Tire Temp Outer RL,Tire Temp Outer RR,Toe In FL,Toe In FR,Toe In RL,Toe In RR,Turbo Boost,Wheel Angular Speed FL,Wheel Angular Speed FR,Wheel Angular Speed RL,Wheel Angular Speed RR,Wind Direction,Wind Speed
0,0.0,1.0,0.0,1.0,1.0,0.0,0.0,1.0,0.0,0.0,1.0,1.1856,26.0,0.0,0.0,0.0,59.99999,0.0,26.0,26.0,26.0,26.0,-0.050124999999999975,0.29410000000000003,0.15965000000000001,293.198,-2.7173,-2.5295,-1.4916,-1.6307,-274.82,215.4425,190.98225,0.0,0.0,0.0,0.0,0.0020999999999999908,-5.498166666666667,-5.498166666666667,-0.5248,3.073,-0.023111111111111082,-1.659,65.517,-0.022000000000000002,-0.20700000000000002,0.10999999999999943,100.0,1.0,1.0,202.25333333333333,0.0,0.0,0.0,0.0,0.0,0.0,0.0,8572.7,0.0,55.0,5.0,235.82999999999998,0.0,0.0,0.0,0.0,0.0,0.0,0.0,0.0,0.015000000000000568,0.015000000000000568,0.0,0.0,0.0,55.0,616.79921,10000.0,85.0,85.0,85.0,85.0,395.0,0.0,0.0,0.0,1.0,20.0,51.498,51.498,48.34,48.34,34.0,-25.52,22.628,-28.96,28.3225,0.0,1783.435,0.28500000000000014,100.0,27.87,28.657,40.785,40.248000000000005,0.0,1.0,100.0,0.0,0.0,0.0,0.0,3057.714285714286,3250.7,4218.375,4044.5,305.267,303.778,314.546,314.59575,21.745,20.5177,21.7887,21.3084,314.99999,314.99999,324.99998,324.99998,99.55707142857143,99.50731666666667,99.56614285714285,99.54505714285715,0.04066666666666663,-0.10399999999999987,-0.119,0.09650000000000003,-0.05833333333333002,-0.028750000000002274,1.5150000000000001,1.516,36.906,29.235666666666667,37.179,34.1775,55.641999999999996,34.4885,59.346000000000004,51.5155,53.625,33.7035,57.979,49.900999999999996,52.836,33.312,57.9595,49.35066666666667,-0.05249999999999999,-0.10450000000000026,0.10848000000000001,0.10035000000000001,0.0,205.335,205.29000000000002,202.25333333333333,202.25333333333333,0.0,0.0
1,0.0,1.0,0.0,1.0,1.0,0.0,0.0,1.0,0.0,0.0,1.0,1.1856,26.0,0.0,0.0,0.0,59.999996,0.0,26.0,26.0,26.0,26.0,-0.05225000000000002,0.27290000000000014,0.12375000000000001,293.106,-2.6809,-2.714125,-1.5465,-1.4653,-271.48,215.4525,190.962875,0.0,0.0,0.0,0.0,0.004033333333333333,-5.498166666666667,-5.498166666666667,-0.5122,-3.584,-0.0564444444444443,-0.44399999999999995,65.674,-0.0213,-0.234075,0.5620000000000012,100.0,1.0,1.0,202.43333333333334,0.0,0.0,0.0,0.0,0.0,0.0,0.0,8580.4,0.0,55.0,5.0,236.39666666666668,1.0,0.0,0.0,0.0,0.0,0.0,0.0,0.0,0.06599999999999895,0.06599999999999895,0.0,0.0,1.0,55.0,616.79921,10000.0,85.000001,85.000001,85.000001,85.000001,395.0,0.0,0.0,0.0,1.0,55.556,53.925,53.925,48.538,48.538,34.0,-24.044999999999998,18.293999999999997,-31.483333333333334,25.835,0.0,1783.385,0.4250000000000007,100.0,27.607,26.804000000000002,42.945,44.171,0.0,1.0,100.0,0.0,0.0,0.0,0.0,2984.5714285714284,2557.6,4229.625,3918.5,305.8555,306.72675,314.298,314.6405,21.7545,20.5223,21.7997,21.3178,314.999998,314.999998,324.999988,324.999988,99.55708571428572,99.50733333333334,99.56628571428571,99.5452,0.04033333333333333,-0.09099999999999997,-0.13649999999999995,0.09816666666666674,-0.03333333333333144,-0.04124999999999801,1.4256666666666666,1.4365,36.965,29.264,37.248000000000005,34.236,55.625,34.519999999999996,59.3935,51.586,53.608000000000004,33.7325,58.024,49.9685,52.818,33.34,58.001,49.417,-0.05149999999999988,-0.0990000000000002,0.10922000000000001,0.11818000000000001,0.0,205.65,205.63,202.43333333333334,202.43333333333334,0.0,0.0
2,0.0,1.0,0.0,1.0,1.0,0.0,0.0,1.0,0.0,0.0,1.0,1.1856,26.0,0.0,0.0,0.0,59.999996,0.0,26.0,26.0,26.0,26.0,-0.046875,0.3318000000000001,-0.094225,293.32,-2.7349,-2.689,-1.5253,-1.5563,-267.14,215.46,190.937375,0.0,0.0,0.0,0.0,0.00656666666666661,-5.498166666666667,-5.498166666666667,-0.5284,2.4426666666666668,0.029555555555555557,0.129,65.86,-0.0341,-0.20242500000000002,0.8020000000000014,100.0,1.0,1.0,203.30333333333334,0.0,0.0,0.0,0.0,0.0,0.0,0.0,8617.4,0.0,55.0,5.0,237.06,0.0,0.0,0.0,0.0,0.0,0.0,0.0,0.0,0.1319999999999979,0.1319999999999979,0.0,0.0,0.0,55.0,616.79921,10000.0,85.000001,85.000001,85.000001,85.000001,395.0,0.0,0.0,0.0,1.0,55.556,52.78,52.78,48.996,48.996,34.0,-24.305,21.124,-30.35,28.255,0.0,1783.319,0.5,100.0,28.149,27.778,41.376,41.386,0.0,1.0,100.0,0.0,0.0,0.0,0.0,2845.857142857143,3012.3,4136.375,4470.9,306.0085,305.032,314.9175,313.89475,21.7673,20.5293,21.8129,21.3286,314.999998,314.999998,324.999988,324.999988,99.55708571428572,99.50735,99.56647142857143,99.54537142857143,0.01966666666666672,-0.11766666666666681,-0.15916666666666657,0.06466666666666687,-0.054999999999999716,-0.023749999999999716,1.5616666666666665,1.591,37.046,29.308,37.33,34.304,55.61,34.576,59.4355,51.6545,53.594,33.784,58.063,50.0345,52.802,33.388999999999996,58.036500000000004,49.48166666666667,-0.038999999999999924,-0.11500000000000021,0.10455,0.110685,0.0,206.405,206.32,203.30333333333334,203.30333333333334,0.0,0.0
3,0.0,1.0,0.0,1.0,1.0,0.0,0.0,1.0,0.0,0.0,1.0,1.1856,26.0,0.0,0.0,0.0,59.999996,0.0,26.0,26.0,26.0,26.0,-0.08237499999999998,0.30879999999999996,0.093825,292.908,-2.6608,-2.70525,-1.5350000000000001,-1.5906,-264.96,215.4625,190.924375,0.0,0.0,0.0,0.0,0.007833333333333359,-5.498166666666667,-5.498166666666667,-0.4999,-0.35833333333333334,-0.014444444444444482,-1.34,65.96000000000001,-0.0412,-0.19287500000000002,0.7320000000000011,100.0,1.0,1.0,203.38,0.0,0.0,0.0,0.0,0.0,0.0,0.0,8620.5,0.0,55.0,5.0,237.42666666666668,1.0,0.0,0.0,0.0,0.0,0.0,0.0,0.0,0.16499999999999915,0.16499999999999915,0.0,0.0,1.0,55.0,616.79921,10000.0,85.000001,85.000001,85.000001,85.000001,395.0,0.0,0.0,0.0,1.0,55.556,53.162,53.162,47.44,47.44,34.0,-24.82,19.808,-34.596666666666664,27.7425,0.0,1783.285,0.620000000000001,100.0,27.865,27.436,42.539,42.259,0.0,1.0,100.0,0.0,0.0,0.0,0.0,2984.285714285714,2883.4,4501.0,4208.1,305.8355,305.6385,313.8045,314.35325,21.7734,20.5326,21.8199,21.334600000000002,314.999998,314.999998,324.999988,324.999988,99.55708571428572,99.50736666666667,99.56657142857142,99.54545714285715,0.016999999999999904,-0.123,-0.15583333333333338,0.06983333333333319,-0.04999999999999716,-0.06125000000000114,1.4326666666666668,1.4695,37.084,29.329,37.373999999999995,34.341499999999996,55.597,34.6025,59.4645,51.699,53.582,33.808,58.0895,50.077,52.79,33.412,58.0615,49.52333333333333,-0.03299999999999992,-0.12700000000000022,0.10881500000000001,0.10945,0.0,206.635,206.575,203.38,203.38,0.0,0.0
4,0.0,1.0,0.0,1.0,1.0,0.0,0.0,1.0,0.0,0.0,1.0,1.1856,26.0,0.0,0.0,0.0,59.999996,0.0,26.0,26.0,26.0,26.0,-0.08524999999999994,0.2925,0.00595,293.396,-2.6729,-2.7415000000000003,-1.4895,-1.5718999999999999,-261.59,215.4675,190.905125,0.0,0.0,0.0,0.0,0.00979999999999992,-5.498166666666667,-5.498166666666667,-0.5435,-0.606,-0.04488888888888898,-0.36,66.10300000000001,-0.0528,-0.24455000000000002,1.1039999999999992,100.0,1.0,1.0,204.08333333333331,0.0,0.0,0.0,0.0,0.0,0.0,0.0,8650.4,0.0,55.0,5.0,237.94333333333333,0.0,0.0,0.0,0.0,0.0,0.0,0.0,0.0,0.21600000000000108,0.21600000000000108,0.0,0.0,0.0,55.0,616.79921,10000.0,85.000001,85.000001,85.000001,85.000001,395.0,0.0,0.0,0.0,1.0,55.556,52.811,52.811,48.813,48.813,34.0,-28.4375,20.356,-30.60333333333333,22.4,0.0,1783.235,0.46999999999999886,100.0,27.786,27.267,42.775999999999996,42.044,0.0,1.0,100.0,0.0,0.0,0.0,0.0,3233.0,2928.6,4035.625,3787.0,305.0795,305.40125,315.026,315.393,21.7833,20.5377,21.8305,21.3434,314.999998,314.999998,324.999988,324.999988,99.5571,99.50736666666667,99.5667,99.5456,-0.006999999999999895,-0.1286666666666667,-0.1888333333333334,0.04249999999999998,-0.06499999999999773,-0.05124999999999602,1.5703333333333334,1.6125,37.144999999999996,29.360666666666667,37.441,34.3965,55.583,34.6425,59.504,51.757,53.568,33.845,58.126999999999995,50.132999999999996,52.775999999999996,33.447,58.0955,49.578,-0.030000000000000027,-0.11100000000000021,0.11246,0.10341,0.0,207.10000000000002,207.005,204.08333333333331,204.08333333333331,0.0,0.0
5,0.0,1.0,0.0,1.0,1.0,0.0,0.0,1.0,0.0,0.0,1.0,1.1856,26.0,0.0,0.0,0.0,59.999996,0.0,26.0,26.0,26.0,26.0,-0.09162499999999996,0.30069999999999997,-0.023075000000000002,293.564,-2.6831,-2.761875,-1.5476,-1.5524,-257.22,215.4675,190.879,0.0,0.0,0.0,0.0,0.012333333333333307,-5.498166666666667,-5.498166666666667,-0.5266000000000001,0.24266666666666667,-0.040999999999999925,-1.241,66.295,-0.07050000000000001,-0.20342500000000002,0.8659999999999997,100.0,1.0,1.0,204.57,0.0,0.0,0.0,0.0,0.0,0.0,0.0,8670.9,0.0,55.0,5.0,238.63,1.0,0.0,0.0,0.0,0.0,0.0,0.0,0.0,0.28200000000000003,0.28200000000000003,0.0,0.0,1.0,55.0,616.79921,10000.0,85.000001,85.000001,85.000001,85.000001,395.0,0.0,0.0,0.0,1.0,55.556,53.589,53.589,48.522999999999996,48.522999999999996,34.0,-26.595,19.240000000000002,-33.656666666666666,24.0825,0.0,1783.169,0.504999999999999,100.0,27.51,27.028,42.405,41.749,0.0,1.0,100.0,0.0,0.0,0.0,0.0,3049.0,2785.2,4230.625,4056.5,305.6625,305.80175,314.6045,314.727,21.7958,20.5444,21.844,21.3548,314.999998,314.999998,324.999988,324.999988,99.5571,99.5074,99.56688571428572,99.54578571428571,-0.006666666666666599,-0.1333333333333333,-0.19466666666666665,0.03833333333333333,-0.06333333333333258,-0.05250000000000199,1.5253333333333334,1.556,37.224000000000004,29.402666666666665,37.525,34.4675,55.564,34.6945,59.5525,51.8345,53.55,33.8925,58.1715,50.207,52.756,33.493,58.1365,49.650333333333336,-0.04349999999999987,-0.10850000000000026,0.10766500000000001,0.10841500000000001,0.0,207.7,207.62,204.57,204.57,0.0,0.0
6,0.0,1.0,0.0,1.0,1.0,0.0,0.0,1.0,0.0,0.0,1.0,1.1856,26.0,0.0,0.0,0.0,59.999996,0.0,26.0,26.0,26.0,26.0,-0.10662499999999997,0.2873000000000001,-0.0021750000000000003,293.35,-2.6706,-2.7199999999999998,-1.4866000000000001,-1.5922,-255.03,215.4675,190.8655,0.0,0.0,0.0,0.0,0.013599999999999945,-5.498166666666667,-5.498166666666667,-0.5336000000000001,-0.42233333333333334,-0.04988888888888887,0.7550000000000001,66.39,-0.0695,-0.21345,0.8620000000000001,100.0,1.0,1.0,204.84333333333333,0.0,0.0,0.0,0.0,0.0,0.0,0.0,8682.5,0.0,55.0,5.0,238.97333333333333,0.0,0.0,0.0,0.0,0.0,0.0,0.0,0.0,0.3150000000000013,0.3150000000000013,0.0,0.0,0.0,55.0,616.79921,10000.0,85.000001,85.000001,85.000001,85.000001,395.0,0.0,0.0,0.0,1.0,55.556,53.146,53.146,48.751999999999995,48.751999999999995,34.0,-27.6475,20.584,-31.703333333333333,24.317500000000003,0.0,1783.135,0.28500000000000014,100.0,27.72,26.705,42.757,41.782,0.0,1.0,100.0,0.0,0.0,0.0,0.0,3185.4285714285716,2966.6,4103.625,4041.2,305.092,305.5055,314.76825,314.81375,21.8021,20.5477,21.8509,21.360599999999998,314.999998,314.999998,324.999988,324.999988,99.5571,99.5074,99.56698571428572,99.54587142857143,0.0043333333333333,-0.12033333333333318,-0.18999999999999995,0.03433333333333333,-0.03166666666666629,-0.03999999999999915,1.5046666666666666,1.5415,37.263,29.423000000000002,37.568,34.5035,55.555,34.7195,59.579,51.874,53.541,33.916,58.1965,50.2445,52.747,33.515,58.1595,49.687333333333335,-0.05349999999999988,-0.09949999999999992,0.11482500000000001,0.10432500000000001,0.0,207.965,207.885,204.84333333333333,204.84333333333333,0.0,0.0
7,0.0,1.0,0.0,1.0,1.0,0.0,0.0,1.0,0.0,0.0,1.0,1.1856,26.0,0.0,0.0,0.0,59.999996,0.0,26.0,26.0,26.0,26.0,-0.08837499999999998,0.29790000000000005,0.008425,293.35,-2.6835,-2.72375,-1.5464,-1.5417,-251.64,215.465,190.845,0.0,0.0,0.0,0.0,0.015566666666666507,-5.498166666666667,-5.498166666666667,-0.5346000000000001,0.11666666666666667,-0.03644444444444428,-0.19099999999999995,66.535,-0.07050000000000001,-0.2165,0.5939999999999994,100.0,1.0,1.0,205.30666666666667,0.0,0.0,0.0,0.0,0.0,0.0,0.0,8702.2,0.0,55.0,5.0,239.49333333333334,1.0,0.0,0.0,0.0,0.0,0.0,0.0,0.0,0.36599999999999966,0.36599999999999966,0.0,0.0,1.0,55.0,616.79921,10000.0,85.000001,85.000001,85.000001,85.000001,395.0,0.0,0.0,0.0,1.0,55.556,53.192,53.192,48.507999999999996,48.507999999999996,34.0,-26.8775,20.46,-33.21333333333334,23.465,0.0,1783.085,-0.06500000000000128,100.0,27.66,27.03,42.620000000000005,41.784,0.0,1.0,100.0,0.0,0.0,0.0,0.0,3174.5714285714284,2884.1,4211.875,4057.8,305.267,305.527,314.63575,314.773,21.8119,20.5529,21.8615,21.3695,314.999998,314.999998,324.999988,324.999988,99.5571,99.50741666666667,99.56712857142857,99.54601428571429,0.01833333333333309,-0.11399999999999988,-0.1908333333333333,0.030000000000000027,-0.045000000000001705,-0.04999999999999716,1.5413333333333332,1.558,37.324,29.456,37.634,34.559,55.541,34.7605,59.618,51.9335,53.528,33.9535,58.233000000000004,50.302,52.733000000000004,33.5505,58.193,49.743,-0.08499999999999996,-0.07299999999999995,0.10781,0.10881,0.0,208.41500000000002,208.36,205.30666666666667,205.30666666666667,0.0,0.0
8,0.0,1.0,0.0,1.0,1.0,0.0,0.0,1.0,0.0,0.0,1.0,1.1856,26.0,0.0,0.0,0.0,59.999996,0.0,26.0,26.0,26.0,26.0,-0.05249999999999999,0.2795000000000001,-0.00825,293.442,-2.6801,-2.7344999999999997,-1.5198,-1.5718999999999999,-247.25,215.45749999999998,190.818375,0.0,0.0,0.0,0.0,0.018133333333333335,-5.498166666666667,-5.498166666666667,-0.5378000000000001,0.04833333333333334,-0.04322222222222205,-0.953,66.72200000000001,-0.053500000000000006,-0.21775,0.23000000000000043,100.0,1.0,1.0,205.9,0.0,0.0,0.0,0.0,0.0,0.0,0.0,8727.4,0.0,55.0,5.0,240.17000000000002,0.0,0.0,0.0,0.0,0.0,0.0,0.0,0.0,0.4319999999999986,0.4319999999999986,0.0,0.0,0.0,55.0,616.79921,10000.0,85.000001,85.000001,85.000001,85.000001,395.0,0.0,0.0,0.0,1.0,55.556,53.253,53.253,48.66,48.66,34.0,-26.685,21.382,-31.259999999999998,25.06,0.0,1783.019,-0.16000000000000014,100.0,27.458,27.045,42.571,41.88,0.0,1.0,100.0,0.0,0.0,0.0,0.0,3206.142857142857,2887.1,4133.375,3993.1000000000004,305.195,305.46975,314.808,314.88425,21.8243,20.5598,21.8751,21.381,314.999998,314.999998,324.999988,324.999988,99.5571,99.50743333333334,99.56731428571429,99.5462,0.028666666666666618,-0.09466666666666668,-0.17333333333333334,0.061166666666666814,-0.054999999999999716,-0.04749999999999943,1.545,1.5554999999999999,37.402,29.498666666666665,37.719,34.6315,55.522999999999996,34.812,59.667500000000004,52.012,53.51,34.0005,58.278999999999996,50.376999999999995,52.714,33.596000000000004,58.235,49.81666666666666,-0.08799999999999986,-0.06150000000000011,0.111585,0.105465,0.0,208.97,208.965,205.9,205.9,0.0,0.0
9,0.0,1.0,0.0,1.0,1.0,0.0,0.0,1.0,0.0,0.0,1.0,1.1856,26.0,0.0,0.0,0.0,59.999996,0.0,26.0,26.0,26.0,26.0,-0.04025000000000001,0.28700000000000014,0.022525,293.213,-2.6118,-2.7272499999999997,-1.5368,-1.5819999999999999,-245.04,215.4525,190.80475,0.0,0.0,0.0,0.0,0.019399999999999973,-5.498166666666667,-5.498166666666667,-0.5326000000000001,0.242,-0.040888888888888975,0.863,66.816,-0.0461,-0.21175000000000002,0.07200000000000095,100.0,1.0,1.0,206.16,0.0,0.0,0.0,0.0,0.0,0.0,0.0,8738.4,0.0,55.0,5.0,240.50333333333333,1.0,0.0,0.0,0.0,0.0,0.0,0.0,0.0,0.46499999999999986,0.46499999999999986,0.0,0.0,1.0,55.0,616.79921,10000.0,85.000001,85.000001,85.000001,85.000001,395.0,0.0,0.0,0.0,1.0,55.556,52.963,52.963,48.538,48.538,34.0,-24.675,23.066,-30.093333333333334,27.2425,0.0,1782.985,-0.28500000000000014,100.0,27.786,27.017,42.636,41.93,0.0,1.0,100.0,0.0,0.0,0.0,0.0,3119.142857142857,3038.9,4119.875,4125.0,305.2645,305.18925,314.8025,314.635,21.8306,20.5632,21.8819,21.3868,314.999998,314.999998,324.999988,324.999988,99.55711428571429,99.50743333333334,99.5674,99.54628571428572,0.04733333333333345,-0.07866666666666666,-0.14583333333333337,0.08083333333333331,-0.03166666666666629,-0.060000000000002274,1.5343333333333335,1.528,37.441,29.52,37.762,34.667500000000004,55.515,34.837,59.692499999999995,52.0515,53.501999999999995,34.024,58.302,50.414500000000004,52.706,33.618,58.256,49.85333333333333,-0.09650000000000003,-0.05549999999999988,0.09750500000000001,0.11307,0.0,209.275,209.265,206.16,206.16,0.0,0.0
10,0.0,1.0,0.0,1.0,1.0,0.0,0.0,1.0,0.0,0.0,1.0,1.1856,26.0,0.0,0.0,0.0,59.999996,0.0,26.0,26.0,26.0,26.0,-0.018874999999999975,0.2916000000000001,-0.00030000000000000003,293.259,-2.667,-2.69125,-1.5619,-1.5715,-241.63,215.445,190.784,0.0,0.0,0.0,0.0,0.021399999999999975,-5.498166666666667,-5.498166666666667,-0.5339,-0.4256666666666667,-0.011222222222222022,-0.474,66.96000000000001,-0.0316,-0.217375,-0.10799999999999965,100.0,1.0,1.0,206.54333333333335,0.0,0.0,0.0,0.0,0.0,0.0,0.0,8754.7,0.0,55.0,5.0,241.02666666666664,0.0,0.0,0.0,0.0,0.0,0.0,1.0,0.0,0.5159999999999982,0.5159999999999982,0.0,0.0,0.0,55.0,616.79921,10000.0,85.000001,85.000001,85.000001,85.000001,395.0,0.0,0.0,0.0,1.0,55.556,53.314,53.314,48.416,48.416,34.0,-24.665,22.408,-30.409999999999997,27.36,0.0,1782.935,-0.384999999999998,100.0,27.382,27.105,42.594,42.343,0.0,1.0,100.0,0.0,0.0,0.0,0.0,3099.142857142857,2951.9,4130.0,4134.1,305.5315,305.2875,314.82525,314.47525,21.8401,20.5685,21.8925,21.3959,314.999998,314.999998,324.999988,324.999988,99.55711428571429,99.50745,99.56755714285714,99.54642857142858,0.04899999999999993,-0.07333333333333325,-0.14400000000000002,0.0798333333333332,-0.03833333333332689,-0.058749999999996305,1.5243333333333333,1.5154999999999998,37.501000000000005,29.552999999999997,37.828,34.7245,55.501000000000005,34.875,59.7305,52.1135,53.489999999999995,34.059,58.3375,50.4745,52.692,33.6515,58.289,49.912,-0.10050000000000003,-0.046499999999999986,0.10698500000000001,0.10583500000000001,0.0,209.7,209.71,206.54333333333335,206.54333333333335,0.0,0.0
11,0.0,1.0,0.0,1.0,1.0,0.0,0.0,1.0,0.0,0.0,1.0,1.1856,26.0,0.0,0.0,0.0,59.999996,0.0,26.0,26.0,26.0,26.0,0.018000000000000016,0.29310000000000014,-0.03705,293.442,-2.7475,-2.699875,-1.5544,-1.5657999999999999,-237.21,215.4325,190.7565,0.0,0.0,0.0,0.0,0.02396666666666658,-5.498166666666667,-5.498166666666667,-0.5502,0.25433333333333336,0.0038888888888888307,-0.538,67.143,-0.0099,-0.21607500000000002,-0.3539999999999992,100.0,1.0,1.0,207.22333333333333,0.0,0.0,0.0,0.0,0.0,0.0,0.0,8783.5,0.0,55.0,5.0,241.68666666666667,1.0,0.0,0.0,0.0,0.0,0.0,1.0,0.0,0.5820000000000007,0.5820000000000007,0.0,0.0,1.0,55.0,616.79921,10000.0,85.000001,85.000001,85.000001,85.000001,395.0,0.0,0.0,0.0,1.0,55.556,53.116,53.116,48.782,48.782,34.0,-25.41,23.548000000000002,-28.21,26.5425,0.0,1782.868,0.08000000000000185,100.0,27.32,27.267,42.278,42.219,0.0,1.0,100.0,0.0,0.0,0.0,0.0,3165.4285714285716,2988.6,4054.75,3947.7,305.322,305.154,315.04125,315.0115,21.8523,20.5754,21.906,21.4074,314.999998,314.999998,324.999988,324.999988,99.55712857142858,99.50745,99.56772857142857,99.54661428571428,0.06400000000000006,-0.05566666666666675,-0.12,0.10083333333333333,-0.046666666666666856,-0.060000000000002274,1.5723333333333334,1.566,37.577,29.596333333333334,37.912,34.7965,55.485,34.924,59.7765,52.191,53.474000000000004,34.104,58.3805,50.548500000000004,52.675,33.6945,58.3275,49.98466666666667,-0.09199999999999986,-0.05650000000000022,0.10797000000000001,0.09812000000000001,0.0,210.265,210.29500000000002,207.22333333333333,207.22333333333333,0.0,0.0
12,0.0,1.0,0.0,1.0,1.0,0.0,0.0,1.0,0.0,0.0,1.0,1.1856,26.0,0.0,0.0,0.0,59.999996,0.0,26.0,26.0,26.0,26.0,-0.005124999999999935,0.28680000000000017,0.028925000000000003,292.984,-2.7324,-2.6858750000000002,-1.5699,-1.5415,-234.99,215.4275,190.74225,0.0,0.0,0.0,0.0,0.025466666666666526,-5.498166666666667,-5.498166666666667,-0.5377000000000001,0.3343333333333333,0.008777777777777773,0.4830000000000001,67.237,0.0006000000000000001,-0.2024,-0.25399999999999956,100.0,1.0,1.0,207.39666666666668,0.0,0.0,0.0,0.0,0.0,0.0,0.0,8790.8,0.0,55.0,5.0,242.02333333333334,0.0,0.0,0.0,0.0,0.0,0.0,1.0,0.0,0.6149999999999984,0.6149999999999984,0.0,0.0,0.0,55.0,616.79921,10000.0,85.000001,85.000001,85.000001,85.000001,395.0,0.0,0.0,0.0,1.0,55.556,52.979,52.979,48.019,48.019,34.0,-24.4675,23.828,-28.486666666666665,30.53,0.0,1782.835,0.370000000000001,100.0,27.536,27.364,42.478,42.314,0.0,1.0,100.0,0.0,0.0,0.0,0.0,3011.142857142857,3136.8,4162.75,4285.8,305.636,304.828,314.71725,314.25975,21.8585,20.5789,21.9128,21.4133,314.999998,314.999998,324.999988,324.999988,99.55714285714286,99.50746666666667,99.56782857142858,99.5467,0.05333333333333368,-0.07433333333333314,-0.09716666666666662,0.12566666666666682,-0.03499999999999659,-0.05250000000000199,1.5156666666666667,1.4889999999999999,37.614999999999995,29.618333333333332,37.955,34.833,55.477000000000004,34.9495,59.801,52.2315,53.466,34.1275,58.403,50.5875,52.666,33.717,58.348,50.022666666666666,-0.06299999999999994,-0.09100000000000019,0.10642000000000001,0.10994000000000001,0.0,210.56,210.575,207.39666666666668,207.39666666666668,0.0,0.0
13,0.0,1.0,0.0,1.0,1.0,0.0,0.0,1.0,0.0,0.0,1.0,1.1856,26.0,0.0,0.0,0.0,59.999996,0.0,26.0,26.0,26.0,26.0,0.02675000000000005,0.28290000000000015,-0.001525,292.908,-2.7049,-2.6870000000000003,-1.5961,-1.5413999999999999,-231.56,215.42000000000002,190.72075,0.0,0.0,0.0,0.0,0.02726666666666655,-5.498166666666667,-5.498166666666667,-0.542,-0.3796666666666667,0.011111111111111072,-0.653,67.379,0.0032,-0.22035000000000002,-0.4039999999999999,100.0,1.0,1.0,207.81666666666666,0.0,0.0,0.0,0.0,0.0,0.0,0.0,8808.5,0.0,55.0,5.0,242.53666666666666,1.0,0.0,0.0,0.0,0.0,0.0,1.0,0.0,0.6660000000000004,0.6660000000000004,0.0,0.0,1.0,55.0,616.79921,10000.0,85.000001,85.000001,85.000001,85.000001,395.0,0.0,0.0,0.0,1.0,55.556,52.826,52.826,48.141,48.141,34.0,-23.63,24.168,-28.96333333333333,28.7775,0.0,1782.785,-0.4349999999999987,100.0,27.512,27.613,42.624,42.863,0.0,1.0,100.0,0.0,0.0,0.0,0.0,3135.142857142857,3011.4,4123.25,4164.7,305.445,305.06375,314.86125,314.4195,21.8679,20.5844,21.9234,21.4224,314.999998,314.999998,324.999988,324.999988,99.55715714285714,99.50746666666667,99.56797142857143,99.54685714285715,0.08899999999999997,-0.04366666666666674,-0.10816666666666663,0.11066666666666669,-0.05666666666667197,-0.04374999999999574,1.5306666666666666,1.5205,37.675,29.65233333333333,38.021,34.89,55.466,34.987,59.839,52.2945,53.456,34.162,58.4385,50.647999999999996,52.655,33.75,58.3805,50.082,-0.11599999999999988,-0.03849999999999998,0.10856,0.09856000000000001,0.0,210.995,211.0,207.81666666666666,207.81666666666666,0.0,0.0
14,0.0,1.0,0.0,1.0,1.0,0.0,0.0,1.0,0.0,0.0,1.0,1.1856,26.0,0.0,0.0,0.0,59.999996,0.0,26.0,26.0,26.0,26.0,0.04212499999999997,0.29280000000000017,-0.00295,292.877,-2.6601,-2.629875,-1.5779,-1.5015,-227.1,215.4125,190.692875,0.0,0.0,0.0,0.0,0.02983333333333338,-5.498166666666667,-5.498166666666667,-0.5482,0.19966666666666666,0.025333333333333208,-0.356,67.56,0.0179,-0.216975,-0.3700000000000001,100.0,1.0,1.0,208.41666666666669,0.0,0.0,0.0,0.0,0.0,0.0,0.0,8834.0,0.0,55.0,5.0,243.18666666666667,0.0,0.0,0.0,0.0,0.0,0.0,1.0,0.0,0.7319999999999993,0.7319999999999993,0.0,0.0,0.0,55.0,616.79921,10000.0,85.000001,85.000001,85.000001,85.000001,395.0,0.0,0.0,0.0,1.0,55.556,52.597,52.597,48.309,48.309,34.0,-23.857499999999998,24.586,-27.486666666666665,29.0075,0.0,1782.718,-0.34499999999999886,100.0,27.572,27.661,42.42,42.786,0.0,1.0,100.0,0.0,0.0,0.0,0.0,3204.4285714285716,3099.8,4138.625,4122.9,305.22,304.85325,314.8495,314.6055,21.8802,20.5915,21.9369,21.4341,314.999998,314.999998,324.999988,324.999988,99.55717142857142,99.50748333333334,99.56815714285715,99.54702857142857,0.08866666666666667,-0.03933333333333322,-0.08433333333333337,0.1353333333333333,-0.041666666666671404,-0.04749999999999943,1.5556666666666668,1.5295,37.751000000000005,29.696666666666665,38.105999999999995,34.963,55.452,35.036500000000004,59.8855,52.373,53.442,34.207499999999996,58.4815,50.7235,52.64,33.7935,58.4195,50.156,-0.10499999999999998,-0.0495000000000001,0.101705,0.109045,0.0,211.54000000000002,211.57,208.41666666666669,208.41666666666669,0.0,0.0
15,0.0,1.0,0.0,1.0,1.0,0.0,0.0,1.0,0.0,0.0,1.0,1.1856,26.0,0.0,0.0,0.0,59.999996,0.0,26.0,26.0,26.0,26.0,0.030124999999999957,0.2824,-0.02595,293.045,-2.7201,-2.655625,-1.5267,-1.5588,-224.87,215.4075,190.67875,0.0,0.0,0.0,0.0,0.031133333333333346,-5.498166666666667,-5.498166666666667,-0.5411,0.08333333333333333,0.03222222222222215,0.7870000000000001,67.651,0.0188,-0.20647500000000002,-0.3379999999999992,100.0,1.0,1.0,208.69,0.0,0.0,0.0,0.0,0.0,0.0,0.0,8845.6,0.0,55.0,5.0,243.51333333333332,1.0,0.0,0.0,0.0,0.0,0.0,1.0,0.0,0.7650000000000006,0.7650000000000006,0.0,0.0,1.0,55.0,616.79921,10000.0,85.000001,85.000001,85.000001,85.000001,395.0,0.0,0.0,0.0,1.0,55.556,53.116,53.116,48.035,48.035,34.0,-21.585,24.802,-26.89666666666666,30.267500000000002,0.0,1782.685,-0.29499999999999815,100.0,27.593,27.514,42.535,42.806,0.0,1.0,100.0,0.0,0.0,0.0,0.0,2912.0,3104.7,4134.25,4146.9,305.9015,305.0465,314.8135,314.58575,21.8863,20.595,21.9437,21.44,314.999998,314.999998,324.999988,324.999988,99.55717142857142,99.50748333333334,99.56824285714286,99.54712857142857,0.10066666666666668,-0.03466666666666662,-0.08433333333333337,0.1413333333333333,-0.036666666666668846,-0.0625,1.5310000000000001,1.5245,37.789,29.719,38.147999999999996,35.0,55.444,35.061,59.909,52.4135,53.434,34.230000000000004,58.503,50.7625,52.632,33.815,58.439,50.193666666666665,-0.10099999999999998,-0.05799999999999983,0.10691,0.10506000000000001,0.0,211.84,211.85500000000002,208.69,208.69,0.0,0.0
16,0.0,1.0,0.0,1.0,1.0,0.0,0.0,1.0,0.0,0.0,1.0,1.1856,26.0,0.0,0.0,0.0,59.999996,0.0,26.0,26.0,26.0,26.0,0.040750000000000064,0.27180000000000004,-0.0076,292.816,-2.6569,-2.690375,-1.5722,-1.5286,-221.42000000000002,215.4025,190.656625,0.0,0.0,0.0,0.0,0.03313333333333335,-5.498166666666667,-5.498166666666667,-0.5551,-0.07933333333333333,0.014333333333333309,-1.129,67.78999999999999,0.019,-0.224425,-0.2320000000000002,100.0,1.0,1.0,209.15666666666667,0.0,0.0,0.0,0.0,0.0,0.0,0.0,8865.3,0.0,55.0,5.0,244.01666666666665,0.0,0.0,0.0,0.0,0.0,0.0,1.0,0.0,0.815999999999999,0.815999999999999,0.0,0.0,0.0,55.0,616.79921,10000.0,85.000001,85.000001,85.000001,85.000001,395.0,0.0,0.0,0.0,1.0,55.556,52.49,52.49,48.035,48.035,34.0,-23.04,25.198,-27.596666666666664,27.9725,0.0,1782.635,-0.2699999999999996,100.0,27.567,27.990000000000002,42.647999999999996,43.006,0.0,1.0,100.0,0.0,0.0,0.0,0.0,3146.857142857143,3107.6,4051.25,4025.2,305.36,304.74875,315.0345,314.86575,21.895699999999998,20.6006,21.9543,21.4491,314.999998,314.999998,324.999988,324.999988,99.55718571428571,99.50748333333334,99.56838571428571,99.54727142857143,0.09633333333333338,-0.04166666666666674,-0.10016666666666663,0.125,-0.054999999999999716,-0.045000000000001705,1.544,1.536,37.848,29.753666666666668,38.214,35.057,55.432,35.1,59.945499999999996,52.475,53.423,34.266,58.5375,50.8215,52.619,33.8495,58.4705,50.251666666666665,-0.09899999999999998,-0.05549999999999988,0.11187000000000001,0.10042000000000001,0.0,212.265,212.26999999999998,209.15666666666667,209.15666666666667,0.0,0.0
17,0.0,1.0,0.0,1.0,1.0,0.0,0.0,1.0,0.0,0.0,1.0,1.1856,26.0,0.0,0.0,0.0,59.999996,0.0,26.0,26.0,26.0,26.0,0.025249999999999995,0.27859999999999996,-0.037875,292.908,-2.7312,-2.611875,-1.5853000000000002,-1.4855,-216.94,215.39499999999998,190.62775,0.0,0.0,0.0,0.0,0.035733333333333395,-5.498166666666667,-5.498166666666667,-0.5528000000000001,-0.3136666666666667,-0.0025555555555558662,-0.44399999999999995,67.971,0.0128,-0.21230000000000002,-0.017999999999999794,100.0,1.0,1.0,209.65333333333334,0.0,0.0,0.0,0.0,0.0,0.0,0.0,8886.4,0.0,55.0,5.0,244.66666666666666,1.0,0.0,0.0,0.0,0.0,0.0,1.0,0.0,0.8819999999999979,0.8819999999999979,0.0,0.0,1.0,55.0,616.79921,10000.0,85.000001,85.000001,85.000001,85.000001,395.0,0.0,0.0,0.0,1.0,55.556,53.009,53.009,48.035,48.035,34.0,-23.955,22.79,-29.03666666666666,28.1475,0.0,1782.568,-0.1750000000000007,100.0,27.589,27.769,42.753,43.103,0.0,1.0,100.0,0.0,0.0,0.0,0.0,3118.285714285714,2960.6,4178.875,4079.3,305.561,305.4085,314.764,314.764,21.907899999999998,20.6077,21.9679,21.4609,314.999998,314.999998,324.999988,324.999988,99.5572,99.5075,99.56858571428572,99.54745714285714,0.08233333333333359,-0.045333333333333226,-0.10383333333333333,0.1306666666666667,-0.03999999999999915,-0.054999999999999716,1.5333333333333334,1.5270000000000001,37.924,29.798000000000002,38.299,35.1305,55.417,35.1485,59.9935,52.554,53.408,34.311,58.5815,50.8975,52.602999999999994,33.8925,58.510999999999996,50.32633333333334,-0.08999999999999986,-0.06349999999999989,0.10589000000000001,0.10942,0.0,212.815,212.835,209.65333333333334,209.65333333333334,0.0,0.0
18,0.0,1.0,0.0,1.0,1.0,0.0,0.0,1.0,0.0,0.0,1.0,1.1856,26.0,0.0,0.0,0.0,59.999996,0.0,26.0,26.0,26.0,26.0,0.027374999999999927,0.25980000000000003,-0.018475000000000002,292.847,-2.6474,-2.744125,-1.4982,-1.587,-214.69,215.39249999999998,190.61325,0.0,0.0,0.0,0.0,0.03706666666666658,-5.498166666666667,-5.498166666666667,-0.5636,-0.267,0.0040000000000000036,0.7010000000000001,68.06,0.0085,-0.225575,-0.1200000000000001,100.0,1.0,1.0,209.95,0.0,0.0,0.0,0.0,0.0,0.0,0.0,8899.0,0.0,55.0,5.0,244.99,0.0,0.0,0.0,0.0,0.0,0.0,1.0,0.0,0.9149999999999991,0.9149999999999991,0.0,0.0,0.0,55.0,616.79921,10000.0,85.000001,85.000001,85.000001,85.000001,395.0,0.0,0.0,0.0,1.0,55.556,52.673,52.673,48.325,48.325,34.0,-22.445,25.228,-25.946666666666665,29.0075,0.0,1782.535,-0.16999999999999815,100.0,27.907,27.775,42.859,43.091,0.0,1.0,100.0,0.0,0.0,0.0,0.0,3016.857142857143,3080.7,3945.5,4064.3,305.5875,305.02375,315.203,314.7455,21.914,20.6113,21.9746,21.4668,314.999998,314.999998,324.999988,324.999988,99.5572,99.5075,99.56868571428572,99.54755714285714,0.08666666666666645,-0.040999999999999925,-0.10083333333333333,0.1213333333333333,-0.03833333333332689,-0.048749999999998295,1.5356666666666667,1.5225,37.962,29.820666666666668,38.342,35.167500000000004,55.409,35.174,60.0165,52.594,53.400999999999996,34.334,58.603,50.936,52.595,33.914500000000004,58.5305,50.364,-0.09250000000000003,-0.0625,0.107795,0.099265,0.0,213.10000000000002,213.10500000000002,209.95,209.95,0.0,0.0
19,0.0,1.0,0.0,1.0,1.0,0.0,0.0,1.0,0.0,0.0,1.0,1.1856,26.0,0.0,0.0,0.0,59.999996,0.0,26.0,26.0,26.0,26.0,0.020750000000000046,0.26690000000000014,-0.031725,292.465,-2.6807,-2.659125,-1.6347,-1.6069,-211.22,215.39,190.590375,0.0,0.0,0.0,0.0,0.03906666666666658,-5.498166666666667,-5.498166666666667,-0.5465,0.4566666666666667,0.006999999999999895,-0.645,68.19800000000001,0.0058000000000000005,-0.2063,0.012000000000000455,100.0,1.0,1.0,210.34,0.0,0.0,0.0,0.0,0.0,0.0,0.0,8915.6,0.0,55.0,5.0,245.48333333333335,1.0,0.0,0.0,0.0,0.0,0.0,1.0,0.0,0.9660000000000011,0.9660000000000011,0.0,0.0,1.0,55.0,616.79921,10000.0,85.000001,85.000001,85.000001,85.000001,395.0,0.0,0.0,0.0,1.0,55.556,52.368,52.368,47.791,47.791,34.0,-23.6425,22.872,-30.933333333333337,28.765,0.0,1782.485,-0.134999999999998,100.0,28.187,28.225,42.818,43.274,0.0,1.0,100.0,0.0,0.0,0.0,0.0,3114.285714285714,2997.1,4256.75,4083.7,305.4865,305.1955,314.6735,314.676,21.9236,20.6169,21.9851,21.4759,314.999998,314.999998,324.999988,324.999988,99.55721428571428,99.5075,99.56881428571428,99.5477,0.08066666666666666,-0.06433333333333313,-0.11466666666666658,0.10616666666666674,-0.04999999999999716,-0.03999999999999915,1.513,1.5105,38.022,29.855666666666664,38.407,35.2245,55.399,35.214,60.0525,52.655,53.391,34.371,58.6365,50.9945,52.584,33.95,58.561,50.42133333333334,-0.09349999999999992,-0.0714999999999999,0.10976500000000002,0.09885500000000001,0.0,213.555,213.555,210.34,210.34,0.0,0.0
20,0.0,1.0,0.0,1.0,1.0,0.0,0.0,1.0,0.0,0.0,1.0,1.1856,26.0,0.0,0.0,0.0,59.999996,0.0,26.0,26.0,26.0,26.0,0.023749999999999938,0.2733000000000001,-0.047125,292.648,-2.7073,-2.70625,-1.5864,-1.5408,-206.70999999999998,215.385,190.561375,0.0,0.0,0.0,0.0,0.04169999999999996,-5.498166666666667,-5.498166666666667,-0.5705,-0.3756666666666667,0.0021111111111109526,-1.025,68.375,0.0044,-0.23192500000000002,-0.012000000000000455,100.0,1.0,1.0,210.93333333333334,0.0,0.0,0.0,0.0,0.0,0.0,0.0,8940.7,0.0,55.0,5.0,246.12,0.0,0.0,0.0,0.0,0.0,0.0,0.0,0.0,1.032,1.032,0.0,0.0,0.0,55.0,616.79921,10000.0,85.000001,85.000001,85.000001,85.000001,395.0,0.0,0.0,0.0,1.0,55.556,52.521,52.521,47.989,47.989,34.0,-24.2575,23.836,-28.14,27.72,0.0,1782.418,-0.134999999999998,100.0,27.849,28.031,43.138,43.406,0.0,1.0,100.0,0.0,0.0,0.0,0.0,3159.4285714285716,3005.3,4020.0,4015.4,305.385,305.0805,315.1365,314.84675,21.9357,20.6241,21.9988,21.4878,314.999998,314.999998,324.999988,324.999988,99.55724285714285,99.5075,99.56901428571429,99.54788571428571,0.08066666666666666,-0.055333333333333234,-0.11383333333333334,0.11766666666666681,-0.054999999999999716,-0.04124999999999801,1.5590000000000002,1.5525,38.098,29.900333333333336,38.492000000000004,35.299,55.382999999999996,35.263999999999996,60.1005,52.7345,53.375,34.417500000000004,58.6815,51.071,52.567,33.9945,58.6015,50.496,-0.08999999999999986,-0.06400000000000006,0.1068,0.110475,0.0,214.07999999999998,214.06,210.93333333333334,210.93333333333334,0.0,0.0
21,0.0,1.0,0.0,1.0,1.0,0.0,0.0,1.0,0.0,0.0,1.0,1.1856,26.0,0.0,0.0,0.0,59.999996,0.0,26.0,26.0,26.0,26.0,-0.005750000000000033,0.2694000000000001,-0.022675,292.48,-2.688,-2.6652500000000003,-1.5642,-1.5339,-204.45,215.385,190.54625,0.0,0.0,0.0,0.0,0.04299999999999993,-5.498166666666667,-5.498166666666667,-0.5720000000000001,0.2723333333333333,-0.00044444444444424747,0.593,68.463,0.0031000000000000003,-0.219175,-0.03200000000000003,100.0,1.0,1.0,211.19666666666666,0.0,0.0,0.0,0.0,0.0,0.0,0.0,8951.8,0.0,55.0,5.0,246.43666666666667,1.0,0.0,0.0,0.0,0.0,0.0,0.0,0.0,1.0650000000000013,1.0650000000000013,0.0,0.0,1.0,55.0,616.79921,10000.0,85.000001,85.000001,85.000001,85.000001,395.0,0.0,0.0,0.0,1.0,55.556,52.231,52.231,47.974000000000004,47.974000000000004,34.0,-23.884999999999998,25.252,-28.276666666666664,28.8175,0.0,1782.385,-0.1750000000000007,100.0,28.127,27.855,43.035,43.102000000000004,0.0,1.0,100.0,0.0,0.0,0.0,0.0,3141.714285714286,3193.7,4057.0,4151.4,305.257,304.693,315.00925,314.6425,21.9418,20.6277,22.0055,21.4937,314.999998,314.999998,324.999988,324.999988,99.55724285714285,99.50751666666666,99.5691,99.54798571428572,0.08666666666666645,-0.04833333333333312,-0.11516666666666664,0.12149999999999994,-0.03999999999999915,-0.05749999999999744,1.558,1.5455,38.135999999999996,29.923000000000002,38.535,35.335499999999996,55.376000000000005,35.289,60.123,52.7725,53.367999999999995,34.4405,58.7025,51.1075,52.56,34.0165,58.6205,50.531666666666666,-0.09399999999999986,-0.06099999999999994,0.11217,0.10583000000000001,0.0,214.35000000000002,214.35500000000002,211.19666666666666,211.19666666666666,0.0,0.0
22,0.0,1.0,0.0,1.0,1.0,0.0,0.0,1.0,0.0,0.0,1.0,1.1856,26.0,0.0,0.0,0.0,59.999996,0.0,26.0,26.0,26.0,26.0,0.00825000000000009,0.26760000000000006,0.061225,291.87,-2.7602,-2.66175,-1.5737,-1.5289,-200.95999999999998,215.38,190.5225,0.0,0.0,0.0,0.0,0.04503333333333337,-5.498166666666667,-5.498166666666667,-0.5597,-0.13666666666666666,0.00477777777777777,-0.7010000000000001,68.601,0.0015,-0.20785,-0.0259999999999998,100.0,1.0,1.0,211.44666666666666,0.0,0.0,0.0,0.0,0.0,0.0,0.0,8962.5,0.0,55.0,5.0,246.93666666666667,0.0,0.0,0.0,0.0,0.0,0.0,0.0,0.0,1.1159999999999997,1.1159999999999997,0.0,0.0,0.0,55.0,616.79921,10000.0,85.000001,85.000001,85.000001,85.000001,395.0,0.0,0.0,0.0,1.0,55.556,52.002,52.002,47.073,47.073,34.0,-25.785,24.7,-30.659999999999997,29.9875,0.0,1782.335,-0.245000000000001,100.0,28.101,28.13,43.269,43.474000000000004,0.0,1.0,100.0,0.0,0.0,0.0,0.0,3283.0,3145.0,4364.375,4314.3,305.0495,304.729,314.33225,314.104,21.9511,20.6332,22.0161,21.5029,314.999998,314.999998,324.999988,324.999988,99.55725714285714,99.50753333333333,99.56925714285714,99.54812857142858,0.08233333333333359,-0.05333333333333323,-0.10283333333333333,0.10949999999999993,-0.04833333333333201,-0.027499999999996305,1.4726666666666666,1.4735,38.195,29.957666666666668,38.601,35.393,55.364000000000004,35.3285,60.161500000000004,52.8345,53.357,34.4765,58.738,51.167500000000004,52.548,34.051,58.6525,50.590333333333334,-0.10399999999999987,-0.06150000000000011,0.10458,0.10731,0.0,214.79500000000002,214.76999999999998,211.44666666666666,211.44666666666666,0.0,0.0
23,0.0,1.0,0.0,1.0,1.0,0.0,0.0,1.0,0.0,0.0,1.0,1.1856,26.0,0.0,0.0,0.0,59.999996,0.0,26.0,26.0,26.0,26.0,0.026499999999999968,0.26660000000000017,-0.076575,292.419,-2.7077,-2.6887499999999998,-1.6289,-1.5673,-196.42000000000002,215.3775,190.492,0.0,0.0,0.0,0.0,0.047666666666666524,-5.498166666666667,-5.498166666666667,-0.5799000000000001,-0.20666666666666667,0.004999999999999893,-0.614,68.774,0.0024000000000000002,-0.22545,-0.07599999999999962,100.0,1.0,1.0,212.13333333333333,0.0,0.0,0.0,0.0,0.0,0.0,0.0,8991.5,0.0,55.0,5.0,247.56,1.0,0.0,0.0,0.0,0.0,0.0,0.0,0.0,1.1819999999999986,1.1819999999999986,0.0,0.0,1.0,55.0,616.79921,10000.0,85.000001,85.000001,85.000001,85.000001,395.0,0.0,0.0,0.0,1.0,55.556,52.368,52.368,48.096000000000004,48.096000000000004,34.0,-24.455,23.404,-28.693333333333335,28.045,0.0,1782.268,-0.26500000000000057,100.0,28.171,28.093,43.274,43.554,0.0,1.0,100.0,0.0,0.0,0.0,0.0,3190.857142857143,2968.6,4043.0,4068.4,305.2995,305.224,315.173,314.732,21.9632,20.6405,22.0297,21.5148,314.999998,314.999998,324.999988,324.999988,99.55727142857143,99.50753333333333,99.56944285714286,99.54832857142857,0.08300000000000018,-0.05333333333333323,-0.11149999999999993,0.1080000000000001,-0.046666666666666856,-0.042499999999996874,1.553,1.5505,38.269999999999996,30.003,38.686,35.4675,55.349999999999994,35.3785,60.207,52.913,53.343,34.5225,58.7805,51.243,52.532,34.095,58.691,50.664,-0.09999999999999987,-0.059499999999999886,0.10678000000000001,0.10523500000000001,0.0,215.32,215.31,212.13333333333333,212.13333333333333,0.0,0.0
24,0.0,1.0,0.0,1.0,1.0,0.0,0.0,1.0,0.0,0.0,1.0,1.1856,26.0,0.0,0.0,0.0,59.999996,0.0,26.0,26.0,26.0,26.0,0.020874999999999977,0.27360000000000007,-0.046175,292.572,-2.7074,-2.689375,-1.5492,-1.5553,-194.14999999999998,215.375,190.476125,0.0,0.0,0.0,0.0,0.04899999999999993,-5.498166666666667,-5.498166666666667,-0.5902000000000001,-0.462,0.018000000000000016,0.968,68.862,0.0032,-0.22210000000000002,-0.16000000000000014,100.0,1.0,1.0,212.37333333333333,0.0,0.0,0.0,0.0,0.0,0.0,0.0,9001.8,0.0,55.0,5.0,247.87666666666667,0.0,0.0,0.0,0.0,0.0,0.0,0.0,0.0,1.2149999999999999,1.2149999999999999,0.0,0.0,0.0,55.0,616.79921,10000.0,85.000001,85.000001,85.000001,85.000001,395.0,0.0,0.0,0.0,1.0,55.556,52.719,52.719,47.791,47.791,34.0,-22.544999999999998,24.658,-26.956666666666663,29.55,0.0,1782.235,-0.259999999999998,100.0,28.059,27.756999999999998,43.352000000000004,43.369,0.0,1.0,100.0,0.0,0.0,0.0,0.0,2986.4285714285716,3102.2,4002.75,4147.2,305.753,305.03625,315.09425,314.62075,21.9691,20.644,22.0365,21.5208,314.999998,314.999998,324.999988,324.999988,99.55727142857143,99.50753333333333,99.56952857142858,99.54841428571429,0.08933333333333371,-0.046333333333333115,-0.09799999999999998,0.12783333333333324,-0.04833333333333201,-0.06374999999999886,1.534,1.5265,38.307,30.025,38.727999999999994,35.5045,55.342,35.4025,60.2305,52.952,53.335,34.545,58.802,51.28,52.524,34.116,58.710499999999996,50.70033333333333,-0.09749999999999992,-0.05549999999999988,0.10133500000000001,0.1102,0.0,215.56,215.57999999999998,212.37333333333333,212.37333333333333,0.0,0.0
25,0.0,1.0,0.0,1.0,1.0,0.0,0.0,1.0,0.0,0.0,1.0,1.1856,26.0,0.0,0.0,0.0,59.999996,0.0,26.0,26.0,26.0,26.0,0.027125000000000066,0.2672000000000001,-0.00265,292.099,-2.6767,-2.6651249999999997,-1.5829,-1.558,-190.64,215.375,190.450625,0.0,0.0,0.0,0.0,0.051033333333333375,-5.498166666666667,-5.498166666666667,-0.5983,0.432,0.013111111111111073,-0.963,68.995,0.0068000000000000005,-0.2147,-0.17799999999999905,100.0,1.0,1.0,212.78,0.0,0.0,0.0,0.0,0.0,0.0,0.0,9019.0,0.0,55.0,5.0,248.35666666666668,1.0,0.0,0.0,0.0,0.0,0.0,0.0,0.0,1.2659999999999982,1.2659999999999982,0.0,0.0,1.0,55.0,616.79921,10000.0,85.000001,85.000001,85.000001,85.000001,395.0,0.0,0.0,0.0,1.0,55.556,51.788,51.788,47.562,47.562,34.0,-24.6325,25.238,-28.96,28.2475,0.0,1782.185,-0.3000000000000007,100.0,28.145,28.34,43.061,43.3,0.0,1.0,100.0,0.0,0.0,0.0,0.0,3280.142857142857,3181.2,4177.875,4109.5,304.997,304.539,314.811,314.674,21.9784,20.6497,22.047,21.5299,314.999998,314.999998,324.999988,324.999988,99.55728571428571,99.50755,99.56968571428571,99.54857142857144,0.09100000000000019,-0.05166666666666675,-0.10233333333333339,0.10749999999999993,-0.05333333333332746,-0.058749999999996305,1.5196666666666667,1.5350000000000001,38.364999999999995,30.060666666666666,38.794,35.5615,55.331,35.442499999999995,60.265,53.010999999999996,53.325,34.582,58.834,51.337,52.512,34.1515,58.7395,50.756,-0.10499999999999998,-0.06450000000000022,0.10135000000000001,0.102995,0.0,216.005,216.015,212.78,212.78,0.0,0.0
26,0.0,1.0,0.0,1.0,1.0,0.0,0.0,1.0,0.0,0.0,1.0,1.1856,26.0,0.0,0.0,0.0,59.999996,0.0,26.0,26.0,26.0,26.0,0.01637500000000003,0.274,0.038125,291.412,-2.7458,-2.7182500000000003,-1.6233,-1.5267,-186.07999999999998,215.3725,190.418125,0.0,0.0,0.0,0.0,0.05369999999999997,-5.498166666666667,-5.498166666666667,-0.5791000000000001,-0.5986666666666667,0.011666666666666714,-0.719,69.17,0.0102,-0.21880000000000002,-0.21200000000000063,100.0,1.0,1.0,213.12,0.0,0.0,0.0,0.0,0.0,0.0,0.0,9033.4,0.0,55.0,5.0,248.98666666666668,0.0,0.0,0.0,0.0,0.0,0.0,0.0,0.0,1.3320000000000007,1.3320000000000007,0.0,0.0,0.0,55.0,616.79921,10000.0,85.000001,85.000001,85.000001,85.000001,395.0,0.0,0.0,0.0,1.0,55.556,51.91,51.91,46.31,46.31,34.0,-24.565,24.548000000000002,-32.346666666666664,31.1,0.0,1782.118,-0.3200000000000003,100.0,28.447,28.6,43.906,44.120000000000005,0.0,1.0,100.0,0.0,0.0,0.0,0.0,3201.5714285714284,3043.4,4442.25,4408.7,305.3215,304.98675,314.13175,313.91775,21.9904,20.6571,22.0608,21.542,314.999998,314.999998,324.999988,324.999988,99.5573,99.50755,99.56987142857143,99.54875714285714,0.08966666666666656,-0.04899999999999993,-0.10483333333333333,0.11450000000000005,-0.041666666666671404,-0.054999999999999716,1.451,1.451,38.44,30.106666666666666,38.879999999999995,35.6375,55.318,35.494,60.3155,53.093,53.312,34.629,58.8815,51.416,52.498000000000005,34.1965,58.7825,50.833,-0.10650000000000004,-0.052999999999999936,0.10196000000000001,0.10676500000000001,0.0,216.53,216.55,213.12,213.12,0.0,0.0
27,0.0,1.0,0.0,1.0,1.0,0.0,0.0,1.0,0.0,0.0,1.0,1.1856,26.0,0.0,0.0,0.0,59.999996,0.0,26.0,26.0,26.0,26.0,0.006250000000000089,0.25960000000000005,-0.050925000000000005,291.901,-2.7500999999999998,-2.6732500000000003,-1.6402,-1.5377,-183.79,215.3725,190.402125,0.0,0.0,0.0,0.0,0.05503333333333338,-5.498166666666667,-5.498166666666667,-0.6048,-0.5893333333333334,0.016888888888888953,0.508,69.253,0.011300000000000001,-0.24147500000000002,-0.25399999999999956,100.0,1.0,1.0,213.57999999999998,0.0,0.0,0.0,0.0,0.0,0.0,0.0,9052.9,0.0,55.0,5.0,249.28666666666666,1.0,0.0,0.0,0.0,0.0,0.0,0.0,0.0,1.3649999999999984,1.3649999999999984,0.0,0.0,1.0,55.0,616.79921,10000.0,85.000001,85.000001,85.000001,85.000001,395.0,0.0,0.0,0.0,1.0,55.556,51.772999999999996,51.772999999999996,47.485,47.485,34.0,-24.1425,25.998,-27.240000000000002,29.2875,0.0,1782.085,-0.3150000000000013,100.0,28.454,28.418,43.868,43.953,0.0,1.0,100.0,0.0,0.0,0.0,0.0,3168.142857142857,3243.2,3918.875,4164.3,305.2405,304.6,315.33,314.6115,21.9964,20.6608,22.0676,21.548000000000002,314.999998,314.999998,324.999988,324.999988,99.55731428571428,99.50756666666666,99.56995714285715,99.54885714285714,0.0983333333333336,-0.04266666666666663,-0.09499999999999997,0.1263333333333332,-0.045000000000001705,-0.0625,1.542,1.5430000000000001,38.477000000000004,30.129666666666665,38.922,35.675,55.311,35.5195,60.3375,53.1315,53.305,34.6525,58.9015,51.453,52.489999999999995,34.219,58.801,50.869,-0.10599999999999987,-0.0625,0.10604500000000001,0.100985,0.0,216.765,216.785,213.57999999999998,213.57999999999998,0.0,0.0
28,0.0,1.0,0.0,1.0,1.0,0.0,0.0,1.0,0.0,0.0,1.0,1.1856,26.0,0.0,0.0,0.0,59.999996,0.0,26.0,26.0,26.0,26.0,0.038999999999999924,0.2695000000000001,-0.023775,291.931,-2.7161,-2.6790000000000003,-1.5672000000000001,-1.5501,-180.26,215.37,190.3765,0.0,0.0,0.0,0.0,0.0570666666666666,-5.498166666666667,-5.498166666666667,-0.5957,0.4276666666666667,-0.00022222222222234578,-0.913,69.386,0.013800000000000002,-0.20672500000000002,-0.25200000000000067,100.0,1.0,1.0,213.92333333333335,0.0,0.0,0.0,0.0,0.0,0.0,0.0,9067.4,0.0,55.0,5.0,249.76,0.0,0.0,0.0,0.0,0.0,0.0,0.0,0.0,1.4160000000000004,1.4160000000000004,0.0,0.0,0.0,55.0,616.79921,10000.0,85.000001,85.000001,85.000001,85.000001,395.0,0.0,0.0,0.0,1.0,55.556,52.231,52.231,46.936,46.936,34.0,-23.1475,24.302,-29.740000000000002,30.12,0.0,1782.035,-0.33999999999999986,100.0,28.306,28.525,43.453,43.745000000000005,0.0,1.0,100.0,0.0,0.0,0.0,0.0,3102.4285714285716,3011.5,4295.0,4236.4,305.553,305.06475,314.51425,314.42125,22.0056,20.6665,22.078,21.5571,314.999998,314.999998,324.999988,324.999988,99.55731428571428,99.50756666666666,99.57011428571428,99.549,0.09766666666666657,-0.040000000000000036,-0.10150000000000003,0.12400000000000011,-0.04999999999999716,-0.027499999999996305,1.5186666666666666,1.513,38.535,30.165333333333333,38.986999999999995,35.732,55.3,35.5585,60.372,53.1905,53.295,34.6885,58.9335,51.5095,52.479,34.2535,58.829499999999996,50.92433333333334,-0.10799999999999987,-0.051000000000000156,0.10718000000000001,0.10466500000000001,0.0,217.22500000000002,217.22500000000002,213.92333333333335,213.92333333333335,0.0,0.0
29,0.0,1.0,0.0,1.0,1.0,0.0,0.0,1.0,0.0,0.0,1.0,1.1856,26.0,0.0,0.0,0.0,59.999996,0.0,26.0,26.0,26.0,26.0,0.05025000000000013,0.24320000000000008,-0.012100000000000001,291.656,-2.6311,-2.737625,-1.62,-1.5056,-175.67000000000002,215.3725,190.34225,0.0,0.0,0.0,0.0,0.059733333333333305,-5.498166666666667,-5.498166666666667,-0.6152000000000001,0.01666666666666667,-0.00022222222222234578,-0.495,69.556,0.0178,-0.22692500000000002,-0.33200000000000074,100.0,1.0,1.0,214.47,0.0,0.0,0.0,0.0,0.0,0.0,0.0,9090.6,0.0,55.0,5.0,250.37333333333333,1.0,0.0,0.0,0.0,0.0,0.0,0.0,0.0,1.4819999999999993,1.4819999999999993,0.0,0.0,1.0,55.0,616.79921,10000.0,85.000001,85.000001,85.000001,85.000001,395.0,0.0,0.0,0.0,1.0,55.556,51.498,51.498,47.211,47.211,34.0,-23.4175,25.772,-28.503333333333337,29.4575,0.0,1781.968,-0.384999999999998,100.0,28.536,28.737000000000002,43.673,43.963,0.0,1.0,100.0,0.0,0.0,0.0,0.0,3245.857142857143,3120.9,4113.375,4192.2,305.041,304.66,314.9465,314.5335,22.0176,20.6739,22.0916,21.5691,314.999998,314.999998,324.999988,324.999988,99.55734285714286,99.50758333333333,99.5703,99.5492,0.1033333333333335,-0.04400000000000004,-0.09216666666666662,0.13050000000000006,-0.045000000000001705,-0.04625000000000057,1.5113333333333334,1.5135,38.61,30.211666666666666,39.073,35.807,55.287,35.6085,60.4185,53.269,53.282,34.735,58.977000000000004,51.585,52.465,34.298,58.8685,50.998333333333335,-0.10999999999999988,-0.05500000000000016,0.10029,0.11195500000000001,0.0,217.72500000000002,217.72500000000002,214.47,214.47,0.0,0.0
30,0.0,1.0,0.0,1.0,1.0,0.0,0.0,1.0,0.0,0.0,1.0,1.1856,26.0,0.0,0.0,0.0,59.999996,0.0,26.0,26.0,26.0,26.0,0.018750000000000044,0.29510000000000014,0.05845,290.924,-2.7278000000000002,-2.644625,-1.6447,-1.4647000000000001,-173.38,215.3725,190.325125,0.0,0.0,0.0,0.0,0.0610666666666666,-5.498166666666667,-5.498166666666667,-0.5967,0.8626666666666667,0.009444444444444366,1.061,69.642,0.019100000000000002,-0.21105000000000002,-0.3860000000000001,100.0,1.0,1.0,214.60000000000002,0.0,0.0,0.0,0.0,0.0,0.0,0.0,9096.2,0.0,55.0,5.0,250.68333333333334,0.0,0.0,0.0,0.0,0.0,0.0,1.0,0.0,1.5150000000000006,1.5150000000000006,0.0,0.0,0.0,55.0,616.79921,10000.0,85.000001,85.000001,85.000001,85.000001,395.0,0.0,0.0,0.0,1.0,55.556,51.086,51.086,46.219,46.219,34.0,-23.09,26.512,-31.686666666666664,32.879999999999995,0.0,1781.935,-0.41000000000000014,100.0,29.195,29.009,43.805,44.024,0.0,1.0,100.0,0.0,0.0,0.0,0.0,3142.142857142857,3250.6,4477.125,4589.7,305.1715,304.45425,314.1165,313.6895,22.023699999999998,20.6777,22.098399999999998,21.5752,314.999998,314.999998,324.999988,324.999988,99.55734285714286,99.50758333333333,99.5704,99.5493,0.1166666666666667,-0.030000000000000027,-0.08599999999999997,0.14166666666666683,-0.03333333333333144,-0.05749999999999744,1.4823333333333333,1.4735,38.647999999999996,30.235666666666667,39.115,35.845,55.283,35.6355,60.4415,53.309,53.278,34.76,58.9985,51.6235,52.46,34.3215,58.888,51.036,-0.11999999999999988,-0.051000000000000156,0.105755,0.108975,0.0,218.005,218.04000000000002,214.60000000000002,214.60000000000002,0.0,0.0
31,0.0,1.0,0.0,1.0,1.0,0.0,0.0,1.0,0.0,0.0,1.0,1.1856,26.0,0.0,0.0,0.0,59.999996,0.0,26.0,26.0,26.0,26.0,0.04525000000000001,0.2570000000000001,0.0099,291.061,-2.7071,-2.69325,-1.6062,-1.5461,-169.82,215.375,190.2995,0.0,0.0,0.0,0.0,0.06313333333333337,-5.498166666666667,-5.498166666666667,-0.5898,-0.4083333333333333,0.012777777777777777,-1.027,69.772,0.0166,-0.22410000000000002,-0.33399999999999963,100.0,1.0,1.0,215.0233333333333,0.0,0.0,0.0,0.0,0.0,0.0,0.0,9114.1,0.0,55.0,5.0,251.15333333333334,1.0,0.0,0.0,0.0,0.0,0.0,1.0,0.0,1.565999999999999,1.565999999999999,0.0,0.0,1.0,55.0,616.79921,10000.0,85.000001,85.000001,85.000001,85.000001,395.0,0.0,0.0,0.0,1.0,55.556,51.3,51.3,45.897999999999996,45.897999999999996,34.0,-22.6525,26.124,-29.36,31.2275,0.0,1781.885,-0.4499999999999993,100.0,28.745,29.317,44.355000000000004,44.802,0.0,1.0,100.0,0.0,0.0,0.0,0.0,3102.4285714285716,3169.7,4225.875,4285.7,305.516,304.5235,314.67525,314.2625,22.032899999999998,20.6836,22.109099999999998,21.584699999999998,314.999998,314.999998,324.999988,324.999988,99.55737142857143,99.50758333333333,99.57055714285714,99.54944285714285,0.10866666666666669,-0.03733333333333322,-0.09116666666666662,0.1333333333333333,-0.07000000000000028,-0.03625000000000256,1.4773333333333334,1.4765000000000001,38.706,30.272333333333336,39.182,35.903999999999996,55.272999999999996,35.6755,60.4795,53.373,53.268,34.797,59.034,51.685,52.449,34.357,58.92,51.095333333333336,-0.11599999999999988,-0.04800000000000004,0.10169500000000001,0.11039000000000002,0.0,218.405,218.39,215.0233333333333,215.0233333333333,0.0,0.0
32,0.0,1.0,0.0,1.0,1.0,0.0,0.0,1.0,0.0,0.0,1.0,1.1856,26.0,0.0,0.0,0.0,59.999996,0.0,26.0,26.0,26.0,26.0,0.040999999999999925,0.2701,-0.004,291.428,-2.6751,-2.664,-1.6195,-1.5598999999999998,-165.20999999999998,215.38,190.266125,0.0,0.0,0.0,0.0,0.0658333333333333,-5.498166666666667,-5.498166666666667,-0.6115,-0.13866666666666666,-0.014777777777777779,-0.513,69.938,0.0218,-0.224525,-0.33200000000000074,100.0,1.0,1.0,215.61,0.0,0.0,0.0,0.0,0.0,0.0,0.0,9139.0,0.0,55.0,5.0,251.75,0.0,0.0,0.0,0.0,0.0,0.0,1.0,0.0,1.631999999999998,1.631999999999998,0.0,0.0,0.0,55.0,616.79921,10000.0,85.000001,85.000001,85.000001,85.000001,395.0,0.0,0.0,0.0,1.0,55.556,51.62,51.62,46.661,46.661,34.0,-22.8425,24.93,-29.233333333333334,30.1125,0.0,1781.819,-0.4349999999999987,100.0,28.695,28.893,44.055,44.466,0.0,1.0,100.0,0.0,0.0,0.0,0.0,3177.285714285714,3076.9,4206.375,4164.7,305.262,304.94,314.69525,314.57225,22.0449,20.691,22.1226,21.5966,314.999998,314.999998,324.999988,324.999988,99.55738571428572,99.50758333333333,99.57074285714286,99.54964285714286,0.11266666666666669,-0.03466666666666662,-0.09066666666666656,0.133,-0.03333333333333144,-0.06374999999999886,1.517,1.5230000000000001,38.78,30.318666666666665,39.266,35.979,55.26,35.725,60.524,53.4495,53.256,34.8425,59.075,51.7585,52.435,34.4005,58.9565,51.16733333333333,-0.12250000000000005,-0.04850000000000021,0.10786000000000001,0.10536500000000001,0.0,218.89,218.935,215.61,215.61,0.0,0.0
33,0.0,1.0,0.0,1.0,1.0,0.0,0.0,1.0,0.0,0.0,1.0,1.1856,26.0,0.0,0.0,0.0,59.999996,0.0,26.0,26.0,26.0,26.0,0.026999999999999913,0.26080000000000014,-0.053075000000000004,291.55,-2.7128,-2.6488750000000003,-1.6549,-1.5478,-162.89999999999998,215.3825,190.2485,0.0,0.0,0.0,0.0,0.0671666666666666,-5.498166666666667,-5.498166666666667,-0.6174000000000001,-0.213,-0.0025555555555558662,1.072,70.022,0.0224,-0.21357500000000001,-0.37600000000000033,100.0,1.0,1.0,215.8466666666667,0.0,0.0,0.0,0.0,0.0,0.0,0.0,9148.9,0.0,55.0,5.0,252.05333333333334,1.0,0.0,0.0,0.0,0.0,0.0,1.0,0.0,1.6649999999999991,1.6649999999999991,0.0,0.0,1.0,55.0,616.79921,10000.0,85.000001,85.000001,85.000001,85.000001,395.0,0.0,0.0,0.0,1.0,55.556,51.865,51.865,46.768,46.768,34.0,-22.134999999999998,25.682,-29.299999999999997,31.05,0.0,1781.785,-0.4400000000000013,100.0,28.691,28.585,44.011,44.292,0.0,1.0,100.0,0.0,0.0,0.0,0.0,3067.285714285714,3167.6,4201.0,4255.3,305.5155,304.84375,314.7505,314.43025,22.0508,20.6946,22.1294,21.6026,314.999998,314.999998,324.999988,324.999988,99.5574,99.50758333333333,99.57084285714286,99.54974285714286,0.11799999999999988,-0.02833333333333332,-0.08350000000000002,0.13966666666666683,-0.04833333333333201,-0.05124999999999602,1.5076666666666667,1.5095,38.817,30.341666666666665,39.309,36.0165,55.253,35.749,60.5465,53.488,53.248999999999995,34.865,59.0955,51.795500000000004,52.427,34.422,58.9755,51.20333333333333,-0.11499999999999999,-0.0495000000000001,0.10342000000000001,0.10191000000000001,0.0,219.16,219.18,215.8466666666667,215.8466666666667,0.0,0.0
34,0.0,1.0,0.0,1.0,1.0,0.0,0.0,1.0,0.0,0.0,1.0,1.1856,26.0,0.0,0.0,0.0,59.999996,0.0,26.0,26.0,26.0,26.0,0.05887500000000001,0.26039999999999996,-0.0601,291.809,-2.7541,-2.6096250000000003,-1.6035,-1.576,-159.32999999999998,215.3875,190.220125,0.0,0.0,0.0,0.0,0.06923333333333337,-5.498166666666667,-5.498166666666667,-0.6529,-1.0046666666666666,0.014888888888888951,-0.514,70.151,0.0239,-0.22692500000000002,-0.3799999999999999,100.0,1.0,1.0,216.23000000000002,0.0,0.0,0.0,0.0,0.0,0.0,0.0,9165.1,0.0,55.0,5.0,252.51666666666665,0.0,0.0,0.0,0.0,0.0,0.0,1.0,0.0,1.716000000000001,1.716000000000001,0.0,0.0,0.0,55.0,616.79921,10000.0,85.000001,85.000001,85.000001,85.000001,395.0,0.0,0.0,0.0,1.0,55.556,52.307,52.307,46.982,46.982,34.0,-22.2125,24.844,-27.856666666666662,30.6675,0.0,1781.735,-0.3949999999999996,100.0,28.191,28.474,43.809,44.441,0.0,1.0,100.0,0.0,0.0,0.0,0.0,3012.714285714286,3093.1,4098.5,4190.7,305.7715,304.88425,314.959,314.41075,22.0598,20.7002,22.1398,21.6119,314.999998,314.999998,324.999988,324.999988,99.55741428571429,99.5076,99.57098571428571,99.54988571428571,0.11166666666666636,-0.028999999999999915,-0.08616666666666661,0.13000000000000012,-0.045000000000001705,-0.038750000000000284,1.5236666666666667,1.502,38.873999999999995,30.376333333333335,39.374,36.0745,55.241,35.7855,60.58,53.548500000000004,53.238,34.897999999999996,59.126999999999995,51.854,52.415,34.454,59.003,51.260333333333335,-0.11050000000000004,-0.04300000000000015,0.103845,0.10198000000000002,0.0,219.53,219.54500000000002,216.23000000000002,216.23000000000002,0.0,0.0
35,0.0,1.0,0.0,1.0,1.0,0.0,0.0,1.0,0.0,0.0,1.0,1.1856,26.0,0.0,0.0,0.0,59.999996,0.0,26.0,26.0,26.0,26.0,0.059125000000000094,0.2642,-0.0222,291.336,-2.6795,-2.6407499999999997,-1.5786,-1.5191,-154.69,215.39499999999998,190.180625,0.0,0.0,0.0,0.0,0.0719333333333334,-5.498166666666667,-5.498166666666667,-0.6684,0.617,-0.02733333333333343,-1.627,70.315,0.025500000000000002,-0.20897500000000002,-0.21999999999999975,100.0,1.0,1.0,216.73333333333335,0.0,0.0,0.0,0.0,0.0,0.0,0.0,9186.5,0.0,55.0,5.0,253.11,1.0,0.0,0.0,0.0,0.0,0.0,1.0,0.0,1.782,1.782,0.0,0.0,1.0,55.0,616.79921,10000.0,85.000001,85.000001,85.000001,85.000001,395.0,0.0,0.0,0.0,1.0,55.556,51.453,51.453,46.768,46.768,34.0,-22.9675,25.532,-28.983333333333334,31.5125,0.0,1781.669,-0.254999999999999,100.0,28.618,29.046,43.537,44.05,0.0,1.0,100.0,0.0,0.0,0.0,0.0,3161.142857142857,3161.7,4277.0,4327.5,305.2575,304.55375,314.659,314.18625,22.0716,20.7079,22.1532,21.6238,314.999998,314.999998,324.999988,324.999988,99.55742857142857,99.5076,99.57118571428572,99.55008571428571,0.10966666666666658,-0.038000000000000034,-0.08833333333333337,0.14016666666666677,-0.036666666666668846,-0.058749999999996305,1.5106666666666668,1.4905,38.948,30.424666666666667,39.458,36.1485,55.227000000000004,35.838,60.623,53.623,53.224000000000004,34.947,59.1665,51.9255,52.4,34.5005,59.039,51.330333333333336,-0.10699999999999998,-0.05900000000000016,0.10812000000000001,0.106855,0.0,220.085,220.115,216.73333333333335,216.73333333333335,0.0,0.0
36,0.0,1.0,0.0,1.0,1.0,0.0,0.0,1.0,0.0,0.0,1.0,1.1856,26.0,0.0,0.0,0.0,59.999996,0.0,26.0,26.0,26.0,26.0,0.02574999999999994,0.25980000000000003,-0.033800000000000004,291.275,-2.7686,-2.61275,-1.6364,-1.5991,-152.37,215.4,190.1605,0.0,0.0,0.0,0.0,0.07326666666666659,-5.498166666666667,-5.498166666666667,-0.6653,-0.6533333333333334,-0.04811111111111144,0.3620000000000001,70.4,0.0211,-0.20595000000000002,-0.15799999999999947,100.0,1.0,1.0,216.83333333333331,0.0,0.0,0.0,0.0,0.0,0.0,0.0,9190.7,0.0,55.0,5.0,253.41333333333336,0.0,0.0,0.0,0.0,0.0,0.0,1.0,0.0,1.8150000000000013,1.8150000000000013,0.0,0.0,0.0,55.0,616.79921,10000.0,85.000001,85.000001,85.000001,85.000001,395.0,0.0,0.0,0.0,1.0,66.667,52.338,52.338,45.944,45.944,34.0,-22.56,23.68,-32.25333333333333,34.16,0.0,1781.635,-0.19000000000000128,100.0,28.719,28.560000000000002,44.144999999999996,44.36,0.0,1.0,100.0,0.0,0.0,0.0,0.0,3000.857142857143,3030.3,4572.25,4444.6,305.845,305.3725,313.86225,313.91025,22.0774,20.7116,22.1602,21.6299,314.999998,314.999998,324.999988,324.999988,99.55742857142857,99.50761666666666,99.57128571428571,99.55018571428572,0.1030000000000002,-0.035666666666666735,-0.07899999999999996,0.14300000000000002,-0.023333333333326323,-0.03999999999999915,1.4386666666666668,1.4335,38.983999999999995,30.447333333333333,39.501,36.187,55.22,35.8615,60.6485,53.6635,53.217,34.9685,59.1905,51.965,52.391999999999996,34.5215,59.0605,51.36866666666667,-0.09450000000000003,-0.06800000000000006,0.100555,0.114585,0.0,220.325,220.325,216.83333333333334,216.83333333333331,0.0,0.0
