,ABS Active,ABS Enabled,AID Allow Tire Blankets,AID Auto Blip,AID Auto Clutch,AID Auto Shift,AID Fuel Rate,AID Ideal Line,AID Mech Damage,AID Stability,AID Tire Wear Rate,Air Density,Air Temp,Ballast,Best Lap Delta,Best Lap Time,Brake Bias,Brake Pos,Brake Temp FL,Brake Temp FR,Brake Temp RL,Brake Temp RR,CG Accel Lateral,CG Accel Longitudinal,CG Accel Vertical,CG Height,Camber FL,Camber FR,Camber RL,Camber RR,Car Coord X,Car Coord Y,Car Coord Z,Car Damage Front,Car Damage Left,Car Damage Rear,Car Damage Right,Car Pos Norm,Caster FL,Caster FR,Chassis Pitch Angle,Chassis Pitch Rate,Chassis Roll Angle,Chassis Roll Rate,Chassis Velocity X,Chassis Velocity Y,Chassis Velocity Z,Chassis Yaw Rate,Clutch Pos,DRS Active,DRS Available,Drive Train Speed,ERS Heat Charging,ERS Is Charging,ERS Max Energy,ERS Power Level,ERS Recovery Level,Engine Brake Setting,Engine Limiter,Engine RPM,Flags,Fuel Level,Gear,Ground Speed,HR Sample Clock,In Pit,KERS Charge,KERS Deployed Energy,KERS Input,KERS Max Energy,LR Sample Clock,Lap Invalidated,Lap Time,Lap Time2,Last Lap Time,Last Sector Time,MR Sample Clock,Max Fuel,Max Power,Max RPM,Max Sus Travel FL,Max Sus Travel FR,Max Sus Travel RL,Max Sus Travel RR,Max Torque,Max Turbo Boost,Num Tires Off Track,Penalties Enabled,Position,Raw Data Sample Rate,Ride Height FL,Ride Height FR,Ride Height RL,Ride Height RR,Road Temp,Self Align Torque FL,Self Align Torque FR,Self Align Torque RL,Self Align Torque RR,Session Lap Count,Session Time Left,Steering Angle,Surface Grip,Suspension Travel FL,Suspension Travel FR,Suspension Travel RL,Suspension Travel RR,TC Active,TC Enabled,Throttle Pos,Tire Dirt Level FL,Tire Dirt Level FR,Tire Dirt Level RL,Tire Dirt Level RR,Tire Load FL,Tire Load FR,Tire Load RL,Tire Load RR,Tire Loaded Radius FL,Tire Loaded Radius FR,Tire Loaded Radius RL,Tire Loaded Radius RR,Tire Pressure FL,Tire Pressure FR,Tire Pressure RL,Tire Pressure RR,Tire Radius FL,Tire Radius FR,Tire Radius RL,Tire Radius RR,Tire Rubber Grip FL,Tire Rubber Grip FR,Tire Rubber Grip RL,Tire Rubber Grip RR,Tire Slip Angle FL,Tire Slip Angle FR,Tire Slip Angle RL,Tire Slip Angle RR,Tire Slip Ratio FL,Tire Slip Ratio FR,Tire Slip Ratio RL,Tire Slip Ratio RR,Tire Temp Core FL,Tire Temp Core FR,Tire Temp Core RL,Tire Temp Core RR,Tire Temp Inner FL,Tire Temp Inner FR,Tire Temp Inner RL,Tire Temp Inner RR,Tire Temp Middle FL,Tire Temp Middle FR,Tire Temp Middle RL,Tire Temp Middle RR,Tire Temp Outer FL,Tire Temp Outer FR,Tire Temp Outer RL,Tire Temp Outer RR,Toe In FL,Toe In FR,Toe In RL,Toe In RR,Turbo Boost,Wheel Angular Speed FL,Wheel Angular Speed FR,Wheel Angular Speed RL,Wheel Angular Speed RR,Wind Direction,Wind Speed
0,0.0,0.0,0.0,1.0,1.0,0.0,0.0,1.0,0.0,100.0,1.0,1.1856,26.0,0.0,0.0,0.0,68.0,0.0,26.0,26.0,26.0,26.0,-0.09411111111111103,0.30390000000000006,0.015266666666666666,293.961,-2.7084,-2.482,-1.5087000000000002,-1.5378,-275.72,216.155,190.98775,0.0,0.0,0.0,0.0,0.0015666666666666667,-5.498166666666667,-5.498166666666667,-0.5495,1.631,-0.01650000000000018,-1.201,65.51,-0.046700000000000005,-0.2119,0.9779999999999998,100.0,1.0,1.0,202.25666666666666,0.0,0.0,0.0,0.0,0.0,0.0,0.0,8573.0,0.0,55.0,5.0,235.80666666666667,0.0,0.0,0.0,0.0,0.0,0.0,0.0,0.0,0.0030000000000001137,0.0030000000000001137,0.0,0.0,0.0,55.0,616.79921,10000.0,85.0,85.0,85.0,85.0,395.0,0.0,0.0,0.0,1.0,20.0,52.673,52.673,49.561,49.561,34.0,-26.814999999999998,21.201999999999998,-31.23,24.0375,0.0,1782.959,0.7850000000000001,100.0,27.623,27.021,40.501,40.355000000000004,0.0,0.0,100.0,0.0,0.0,0.0,0.0,3025.5714285714284,3345.7,4170.125,4007.1000000000004,305.6635,304.0635,314.7575,314.82025,21.77611111111111,20.5149,21.7648,21.3054,314.99999,314.99999,324.99998,324.99998,99.55885714285715,99.50721666666666,99.56478571428572,99.54485714285714,-0.010666666666666602,-0.12649999999999995,-0.17149999999999999,0.049833333333333174,-0.05333333333332746,-0.05833333333333002,1.5404999999999998,1.5765,37.101,29.2185,37.03,34.158500000000004,56.272,34.4985,58.920500000000004,51.4705,54.19,33.674,57.5535,49.838499999999996,53.361000000000004,33.2425,57.518,49.268,-0.01849999999999996,-0.13750000000000018,0.10528000000000001,0.10515000000000001,0.0,205.305,205.23000000000002,202.25666666666666,202.25666666666666,0.0,0.0
1,0.0,0.0,0.0,1.0,1.0,0.0,0.0,1.0,0.0,100.0,1.0,1.1856,26.0,0.0,0.0,0.0,68.000001,0.0,26.0,26.0,26.0,26.0,-0.10688888888888892,0.3204,0.22416666666666665,292.999,-2.6369,-2.810888888888889,-1.5151,-1.5653000000000001,-272.18,216.1625,190.9665,0.0,0.0,0.0,0.0,0.003633333333333334,-5.498166666666667,-5.498166666666667,-0.49670000000000003,-0.9904999999999999,-0.06974999999999998,-0.9630000000000001,65.674,-0.0601,-0.19485000000000002,1.4179999999999993,100.0,1.0,1.0,202.41666666666669,0.0,0.0,0.0,0.0,0.0,0.0,0.0,8579.8,0.0,55.0,5.0,236.39666666666668,1.0,0.0,0.0,0.0,0.0,0.0,0.0,0.0,0.05699999999999861,0.05699999999999861,0.0,0.0,1.0,55.0,616.79921,10000.0,85.000001,85.000001,85.000001,85.000001,395.0,0.0,0.0,0.0,1.0,166.665,53.635,53.635,48.248,48.248,34.0,-27.9425,17.574,-35.06666666666666,29.075,0.0,1782.906,0.995000000000001,100.0,27.605,26.887,42.821,41.732,0.0,0.0,100.0,0.0,0.0,0.0,0.0,3146.857142857143,2643.1,4392.25,4705.5,305.335,306.43425,314.09775,313.104,21.786666666666665,20.5203,21.7762,21.315,314.999998,314.999998,324.999988,324.999988,99.55887142857142,99.50723333333333,99.56492857142857,99.545,-0.02400000000000002,-0.15274999999999994,-0.18599999999999994,0.03166666666666673,-0.07333333333333059,-0.03499999999999659,1.3900000000000001,1.446,37.166,29.252,37.101,34.219,56.254999999999995,34.5415,58.97,51.5405,54.174,33.714,57.6,49.9055,53.344,33.2805,57.561,49.333666666666666,-0.0015000000000000568,-0.15200000000000014,0.105395,0.10526,0.0,205.78,205.655,202.41666666666669,202.41666666666669,0.0,0.0
2,0.0,0.0,0.0,1.0,1.0,0.0,0.0,1.0,0.0,100.0,1.0,1.1856,26.0,0.0,0.0,0.0,68.000001,0.0,26.0,26.0,26.0,26.0,-0.1464444444444445,0.2872000000000001,-0.05413333333333334,293.777,-2.58865,-2.794666666666667,-1.4888,-1.6514,-269.02,216.16500000000002,190.948875,0.0,0.0,0.0,0.0,0.0054666666666666665,-5.498166666666667,-5.498166666666667,-0.5547000000000001,0.023499999999999965,-0.06412500000000021,1.63,65.806,-0.0791,-0.2592,1.8020000000000005,100.0,1.0,1.0,203.36333333333334,0.0,0.0,0.0,0.0,0.0,0.0,0.0,8619.8,0.0,55.0,5.0,236.87333333333333,0.0,0.0,0.0,0.0,0.0,0.0,0.0,0.0,0.10500000000000043,0.10500000000000043,0.0,0.0,0.0,55.0,616.79921,10000.0,85.000001,85.000001,85.000001,85.000001,395.0,0.0,0.0,0.0,1.0,333.33500000000004,52.383,52.383,50.369,50.369,34.0,-32.0675,18.584000000000003,-29.4,19.4375,0.0,1782.856,0.9699999999999989,100.0,28.36,26.916,42.622,41.236000000000004,0.0,0.0,100.0,0.0,0.0,0.0,0.0,3454.857142857143,2886.7,3744.625,3571.6,304.3035,305.60275,315.652,316.04775,21.796333333333333,20.525,21.786,21.3232,314.999998,314.999998,324.999988,324.999988,99.55887142857142,99.50725,99.56505714285714,99.54512857142858,-0.05033333333333312,-0.17374999999999996,-0.22616666666666663,-0.0016666666666665941,-0.05333333333332746,-0.06333333333333258,1.6295000000000002,1.7,37.227000000000004,29.281,37.162,34.269999999999996,56.244,34.579,59.006,51.5935,54.164,33.7485,57.6335,49.956,53.334,33.3135,57.592,49.382999999999996,0.002000000000000224,-0.15399999999999991,0.102745,0.10852500000000001,0.0,206.20499999999998,206.055,203.36333333333334,203.36333333333334,0.0,0.0
3,0.0,0.0,0.0,1.0,1.0,0.0,0.0,1.0,0.0,100.0,1.0,1.1856,26.0,0.0,0.0,0.0,68.000001,0.0,26.0,26.0,26.0,26.0,-0.1561111111111111,0.3145,-0.0385,293.442,-2.62875,-2.700222222222222,-1.4951,-1.6043,-265.86,216.16500000000002,190.93025,0.0,0.0,0.0,0.0,0.0073,-5.498166666666667,-5.498166666666667,-0.5088,0.7124999999999999,-0.026000000000000245,-0.9359999999999999,65.95,-0.0985,-0.198875,1.556,100.0,1.0,1.0,203.46666666666667,0.0,0.0,0.0,0.0,0.0,0.0,0.0,8624.2,0.0,55.0,5.0,237.39,1.0,0.0,0.0,0.0,0.0,0.0,0.0,0.0,0.1529999999999987,0.1529999999999987,0.0,0.0,1.0,55.0,616.79921,10000.0,85.000001,85.000001,85.000001,85.000001,395.0,0.0,0.0,0.0,1.0,333.33500000000004,53.467,53.467,48.157,48.157,34.0,-27.195,16.524,-36.623333333333335,22.875,0.0,1782.809,0.9649999999999999,100.0,28.003,27.038,42.419,41.266,0.0,0.0,100.0,0.0,0.0,0.0,0.0,2973.0,2761.7,4394.75,4173.7,305.835,305.83775,314.15325,314.473,21.805555555555557,20.5298,21.7958,21.3315,314.999998,314.999998,324.999988,324.999988,99.55887142857142,99.50726666666667,99.5652,99.54527142857143,-0.052000000000000046,-0.1865,-0.22916666666666663,-0.012499999999999956,-0.06499999999999773,-0.04833333333333201,1.4785,1.5565,37.285,29.311500000000002,37.224000000000004,34.322,56.230000000000004,34.6205,59.0435,51.6525,54.150999999999996,33.786500000000004,57.6685,50.0125,53.32,33.3495,57.6245,49.43866666666666,-0.007500000000000062,-0.15050000000000008,0.10339500000000001,0.10292000000000001,0.0,206.67000000000002,206.54500000000002,203.46666666666667,203.46666666666667,0.0,0.0
4,0.0,0.0,0.0,1.0,1.0,0.0,0.0,1.0,0.0,100.0,1.0,1.1856,26.0,0.0,0.0,0.0,68.000001,0.0,26.0,26.0,26.0,26.0,-0.1714444444444444,0.29390000000000005,-0.0216,293.594,-2.64715,-2.7987777777777776,-1.5142,-1.613,-262.49,216.16,190.910625,0.0,0.0,0.0,0.0,0.009266666666666668,-5.498166666666667,-5.498166666666667,-0.5409,-0.9910000000000001,-0.09025000000000016,-0.7210000000000001,66.096,-0.10500000000000001,-0.235375,1.6160000000000005,100.0,1.0,1.0,204.0366666666667,0.0,0.0,0.0,0.0,0.0,0.0,0.0,8648.4,0.0,55.0,5.0,237.92000000000002,0.0,0.0,0.0,0.0,0.0,0.0,0.0,0.0,0.20400000000000063,0.20400000000000063,0.0,0.0,0.0,55.0,616.79921,10000.0,85.000001,85.000001,85.000001,85.000001,395.0,0.0,0.0,0.0,1.0,333.33500000000004,53.131,53.131,48.584,48.584,34.0,-30.6525,18.572000000000003,-33.80666666666667,20.5775,0.0,1782.758,1.0749999999999993,100.0,27.89,26.581,43.054,41.397,0.0,0.0,100.0,0.0,0.0,0.0,0.0,3215.5714285714284,2950.1,4127.25,3699.6,305.0945,305.47925,314.66275,315.608,21.815333333333335,20.5349,21.8064,21.3404,314.999998,314.999998,324.999988,324.999988,99.55888571428571,99.5073,99.56534285714285,99.54541428571429,-0.06766666666666676,-0.18474999999999997,-0.22166666666666657,0.0040000000000000036,-0.045000000000001705,-0.05833333333333002,1.5270000000000001,1.593,37.346000000000004,29.343,37.29,34.376999999999995,56.215,34.6625,59.0865,51.7125,54.135999999999996,33.825,57.709,50.07,53.304,33.387,57.6625,49.495,0.013500000000000068,-0.15900000000000025,0.10297500000000001,0.11337000000000001,0.0,207.065,206.935,204.0366666666667,204.0366666666667,0.0,0.0
5,0.0,0.0,0.0,1.0,1.0,0.0,0.0,1.0,0.0,100.0,1.0,1.1856,26.0,0.0,0.0,0.0,68.000001,0.0,26.0,26.0,26.0,26.0,-0.1791111111111111,0.29700000000000015,-0.014733333333333334,293.61,-2.65125,-2.776777777777778,-1.4944,-1.6035000000000001,-258.92,216.15,190.889,0.0,0.0,0.0,0.0,0.011333333333333334,-5.498166666666667,-5.498166666666667,-0.537,0.41900000000000004,-0.09787500000000016,1.0120000000000005,66.252,-0.11860000000000001,-0.21555000000000002,1.6340000000000003,100.0,1.0,1.0,204.47333333333333,0.0,0.0,0.0,0.0,0.0,0.0,0.0,8666.9,0.0,55.0,5.0,238.4766666666667,1.0,0.0,0.0,0.0,0.0,0.0,0.0,0.0,0.2579999999999991,0.2579999999999991,0.0,0.0,1.0,55.0,616.79921,10000.0,85.000001,85.000001,85.000001,85.000001,395.0,0.0,0.0,0.0,1.0,166.665,53.375,53.375,48.996,48.996,34.0,-29.345,18.092,-34.59,22.03,0.0,1782.705,0.5749999999999993,100.0,28.071,26.512999999999998,42.797,40.919,0.0,0.0,100.0,0.0,0.0,0.0,0.0,3153.142857142857,2821.8,4166.5,4077.7,305.1605,305.91125,314.68275,314.77425,21.826,20.5402,21.8174,21.3495,314.999998,314.999998,324.999988,324.999988,99.55888571428571,99.50731666666667,99.5655,99.54554285714286,-0.04733333333333323,-0.16774999999999995,-0.239,-0.013833333333333364,-0.03333333333333144,-0.05333333333332746,1.5314999999999999,1.582,37.412,29.3765,37.358999999999995,34.4345,56.203,34.707499999999996,59.129999999999995,51.772999999999996,54.123999999999995,33.8665,57.75,50.128,53.291,33.426,57.7005,49.55166666666666,-0.020499999999999963,-0.12250000000000005,0.10412,0.11553000000000001,0.0,207.59,207.45499999999998,204.47333333333333,204.47333333333333,0.0,0.0
6,0.0,0.0,0.0,1.0,1.0,0.0,0.0,1.0,0.0,100.0,1.0,1.1856,26.0,0.0,0.0,0.0,68.000001,0.0,26.0,26.0,26.0,26.0,-0.16788888888888887,0.2884,-0.001966666666666667,293.472,-2.61605,-2.788555555555556,-1.5282,-1.6054000000000002,-255.93,216.14,190.870875,0.0,0.0,0.0,0.0,0.013066666666666666,-5.498166666666667,-5.498166666666667,-0.5311,0.11249999999999993,-0.09087500000000004,-0.6389999999999998,66.381,-0.1226,-0.2139,1.4320000000000004,100.0,1.0,1.0,204.87333333333333,0.0,0.0,0.0,0.0,0.0,0.0,0.0,8683.8,0.0,55.0,5.0,238.94,0.0,0.0,0.0,0.0,0.0,0.0,0.0,0.0,0.3030000000000008,0.3030000000000008,0.0,0.0,0.0,55.0,616.79921,10000.0,85.000001,85.000001,85.000001,85.000001,395.0,0.0,0.0,0.0,1.0,333.33500000000004,53.162,53.162,48.737,48.737,34.0,-30.335,18.256,-35.733333333333334,20.8325,0.0,1782.659,0.495000000000001,100.0,27.843,26.695,42.866,41.278,0.0,0.0,100.0,0.0,0.0,0.0,0.0,3281.285714285714,2834.2,4190.125,3951.4,304.955,305.659,314.67525,315.011,21.834777777777777,20.5447,21.8267,21.3574,314.999998,314.999998,324.999988,324.999988,99.5589,99.50731666666667,99.56562857142858,99.54567142857142,-0.05133333333333323,-0.17374999999999996,-0.24916666666666665,-0.024499999999999966,-0.054999999999999716,-0.036666666666668846,1.5255,1.562,37.467,29.4045,37.417,34.4835,56.191,34.7445,59.167500000000004,51.8275,54.114000000000004,33.9005,57.7845,50.18,53.28,33.4585,57.7325,49.602000000000004,-0.03200000000000003,-0.11350000000000016,0.106355,0.112585,0.0,207.985,207.85500000000002,204.87333333333333,204.87333333333333,0.0,0.0
7,0.0,0.0,0.0,1.0,1.0,0.0,0.0,1.0,0.0,100.0,1.0,1.1856,26.0,0.0,0.0,0.0,68.000001,0.0,26.0,26.0,26.0,26.0,-0.1497777777777778,0.28490000000000015,0.046233333333333335,293.213,-2.5796,-2.752222222222222,-1.4863,-1.6513,-252.54,216.1225,190.8505,0.0,0.0,0.0,0.0,0.015033333333333334,-5.498166666666667,-5.498166666666667,-0.5351,-0.02400000000000002,-0.08099999999999996,1.0250000000000004,66.527,-0.112,-0.223725,1.0279999999999996,100.0,1.0,1.0,205.2866666666667,0.0,0.0,0.0,0.0,0.0,0.0,0.0,8701.3,0.0,55.0,5.0,239.46666666666667,1.0,0.0,0.0,0.0,0.0,0.0,0.0,0.0,0.3539999999999992,0.3539999999999992,0.0,0.0,1.0,55.0,616.79921,10000.0,85.000001,85.000001,85.000001,85.000001,395.0,0.0,0.0,0.0,1.0,333.33500000000004,52.811,52.811,48.843,48.843,34.0,-28.585,20.278,-33.57333333333333,23.067500000000003,0.0,1782.608,0.1750000000000007,100.0,28.146,26.576999999999998,43.078,41.415,0.0,0.0,100.0,0.0,0.0,0.0,0.0,3265.4285714285716,2997.8,4080.5,4043.4,304.7635,305.34475,314.8205,314.79,21.844666666666665,20.5498,21.8372,21.3663,314.999998,314.999998,324.999988,324.999988,99.5589,99.50735,99.56577142857142,99.54582857142857,-0.014666666666666606,-0.14225,-0.23366666666666658,-0.004833333333333356,-0.04999999999999716,-0.04999999999999716,1.516,1.5655,37.528999999999996,29.436500000000002,37.482,34.539500000000004,56.178,34.7855,59.209,51.8885,54.101,33.9385,57.823499999999996,50.2385,53.266,33.495,57.769,49.659333333333336,-0.062000000000000055,-0.08850000000000025,0.112155,0.10897000000000001,0.0,208.41,208.305,205.2866666666667,205.2866666666667,0.0,0.0
8,0.0,0.0,0.0,1.0,1.0,0.0,0.0,1.0,0.0,100.0,1.0,1.1856,26.0,0.0,0.0,0.0,68.000001,0.0,26.0,26.0,26.0,26.0,-0.10699999999999998,0.2875000000000001,0.02766666666666667,293.488,-2.663,-2.7484444444444445,-1.4705,-1.6331,-248.95,216.1,190.828625,0.0,0.0,0.0,0.0,0.017133333333333334,-5.498166666666667,-5.498166666666667,-0.5366000000000001,-0.5700000000000001,-0.0638749999999999,0.806,66.681,-0.09290000000000001,-0.216,0.48600000000000065,100.0,1.0,1.0,205.70333333333332,0.0,0.0,0.0,0.0,0.0,0.0,0.0,8719.1,0.0,55.0,5.0,240.0233333333333,0.0,0.0,0.0,0.0,0.0,0.0,0.0,0.0,0.40800000000000125,0.40800000000000125,0.0,0.0,0.0,55.0,616.79921,10000.0,85.000001,85.000001,85.000001,85.000001,395.0,0.0,0.0,0.0,1.0,166.665,53.619,53.619,48.233000000000004,48.233000000000004,34.0,-26.1175,20.546,-32.306666666666665,25.067500000000003,0.0,1782.555,0.030000000000001137,100.0,27.708,26.533,43.1,41.538,0.0,0.0,100.0,0.0,0.0,0.0,0.0,2994.857142857143,2959.2,4120.5,4112.5,305.701,305.50325,314.69075,314.614,21.855,20.5552,21.848300000000002,21.3757,314.999998,314.999998,324.999988,324.999988,99.5589,99.50736666666667,99.56592857142857,99.54597142857143,-0.0076666666666667105,-0.12649999999999995,-0.2008333333333333,0.025666666666666726,-0.05333333333332746,-0.054999999999999716,1.4899999999999998,1.5185,37.594,29.47,37.552,34.5985,56.161,34.828,59.253,51.9525,54.084,33.977000000000004,57.8645,50.2995,53.248999999999995,33.532,57.8065,49.719,-0.0714999999999999,-0.07350000000000012,0.10148000000000001,0.11257500000000001,0.0,208.865,208.81,205.70333333333332,205.70333333333332,0.0,0.0
9,0.0,0.0,0.0,1.0,1.0,0.0,0.0,1.0,0.0,100.0,1.0,1.1856,26.0,0.0,0.0,0.0,68.000001,0.0,26.0,26.0,26.0,26.0,-0.0862222222222222,0.2836000000000001,-0.021566666666666668,293.152,-2.6545,-2.759888888888889,-1.5283,-1.5914000000000001,-245.94,216.0775,190.81,0.0,0.0,0.0,0.0,0.018866666666666667,-5.498166666666667,-5.498166666666667,-0.5425,0.55,-0.0674999999999999,-0.496,66.806,-0.07590000000000001,-0.21815,0.4920000000000009,100.0,1.0,1.0,206.21,0.0,0.0,0.0,0.0,0.0,0.0,0.0,8740.5,0.0,55.0,5.0,240.47333333333333,1.0,0.0,0.0,0.0,0.0,0.0,0.0,0.0,0.4529999999999994,0.4529999999999994,0.0,0.0,1.0,55.0,616.79921,10000.0,85.000001,85.000001,85.000001,85.000001,395.0,0.0,0.0,0.0,1.0,333.33500000000004,52.46,52.46,49.149,49.149,34.0,-29.205,21.292,-31.173333333333336,23.84,0.0,1782.509,-0.16000000000000014,100.0,28.017,27.092,42.72,41.606,0.0,0.0,100.0,0.0,0.0,0.0,0.0,3432.714285714286,2938.8,4029.125,3992.2,304.5015,305.312,315.0765,314.9235,21.863777777777777,20.5599,21.8574,21.383499999999998,314.999998,314.999998,324.999988,324.999988,99.55891428571428,99.50736666666667,99.56605714285715,99.54608571428571,0.018000000000000238,-0.11324999999999996,-0.19266666666666665,0.03483333333333327,-0.046666666666666856,-0.05666666666667197,1.5755,1.5855,37.647999999999996,29.499499999999998,37.608999999999995,34.647,56.147999999999996,34.8645,59.286500000000004,52.0045,54.073,34.0105,57.896,50.3495,53.236999999999995,33.564,57.835499999999996,49.76766666666666,-0.09050000000000002,-0.06850000000000023,0.10228500000000001,0.10966000000000001,0.0,209.26,209.22500000000002,206.21,206.21,0.0,0.0
10,0.0,0.0,0.0,1.0,1.0,0.0,0.0,1.0,0.0,100.0,1.0,1.1856,26.0,0.0,0.0,0.0,68.000001,0.0,26.0,26.0,26.0,26.0,-0.06733333333333336,0.28180000000000005,0.04883333333333333,292.999,-2.6207,-2.7488888888888887,-1.5007000000000001,-1.5738,-242.53,216.0525,190.78925,0.0,0.0,0.0,0.0,0.020866666666666665,-5.498166666666667,-5.498166666666667,-0.5187,-0.4155,-0.028249999999999886,1.8650000000000002,66.953,-0.056,-0.2061,0.0,100.0,1.0,1.0,206.44666666666666,0.0,0.0,0.0,0.0,0.0,0.0,0.0,8750.6,0.0,55.0,5.0,241.0,0.0,0.0,0.0,0.0,0.0,0.0,1.0,0.0,0.5040000000000013,0.5040000000000013,0.0,0.0,0.0,55.0,616.79921,10000.0,85.000001,85.000001,85.000001,85.000001,395.0,0.0,0.0,0.0,1.0,166.665,53.467,53.467,47.699,47.699,34.0,-22.695,21.848,-32.526666666666664,27.5075,0.0,1782.46,-0.36499999999999844,100.0,28.036,26.91,43.197,42.214,0.0,0.0,100.0,0.0,0.0,0.0,0.0,2896.857142857143,2903.5,4278.625,4297.8,305.9135,305.6545,314.3085,314.20175,21.873555555555555,20.5651,21.868,21.3927,314.999998,314.999998,324.999988,324.999988,99.55892857142857,99.50738333333334,99.5662,99.54622857142857,0.04899999999999993,-0.08250000000000002,-0.16633333333333333,0.058499999999999996,-0.03333333333333144,-0.061666666666667425,1.4714999999999998,1.4789999999999999,37.71,29.532,37.675,34.704,56.134,34.903,59.3285,52.068,54.059,34.046,57.9355,50.4105,53.222,33.598,57.872,49.827333333333335,-0.10949999999999993,-0.04499999999999993,0.11087000000000001,0.110685,0.0,209.69,209.68,206.44666666666666,206.44666666666666,0.0,0.0
11,0.0,0.0,0.0,1.0,1.0,0.0,0.0,1.0,0.0,100.0,1.0,1.1856,26.0,0.0,0.0,0.0,68.000001,0.0,26.0,26.0,26.0,26.0,-0.011888888888888949,0.26770000000000005,-0.09736666666666667,293.549,-2.6774,-2.715,-1.5643,-1.5555,-239.11,216.0225,190.768625,0.0,0.0,0.0,0.0,0.022600000000000002,-5.498166666666667,-5.498166666666667,-0.5592,-0.2470000000000001,0.002375000000000016,-0.5489999999999999,67.092,-0.029300000000000003,-0.23572500000000002,-0.1720000000000006,100.0,1.0,1.0,207.16333333333333,0.0,0.0,0.0,0.0,0.0,0.0,0.0,8780.8,0.0,55.0,5.0,241.50333333333333,1.0,0.0,0.0,0.0,0.0,0.0,1.0,0.0,0.5549999999999997,0.5549999999999997,0.0,0.0,1.0,55.0,616.79921,10000.0,85.000001,85.000001,85.000001,85.000001,395.0,0.0,0.0,0.0,1.0,333.33500000000004,52.933,52.933,49.225,49.225,34.0,-24.95,23.18,-26.486666666666665,24.43,0.0,1782.406,-0.33500000000000085,100.0,27.588,27.28,42.632,42.275,0.0,0.0,100.0,0.0,0.0,0.0,0.0,3138.714285714286,3022.1,3756.25,3852.6000000000004,305.402,305.06575,315.74475,315.2565,21.883111111111113,20.5704,21.8783,21.4016,314.999998,314.999998,324.999988,324.999988,99.55892857142857,99.5074,99.56635714285714,99.54638571428572,0.05433333333333357,-0.07474999999999998,-0.13849999999999996,0.07966666666666677,-0.05833333333333002,-0.04333333333332945,1.616,1.6165,37.769999999999996,29.564999999999998,37.739000000000004,34.76,56.117000000000004,34.944,59.3665,52.131,54.043,34.084,57.9705,50.471000000000004,53.205,33.634,57.903999999999996,49.88666666666667,-0.10199999999999987,-0.046499999999999986,0.10641,0.10747500000000001,0.0,210.12,210.10500000000002,207.16333333333333,207.16333333333333,0.0,0.0
12,0.0,0.0,0.0,1.0,1.0,0.0,0.0,1.0,0.0,100.0,1.0,1.1856,26.0,0.0,0.0,0.0,68.000001,0.0,26.0,26.0,26.0,26.0,0.002555555555555644,0.2882,0.022366666666666667,293.045,-2.7316,-2.7096666666666667,-1.5263,-1.5772000000000002,-235.89,215.9975,190.747875,0.0,0.0,0.0,0.0,0.025466666666666665,-5.498166666666667,-5.498166666666667,-0.5456,0.29600000000000004,-0.012500000000000178,-0.8050000000000002,67.229,-0.011000000000000001,-0.20635,-0.16999999999999993,100.0,1.0,1.0,207.38666666666666,0.0,0.0,0.0,0.0,0.0,0.0,0.0,8790.3,0.0,55.0,5.0,241.99333333333334,0.0,0.0,0.0,0.0,0.0,0.0,1.0,0.0,0.602999999999998,0.602999999999998,0.0,0.0,0.0,55.0,616.79921,10000.0,85.000001,85.000001,85.000001,85.000001,395.0,0.0,0.0,0.0,1.0,333.33500000000004,52.917,52.917,48.065,48.065,34.0,-25.165,24.061999999999998,-29.213333333333335,28.267500000000002,0.0,1782.359,-0.34999999999999787,100.0,27.452,27.43,42.484,42.213,0.0,0.0,100.0,0.0,0.0,0.0,0.0,3189.0,3026.2,4246.125,4121.4,305.2855,305.07175,314.565,314.59525,21.892222222222223,20.575499999999998,21.8881,21.41,314.999998,314.999998,324.999988,324.999988,99.55892857142857,99.5074,99.56648571428572,99.54651428571428,0.07066666666666643,-0.05225000000000002,-0.11249999999999993,0.10099999999999998,-0.03833333333332689,-0.02833333333332888,1.5350000000000001,1.5305,37.826,29.597,37.8,34.8125,56.104,34.978,59.400999999999996,52.1845,54.031,34.1155,58.0025,50.522,53.192,33.664,57.9335,49.937,-0.10050000000000003,-0.044500000000000206,0.103415,0.10641,0.0,210.54000000000002,210.535,207.38666666666666,207.38666666666666,0.0,0.0
13,0.0,0.0,0.0,1.0,1.0,0.0,0.0,1.0,0.0,100.0,1.0,1.1856,26.0,0.0,0.0,0.0,68.000001,0.0,26.0,26.0,26.0,26.0,0.0038888888888888307,0.29200000000000004,0.0526,292.633,-2.7094,-2.7023333333333333,-1.5669,-1.5645,-232.46,215.9675,190.726125,0.0,0.0,0.0,0.0,0.02673333333333333,-5.498166666666667,-5.498166666666667,-0.538,-0.06099999999999994,-0.0031249999999998224,1.0700000000000003,67.37100000000001,-0.00030000000000000003,-0.21255000000000002,-0.31400000000000006,100.0,1.0,1.0,207.76333333333332,0.0,0.0,0.0,0.0,0.0,0.0,0.0,8806.3,0.0,55.0,5.0,242.50666666666666,1.0,0.0,0.0,0.0,0.0,0.0,1.0,0.0,0.6539999999999999,0.6539999999999999,0.0,0.0,1.0,55.0,616.79921,10000.0,85.000001,85.000001,85.000001,85.000001,395.0,0.0,0.0,0.0,1.0,333.33500000000004,52.582,52.582,47.928,47.928,34.0,-23.3525,25.788,-28.946666666666665,31.1525,0.0,1782.309,-0.495000000000001,100.0,27.905,27.494,42.796,42.620000000000005,0.0,0.0,100.0,0.0,0.0,0.0,0.0,3102.714285714286,3128.7,4173.625,4332.4,305.3385,304.92625,314.61875,314.14525,21.901888888888887,20.581,21.898600000000002,21.4191,314.999998,314.999998,324.999988,324.999988,99.55894285714285,99.5074,99.56662857142857,99.54665714285714,0.09566666666666634,-0.027000000000000024,-0.10199999999999998,0.12349999999999994,-0.036666666666668846,-0.04833333333333201,1.4985,1.4909999999999999,37.887,29.6315,37.866,34.8695,56.092,35.016,59.44,52.248,54.019,34.1505,58.039500000000004,50.583,53.179,33.698,57.9675,49.99666666666667,-0.11450000000000005,-0.039000000000000146,0.10873000000000001,0.11100000000000002,0.0,210.965,210.97500000000002,207.76333333333332,207.76333333333332,0.0,0.0
14,0.0,0.0,0.0,1.0,1.0,0.0,0.0,1.0,0.0,100.0,1.0,1.1856,26.0,0.0,0.0,0.0,68.000001,0.0,26.0,26.0,26.0,26.0,0.030333333333333323,0.2812000000000001,-0.0059,292.847,-2.70975,-2.644222222222222,-1.5707,-1.5394,-229.01999999999998,215.94,190.704875,0.0,0.0,0.0,0.0,0.028733333333333333,-5.498166666666667,-5.498166666666667,-0.5487000000000001,-0.19300000000000006,0.01837500000000003,-0.125,67.511,0.0117,-0.227575,-0.3700000000000001,100.0,1.0,1.0,208.27666666666667,0.0,0.0,0.0,0.0,0.0,0.0,0.0,8828.0,0.0,55.0,5.0,243.01,0.0,0.0,0.0,0.0,0.0,0.0,1.0,0.0,0.7049999999999983,0.7049999999999983,0.0,0.0,0.0,55.0,616.79921,10000.0,85.000001,85.000001,85.000001,85.000001,395.0,0.0,0.0,0.0,1.0,333.33500000000004,52.628,52.628,48.141,48.141,34.0,-23.285,25.096,-27.28,29.31,0.0,1782.256,-0.4800000000000004,100.0,27.7,27.738,42.702,42.949,0.0,0.0,100.0,0.0,0.0,0.0,0.0,3114.285714285714,3103.6,4045.125,4114.9,305.4835,304.841,315.0055,314.60825,21.911555555555555,20.5865,21.909,21.4282,314.999998,314.999998,324.999988,324.999988,99.55895714285714,99.50741666666667,99.56677142857143,99.5468,0.0950000000000002,-0.03049999999999997,-0.09583333333333333,0.1313333333333333,-0.054999999999999716,-0.041666666666671404,1.5579999999999998,1.5205,37.947,29.6655,37.931,34.9265,56.08,35.0535,59.478,52.31,54.007,34.185,58.0745,50.6425,53.167,33.731,57.9995,50.055,-0.11149999999999993,-0.03600000000000003,0.09789500000000001,0.11204000000000001,0.0,211.39499999999998,211.41500000000002,208.27666666666667,208.27666666666667,0.0,0.0
15,0.0,0.0,0.0,1.0,1.0,0.0,0.0,1.0,0.0,100.0,1.0,1.1856,26.0,0.0,0.0,0.0,68.000001,0.0,26.0,26.0,26.0,26.0,0.040888888888888975,0.2824,-0.033,292.847,-2.68315,-2.601,-1.5973000000000002,-1.4817,-225.78,215.91500000000002,190.6845,0.0,0.0,0.0,0.0,0.030600000000000002,-5.498166666666667,-5.498166666666667,-0.5405,0.2915,0.047250000000000014,-0.2959999999999998,67.643,0.022600000000000002,-0.210925,-0.4479999999999995,100.0,1.0,1.0,208.66666666666669,0.0,0.0,0.0,0.0,0.0,0.0,0.0,8844.5,0.0,55.0,5.0,243.48666666666668,1.0,0.0,0.0,0.0,0.0,0.0,1.0,0.0,0.7530000000000001,0.7530000000000001,0.0,0.0,1.0,55.0,616.79921,10000.0,85.000001,85.000001,85.000001,85.000001,395.0,0.0,0.0,0.0,1.0,333.33500000000004,52.826,52.826,48.187,48.187,34.0,-21.677500000000002,24.631999999999998,-27.393333333333334,29.9775,0.0,1782.21,-0.4499999999999993,100.0,27.732,27.83,42.488,43.022999999999996,0.0,0.0,100.0,0.0,0.0,0.0,0.0,2958.5714285714284,3082.0,4024.375,4285.6,305.888,304.894,315.08925,314.21875,21.920555555555556,20.5917,21.9188,21.436700000000002,314.999998,314.999998,324.999988,324.999988,99.55897142857143,99.50741666666667,99.5669,99.54694285714285,0.09733333333333372,-0.028000000000000025,-0.09366666666666656,0.1323333333333332,-0.04999999999999716,-0.041666666666671404,1.5375,1.5195,38.004000000000005,29.698,37.992000000000004,34.9795,56.068,35.089,59.512,52.3685,53.995999999999995,34.218,58.106,50.699,53.155,33.7625,58.028,50.11033333333333,-0.11199999999999988,-0.03750000000000009,0.11113500000000001,0.10834,0.0,211.825,211.82999999999998,208.66666666666669,208.66666666666669,0.0,0.0
16,0.0,0.0,0.0,1.0,1.0,0.0,0.0,1.0,0.0,100.0,1.0,1.1856,26.0,0.0,0.0,0.0,68.000001,0.0,26.0,26.0,26.0,26.0,0.029111111111111088,0.2694000000000001,-0.0164,292.816,-2.76875,-2.6189999999999998,-1.5695999999999999,-1.4861,-222.32,215.8875,190.662375,0.0,0.0,0.0,0.0,0.032600000000000004,-5.498166666666667,-5.498166666666667,-0.5579000000000001,-0.677,0.03299999999999992,0.1459999999999999,67.783,0.0328,-0.22357500000000002,-0.48799999999999955,100.0,1.0,1.0,209.08333333333331,0.0,0.0,0.0,0.0,0.0,0.0,0.0,8862.3,0.0,55.0,5.0,243.99333333333334,0.0,0.0,0.0,0.0,0.0,0.0,1.0,0.0,0.8039999999999985,0.8039999999999985,0.0,0.0,0.0,55.0,616.79921,10000.0,85.000001,85.000001,85.000001,85.000001,395.0,0.0,0.0,0.0,1.0,333.33500000000004,52.75,52.75,47.867,47.867,34.0,-22.689999999999998,26.194,-25.726666666666663,30.3525,0.0,1782.158,-0.3049999999999997,100.0,27.508,27.698,42.861000000000004,43.076,0.0,0.0,100.0,0.0,0.0,0.0,0.0,3009.0,3232.1,3984.125,4161.1,305.741,304.642,315.11225,314.562,21.92988888888889,20.5972,21.9293,21.4459,314.999998,314.999998,324.999988,324.999988,99.55898571428571,99.50741666666667,99.56704285714285,99.54708571428571,0.10166666666666657,-0.022499999999999964,-0.07166666666666666,0.15949999999999998,-0.03166666666666629,-0.05833333333333002,1.532,1.5175,38.062,29.7325,38.058,35.036500000000004,56.053,35.1265,59.5505,52.43,53.980999999999995,34.2525,58.141999999999996,50.7585,53.138999999999996,33.796,58.061,50.16866666666667,-0.09799999999999986,-0.053999999999999826,0.105855,0.10871000000000001,0.0,212.2,212.25,209.08333333333331,209.08333333333331,0.0,0.0
17,0.0,0.0,0.0,1.0,1.0,0.0,0.0,1.0,0.0,100.0,1.0,1.1856,26.0,0.0,0.0,0.0,68.000001,0.0,26.0,26.0,26.0,26.0,0.03444444444444428,0.2925,0.013666666666666667,292.572,-2.73055,-2.6020000000000003,-1.6058,-1.5094,-218.86,215.8625,190.64,0.0,0.0,0.0,0.0,0.034633333333333335,-5.498166666666667,-5.498166666666667,-0.5478000000000001,0.4545,0.008874999999999966,-0.7639999999999998,67.922,0.030600000000000002,-0.205325,-0.2239999999999993,100.0,1.0,1.0,209.49666666666667,0.0,0.0,0.0,0.0,0.0,0.0,0.0,8879.7,0.0,55.0,5.0,244.49,1.0,0.0,0.0,0.0,0.0,0.0,1.0,0.0,0.8550000000000004,0.8550000000000004,0.0,0.0,1.0,55.0,616.79921,10000.0,85.000001,85.000001,85.000001,85.000001,395.0,0.0,0.0,0.0,1.0,333.33500000000004,52.551,52.551,47.867,47.867,34.0,-23.3675,24.09,-28.933333333333334,30.2775,0.0,1782.106,-0.33500000000000085,100.0,27.807,28.041,42.541,43.04,0.0,0.0,100.0,0.0,0.0,0.0,0.0,3171.714285714286,3018.5,4288.625,4206.3,305.3655,305.13675,314.5525,314.4615,21.939555555555557,20.6028,21.9396,21.4549,314.999998,314.999998,324.999988,324.999988,99.559,99.50743333333334,99.5672,99.54722857142858,0.1080000000000001,-0.026000000000000023,-0.08016666666666661,0.14466666666666672,-0.060000000000002274,-0.06666666666666998,1.5219999999999998,1.5235,38.122,29.7675,38.123000000000005,35.093,56.042,35.167500000000004,59.5895,52.495,53.97,34.2905,58.178,50.820499999999996,53.126999999999995,33.832,58.094,50.22966666666667,-0.10699999999999998,-0.05600000000000005,0.101595,0.11164500000000001,0.0,212.695,212.71,209.49666666666667,209.49666666666667,0.0,0.0
18,0.0,0.0,0.0,1.0,1.0,0.0,0.0,1.0,0.0,100.0,1.0,1.1856,26.0,0.0,0.0,0.0,68.000001,0.0,26.0,26.0,26.0,26.0,0.028999999999999915,0.27490000000000014,-0.016033333333333333,292.526,-2.7547,-2.5843333333333334,-1.6154000000000002,-1.4618,-215.6,215.8375,190.618875,0.0,0.0,0.0,0.0,0.036533333333333334,-5.498166666666667,-5.498166666666667,-0.5585,-0.5365,0.02287499999999998,-0.3540000000000001,68.053,0.027,-0.21987500000000001,-0.22599999999999998,100.0,1.0,1.0,209.89333333333332,0.0,0.0,0.0,0.0,0.0,0.0,0.0,8896.6,0.0,55.0,5.0,244.96333333333334,0.0,0.0,0.0,0.0,0.0,0.0,1.0,0.0,0.9029999999999987,0.9029999999999987,0.0,0.0,0.0,55.0,616.79921,10000.0,85.000001,85.000001,85.000001,85.000001,395.0,0.0,0.0,0.0,1.0,333.33500000000004,52.444,52.444,47.699,47.699,34.0,-23.994999999999997,25.756,-28.603333333333335,28.9225,0.0,1782.059,-0.35999999999999943,100.0,27.606,27.874,42.897999999999996,43.369,0.0,0.0,100.0,0.0,0.0,0.0,0.0,3193.857142857143,3191.7,4129.125,4151.8,305.358,304.65575,314.86625,314.56125,21.948444444444444,20.608,21.9495,21.4636,314.999998,314.999998,324.999988,324.999988,99.559,99.50743333333334,99.56732857142858,99.54735714285714,0.10166666666666657,-0.019499999999999962,-0.09499999999999997,0.1393333333333333,-0.05666666666667197,-0.045000000000001705,1.5265,1.5235,38.178,29.799999999999997,38.185,35.1475,56.03,35.2,59.6235,52.55,53.96,34.320499999999996,58.21,50.874,53.116,33.861000000000004,58.123,50.282,-0.10149999999999992,-0.04800000000000004,0.10907000000000001,0.11199500000000001,0.0,213.07999999999998,213.06,209.89333333333332,209.89333333333332,0.0,0.0
19,0.0,0.0,0.0,1.0,1.0,0.0,0.0,1.0,0.0,100.0,1.0,1.1856,26.0,0.0,0.0,0.0,68.000001,0.0,26.0,26.0,26.0,26.0,0.017000000000000126,0.28080000000000016,0.04683333333333333,291.977,-2.6644,-2.5792222222222225,-1.6248,-1.4515,-212.12,215.815,190.59625,0.0,0.0,0.0,0.0,0.038533333333333336,-5.498166666666667,-5.498166666666667,-0.5515,0.817,0.02849999999999997,0.7229999999999999,68.19,0.0275,-0.212475,-0.33999999999999986,100.0,1.0,1.0,210.29666666666668,0.0,0.0,0.0,0.0,0.0,0.0,0.0,8913.7,0.0,55.0,5.0,245.45333333333335,1.0,0.0,0.0,0.0,0.0,0.0,1.0,0.0,0.9540000000000006,0.9540000000000006,0.0,0.0,1.0,55.0,616.79921,10000.0,85.000001,85.000001,85.000001,85.000001,395.0,0.0,0.0,0.0,1.0,333.33500000000004,51.682,51.682,47.501,47.501,34.0,-22.2425,26.939999999999998,-28.93,31.11,0.0,1782.008,-0.3299999999999983,100.0,28.401,28.273,42.823,43.231,0.0,0.0,100.0,0.0,0.0,0.0,0.0,3114.142857142857,3333.7,4213.625,4407.6,305.228,304.265,314.659,314.06375,21.958111111111112,20.6137,21.9599,21.4727,314.999998,314.999998,324.999988,324.999988,99.55901428571428,99.50743333333334,99.56747142857142,99.54751428571429,0.1163333333333334,-0.020499999999999963,-0.08399999999999996,0.14383333333333326,-0.04333333333332945,-0.054999999999999716,1.5154999999999998,1.504,38.238,29.836,38.248999999999995,35.204,56.019999999999996,35.24,59.6595,52.6115,53.95,34.3575,58.243,50.933,53.105000000000004,33.8965,58.153,50.340333333333334,-0.10799999999999987,-0.053999999999999826,0.10225000000000001,0.103885,0.0,213.525,213.54500000000002,210.29666666666668,210.29666666666668,0.0,0.0
20,0.0,0.0,0.0,1.0,1.0,0.0,0.0,1.0,0.0,100.0,1.0,1.1856,26.0,0.0,0.0,0.0,68.000001,0.0,26.0,26.0,26.0,26.0,0.03600000000000003,0.27390000000000003,-0.020633333333333337,292.328,-2.7672,-2.6398888888888887,-1.5510000000000002,-1.5721,-208.64,215.79000000000002,190.573875,0.0,0.0,0.0,0.0,0.04056666666666667,-5.498166666666667,-5.498166666666667,-0.5532,-1.0270000000000001,0.02487499999999998,-0.9529999999999998,68.32900000000001,0.0268,-0.222,-0.23799999999999955,100.0,1.0,1.0,210.62333333333333,0.0,0.0,0.0,0.0,0.0,0.0,0.0,8927.5,0.0,55.0,5.0,245.96,0.0,0.0,0.0,0.0,0.0,0.0,0.0,0.0,1.004999999999999,1.004999999999999,0.0,0.0,0.0,55.0,616.79921,10000.0,85.000001,85.000001,85.000001,85.000001,395.0,0.0,0.0,0.0,1.0,166.665,52.78,52.78,46.997,46.997,34.0,-22.505,24.334,-28.223333333333333,31.09,0.0,1781.959,-0.2699999999999996,100.0,27.702,28.084,43.316,43.744,0.0,0.0,100.0,0.0,0.0,0.0,0.0,3008.142857142857,3040.4,4216.5,4229.3,305.8915,305.0365,314.57875,314.19775,21.967444444444446,20.6193,21.9705,21.4819,314.999998,314.999998,324.999988,324.999988,99.55904285714286,99.50743333333334,99.56761428571428,99.54765714285715,0.10199999999999987,-0.034499999999999975,-0.08516666666666661,0.1293333333333333,-0.03833333333332689,-0.03333333333333144,1.4815,1.4749999999999999,38.296,29.8705,38.316,35.262,56.006,35.277,59.6995,52.6755,53.936,34.391999999999996,58.281,50.9945,53.09,33.9295,58.188,50.400333333333336,-0.10450000000000004,-0.05449999999999999,0.10836000000000001,0.1014,0.0,213.89499999999998,213.93,210.62333333333333,210.62333333333333,0.0,0.0
21,0.0,0.0,0.0,1.0,1.0,0.0,0.0,1.0,0.0,100.0,1.0,1.1856,26.0,0.0,0.0,0.0,68.000001,0.0,26.0,26.0,26.0,26.0,0.042333333333333334,0.28310000000000013,-0.06903333333333334,292.725,-2.72965,-2.698777777777778,-1.6153,-1.5338,-205.36,215.76999999999998,190.55225,0.0,0.0,0.0,0.0,0.04246666666666667,-5.498166666666667,-5.498166666666667,-0.5769000000000001,0.32499999999999996,0.007624999999999993,-0.9209999999999998,68.45400000000001,0.0221,-0.225075,-0.18599999999999994,100.0,1.0,1.0,211.23666666666668,0.0,0.0,0.0,0.0,0.0,0.0,0.0,8953.5,0.0,55.0,5.0,246.40666666666667,1.0,0.0,0.0,0.0,0.0,0.0,0.0,0.0,1.0530000000000008,1.0530000000000008,0.0,0.0,1.0,55.0,616.79921,10000.0,85.000001,85.000001,85.000001,85.000001,395.0,0.0,0.0,0.0,1.0,333.33500000000004,52.414,52.414,48.294,48.294,34.0,-23.535,24.868,-27.43,27.802500000000002,0.0,1781.91,-0.3249999999999993,100.0,27.929,28.113,42.745000000000005,43.285,0.0,0.0,100.0,0.0,0.0,0.0,0.0,3174.0,3035.6,4029.375,3987.6000000000004,305.3645,304.9985,315.1605,314.993,21.976333333333333,20.6246,21.9801,21.4904,314.999998,314.999998,324.999988,324.999988,99.55905714285714,99.50745,99.56775714285715,99.5478,0.10499999999999998,-0.034499999999999975,-0.09399999999999997,0.1313333333333333,-0.045000000000001705,-0.051666666666669414,1.584,1.591,38.352000000000004,29.9035,38.376000000000005,35.315,55.995000000000005,35.3135,59.731,52.7305,53.925,34.4255,58.31,51.0475,53.078,33.962,58.214,50.452333333333335,-0.10450000000000004,-0.05449999999999999,0.10409500000000001,0.10247,0.0,214.32,214.34,211.23666666666668,211.23666666666668,0.0,0.0
22,0.0,0.0,0.0,1.0,1.0,0.0,0.0,1.0,0.0,100.0,1.0,1.1856,26.0,0.0,0.0,0.0,68.000001,0.0,26.0,26.0,26.0,26.0,0.02400000000000002,0.27849999999999997,-0.004166666666666667,292.236,-2.6577,-2.7061111111111114,-1.6078999999999999,-1.5214,-201.86,215.7475,190.5285,0.0,0.0,0.0,0.0,0.044500000000000005,-5.498166666666667,-5.498166666666667,-0.557,0.10399999999999998,0.01849999999999996,1.2279999999999998,68.593,0.0206,-0.20395000000000002,-0.2779999999999996,100.0,1.0,1.0,211.46666666666667,0.0,0.0,0.0,0.0,0.0,0.0,0.0,8963.3,0.0,55.0,5.0,246.90666666666667,0.0,0.0,0.0,0.0,0.0,0.0,0.0,0.0,1.1039999999999992,1.1039999999999992,0.0,0.0,0.0,55.0,616.79921,10000.0,85.000001,85.000001,85.000001,85.000001,395.0,0.0,0.0,0.0,1.0,333.33500000000004,52.505,52.505,47.18,47.18,34.0,-20.6625,25.868,-28.9,31.52,0.0,1781.858,-0.36499999999999844,100.0,28.166,28.070999999999998,43.171,43.38,0.0,0.0,100.0,0.0,0.0,0.0,0.0,2903.142857142857,3122.9,4207.5,4376.3,305.8765,304.86925,314.60675,314.118,21.985777777777777,20.6302,21.9907,21.4996,314.999998,314.999998,324.999988,324.999988,99.55905714285714,99.50745,99.5679,99.54794285714286,0.11100000000000021,-0.028000000000000025,-0.08516666666666661,0.1346666666666667,-0.03499999999999659,-0.05833333333333002,1.4954999999999998,1.4835,38.411,29.938499999999998,38.442,35.3725,55.983000000000004,35.352000000000004,59.7705,52.792500000000004,53.914,34.461,58.3465,51.1075,53.066,33.996,58.2475,50.510666666666665,-0.10299999999999998,-0.05149999999999988,0.10659500000000001,0.10311500000000001,0.0,214.76,214.76999999999998,211.46666666666667,211.46666666666667,0.0,0.0
23,0.0,0.0,0.0,1.0,1.0,0.0,0.0,1.0,0.0,100.0,1.0,1.1856,26.0,0.0,0.0,0.0,68.000001,0.0,26.0,26.0,26.0,26.0,0.016000000000000014,0.25429999999999997,-0.023233333333333335,292.191,-2.6907,-2.6532222222222224,-1.6602999999999999,-1.4977,-198.16,215.72750000000002,190.503625,0.0,0.0,0.0,0.0,0.04666666666666667,-5.498166666666667,-5.498166666666667,-0.5757,-0.15500000000000003,0.016999999999999904,0.6310000000000002,68.73400000000001,0.023,-0.2283,-0.2939999999999996,100.0,1.0,1.0,212.02666666666667,0.0,0.0,0.0,0.0,0.0,0.0,0.0,8987.1,0.0,55.0,5.0,247.41666666666666,1.0,0.0,0.0,0.0,0.0,0.0,0.0,0.0,1.1580000000000013,1.1580000000000013,0.0,0.0,1.0,55.0,616.79921,10000.0,85.000001,85.000001,85.000001,85.000001,395.0,0.0,0.0,0.0,1.0,166.665,51.804,51.804,48.004,48.004,34.0,-23.2425,26.286,-27.64,29.2575,0.0,1781.806,-0.33999999999999986,100.0,28.367,28.173000000000002,43.241,43.641,0.0,0.0,100.0,0.0,0.0,0.0,0.0,3196.285714285714,3211.0,4021.75,4087.0,305.0435,304.6765,315.14475,314.8245,21.99577777777778,20.6362,22.0017,21.5093,314.999998,314.999998,324.999988,324.999988,99.55907142857143,99.50745,99.56805714285714,99.5481,0.11433333333333362,-0.02474999999999994,-0.08416666666666661,0.15166666666666684,-0.05666666666667197,-0.05833333333333002,1.5585,1.5485,38.474000000000004,29.9765,38.510999999999996,35.4335,55.971000000000004,35.3925,59.8095,52.858000000000004,53.902,34.499,58.382999999999996,51.170500000000004,53.053,34.032,58.2805,50.57266666666666,-0.10699999999999998,-0.051000000000000156,0.10566500000000001,0.115055,0.0,215.16500000000002,215.195,212.02666666666667,212.02666666666667,0.0,0.0
24,0.0,0.0,0.0,1.0,1.0,0.0,0.0,1.0,0.0,100.0,1.0,1.1856,26.0,0.0,0.0,0.0,68.000001,0.0,26.0,26.0,26.0,26.0,0.035555555555555785,0.27370000000000005,-0.02816666666666667,292.419,-2.71905,-2.6594444444444445,-1.582,-1.5239,-195.06,215.70749999999998,190.4825,0.0,0.0,0.0,0.0,0.04846666666666667,-5.498166666666667,-5.498166666666667,-0.5799000000000001,-0.36749999999999994,0.026499999999999968,-0.15300000000000002,68.855,0.0253,-0.217725,-0.29000000000000004,100.0,1.0,1.0,212.29333333333335,0.0,0.0,0.0,0.0,0.0,0.0,0.0,8998.3,0.0,55.0,5.0,247.85000000000002,0.0,0.0,0.0,0.0,0.0,0.0,0.0,0.0,1.2029999999999994,1.2029999999999994,0.0,0.0,0.0,55.0,616.79921,10000.0,85.000001,85.000001,85.000001,85.000001,395.0,0.0,0.0,0.0,1.0,166.665,52.856,52.856,47.226,47.226,34.0,-21.805,23.896,-29.456666666666663,29.515,0.0,1781.761,-0.33999999999999986,100.0,27.938,28.072,43.136,43.684,0.0,0.0,100.0,0.0,0.0,0.0,0.0,2985.714285714286,2972.8,4295.625,4157.0,305.876,305.27975,314.4385,314.56025,22.004,20.6411,22.0109,21.5174,314.999998,314.999998,324.999988,324.999988,99.55908571428571,99.50746666666667,99.56818571428572,99.54822857142857,0.10666666666666647,-0.033499999999999974,-0.09133333333333338,0.13149999999999995,-0.03999999999999915,-0.03166666666666629,1.5185,1.5085,38.525,30.0065,38.568,35.484,55.959,35.425,59.8425,52.912,53.891,34.5285,58.4135,51.2225,53.041,34.061,58.3085,50.623333333333335,-0.10949999999999993,-0.04999999999999982,0.10766500000000001,0.10271500000000001,0.0,215.55,215.56,212.29333333333335,212.29333333333335,0.0,0.0
25,0.0,0.0,0.0,1.0,1.0,0.0,0.0,1.0,0.0,100.0,1.0,1.1856,26.0,0.0,0.0,0.0,68.000001,0.0,26.0,26.0,26.0,26.0,0.028555555555555667,0.2701,-0.0517,292.358,-2.78735,-2.620888888888889,-1.5993,-1.5257,-191.55,215.69,190.45725,0.0,0.0,0.0,0.0,0.0505,-5.498166666666667,-5.498166666666667,-0.6075,-0.06750000000000012,0.03387499999999988,0.16300000000000026,68.987,0.0247,-0.22285000000000002,-0.32399999999999984,100.0,1.0,1.0,212.80666666666667,0.0,0.0,0.0,0.0,0.0,0.0,0.0,9020.1,0.0,55.0,5.0,248.32666666666665,1.0,0.0,0.0,0.0,0.0,0.0,0.0,0.0,1.2540000000000013,1.2540000000000013,0.0,0.0,1.0,55.0,616.79921,10000.0,85.000001,85.000001,85.000001,85.000001,395.0,0.0,0.0,0.0,1.0,166.665,51.971000000000004,51.971000000000004,47.958,47.958,34.0,-24.0925,27.722,-25.38,29.705000000000002,0.0,1781.709,-0.375,100.0,27.903,28.101,42.963,43.354,0.0,0.0,100.0,0.0,0.0,0.0,0.0,3184.0,3358.1,3936.25,4125.9,305.2405,304.24875,315.2995,314.7035,22.013333333333335,20.6468,22.0212,21.5265,314.999998,314.999998,324.999988,324.999988,99.5591,99.50746666666667,99.56832857142857,99.54837142857143,0.10966666666666658,-0.016249999999999987,-0.0681666666666666,0.14650000000000007,-0.04333333333332945,-0.051666666666669414,1.5735000000000001,1.565,38.583,30.0425,38.632999999999996,35.5405,55.946,35.463499999999996,59.876999999999995,52.9715,53.878,34.564499999999995,58.446,51.2795,53.027,34.095,58.3375,50.67966666666666,-0.10799999999999987,-0.051000000000000156,0.09638500000000001,0.107185,0.0,215.96,215.97,212.80666666666667,212.80666666666667,0.0,0.0
26,0.0,0.0,0.0,1.0,1.0,0.0,0.0,1.0,0.0,100.0,1.0,1.1856,26.0,0.0,0.0,0.0,68.000001,0.0,26.0,26.0,26.0,26.0,0.030999999999999917,0.2863,0.0708,291.29,-2.74,-2.6914444444444445,-1.6469,-1.5197,-188.01999999999998,215.67000000000002,190.431625,0.0,0.0,0.0,0.0,0.052566666666666664,-5.498166666666667,-5.498166666666667,-0.5732,0.659,0.014124999999999943,-0.8369999999999997,69.123,0.028,-0.19885,-0.33399999999999963,100.0,1.0,1.0,212.99666666666667,0.0,0.0,0.0,0.0,0.0,0.0,0.0,9028.1,0.0,55.0,5.0,248.81666666666666,0.0,0.0,0.0,0.0,0.0,0.0,0.0,0.0,1.3049999999999997,1.3049999999999997,0.0,0.0,0.0,55.0,616.79921,10000.0,85.000001,85.000001,85.000001,85.000001,395.0,0.0,0.0,0.0,1.0,333.33500000000004,51.528999999999996,51.528999999999996,46.432,46.432,34.0,-23.935000000000002,25.368,-32.629999999999995,32.9375,0.0,1781.656,-0.40500000000000114,100.0,28.651,28.878,43.331,43.829,0.0,0.0,100.0,0.0,0.0,0.0,0.0,3230.857142857143,3068.7,4562.0,4479.6,305.141,304.8365,313.88975,313.768,22.02288888888889,20.6526,22.0317,21.535800000000002,314.999998,314.999998,324.999988,324.999988,99.55911428571429,99.50746666666667,99.56847142857143,99.54854285714286,0.11100000000000021,-0.031000000000000028,-0.08716666666666661,0.13766666666666683,-0.045000000000001705,-0.041666666666671404,1.455,1.4375,38.643,30.079,38.698,35.5985,55.936,35.506,59.9185,53.0385,53.869,34.6035,58.4845,51.344,53.016999999999996,34.132999999999996,58.3725,50.742666666666665,-0.11199999999999988,-0.052999999999999936,0.109215,0.10562,0.0,216.42000000000002,216.42000000000002,212.99666666666667,212.99666666666667,0.0,0.0
27,0.0,0.0,0.0,1.0,1.0,0.0,0.0,1.0,0.0,100.0,1.0,1.1856,26.0,0.0,0.0,0.0,68.000001,0.0,26.0,26.0,26.0,26.0,0.05499999999999994,0.26460000000000017,-0.024300000000000002,291.718,-2.70775,-2.6550000000000002,-1.589,-1.5908,-184.7,215.655,190.408375,0.0,0.0,0.0,0.0,0.0545,-5.498166666666667,-5.498166666666667,-0.5948,-1.0135,0.017749999999999932,-0.677,69.247,0.0298,-0.23905,-0.3460000000000001,100.0,1.0,1.0,213.47,0.0,0.0,0.0,0.0,0.0,0.0,0.0,9048.2,0.0,55.0,5.0,249.26666666666665,1.0,0.0,0.0,0.0,0.0,0.0,0.0,0.0,1.352999999999998,1.352999999999998,0.0,0.0,1.0,55.0,616.79921,10000.0,85.000001,85.000001,85.000001,85.000001,395.0,0.0,0.0,0.0,1.0,166.665,51.926,51.926,46.616,46.616,34.0,-22.325,25.445999999999998,-27.856666666666666,30.4175,0.0,1781.611,-0.3999999999999986,100.0,28.346,28.717,43.978,44.405,0.0,0.0,100.0,0.0,0.0,0.0,0.0,3093.857142857143,3124.9,4157.625,4081.6000000000004,305.5785,304.76825,314.76725,314.63075,22.031666666666666,20.658,22.0417,21.5446,314.999998,314.999998,324.999988,324.999988,99.55912857142857,99.50748333333334,99.56861428571429,99.54867142857142,0.11333333333333373,-0.031000000000000028,-0.07950000000000002,0.13866666666666672,-0.036666666666668846,-0.030000000000001137,1.508,1.4869999999999999,38.698,30.112000000000002,38.760999999999996,35.6535,55.925,35.54,59.9535,53.0935,53.858000000000004,34.635,58.516999999999996,51.3975,53.004999999999995,34.1625,58.402,50.794666666666664,-0.10899999999999999,-0.052000000000000046,0.10572000000000001,0.10627,0.0,216.74,216.74,213.47,213.47,0.0,0.0
28,0.0,0.0,0.0,1.0,1.0,0.0,0.0,1.0,0.0,100.0,1.0,1.1856,26.0,0.0,0.0,0.0,68.000001,0.0,26.0,26.0,26.0,26.0,0.03744444444444439,0.2574000000000001,-0.05196666666666667,291.962,-2.6868499999999997,-2.650666666666667,-1.6293000000000002,-1.5553000000000001,-181.17000000000002,215.6375,190.383125,0.0,0.0,0.0,0.0,0.05653333333333334,-5.498166666666667,-5.498166666666667,-0.6039,0.622,0.010750000000000037,0.5899999999999999,69.377,0.030000000000000002,-0.219525,-0.387999999999999,100.0,1.0,1.0,214.01666666666665,0.0,0.0,0.0,0.0,0.0,0.0,0.0,9071.4,0.0,55.0,5.0,249.73000000000002,0.0,0.0,0.0,0.0,0.0,0.0,0.0,0.0,1.404,1.404,0.0,0.0,0.0,55.0,616.79921,10000.0,85.000001,85.000001,85.000001,85.000001,395.0,0.0,0.0,0.0,1.0,333.33500000000004,51.743,51.743,47.638,47.638,34.0,-21.759999999999998,26.534,-26.593333333333334,30.94,0.0,1781.557,-0.4499999999999993,100.0,28.62,28.522,43.376,43.818,0.0,0.0,100.0,0.0,0.0,0.0,0.0,3086.857142857143,3214.7,4026.5,4145.1,305.371,304.66775,315.168,314.68,22.041,20.6637,22.052,21.5537,314.999998,314.999998,324.999988,324.999988,99.55914285714286,99.50748333333334,99.56875714285714,99.54881428571429,0.12666666666666648,-0.01924999999999999,-0.0708333333333333,0.15700000000000003,-0.054999999999999716,-0.05833333333333002,1.5590000000000002,1.535,38.756,30.1485,38.825,35.710499999999996,55.914,35.579,59.986,53.152,53.848,34.671,58.547,51.4535,52.994,34.197,58.4295,50.849666666666664,-0.11599999999999988,-0.051000000000000156,0.10068500000000001,0.11037500000000001,0.0,217.195,217.215,214.01666666666665,214.01666666666665,0.0,0.0
29,0.0,0.0,0.0,1.0,1.0,0.0,0.0,1.0,0.0,100.0,1.0,1.1856,26.0,0.0,0.0,0.0,68.000001,0.0,26.0,26.0,26.0,26.0,0.049111111111111105,0.2518,-0.012733333333333333,291.763,-2.671,-2.7031111111111112,-1.5825,-1.5365,-177.42000000000002,215.6225,190.355125,0.0,0.0,0.0,0.0,0.05873333333333334,-5.498166666666667,-5.498166666666667,-0.606,-0.6965000000000001,0.014249999999999874,0.7949999999999999,69.519,0.0284,-0.2167,-0.47999999999999954,100.0,1.0,1.0,214.25333333333333,0.0,0.0,0.0,0.0,0.0,0.0,0.0,9081.5,0.0,55.0,5.0,250.24333333333334,1.0,0.0,0.0,0.0,0.0,0.0,0.0,0.0,1.4579999999999984,1.4579999999999984,0.0,0.0,1.0,55.0,616.79921,10000.0,85.000001,85.000001,85.000001,85.000001,395.0,0.0,0.0,0.0,1.0,166.665,52.124,52.124,46.783,46.783,34.0,-20.945,26.9,-27.066666666666663,31.9875,0.0,1781.505,-0.5599999999999987,100.0,28.268,28.383,43.783,44.114000000000004,0.0,0.0,100.0,0.0,0.0,0.0,0.0,3018.285714285714,3174.0,4125.75,4331.1,305.6535,304.739,314.7535,314.17225,22.05077777777778,20.6697,22.0631,21.5635,314.999998,314.999998,324.999988,324.999988,99.55917142857143,99.50748333333334,99.56891428571429,99.54898571428572,0.12733333333333352,-0.014249999999999985,-0.0668333333333333,0.14300000000000002,-0.045000000000001705,-0.054999999999999716,1.4845000000000002,1.4709999999999999,38.817,30.186,38.894999999999996,35.772,55.900999999999996,35.6185,60.027,53.2185,53.835,34.707499999999996,58.585499999999996,51.5175,52.980000000000004,34.2325,58.4645,50.912,-0.12199999999999989,-0.03949999999999987,0.10205,0.09947,0.0,217.595,217.60500000000002,214.25333333333333,214.25333333333333,0.0,0.0
30,0.0,0.0,0.0,1.0,1.0,0.0,0.0,1.0,0.0,100.0,1.0,1.1856,26.0,0.0,0.0,0.0,68.000001,0.0,26.0,26.0,26.0,26.0,0.047666666666666746,0.24650000000000016,0.023933333333333334,291.183,-2.72965,-2.5905555555555555,-1.556,-1.5937000000000001,-174.29,215.61,190.33175,0.0,0.0,0.0,0.0,0.06053333333333334,-5.498166666666667,-5.498166666666667,-0.6077,0.7275,0.0063750000000000195,-0.819,69.633,0.037200000000000004,-0.22232500000000002,-0.5779999999999994,100.0,1.0,1.0,214.70666666666668,0.0,0.0,0.0,0.0,0.0,0.0,0.0,9100.6,0.0,55.0,5.0,250.65333333333334,0.0,0.0,0.0,0.0,0.0,0.0,1.0,0.0,1.5030000000000001,1.5030000000000001,0.0,0.0,0.0,55.0,616.79921,10000.0,85.000001,85.000001,85.000001,85.000001,395.0,0.0,0.0,0.0,1.0,333.33500000000004,50.568,50.568,47.211,47.211,34.0,-24.8825,26.55,-27.259999999999998,31.0225,0.0,1781.459,-0.4400000000000013,100.0,28.964,29.241,43.469,44.119,0.0,0.0,100.0,0.0,0.0,0.0,0.0,3416.857142857143,3264.2,4138.375,4136.1,304.561,304.22575,314.8815,314.53175,22.05922222222222,20.675,22.0723,21.5717,314.999998,314.999998,324.999988,324.999988,99.55918571428572,99.5075,99.56904285714286,99.54911428571428,0.12366666666666637,-0.025249999999999995,-0.08166666666666655,0.1413333333333333,-0.03499999999999659,-0.046666666666666856,1.5145,1.4945,38.870000000000005,30.219,38.952,35.823,55.894,35.6545,60.0575,53.2715,53.828,34.741,58.614,51.5685,52.972,34.2645,58.49,50.962,-0.12349999999999994,-0.044500000000000206,0.11676500000000001,0.09815,0.0,217.95,218.005,214.70666666666668,214.70666666666668,0.0,0.0
31,0.0,0.0,0.0,1.0,1.0,0.0,0.0,1.0,0.0,100.0,1.0,1.1856,26.0,0.0,0.0,0.0,68.000001,0.0,26.0,26.0,26.0,26.0,0.052000000000000046,0.2513000000000001,0.035833333333333335,290.848,-2.7819,-2.6142222222222222,-1.6051000000000002,-1.4888000000000001,-170.51999999999998,215.5975,190.304375,0.0,0.0,0.0,0.0,0.06273333333333334,-5.498166666666667,-5.498166666666667,-0.5909,-0.4804999999999999,0.018750000000000044,-0.6680000000000001,69.772,0.041600000000000005,-0.223225,-0.41799999999999926,100.0,1.0,1.0,214.99333333333334,0.0,0.0,0.0,0.0,0.0,0.0,0.0,9112.8,0.0,55.0,5.0,251.15666666666667,1.0,0.0,0.0,0.0,0.0,0.0,1.0,0.0,1.5569999999999986,1.5569999999999986,0.0,0.0,1.0,55.0,616.79921,10000.0,85.000001,85.000001,85.000001,85.000001,395.0,0.0,0.0,0.0,1.0,166.665,51.071,51.071,45.731,45.731,34.0,-23.625,27.298,-29.343333333333334,31.38,0.0,1781.405,-0.46999999999999886,100.0,28.737000000000002,29.331,44.194,44.872,0.0,0.0,100.0,0.0,0.0,0.0,0.0,3230.0,3305.1,4320.875,4259.5,305.285,304.2915,314.357,314.21975,22.069111111111113,20.6812,22.0836,21.5817,314.999998,314.999998,324.999988,324.999988,99.5592,99.5075,99.5692,99.54927142857143,0.12400000000000011,-0.017000000000000015,-0.0718333333333333,0.14933333333333332,-0.04833333333333201,-0.03833333333332689,1.4425,1.4335,38.932,30.2575,39.022,35.8855,55.882999999999996,35.6965,60.1,53.3395,53.818,34.78,58.6535,51.634,52.96,34.3015,58.525999999999996,51.025666666666666,-0.11749999999999994,-0.04600000000000026,0.104455,0.10332500000000001,0.0,218.385,218.4,214.99333333333334,214.99333333333334,0.0,0.0
32,0.0,0.0,0.0,1.0,1.0,0.0,0.0,1.0,0.0,100.0,1.0,1.1856,26.0,0.0,0.0,0.0,68.000001,0.0,26.0,26.0,26.0,26.0,0.04644444444444429,0.2861,-0.03256666666666667,291.26,-2.7013,-2.677666666666667,-1.5891000000000002,-1.5457,-166.95999999999998,215.585,190.278875,0.0,0.0,0.0,0.0,0.0648,-5.498166666666667,-5.498166666666667,-0.6072000000000001,-0.16100000000000003,-0.0016250000000002096,0.13900000000000023,69.9,0.039400000000000004,-0.231575,-0.5060000000000002,100.0,1.0,1.0,215.47333333333333,0.0,0.0,0.0,0.0,0.0,0.0,0.0,9133.2,0.0,55.0,5.0,251.61666666666667,0.0,0.0,0.0,0.0,0.0,0.0,1.0,0.0,1.6080000000000005,1.6080000000000005,0.0,0.0,0.0,55.0,616.79921,10000.0,85.000001,85.000001,85.000001,85.000001,395.0,0.0,0.0,0.0,1.0,166.665,51.483,51.483,46.539,46.539,34.0,-21.595,27.082,-26.93,33.215,0.0,1781.355,-0.48499999999999943,100.0,28.844,29.078,44.055,44.641999999999996,0.0,0.0,100.0,0.0,0.0,0.0,0.0,3068.857142857143,3199.7,4134.25,4355.5,305.477,304.68275,314.77425,314.20675,22.078333333333333,20.6871,22.093899999999998,21.5909,314.999998,314.999998,324.999988,324.999988,99.55921428571429,99.5075,99.56935714285714,99.54941428571429,0.12933333333333374,-0.010499999999999954,-0.06466666666666665,0.16383333333333328,-0.046666666666666856,-0.06333333333333258,1.524,1.501,38.989000000000004,30.2945,39.087,35.9435,55.872,35.736,60.135,53.4,53.807,34.8165,58.686,51.692499999999995,52.948,34.3365,58.555,51.083333333333336,-0.12050000000000005,-0.04800000000000004,0.10985,0.111935,0.0,218.785,218.815,215.47333333333333,215.47333333333333,0.0,0.0
33,0.0,0.0,0.0,1.0,1.0,0.0,0.0,1.0,0.0,100.0,1.0,1.1856,26.0,0.0,0.0,0.0,68.000001,0.0,26.0,26.0,26.0,26.0,0.057666666666666755,0.2671000000000001,-0.0316,291.519,-2.7340999999999998,-2.6704444444444446,-1.5949,-1.5852000000000002,-163.81,215.5775,190.255375,0.0,0.0,0.0,0.0,0.06663333333333334,-5.498166666666667,-5.498166666666667,-0.6151,-0.26350000000000007,-0.006000000000000227,-0.17899999999999983,70.014,0.0386,-0.21825,-0.42799999999999905,100.0,1.0,1.0,215.82333333333332,0.0,0.0,0.0,0.0,0.0,0.0,0.0,9148.0,0.0,55.0,5.0,252.02333333333334,1.0,0.0,0.0,0.0,0.0,0.0,1.0,0.0,1.6529999999999987,1.6529999999999987,0.0,0.0,1.0,55.0,616.79921,10000.0,85.000001,85.000001,85.000001,85.000001,395.0,0.0,0.0,0.0,1.0,333.33500000000004,51.772999999999996,51.772999999999996,46.722,46.722,34.0,-22.695,25.644,-28.126666666666665,31.6025,0.0,1781.308,-0.5199999999999996,100.0,28.582,28.926000000000002,43.873000000000005,44.513,0.0,0.0,100.0,0.0,0.0,0.0,0.0,3148.142857142857,3062.2,4196.5,4207.6,305.485,304.96675,314.7215,314.46175,22.086444444444446,20.6921,22.1031,21.5991,314.999998,314.999998,324.999988,324.999988,99.55922857142858,99.5075,99.56948571428572,99.54955714285714,0.1203333333333334,-0.015499999999999958,-0.0781666666666666,0.14500000000000002,-0.045000000000001705,-0.04999999999999716,1.5190000000000001,1.4965,39.04,30.325499999999998,39.144999999999996,35.994,55.861999999999995,35.768,60.167,53.4525,53.798,34.846000000000004,58.7155,51.743,52.938,34.3655,58.5815,51.132333333333335,-0.12050000000000005,-0.03949999999999987,0.10814000000000001,0.10276500000000001,0.0,219.125,219.16,215.82333333333332,215.82333333333332,0.0,0.0
34,0.0,0.0,0.0,1.0,1.0,0.0,0.0,1.0,0.0,100.0,1.0,1.1856,26.0,0.0,0.0,0.0,68.000001,0.0,26.0,26.0,26.0,26.0,0.05255555555555569,0.256,-0.05296666666666667,291.763,-2.6739,-2.6642222222222225,-1.6622,-1.5445,-160.24,215.5675,190.2275,0.0,0.0,0.0,0.0,0.0687,-5.498166666666667,-5.498166666666667,-0.641,-0.7710000000000001,0.024499999999999966,0.9580000000000002,70.143,0.038200000000000005,-0.2237,-0.4579999999999993,100.0,1.0,1.0,216.21,0.0,0.0,0.0,0.0,0.0,0.0,0.0,9164.4,0.0,55.0,5.0,252.49,0.0,0.0,0.0,0.0,0.0,0.0,1.0,0.0,1.7040000000000006,1.7040000000000006,0.0,0.0,0.0,55.0,616.79921,10000.0,85.000001,85.000001,85.000001,85.000001,395.0,0.0,0.0,0.0,1.0,333.33500000000004,52.185,52.185,47.165,47.165,34.0,-20.665,25.958,-27.646666666666665,32.1875,0.0,1781.258,-0.504999999999999,100.0,28.442,28.494,43.772,44.503,0.0,0.0,100.0,0.0,0.0,0.0,0.0,2995.285714285714,3087.8,4083.0,4252.9,305.739,304.9775,314.9735,314.379,22.095555555555556,20.6977,22.1135,21.6084,314.999998,314.999998,324.999988,324.999988,99.55925714285715,99.5075,99.56962857142857,99.5497,0.13033333333333363,-0.010000000000000009,-0.0685,0.16133333333333333,-0.03333333333333144,-0.051666666666669414,1.5219999999999998,1.5145,39.097,30.361,39.209,36.0525,55.849999999999994,35.8045,60.201499999999996,53.513999999999996,53.786,34.8795,58.7475,51.802,52.925,34.3975,58.6105,51.19,-0.11949999999999994,-0.040999999999999925,0.096375,0.117385,0.0,219.51,219.525,216.21,216.21,0.0,0.0
35,0.0,0.0,0.0,1.0,1.0,0.0,0.0,1.0,0.0,100.0,1.0,1.1856,26.0,0.0,0.0,0.0,68.000001,0.0,26.0,26.0,26.0,26.0,0.06777777777777794,0.25460000000000016,-0.03933333333333333,291.763,-2.73675,-2.605777777777778,-1.6336,-1.5709000000000002,-156.66,215.5625,190.197625,0.0,0.0,0.0,0.0,0.0708,-5.498166666666667,-5.498166666666667,-0.6814,-0.2905,0.004624999999999879,-1.317,70.27,0.0392,-0.22945000000000002,-0.5039999999999996,100.0,1.0,1.0,216.68,0.0,0.0,0.0,0.0,0.0,0.0,0.0,9184.3,0.0,55.0,5.0,252.94666666666666,1.0,0.0,0.0,0.0,0.0,0.0,1.0,0.0,1.754999999999999,1.754999999999999,0.0,0.0,1.0,55.0,616.79921,10000.0,85.000001,85.000001,85.000001,85.000001,395.0,0.0,0.0,0.0,1.0,333.33500000000004,51.697,51.697,46.753,46.753,34.0,-22.8975,27.484,-27.61,29.9475,0.0,1781.206,-0.36499999999999844,100.0,28.078,28.899,43.499,44.066,0.0,0.0,100.0,0.0,0.0,0.0,0.0,3156.5714285714284,3309.9,4103.875,4046.6000000000004,305.4425,304.2195,314.90725,314.93425,22.104555555555557,20.7036,22.1238,21.6175,314.999998,314.999998,324.999988,324.999988,99.55925714285715,99.5075,99.5698,99.54987142857142,0.11833333333333362,-0.014249999999999985,-0.07299999999999995,0.15083333333333337,-0.041666666666671404,-0.030000000000001137,1.54,1.5425,39.153,30.3975,39.274,36.1095,55.836,35.8455,60.237,53.5745,53.772999999999996,34.918,58.7805,51.8605,52.91,34.434,58.64,51.24733333333333,-0.10699999999999998,-0.04999999999999982,0.10943000000000001,0.099555,0.0,219.905,219.925,216.68,216.68,0.0,0.0
