,ABS Active,ABS Enabled,AID Allow Tire Blankets,AID Auto Blip,AID Auto Clutch,AID Auto Shift,AID Fuel Rate,AID Ideal Line,AID Mech Damage,AID Stability,AID Tire Wear Rate,Air Density,Air Temp,Ballast,Best Lap Delta,Best Lap Time,Brake Bias,Brake Pos,Brake Temp FL,Brake Temp FR,Brake Temp RL,Brake Temp RR,CG Accel Lateral,CG Accel Longitudinal,CG Accel Vertical,CG Height,Camber FL,Camber FR,Camber RL,Camber RR,Car Coord X,Car Coord Y,Car Coord Z,Car Damage Front,Car Damage Left,Car Damage Rear,Car Damage Right,Car Pos Norm,Caster FL,Caster FR,Chassis Pitch Angle,Chassis Pitch Rate,Chassis Roll Angle,Chassis Roll Rate,Chassis Velocity X,Chassis Velocity Y,Chassis Velocity Z,Chassis Yaw Rate,Clutch Pos,DRS Active,DRS Available,Drive Train Speed,ERS Heat Charging,ERS Is Charging,ERS Max Energy,ERS Power Level,ERS Recovery Level,Engine Brake Setting,Engine Limiter,Engine RPM,Flags,Fuel Level,Gear,Ground Speed,HR Sample Clock,In Pit,KERS Charge,KERS Deployed Energy,KERS Input,KERS Max Energy,LR Sample Clock,Lap Invalidated,Lap Time,Lap Time2,Last Lap Time,Last Sector Time,MR Sample Clock,Max Fuel,Max Power,Max RPM,Max Sus Travel FL,Max Sus Travel FR,Max Sus Travel RL,Max Sus Travel RR,Max Torque,Max Turbo Boost,Num Tires Off Track,Penalties Enabled,Position,Raw Data Sample Rate,Ride Height FL,Ride Height FR,Ride Height RL,Ride Height RR,Road Temp,Self Align Torque FL,Self Align Torque FR,Self Align Torque RL,Self Align Torque RR,Session Lap Count,Session Time Left,Steering Angle,Surface Grip,Suspension Travel FL,Suspension Travel FR,Suspension Travel RL,Suspension Travel RR,TC Active,TC Enabled,Throttle Pos,Tire Dirt Level FL,Tire Dirt Level FR,Tire Dirt Level RL,Tire Dirt Level RR,Tire Load FL,Tire Load FR,Tire Load RL,Tire Load RR,Tire Loaded Radius FL,Tire Loaded Radius FR,Tire Loaded Radius RL,Tire Loaded Radius RR,Tire Pressure FL,Tire Pressure FR,Tire Pressure RL,Tire Pressure RR,Tire Radius FL,Tire Radius FR,Tire Radius RL,Tire Radius RR,Tire Rubber Grip FL,Tire Rubber Grip FR,Tire Rubber Grip RL,Tire Rubber Grip RR,Tire Slip Angle FL,Tire Slip Angle FR,Tire Slip Angle RL,Tire Slip Angle RR,Tire Slip Ratio FL,Tire Slip Ratio FR,Tire Slip Ratio RL,Tire Slip Ratio RR,Tire Temp Core FL,Tire Temp Core FR,Tire Temp Core RL,Tire Temp Core RR,Tire Temp Inner FL,Tire Temp Inner FR,Tire Temp Inner RL,Tire Temp Inner RR,Tire Temp Middle FL,Tire Temp Middle FR,Tire Temp Middle RL,Tire Temp Middle RR,Tire Temp Outer FL,Tire Temp Outer FR,Tire Temp Outer RL,Tire Temp Outer RR,Toe In FL,Toe In FR,Toe In RL,Toe In RR,Turbo Boost,Wheel Angular Speed FL,Wheel Angular Speed FR,Wheel Angular Speed RL,Wheel Angular Speed RR,Wind Direction,Wind Speed
0,0.0,0.0,0.0,1.0,1.0,0.0,0.0,1.0,0.0,100.0,1.0,1.1856,26.0,0.0,0.0,0.0,68.0,0.0,26.0,26.0,26.0,26.0,-0.07288888888888889,0.3077000000000001,0.0577,294.006,-2.7234,-2.6532222222222224,-1.5218,-1.554,-275.69,216.29500000000002,190.987625,0.0,0.0,0.0,0.0,0.0015666666666666667,-5.498166666666667,-5.498166666666667,-0.5494,1.046,-0.0017499999999999183,-0.352,65.533,-0.031400000000000004,-0.2139,0.9299999999999997,100.0,1.0,1.0,202.33333333333331,0.0,0.0,0.0,0.0,0.0,0.0,0.0,8576.1,0.0,55.0,5.0,235.88666666666666,0.0,0.0,0.0,0.0,0.0,0.0,0.0,0.0,0.0030000000000001137,0.0030000000000001137,0.0,0.0,0.0,55.0,616.79921,10000.0,85.0,85.0,85.0,85.0,395.0,0.0,0.0,0.0,1.0,20.0,52.78,52.78,49.622,49.622,34.0,-25.715,23.98833333333333,-29.419999999999998,25.02,0.0,1782.945,0.7950000000000017,100.0,27.527,26.959,40.622,40.635,0.0,0.0,100.0,0.0,0.0,0.0,0.0,2973.166666666667,3405.5,4054.0,4005.9,305.815,304.0443333333333,314.9696666666667,314.8495,21.7834,20.5184,21.7661,21.3061,314.99999,314.99999,324.99998,324.99998,99.55917142857143,99.50726666666667,99.56498571428571,99.54494285714286,0.007000000000000117,-0.11166666666666658,-0.15149999999999997,0.06750000000000012,-0.051666666666669414,-0.045000000000001705,1.5506666666666666,1.5965,37.146,29.240000000000002,37.038,34.163,56.378,34.542500000000004,59.003,51.5065,54.292,33.713499999999996,57.634,49.869,53.463,33.2785,57.6005,49.295,-0.01849999999999996,-0.13149999999999995,0.10398,0.10499000000000001,0.0,205.35000000000002,205.285,202.33333333333331,202.33333333333331,0.0,0.0
1,0.0,0.0,0.0,1.0,1.0,0.0,0.0,1.0,0.0,100.0,1.0,1.1856,26.0,0.0,0.0,0.0,68.000001,0.0,26.0,26.0,26.0,26.0,-0.1002222222222221,0.31479999999999997,0.1587,292.984,-2.6394,-2.7605555555555554,-1.5282,-1.5466666666666669,-272.34,216.28750000000002,190.967375,0.0,0.0,0.0,0.0,0.0035333333333333336,-5.498166666666667,-5.498166666666667,-0.5006,-0.5163333333333334,-0.05224999999999991,-0.722,65.687,-0.0455,-0.195525,1.3539999999999992,100.0,1.0,1.0,202.49333333333334,0.0,0.0,0.0,0.0,0.0,0.0,0.0,8582.9,0.0,55.0,5.0,236.44,1.0,0.0,0.0,0.0,0.0,0.0,0.0,0.0,0.053999999999998494,0.053999999999998494,0.0,0.0,1.0,55.0,616.79921,10000.0,85.000001,85.000001,85.000001,85.000001,395.0,0.0,0.0,0.0,1.0,333.33500000000004,53.36,53.36,48.34,48.34,34.0,-27.572499999999998,18.55,-34.205,29.4825,0.0,1782.894,0.9349999999999987,100.0,27.634,27.18,42.577,41.641999999999996,0.0,0.0,100.0,0.0,0.0,0.0,0.0,3157.0,2706.4,4343.375,4693.8,305.287,306.2196666666667,314.2026666666667,313.16325,21.7933,20.5236,21.7769,21.3151,314.999998,314.999998,324.999988,324.999988,99.55918571428572,99.5073,99.56512857142857,99.54508571428572,-0.011333333333333195,-0.1293333333333333,-0.17616666666666658,0.04683333333333328,-0.01666666666666572,-0.03999999999999915,1.4066666666666667,1.4705,37.208,29.272,37.105999999999995,34.2195,56.361999999999995,34.5835,59.0485,51.5715,54.277,33.751,57.6765,49.931,53.447,33.314499999999995,57.64,49.355666666666664,-0.00550000000000006,-0.14150000000000018,0.10662500000000001,0.10856500000000001,0.0,205.805,205.70499999999998,202.49333333333334,202.49333333333334,0.0,0.0
2,0.0,0.0,0.0,1.0,1.0,0.0,0.0,1.0,0.0,100.0,1.0,1.1856,26.0,0.0,0.0,0.0,68.000001,0.0,26.0,26.0,26.0,26.0,-0.14288888888888884,0.2735000000000001,-0.09252500000000001,293.61,-2.5991,-2.795111111111111,-1.4884,-1.6102222222222222,-268.99,216.28,190.9485,0.0,0.0,0.0,0.0,0.0054666666666666665,-5.498166666666667,-5.498166666666667,-0.5504,0.030333333333333334,-0.04775000000000018,2.478,65.82900000000001,-0.06760000000000001,-0.256,1.5620000000000012,100.0,1.0,1.0,203.38666666666666,0.0,0.0,0.0,0.0,0.0,0.0,0.0,8620.8,0.0,55.0,5.0,236.95333333333332,0.0,0.0,0.0,0.0,0.0,0.0,0.0,0.0,0.10500000000000043,0.10500000000000043,0.0,0.0,0.0,55.0,616.79921,10000.0,85.000001,85.000001,85.000001,85.000001,395.0,0.0,0.0,0.0,1.0,333.33500000000004,52.322,52.322,50.11,50.11,34.0,-29.7875,20.096666666666668,-29.2425,20.509999999999998,0.0,1782.842,0.6900000000000013,100.0,28.475,27.076,42.587,41.431,0.0,0.0,100.0,0.0,0.0,0.0,0.0,3320.333333333333,2951.0,3772.625,3679.9,304.561,305.4943333333333,315.57466666666664,315.78775,21.8035,20.5285,21.787399999999998,21.323900000000002,314.999998,314.999998,324.999988,324.999988,99.55918571428572,99.50731666666667,99.56527142857144,99.54521428571428,-0.024333333333333318,-0.14633333333333332,-0.21483333333333332,0.016666666666666607,-0.061666666666667425,-0.03833333333332689,1.6166666666666667,1.693,37.272,29.3035,37.171,34.2745,56.349000000000004,34.622,59.087,51.6295,54.263999999999996,33.787,57.7125,49.987,53.434,33.349000000000004,57.6735,49.410333333333334,-0.0129999999999999,-0.1339999999999999,0.108895,0.10502,0.0,206.285,206.11,203.38666666666666,203.38666666666666,0.0,0.0
3,0.0,0.0,0.0,1.0,1.0,0.0,0.0,1.0,0.0,100.0,1.0,1.1856,26.0,0.0,0.0,0.0,68.000001,0.0,26.0,26.0,26.0,26.0,-0.1336666666666666,0.3284,0.0682,293.411,-2.7276,-2.692111111111111,-1.5138,-1.5904444444444443,-265.83,216.26999999999998,190.930125,0.0,0.0,0.0,0.0,0.007333333333333333,-5.498166666666667,-5.498166666666667,-0.5114000000000001,0.43233333333333335,-0.007000000000000117,0.30099999999999993,65.973,-0.08360000000000001,-0.201625,1.2060000000000013,100.0,1.0,1.0,203.53333333333333,0.0,0.0,0.0,0.0,0.0,0.0,0.0,8627.1,0.0,55.0,5.0,237.47,1.0,0.0,0.0,0.0,0.0,0.0,0.0,0.0,0.1529999999999987,0.1529999999999987,0.0,0.0,1.0,55.0,616.79921,10000.0,85.000001,85.000001,85.000001,85.000001,395.0,0.0,0.0,0.0,1.0,333.33500000000004,53.452,53.452,48.218,48.218,34.0,-25.427500000000002,18.868333333333332,-34.552499999999995,24.884999999999998,0.0,1782.795,0.6099999999999994,100.0,28.006,27.019,42.44,41.4,0.0,0.0,100.0,0.0,0.0,0.0,0.0,2862.666666666667,2905.8,4273.875,4244.3,306.0335,305.592,314.36533333333335,314.3495,21.8128,20.5334,21.7971,21.3323,314.999998,314.999998,324.999988,324.999988,99.55918571428572,99.50731666666667,99.5654,99.54535714285714,-0.009333333333333194,-0.14733333333333332,-0.20833333333333337,0.019500000000000073,-0.054999999999999716,-0.03499999999999659,1.51,1.546,37.33,29.334,37.232,34.327,56.333,34.662,59.1235,51.6885,54.248999999999995,33.823499999999996,57.747,50.0435,53.418,33.384,57.705,49.466,-0.03400000000000003,-0.12049999999999983,0.10626000000000001,0.10537,0.0,206.73000000000002,206.60500000000002,203.53333333333333,203.53333333333333,0.0,0.0
4,0.0,0.0,0.0,1.0,1.0,0.0,0.0,1.0,0.0,100.0,1.0,1.1856,26.0,0.0,0.0,0.0,68.000001,0.0,26.0,26.0,26.0,26.0,-0.1366666666666666,0.27859999999999996,-0.0252,293.61,-2.6651,-2.737111111111111,-1.5307,-1.593222222222222,-262.46,216.255,190.910375,0.0,0.0,0.0,0.0,0.009266666666666668,-5.498166666666667,-5.498166666666667,-0.5435,-0.772,-0.07512499999999989,-1.782,66.119,-0.08560000000000001,-0.236375,1.138,100.0,1.0,1.0,204.10666666666668,0.0,0.0,0.0,0.0,0.0,0.0,0.0,8651.4,0.0,55.0,5.0,238.0,0.0,0.0,0.0,0.0,0.0,0.0,0.0,0.0,0.20400000000000063,0.20400000000000063,0.0,0.0,0.0,55.0,616.79921,10000.0,85.000001,85.000001,85.000001,85.000001,395.0,0.0,0.0,0.0,1.0,166.665,53.085,53.085,48.721000000000004,48.721000000000004,34.0,-29.0175,19.28666666666667,-33.349999999999994,20.935000000000002,0.0,1782.745,0.5949999999999989,100.0,27.715,26.921,42.769,41.546,0.0,0.0,100.0,0.0,0.0,0.0,0.0,3241.166666666667,2886.8,4120.0,3695.7,305.1245,305.49266666666665,314.768,315.60625,21.822400000000002,20.5385,21.8077,21.3412,314.999998,314.999998,324.999988,324.999988,99.5592,99.50733333333334,99.56554285714286,99.5455,-0.02200000000000002,-0.14700000000000002,-0.21416666666666662,0.018000000000000016,-0.03999999999999915,-0.06499999999999773,1.5463333333333333,1.6019999999999999,37.39,29.365499999999997,37.298,34.3825,56.315,34.703,59.166,51.748,54.232,33.8615,57.786,50.101,53.4,33.42,57.7415,49.522,-0.03349999999999986,-0.11900000000000022,0.11033000000000001,0.10374000000000001,0.0,207.10500000000002,207.025,204.10666666666668,204.10666666666668,0.0,0.0
5,0.0,0.0,0.0,1.0,1.0,0.0,0.0,1.0,0.0,100.0,1.0,1.1856,26.0,0.0,0.0,0.0,68.000001,0.0,26.0,26.0,26.0,26.0,-0.13822222222222214,0.3035000000000001,-0.01195,293.655,-2.6695,-2.7667777777777776,-1.5079,-1.586888888888889,-259.08,216.235,190.89,0.0,0.0,0.0,0.0,0.011233333333333333,-5.498166666666667,-5.498166666666667,-0.5364,0.4726666666666667,-0.08087500000000025,1.1070000000000002,66.265,-0.0879,-0.21455000000000002,1.016,100.0,1.0,1.0,204.51333333333332,0.0,0.0,0.0,0.0,0.0,0.0,0.0,8668.6,0.0,55.0,5.0,238.5233333333333,1.0,0.0,0.0,0.0,0.0,0.0,0.0,0.0,0.254999999999999,0.254999999999999,0.0,0.0,1.0,55.0,616.79921,10000.0,85.000001,85.000001,85.000001,85.000001,395.0,0.0,0.0,0.0,1.0,333.33500000000004,53.452,53.452,48.996,48.996,34.0,-27.275,19.49666666666667,-32.535,23.205,0.0,1782.692,0.16499999999999915,100.0,27.958,26.66,42.626,41.113,0.0,0.0,100.0,0.0,0.0,0.0,0.0,3089.666666666667,2843.9,4137.625,4086.3,305.3585,305.849,314.7583333333333,314.75825,21.8325,20.5436,21.8182,21.349899999999998,314.999998,314.999998,324.999988,324.999988,99.5592,99.50735,99.5657,99.54562857142857,-0.009333333333333194,-0.1336666666666666,-0.1995,0.012166666666666659,-0.026666666666670835,-0.05833333333333002,1.5303333333333333,1.583,37.453,29.398,37.364000000000004,34.437,56.3,34.744,59.206,51.806,54.218,33.899,57.823499999999996,50.156,53.385999999999996,33.456,57.775999999999996,49.576,-0.05400000000000005,-0.09450000000000003,0.10193,0.09938000000000001,0.0,207.60500000000002,207.525,204.51333333333332,204.51333333333332,0.0,0.0
6,0.0,0.0,0.0,1.0,1.0,0.0,0.0,1.0,0.0,100.0,1.0,1.1856,26.0,0.0,0.0,0.0,68.000001,0.0,26.0,26.0,26.0,26.0,-0.10211111111111104,0.2872000000000001,-0.0059,293.411,-2.6402,-2.792888888888889,-1.5539,-1.581888888888889,-255.7,216.215,190.869375,0.0,0.0,0.0,0.0,0.0132,-5.498166666666667,-5.498166666666667,-0.531,0.08233333333333333,-0.06362500000000004,-0.49,66.412,-0.0823,-0.2151,0.7679999999999989,100.0,1.0,1.0,204.95666666666668,0.0,0.0,0.0,0.0,0.0,0.0,0.0,8687.4,0.0,55.0,5.0,239.05333333333334,0.0,0.0,0.0,0.0,0.0,0.0,0.0,0.0,0.30600000000000094,0.30600000000000094,0.0,0.0,0.0,55.0,616.79921,10000.0,85.000001,85.000001,85.000001,85.000001,395.0,0.0,0.0,0.0,1.0,166.665,53.131,53.131,48.721000000000004,48.721000000000004,34.0,-27.5675,20.615000000000002,-33.177499999999995,23.2225,0.0,1782.643,0.02500000000000213,100.0,27.696,26.907,42.682,41.577,0.0,0.0,100.0,0.0,0.0,0.0,0.0,3204.5,2875.2,4134.0,4004.4,305.1525,305.47433333333333,314.811,314.87175,21.8424,20.5488,21.8287,21.3589,314.999998,314.999998,324.999988,324.999988,99.5592,99.50736666666667,99.56584285714285,99.54577142857143,0.0013333333333331865,-0.12466666666666659,-0.2021666666666666,0.02100000000000013,-0.046666666666666856,-0.036666666666668846,1.5306666666666666,1.5545,37.515,29.43,37.429,34.493,56.285,34.784,59.2465,51.8675,54.203,33.9355,57.8615,50.215,53.370000000000005,33.491,57.811,49.634,-0.07050000000000001,-0.07500000000000018,0.10566500000000001,0.10546000000000001,0.0,208.035,207.96,204.95666666666668,204.95666666666668,0.0,0.0
7,0.0,0.0,0.0,1.0,1.0,0.0,0.0,1.0,0.0,100.0,1.0,1.1856,26.0,0.0,0.0,0.0,68.000001,0.0,26.0,26.0,26.0,26.0,-0.07255555555555548,0.2896000000000001,0.049600000000000005,293.213,-2.6101,-2.753222222222222,-1.5166,-1.6235555555555556,-252.31,216.19,190.849,0.0,0.0,0.0,0.0,0.015166666666666667,-5.498166666666667,-5.498166666666667,-0.5352,0.026000000000000002,-0.04775000000000018,1.186,66.557,-0.06670000000000001,-0.225025,0.3260000000000005,100.0,1.0,1.0,205.38,0.0,0.0,0.0,0.0,0.0,0.0,0.0,8705.4,0.0,55.0,5.0,239.57666666666665,1.0,0.0,0.0,0.0,0.0,0.0,0.0,0.0,0.3569999999999993,0.3569999999999993,0.0,0.0,1.0,55.0,616.79921,10000.0,85.000001,85.000001,85.000001,85.000001,395.0,0.0,0.0,0.0,1.0,166.665,52.795,52.795,48.843,48.843,34.0,-25.645,22.735,-30.439999999999998,26.1525,0.0,1782.591,-0.2049999999999983,100.0,27.994,26.866,42.762,41.75,0.0,0.0,100.0,0.0,0.0,0.0,0.0,3159.833333333333,3033.5,4027.25,4075.0,305.0525,305.1446666666667,314.956,314.712,21.8523,20.554,21.839199999999998,21.3679,314.999998,314.999998,324.999988,324.999988,99.5592,99.50738333333334,99.56598571428572,99.5459,0.03633333333333333,-0.09266666666666656,-0.17366666666666664,0.05600000000000005,-0.03833333333332689,-0.05666666666667197,1.535,1.538,37.577,29.4625,37.495000000000005,34.549,56.269999999999996,34.823,59.286500000000004,51.929,54.189,33.972,57.899,50.274,53.355000000000004,33.5255,57.8455,49.69166666666666,-0.09099999999999997,-0.05750000000000011,0.10039000000000001,0.11755000000000002,0.0,208.47,208.44,205.38,205.38,0.0,0.0
8,0.0,0.0,0.0,1.0,1.0,0.0,0.0,1.0,0.0,100.0,1.0,1.1856,26.0,0.0,0.0,0.0,68.000001,0.0,26.0,26.0,26.0,26.0,-0.047666666666666635,0.30290000000000017,0.0448,293.457,-2.6948,-2.715777777777778,-1.4976,-1.5502222222222222,-249.11,216.16500000000002,190.829625,0.0,0.0,0.0,0.0,0.017033333333333334,-5.498166666666667,-5.498166666666667,-0.5379,-0.5650000000000001,-0.033250000000000224,0.7210000000000001,66.695,-0.048400000000000006,-0.2154,-0.08199999999999985,100.0,1.0,1.0,205.7266666666667,0.0,0.0,0.0,0.0,0.0,0.0,0.0,8720.0,0.0,55.0,5.0,240.07333333333332,0.0,0.0,0.0,0.0,0.0,0.0,0.0,0.0,0.40500000000000114,0.40500000000000114,0.0,0.0,0.0,55.0,616.79921,10000.0,85.000001,85.000001,85.000001,85.000001,395.0,0.0,0.0,0.0,1.0,333.33500000000004,53.65,53.65,48.141,48.141,34.0,-23.197499999999998,22.82,-29.68,26.54,0.0,1782.542,-0.35999999999999943,100.0,27.53,26.789,42.738,41.835,0.0,0.0,100.0,0.0,0.0,0.0,0.0,2911.5,3001.2,4138.375,4180.7,305.975,305.34933333333333,314.644,314.46025,21.8614,20.5589,21.8491,21.3763,314.999998,314.999998,324.999988,324.999988,99.55921428571429,99.5074,99.56612857142858,99.54605714285714,0.052000000000000046,-0.07266666666666666,-0.14149999999999996,0.06666666666666687,-0.05333333333332746,-0.051666666666669414,1.5216666666666667,1.525,37.632999999999996,29.493000000000002,37.557,34.602000000000004,56.253,34.861,59.326,51.99,54.173,34.007,57.936,50.332499999999996,53.338,33.559,57.8795,49.748666666666665,-0.10299999999999998,-0.040000000000000036,0.099595,0.10283500000000001,0.0,208.89,208.87,205.7266666666667,205.7266666666667,0.0,0.0
9,0.0,0.0,0.0,1.0,1.0,0.0,0.0,1.0,0.0,100.0,1.0,1.1856,26.0,0.0,0.0,0.0,68.000001,0.0,26.0,26.0,26.0,26.0,-0.030555555555555558,0.29069999999999996,0.027450000000000002,293.167,-2.6822,-2.722,-1.5512000000000001,-1.5545555555555557,-245.91,216.14,190.80975,0.0,0.0,0.0,0.0,0.0189,-5.498166666666667,-5.498166666666667,-0.5444,0.612,-0.034250000000000114,0.754,66.828,-0.0281,-0.218675,-0.1739999999999995,100.0,1.0,1.0,206.28,0.0,0.0,0.0,0.0,0.0,0.0,0.0,8743.4,0.0,55.0,5.0,240.55333333333334,1.0,0.0,0.0,0.0,0.0,0.0,0.0,0.0,0.4529999999999994,0.4529999999999994,0.0,0.0,1.0,55.0,616.79921,10000.0,85.000001,85.000001,85.000001,85.000001,395.0,0.0,0.0,0.0,1.0,166.665,52.399,52.399,49.21,49.21,34.0,-26.177500000000002,24.846666666666664,-27.9,26.302500000000002,0.0,1782.496,-0.5,100.0,27.978,27.21,42.397999999999996,41.838,0.0,0.0,100.0,0.0,0.0,0.0,0.0,3292.5,3109.7,3963.25,4057.6000000000004,304.775,304.944,315.19733333333335,314.83075,21.8706,20.5639,21.8588,21.3847,314.999998,314.999998,324.999988,324.999988,99.55921428571429,99.5074,99.56625714285714,99.54617142857143,0.06433333333333335,-0.05066666666666664,-0.12983333333333336,0.08466666666666667,-0.03333333333333144,-0.061666666666667425,1.5786666666666667,1.5755,37.692,29.5245,37.617999999999995,34.653999999999996,56.241,34.896,59.358000000000004,52.042500000000004,54.162,34.039,57.9655,50.3825,53.326,33.59,57.907,49.798,-0.11099999999999999,-0.03949999999999987,0.11113500000000001,0.10265500000000001,0.0,209.29500000000002,209.315,206.28,206.28,0.0,0.0
10,0.0,0.0,0.0,1.0,1.0,0.0,0.0,1.0,0.0,100.0,1.0,1.1856,26.0,0.0,0.0,0.0,68.000001,0.0,26.0,26.0,26.0,26.0,0.006555555555555648,0.2845,-0.00115,292.953,-2.6614,-2.7042222222222225,-1.5357,-1.5352222222222223,-242.49,216.1125,190.789,0.0,0.0,0.0,0.0,0.020900000000000002,-5.498166666666667,-5.498166666666667,-0.518,-0.3453333333333333,0.007249999999999979,0.39400000000000013,66.975,-0.008400000000000001,-0.207075,-0.46999999999999975,100.0,1.0,1.0,206.51,0.0,0.0,0.0,0.0,0.0,0.0,0.0,8753.2,0.0,55.0,5.0,241.07999999999998,0.0,0.0,0.0,0.0,0.0,0.0,1.0,0.0,0.5040000000000013,0.5040000000000013,0.0,0.0,0.0,55.0,616.79921,10000.0,85.000001,85.000001,85.000001,85.000001,395.0,0.0,0.0,0.0,1.0,166.665,53.436,53.436,47.607,47.607,34.0,-21.1575,23.14666666666667,-30.365,29.2325,0.0,1782.445,-0.6149999999999984,100.0,27.738,27.378,42.763,42.717,0.0,0.0,100.0,0.0,0.0,0.0,0.0,2890.5,2871.1,4329.375,4276.8,306.0805,305.54533333333336,314.27666666666664,314.15475,21.8804,20.5692,21.8694,21.3938,314.999998,314.999998,324.999988,324.999988,99.55922857142858,99.5074,99.56638571428572,99.54631428571429,0.09100000000000019,-0.038000000000000034,-0.11299999999999999,0.09899999999999998,-0.03333333333333144,-0.026666666666670835,1.492,1.455,37.753,29.557499999999997,37.684,34.7115,56.227999999999994,34.9325,59.3995,52.1065,54.149,34.0725,58.004,50.4445,53.313,33.622,57.942499999999995,49.858333333333334,-0.1279999999999999,-0.027000000000000135,0.10605500000000001,0.10626000000000001,0.0,209.74,209.765,206.51,206.51,0.0,0.0
11,0.0,0.0,0.0,1.0,1.0,0.0,0.0,1.0,0.0,100.0,1.0,1.1856,26.0,0.0,0.0,0.0,68.000001,0.0,26.0,26.0,26.0,26.0,0.04899999999999993,0.29300000000000015,-0.104825,293.488,-2.7089,-2.682444444444444,-1.5903,-1.5224444444444443,-238.87,216.08249999999998,190.767,0.0,0.0,0.0,0.0,0.022600000000000002,-5.498166666666667,-5.498166666666667,-0.5613,-0.09733333333333333,0.031625000000000014,-0.776,67.122,0.0145,-0.23565,-0.6200000000000001,100.0,1.0,1.0,207.27666666666667,0.0,0.0,0.0,0.0,0.0,0.0,0.0,8785.7,0.0,55.0,5.0,241.61333333333334,1.0,0.0,0.0,0.0,0.0,0.0,1.0,0.0,0.5579999999999998,0.5579999999999998,0.0,0.0,1.0,55.0,616.79921,10000.0,85.000001,85.000001,85.000001,85.000001,395.0,0.0,0.0,0.0,1.0,166.665,52.795,52.795,49.24,49.24,34.0,-22.375,25.456666666666663,-24.037499999999998,26.39,0.0,1782.39,-0.6950000000000003,100.0,27.475,27.626,42.284,42.628,0.0,0.0,100.0,0.0,0.0,0.0,0.0,3084.166666666667,3086.5,3725.625,3859.2,305.5685,304.8503333333333,315.834,315.254,21.8905,20.575,21.8804,21.4034,314.999998,314.999998,324.999988,324.999988,99.55924285714286,99.5074,99.56654285714286,99.54647142857142,0.10966666666666658,-0.027000000000000024,-0.08616666666666661,0.12966666666666682,-0.05833333333333002,-0.060000000000002274,1.6513333333333333,1.6165,37.816,29.5935,37.751999999999995,34.771,56.212,34.972,59.436,52.17,54.134,34.1095,58.038,50.5055,53.297,33.6575,57.973,49.91833333333334,-0.131,-0.03049999999999997,0.09867500000000001,0.10473,0.0,210.185,210.215,207.27666666666667,207.27666666666667,0.0,0.0
12,0.0,0.0,0.0,1.0,1.0,0.0,0.0,1.0,0.0,100.0,1.0,1.1856,26.0,0.0,0.0,0.0,68.000001,0.0,26.0,26.0,26.0,26.0,0.0427777777777778,0.2872000000000001,0.010675,292.908,-2.7569,-2.6817777777777776,-1.5522,-1.5250000000000001,-235.85,216.06,190.7475,0.0,0.0,0.0,0.0,0.025466666666666665,-5.498166666666667,-5.498166666666667,-0.5454,0.29833333333333334,0.017249999999999988,0.6600000000000001,67.25,0.0304,-0.2068,-0.75,100.0,1.0,1.0,207.44,0.0,0.0,0.0,0.0,0.0,0.0,0.0,8792.6,0.0,55.0,5.0,242.07333333333332,0.0,0.0,0.0,0.0,0.0,0.0,1.0,0.0,0.602999999999998,0.602999999999998,0.0,0.0,0.0,55.0,616.79921,10000.0,85.000001,85.000001,85.000001,85.000001,395.0,0.0,0.0,0.0,1.0,333.33500000000004,52.78,52.78,47.897,47.897,34.0,-22.1375,27.28,-26.56,31.96,0.0,1782.344,-0.6449999999999996,100.0,27.516,27.604,42.358000000000004,42.503,0.0,0.0,100.0,0.0,0.0,0.0,0.0,3030.166666666667,3200.0,4173.375,4234.5,305.59,304.704,314.65566666666666,314.396,21.899,20.5798,21.8896,21.4113,314.999998,314.999998,324.999988,324.999988,99.55925714285715,99.50741666666667,99.56668571428571,99.54661428571428,0.11866666666666648,-0.0033333333333332993,-0.0655,0.1665000000000001,-0.05666666666667197,-0.04833333333333201,1.545,1.494,37.869,29.624000000000002,37.81,34.820499999999996,56.2,35.0075,59.4725,52.2275,54.123000000000005,34.141999999999996,58.072,50.561,53.284,33.689,58.004,49.97266666666667,-0.11699999999999999,-0.02950000000000008,0.10855500000000001,0.11241500000000001,0.0,210.60000000000002,210.625,207.44,207.44,0.0,0.0
13,0.0,0.0,0.0,1.0,1.0,0.0,0.0,1.0,0.0,100.0,1.0,1.1856,26.0,0.0,0.0,0.0,68.000001,0.0,26.0,26.0,26.0,26.0,0.0725555555555557,0.28400000000000003,0.028425000000000002,292.542,-2.7405,-2.6702222222222223,-1.6261999999999999,-1.5067777777777778,-232.42000000000002,216.035,190.72575,0.0,0.0,0.0,0.0,0.02673333333333333,-5.498166666666667,-5.498166666666667,-0.5387000000000001,-0.060333333333333336,0.02200000000000002,-0.586,67.393,0.038400000000000004,-0.214875,-0.7359999999999998,100.0,1.0,1.0,207.82,0.0,0.0,0.0,0.0,0.0,0.0,0.0,8808.7,0.0,55.0,5.0,242.58666666666664,1.0,0.0,0.0,0.0,0.0,0.0,1.0,0.0,0.6539999999999999,0.6539999999999999,0.0,0.0,1.0,55.0,616.79921,10000.0,85.000001,85.000001,85.000001,85.000001,395.0,0.0,0.0,0.0,1.0,333.33500000000004,52.49,52.49,47.867,47.867,34.0,-21.924999999999997,26.696666666666665,-28.3525,31.7175,0.0,1782.294,-0.8399999999999999,100.0,27.649,27.956,42.474000000000004,43.107,0.0,0.0,100.0,0.0,0.0,0.0,0.0,3155.833333333333,3085.6,4228.375,4292.9,305.368,304.86333333333334,314.602,314.144,21.9086,20.5853,21.9001,21.4205,314.999998,314.999998,324.999988,324.999988,99.55927142857144,99.50741666666667,99.56681428571429,99.54674285714286,0.14000000000000012,0.006333333333333302,-0.07099999999999995,0.15283333333333338,-0.051666666666669414,-0.03833333333332689,1.5183333333333333,1.4815,37.929,29.6585,37.876000000000005,34.878,56.19,35.043,59.5085,52.2885,54.113,34.175,58.1055,50.6195,53.272999999999996,33.7205,58.035,50.03,-0.14700000000000002,-0.012500000000000178,0.105885,0.10420000000000001,0.0,211.025,211.07,207.82,207.82,0.0,0.0
14,0.0,0.0,0.0,1.0,1.0,0.0,0.0,1.0,0.0,100.0,1.0,1.1856,26.0,0.0,0.0,0.0,68.000001,0.0,26.0,26.0,26.0,26.0,0.07811111111111102,0.2694000000000001,-0.011975000000000001,292.816,-2.7333,-2.617,-1.5985,-1.5130000000000001,-228.98,216.0125,190.7045,0.0,0.0,0.0,0.0,0.028733333333333333,-5.498166666666667,-5.498166666666667,-0.5481,-0.133,0.05249999999999999,1.363,67.532,0.047900000000000005,-0.22742500000000002,-1.0339999999999998,100.0,1.0,1.0,208.3466666666667,0.0,0.0,0.0,0.0,0.0,0.0,0.0,8831.1,0.0,55.0,5.0,243.08666666666664,0.0,0.0,0.0,0.0,0.0,0.0,1.0,0.0,0.7049999999999983,0.7049999999999983,0.0,0.0,0.0,55.0,616.79921,10000.0,85.000001,85.000001,85.000001,85.000001,395.0,0.0,0.0,0.0,1.0,333.33500000000004,52.643,52.643,48.111,48.111,34.0,-19.4625,28.64,-24.9075,32.1375,0.0,1782.243,-0.9800000000000004,100.0,27.708,27.828,42.519,43.198,0.0,0.0,100.0,0.0,0.0,0.0,0.0,2924.666666666667,3253.9,3964.0,4214.1,305.8635,304.54966666666667,315.14166666666665,314.43925,21.9182,20.5909,21.9105,21.4296,314.999998,314.999998,324.999988,324.999988,99.55928571428572,99.50741666666667,99.56695714285715,99.54688571428571,0.15799999999999992,0.030333333333333323,-0.0518333333333334,0.1781666666666668,-0.03999999999999915,-0.060000000000002274,1.5526666666666666,1.5135,37.989000000000004,29.692999999999998,37.941,34.935,56.18,35.081,59.545500000000004,52.3515,54.102999999999994,34.21,58.1395,50.68,53.262,33.754,58.066,50.089333333333336,-0.15300000000000002,-0.0024999999999999467,0.11024,0.10504000000000001,0.0,211.435,211.505,208.3466666666667,208.3466666666667,0.0,0.0
15,0.0,0.0,0.0,1.0,1.0,0.0,0.0,1.0,0.0,100.0,1.0,1.1856,26.0,0.0,0.0,0.0,68.000001,0.0,26.0,26.0,26.0,26.0,0.10333333333333328,0.29200000000000004,0.0082,292.816,-2.7085,-2.575222222222222,-1.6305,-1.4544444444444444,-225.73,215.9925,190.68425,0.0,0.0,0.0,0.0,0.030633333333333332,-5.498166666666667,-5.498166666666667,-0.5397000000000001,0.302,0.08274999999999988,1.097,67.664,0.06430000000000001,-0.20922500000000002,-1.2479999999999993,100.0,1.0,1.0,208.73000000000002,0.0,0.0,0.0,0.0,0.0,0.0,0.0,8847.4,0.0,55.0,5.0,243.56333333333333,1.0,0.0,0.0,0.0,0.0,0.0,1.0,0.0,0.7530000000000001,0.7530000000000001,0.0,0.0,1.0,55.0,616.79921,10000.0,85.000001,85.000001,85.000001,85.000001,395.0,0.0,0.0,0.0,1.0,166.665,52.811,52.811,48.172,48.172,34.0,-17.9375,28.196666666666665,-23.909999999999997,33.682500000000005,0.0,1782.196,-0.9450000000000003,100.0,27.709,27.887999999999998,42.275999999999996,43.255,0.0,0.0,100.0,0.0,0.0,0.0,0.0,2800.0,3232.7,3947.25,4387.7,306.207,304.6023333333333,315.225,314.04925,21.9272,20.5961,21.9203,21.4382,314.999998,314.999998,324.999988,324.999988,99.55931428571428,99.50743333333334,99.5671,99.54702857142857,0.16800000000000015,0.03299999999999992,-0.02833333333333332,0.1938333333333333,-0.030000000000001137,-0.051666666666669414,1.571,1.5190000000000001,38.045,29.7255,38.001999999999995,34.9885,56.171,35.1175,59.5785,52.4105,54.094,34.244,58.170500000000004,50.737,53.251999999999995,33.786500000000004,58.0935,50.14566666666666,-0.14849999999999985,-0.000500000000000167,0.10659,0.10481000000000001,0.0,211.85500000000002,211.93,208.73000000000002,208.73000000000002,0.0,0.0
16,0.0,0.0,0.0,1.0,1.0,0.0,0.0,1.0,0.0,100.0,1.0,1.1856,26.0,0.0,0.0,0.0,68.000001,0.0,26.0,26.0,26.0,26.0,0.13944444444444426,0.27259999999999995,-0.05385,292.862,-2.8064999999999998,-2.6078888888888887,-1.6002,-1.451888888888889,-222.28,215.975,190.662125,0.0,0.0,0.0,0.0,0.032633333333333334,-5.498166666666667,-5.498166666666667,-0.5602,-0.7263333333333334,0.06874999999999987,-1.009,67.804,0.076,-0.224925,-1.1879999999999997,100.0,1.0,1.0,209.16333333333333,0.0,0.0,0.0,0.0,0.0,0.0,0.0,8865.6,0.0,55.0,5.0,244.06666666666666,0.0,0.0,0.0,0.0,0.0,0.0,1.0,0.0,0.8039999999999985,0.8039999999999985,0.0,0.0,0.0,55.0,616.79921,10000.0,85.000001,85.000001,85.000001,85.000001,395.0,0.0,0.0,0.0,1.0,333.33500000000004,52.765,52.765,47.882,47.882,34.0,-19.845,28.335,-23.802500000000002,32.167500000000004,0.0,1782.144,-0.884999999999998,100.0,27.205,28.143,42.446,43.46,0.0,0.0,100.0,0.0,0.0,0.0,0.0,2995.5,3181.6,3973.75,4140.8,305.939,304.57933333333335,315.202,314.56025,21.9364,20.6017,21.9308,21.447400000000002,314.999998,314.999998,324.999988,324.999988,99.55932857142857,99.50743333333334,99.56724285714286,99.54718571428572,0.17066666666666652,0.03600000000000003,-0.030000000000000027,0.20666666666666678,-0.04333333333332945,-0.04833333333333201,1.5533333333333332,1.512,38.102999999999994,29.7605,38.067,35.046,56.157,35.157,59.617,52.4735,54.081,34.28,58.206,50.7975,53.238,33.8215,58.126,50.205,-0.1519999999999999,-0.004999999999999893,0.11026500000000002,0.106895,0.0,212.23000000000002,212.345,209.16333333333333,209.16333333333333,0.0,0.0
17,0.0,0.0,0.0,1.0,1.0,0.0,0.0,1.0,0.0,100.0,1.0,1.1856,26.0,0.0,0.0,0.0,68.000001,0.0,26.0,26.0,26.0,26.0,0.11355555555555563,0.2996000000000001,-0.032600000000000004,292.511,-2.7644,-2.5629999999999997,-1.6402999999999999,-1.4765555555555556,-218.81,215.96,190.6395,0.0,0.0,0.0,0.0,0.03466666666666667,-5.498166666666667,-5.498166666666667,-0.5511,0.5563333333333333,0.050124999999999975,0.685,67.943,0.0791,-0.20722500000000002,-1.1820000000000004,100.0,1.0,1.0,209.56333333333333,0.0,0.0,0.0,0.0,0.0,0.0,0.0,8882.7,0.0,55.0,5.0,244.56333333333333,1.0,0.0,0.0,0.0,0.0,0.0,1.0,0.0,0.8550000000000004,0.8550000000000004,0.0,0.0,1.0,55.0,616.79921,10000.0,85.000001,85.000001,85.000001,85.000001,395.0,0.0,0.0,0.0,1.0,333.33500000000004,52.429,52.429,47.867,47.867,34.0,-19.2775,27.975,-25.075,34.2775,0.0,1782.093,-0.9749999999999979,100.0,27.863,28.326999999999998,42.302,43.356,0.0,0.0,100.0,0.0,0.0,0.0,0.0,2986.0,3156.2,4182.75,4318.9,305.7465,304.8446666666667,314.7493333333333,314.2615,21.945999999999998,20.6074,21.9411,21.4564,314.999998,314.999998,324.999988,324.999988,99.55934285714285,99.50743333333334,99.56737142857143,99.54731428571428,0.17899999999999983,0.04933333333333323,-0.015833333333333366,0.21250000000000013,-0.04999999999999716,-0.05833333333333002,1.5593333333333332,1.5175,38.162,29.7965,38.132,35.1025,56.149,35.198,59.652,52.536,54.073,34.3185,58.2385,50.8575,53.229,33.858000000000004,58.1555,50.263999999999996,-0.15300000000000002,-0.0015000000000000568,0.107175,0.11282500000000001,0.0,212.73000000000002,212.815,209.56333333333333,209.56333333333333,0.0,0.0
18,0.0,0.0,0.0,1.0,1.0,0.0,0.0,1.0,0.0,100.0,1.0,1.1856,26.0,0.0,0.0,0.0,68.000001,0.0,26.0,26.0,26.0,26.0,0.12544444444444447,0.27580000000000005,-0.030225000000000002,292.496,-2.7949,-2.541444444444444,-1.6543999999999999,-1.4232222222222222,-215.55,215.95,190.6185,0.0,0.0,0.0,0.0,0.03656666666666667,-5.498166666666667,-5.498166666666667,-0.5595,-0.5356666666666666,0.07287500000000002,1.185,68.07300000000001,0.0828,-0.22275,-1.306,100.0,1.0,1.0,209.96666666666667,0.0,0.0,0.0,0.0,0.0,0.0,0.0,8899.8,0.0,55.0,5.0,245.03666666666666,0.0,0.0,0.0,0.0,0.0,0.0,1.0,0.0,0.9029999999999987,0.9029999999999987,0.0,0.0,0.0,55.0,616.79921,10000.0,85.000001,85.000001,85.000001,85.000001,395.0,0.0,0.0,0.0,1.0,333.33500000000004,52.399,52.399,47.714,47.714,34.0,-18.8875,30.358333333333334,-23.932499999999997,32.53,0.0,1782.045,-1.1799999999999997,100.0,27.615,28.121000000000002,42.634,43.768,0.0,0.0,100.0,0.0,0.0,0.0,0.0,2975.166666666667,3360.5,4010.25,4225.9,305.8455,304.318,315.0933333333333,314.43775,21.9548,20.6127,21.951,21.4651,314.999998,314.999998,324.999988,324.999988,99.55935714285714,99.50745,99.56751428571428,99.54745714285714,0.19133333333333358,0.06333333333333324,-0.012166666666666659,0.20766666666666667,-0.041666666666671404,-0.054999999999999716,1.5533333333333332,1.513,38.217,29.8295,38.194,35.157,56.14,35.2355,59.688,52.5965,54.064,34.353,58.2715,50.916,53.219,33.8915,58.1855,50.321666666666665,-0.16449999999999987,0.010999999999999899,0.10619,0.10321000000000001,0.0,213.095,213.17000000000002,209.96666666666667,209.96666666666667,0.0,0.0
19,0.0,0.0,0.0,1.0,1.0,0.0,0.0,1.0,0.0,100.0,1.0,1.1856,26.0,0.0,0.0,0.0,68.000001,0.0,26.0,26.0,26.0,26.0,0.15333333333333332,0.28910000000000013,0.032025000000000005,292.007,-2.7709,-2.523111111111111,-1.6743000000000001,-1.401,-212.07,215.94,190.595875,0.0,0.0,0.0,0.0,0.03856666666666667,-5.498166666666667,-5.498166666666667,-0.5519000000000001,0.8213333333333334,0.08387499999999992,-0.43099999999999994,68.21000000000001,0.0941,-0.21255000000000002,-1.58,100.0,1.0,1.0,210.37666666666667,0.0,0.0,0.0,0.0,0.0,0.0,0.0,8917.1,0.0,55.0,5.0,245.52666666666664,1.0,0.0,0.0,0.0,0.0,0.0,1.0,0.0,0.9540000000000006,0.9540000000000006,0.0,0.0,1.0,55.0,616.79921,10000.0,85.000001,85.000001,85.000001,85.000001,395.0,0.0,0.0,0.0,1.0,333.33500000000004,51.650999999999996,51.650999999999996,47.607,47.607,34.0,-19.055,30.648333333333333,-25.31,33.915,0.0,1781.995,-1.4549999999999983,100.0,27.941,28.807000000000002,42.277,43.844,0.0,0.0,100.0,0.0,0.0,0.0,0.0,3141.5,3321.0,4166.5,4383.6,305.3945,304.141,314.8403333333333,314.062,21.9643,20.6185,21.9613,21.4743,314.999998,314.999998,324.999988,324.999988,99.55938571428571,99.50745,99.56765714285714,99.54761428571429,0.20866666666666678,0.07400000000000007,-0.014666666666666606,0.21166666666666667,-0.04833333333333201,-0.06666666666666998,1.561,1.5055,38.277,29.866,38.257999999999996,35.2145,56.132999999999996,35.2795,59.7225,52.6595,54.057,34.3935,58.3035,50.977000000000004,53.211,33.9305,58.2145,50.38166666666667,-0.1955,0.02849999999999997,0.111085,0.09980000000000001,0.0,213.54000000000002,213.655,210.37666666666667,210.37666666666667,0.0,0.0
20,0.0,0.0,0.0,1.0,1.0,0.0,0.0,1.0,0.0,100.0,1.0,1.1856,26.0,0.0,0.0,0.0,68.000001,0.0,26.0,26.0,26.0,26.0,0.21977777777777785,0.27370000000000005,-0.0575,292.374,-2.8271,-2.5795555555555554,-1.6105,-1.5153333333333332,-208.39,215.9375,190.57225,0.0,0.0,0.0,0.0,0.0407,-5.498166666666667,-5.498166666666667,-0.5568000000000001,-1.147,0.09562500000000007,-0.59,68.357,0.10830000000000001,-0.22512500000000002,-1.9720000000000004,100.0,1.0,1.0,210.73000000000002,0.0,0.0,0.0,0.0,0.0,0.0,0.0,8932.1,0.0,55.0,5.0,246.06,0.0,0.0,0.0,0.0,0.0,0.0,0.0,0.0,1.0079999999999991,1.0079999999999991,0.0,0.0,0.0,55.0,616.79921,10000.0,85.000001,85.000001,85.000001,85.000001,395.0,0.0,0.0,0.0,1.0,166.665,52.78,52.78,47.028,47.028,34.0,-16.2275,30.936666666666667,-22.78,36.9225,0.0,1781.941,-1.7749999999999986,100.0,27.336,28.54,42.744,44.393,0.0,0.0,100.0,0.0,0.0,0.0,0.0,2831.0,3187.3,4084.875,4279.2,306.4095,304.576,314.882,314.11875,21.974,20.6245,21.9725,21.4842,314.999998,314.999998,324.999988,324.999988,99.55941428571428,99.50746666666667,99.56781428571429,99.54777142857142,0.23433333333333373,0.10466666666666669,0.011666666666666714,0.2450000000000001,-0.02833333333332888,-0.054999999999999716,1.5150000000000001,1.4375,38.337,29.9035,38.328,35.2765,56.123000000000005,35.325,59.763999999999996,52.7295,54.047,34.436,58.342,51.0445,53.199,33.971000000000004,58.2495,50.448,-0.21199999999999997,0.06149999999999989,0.11063500000000001,0.10575000000000001,0.0,213.925,214.075,210.73000000000002,210.73000000000002,0.0,0.0
21,0.0,0.0,0.0,1.0,1.0,0.0,0.0,1.0,0.0,100.0,1.0,1.1856,26.0,0.0,0.0,0.0,68.000001,0.0,26.0,26.0,26.0,26.0,0.2128888888888889,0.27380000000000004,-0.059525,292.618,-2.7505,-2.6234444444444445,-1.6836,-1.466,-205.31,215.94,190.551875,0.0,0.0,0.0,0.0,0.0425,-5.498166666666667,-5.498166666666667,-0.5793,0.4836666666666667,0.09162500000000007,0.4119999999999999,68.473,0.1265,-0.22612500000000002,-2.29,100.0,1.0,1.0,211.32666666666665,0.0,0.0,0.0,0.0,0.0,0.0,0.0,8957.3,0.0,55.0,5.0,246.47666666666666,1.0,0.0,0.0,0.0,0.0,0.0,0.0,0.0,1.0530000000000008,1.0530000000000008,0.0,0.0,1.0,55.0,616.79921,10000.0,85.000001,85.000001,85.000001,85.000001,395.0,0.0,0.0,0.0,1.0,333.33500000000004,52.185,52.185,48.309,48.309,34.0,-16.4525,32.455,-19.9,34.905,0.0,1781.894,-1.1499999999999986,100.0,27.691,28.634,42.082,43.966,0.0,0.0,100.0,0.0,0.0,0.0,0.0,2897.333333333333,3326.6,3859.375,4118.7,305.9455,304.24833333333333,315.55533333333335,314.7165,21.9822,20.6297,21.9815,21.4922,314.999998,314.999998,324.999988,324.999988,99.55944285714286,99.50748333333334,99.56792857142857,99.5479,0.2290000000000001,0.09766666666666679,0.047666666666666746,0.26983333333333337,-0.041666666666671404,-0.054999999999999716,1.6453333333333333,1.5585,38.388999999999996,29.936,38.384,35.326499999999996,56.117000000000004,35.366,59.7915,52.783500000000004,54.042,34.474000000000004,58.3675,51.0965,53.193,34.0075,58.272,50.499,-0.18300000000000005,0.027499999999999858,0.10740000000000001,0.10730500000000001,0.0,214.305,214.47500000000002,211.32666666666665,211.32666666666665,0.0,0.0
22,0.0,0.0,0.0,1.0,1.0,0.0,0.0,1.0,0.0,100.0,1.0,1.1856,26.0,0.0,0.0,0.0,68.000001,0.0,26.0,26.0,26.0,26.0,0.1737777777777778,0.26370000000000005,0.006025,292.084,-2.7386,-2.618888888888889,-1.6766,-1.4584444444444444,-201.61,215.9475,190.526625,0.0,0.0,0.0,0.0,0.044666666666666674,-5.498166666666667,-5.498166666666667,-0.5575,0.02466666666666667,0.09650000000000003,0.7470000000000001,68.62,0.137,-0.206925,-1.2239999999999993,100.0,1.0,1.0,211.56,0.0,0.0,0.0,0.0,0.0,0.0,0.0,8967.3,0.0,55.0,5.0,247.00333333333333,0.0,0.0,0.0,0.0,0.0,0.0,0.0,0.0,1.1069999999999993,1.1069999999999993,0.0,0.0,0.0,55.0,616.79921,10000.0,85.000001,85.000001,85.000001,85.000001,395.0,0.0,0.0,0.0,1.0,166.665,52.338,52.338,47.073,47.073,34.0,-18.2625,28.436666666666667,-22.725,38.5175,0.0,1781.842,0.03999999999999915,100.0,27.748,28.733,42.553,44.321,0.0,0.0,100.0,0.0,0.0,0.0,0.0,2773.333333333333,3270.8,4118.125,4456.7,306.2875,304.39366666666666,314.834,313.90275,21.9921,20.6359,21.9925,21.5021,314.999998,314.999998,324.999988,324.999988,99.55947142857143,99.5075,99.56808571428571,99.54807142857143,0.16199999999999992,0.016666666666666607,0.034499999999999975,0.2643333333333333,-0.04999999999999716,-0.054999999999999716,1.5086666666666666,1.4585,38.45,29.9745,38.453,35.388,56.107,35.411,59.832,52.8535,54.031,34.5155,58.405,51.164500000000004,53.181,34.0475,58.306,50.565666666666665,-0.07400000000000007,-0.08349999999999991,0.10477500000000001,0.10565000000000001,0.0,214.81,214.89,211.56,211.56,0.0,0.0
23,0.0,0.0,0.0,1.0,1.0,0.0,0.0,1.0,0.0,100.0,1.0,1.1856,26.0,0.0,0.0,0.0,68.000001,0.0,26.0,26.0,26.0,26.0,0.10499999999999998,0.25880000000000014,-0.043275,292.114,-2.7474,-2.5933333333333333,-1.5754000000000001,-1.5496666666666667,-198.1,215.95749999999998,190.503125,0.0,0.0,0.0,0.0,0.046700000000000005,-5.498166666666667,-5.498166666666667,-0.5763,-0.12033333333333333,0.06087500000000001,-1.176,68.753,0.1048,-0.23267500000000002,0.18599999999999994,100.0,1.0,1.0,212.0966666666667,0.0,0.0,0.0,0.0,0.0,0.0,0.0,8990.0,0.0,55.0,5.0,247.48666666666668,1.0,0.0,0.0,0.0,0.0,0.0,0.0,0.0,1.1580000000000013,1.1580000000000013,0.0,0.0,1.0,55.0,616.79921,10000.0,85.000001,85.000001,85.000001,85.000001,395.0,0.0,0.0,0.0,1.0,166.665,51.650999999999996,51.650999999999996,48.157,48.157,34.0,-24.4925,24.871666666666666,-23.072499999999998,31.1725,0.0,1781.789,0.8500000000000014,100.0,28.071,28.814,42.751,44.447,0.0,0.0,100.0,0.0,0.0,0.0,0.0,3223.833333333333,3164.6,3909.375,3963.6000000000004,305.1335,304.614,315.345,314.94775,22.0014,20.6417,22.003,21.511400000000002,314.999998,314.999998,324.999988,324.999988,99.55948571428571,99.5075,99.56824285714286,99.54821428571428,0.09966666666666635,-0.04033333333333333,-0.029000000000000026,0.19566666666666688,-0.05666666666667197,-0.02833333333332888,1.5366666666666666,1.558,38.509,30.0105,38.519,35.446,56.095,35.4505,59.868,52.917500000000004,54.019999999999996,34.552,58.4385,51.226,53.168,34.083,58.336,50.626,-0.020499999999999963,-0.1459999999999999,0.11131500000000001,0.102025,0.0,215.255,215.22500000000002,212.0966666666667,212.0966666666667,0.0,0.0
24,0.0,0.0,0.0,1.0,1.0,0.0,0.0,1.0,0.0,100.0,1.0,1.1856,26.0,0.0,0.0,0.0,68.000001,0.0,26.0,26.0,26.0,26.0,0.012666666666666604,0.28180000000000005,-0.108325,292.343,-2.7417,-2.632,-1.5955,-1.5163333333333333,-195.01,215.97,190.482,0.0,0.0,0.0,0.0,0.0485,-5.498166666666667,-5.498166666666667,-0.5773,-0.5026666666666667,0.04537499999999994,0.4930000000000001,68.874,0.0539,-0.216375,0.9380000000000006,100.0,1.0,1.0,212.34,0.0,0.0,0.0,0.0,0.0,0.0,0.0,9000.3,0.0,55.0,5.0,247.91666666666666,0.0,0.0,0.0,0.0,0.0,0.0,0.0,0.0,1.2029999999999994,1.2029999999999994,0.0,0.0,0.0,55.0,616.79921,10000.0,85.000001,85.000001,85.000001,85.000001,395.0,0.0,0.0,0.0,1.0,166.665,52.872,52.872,47.028,47.028,34.0,-22.84,22.15833333333333,-28.794999999999998,29.872500000000002,0.0,1781.746,1.0399999999999991,100.0,28.019,28.265,43.152,44.053,0.0,0.0,100.0,0.0,0.0,0.0,0.0,2848.666666666667,3009.0,4278.375,4146.6,306.1485,305.31,314.39166666666665,314.6355,22.0097,20.6466,22.0122,21.5194,314.999998,314.999998,324.999988,324.999988,99.5595,99.5075,99.56835714285714,99.54835714285714,0.05933333333333346,-0.07466666666666666,-0.07433333333333336,0.14650000000000007,-0.02833333333332888,-0.060000000000002274,1.4953333333333334,1.545,38.56,30.041,38.577,35.4965,56.081,35.4845,59.900999999999996,52.971000000000004,54.006,34.5835,58.469,51.2775,53.153999999999996,34.113,58.364,50.677,0.0045000000000001705,-0.15949999999999998,0.10458500000000001,0.10569500000000001,0.0,215.64499999999998,215.59,212.34,212.34,0.0,0.0
25,0.0,0.0,0.0,1.0,1.0,0.0,0.0,1.0,0.0,100.0,1.0,1.1856,26.0,0.0,0.0,0.0,68.000001,0.0,26.0,26.0,26.0,26.0,-0.031888888888888856,0.25870000000000015,-0.0439,292.297,-2.7763,-2.627666666666667,-1.5816,-1.547111111111111,-191.49,215.98250000000002,190.45675,0.0,0.0,0.0,0.0,0.05053333333333333,-5.498166666666667,-5.498166666666667,-0.6132000000000001,-0.04066666666666666,0.011874999999999858,-1.877,69.005,-0.014100000000000001,-0.22675,1.564,100.0,1.0,1.0,212.90666666666667,0.0,0.0,0.0,0.0,0.0,0.0,0.0,9024.3,0.0,55.0,5.0,248.39,1.0,0.0,0.0,0.0,0.0,0.0,0.0,0.0,1.2540000000000013,1.2540000000000013,0.0,0.0,1.0,55.0,616.79921,10000.0,85.000001,85.000001,85.000001,85.000001,395.0,0.0,0.0,0.0,1.0,333.33500000000004,51.879999999999995,51.879999999999995,47.882,47.882,34.0,-29.205,22.008333333333333,-29.8325,25.2075,0.0,1781.694,1.0250000000000021,100.0,28.012,28.371000000000002,43.061,43.508,0.0,0.0,100.0,0.0,0.0,0.0,0.0,3316.166666666667,3200.6,4021.125,3954.0,305.055,304.585,315.1603333333333,315.09825,22.019,20.6522,22.0226,21.5284,314.999998,314.999998,324.999988,324.999988,99.5595,99.50751666666666,99.56851428571429,99.5485,0.014666666666666828,-0.11766666666666659,-0.14883333333333337,0.08083333333333331,-0.045000000000001705,-0.05333333333332746,1.547,1.601,38.619,30.0765,38.641,35.5525,56.063,35.525999999999996,59.936,53.028999999999996,53.989999999999995,34.622,58.5015,51.3335,53.137,34.15,58.3935,50.73133333333333,0.0,-0.15850000000000009,0.10095000000000001,0.11506000000000001,0.0,216.07999999999998,215.96,212.90666666666667,212.90666666666667,0.0,0.0
26,0.0,0.0,0.0,1.0,1.0,0.0,0.0,1.0,0.0,100.0,1.0,1.1856,26.0,0.0,0.0,0.0,68.000001,0.0,26.0,26.0,26.0,26.0,-0.1333333333333333,0.2814000000000001,0.0718,291.122,-2.6702,-2.7583333333333333,-1.5876000000000001,-1.581777777777778,-187.97,215.995,190.430875,0.0,0.0,0.0,0.0,0.0526,-5.498166666666667,-5.498166666666667,-0.5712,0.805,-0.04962500000000025,-0.07899999999999996,69.141,-0.0679,-0.19562500000000002,1.6440000000000001,100.0,1.0,1.0,213.06,0.0,0.0,0.0,0.0,0.0,0.0,0.0,9030.9,0.0,55.0,5.0,248.88,0.0,0.0,0.0,0.0,0.0,0.0,0.0,0.0,1.3049999999999997,1.3049999999999997,0.0,0.0,0.0,55.0,616.79921,10000.0,85.000001,85.000001,85.000001,85.000001,395.0,0.0,0.0,0.0,1.0,333.33500000000004,51.315,51.315,46.173,46.173,34.0,-28.7075,20.696666666666665,-38.1325,26.525,0.0,1781.642,0.8200000000000003,100.0,29.356,28.551000000000002,44.057,43.412,0.0,0.0,100.0,0.0,0.0,0.0,0.0,3244.666666666667,3074.8,4609.25,4403.2,304.9245,305.00466666666665,313.70533333333333,314.0565,22.0288,20.6579,22.0333,21.5376,314.999998,314.999998,324.999988,324.999988,99.5595,99.50753333333333,99.56865714285715,99.54865714285714,-0.0023333333333332984,-0.15200000000000002,-0.1855,0.025500000000000078,-0.02833333333332888,-0.046666666666666856,1.419,1.4845,38.68,30.112000000000002,38.708,35.61,56.05,35.5715,59.9775,53.089,53.977000000000004,34.664,58.5405,51.3915,53.123000000000005,34.19,58.429,50.788,-0.01200000000000001,-0.1495000000000002,0.10684500000000001,0.102315,0.0,216.54500000000002,216.41500000000002,213.06,213.06,0.0,0.0
27,0.0,0.0,0.0,1.0,1.0,0.0,0.0,1.0,0.0,100.0,1.0,1.1856,26.0,0.0,0.0,0.0,68.000001,0.0,26.0,26.0,26.0,26.0,-0.13844444444444448,0.25239999999999996,-0.018225,291.519,-2.6111,-2.7510000000000003,-1.5577,-1.6756666666666669,-184.64999999999998,216.0025,190.40775,0.0,0.0,0.0,0.0,0.054533333333333336,-5.498166666666667,-5.498166666666667,-0.5971000000000001,-1.111,-0.0714999999999999,0.496,69.266,-0.0952,-0.24355000000000002,1.532,100.0,1.0,1.0,213.53333333333333,0.0,0.0,0.0,0.0,0.0,0.0,0.0,9050.9,0.0,55.0,5.0,249.32999999999998,1.0,0.0,0.0,0.0,0.0,0.0,0.0,0.0,1.352999999999998,1.352999999999998,0.0,0.0,1.0,55.0,616.79921,10000.0,85.000001,85.000001,85.000001,85.000001,395.0,0.0,0.0,0.0,1.0,333.33500000000004,51.666,51.666,46.646,46.646,34.0,-28.73,20.07,-35.1175,24.3375,0.0,1781.595,0.740000000000002,100.0,29.207,28.159,45.0,43.74,0.0,0.0,100.0,0.0,0.0,0.0,0.0,3233.0,3052.6,4184.25,4029.5,304.9505,305.21133333333336,314.6286666666667,314.828,22.0377,20.663,22.0435,21.5464,314.999998,314.999998,324.999988,324.999988,99.5595,99.50755,99.5688,99.54878571428571,-0.018000000000000016,-0.15800000000000003,-0.21816666666666662,0.010666666666666602,-0.05333333333332746,-0.054999999999999716,1.468,1.5354999999999999,38.736000000000004,30.144,38.772,35.664500000000004,56.036,35.6115,60.0185,53.1465,53.963,34.701,58.579,51.4465,53.108000000000004,34.2255,58.4645,50.84166666666667,-0.022499999999999964,-0.1379999999999999,0.10896000000000002,0.111935,0.0,216.885,216.75,213.53333333333333,213.53333333333333,0.0,0.0
28,0.0,0.0,0.0,1.0,1.0,0.0,0.0,1.0,0.0,100.0,1.0,1.1856,26.0,0.0,0.0,0.0,68.000001,0.0,26.0,26.0,26.0,26.0,-0.14155555555555555,0.2731000000000001,-0.040625,291.855,-2.6335,-2.740555555555556,-1.5026000000000002,-1.6396666666666668,-181.11,216.01,190.382375,0.0,0.0,0.0,0.0,0.05656666666666667,-5.498166666666667,-5.498166666666667,-0.6015,0.6723333333333333,-0.08400000000000007,-0.6559999999999999,69.395,-0.1135,-0.21685000000000001,1.5079999999999991,100.0,1.0,1.0,214.04666666666668,0.0,0.0,0.0,0.0,0.0,0.0,0.0,9072.6,0.0,55.0,5.0,249.79666666666668,0.0,0.0,0.0,0.0,0.0,0.0,0.0,0.0,1.404,1.404,0.0,0.0,0.0,55.0,616.79921,10000.0,85.000001,85.000001,85.000001,85.000001,395.0,0.0,0.0,0.0,1.0,333.33500000000004,51.743,51.743,47.501,47.501,34.0,-30.7375,18.596666666666668,-34.685,22.595,0.0,1781.543,0.5800000000000018,100.0,29.195,28.106,44.282,43.115,0.0,0.0,100.0,0.0,0.0,0.0,0.0,3386.166666666667,2902.7,4176.125,4042.7,304.711,305.462,314.77166666666665,314.893,22.0474,20.6685,22.0538,21.5553,314.999998,314.999998,324.999988,324.999988,99.55951428571429,99.50756666666666,99.56895714285714,99.54892857142858,-0.02933333333333321,-0.16899999999999993,-0.23549999999999993,-0.010333333333333306,-0.045000000000001705,-0.04999999999999716,1.524,1.577,38.797,30.177999999999997,38.836,35.7205,56.022999999999996,35.6555,60.0545,53.202,53.951,34.7415,58.6125,51.4995,53.095,34.263999999999996,58.4955,50.89333333333333,-0.038999999999999924,-0.12550000000000017,0.10691500000000001,0.10756,0.0,217.32,217.19,214.04666666666668,214.04666666666668,0.0,0.0
29,0.0,0.0,0.0,1.0,1.0,0.0,0.0,1.0,0.0,100.0,1.0,1.1856,26.0,0.0,0.0,0.0,68.000001,0.0,26.0,26.0,26.0,26.0,-0.17433333333333334,0.25470000000000015,0.0056500000000000005,291.443,-2.5677,-2.8049999999999997,-1.5316,-1.6263333333333332,-177.57,216.01,190.356,0.0,0.0,0.0,0.0,0.05863333333333334,-5.498166666666667,-5.498166666666667,-0.6059,-0.75,-0.0847500000000001,0.6719999999999999,69.53,-0.1116,-0.217475,1.1320000000000014,100.0,1.0,1.0,214.28333333333333,0.0,0.0,0.0,0.0,0.0,0.0,0.0,9082.7,0.0,55.0,5.0,250.28,1.0,0.0,0.0,0.0,0.0,0.0,0.0,0.0,1.4549999999999983,1.4549999999999983,0.0,0.0,1.0,55.0,616.79921,10000.0,85.000001,85.000001,85.000001,85.000001,395.0,0.0,0.0,0.0,1.0,333.33500000000004,51.650999999999996,51.650999999999996,46.494,46.494,34.0,-29.509999999999998,20.468333333333334,-36.405,24.265,0.0,1781.493,0.46000000000000085,100.0,29.079,27.773,44.873000000000005,43.264,0.0,0.0,100.0,0.0,0.0,0.0,0.0,3317.833333333333,3104.7,4295.125,4186.1,304.7205,304.9073333333333,314.3256666666667,314.523,22.0569,20.6739,22.0645,21.5645,314.999998,314.999998,324.999988,324.999988,99.55951428571429,99.50758333333333,99.56911428571429,99.54908571428571,-0.025666666666666726,-0.17299999999999993,-0.22466666666666657,-0.0001666666666666483,-0.02833333333332888,-0.04833333333333201,1.4463333333333335,1.495,38.855999999999995,30.212,38.903,35.7785,56.007,35.698,60.098,53.262,53.936,34.781,58.653,51.557,53.08,34.302,58.5325,50.949333333333335,-0.04800000000000004,-0.11900000000000022,0.10094,0.11286500000000001,0.0,217.675,217.565,214.28333333333333,214.28333333333333,0.0,0.0
30,0.0,0.0,0.0,1.0,1.0,0.0,0.0,1.0,0.0,100.0,1.0,1.1856,26.0,0.0,0.0,0.0,68.000001,0.0,26.0,26.0,26.0,26.0,-0.15433333333333332,0.2662,0.055375,291.016,-2.6241,-2.6932222222222224,-1.473,-1.7001111111111111,-174.23000000000002,216.0075,190.331,0.0,0.0,0.0,0.0,0.060566666666666664,-5.498166666666667,-5.498166666666667,-0.6038,0.7783333333333334,-0.08612500000000001,0.784,69.651,-0.1067,-0.218275,1.0419999999999998,100.0,1.0,1.0,214.70333333333332,0.0,0.0,0.0,0.0,0.0,0.0,0.0,9100.4,0.0,55.0,5.0,250.71666666666667,0.0,0.0,0.0,0.0,0.0,0.0,1.0,0.0,1.5030000000000001,1.5030000000000001,0.0,0.0,0.0,55.0,616.79921,10000.0,85.000001,85.000001,85.000001,85.000001,395.0,0.0,0.0,0.0,1.0,333.33500000000004,50.842,50.842,46.799,46.799,34.0,-30.2825,20.03,-35.2825,26.247500000000002,0.0,1781.444,0.26500000000000057,100.0,29.922,28.465,44.725,43.241,0.0,0.0,100.0,0.0,0.0,0.0,0.0,3449.333333333333,3065.7,4331.125,4246.6,304.314,305.081,314.332,314.318,22.0662,20.6792,22.0744,21.5731,314.999998,314.999998,324.999988,324.999988,99.55952857142857,99.50761666666666,99.56925714285714,99.54921428571429,-0.0003333333333332966,-0.15133333333333332,-0.21566666666666656,0.008000000000000007,-0.023333333333326323,-0.06666666666666998,1.4536666666666667,1.505,38.914,30.2455,38.965,35.832,55.997,35.7415,60.134,53.3165,53.926,34.821,58.687,51.6095,53.069,34.34,58.5635,51.00033333333333,-0.06899999999999995,-0.10450000000000026,0.10555,0.10558500000000001,0.0,218.085,218.01,214.70333333333332,214.70333333333332,0.0,0.0
31,0.0,0.0,0.0,1.0,1.0,0.0,0.0,1.0,0.0,100.0,1.0,1.1856,26.0,0.0,0.0,0.0,68.000001,0.0,26.0,26.0,26.0,26.0,-0.11844444444444446,0.2471000000000001,-7.500000000000001e-05,291.016,-2.6969,-2.7617777777777777,-1.5651000000000002,-1.6705555555555558,-170.67000000000002,216.0025,190.30525,0.0,0.0,0.0,0.0,0.06263333333333335,-5.498166666666667,-5.498166666666667,-0.5892000000000001,-0.5853333333333334,-0.07624999999999993,-0.759,69.783,-0.0936,-0.21957500000000002,0.6720000000000006,100.0,1.0,1.0,215.0233333333333,0.0,0.0,0.0,0.0,0.0,0.0,0.0,9114.0,0.0,55.0,5.0,251.19,1.0,0.0,0.0,0.0,0.0,0.0,1.0,0.0,1.5539999999999985,1.5539999999999985,0.0,0.0,1.0,55.0,616.79921,10000.0,85.000001,85.000001,85.000001,85.000001,395.0,0.0,0.0,0.0,1.0,333.33500000000004,51.559,51.559,45.486,45.486,34.0,-28.2875,20.188333333333333,-37.95,26.48,0.0,1781.394,0.14000000000000057,100.0,29.412,28.688,45.219,43.980000000000004,0.0,0.0,100.0,0.0,0.0,0.0,0.0,3243.0,2945.4,4513.125,4216.0,305.253,305.28633333333335,313.958,314.4605,22.0757,20.6848,22.0852,21.5825,314.999998,314.999998,324.999988,324.999988,99.55952857142857,99.50763333333333,99.56941428571429,99.54935714285715,0.0030000000000001137,-0.1443333333333333,-0.20666666666666667,0.022666666666666613,-0.03999999999999915,-0.036666666666668846,1.435,1.464,38.973,30.28,39.032,35.8905,55.980999999999995,35.7855,60.177,53.3775,53.912,34.8615,58.7275,51.668,53.053,34.3785,58.601,51.05733333333333,-0.08199999999999985,-0.08999999999999986,0.101455,0.10927,0.0,218.45,218.39499999999998,215.0233333333333,215.0233333333333,0.0,0.0
32,0.0,0.0,0.0,1.0,1.0,0.0,0.0,1.0,0.0,100.0,1.0,1.1856,26.0,0.0,0.0,0.0,68.000001,0.0,26.0,26.0,26.0,26.0,-0.12244444444444447,0.2630000000000001,-0.049525,291.306,-2.6451000000000002,-2.710111111111111,-1.5861,-1.5793333333333333,-167.11,215.9925,190.279625,0.0,0.0,0.0,0.0,0.06470000000000001,-5.498166666666667,-5.498166666666667,-0.6102000000000001,0.19766666666666666,-0.09762499999999985,0.23399999999999999,69.91,-0.0775,-0.23045000000000002,0.5939999999999994,100.0,1.0,1.0,215.58333333333331,0.0,0.0,0.0,0.0,0.0,0.0,0.0,9137.8,0.0,55.0,5.0,251.64666666666665,0.0,0.0,0.0,0.0,0.0,0.0,1.0,0.0,1.6050000000000004,1.6050000000000004,0.0,0.0,0.0,55.0,616.79921,10000.0,85.000001,85.000001,85.000001,85.000001,395.0,0.0,0.0,0.0,1.0,333.33500000000004,51.178,51.178,46.768,46.768,34.0,-28.314999999999998,21.725,-33.5175,24.822499999999998,0.0,1781.344,0.06500000000000128,100.0,29.553,28.551000000000002,44.868,43.668,0.0,0.0,100.0,0.0,0.0,0.0,0.0,3335.333333333333,3099.3,4215.0,4103.5,304.7115,305.03366666666665,314.73966666666666,314.876,22.0852,20.6905,22.0956,21.5916,314.999998,314.999998,324.999988,324.999988,99.55952857142857,99.50765,99.56955714285715,99.54951428571428,0.02066666666666661,-0.12066666666666659,-0.1838333333333334,0.04200000000000004,-0.02499999999999858,-0.051666666666669414,1.53,1.5645,39.033,30.3155,39.098,35.9475,55.967,35.829,60.214,53.4345,53.897999999999996,34.902,58.762,51.723,53.039,34.417500000000004,58.6325,51.11066666666667,-0.0754999999999999,-0.08999999999999986,0.10060500000000001,0.10918000000000001,0.0,218.84,218.79500000000002,215.58333333333331,215.58333333333331,0.0,0.0
33,0.0,0.0,0.0,1.0,1.0,0.0,0.0,1.0,0.0,100.0,1.0,1.1856,26.0,0.0,0.0,0.0,68.000001,0.0,26.0,26.0,26.0,26.0,-0.08911111111111103,0.256,-0.035750000000000004,291.367,-2.6458,-2.7587777777777776,-1.5556,-1.591777777777778,-163.75,215.98250000000002,190.2545,0.0,0.0,0.0,0.0,0.06666666666666667,-5.498166666666667,-5.498166666666667,-0.6099,-0.3596666666666667,-0.08499999999999996,1.4020000000000001,70.032,-0.06620000000000001,-0.2142,0.4220000000000006,100.0,1.0,1.0,215.83333333333331,0.0,0.0,0.0,0.0,0.0,0.0,0.0,9148.4,0.0,55.0,5.0,252.09,1.0,0.0,0.0,0.0,0.0,0.0,1.0,0.0,1.6529999999999987,1.6529999999999987,0.0,0.0,1.0,55.0,616.79921,10000.0,85.000001,85.000001,85.000001,85.000001,395.0,0.0,0.0,0.0,1.0,333.33500000000004,51.879999999999995,51.879999999999995,46.356,46.356,34.0,-26.182499999999997,21.696666666666665,-34.230000000000004,27.555,0.0,1781.295,-0.06500000000000128,100.0,29.296,28.246000000000002,44.864000000000004,43.758,0.0,0.0,100.0,0.0,0.0,0.0,0.0,3151.166666666667,3014.0,4319.75,4289.7,305.3155,305.3023333333333,314.385,314.33925,22.0941,20.6956,22.1055,21.6003,314.999998,314.999998,324.999988,324.999988,99.55952857142857,99.50766666666667,99.56971428571428,99.54965714285714,0.02666666666666684,-0.11499999999999999,-0.17699999999999994,0.055500000000000105,-0.05333333333332746,-0.05666666666667197,1.466,1.4815,39.088,30.348,39.16,36.001999999999995,55.952,35.8665,60.251,53.4905,53.884,34.936,58.7965,51.7765,53.024,34.45,58.664,51.16266666666667,-0.08000000000000007,-0.08050000000000024,0.11053500000000001,0.11148500000000001,0.0,219.22500000000002,219.175,215.83333333333331,215.83333333333331,0.0,0.0
34,0.0,0.0,0.0,1.0,1.0,0.0,0.0,1.0,0.0,100.0,1.0,1.1856,26.0,0.0,0.0,0.0,68.000001,0.0,26.0,26.0,26.0,26.0,-0.0798888888888889,0.25880000000000014,-0.0519,291.824,-2.6635,-2.740666666666667,-1.5918,-1.609,-159.95999999999998,215.9675,190.225,0.0,0.0,0.0,0.0,0.06886666666666666,-5.498166666666667,-5.498166666666667,-0.6447,-0.7573333333333334,-0.051000000000000156,1.105,70.168,-0.048100000000000004,-0.22612500000000002,0.24399999999999977,100.0,1.0,1.0,216.32666666666665,0.0,0.0,0.0,0.0,0.0,0.0,0.0,9169.3,0.0,55.0,5.0,252.57666666666665,0.0,0.0,0.0,0.0,0.0,0.0,1.0,0.0,1.7070000000000007,1.7070000000000007,0.0,0.0,0.0,55.0,616.79921,10000.0,85.000001,85.000001,85.000001,85.000001,395.0,0.0,0.0,0.0,1.0,166.665,52.155,52.155,47.318,47.318,34.0,-25.1025,22.325,-30.93,27.5075,0.0,1781.242,-0.06500000000000128,100.0,28.98,27.953,44.487,43.809,0.0,0.0,100.0,0.0,0.0,0.0,0.0,3076.833333333333,3008.8,4073.5,4144.6,305.358,305.296,315.002,314.6365,22.104,20.7014,22.1166,21.6101,314.999998,314.999998,324.999988,324.999988,99.55954285714286,99.50768333333333,99.56985714285715,99.54981428571429,0.04466666666666663,-0.09533333333333338,-0.15533333333333332,0.07333333333333325,-0.03499999999999659,-0.05833333333333002,1.5343333333333333,1.529,39.15,30.384,39.229,36.063,55.935,35.9075,60.2885,53.5525,53.867999999999995,34.974000000000004,58.8315,51.8365,53.007999999999996,34.486000000000004,58.696,51.221000000000004,-0.08250000000000002,-0.07750000000000012,0.10422500000000001,0.113985,0.0,219.60000000000002,219.59,216.32666666666665,216.32666666666665,0.0,0.0
35,0.0,0.0,0.0,1.0,1.0,0.0,0.0,1.0,0.0,100.0,1.0,1.1856,26.0,0.0,0.0,0.0,68.000001,0.0,26.0,26.0,26.0,26.0,-0.03211111111111109,0.24850000000000017,-0.07295,291.748,-2.6693,-2.686888888888889,-1.5632000000000001,-1.616888888888889,-156.38,215.9525,190.194875,0.0,0.0,0.0,0.0,0.07093333333333333,-5.498166666666667,-5.498166666666667,-0.6861,-0.2683333333333333,-0.05750000000000011,-0.865,70.294,-0.033100000000000004,-0.23005,0.13400000000000034,100.0,1.0,1.0,216.78333333333333,0.0,0.0,0.0,0.0,0.0,0.0,0.0,9188.7,0.0,55.0,5.0,253.03333333333336,1.0,0.0,0.0,0.0,0.0,0.0,1.0,0.0,1.7579999999999991,1.7579999999999991,0.0,0.0,1.0,55.0,616.79921,10000.0,85.000001,85.000001,85.000001,85.000001,395.0,0.0,0.0,0.0,1.0,166.665,51.498,51.498,47.043,47.043,34.0,-26.34,24.886666666666667,-29.544999999999998,26.1575,0.0,1781.19,-0.06500000000000128,100.0,28.661,28.46,44.141999999999996,43.45,0.0,0.0,100.0,0.0,0.0,0.0,0.0,3264.0,3275.8,4025.125,3931.9,305.0595,304.3706666666667,315.10366666666664,315.148,22.1131,20.7071,22.1269,21.6192,314.999998,314.999998,324.999988,324.999988,99.55954285714286,99.50768333333333,99.57001428571428,99.54995714285714,0.050666666666666416,-0.08166666666666655,-0.14533333333333331,0.08033333333333337,-0.04999999999999716,-0.03833333333332689,1.5583333333333333,1.558,39.207,30.4195,39.293,36.12,55.918,35.948,60.323499999999996,53.608000000000004,53.852000000000004,35.0115,58.8645,51.8895,52.991,34.522,58.725,51.272999999999996,-0.09050000000000002,-0.0674999999999999,0.11113,0.10514000000000001,0.0,220.0,219.985,216.78333333333336,216.78333333333333,0.0,0.0
