,ABS Active,ABS Enabled,AID Allow Tire Blankets,AID Auto Blip,AID Auto Clutch,AID Auto Shift,AID Fuel Rate,AID Ideal Line,AID Mech Damage,AID Stability,AID Tire Wear Rate,Air Density,Air Temp,Ballast,Best Lap Delta,Best Lap Time,Brake Bias,Brake Pos,Brake Temp FL,Brake Temp FR,Brake Temp RL,Brake Temp RR,CG Accel Lateral,CG Accel Longitudinal,CG Accel Vertical,CG Height,Camber FL,Camber FR,Camber RL,Camber RR,Car Coord X,Car Coord Y,Car Coord Z,Car Damage Front,Car Damage Left,Car Damage Rear,Car Damage Right,Car Pos Norm,Caster FL,Caster FR,Chassis Pitch Angle,Chassis Pitch Rate,Chassis Roll Angle,Chassis Roll Rate,Chassis Velocity X,Chassis Velocity Y,Chassis Velocity Z,Chassis Yaw Rate,Clutch Pos,DRS Active,DRS Available,Drive Train Speed,ERS Heat Charging,ERS Is Charging,ERS Max Energy,ERS Power Level,ERS Recovery Level,Engine Brake Setting,Engine Limiter,Engine RPM,Flags,Fuel Level,Gear,Ground Speed,HR Sample Clock,In Pit,KERS Charge,KERS Deployed Energy,KERS Input,KERS Max Energy,LR Sample Clock,Lap Invalidated,Lap Time,Lap Time2,Last Lap Time,Last Sector Time,MR Sample Clock,Max Fuel,Max Power,Max RPM,Max Sus Travel FL,Max Sus Travel FR,Max Sus Travel RL,Max Sus Travel RR,Max Torque,Max Turbo Boost,Num Tires Off Track,Penalties Enabled,Position,Raw Data Sample Rate,Ride Height FL,Ride Height FR,Ride Height RL,Ride Height RR,Road Temp,Self Align Torque FL,Self Align Torque FR,Self Align Torque RL,Self Align Torque RR,Session Lap Count,Session Time Left,Steering Angle,Surface Grip,Suspension Travel FL,Suspension Travel FR,Suspension Travel RL,Suspension Travel RR,TC Active,TC Enabled,Throttle Pos,Tire Dirt Level FL,Tire Dirt Level FR,Tire Dirt Level RL,Tire Dirt Level RR,Tire Load FL,Tire Load FR,Tire Load RL,Tire Load RR,Tire Loaded Radius FL,Tire Loaded Radius FR,Tire Loaded Radius RL,Tire Loaded Radius RR,Tire Pressure FL,Tire Pressure FR,Tire Pressure RL,Tire Pressure RR,Tire Radius FL,Tire Radius FR,Tire Radius RL,Tire Radius RR,Tire Rubber Grip FL,Tire Rubber Grip FR,Tire Rubber Grip RL,Tire Rubber Grip RR,Tire Slip Angle FL,Tire Slip Angle FR,Tire Slip Angle RL,Tire Slip Angle RR,Tire Slip Ratio FL,Tire Slip Ratio FR,Tire Slip Ratio RL,Tire Slip Ratio RR,Tire Temp Core FL,Tire Temp Core FR,Tire Temp Core RL,Tire Temp Core RR,Tire Temp Inner FL,Tire Temp Inner FR,Tire Temp Inner RL,Tire Temp Inner RR,Tire Temp Middle FL,Tire Temp Middle FR,Tire Temp Middle RL,Tire Temp Middle RR,Tire Temp Outer FL,Tire Temp Outer FR,Tire Temp Outer RL,Tire Temp Outer RR,Toe In FL,Toe In FR,Toe In RL,Toe In RR,Turbo Boost,Wheel Angular Speed FL,Wheel Angular Speed FR,Wheel Angular Speed RL,Wheel Angular Speed RR,Wind Direction,Wind Speed
0,0.0,0.0,0.0,1.0,1.0,0.0,0.0,1.0,0.0,100.0,1.0,1.1856,26.0,0.0,0.0,0.0,68.0,0.0,26.0,26.0,26.0,26.0,-0.13349999999999995,0.3145,0.08395000000000001,293.976,-2.6906,-2.6885000000000003,-1.4877,-1.583625,-275.8,216.265,190.98825,0.0,0.0,0.0,0.0,0.0015333333333333334,-5.498166666666667,-5.498166666666667,-0.5544,1.4883333333333333,-0.03962500000000002,-1.2200000000000002,65.511,-0.0732,-0.21880000000000002,1.4920000000000009,100.0,1.0,1.0,202.26,0.0,0.0,0.0,0.0,0.0,0.0,0.0,8573.0,0.0,55.0,5.0,235.80666666666667,0.0,0.0,0.0,0.0,0.0,0.0,0.0,0.0,0.0030000000000001137,0.0030000000000001137,0.0,0.0,0.0,55.0,616.79921,10000.0,85.0,85.0,85.0,85.0,395.0,0.0,0.0,0.0,1.0,20.0,52.643,52.643,49.744,49.744,34.0,-30.38,21.35666666666667,-32.35333333333334,22.83,0.0,1782.907,1.0500000000000007,100.0,27.498,26.819,40.695,40.222,0.0,0.0,100.0,0.0,0.0,0.0,0.0,3223.5,3286.8,4196.0,3958.8,305.0985,304.2905,314.696,314.92675,21.7782,20.5113,21.7622,21.3051,314.99999,314.99999,324.99998,324.99998,99.55888571428571,99.50711666666666,99.56471428571429,99.54485714285714,-0.05149999999999999,-0.15749999999999997,-0.19733333333333336,0.021500000000000075,-0.06666666666666998,-0.045000000000001705,1.5696666666666665,1.596,37.114000000000004,29.1955,37.013999999999996,34.157,56.287,34.4445,58.914500000000004,51.4705,54.206,33.626,57.547,49.8375,53.376999999999995,33.1975,57.5115,49.266666666666666,0.009333333333333194,-0.1499999999999999,0.10046000000000001,0.11568,0.0,205.335,205.185,202.26,202.26,0.0,0.0
1,0.0,0.0,0.0,1.0,1.0,0.0,0.0,1.0,0.0,100.0,1.0,1.1856,26.0,0.0,0.0,0.0,68.000001,0.0,26.0,26.0,26.0,26.0,-0.16812499999999997,0.3094000000000001,-0.00235,293.228,-2.6274,-2.78925,-1.5121,-1.564875,-272.46,216.26749999999998,190.96825,0.0,0.0,0.0,0.0,0.0034666666666666665,-5.498166666666667,-5.498166666666667,-0.4918,-0.2856666666666667,-0.07374999999999998,-0.18500000000000005,65.66499999999999,-0.0891,-0.190725,1.75,100.0,1.0,1.0,202.45,0.0,0.0,0.0,0.0,0.0,0.0,0.0,8581.1,0.0,55.0,5.0,236.36,1.0,0.0,0.0,0.0,0.0,0.0,0.0,0.0,0.053999999999998494,0.053999999999998494,0.0,0.0,1.0,55.0,616.79921,10000.0,85.000001,85.000001,85.000001,85.000001,395.0,0.0,0.0,0.0,1.0,166.665,53.848,53.848,48.355000000000004,48.355000000000004,34.0,-27.9,16.133333333333333,-36.06666666666666,26.965,0.0,1782.857,1.0399999999999991,100.0,27.712,26.78,43.034,41.22,0.0,0.0,100.0,0.0,0.0,0.0,0.0,3030.0,2584.7,4286.571428571428,4693.7,305.4715,306.618,314.35633333333334,313.17925,21.7882,20.5163,21.773,21.3142,314.999998,314.999998,324.999988,324.999988,99.5589,99.50713333333333,99.56487142857142,99.545,-0.04774999999999996,-0.17674999999999996,-0.22799999999999998,0.0024999999999999467,-0.01833333333333087,-0.03999999999999915,1.42,1.48,37.176,29.227,37.081,34.213499999999996,56.272999999999996,34.4865,58.9615,51.5355,54.193,33.665,57.591,49.9,53.363,33.235,57.5525,49.327666666666666,0.0086666666666666,-0.1615000000000002,0.11119000000000001,0.111265,0.0,205.76,205.625,202.45,202.45,0.0,0.0
2,0.0,0.0,0.0,1.0,1.0,0.0,0.0,1.0,0.0,100.0,1.0,1.1856,26.0,0.0,0.0,0.0,68.000001,0.0,26.0,26.0,26.0,26.0,-0.1745,0.30500000000000016,-0.0064,293.808,-2.5669,-2.834375,-1.4704000000000002,-1.6436250000000001,-269.1,216.265,190.949375,0.0,0.0,0.0,0.0,0.005433333333333333,-5.498166666666667,-5.498166666666667,-0.5484,-0.2623333333333333,-0.07862500000000017,1.776,65.807,-0.1052,-0.24880000000000002,1.9339999999999993,100.0,1.0,1.0,203.35,0.0,0.0,0.0,0.0,0.0,0.0,0.0,8619.2,0.0,55.0,5.0,236.87333333333333,0.0,0.0,0.0,0.0,0.0,0.0,0.0,0.0,0.10500000000000043,0.10500000000000043,0.0,0.0,0.0,55.0,616.79921,10000.0,85.000001,85.000001,85.000001,85.000001,395.0,0.0,0.0,0.0,1.0,333.33500000000004,52.582,52.582,50.232,50.232,34.0,-32.2625,18.151666666666667,-31.386666666666663,18.0475,0.0,1782.803,0.8200000000000003,100.0,28.298000000000002,26.655,42.84,41.081,0.0,0.0,100.0,0.0,0.0,0.0,0.0,3496.5,2822.2,3817.8571428571427,3570.0,304.181,305.8775,315.45366666666666,316.04775,21.7984,20.5211,21.7834,21.3229,314.999998,314.999998,324.999988,324.999988,99.55891428571428,99.50715,99.56502857142857,99.54514285714286,-0.04949999999999999,-0.17899999999999994,-0.25949999999999995,-0.030000000000000027,-0.061666666666667425,-0.06499999999999773,1.627,1.7189999999999999,37.239999999999995,29.256999999999998,37.146,34.268,56.262,34.5285,59.003,51.597,54.182,33.703,57.6295,49.959,53.352000000000004,33.2715,57.588,49.385333333333335,-0.011666666666666714,-0.14150000000000018,0.10668000000000001,0.10305500000000001,0.0,206.22500000000002,206.055,203.35000000000002,203.35,0.0,0.0
3,0.0,0.0,0.0,1.0,1.0,0.0,0.0,1.0,0.0,100.0,1.0,1.1856,26.0,0.0,0.0,0.0,68.000001,0.0,26.0,26.0,26.0,26.0,-0.17374999999999996,0.31200000000000006,0.08445,293.35,-2.7049000000000003,-2.7145,-1.4943,-1.606875,-265.74,216.2575,190.9295,0.0,0.0,0.0,0.0,0.007366666666666667,-5.498166666666667,-5.498166666666667,-0.5101,0.355,-0.027124999999999844,0.532,65.96000000000001,-0.11620000000000001,-0.19970000000000002,1.3960000000000008,100.0,1.0,1.0,203.48000000000002,0.0,0.0,0.0,0.0,0.0,0.0,0.0,8624.7,0.0,55.0,5.0,237.42333333333335,1.0,0.0,0.0,0.0,0.0,0.0,0.0,0.0,0.1559999999999988,0.1559999999999988,0.0,0.0,1.0,55.0,616.79921,10000.0,85.000001,85.000001,85.000001,85.000001,395.0,0.0,0.0,0.0,1.0,166.665,53.421,53.421,48.065,48.065,34.0,-27.0625,17.810000000000002,-35.99666666666667,23.515,0.0,1782.753,0.6700000000000017,100.0,28.113,26.805,42.742000000000004,41.16,0.0,0.0,100.0,0.0,0.0,0.0,0.0,2910.3333333333335,2893.2,4295.428571428572,4281.2,305.881,305.63875,314.306,314.2595,21.8083,20.5263,21.7938,21.331699999999998,314.999998,314.999998,324.999988,324.999988,99.55892857142857,99.50716666666666,99.56515714285715,99.54528571428571,-0.044499999999999984,-0.17574999999999996,-0.23366666666666658,-0.016666666666666607,-0.041666666666671404,-0.03833333333332689,1.475,1.5115,37.302,29.2895,37.212,34.323,56.248999999999995,34.5695,59.041,51.6565,54.17,33.741,57.6655,50.016,53.338,33.3075,57.6215,49.441,-0.026666666666666616,-0.125,0.100705,0.10924500000000001,0.0,206.69,206.555,203.48000000000002,203.48000000000002,0.0,0.0
4,0.0,0.0,0.0,1.0,1.0,0.0,0.0,1.0,0.0,100.0,1.0,1.1856,26.0,0.0,0.0,0.0,68.000001,0.0,26.0,26.0,26.0,26.0,-0.17337499999999995,0.27760000000000007,-0.01925,293.61,-2.6455,-2.7584999999999997,-1.5152999999999999,-1.612125,-262.57,216.2475,190.911,0.0,0.0,0.0,0.0,0.0092,-5.498166666666667,-5.498166666666667,-0.5418000000000001,-0.9603333333333334,-0.09125000000000005,-0.8220000000000001,66.09700000000001,-0.1095,-0.237625,1.2620000000000005,100.0,1.0,1.0,204.0366666666667,0.0,0.0,0.0,0.0,0.0,0.0,0.0,8648.4,0.0,55.0,5.0,237.92000000000002,0.0,0.0,0.0,0.0,0.0,0.0,0.0,0.0,0.20400000000000063,0.20400000000000063,0.0,0.0,0.0,55.0,616.79921,10000.0,85.000001,85.000001,85.000001,85.000001,395.0,0.0,0.0,0.0,1.0,333.33500000000004,53.101,53.101,48.599000000000004,48.599000000000004,34.0,-29.8175,18.843333333333334,-33.849999999999994,20.3475,0.0,1782.705,0.7149999999999999,100.0,27.9,26.632,43.098,41.36,0.0,0.0,100.0,0.0,0.0,0.0,0.0,3205.166666666667,2941.9,4098.0,3698.6,305.126,305.50925,314.7393333333333,315.608,21.8175,20.5311,21.8038,21.34,314.999998,314.999998,324.999988,324.999988,99.55892857142857,99.50718333333333,99.5653,99.54541428571429,-0.05049999999999999,-0.16799999999999993,-0.22816666666666663,-0.0013333333333332975,-0.046666666666666856,-0.06333333333333258,1.5253333333333332,1.5815000000000001,37.358999999999995,29.319,37.274,34.3755,56.233999999999995,34.6095,59.0815,51.713,54.155,33.7775,57.7035,50.07,53.323,33.343,57.657,49.494,-0.01866666666666661,-0.12749999999999995,0.10637500000000001,0.102495,0.0,207.04000000000002,206.96,204.0366666666667,204.0366666666667,0.0,0.0
5,0.0,0.0,0.0,1.0,1.0,0.0,0.0,1.0,0.0,100.0,1.0,1.1856,26.0,0.0,0.0,0.0,68.000001,0.0,26.0,26.0,26.0,26.0,-0.145625,0.30100000000000016,-0.0468,293.73199999999997,-2.6555,-2.7813749999999997,-1.4969999999999999,-1.6,-259.2,216.23250000000002,190.89075,0.0,0.0,0.0,0.0,0.011166666666666668,-5.498166666666667,-5.498166666666667,-0.5364,0.4553333333333333,-0.09799999999999986,-0.052000000000000046,66.243,-0.10740000000000001,-0.21432500000000002,1.2479999999999993,100.0,1.0,1.0,204.47333333333333,0.0,0.0,0.0,0.0,0.0,0.0,0.0,8666.9,0.0,55.0,5.0,238.44333333333333,1.0,0.0,0.0,0.0,0.0,0.0,0.0,0.0,0.254999999999999,0.254999999999999,0.0,0.0,1.0,55.0,616.79921,10000.0,85.000001,85.000001,85.000001,85.000001,395.0,0.0,0.0,0.0,1.0,166.665,53.543,53.543,49.103,49.103,34.0,-28.765,17.87166666666667,-34.69,21.8575,0.0,1782.655,0.26000000000000156,100.0,27.879,26.631,42.679,41.016,0.0,0.0,100.0,0.0,0.0,0.0,0.0,3199.666666666667,2713.8,4166.428571428572,3996.7,305.192,306.09425,314.7436666666667,314.91175,21.8275,20.5361,21.8142,21.3487,314.999998,314.999998,324.999988,324.999988,99.55892857142857,99.50721666666666,99.56544285714286,99.54554285714286,-0.026249999999999996,-0.15700000000000003,-0.2426666666666666,-0.006166666666666654,-0.03499999999999659,-0.051666666666669414,1.5366666666666666,1.5945,37.422,29.3505,37.339,34.429,56.221000000000004,34.6505,59.1225,51.769999999999996,54.143,33.8155,57.742,50.1245,53.31,33.379,57.692499999999995,49.547,-0.05800000000000005,-0.09450000000000003,0.10985500000000001,0.11266000000000001,0.0,207.555,207.45499999999998,204.47333333333333,204.47333333333333,0.0,0.0
6,0.0,0.0,0.0,1.0,1.0,0.0,0.0,1.0,0.0,100.0,1.0,1.1856,26.0,0.0,0.0,0.0,68.000001,0.0,26.0,26.0,26.0,26.0,-0.13649999999999995,0.30069999999999997,0.01315,293.472,-2.6276,-2.75225,-1.546,-1.591625,-255.82,216.2125,190.87025,0.0,0.0,0.0,0.0,0.013133333333333335,-5.498166666666667,-5.498166666666667,-0.5302,0.09866666666666668,-0.07100000000000017,0.904,66.39,-0.0993,-0.2124,0.8360000000000003,100.0,1.0,1.0,204.90666666666667,0.0,0.0,0.0,0.0,0.0,0.0,0.0,8685.2,0.0,55.0,5.0,238.97333333333333,0.0,0.0,0.0,0.0,0.0,0.0,0.0,0.0,0.30600000000000094,0.30600000000000094,0.0,0.0,0.0,55.0,616.79921,10000.0,85.000001,85.000001,85.000001,85.000001,395.0,0.0,0.0,0.0,1.0,166.665,53.192,53.192,48.737,48.737,34.0,-27.215,20.648333333333333,-33.68,23.225,0.0,1782.605,0.129999999999999,100.0,27.859,26.593,42.834,41.341,0.0,0.0,100.0,0.0,0.0,0.0,0.0,3121.8333333333335,2984.4,4088.714285714286,4049.9,305.2145,305.3835,314.85766666666666,314.84225,21.8374,20.5412,21.8247,21.357599999999998,314.999998,314.999998,324.999988,324.999988,99.55894285714285,99.50723333333333,99.56558571428572,99.54568571428571,-0.007249999999999979,-0.13075000000000003,-0.22299999999999998,0.01550000000000007,-0.041666666666671404,-0.05666666666667197,1.5443333333333333,1.572,37.483999999999995,29.3825,37.405,34.485,56.206,34.6915,59.1635,51.832,54.129000000000005,33.853,57.78,50.1835,53.295,33.415,57.728,49.605000000000004,-0.06333333333333324,-0.08199999999999985,0.11446500000000001,0.11287000000000001,0.0,207.985,207.91,204.90666666666667,204.90666666666667,0.0,0.0
7,0.0,0.0,0.0,1.0,1.0,0.0,0.0,1.0,0.0,100.0,1.0,1.1856,26.0,0.0,0.0,0.0,68.000001,0.0,26.0,26.0,26.0,26.0,-0.107375,0.28780000000000006,0.047150000000000004,293.213,-2.597,-2.747125,-1.5024000000000002,-1.581,-252.63,216.19,190.850875,0.0,0.0,0.0,0.0,0.015000000000000001,-5.498166666666667,-5.498166666666667,-0.5348,-0.07200000000000001,-0.06174999999999997,1.131,66.527,-0.0787,-0.2227,0.4060000000000006,100.0,1.0,1.0,205.27666666666667,0.0,0.0,0.0,0.0,0.0,0.0,0.0,8700.9,0.0,55.0,5.0,239.47,1.0,0.0,0.0,0.0,0.0,0.0,0.0,0.0,0.3539999999999992,0.3539999999999992,0.0,0.0,1.0,55.0,616.79921,10000.0,85.000001,85.000001,85.000001,85.000001,395.0,0.0,0.0,0.0,1.0,166.665,52.811,52.811,48.843,48.843,34.0,-27.09,22.2,-31.743333333333336,24.695,0.0,1782.555,-0.134999999999998,100.0,27.959,26.647,42.864000000000004,41.591,0.0,0.0,100.0,0.0,0.0,0.0,0.0,3252.833333333333,3036.6,4078.8571428571427,4102.4,304.7945,305.222,314.8206666666667,314.69775,21.8468,20.5461,21.834600000000002,21.366,314.999998,314.999998,324.999988,324.999988,99.55894285714285,99.50723333333333,99.56572857142856,99.54582857142857,0.020000000000000018,-0.10250000000000004,-0.1928333333333333,0.03716666666666679,-0.04333333333332945,-0.04999999999999716,1.524,1.547,37.542,29.413,37.466,34.5375,56.192,34.729,59.2025,51.89,54.114999999999995,33.8875,57.8165,50.239,53.281,33.4475,57.7615,49.659333333333336,-0.08599999999999985,-0.05650000000000022,0.11341000000000001,0.10543000000000001,0.0,208.385,208.335,205.27666666666667,205.27666666666667,0.0,0.0
8,0.0,0.0,0.0,1.0,1.0,0.0,0.0,1.0,0.0,100.0,1.0,1.1856,26.0,0.0,0.0,0.0,68.000001,0.0,26.0,26.0,26.0,26.0,-0.06087500000000001,0.2915000000000001,-0.022250000000000002,293.472,-2.6787,-2.723,-1.4903,-1.55775,-249.23,216.16750000000002,190.830375,0.0,0.0,0.0,0.0,0.016966666666666668,-5.498166666666667,-5.498166666666667,-0.5338,-0.382,-0.04200000000000026,-0.42500000000000004,66.674,-0.0558,-0.21325000000000002,0.06400000000000006,100.0,1.0,1.0,205.66666666666669,0.0,0.0,0.0,0.0,0.0,0.0,0.0,8717.5,0.0,55.0,5.0,239.99333333333334,0.0,0.0,0.0,0.0,0.0,0.0,0.0,0.0,0.40500000000000114,0.40500000000000114,0.0,0.0,0.0,55.0,616.79921,10000.0,85.000001,85.000001,85.000001,85.000001,395.0,0.0,0.0,0.0,1.0,333.33500000000004,53.741,53.741,48.08,48.08,34.0,-24.615000000000002,21.485,-32.38666666666666,25.8475,0.0,1782.503,-0.29499999999999815,100.0,27.425,26.805,42.71,41.782,0.0,0.0,100.0,0.0,0.0,0.0,0.0,2983.3333333333335,2875.0,4252.0,4150.6,305.8395,305.549,314.477,314.5065,21.8565,20.5513,21.8451,21.3749,314.999998,314.999998,324.999988,324.999988,99.55894285714285,99.50725,99.56587142857143,99.54595714285715,0.02750000000000008,-0.08550000000000002,-0.17699999999999994,0.054333333333333345,-0.03166666666666629,-0.036666666666668846,1.5003333333333333,1.5115,37.602999999999994,29.4455,37.532,34.593,56.176,34.7675,59.2425,51.9505,54.099000000000004,33.923,57.854,50.2975,53.263999999999996,33.482,57.796,49.71633333333333,-0.09633333333333316,-0.044500000000000206,0.109075,0.104275,0.0,208.805,208.79500000000002,205.66666666666669,205.66666666666669,0.0,0.0
9,0.0,0.0,0.0,1.0,1.0,0.0,0.0,1.0,0.0,100.0,1.0,1.1856,26.0,0.0,0.0,0.0,68.000001,0.0,26.0,26.0,26.0,26.0,-0.03462500000000002,0.2993000000000001,0.031900000000000005,293.167,-2.6752000000000002,-2.7285,-1.5489000000000002,-1.56075,-245.82999999999998,216.14,190.80925,0.0,0.0,0.0,0.0,0.018966666666666666,-5.498166666666667,-5.498166666666667,-0.5421,0.6243333333333334,-0.03849999999999998,0.837,66.815,-0.0346,-0.215875,-0.08399999999999963,100.0,1.0,1.0,206.23666666666668,0.0,0.0,0.0,0.0,0.0,0.0,0.0,8741.6,0.0,55.0,5.0,240.50666666666666,1.0,0.0,0.0,0.0,0.0,0.0,0.0,0.0,0.4559999999999995,0.4559999999999995,0.0,0.0,1.0,55.0,616.79921,10000.0,85.000001,85.000001,85.000001,85.000001,395.0,0.0,0.0,0.0,1.0,166.665,52.444,52.444,49.194,49.194,34.0,-25.82,24.35333333333333,-28.41,26.695,0.0,1782.455,-0.4399999999999977,100.0,27.983,27.125,42.471000000000004,41.778,0.0,0.0,100.0,0.0,0.0,0.0,0.0,3295.5,3090.2,3968.285714285714,4076.4,304.7605,305.00575,315.183,314.78575,21.8663,20.5566,21.8554,21.3838,314.999998,314.999998,324.999988,324.999988,99.55895714285714,99.50726666666667,99.56601428571429,99.5461,0.07125000000000004,-0.0595,-0.14,0.08666666666666667,-0.04833333333333201,-0.05833333333333002,1.5766666666666667,1.563,37.664,29.479,37.596000000000004,34.6485,56.162,34.8075,59.2795,52.01,54.086,33.9595,57.8885,50.3545,53.25,33.516999999999996,57.8275,49.772333333333336,-0.11499999999999999,-0.040999999999999925,0.10494500000000001,0.10958500000000002,0.0,209.275,209.26999999999998,206.23666666666668,206.23666666666668,0.0,0.0
10,0.0,0.0,0.0,1.0,1.0,0.0,0.0,1.0,0.0,100.0,1.0,1.1856,26.0,0.0,0.0,0.0,68.000001,0.0,26.0,26.0,26.0,26.0,-0.012499999999999956,0.2945,0.0523,292.938,-2.6513,-2.711125,-1.5862,-1.542,-242.62,216.115,190.78975,0.0,0.0,0.0,0.0,0.020833333333333336,-5.498166666666667,-5.498166666666667,-0.5169,-0.3266666666666667,0.0015000000000000568,1.8290000000000002,66.95400000000001,-0.0151,-0.20367500000000002,-0.46200000000000063,100.0,1.0,1.0,206.44,0.0,0.0,0.0,0.0,0.0,0.0,0.0,8750.2,0.0,55.0,5.0,241.00333333333333,0.0,0.0,0.0,0.0,0.0,0.0,1.0,0.0,0.5040000000000013,0.5040000000000013,0.0,0.0,0.0,55.0,616.79921,10000.0,85.000001,85.000001,85.000001,85.000001,395.0,0.0,0.0,0.0,1.0,333.33500000000004,53.406,53.406,47.623,47.623,34.0,-20.740000000000002,23.673333333333332,-30.96,29.775000000000002,0.0,1782.405,-0.6099999999999994,100.0,27.886,27.137999999999998,42.887,42.509,0.0,0.0,100.0,0.0,0.0,0.0,0.0,2841.0,2958.7,4303.0,4345.5,306.082,305.47075,314.30766666666665,314.07975,21.8755,20.5616,21.8654,21.3924,314.999998,314.999998,324.999988,324.999988,99.55895714285714,99.50726666666667,99.56614285714285,99.54624285714286,0.09275000000000011,-0.04074999999999995,-0.11383333333333334,0.09983333333333322,-0.036666666666668846,-0.05833333333333002,1.4913333333333334,1.4645000000000001,37.722,29.509999999999998,37.659,34.7025,56.15,34.842,59.3185,52.071,54.075,33.9915,57.925,50.413,53.238,33.5475,57.861,49.82933333333334,-0.1296666666666666,-0.03049999999999997,0.10250000000000001,0.11002,0.0,209.68,209.71,206.44,206.44,0.0,0.0
11,0.0,0.0,0.0,1.0,1.0,0.0,0.0,1.0,0.0,100.0,1.0,1.1856,26.0,0.0,0.0,0.0,68.000001,0.0,26.0,26.0,26.0,26.0,0.028874999999999984,0.2731000000000001,-0.09925,293.503,-2.7035,-2.687125,-1.5503,-1.5270000000000001,-239.2,216.0875,190.769,0.0,0.0,0.0,0.0,0.022600000000000002,-5.498166666666667,-5.498166666666667,-0.561,-0.365,0.026999999999999913,-0.659,67.093,0.006500000000000001,-0.2393,-0.49799999999999933,100.0,1.0,1.0,207.17666666666668,0.0,0.0,0.0,0.0,0.0,0.0,0.0,8781.5,0.0,55.0,5.0,241.50666666666666,1.0,0.0,0.0,0.0,0.0,0.0,1.0,0.0,0.5549999999999997,0.5549999999999997,0.0,0.0,1.0,55.0,616.79921,10000.0,85.000001,85.000001,85.000001,85.000001,395.0,0.0,0.0,0.0,1.0,166.665,52.795,52.795,49.225,49.225,34.0,-23.5125,24.62,-24.596666666666664,26.27,0.0,1782.355,-0.41999999999999815,100.0,27.492,27.528,42.437,42.594,0.0,0.0,100.0,0.0,0.0,0.0,0.0,3099.1666666666665,3083.1,3683.714285714286,3850.6000000000004,305.5245,304.86725,315.8826666666667,315.25625,21.884999999999998,20.567,21.8757,21.4014,314.999998,314.999998,324.999988,324.999988,99.55897142857143,99.50726666666667,99.56628571428571,99.54638571428572,0.08499999999999996,-0.04749999999999999,-0.1133333333333334,0.12783333333333324,-0.06666666666666998,-0.054999999999999716,1.6286666666666667,1.6280000000000001,37.781,29.5435,37.723,34.7585,56.135,34.879999999999995,59.354,52.1315,54.06,34.0265,57.957499999999996,50.471000000000004,53.223,33.581,57.891,49.88633333333333,-0.10499999999999998,-0.04400000000000004,0.117,0.105425,0.0,210.10500000000002,210.12,207.17666666666668,207.17666666666668,0.0,0.0
12,0.0,0.0,0.0,1.0,1.0,0.0,0.0,1.0,0.0,100.0,1.0,1.1856,26.0,0.0,0.0,0.0,68.000001,0.0,26.0,26.0,26.0,26.0,0.01924999999999999,0.2762,0.015250000000000001,292.908,-2.7495000000000003,-2.693125,-1.5426,-1.5345,-235.76999999999998,216.0625,190.747,0.0,0.0,0.0,0.0,0.025466666666666665,-5.498166666666667,-5.498166666666667,-0.5462,0.2846666666666667,0.008624999999999883,0.56,67.238,0.023,-0.20720000000000002,-0.44399999999999995,100.0,1.0,1.0,207.39666666666668,0.0,0.0,0.0,0.0,0.0,0.0,0.0,8790.9,0.0,55.0,5.0,242.02666666666664,0.0,0.0,0.0,0.0,0.0,0.0,1.0,0.0,0.6059999999999981,0.6059999999999981,0.0,0.0,0.0,55.0,616.79921,10000.0,85.000001,85.000001,85.000001,85.000001,395.0,0.0,0.0,0.0,1.0,166.665,52.78,52.78,47.897,47.897,34.0,-23.1475,25.821666666666665,-27.456666666666663,30.6125,0.0,1782.305,-0.245000000000001,100.0,27.579,27.534,42.406,42.384,0.0,0.0,100.0,0.0,0.0,0.0,0.0,3049.6666666666665,3175.1,4202.428571428572,4220.8,305.5295,304.781,314.58033333333333,314.42725,21.8945,20.572400000000002,21.8861,21.4103,314.999998,314.999998,324.999988,324.999988,99.55898571428571,99.50728333333333,99.56642857142857,99.54652857142857,0.09725000000000006,-0.03474999999999995,-0.07916666666666661,0.14050000000000007,-0.04333333333332945,-0.02499999999999858,1.5266666666666666,1.4965,37.841,29.5775,37.788,34.814499999999995,56.120999999999995,34.9185,59.3925,52.192,54.047,34.062,57.9935,50.5295,53.209,33.615,57.924,49.943666666666665,-0.09699999999999998,-0.05799999999999983,0.11063500000000001,0.10115500000000001,0.0,210.555,210.57,207.39666666666668,207.39666666666668,0.0,0.0
13,0.0,0.0,0.0,1.0,1.0,0.0,0.0,1.0,0.0,100.0,1.0,1.1856,26.0,0.0,0.0,0.0,68.000001,0.0,26.0,26.0,26.0,26.0,0.027374999999999927,0.2845,0.0339,292.572,-2.7271,-2.6825,-1.6137000000000001,-1.520375,-232.34,216.035,190.72525,0.0,0.0,0.0,0.0,0.0268,-5.498166666666667,-5.498166666666667,-0.5393,-0.07333333333333333,0.007624999999999993,-0.6859999999999999,67.38,0.0212,-0.21585000000000001,-0.16999999999999993,100.0,1.0,1.0,207.79333333333335,0.0,0.0,0.0,0.0,0.0,0.0,0.0,8807.6,0.0,55.0,5.0,242.54000000000002,1.0,0.0,0.0,0.0,0.0,0.0,1.0,0.0,0.657,0.657,0.0,0.0,1.0,55.0,616.79921,10000.0,85.000001,85.000001,85.000001,85.000001,395.0,0.0,0.0,0.0,1.0,166.665,52.475,52.475,47.897,47.897,34.0,-23.845,25.015,-30.12,30.31,0.0,1782.253,-0.3000000000000007,100.0,27.746,27.851,42.575,42.959,0.0,0.0,100.0,0.0,0.0,0.0,0.0,3185.3333333333335,3060.1,4240.428571428572,4267.9,305.277,304.94075,314.572,314.2055,21.9042,20.5779,21.8967,21.4194,314.999998,314.999998,324.999988,324.999988,99.55898571428571,99.50728333333333,99.56658571428571,99.54667142857143,0.10000000000000009,-0.03225,-0.10333333333333339,0.12766666666666682,-0.05666666666667197,-0.041666666666671404,1.492,1.494,37.900999999999996,29.612000000000002,37.854,34.8715,56.108999999999995,34.957,59.4315,52.256,54.036,34.0975,58.03,50.591,53.196,33.6495,57.957499999999996,50.004,-0.10666666666666669,-0.05049999999999999,0.11170000000000001,0.10734,0.0,211.01,211.005,207.79333333333335,207.79333333333335,0.0,0.0
14,0.0,0.0,0.0,1.0,1.0,0.0,0.0,1.0,0.0,100.0,1.0,1.1856,26.0,0.0,0.0,0.0,68.000001,0.0,26.0,26.0,26.0,26.0,0.02462500000000012,0.28269999999999995,-0.0198,292.831,-2.7128,-2.641,-1.5754000000000001,-1.533875,-228.9,216.01,190.704125,0.0,0.0,0.0,0.0,0.028800000000000003,-5.498166666666667,-5.498166666666667,-0.5486,-0.12266666666666667,0.027125000000000066,1.148,67.519,0.0198,-0.22787500000000002,-0.23599999999999977,100.0,1.0,1.0,208.30666666666667,0.0,0.0,0.0,0.0,0.0,0.0,0.0,8829.4,0.0,55.0,5.0,243.04333333333335,0.0,0.0,0.0,0.0,0.0,0.0,1.0,0.0,0.7079999999999984,0.7079999999999984,0.0,0.0,0.0,55.0,616.79921,10000.0,85.000001,85.000001,85.000001,85.000001,395.0,0.0,0.0,0.0,1.0,166.665,52.643,52.643,48.141,48.141,34.0,-22.002499999999998,25.876666666666665,-26.723333333333333,29.962500000000002,0.0,1782.203,-0.3049999999999997,100.0,27.836,27.667,42.684,42.948,0.0,0.0,100.0,0.0,0.0,0.0,0.0,2983.5,3204.2,3999.714285714286,4175.9,305.6805,304.7035,315.05066666666664,314.5315,21.9138,20.5834,21.9071,21.4285,314.999998,314.999998,324.999988,324.999988,99.559,99.5073,99.56671428571428,99.54681428571429,0.10450000000000004,-0.02849999999999997,-0.08750000000000002,0.13883333333333336,-0.03833333333332689,-0.06833333333332803,1.536,1.5354999999999999,37.961,29.646,37.919,34.9285,56.097,34.995,59.469,52.318,54.024,34.1325,58.065,50.6505,53.183,33.683,57.989,50.062333333333335,-0.1016666666666668,-0.053999999999999826,0.10505,0.11442500000000001,0.0,211.43,211.445,208.30666666666667,208.30666666666667,0.0,0.0
15,0.0,0.0,0.0,1.0,1.0,0.0,0.0,1.0,0.0,100.0,1.0,1.1856,26.0,0.0,0.0,0.0,68.000001,0.0,26.0,26.0,26.0,26.0,0.030750000000000055,0.2783,0.004,292.831,-2.6817,-2.6055,-1.5983,-1.4805,-225.65,215.9875,190.68375,0.0,0.0,0.0,0.0,0.03066666666666667,-5.498166666666667,-5.498166666666667,-0.5399,0.265,0.05049999999999999,0.899,67.652,0.019,-0.20927500000000002,-0.2320000000000002,100.0,1.0,1.0,208.69,0.0,0.0,0.0,0.0,0.0,0.0,0.0,8845.6,0.0,55.0,5.0,243.51666666666665,1.0,0.0,0.0,0.0,0.0,0.0,1.0,0.0,0.7560000000000002,0.7560000000000002,0.0,0.0,1.0,55.0,616.79921,10000.0,85.000001,85.000001,85.000001,85.000001,395.0,0.0,0.0,0.0,1.0,166.665,52.856,52.856,48.187,48.187,34.0,-20.6175,25.443333333333335,-26.939999999999998,30.85,0.0,1782.154,-0.28999999999999915,100.0,27.884,27.671,42.538,42.944,0.0,0.0,100.0,0.0,0.0,0.0,0.0,2856.1666666666665,3174.8,3980.8571428571427,4348.9,306.0395,304.7865,315.13433333333336,314.14175,21.9228,20.5885,21.9168,21.4371,314.999998,314.999998,324.999988,324.999988,99.55901428571428,99.5073,99.56685714285715,99.54695714285714,0.1060000000000001,-0.025000000000000022,-0.08899999999999997,0.1423333333333332,-0.026666666666670835,-0.04833333333333201,1.528,1.5375,38.018,29.6785,37.980000000000004,34.9815,56.085,35.0305,59.503,52.3765,54.013,34.1655,58.0965,50.707,53.171,33.7145,58.018,50.117666666666665,-0.10199999999999987,-0.052999999999999936,0.10610000000000001,0.11301000000000001,0.0,211.845,211.87,208.69,208.69,0.0,0.0
16,0.0,0.0,0.0,1.0,1.0,0.0,0.0,1.0,0.0,100.0,1.0,1.1856,26.0,0.0,0.0,0.0,68.000001,0.0,26.0,26.0,26.0,26.0,0.014375000000000027,0.27449999999999997,-0.024200000000000003,292.892,-2.7647,-2.65075,-1.5659,-1.487875,-222.4,215.965,190.663,0.0,0.0,0.0,0.0,0.03256666666666667,-5.498166666666667,-5.498166666666667,-0.5582,-0.738,0.029249999999999998,0.04799999999999993,67.78399999999999,0.0198,-0.22315000000000002,-0.24600000000000044,100.0,1.0,1.0,209.08666666666667,0.0,0.0,0.0,0.0,0.0,0.0,0.0,8862.5,0.0,55.0,5.0,243.99333333333334,0.0,0.0,0.0,0.0,0.0,0.0,1.0,0.0,0.8039999999999985,0.8039999999999985,0.0,0.0,0.0,55.0,616.79921,10000.0,85.000001,85.000001,85.000001,85.000001,395.0,0.0,0.0,0.0,1.0,333.33500000000004,52.856,52.856,47.852000000000004,47.852000000000004,34.0,-22.955,25.64,-26.233333333333334,29.1625,0.0,1782.105,-0.16999999999999815,100.0,27.525,27.671,42.886,43.0,0.0,0.0,100.0,0.0,0.0,0.0,0.0,2990.0,3192.9,3995.5714285714284,4123.8,305.817,304.7345,315.08166666666665,314.6535,21.9316,20.5937,21.9268,21.4456,314.999998,314.999998,324.999988,324.999988,99.55902857142857,99.5073,99.567,99.54708571428571,0.08975,-0.03425,-0.08183333333333331,0.14216666666666677,-0.03499999999999659,-0.061666666666667425,1.5436666666666667,1.5165,38.072,29.7105,38.042,35.035,56.07,35.0665,59.5405,52.434,53.998000000000005,34.199,58.131,50.762,53.156,33.7465,58.0495,50.172,-0.08899999999999997,-0.06349999999999989,0.10568500000000002,0.10914000000000001,0.0,212.22,212.235,209.08666666666667,209.08666666666667,0.0,0.0
17,0.0,0.0,0.0,1.0,1.0,0.0,0.0,1.0,0.0,100.0,1.0,1.1856,26.0,0.0,0.0,0.0,68.000001,0.0,26.0,26.0,26.0,26.0,0.015125000000000055,0.28259999999999996,-0.0035,292.603,-2.7193,-2.6109999999999998,-1.5964,-1.518,-218.94,215.9425,190.640375,0.0,0.0,0.0,0.0,0.03456666666666667,-5.498166666666667,-5.498166666666667,-0.5499,0.5316666666666666,-0.003750000000000142,-0.802,67.922,0.0135,-0.205075,0.040000000000000924,100.0,1.0,1.0,209.51999999999998,0.0,0.0,0.0,0.0,0.0,0.0,0.0,8880.7,0.0,55.0,5.0,244.49,1.0,0.0,0.0,0.0,0.0,0.0,1.0,0.0,0.8550000000000004,0.8550000000000004,0.0,0.0,1.0,55.0,616.79921,10000.0,85.000001,85.000001,85.000001,85.000001,395.0,0.0,0.0,0.0,1.0,166.665,52.551,52.551,47.943,47.943,34.0,-24.29,22.843333333333334,-29.27,29.337500000000002,0.0,1782.055,-0.21499999999999986,100.0,27.961,28.049,42.655,42.989000000000004,0.0,0.0,100.0,0.0,0.0,0.0,0.0,3183.6666666666665,2962.3,4263.142857142857,4151.6,305.3345,305.31975,314.5833333333333,314.5835,21.9412,20.5993,21.9371,21.4546,314.999998,314.999998,324.999988,324.999988,99.55904285714286,99.5073,99.56712857142857,99.54722857142858,0.08699999999999997,-0.04599999999999993,-0.09333333333333338,0.133,-0.046666666666666856,-0.054999999999999716,1.5363333333333333,1.525,38.132999999999996,29.7455,38.107,35.091,56.059,35.1055,59.576499999999996,52.494,53.986999999999995,34.235,58.165,50.82,53.144,33.781,58.0805,50.22866666666667,-0.09266666666666667,-0.06499999999999995,0.10033,0.11415000000000002,0.0,212.7,212.7,209.51999999999998,209.51999999999998,0.0,0.0
18,0.0,0.0,0.0,1.0,1.0,0.0,0.0,1.0,0.0,100.0,1.0,1.1856,26.0,0.0,0.0,0.0,68.000001,0.0,26.0,26.0,26.0,26.0,0.0006250000000000977,0.28310000000000013,-0.03645,292.526,-2.746,-2.591375,-1.6071,-1.47,-215.68,215.92000000000002,190.61925,0.0,0.0,0.0,0.0,0.03646666666666667,-5.498166666666667,-5.498166666666667,-0.5576,-0.587,0.014624999999999888,-0.258,68.053,0.0077,-0.219975,0.0039999999999995595,100.0,1.0,1.0,209.9,0.0,0.0,0.0,0.0,0.0,0.0,0.0,8896.9,0.0,55.0,5.0,244.96333333333334,0.0,0.0,0.0,0.0,0.0,0.0,1.0,0.0,0.9029999999999987,0.9029999999999987,0.0,0.0,0.0,55.0,616.79921,10000.0,85.000001,85.000001,85.000001,85.000001,395.0,0.0,0.0,0.0,1.0,166.665,52.504999999999995,52.504999999999995,47.714,47.714,34.0,-24.35,24.22,-28.966666666666665,27.505,0.0,1782.008,-0.2699999999999996,100.0,27.794,27.866,43.08,43.349000000000004,0.0,0.0,100.0,0.0,0.0,0.0,0.0,3167.8333333333335,3131.3,4121.285714285715,4110.3,305.434,304.86925,314.8813333333333,314.668,21.9502,20.6044,21.9471,21.4633,314.999998,314.999998,324.999988,324.999988,99.55905714285714,99.50731666666667,99.56727142857143,99.54737142857142,0.08650000000000002,-0.04325000000000001,-0.10583333333333333,0.11683333333333334,-0.054999999999999716,-0.045000000000001705,1.5313333333333334,1.5285,38.189,29.7775,38.169,35.1455,56.046,35.141,59.614,52.5535,53.974999999999994,34.2675,58.1995,50.877,53.131,33.8125,58.112,50.284666666666666,-0.09599999999999986,-0.05250000000000021,0.10154,0.108785,0.0,213.07999999999998,213.06,209.9,209.9,0.0,0.0
19,0.0,0.0,0.0,1.0,1.0,0.0,0.0,1.0,0.0,100.0,1.0,1.1856,26.0,0.0,0.0,0.0,68.000001,0.0,26.0,26.0,26.0,26.0,-0.0030000000000000027,0.2865,0.01635,292.038,-2.7063,-2.59025,-1.6154000000000002,-1.458,-212.20999999999998,215.8975,190.59675,0.0,0.0,0.0,0.0,0.0385,-5.498166666666667,-5.498166666666667,-0.5532,0.8413333333333334,0.019749999999999934,0.774,68.19,0.0078000000000000005,-0.213425,-0.10999999999999943,100.0,1.0,1.0,210.32666666666665,0.0,0.0,0.0,0.0,0.0,0.0,0.0,8915.0,0.0,55.0,5.0,245.45666666666665,1.0,0.0,0.0,0.0,0.0,0.0,1.0,0.0,0.9540000000000006,0.9540000000000006,0.0,0.0,1.0,55.0,616.79921,10000.0,85.000001,85.000001,85.000001,85.000001,395.0,0.0,0.0,0.0,1.0,166.665,51.62,51.62,47.668,47.668,34.0,-24.0825,25.931666666666665,-28.98,29.3225,0.0,1781.956,-0.23999999999999844,100.0,28.527,28.21,42.919,43.147999999999996,0.0,0.0,100.0,0.0,0.0,0.0,0.0,3178.0,3298.6,4185.428571428572,4323.9,305.105,304.38725,314.73466666666667,314.27675,21.9599,20.6101,21.9574,21.4723,314.999998,314.999998,324.999988,324.999988,99.55905714285714,99.50731666666667,99.56741428571429,99.54751428571429,0.09475000000000011,-0.038000000000000034,-0.09366666666666656,0.125,-0.051666666666669414,-0.041666666666671404,1.5326666666666666,1.5335,38.248999999999995,29.813000000000002,38.233999999999995,35.202,56.035,35.1815,59.65,52.614,53.965,34.305,58.233000000000004,50.9355,53.119,33.8485,58.1425,50.342,-0.09766666666666679,-0.06499999999999995,0.09884000000000001,0.10372500000000001,0.0,213.54500000000002,213.53,210.32666666666665,210.32666666666665,0.0,0.0
20,0.0,0.0,0.0,1.0,1.0,0.0,0.0,1.0,0.0,100.0,1.0,1.1856,26.0,0.0,0.0,0.0,68.000001,0.0,26.0,26.0,26.0,26.0,0.012625000000000108,0.26449999999999996,-0.02605,292.282,-2.752,-2.65375,-1.5399,-1.471,-208.72,215.875,190.574375,0.0,0.0,0.0,0.0,0.04053333333333333,-5.498166666666667,-5.498166666666667,-0.5511,-0.9806666666666667,0.013249999999999984,-0.9199999999999999,68.33,0.0117,-0.219425,-0.16999999999999993,100.0,1.0,1.0,210.60666666666668,0.0,0.0,0.0,0.0,0.0,0.0,0.0,8926.8,0.0,55.0,5.0,245.96,0.0,0.0,0.0,0.0,0.0,0.0,0.0,0.0,1.004999999999999,1.004999999999999,0.0,0.0,0.0,55.0,616.79921,10000.0,85.000001,85.000001,85.000001,85.000001,395.0,0.0,0.0,0.0,1.0,333.33500000000004,52.872,52.872,46.829,46.829,34.0,-22.84,23.371666666666666,-29.366666666666664,29.9575,0.0,1781.905,-0.16000000000000014,100.0,27.846,28.024,43.468,43.629,0.0,0.0,100.0,0.0,0.0,0.0,0.0,2978.3333333333335,2997.4,4278.285714285715,4335.3,305.9675,305.17425,314.42633333333333,314.07375,21.9692,20.6155,21.9681,21.4816,314.999998,314.999998,324.999988,324.999988,99.55907142857143,99.50731666666667,99.56757142857143,99.54767142857143,0.08424999999999994,-0.05149999999999999,-0.09883333333333333,0.1206666666666667,-0.04333333333332945,-0.036666666666668846,1.468,1.4569999999999999,38.308,29.847,38.3,35.26,56.019999999999996,35.219,59.691,52.678,53.95,34.34,58.2715,50.997,53.104,33.882,58.178,50.402,-0.09399999999999986,-0.06199999999999983,0.09620000000000001,0.10833000000000001,0.0,213.925,213.91,210.60666666666668,210.60666666666668,0.0,0.0
21,0.0,0.0,0.0,1.0,1.0,0.0,0.0,1.0,0.0,100.0,1.0,1.1856,26.0,0.0,0.0,0.0,68.000001,0.0,26.0,26.0,26.0,26.0,0.008375000000000021,0.2701,-0.06770000000000001,292.664,-2.7138999999999998,-2.715625,-1.6032000000000002,-1.5445,-205.24,215.85250000000002,190.551375,0.0,0.0,0.0,0.0,0.04253333333333333,-5.498166666666667,-5.498166666666667,-0.5773,0.43433333333333335,-0.0026250000000000995,0.381,68.463,0.009000000000000001,-0.223725,-0.08799999999999919,100.0,1.0,1.0,211.2733333333333,0.0,0.0,0.0,0.0,0.0,0.0,0.0,8955.2,0.0,55.0,5.0,246.43666666666667,1.0,0.0,0.0,0.0,0.0,0.0,0.0,0.0,1.056000000000001,1.056000000000001,0.0,0.0,1.0,55.0,616.79921,10000.0,85.000001,85.000001,85.000001,85.000001,395.0,0.0,0.0,0.0,1.0,166.665,52.322,52.322,48.233000000000004,48.233000000000004,34.0,-23.2575,25.493333333333332,-27.133333333333333,28.085,0.0,1781.853,-0.22499999999999787,100.0,28.217,27.948,42.937,43.115,0.0,0.0,100.0,0.0,0.0,0.0,0.0,3096.8333333333335,3119.2,4009.5714285714284,4007.6000000000004,305.4095,304.92175,315.175,314.99225,21.9787,20.6211,21.9783,21.4905,314.999998,314.999998,324.999988,324.999988,99.55908571428571,99.50731666666667,99.5677,99.5478,0.09749999999999992,-0.03674999999999995,-0.09399999999999997,0.13200000000000012,-0.04833333333333201,-0.03833333333332689,1.5899999999999999,1.588,38.367000000000004,29.881999999999998,38.364999999999995,35.316,56.007,35.2585,59.7245,52.7355,53.938,34.3765,58.3025,51.0525,53.091,33.9165,58.206,50.45633333333333,-0.09599999999999986,-0.06199999999999983,0.10787000000000001,0.10843000000000001,0.0,214.36,214.35000000000002,211.2733333333333,211.2733333333333,0.0,0.0
22,0.0,0.0,0.0,1.0,1.0,0.0,0.0,1.0,0.0,100.0,1.0,1.1856,26.0,0.0,0.0,0.0,68.000001,0.0,26.0,26.0,26.0,26.0,0.019500000000000073,0.2683,0.0031000000000000003,292.175,-2.6498,-2.713125,-1.6023,-1.5275,-201.95,215.83249999999998,190.529,0.0,0.0,0.0,0.0,0.04446666666666667,-5.498166666666667,-5.498166666666667,-0.5571,0.15866666666666665,0.010874999999999968,1.31,68.593,0.0073,-0.20535,-0.10799999999999965,100.0,1.0,1.0,211.47,0.0,0.0,0.0,0.0,0.0,0.0,0.0,8963.5,0.0,55.0,5.0,246.91,0.0,0.0,0.0,0.0,0.0,0.0,0.0,0.0,1.1039999999999992,1.1039999999999992,0.0,0.0,0.0,55.0,616.79921,10000.0,85.000001,85.000001,85.000001,85.000001,395.0,0.0,0.0,0.0,1.0,166.665,52.353,52.353,47.211,47.211,34.0,-21.655,25.608333333333334,-29.536666666666665,30.5775,0.0,1781.807,-0.3000000000000007,100.0,28.294,28.08,43.281,43.319,0.0,0.0,100.0,0.0,0.0,0.0,0.0,2947.5,3127.6,4195.285714285715,4347.1,305.724,304.83875,314.63733333333334,314.1945,21.9877,20.6264,21.9883,21.499200000000002,314.999998,314.999998,324.999988,324.999988,99.5591,99.50733333333334,99.56784285714286,99.54794285714286,0.09499999999999997,-0.037250000000000005,-0.09983333333333333,0.12033333333333318,-0.03499999999999659,-0.051666666666669414,1.4856666666666665,1.476,38.423,29.915,38.427,35.37,55.995999999999995,35.295,59.762,52.794,53.927,34.41,58.3375,51.109,53.079,33.949,58.238,50.51166666666667,-0.09999999999999987,-0.05149999999999988,0.10203000000000001,0.10776000000000001,0.0,214.76,214.76,211.47,211.47,0.0,0.0
23,0.0,0.0,0.0,1.0,1.0,0.0,0.0,1.0,0.0,100.0,1.0,1.1856,26.0,0.0,0.0,0.0,68.000001,0.0,26.0,26.0,26.0,26.0,0.018625000000000114,0.2562,-0.0078000000000000005,292.191,-2.6804,-2.663625,-1.6534,-1.59375,-198.24,215.8075,190.504125,0.0,0.0,0.0,0.0,0.0466,-5.498166666666667,-5.498166666666667,-0.5757,-0.19433333333333336,0.007874999999999854,0.497,68.735,0.011000000000000001,-0.23005,-0.16799999999999926,100.0,1.0,1.0,212.0233333333333,0.0,0.0,0.0,0.0,0.0,0.0,0.0,8986.9,0.0,55.0,5.0,247.42000000000002,1.0,0.0,0.0,0.0,0.0,0.0,0.0,0.0,1.1580000000000013,1.1580000000000013,0.0,0.0,1.0,55.0,616.79921,10000.0,85.000001,85.000001,85.000001,85.000001,395.0,0.0,0.0,0.0,1.0,166.665,51.743,51.743,48.141,48.141,34.0,-24.07,25.855,-27.78,28.7525,0.0,1781.752,-0.29499999999999815,100.0,28.449,28.144,43.356,43.594,0.0,0.0,100.0,0.0,0.0,0.0,0.0,3227.0,3187.8,3969.714285714286,4016.8,304.9515,304.7525,315.28266666666667,314.87275,21.997700000000002,20.6323,21.999299999999998,21.509,314.999998,314.999998,324.999988,324.999988,99.55911428571429,99.50733333333334,99.568,99.54811428571429,0.09975,-0.03200000000000003,-0.09666666666666657,0.12383333333333324,-0.045000000000001705,-0.051666666666669414,1.542,1.541,38.486000000000004,29.951999999999998,38.495999999999995,35.431,55.983000000000004,35.336,59.8015,52.86,53.915,34.448,58.374,51.172,53.065,33.9855,58.2715,50.57366666666667,-0.10533333333333328,-0.05549999999999988,0.109795,0.10924500000000001,0.0,215.185,215.195,212.0233333333333,212.0233333333333,0.0,0.0
24,0.0,0.0,0.0,1.0,1.0,0.0,0.0,1.0,0.0,100.0,1.0,1.1856,26.0,0.0,0.0,0.0,68.000001,0.0,26.0,26.0,26.0,26.0,0.015000000000000124,0.2714000000000001,-0.046,292.374,-2.7098,-2.665,-1.5746,-1.5310000000000001,-195.14,215.79000000000002,190.483125,0.0,0.0,0.0,0.0,0.048400000000000006,-5.498166666666667,-5.498166666666667,-0.5788,-0.376,0.017874999999999863,-0.062000000000000055,68.855,0.0146,-0.21707500000000002,-0.1739999999999995,100.0,1.0,1.0,212.29333333333335,0.0,0.0,0.0,0.0,0.0,0.0,0.0,8998.4,0.0,55.0,5.0,247.85000000000002,0.0,0.0,0.0,0.0,0.0,0.0,0.0,0.0,1.2029999999999994,1.2029999999999994,0.0,0.0,0.0,55.0,616.79921,10000.0,85.000001,85.000001,85.000001,85.000001,395.0,0.0,0.0,0.0,1.0,333.33500000000004,52.826,52.826,47.18,47.18,34.0,-22.42,23.295,-30.419999999999998,29.275000000000002,0.0,1781.706,-0.3299999999999983,100.0,28.097,28.057000000000002,43.278,43.616,0.0,0.0,100.0,0.0,0.0,0.0,0.0,2980.6666666666665,2945.6,4342.714285714285,4148.9,305.876,305.3715,314.40633333333335,314.5755,22.006,20.6371,22.008499999999998,21.517,314.999998,314.999998,324.999988,324.999988,99.55911428571429,99.50735,99.56812857142857,99.54824285714285,0.08925000000000005,-0.04325000000000001,-0.10533333333333339,0.1263333333333332,-0.04833333333333201,-0.041666666666671404,1.512,1.5110000000000001,38.537,29.982,38.553,35.4815,55.971000000000004,35.3685,59.8345,52.9135,53.903,34.4785,58.405,51.2235,53.054,34.0145,58.2995,50.624,-0.10133333333333328,-0.052999999999999936,0.10661000000000001,0.10890000000000001,0.0,215.555,215.555,212.29333333333335,212.29333333333335,0.0,0.0
25,0.0,0.0,0.0,1.0,1.0,0.0,0.0,1.0,0.0,100.0,1.0,1.1856,26.0,0.0,0.0,0.0,68.000001,0.0,26.0,26.0,26.0,26.0,0.015374999999999917,0.2591000000000001,-0.056100000000000004,292.343,-2.7763,-2.629875,-1.592,-1.534125,-191.63,215.76999999999998,190.45775,0.0,0.0,0.0,0.0,0.050466666666666674,-5.498166666666667,-5.498166666666667,-0.6108,-0.124,0.02224999999999988,0.16500000000000004,68.988,0.0172,-0.22590000000000002,-0.3439999999999994,100.0,1.0,1.0,212.82333333333332,0.0,0.0,0.0,0.0,0.0,0.0,0.0,9020.8,0.0,55.0,5.0,248.32666666666665,1.0,0.0,0.0,0.0,0.0,0.0,0.0,0.0,1.2540000000000013,1.2540000000000013,0.0,0.0,1.0,55.0,616.79921,10000.0,85.000001,85.000001,85.000001,85.000001,395.0,0.0,0.0,0.0,1.0,333.33500000000004,51.91,51.91,47.897,47.897,34.0,-24.0475,26.866666666666667,-25.963333333333335,29.255,0.0,1781.654,-0.370000000000001,100.0,28.109,28.155,43.101,43.38,0.0,0.0,100.0,0.0,0.0,0.0,0.0,3174.0,3343.0,3930.8571428571427,4069.8,305.3015,304.31,315.31466666666665,314.8405,22.0152,20.6428,22.0189,21.5261,314.999998,314.999998,324.999988,324.999988,99.55912857142857,99.50735,99.56827142857144,99.5484,0.10549999999999993,-0.033499999999999974,-0.08366666666666656,0.14466666666666672,-0.036666666666668846,-0.06499999999999773,1.5813333333333333,1.5625,38.595,30.0175,38.617999999999995,35.538,55.956,35.41,59.871,52.976,53.888999999999996,34.5165,58.439,51.284,53.038,34.051,58.3305,50.683,-0.11033333333333317,-0.05799999999999983,0.10168,0.10998000000000001,0.0,215.965,215.98000000000002,212.82333333333332,212.82333333333332,0.0,0.0
26,0.0,0.0,0.0,1.0,1.0,0.0,0.0,1.0,0.0,100.0,1.0,1.1856,26.0,0.0,0.0,0.0,68.000001,0.0,26.0,26.0,26.0,26.0,0.01649999999999996,0.2771000000000001,0.08535000000000001,291.138,-2.7301,-2.700875,-1.6431,-1.52525,-187.89999999999998,215.7475,190.4305,0.0,0.0,0.0,0.0,0.05263333333333334,-5.498166666666667,-5.498166666666667,-0.5722,0.6353333333333334,0.012624999999999886,0.831,69.132,0.022000000000000002,-0.199,-0.33999999999999986,100.0,1.0,1.0,213.01,0.0,0.0,0.0,0.0,0.0,0.0,0.0,9028.7,0.0,55.0,5.0,248.84666666666666,0.0,0.0,0.0,0.0,0.0,0.0,0.0,0.0,1.3079999999999998,1.3079999999999998,0.0,0.0,0.0,55.0,616.79921,10000.0,85.000001,85.000001,85.000001,85.000001,395.0,0.0,0.0,0.0,1.0,166.665,51.422,51.422,46.219,46.219,34.0,-22.72,26.325,-32.29,34.125,0.0,1781.603,-0.41499999999999915,100.0,28.981,28.789,43.593,43.788,0.0,0.0,100.0,0.0,0.0,0.0,0.0,3115.1666666666665,3175.9,4530.571428571428,4567.3,305.308,304.69875,313.88933333333335,313.63025,22.0254,20.6489,22.03,21.535899999999998,314.999998,314.999998,324.999988,324.999988,99.55915714285715,99.50735,99.56844285714286,99.54854285714286,0.11875000000000013,-0.028749999999999942,-0.08383333333333332,0.14466666666666672,-0.02833333333332888,-0.06499999999999773,1.4413333333333334,1.4325,38.659,30.055999999999997,38.688,35.5995,55.947,35.451,59.911,53.039,53.881,34.554,58.476,51.3445,53.028,34.087,58.364,50.742333333333335,-0.1116666666666668,-0.05149999999999988,0.10640000000000001,0.10733000000000001,0.0,216.435,216.465,213.01,213.01,0.0,0.0
27,0.0,0.0,0.0,1.0,1.0,0.0,0.0,1.0,0.0,100.0,1.0,1.1856,26.0,0.0,0.0,0.0,68.000001,0.0,26.0,26.0,26.0,26.0,0.046499999999999986,0.25570000000000004,-0.01835,291.565,-2.7002,-2.661625,-1.6362999999999999,-1.59425,-184.78,215.73000000000002,190.408875,0.0,0.0,0.0,0.0,0.05443333333333334,-5.498166666666667,-5.498166666666667,-0.5973,-1.0463333333333333,0.014249999999999874,-0.837,69.248,0.023,-0.240575,-0.3039999999999994,100.0,1.0,1.0,213.46,0.0,0.0,0.0,0.0,0.0,0.0,0.0,9047.8,0.0,55.0,5.0,249.26666666666665,1.0,0.0,0.0,0.0,0.0,0.0,0.0,0.0,1.352999999999998,1.352999999999998,0.0,0.0,1.0,55.0,616.79921,10000.0,85.000001,85.000001,85.000001,85.000001,395.0,0.0,0.0,0.0,1.0,333.33500000000004,51.788,51.788,46.539,46.539,34.0,-22.225,25.536666666666665,-29.43,30.405,0.0,1781.555,-0.46499999999999986,100.0,28.466,28.799,44.105000000000004,44.467,0.0,0.0,100.0,0.0,0.0,0.0,0.0,3124.8333333333335,3112.8,4171.0,4112.6,305.4865,304.799,314.737,314.5395,22.0336,20.6539,22.0394,21.5442,314.999998,314.999998,324.999988,324.999988,99.55917142857143,99.50736666666667,99.56857142857143,99.54868571428571,0.1200000000000001,-0.02749999999999997,-0.09333333333333338,0.1323333333333332,-0.03833333333332689,-0.03999999999999915,1.4896666666666667,1.495,38.71,30.087,38.745999999999995,35.6515,55.936,35.487,59.948,53.0985,53.869,34.5875,58.5105,51.4015,53.016,34.119,58.3955,50.798,-0.12166666666666681,-0.04300000000000015,0.11029000000000001,0.10623500000000001,0.0,216.75,216.75,213.46,213.46,0.0,0.0
28,0.0,0.0,0.0,1.0,1.0,0.0,0.0,1.0,0.0,100.0,1.0,1.1856,26.0,0.0,0.0,0.0,68.000001,0.0,26.0,26.0,26.0,26.0,0.03512500000000007,0.2541,-0.056650000000000006,291.931,-2.7084,-2.66425,-1.5783,-1.561375,-181.25,215.7125,190.383625,0.0,0.0,0.0,0.0,0.0565,-5.498166666666667,-5.498166666666667,-0.6048,0.606,0.00550000000000006,0.681,69.377,0.0279,-0.22235000000000002,-0.4320000000000004,100.0,1.0,1.0,214.01999999999998,0.0,0.0,0.0,0.0,0.0,0.0,0.0,9071.5,0.0,55.0,5.0,249.73000000000002,0.0,0.0,0.0,0.0,0.0,0.0,0.0,0.0,1.404,1.404,0.0,0.0,0.0,55.0,616.79921,10000.0,85.000001,85.000001,85.000001,85.000001,395.0,0.0,0.0,0.0,1.0,166.665,51.650999999999996,51.650999999999996,47.684,47.684,34.0,-22.4625,26.455,-25.823333333333334,30.695,0.0,1781.506,-0.4499999999999993,100.0,28.722,28.553,43.483000000000004,43.83,0.0,0.0,100.0,0.0,0.0,0.0,0.0,3131.6666666666665,3199.8,3967.1428571428573,4126.0,305.2935,304.6985,315.2303333333333,314.72575,22.043,20.6596,22.049599999999998,21.5533,314.999998,314.999998,324.999988,324.999988,99.55918571428572,99.50736666666667,99.56871428571428,99.54881428571429,0.12250000000000005,-0.02124999999999999,-0.0781666666666666,0.15399999999999991,-0.03999999999999915,-0.046666666666666856,1.5803333333333334,1.534,38.769,30.122999999999998,38.81,35.708,55.926,35.5235,59.979,53.153,53.86,34.6215,58.539500000000004,51.454499999999996,53.006,34.1515,58.421,50.849666666666664,-0.11599999999999988,-0.0495000000000001,0.10889000000000001,0.11118000000000001,0.0,217.2,217.20499999999998,214.01999999999998,214.01999999999998,0.0,0.0
29,0.0,0.0,0.0,1.0,1.0,0.0,0.0,1.0,0.0,100.0,1.0,1.1856,26.0,0.0,0.0,0.0,68.000001,0.0,26.0,26.0,26.0,26.0,0.04974999999999996,0.25770000000000004,-0.00645,291.641,-2.6693,-2.7036249999999997,-1.5813000000000001,-1.5382500000000001,-177.5,215.6925,190.355625,0.0,0.0,0.0,0.0,0.058666666666666666,-5.498166666666667,-5.498166666666667,-0.6065,-0.7193333333333334,0.0129999999999999,0.874,69.52,0.032,-0.217475,-0.49799999999999933,100.0,1.0,1.0,214.25,0.0,0.0,0.0,0.0,0.0,0.0,0.0,9081.3,0.0,55.0,5.0,250.24666666666667,1.0,0.0,0.0,0.0,0.0,0.0,0.0,0.0,1.4579999999999984,1.4579999999999984,0.0,0.0,1.0,55.0,616.79921,10000.0,85.000001,85.000001,85.000001,85.000001,395.0,0.0,0.0,0.0,1.0,166.665,51.987,51.987,46.692,46.692,34.0,-21.23,27.138333333333332,-27.273333333333333,32.3775,0.0,1781.453,-0.495000000000001,100.0,28.361,28.423000000000002,43.836,44.115,0.0,0.0,100.0,0.0,0.0,0.0,0.0,3035.6666666666665,3208.5,4141.857142857143,4328.2,305.6075,304.6165,314.7076666666667,314.1725,22.0527,20.6656,22.0608,21.5631,314.999998,314.999998,324.999988,324.999988,99.5592,99.50736666666667,99.56885714285714,99.54898571428572,0.12349999999999994,-0.017249999999999988,-0.06833333333333336,0.14983333333333326,-0.04333333333332945,-0.05333333333332746,1.4836666666666667,1.4655,38.829,30.16,38.879999999999995,35.7695,55.912,35.5635,60.019999999999996,53.219,53.846000000000004,34.658500000000004,58.578,51.518,52.991,34.187,58.456,50.91166666666667,-0.11799999999999988,-0.04499999999999993,0.10080000000000001,0.11031,0.0,217.595,217.61,214.25,214.25,0.0,0.0
30,0.0,0.0,0.0,1.0,1.0,0.0,0.0,1.0,0.0,100.0,1.0,1.1856,26.0,0.0,0.0,0.0,68.000001,0.0,26.0,26.0,26.0,26.0,0.05062499999999992,0.24950000000000006,0.058300000000000005,291.10699999999997,-2.7256,-2.59275,-1.5577,-1.596375,-174.16,215.6775,190.33075,0.0,0.0,0.0,0.0,0.0606,-5.498166666666667,-5.498166666666667,-0.6053000000000001,0.8436666666666667,0.009874999999999856,0.5329999999999999,69.64,0.0339,-0.219275,-0.5060000000000002,100.0,1.0,1.0,214.73333333333335,0.0,0.0,0.0,0.0,0.0,0.0,0.0,9101.8,0.0,55.0,5.0,250.68,0.0,0.0,0.0,0.0,0.0,0.0,1.0,0.0,1.5060000000000002,1.5060000000000002,0.0,0.0,0.0,55.0,616.79921,10000.0,85.000001,85.000001,85.000001,85.000001,395.0,0.0,0.0,0.0,1.0,166.665,50.568,50.568,47.089,47.089,34.0,-23.64,27.461666666666666,-26.436666666666664,32.59,0.0,1781.405,-0.48999999999999844,100.0,29.182,29.173000000000002,43.634,44.136,0.0,0.0,100.0,0.0,0.0,0.0,0.0,3314.166666666667,3327.0,4115.428571428572,4205.3,304.728,304.21025,314.881,314.4395,22.0617,20.6712,22.0705,21.5718,314.999998,314.999998,324.999988,324.999988,99.55921428571429,99.50736666666667,99.569,99.54911428571428,0.13424999999999998,-0.014000000000000012,-0.0671666666666666,0.16083333333333338,-0.04333333333332945,-0.05666666666667197,1.5086666666666666,1.4945,38.885,30.1955,38.941,35.824,55.905,35.6025,60.0525,53.275999999999996,53.839,34.6945,58.608000000000004,51.573,52.983000000000004,34.2215,58.4835,50.965333333333334,-0.1259999999999999,-0.045500000000000096,0.10574000000000001,0.10826500000000001,0.0,218.005,218.03,214.73333333333335,214.73333333333335,0.0,0.0
31,0.0,0.0,0.0,1.0,1.0,0.0,0.0,1.0,0.0,100.0,1.0,1.1856,26.0,0.0,0.0,0.0,68.000001,0.0,26.0,26.0,26.0,26.0,0.029749999999999943,0.26449999999999996,0.04565,290.863,-2.7741,-2.574125,-1.6024,-1.4925,-170.81,215.6625,190.3065,0.0,0.0,0.0,0.0,0.06256666666666666,-5.498166666666667,-5.498166666666667,-0.5873,-0.4976666666666667,0.018124999999999947,0.764,69.766,0.039,-0.218375,-0.54,100.0,1.0,1.0,214.93666666666667,0.0,0.0,0.0,0.0,0.0,0.0,0.0,9110.4,0.0,55.0,5.0,251.13333333333333,1.0,0.0,0.0,0.0,0.0,0.0,1.0,0.0,1.5539999999999985,1.5539999999999985,0.0,0.0,1.0,55.0,616.79921,10000.0,85.000001,85.000001,85.000001,85.000001,395.0,0.0,0.0,0.0,1.0,166.665,51.346000000000004,51.346000000000004,45.501999999999995,45.501999999999995,34.0,-21.78,27.40833333333333,-28.956666666666663,32.447500000000005,0.0,1781.357,-0.47499999999999787,100.0,28.904,29.08,44.381,44.844,0.0,0.0,100.0,0.0,0.0,0.0,0.0,3056.0,3353.8,4343.428571428572,4359.9,305.6365,304.38375,314.205,314.05275,22.0704,20.6767,22.0805,21.5807,314.999998,314.999998,324.999988,324.999988,99.55922857142858,99.50738333333334,99.56914285714285,99.54925714285714,0.135,-0.009499999999999953,-0.06099999999999994,0.15383333333333327,-0.041666666666671404,-0.05666666666667197,1.451,1.435,38.94,30.2295,39.003,35.8795,55.894999999999996,35.6395,60.0905,53.337,53.83,34.7285,58.6435,51.6315,52.972,34.2545,58.5155,51.022666666666666,-0.1226666666666667,-0.04499999999999993,0.10475500000000001,0.10533000000000001,0.0,218.35500000000002,218.405,214.93666666666667,214.93666666666667,0.0,0.0
32,0.0,0.0,0.0,1.0,1.0,0.0,0.0,1.0,0.0,100.0,1.0,1.1856,26.0,0.0,0.0,0.0,68.000001,0.0,26.0,26.0,26.0,26.0,0.05812499999999998,0.25760000000000005,-0.0262,291.245,-2.734,-2.668375,-1.6583999999999999,-1.4977500000000001,-167.25,215.65,190.281,0.0,0.0,0.0,0.0,0.06463333333333333,-5.498166666666667,-5.498166666666667,-0.6051000000000001,-0.14933333333333335,-0.004999999999999893,-1.048,69.893,0.041,-0.227525,-0.48799999999999955,100.0,1.0,1.0,215.48000000000002,0.0,0.0,0.0,0.0,0.0,0.0,0.0,9133.4,0.0,55.0,5.0,251.58666666666664,0.0,0.0,0.0,0.0,0.0,0.0,1.0,0.0,1.6050000000000004,1.6050000000000004,0.0,0.0,0.0,55.0,616.79921,10000.0,85.000001,85.000001,85.000001,85.000001,395.0,0.0,0.0,0.0,1.0,333.33500000000004,51.391999999999996,51.391999999999996,46.539,46.539,34.0,-22.9675,26.03,-28.796666666666663,31.455000000000002,0.0,1781.304,-0.47499999999999787,100.0,28.67,29.247,44.044,44.730000000000004,0.0,0.0,100.0,0.0,0.0,0.0,0.0,3231.5,3116.9,4220.285714285715,4248.1,305.217,304.80475,314.74133333333333,314.4355,22.0797,20.6826,22.0909,21.59,314.999998,314.999998,324.999988,324.999988,99.55925714285715,99.50738333333334,99.56928571428571,99.54941428571429,0.13024999999999998,-0.01824999999999999,-0.07399999999999995,0.16316666666666668,-0.04999999999999716,-0.04833333333333201,1.5383333333333333,1.5234999999999999,38.998000000000005,30.266,39.068,35.9375,55.884,35.679,60.126,53.397,53.82,34.7655,58.676,51.689,52.961,34.289500000000004,58.545,51.07933333333333,-0.1166666666666667,-0.04899999999999993,0.11049,0.11128500000000001,0.0,218.775,218.79000000000002,215.48000000000002,215.48000000000002,0.0,0.0
33,0.0,0.0,0.0,1.0,1.0,0.0,0.0,1.0,0.0,100.0,1.0,1.1856,26.0,0.0,0.0,0.0,68.000001,0.0,26.0,26.0,26.0,26.0,0.04537499999999994,0.27470000000000017,-0.06255000000000001,291.443,-2.7348,-2.66975,-1.5981,-1.5831250000000001,-163.68,215.6375,190.25425,0.0,0.0,0.0,0.0,0.06670000000000001,-5.498166666666667,-5.498166666666667,-0.6156,-0.2773333333333333,-0.0003750000000000142,1.083,70.022,0.0393,-0.21760000000000002,-0.4660000000000002,100.0,1.0,1.0,215.85000000000002,0.0,0.0,0.0,0.0,0.0,0.0,0.0,9149.1,0.0,55.0,5.0,252.05333333333334,1.0,0.0,0.0,0.0,0.0,0.0,1.0,0.0,1.6559999999999988,1.6559999999999988,0.0,0.0,1.0,55.0,616.79921,10000.0,85.000001,85.000001,85.000001,85.000001,395.0,0.0,0.0,0.0,1.0,166.665,51.743,51.743,46.707,46.707,34.0,-21.502499999999998,26.38,-27.54,32.53,0.0,1781.254,-0.5150000000000006,100.0,28.724,28.903,43.991,44.524,0.0,0.0,100.0,0.0,0.0,0.0,0.0,3058.1666666666665,3140.2,4128.714285714285,4273.3,305.591,304.87475,314.8276666666667,314.35425,22.089,20.6882,22.1013,21.5992,314.999998,314.999998,324.999988,324.999988,99.55925714285715,99.5074,99.56944285714286,99.54957142857143,0.13474999999999993,-0.011249999999999982,-0.07533333333333336,0.15466666666666673,-0.023333333333326323,-0.04999999999999716,1.5203333333333333,1.5105,39.056,30.301499999999997,39.132999999999996,35.995,55.873000000000005,35.7155,60.161500000000004,53.457499999999996,53.809,34.7995,58.7095,51.7475,52.949,34.322,58.575,51.136,-0.1213333333333333,-0.046499999999999986,0.11230000000000001,0.10816500000000001,0.0,219.14499999999998,219.185,215.85000000000002,215.85000000000002,0.0,0.0
34,0.0,0.0,0.0,1.0,1.0,0.0,0.0,1.0,0.0,100.0,1.0,1.1856,26.0,0.0,0.0,0.0,68.000001,0.0,26.0,26.0,26.0,26.0,0.05675000000000008,0.26049999999999995,-0.042800000000000005,291.672,-2.6767000000000003,-2.6648750000000003,-1.6634,-1.5422500000000001,-160.11,215.625,190.22625,0.0,0.0,0.0,0.0,0.06876666666666667,-5.498166666666667,-5.498166666666667,-0.6436000000000001,-0.873,0.022750000000000048,-0.22999999999999998,70.151,0.041800000000000004,-0.22495,-0.4500000000000002,100.0,1.0,1.0,216.24,0.0,0.0,0.0,0.0,0.0,0.0,0.0,9165.6,0.0,55.0,5.0,252.51999999999998,0.0,0.0,0.0,0.0,0.0,0.0,1.0,0.0,1.7070000000000007,1.7070000000000007,0.0,0.0,0.0,55.0,616.79921,10000.0,85.000001,85.000001,85.000001,85.000001,395.0,0.0,0.0,0.0,1.0,166.665,52.002,52.002,47.15,47.15,34.0,-21.955,25.386666666666667,-28.266666666666666,31.055,0.0,1781.204,-0.46999999999999886,100.0,28.332,28.724,43.752,44.638,0.0,0.0,100.0,0.0,0.0,0.0,0.0,3145.3333333333335,3065.9,4114.285714285715,4194.6,305.479,305.081,314.94266666666664,314.44,22.0981,20.6938,22.1117,21.6085,314.999998,314.999998,324.999988,324.999988,99.55928571428572,99.5074,99.56958571428571,99.54971428571429,0.12474999999999992,-0.01824999999999999,-0.07599999999999996,0.14616666666666678,-0.054999999999999716,-0.061666666666667425,1.5183333333333333,1.495,39.113,30.3365,39.198,36.0535,55.861999999999995,35.751999999999995,60.196,53.519,53.798,34.833,58.741,51.8065,52.937,34.3545,58.6035,51.194,-0.11966666666666681,-0.04400000000000004,0.110505,0.10272500000000001,0.0,219.54500000000002,219.555,216.24,216.24,0.0,0.0
35,0.0,0.0,0.0,1.0,1.0,0.0,0.0,1.0,0.0,100.0,1.0,1.1856,26.0,0.0,0.0,0.0,68.000001,0.0,26.0,26.0,26.0,26.0,0.05824999999999991,0.2513000000000001,-0.0684,291.718,-2.7345,-2.607375,-1.6339000000000001,-1.5050000000000001,-156.53,215.6175,190.196375,0.0,0.0,0.0,0.0,0.07086666666666666,-5.498166666666667,-5.498166666666667,-0.6816,-0.24133333333333334,0.007249999999999979,-0.07800000000000007,70.277,0.0442,-0.23155,-0.5220000000000002,100.0,1.0,1.0,216.71333333333334,0.0,0.0,0.0,0.0,0.0,0.0,0.0,9185.7,0.0,55.0,5.0,252.97333333333336,1.0,0.0,0.0,0.0,0.0,0.0,1.0,0.0,1.7579999999999991,1.7579999999999991,0.0,0.0,1.0,55.0,616.79921,10000.0,85.000001,85.000001,85.000001,85.000001,395.0,0.0,0.0,0.0,1.0,166.665,51.62,51.62,46.799,46.799,34.0,-22.035,28.64,-26.04,30.1225,0.0,1781.152,-0.3200000000000003,100.0,28.253,28.817,43.6,44.08,0.0,0.0,100.0,0.0,0.0,0.0,0.0,3060.3333333333335,3421.1,4018.4285714285716,4043.5,305.549,304.036,315.05966666666666,314.89,22.1071,20.6997,22.1219,21.6177,314.999998,314.999998,324.999988,324.999988,99.5593,99.5074,99.56972857142857,99.54987142857142,0.12400000000000011,-0.00824999999999998,-0.05466666666666664,0.16949999999999998,-0.04333333333332945,-0.060000000000002274,1.5443333333333333,1.5245,39.17,30.372999999999998,39.262,36.1105,55.848,35.791,60.230000000000004,53.576,53.785,34.869,58.7725,51.862,52.923,34.3895,58.632,51.248,-0.10399999999999987,-0.05250000000000021,0.10351,0.10837500000000001,0.0,219.93,219.97,216.71333333333334,216.71333333333334,0.0,0.0
36,0.0,0.0,0.0,1.0,1.0,0.0,0.0,1.0,0.0,100.0,1.0,1.1856,26.0,0.0,0.0,0.0,68.000001,0.0,26.0,26.0,26.0,26.0,0.05875000000000008,0.26270000000000016,0.0172,290.939,-2.7812,-2.644125,-1.5811000000000002,-1.5455,-153.35999999999999,215.61,190.16875,0.0,0.0,0.0,0.0,0.0727,-5.498166666666667,-5.498166666666667,-0.6632,0.3303333333333333,-0.036375000000000046,-1.4460000000000002,70.392,0.042,-0.20175,-0.2060000000000004,100.0,1.0,1.0,216.87,0.0,0.0,0.0,0.0,0.0,0.0,0.0,9192.4,0.0,55.0,5.0,253.38333333333333,0.0,0.0,0.0,0.0,0.0,0.0,1.0,0.0,1.8030000000000008,1.8030000000000008,0.0,0.0,0.0,55.0,616.79921,10000.0,85.000001,85.000001,85.000001,85.000001,395.0,0.0,0.0,0.0,1.0,333.33500000000004,51.285,51.285,46.448,46.448,34.0,-24.557499999999997,25.52166666666667,-29.566666666666663,34.254999999999995,0.0,1781.107,-0.25,100.0,28.699,29.07,43.662,44.328,0.0,0.0,100.0,0.0,0.0,0.0,0.0,3341.0,3142.4,4438.714285714285,4452.0,304.9595,304.7305,314.16966666666667,313.86275,22.1153,20.7049,22.1311,21.6259,314.999998,314.999998,324.999988,324.999988,99.55931428571428,99.5074,99.56987142857143,99.55,0.12474999999999992,-0.03125,-0.0671666666666666,0.15866666666666673,-0.03499999999999659,-0.046666666666666856,1.446,1.45,39.221000000000004,30.4055,39.319,36.161500000000004,55.84,35.826,60.262,53.629999999999995,53.777,34.9015,58.8025,51.914,52.913,34.420500000000004,58.659,51.299,-0.10899999999999999,-0.06850000000000023,0.105785,0.11354500000000001,0.0,220.315,220.34,216.87,216.87,0.0,0.0
