,ABS Active,ABS Enabled,AID Allow Tire Blankets,AID Auto Blip,AID Auto Clutch,AID Auto Shift,AID Fuel Rate,AID Ideal Line,AID Mech Damage,AID Stability,AID Tire Wear Rate,Air Density,Air Temp,Ballast,Best Lap Delta,Best Lap Time,Brake Bias,Brake Pos,Brake Temp FL,Brake Temp FR,Brake Temp RL,Brake Temp RR,CG Accel Lateral,CG Accel Longitudinal,CG Accel Vertical,CG Height,Camber FL,Camber FR,Camber RL,Camber RR,Car Coord X,Car Coord Y,Car Coord Z,Car Damage Front,Car Damage Left,Car Damage Rear,Car Damage Right,Car Pos Norm,Caster FL,Caster FR,Chassis Pitch Angle,Chassis Pitch Rate,Chassis Roll Angle,Chassis Roll Rate,Chassis Velocity X,Chassis Velocity Y,Chassis Velocity Z,Chassis Yaw Rate,Clutch Pos,DRS Active,DRS Available,Drive Train Speed,ERS Heat Charging,ERS Is Charging,ERS Max Energy,ERS Power Level,ERS Recovery Level,Engine Brake Setting,Engine Limiter,Engine RPM,Flags,Fuel Level,Gear,Ground Speed,HR Sample Clock,In Pit,KERS Charge,KERS Deployed Energy,KERS Input,KERS Max Energy,LR Sample Clock,Lap Invalidated,Lap Time,Lap Time2,Last Lap Time,Last Sector Time,MR Sample Clock,Max Fuel,Max Power,Max RPM,Max Sus Travel FL,Max Sus Travel FR,Max Sus Travel RL,Max Sus Travel RR,Max Torque,Max Turbo Boost,Num Tires Off Track,Penalties Enabled,Position,Raw Data Sample Rate,Ride Height FL,Ride Height FR,Ride Height RL,Ride Height RR,Road Temp,Self Align Torque FL,Self Align Torque FR,Self Align Torque RL,Self Align Torque RR,Session Lap Count,Session Time Left,Steering Angle,Surface Grip,Suspension Travel FL,Suspension Travel FR,Suspension Travel RL,Suspension Travel RR,TC Active,TC Enabled,Throttle Pos,Tire Dirt Level FL,Tire Dirt Level FR,Tire Dirt Level RL,Tire Dirt Level RR,Tire Load FL,Tire Load FR,Tire Load RL,Tire Load RR,Tire Loaded Radius FL,Tire Loaded Radius FR,Tire Loaded Radius RL,Tire Loaded Radius RR,Tire Pressure FL,Tire Pressure FR,Tire Pressure RL,Tire Pressure RR,Tire Radius FL,Tire Radius FR,Tire Radius RL,Tire Radius RR,Tire Rubber Grip FL,Tire Rubber Grip FR,Tire Rubber Grip RL,Tire Rubber Grip RR,Tire Slip Angle FL,Tire Slip Angle FR,Tire Slip Angle RL,Tire Slip Angle RR,Tire Slip Ratio FL,Tire Slip Ratio FR,Tire Slip Ratio RL,Tire Slip Ratio RR,Tire Temp Core FL,Tire Temp Core FR,Tire Temp Core RL,Tire Temp Core RR,Tire Temp Inner FL,Tire Temp Inner FR,Tire Temp Inner RL,Tire Temp Inner RR,Tire Temp Middle FL,Tire Temp Middle FR,Tire Temp Middle RL,Tire Temp Middle RR,Tire Temp Outer FL,Tire Temp Outer FR,Tire Temp Outer RL,Tire Temp Outer RR,Toe In FL,Toe In FR,Toe In RL,Toe In RR,Turbo Boost,Wheel Angular Speed FL,Wheel Angular Speed FR,Wheel Angular Speed RL,Wheel Angular Speed RR,Wind Direction,Wind Speed
0,0.0,0.0,0.0,1.0,1.0,0.0,0.0,1.0,0.0,100.0,1.0,1.1856,26.0,0.0,0.0,0.0,68.0,0.0,26.0,26.0,26.0,26.0,-0.077125,0.3066,0.05993333333333334,294.083,-2.7196,-2.661625,-1.5169000000000001,-1.558375,-275.57,216.29250000000002,190.987,0.0,0.0,0.0,0.0,0.0016333333333333332,-5.498166666666667,-5.498166666666667,-0.5466,1.0843333333333334,-0.008777777777777995,-0.5270000000000001,65.505,-0.031400000000000004,-0.212625,0.9120000000000008,100.0,1.0,1.0,202.24666666666667,0.0,0.0,0.0,0.0,0.0,0.0,0.0,8572.6,0.0,55.0,5.0,235.7866666666667,0.0,0.0,0.0,0.0,0.0,0.0,0.0,0.0,0.006000000000000227,0.006000000000000227,0.0,0.0,0.0,55.0,616.79921,10000.0,85.0,85.0,85.0,85.0,395.0,0.0,0.0,0.0,1.0,20.0,52.826,52.826,49.576,49.576,34.0,-26.302500000000002,24.081666666666667,-29.92,24.7,0.0,1782.939,0.8300000000000018,100.0,27.317,26.838,40.621,40.546,0.0,0.0,100.0,0.0,0.0,0.0,0.0,3016.3333333333335,3408.6,4071.1428571428573,3953.7,305.6635,304.016,314.92566666666664,314.973,21.77625,20.5142,21.7626,21.3062,314.99999,314.99999,324.99998,324.99998,99.55872857142857,99.50716666666666,99.56461428571428,99.54482857142857,0.0030000000000001137,-0.11224999999999996,-0.15966666666666662,0.06899999999999995,-0.01666666666666572,-0.06333333333333258,1.5493333333333332,1.6139999999999999,37.101,29.2135,37.016,34.164,56.222,34.4615,58.872,51.448499999999996,54.144999999999996,33.6385,57.507,49.817499999999995,53.319,33.2055,57.4715,49.24733333333333,-0.011666666666666714,-0.1339999999999999,0.11222000000000001,0.10905000000000001,0.0,205.255,205.195,202.24666666666667,202.24666666666667,0.0,0.0
1,0.0,0.0,0.0,1.0,1.0,0.0,0.0,1.0,0.0,100.0,1.0,1.1856,26.0,0.0,0.0,0.0,68.000001,0.0,26.0,26.0,26.0,26.0,-0.11937500000000001,0.3035000000000001,0.03276666666666667,293.06,-2.6388,-2.7668749999999998,-1.525,-1.55,-272.03,216.28750000000002,190.96575,0.0,0.0,0.0,0.0,0.0037,-5.498166666666667,-5.498166666666667,-0.49970000000000003,-0.8066666666666666,-0.05311111111111133,-0.244,65.669,-0.0504,-0.20317500000000002,1.4000000000000004,100.0,1.0,1.0,202.40333333333334,0.0,0.0,0.0,0.0,0.0,0.0,0.0,8579.1,0.0,55.0,5.0,236.37666666666667,1.0,0.0,0.0,0.0,0.0,0.0,0.0,0.0,0.05999999999999872,0.05999999999999872,0.0,0.0,1.0,55.0,616.79921,10000.0,85.000001,85.000001,85.000001,85.000001,395.0,0.0,0.0,0.0,1.0,166.665,53.574,53.574,48.355000000000004,48.355000000000004,34.0,-26.502499999999998,18.51833333333333,-34.97333333333333,29.7325,0.0,1782.885,0.8399999999999999,100.0,27.581,26.927,42.439,41.764,0.0,0.0,100.0,0.0,0.0,0.0,0.0,3036.5,2724.7,4369.285714285715,4741.6,305.5025,306.1596666666667,314.098,313.028,21.786625,20.5195,21.7739,21.3158,314.999998,314.999998,324.999988,324.999988,99.55874285714286,99.50718333333333,99.56478571428572,99.54498571428572,-0.010499999999999954,-0.136,-0.18366666666666664,0.04150000000000009,-0.05333333333332746,-0.03999999999999915,1.3866666666666667,1.44,37.167,29.247,37.087,34.224000000000004,56.205,34.504999999999995,58.920500000000004,51.518,54.129000000000005,33.678,57.5525,49.8845,53.302,33.2435,57.513999999999996,49.312666666666665,-0.006000000000000005,-0.14349999999999996,0.10526,0.111585,0.0,205.765,205.64499999999998,202.40333333333334,202.40333333333334,0.0,0.0
2,0.0,0.0,0.0,1.0,1.0,0.0,0.0,1.0,0.0,100.0,1.0,1.1856,26.0,0.0,0.0,0.0,68.000001,0.0,26.0,26.0,26.0,26.0,-0.14949999999999997,0.2921,-0.07876666666666667,293.823,-2.6094,-2.7895000000000003,-1.4935,-1.601,-268.88,216.28,190.948125,0.0,0.0,0.0,0.0,0.005533333333333334,-5.498166666666667,-5.498166666666667,-0.5517000000000001,0.10833333333333334,-0.04055555555555568,2.388,65.80199999999999,-0.0702,-0.25655,1.5600000000000005,100.0,1.0,1.0,203.33333333333331,0.0,0.0,0.0,0.0,0.0,0.0,0.0,8618.6,0.0,55.0,5.0,236.85666666666668,0.0,0.0,0.0,0.0,0.0,0.0,0.0,0.0,0.10800000000000054,0.10800000000000054,0.0,0.0,0.0,55.0,616.79921,10000.0,85.000001,85.000001,85.000001,85.000001,395.0,0.0,0.0,0.0,1.0,166.665,52.49,52.49,50.385,50.385,34.0,-29.3,20.816666666666666,-28.753333333333337,20.09,0.0,1782.836,0.6900000000000013,100.0,28.302,26.87,42.377,41.286,0.0,0.0,100.0,0.0,0.0,0.0,0.0,3284.333333333333,3010.4,3707.0,3680.3,304.6695,305.3283333333333,315.7436666666667,315.78875,21.79625,20.5242,21.7837,21.323999999999998,314.999998,314.999998,324.999988,324.999988,99.55875714285715,99.5072,99.5649,99.54511428571429,-0.019749999999999934,-0.13874999999999993,-0.21899999999999997,0.010166666666666657,-0.036666666666668846,-0.051666666666669414,1.639,1.698,37.226,29.2765,37.147999999999996,34.275,56.193,34.542,58.9565,51.571,54.117999999999995,33.7125,57.585499999999996,49.935,53.29,33.2765,57.545,49.36266666666667,-0.019333333333333202,-0.125,0.10822500000000002,0.10883500000000002,0.0,206.195,206.03,203.33333333333331,203.33333333333331,0.0,0.0
3,0.0,0.0,0.0,1.0,1.0,0.0,0.0,1.0,0.0,100.0,1.0,1.1856,26.0,0.0,0.0,0.0,68.000001,0.0,26.0,26.0,26.0,26.0,-0.14600000000000002,0.3157000000000001,0.08310000000000001,293.549,-2.7273,-2.6959999999999997,-1.5085000000000002,-1.590375,-265.72,216.26749999999998,190.9295,0.0,0.0,0.0,0.0,0.0074,-5.498166666666667,-5.498166666666667,-0.5091,0.37133333333333335,-0.00955555555555554,0.18499999999999994,65.945,-0.08420000000000001,-0.19705,1.1899999999999995,100.0,1.0,1.0,203.44666666666666,0.0,0.0,0.0,0.0,0.0,0.0,0.0,8623.4,0.0,55.0,5.0,237.37333333333333,1.0,0.0,0.0,0.0,0.0,0.0,0.0,0.0,0.1559999999999988,0.1559999999999988,0.0,0.0,1.0,55.0,616.79921,10000.0,85.000001,85.000001,85.000001,85.000001,395.0,0.0,0.0,0.0,1.0,166.665,53.68,53.68,48.248,48.248,34.0,-25.435,18.623333333333335,-34.99333333333334,24.68,0.0,1782.788,0.620000000000001,100.0,27.855,26.87,42.332,41.312,0.0,0.0,100.0,0.0,0.0,0.0,0.0,2842.1666666666665,2878.1,4302.142857142857,4256.6,306.111,305.68533333333335,314.291,314.32075,21.805374999999998,20.5291,21.7934,21.3323,314.999998,314.999998,324.999988,324.999988,99.55875714285715,99.50721666666666,99.56504285714286,99.54524285714285,-0.016000000000000014,-0.14874999999999994,-0.21033333333333337,0.013833333333333364,-0.051666666666669414,-0.04833333333333201,1.4843333333333333,1.5394999999999999,37.284,29.307000000000002,37.209,34.327,56.177,34.582,58.994,51.629999999999995,54.102999999999994,33.749,57.621,49.992,53.275,33.3115,57.5775,49.41833333333334,-0.028000000000000025,-0.12349999999999994,0.11096500000000001,0.10648,0.0,206.64499999999998,206.51999999999998,203.44666666666666,203.44666666666666,0.0,0.0
4,0.0,0.0,0.0,1.0,1.0,0.0,0.0,1.0,0.0,100.0,1.0,1.1856,26.0,0.0,0.0,0.0,68.000001,0.0,26.0,26.0,26.0,26.0,-0.134,0.2876000000000001,0.004933333333333334,293.701,-2.6645,-2.7407500000000002,-1.528,-1.594625,-262.35,216.2525,190.90975,0.0,0.0,0.0,0.0,0.009333333333333334,-5.498166666666667,-5.498166666666667,-0.5444,-0.7716666666666666,-0.07655555555555571,-1.713,66.092,-0.0843,-0.23605,1.1300000000000008,100.0,1.0,1.0,204.0233333333333,0.0,0.0,0.0,0.0,0.0,0.0,0.0,8647.9,0.0,55.0,5.0,237.90333333333334,0.0,0.0,0.0,0.0,0.0,0.0,0.0,0.0,0.20700000000000074,0.20700000000000074,0.0,0.0,0.0,55.0,616.79921,10000.0,85.000001,85.000001,85.000001,85.000001,395.0,0.0,0.0,0.0,1.0,333.33500000000004,53.116,53.116,48.859,48.859,34.0,-29.7125,19.123333333333335,-32.91,20.54,0.0,1782.735,0.620000000000001,100.0,27.567,26.837,42.704,41.455,0.0,0.0,100.0,0.0,0.0,0.0,0.0,3291.166666666667,2892.3,4096.0,3684.1,304.9885,305.47866666666664,314.83033333333333,315.63825,21.815125000000002,20.5342,21.804,21.3411,314.999998,314.999998,324.999988,324.999988,99.55875714285715,99.50723333333333,99.56518571428572,99.54538571428571,-0.026499999999999968,-0.15249999999999997,-0.21316666666666662,0.011500000000000066,-0.05833333333333002,-0.01999999999999602,1.571,1.611,37.344,29.3385,37.275,34.382,56.16,34.623,59.037,51.6895,54.086,33.787,57.661,50.049,53.257,33.348,57.6145,49.474000000000004,-0.024333333333333318,-0.12550000000000017,0.11335,0.09586000000000001,0.0,207.055,206.91500000000002,204.0233333333333,204.0233333333333,0.0,0.0
5,0.0,0.0,0.0,1.0,1.0,0.0,0.0,1.0,0.0,100.0,1.0,1.1856,26.0,0.0,0.0,0.0,68.000001,0.0,26.0,26.0,26.0,26.0,-0.14349999999999996,0.2976000000000001,-0.0114,293.671,-2.6707,-2.7662500000000003,-1.5103,-1.58575,-258.97,216.235,190.889375,0.0,0.0,0.0,0.0,0.011300000000000001,-5.498166666666667,-5.498166666666667,-0.5362,0.4316666666666667,-0.07866666666666644,1.163,66.239,-0.08850000000000001,-0.21415,1.064,100.0,1.0,1.0,204.42666666666668,0.0,0.0,0.0,0.0,0.0,0.0,0.0,8664.9,0.0,55.0,5.0,238.42666666666668,1.0,0.0,0.0,0.0,0.0,0.0,0.0,0.0,0.2579999999999991,0.2579999999999991,0.0,0.0,1.0,55.0,616.79921,10000.0,85.000001,85.000001,85.000001,85.000001,395.0,0.0,0.0,0.0,1.0,166.665,53.452,53.452,48.996,48.996,34.0,-27.1025,19.835,-33.33,24.1475,0.0,1782.686,0.1700000000000017,100.0,27.891,26.617,42.562,41.086,0.0,0.0,100.0,0.0,0.0,0.0,0.0,3092.8333333333335,2855.6,4145.571428571428,4103.9,305.345,305.80466666666666,314.72933333333333,314.71425,21.825125,20.5393,21.8144,21.3498,314.999998,314.999998,324.999988,324.999988,99.55875714285715,99.50725,99.56532857142857,99.54551428571429,-0.003750000000000031,-0.12724999999999997,-0.21366666666666656,0.02750000000000008,-0.05666666666667197,-0.054999999999999716,1.5343333333333333,1.5715,37.407,29.3705,37.34,34.436,56.146,34.664,59.077,51.7475,54.073,33.8245,57.698499999999996,50.1045,53.242999999999995,33.3835,57.6495,49.528333333333336,-0.05699999999999994,-0.09399999999999986,0.10280500000000001,0.12220500000000001,0.0,207.56,207.445,204.42666666666668,204.42666666666668,0.0,0.0
6,0.0,0.0,0.0,1.0,1.0,0.0,0.0,1.0,0.0,100.0,1.0,1.1856,26.0,0.0,0.0,0.0,68.000001,0.0,26.0,26.0,26.0,26.0,-0.121,0.29790000000000005,0.005566666666666667,293.472,-2.6365,-2.7437500000000004,-1.552,-1.5815000000000001,-255.79,216.215,190.87,0.0,0.0,0.0,0.0,0.013166666666666667,-5.498166666666667,-5.498166666666667,-0.5315,0.09533333333333333,-0.06099999999999994,0.892,66.377,-0.08460000000000001,-0.21515,0.6900000000000004,100.0,1.0,1.0,204.85000000000002,0.0,0.0,0.0,0.0,0.0,0.0,0.0,8682.9,0.0,55.0,5.0,238.92666666666668,0.0,0.0,0.0,0.0,0.0,0.0,0.0,0.0,0.30600000000000094,0.30600000000000094,0.0,0.0,0.0,55.0,616.79921,10000.0,85.000001,85.000001,85.000001,85.000001,395.0,0.0,0.0,0.0,1.0,333.33500000000004,53.116,53.116,48.766999999999996,48.766999999999996,34.0,-26.145,21.473333333333333,-32.54666666666667,23.5325,0.0,1782.637,0.0,100.0,27.841,26.718,42.704,41.436,0.0,0.0,100.0,0.0,0.0,0.0,0.0,3096.0,3008.2,4074.285714285714,4054.3,305.292,305.308,314.88933333333335,314.828,21.834375,20.5441,21.8243,21.3582,314.999998,314.999998,324.999988,324.999988,99.55875714285715,99.50726666666667,99.56547142857143,99.54565714285714,0.014250000000000096,-0.11349999999999993,-0.20099999999999996,0.022499999999999964,-0.046666666666666856,-0.05666666666667197,1.547,1.5625,37.465,29.401,37.402,34.489,56.131,34.702,59.1155,51.806,54.059,33.8595,57.7345,50.1605,53.229,33.417,57.6825,49.583,-0.07600000000000007,-0.07850000000000001,0.10793000000000001,0.10455500000000001,0.0,207.935,207.86,204.85000000000002,204.85,0.0,0.0
7,0.0,0.0,0.0,1.0,1.0,0.0,0.0,1.0,0.0,100.0,1.0,1.1856,26.0,0.0,0.0,0.0,68.000001,0.0,26.0,26.0,26.0,26.0,-0.0695,0.28059999999999996,0.04136666666666667,293.289,-2.6098,-2.755375,-1.5141,-1.6243750000000001,-252.2,216.1875,190.848375,0.0,0.0,0.0,0.0,0.015233333333333335,-5.498166666666667,-5.498166666666667,-0.5351,0.08166666666666668,-0.04899999999999993,1.226,66.531,-0.0654,-0.22475,0.2939999999999996,100.0,1.0,1.0,205.31,0.0,0.0,0.0,0.0,0.0,0.0,0.0,8702.4,0.0,55.0,5.0,239.48333333333335,1.0,0.0,0.0,0.0,0.0,0.0,0.0,0.0,0.35999999999999943,0.35999999999999943,0.0,0.0,1.0,55.0,616.79921,10000.0,85.000001,85.000001,85.000001,85.000001,395.0,0.0,0.0,0.0,1.0,166.665,52.872,52.872,48.903999999999996,48.903999999999996,34.0,-25.345,22.715,-30.166666666666664,26.04,0.0,1782.585,-0.23999999999999844,100.0,27.987,26.835,42.747,41.712,0.0,0.0,100.0,0.0,0.0,0.0,0.0,3142.3333333333335,3016.7,4014.5714285714284,4060.5,305.1005,305.192,314.988,314.75925,21.844875000000002,20.549599999999998,21.8353,21.3676,314.999998,314.999998,324.999988,324.999988,99.55877142857143,99.50728333333333,99.56561428571429,99.5458,0.03950000000000009,-0.08999999999999997,-0.17133333333333334,0.056499999999999995,-0.041666666666671404,-0.04833333333333201,1.5376666666666667,1.5425,37.531,29.435000000000002,37.471000000000004,34.548,56.116,34.7435,59.158500000000004,51.871,54.044,33.897999999999996,57.7745,50.2225,53.213,33.454,57.7195,49.644,-0.09333333333333327,-0.059499999999999886,0.10223,0.11341000000000001,0.0,208.385,208.365,205.31,205.31,0.0,0.0
8,0.0,0.0,0.0,1.0,1.0,0.0,0.0,1.0,0.0,100.0,1.0,1.1856,26.0,0.0,0.0,0.0,68.000001,0.0,26.0,26.0,26.0,26.0,-0.03312499999999996,0.29500000000000015,-0.0354,293.51800000000003,-2.6994,-2.7178750000000003,-1.4986000000000002,-1.572,-248.81,216.1625,190.82775,0.0,0.0,0.0,0.0,0.017233333333333337,-5.498166666666667,-5.498166666666667,-0.538,-0.5660000000000001,-0.032333333333333325,-0.5429999999999999,66.67699999999999,-0.0455,-0.21757500000000002,-0.006000000000000227,100.0,1.0,1.0,205.68666666666667,0.0,0.0,0.0,0.0,0.0,0.0,0.0,8718.3,0.0,55.0,5.0,240.01,0.0,0.0,0.0,0.0,0.0,0.0,0.0,0.0,0.41100000000000136,0.41100000000000136,0.0,0.0,0.0,55.0,616.79921,10000.0,85.000001,85.000001,85.000001,85.000001,395.0,0.0,0.0,0.0,1.0,166.665,53.604,53.604,48.294,48.294,34.0,-24.445,22.128333333333334,-29.483333333333334,25.945,0.0,1782.533,-0.35999999999999943,100.0,27.373,26.926000000000002,42.626,41.937,0.0,0.0,100.0,0.0,0.0,0.0,0.0,3006.8333333333335,2929.0,4135.714285714285,4075.3,305.8385,305.39633333333336,314.7366666666667,314.62925,21.8545,20.5548,21.8458,21.3766,314.999998,314.999998,324.999988,324.999988,99.55877142857143,99.5073,99.56577142857142,99.54594285714286,0.03974999999999995,-0.07950000000000002,-0.1406666666666666,0.06266666666666687,-0.04833333333333201,-0.05666666666667197,1.5263333333333333,1.5255,37.591,29.4675,37.536,34.6035,56.099000000000004,34.782,59.198499999999996,51.932,54.028,33.9335,57.812,50.281,53.196,33.4875,57.754,49.70133333333334,-0.09866666666666668,-0.03949999999999987,0.09578,0.10779000000000001,0.0,208.835,208.825,205.68666666666667,205.68666666666667,0.0,0.0
9,0.0,0.0,0.0,1.0,1.0,0.0,0.0,1.0,0.0,100.0,1.0,1.1856,26.0,0.0,0.0,0.0,68.000001,0.0,26.0,26.0,26.0,26.0,-0.009499999999999953,0.2821,-0.011666666666666667,293.091,-2.6248,-2.7185,-1.5539,-1.561,-245.6,216.1375,190.807875,0.0,0.0,0.0,0.0,0.019066666666666666,-5.498166666666667,-5.498166666666667,-0.5411,0.732,-0.0344444444444445,-0.3660000000000001,66.811,-0.027600000000000003,-0.215875,-0.137999999999999,100.0,1.0,1.0,206.21666666666667,0.0,0.0,0.0,0.0,0.0,0.0,0.0,8740.7,0.0,55.0,5.0,240.49,1.0,0.0,0.0,0.0,0.0,0.0,0.0,0.0,0.45899999999999963,0.45899999999999963,0.0,0.0,1.0,55.0,616.79921,10000.0,85.000001,85.000001,85.000001,85.000001,395.0,0.0,0.0,0.0,1.0,166.665,52.353,52.353,49.132999999999996,49.132999999999996,34.0,-25.605,23.765,-28.96,26.75,0.0,1782.485,-0.5199999999999996,100.0,27.923000000000002,27.39,42.314,41.938,0.0,0.0,100.0,0.0,0.0,0.0,0.0,3346.833333333333,2997.7,4052.8571428571427,4060.0,304.6855,305.11266666666666,315.0606666666667,314.77075,21.863875,20.5599,21.8555,21.384900000000002,314.999998,314.999998,324.999988,324.999988,99.55878571428572,99.5073,99.5659,99.54607142857142,0.07275000000000009,-0.05625000000000002,-0.13649999999999995,0.08800000000000008,-0.05833333333333002,-0.036666666666668846,1.568,1.5505,37.649,29.499000000000002,37.597,34.6555,56.087,34.819,59.233000000000004,51.988,54.016999999999996,33.9675,57.844,50.335,53.184,33.5205,57.783500000000004,49.754,-0.11799999999999988,-0.03600000000000003,0.102775,0.104705,0.0,209.265,209.245,206.21666666666667,206.21666666666667,0.0,0.0
10,0.0,0.0,0.0,1.0,1.0,0.0,0.0,1.0,0.0,100.0,1.0,1.1856,26.0,0.0,0.0,0.0,68.000001,0.0,26.0,26.0,26.0,26.0,0.0022500000000000853,0.28910000000000013,-0.015366666666666666,292.969,-2.6619,-2.7035,-1.5367000000000002,-1.533625,-242.39,216.11,190.788375,0.0,0.0,0.0,0.0,0.020933333333333335,-5.498166666666667,-5.498166666666667,-0.5191,-0.425,0.008111111111110958,0.42899999999999994,66.949,-0.0095,-0.20822500000000002,-0.46200000000000063,100.0,1.0,1.0,206.43333333333334,0.0,0.0,0.0,0.0,0.0,0.0,0.0,8750.0,0.0,55.0,5.0,240.98666666666668,0.0,0.0,0.0,0.0,0.0,0.0,1.0,0.0,0.5069999999999979,0.5069999999999979,0.0,0.0,0.0,55.0,616.79921,10000.0,85.000001,85.000001,85.000001,85.000001,395.0,0.0,0.0,0.0,1.0,166.665,53.467,53.467,47.638,47.638,34.0,-21.247500000000002,23.006666666666668,-30.64,29.4675,0.0,1782.437,-0.634999999999998,100.0,27.738,27.37,42.761,42.721000000000004,0.0,0.0,100.0,0.0,0.0,0.0,0.0,2872.3333333333335,2871.3,4313.571428571428,4269.5,306.128,305.5473333333333,314.309,314.1715,21.872875,20.564799999999998,21.8654,21.3935,314.999998,314.999998,324.999988,324.999988,99.55878571428572,99.5073,99.56602857142857,99.54621428571429,0.08450000000000002,-0.04125000000000001,-0.119,0.1056666666666668,-0.04333333333332945,-0.02499999999999858,1.4796666666666667,1.4645000000000001,37.706,29.53,37.659,34.7095,56.075,34.8535,59.2725,52.049,54.004999999999995,33.999,57.8805,50.3935,53.172,33.5505,57.817499999999995,49.81133333333334,-0.1246666666666667,-0.023499999999999854,0.10603000000000001,0.11186000000000001,0.0,209.66,209.66,206.43333333333334,206.43333333333334,0.0,0.0
11,0.0,0.0,0.0,1.0,1.0,0.0,0.0,1.0,0.0,100.0,1.0,1.1856,26.0,0.0,0.0,0.0,68.000001,0.0,26.0,26.0,26.0,26.0,0.05137499999999995,0.27449999999999997,-0.1058,293.503,-2.7105,-2.683375,-1.5884,-1.5246250000000001,-238.76999999999998,216.08249999999998,190.766375,0.0,0.0,0.0,0.0,0.022600000000000002,-5.498166666666667,-5.498166666666667,-0.5629000000000001,-0.047,0.029888888888888854,-0.804,67.096,0.0129,-0.2366,-0.6639999999999997,100.0,1.0,1.0,207.21,0.0,0.0,0.0,0.0,0.0,0.0,0.0,8782.9,0.0,55.0,5.0,241.51666666666665,1.0,0.0,0.0,0.0,0.0,0.0,1.0,0.0,0.5609999999999999,0.5609999999999999,0.0,0.0,1.0,55.0,616.79921,10000.0,85.000001,85.000001,85.000001,85.000001,395.0,0.0,0.0,0.0,1.0,166.665,52.765,52.765,49.271,49.271,34.0,-22.497500000000002,25.89333333333333,-24.526666666666664,26.7425,0.0,1782.383,-0.6900000000000013,100.0,27.534,27.626,42.231,42.548,0.0,0.0,100.0,0.0,0.0,0.0,0.0,3082.6666666666665,3088.4,3749.0,3864.1000000000004,305.57,304.83633333333336,315.8043333333333,315.2555,21.883,20.5706,21.8763,21.403,314.999998,314.999998,324.999988,324.999988,99.5588,99.50731666666667,99.56617142857142,99.54635714285715,0.10699999999999998,-0.017249999999999988,-0.09266666666666656,0.13566666666666682,-0.05333333333332746,-0.046666666666666856,1.6336666666666666,1.6085,37.768,29.566,37.727000000000004,34.7685,56.06,34.8935,59.309,52.113,53.991,34.036,57.914500000000004,50.455,53.156,33.586,57.848,49.87133333333333,-0.1319999999999999,-0.01949999999999985,0.10233500000000001,0.108365,0.0,210.10000000000002,210.135,207.21,207.21,0.0,0.0
12,0.0,0.0,0.0,1.0,1.0,0.0,0.0,1.0,0.0,100.0,1.0,1.1856,26.0,0.0,0.0,0.0,68.000001,0.0,26.0,26.0,26.0,26.0,0.049250000000000016,0.2965,0.017466666666666665,292.877,-2.7554,-2.68425,-1.5501,-1.528,-235.75,216.0575,190.746875,0.0,0.0,0.0,0.0,0.025466666666666665,-5.498166666666667,-5.498166666666667,-0.5474,0.3093333333333333,0.017444444444444374,0.6890000000000001,67.225,0.029900000000000003,-0.207925,-0.742,100.0,1.0,1.0,207.36,0.0,0.0,0.0,0.0,0.0,0.0,0.0,8789.2,0.0,55.0,5.0,241.98000000000002,0.0,0.0,0.0,0.0,0.0,0.0,1.0,0.0,0.6059999999999981,0.6059999999999981,0.0,0.0,0.0,55.0,616.79921,10000.0,85.000001,85.000001,85.000001,85.000001,395.0,0.0,0.0,0.0,1.0,333.33500000000004,52.704,52.704,47.897,47.897,34.0,-22.09,27.023333333333333,-26.923333333333332,31.6475,0.0,1782.336,-0.6449999999999996,100.0,27.597,27.639,42.342,42.474000000000004,0.0,0.0,100.0,0.0,0.0,0.0,0.0,3036.1666666666665,3203.4,4184.285714285715,4226.7,305.5765,304.69033333333334,314.62666666666667,314.41275,21.891375,20.5754,21.8854,21.410899999999998,314.999998,314.999998,324.999988,324.999988,99.55881428571429,99.50731666666667,99.5663,99.54648571428571,0.12050000000000005,-0.01100000000000001,-0.0708333333333333,0.16183333333333327,-0.036666666666668846,-0.061666666666667425,1.5396666666666667,1.505,37.821,29.596,37.784,34.818,56.049,34.927,59.3435,52.167,53.980000000000004,34.067,57.947,50.507,53.144999999999996,33.616,57.878,49.922333333333334,-0.1226666666666667,-0.028999999999999915,0.11343500000000001,0.11412000000000001,0.0,210.5,210.56,207.36,207.36,0.0,0.0
13,0.0,0.0,0.0,1.0,1.0,0.0,0.0,1.0,0.0,100.0,1.0,1.1856,26.0,0.0,0.0,0.0,68.000001,0.0,26.0,26.0,26.0,26.0,0.07862499999999994,0.29300000000000015,0.037333333333333336,292.511,-2.7393,-2.669125,-1.5922,-1.539125,-232.32,216.035,190.725125,0.0,0.0,0.0,0.0,0.0268,-5.498166666666667,-5.498166666666667,-0.5401,-0.07333333333333333,0.02544444444444438,-0.4850000000000001,67.367,0.040100000000000004,-0.2167,-0.7979999999999992,100.0,1.0,1.0,207.74666666666667,0.0,0.0,0.0,0.0,0.0,0.0,0.0,8805.7,0.0,55.0,5.0,242.49333333333334,1.0,0.0,0.0,0.0,0.0,0.0,1.0,0.0,0.657,0.657,0.0,0.0,1.0,55.0,616.79921,10000.0,85.000001,85.000001,85.000001,85.000001,395.0,0.0,0.0,0.0,1.0,333.33500000000004,52.414,52.414,47.867,47.867,34.0,-22.0675,26.848333333333333,-27.806666666666665,32.525,0.0,1782.285,-0.8350000000000009,100.0,27.713,28.003,42.493,43.108000000000004,0.0,0.0,100.0,0.0,0.0,0.0,0.0,3159.5,3089.6,4207.428571428572,4297.9,305.3545,304.85,314.619,314.13025,21.900875,20.5809,21.8959,21.42,314.999998,314.999998,324.999988,324.999988,99.55884285714286,99.50731666666667,99.56645714285715,99.54664285714286,0.1372500000000001,0.00924999999999998,-0.07133333333333336,0.15783333333333327,-0.04833333333333201,-0.051666666666669414,1.5096666666666667,1.478,37.881,29.631,37.849999999999994,34.8755,56.038,34.9675,59.385,52.235,53.97,34.1045,57.9855,50.5725,53.132999999999996,33.6515,57.913,49.986666666666665,-0.1436666666666666,-0.009500000000000064,0.10904000000000001,0.10803000000000001,0.0,210.94,210.98000000000002,207.74666666666667,207.74666666666667,0.0,0.0
14,0.0,0.0,0.0,1.0,1.0,0.0,0.0,1.0,0.0,100.0,1.0,1.1856,26.0,0.0,0.0,0.0,68.000001,0.0,26.0,26.0,26.0,26.0,0.08899999999999997,0.27300000000000013,-0.012,292.801,-2.7357,-2.61525,-1.5988,-1.51125,-228.88,216.01,190.703875,0.0,0.0,0.0,0.0,0.028800000000000003,-5.498166666666667,-5.498166666666667,-0.5486,-0.10033333333333333,0.0537777777777777,1.318,67.507,0.050300000000000004,-0.228025,-1.0139999999999993,100.0,1.0,1.0,208.26333333333332,0.0,0.0,0.0,0.0,0.0,0.0,0.0,8827.6,0.0,55.0,5.0,242.99666666666667,0.0,0.0,0.0,0.0,0.0,0.0,1.0,0.0,0.7079999999999984,0.7079999999999984,0.0,0.0,0.0,55.0,616.79921,10000.0,85.000001,85.000001,85.000001,85.000001,395.0,0.0,0.0,0.0,1.0,333.33500000000004,52.612,52.612,48.096000000000004,48.096000000000004,34.0,-19.4825,28.516666666666666,-24.07333333333333,32.0275,0.0,1782.234,-0.9299999999999997,100.0,27.72,27.88,42.532,43.203,0.0,0.0,100.0,0.0,0.0,0.0,0.0,2918.1666666666665,3256.2,3945.4285714285716,4219.6,305.8805,304.53566666666666,315.189,314.4255,21.910375000000002,20.5864,21.9063,21.4292,314.999998,314.999998,324.999988,324.999988,99.55885714285715,99.50731666666667,99.56658571428571,99.54677142857143,0.15674999999999994,0.02675000000000005,-0.03816666666666657,0.17583333333333329,-0.026666666666670835,-0.051666666666669414,1.5543333333333333,1.517,37.94,29.665,37.914,34.932,56.028999999999996,35.003,59.4195,52.2945,53.961,34.1375,58.0175,50.6295,53.123000000000005,33.6835,57.942,50.04266666666666,-0.14500000000000002,-0.004999999999999893,0.09957,0.10341,0.0,211.35500000000002,211.42000000000002,208.26333333333332,208.26333333333332,0.0,0.0
15,0.0,0.0,0.0,1.0,1.0,0.0,0.0,1.0,0.0,100.0,1.0,1.1856,26.0,0.0,0.0,0.0,68.000001,0.0,26.0,26.0,26.0,26.0,0.11424999999999996,0.28180000000000005,0.010866666666666667,292.816,-2.7094,-2.575875,-1.6247,-1.453,-225.63,215.9925,190.683625,0.0,0.0,0.0,0.0,0.0307,-5.498166666666667,-5.498166666666667,-0.5394,0.2623333333333333,0.08199999999999985,0.967,67.639,0.0637,-0.2084,-1.1799999999999997,100.0,1.0,1.0,208.65333333333334,0.0,0.0,0.0,0.0,0.0,0.0,0.0,8844.1,0.0,55.0,5.0,243.47,1.0,0.0,0.0,0.0,0.0,0.0,1.0,0.0,0.7560000000000002,0.7560000000000002,0.0,0.0,1.0,55.0,616.79921,10000.0,85.000001,85.000001,85.000001,85.000001,395.0,0.0,0.0,0.0,1.0,333.33500000000004,52.795,52.795,48.126,48.126,34.0,-17.785,28.541666666666668,-24.14,33.5175,0.0,1782.187,-0.9849999999999994,100.0,27.701,27.917,42.307,43.262,0.0,0.0,100.0,0.0,0.0,0.0,0.0,2791.5,3232.6,3938.857142857143,4403.3,306.239,304.60366666666664,315.242,314.00525,21.919375,20.5917,21.916,21.4377,314.999998,314.999998,324.999988,324.999988,99.55887142857142,99.50731666666667,99.56671428571428,99.54691428571428,0.16999999999999993,0.04125000000000001,-0.033499999999999974,0.1875,-0.03166666666666629,-0.06666666666666998,1.5413333333333332,1.51,37.995999999999995,29.698,37.974999999999994,34.9855,56.019999999999996,35.039500000000004,59.453,52.354,53.952,34.1715,58.0485,50.687,53.113,33.716,57.97,50.099333333333334,-0.1503333333333332,-0.0015000000000000568,0.10931500000000001,0.10579000000000001,0.0,211.785,211.865,208.65333333333334,208.65333333333334,0.0,0.0
16,0.0,0.0,0.0,1.0,1.0,0.0,0.0,1.0,0.0,100.0,1.0,1.1856,26.0,0.0,0.0,0.0,68.000001,0.0,26.0,26.0,26.0,26.0,0.12712499999999993,0.27880000000000016,-0.04803333333333333,292.816,-2.8071,-2.583125,-1.6002,-1.453625,-222.18,215.9725,190.6615,0.0,0.0,0.0,0.0,0.0327,-5.498166666666667,-5.498166666666667,-0.561,-0.6963333333333334,0.06777777777777771,-1.036,67.779,0.07350000000000001,-0.22642500000000002,-1.1760000000000002,100.0,1.0,1.0,209.08333333333331,0.0,0.0,0.0,0.0,0.0,0.0,0.0,8862.2,0.0,55.0,5.0,243.97666666666666,0.0,0.0,0.0,0.0,0.0,0.0,1.0,0.0,0.8069999999999986,0.8069999999999986,0.0,0.0,0.0,55.0,616.79921,10000.0,85.000001,85.000001,85.000001,85.000001,395.0,0.0,0.0,0.0,1.0,333.33500000000004,52.673,52.673,47.882,47.882,34.0,-19.884999999999998,28.02,-23.426666666666662,31.92,0.0,1782.136,-0.9149999999999991,100.0,27.198,28.161,42.478,43.471000000000004,0.0,0.0,100.0,0.0,0.0,0.0,0.0,3024.5,3202.0,3959.5714285714284,4145.9,305.849,304.55,315.234,314.5465,21.9285,20.5973,21.9265,21.4469,314.999998,314.999998,324.999988,324.999988,99.55888571428571,99.50733333333334,99.56687142857143,99.54707142857143,0.17525000000000013,0.030000000000000027,-0.025499999999999967,0.20116666666666672,-0.061666666666667425,-0.036666666666668846,1.569,1.5255,38.053,29.733,38.04,35.043,56.007,35.079,59.4915,52.417,53.939,34.208,58.084,50.7475,53.099999999999994,33.751,58.003,50.15866666666666,-0.15266666666666673,-0.011499999999999844,0.10869000000000001,0.11191000000000001,0.0,212.18,212.26,209.08333333333331,209.08333333333331,0.0,0.0
17,0.0,0.0,0.0,1.0,1.0,0.0,0.0,1.0,0.0,100.0,1.0,1.1856,26.0,0.0,0.0,0.0,68.000001,0.0,26.0,26.0,26.0,26.0,0.13074999999999992,0.2855000000000001,0.025566666666666668,292.389,-2.7672,-2.5626249999999997,-1.6409,-1.47725,-218.51999999999998,215.95749999999998,190.637625,0.0,0.0,0.0,0.0,0.034833333333333334,-5.498166666666667,-5.498166666666667,-0.5478000000000001,0.42733333333333334,0.04655555555555568,-0.5840000000000001,67.926,0.078,-0.20395000000000002,-1.096,100.0,1.0,1.0,209.47,0.0,0.0,0.0,0.0,0.0,0.0,0.0,8878.7,0.0,55.0,5.0,244.50333333333333,1.0,0.0,0.0,0.0,0.0,0.0,1.0,0.0,0.8610000000000007,0.8610000000000007,0.0,0.0,1.0,55.0,616.79921,10000.0,85.000001,85.000001,85.000001,85.000001,395.0,0.0,0.0,0.0,1.0,166.665,52.414,52.414,47.592,47.592,34.0,-20.225,27.21333333333333,-26.439999999999998,34.3525,0.0,1782.082,-0.995000000000001,100.0,27.673000000000002,28.402,42.272,43.483000000000004,0.0,0.0,100.0,0.0,0.0,0.0,0.0,3106.1666666666665,3086.7,4327.714285714285,4324.2,305.5645,304.9216666666667,314.446,314.1565,21.938625000000002,20.6033,21.9374,21.4565,314.999998,314.999998,324.999988,324.999988,99.55891428571428,99.50733333333334,99.56701428571428,99.54722857142858,0.1745000000000001,0.043749999999999956,-0.02083333333333337,0.20666666666666678,-0.04333333333332945,-0.041666666666671404,1.5373333333333332,1.4835,38.116,29.7705,38.108999999999995,35.103,55.998999999999995,35.1225,59.5295,52.483000000000004,53.931,34.248,58.1195,50.8115,53.09,33.789500000000004,58.035,50.221333333333334,-0.15799999999999992,0.0020000000000000018,0.10348,0.10909,0.0,212.66500000000002,212.75,209.47,209.47,0.0,0.0
18,0.0,0.0,0.0,1.0,1.0,0.0,0.0,1.0,0.0,100.0,1.0,1.1856,26.0,0.0,0.0,0.0,68.000001,0.0,26.0,26.0,26.0,26.0,0.12024999999999997,0.28,-0.0103,292.465,-2.7976,-2.5408749999999998,-1.6572,-1.42075,-215.45999999999998,215.9475,190.617875,0.0,0.0,0.0,0.0,0.0366,-5.498166666666667,-5.498166666666667,-0.5599000000000001,-0.547,0.07444444444444431,1.126,68.048,0.08030000000000001,-0.22282500000000002,-1.314,100.0,1.0,1.0,209.88666666666666,0.0,0.0,0.0,0.0,0.0,0.0,0.0,8896.3,0.0,55.0,5.0,244.94666666666666,0.0,0.0,0.0,0.0,0.0,0.0,1.0,0.0,0.9059999999999988,0.9059999999999988,0.0,0.0,0.0,55.0,616.79921,10000.0,85.000001,85.000001,85.000001,85.000001,395.0,0.0,0.0,0.0,1.0,333.33500000000004,52.353,52.353,47.714,47.714,34.0,-19.060000000000002,30.673333333333332,-24.089999999999996,32.394999999999996,0.0,1782.037,-1.2399999999999984,100.0,27.588,28.113,42.63,43.764,0.0,0.0,100.0,0.0,0.0,0.0,0.0,2984.5,3385.1,3997.5714285714284,4238.0,305.8165,304.22766666666666,315.1256666666667,314.40875,21.946875,20.6082,21.9466,21.4646,314.999998,314.999998,324.999988,324.999988,99.55892857142857,99.50735,99.56714285714285,99.54735714285714,0.18924999999999992,0.06424999999999992,-0.016833333333333367,0.20333333333333337,-0.03499999999999659,-0.04999999999999716,1.56,1.51,38.168,29.801499999999997,38.166,35.153999999999996,55.989999999999995,35.158,59.563,52.54,53.923,34.281,58.1505,50.8665,53.081,33.8215,58.063,50.275333333333336,-0.16999999999999993,0.013500000000000068,0.10769500000000001,0.10342000000000001,0.0,213.01,213.10500000000002,209.88666666666666,209.88666666666666,0.0,0.0
19,0.0,0.0,0.0,1.0,1.0,0.0,0.0,1.0,0.0,100.0,1.0,1.1856,26.0,0.0,0.0,0.0,68.000001,0.0,26.0,26.0,26.0,26.0,0.16100000000000003,0.28780000000000006,0.060000000000000005,291.916,-2.7173,-2.638125,-1.6732,-1.403,-211.78,215.94,190.594,0.0,0.0,0.0,0.0,0.038733333333333335,-5.498166666666667,-5.498166666666667,-0.5478000000000001,0.867,0.0858888888888889,0.956,68.194,0.09280000000000001,-0.21002500000000002,-1.7000000000000002,100.0,1.0,1.0,210.28,0.0,0.0,0.0,0.0,0.0,0.0,0.0,8913.0,0.0,55.0,5.0,245.47,1.0,0.0,0.0,0.0,0.0,0.0,1.0,0.0,0.9600000000000009,0.9600000000000009,0.0,0.0,1.0,55.0,616.79921,10000.0,85.000001,85.000001,85.000001,85.000001,395.0,0.0,0.0,0.0,1.0,166.665,51.772999999999996,51.772999999999996,47.348,47.348,34.0,-17.015,32.03333333333333,-24.589999999999996,36.665,0.0,1781.983,-1.5650000000000013,100.0,28.092,28.671,42.393,43.783,0.0,0.0,100.0,0.0,0.0,0.0,0.0,2963.0,3330.7,4185.714285714285,4542.2,305.6865,304.098,314.7203333333333,313.7285,21.957,20.6144,21.9575,21.4744,314.999998,314.999998,324.999988,324.999988,99.55895714285714,99.50735,99.5673,99.54751428571429,0.21999999999999997,0.07800000000000007,0.004666666666666597,0.23150000000000004,-0.03833333333332689,-0.05833333333333002,1.5336666666666667,1.467,38.230999999999995,29.8405,38.233999999999995,35.215,55.983999999999995,35.205,59.6005,52.6075,53.917,34.3245,58.185,50.9315,53.073,33.863,58.0945,50.339333333333336,-0.19866666666666677,0.02949999999999986,0.10624000000000001,0.107535,0.0,213.485,213.60500000000002,210.28,210.28,0.0,0.0
20,0.0,0.0,0.0,1.0,1.0,0.0,0.0,1.0,0.0,100.0,1.0,1.1856,26.0,0.0,0.0,0.0,68.000001,0.0,26.0,26.0,26.0,26.0,0.20387500000000003,0.2751000000000001,0.05973333333333334,292.313,-2.8232,-2.583625,-1.6099999999999999,-1.51475,-208.5,215.9375,190.572875,0.0,0.0,0.0,0.0,0.040633333333333334,-5.498166666666667,-5.498166666666667,-0.5548000000000001,-1.2693333333333332,0.09711111111111115,0.507,68.325,0.10540000000000001,-0.221275,-2.0519999999999996,100.0,1.0,1.0,210.62,0.0,0.0,0.0,0.0,0.0,0.0,0.0,8927.4,0.0,55.0,5.0,245.94,0.0,0.0,0.0,0.0,0.0,0.0,0.0,0.0,1.0079999999999991,1.0079999999999991,0.0,0.0,0.0,55.0,616.79921,10000.0,85.000001,85.000001,85.000001,85.000001,395.0,0.0,0.0,0.0,1.0,333.33500000000004,52.795,52.795,46.906,46.906,34.0,-15.3975,31.89666666666667,-22.03666666666666,38.1,0.0,1781.934,-1.7899999999999991,100.0,27.441,28.354,42.888,44.308,0.0,0.0,100.0,0.0,0.0,0.0,0.0,2760.5,3287.3,4050.285714285714,4368.6,306.549,304.456,314.89933333333335,313.92325,21.965625,20.6198,21.9674,21.4832,314.999998,314.999998,324.999988,324.999988,99.55898571428571,99.50736666666667,99.56744285714285,99.54765714285715,0.244,0.10675000000000012,0.022166666666666668,0.25,-0.046666666666666856,-0.036666666666668846,1.5216666666666667,1.43,38.285,29.8735,38.296,35.269999999999996,55.974000000000004,35.2455,59.638,52.6695,53.907,34.362,58.22,50.9915,53.063,33.899,58.126,50.39833333333333,-0.21299999999999986,0.062000000000000055,0.10280500000000001,0.11037000000000001,0.0,213.82999999999998,213.965,210.62,210.62,0.0,0.0
21,0.0,0.0,0.0,1.0,1.0,0.0,0.0,1.0,0.0,100.0,1.0,1.1856,26.0,0.0,0.0,0.0,68.000001,0.0,26.0,26.0,26.0,26.0,0.1901250000000001,0.2724,-0.05613333333333334,292.587,-2.7451,-2.62725,-1.6768,-1.4705000000000001,-205.22,215.9375,190.551125,0.0,0.0,0.0,0.0,0.04256666666666667,-5.498166666666667,-5.498166666666667,-0.5777,0.506,0.08411111111111103,0.345,68.44800000000001,0.1254,-0.225575,-2.1719999999999997,100.0,1.0,1.0,211.24333333333334,0.0,0.0,0.0,0.0,0.0,0.0,0.0,8953.9,0.0,55.0,5.0,246.38666666666666,1.0,0.0,0.0,0.0,0.0,0.0,0.0,0.0,1.056000000000001,1.056000000000001,0.0,0.0,1.0,55.0,616.79921,10000.0,85.000001,85.000001,85.000001,85.000001,395.0,0.0,0.0,0.0,1.0,333.33500000000004,52.155,52.155,48.233000000000004,48.233000000000004,34.0,-17.502499999999998,31.261666666666667,-20.326666666666668,35.2375,0.0,1781.886,-0.9250000000000007,100.0,27.727,28.634999999999998,42.109,43.933,0.0,0.0,100.0,0.0,0.0,0.0,0.0,2911.5,3315.6,3900.714285714286,4124.1,305.901,304.2803333333333,315.45033333333333,314.703,21.974375,20.6253,21.9769,21.4917,314.999998,314.999998,324.999988,324.999988,99.55901428571428,99.50738333333334,99.56758571428571,99.5478,0.20550000000000002,0.07125000000000004,0.04366666666666674,0.2731666666666668,-0.03499999999999659,-0.05666666666667197,1.6280000000000001,1.546,38.34,29.908,38.355999999999995,35.323,55.968,35.2915,59.67,52.731,53.900999999999996,34.4045,58.2495,51.0505,53.055,33.94,58.1525,50.45633333333333,-0.15966666666666662,0.0044999999999999485,0.10572500000000001,0.10956,0.0,214.24,214.39499999999998,211.24333333333334,211.24333333333334,0.0,0.0
22,0.0,0.0,0.0,1.0,1.0,0.0,0.0,1.0,0.0,100.0,1.0,1.1856,26.0,0.0,0.0,0.0,68.000001,0.0,26.0,26.0,26.0,26.0,0.16162500000000013,0.2721,0.014466666666666666,292.13,-2.7359999999999998,-2.6237500000000002,-1.6689,-1.46425,-201.73000000000002,215.945,190.5275,0.0,0.0,0.0,0.0,0.0446,-5.498166666666667,-5.498166666666667,-0.5577,0.076,0.08455555555555572,-0.8800000000000001,68.587,0.13490000000000002,-0.208425,-0.96,100.0,1.0,1.0,211.45666666666668,0.0,0.0,0.0,0.0,0.0,0.0,0.0,8962.8,0.0,55.0,5.0,246.88666666666666,0.0,0.0,0.0,0.0,0.0,0.0,0.0,0.0,1.1069999999999993,1.1069999999999993,0.0,0.0,0.0,55.0,616.79921,10000.0,85.000001,85.000001,85.000001,85.000001,395.0,0.0,0.0,0.0,1.0,333.33500000000004,52.338,52.338,47.15,47.15,34.0,-20.145,26.733333333333334,-24.296666666666667,36.519999999999996,0.0,1781.837,0.22500000000000142,100.0,27.653,28.848,42.466,44.285,0.0,0.0,100.0,0.0,0.0,0.0,0.0,2912.3333333333335,3150.5,4194.714285714285,4358.1,306.061,304.56333333333333,314.729,314.05725,21.98375,20.6311,21.9874,21.501,314.999998,314.999998,324.999988,324.999988,99.55904285714286,99.50738333333334,99.56771428571429,99.54794285714286,0.13650000000000007,-0.0024999999999999467,0.011333333333333417,0.24216666666666686,-0.05666666666667197,-0.03166666666666629,1.5096666666666667,1.4695,38.397999999999996,29.944499999999998,38.421,35.3815,55.959,35.33,59.707,52.793,53.891999999999996,34.4405,58.283500000000004,51.1105,53.044,33.9745,58.1835,50.51533333333333,-0.06633333333333313,-0.09399999999999986,0.11139,0.10978,0.0,214.72,214.76999999999998,211.45666666666668,211.45666666666668,0.0,0.0
23,0.0,0.0,0.0,1.0,1.0,0.0,0.0,1.0,0.0,100.0,1.0,1.1856,26.0,0.0,0.0,0.0,68.000001,0.0,26.0,26.0,26.0,26.0,0.09600000000000009,0.2590000000000001,-0.04896666666666667,292.236,-2.7408,-2.6016250000000003,-1.6916,-1.554625,-198.01999999999998,215.95499999999998,190.502625,0.0,0.0,0.0,0.0,0.046733333333333335,-5.498166666666667,-5.498166666666667,-0.5774,-0.07100000000000001,0.0537777777777777,-1.081,68.729,0.09140000000000001,-0.23255,0.4900000000000002,100.0,1.0,1.0,212.0233333333333,0.0,0.0,0.0,0.0,0.0,0.0,0.0,8986.9,0.0,55.0,5.0,247.39666666666665,1.0,0.0,0.0,0.0,0.0,0.0,0.0,0.0,1.1610000000000014,1.1610000000000014,0.0,0.0,1.0,55.0,616.79921,10000.0,85.000001,85.000001,85.000001,85.000001,395.0,0.0,0.0,0.0,1.0,166.665,51.727000000000004,51.727000000000004,48.248,48.248,34.0,-24.955,24.56,-25.380000000000003,30.645,0.0,1781.783,0.8850000000000016,100.0,28.083,28.695,42.689,44.247,0.0,0.0,100.0,0.0,0.0,0.0,0.0,3228.666666666667,3153.8,3994.142857142857,3935.9,305.119,304.64666666666665,315.28266666666667,315.0255,21.993625,20.6372,21.9984,21.5108,314.999998,314.999998,324.999988,324.999988,99.55904285714286,99.5074,99.56787142857142,99.54811428571429,0.08899999999999997,-0.04699999999999993,-0.035833333333333384,0.1895,-0.046666666666666856,-0.04833333333333201,1.5453333333333332,1.5605,38.46,29.9825,38.489999999999995,35.442499999999995,55.945,35.372,59.7455,52.8605,53.879000000000005,34.4795,58.3195,51.1755,53.03,34.012,58.216,50.579,-0.008333333333333304,-0.15300000000000002,0.09965,0.11146,0.0,215.185,215.14499999999998,212.0233333333333,212.0233333333333,0.0,0.0
24,0.0,0.0,0.0,1.0,1.0,0.0,0.0,1.0,0.0,100.0,1.0,1.1856,26.0,0.0,0.0,0.0,68.000001,0.0,26.0,26.0,26.0,26.0,-0.013499999999999956,0.27170000000000005,-0.10173333333333334,292.435,-2.7366,-2.6407499999999997,-1.5911,-1.518375,-194.92000000000002,215.9675,190.4815,0.0,0.0,0.0,0.0,0.04853333333333333,-5.498166666666667,-5.498166666666667,-0.5813,-0.55,0.03699999999999992,0.389,68.849,0.036500000000000005,-0.2179,1.0359999999999996,100.0,1.0,1.0,212.27666666666667,0.0,0.0,0.0,0.0,0.0,0.0,0.0,8997.6,0.0,55.0,5.0,247.82999999999998,0.0,0.0,0.0,0.0,0.0,0.0,0.0,0.0,1.2059999999999995,1.2059999999999995,0.0,0.0,0.0,55.0,616.79921,10000.0,85.000001,85.000001,85.000001,85.000001,395.0,0.0,0.0,0.0,1.0,333.33500000000004,52.917,52.917,47.15,47.15,34.0,-22.97,22.038333333333334,-30.306666666666665,28.7975,0.0,1781.736,0.9450000000000003,100.0,27.993,28.126,43.084,43.877,0.0,0.0,100.0,0.0,0.0,0.0,0.0,2855.0,3015.2,4275.285714285715,4132.7,306.1345,305.2966666666667,314.3933333333333,314.66775,22.00175,20.6421,22.0077,21.5189,314.999998,314.999998,324.999988,324.999988,99.55905714285714,99.5074,99.56801428571428,99.54824285714285,0.05600000000000005,-0.08074999999999999,-0.10216666666666663,0.12433333333333318,-0.02499999999999858,-0.04833333333333201,1.4769999999999999,1.5110000000000001,38.510999999999996,30.012999999999998,38.548,35.493,55.93,35.409,59.7815,52.917500000000004,53.864999999999995,34.5135,58.353,51.2305,53.015,34.0445,58.246,50.632999999999996,-0.008000000000000007,-0.15500000000000025,0.11233000000000001,0.104705,0.0,215.575,215.495,212.27666666666667,212.27666666666667,0.0,0.0
25,0.0,0.0,0.0,1.0,1.0,0.0,0.0,1.0,0.0,100.0,1.0,1.1856,26.0,0.0,0.0,0.0,68.000001,0.0,26.0,26.0,26.0,26.0,-0.05699999999999994,0.2563,-0.04046666666666667,292.343,-2.7663,-2.635,-1.5729000000000002,-1.554375,-191.41,215.98000000000002,190.456125,0.0,0.0,0.0,0.0,0.0506,-5.498166666666667,-5.498166666666667,-0.6132000000000001,0.02666666666666667,0.002666666666666595,-1.862,68.981,-0.0224,-0.2262,1.5,100.0,1.0,1.0,212.82333333333332,0.0,0.0,0.0,0.0,0.0,0.0,0.0,9020.8,0.0,55.0,5.0,248.30666666666667,1.0,0.0,0.0,0.0,0.0,0.0,0.0,0.0,1.256999999999998,1.256999999999998,0.0,0.0,1.0,55.0,616.79921,10000.0,85.000001,85.000001,85.000001,85.000001,395.0,0.0,0.0,0.0,1.0,166.665,51.879999999999995,51.879999999999995,47.974000000000004,47.974000000000004,34.0,-29.7625,21.64666666666667,-30.336666666666666,24.585,0.0,1781.687,1.004999999999999,100.0,28.033,28.253,43.038,43.325,0.0,0.0,100.0,0.0,0.0,0.0,0.0,3349.166666666667,3192.4,4035.8571428571427,3945.4,304.95,304.60133333333334,315.11633333333333,315.0855,22.011,20.6477,22.018,21.5279,314.999998,314.999998,324.999988,324.999988,99.55905714285714,99.5074,99.56814285714286,99.54838571428571,0.007500000000000062,-0.126,-0.15800000000000003,0.0665,-0.051666666666669414,-0.03999999999999915,1.542,1.5985,38.569,30.048000000000002,38.611999999999995,35.549,55.914,35.448499999999996,59.815,52.9715,53.849000000000004,34.55,58.384,51.2825,52.998999999999995,34.08,58.2745,50.684,-0.0016666666666667052,-0.1615000000000002,0.103815,0.11059000000000001,0.0,216.005,215.885,212.82333333333332,212.82333333333332,0.0,0.0
26,0.0,0.0,0.0,1.0,1.0,0.0,0.0,1.0,0.0,100.0,1.0,1.1856,26.0,0.0,0.0,0.0,68.000001,0.0,26.0,26.0,26.0,26.0,-0.13187499999999996,0.26090000000000013,0.08233333333333334,291.183,-2.6643,-2.7657499999999997,-1.5830000000000002,-1.5851250000000001,-187.89,215.99,190.430375,0.0,0.0,0.0,0.0,0.05263333333333334,-5.498166666666667,-5.498166666666667,-0.5710000000000001,0.7423333333333334,-0.05433333333333357,0.04399999999999993,69.118,-0.06960000000000001,-0.196,1.5999999999999996,100.0,1.0,1.0,212.98666666666668,0.0,0.0,0.0,0.0,0.0,0.0,0.0,9027.7,0.0,55.0,5.0,248.79333333333335,0.0,0.0,0.0,0.0,0.0,0.0,0.0,0.0,1.3079999999999998,1.3079999999999998,0.0,0.0,0.0,55.0,616.79921,10000.0,85.000001,85.000001,85.000001,85.000001,395.0,0.0,0.0,0.0,1.0,166.665,51.422,51.422,46.219,46.219,34.0,-28.32,20.61,-38.806666666666665,27.115000000000002,0.0,1781.635,0.7800000000000011,100.0,29.335,28.442,44.055,43.297,0.0,0.0,100.0,0.0,0.0,0.0,0.0,3237.833333333333,3052.3,4627.428571428572,4409.7,304.9415,305.0826666666667,313.661,314.043,22.02075,20.6533,22.0286,21.537,314.999998,314.999998,324.999988,324.999988,99.55905714285714,99.50743333333334,99.5683,99.54854285714286,0.0035000000000000586,-0.15149999999999997,-0.1941666666666666,0.033500000000000085,-0.046666666666666856,-0.046666666666666856,1.4083333333333332,1.4735,38.629999999999995,30.0835,38.679,35.6065,55.902,35.4945,59.857,53.032,53.837,34.5925,58.4235,51.341,52.986000000000004,34.1205,58.311,50.74066666666667,-0.01866666666666661,-0.14650000000000007,0.10813,0.106965,0.0,216.485,216.325,212.98666666666668,212.98666666666668,0.0,0.0
27,0.0,0.0,0.0,1.0,1.0,0.0,0.0,1.0,0.0,100.0,1.0,1.1856,26.0,0.0,0.0,0.0,68.000001,0.0,26.0,26.0,26.0,26.0,-0.129625,0.2491000000000001,-0.0391,291.748,-2.6148,-2.7495000000000003,-1.5574,-1.67275,-184.36,215.995,190.405875,0.0,0.0,0.0,0.0,0.054700000000000006,-5.498166666666667,-5.498166666666667,-0.6013000000000001,-1.0086666666666666,-0.07411111111111124,-0.782,69.249,-0.0955,-0.245975,1.5,100.0,1.0,1.0,213.53333333333333,0.0,0.0,0.0,0.0,0.0,0.0,0.0,9050.9,0.0,55.0,5.0,249.26999999999998,1.0,0.0,0.0,0.0,0.0,0.0,0.0,0.0,1.3589999999999982,1.3589999999999982,0.0,0.0,1.0,55.0,616.79921,10000.0,85.000001,85.000001,85.000001,85.000001,395.0,0.0,0.0,0.0,1.0,166.665,51.772999999999996,51.772999999999996,46.86,46.86,34.0,-29.615,19.206666666666667,-34.733333333333334,23.2225,0.0,1781.585,0.6850000000000023,100.0,28.96,28.174,44.806,43.686,0.0,0.0,100.0,0.0,0.0,0.0,0.0,3312.166666666667,2973.5,4129.571428571428,3908.8,304.9055,305.258,314.7676666666667,315.10225,22.03025,20.6587,22.0393,21.5463,314.999998,314.999998,324.999988,324.999988,99.55907142857143,99.50745,99.56845714285714,99.54868571428571,-0.025000000000000022,-0.16849999999999998,-0.22416666666666663,0.0076666666666667105,-0.036666666666668846,-0.04999999999999716,1.49,1.557,38.689,30.116999999999997,38.745999999999995,35.664500000000004,55.885999999999996,35.537,59.9,53.0925,53.823,34.632,58.464,51.3985,52.971000000000004,34.158,58.348,50.797,-0.02966666666666673,-0.13350000000000017,0.10654000000000001,0.10929000000000001,0.0,216.805,216.7,213.53333333333333,213.53333333333333,0.0,0.0
28,0.0,0.0,0.0,1.0,1.0,0.0,0.0,1.0,0.0,100.0,1.0,1.1856,26.0,0.0,0.0,0.0,68.000001,0.0,26.0,26.0,26.0,26.0,-0.13649999999999995,0.26849999999999996,-0.04406666666666667,291.916,-2.6377,-2.738375,-1.5023,-1.635625,-181.03,216.0,190.381875,0.0,0.0,0.0,0.0,0.05663333333333334,-5.498166666666667,-5.498166666666667,-0.6006,0.6443333333333334,-0.08233333333333359,-0.649,69.372,-0.1101,-0.21532500000000002,1.443999999999999,100.0,1.0,1.0,213.96333333333334,0.0,0.0,0.0,0.0,0.0,0.0,0.0,9069.2,0.0,55.0,5.0,249.71,0.0,0.0,0.0,0.0,0.0,0.0,0.0,0.0,1.407,1.407,0.0,0.0,0.0,55.0,616.79921,10000.0,85.000001,85.000001,85.000001,85.000001,395.0,0.0,0.0,0.0,1.0,333.33500000000004,51.819,51.819,47.531,47.531,34.0,-30.74,18.446666666666665,-35.239999999999995,22.635,0.0,1781.535,0.5350000000000001,100.0,29.111,28.052,44.211,43.04,0.0,0.0,100.0,0.0,0.0,0.0,0.0,3379.5,2902.8,4210.0,4047.2,304.7285,305.463,314.757,314.84925,22.039375,20.663899999999998,22.049,21.5547,314.999998,314.999998,324.999988,324.999988,99.55907142857143,99.50746666666667,99.5686,99.54881428571429,-0.030000000000000027,-0.17225000000000001,-0.24049999999999994,-0.009333333333333305,-0.05833333333333002,-0.05666666666667197,1.5070000000000001,1.5835,38.745999999999995,30.1495,38.806,35.717,55.873999999999995,35.5785,59.9345,53.144999999999996,53.811,34.67,58.4965,51.4495,52.959,34.1945,58.3775,50.846333333333334,-0.04366666666666674,-0.12250000000000005,0.101955,0.11077500000000001,0.0,217.25,217.13,213.96333333333334,213.96333333333334,0.0,0.0
29,0.0,0.0,0.0,1.0,1.0,0.0,0.0,1.0,0.0,100.0,1.0,1.1856,26.0,0.0,0.0,0.0,68.000001,0.0,26.0,26.0,26.0,26.0,-0.143625,0.26580000000000004,0.010066666666666668,291.534,-2.5736,-2.801625,-1.5345,-1.6205,-177.49,215.9975,190.3555,0.0,0.0,0.0,0.0,0.058666666666666666,-5.498166666666667,-5.498166666666667,-0.6071000000000001,-0.6956666666666667,-0.08077777777777806,0.663,69.506,-0.11030000000000001,-0.21905000000000002,1.0500000000000007,100.0,1.0,1.0,214.22333333333333,0.0,0.0,0.0,0.0,0.0,0.0,0.0,9080.1,0.0,55.0,5.0,250.19666666666666,1.0,0.0,0.0,0.0,0.0,0.0,0.0,0.0,1.4579999999999984,1.4579999999999984,0.0,0.0,1.0,55.0,616.79921,10000.0,85.000001,85.000001,85.000001,85.000001,395.0,0.0,0.0,0.0,1.0,166.665,51.743,51.743,46.631,46.631,34.0,-29.0325,20.936666666666667,-35.55,24.065,0.0,1781.485,0.365000000000002,100.0,28.989,27.744,44.758,43.22,0.0,0.0,100.0,0.0,0.0,0.0,0.0,3309.5,3089.4,4265.142857142857,4180.8,304.7525,304.9393333333333,314.403,314.53925,22.04875,20.6693,22.0597,21.564,314.999998,314.999998,324.999988,324.999988,99.55907142857143,99.50748333333334,99.56874285714285,99.54897142857143,-0.01574999999999993,-0.15925,-0.21416666666666662,-0.0004999999999999449,-0.03333333333333144,-0.045000000000001705,1.4503333333333335,1.508,38.805,30.183,38.873000000000005,35.7745,55.858999999999995,35.621,59.9775,53.2055,53.796,34.709,58.536500000000004,51.507,52.943,34.232,58.414500000000004,50.90233333333333,-0.05033333333333312,-0.10899999999999999,0.10412,0.10606000000000002,0.0,217.60000000000002,217.495,214.22333333333333,214.22333333333333,0.0,0.0
30,0.0,0.0,0.0,1.0,1.0,0.0,0.0,1.0,0.0,100.0,1.0,1.1856,26.0,0.0,0.0,0.0,68.000001,0.0,26.0,26.0,26.0,26.0,-0.14137500000000003,0.27370000000000005,0.0582,291.077,-2.6288,-2.689375,-1.4758,-1.69675,-174.14999999999998,215.995,190.3305,0.0,0.0,0.0,0.0,0.06063333333333334,-5.498166666666667,-5.498166666666667,-0.6022000000000001,0.7766666666666666,-0.08244444444444454,0.869,69.628,-0.1015,-0.215425,0.9740000000000002,100.0,1.0,1.0,214.63,0.0,0.0,0.0,0.0,0.0,0.0,0.0,9097.4,0.0,55.0,5.0,250.63333333333333,0.0,0.0,0.0,0.0,0.0,0.0,1.0,0.0,1.5060000000000002,1.5060000000000002,0.0,0.0,0.0,55.0,616.79921,10000.0,85.000001,85.000001,85.000001,85.000001,395.0,0.0,0.0,0.0,1.0,166.665,50.903,50.903,46.844,46.844,34.0,-30.5325,20.063333333333333,-34.85333333333334,26.645,0.0,1781.439,0.21000000000000085,100.0,29.828,28.415,44.632,43.204,0.0,0.0,100.0,0.0,0.0,0.0,0.0,3433.166666666667,3063.4,4321.714285714285,4247.2,304.3615,305.0973333333333,314.34833333333336,314.3345,22.058,20.674599999999998,22.069499999999998,21.5726,314.999998,314.999998,324.999988,324.999988,99.55908571428571,99.5075,99.5689,99.5491,-0.008499999999999952,-0.14900000000000002,-0.21050000000000002,0.016166666666666663,-0.05333333333332746,-0.060000000000002274,1.4753333333333334,1.5035,38.861999999999995,30.216,38.934,35.8285,55.848,35.664,60.013999999999996,53.26,53.787,34.7485,58.570499999999996,51.5595,52.932,34.2695,58.446,50.95366666666666,-0.06166666666666676,-0.10150000000000015,0.099015,0.11680000000000001,0.0,218.01999999999998,217.945,214.63,214.63,0.0,0.0
31,0.0,0.0,0.0,1.0,1.0,0.0,0.0,1.0,0.0,100.0,1.0,1.1856,26.0,0.0,0.0,0.0,68.000001,0.0,26.0,26.0,26.0,26.0,-0.11687499999999995,0.26290000000000013,0.0011,291.0,-2.6975,-2.6685,-1.5286,-1.668375,-170.39,215.9875,190.30325,0.0,0.0,0.0,0.0,0.06280000000000001,-5.498166666666667,-5.498166666666667,-0.5928,-0.748,-0.07033333333333358,0.781,69.767,-0.0858,-0.22410000000000002,0.5,100.0,1.0,1.0,214.98000000000002,0.0,0.0,0.0,0.0,0.0,0.0,0.0,9112.2,0.0,55.0,5.0,251.13666666666666,1.0,0.0,0.0,0.0,0.0,0.0,1.0,0.0,1.5599999999999987,1.5599999999999987,0.0,0.0,1.0,55.0,616.79921,10000.0,85.000001,85.000001,85.000001,85.000001,395.0,0.0,0.0,0.0,1.0,166.665,51.376,51.376,45.685,45.685,34.0,-27.995,21.736666666666665,-34.38333333333333,28.22,0.0,1781.384,0.11500000000000199,100.0,29.411,28.464,45.275999999999996,43.858000000000004,0.0,0.0,100.0,0.0,0.0,0.0,0.0,3229.0,3200.3,4326.0,4301.0,305.132,304.8883333333333,314.25,314.30875,22.068,20.6805,22.0809,21.5825,314.999998,314.999998,324.999988,324.999988,99.55908571428571,99.50753333333333,99.56905714285715,99.54925714285714,0.011749999999999927,-0.12575000000000003,-0.18166666666666664,0.04499999999999993,-0.04833333333333201,-0.03999999999999915,1.4513333333333334,1.4735,38.925,30.253,39.004999999999995,35.8905,55.832,35.71,60.0595,53.325,53.772,34.791,58.6135,51.622,52.916,34.3105,58.4855,51.01466666666667,-0.07733333333333325,-0.09100000000000019,0.10222,0.108935,0.0,218.39499999999998,218.34,214.98000000000002,214.98000000000002,0.0,0.0
32,0.0,0.0,0.0,1.0,1.0,0.0,0.0,1.0,0.0,100.0,1.0,1.1856,26.0,0.0,0.0,0.0,68.000001,0.0,26.0,26.0,26.0,26.0,-0.12437500000000001,0.25439999999999996,-0.0436,291.306,-2.6336,-2.707625,-1.592,-1.574375,-167.03,215.97750000000002,190.279125,0.0,0.0,0.0,0.0,0.06476666666666667,-5.498166666666667,-5.498166666666667,-0.6096,0.20800000000000002,-0.09333333333333371,0.22899999999999998,69.887,-0.0716,-0.22920000000000001,0.5060000000000002,100.0,1.0,1.0,215.49333333333334,0.0,0.0,0.0,0.0,0.0,0.0,0.0,9134.0,0.0,55.0,5.0,251.56333333333333,0.0,0.0,0.0,0.0,0.0,0.0,1.0,0.0,1.6080000000000005,1.6080000000000005,0.0,0.0,0.0,55.0,616.79921,10000.0,85.000001,85.000001,85.000001,85.000001,395.0,0.0,0.0,0.0,1.0,333.33500000000004,51.239,51.239,46.753,46.753,34.0,-27.7075,21.825,-33.480000000000004,25.1825,0.0,1781.335,0.010000000000001563,100.0,29.481,28.532,44.781,43.629,0.0,0.0,100.0,0.0,0.0,0.0,0.0,3317.5,3103.8,4231.571428571428,4149.5,304.7585,305.02,314.69533333333334,314.75575,22.076999999999998,20.6858,22.0906,21.5911,314.999998,314.999998,324.999988,324.999988,99.55908571428571,99.50753333333333,99.5692,99.5494,0.02750000000000008,-0.11849999999999994,-0.17866666666666664,0.04249999999999998,-0.015000000000000568,-0.0833333333333286,1.5333333333333332,1.55,38.980999999999995,30.286,39.066,35.944,55.819,35.751,60.094,53.379,53.759,34.829,58.646,51.674,52.903,34.3465,58.515,51.06466666666667,-0.08066666666666666,-0.08899999999999997,0.10444500000000001,0.10071000000000001,0.0,218.76,218.745,215.49333333333334,215.49333333333334,0.0,0.0
33,0.0,0.0,0.0,1.0,1.0,0.0,0.0,1.0,0.0,100.0,1.0,1.1856,26.0,0.0,0.0,0.0,68.000001,0.0,26.0,26.0,26.0,26.0,-0.08550000000000002,0.26270000000000016,-0.03346666666666667,291.412,-2.6493,-2.757375,-1.5270000000000001,-1.587,-163.68,215.965,190.254,0.0,0.0,0.0,0.0,0.06670000000000001,-5.498166666666667,-5.498166666666667,-0.6108,-0.36833333333333335,-0.08233333333333359,1.453,70.009,-0.058,-0.21495,0.2999999999999998,100.0,1.0,1.0,215.75666666666666,0.0,0.0,0.0,0.0,0.0,0.0,0.0,9145.1,0.0,55.0,5.0,252.00666666666666,1.0,0.0,0.0,0.0,0.0,0.0,1.0,0.0,1.6559999999999988,1.6559999999999988,0.0,0.0,1.0,55.0,616.79921,10000.0,85.000001,85.000001,85.000001,85.000001,395.0,0.0,0.0,0.0,1.0,166.665,51.91,51.91,46.432,46.432,34.0,-25.43,22.291666666666664,-33.093333333333334,27.28,0.0,1781.289,-0.11499999999999844,100.0,29.242,28.229,44.795,43.707,0.0,0.0,100.0,0.0,0.0,0.0,0.0,3147.5,3009.1,4283.857142857143,4299.4,305.317,305.3186666666667,314.41766666666666,314.31025,22.085875,20.6909,22.1005,21.5998,314.999998,314.999998,324.999988,324.999988,99.55908571428571,99.50755,99.56934285714286,99.54954285714285,0.04400000000000004,-0.09950000000000003,-0.16933333333333334,0.05066666666666686,-0.04999999999999716,-0.045000000000001705,1.4763333333333333,1.4885,39.037,30.317999999999998,39.128,35.9985,55.805,35.788,60.131,53.435,53.745999999999995,34.863,58.6805,51.7275,52.888999999999996,34.379,58.5465,51.117,-0.09133333333333327,-0.07050000000000001,0.10738,0.10222500000000001,0.0,219.15,219.11,215.75666666666666,215.75666666666666,0.0,0.0
34,0.0,0.0,0.0,1.0,1.0,0.0,0.0,1.0,0.0,100.0,1.0,1.1856,26.0,0.0,0.0,0.0,68.000001,0.0,26.0,26.0,26.0,26.0,-0.057624999999999926,0.25429999999999997,-0.0765,291.809,-2.6738,-2.7015000000000002,-1.5986,-1.603,-160.1,215.9525,190.226125,0.0,0.0,0.0,0.0,0.0688,-5.498166666666667,-5.498166666666667,-0.6439,-0.8210000000000001,-0.04600000000000026,-0.03400000000000003,70.137,-0.043500000000000004,-0.22705,0.27200000000000024,100.0,1.0,1.0,216.23333333333335,0.0,0.0,0.0,0.0,0.0,0.0,0.0,9165.4,0.0,55.0,5.0,252.46666666666667,0.0,0.0,0.0,0.0,0.0,0.0,1.0,0.0,1.7070000000000007,1.7070000000000007,0.0,0.0,0.0,55.0,616.79921,10000.0,85.000001,85.000001,85.000001,85.000001,395.0,0.0,0.0,0.0,1.0,333.33500000000004,52.094,52.094,47.379,47.379,34.0,-26.0825,21.78,-31.316666666666663,27.1675,0.0,1781.237,-0.10999999999999943,100.0,28.76,28.094,44.377,43.913,0.0,0.0,100.0,0.0,0.0,0.0,0.0,3204.5,2962.5,4078.714285714286,4121.4,305.1465,305.34233333333333,315.01933333333335,314.62325,22.095125,20.6963,22.1109,21.609,314.999998,314.999998,324.999988,324.999988,99.5591,99.50756666666666,99.56948571428572,99.54968571428572,0.04699999999999993,-0.09324999999999994,-0.15983333333333338,0.06899999999999995,-0.060000000000002274,-0.030000000000001137,1.5193333333333334,1.5105,39.095,30.352,39.193,36.0565,55.79,35.826499999999996,60.1665,53.494,53.732,34.8985,58.713499999999996,51.7845,52.873999999999995,34.413,58.576499999999996,51.172333333333334,-0.08566666666666678,-0.07399999999999984,0.10076,0.11410500000000001,0.0,219.53,219.47,216.23333333333335,216.23333333333335,0.0,0.0
35,0.0,0.0,0.0,1.0,1.0,0.0,0.0,1.0,0.0,100.0,1.0,1.1856,26.0,0.0,0.0,0.0,68.000001,0.0,26.0,26.0,26.0,26.0,-0.031625000000000014,0.25239999999999996,-0.05203333333333334,291.779,-2.6744,-2.684375,-1.5664,-1.613,-156.31,215.935,190.19425,0.0,0.0,0.0,0.0,0.07100000000000001,-5.498166666666667,-5.498166666666667,-0.6853,-0.20933333333333334,-0.05455555555555591,-1.0460000000000003,70.271,-0.028200000000000003,-0.227725,0.09799999999999986,100.0,1.0,1.0,216.72333333333333,0.0,0.0,0.0,0.0,0.0,0.0,0.0,9186.2,0.0,55.0,5.0,252.95,1.0,0.0,0.0,0.0,0.0,0.0,1.0,0.0,1.7609999999999992,1.7609999999999992,0.0,0.0,1.0,55.0,616.79921,10000.0,85.000001,85.000001,85.000001,85.000001,395.0,0.0,0.0,0.0,1.0,166.665,51.513999999999996,51.513999999999996,47.073,47.073,34.0,-26.05,24.990000000000002,-29.623333333333335,26.465,0.0,1781.183,-0.10999999999999943,100.0,28.566,28.502,44.038,43.449,0.0,0.0,100.0,0.0,0.0,0.0,0.0,3272.5,3272.7,4028.0,3938.3,305.0605,304.372,315.105,315.134,22.10475,20.7023,22.1218,21.6187,314.999998,314.999998,324.999988,324.999988,99.55911428571429,99.50758333333333,99.56964285714285,99.54985714285715,0.05899999999999994,-0.07774999999999999,-0.14549999999999996,0.08683333333333332,-0.041666666666671404,-0.04333333333332945,1.557,1.5585,39.155,30.389499999999998,39.260999999999996,36.1165,55.772999999999996,35.8695,60.2035,53.553,53.715,34.9385,58.748,51.841,52.857,34.451,58.608000000000004,51.227666666666664,-0.08699999999999997,-0.0714999999999999,0.11405000000000001,0.110155,0.0,219.935,219.91500000000002,216.72333333333333,216.72333333333333,0.0,0.0
