,ABS Active,ABS Enabled,AID Allow Tire Blankets,AID Auto Blip,AID Auto Clutch,AID Auto Shift,AID Fuel Rate,AID Ideal Line,AID Mech Damage,AID Stability,AID Tire Wear Rate,Air Density,Air Temp,Ballast,Best Lap Delta,Best Lap Time,Brake Bias,Brake Pos,Brake Temp FL,Brake Temp FR,Brake Temp RL,Brake Temp RR,CG Accel Lateral,CG Accel Longitudinal,CG Accel Vertical,CG Height,Camber FL,Camber FR,Camber RL,Camber RR,Car Coord X,Car Coord Y,Car Coord Z,Car Damage Front,Car Damage Left,Car Damage Rear,Car Damage Right,Car Pos Norm,Caster FL,Caster FR,Chassis Pitch Angle,Chassis Pitch Rate,Chassis Roll Angle,Chassis Roll Rate,Chassis Velocity X,Chassis Velocity Y,Chassis Velocity Z,Chassis Yaw Rate,Clutch Pos,DRS Active,DRS Available,Drive Train Speed,ERS Heat Charging,ERS Is Charging,ERS Max Energy,ERS Power Level,ERS Recovery Level,Engine Brake Setting,Engine Limiter,Engine RPM,Flags,Fuel Level,Gear,Ground Speed,HR Sample Clock,In Pit,KERS Charge,KERS Deployed Energy,KERS Input,KERS Max Energy,LR Sample Clock,Lap Invalidated,Lap Time,Lap Time2,Last Lap Time,Last Sector Time,MR Sample Clock,Max Fuel,Max Power,Max RPM,Max Sus Travel FL,Max Sus Travel FR,Max Sus Travel RL,Max Sus Travel RR,Max Torque,Max Turbo Boost,Num Tires Off Track,Penalties Enabled,Position,Raw Data Sample Rate,Ride Height FL,Ride Height FR,Ride Height RL,Ride Height RR,Road Temp,Self Align Torque FL,Self Align Torque FR,Self Align Torque RL,Self Align Torque RR,Session Lap Count,Session Time Left,Steering Angle,Surface Grip,Suspension Travel FL,Suspension Travel FR,Suspension Travel RL,Suspension Travel RR,TC Active,TC Enabled,Throttle Pos,Tire Dirt Level FL,Tire Dirt Level FR,Tire Dirt Level RL,Tire Dirt Level RR,Tire Load FL,Tire Load FR,Tire Load RL,Tire Load RR,Tire Loaded Radius FL,Tire Loaded Radius FR,Tire Loaded Radius RL,Tire Loaded Radius RR,Tire Pressure FL,Tire Pressure FR,Tire Pressure RL,Tire Pressure RR,Tire Radius FL,Tire Radius FR,Tire Radius RL,Tire Radius RR,Tire Rubber Grip FL,Tire Rubber Grip FR,Tire Rubber Grip RL,Tire Rubber Grip RR,Tire Slip Angle FL,Tire Slip Angle FR,Tire Slip Angle RL,Tire Slip Angle RR,Tire Slip Ratio FL,Tire Slip Ratio FR,Tire Slip Ratio RL,Tire Slip Ratio RR,Tire Temp Core FL,Tire Temp Core FR,Tire Temp Core RL,Tire Temp Core RR,Tire Temp Inner FL,Tire Temp Inner FR,Tire Temp Inner RL,Tire Temp Inner RR,Tire Temp Middle FL,Tire Temp Middle FR,Tire Temp Middle RL,Tire Temp Middle RR,Tire Temp Outer FL,Tire Temp Outer FR,Tire Temp Outer RL,Tire Temp Outer RR,Toe In FL,Toe In FR,Toe In RL,Toe In RR,Turbo Boost,Wheel Angular Speed FL,Wheel Angular Speed FR,Wheel Angular Speed RL,Wheel Angular Speed RR,Wind Direction,Wind Speed
0,0.0,0.0,0.0,1.0,1.0,0.0,0.0,1.0,0.0,100.0,1.0,1.1856,26.0,0.0,0.0,0.0,68.0,0.0,26.0,26.0,26.0,26.0,-0.09962499999999996,0.3183,0.07603333333333334,293.884,-2.6947,-2.67625,-1.50105,-1.573375,-275.67,216.2775,190.987375,0.0,0.0,0.0,0.0,0.0015999999999999348,-5.498166666666667,-5.498166666666667,-0.5489,1.4896666666666665,-0.02688888888888874,-0.5230000000000001,65.503,-0.0644,-0.21495,1.2040000000000006,100.0,1.0,1.0,202.23000000000002,0.0,0.0,0.0,0.0,0.0,0.0,0.0,8571.7,0.0,55.0,5.0,235.78,0.0,0.0,0.0,0.0,0.0,0.0,0.0,0.0,0.0030000000000001137,0.0030000000000001137,0.0,0.0,0.0,55.0,616.79921,10000.0,85.0,85.0,85.0,85.0,395.0,0.0,0.0,0.0,1.0,20.0,52.643,52.643,49.484,49.484,34.0,-26.755,22.509999999999998,-31.880000000000003,23.675,0.0,1782.933,0.9400000000000013,100.0,27.951,26.992,40.823,40.334,0.0,0.0,100.0,0.0,0.0,0.0,0.0,2982.333333333333,3329.0,4137.0,4027.0,305.7705,304.24475,314.7733333333333,314.8055,21.7728,20.5119,21.762999999999998,21.303,314.99999,314.99999,324.99998,324.99998,99.55857142857143,99.50715,99.56467142857143,99.54472857142858,-0.02299999999999991,-0.1356666666666666,-0.18999999999999995,0.033666666666666734,-0.051666666666669414,-0.06333333333333258,1.533,1.608,37.08,29.198999999999998,37.019,34.1435,56.173,34.445,58.89,51.422,54.101,33.629999999999995,57.525,49.7905,53.278,33.206,57.4915,49.219,-0.010000000000000009,-0.13850000000000007,0.11123000000000001,0.10764000000000001,0.0,205.28,205.2,202.23000000000002,202.23000000000002,0.0,0.0
1,0.0,0.0,0.0,1.0,1.0,0.0,0.0,1.0,0.0,100.0,1.0,1.1856,26.0,0.0,0.0,0.0,68.000001,0.0,26.0,26.0,26.0,26.0,-0.14349999999999996,0.3210000000000002,0.12963333333333332,292.953,-2.6125,-2.7876250000000002,-1.5068000000000001,-1.570125,-272.33,216.2775,190.96725,0.0,0.0,0.0,0.0,0.0035333333333333883,-5.498166666666667,-5.498166666666667,-0.5005000000000001,-0.7943333333333333,-0.0774444444444442,-0.653,65.657,-0.0722,-0.19567500000000002,1.5760000000000005,100.0,1.0,1.0,202.40666666666667,0.0,0.0,0.0,0.0,0.0,0.0,0.0,8579.2,0.0,55.0,5.0,236.33333333333331,1.0,0.0,0.0,0.0,0.0,0.0,0.0,0.0,0.053999999999998494,0.053999999999998494,0.0,0.0,1.0,55.0,616.79921,10000.0,85.000001,85.000001,85.000001,85.000001,395.0,0.0,0.0,0.0,1.0,333.33500000000004,53.36,53.36,48.294,48.294,34.0,-28.77,16.875999999999998,-35.269999999999996,27.3775,0.0,1782.883,1.115000000000002,100.0,27.882,26.998,42.939,41.480000000000004,0.0,0.0,100.0,0.0,0.0,0.0,0.0,3185.833333333333,2659.0,4341.875,4645.7,305.213,306.3895,314.1893333333333,313.272,21.7827,20.5169,21.7738,21.312,314.999998,314.999998,324.999988,324.999988,99.55857142857143,99.50716666666666,99.56481428571429,99.54487142857143,-0.03925000000000001,-0.17033333333333323,-0.2021666666666666,0.011666666666666714,-0.06499999999999773,-0.041666666666671404,1.413,1.466,37.141999999999996,29.230666666666664,37.086,34.2,56.158,34.486,58.937,51.487,54.087,33.6685,57.5695,49.8525,53.262,33.242,57.533,49.28,0.007000000000000117,-0.16049999999999986,0.098905,0.10852,0.0,205.75,205.61,202.40666666666667,202.40666666666667,0.0,0.0
2,0.0,0.0,0.0,1.0,1.0,0.0,0.0,1.0,0.0,100.0,1.0,1.1856,26.0,0.0,0.0,0.0,68.000001,0.0,26.0,26.0,26.0,26.0,-0.17799999999999994,0.26660000000000017,-0.07436666666666666,293.564,-2.5773,-2.8125,-1.47335,-1.62725,-268.98,216.2725,190.948375,0.0,0.0,0.0,0.0,0.005499999999999949,-5.498166666666667,-5.498166666666667,-0.5528000000000001,0.16366666666666685,-0.06599999999999984,2.699,65.799,-0.0908,-0.257925,1.8160000000000007,100.0,1.0,1.0,203.31333333333333,0.0,0.0,0.0,0.0,0.0,0.0,0.0,8617.7,0.0,55.0,5.0,236.84333333333333,0.0,0.0,0.0,0.0,0.0,0.0,0.0,0.0,0.10500000000000043,0.10500000000000043,0.0,0.0,0.0,55.0,616.79921,10000.0,85.000001,85.000001,85.000001,85.000001,395.0,0.0,0.0,0.0,1.0,166.665,52.2,52.2,50.14,50.14,34.0,-30.73,19.398,-30.666666666666664,19.54,0.0,1782.832,0.8150000000000013,100.0,28.72,26.987000000000002,42.786,41.208,0.0,0.0,100.0,0.0,0.0,0.0,0.0,3360.0,2944.2,3779.875,3671.4,304.4255,305.52675,315.561,315.8195,21.7929,20.5218,21.7842,21.3207,314.999998,314.999998,324.999988,324.999988,99.55858571428571,99.50718333333333,99.56495714285714,99.545,-0.04049999999999998,-0.16566666666666663,-0.2503333333333334,-0.00649999999999995,-0.04333333333332945,-0.06833333333332803,1.6155,1.7135,37.206,29.261333333333333,37.150999999999996,34.2545,56.147999999999996,34.5265,58.976,51.5445,54.077,33.7055,57.606,49.908,53.251999999999995,33.278,57.567,49.334,-0.0129999999999999,-0.14400000000000013,0.10977,0.11112000000000001,0.0,206.185,206.055,203.31333333333333,203.31333333333333,0.0,0.0
3,0.0,0.0,0.0,1.0,1.0,0.0,0.0,1.0,0.0,100.0,1.0,1.1856,26.0,0.0,0.0,0.0,68.000001,0.0,26.0,26.0,26.0,26.0,-0.16200000000000003,0.33000000000000007,0.0785,293.335,-2.7094,-2.70725,-1.5018500000000001,-1.603875,-265.81,216.265,190.929875,0.0,0.0,0.0,0.0,0.007333333333333303,-5.498166666666667,-5.498166666666667,-0.5107,0.3616666666666668,-0.021666666666666945,0.20999999999999996,65.94200000000001,-0.1032,-0.20145000000000002,1.3239999999999998,100.0,1.0,1.0,203.44666666666666,0.0,0.0,0.0,0.0,0.0,0.0,0.0,8623.4,0.0,55.0,5.0,237.36333333333334,1.0,0.0,0.0,0.0,0.0,0.0,0.0,0.0,0.1529999999999987,0.1529999999999987,0.0,0.0,1.0,55.0,616.79921,10000.0,85.000001,85.000001,85.000001,85.000001,395.0,0.0,0.0,0.0,1.0,333.33500000000004,53.391,53.391,48.096000000000004,48.096000000000004,34.0,-26.355,17.97,-36.00333333333333,23.5925,0.0,1782.783,0.6900000000000013,100.0,28.23,26.983,42.662,41.317,0.0,0.0,100.0,0.0,0.0,0.0,0.0,2871.666666666667,2871.8,4295.75,4239.8,306.0195,305.701,314.3063333333333,314.3515,21.8022,20.526699999999998,21.794,21.3291,314.999998,314.999998,324.999988,324.999988,99.5586,99.50721666666666,99.5651,99.54512857142858,-0.03649999999999998,-0.16633333333333322,-0.23249999999999993,-0.008000000000000007,-0.045000000000001705,-0.046666666666666856,1.4815,1.5335,37.263999999999996,29.291666666666664,37.213,34.3065,56.134,34.567499999999995,59.013999999999996,51.604,54.063,33.743,57.6415,49.965,53.236999999999995,33.314,57.5995,49.38966666666666,-0.01849999999999996,-0.13100000000000023,0.11259000000000001,0.10464000000000001,0.0,206.65,206.515,203.44666666666666,203.44666666666666,0.0,0.0
4,0.0,0.0,0.0,1.0,1.0,0.0,0.0,1.0,0.0,100.0,1.0,1.1856,26.0,0.0,0.0,0.0,68.000001,0.0,26.0,26.0,26.0,26.0,-0.16062500000000002,0.27659999999999996,-0.027800000000000002,293.564,-2.6468,-2.754875,-1.51795,-1.608125,-262.45,216.2525,190.91025,0.0,0.0,0.0,0.0,0.009299999999999975,-5.498166666666667,-5.498166666666667,-0.545,-0.7496666666666667,-0.0908888888888888,-1.7070000000000003,66.088,-0.09820000000000001,-0.238425,1.2560000000000002,100.0,1.0,1.0,204.01666666666665,0.0,0.0,0.0,0.0,0.0,0.0,0.0,8647.5,0.0,55.0,5.0,237.89,0.0,0.0,0.0,0.0,0.0,0.0,0.0,0.0,0.20400000000000063,0.20400000000000063,0.0,0.0,0.0,55.0,616.79921,10000.0,85.000001,85.000001,85.000001,85.000001,395.0,0.0,0.0,0.0,1.0,333.33500000000004,52.994,52.994,48.706,48.706,34.0,-30.205,18.232,-33.95,19.8325,0.0,1782.732,0.7149999999999999,100.0,27.867,26.864,42.947,41.424,0.0,0.0,100.0,0.0,0.0,0.0,0.0,3288.166666666667,2867.0,4124.625,3660.0,304.973,305.55525,314.7543333333333,315.6995,21.811799999999998,20.5318,21.8046,21.3379,314.999998,314.999998,324.999988,324.999988,99.5586,99.50723333333333,99.56524285714286,99.54527142857143,-0.041749999999999954,-0.17300000000000004,-0.2303333333333334,-0.0040000000000000036,-0.04333333333332945,-0.03333333333333144,1.561,1.6105,37.324,29.323333333333334,37.278999999999996,34.362,56.117000000000004,34.6095,59.057,51.6635,54.048,33.7815,57.682,50.022,53.221000000000004,33.3505,57.637,49.44566666666667,-0.02299999999999991,-0.13249999999999984,0.11197000000000001,0.09792500000000001,0.0,207.035,206.925,204.01666666666665,204.01666666666665,0.0,0.0
5,0.0,0.0,0.0,1.0,1.0,0.0,0.0,1.0,0.0,100.0,1.0,1.1856,26.0,0.0,0.0,0.0,68.000001,0.0,26.0,26.0,26.0,26.0,-0.143625,0.3114000000000001,-0.019333333333333334,293.564,-2.6644,-2.77225,-1.50605,-1.5935000000000001,-258.87,216.235,190.888625,0.0,0.0,0.0,0.0,0.011366666666666525,-5.498166666666667,-5.498166666666667,-0.5347000000000001,0.3906666666666667,-0.08955555555555561,-0.18199999999999994,66.244,-0.0964,-0.2134,1.154,100.0,1.0,1.0,204.44333333333333,0.0,0.0,0.0,0.0,0.0,0.0,0.0,8665.5,0.0,55.0,5.0,238.45,1.0,0.0,0.0,0.0,0.0,0.0,0.0,0.0,0.2579999999999991,0.2579999999999991,0.0,0.0,1.0,55.0,616.79921,10000.0,85.000001,85.000001,85.000001,85.000001,395.0,0.0,0.0,0.0,1.0,166.665,53.406,53.406,48.859,48.859,34.0,-28.7925,18.402,-34.7,22.5,0.0,1782.678,0.2699999999999996,100.0,27.902,26.751,42.707,41.163,0.0,0.0,100.0,0.0,0.0,0.0,0.0,3196.166666666667,2749.3,4209.25,4057.4,305.2075,305.972,314.63733333333334,314.7445,21.822400000000002,20.5371,21.8157,21.3471,314.999998,314.999998,324.999988,324.999988,99.5586,99.50725,99.5654,99.54541428571429,-0.026000000000000023,-0.1483333333333332,-0.23083333333333333,-0.0008333333333333526,-0.0833333333333286,-0.04833333333333201,1.5255,1.584,37.39,29.357,37.348,34.4195,56.104,34.653,59.1,51.725,54.035,33.822,57.722,50.0805,53.207,33.388999999999996,57.6745,49.503,-0.04849999999999999,-0.09699999999999998,0.11045500000000001,0.10813,0.0,207.585,207.465,204.44333333333333,204.44333333333333,0.0,0.0
6,0.0,0.0,0.0,1.0,1.0,0.0,0.0,1.0,0.0,100.0,1.0,1.1856,26.0,0.0,0.0,0.0,68.000001,0.0,26.0,26.0,26.0,26.0,-0.128,0.28770000000000007,0.011600000000000001,293.427,-2.6286,-2.7502500000000003,-1.54685,-1.589375,-255.89,216.215,190.870625,0.0,0.0,0.0,0.0,0.0131,-5.498166666666667,-5.498166666666667,-0.5313,0.08133333333333326,-0.06911111111111135,0.9319999999999999,66.373,-0.0917,-0.21555000000000002,0.8200000000000003,100.0,1.0,1.0,204.84,0.0,0.0,0.0,0.0,0.0,0.0,0.0,8682.4,0.0,55.0,5.0,238.91666666666669,0.0,0.0,0.0,0.0,0.0,0.0,0.0,0.0,0.3030000000000008,0.3030000000000008,0.0,0.0,0.0,55.0,616.79921,10000.0,85.000001,85.000001,85.000001,85.000001,395.0,0.0,0.0,0.0,1.0,166.665,53.101,53.101,48.751999999999995,48.751999999999995,34.0,-27.0075,21.148,-32.776666666666664,22.9975,0.0,1782.634,0.08999999999999986,100.0,27.928,26.696,42.874,41.428,0.0,0.0,100.0,0.0,0.0,0.0,0.0,3136.666666666667,2985.1,4068.875,4036.0,305.2,305.36925,314.905,314.87425,21.8311,20.5417,21.825,21.355,314.999998,314.999998,324.999988,324.999988,99.55861428571428,99.50726666666667,99.56551428571429,99.54554285714286,0.000500000000000167,-0.1186666666666667,-0.20666666666666667,0.01333333333333342,-0.03833333333332689,-0.054999999999999716,1.5285,1.5735000000000001,37.444,29.385333333333335,37.406,34.4685,56.09,34.689,59.135999999999996,51.78,54.022,33.855000000000004,57.756,50.1335,53.194,33.420500000000004,57.7055,49.55433333333333,-0.07099999999999995,-0.07750000000000012,0.10923500000000001,0.10398,0.0,207.925,207.865,204.84,204.84,0.0,0.0
7,0.0,0.0,0.0,1.0,1.0,0.0,0.0,1.0,0.0,100.0,1.0,1.1856,26.0,0.0,0.0,0.0,68.000001,0.0,26.0,26.0,26.0,26.0,-0.08887499999999993,0.2773000000000001,0.014966666666666666,293.152,-2.6041,-2.7365,-1.50765,-1.576375,-252.5,216.1925,190.850125,0.0,0.0,0.0,0.0,0.015066666666666562,-5.498166666666667,-5.498166666666667,-0.5346000000000001,-0.029333333333333322,-0.05944444444444441,-0.20000000000000018,66.52,-0.07390000000000001,-0.22382500000000002,0.5,100.0,1.0,1.0,205.24666666666667,0.0,0.0,0.0,0.0,0.0,0.0,0.0,8699.7,0.0,55.0,5.0,239.44333333333333,1.0,0.0,0.0,0.0,0.0,0.0,0.0,0.0,0.3539999999999992,0.3539999999999992,0.0,0.0,1.0,55.0,616.79921,10000.0,85.000001,85.000001,85.000001,85.000001,395.0,0.0,0.0,0.0,1.0,333.33500000000004,52.75,52.75,48.798,48.798,34.0,-27.7825,21.316,-31.78333333333333,23.927500000000002,0.0,1782.581,-0.15500000000000114,100.0,27.874,26.911,42.832,41.763,0.0,0.0,100.0,0.0,0.0,0.0,0.0,3321.333333333333,2949.9,4101.375,4062.4,304.7495,305.314,314.83633333333336,314.7135,21.8409,20.5468,21.8355,21.3639,314.999998,314.999998,324.999988,324.999988,99.55861428571428,99.50726666666667,99.56567142857143,99.54568571428571,0.016249999999999876,-0.10866666666666669,-0.1898333333333334,0.026999999999999913,-0.06499999999999773,-0.046666666666666856,1.521,1.5425,37.506,29.417666666666666,37.472,34.5245,56.076,34.7285,59.177,51.841499999999996,54.007999999999996,33.8915,57.794,50.192499999999995,53.179,33.4555,57.741,49.61233333333333,-0.08899999999999997,-0.05900000000000016,0.10559,0.10841,0.0,208.375,208.315,205.24666666666667,205.24666666666667,0.0,0.0
8,0.0,0.0,0.0,1.0,1.0,0.0,0.0,1.0,0.0,100.0,1.0,1.1856,26.0,0.0,0.0,0.0,68.000001,0.0,26.0,26.0,26.0,26.0,-0.05425000000000002,0.28510000000000013,0.041833333333333333,293.442,-2.6909,-2.723625,-1.49395,-1.5562500000000001,-249.11,216.16750000000002,190.829625,0.0,0.0,0.0,0.0,0.017033333333333345,-5.498166666666667,-5.498166666666667,-0.535,-0.5736666666666667,-0.03733333333333322,0.8140000000000001,66.666,-0.0543,-0.21355000000000002,-0.05200000000000049,100.0,1.0,1.0,205.64666666666668,0.0,0.0,0.0,0.0,0.0,0.0,0.0,8716.6,0.0,55.0,5.0,239.96666666666667,0.0,0.0,0.0,0.0,0.0,0.0,0.0,0.0,0.40500000000000114,0.40500000000000114,0.0,0.0,0.0,55.0,616.79921,10000.0,85.000001,85.000001,85.000001,85.000001,395.0,0.0,0.0,0.0,1.0,333.33500000000004,53.65,53.65,48.065,48.065,34.0,-23.465,22.567999999999998,-30.5,26.8475,0.0,1782.531,-0.34499999999999886,100.0,27.586,26.716,42.879,41.823,0.0,0.0,100.0,0.0,0.0,0.0,0.0,2915.166666666667,2995.6,4137.25,4179.2,305.9615,305.36675,314.646,314.46225,21.8506,20.552,21.8459,21.3729,314.999998,314.999998,324.999988,324.999988,99.55861428571428,99.50728333333333,99.56581428571428,99.54582857142857,0.045250000000000234,-0.07933333333333326,-0.15649999999999997,0.06916666666666682,-0.03166666666666629,-0.054999999999999716,1.5,1.5025,37.566,29.45,37.537,34.5805,56.059,34.766999999999996,59.217,51.9025,53.992000000000004,33.9265,57.8315,50.251,53.163,33.489,57.7755,49.669333333333334,-0.10299999999999998,-0.04800000000000004,0.10600000000000001,0.10613500000000001,0.0,208.785,208.78,205.64666666666668,205.64666666666668,0.0,0.0
9,0.0,0.0,0.0,1.0,1.0,0.0,0.0,1.0,0.0,100.0,1.0,1.1856,26.0,0.0,0.0,0.0,68.000001,0.0,26.0,26.0,26.0,26.0,-0.03562500000000002,0.28710000000000013,0.029633333333333334,293.121,-2.6761,-2.7281250000000004,-1.55065,-1.56175,-245.9,216.14249999999998,190.80975,0.0,0.0,0.0,0.0,0.018899999999999917,-5.498166666666667,-5.498166666666667,-0.5437000000000001,0.5966666666666667,-0.03788888888888886,0.8280000000000001,66.799,-0.0334,-0.21745,-0.15200000000000014,100.0,1.0,1.0,206.2,0.0,0.0,0.0,0.0,0.0,0.0,0.0,8740.0,0.0,55.0,5.0,240.44666666666666,1.0,0.0,0.0,0.0,0.0,0.0,0.0,0.0,0.4529999999999994,0.4529999999999994,0.0,0.0,1.0,55.0,616.79921,10000.0,85.000001,85.000001,85.000001,85.000001,395.0,0.0,0.0,0.0,1.0,333.33500000000004,52.368,52.368,49.164,49.164,34.0,-25.795,24.796,-28.509999999999998,27.2525,0.0,1782.483,-0.46499999999999986,100.0,28.023,27.182,42.497,41.837,0.0,0.0,100.0,0.0,0.0,0.0,0.0,3301.0,3103.7,3961.875,4063.1000000000004,304.7465,304.96125,315.199,314.817,21.8598,20.5571,21.8557,21.3812,314.999998,314.999998,324.999988,324.999988,99.55862857142857,99.5073,99.56594285714286,99.54595714285715,0.07299999999999995,-0.052000000000000046,-0.14300000000000002,0.10016666666666674,-0.04833333333333201,-0.060000000000002274,1.58,1.5675,37.623999999999995,29.481666666666666,37.598,34.6325,56.047,34.804,59.2515,51.9585,53.980999999999995,33.961,57.8635,50.3045,53.15,33.522,57.805,49.72233333333333,-0.11250000000000004,-0.034499999999999975,0.11214500000000001,0.11030000000000001,0.0,209.22500000000002,209.215,206.2,206.2,0.0,0.0
10,0.0,0.0,0.0,1.0,1.0,0.0,0.0,1.0,0.0,100.0,1.0,1.1856,26.0,0.0,0.0,0.0,68.000001,0.0,26.0,26.0,26.0,26.0,0.0050000000000001155,0.29510000000000014,0.004433333333333333,292.923,-2.6596,-2.7015000000000002,-1.5319500000000001,-1.536125,-242.49,216.115,190.789,0.0,0.0,0.0,0.0,0.02089999999999992,-5.498166666666667,-5.498166666666667,-0.5176000000000001,-0.3423333333333334,0.0032222222222222374,0.353,66.946,-0.012,-0.20702500000000001,-0.4339999999999993,100.0,1.0,1.0,206.41333333333333,0.0,0.0,0.0,0.0,0.0,0.0,0.0,8749.2,0.0,55.0,5.0,240.97666666666666,0.0,0.0,0.0,0.0,0.0,0.0,1.0,0.0,0.5040000000000013,0.5040000000000013,0.0,0.0,0.0,55.0,616.79921,10000.0,85.000001,85.000001,85.000001,85.000001,395.0,0.0,0.0,0.0,1.0,333.33500000000004,53.436,53.436,47.577,47.577,34.0,-21.612499999999997,22.677999999999997,-30.6,28.735,0.0,1782.431,-0.5949999999999989,100.0,27.761,27.361,42.822,42.695,0.0,0.0,100.0,0.0,0.0,0.0,0.0,2898.5,2859.4,4334.75,4274.8,306.052,305.578,314.2633333333333,314.1565,21.8695,20.5624,21.8662,21.3904,314.999998,314.999998,324.999988,324.999988,99.55862857142857,99.5073,99.5661,99.54611428571428,0.0807500000000001,-0.04699999999999993,-0.11699999999999999,0.09083333333333332,-0.03833333333332689,-0.03166666666666629,1.484,1.4675,37.685,29.514666666666663,37.664,34.69,56.033,34.8435,59.295500000000004,52.027,53.967,33.997,57.9045,50.3705,53.135999999999996,33.5565,57.843,49.78666666666666,-0.119,-0.02499999999999991,0.10497500000000001,0.10131000000000001,0.0,209.64499999999998,209.66,206.41333333333333,206.41333333333333,0.0,0.0
11,0.0,0.0,0.0,1.0,1.0,0.0,0.0,1.0,0.0,100.0,1.0,1.1856,26.0,0.0,0.0,0.0,68.000001,0.0,26.0,26.0,26.0,26.0,0.029749999999999943,0.27380000000000004,-0.0698,293.51800000000003,-2.7031,-2.6887499999999998,-1.5881500000000002,-1.526375,-239.07,216.0875,190.76825,0.0,0.0,0.0,0.0,0.022599999999999953,-5.498166666666667,-5.498166666666667,-0.5609000000000001,-0.2766666666666666,0.030999999999999917,0.3639999999999999,67.08500000000001,0.010400000000000001,-0.23717500000000002,-0.6439999999999992,100.0,1.0,1.0,207.15666666666667,0.0,0.0,0.0,0.0,0.0,0.0,0.0,8780.6,0.0,55.0,5.0,241.47666666666666,1.0,0.0,0.0,0.0,0.0,0.0,1.0,0.0,0.5549999999999997,0.5549999999999997,0.0,0.0,1.0,55.0,616.79921,10000.0,85.000001,85.000001,85.000001,85.000001,395.0,0.0,0.0,0.0,1.0,333.33500000000004,52.826,52.826,49.254999999999995,49.254999999999995,34.0,-21.905,26.188,-23.95666666666667,27.005,0.0,1782.38,-0.6449999999999996,100.0,27.605,27.407,42.406,42.572,0.0,0.0,100.0,0.0,0.0,0.0,0.0,2998.833333333333,3177.1,3684.0,3872.6000000000004,305.678,304.74575,315.89733333333334,315.2415,21.879,20.5678,21.8765,21.3993,314.999998,314.999998,324.999988,324.999988,99.55864285714286,99.50731666666667,99.56622857142857,99.54624285714286,0.10625000000000018,-0.02633333333333332,-0.09016666666666662,0.14116666666666666,-0.054999999999999716,-0.04333333333332945,1.641,1.627,37.744,29.548666666666666,37.727999999999994,34.746,56.019999999999996,34.879,59.3285,52.0835,53.955,34.03,57.935,50.425,53.122,33.5875,57.8705,49.84,-0.12349999999999994,-0.032500000000000195,0.10725000000000001,0.106745,0.0,210.055,210.085,207.15666666666667,207.15666666666667,0.0,0.0
12,0.0,0.0,0.0,1.0,1.0,0.0,0.0,1.0,0.0,100.0,1.0,1.1856,26.0,0.0,0.0,0.0,68.000001,0.0,26.0,26.0,26.0,26.0,0.047125000000000083,0.29490000000000016,0.013433333333333335,292.953,-2.7561,-2.68425,-1.55125,-1.527375,-235.85,216.0625,190.7475,0.0,0.0,0.0,0.0,0.025466666666666526,-5.498166666666667,-5.498166666666667,-0.5466,0.29899999999999993,0.018444444444444263,0.6439999999999999,67.22200000000001,0.028,-0.20647500000000002,-0.734,100.0,1.0,1.0,207.36333333333334,0.0,0.0,0.0,0.0,0.0,0.0,0.0,8789.3,0.0,55.0,5.0,241.97,0.0,0.0,0.0,0.0,0.0,0.0,1.0,0.0,0.602999999999998,0.602999999999998,0.0,0.0,0.0,55.0,616.79921,10000.0,85.000001,85.000001,85.000001,85.000001,395.0,0.0,0.0,0.0,1.0,166.665,52.811,52.811,47.958,47.958,34.0,-21.872500000000002,27.054,-26.956666666666663,31.517500000000002,0.0,1782.333,-0.6550000000000011,100.0,27.527,27.566,42.351,42.449,0.0,0.0,100.0,0.0,0.0,0.0,0.0,3022.0,3193.4,4167.5,4226.1,305.6225,304.72125,314.67266666666666,314.413,21.887999999999998,20.5729,21.8863,21.4078,314.999998,314.999998,324.999988,324.999988,99.55865714285714,99.50731666666667,99.56635714285714,99.54638571428572,0.12274999999999991,-0.008000000000000007,-0.07233333333333336,0.15949999999999998,-0.04333333333332945,-0.06666666666666998,1.521,1.5025,37.8,29.581,37.789,34.7985,56.007999999999996,34.914500000000004,59.3645,52.141,53.943,34.063,57.9685,50.480000000000004,53.11,33.6195,57.900999999999996,49.894,-0.12349999999999994,-0.028000000000000025,0.11243500000000001,0.10671000000000001,0.0,210.495,210.54500000000002,207.36333333333334,207.36333333333334,0.0,0.0
13,0.0,0.0,0.0,1.0,1.0,0.0,0.0,1.0,0.0,100.0,1.0,1.1856,26.0,0.0,0.0,0.0,68.000001,0.0,26.0,26.0,26.0,26.0,0.05824999999999991,0.2773000000000001,0.0357,292.557,-2.7354000000000003,-2.67425,-1.61925,-1.51175,-232.42000000000002,216.0375,190.72575,0.0,0.0,0.0,0.0,0.026733333333333387,-5.498166666666667,-5.498166666666667,-0.5388000000000001,-0.048666666666666636,0.01633333333333331,-0.6520000000000001,67.364,0.0393,-0.21457500000000002,-0.6619999999999999,100.0,1.0,1.0,207.73333333333335,0.0,0.0,0.0,0.0,0.0,0.0,0.0,8805.0,0.0,55.0,5.0,242.48333333333335,1.0,0.0,0.0,0.0,0.0,0.0,1.0,0.0,0.6539999999999999,0.6539999999999999,0.0,0.0,1.0,55.0,616.79921,10000.0,85.000001,85.000001,85.000001,85.000001,395.0,0.0,0.0,0.0,1.0,333.33500000000004,52.475,52.475,47.867,47.867,34.0,-22.7325,26.008,-28.746666666666663,31.36,0.0,1782.282,-0.5899999999999999,100.0,27.679,27.934,42.494,43.049,0.0,0.0,100.0,0.0,0.0,0.0,0.0,3169.333333333333,3069.3,4241.0,4279.5,305.324,304.911,314.573,314.17625,21.8977,20.5785,21.8968,21.4169,314.999998,314.999998,324.999988,324.999988,99.55867142857143,99.50731666666667,99.5665,99.54652857142857,0.12349999999999994,-0.0076666666666667105,-0.0771666666666666,0.14733333333333332,-0.061666666666667425,-0.046666666666666856,1.501,1.487,37.86,29.615333333333332,37.855000000000004,34.856,55.997,34.9525,59.4035,52.2055,53.933,34.098,58.004999999999995,50.542,53.099000000000004,33.653,57.9345,49.955,-0.12349999999999994,-0.022499999999999964,0.110225,0.09853,0.0,210.95,210.98000000000002,207.73333333333335,207.73333333333335,0.0,0.0
14,0.0,0.0,0.0,1.0,1.0,0.0,0.0,1.0,0.0,100.0,1.0,1.1856,26.0,0.0,0.0,0.0,68.000001,0.0,26.0,26.0,26.0,26.0,0.05762500000000004,0.2794000000000001,-0.018766666666666668,292.816,-2.7291,-2.626125,-1.6219000000000001,-1.52225,-228.98,216.015,190.7045,0.0,0.0,0.0,0.0,0.02873333333333339,-5.498166666666667,-5.498166666666667,-0.5488000000000001,-0.1456666666666666,0.04255555555555568,1.264,67.504,0.046200000000000005,-0.22875,-0.5700000000000003,100.0,1.0,1.0,208.26,0.0,0.0,0.0,0.0,0.0,0.0,0.0,8827.3,0.0,55.0,5.0,242.98666666666668,0.0,0.0,0.0,0.0,0.0,0.0,1.0,0.0,0.7049999999999983,0.7049999999999983,0.0,0.0,0.0,55.0,616.79921,10000.0,85.000001,85.000001,85.000001,85.000001,395.0,0.0,0.0,0.0,1.0,166.665,52.628,52.628,48.141,48.141,34.0,-21.25,26.772,-25.693333333333335,31.475,0.0,1782.232,-0.28000000000000114,100.0,27.777,27.765,42.58,43.106,0.0,0.0,100.0,0.0,0.0,0.0,0.0,2947.666666666667,3232.3,3986.75,4188.2,305.7885,304.61275,315.1123333333333,314.502,21.9072,20.584,21.9072,21.426,314.999998,314.999998,324.999988,324.999988,99.55868571428572,99.50731666666667,99.56664285714285,99.54667142857143,0.11874999999999991,-0.010666666666666602,-0.05833333333333335,0.16733333333333333,-0.03499999999999659,-0.04833333333333201,1.55,1.516,37.92,29.65,37.92,34.9125,55.986000000000004,34.99,59.441,52.2685,53.922,34.1325,58.039500000000004,50.6025,53.087,33.6865,57.966,50.013999999999996,-0.10050000000000003,-0.05049999999999999,0.102915,0.10672500000000001,0.0,211.37,211.385,208.26,208.26,0.0,0.0
15,0.0,0.0,0.0,1.0,1.0,0.0,0.0,1.0,0.0,100.0,1.0,1.1856,26.0,0.0,0.0,0.0,68.000001,0.0,26.0,26.0,26.0,26.0,0.043749999999999956,0.28659999999999997,0.0002666666666666667,292.862,-2.6967,-2.59,-1.61395,-1.4697500000000001,-225.74,215.995,190.68425,0.0,0.0,0.0,0.0,0.0306333333333334,-5.498166666666667,-5.498166666666667,-0.5395,0.32200000000000006,0.06344444444444419,0.8479999999999999,67.636,0.0434,-0.20877500000000002,-0.3460000000000001,100.0,1.0,1.0,208.64333333333332,0.0,0.0,0.0,0.0,0.0,0.0,0.0,8843.7,0.0,55.0,5.0,243.46,1.0,0.0,0.0,0.0,0.0,0.0,1.0,0.0,0.7530000000000001,0.7530000000000001,0.0,0.0,1.0,55.0,616.79921,10000.0,85.000001,85.000001,85.000001,85.000001,395.0,0.0,0.0,0.0,1.0,333.33500000000004,52.811,52.811,48.187,48.187,34.0,-20.127499999999998,25.939999999999998,-26.14,31.6825,0.0,1782.184,-0.19500000000000028,100.0,27.796,27.746,42.377,43.086,0.0,0.0,100.0,0.0,0.0,0.0,0.0,2839.166666666667,3188.0,3989.5,4348.2,306.0865,304.742,315.12,314.14275,21.9162,20.589199999999998,21.9169,21.4346,314.999998,314.999998,324.999988,324.999988,99.5587,99.50731666666667,99.56678571428571,99.5468,0.11799999999999988,-0.0129999999999999,-0.06866666666666665,0.15983333333333327,-0.041666666666671404,-0.04833333333333201,1.542,1.527,37.976,29.682333333333332,37.980999999999995,34.966,55.974999999999994,35.025999999999996,59.4745,52.3275,53.911,34.166,58.071,50.659,53.075,33.718,57.9945,50.07,-0.08999999999999986,-0.059499999999999886,0.10961000000000001,0.10536000000000001,0.0,211.8,211.805,208.64333333333332,208.64333333333332,0.0,0.0
16,0.0,0.0,0.0,1.0,1.0,0.0,0.0,1.0,0.0,100.0,1.0,1.1856,26.0,0.0,0.0,0.0,68.000001,0.0,26.0,26.0,26.0,26.0,0.026375000000000037,0.2771000000000001,-0.0286,292.847,-2.7716000000000003,-2.6171249999999997,-1.5692,-1.545125,-222.07999999999998,215.9725,190.660875,0.0,0.0,0.0,0.0,0.03276666666666661,-5.498166666666667,-5.498166666666667,-0.5616,-0.69,0.033666666666666734,-0.1200000000000001,67.78399999999999,0.0346,-0.22612500000000002,-0.1299999999999999,100.0,1.0,1.0,209.11333333333334,0.0,0.0,0.0,0.0,0.0,0.0,0.0,8863.5,0.0,55.0,5.0,243.99666666666667,0.0,0.0,0.0,0.0,0.0,0.0,1.0,0.0,0.8069999999999986,0.8069999999999986,0.0,0.0,0.0,55.0,616.79921,10000.0,85.000001,85.000001,85.000001,85.000001,395.0,0.0,0.0,0.0,1.0,166.665,52.673,52.673,47.958,47.958,34.0,-23.240000000000002,26.364,-25.82333333333333,29.6975,0.0,1782.13,-0.04499999999999815,100.0,27.508,27.736,42.778999999999996,43.123000000000005,0.0,0.0,100.0,0.0,0.0,0.0,0.0,3055.666666666667,3260.0,3965.625,4072.9,305.6485,304.58075,315.14233333333334,314.715,21.926,20.5951,21.928,21.4442,314.999998,314.999998,324.999988,324.999988,99.55871428571429,99.50731666666667,99.56694285714286,99.54697142857142,0.09775,-0.023333333333333206,-0.0771666666666666,0.14666666666666672,-0.04333333333332945,-0.05666666666667197,1.545,1.544,38.038,29.719,38.05,35.0265,55.958,35.0665,59.5155,52.3925,53.894999999999996,34.2035,58.109,50.722,53.058,33.754,58.0295,50.13166666666667,-0.08050000000000002,-0.0714999999999999,0.10621000000000001,0.10476500000000001,0.0,212.23000000000002,212.24,209.11333333333334,209.11333333333334,0.0,0.0
17,0.0,0.0,0.0,1.0,1.0,0.0,0.0,1.0,0.0,100.0,1.0,1.1856,26.0,0.0,0.0,0.0,68.000001,0.0,26.0,26.0,26.0,26.0,0.007000000000000117,0.29059999999999997,-0.04406666666666667,292.526,-2.7214,-2.606625,-1.6,-1.51475,-218.82,215.9525,190.639625,0.0,0.0,0.0,0.0,0.034633333333333294,-5.498166666666667,-5.498166666666667,-0.5496,0.55,0.004666666666666597,0.5429999999999999,67.91499999999999,0.0205,-0.20545000000000002,0.03599999999999959,100.0,1.0,1.0,209.47,0.0,0.0,0.0,0.0,0.0,0.0,0.0,8878.7,0.0,55.0,5.0,244.46333333333334,1.0,0.0,0.0,0.0,0.0,0.0,1.0,0.0,0.8550000000000004,0.8550000000000004,0.0,0.0,1.0,55.0,616.79921,10000.0,85.000001,85.000001,85.000001,85.000001,395.0,0.0,0.0,0.0,1.0,333.33500000000004,52.475,52.475,47.836,47.836,34.0,-22.9425,24.073999999999998,-28.97,29.825,0.0,1782.081,-0.054999999999999716,100.0,28.108,27.976,42.698,42.975,0.0,0.0,100.0,0.0,0.0,0.0,0.0,3073.666666666667,3063.9,4254.625,4249.8,305.472,305.13725,314.5683333333333,314.43125,21.9351,20.6003,21.9378,21.4527,314.999998,314.999998,324.999988,324.999988,99.55872857142857,99.50733333333334,99.56707142857142,99.5471,0.10124999999999984,-0.033666666666666734,-0.08683333333333332,0.13000000000000012,-0.041666666666671404,-0.04333333333332945,1.5345,1.529,38.094,29.752000000000002,38.111000000000004,35.079499999999996,55.948,35.1035,59.5505,52.4495,53.885999999999996,34.2375,58.1415,50.7765,53.047,33.787,58.0585,50.18533333333333,-0.09050000000000002,-0.06950000000000012,0.104605,0.10553000000000001,0.0,212.695,212.655,209.47,209.47,0.0,0.0
18,0.0,0.0,0.0,1.0,1.0,0.0,0.0,1.0,0.0,100.0,1.0,1.1856,26.0,0.0,0.0,0.0,68.000001,0.0,26.0,26.0,26.0,26.0,-0.02212499999999995,0.2825,-0.041833333333333333,292.511,-2.7445,-2.593,-1.6069499999999999,-1.47025,-215.56,215.935,190.6185,0.0,0.0,0.0,0.0,0.03653333333333331,-5.498166666666667,-5.498166666666667,-0.5587,-0.5613333333333332,0.017111111111111077,0.909,68.04599999999999,0.0118,-0.2214,0.08200000000000074,100.0,1.0,1.0,209.88,0.0,0.0,0.0,0.0,0.0,0.0,0.0,8896.0,0.0,55.0,5.0,244.93666666666667,0.0,0.0,0.0,0.0,0.0,0.0,1.0,0.0,0.9029999999999987,0.9029999999999987,0.0,0.0,0.0,55.0,616.79921,10000.0,85.000001,85.000001,85.000001,85.000001,395.0,0.0,0.0,0.0,1.0,333.33500000000004,52.429,52.429,47.684,47.684,34.0,-24.0825,24.864,-28.33,28.0975,0.0,1782.032,-0.06500000000000128,100.0,27.903,27.735,43.139,43.277,0.0,0.0,100.0,0.0,0.0,0.0,0.0,3095.5,3252.2,4077.625,4150.1,305.4645,304.67175,314.9273333333333,314.6225,21.944,20.6055,21.9477,21.4614,314.999998,314.999998,324.999988,324.999988,99.55872857142857,99.50733333333334,99.5672,99.54722857142858,0.08274999999999988,-0.04899999999999993,-0.09983333333333333,0.12349999999999994,-0.045000000000001705,-0.051666666666669414,1.5405,1.531,38.15,29.784,38.173,35.1335,55.936,35.1395,59.5875,52.5085,53.873999999999995,34.2705,58.176,50.8335,53.034,33.8185,58.0905,50.241,-0.08199999999999985,-0.07799999999999985,0.10568000000000001,0.10572500000000001,0.0,213.065,213.035,209.88,209.88,0.0,0.0
19,0.0,0.0,0.0,1.0,1.0,0.0,0.0,1.0,0.0,100.0,1.0,1.1856,26.0,0.0,0.0,0.0,68.000001,0.0,26.0,26.0,26.0,26.0,-0.01924999999999999,0.28780000000000006,0.04766666666666667,291.916,-2.6507,-2.7041250000000003,-1.6125,-1.464875,-211.88,215.9125,190.594625,0.0,0.0,0.0,0.0,0.03869999999999996,-5.498166666666667,-5.498166666666667,-0.5486,0.8540000000000001,0.014222222222222136,0.6419999999999999,68.19200000000001,0.0054,-0.2106,0.10200000000000031,100.0,1.0,1.0,210.29000000000002,0.0,0.0,0.0,0.0,0.0,0.0,0.0,8913.5,0.0,55.0,5.0,245.46,1.0,0.0,0.0,0.0,0.0,0.0,1.0,0.0,0.9570000000000007,0.9570000000000007,0.0,0.0,1.0,55.0,616.79921,10000.0,85.000001,85.000001,85.000001,85.000001,395.0,0.0,0.0,0.0,1.0,166.665,51.712,51.712,47.363,47.363,34.0,-23.525,25.906,-30.116666666666667,30.0275,0.0,1781.98,-0.10999999999999943,100.0,28.579,28.218,43.04,43.171,0.0,0.0,100.0,0.0,0.0,0.0,0.0,3114.833333333333,3207.7,4261.5,4412.7,305.2275,304.496,314.537,314.0485,21.9542,20.6115,21.9587,21.471,314.999998,314.999998,324.999988,324.999988,99.55874285714286,99.50735,99.56735714285715,99.5474,0.08450000000000024,-0.04899999999999993,-0.10150000000000003,0.1206666666666667,-0.041666666666671404,-0.045000000000001705,1.515,1.514,38.214,29.821666666666665,38.242000000000004,35.1935,55.924,35.1825,59.626,52.573,53.861999999999995,34.3105,58.212,50.896,53.022,33.857,58.123,50.302,-0.08549999999999991,-0.07399999999999984,0.101375,0.10927500000000001,0.0,213.54500000000002,213.53,210.29000000000002,210.29000000000002,0.0,0.0
20,0.0,0.0,0.0,1.0,1.0,0.0,0.0,1.0,0.0,100.0,1.0,1.1856,26.0,0.0,0.0,0.0,68.000001,0.0,26.0,26.0,26.0,26.0,0.0,0.2842,0.03486666666666667,292.297,-2.7444,-2.6641250000000003,-1.5341,-1.59025,-208.6,215.89499999999998,190.573625,0.0,0.0,0.0,0.0,0.04059999999999997,-5.498166666666667,-5.498166666666667,-0.5527000000000001,-1.155,0.009444444444444366,0.399,68.32300000000001,-0.0019,-0.22,0.019999999999999574,100.0,1.0,1.0,210.59333333333333,0.0,0.0,0.0,0.0,0.0,0.0,0.0,8926.3,0.0,55.0,5.0,245.93666666666667,0.0,0.0,0.0,0.0,0.0,0.0,0.0,0.0,1.004999999999999,1.004999999999999,0.0,0.0,0.0,55.0,616.79921,10000.0,85.000001,85.000001,85.000001,85.000001,395.0,0.0,0.0,0.0,1.0,333.33500000000004,52.841,52.841,46.875,46.875,34.0,-22.64,24.298,-28.946666666666665,30.872500000000002,0.0,1781.931,-0.10999999999999943,100.0,27.964,27.786,43.646,43.519999999999996,0.0,0.0,100.0,0.0,0.0,0.0,0.0,2942.0,3107.8,4190.25,4284.5,305.9675,305.03775,314.5486666666667,314.13725,21.9629,20.6166,21.9687,21.4797,314.999998,314.999998,324.999988,324.999988,99.55875714285715,99.50735,99.5675,99.54752857142857,0.08300000000000018,-0.04966666666666675,-0.10433333333333339,0.11383333333333323,-0.036666666666668846,-0.054999999999999716,1.4765,1.48,38.268,29.853666666666665,38.304,35.248,55.909,35.2185,59.665,52.6325,53.848,34.3435,58.2485,50.953,53.007,33.8885,58.1565,50.358333333333334,-0.08650000000000002,-0.06400000000000006,0.10636000000000001,0.10484500000000001,0.0,213.905,213.89499999999998,210.59333333333333,210.59333333333333,0.0,0.0
21,0.0,0.0,0.0,1.0,1.0,0.0,0.0,1.0,0.0,100.0,1.0,1.1856,26.0,0.0,0.0,0.0,68.000001,0.0,26.0,26.0,26.0,26.0,-0.021874999999999978,0.2622,-0.0663,292.694,-2.6506,-2.723125,-1.5968499999999999,-1.553375,-205.32,215.875,190.552,0.0,0.0,0.0,0.0,0.04249999999999998,-5.498166666666667,-5.498166666666667,-0.5774,0.42833333333333323,-0.010444444444444478,0.2609999999999999,68.447,-0.006,-0.224675,0.07000000000000028,100.0,1.0,1.0,211.23666666666668,0.0,0.0,0.0,0.0,0.0,0.0,0.0,8953.5,0.0,55.0,5.0,246.38,1.0,0.0,0.0,0.0,0.0,0.0,0.0,0.0,1.0530000000000008,1.0530000000000008,0.0,0.0,1.0,55.0,616.79921,10000.0,85.000001,85.000001,85.000001,85.000001,395.0,0.0,0.0,0.0,1.0,333.33500000000004,52.338,52.338,48.278999999999996,48.278999999999996,34.0,-23.3425,24.646,-28.196666666666665,27.3275,0.0,1781.883,-0.16499999999999915,100.0,28.271,27.898,43.014,43.05,0.0,0.0,100.0,0.0,0.0,0.0,0.0,3086.0,3108.8,4003.625,3987.5,305.3655,304.9535,315.191,315.03875,21.971899999999998,20.6218,21.9783,21.4881,314.999998,314.999998,324.999988,324.999988,99.55875714285715,99.50736666666667,99.56762857142857,99.54767142857143,0.08174999999999999,-0.05666666666666664,-0.118,0.11699999999999999,-0.02499999999999858,-0.061666666666667425,1.5835,1.582,38.324,29.886666666666667,38.364000000000004,35.3005,55.897,35.256,59.697,52.687,53.837,34.378,58.278,51.0055,52.995000000000005,33.922,58.1835,50.409,-0.08949999999999991,-0.0674999999999999,0.105385,0.113945,0.0,214.315,214.315,211.23666666666668,211.23666666666668,0.0,0.0
22,0.0,0.0,0.0,1.0,1.0,0.0,0.0,1.0,0.0,100.0,1.0,1.1856,26.0,0.0,0.0,0.0,68.000001,0.0,26.0,26.0,26.0,26.0,-0.002375000000000016,0.2691000000000001,0.013300000000000001,292.191,-2.6409000000000002,-2.721125,-1.59555,-1.53725,-201.82999999999998,215.85500000000002,190.52825,0.0,0.0,0.0,0.0,0.044533333333333314,-5.498166666666667,-5.498166666666667,-0.5567,0.07200000000000006,-0.001777777777777878,-0.367,68.586,-0.0057,-0.20470000000000002,0.04800000000000004,100.0,1.0,1.0,211.45,0.0,0.0,0.0,0.0,0.0,0.0,0.0,8962.6,0.0,55.0,5.0,246.88333333333333,0.0,0.0,0.0,0.0,0.0,0.0,0.0,0.0,1.1039999999999992,1.1039999999999992,0.0,0.0,0.0,55.0,616.79921,10000.0,85.000001,85.000001,85.000001,85.000001,395.0,0.0,0.0,0.0,1.0,333.33500000000004,52.399,52.399,47.165,47.165,34.0,-23.1475,23.476,-31.776666666666664,28.9175,0.0,1781.831,-0.23000000000000043,100.0,28.162,28.159,43.302,43.36,0.0,0.0,100.0,0.0,0.0,0.0,0.0,3069.0,2993.9,4273.375,4277.8,305.572,305.083,314.531,314.271,21.9814,20.6274,21.9888,21.4973,314.999998,314.999998,324.999988,324.999988,99.55877142857143,99.50736666666667,99.5678,99.54781428571428,0.07650000000000023,-0.06600000000000006,-0.13283333333333336,0.09699999999999998,-0.051666666666669414,-0.023333333333326323,1.4809999999999999,1.496,38.384,29.921333333333333,38.43,35.358000000000004,55.884,35.297,59.7395,52.7525,53.824,34.4165,58.317499999999995,51.0685,52.980999999999995,33.9585,58.22,50.471000000000004,-0.09349999999999992,-0.06199999999999983,0.11272000000000001,0.10969500000000001,0.0,214.75,214.72500000000002,211.45,211.45,0.0,0.0
23,0.0,0.0,0.0,1.0,1.0,0.0,0.0,1.0,0.0,100.0,1.0,1.1856,26.0,0.0,0.0,0.0,68.000001,0.0,26.0,26.0,26.0,26.0,-0.0011249999999999316,0.2610000000000001,-0.0063,292.175,-2.6737,-2.67225,-1.52315,-1.5991250000000001,-198.32999999999998,215.835,190.50475,0.0,0.0,0.0,0.0,0.046566666666666534,-5.498166666666667,-5.498166666666667,-0.5759000000000001,-0.2743333333333333,0.0005555555555556424,0.6439999999999999,68.72,-0.0039000000000000003,-0.231275,0.0,100.0,1.0,1.0,211.9766666666667,0.0,0.0,0.0,0.0,0.0,0.0,0.0,8984.9,0.0,55.0,5.0,247.36666666666667,1.0,0.0,0.0,0.0,0.0,0.0,0.0,0.0,1.1550000000000011,1.1550000000000011,0.0,0.0,1.0,55.0,616.79921,10000.0,85.000001,85.000001,85.000001,85.000001,395.0,0.0,0.0,0.0,1.0,333.33500000000004,51.727000000000004,51.727000000000004,48.187,48.187,34.0,-24.4125,25.344,-26.416666666666664,28.5225,0.0,1781.781,-0.28500000000000014,100.0,28.521,28.103,43.5,43.542,0.0,0.0,100.0,0.0,0.0,0.0,0.0,3251.833333333333,3172.4,3884.625,4032.3,304.876,304.7995,315.332,314.82825,21.9909,20.633,21.999299999999998,21.5065,314.999998,314.999998,324.999988,324.999988,99.55878571428572,99.50736666666667,99.56792857142857,99.54795714285714,0.09525000000000006,-0.04200000000000004,-0.1133333333333334,0.11416666666666675,-0.054999999999999716,-0.046666666666666856,1.54,1.5295,38.443,29.956333333333333,38.495999999999995,35.4155,55.872,35.3345,59.7745,52.811,53.813,34.451,58.3505,51.1245,52.969,33.9915,58.25,50.525666666666666,-0.10549999999999993,-0.05449999999999999,0.10139000000000001,0.10833000000000001,0.0,215.14499999999998,215.125,211.9766666666667,211.9766666666667,0.0,0.0
24,0.0,0.0,0.0,1.0,1.0,0.0,0.0,1.0,0.0,100.0,1.0,1.1856,26.0,0.0,0.0,0.0,68.000001,0.0,26.0,26.0,26.0,26.0,-0.006249999999999978,0.2835000000000001,-0.0541,292.404,-2.6998,-2.679625,-1.57105,-1.537,-195.01999999999998,215.815,190.48225,0.0,0.0,0.0,0.0,0.04849999999999999,-5.498166666666667,-5.498166666666667,-0.5794,-0.4773333333333334,0.01288888888888895,1.1480000000000001,68.848,0.00030000000000000003,-0.21745,-0.1559999999999997,100.0,1.0,1.0,212.26666666666665,0.0,0.0,0.0,0.0,0.0,0.0,0.0,8997.2,0.0,55.0,5.0,247.82666666666665,0.0,0.0,0.0,0.0,0.0,0.0,0.0,0.0,1.2029999999999994,1.2029999999999994,0.0,0.0,0.0,55.0,616.79921,10000.0,85.000001,85.000001,85.000001,85.000001,395.0,0.0,0.0,0.0,1.0,333.33500000000004,52.887,52.887,47.18,47.18,34.0,-21.5625,23.79,-29.903333333333336,28.87,0.0,1781.732,-0.3249999999999993,100.0,28.221,27.86,43.472,43.452,0.0,0.0,100.0,0.0,0.0,0.0,0.0,2902.333333333333,3017.8,4237.0,4193.2,305.968,305.311,314.5,314.53025,21.9997,20.6381,22.0091,21.5151,314.999998,314.999998,324.999988,324.999988,99.5588,99.50738333333334,99.56807142857143,99.5481,0.09549999999999992,-0.045666666666666744,-0.10916666666666663,0.11099999999999999,-0.04833333333333201,-0.04833333333333201,1.5115,1.5045,38.498000000000005,29.988333333333333,38.557,35.4695,55.86,35.37,59.81,52.868,53.801,34.4835,58.3835,51.1795,52.956,34.0225,58.28,50.57966666666667,-0.10399999999999987,-0.05600000000000005,0.10372,0.103315,0.0,215.54000000000002,215.535,212.26666666666665,212.26666666666665,0.0,0.0
25,0.0,0.0,0.0,1.0,1.0,0.0,0.0,1.0,0.0,100.0,1.0,1.1856,26.0,0.0,0.0,0.0,68.000001,0.0,26.0,26.0,26.0,26.0,0.00012499999999993072,0.2642,-0.035833333333333335,292.267,-2.7659000000000002,-2.637125,-1.58425,-1.540375,-191.3,215.79500000000002,190.4555,0.0,0.0,0.0,0.0,0.05063333333333331,-5.498166666666667,-5.498166666666667,-0.6099,0.09566666666666679,0.01577777777777789,0.04699999999999993,68.988,0.0063,-0.22360000000000002,-0.24399999999999977,100.0,1.0,1.0,212.82666666666665,0.0,0.0,0.0,0.0,0.0,0.0,0.0,9021.0,0.0,55.0,5.0,248.32999999999998,1.0,0.0,0.0,0.0,0.0,0.0,0.0,0.0,1.256999999999998,1.256999999999998,0.0,0.0,1.0,55.0,616.79921,10000.0,85.000001,85.000001,85.000001,85.000001,395.0,0.0,0.0,0.0,1.0,166.665,51.743,51.743,47.974000000000004,47.974000000000004,34.0,-25.07,27.262,-26.693333333333335,28.7975,0.0,1781.68,-0.33999999999999986,100.0,28.161,28.134,43.132,43.255,0.0,0.0,100.0,0.0,0.0,0.0,0.0,3252.5,3348.4,3939.5,4071.2,305.0265,304.26425,315.2993333333333,314.81075,22.0096,20.6441,22.02,21.5247,314.999998,314.999998,324.999988,324.999988,99.55881428571429,99.5074,99.56822857142858,99.54825714285714,0.09724999999999984,-0.02833333333333332,-0.09883333333333333,0.13216666666666677,-0.05333333333332746,-0.041666666666671404,1.5745,1.5535,38.56,30.025666666666666,38.625,35.5295,55.845,35.411,59.847,52.93,53.787,34.522,58.418,51.2395,52.941,34.0595,58.311,50.638333333333335,-0.10499999999999998,-0.05049999999999999,0.10268500000000001,0.11317500000000001,0.0,215.985,215.95499999999998,212.82666666666665,212.82666666666665,0.0,0.0
26,0.0,0.0,0.0,1.0,1.0,0.0,0.0,1.0,0.0,100.0,1.0,1.1856,26.0,0.0,0.0,0.0,68.000001,0.0,26.0,26.0,26.0,26.0,0.00550000000000006,0.27960000000000007,0.07856666666666667,291.214,-2.7218999999999998,-2.7085,-1.6367500000000001,-1.5295,-187.99,215.775,190.43125,0.0,0.0,0.0,0.0,0.05256666666666654,-5.498166666666667,-5.498166666666667,-0.5722,0.6906666666666668,0.00477777777777777,0.742,69.117,0.0119,-0.197475,-0.3179999999999996,100.0,1.0,1.0,212.96,0.0,0.0,0.0,0.0,0.0,0.0,0.0,9026.7,0.0,55.0,5.0,248.79333333333335,0.0,0.0,0.0,0.0,0.0,0.0,0.0,0.0,1.3049999999999997,1.3049999999999997,0.0,0.0,0.0,55.0,616.79921,10000.0,85.000001,85.000001,85.000001,85.000001,395.0,0.0,0.0,0.0,1.0,333.33500000000004,51.437,51.437,46.31,46.31,34.0,-22.9575,25.996000000000002,-32.586666666666666,33.1625,0.0,1781.631,-0.39000000000000057,100.0,28.946,28.708,43.58,43.644,0.0,0.0,100.0,0.0,0.0,0.0,0.0,3133.166666666667,3168.8,4516.875,4550.2,305.248,304.715,313.921,313.677,22.0186,20.6496,22.0299,21.5335,314.999998,314.999998,324.999988,324.999988,99.55882857142858,99.5074,99.56837142857142,99.5484,0.11525000000000007,-0.036666666666666625,-0.09366666666666656,0.13016666666666676,-0.02499999999999858,-0.051666666666669414,1.452,1.4405000000000001,38.616,30.060000000000002,38.687,35.584,55.837,35.45,59.8845,52.9895,53.778999999999996,34.5575,58.453,51.297,52.932,34.0935,58.343,50.69433333333333,-0.11999999999999988,-0.0535000000000001,0.11182500000000001,0.10369500000000001,0.0,216.38,216.405,212.96,212.96,0.0,0.0
27,0.0,0.0,0.0,1.0,1.0,0.0,0.0,1.0,0.0,100.0,1.0,1.1856,26.0,0.0,0.0,0.0,68.000001,0.0,26.0,26.0,26.0,26.0,0.029625000000000012,0.2551000000000001,-0.024533333333333334,291.656,-2.6909,-2.674125,-1.62735,-1.600875,-184.67000000000002,215.7575,190.408125,0.0,0.0,0.0,0.0,0.05449999999999999,-5.498166666666667,-5.498166666666667,-0.5959,-1.0486666666666666,0.0076666666666667105,0.744,69.241,0.019200000000000002,-0.2412,-0.40200000000000014,100.0,1.0,1.0,213.45333333333332,0.0,0.0,0.0,0.0,0.0,0.0,0.0,9047.6,0.0,55.0,5.0,249.24333333333334,1.0,0.0,0.0,0.0,0.0,0.0,0.0,0.0,1.352999999999998,1.352999999999998,0.0,0.0,1.0,55.0,616.79921,10000.0,85.000001,85.000001,85.000001,85.000001,395.0,0.0,0.0,0.0,1.0,333.33500000000004,51.865,51.865,46.646,46.646,34.0,-21.9425,26.228,-28.35,30.825,0.0,1781.583,-0.384999999999998,100.0,28.611,28.541,44.212,44.274,0.0,0.0,100.0,0.0,0.0,0.0,0.0,3021.833333333333,3213.3,4095.375,4124.1,305.594,304.69275,314.844,314.60075,22.0274,20.6549,22.0399,21.5423,314.999998,314.999998,324.999988,324.999988,99.55884285714286,99.5074,99.5685,99.54854285714286,0.10999999999999988,-0.03066666666666662,-0.08583333333333332,0.13883333333333336,-0.026666666666670835,-0.04833333333333201,1.498,1.4905,38.671,30.093,38.748999999999995,35.6395,55.825,35.486,59.922,53.049,53.766999999999996,34.591,58.488,51.354,52.92,34.1255,58.3745,50.75,-0.10799999999999987,-0.05750000000000011,0.108975,0.10219500000000001,0.0,216.71,216.72500000000002,213.45333333333332,213.45333333333332,0.0,0.0
28,0.0,0.0,0.0,1.0,1.0,0.0,0.0,1.0,0.0,100.0,1.0,1.1856,26.0,0.0,0.0,0.0,68.000001,0.0,26.0,26.0,26.0,26.0,0.05412499999999998,0.26570000000000005,-0.0614,291.946,-2.6836,-2.662,-1.62735,-1.560125,-181.13,215.7375,190.38275,0.0,0.0,0.0,0.0,0.05656666666666654,-5.498166666666667,-5.498166666666667,-0.6034,0.6243333333333332,0.003444444444444361,-0.5300000000000002,69.37,0.0233,-0.21965,-0.2599999999999998,100.0,1.0,1.0,213.98333333333335,0.0,0.0,0.0,0.0,0.0,0.0,0.0,9070.0,0.0,55.0,5.0,249.70666666666665,0.0,0.0,0.0,0.0,0.0,0.0,0.0,0.0,1.404,1.404,0.0,0.0,0.0,55.0,616.79921,10000.0,85.000001,85.000001,85.000001,85.000001,395.0,0.0,0.0,0.0,1.0,166.665,51.727000000000004,51.727000000000004,47.684,47.684,34.0,-23.2325,25.134,-27.366666666666667,29.685000000000002,0.0,1781.533,-0.41999999999999815,100.0,28.553,28.67,43.391999999999996,43.855000000000004,0.0,0.0,100.0,0.0,0.0,0.0,0.0,3202.333333333333,3090.1,4049.625,4118.1,305.2035,304.8515,315.1533333333333,314.696,22.0368,20.6606,22.0501,21.5513,314.999998,314.999998,324.999988,324.999988,99.55885714285715,99.5074,99.56864285714286,99.54868571428571,0.10999999999999988,-0.03299999999999992,-0.08266666666666656,0.135,-0.05666666666667197,-0.04333333333332945,1.541,1.542,38.730000000000004,30.128999999999998,38.813,35.696,55.815,35.525,59.9555,53.107,53.757,34.626999999999995,58.5185,51.41,52.908,34.1605,58.4025,50.80466666666666,-0.11499999999999999,-0.051000000000000156,0.09695000000000001,0.10932000000000001,0.0,217.18,217.175,213.98333333333335,213.98333333333335,0.0,0.0
29,0.0,0.0,0.0,1.0,1.0,0.0,0.0,1.0,0.0,100.0,1.0,1.1856,26.0,0.0,0.0,0.0,68.000001,0.0,26.0,26.0,26.0,26.0,0.04212499999999997,0.2574000000000001,0.0195,291.687,-2.6738,-2.702,-1.5825,-1.5406250000000001,-177.38,215.72,190.354875,0.0,0.0,0.0,0.0,0.058733333333333304,-5.498166666666667,-5.498166666666667,-0.6071000000000001,-0.7030000000000001,0.00822222222222213,-0.819,69.513,0.0252,-0.2185,-0.39200000000000035,100.0,1.0,1.0,214.24333333333334,0.0,0.0,0.0,0.0,0.0,0.0,0.0,9081.0,0.0,55.0,5.0,250.22,1.0,0.0,0.0,0.0,0.0,0.0,0.0,0.0,1.4579999999999984,1.4579999999999984,0.0,0.0,1.0,55.0,616.79921,10000.0,85.000001,85.000001,85.000001,85.000001,395.0,0.0,0.0,0.0,1.0,166.665,52.016999999999996,52.016999999999996,46.768,46.768,34.0,-22.54,25.84,-28.936666666666667,31.1,0.0,1781.478,-0.5249999999999986,100.0,28.163,28.567,43.726,44.179,0.0,0.0,100.0,0.0,0.0,0.0,0.0,3157.833333333333,3082.3,4192.875,4257.6,305.425,304.83,314.6773333333333,314.26425,22.0465,20.6666,22.0612,21.5612,314.999998,314.999998,324.999988,324.999988,99.55887142857142,99.5074,99.56881428571428,99.54884285714286,0.11275000000000013,-0.02400000000000002,-0.09399999999999997,0.13416666666666677,-0.051666666666669414,-0.02499999999999858,1.484,1.4595,38.791,30.166333333333334,38.882999999999996,35.7575,55.801,35.565,59.9965,53.173500000000004,53.744,34.664,58.557,51.474000000000004,52.894,34.195499999999996,58.4375,50.867333333333335,-0.11850000000000005,-0.040999999999999925,0.11078,0.10094,0.0,217.565,217.585,214.24333333333334,214.24333333333334,0.0,0.0
30,0.0,0.0,0.0,1.0,1.0,0.0,0.0,1.0,0.0,100.0,1.0,1.1856,26.0,0.0,0.0,0.0,68.000001,0.0,26.0,26.0,26.0,26.0,0.043749999999999956,0.24850000000000017,0.050800000000000005,291.138,-2.7209,-2.5975,-1.5528,-1.6005,-174.25,215.70499999999998,190.3315,0.0,0.0,0.0,0.0,0.060566666666666547,-5.498166666666667,-5.498166666666667,-0.6059,0.7906666666666669,0.005222222222222239,0.5409999999999999,69.626,0.0313,-0.21955000000000002,-0.5139999999999993,100.0,1.0,1.0,214.68333333333334,0.0,0.0,0.0,0.0,0.0,0.0,0.0,9099.6,0.0,55.0,5.0,250.62666666666667,0.0,0.0,0.0,0.0,0.0,0.0,1.0,0.0,1.5030000000000001,1.5030000000000001,0.0,0.0,0.0,55.0,616.79921,10000.0,85.000001,85.000001,85.000001,85.000001,395.0,0.0,0.0,0.0,1.0,333.33500000000004,50.659,50.659,47.104,47.104,34.0,-23.7,27.066,-26.92,32.4075,0.0,1781.433,-0.47499999999999787,100.0,29.166,29.076999999999998,43.638,44.095,0.0,0.0,100.0,0.0,0.0,0.0,0.0,3311.0,3319.8,4131.375,4209.5,304.729,304.2265,314.836,314.4255,22.0549,20.6719,22.0704,21.5693,314.999998,314.999998,324.999988,324.999988,99.55888571428571,99.50741666666667,99.56892857142857,99.54898571428572,0.13149999999999995,-0.02200000000000002,-0.0751666666666666,0.15500000000000003,-0.03333333333333144,-0.07166666666666544,1.509,1.488,38.843,30.199333333333335,38.94,35.8085,55.794,35.602000000000004,60.027,53.227000000000004,53.738,34.698,58.585499999999996,51.525,52.887,34.228,58.463,50.91733333333333,-0.12749999999999995,-0.05049999999999999,0.108255,0.10949,0.0,217.94,217.995,214.68333333333334,214.68333333333334,0.0,0.0
31,0.0,0.0,0.0,1.0,1.0,0.0,0.0,1.0,0.0,100.0,1.0,1.1856,26.0,0.0,0.0,0.0,68.000001,0.0,26.0,26.0,26.0,26.0,0.043625000000000025,0.2561,0.022000000000000002,290.909,-2.773,-2.574,-1.6005500000000001,-1.49275,-170.49,215.6875,190.304125,0.0,0.0,0.0,0.0,0.06273333333333331,-5.498166666666667,-5.498166666666667,-0.5907,-0.546,0.015555555555555545,0.681,69.766,0.0367,-0.22315000000000002,-0.5179999999999998,100.0,1.0,1.0,214.97,0.0,0.0,0.0,0.0,0.0,0.0,0.0,9111.8,0.0,55.0,5.0,251.13333333333333,1.0,0.0,0.0,0.0,0.0,0.0,1.0,0.0,1.5569999999999986,1.5569999999999986,0.0,0.0,1.0,55.0,616.79921,10000.0,85.000001,85.000001,85.000001,85.000001,395.0,0.0,0.0,0.0,1.0,166.665,51.102000000000004,51.102000000000004,45.67,45.67,34.0,-22.28,27.742,-28.203333333333333,31.6325,0.0,1781.38,-0.48499999999999943,100.0,28.927,29.131,44.373000000000005,44.775999999999996,0.0,0.0,100.0,0.0,0.0,0.0,0.0,3110.666666666667,3401.7,4258.875,4261.4,305.4685,304.1855,314.41833333333335,314.2965,22.0647,20.6781,22.0816,21.5794,314.999998,314.999998,324.999988,324.999988,99.5589,99.50741666666667,99.56908571428572,99.54914285714285,0.1339999999999999,-0.013666666666666716,-0.06099999999999994,0.15650000000000008,-0.02499999999999858,-0.046666666666666856,1.462,1.452,38.903999999999996,30.238,39.01,35.871,55.783,35.6435,60.07,53.2945,53.727000000000004,34.737,58.6255,51.5905,52.875,34.2655,58.4995,50.98133333333333,-0.12450000000000006,-0.04899999999999993,0.10540500000000001,0.102845,0.0,218.345,218.38,214.97,214.97,0.0,0.0
32,0.0,0.0,0.0,1.0,1.0,0.0,0.0,1.0,0.0,100.0,1.0,1.1856,26.0,0.0,0.0,0.0,68.000001,0.0,26.0,26.0,26.0,26.0,0.038999999999999924,0.2713000000000001,-0.036033333333333334,291.229,-2.6936,-2.678125,-1.6531,-1.5017500000000001,-167.14,215.675,190.280125,0.0,0.0,0.0,0.0,0.06469999999999998,-5.498166666666667,-5.498166666666667,-0.6066,-0.03200000000000003,-0.00755555555555576,0.18599999999999994,69.886,0.0398,-0.22965000000000002,-0.5739999999999998,100.0,1.0,1.0,215.45,0.0,0.0,0.0,0.0,0.0,0.0,0.0,9132.1,0.0,55.0,5.0,251.56333333333333,0.0,0.0,0.0,0.0,0.0,0.0,1.0,0.0,1.6050000000000004,1.6050000000000004,0.0,0.0,0.0,55.0,616.79921,10000.0,85.000001,85.000001,85.000001,85.000001,395.0,0.0,0.0,0.0,1.0,333.33500000000004,51.391999999999996,51.391999999999996,46.524,46.524,34.0,-21.63,27.088,-28.276666666666664,32.06,0.0,1781.33,-0.4450000000000003,100.0,28.885,29.051000000000002,44.077,44.542,0.0,0.0,100.0,0.0,0.0,0.0,0.0,3107.333333333333,3218.9,4206.375,4325.2,305.3405,304.6375,314.7266666666667,314.29875,22.0734,20.6836,22.0914,21.588,314.999998,314.999998,324.999988,324.999988,99.55891428571428,99.50743333333334,99.56924285714285,99.54927142857143,0.13450000000000006,-0.014333333333333309,-0.06599999999999995,0.16083333333333338,-0.023333333333326323,-0.046666666666666856,1.529,1.5135,38.959,30.272333333333336,39.071,35.9255,55.774,35.681,60.103,53.351,53.718,34.7715,58.656,51.644999999999996,52.864000000000004,34.298500000000004,58.527,51.034666666666666,-0.11599999999999988,-0.052999999999999936,0.10438000000000001,0.10637500000000001,0.0,218.73000000000002,218.765,215.45,215.45,0.0,0.0
33,0.0,0.0,0.0,1.0,1.0,0.0,0.0,1.0,0.0,100.0,1.0,1.1856,26.0,0.0,0.0,0.0,68.000001,0.0,26.0,26.0,26.0,26.0,0.053749999999999964,0.2592000000000001,-0.04373333333333333,291.519,-2.7293000000000003,-2.677125,-1.59275,-1.58725,-163.78,215.6625,190.255125,0.0,0.0,0.0,0.0,0.06663333333333332,-5.498166666666667,-5.498166666666667,-0.6138,-0.2743333333333333,-0.0067777777777777715,1.176,70.008,0.041100000000000005,-0.21795,-0.4939999999999998,100.0,1.0,1.0,215.8,0.0,0.0,0.0,0.0,0.0,0.0,0.0,9147.0,0.0,55.0,5.0,252.00333333333333,1.0,0.0,0.0,0.0,0.0,0.0,1.0,0.0,1.6529999999999987,1.6529999999999987,0.0,0.0,1.0,55.0,616.79921,10000.0,85.000001,85.000001,85.000001,85.000001,395.0,0.0,0.0,0.0,1.0,166.665,51.849000000000004,51.849000000000004,46.692,46.692,34.0,-21.6525,26.542,-27.049999999999997,32.39,0.0,1781.284,-0.4450000000000003,100.0,28.666,28.698,43.985,44.44,0.0,0.0,100.0,0.0,0.0,0.0,0.0,3051.166666666667,3149.6,4148.5,4254.2,305.6075,304.86025,314.768,314.40125,22.082,20.6889,22.1012,21.5967,314.999998,314.999998,324.999988,324.999988,99.55892857142857,99.50743333333334,99.56937142857143,99.54941428571429,0.12875000000000014,-0.010666666666666602,-0.06333333333333335,0.15300000000000002,-0.04333333333332945,-0.04333333333332945,1.5095,1.498,39.013,30.305666666666667,39.132,35.9795,55.763,35.7155,60.137,53.408,53.708,34.8035,58.6875,51.6995,52.852999999999994,34.329,58.5555,51.088,-0.11349999999999993,-0.04499999999999993,0.10609500000000001,0.10468000000000001,0.0,219.10500000000002,219.14,215.8,215.8,0.0,0.0
34,0.0,0.0,0.0,1.0,1.0,0.0,0.0,1.0,0.0,100.0,1.0,1.1856,26.0,0.0,0.0,0.0,68.000001,0.0,26.0,26.0,26.0,26.0,0.06800000000000006,0.25450000000000017,-0.04936666666666667,291.763,-2.6777,-2.6625,-1.65705,-1.54525,-160.20999999999998,215.65,190.227125,0.0,0.0,0.0,0.0,0.06873333333333331,-5.498166666666667,-5.498166666666667,-0.6396000000000001,-0.8163333333333334,0.02022222222222214,-0.30699999999999994,70.137,0.041600000000000005,-0.22145,-0.3860000000000001,100.0,1.0,1.0,216.20333333333332,0.0,0.0,0.0,0.0,0.0,0.0,0.0,9164.0,0.0,55.0,5.0,252.46666666666667,0.0,0.0,0.0,0.0,0.0,0.0,1.0,0.0,1.7040000000000006,1.7040000000000006,0.0,0.0,0.0,55.0,616.79921,10000.0,85.000001,85.000001,85.000001,85.000001,395.0,0.0,0.0,0.0,1.0,333.33500000000004,52.2,52.2,47.226,47.226,34.0,-21.615000000000002,25.056,-27.78666666666666,31.4375,0.0,1781.232,-0.4549999999999983,100.0,28.263,28.564,43.726,44.599000000000004,0.0,0.0,100.0,0.0,0.0,0.0,0.0,3117.0,2999.6,4104.0,4199.2,305.556,305.09975,314.95866666666666,314.44025,22.0911,20.6945,22.1115,21.606,314.999998,314.999998,324.999988,324.999988,99.55895714285714,99.50743333333334,99.56952857142858,99.54957142857143,0.12725000000000009,-0.015333333333333199,-0.07033333333333336,0.15316666666666667,-0.026666666666670835,-0.04833333333333201,1.522,1.504,39.069,30.340666666666664,39.197,36.038,55.751999999999995,35.751999999999995,60.1715,53.4695,53.697,34.837,58.7195,51.7585,52.841,34.3615,58.584,51.14566666666667,-0.11499999999999999,-0.047499999999999876,0.10247500000000001,0.10944500000000001,0.0,219.49,219.51,216.20333333333335,216.20333333333332,0.0,0.0
35,0.0,0.0,0.0,1.0,1.0,0.0,0.0,1.0,0.0,100.0,1.0,1.1856,26.0,0.0,0.0,0.0,68.000001,0.0,26.0,26.0,26.0,26.0,0.055625000000000036,0.25890000000000013,-0.0821,291.779,-2.7327,-2.61175,-1.629,-1.5070000000000001,-156.62,215.64,190.19725,0.0,0.0,0.0,0.0,0.07079999999999997,-5.498166666666667,-5.498166666666667,-0.6809000000000001,-0.365,0.004555555555555646,0.018000000000000016,70.264,0.044700000000000004,-0.2305,-0.5179999999999998,100.0,1.0,1.0,216.66,0.0,0.0,0.0,0.0,0.0,0.0,0.0,9183.4,0.0,55.0,5.0,252.92333333333335,1.0,0.0,0.0,0.0,0.0,0.0,1.0,0.0,1.754999999999999,1.754999999999999,0.0,0.0,1.0,55.0,616.79921,10000.0,85.000001,85.000001,85.000001,85.000001,395.0,0.0,0.0,0.0,1.0,333.33500000000004,51.727000000000004,51.727000000000004,46.829,46.829,34.0,-21.98,28.242,-25.993333333333332,30.035,0.0,1781.181,-0.29499999999999815,100.0,28.182,28.666,43.622,44.010000000000005,0.0,0.0,100.0,0.0,0.0,0.0,0.0,3066.0,3407.8,4025.5,4034.2,305.5345,304.08275,315.03,314.90625,22.1,20.7004,22.1218,21.6152,314.999998,314.999998,324.999988,324.999988,99.55895714285714,99.50743333333334,99.56967142857143,99.54971428571429,0.12575000000000003,-0.014666666666666606,-0.0548333333333334,0.1685000000000001,-0.036666666666668846,-0.051666666666669414,1.5605,1.5205,39.125,30.377333333333333,39.260999999999996,36.0945,55.738,35.7905,60.2055,53.5265,53.684,34.873,58.7515,51.814,52.827,34.396,58.6125,51.199666666666666,-0.10549999999999993,-0.058499999999999996,0.10466,0.10458,0.0,219.885,219.92000000000002,216.66,216.66,0.0,0.0
36,0.0,0.0,0.0,1.0,1.0,0.0,0.0,1.0,0.0,100.0,1.0,1.1856,26.0,0.0,0.0,0.0,68.000001,0.0,26.0,26.0,26.0,26.0,0.044875,0.2613000000000001,0.0516,291.0,-2.6548,-2.652625,-1.5788,-1.547625,-153.25,215.63,190.167875,0.0,0.0,0.0,0.0,0.07276666666666654,-5.498166666666667,-5.498166666666667,-0.6632,0.2616666666666667,-0.035666666666666735,0.20100000000000007,70.386,0.042800000000000005,-0.20035,-0.32399999999999984,100.0,1.0,1.0,216.84333333333333,0.0,0.0,0.0,0.0,0.0,0.0,0.0,9191.2,0.0,55.0,5.0,253.36333333333334,0.0,0.0,0.0,0.0,0.0,0.0,1.0,0.0,1.8030000000000008,1.8030000000000008,0.0,0.0,0.0,55.0,616.79921,10000.0,85.000001,85.000001,85.000001,85.000001,395.0,0.0,0.0,0.0,1.0,333.33500000000004,51.346000000000004,51.346000000000004,46.432,46.432,34.0,-21.6475,26.956,-28.729999999999997,34.8425,0.0,1781.132,-0.23499999999999943,100.0,28.81,28.839,43.738,44.188,0.0,0.0,100.0,0.0,0.0,0.0,0.0,3121.5,3257.8,4365.125,4525.8,305.148,304.57875,314.26166666666666,313.77175,22.1087,20.7059,22.1316,21.6239,314.999998,314.999998,324.999988,324.999988,99.55898571428571,99.50743333333334,99.56981428571429,99.54987142857142,0.13249999999999984,-0.019333333333333202,-0.061999999999999944,0.1581666666666668,-0.04333333333332945,-0.046666666666666856,1.4495,1.444,39.18,30.412,39.323,36.1495,55.729,35.828,60.2395,53.584,53.675,34.9075,58.783,51.8695,52.817,34.429,58.641,51.254,-0.10199999999999987,-0.06400000000000006,0.10814000000000001,0.10552500000000001,0.0,220.29500000000002,220.305,216.84333333333336,216.84333333333333,0.0,0.0
