,ABS Active,ABS Enabled,AID Allow Tire Blankets,AID Auto Blip,AID Auto Clutch,AID Auto Shift,AID Fuel Rate,AID Ideal Line,AID Mech Damage,AID Stability,AID Tire Wear Rate,Air Density,Air Temp,Ballast,Best Lap Delta,Best Lap Time,Brake Bias,Brake Pos,Brake Temp FL,Brake Temp FR,Brake Temp RL,Brake Temp RR,CG Accel Lateral,CG Accel Longitudinal,CG Accel Vertical,CG Height,Camber FL,Camber FR,Camber RL,Camber RR,Car Coord X,Car Coord Y,Car Coord Z,Car Damage Front,Car Damage Left,Car Damage Rear,Car Damage Right,Car Pos Norm,Caster FL,Caster FR,Chassis Pitch Angle,Chassis Pitch Rate,Chassis Roll Angle,Chassis Roll Rate,Chassis Velocity X,Chassis Velocity Y,Chassis Velocity Z,Chassis Yaw Rate,Clutch Pos,DRS Active,DRS Available,Drive Train Speed,ERS Heat Charging,ERS Is Charging,ERS Max Energy,ERS Power Level,ERS Recovery Level,Engine Brake Setting,Engine Limiter,Engine RPM,Flags,Fuel Level,Gear,Ground Speed,HR Sample Clock,In Pit,KERS Charge,KERS Deployed Energy,KERS Input,KERS Max Energy,LR Sample Clock,Lap Invalidated,Lap Time,Lap Time2,Last Lap Time,Last Sector Time,MR Sample Clock,Max Fuel,Max Power,Max RPM,Max Sus Travel FL,Max Sus Travel FR,Max Sus Travel RL,Max Sus Travel RR,Max Torque,Max Turbo Boost,Num Tires Off Track,Penalties Enabled,Position,Raw Data Sample Rate,Ride Height FL,Ride Height FR,Ride Height RL,Ride Height RR,Road Temp,Self Align Torque FL,Self Align Torque FR,Self Align Torque RL,Self Align Torque RR,Session Lap Count,Session Time Left,Steering Angle,Surface Grip,Suspension Travel FL,Suspension Travel FR,Suspension Travel RL,Suspension Travel RR,TC Active,TC Enabled,Throttle Pos,Tire Dirt Level FL,Tire Dirt Level FR,Tire Dirt Level RL,Tire Dirt Level RR,Tire Load FL,Tire Load FR,Tire Load RL,Tire Load RR,Tire Loaded Radius FL,Tire Loaded Radius FR,Tire Loaded Radius RL,Tire Loaded Radius RR,Tire Pressure FL,Tire Pressure FR,Tire Pressure RL,Tire Pressure RR,Tire Radius FL,Tire Radius FR,Tire Radius RL,Tire Radius RR,Tire Rubber Grip FL,Tire Rubber Grip FR,Tire Rubber Grip RL,Tire Rubber Grip RR,Tire Slip Angle FL,Tire Slip Angle FR,Tire Slip Angle RL,Tire Slip Angle RR,Tire Slip Ratio FL,Tire Slip Ratio FR,Tire Slip Ratio RL,Tire Slip Ratio RR,Tire Temp Core FL,Tire Temp Core FR,Tire Temp Core RL,Tire Temp Core RR,Tire Temp Inner FL,Tire Temp Inner FR,Tire Temp Inner RL,Tire Temp Inner RR,Tire Temp Middle FL,Tire Temp Middle FR,Tire Temp Middle RL,Tire Temp Middle RR,Tire Temp Outer FL,Tire Temp Outer FR,Tire Temp Outer RL,Tire Temp Outer RR,Toe In FL,Toe In FR,Toe In RL,Toe In RR,Turbo Boost,Wheel Angular Speed FL,Wheel Angular Speed FR,Wheel Angular Speed RL,Wheel Angular Speed RR,Wind Direction,Wind Speed
0,0.0,0.0,0.0,1.0,1.0,0.0,0.0,1.0,0.0,100.0,1.0,1.1856,26.0,0.0,0.0,0.0,68.0,0.0,26.0,26.0,26.0,26.0,-0.04712499999999997,0.2994000000000001,0.14665,293.93,-2.7226,-2.484375,-1.52885,-1.53375,-275.71,215.93,190.988,0.0,0.0,0.0,0.0,0.0015666666666666667,-5.498166666666667,-5.498166666666667,-0.5481,1.3683333333333332,-0.01100000000000012,-0.797,65.501,-0.0378,-0.20945,0.5600000000000005,100.0,1.0,1.0,202.24666666666667,0.0,0.0,0.0,0.0,0.0,0.0,0.0,8572.5,0.0,55.0,5.0,235.7733333333333,0.0,0.0,0.0,0.0,0.0,0.0,0.0,0.0,0.0030000000000001137,0.0030000000000001137,0.0,0.0,0.0,55.0,616.79921,10000.0,85.0,85.0,85.0,85.0,395.0,0.0,0.0,0.0,1.0,20.0,52.399,52.399,49.347,49.347,34.0,-28.615,24.398,-29.923333333333332,24.6375,0.0,1782.89,0.7050000000000018,100.0,26.828,26.524,40.516999999999996,40.268,0.0,0.0,100.0,0.0,0.0,0.0,0.0,3213.333333333333,3725.5,4046.1428571428573,4002.1000000000004,305.115,302.85825,314.987,314.851,21.7751,20.5148,21.7566,21.3025,314.99999,314.99999,324.99998,324.99998,99.55885714285715,99.50721666666666,99.56445714285714,99.54472857142858,-0.0044999999999999485,-0.12049999999999994,-0.16149999999999998,0.06600000000000006,-0.07000000000000028,-0.05833333333333002,1.5545,1.6015000000000001,37.095,29.2175,36.979,34.141,56.274,34.4835,58.8255,51.4225,54.193,33.66,57.461,49.7965,53.363,33.231,57.423,49.227666666666664,-0.02499999999999991,-0.11850000000000005,0.11177000000000001,0.10499000000000001,0.0,205.26999999999998,205.22,202.24666666666667,202.24666666666667,0.0,0.0
1,0.0,0.0,0.0,1.0,1.0,0.0,0.0,1.0,0.0,100.0,1.0,1.1856,26.0,0.0,0.0,0.0,68.000001,0.0,26.0,26.0,26.0,26.0,-0.11075000000000002,0.3210000000000002,0.24845,293.167,-2.6568,-2.7155,-1.54475,-1.374875,-272.17,215.935,190.96675,0.0,0.0,0.0,0.0,0.003633333333333334,-5.498166666666667,-5.498166666666667,-0.4839,-1.2376666666666667,-0.058250000000000135,-1.162,65.666,-0.0444,-0.18282500000000002,1.1560000000000006,100.0,1.0,1.0,202.32,0.0,0.0,0.0,0.0,0.0,0.0,0.0,8575.6,0.0,55.0,5.0,236.36666666666667,1.0,0.0,0.0,0.0,0.0,0.0,0.0,0.0,0.05699999999999861,0.05699999999999861,0.0,0.0,1.0,55.0,616.79921,10000.0,85.000001,85.000001,85.000001,85.000001,395.0,0.0,0.0,0.0,1.0,166.665,54.504,54.504,48.248,48.248,34.0,-26.22,16.22,-35.67666666666666,28.7875,0.0,1782.837,0.8350000000000009,100.0,27.007,26.548000000000002,42.573,42.187,0.0,0.0,100.0,0.0,0.0,0.0,0.0,3032.6666666666665,2460.8,4476.0,4898.4,305.7015,306.92475,313.9003333333333,312.5285,21.7856,20.5202,21.7681,21.3123,314.999998,314.999998,324.999988,324.999988,99.55887142857142,99.50723333333333,99.56461428571428,99.54487142857143,-0.007000000000000006,-0.13324999999999998,-0.1738333333333334,0.05166666666666675,-0.046666666666666856,-0.03499999999999659,1.3794999999999997,1.4055,37.16,29.250999999999998,37.05,34.201499999999996,56.257,34.5255,58.872,51.4945,54.176,33.699,57.5045,49.862,53.346000000000004,33.2655,57.466,49.291666666666664,-0.010000000000000009,-0.1339999999999999,0.10909500000000001,0.112545,0.0,205.75,205.64499999999998,202.32,202.32,0.0,0.0
2,0.0,0.0,0.0,1.0,1.0,0.0,0.0,1.0,0.0,100.0,1.0,1.1856,26.0,0.0,0.0,0.0,68.000001,0.0,26.0,26.0,26.0,26.0,-0.13112499999999994,0.29690000000000016,-0.09535,294.144,-2.605,-2.7875,-1.49895,-1.639375,-269.01,215.935,190.949,0.0,0.0,0.0,0.0,0.0054666666666666665,-5.498166666666667,-5.498166666666667,-0.5547000000000001,0.13033333333333336,-0.05037499999999984,1.622,65.79599999999999,-0.0601,-0.25220000000000004,1.508,100.0,1.0,1.0,203.41666666666669,0.0,0.0,0.0,0.0,0.0,0.0,0.0,8622.1,0.0,55.0,5.0,236.84,0.0,0.0,0.0,0.0,0.0,0.0,0.0,0.0,0.10500000000000043,0.10500000000000043,0.0,0.0,0.0,55.0,616.79921,10000.0,85.000001,85.000001,85.000001,85.000001,395.0,0.0,0.0,0.0,1.0,166.665,52.795,52.795,50.613,50.613,34.0,-30.6025,19.927999999999997,-28.22,18.765,0.0,1782.79,0.7800000000000011,100.0,27.866,26.619,42.302,41.342,0.0,0.0,100.0,0.0,0.0,0.0,0.0,3416.666666666667,2910.4,3696.714285714286,3431.7,304.4255,305.51175,315.78833333333336,316.4435,21.795099999999998,20.5249,21.7778,21.3203,314.999998,314.999998,324.999988,324.999988,99.55887142857142,99.50725,99.56475714285715,99.545,-0.02400000000000002,-0.14374999999999993,-0.21233333333333337,0.011500000000000066,-0.04999999999999716,-0.07833333333332604,1.681,1.733,37.22,29.2805,37.111000000000004,34.251999999999995,56.245000000000005,34.563,58.907,51.5445,54.164,33.733000000000004,57.5375,49.9105,53.333,33.298,57.4965,49.339,-0.014999999999999902,-0.13200000000000012,0.10584,0.09915500000000001,0.0,206.175,206.04500000000002,203.41666666666669,203.41666666666669,0.0,0.0
3,0.0,0.0,0.0,1.0,1.0,0.0,0.0,1.0,0.0,100.0,1.0,1.1856,26.0,0.0,0.0,0.0,68.000001,0.0,26.0,26.0,26.0,26.0,-0.13687499999999997,0.30990000000000006,-0.0217,293.457,-2.6447000000000003,-2.70975,-1.5025,-1.580375,-265.85,215.935,190.930125,0.0,0.0,0.0,0.0,0.0073,-5.498166666666667,-5.498166666666667,-0.5037,0.6556666666666666,-0.015249999999999986,-1.483,65.94200000000001,-0.078,-0.19010000000000002,1.2599999999999998,100.0,1.0,1.0,203.42666666666668,0.0,0.0,0.0,0.0,0.0,0.0,0.0,8622.4,0.0,55.0,5.0,237.35666666666668,1.0,0.0,0.0,0.0,0.0,0.0,0.0,0.0,0.1529999999999987,0.1529999999999987,0.0,0.0,1.0,55.0,616.79921,10000.0,85.000001,85.000001,85.000001,85.000001,395.0,0.0,0.0,0.0,1.0,333.33500000000004,53.619,53.619,48.035,48.035,34.0,-26.9425,17.898,-36.120000000000005,24.19,0.0,1782.74,0.8449999999999989,100.0,27.573,26.981,42.216,41.483000000000004,0.0,0.0,100.0,0.0,0.0,0.0,0.0,2984.8333333333335,2812.2,4425.428571428572,4175.1,305.8505,305.68475,314.0776666666667,314.45875,21.8044,20.5298,21.7876,21.3287,314.999998,314.999998,324.999988,324.999988,99.55888571428571,99.50726666666667,99.56488571428571,99.54512857142858,-0.04074999999999995,-0.16274999999999995,-0.20999999999999996,0.016666666666666607,-0.03333333333333144,-0.04333333333332945,1.4535,1.54,37.277,29.311,37.172,34.3045,56.229,34.6035,58.945,51.605000000000004,54.15,33.7705,57.5725,49.9685,53.318,33.334,57.528999999999996,49.396,-0.0086666666666666,-0.13600000000000012,0.10937500000000001,0.10933500000000002,0.0,206.63,206.54000000000002,203.42666666666668,203.42666666666668,0.0,0.0
4,0.0,0.0,0.0,1.0,1.0,0.0,0.0,1.0,0.0,100.0,1.0,1.1856,26.0,0.0,0.0,0.0,68.000001,0.0,26.0,26.0,26.0,26.0,-0.13737500000000002,0.2881,-0.00775,293.655,-2.6687000000000003,-2.783125,-1.44065,-1.595375,-262.28,215.93,190.9095,0.0,0.0,0.0,0.0,0.0094,-5.498166666666667,-5.498166666666667,-0.5329,-0.792,-0.07712500000000011,-1.464,66.09700000000001,-0.0891,-0.23105,1.532000000000001,100.0,1.0,1.0,204.01666666666665,0.0,0.0,0.0,0.0,0.0,0.0,0.0,8647.5,0.0,55.0,5.0,237.92000000000002,0.0,0.0,0.0,0.0,0.0,0.0,0.0,0.0,0.20700000000000074,0.20700000000000074,0.0,0.0,0.0,55.0,616.79921,10000.0,85.000001,85.000001,85.000001,85.000001,395.0,0.0,0.0,0.0,1.0,166.665,53.421,53.421,48.66,48.66,34.0,-30.5,18.439999999999998,-33.343333333333334,20.61,0.0,1782.688,0.8599999999999994,100.0,27.402,26.637,42.866,41.644999999999996,0.0,0.0,100.0,0.0,0.0,0.0,0.0,3294.666666666667,2824.0,4198.428571428572,3740.7,304.9575,305.6925,314.6306666666667,315.47075,21.814799999999998,20.5351,21.7988,21.3381,314.999998,314.999998,324.999988,324.999988,99.55888571428571,99.5073,99.56502857142857,99.54528571428571,-0.04225000000000001,-0.16574999999999995,-0.22250000000000003,0.0035000000000000586,-0.046666666666666856,-0.04999999999999716,1.5234999999999999,1.6025,37.342,29.3445,37.242999999999995,34.363,56.213,34.647,58.9905,51.6695,54.134,33.811,57.6155,50.03,53.301,33.3725,57.569,49.45633333333333,-0.009333333333333194,-0.13549999999999995,0.10809500000000001,0.10794500000000001,0.0,207.06,206.935,204.01666666666665,204.01666666666665,0.0,0.0
5,0.0,0.0,0.0,1.0,1.0,0.0,0.0,1.0,0.0,100.0,1.0,1.1856,26.0,0.0,0.0,0.0,68.000001,0.0,26.0,26.0,26.0,26.0,-0.14400000000000002,0.29610000000000003,-0.0337,293.869,-2.6822,-2.753375,-1.514,-1.6235,-259.11,215.9225,190.8905,0.0,0.0,0.0,0.0,0.011233333333333333,-5.498166666666667,-5.498166666666667,-0.5364,0.3606666666666667,-0.07925000000000004,-0.547,66.23400000000001,-0.0989,-0.21580000000000002,1.42,100.0,1.0,1.0,204.49333333333334,0.0,0.0,0.0,0.0,0.0,0.0,0.0,8667.7,0.0,55.0,5.0,238.41333333333333,1.0,0.0,0.0,0.0,0.0,0.0,0.0,0.0,0.254999999999999,0.254999999999999,0.0,0.0,1.0,55.0,616.79921,10000.0,85.000001,85.000001,85.000001,85.000001,395.0,0.0,0.0,0.0,1.0,333.33500000000004,53.574,53.574,49.271,49.271,34.0,-30.0175,17.724,-33.483333333333334,21.8475,0.0,1782.639,0.5,100.0,27.541,26.525,42.535,41.143,0.0,0.0,100.0,0.0,0.0,0.0,0.0,3234.0,2773.2,4087.1428571428573,3928.3,305.101,305.88175,314.942,315.0795,21.8242,20.5399,21.8086,21.3463,314.999998,314.999998,324.999988,324.999988,99.55888571428571,99.50731666666667,99.56517142857143,99.54541428571429,-0.041999999999999926,-0.16749999999999998,-0.23283333333333334,-0.003666666666666596,-0.04333333333332945,-0.04833333333333201,1.5604999999999998,1.592,37.400999999999996,29.374499999999998,37.304,34.414,56.2,34.686,59.028,51.7235,54.120999999999995,33.8465,57.6505,50.0815,53.288,33.4065,57.601,49.50666666666667,-0.02966666666666673,-0.11900000000000022,0.10569500000000001,0.10782000000000001,0.0,207.51999999999998,207.4,204.49333333333334,204.49333333333334,0.0,0.0
6,0.0,0.0,0.0,1.0,1.0,0.0,0.0,1.0,0.0,100.0,1.0,1.1856,26.0,0.0,0.0,0.0,68.000001,0.0,26.0,26.0,26.0,26.0,-0.14112499999999994,0.2973000000000001,0.01675,293.533,-2.6311,-2.8057499999999997,-1.5406,-1.586,-255.93,215.9125,190.871,0.0,0.0,0.0,0.0,0.013066666666666666,-5.498166666666667,-5.498166666666667,-0.5254,0.04766666666666666,-0.07874999999999988,-0.729,66.373,-0.10160000000000001,-0.20370000000000002,1.186,100.0,1.0,1.0,204.79666666666668,0.0,0.0,0.0,0.0,0.0,0.0,0.0,8680.6,0.0,55.0,5.0,238.91333333333333,0.0,0.0,0.0,0.0,0.0,0.0,0.0,0.0,0.3030000000000008,0.3030000000000008,0.0,0.0,0.0,55.0,616.79921,10000.0,85.000001,85.000001,85.000001,85.000001,395.0,0.0,0.0,0.0,1.0,166.665,53.513,53.513,48.553,48.553,34.0,-29.29,18.518,-35.599999999999994,22.302500000000002,0.0,1782.592,0.41499999999999915,100.0,27.534,26.559,42.737,41.400999999999996,0.0,0.0,100.0,0.0,0.0,0.0,0.0,3234.5,2789.2,4276.714285714285,4014.9,305.1085,305.78175,314.463,314.84425,21.8335,20.5447,21.8185,21.3546,314.999998,314.999998,324.999988,324.999988,99.5589,99.50731666666667,99.56531428571428,99.54554285714286,-0.035499999999999976,-0.16249999999999998,-0.22433333333333338,0.0001666666666666483,-0.07333333333333059,-0.026666666666670835,1.5139999999999998,1.5514999999999999,37.459,29.404,37.366,34.466499999999996,56.186,34.7245,59.068,51.781,54.108000000000004,33.882,57.6875,50.137,53.275,33.4405,57.6355,49.561,-0.040999999999999925,-0.10899999999999999,0.10229500000000001,0.11168000000000002,0.0,207.95499999999998,207.825,204.79666666666668,204.79666666666668,0.0,0.0
7,0.0,0.0,0.0,1.0,1.0,0.0,0.0,1.0,0.0,100.0,1.0,1.1856,26.0,0.0,0.0,0.0,68.000001,0.0,26.0,26.0,26.0,26.0,-0.11862499999999998,0.28380000000000005,0.020300000000000002,293.396,-2.5958,-2.801125,-1.49905,-1.6323750000000001,-252.54,215.8975,190.8505,0.0,0.0,0.0,0.0,0.015033333333333334,-5.498166666666667,-5.498166666666667,-0.5345,0.025333333333333333,-0.0651250000000001,1.004,66.518,-0.097,-0.2222,0.8920000000000003,100.0,1.0,1.0,205.27666666666667,0.0,0.0,0.0,0.0,0.0,0.0,0.0,8701.0,0.0,55.0,5.0,239.43666666666667,1.0,0.0,0.0,0.0,0.0,0.0,0.0,0.0,0.3539999999999992,0.3539999999999992,0.0,0.0,1.0,55.0,616.79921,10000.0,85.000001,85.000001,85.000001,85.000001,395.0,0.0,0.0,0.0,1.0,166.665,53.024,53.024,48.903999999999996,48.903999999999996,34.0,-27.02,21.2,-32.36666666666667,23.4325,0.0,1782.541,0.07499999999999929,100.0,27.953,26.605,42.873000000000005,41.492000000000004,0.0,0.0,100.0,0.0,0.0,0.0,0.0,3183.0,2964.9,4050.8571428571427,4015.2,305.0235,305.36125,314.897,314.8665,21.8434,20.5498,21.829,21.363599999999998,314.999998,314.999998,324.999988,324.999988,99.5589,99.50733333333334,99.56545714285714,99.54568571428571,0.005249999999999977,-0.126,-0.21299999999999997,0.011500000000000066,-0.01999999999999602,-0.05333333333332746,1.5310000000000001,1.5670000000000002,37.521,29.436500000000002,37.431,34.5225,56.172,34.7655,59.109,51.8425,54.095,33.92,57.726,50.195499999999996,53.26,33.4765,57.6715,49.61833333333333,-0.07400000000000007,-0.07850000000000001,0.11322000000000002,0.10887000000000001,0.0,208.365,208.29500000000002,205.27666666666667,205.27666666666667,0.0,0.0
8,0.0,0.0,0.0,1.0,1.0,0.0,0.0,1.0,0.0,100.0,1.0,1.1856,26.0,0.0,0.0,0.0,68.000001,0.0,26.0,26.0,26.0,26.0,-0.08024999999999993,0.2896000000000001,-0.01565,293.51800000000003,-2.6835,-2.73175,-1.48125,-1.620625,-249.14,215.8775,190.829875,0.0,0.0,0.0,0.0,0.017033333333333334,-5.498166666666667,-5.498166666666667,-0.536,-0.41133333333333333,-0.052999999999999936,-0.6920000000000001,66.664,-0.08070000000000001,-0.21765,0.4740000000000002,100.0,1.0,1.0,205.67333333333335,0.0,0.0,0.0,0.0,0.0,0.0,0.0,8717.7,0.0,55.0,5.0,239.96333333333334,0.0,0.0,0.0,0.0,0.0,0.0,0.0,0.0,0.40500000000000114,0.40500000000000114,0.0,0.0,0.0,55.0,616.79921,10000.0,85.000001,85.000001,85.000001,85.000001,395.0,0.0,0.0,0.0,1.0,166.665,53.574,53.574,48.34,48.34,34.0,-26.927500000000002,20.076,-31.96,24.1925,0.0,1782.49,-0.03500000000000014,100.0,27.395,26.765,42.831,41.72,0.0,0.0,100.0,0.0,0.0,0.0,0.0,3107.3333333333335,2882.8,4141.714285714285,4025.4,305.5035,305.53425,314.7216666666667,314.75175,21.8532,20.555,21.8395,21.3725,314.999998,314.999998,324.999988,324.999988,99.5589,99.50735,99.5656,99.54582857142857,0.0004999999999999449,-0.12475000000000003,-0.1921666666666666,0.02416666666666667,-0.04999999999999716,-0.03999999999999915,1.5179999999999998,1.5375,37.582,29.4685,37.497,34.578,56.155,34.805,59.1505,51.903,54.079,33.9565,57.765,50.254,53.244,33.5115,57.707,49.675,-0.07600000000000007,-0.07050000000000001,0.10573500000000001,0.10427000000000002,0.0,208.81,208.765,205.67333333333335,205.67333333333335,0.0,0.0
9,0.0,0.0,0.0,1.0,1.0,0.0,0.0,1.0,0.0,100.0,1.0,1.1856,26.0,0.0,0.0,0.0,68.000001,0.0,26.0,26.0,26.0,26.0,-0.06925000000000003,0.29600000000000004,-0.01335,293.32,-2.6067,-2.7355,-1.5350000000000001,-1.571125,-245.94,215.85750000000002,190.810125,0.0,0.0,0.0,0.0,0.0189,-5.498166666666667,-5.498166666666667,-0.5379,0.46,-0.05712500000000009,-0.459,66.799,-0.0639,-0.214175,0.3279999999999994,100.0,1.0,1.0,206.16333333333333,0.0,0.0,0.0,0.0,0.0,0.0,0.0,8738.5,0.0,55.0,5.0,240.44666666666666,1.0,0.0,0.0,0.0,0.0,0.0,0.0,0.0,0.4529999999999994,0.4529999999999994,0.0,0.0,1.0,55.0,616.79921,10000.0,85.000001,85.000001,85.000001,85.000001,395.0,0.0,0.0,0.0,1.0,333.33500000000004,52.841,52.841,49.072,49.072,34.0,-27.4525,21.604,-31.14333333333333,24.2725,0.0,1782.441,-0.245000000000001,100.0,27.792,26.988,42.564,41.667,0.0,0.0,100.0,0.0,0.0,0.0,0.0,3316.666666666667,2926.2,4062.0,4029.2,304.808,305.37325,314.986,314.833,21.8625,20.5599,21.8493,21.3808,314.999998,314.999998,324.999988,324.999988,99.5589,99.50736666666667,99.56572857142856,99.54595714285715,0.022250000000000103,-0.09699999999999998,-0.1805,0.04249999999999998,-0.04833333333333201,-0.06666666666666998,1.5404999999999998,1.572,37.641,29.499499999999998,37.558,34.629999999999995,56.141999999999996,34.843,59.1865,51.959,54.066,33.991,57.7985,50.3075,53.230000000000004,33.5445,57.7385,49.727666666666664,-0.08866666666666667,-0.05049999999999999,0.10147,0.10554000000000001,0.0,209.23000000000002,209.20499999999998,206.16333333333333,206.16333333333333,0.0,0.0
10,0.0,0.0,0.0,1.0,1.0,0.0,0.0,1.0,0.0,100.0,1.0,1.1856,26.0,0.0,0.0,0.0,68.000001,0.0,26.0,26.0,26.0,26.0,-0.04412499999999997,0.2935000000000001,0.023,293.228,-2.6676,-2.712625,-1.5030000000000001,-1.553125,-242.53,215.8375,190.789375,0.0,0.0,0.0,0.0,0.020866666666666665,-5.498166666666667,-5.498166666666667,-0.5236000000000001,-0.43433333333333335,-0.022499999999999964,1.806,66.945,-0.0436,-0.20852500000000002,-0.07600000000000051,100.0,1.0,1.0,206.45666666666668,0.0,0.0,0.0,0.0,0.0,0.0,0.0,8750.9,0.0,55.0,5.0,240.97,0.0,0.0,0.0,0.0,0.0,0.0,1.0,0.0,0.5040000000000013,0.5040000000000013,0.0,0.0,0.0,55.0,616.79921,10000.0,85.000001,85.000001,85.000001,85.000001,395.0,0.0,0.0,0.0,1.0,166.665,53.528,53.528,48.111,48.111,34.0,-23.189999999999998,22.14,-30.483333333333334,28.009999999999998,0.0,1782.392,-0.3200000000000003,100.0,27.815,26.816,42.934,42.088,0.0,0.0,100.0,0.0,0.0,0.0,0.0,2934.5,2947.5,4186.0,4274.3,305.8375,305.5625,314.5523333333333,314.2775,21.8723,20.5652,21.8599,21.3899,314.999998,314.999998,324.999988,324.999988,99.55891428571428,99.50738333333334,99.56588571428571,99.5461,0.05425000000000013,-0.07650000000000001,-0.14583333333333337,0.07833333333333337,-0.030000000000001137,-0.030000000000001137,1.4979999999999998,1.4969999999999999,37.702,29.532,37.623999999999995,34.687,56.126999999999995,34.881,59.2285,52.0225,54.052,34.025999999999996,57.8375,50.3685,53.215,33.578,57.7745,49.787,-0.10333333333333328,-0.04800000000000004,0.102635,0.10851000000000001,0.0,209.64499999999998,209.64499999999998,206.45666666666668,206.45666666666668,0.0,0.0
11,0.0,0.0,0.0,1.0,1.0,0.0,0.0,1.0,0.0,100.0,1.0,1.1856,26.0,0.0,0.0,0.0,68.000001,0.0,26.0,26.0,26.0,26.0,-0.034499999999999975,0.27880000000000016,-0.0548,293.594,-2.6817,-2.69775,-1.5623,-1.521375,-238.91,215.8125,190.767375,0.0,0.0,0.0,0.0,0.022600000000000002,-5.498166666666667,-5.498166666666667,-0.5558000000000001,-0.03166666666666667,0.004999999999999893,0.652,67.093,-0.0224,-0.2283,-0.2239999999999993,100.0,1.0,1.0,207.14,0.0,0.0,0.0,0.0,0.0,0.0,0.0,8779.9,0.0,55.0,5.0,241.50666666666666,1.0,0.0,0.0,0.0,0.0,0.0,1.0,0.0,0.5579999999999998,0.5579999999999998,0.0,0.0,1.0,55.0,616.79921,10000.0,85.000001,85.000001,85.000001,85.000001,395.0,0.0,0.0,0.0,1.0,166.665,53.146,53.146,49.194,49.194,34.0,-23.622500000000002,24.358,-26.636666666666663,25.765,0.0,1782.336,-0.48999999999999844,100.0,27.51,27.042,42.447,42.098,0.0,0.0,100.0,0.0,0.0,0.0,0.0,3034.0,3109.0,3815.857142857143,3979.1000000000004,305.539,305.00475,315.562,315.0275,21.8824,20.5708,21.8708,21.3994,314.999998,314.999998,324.999988,324.999988,99.55892857142857,99.50738333333334,99.56602857142857,99.54625714285714,0.06899999999999995,-0.055499999999999994,-0.12883333333333336,0.09683333333333333,-0.045000000000001705,-0.06333333333333258,1.601,1.5975000000000001,37.765,29.5675,37.693,34.746,56.111000000000004,34.9215,59.2665,52.086,54.037,34.0635,57.873,50.4295,53.199,33.614,57.807,49.847,-0.1036666666666668,-0.0405000000000002,0.10722500000000001,0.10244,0.0,210.11,210.10500000000002,207.14,207.14,0.0,0.0
12,0.0,0.0,0.0,1.0,1.0,0.0,0.0,1.0,0.0,100.0,1.0,1.1856,26.0,0.0,0.0,0.0,68.000001,0.0,26.0,26.0,26.0,26.0,-0.0022499999999999742,0.2896000000000001,0.012150000000000001,293.152,-2.7096999999999998,-2.701125,-1.5376,-1.568,-235.89,215.79000000000002,190.748,0.0,0.0,0.0,0.0,0.025466666666666665,-5.498166666666667,-5.498166666666667,-0.5444,0.311,-0.0022500000000000853,-0.654,67.22,-0.0068000000000000005,-0.20615,-0.23599999999999977,100.0,1.0,1.0,207.37333333333333,0.0,0.0,0.0,0.0,0.0,0.0,0.0,8789.8,0.0,55.0,5.0,241.96333333333334,0.0,0.0,0.0,0.0,0.0,0.0,1.0,0.0,0.602999999999998,0.602999999999998,0.0,0.0,0.0,55.0,616.79921,10000.0,85.000001,85.000001,85.000001,85.000001,395.0,0.0,0.0,0.0,1.0,333.33500000000004,53.009,53.009,48.263999999999996,48.263999999999996,34.0,-24.5625,23.962,-29.256666666666668,28.395,0.0,1782.291,-0.4299999999999997,100.0,27.349,27.356,42.329,42.184,0.0,0.0,100.0,0.0,0.0,0.0,0.0,3156.3333333333335,3039.2,4199.857142857143,4121.7,305.3325,305.0265,314.672,314.59575,21.8909,20.5756,21.88,21.4073,314.999998,314.999998,324.999988,324.999988,99.55892857142857,99.5074,99.56615714285714,99.54638571428572,0.0747500000000001,-0.05625000000000002,-0.1183333333333334,0.10549999999999993,-0.051666666666669414,-0.05666666666667197,1.5419999999999998,1.5219999999999998,37.818,29.5975,37.75,34.795500000000004,56.099000000000004,34.955,59.301,52.14,54.025,34.0945,57.905,50.481,53.187,33.6435,57.8365,49.897666666666666,-0.09833333333333316,-0.04850000000000021,0.110115,0.10756,0.0,210.525,210.535,207.37333333333333,207.37333333333333,0.0,0.0
13,0.0,0.0,0.0,1.0,1.0,0.0,0.0,1.0,0.0,100.0,1.0,1.1856,26.0,0.0,0.0,0.0,68.000001,0.0,26.0,26.0,26.0,26.0,0.019500000000000073,0.2781,0.029400000000000003,292.77,-2.6872,-2.700875,-1.57165,-1.5502500000000001,-232.25,215.765,190.725,0.0,0.0,0.0,0.0,0.026833333333333334,-5.498166666666667,-5.498166666666667,-0.5387000000000001,-0.18633333333333335,-0.0015000000000000568,-0.522,67.37100000000001,0.0088,-0.21465,-0.34999999999999964,100.0,1.0,1.0,207.7733333333333,0.0,0.0,0.0,0.0,0.0,0.0,0.0,8806.7,0.0,55.0,5.0,242.51,1.0,0.0,0.0,0.0,0.0,0.0,1.0,0.0,0.657,0.657,0.0,0.0,1.0,55.0,616.79921,10000.0,85.000001,85.000001,85.000001,85.000001,395.0,0.0,0.0,0.0,1.0,166.665,52.719,52.719,48.065,48.065,34.0,-23.555,24.286,-29.816666666666663,29.955,0.0,1782.238,-0.46000000000000085,100.0,27.675,27.6,42.617000000000004,42.725,0.0,0.0,100.0,0.0,0.0,0.0,0.0,3160.8333333333335,3019.2,4201.142857142857,4239.7,305.3235,305.079,314.634,314.282,21.9011,20.5814,21.8911,21.4169,314.999998,314.999998,324.999988,324.999988,99.55894285714285,99.5074,99.5663,99.54652857142857,0.09375,-0.04399999999999993,-0.11583333333333334,0.11783333333333323,-0.04999999999999716,-0.054999999999999716,1.5074999999999998,1.4935,37.882,29.633499999999998,37.819,34.856,56.086,34.9955,59.343,52.207499999999996,54.012,34.1315,57.9445,50.546,53.173,33.6795,57.8725,49.961,-0.11533333333333329,-0.040999999999999925,0.10899500000000001,0.10627,0.0,210.97500000000002,210.99,207.7733333333333,207.7733333333333,0.0,0.0
14,0.0,0.0,0.0,1.0,1.0,0.0,0.0,1.0,0.0,100.0,1.0,1.1856,26.0,0.0,0.0,0.0,68.000001,0.0,26.0,26.0,26.0,26.0,0.04425000000000012,0.27990000000000004,-0.0057,292.923,-2.7081,-2.7033750000000003,-1.5721,-1.5385,-229.01,215.7425,190.704875,0.0,0.0,0.0,0.0,0.028733333333333333,-5.498166666666667,-5.498166666666667,-0.5503,-0.126,0.025125000000000064,-0.10200000000000001,67.503,0.0187,-0.22762500000000002,-0.37600000000000033,100.0,1.0,1.0,208.26666666666665,0.0,0.0,0.0,0.0,0.0,0.0,0.0,8827.6,0.0,55.0,5.0,242.98333333333335,0.0,0.0,0.0,0.0,0.0,0.0,1.0,0.0,0.7049999999999983,0.7049999999999983,0.0,0.0,0.0,55.0,616.79921,10000.0,85.000001,85.000001,85.000001,85.000001,395.0,0.0,0.0,0.0,1.0,333.33500000000004,52.658,52.658,48.263999999999996,48.263999999999996,34.0,-22.88,25.408,-26.86,29.627499999999998,0.0,1782.188,-0.4800000000000004,100.0,27.633,27.751,42.576,42.839,0.0,0.0,100.0,0.0,0.0,0.0,0.0,3095.8333333333335,3077.0,4015.714285714286,4108.8,305.5295,304.8425,315.082,314.624,21.9102,20.5865,21.9009,21.4255,314.999998,314.999998,324.999988,324.999988,99.55895714285714,99.5074,99.56645714285715,99.54667142857143,0.10050000000000003,-0.03225,-0.09183333333333332,0.13949999999999996,-0.054999999999999716,-0.045000000000001705,1.5535,1.5255,37.939,29.666,37.881,34.909,56.073,35.033,59.3805,52.2695,54.001000000000005,34.1665,57.9795,50.6055,53.16,33.7125,57.903999999999996,50.019333333333336,-0.11499999999999999,-0.03949999999999987,0.10182000000000001,0.11497500000000001,0.0,211.38,211.39,208.26666666666665,208.26666666666665,0.0,0.0
15,0.0,0.0,0.0,1.0,1.0,0.0,0.0,1.0,0.0,100.0,1.0,1.1856,26.0,0.0,0.0,0.0,68.000001,0.0,26.0,26.0,26.0,26.0,0.04962500000000003,0.28,-0.02135,292.862,-2.7137000000000002,-2.66725,-1.5937999999999999,-1.5446250000000001,-225.76999999999998,215.7225,190.6845,0.0,0.0,0.0,0.0,0.030600000000000002,-5.498166666666667,-5.498166666666667,-0.5421,0.23933333333333334,0.04312499999999986,-0.753,67.635,0.0261,-0.212475,-0.47799999999999976,100.0,1.0,1.0,208.63333333333333,0.0,0.0,0.0,0.0,0.0,0.0,0.0,8843.3,0.0,55.0,5.0,243.46,1.0,0.0,0.0,0.0,0.0,0.0,1.0,0.0,0.7530000000000001,0.7530000000000001,0.0,0.0,1.0,55.0,616.79921,10000.0,85.000001,85.000001,85.000001,85.000001,395.0,0.0,0.0,0.0,1.0,333.33500000000004,52.78,52.78,48.172,48.172,34.0,-22.11,25.118,-27.176666666666662,30.677500000000002,0.0,1782.142,-0.4349999999999987,100.0,27.63,27.869,42.408,42.981,0.0,0.0,100.0,0.0,0.0,0.0,0.0,3005.6666666666665,3056.6,4044.1428571428573,4251.2,305.796,304.88025,315.0443333333333,314.22075,21.9192,20.5917,21.9106,21.434,314.999998,314.999998,324.999988,324.999988,99.55897142857143,99.5074,99.56658571428571,99.5468,0.10175000000000001,-0.02749999999999997,-0.08533333333333337,0.131,-0.03499999999999659,-0.046666666666666856,1.5154999999999998,1.508,37.995000000000005,29.6985,37.941,34.9625,56.063,35.0665,59.4125,52.3245,53.989999999999995,34.1975,58.009,50.659,53.149,33.7425,57.9315,50.072,-0.10833333333333317,-0.046499999999999986,0.10448500000000001,0.09882500000000001,0.0,211.79500000000002,211.81,208.63333333333333,208.63333333333333,0.0,0.0
16,0.0,0.0,0.0,1.0,1.0,0.0,0.0,1.0,0.0,100.0,1.0,1.1856,26.0,0.0,0.0,0.0,68.000001,0.0,26.0,26.0,26.0,26.0,0.03825000000000012,0.2732000000000001,-0.0066500000000000005,292.816,-2.7676,-2.622375,-1.56355,-1.54725,-222.32,215.7,190.6625,0.0,0.0,0.0,0.0,0.032633333333333334,-5.498166666666667,-5.498166666666667,-0.5562,-0.5753333333333334,0.03112500000000007,0.295,67.776,0.031100000000000003,-0.22410000000000002,-0.42799999999999905,100.0,1.0,1.0,209.04666666666668,0.0,0.0,0.0,0.0,0.0,0.0,0.0,8860.8,0.0,55.0,5.0,243.96666666666667,0.0,0.0,0.0,0.0,0.0,0.0,1.0,0.0,0.8039999999999985,0.8039999999999985,0.0,0.0,0.0,55.0,616.79921,10000.0,85.000001,85.000001,85.000001,85.000001,395.0,0.0,0.0,0.0,1.0,333.33500000000004,52.689,52.689,47.897,47.897,34.0,-22.54,26.624,-25.79,30.947499999999998,0.0,1782.09,-0.33999999999999986,100.0,27.464,27.7,42.759,43.009,0.0,0.0,100.0,0.0,0.0,0.0,0.0,3040.6666666666665,3237.0,4009.5714285714284,4140.5,305.604,304.61225,315.0366666666667,314.5635,21.9286,20.5972,21.9211,21.4432,314.999998,314.999998,324.999988,324.999988,99.55898571428571,99.5074,99.56671428571428,99.54695714285714,0.11275000000000013,-0.014499999999999957,-0.07133333333333336,0.15749999999999997,-0.04999999999999716,-0.054999999999999716,1.5455,1.521,38.053,29.733,38.007,35.0195,56.049,35.104,59.451499999999996,52.387,53.977000000000004,34.2325,58.045500000000004,50.7185,53.135,33.775999999999996,57.9645,50.13066666666667,-0.10099999999999998,-0.04800000000000004,0.10646000000000001,0.10536000000000001,0.0,212.21,212.215,209.04666666666668,209.04666666666668,0.0,0.0
17,0.0,0.0,0.0,1.0,1.0,0.0,0.0,1.0,0.0,100.0,1.0,1.1856,26.0,0.0,0.0,0.0,68.000001,0.0,26.0,26.0,26.0,26.0,0.03112500000000007,0.2832000000000001,0.01585,292.542,-2.7326,-2.6025,-1.6074000000000002,-1.508125,-218.86,215.68,190.64,0.0,0.0,0.0,0.0,0.034633333333333335,-5.498166666666667,-5.498166666666667,-0.5494,0.3463333333333333,0.006999999999999895,-1.034,67.91499999999999,0.0292,-0.20885,-0.29000000000000004,100.0,1.0,1.0,209.46,0.0,0.0,0.0,0.0,0.0,0.0,0.0,8878.2,0.0,55.0,5.0,244.46333333333334,1.0,0.0,0.0,0.0,0.0,0.0,1.0,0.0,0.8550000000000004,0.8550000000000004,0.0,0.0,1.0,55.0,616.79921,10000.0,85.000001,85.000001,85.000001,85.000001,395.0,0.0,0.0,0.0,1.0,333.33500000000004,52.475,52.475,47.791,47.791,34.0,-23.6175,24.524,-29.723333333333336,29.925,0.0,1782.04,-0.3150000000000013,100.0,27.733,28.045,42.554,43.053,0.0,0.0,100.0,0.0,0.0,0.0,0.0,3193.0,3064.4,4291.142857142857,4210.4,305.29,304.96875,314.538,314.4315,21.9382,20.6028,21.9314,21.4522,314.999998,314.999998,324.999988,324.999988,99.559,99.50741666666667,99.56685714285715,99.5471,0.10725000000000007,-0.02674999999999994,-0.09433333333333338,0.1373333333333333,-0.04999999999999716,-0.041666666666671404,1.5274999999999999,1.5255,38.114000000000004,29.768,38.071,35.076499999999996,56.037,35.1425,59.4885,52.448,53.966,34.268,58.079499999999996,50.7775,53.123000000000005,33.81,57.996,50.18833333333333,-0.10799999999999987,-0.051000000000000156,0.11542000000000001,0.10208,0.0,212.66500000000002,212.685,209.46,209.46,0.0,0.0
18,0.0,0.0,0.0,1.0,1.0,0.0,0.0,1.0,0.0,100.0,1.0,1.1856,26.0,0.0,0.0,0.0,68.000001,0.0,26.0,26.0,26.0,26.0,0.03037500000000004,0.27490000000000014,0.00965,292.404,-2.7462,-2.59075,-1.6047500000000001,-1.467875,-215.59,215.6625,190.618875,0.0,0.0,0.0,0.0,0.036533333333333334,-5.498166666666667,-5.498166666666667,-0.5594,-0.447,0.01475000000000004,-0.41300000000000003,68.045,0.027100000000000003,-0.22190000000000001,-0.21799999999999908,100.0,1.0,1.0,209.85000000000002,0.0,0.0,0.0,0.0,0.0,0.0,0.0,8894.8,0.0,55.0,5.0,244.93333333333334,0.0,0.0,0.0,0.0,0.0,0.0,1.0,0.0,0.9029999999999987,0.9029999999999987,0.0,0.0,0.0,55.0,616.79921,10000.0,85.000001,85.000001,85.000001,85.000001,395.0,0.0,0.0,0.0,1.0,166.665,52.277,52.277,47.653,47.653,34.0,-24.302500000000002,25.747999999999998,-28.85333333333333,29.3475,0.0,1781.992,-0.3099999999999987,100.0,27.655,27.896,42.847,43.284,0.0,0.0,100.0,0.0,0.0,0.0,0.0,3233.166666666667,3214.6,4191.142857142857,4195.5,305.2055,304.56425,314.71433333333334,314.44,21.9471,20.608,21.9413,21.4608,314.999998,314.999998,324.999988,324.999988,99.559,99.50741666666667,99.567,99.54722857142858,0.10175000000000001,-0.026499999999999968,-0.09216666666666662,0.13683333333333336,-0.041666666666671404,-0.045000000000001705,1.5215,1.5055,38.169,29.799999999999997,38.132999999999996,35.129999999999995,56.025999999999996,35.1775,59.525,52.507,53.955,34.3,58.114,50.8345,53.11,33.841,58.027,50.244,-0.1036666666666668,-0.052000000000000046,0.10461000000000001,0.11045,0.0,213.04500000000002,213.055,209.85000000000002,209.85000000000002,0.0,0.0
19,0.0,0.0,0.0,1.0,1.0,0.0,0.0,1.0,0.0,100.0,1.0,1.1856,26.0,0.0,0.0,0.0,68.000001,0.0,26.0,26.0,26.0,26.0,0.027125000000000066,0.2845,0.0639,292.038,-2.6617,-2.694375,-1.5389,-1.455375,-212.12,215.64249999999998,190.59625,0.0,0.0,0.0,0.0,0.038533333333333336,-5.498166666666667,-5.498166666666667,-0.5518000000000001,0.733,0.025374999999999925,0.806,68.18299999999999,0.0221,-0.214725,-0.2560000000000002,100.0,1.0,1.0,210.24666666666667,0.0,0.0,0.0,0.0,0.0,0.0,0.0,8911.5,0.0,55.0,5.0,245.43,1.0,0.0,0.0,0.0,0.0,0.0,1.0,0.0,0.9540000000000006,0.9540000000000006,0.0,0.0,1.0,55.0,616.79921,10000.0,85.000001,85.000001,85.000001,85.000001,395.0,0.0,0.0,0.0,1.0,166.665,51.834,51.834,47.577,47.577,34.0,-22.3425,26.848,-27.32666666666666,32.05,0.0,1781.942,-0.3049999999999997,100.0,28.37,28.275,42.804,43.188,0.0,0.0,100.0,0.0,0.0,0.0,0.0,3082.3333333333335,3219.3,4163.285714285715,4477.2,305.3355,304.46625,314.6773333333333,313.882,21.9568,20.6137,21.9517,21.4699,314.999998,314.999998,324.999988,324.999988,99.55901428571428,99.50743333333334,99.56714285714285,99.54738571428571,0.10725000000000007,-0.027000000000000024,-0.08050000000000002,0.14666666666666672,-0.03833333333332689,-0.06499999999999773,1.4994999999999998,1.4785,38.230000000000004,29.8355,38.198,35.187,56.015,35.2175,59.5615,52.569,53.944,34.337,58.1475,50.894,53.099000000000004,33.8765,58.058,50.30266666666667,-0.09666666666666668,-0.05799999999999983,0.098655,0.112375,0.0,213.5,213.515,210.24666666666667,210.24666666666667,0.0,0.0
20,0.0,0.0,0.0,1.0,1.0,0.0,0.0,1.0,0.0,100.0,1.0,1.1856,26.0,0.0,0.0,0.0,68.000001,0.0,26.0,26.0,26.0,26.0,0.03512500000000007,0.26239999999999997,-0.00685,292.374,-2.7545,-2.6525,-1.542,-1.578875,-208.43,215.625,190.5725,0.0,0.0,0.0,0.0,0.0407,-5.498166666666667,-5.498166666666667,-0.5569000000000001,-0.9590000000000001,0.020999999999999908,0.483,68.32900000000001,0.0199,-0.22665000000000002,-0.2579999999999991,100.0,1.0,1.0,210.67666666666668,0.0,0.0,0.0,0.0,0.0,0.0,0.0,8929.8,0.0,55.0,5.0,245.95666666666665,0.0,0.0,0.0,0.0,0.0,0.0,0.0,0.0,1.0079999999999991,1.0079999999999991,0.0,0.0,0.0,55.0,616.79921,10000.0,85.000001,85.000001,85.000001,85.000001,395.0,0.0,0.0,0.0,1.0,166.665,52.567,52.567,47.287,47.287,34.0,-22.4225,25.637999999999998,-26.43,30.692500000000003,0.0,1781.887,-0.23999999999999844,100.0,27.899,27.944,43.424,43.661,0.0,0.0,100.0,0.0,0.0,0.0,0.0,3008.6666666666665,3156.3,4073.285714285714,4144.1,305.7085,304.86875,314.85266666666666,314.5175,21.9667,20.6196,21.9628,21.4797,314.999998,314.999998,324.999988,324.999988,99.55904285714286,99.50743333333334,99.5673,99.54754285714286,0.10650000000000004,-0.02674999999999994,-0.07450000000000001,0.13816666666666677,-0.051666666666669414,-0.045000000000001705,1.4935,1.4815,38.292,29.872500000000002,38.268,35.2485,56.0,35.257,59.6035,52.635999999999996,53.93,34.3735,58.187,50.9585,53.084,33.911500000000004,58.094,50.36566666666667,-0.09933333333333327,-0.05900000000000016,0.09993500000000001,0.10406000000000001,0.0,213.9,213.925,210.67666666666668,210.67666666666668,0.0,0.0
21,0.0,0.0,0.0,1.0,1.0,0.0,0.0,1.0,0.0,100.0,1.0,1.1856,26.0,0.0,0.0,0.0,68.000001,0.0,26.0,26.0,26.0,26.0,0.030999999999999917,0.27249999999999996,-0.0597,292.648,-2.7275,-2.653875,-1.6127500000000001,-1.53675,-205.36,215.61,190.55225,0.0,0.0,0.0,0.0,0.04246666666666667,-5.498166666666667,-5.498166666666667,-0.5745,0.18266666666666667,0.004750000000000032,-0.784,68.447,0.017,-0.224,-0.16999999999999993,100.0,1.0,1.0,211.19666666666666,0.0,0.0,0.0,0.0,0.0,0.0,0.0,8951.9,0.0,55.0,5.0,246.38,1.0,0.0,0.0,0.0,0.0,0.0,0.0,0.0,1.0530000000000008,1.0530000000000008,0.0,0.0,1.0,55.0,616.79921,10000.0,85.000001,85.000001,85.000001,85.000001,395.0,0.0,0.0,0.0,1.0,333.33500000000004,52.399,52.399,48.08,48.08,34.0,-24.002499999999998,24.666,-27.636666666666663,28.4025,0.0,1781.842,-0.3000000000000007,100.0,27.887,28.076,42.875,43.331,0.0,0.0,100.0,0.0,0.0,0.0,0.0,3195.8333333333335,3060.4,4072.4285714285716,3995.4,305.2885,305.01325,315.03933333333333,314.96325,21.9751,20.6245,21.971899999999998,21.4877,314.999998,314.999998,324.999988,324.999988,99.55904285714286,99.50743333333334,99.56742857142856,99.54767142857143,0.09850000000000003,-0.03300000000000003,-0.09083333333333332,0.13916666666666666,-0.061666666666667425,-0.045000000000001705,1.5785,1.5655000000000001,38.344,29.903,38.324,35.298,55.989000000000004,35.291,59.634,52.688,53.92,34.405,58.2155,51.0085,53.073,33.9415,58.1195,50.41466666666666,-0.10466666666666669,-0.0535000000000001,0.099955,0.11566000000000001,0.0,214.32,214.3,211.19666666666666,211.19666666666666,0.0,0.0
22,0.0,0.0,0.0,1.0,1.0,0.0,0.0,1.0,0.0,100.0,1.0,1.1856,26.0,0.0,0.0,0.0,68.000001,0.0,26.0,26.0,26.0,26.0,0.017625000000000002,0.27259999999999995,-0.009850000000000001,292.313,-2.7813,-2.708125,-1.6074000000000002,-1.52075,-201.86,215.5925,190.5285,0.0,0.0,0.0,0.0,0.044500000000000005,-5.498166666666667,-5.498166666666667,-0.5575,0.07766666666666668,0.018124999999999947,1.038,68.58500000000001,0.0129,-0.201825,-0.274,100.0,1.0,1.0,211.45,0.0,0.0,0.0,0.0,0.0,0.0,0.0,8962.6,0.0,55.0,5.0,246.87666666666667,0.0,0.0,0.0,0.0,0.0,0.0,0.0,0.0,1.1039999999999992,1.1039999999999992,0.0,0.0,0.0,55.0,616.79921,10000.0,85.000001,85.000001,85.000001,85.000001,395.0,0.0,0.0,0.0,1.0,333.33500000000004,52.689,52.689,47.165,47.165,34.0,-22.3125,25.276,-29.743333333333332,31.295,0.0,1781.79,-0.41499999999999915,100.0,28.069,27.993000000000002,43.144999999999996,43.326,0.0,0.0,100.0,0.0,0.0,0.0,0.0,2943.5,3097.3,4220.714285714285,4393.1,305.951,304.96125,314.57666666666665,314.0725,21.9845,20.6301,21.9824,21.4968,314.999998,314.999998,324.999988,324.999988,99.55905714285714,99.50743333333334,99.56757142857143,99.54781428571428,0.09975,-0.03649999999999998,-0.09933333333333338,0.12850000000000006,-0.030000000000001137,-0.04999999999999716,1.4994999999999998,1.4855,38.403,29.938000000000002,38.39,35.355000000000004,55.977000000000004,35.329499999999996,59.673,52.75,53.908,34.4405,58.2515,51.068,53.06,33.9755,58.153,50.473333333333336,-0.10699999999999998,-0.05149999999999988,0.11398000000000001,0.101485,0.0,214.72500000000002,214.735,211.45,211.45,0.0,0.0
23,0.0,0.0,0.0,1.0,1.0,0.0,0.0,1.0,0.0,100.0,1.0,1.1856,26.0,0.0,0.0,0.0,68.000001,0.0,26.0,26.0,26.0,26.0,0.037250000000000005,0.2651000000000001,-0.0699,292.191,-2.6889000000000003,-2.6555,-1.6583,-1.5,-198.36,215.5775,190.505125,0.0,0.0,0.0,0.0,0.046533333333333336,-5.498166666666667,-5.498166666666667,-0.5740000000000001,-0.21366666666666667,0.011624999999999996,-0.666,68.719,0.0145,-0.22592500000000001,-0.17799999999999905,100.0,1.0,1.0,211.95333333333332,0.0,0.0,0.0,0.0,0.0,0.0,0.0,8983.9,0.0,55.0,5.0,247.36333333333334,1.0,0.0,0.0,0.0,0.0,0.0,0.0,0.0,1.1550000000000011,1.1550000000000011,0.0,0.0,1.0,55.0,616.79921,10000.0,85.000001,85.000001,85.000001,85.000001,395.0,0.0,0.0,0.0,1.0,166.665,51.894999999999996,51.894999999999996,47.882,47.882,34.0,-24.72,25.21,-28.903333333333336,28.7275,0.0,1781.739,-0.384999999999998,100.0,28.115,28.262999999999998,43.187,43.626,0.0,0.0,100.0,0.0,0.0,0.0,0.0,3340.0,3091.4,4104.714285714285,4076.0,304.89,304.86075,314.97833333333335,314.78,21.994,20.6358,21.9928,21.5061,314.999998,314.999998,324.999988,324.999988,99.55907142857143,99.50745,99.56771428571429,99.54797142857143,0.10125000000000006,-0.02949999999999997,-0.09616666666666662,0.1393333333333333,-0.04999999999999716,-0.05333333333332746,1.5505,1.5379999999999998,38.463,29.9735,38.455,35.413,55.965,35.368,59.710499999999996,52.8125,53.897,34.4765,58.287,51.128,53.048,34.01,58.185,50.531666666666666,-0.10999999999999988,-0.04999999999999982,0.10401,0.11209000000000001,0.0,215.135,215.125,211.95333333333332,211.95333333333332,0.0,0.0
24,0.0,0.0,0.0,1.0,1.0,0.0,0.0,1.0,0.0,100.0,1.0,1.1856,26.0,0.0,0.0,0.0,68.000001,0.0,26.0,26.0,26.0,26.0,0.030625000000000124,0.27970000000000006,-0.0241,292.419,-2.715,-2.6641250000000003,-1.578,-1.52725,-195.06,215.5625,190.4825,0.0,0.0,0.0,0.0,0.04846666666666667,-5.498166666666667,-5.498166666666667,-0.5822,-0.34900000000000003,0.021874999999999867,-0.23500000000000001,68.84700000000001,0.017400000000000002,-0.21960000000000002,-0.25200000000000067,100.0,1.0,1.0,212.28,0.0,0.0,0.0,0.0,0.0,0.0,0.0,8997.8,0.0,55.0,5.0,247.82,0.0,0.0,0.0,0.0,0.0,0.0,0.0,0.0,1.2029999999999994,1.2029999999999994,0.0,0.0,0.0,55.0,616.79921,10000.0,85.000001,85.000001,85.000001,85.000001,395.0,0.0,0.0,0.0,1.0,333.33500000000004,52.795,52.795,47.318,47.318,34.0,-22.28,23.878,-29.839999999999996,29.387500000000003,0.0,1781.69,-0.384999999999998,100.0,27.912,28.021,43.133,43.585,0.0,0.0,100.0,0.0,0.0,0.0,0.0,3031.5,2985.1,4277.142857142857,4155.5,305.7395,305.23425,314.48466666666667,314.5605,22.0028,20.641,22.0026,21.5147,314.999998,314.999998,324.999988,324.999988,99.55908571428571,99.50745,99.56785714285714,99.5481,0.10375000000000001,-0.038000000000000034,-0.10216666666666663,0.12850000000000006,-0.03833333333332689,-0.03499999999999659,1.5135,1.5105,38.518,30.006,38.516,35.467,55.953,35.403,59.746,52.8695,53.885,34.5085,58.3195,51.1835,53.035,34.041,58.2145,50.586,-0.10899999999999999,-0.04800000000000004,0.10555500000000001,0.110085,0.0,215.51999999999998,215.54500000000002,212.28,212.28,0.0,0.0
25,0.0,0.0,0.0,1.0,1.0,0.0,0.0,1.0,0.0,100.0,1.0,1.1856,26.0,0.0,0.0,0.0,68.000001,0.0,26.0,26.0,26.0,26.0,0.01924999999999999,0.2559,-0.027,292.313,-2.7559,-2.6254999999999997,-1.59695,-1.5295,-191.54,215.55,190.45725,0.0,0.0,0.0,0.0,0.0505,-5.498166666666667,-5.498166666666667,-0.6046,-0.039,0.030874999999999986,0.243,68.98,0.0181,-0.22115,-0.33399999999999963,100.0,1.0,1.0,212.7733333333333,0.0,0.0,0.0,0.0,0.0,0.0,0.0,9018.7,0.0,55.0,5.0,248.3,1.0,0.0,0.0,0.0,0.0,0.0,0.0,0.0,1.2540000000000013,1.2540000000000013,0.0,0.0,1.0,55.0,616.79921,10000.0,85.000001,85.000001,85.000001,85.000001,395.0,0.0,0.0,0.0,1.0,166.665,51.956,51.956,47.897,47.897,34.0,-24.3725,27.418,-26.769999999999996,30.08,0.0,1781.64,-0.41499999999999915,100.0,27.937,28.064,43.016,43.294,0.0,0.0,100.0,0.0,0.0,0.0,0.0,3200.8333333333335,3351.3,3956.142857142857,4156.2,305.18,304.2645,315.2393333333333,314.628,22.0121,20.6466,22.0129,21.5238,314.999998,314.999998,324.999988,324.999988,99.5591,99.50745,99.568,99.54824285714285,0.10024999999999995,-0.022749999999999937,-0.09233333333333338,0.14650000000000007,-0.030000000000001137,-0.05333333333332746,1.5564999999999998,1.553,38.576,30.0415,38.581,35.524,55.94,35.4415,59.781,52.9295,53.872,34.5445,58.352000000000004,51.241,53.021,34.075,58.244,50.64233333333333,-0.10899999999999999,-0.047499999999999876,0.11023500000000001,0.10861000000000001,0.0,215.91500000000002,215.95,212.7733333333333,212.7733333333333,0.0,0.0
26,0.0,0.0,0.0,1.0,1.0,0.0,0.0,1.0,0.0,100.0,1.0,1.1856,26.0,0.0,0.0,0.0,68.000001,0.0,26.0,26.0,26.0,26.0,0.04312500000000008,0.2801,0.06085,291.336,-2.6885,-2.7182500000000003,-1.6205500000000002,-1.52,-188.01999999999998,215.535,190.431625,0.0,0.0,0.0,0.0,0.052566666666666664,-5.498166666666667,-5.498166666666667,-0.5743,0.545,0.013749999999999929,-0.778,69.116,0.021400000000000002,-0.2011,-0.3179999999999996,100.0,1.0,1.0,212.96666666666667,0.0,0.0,0.0,0.0,0.0,0.0,0.0,9026.8,0.0,55.0,5.0,248.78666666666666,0.0,0.0,0.0,0.0,0.0,0.0,0.0,0.0,1.3049999999999997,1.3049999999999997,0.0,0.0,0.0,55.0,616.79921,10000.0,85.000001,85.000001,85.000001,85.000001,395.0,0.0,0.0,0.0,1.0,166.665,51.62,51.62,46.463,46.463,34.0,-23.557499999999997,25.034,-32.14666666666666,32.7275,0.0,1781.591,-0.41999999999999815,100.0,28.62,28.803,43.348,43.803,0.0,0.0,100.0,0.0,0.0,0.0,0.0,3231.0,3041.8,4569.142857142857,4475.4,305.1415,304.9285,313.85966666666667,313.7685,22.0217,20.6524,22.0234,21.5331,314.999998,314.999998,324.999988,324.999988,99.55911428571429,99.50746666666667,99.56815714285715,99.5484,0.10850000000000004,-0.038250000000000006,-0.08433333333333337,0.13450000000000006,-0.041666666666671404,-0.046666666666666856,1.4495,1.4405000000000001,38.635,30.0775,38.646,35.5815,55.931,35.482,59.820499999999996,52.9925,53.863,34.5815,58.388999999999996,51.3015,53.010999999999996,34.111000000000004,58.2775,50.70166666666667,-0.11233333333333317,-0.051000000000000156,0.09938000000000001,0.11281000000000001,0.0,216.38,216.4,212.96666666666667,212.96666666666667,0.0,0.0
27,0.0,0.0,0.0,1.0,1.0,0.0,0.0,1.0,0.0,100.0,1.0,1.1856,26.0,0.0,0.0,0.0,68.000001,0.0,26.0,26.0,26.0,26.0,0.050000000000000044,0.24730000000000008,-0.02835,291.794,-2.7126,-2.652875,-1.59155,-1.608875,-184.7,215.525,190.4085,0.0,0.0,0.0,0.0,0.0545,-5.498166666666667,-5.498166666666667,-0.597,-0.9136666666666666,0.023249999999999993,-0.708,69.24000000000001,0.0212,-0.2373,-0.3179999999999996,100.0,1.0,1.0,213.46333333333334,0.0,0.0,0.0,0.0,0.0,0.0,0.0,9047.9,0.0,55.0,5.0,249.23666666666668,1.0,0.0,0.0,0.0,0.0,0.0,0.0,0.0,1.352999999999998,1.352999999999998,0.0,0.0,1.0,55.0,616.79921,10000.0,85.000001,85.000001,85.000001,85.000001,395.0,0.0,0.0,0.0,1.0,333.33500000000004,51.987,51.987,46.677,46.677,34.0,-22.487499999999997,25.482,-28.633333333333333,30.3675,0.0,1781.54,-0.4499999999999993,100.0,28.262,28.682000000000002,43.893,44.318,0.0,0.0,100.0,0.0,0.0,0.0,0.0,3083.3333333333335,3123.5,4140.142857142857,4065.4,305.6095,304.76875,314.81333333333333,314.677,22.0304,20.6578,22.0333,21.5419,314.999998,314.999998,324.999988,324.999988,99.55912857142857,99.50746666666667,99.5683,99.54854285714286,0.10875000000000012,-0.02949999999999997,-0.09599999999999997,0.13616666666666677,-0.046666666666666856,-0.03333333333333144,1.501,1.487,38.69,30.111,38.708,35.637,55.918,35.519999999999996,59.8595,53.0555,53.851,34.617,58.4255,51.362,52.998000000000005,34.144999999999996,58.311,50.760666666666665,-0.1166666666666667,-0.044500000000000206,0.107715,0.10953500000000001,0.0,216.72,216.72500000000002,213.46333333333334,213.46333333333334,0.0,0.0
28,0.0,0.0,0.0,1.0,1.0,0.0,0.0,1.0,0.0,100.0,1.0,1.1856,26.0,0.0,0.0,0.0,68.000001,0.0,26.0,26.0,26.0,26.0,0.053625000000000034,0.26060000000000016,-0.056150000000000005,291.977,-2.6919,-2.6477500000000003,-1.6323,-1.562,-180.95999999999998,215.5125,190.381625,0.0,0.0,0.0,0.0,0.056666666666666664,-5.498166666666667,-5.498166666666667,-0.6007,0.6036666666666667,0.008999999999999897,-0.8250000000000001,69.377,0.023,-0.214875,-0.387999999999999,100.0,1.0,1.0,213.98666666666668,0.0,0.0,0.0,0.0,0.0,0.0,0.0,9070.1,0.0,55.0,5.0,249.73000000000002,0.0,0.0,0.0,0.0,0.0,0.0,0.0,0.0,1.407,1.407,0.0,0.0,0.0,55.0,616.79921,10000.0,85.000001,85.000001,85.000001,85.000001,395.0,0.0,0.0,0.0,1.0,166.665,51.91,51.91,47.363,47.363,34.0,-22.372500000000002,25.656,-28.58,29.955,0.0,1781.488,-0.504999999999999,100.0,28.369,28.613,43.288,43.854,0.0,0.0,100.0,0.0,0.0,0.0,0.0,3140.3333333333335,3102.4,4168.285714285715,4128.0,305.3715,304.8205,314.893,314.68025,22.0403,20.663899999999998,22.0442,21.5515,314.999998,314.999998,324.999988,324.999988,99.55914285714286,99.50748333333334,99.56844285714286,99.5487,0.11975000000000002,-0.020000000000000018,-0.08816666666666662,0.13749999999999996,-0.046666666666666856,-0.046666666666666856,1.56,1.5314999999999999,38.751999999999995,30.149,38.775999999999996,35.697,55.907,35.559,59.893,53.114,53.841,34.653,58.4565,51.4185,52.986999999999995,34.1795,58.339,50.816,-0.123,-0.0405000000000002,0.10639000000000001,0.100695,0.0,217.2,217.2,213.98666666666668,213.98666666666668,0.0,0.0
29,0.0,0.0,0.0,1.0,1.0,0.0,0.0,1.0,0.0,100.0,1.0,1.1856,26.0,0.0,0.0,0.0,68.000001,0.0,26.0,26.0,26.0,26.0,0.058375000000000066,0.2659,-0.0173,291.855,-2.6673,-2.7102500000000003,-1.57765,-1.541375,-177.42000000000002,215.5025,190.35525,0.0,0.0,0.0,0.0,0.05873333333333334,-5.498166666666667,-5.498166666666667,-0.6054,-0.7063333333333334,0.009874999999999856,0.8240000000000001,69.512,0.030000000000000002,-0.215125,-0.5360000000000005,100.0,1.0,1.0,214.24,0.0,0.0,0.0,0.0,0.0,0.0,0.0,9080.8,0.0,55.0,5.0,250.21666666666667,1.0,0.0,0.0,0.0,0.0,0.0,0.0,0.0,1.4579999999999984,1.4579999999999984,0.0,0.0,1.0,55.0,616.79921,10000.0,85.000001,85.000001,85.000001,85.000001,395.0,0.0,0.0,0.0,1.0,166.665,52.292,52.292,46.86,46.86,34.0,-20.935000000000002,26.52,-26.943333333333335,32.3825,0.0,1781.436,-0.4800000000000004,100.0,28.218,28.275,43.778999999999996,44.042,0.0,0.0,100.0,0.0,0.0,0.0,0.0,3004.3333333333335,3139.6,4118.571428571428,4324.9,305.6995,304.861,314.769,314.18775,22.0495,20.6695,22.0547,21.5608,314.999998,314.999998,324.999988,324.999988,99.55915714285715,99.50748333333334,99.5686,99.54884285714286,0.12400000000000011,-0.01649999999999996,-0.0675,0.15116666666666667,-0.04833333333333201,-0.03333333333333144,1.4935,1.4819999999999998,38.809,30.1845,38.842,35.754999999999995,55.894,35.5965,59.9325,53.1765,53.828,34.6875,58.4935,51.4785,52.973,34.2125,58.3725,50.87466666666667,-0.1146666666666667,-0.04200000000000026,0.10774,0.10806,0.0,217.565,217.57999999999998,214.24,214.24,0.0,0.0
30,0.0,0.0,0.0,1.0,1.0,0.0,0.0,1.0,0.0,100.0,1.0,1.1856,26.0,0.0,0.0,0.0,68.000001,0.0,26.0,26.0,26.0,26.0,0.07562500000000005,0.24350000000000005,0.009600000000000001,291.214,-2.6941,-2.5867500000000003,-1.5580500000000002,-1.591375,-174.29,215.4925,190.331875,0.0,0.0,0.0,0.0,0.06053333333333334,-5.498166666666667,-5.498166666666667,-0.6078,0.726,0.011249999999999982,-0.453,69.625,0.031,-0.22055000000000002,-0.41999999999999993,100.0,1.0,1.0,214.7,0.0,0.0,0.0,0.0,0.0,0.0,0.0,9100.4,0.0,55.0,5.0,250.62333333333333,0.0,0.0,0.0,0.0,0.0,0.0,1.0,0.0,1.5030000000000001,1.5030000000000001,0.0,0.0,0.0,55.0,616.79921,10000.0,85.000001,85.000001,85.000001,85.000001,395.0,0.0,0.0,0.0,1.0,333.33500000000004,50.537,50.537,47.272,47.272,34.0,-24.5475,27.234,-26.490000000000002,31.064999999999998,0.0,1781.39,-0.47499999999999787,100.0,28.93,29.172,43.449,44.105000000000004,0.0,0.0,100.0,0.0,0.0,0.0,0.0,3382.666666666667,3317.8,4084.1428571428573,4117.9,304.5785,304.028,315.0036666666667,314.593,22.0579,20.6748,22.0638,21.569,314.999998,314.999998,324.999988,324.999988,99.55917142857143,99.50748333333334,99.56872857142857,99.54898571428572,0.11925000000000008,-0.021749999999999936,-0.07566666666666666,0.14683333333333337,-0.054999999999999716,-0.05666666666667197,1.5284999999999997,1.4994999999999998,38.861999999999995,30.2175,38.899,35.806,55.887,35.632999999999996,59.963499999999996,53.230000000000004,53.821,34.721000000000004,58.522,51.53,52.965,34.245,58.3985,50.925,-0.1213333333333333,-0.04349999999999987,0.10225000000000001,0.11131,0.0,217.94,217.985,214.7,214.7,0.0,0.0
31,0.0,0.0,0.0,1.0,1.0,0.0,0.0,1.0,0.0,100.0,1.0,1.1856,26.0,0.0,0.0,0.0,68.000001,0.0,26.0,26.0,26.0,26.0,0.034375000000000044,0.25960000000000005,0.0519,290.802,-2.7753,-2.621625,-1.64935,-1.491125,-170.73000000000002,215.485,190.306,0.0,0.0,0.0,0.0,0.0626,-5.498166666666667,-5.498166666666667,-0.5880000000000001,-0.396,0.020750000000000046,0.715,69.758,0.0308,-0.219975,-0.45399999999999974,100.0,1.0,1.0,214.90666666666667,0.0,0.0,0.0,0.0,0.0,0.0,0.0,9109.1,0.0,55.0,5.0,251.10333333333335,1.0,0.0,0.0,0.0,0.0,0.0,1.0,0.0,1.5539999999999985,1.5539999999999985,0.0,0.0,1.0,55.0,616.79921,10000.0,85.000001,85.000001,85.000001,85.000001,395.0,0.0,0.0,0.0,1.0,333.33500000000004,51.163,51.163,45.609,45.609,34.0,-22.465,27.786,-30.060000000000002,33.34,0.0,1781.339,-0.5350000000000001,100.0,28.944,29.133,44.304,44.778,0.0,0.0,100.0,0.0,0.0,0.0,0.0,3102.5,3366.8,4327.857142857143,4430.7,305.4685,304.29275,314.25166666666667,313.8705,22.0673,20.6807,22.0744,21.5784,314.999998,314.999998,324.999988,324.999988,99.55918571428572,99.50748333333334,99.56887142857143,99.54912857142857,0.1292500000000001,-0.015499999999999958,-0.06999999999999995,0.15716666666666668,-0.03833333333332689,-0.061666666666667425,1.4445000000000001,1.4175,38.92,30.253999999999998,38.965,35.8655,55.876999999999995,35.6725,60.004,53.295,53.811,34.757999999999996,58.56,51.5925,52.954,34.28,58.4325,50.986333333333334,-0.12366666666666681,-0.04600000000000026,0.10402000000000002,0.11708,0.0,218.34,218.37,214.90666666666667,214.90666666666667,0.0,0.0
32,0.0,0.0,0.0,1.0,1.0,0.0,0.0,1.0,0.0,100.0,1.0,1.1856,26.0,0.0,0.0,0.0,68.000001,0.0,26.0,26.0,26.0,26.0,0.0625,0.26239999999999997,-0.0268,291.321,-2.7015000000000002,-2.6790000000000003,-1.5905,-1.616875,-166.95999999999998,215.47750000000002,190.279,0.0,0.0,0.0,0.0,0.0648,-5.498166666666667,-5.498166666666667,-0.607,-0.22933333333333336,0.0003750000000000142,0.337,69.893,0.0342,-0.23275,-0.5720000000000001,100.0,1.0,1.0,215.46333333333334,0.0,0.0,0.0,0.0,0.0,0.0,0.0,9132.7,0.0,55.0,5.0,251.59,0.0,0.0,0.0,0.0,0.0,0.0,1.0,0.0,1.6080000000000005,1.6080000000000005,0.0,0.0,0.0,55.0,616.79921,10000.0,85.000001,85.000001,85.000001,85.000001,395.0,0.0,0.0,0.0,1.0,166.665,51.528999999999996,51.528999999999996,46.631,46.631,34.0,-21.2575,26.976,-26.799999999999997,33.88,0.0,1781.287,-0.48999999999999844,100.0,28.826999999999998,29.008,44.093,44.58,0.0,0.0,100.0,0.0,0.0,0.0,0.0,3052.3333333333335,3195.4,4089.8571428571427,4309.3,305.5235,304.71375,314.88166666666666,314.19425,22.0771,20.686799999999998,22.0854,21.5883,314.999998,314.999998,324.999988,324.999988,99.5592,99.5075,99.56902857142857,99.5493,0.13400000000000012,-0.011499999999999955,-0.06766666666666665,0.16066666666666674,-0.04833333333333201,-0.06333333333333258,1.5099999999999998,1.4889999999999999,38.982,30.2925,39.034,35.9265,55.864999999999995,35.714,60.042,53.359,53.801,34.796,58.595,51.6545,52.942,34.317,58.4645,51.04633333333334,-0.12433333333333318,-0.04499999999999993,0.10661000000000001,0.106685,0.0,218.755,218.79000000000002,215.46333333333334,215.46333333333334,0.0,0.0
33,0.0,0.0,0.0,1.0,1.0,0.0,0.0,1.0,0.0,100.0,1.0,1.1856,26.0,0.0,0.0,0.0,68.000001,0.0,26.0,26.0,26.0,26.0,0.06137499999999996,0.24040000000000017,-0.0524,291.595,-2.7353,-2.66725,-1.5972,-1.581625,-163.81,215.475,190.2555,0.0,0.0,0.0,0.0,0.06663333333333334,-5.498166666666667,-5.498166666666667,-0.6156,-0.23666666666666666,-0.0036249999999999893,-0.243,70.006,0.0376,-0.217925,-0.46200000000000063,100.0,1.0,1.0,215.83333333333331,0.0,0.0,0.0,0.0,0.0,0.0,0.0,9148.4,0.0,55.0,5.0,251.99666666666667,1.0,0.0,0.0,0.0,0.0,0.0,1.0,0.0,1.6529999999999987,1.6529999999999987,0.0,0.0,1.0,55.0,616.79921,10000.0,85.000001,85.000001,85.000001,85.000001,395.0,0.0,0.0,0.0,1.0,166.665,51.819,51.819,46.86,46.86,34.0,-22.475,25.14,-28.053333333333335,31.78,0.0,1781.242,-0.48999999999999844,100.0,28.565,28.93,43.857,44.47,0.0,0.0,100.0,0.0,0.0,0.0,0.0,3145.8333333333335,3044.8,4152.571428571428,4178.4,305.4855,305.02775,314.8283333333333,314.538,22.0853,20.6918,22.0946,21.5964,314.999998,314.999998,324.999988,324.999988,99.55922857142858,99.5075,99.56915714285714,99.54942857142858,0.125,-0.02300000000000002,-0.08350000000000002,0.15500000000000003,-0.036666666666668846,-0.03833333333332689,1.5219999999999998,1.4994999999999998,39.033,30.323999999999998,39.091,35.9775,55.855999999999995,35.7465,60.073499999999996,53.411500000000004,53.791,34.826499999999996,58.6245,51.705,52.931,34.3455,58.491,51.095666666666666,-0.12166666666666681,-0.04200000000000026,0.108895,0.11257,0.0,219.10000000000002,219.14,215.83333333333331,215.83333333333331,0.0,0.0
34,0.0,0.0,0.0,1.0,1.0,0.0,0.0,1.0,0.0,100.0,1.0,1.1856,26.0,0.0,0.0,0.0,68.000001,0.0,26.0,26.0,26.0,26.0,0.04787500000000011,0.25439999999999996,-0.07215,291.763,-2.6715,-2.6654999999999998,-1.63285,-1.563,-160.24,215.47,190.2275,0.0,0.0,0.0,0.0,0.0687,-5.498166666666667,-5.498166666666667,-0.6416000000000001,-0.8146666666666667,0.02224999999999988,0.9550000000000001,70.136,0.042100000000000005,-0.222,-0.5120000000000005,100.0,1.0,1.0,216.18333333333334,0.0,0.0,0.0,0.0,0.0,0.0,0.0,9163.3,0.0,55.0,5.0,252.46333333333334,0.0,0.0,0.0,0.0,0.0,0.0,1.0,0.0,1.7040000000000006,1.7040000000000006,0.0,0.0,0.0,55.0,616.79921,10000.0,85.000001,85.000001,85.000001,85.000001,395.0,0.0,0.0,0.0,1.0,166.665,52.2,52.2,47.073,47.073,34.0,-20.685000000000002,25.392,-27.14333333333333,32.3975,0.0,1781.191,-0.4549999999999983,100.0,28.469,28.57,43.835,44.480000000000004,0.0,0.0,100.0,0.0,0.0,0.0,0.0,2983.0,3051.8,4092.0,4245.2,305.785,305.09975,314.9433333333333,314.39475,22.0944,20.6975,22.1049,21.6057,314.999998,314.999998,324.999988,324.999988,99.55924285714286,99.5075,99.5693,99.54957142857143,0.12674999999999992,-0.01574999999999993,-0.06566666666666665,0.16066666666666674,-0.02499999999999858,-0.07166666666666544,1.5314999999999999,1.5015,39.09,30.359,39.156,36.0355,55.844,35.7825,60.1085,53.473,53.78,34.8595,58.657,51.763999999999996,52.919,34.3775,58.519999999999996,51.153666666666666,-0.11533333333333329,-0.05049999999999999,0.10438000000000001,0.10468000000000001,0.0,219.47500000000002,219.54000000000002,216.18333333333334,216.18333333333334,0.0,0.0
35,0.0,0.0,0.0,1.0,1.0,0.0,0.0,1.0,0.0,100.0,1.0,1.1856,26.0,0.0,0.0,0.0,68.000001,0.0,26.0,26.0,26.0,26.0,0.07387499999999991,0.24460000000000015,-0.04485,291.687,-2.7385,-2.60175,-1.5506,-1.57175,-156.66,215.4675,190.197625,0.0,0.0,0.0,0.0,0.0708,-5.498166666666667,-5.498166666666667,-0.6806,-0.19166666666666665,0.006124999999999936,-1.284,70.262,0.0434,-0.229975,-0.4579999999999993,100.0,1.0,1.0,216.66,0.0,0.0,0.0,0.0,0.0,0.0,0.0,9183.4,0.0,55.0,5.0,252.92000000000002,1.0,0.0,0.0,0.0,0.0,0.0,1.0,0.0,1.754999999999999,1.754999999999999,0.0,0.0,1.0,55.0,616.79921,10000.0,85.000001,85.000001,85.000001,85.000001,395.0,0.0,0.0,0.0,1.0,166.665,51.559,51.559,46.722,46.722,34.0,-22.89,27.494,-26.446666666666665,30.127499999999998,0.0,1781.14,-0.3099999999999987,100.0,28.192,29.007,43.545,44.105000000000004,0.0,0.0,100.0,0.0,0.0,0.0,0.0,3153.1666666666665,3326.8,4120.0,4048.2,305.443,304.159,314.96633333333335,314.9345,22.1035,20.7033,22.115099999999998,21.6148,314.999998,314.999998,324.999988,324.999988,99.55925714285715,99.5075,99.56945714285715,99.54972857142857,0.11875000000000013,-0.017000000000000015,-0.07399999999999995,0.15366666666666684,-0.05333333333332746,-0.04333333333332945,1.557,1.5364999999999998,39.147,30.396,39.22,36.0925,55.83,35.8215,60.1425,53.5305,53.766999999999996,34.896,58.6885,51.8195,52.905,34.4125,58.5485,51.208,-0.10666666666666669,-0.05500000000000016,0.11031500000000001,0.10315,0.0,219.89499999999998,219.91,216.66,216.66,0.0,0.0
36,0.0,0.0,0.0,1.0,1.0,0.0,0.0,1.0,0.0,100.0,1.0,1.1856,26.0,0.0,0.0,0.0,68.000001,0.0,26.0,26.0,26.0,26.0,0.04512500000000008,0.25639999999999996,0.013600000000000001,291.046,-2.6575,-2.703125,-1.65365,-1.5485,-153.28,215.4675,190.16825,0.0,0.0,0.0,0.0,0.07276666666666666,-5.498166666666667,-5.498166666666667,-0.6634,0.27466666666666667,-0.03774999999999995,-1.329,70.384,0.0393,-0.205075,-0.20999999999999996,100.0,1.0,1.0,216.84333333333333,0.0,0.0,0.0,0.0,0.0,0.0,0.0,9191.3,0.0,55.0,5.0,253.35666666666668,0.0,0.0,0.0,0.0,0.0,0.0,1.0,0.0,1.8030000000000008,1.8030000000000008,0.0,0.0,0.0,55.0,616.79921,10000.0,85.000001,85.000001,85.000001,85.000001,395.0,0.0,0.0,0.0,1.0,333.33500000000004,51.422,51.422,46.463,46.463,34.0,-22.2175,25.753999999999998,-31.203333333333333,33.4875,0.0,1781.091,-0.26500000000000057,100.0,28.784,29.032,43.653999999999996,44.336,0.0,0.0,100.0,0.0,0.0,0.0,0.0,3155.3333333333335,3078.7,4426.571428571428,4437.1,305.209,304.79425,314.21633333333335,313.894,22.1122,20.7089,22.1249,21.6236,314.999998,314.999998,324.999988,324.999988,99.55927142857144,99.5075,99.5696,99.54987142857142,0.12274999999999991,-0.028000000000000025,-0.07916666666666661,0.14566666666666683,-0.04999999999999716,-0.03499999999999659,1.4489999999999998,1.44,39.201,30.430500000000002,39.281,36.1475,55.821,35.8585,60.177,53.588499999999996,53.757,34.9305,58.721000000000004,51.8755,52.894,34.445499999999996,58.578,51.26266666666667,-0.10266666666666668,-0.06050000000000022,0.11181,0.105425,0.0,220.3,220.315,216.84333333333333,216.84333333333333,0.0,0.0
