,ABS Active,ABS Enabled,AID Allow Tire Blankets,AID Auto Blip,AID Auto Clutch,AID Auto Shift,AID Fuel Rate,AID Ideal Line,AID Mech Damage,AID Stability,AID Tire Wear Rate,Air Density,Air Temp,Ballast,Best Lap Delta,Best Lap Time,Brake Bias,Brake Pos,Brake Temp FL,Brake Temp FR,Brake Temp RL,Brake Temp RR,CG Accel Lateral,CG Accel Longitudinal,CG Accel Vertical,CG Height,Camber FL,Camber FR,Camber RL,Camber RR,Car Coord X,Car Coord Y,Car Coord Z,Car Damage Front,Car Damage Left,Car Damage Rear,Car Damage Right,Car Pos Norm,Caster FL,Caster FR,Chassis Pitch Angle,Chassis Pitch Rate,Chassis Roll Angle,Chassis Roll Rate,Chassis Velocity X,Chassis Velocity Y,Chassis Velocity Z,Chassis Yaw Rate,Clutch Pos,DRS Active,DRS Available,Drive Train Speed,ERS Heat Charging,ERS Is Charging,ERS Max Energy,ERS Power Level,ERS Recovery Level,Engine Brake Setting,Engine Limiter,Engine RPM,Flags,Fuel Level,Gear,Ground Speed,HR Sample Clock,In Pit,KERS Charge,KERS Deployed Energy,KERS Input,KERS Max Energy,LR Sample Clock,Lap Invalidated,Lap Time,Lap Time2,Last Lap Time,Last Sector Time,MR Sample Clock,Max Fuel,Max Power,Max RPM,Max Sus Travel FL,Max Sus Travel FR,Max Sus Travel RL,Max Sus Travel RR,Max Torque,Max Turbo Boost,Num Tires Off Track,Penalties Enabled,Position,Raw Data Sample Rate,Ride Height FL,Ride Height FR,Ride Height RL,Ride Height RR,Road Temp,Self Align Torque FL,Self Align Torque FR,Self Align Torque RL,Self Align Torque RR,Session Lap Count,Session Time Left,Steering Angle,Surface Grip,Suspension Travel FL,Suspension Travel FR,Suspension Travel RL,Suspension Travel RR,TC Active,TC Enabled,Throttle Pos,Tire Dirt Level FL,Tire Dirt Level FR,Tire Dirt Level RL,Tire Dirt Level RR,Tire Load FL,Tire Load FR,Tire Load RL,Tire Load RR,Tire Loaded Radius FL,Tire Loaded Radius FR,Tire Loaded Radius RL,Tire Loaded Radius RR,Tire Pressure FL,Tire Pressure FR,Tire Pressure RL,Tire Pressure RR,Tire Radius FL,Tire Radius FR,Tire Radius RL,Tire Radius RR,Tire Rubber Grip FL,Tire Rubber Grip FR,Tire Rubber Grip RL,Tire Rubber Grip RR,Tire Slip Angle FL,Tire Slip Angle FR,Tire Slip Angle RL,Tire Slip Angle RR,Tire Slip Ratio FL,Tire Slip Ratio FR,Tire Slip Ratio RL,Tire Slip Ratio RR,Tire Temp Core FL,Tire Temp Core FR,Tire Temp Core RL,Tire Temp Core RR,Tire Temp Inner FL,Tire Temp Inner FR,Tire Temp Inner RL,Tire Temp Inner RR,Tire Temp Middle FL,Tire Temp Middle FR,Tire Temp Middle RL,Tire Temp Middle RR,Tire Temp Outer FL,Tire Temp Outer FR,Tire Temp Outer RL,Tire Temp Outer RR,Toe In FL,Toe In FR,Toe In RL,Toe In RR,Turbo Boost,Wheel Angular Speed FL,Wheel Angular Speed FR,Wheel Angular Speed RL,Wheel Angular Speed RR,Wind Direction,Wind Speed
0,0.0,0.0,0.0,1.0,1.0,0.0,0.0,1.0,0.0,100.0,1.0,1.1856,26.0,0.0,0.0,0.0,59.99999,0.0,26.0,26.0,26.0,26.0,-0.10133333333333339,0.30380000000000007,0.10926666666666668,292.48,-5.6842,-2.5158750000000003,-1.4965,-1.547125,-275.48,215.98000000000002,190.985125,0.0,0.0,0.0,0.0,0.0017000000000000001,-5.498166666666667,-5.498166666666667,-0.6068,2.754,-0.026499999999999968,-0.8440000000000001,65.35900000000001,-0.06699999999999995,-0.268725,1.1739999999999995,100.0,1.0,1.0,201.91,0.0,0.0,0.0,0.0,0.0,0.0,0.0,8558.2,0.0,55.0,5.0,235.26333333333332,0.0,0.0,0.0,0.0,0.0,0.0,0.0,0.0,0.006000000000000227,0.006000000000000227,0.0,0.0,0.0,55.0,616.79921,10000.0,85.0,85.0,85.0,85.0,395.0,0.0,0.0,0.0,1.0,20.0,49.057,49.057,49.393,49.393,34.0,-57.905,54.82666666666667,-31.316666666666663,22.0925,0.0,1783.683,-9.165,100.0,29.903,30.247,40.577,40.0,0.0,0.0,100.0,0.0,0.0,0.0,0.0,3341.4285714285716,3527.6,4082.8571428571427,3910.0,304.5745,303.3415,315.03866666666664,315.1625,21.805799999999998,20.5609,21.8845,21.3367,314.99999,314.99999,324.99998,324.99998,99.56012857142858,99.51133333333334,99.57304285714285,99.54711428571429,-0.268,0.64425,-0.19833333333333336,0.028166666666666673,-0.08166666666667055,-0.08500000000000085,1.5983333333333334,1.6375,37.286,29.505499999999998,37.778,34.3545,58.994,36.3405,61.662,52.3765,54.809,35.4165,60.275999999999996,50.749,51.8875,34.963,60.323,50.220333333333336,0.2103333333333337,0.6446666666666663,0.10292000000000001,0.10496000000000001,0.0,204.82999999999998,204.70499999999998,201.91,201.91,0.0,0.0
1,0.0,0.0,0.0,1.0,1.0,0.0,0.0,1.0,0.0,100.0,1.0,1.1856,26.0,0.0,0.0,0.0,59.999996,0.0,26.0,26.0,26.0,26.0,-0.19177777777777782,0.3078000000000001,0.12186666666666668,291.199,-5.6168,-2.86925,-1.5413999999999999,-1.419375,-272.14,216.0,190.964625,0.0,0.0,0.0,0.0,0.0036666666666666666,-5.498166666666667,-5.498166666666667,-0.5025000000000001,-0.44699999999999995,-0.08250000000000002,-1.521,65.512,-0.08379999999999999,-0.194975,1.92,100.0,1.0,1.0,201.91,0.0,0.0,0.0,0.0,0.0,0.0,0.0,8558.2,0.0,55.0,5.0,235.81333333333333,1.0,0.0,0.0,0.0,0.0,0.0,0.0,0.0,0.05699999999999861,0.05699999999999861,0.0,0.0,1.0,55.0,616.79921,10000.0,85.000001,85.000001,85.000001,85.000001,395.0,0.0,0.0,0.0,1.0,333.33500000000004,51.91,51.91,46.722,46.722,34.0,-51.43,37.858333333333334,-38.849999999999994,23.695,0.0,1783.631,-8.77,100.0,29.867,28.72,44.174,43.844,0.0,0.0,100.0,0.0,0.0,0.0,0.0,3027.714285714286,2565.1,4548.571428571428,4602.7,305.6495,306.75025,313.7866666666667,313.25375,21.8159,20.5664,21.896,21.3462,314.999998,314.999998,324.999988,324.999988,99.56017142857142,99.5114,99.5732,99.54725714285715,-0.2905,0.60875,-0.21716666666666662,-0.006166666666666654,-0.06499999999999773,-0.06666666666666998,1.3726666666666665,1.452,37.349000000000004,29.54,37.849999999999994,34.4135,58.992000000000004,36.4015,61.7005,52.442,54.806,35.4725,60.312,50.812,51.8835,35.016999999999996,60.356,50.282,0.2533333333333334,0.6099999999999999,0.10612,0.11252000000000001,0.0,205.28,205.125,201.91,201.91,0.0,0.0
2,0.0,0.0,0.0,1.0,1.0,0.0,0.0,1.0,0.0,100.0,1.0,1.1856,26.0,0.0,0.0,0.0,59.999996,0.0,26.0,26.0,26.0,26.0,-0.20944444444444443,0.29200000000000004,-0.045866666666666674,291.977,-5.5544,-2.870125,-1.4872,-1.69475,-268.8,216.015,190.945625,0.0,0.0,0.0,0.0,0.0056,-5.498166666666667,-5.498166666666667,-0.5545,0.044666666666666854,-0.08725000000000005,2.214,65.65,-0.11849999999999994,-0.258125,2.7859999999999996,100.0,1.0,1.0,202.82,0.0,0.0,0.0,0.0,0.0,0.0,0.0,8596.7,0.0,55.0,5.0,236.31333333333333,0.0,0.0,0.0,0.0,0.0,0.0,0.0,0.0,0.10800000000000054,0.10800000000000054,0.0,0.0,0.0,55.0,616.79921,10000.0,85.000001,85.000001,85.000001,85.000001,395.0,0.0,0.0,0.0,1.0,333.33500000000004,50.583,50.583,48.538,48.538,34.0,-60.442499999999995,43.96666666666667,-33.129999999999995,18.405,0.0,1783.58,-9.064999999999998,100.0,30.41,28.428,44.407,42.511,0.0,0.0,100.0,0.0,0.0,0.0,0.0,3449.285714285714,2908.0,3886.0,3658.4,304.252,305.6145,315.342,315.875,21.8263,20.5719,21.9072,21.3549,314.999998,314.999998,324.999988,324.999988,99.5602,99.51148333333333,99.57334285714286,99.5474,-0.30400000000000005,0.6042500000000001,-0.2756666666666666,-0.04749999999999999,-0.05833333333333002,-0.0899999999999963,1.6033333333333333,1.72,37.414,29.5745,37.92,34.4685,58.997,36.4625,61.7355,52.493,54.81,35.5285,60.3445,50.8605,51.8855,35.07,60.385,50.329,0.23666666666666636,0.6256666666666666,0.09728500000000001,0.11460500000000001,0.0,205.7,205.465,202.82,202.82,0.0,0.0
3,0.0,0.0,0.0,1.0,1.0,0.0,0.0,1.0,0.0,100.0,1.0,1.1856,26.0,0.0,0.0,0.0,59.999996,0.0,26.0,26.0,26.0,26.0,-0.21744444444444444,0.30090000000000017,0.015633333333333336,291.901,-5.5911,-2.77775,-1.4871,-1.632625,-265.64,216.025,190.927375,0.0,0.0,0.0,0.0,0.0074333333333333335,-5.498166666666667,-5.498166666666667,-0.5239,0.32233333333333336,-0.053999999999999826,-0.6060000000000001,65.788,-0.15449999999999997,-0.22412500000000002,2.0600000000000005,100.0,1.0,1.0,203.01,0.0,0.0,0.0,0.0,0.0,0.0,0.0,8604.8,0.0,55.0,5.0,236.81,1.0,0.0,0.0,0.0,0.0,0.0,0.0,0.0,0.1559999999999988,0.1559999999999988,0.0,0.0,1.0,55.0,616.79921,10000.0,85.000001,85.000001,85.000001,85.000001,395.0,0.0,0.0,0.0,1.0,166.665,51.468,51.468,47.073,47.073,34.0,-53.667500000000004,41.145,-38.65,19.935,0.0,1783.533,-9.175,100.0,29.89,28.693,44.169,42.356,0.0,0.0,100.0,0.0,0.0,0.0,0.0,3122.142857142857,2785.4,4292.0,4082.4,305.387,305.87975,314.40633333333335,314.7265,21.8359,20.5773,21.9176,21.3635,314.999998,314.999998,324.999988,324.999988,99.56024285714285,99.51153333333333,99.57348571428571,99.54754285714286,-0.31575,0.5835,-0.29033333333333333,-0.06366666666666665,-0.04999999999999716,-0.061666666666667425,1.4866666666666666,1.564,37.474000000000004,29.608,37.985,34.522,58.998000000000005,36.522999999999996,61.766999999999996,52.55,54.81,35.5835,60.3735,50.915,51.8845,35.1225,60.411500000000004,50.382333333333335,0.21166666666666645,0.6463333333333336,0.10817,0.10993000000000001,0.0,206.13,205.95499999999998,203.01,203.01,0.0,0.0
4,0.0,0.0,0.0,1.0,1.0,0.0,0.0,1.0,0.0,100.0,1.0,1.1856,26.0,0.0,0.0,0.0,59.999996,0.0,26.0,26.0,26.0,26.0,-0.2292222222222221,0.2633000000000001,-0.02783333333333333,292.358,-5.6135,-2.87975,-1.4158,-1.6456250000000001,-262.28,216.0325,190.908125,0.0,0.0,0.0,0.0,0.0094,-5.498166666666667,-5.498166666666667,-0.5473,-0.6963333333333332,-0.12037500000000012,-1.198,65.931,-0.15849999999999997,-0.245475,2.0779999999999994,100.0,1.0,1.0,203.51,0.0,0.0,0.0,0.0,0.0,0.0,0.0,8626.0,0.0,55.0,5.0,237.32333333333332,0.0,0.0,0.0,0.0,0.0,0.0,0.0,0.0,0.20700000000000074,0.20700000000000074,0.0,0.0,0.0,55.0,616.79921,10000.0,85.000001,85.000001,85.000001,85.000001,395.0,0.0,0.0,0.0,1.0,166.665,51.682,51.682,47.623,47.623,34.0,-57.71,40.776666666666664,-36.666666666666664,17.7875,0.0,1783.482,-9.079999999999998,100.0,29.558,28.131,44.344,42.066,0.0,0.0,100.0,0.0,0.0,0.0,0.0,3303.4285714285716,2757.3,4239.0,3715.2,304.861,306.02425,314.5643333333333,315.58725,21.8459,20.5828,21.9288,21.3725,314.999998,314.999998,324.999988,324.999988,99.56028571428571,99.5116,99.57362857142857,99.54767142857143,-0.3307499999999999,0.5715,-0.28800000000000003,-0.0645,-0.061666666666667425,-0.08166666666667055,1.542,1.6219999999999999,37.537,29.6425,38.055,34.578,58.998999999999995,36.5815,61.803,52.6065,54.811,35.6375,60.407,50.969,51.882999999999996,35.1735,60.4415,50.434666666666665,0.2250000000000001,0.6383333333333336,0.10272,0.107355,0.0,206.535,206.375,203.51,203.51,0.0,0.0
5,0.0,0.0,0.0,1.0,1.0,0.0,0.0,1.0,0.0,100.0,1.0,1.1856,26.0,0.0,0.0,0.0,59.999996,0.0,26.0,26.0,26.0,26.0,-0.23677777777777786,0.27960000000000007,-0.022266666666666667,292.511,-5.611,-2.86375,-1.4757,-1.6848750000000001,-258.92,216.03,190.888,0.0,0.0,0.0,0.0,0.011333333333333334,-5.498166666666667,-5.498166666666667,-0.5553,0.08233333333333337,-0.133,0.22199999999999998,66.07300000000001,-0.1674,-0.23667500000000002,2.1500000000000004,100.0,1.0,1.0,203.95666666666668,0.0,0.0,0.0,0.0,0.0,0.0,0.0,8645.0,0.0,55.0,5.0,237.83333333333331,1.0,0.0,0.0,0.0,0.0,0.0,0.0,0.0,0.2579999999999991,0.2579999999999991,0.0,0.0,1.0,55.0,616.79921,10000.0,85.000001,85.000001,85.000001,85.000001,395.0,0.0,0.0,0.0,1.0,166.665,51.682,51.682,48.37,48.37,34.0,-57.485,41.18333333333334,-37.54666666666667,18.5475,0.0,1783.431,-9.884999999999998,100.0,29.836,27.913,43.958,41.446,0.0,0.0,100.0,0.0,0.0,0.0,0.0,3310.5714285714284,2742.8,4174.571428571428,3920.1000000000004,304.791,306.10725,314.7386666666667,315.1355,21.8562,20.5883,21.9399,21.3814,314.999998,314.999998,324.999988,324.999988,99.56032857142857,99.51165,99.57377142857143,99.5478,-0.3045,0.60875,-0.3058333333333334,-0.08316666666666661,-0.04999999999999716,-0.086666666666666,1.5526666666666666,1.6139999999999999,37.601,29.676499999999997,38.125,34.6335,59.004000000000005,36.641,61.8375,52.661,54.814,35.6915,60.439,51.0205,51.8845,35.225,60.4705,50.485,0.18433333333333346,0.6936666666666667,0.105425,0.104645,0.0,207.0,206.82,203.95666666666668,203.95666666666668,0.0,0.0
6,0.0,0.0,0.0,1.0,1.0,0.0,0.0,1.0,0.0,100.0,1.0,1.1856,26.0,0.0,0.0,0.0,59.999996,0.0,26.0,26.0,26.0,26.0,-0.2208888888888889,0.2791000000000001,0.005,292.252,-5.5717,-2.902125,-1.5126,-1.63275,-255.74,216.025,190.8685,0.0,0.0,0.0,0.0,0.0132,-5.498166666666667,-5.498166666666667,-0.5505,0.1523333333333332,-0.12049999999999983,0.22099999999999997,66.207,-0.1681999999999999,-0.2313,1.6840000000000002,100.0,1.0,1.0,204.33666666666667,0.0,0.0,0.0,0.0,0.0,0.0,0.0,8661.0,0.0,55.0,5.0,238.31666666666666,0.0,0.0,0.0,0.0,0.0,0.0,0.0,0.0,0.30600000000000094,0.30600000000000094,0.0,0.0,0.0,55.0,616.79921,10000.0,85.000001,85.000001,85.000001,85.000001,395.0,0.0,0.0,0.0,1.0,166.665,51.453,51.453,47.943,47.943,34.0,-56.045,42.541666666666664,-38.58,18.8175,0.0,1783.384,-10.075,100.0,29.941,28.153,44.024,41.604,0.0,0.0,100.0,0.0,0.0,0.0,0.0,3261.714285714286,2788.0,4223.285714285715,3981.1000000000004,304.8905,305.885,314.60966666666667,314.991,21.8658,20.5935,21.9504,21.3899,314.999998,314.999998,324.999988,324.999988,99.56035714285714,99.51171666666667,99.57391428571428,99.54794285714286,-0.27949999999999986,0.61725,-0.29999999999999993,-0.0731666666666666,-0.07333333333333059,-0.06833333333332803,1.5043333333333333,1.5775000000000001,37.661,29.7095,38.19,34.687,59.006,36.6995,61.8705,52.715,54.816,35.745,60.4695,51.072,51.8845,35.2755,60.4985,50.535,0.15200000000000014,0.7156666666666665,0.1091,0.11243500000000001,0.0,207.42000000000002,207.26999999999998,204.33666666666667,204.33666666666667,0.0,0.0
7,0.0,0.0,0.0,1.0,1.0,0.0,0.0,1.0,0.0,100.0,1.0,1.1856,26.0,0.0,0.0,0.0,59.999996,0.0,26.0,26.0,26.0,26.0,-0.1734444444444444,0.27500000000000013,0.02676666666666667,291.931,-5.5424,-2.8918749999999998,-1.4786000000000001,-1.676375,-252.36,216.0125,190.848,0.0,0.0,0.0,0.0,0.015166666666666667,-5.498166666666667,-5.498166666666667,-0.5543,0.04400000000000004,-0.10287500000000005,0.546,66.348,-0.1529999999999999,-0.24402500000000002,1.1579999999999995,100.0,1.0,1.0,204.76333333333332,0.0,0.0,0.0,0.0,0.0,0.0,0.0,8679.1,0.0,55.0,5.0,238.82666666666665,1.0,0.0,0.0,0.0,0.0,0.0,0.0,0.0,0.3569999999999993,0.3569999999999993,0.0,0.0,1.0,55.0,616.79921,10000.0,85.000001,85.000001,85.000001,85.000001,395.0,0.0,0.0,0.0,1.0,166.665,50.934,50.934,47.974000000000004,47.974000000000004,34.0,-56.1275,45.42,-35.9,20.655,0.0,1783.332,-10.634999999999998,100.0,30.18,28.419,44.18,42.105000000000004,0.0,0.0,100.0,0.0,0.0,0.0,0.0,3313.142857142857,2882.9,4108.142857142857,3955.4,304.684,305.571,314.846,314.99875,21.876,20.5992,21.9616,21.399,314.999998,314.999998,324.999988,324.999988,99.5604,99.51178333333333,99.57405714285714,99.54808571428572,-0.2317499999999999,0.6695,-0.2798333333333334,-0.04749999999999999,-0.05833333333333002,-0.07166666666666544,1.5226666666666666,1.569,37.724999999999994,29.744500000000002,38.26,34.744,59.006,36.7645,61.9055,52.772999999999996,54.816,35.8045,60.501999999999995,51.1275,51.8825,35.332,60.5275,50.58866666666667,0.1070000000000002,0.7626666666666666,0.11674500000000002,0.107785,0.0,207.825,207.715,204.76333333333332,204.76333333333332,0.0,0.0
8,0.0,0.0,0.0,1.0,1.0,0.0,0.0,1.0,0.0,100.0,1.0,1.1856,26.0,0.0,0.0,0.0,59.999996,0.0,26.0,26.0,26.0,26.0,-0.12355555555555553,0.2672000000000001,0.0013000000000000002,292.038,-5.6364,-2.81,-1.4715,-1.65825,-248.97,215.9975,190.827375,0.0,0.0,0.0,0.0,0.017133333333333334,-5.498166666666667,-5.498166666666667,-0.5579000000000001,-0.505,-0.07837499999999986,0.278,66.49000000000001,-0.12279999999999991,-0.24275000000000002,0.41799999999999926,100.0,1.0,1.0,205.14,0.0,0.0,0.0,0.0,0.0,0.0,0.0,8695.2,0.0,55.0,5.0,239.34,0.0,0.0,0.0,0.0,0.0,0.0,0.0,0.0,0.40800000000000125,0.40800000000000125,0.0,0.0,0.0,55.0,616.79921,10000.0,85.000001,85.000001,85.000001,85.000001,395.0,0.0,0.0,0.0,1.0,333.33500000000004,51.483000000000004,51.483000000000004,47.394,47.394,34.0,-51.8175,45.70666666666666,-33.79666666666667,22.895,0.0,1783.28,-10.75,100.0,29.719,28.551000000000002,44.238,42.393,0.0,0.0,100.0,0.0,0.0,0.0,0.0,3113.285714285714,2910.3,4099.714285714285,4024.6000000000004,305.408,305.57675,314.839,314.80825,21.8859,20.6048,21.9727,21.4081,314.999998,314.999998,324.999988,324.999988,99.56042857142857,99.51186666666666,99.57421428571429,99.54821428571428,-0.21550000000000002,0.6885,-0.23816666666666664,-0.010499999999999954,-0.060000000000002274,-0.06666666666666998,1.5186666666666666,1.538,37.787,29.78,38.329,34.801,59.001000000000005,36.8315,61.939499999999995,52.8305,54.811,35.866,60.533500000000004,51.1825,51.876999999999995,35.39,60.556,50.641999999999996,0.09266666666666667,0.7730000000000001,0.11139,0.10775000000000001,0.0,208.23000000000002,208.17000000000002,205.14,205.14,0.0,0.0
9,0.0,0.0,0.0,1.0,1.0,0.0,0.0,1.0,0.0,100.0,1.0,1.1856,26.0,0.0,0.0,0.0,59.999996,0.0,26.0,26.0,26.0,26.0,-0.09711111111111104,0.2812000000000001,0.0123,291.824,-5.573,-2.817375,-1.5316,-1.59775,-245.78,215.98000000000002,190.807625,0.0,0.0,0.0,0.0,0.018966666666666666,-5.498166666666667,-5.498166666666667,-0.5595,0.5700000000000001,-0.07250000000000023,0.33099999999999996,66.62100000000001,-0.09189999999999998,-0.23985,0.3639999999999999,100.0,1.0,1.0,205.62,0.0,0.0,0.0,0.0,0.0,0.0,0.0,8715.5,0.0,55.0,5.0,239.80666666666667,1.0,0.0,0.0,0.0,0.0,0.0,0.0,0.0,0.4559999999999995,0.4559999999999995,0.0,0.0,1.0,55.0,616.79921,10000.0,85.000001,85.000001,85.000001,85.000001,395.0,0.0,0.0,0.0,1.0,166.665,50.598,50.598,48.218,48.218,34.0,-55.72,47.45666666666666,-31.479999999999997,23.5125,0.0,1783.234,-10.93,100.0,30.108,28.925,43.705,42.373000000000005,0.0,0.0,100.0,0.0,0.0,0.0,0.0,3346.5714285714284,2955.9,4052.1428571428573,4040.5,304.6365,305.37,315.04266666666666,314.859,21.8955,20.6103,21.983,21.4167,314.999998,314.999998,324.999988,324.999988,99.56044285714286,99.51195,99.57434285714285,99.54835714285714,-0.18374999999999986,0.72175,-0.1898333333333334,0.019000000000000128,-0.07333333333333059,-0.086666666666666,1.5483333333333333,1.561,37.847,29.8145,38.394,34.854,58.998000000000005,36.899,61.968,52.882999999999996,54.807,35.928,60.56,51.2325,51.872,35.449,60.579499999999996,50.691,0.07966666666666677,0.7823333333333333,0.09009,0.10814000000000001,0.0,208.655,208.60500000000002,205.62,205.62,0.0,0.0
10,0.0,0.0,0.0,1.0,1.0,0.0,0.0,1.0,0.0,100.0,1.0,1.1856,26.0,0.0,0.0,0.0,59.999996,0.0,26.0,26.0,26.0,26.0,-0.051999999999999935,0.2875000000000001,-0.004233333333333334,291.763,-5.651,-2.7645,-1.516,-1.569375,-242.18,215.95749999999998,190.78575,0.0,0.0,0.0,0.0,0.021066666666666668,-5.498166666666667,-5.498166666666667,-0.5439,-0.5549999999999999,-0.028000000000000025,1.101,66.771,-0.06529999999999991,-0.23192500000000002,-0.07399999999999984,100.0,1.0,1.0,205.93333333333334,0.0,0.0,0.0,0.0,0.0,0.0,0.0,8728.8,0.0,55.0,5.0,240.3466666666667,0.0,0.0,0.0,0.0,0.0,0.0,1.0,0.0,0.509999999999998,0.509999999999998,0.0,0.0,0.0,55.0,616.79921,10000.0,85.000001,85.000001,85.000001,85.000001,395.0,0.0,0.0,0.0,1.0,166.665,51.513999999999996,51.513999999999996,47.043,47.043,34.0,-48.3725,46.571666666666665,-31.916666666666664,25.6575,0.0,1783.179,-11.285,100.0,29.756,28.881,44.144999999999996,43.167,0.0,0.0,100.0,0.0,0.0,0.0,0.0,2998.5714285714284,2896.7,4184.142857142857,4185.1,305.7575,305.651,314.6693333333333,314.44075,21.9061,20.6164,21.994799999999998,21.4265,314.999998,314.999998,324.999988,324.999988,99.56047142857143,99.51203333333333,99.5745,99.5485,-0.15124999999999988,0.75625,-0.1728333333333334,0.04183333333333339,-0.04999999999999716,-0.051666666666669414,1.514,1.5075,37.913,29.853,38.467,34.9155,58.986999999999995,36.9755,62.004,52.946,54.798,35.998,60.593,51.293,51.862,35.5155,60.609,50.75,0.05933333333333346,0.8103333333333333,0.10146000000000001,0.10053000000000001,0.0,209.075,209.035,205.93333333333334,205.93333333333334,0.0,0.0
11,0.0,0.0,0.0,1.0,1.0,0.0,0.0,1.0,0.0,100.0,1.0,1.1856,26.0,0.0,0.0,0.0,59.999996,0.0,26.0,26.0,26.0,26.0,-0.012777777777777777,0.27360000000000007,-0.06773333333333334,292.16,-5.6675,-2.76825,-1.5772,-1.5335,-238.97,215.935,190.76625,0.0,0.0,0.0,0.0,0.022600000000000002,-5.498166666666667,-5.498166666666667,-0.5761000000000001,-0.20933333333333337,0.0044999999999999485,0.119,66.898,-0.03909999999999991,-0.25417500000000004,-0.4119999999999999,100.0,1.0,1.0,206.54333333333335,0.0,0.0,0.0,0.0,0.0,0.0,0.0,8754.7,0.0,55.0,5.0,240.80666666666667,1.0,0.0,0.0,0.0,0.0,0.0,1.0,0.0,0.5579999999999998,0.5579999999999998,0.0,0.0,1.0,55.0,616.79921,10000.0,85.000001,85.000001,85.000001,85.000001,395.0,0.0,0.0,0.0,1.0,166.665,51.056,51.056,48.263999999999996,48.263999999999996,34.0,-49.71,50.655,-28.013333333333335,25.725,0.0,1783.132,-11.655000000000001,100.0,29.496,29.119,43.42,43.068,0.0,0.0,100.0,0.0,0.0,0.0,0.0,3095.714285714286,3072.4,3826.5714285714284,3939.7,305.4605,305.018,315.60433333333333,315.1155,21.9153,20.6221,22.005,21.4351,314.999998,314.999998,324.999988,324.999988,99.56048571428572,99.51211666666667,99.57462857142858,99.54862857142857,-0.12399999999999989,0.77925,-0.15383333333333338,0.09850000000000003,-0.07000000000000028,-0.086666666666666,1.6099999999999999,1.601,37.971000000000004,29.887999999999998,38.532,34.9695,58.976,37.048,62.03,52.9995,54.788,36.064499999999995,60.617,51.3445,51.8515,35.579,60.629999999999995,50.79966666666667,0.04499999999999993,0.819,0.12002000000000002,0.11564500000000001,0.0,209.45499999999998,209.46,206.54333333333335,206.54333333333335,0.0,0.0
12,0.0,0.0,0.0,1.0,1.0,0.0,0.0,1.0,0.0,100.0,1.0,1.1856,26.0,0.0,0.0,0.0,59.999996,0.0,26.0,26.0,26.0,26.0,0.002777777777777768,0.27480000000000016,0.012333333333333333,291.748,-5.7001,-2.748875,-1.5493000000000001,-1.578875,-235.75,215.91500000000002,190.74575,0.0,0.0,0.0,0.0,0.025466666666666665,-5.498166666666667,-5.498166666666667,-0.5693,0.22333333333333338,0.0008749999999999591,-0.03699999999999992,67.03,-0.008000000000000007,-0.23715,-0.6200000000000001,100.0,1.0,1.0,206.80333333333334,0.0,0.0,0.0,0.0,0.0,0.0,0.0,8765.6,0.0,55.0,5.0,241.28,0.0,0.0,0.0,0.0,0.0,0.0,1.0,0.0,0.6059999999999981,0.6059999999999981,0.0,0.0,0.0,55.0,616.79921,10000.0,85.000001,85.000001,85.000001,85.000001,395.0,0.0,0.0,0.0,1.0,333.33500000000004,50.842,50.842,47.455,47.455,34.0,-50.81,51.43333333333334,-28.586666666666666,28.79,0.0,1783.082,-11.239999999999998,100.0,29.468,29.387999999999998,43.249,43.046,0.0,0.0,100.0,0.0,0.0,0.0,0.0,3129.0,3134.3,4136.857142857143,4117.7,305.3455,304.84075,314.836,314.65275,21.924599999999998,20.6278,22.0154,21.4437,314.999998,314.999998,324.999988,324.999988,99.5605,99.51221666666666,99.57477142857142,99.54877142857143,-0.13674999999999993,0.76575,-0.11116666666666664,0.11066666666666669,-0.07499999999999574,-0.07333333333333059,1.5453333333333332,1.5145,38.028999999999996,29.9235,38.596000000000004,35.022999999999996,58.962,37.129,62.0605,53.057,54.775,36.1385,60.644999999999996,51.3995,51.838499999999996,35.6495,60.655,50.85366666666667,0.07533333333333347,0.7856666666666663,0.10723500000000001,0.10632000000000001,0.0,209.875,209.89,206.80333333333334,206.80333333333334,0.0,0.0
13,0.0,0.0,0.0,1.0,1.0,0.0,0.0,1.0,0.0,100.0,1.0,1.1856,26.0,0.0,0.0,0.0,59.999996,0.0,26.0,26.0,26.0,26.0,0.0451111111111111,0.27659999999999996,0.03666666666666667,291.29,-5.6708,-2.7498750000000003,-1.5836000000000001,-1.561375,-232.13,215.89,190.72275,0.0,0.0,0.0,0.0,0.0269,-5.498166666666667,-5.498166666666667,-0.5582,0.01200000000000001,0.0029999999999998916,0.481,67.17699999999999,0.006399999999999961,-0.234525,-0.5060000000000002,100.0,1.0,1.0,207.18666666666667,0.0,0.0,0.0,0.0,0.0,0.0,0.0,8781.9,0.0,55.0,5.0,241.80666666666667,1.0,0.0,0.0,0.0,0.0,0.0,1.0,0.0,0.6600000000000001,0.6600000000000001,0.0,0.0,1.0,55.0,616.79921,10000.0,85.000001,85.000001,85.000001,85.000001,395.0,0.0,0.0,0.0,1.0,166.665,50.674,50.674,47.134,47.134,34.0,-49.015,51.96333333333333,-29.023333333333333,30.935000000000002,0.0,1783.03,-11.52,100.0,29.743,29.569,43.592,43.692,0.0,0.0,100.0,0.0,0.0,0.0,0.0,3115.5714285714284,3090.4,4164.285714285715,4270.2,305.367,304.97,314.737,314.27825,21.935,20.6343,22.0271,21.4536,314.999998,314.999998,324.999988,324.999988,99.56051428571429,99.5123,99.57491428571429,99.54891428571429,-0.07074999999999987,0.8305,-0.10250000000000004,0.12949999999999995,-0.06333333333333258,-0.07166666666666544,1.5176666666666667,1.4954999999999998,38.094,29.964,38.669,35.085,58.948,37.210499999999996,62.091499999999996,53.117,54.762,36.213499999999996,60.6735,51.457,51.8255,35.721000000000004,60.6795,50.909666666666666,0.0303333333333331,0.8303333333333334,0.10808500000000001,0.10823,0.0,210.32999999999998,210.315,207.18666666666667,207.18666666666667,0.0,0.0
14,0.0,0.0,0.0,1.0,1.0,0.0,0.0,1.0,0.0,100.0,1.0,1.1856,26.0,0.0,0.0,0.0,59.999996,0.0,26.0,26.0,26.0,26.0,0.07877777777777784,0.26080000000000014,-0.004433333333333333,291.489,-5.7072,-2.740875,-1.5987,-1.5385,-228.7,215.87,190.7015,0.0,0.0,0.0,0.0,0.028900000000000002,-5.498166666666667,-5.498166666666667,-0.5682,-0.20999999999999996,0.03787499999999988,0.554,67.312,0.01639999999999997,-0.248175,-0.8700000000000001,100.0,1.0,1.0,207.66666666666669,0.0,0.0,0.0,0.0,0.0,0.0,0.0,8802.3,0.0,55.0,5.0,242.29666666666668,0.0,0.0,0.0,0.0,0.0,0.0,1.0,0.0,0.7109999999999985,0.7109999999999985,0.0,0.0,0.0,55.0,616.79921,10000.0,85.000001,85.000001,85.000001,85.000001,395.0,0.0,0.0,0.0,1.0,166.665,50.72,50.72,47.287,47.287,34.0,-46.7225,54.09833333333333,-26.78333333333333,30.455,0.0,1782.978,-11.8,100.0,29.58,29.73,43.492000000000004,43.923,0.0,0.0,100.0,0.0,0.0,0.0,0.0,3010.0,3171.4,3976.857142857143,4183.2,305.71,304.657,315.201,314.48325,21.9448,20.6404,22.0381,21.4629,314.999998,314.999998,324.999988,324.999988,99.56052857142858,99.51241666666667,99.57505714285715,99.54907142857142,-0.05224999999999991,0.8505,-0.08750000000000002,0.14166666666666683,-0.07166666666666544,-0.06666666666666998,1.5416666666666667,1.5055,38.155,30.002499999999998,38.738,35.143,58.93,37.2945,62.1205,53.176,54.745999999999995,36.291,60.7,51.513999999999996,51.81,35.7945,60.703,50.965333333333334,0.01833333333333309,0.8489999999999998,0.11017500000000001,0.11036000000000001,0.0,210.72500000000002,210.75,207.66666666666669,207.66666666666669,0.0,0.0
15,0.0,0.0,0.0,1.0,1.0,0.0,0.0,1.0,0.0,100.0,1.0,1.1856,26.0,0.0,0.0,0.0,59.999996,0.0,26.0,26.0,26.0,26.0,0.10588888888888892,0.2724,-0.010033333333333333,291.519,-5.7175,-2.698875,-1.6217000000000001,-1.53925,-225.47,215.85250000000002,190.681125,0.0,0.0,0.0,0.0,0.0308,-5.498166666666667,-5.498166666666667,-0.5641,0.16533333333333333,0.06562500000000004,0.07399999999999995,67.44,0.031400000000000095,-0.238675,-1.1319999999999997,100.0,1.0,1.0,208.05,0.0,0.0,0.0,0.0,0.0,0.0,0.0,8818.5,0.0,55.0,5.0,242.75666666666666,1.0,0.0,0.0,0.0,0.0,0.0,1.0,0.0,0.7590000000000003,0.7590000000000003,0.0,0.0,1.0,55.0,616.79921,10000.0,85.000001,85.000001,85.000001,85.000001,395.0,0.0,0.0,0.0,1.0,166.665,50.797,50.797,47.424,47.424,34.0,-44.71,53.68166666666667,-25.563333333333333,32.1,0.0,1782.931,-11.864999999999998,100.0,29.592,29.904,43.137,44.05,0.0,0.0,100.0,0.0,0.0,0.0,0.0,2909.142857142857,3152.2,3967.5714285714284,4261.3,306.0225,304.6945,315.2543333333333,314.2475,21.954,20.6463,22.0484,21.4716,314.999998,314.999998,324.999988,324.999988,99.56052857142858,99.51251666666667,99.5752,99.5492,-0.04349999999999987,0.85575,-0.058666666666666645,0.1581666666666668,-0.06833333333332803,-0.05833333333333002,1.539,1.5070000000000001,38.213,30.0395,38.802,35.198,58.913,37.3755,62.1465,53.2325,54.730999999999995,36.3655,60.724000000000004,51.568,51.7945,35.866,60.7235,51.018,0.016000000000000014,0.8443333333333336,0.105105,0.10393000000000001,0.0,211.14,211.16500000000002,208.05,208.05,0.0,0.0
16,0.0,0.0,0.0,1.0,1.0,0.0,0.0,1.0,0.0,100.0,1.0,1.1856,26.0,0.0,0.0,0.0,59.999996,0.0,26.0,26.0,26.0,26.0,0.11488888888888904,0.27390000000000003,-0.0198,291.504,-5.7847,-2.6425,-1.603,-1.533875,-222.23,215.835,190.6605,0.0,0.0,0.0,0.0,0.03266666666666667,-5.498166666666667,-5.498166666666667,-0.5792,-0.522,0.058375000000000066,-0.4810000000000001,67.568,0.05390000000000006,-0.24860000000000002,-1.3499999999999996,100.0,1.0,1.0,208.43666666666667,0.0,0.0,0.0,0.0,0.0,0.0,0.0,8834.9,0.0,55.0,5.0,243.22,0.0,0.0,0.0,0.0,0.0,0.0,1.0,0.0,0.8069999999999986,0.8069999999999986,0.0,0.0,0.0,55.0,616.79921,10000.0,85.000001,85.000001,85.000001,85.000001,395.0,0.0,0.0,0.0,1.0,166.665,50.735,50.735,47.104,47.104,34.0,-47.3,54.935,-24.689999999999998,32.2475,0.0,1782.883,-11.509999999999998,100.0,29.162,29.921,43.39,44.115,0.0,0.0,100.0,0.0,0.0,0.0,0.0,3037.0,3247.9,3962.142857142857,4136.2,305.7255,304.50325,315.26233333333334,314.545,21.963,20.6522,22.0587,21.4804,314.999998,314.999998,324.999988,324.999988,99.56052857142858,99.51261666666667,99.57532857142857,99.54932857142857,-0.05224999999999991,0.846,-0.04833333333333334,0.18633333333333324,-0.054999999999999716,-0.07000000000000028,1.559,1.52,38.269,30.0765,38.867000000000004,35.2525,58.893,37.457,62.175,53.288,54.713,36.4405,60.7495,51.621,51.777,35.9375,60.746,51.07033333333334,0.036666666666666625,0.8206666666666664,0.11543,0.10293500000000001,0.0,211.47,211.55,208.43666666666667,208.43666666666667,0.0,0.0
17,0.0,0.0,0.0,1.0,1.0,0.0,0.0,1.0,0.0,100.0,1.0,1.1856,26.0,0.0,0.0,0.0,59.999996,0.0,26.0,26.0,26.0,26.0,0.08088888888888901,0.27849999999999997,0.008400000000000001,291.122,-5.7422,-2.62775,-1.6368,-1.502,-218.57,215.82,190.63675,0.0,0.0,0.0,0.0,0.034800000000000005,-5.498166666666667,-5.498166666666667,-0.5697,0.2583333333333333,0.030999999999999917,-0.16199999999999992,67.711,0.06600000000000006,-0.23240000000000002,-0.7560000000000002,100.0,1.0,1.0,208.81,0.0,0.0,0.0,0.0,0.0,0.0,0.0,8850.7,0.0,55.0,5.0,243.73333333333335,1.0,0.0,0.0,0.0,0.0,0.0,1.0,0.0,0.8610000000000007,0.8610000000000007,0.0,0.0,1.0,55.0,616.79921,10000.0,85.000001,85.000001,85.000001,85.000001,395.0,0.0,0.0,0.0,1.0,166.665,50.476,50.476,46.86,46.86,34.0,-48.8225,52.61,-27.369999999999997,33.235,0.0,1782.829,-10.985,100.0,29.685,30.046,43.263,44.093,0.0,0.0,100.0,0.0,0.0,0.0,0.0,3101.0,3155.1,4284.857142857143,4284.2,305.5015,304.79925,314.551,314.29175,21.973300000000002,20.659,22.0703,21.4903,314.999998,314.999998,324.999988,324.999988,99.56054285714286,99.51273333333333,99.57548571428572,99.54948571428571,-0.07000000000000006,0.82925,-0.04249999999999998,0.1875,-0.05333333333332746,-0.07166666666666544,1.53,1.4954999999999998,38.333,30.118499999999997,38.939,35.314,58.873999999999995,37.549,62.205,53.3505,54.696,36.525,60.777,51.6815,51.760999999999996,36.0185,60.769999999999996,51.129,0.07533333333333347,0.7786666666666666,0.11467500000000001,0.109685,0.0,211.97,212.005,208.81,208.81,0.0,0.0
18,0.0,0.0,0.0,1.0,1.0,0.0,0.0,1.0,0.0,100.0,1.0,1.1856,26.0,0.0,0.0,0.0,59.999996,0.0,26.0,26.0,26.0,26.0,0.07499999999999996,0.2731000000000001,0.008433333333333333,291.046,-5.7577,-2.615125,-1.6368,-1.460375,-215.32,215.81,190.61575,0.0,0.0,0.0,0.0,0.0367,-5.498166666666667,-5.498166666666667,-0.5825,-0.362,0.03962500000000002,0.18699999999999994,67.837,0.054200000000000026,-0.24682500000000002,-0.3639999999999999,100.0,1.0,1.0,209.2266666666667,0.0,0.0,0.0,0.0,0.0,0.0,0.0,8868.4,0.0,55.0,5.0,244.18666666666667,0.0,0.0,0.0,0.0,0.0,0.0,1.0,0.0,0.9089999999999989,0.9089999999999989,0.0,0.0,0.0,55.0,616.79921,10000.0,85.000001,85.000001,85.000001,85.000001,395.0,0.0,0.0,0.0,1.0,166.665,50.232,50.232,46.875,46.875,34.0,-50.2975,55.87833333333333,-26.866666666666667,30.855,0.0,1782.78,-10.864999999999998,100.0,29.579,29.958,43.572,44.275,0.0,0.0,100.0,0.0,0.0,0.0,0.0,3169.4285714285716,3336.0,4117.142857142857,4210.1,305.326,304.2885,314.92466666666667,314.46725,21.9824,20.6649,22.0807,21.4991,314.999998,314.999998,324.999988,324.999988,99.56055714285715,99.51283333333333,99.57561428571428,99.54962857142857,-0.07899999999999996,0.8250000000000001,-0.057666666666666644,0.16866666666666674,-0.04999999999999716,-0.07333333333333059,1.54,1.5325,38.39,30.156,39.004000000000005,35.369,58.858000000000004,37.628,62.2325,53.4065,54.681,36.5975,60.8025,51.7355,51.746,36.0875,60.792,51.182,0.08866666666666667,0.7789999999999999,0.104035,0.106715,0.0,212.35000000000002,212.345,209.2266666666667,209.2266666666667,0.0,0.0
19,0.0,0.0,0.0,1.0,1.0,0.0,0.0,1.0,0.0,100.0,1.0,1.1856,26.0,0.0,0.0,0.0,59.999996,0.0,26.0,26.0,26.0,26.0,0.04877777777777781,0.27760000000000007,0.055266666666666665,290.604,-5.6706,-2.726375,-1.6428,-1.45325,-212.06,215.8,190.5945,0.0,0.0,0.0,0.0,0.03856666666666667,-5.498166666666667,-5.498166666666667,-0.5701,0.7610000000000001,0.03712499999999985,-0.14300000000000002,67.963,0.03770000000000007,-0.2379,-0.12799999999999923,100.0,1.0,1.0,209.57,0.0,0.0,0.0,0.0,0.0,0.0,0.0,8882.9,0.0,55.0,5.0,244.63666666666666,1.0,0.0,0.0,0.0,0.0,0.0,1.0,0.0,0.9570000000000007,0.9570000000000007,0.0,0.0,1.0,55.0,616.79921,10000.0,85.000001,85.000001,85.000001,85.000001,395.0,0.0,0.0,0.0,1.0,333.33500000000004,49.698,49.698,46.616,46.616,34.0,-50.2825,54.69166666666666,-28.943333333333335,31.262500000000003,0.0,1782.731,-10.695,100.0,30.207,30.407,43.488,44.226,0.0,0.0,100.0,0.0,0.0,0.0,0.0,3148.142857142857,3240.1,4268.428571428572,4398.4,305.2275,304.328,314.597,314.0475,21.9916,20.671,22.091,21.5078,314.999998,314.999998,324.999988,324.999988,99.56055714285715,99.51293333333334,99.57575714285714,99.54977142857143,-0.09199999999999986,0.80125,-0.07033333333333336,0.1463333333333332,-0.07833333333332604,-0.04999999999999716,1.5076666666666667,1.506,38.447,30.194,39.069,35.424,58.844,37.713499999999996,62.2605,53.466,54.668,36.6765,60.828,51.792500000000004,51.733000000000004,36.163,60.814,51.238,0.09733333333333372,0.758,0.094935,0.108965,0.0,212.8,212.755,209.57,209.57,0.0,0.0
20,0.0,0.0,0.0,1.0,1.0,0.0,0.0,1.0,0.0,100.0,1.0,1.1856,26.0,0.0,0.0,0.0,59.999996,0.0,26.0,26.0,26.0,26.0,0.04577777777777792,0.2691000000000001,0.0036666666666666666,290.97,-5.7544,-2.690375,-1.56,-1.58775,-208.59,215.79000000000002,190.572125,0.0,0.0,0.0,0.0,0.040600000000000004,-5.498166666666667,-5.498166666666667,-0.5748,-0.959,0.024624999999999897,-0.482,68.09700000000001,0.015900000000000025,-0.245625,-0.009999999999999787,100.0,1.0,1.0,209.94,0.0,0.0,0.0,0.0,0.0,0.0,0.0,8898.6,0.0,55.0,5.0,245.12333333333333,0.0,0.0,0.0,0.0,0.0,0.0,0.0,0.0,1.0079999999999991,1.0079999999999991,0.0,0.0,0.0,55.0,616.79921,10000.0,85.000001,85.000001,85.000001,85.000001,395.0,0.0,0.0,0.0,1.0,166.665,50.751,50.751,46.204,46.204,34.0,-48.41,50.653333333333336,-28.03,30.53,0.0,1782.682,-10.5,100.0,29.679000000000002,30.018,44.347,44.659,0.0,0.0,100.0,0.0,0.0,0.0,0.0,3018.0,3094.1,4138.857142857143,4182.7,305.799,304.99125,314.79066666666665,314.379,22.0011,20.6773,22.1021,21.5173,314.999998,314.999998,324.999988,324.999988,99.56057142857142,99.51301666666667,99.5759,99.54991428571428,-0.12624999999999997,0.77775,-0.09066666666666656,0.12549999999999994,-0.05666666666667197,-0.060000000000002274,1.4906666666666668,1.4965,38.507,30.233,39.138,35.483000000000004,58.828,37.7885,62.29,53.5225,54.653999999999996,36.7455,60.855000000000004,51.847,51.719,36.229,60.838,51.29066666666667,0.11333333333333373,0.7506666666666666,0.10241000000000001,0.10550500000000002,0.0,213.16,213.14,209.94,209.94,0.0,0.0
21,0.0,0.0,0.0,1.0,1.0,0.0,0.0,1.0,0.0,100.0,1.0,1.1856,26.0,0.0,0.0,0.0,59.999996,0.0,26.0,26.0,26.0,26.0,0.0030000000000001137,0.27160000000000006,-0.05823333333333334,291.321,-5.7035,-2.71325,-1.612,-1.558,-205.32,215.7825,190.550625,0.0,0.0,0.0,0.0,0.0425,-5.498166666666667,-5.498166666666667,-0.5965,0.20399999999999996,-0.00649999999999995,-0.599,68.219,0.0008000000000001339,-0.2492,0.2920000000000007,100.0,1.0,1.0,210.49333333333334,0.0,0.0,0.0,0.0,0.0,0.0,0.0,8922.1,0.0,55.0,5.0,245.56,1.0,0.0,0.0,0.0,0.0,0.0,0.0,0.0,1.056000000000001,1.056000000000001,0.0,0.0,1.0,55.0,616.79921,10000.0,85.000001,85.000001,85.000001,85.000001,395.0,0.0,0.0,0.0,1.0,166.665,50.415,50.415,47.379,47.379,34.0,-51.375,50.01166666666667,-29.166666666666664,27.52,0.0,1782.632,-10.485,100.0,30.068,29.959,43.724000000000004,43.971000000000004,0.0,0.0,100.0,0.0,0.0,0.0,0.0,3164.714285714286,3071.5,4090.8571428571427,4000.0,305.318,305.08975,315.038,314.9925,22.0102,20.6833,22.1123,21.5259,314.999998,314.999998,324.999988,324.999988,99.5606,99.5131,99.57602857142857,99.55004285714286,-0.13624999999999998,0.766,-0.11549999999999994,0.1156666666666668,-0.061666666666667425,-0.07000000000000028,1.5553333333333332,1.5705,38.564,30.2705,39.202,35.536500000000004,58.817,37.8635,62.314499999999995,53.5745,54.644,36.814499999999995,60.8775,51.8965,51.7085,36.2945,60.8575,51.339333333333336,0.11799999999999988,0.7433333333333336,0.10467000000000001,0.10475500000000001,0.0,213.585,213.53,210.49333333333334,210.49333333333334,0.0,0.0
22,0.0,0.0,0.0,1.0,1.0,0.0,0.0,1.0,0.0,100.0,1.0,1.1856,26.0,0.0,0.0,0.0,59.999996,0.0,26.0,26.0,26.0,26.0,-0.00955555555555554,0.2622,-0.018566666666666665,290.955,-5.6229,-2.7811250000000003,-1.5968,-1.5558750000000001,-201.63,215.775,190.525625,0.0,0.0,0.0,0.0,0.04463333333333333,-5.498166666666667,-5.498166666666667,-0.5824,0.07699999999999996,-0.008999999999999897,0.18899999999999995,68.361,-0.019100000000000006,-0.232125,0.3780000000000001,100.0,1.0,1.0,210.79333333333335,0.0,0.0,0.0,0.0,0.0,0.0,0.0,8934.7,0.0,55.0,5.0,246.07,0.0,0.0,0.0,0.0,0.0,0.0,0.0,0.0,1.1099999999999994,1.1099999999999994,0.0,0.0,0.0,55.0,616.79921,10000.0,85.000001,85.000001,85.000001,85.000001,395.0,0.0,0.0,0.0,1.0,166.665,50.568,50.568,46.448,46.448,34.0,-48.2725,49.16166666666667,-31.553333333333335,28.6825,0.0,1782.579,-10.66,100.0,30.244,29.991,44.25,44.054,0.0,0.0,100.0,0.0,0.0,0.0,0.0,3004.285714285714,3001.8,4226.714285714285,4264.7,305.6925,305.1905,314.666,314.36025,22.0205,20.69,22.1241,21.5357,314.999998,314.999998,324.999988,324.999988,99.56061428571428,99.5132,99.57618571428571,99.5502,-0.13349999999999995,0.75925,-0.136,0.09066666666666667,-0.06499999999999773,-0.06499999999999773,1.4953333333333334,1.5005,38.628,30.3125,39.275,35.598,58.805,37.9465,62.3475,53.6355,54.632999999999996,36.8905,60.908,51.9555,51.697,36.367,60.884,51.39666666666667,0.10366666666666635,0.7546666666666666,0.10482500000000002,0.112265,0.0,214.035,213.945,210.79333333333335,210.79333333333335,0.0,0.0
23,0.0,0.0,0.0,1.0,1.0,0.0,0.0,1.0,0.0,100.0,1.0,1.1856,26.0,0.0,0.0,0.0,59.999996,0.0,26.0,26.0,26.0,26.0,-0.02533333333333332,0.24540000000000006,-0.0247,290.802,-5.6505,-2.729875,-1.6498,-1.6215,-198.35,215.765,190.5035,0.0,0.0,0.0,0.0,0.04656666666666667,-5.498166666666667,-5.498166666666667,-0.5937,-0.19766666666666666,-0.01200000000000001,-0.15399999999999991,68.483,-0.02969999999999995,-0.248675,0.39400000000000013,100.0,1.0,1.0,211.24,0.0,0.0,0.0,0.0,0.0,0.0,0.0,8953.7,0.0,55.0,5.0,246.51333333333332,1.0,0.0,0.0,0.0,0.0,0.0,0.0,0.0,1.1580000000000013,1.1580000000000013,0.0,0.0,1.0,55.0,616.79921,10000.0,85.000001,85.000001,85.000001,85.000001,395.0,0.0,0.0,0.0,1.0,333.33500000000004,49.805,49.805,47.195,47.195,34.0,-55.09,50.205,-31.003333333333337,26.98,0.0,1782.53,-10.649999999999999,100.0,30.434,30.054000000000002,44.417,44.308,0.0,0.0,100.0,0.0,0.0,0.0,0.0,3358.5714285714284,3093.0,4048.1428571428573,4011.8,304.7675,304.98325,315.176,314.87325,22.0296,20.696,22.1345,21.5445,314.999998,314.999998,324.999988,324.999988,99.56062857142857,99.5133,99.57632857142858,99.55034285714285,-0.1459999999999999,0.7465,-0.14683333333333337,0.08016666666666672,-0.06333333333333258,-0.07166666666666544,1.5103333333333333,1.537,38.685,30.3495,39.341,35.6535,58.795,38.019999999999996,62.3755,53.6905,54.623999999999995,36.9585,60.9335,52.007999999999996,51.6875,36.4315,60.9065,51.448,0.09966666666666635,0.75,0.10474000000000001,0.10220000000000001,0.0,214.39,214.335,211.24,211.24,0.0,0.0
24,0.0,0.0,0.0,1.0,1.0,0.0,0.0,1.0,0.0,100.0,1.0,1.1856,26.0,0.0,0.0,0.0,59.999996,0.0,26.0,26.0,26.0,26.0,-0.03455555555555556,0.26900000000000013,-0.0415,291.0,-5.6664,-2.74425,-1.5626,-1.568125,-195.06,215.7575,190.481125,0.0,0.0,0.0,0.0,0.04846666666666667,-5.498166666666667,-5.498166666666667,-0.6029,-0.5209999999999999,-0.009749999999999925,0.385,68.608,-0.031399999999999983,-0.24635,0.274,100.0,1.0,1.0,211.5366666666667,0.0,0.0,0.0,0.0,0.0,0.0,0.0,8966.2,0.0,55.0,5.0,246.96,0.0,0.0,0.0,0.0,0.0,0.0,0.0,0.0,1.2059999999999995,1.2059999999999995,0.0,0.0,0.0,55.0,616.79921,10000.0,85.000001,85.000001,85.000001,85.000001,395.0,0.0,0.0,0.0,1.0,333.33500000000004,50.751,50.751,46.387,46.387,34.0,-49.2475,48.03333333333333,-32.31666666666666,26.87,0.0,1782.482,-10.739999999999998,100.0,30.262999999999998,29.759999999999998,44.488,44.15,0.0,0.0,100.0,0.0,0.0,0.0,0.0,3049.4285714285716,2971.5,4285.428571428572,4119.0,305.617,305.40325,314.46866666666665,314.69725,22.0387,20.7018,22.1449,21.5533,314.999998,314.999998,324.999988,324.999988,99.56064285714285,99.51338333333334,99.57647142857142,99.55048571428571,-0.1399999999999999,0.754,-0.1486666666666666,0.07616666666666672,-0.06666666666666998,-0.060000000000002274,1.508,1.5205,38.742000000000004,30.386,39.406,35.708,58.783,38.0945,62.406,53.7475,54.613,37.027,60.9615,52.063,51.676,36.4965,60.931,51.501333333333335,0.09533333333333349,0.7646666666666664,0.10491500000000001,0.10460000000000001,0.0,214.765,214.72,211.5366666666667,211.5366666666667,0.0,0.0
25,0.0,0.0,0.0,1.0,1.0,0.0,0.0,1.0,0.0,100.0,1.0,1.1856,26.0,0.0,0.0,0.0,59.999996,0.0,26.0,26.0,26.0,26.0,-0.02011111111111108,0.2659,-0.049100000000000005,291.077,-5.7369,-2.70275,-1.5795,-1.566375,-191.55,215.7475,190.456,0.0,0.0,0.0,0.0,0.0505,-5.498166666666667,-5.498166666666667,-0.6313000000000001,-0.031333333333333324,-0.001374999999999904,-0.30699999999999994,68.736,-0.033499999999999974,-0.25325000000000003,0.1280000000000001,100.0,1.0,1.0,212.05,0.0,0.0,0.0,0.0,0.0,0.0,0.0,8988.0,0.0,55.0,5.0,247.42333333333335,1.0,0.0,0.0,0.0,0.0,0.0,0.0,0.0,1.256999999999998,1.256999999999998,0.0,0.0,1.0,55.0,616.79921,10000.0,85.000001,85.000001,85.000001,85.000001,395.0,0.0,0.0,0.0,1.0,166.665,50.003,50.003,47.226,47.226,34.0,-53.95,53.18,-29.136666666666663,26.63,0.0,1782.432,-10.759999999999998,100.0,30.108,29.943,44.078,43.761,0.0,0.0,100.0,0.0,0.0,0.0,0.0,3282.285714285714,3243.6,3975.4285714285716,4056.3,305.043,304.55575,315.284,314.871,22.0483,20.7082,22.1558,21.5625,314.999998,314.999998,324.999988,324.999988,99.56067142857142,99.51346666666667,99.5766,99.55061428571429,-0.15100000000000002,0.76025,-0.1433333333333333,0.08600000000000008,-0.06333333333333258,-0.07666666666666799,1.5606666666666666,1.5715,38.802,30.426000000000002,39.474000000000004,35.766,58.772,38.168,62.431,53.7995,54.602999999999994,37.0945,60.9845,52.1125,51.666,36.561,60.951,51.54966666666667,0.09733333333333372,0.7656666666666663,0.10663,0.1096,0.0,215.16,215.125,212.05,212.05,0.0,0.0
26,0.0,0.0,0.0,1.0,1.0,0.0,0.0,1.0,0.0,100.0,1.0,1.1856,26.0,0.0,0.0,0.0,59.999996,0.0,26.0,26.0,26.0,26.0,-0.0357777777777778,0.26090000000000013,0.062066666666666666,290.07,-5.689,-2.78425,-1.6245,-1.563375,-187.84,215.735,190.429,0.0,0.0,0.0,0.0,0.05266666666666667,-5.498166666666667,-5.498166666666667,-0.5931000000000001,0.6076666666666668,-0.02212499999999995,-0.14400000000000013,68.876,-0.02749999999999997,-0.222425,0.13600000000000012,100.0,1.0,1.0,212.24333333333334,0.0,0.0,0.0,0.0,0.0,0.0,0.0,8996.2,0.0,55.0,5.0,247.92333333333335,0.0,0.0,0.0,0.0,0.0,0.0,0.0,0.0,1.311,1.311,0.0,0.0,0.0,55.0,616.79921,10000.0,85.000001,85.000001,85.000001,85.000001,395.0,0.0,0.0,0.0,1.0,166.665,49.759,49.759,45.67,45.67,34.0,-52.69,49.83333333333333,-34.88333333333333,30.325000000000003,0.0,1782.379,-10.825,100.0,30.837,30.401,44.606,44.239000000000004,0.0,0.0,100.0,0.0,0.0,0.0,0.0,3231.285714285714,3028.5,4557.142857142857,4451.1,305.065,305.09725,313.91966666666667,313.93475,22.0587,20.7151,22.1675,21.572499999999998,314.999998,314.999998,324.999988,324.999988,99.56068571428571,99.51358333333333,99.57677142857143,99.55078571428571,-0.1319999999999999,0.76325,-0.1303333333333333,0.08616666666666672,-0.05833333333333002,-0.05333333333332746,1.4463333333333335,1.439,38.867000000000004,30.469,39.547,35.828,58.763,38.2535,62.4645,53.8615,54.595,37.173,61.0155,52.172,51.657,36.6355,60.978,51.60766666666667,0.08566666666666656,0.7713333333333336,0.097225,0.11023000000000001,0.0,215.635,215.57,212.24333333333334,212.24333333333334,0.0,0.0
27,0.0,0.0,0.0,1.0,1.0,0.0,0.0,1.0,0.0,100.0,1.0,1.1856,26.0,0.0,0.0,0.0,59.999996,0.0,26.0,26.0,26.0,26.0,-0.00911111111111107,0.25250000000000017,-0.030000000000000002,290.466,-5.6575,-2.747625,-1.6168,-1.6320000000000001,-184.53,215.725,190.405875,0.0,0.0,0.0,0.0,0.0546,-5.498166666666667,-5.498166666666667,-0.6153000000000001,-0.9863333333333333,-0.016999999999999904,0.20599999999999996,68.99600000000001,-0.02199999999999991,-0.2582,-0.047999999999999154,100.0,1.0,1.0,212.72,0.0,0.0,0.0,0.0,0.0,0.0,0.0,9016.4,0.0,55.0,5.0,248.36,1.0,0.0,0.0,0.0,0.0,0.0,0.0,0.0,1.3589999999999982,1.3589999999999982,0.0,0.0,1.0,55.0,616.79921,10000.0,85.000001,85.000001,85.000001,85.000001,395.0,0.0,0.0,0.0,1.0,166.665,50.11,50.11,45.837,45.837,34.0,-50.019999999999996,51.00833333333333,-31.060000000000002,27.8175,0.0,1782.33,-10.855,100.0,30.5,30.245,45.193,44.835,0.0,0.0,100.0,0.0,0.0,0.0,0.0,3105.142857142857,3115.3,4165.428571428572,4033.5,305.457,304.938,314.782,314.82875,22.0677,20.7211,22.178,21.5814,314.999998,314.999998,324.999988,324.999988,99.5607,99.51366666666667,99.57691428571428,99.55091428571428,-0.12674999999999992,0.7605000000000001,-0.131,0.08733333333333326,-0.05833333333333002,-0.07666666666666799,1.5066666666666666,1.5035,38.923,30.506999999999998,39.611999999999995,35.884,58.751000000000005,38.326,62.4945,53.916,54.584,37.2395,61.043,52.2245,51.6455,36.699,61.0025,51.65866666666666,0.08266666666666644,0.7730000000000001,0.10505,0.10182500000000001,0.0,215.94,215.91500000000002,212.72,212.72,0.0,0.0
28,0.0,0.0,0.0,1.0,1.0,0.0,0.0,1.0,0.0,100.0,1.0,1.1856,26.0,0.0,0.0,0.0,59.999996,0.0,26.0,26.0,26.0,26.0,-0.007777777777777772,0.24980000000000002,-0.04476666666666667,290.619,-5.6474,-2.724375,-1.6158000000000001,-1.566125,-181.01,215.715,190.3805,0.0,0.0,0.0,0.0,0.05663333333333334,-5.498166666666667,-5.498166666666667,-0.6282,0.42300000000000004,-0.019000000000000128,-0.07000000000000006,69.122,-0.013699999999999934,-0.24955000000000002,-0.013999999999999346,100.0,1.0,1.0,213.21,0.0,0.0,0.0,0.0,0.0,0.0,0.0,9037.2,0.0,55.0,5.0,248.81333333333333,0.0,0.0,0.0,0.0,0.0,0.0,0.0,0.0,1.4100000000000001,1.4100000000000001,0.0,0.0,0.0,55.0,616.79921,10000.0,85.000001,85.000001,85.000001,85.000001,395.0,0.0,0.0,0.0,1.0,166.665,49.652,49.652,46.875,46.875,34.0,-52.035,51.52166666666667,-29.913333333333334,28.009999999999998,0.0,1782.281,-10.895,100.0,30.772,30.428,44.369,44.275,0.0,0.0,100.0,0.0,0.0,0.0,0.0,3208.4285714285716,3130.4,4114.285714285715,4117.8,305.1125,304.86825,315.061,314.7415,22.0774,20.7276,22.1888,21.5907,314.999998,314.999998,324.999988,324.999988,99.56072857142857,99.51376666666667,99.57704285714286,99.55105714285715,-0.12650000000000006,0.7725,-0.1243333333333334,0.10116666666666685,-0.07499999999999574,-0.06333333333333258,1.5296666666666667,1.5434999999999999,38.983999999999995,30.5475,39.68,35.9415,58.739999999999995,38.406,62.5205,53.971000000000004,54.574,37.313,61.067,52.2775,51.635,36.7695,61.0225,51.71,0.08800000000000008,0.7719999999999998,0.103205,0.10502,0.0,216.375,216.32999999999998,213.21,213.21,0.0,0.0
29,0.0,0.0,0.0,1.0,1.0,0.0,0.0,1.0,0.0,100.0,1.0,1.1856,26.0,0.0,0.0,0.0,59.999996,0.0,26.0,26.0,26.0,26.0,0.012111111111111184,0.25470000000000015,0.019866666666666668,290.314,-5.6307,-2.776875,-1.5678,-1.57325,-177.69,215.7025,190.35575,0.0,0.0,0.0,0.0,0.05856666666666666,-5.498166666666667,-5.498166666666667,-0.6298,-0.45899999999999996,-0.015000000000000124,0.15600000000000003,69.245,-0.011099999999999999,-0.24425000000000002,-0.09399999999999942,100.0,1.0,1.0,213.43333333333334,0.0,0.0,0.0,0.0,0.0,0.0,0.0,9046.7,0.0,55.0,5.0,249.25666666666666,1.0,0.0,0.0,0.0,0.0,0.0,0.0,0.0,1.4579999999999984,1.4579999999999984,0.0,0.0,1.0,55.0,616.79921,10000.0,85.000001,85.000001,85.000001,85.000001,395.0,0.0,0.0,0.0,1.0,333.33500000000004,49.881,49.881,45.868,45.868,34.0,-50.675,52.16,-30.303333333333335,29.6075,0.0,1782.23,-10.954999999999998,100.0,30.469,30.348,44.858000000000004,44.602000000000004,0.0,0.0,100.0,0.0,0.0,0.0,0.0,3158.5714285714284,3142.2,4202.857142857143,4249.3,305.3195,304.7565,314.66266666666667,314.35625,22.0863,20.7337,22.1991,21.5995,314.999998,314.999998,324.999988,324.999988,99.56074285714286,99.51385,99.5772,99.5512,-0.11549999999999994,0.77075,-0.12049999999999994,0.10233333333333339,-0.04833333333333201,-0.06499999999999773,1.487,1.483,39.04,30.5855,39.745000000000005,35.997,58.727000000000004,38.480000000000004,62.5495,54.0255,54.562,37.381,61.094,52.33,51.623,36.834,61.0465,51.760666666666665,0.0773333333333337,0.7716666666666665,0.10224000000000001,0.10971500000000001,0.0,216.72,216.68,213.43333333333334,213.43333333333334,0.0,0.0
30,0.0,0.0,0.0,1.0,1.0,0.0,0.0,1.0,0.0,100.0,1.0,1.1856,26.0,0.0,0.0,0.0,59.999996,0.0,26.0,26.0,26.0,26.0,0.0024444444444444713,0.24940000000000007,0.033,289.841,-5.6902,-2.666375,-1.5453999999999999,-1.627375,-174.14999999999998,215.6925,190.329375,0.0,0.0,0.0,0.0,0.06063333333333334,-5.498166666666667,-5.498166666666667,-0.6245,0.7703333333333333,-0.016999999999999904,-0.06800000000000006,69.37,-0.009499999999999953,-0.242925,-0.043999999999999595,100.0,1.0,1.0,213.87666666666667,0.0,0.0,0.0,0.0,0.0,0.0,0.0,9065.4,0.0,55.0,5.0,249.70666666666665,0.0,0.0,0.0,0.0,0.0,0.0,1.0,0.0,1.5090000000000003,1.5090000000000003,0.0,0.0,0.0,55.0,616.79921,10000.0,85.000001,85.000001,85.000001,85.000001,395.0,0.0,0.0,0.0,1.0,166.665,48.721000000000004,48.721000000000004,46.28,46.28,34.0,-55.4225,53.15,-29.443333333333335,29.65,0.0,1782.18,-11.015,100.0,31.183,30.983,44.641999999999996,44.705,0.0,0.0,100.0,0.0,0.0,0.0,0.0,3405.285714285714,3207.7,4195.857142857143,4151.7,304.547,304.5335,314.76033333333334,314.548,22.0961,20.7404,22.21,21.6089,314.999998,314.999998,324.999988,324.999988,99.56075714285714,99.51396666666666,99.57734285714285,99.55135714285714,-0.10450000000000004,0.77775,-0.1143333333333334,0.10400000000000009,-0.05833333333333002,-0.07166666666666544,1.5013333333333332,1.495,39.101,30.628,39.813,36.056,58.717,38.564,62.577,54.082499999999996,54.553,37.4585,61.119,52.3845,51.613,36.908,61.068,51.81433333333333,0.06266666666666643,0.7789999999999999,0.10262,0.09954,0.0,217.14499999999998,217.115,213.87666666666667,213.87666666666667,0.0,0.0
31,0.0,0.0,0.0,1.0,1.0,0.0,0.0,1.0,0.0,100.0,1.0,1.1856,26.0,0.0,0.0,0.0,59.999996,0.0,26.0,26.0,26.0,26.0,0.011222222222222245,0.24140000000000006,0.023366666666666668,289.566,-5.7378,-2.64725,-1.5921,-1.5246250000000001,-170.61,215.68,190.303625,0.0,0.0,0.0,0.0,0.06266666666666666,-5.498166666666667,-5.498166666666667,-0.6128,-0.5746666666666667,-0.008624999999999883,-0.028999999999999915,69.498,-0.006699999999999928,-0.24825,-0.25200000000000067,100.0,1.0,1.0,214.16333333333333,0.0,0.0,0.0,0.0,0.0,0.0,0.0,9077.6,0.0,55.0,5.0,250.17000000000002,1.0,0.0,0.0,0.0,0.0,0.0,1.0,0.0,1.5599999999999987,1.5599999999999987,0.0,0.0,1.0,55.0,616.79921,10000.0,85.000001,85.000001,85.000001,85.000001,395.0,0.0,0.0,0.0,1.0,166.665,49.179,49.179,44.891,44.891,34.0,-51.535,54.31166666666667,-31.403333333333336,29.375,0.0,1782.13,-11.065000000000001,100.0,30.968,31.016,45.413,45.364000000000004,0.0,0.0,100.0,0.0,0.0,0.0,0.0,3210.285714285714,3297.9,4323.285714285715,4231.4,305.272,304.46225,314.37333333333333,314.35825,22.1057,20.7471,22.2212,21.6185,314.999998,314.999998,324.999988,324.999988,99.56077142857143,99.51406666666666,99.57748571428571,99.5515,-0.1047499999999999,0.78125,-0.11066666666666658,0.11016666666666675,-0.061666666666667425,-0.061666666666667425,1.4413333333333334,1.454,39.16,30.6695,39.882999999999996,36.116,58.702,38.646,62.6095,54.1425,54.54,37.534,61.149,52.442499999999995,51.6,36.9795,61.094,51.870333333333335,0.06099999999999994,0.7770000000000001,0.104705,0.10705500000000001,0.0,217.495,217.495,214.16333333333333,214.16333333333333,0.0,0.0
32,0.0,0.0,0.0,1.0,1.0,0.0,0.0,1.0,0.0,100.0,1.0,1.1856,26.0,0.0,0.0,0.0,59.999996,0.0,26.0,26.0,26.0,26.0,0.006000000000000005,0.2593000000000001,-0.03963333333333333,290.024,-5.692,-2.747,-1.6417000000000002,-1.5270000000000001,-167.26999999999998,215.67000000000002,190.279875,0.0,0.0,0.0,0.0,0.06463333333333333,-5.498166666666667,-5.498166666666667,-0.6322,-0.16966666666666663,-0.03025000000000011,-0.5900000000000001,69.61500000000001,0.0040000000000000036,-0.2629,-0.3360000000000003,100.0,1.0,1.0,214.62,0.0,0.0,0.0,0.0,0.0,0.0,0.0,9097.0,0.0,55.0,5.0,250.58666666666664,0.0,0.0,0.0,0.0,0.0,0.0,1.0,0.0,1.6080000000000005,1.6080000000000005,0.0,0.0,0.0,55.0,616.79921,10000.0,85.000001,85.000001,85.000001,85.000001,395.0,0.0,0.0,0.0,1.0,333.33500000000004,49.332,49.332,45.99,45.99,34.0,-52.1475,52.04833333333333,-29.89666666666666,29.689999999999998,0.0,1782.08,-10.91,100.0,30.954,30.991,44.925,44.978,0.0,0.0,100.0,0.0,0.0,0.0,0.0,3240.4285714285716,3138.2,4220.285714285715,4230.6,305.113,304.83875,314.77366666666666,314.51375,22.1146,20.7534,22.2315,21.6274,314.999998,314.999998,324.999988,324.999988,99.56077142857143,99.51416666666667,99.57762857142858,99.55164285714285,-0.10599999999999987,0.783,-0.09733333333333338,0.12450000000000006,-0.07000000000000028,-0.06666666666666998,1.5276666666666667,1.5165,39.216,30.709,39.947,36.171,58.689,38.7235,62.6355,54.196,54.528,37.6055,61.1725,52.4935,51.588,37.0475,61.1145,51.92,0.07666666666666666,0.7753333333333337,0.10130000000000002,0.106755,0.0,217.86,217.85000000000002,214.62,214.62,0.0,0.0
33,0.0,0.0,0.0,1.0,1.0,0.0,0.0,1.0,0.0,100.0,1.0,1.1856,26.0,0.0,0.0,0.0,59.999996,0.0,26.0,26.0,26.0,26.0,0.030444444444444274,0.24780000000000002,-0.04493333333333333,290.344,-5.6913,-2.7513750000000003,-1.5766,-1.616625,-163.72,215.66,190.253375,0.0,0.0,0.0,0.0,0.06670000000000001,-5.498166666666667,-5.498166666666667,-0.642,-0.23666666666666658,-0.03275000000000006,0.558,69.74000000000001,0.0035000000000000586,-0.25125000000000003,-0.05600000000000005,100.0,1.0,1.0,215.0,0.0,0.0,0.0,0.0,0.0,0.0,0.0,9113.1,0.0,55.0,5.0,251.03666666666666,1.0,0.0,0.0,0.0,0.0,0.0,1.0,0.0,1.658999999999999,1.658999999999999,0.0,0.0,1.0,55.0,616.79921,10000.0,85.000001,85.000001,85.000001,85.000001,395.0,0.0,0.0,0.0,1.0,166.665,49.85,49.85,46.295,46.295,34.0,-50.31,50.975,-28.843333333333334,30.96,0.0,1782.03,-11.030000000000001,100.0,30.785,30.591,44.784,44.75,0.0,0.0,100.0,0.0,0.0,0.0,0.0,3158.285714285714,3068.8,4162.142857142857,4188.7,305.38,305.0615,314.82933333333335,314.55425,22.124,20.759900000000002,22.2424,21.6367,314.999998,314.999998,324.999988,324.999988,99.56078571428571,99.51426666666667,99.57778571428571,99.55178571428571,-0.09549999999999992,0.795,-0.10099999999999998,0.1293333333333333,-0.03833333333332689,-0.08500000000000085,1.521,1.509,39.275,30.749499999999998,40.015,36.2295,58.675,38.8025,62.6635,54.2515,54.516,37.678,61.198499999999996,52.547,51.575,37.1165,61.137,51.972,0.06866666666666665,0.786,0.10270000000000001,0.11220000000000001,0.0,218.25,218.235,215.0,215.0,0.0,0.0
34,0.0,0.0,0.0,1.0,1.0,0.0,0.0,1.0,0.0,100.0,1.0,1.1856,26.0,0.0,0.0,0.0,59.999996,0.0,26.0,26.0,26.0,26.0,0.009333333333333416,0.2439,-0.057600000000000005,290.558,-5.6392,-2.742,-1.6385,-1.575375,-160.37,215.65,190.22725,0.0,0.0,0.0,0.0,0.06863333333333334,-5.498166666666667,-5.498166666666667,-0.6635,-0.7256666666666667,-0.003375000000000128,0.47,69.858,0.00029999999999996696,-0.250825,-0.13200000000000056,100.0,1.0,1.0,215.35000000000002,0.0,0.0,0.0,0.0,0.0,0.0,0.0,9127.8,0.0,55.0,5.0,251.46333333333334,0.0,0.0,0.0,0.0,0.0,0.0,1.0,0.0,1.7070000000000007,1.7070000000000007,0.0,0.0,0.0,55.0,616.79921,10000.0,85.000001,85.000001,85.000001,85.000001,395.0,0.0,0.0,0.0,1.0,333.33500000000004,50.186,50.186,46.661,46.661,34.0,-49.025,50.875,-29.839999999999996,29.9125,0.0,1781.981,-11.105,100.0,30.48,30.201,44.547,44.885000000000005,0.0,0.0,100.0,0.0,0.0,0.0,0.0,3083.857142857143,3051.2,4133.0,4189.7,305.453,305.042,314.95933333333335,314.518,22.1328,20.766,22.2526,21.6456,314.999998,314.999998,324.999988,324.999988,99.5608,99.51435,99.57791428571429,99.55192857142858,-0.09199999999999986,0.7997500000000001,-0.10999999999999999,0.1186666666666667,-0.041666666666671404,-0.06833333333332803,1.5203333333333333,1.5045,39.33,30.7875,40.079,36.285,58.66,38.876,62.6885,54.3055,54.501999999999995,37.7455,61.2215,52.599000000000004,51.5615,37.181,61.1565,52.022333333333336,0.062333333333333574,0.7906666666666666,0.10962500000000001,0.10838,0.0,218.60000000000002,218.575,215.35000000000002,215.35000000000002,0.0,0.0
35,0.0,0.0,0.0,1.0,1.0,0.0,0.0,1.0,0.0,100.0,1.0,1.1856,26.0,0.0,0.0,0.0,59.999996,0.0,26.0,26.0,26.0,26.0,0.031888888888888856,0.24780000000000002,-0.054266666666666664,290.649,-5.7101,-2.676,-1.6258,-1.5246250000000001,-156.59,215.64,190.195875,0.0,0.0,0.0,0.0,0.07083333333333335,-5.498166666666667,-5.498166666666667,-0.7062,-0.356,-0.01112499999999983,-0.577,69.988,0.008800000000000141,-0.261675,-0.47799999999999976,100.0,1.0,1.0,215.82,0.0,0.0,0.0,0.0,0.0,0.0,0.0,9147.8,0.0,55.0,5.0,251.93,1.0,0.0,0.0,0.0,0.0,0.0,1.0,0.0,1.7609999999999992,1.7609999999999992,0.0,0.0,1.0,55.0,616.79921,10000.0,85.000001,85.000001,85.000001,85.000001,395.0,0.0,0.0,0.0,1.0,166.665,49.82,49.82,46.356,46.356,34.0,-50.9225,55.83333333333333,-27.97,28.6675,0.0,1781.928,-10.785,100.0,30.063,30.5,44.321,44.311,0.0,0.0,100.0,0.0,0.0,0.0,0.0,3153.857142857143,3356.3,4031.0,4034.2,305.3535,304.1925,315.10766666666666,314.90775,22.1426,20.7731,22.264,21.6554,314.999998,314.999998,324.999988,324.999988,99.56082857142857,99.51446666666666,99.57808571428572,99.55208571428571,-0.11799999999999988,0.77925,-0.09333333333333338,0.1363333333333332,-0.061666666666667425,-0.06833333333332803,1.5463333333333333,1.532,39.391,30.832,40.15,36.3465,58.641999999999996,38.963,62.716499999999996,54.3625,54.486000000000004,37.8255,61.247,52.6535,51.546,37.2575,61.1785,52.07566666666666,0.09166666666666634,0.7663333333333333,0.104035,0.11082000000000002,0.0,219.005,218.995,215.82,215.82,0.0,0.0
36,0.0,0.0,0.0,1.0,1.0,0.0,0.0,1.0,0.0,100.0,1.0,1.1856,26.0,0.0,0.0,0.0,59.999996,0.0,26.0,26.0,26.0,26.0,0.00955555555555554,0.24450000000000016,0.025733333333333334,289.902,-5.6277,-2.718125,-1.5693000000000001,-1.57325,-153.23,215.6325,190.1665,0.0,0.0,0.0,0.0,0.07276666666666666,-5.498166666666667,-5.498166666666667,-0.6884,0.3380000000000001,-0.058499999999999996,-0.7290000000000001,70.106,0.014499999999999957,-0.22965000000000002,-0.007999999999999119,100.0,1.0,1.0,216.01999999999998,0.0,0.0,0.0,0.0,0.0,0.0,0.0,9156.3,0.0,55.0,5.0,252.35666666666668,0.0,0.0,0.0,0.0,0.0,0.0,1.0,0.0,1.809000000000001,1.809000000000001,0.0,0.0,0.0,55.0,616.79921,10000.0,85.000001,85.000001,85.000001,85.000001,395.0,0.0,0.0,0.0,1.0,166.665,49.5,49.5,45.959,45.959,34.0,-51.7375,51.998333333333335,-30.426666666666662,32.485,0.0,1781.881,-10.625,100.0,30.756999999999998,30.7,44.513,44.655,0.0,0.0,100.0,0.0,0.0,0.0,0.0,3201.857142857143,3152.2,4369.714285714285,4401.5,305.013,304.84125,314.35433333333333,314.0475,22.1515,20.7795,22.2742,21.6643,314.999998,314.999998,324.999988,324.999988,99.56084285714286,99.51456666666667,99.57821428571428,99.55222857142857,-0.10499999999999998,0.77775,-0.09516666666666662,0.13000000000000012,-0.06499999999999773,-0.07000000000000028,1.46,1.466,39.447,30.872,40.214,36.402,58.631,39.0405,62.7425,54.4165,54.476,37.897,61.271,52.7055,51.535,37.3255,61.199,52.126333333333335,0.1030000000000002,0.7509999999999999,0.110575,0.112045,0.0,219.405,219.385,216.01999999999998,216.01999999999998,0.0,0.0
