,ABS Active,ABS Enabled,AID Allow Tire Blankets,AID Auto Blip,AID Auto Clutch,AID Auto Shift,AID Fuel Rate,AID Ideal Line,AID Mech Damage,AID Stability,AID Tire Wear Rate,Air Density,Air Temp,Ballast,Best Lap Delta,Best Lap Time,Brake Bias,Brake Pos,Brake Temp FL,Brake Temp FR,Brake Temp RL,Brake Temp RR,CG Accel Lateral,CG Accel Longitudinal,CG Accel Vertical,CG Height,Camber FL,Camber FR,Camber RL,Camber RR,Car Coord X,Car Coord Y,Car Coord Z,Car Damage Front,Car Damage Left,Car Damage Rear,Car Damage Right,Car Pos Norm,Caster FL,Caster FR,Chassis Pitch Angle,Chassis Pitch Rate,Chassis Roll Angle,Chassis Roll Rate,Chassis Velocity X,Chassis Velocity Y,Chassis Velocity Z,Chassis Yaw Rate,Clutch Pos,DRS Active,DRS Available,Drive Train Speed,ERS Heat Charging,ERS Is Charging,ERS Max Energy,ERS Power Level,ERS Recovery Level,Engine Brake Setting,Engine Limiter,Engine RPM,Flags,Fuel Level,Gear,Ground Speed,HR Sample Clock,In Pit,KERS Charge,KERS Deployed Energy,KERS Input,KERS Max Energy,LR Sample Clock,Lap Invalidated,Lap Time,Lap Time2,Last Lap Time,Last Sector Time,MR Sample Clock,Max Fuel,Max Power,Max RPM,Max Sus Travel FL,Max Sus Travel FR,Max Sus Travel RL,Max Sus Travel RR,Max Torque,Max Turbo Boost,Num Tires Off Track,Penalties Enabled,Position,Raw Data Sample Rate,Ride Height FL,Ride Height FR,Ride Height RL,Ride Height RR,Road Temp,Self Align Torque FL,Self Align Torque FR,Self Align Torque RL,Self Align Torque RR,Session Lap Count,Session Time Left,Steering Angle,Surface Grip,Suspension Travel FL,Suspension Travel FR,Suspension Travel RL,Suspension Travel RR,TC Active,TC Enabled,Throttle Pos,Tire Dirt Level FL,Tire Dirt Level FR,Tire Dirt Level RL,Tire Dirt Level RR,Tire Load FL,Tire Load FR,Tire Load RL,Tire Load RR,Tire Loaded Radius FL,Tire Loaded Radius FR,Tire Loaded Radius RL,Tire Loaded Radius RR,Tire Pressure FL,Tire Pressure FR,Tire Pressure RL,Tire Pressure RR,Tire Radius FL,Tire Radius FR,Tire Radius RL,Tire Radius RR,Tire Rubber Grip FL,Tire Rubber Grip FR,Tire Rubber Grip RL,Tire Rubber Grip RR,Tire Slip Angle FL,Tire Slip Angle FR,Tire Slip Angle RL,Tire Slip Angle RR,Tire Slip Ratio FL,Tire Slip Ratio FR,Tire Slip Ratio RL,Tire Slip Ratio RR,Tire Temp Core FL,Tire Temp Core FR,Tire Temp Core RL,Tire Temp Core RR,Tire Temp Inner FL,Tire Temp Inner FR,Tire Temp Inner RL,Tire Temp Inner RR,Tire Temp Middle FL,Tire Temp Middle FR,Tire Temp Middle RL,Tire Temp Middle RR,Tire Temp Outer FL,Tire Temp Outer FR,Tire Temp Outer RL,Tire Temp Outer RR,Toe In FL,Toe In FR,Toe In RL,Toe In RR,Turbo Boost,Wheel Angular Speed FL,Wheel Angular Speed FR,Wheel Angular Speed RL,Wheel Angular Speed RR,Wind Direction,Wind Speed
0,0.0,0.0,0.0,1.0,1.0,0.0,0.0,1.0,0.0,100.0,1.0,1.1856,26.0,0.0,0.0,0.0,59.99999,0.0,26.0,26.0,26.0,26.0,-0.06222222222222218,0.3017000000000001,0.15380000000000002,291.29,-5.6911000000000005,-2.4932499999999997,-1.5352000000000001,-1.5485555555555557,-275.42,216.1625,190.983375,0.0,0.0,0.0,0.0,0.0017333333333333333,-5.498166666666667,-5.498166666666667,-0.5866,2.9295,-0.008500000000000174,-1.686,65.345,-0.0474,-0.26095,0.798,100.0,1.0,1.0,201.79000000000002,0.0,0.0,0.0,0.0,0.0,0.0,0.0,8553.2,0.0,55.0,5.0,235.21333333333334,0.0,0.0,0.0,0.0,0.0,0.0,0.0,0.0,0.006000000000000227,0.006000000000000227,0.0,0.0,0.0,55.0,616.79921,10000.0,85.0,85.0,85.0,85.0,395.0,0.0,0.0,0.0,1.0,20.0,48.644999999999996,48.644999999999996,47.745,47.745,34.0,-54.7375,57.336,-32.36,23.88,0.0,1783.7,-9.794999999999998,100.0,30.701,30.611,41.829,41.864000000000004,0.0,0.0,100.0,0.0,0.0,0.0,0.0,3264.0,3592.8,4267.0,3996.9,304.911,303.204,314.64425,314.875,21.7725,20.5551,21.9136,21.3427,314.99999,314.99999,324.99998,324.99998,99.55801428571428,99.51103333333333,99.57448571428571,99.54744285714285,-0.20524999999999993,0.6990000000000001,-0.1718333333333334,0.045666666666666744,-0.10000000000000142,-0.086666666666666,1.5586666666666666,1.582,37.078,29.4695,37.96,34.391999999999996,58.2,36.1255,62.119,52.435,54.120999999999995,35.231,60.713,50.786500000000004,51.2785,34.7995,60.754,50.237,0.1506666666666665,0.6953333333333336,0.10741,0.10335000000000001,0.0,204.81,204.715,201.79000000000002,201.79000000000002,0.0,0.0
1,0.0,0.0,0.0,1.0,1.0,0.0,0.0,1.0,0.0,100.0,1.0,1.1856,26.0,0.0,0.0,0.0,59.999996,0.0,26.0,26.0,26.0,26.0,-0.1273333333333333,0.29170000000000007,0.01875,291.10699999999997,-5.6095,-2.841125,-1.5432000000000001,-1.5796666666666668,-272.09,216.1575,190.964125,0.0,0.0,0.0,0.0,0.0036666666666666666,-5.498166666666667,-5.498166666666667,-0.5105000000000001,-1.4580000000000002,-0.06050000000000022,-0.359,65.498,-0.04730000000000001,-0.22517500000000001,1.0839999999999996,100.0,1.0,1.0,201.85666666666668,0.0,0.0,0.0,0.0,0.0,0.0,0.0,8555.9,0.0,55.0,5.0,235.76333333333332,1.0,0.0,0.0,0.0,0.0,0.0,0.0,0.0,0.05699999999999861,0.05699999999999861,0.0,0.0,1.0,55.0,616.79921,10000.0,85.000001,85.000001,85.000001,85.000001,395.0,0.0,0.0,0.0,1.0,166.665,51.376,51.376,46.692,46.692,34.0,-46.9125,40.702,-33.975,31.345,0.0,1783.648,-9.379999999999999,100.0,30.489,29.358,44.422,43.462,0.0,0.0,100.0,0.0,0.0,0.0,0.0,2848.875,2683.7,4337.125,4731.6,306.0783333333333,306.50675,314.1855,313.024,21.7822,20.5606,21.9252,21.3522,314.999998,314.999998,324.999988,324.999988,99.55805714285714,99.5111,99.57462857142858,99.54758571428572,-0.22099999999999986,0.668,-0.16200000000000003,0.057666666666666755,-0.061666666666667425,-0.05833333333333002,1.3643333333333334,1.415,37.138999999999996,29.5035,38.032,34.451499999999996,58.192,36.1915,62.158,52.5005,54.114000000000004,35.292,60.749,50.8495,51.271,34.8575,60.787,50.29866666666666,0.2023333333333337,0.6546666666666665,0.101995,0.10508,0.0,205.185,205.07999999999998,201.85666666666668,201.85666666666668,0.0,0.0
2,0.0,0.0,0.0,1.0,1.0,0.0,0.0,1.0,0.0,100.0,1.0,1.1856,26.0,0.0,0.0,0.0,59.999996,0.0,26.0,26.0,26.0,26.0,-0.15388888888888885,0.29610000000000003,-0.085075,291.992,-5.566,-2.833,-1.4875,-1.671,-268.74,216.15,190.945375,0.0,0.0,0.0,0.0,0.005633333333333334,-5.498166666666667,-5.498166666666667,-0.5844,0.35450000000000004,-0.06887500000000024,1.1189999999999998,65.634,-0.07009999999999994,-0.2841,2.1260000000000003,100.0,1.0,1.0,202.93333333333334,0.0,0.0,0.0,0.0,0.0,0.0,0.0,8601.5,0.0,55.0,5.0,236.25333333333333,0.0,0.0,0.0,0.0,0.0,0.0,0.0,0.0,0.10800000000000054,0.10800000000000054,0.0,0.0,0.0,55.0,616.79921,10000.0,85.000001,85.000001,85.000001,85.000001,395.0,0.0,0.0,0.0,1.0,333.33500000000004,49.683,49.683,49.362,49.362,34.0,-59.5625,45.498,-29.63,18.560000000000002,0.0,1783.597,-9.695,100.0,30.898,29.536,43.753,42.499,0.0,0.0,100.0,0.0,0.0,0.0,0.0,3497.25,2904.7,3726.625,3438.4,304.1773333333333,305.50825,315.88875,316.34575,21.7924,20.5661,21.9362,21.3609,314.999998,314.999998,324.999988,324.999988,99.55808571428571,99.51118333333334,99.57477142857142,99.54771428571429,-0.22899999999999987,0.672,-0.24716666666666665,-0.003166666666666651,-0.06833333333332803,-0.10666666666666913,1.6936666666666667,1.768,37.202,29.538,38.101,34.506,58.194,36.2575,62.1855,52.55,54.114999999999995,35.352000000000004,60.7745,50.897,51.269999999999996,34.915,60.8095,50.34466666666667,0.17399999999999993,0.6779999999999999,0.11178500000000001,0.109215,0.0,205.63,205.45,202.93333333333334,202.93333333333334,0.0,0.0
3,0.0,0.0,0.0,1.0,1.0,0.0,0.0,1.0,0.0,100.0,1.0,1.1856,26.0,0.0,0.0,0.0,59.999996,0.0,26.0,26.0,26.0,26.0,-0.1093333333333334,0.30590000000000006,0.073725,291.26,-5.7074,-2.72075,-1.5314,-1.593777777777778,-265.59,216.14,190.9265,0.0,0.0,0.0,0.0,0.0074666666666666675,-5.498166666666667,-5.498166666666667,-0.5308,0.4585,-0.011375000000000135,-1.072,65.776,-0.10029999999999994,-0.21745,1.1639999999999997,100.0,1.0,1.0,202.88,0.0,0.0,0.0,0.0,0.0,0.0,0.0,8599.4,0.0,55.0,5.0,236.76333333333332,1.0,0.0,0.0,0.0,0.0,0.0,0.0,0.0,0.1559999999999988,0.1559999999999988,0.0,0.0,1.0,55.0,616.79921,10000.0,85.000001,85.000001,85.000001,85.000001,395.0,0.0,0.0,0.0,1.0,166.665,50.674,50.674,46.555,46.555,34.0,-49.4725,43.188,-37.4925,23.985,0.0,1783.55,-10.015,100.0,30.52,29.924,43.863,42.819,0.0,0.0,100.0,0.0,0.0,0.0,0.0,2988.625,2792.2,4394.375,4307.3,305.83233333333334,305.7425,314.226,314.13375,21.8016,20.5714,21.9467,21.3695,314.999998,314.999998,324.999988,324.999988,99.5581,99.51125,99.5749,99.54785714285714,-0.2217499999999999,0.671,-0.2333333333333334,-0.009333333333333305,-0.05333333333332746,-0.05833333333333002,1.4556666666666667,1.512,37.26,29.5715,38.167,34.5595,58.189,36.324,62.2145,52.608000000000004,54.11,35.413,60.801,50.952,51.2645,34.973,60.8335,50.399,0.14066666666666672,0.7130000000000001,0.1068,0.10557000000000001,0.0,206.075,205.95,202.88,202.88,0.0,0.0
4,0.0,0.0,0.0,1.0,1.0,0.0,0.0,1.0,0.0,100.0,1.0,1.1856,26.0,0.0,0.0,0.0,59.999996,0.0,26.0,26.0,26.0,26.0,-0.1487777777777778,0.27700000000000014,0.039375,291.351,-5.639,-2.81625,-1.5499,-1.6112222222222221,-262.23,216.125,190.90675,0.0,0.0,0.0,0.0,0.0094,-5.498166666666667,-5.498166666666667,-0.5714,-0.9155,-0.07262499999999994,-0.11299999999999999,65.917,-0.0905999999999999,-0.27032500000000004,0.9340000000000002,100.0,1.0,1.0,203.48000000000002,0.0,0.0,0.0,0.0,0.0,0.0,0.0,8624.7,0.0,55.0,5.0,237.27666666666667,0.0,0.0,0.0,0.0,0.0,0.0,0.0,0.0,0.20700000000000074,0.20700000000000074,0.0,0.0,0.0,55.0,616.79921,10000.0,85.000001,85.000001,85.000001,85.000001,395.0,0.0,0.0,0.0,1.0,166.665,49.957,49.957,47.241,47.241,34.0,-55.14,46.972,-32.019999999999996,21.57,0.0,1783.498,-9.814999999999998,100.0,30.67,29.748,44.504,42.989000000000004,0.0,0.0,100.0,0.0,0.0,0.0,0.0,3251.375,3021.7,4020.625,3764.1000000000004,304.90866666666665,305.29225,314.9635,315.5425,21.8113,20.5771,21.958,21.3787,314.999998,314.999998,324.999988,324.999988,99.55814285714285,99.51133333333334,99.57505714285715,99.54798571428572,-0.23675000000000002,0.661,-0.19766666666666666,0.018333333333333313,-0.06499999999999773,-0.09166666666666856,1.5496666666666665,1.598,37.321,29.607,38.236999999999995,34.617,58.185,36.391999999999996,62.247,52.6655,54.105999999999995,35.4755,60.831,51.0075,51.259,35.0325,60.86,50.452666666666666,0.16666666666666652,0.6903333333333332,0.10745,0.100595,0.0,206.44,206.36,203.48000000000002,203.48000000000002,0.0,0.0
5,0.0,0.0,0.0,1.0,1.0,0.0,0.0,1.0,0.0,100.0,1.0,1.1856,26.0,0.0,0.0,0.0,59.999996,0.0,26.0,26.0,26.0,26.0,-0.12477777777777777,0.29059999999999997,-0.0239,291.367,-5.6454,-2.78425,-1.5298,-1.6480000000000001,-258.87,216.10750000000002,190.8865,0.0,0.0,0.0,0.0,0.011366666666666667,-5.498166666666667,-5.498166666666667,-0.5669000000000001,0.387,-0.08412500000000023,-0.6959999999999997,66.059,-0.0917,-0.245875,1.298,100.0,1.0,1.0,203.90666666666667,0.0,0.0,0.0,0.0,0.0,0.0,0.0,8642.9,0.0,55.0,5.0,237.7866666666667,1.0,0.0,0.0,0.0,0.0,0.0,0.0,0.0,0.2579999999999991,0.2579999999999991,0.0,0.0,1.0,55.0,616.79921,10000.0,85.000001,85.000001,85.000001,85.000001,395.0,0.0,0.0,0.0,1.0,333.33500000000004,50.217,50.217,47.531,47.531,34.0,-54.417500000000004,42.312,-34.73,22.627499999999998,0.0,1783.447,-10.204999999999998,100.0,30.885,29.994,44.112,42.79,0.0,0.0,100.0,0.0,0.0,0.0,0.0,3251.75,2728.5,4198.75,3972.6000000000004,305.082,305.99975,314.77,314.95325,21.8213,20.5827,21.969,21.3876,314.999998,314.999998,324.999988,324.999988,99.55817142857143,99.5114,99.5752,99.54812857142858,-0.22299999999999986,0.67575,-0.22966666666666657,-0.0008333333333333526,-0.04999999999999716,-0.06833333333332803,1.5436666666666667,1.604,37.382999999999996,29.642,38.307,34.6725,58.184,36.4595,62.2775,52.7195,54.105000000000004,35.5375,60.859,51.059,51.2565,35.091,60.885,50.50266666666667,0.1326666666666667,0.7146666666666666,0.11078500000000001,0.112085,0.0,206.945,206.84,203.90666666666667,203.90666666666667,0.0,0.0
6,0.0,0.0,0.0,1.0,1.0,0.0,0.0,1.0,0.0,100.0,1.0,1.1856,26.0,0.0,0.0,0.0,59.999996,0.0,26.0,26.0,26.0,26.0,-0.11644444444444446,0.29980000000000007,0.022475000000000002,290.985,-5.609,-2.8192500000000003,-1.5723,-1.5954444444444444,-255.69,216.0875,190.867,0.0,0.0,0.0,0.0,0.013233333333333335,-5.498166666666667,-5.498166666666667,-0.5625,0.016000000000000014,-0.0677500000000002,-0.9729999999999999,66.195,-0.0947,-0.24530000000000002,0.9000000000000004,100.0,1.0,1.0,204.26999999999998,0.0,0.0,0.0,0.0,0.0,0.0,0.0,8658.2,0.0,55.0,5.0,238.2733333333333,0.0,0.0,0.0,0.0,0.0,0.0,0.0,0.0,0.30600000000000094,0.30600000000000094,0.0,0.0,0.0,55.0,616.79921,10000.0,85.000001,85.000001,85.000001,85.000001,395.0,0.0,0.0,0.0,1.0,166.665,49.805,49.805,47.028,47.028,34.0,-54.0375,45.408,-34.835,22.572499999999998,0.0,1783.399,-10.745000000000001,100.0,30.95,30.164,44.309,43.15,0.0,0.0,100.0,0.0,0.0,0.0,0.0,3252.375,2867.5,4218.625,4004.6000000000004,305.0443333333333,305.504,314.70225,314.85475,21.8307,20.5881,21.9796,21.3963,314.999998,314.999998,324.999988,324.999988,99.55818571428571,99.51148333333333,99.57532857142857,99.54825714285714,-0.20599999999999996,0.68775,-0.21283333333333332,0.004166666666666652,-0.06666666666666998,-0.05833333333333002,1.517,1.562,37.442,29.6755,38.372,34.7265,58.18,36.5255,62.307,52.775,54.101,35.598,60.8865,51.1115,51.2515,35.1485,60.909,50.55433333333333,0.10199999999999987,0.7466666666666666,0.098015,0.109045,0.0,207.335,207.23000000000002,204.26999999999998,204.26999999999998,0.0,0.0
7,0.0,0.0,0.0,1.0,1.0,0.0,0.0,1.0,0.0,100.0,1.0,1.1856,26.0,0.0,0.0,0.0,59.999996,0.0,26.0,26.0,26.0,26.0,-0.07499999999999996,0.28390000000000004,0.01905,290.787,-5.5686,-2.8215000000000003,-1.5306000000000002,-1.6445555555555558,-252.31,216.0625,190.8465,0.0,0.0,0.0,0.0,0.015166666666666667,-5.498166666666667,-5.498166666666667,-0.5697,0.09450000000000003,-0.054625000000000146,1.54,66.336,-0.08399999999999996,-0.264075,0.4639999999999995,100.0,1.0,1.0,204.71666666666667,0.0,0.0,0.0,0.0,0.0,0.0,0.0,8677.2,0.0,55.0,5.0,238.78,1.0,0.0,0.0,0.0,0.0,0.0,0.0,0.0,0.3569999999999993,0.3569999999999993,0.0,0.0,1.0,55.0,616.79921,10000.0,85.000001,85.000001,85.000001,85.000001,395.0,0.0,0.0,0.0,1.0,166.665,49.347,49.347,47.241,47.241,34.0,-52.3975,49.766,-31.295,25.11,0.0,1783.349,-11.024999999999999,100.0,31.406,30.171,44.551,43.274,0.0,0.0,100.0,0.0,0.0,0.0,0.0,3195.375,3062.3,3995.25,4055.9,304.914,305.09875,315.06075,314.8165,21.8407,20.5939,21.9908,21.4055,314.999998,314.999998,324.999988,324.999988,99.55821428571429,99.51156666666667,99.57547142857143,99.5484,-0.15225,0.7425,-0.19199999999999995,0.03483333333333327,-0.051666666666669414,-0.07000000000000028,1.5346666666666666,1.554,37.504000000000005,29.7115,38.442,34.784,58.176,36.5985,62.338,52.833,54.097,35.665,60.915,51.167500000000004,51.246,35.2125,60.934,50.608666666666664,0.06899999999999995,0.7810000000000001,0.10719500000000001,0.10133,0.0,207.76,207.675,204.71666666666667,204.71666666666667,0.0,0.0
8,0.0,0.0,0.0,1.0,1.0,0.0,0.0,1.0,0.0,100.0,1.0,1.1856,26.0,0.0,0.0,0.0,59.999996,0.0,26.0,26.0,26.0,26.0,-0.016888888888888842,0.28700000000000014,0.0307,290.939,-5.662,-2.7405,-1.5173999999999999,-1.6280000000000001,-248.93,216.0375,190.826,0.0,0.0,0.0,0.0,0.017166666666666667,-5.498166666666667,-5.498166666666667,-0.5709000000000001,-0.5705,-0.03874999999999984,-1.027,66.477,-0.06369999999999998,-0.25477500000000003,-0.06799999999999962,100.0,1.0,1.0,205.09333333333333,0.0,0.0,0.0,0.0,0.0,0.0,0.0,8693.2,0.0,55.0,5.0,239.29000000000002,0.0,0.0,0.0,0.0,0.0,0.0,0.0,0.0,0.40800000000000125,0.40800000000000125,0.0,0.0,0.0,55.0,616.79921,10000.0,85.000001,85.000001,85.000001,85.000001,395.0,0.0,0.0,0.0,1.0,166.665,50.034,50.034,46.631,46.631,34.0,-49.875,46.816,-31.2175,26.095,0.0,1783.298,-11.125,100.0,30.824,30.444,44.47,43.641,0.0,0.0,100.0,0.0,0.0,0.0,0.0,3101.375,2915.4,4126.75,4037.9,305.6376666666667,305.4245,314.85525,314.7175,21.8504,20.5996,22.0019,21.4146,314.999998,314.999998,324.999988,324.999988,99.55822857142857,99.51165,99.57561428571428,99.54854285714286,-0.15474999999999994,0.7365,-0.17166666666666663,0.05566666666666675,-0.04833333333333201,-0.05833333333333002,1.528,1.5270000000000001,37.565,29.747500000000002,38.512,34.841499999999996,58.166,36.672,62.369,52.8905,54.088,35.732,60.943,51.2225,51.2365,35.2765,60.9595,50.662333333333336,0.05799999999999983,0.7923333333333336,0.10516500000000001,0.11129000000000001,0.0,208.15,208.135,205.09333333333333,205.09333333333333,0.0,0.0
9,0.0,0.0,0.0,1.0,1.0,0.0,0.0,1.0,0.0,100.0,1.0,1.1856,26.0,0.0,0.0,0.0,59.999996,0.0,26.0,26.0,26.0,26.0,-0.03444444444444439,0.2743,0.016,290.665,-5.5912,-2.758,-1.5742,-1.577,-245.73,216.0125,190.80625,0.0,0.0,0.0,0.0,0.019,-5.498166666666667,-5.498166666666667,-0.5735,0.721,-0.04012500000000019,-0.8599999999999999,66.608,-0.0393,-0.25377500000000003,-0.09799999999999986,100.0,1.0,1.0,205.59333333333333,0.0,0.0,0.0,0.0,0.0,0.0,0.0,8714.4,0.0,55.0,5.0,239.75666666666666,1.0,0.0,0.0,0.0,0.0,0.0,0.0,0.0,0.4559999999999995,0.4559999999999995,0.0,0.0,1.0,55.0,616.79921,10000.0,85.000001,85.000001,85.000001,85.000001,395.0,0.0,0.0,0.0,1.0,333.33500000000004,49.010999999999996,49.010999999999996,47.47,47.47,34.0,-55.22,49.007999999999996,-30.572499999999998,26.240000000000002,0.0,1783.249,-11.245000000000001,100.0,31.168,30.737000000000002,44.053,43.602000000000004,0.0,0.0,100.0,0.0,0.0,0.0,0.0,3399.5,2992.3,4065.75,4023.2,304.5613333333333,305.11125,315.10425,314.84425,21.8598,20.6052,22.0123,21.4232,314.999998,314.999998,324.999988,324.999988,99.55824285714286,99.51173333333334,99.57575714285714,99.54867142857142,-0.1279999999999999,0.75925,-0.16083333333333338,0.07866666666666666,-0.06833333333332803,-0.07666666666666799,1.5626666666666666,1.554,37.623000000000005,29.783,38.577,34.894999999999996,58.159,36.746,62.3945,52.944,54.081,35.8,60.966499999999996,51.2735,51.2295,35.341,60.980000000000004,50.712,0.051000000000000156,0.7959999999999998,0.11068000000000001,0.10641,0.0,208.59,208.56,205.59333333333333,205.59333333333333,0.0,0.0
10,0.0,0.0,0.0,1.0,1.0,0.0,0.0,1.0,0.0,100.0,1.0,1.1856,26.0,0.0,0.0,0.0,59.999996,0.0,26.0,26.0,26.0,26.0,-0.005111111111111066,0.27249999999999996,-0.01255,290.649,-5.6524,-2.749,-1.5484,-1.5575555555555556,-242.32999999999998,215.985,190.785625,0.0,0.0,0.0,0.0,0.021,-5.498166666666667,-5.498166666666667,-0.5537000000000001,-0.5635000000000001,0.0008749999999999591,2.295,66.75,-0.01979999999999993,-0.24700000000000003,-0.4560000000000004,100.0,1.0,1.0,205.84,0.0,0.0,0.0,0.0,0.0,0.0,0.0,8724.8,0.0,55.0,5.0,240.27333333333334,0.0,0.0,0.0,0.0,0.0,0.0,1.0,0.0,0.5069999999999979,0.5069999999999979,0.0,0.0,0.0,55.0,616.79921,10000.0,85.000001,85.000001,85.000001,85.000001,395.0,0.0,0.0,0.0,1.0,333.33500000000004,50.079,50.079,46.204,46.204,34.0,-44.125,48.668,-29.182499999999997,29.97,0.0,1783.197,-11.474999999999998,100.0,31.212,30.473,44.655,44.121,0.0,0.0,100.0,0.0,0.0,0.0,0.0,2827.25,2976.5,4165.75,4300.0,306.10966666666667,305.48475,314.641,314.22875,21.8695,20.6111,22.023600000000002,21.4326,314.999998,314.999998,324.999988,324.999988,99.55825714285714,99.51181666666666,99.5759,99.54881428571429,-0.08349999999999991,0.7985,-0.11066666666666658,0.10683333333333334,-0.054999999999999716,-0.08833333333333115,1.4956666666666667,1.469,37.685,29.819499999999998,38.647,34.9535,58.147,36.823,62.4265,53.004999999999995,54.071,35.8705,60.996,51.332,51.2185,35.408,61.006,50.769,0.033333333333333215,0.8156666666666665,0.09977000000000001,0.11034000000000001,0.0,209.015,209.01,205.84,205.84,0.0,0.0
11,0.0,0.0,0.0,1.0,1.0,0.0,0.0,1.0,0.0,100.0,1.0,1.1856,26.0,0.0,0.0,0.0,59.999996,0.0,26.0,26.0,26.0,26.0,0.03933333333333322,0.27090000000000014,-0.043475,291.046,-5.6786,-2.713375,-1.6099999999999999,-1.5184444444444445,-238.92000000000002,215.95749999999998,190.764875,0.0,0.0,0.0,0.0,0.022600000000000002,-5.498166666666667,-5.498166666666667,-0.5932000000000001,-0.12200000000000011,0.027374999999999927,-1.45,66.885,-0.0013999999999999568,-0.269,-0.6839999999999993,100.0,1.0,1.0,206.54333333333335,0.0,0.0,0.0,0.0,0.0,0.0,0.0,8754.7,0.0,55.0,5.0,240.75666666666666,1.0,0.0,0.0,0.0,0.0,0.0,1.0,0.0,0.5579999999999998,0.5579999999999998,0.0,0.0,1.0,55.0,616.79921,10000.0,85.000001,85.000001,85.000001,85.000001,395.0,0.0,0.0,0.0,1.0,333.33500000000004,49.408,49.408,47.592,47.592,34.0,-49.665,51.086,-26.182499999999997,25.625,0.0,1783.146,-11.32,100.0,30.782,30.967,43.907,44.24,0.0,0.0,100.0,0.0,0.0,0.0,0.0,3132.75,3077.2,3800.75,3845.2,305.477,304.86575,315.78725,315.268,21.8791,20.6171,22.0345,21.4417,314.999998,314.999998,324.999988,324.999988,99.55827142857143,99.51191666666666,99.57602857142857,99.54895714285715,-0.10525000000000007,0.7915,-0.11516666666666664,0.11583333333333323,-0.0799999999999983,-0.06833333333332803,1.6343333333333334,1.621,37.745000000000005,29.857,38.716,35.010999999999996,58.132999999999996,36.903999999999996,62.451,53.0615,54.057,35.945,61.0185,51.3865,51.205,35.479,61.025,50.82233333333333,0.04933333333333367,0.8066666666666666,0.10823,0.10960500000000001,0.0,209.41,209.42000000000002,206.54333333333335,206.54333333333335,0.0,0.0
12,0.0,0.0,0.0,1.0,1.0,0.0,0.0,1.0,0.0,100.0,1.0,1.1856,26.0,0.0,0.0,0.0,59.999996,0.0,26.0,26.0,26.0,26.0,0.03766666666666674,0.2852000000000001,0.033675000000000004,290.314,-5.7024,-2.698125,-1.581,-1.5731111111111111,-235.71,215.9325,190.744,0.0,0.0,0.0,0.0,0.025466666666666665,-5.498166666666667,-5.498166666666667,-0.5797,0.3045,0.017749999999999932,-1.071,67.018,0.02320000000000011,-0.24475000000000002,-0.8780000000000001,100.0,1.0,1.0,206.72333333333333,0.0,0.0,0.0,0.0,0.0,0.0,0.0,8762.3,0.0,55.0,5.0,241.23666666666668,0.0,0.0,0.0,0.0,0.0,0.0,1.0,0.0,0.6059999999999981,0.6059999999999981,0.0,0.0,0.0,55.0,616.79921,10000.0,85.000001,85.000001,85.000001,85.000001,395.0,0.0,0.0,0.0,1.0,166.665,49.118,49.118,46.28,46.28,34.0,-51.93,50.848,-28.145,30.6075,0.0,1783.099,-10.04,100.0,30.847,31.248,43.993,44.31,0.0,0.0,100.0,0.0,0.0,0.0,0.0,3186.125,3134.5,4232.625,4157.5,305.2853333333333,304.719,314.685,314.50175,21.8882,20.6229,22.0449,21.4504,314.999998,314.999998,324.999988,324.999988,99.55827142857143,99.51201666666667,99.57617142857143,99.54908571428571,-0.15249999999999986,0.7375,-0.08033333333333337,0.13816666666666677,-0.06499999999999773,-0.06666666666666998,1.5363333333333333,1.499,37.801,29.893,38.781,35.065,58.117999999999995,36.984,62.4785,53.1165,54.044,36.0185,61.0435,51.439,51.192,35.549,61.0465,50.873666666666665,0.1160000000000001,0.7266666666666666,0.105635,0.09536000000000001,0.0,209.825,209.865,206.72333333333333,206.72333333333333,0.0,0.0
13,0.0,0.0,0.0,1.0,1.0,0.0,0.0,1.0,0.0,100.0,1.0,1.1856,26.0,0.0,0.0,0.0,59.999996,0.0,26.0,26.0,26.0,26.0,0.07711111111111113,0.27859999999999996,0.0499,290.024,-5.6594,-2.7155,-1.6068,-1.571777777777778,-232.29,215.9075,190.7225,0.0,0.0,0.0,0.0,0.026833333333333334,-5.498166666666667,-5.498166666666667,-0.5716,-0.09450000000000003,0.016874999999999973,1.516,67.155,0.03069999999999995,-0.2559,-0.6980000000000004,100.0,1.0,1.0,207.10666666666668,0.0,0.0,0.0,0.0,0.0,0.0,0.0,8778.5,0.0,55.0,5.0,241.73333333333335,1.0,0.0,0.0,0.0,0.0,0.0,1.0,0.0,0.657,0.657,0.0,0.0,1.0,55.0,616.79921,10000.0,85.000001,85.000001,85.000001,85.000001,395.0,0.0,0.0,0.0,1.0,166.665,48.95,48.95,46.188,46.188,34.0,-47.4775,54.316,-27.2625,33.24,0.0,1783.048,-11.489999999999998,100.0,31.320999999999998,31.16,44.462,44.653999999999996,0.0,0.0,100.0,0.0,0.0,0.0,0.0,3074.0,3207.0,4128.0,4331.5,305.353,304.727,314.76925,314.1735,21.8979,20.6291,22.0561,21.4598,314.999998,314.999998,324.999988,324.999988,99.55828571428572,99.51211666666667,99.57631428571429,99.54922857142857,-0.028249999999999886,0.8552500000000001,-0.06566666666666665,0.15933333333333333,-0.07000000000000028,-0.0799999999999983,1.5026666666666668,1.477,37.861999999999995,29.932000000000002,38.851,35.124,58.105000000000004,37.068,62.507999999999996,53.1775,54.032,36.096000000000004,61.070499999999996,51.4975,51.1795,35.623,61.070499999999996,50.93066666666667,0.022666666666666835,0.8223333333333334,0.10931,0.106215,0.0,210.26999999999998,210.26,207.10666666666668,207.10666666666668,0.0,0.0
14,0.0,0.0,0.0,1.0,1.0,0.0,0.0,1.0,0.0,100.0,1.0,1.1856,26.0,0.0,0.0,0.0,59.999996,0.0,26.0,26.0,26.0,26.0,0.10844444444444434,0.2731000000000001,0.01685,290.314,-5.6982,-2.7041250000000003,-1.6206,-1.539,-228.86,215.8825,190.70125,0.0,0.0,0.0,0.0,0.028833333333333332,-5.498166666666667,-5.498166666666667,-0.5825,-0.1685000000000001,0.04712499999999986,-0.669,67.291,0.03310000000000013,-0.264225,-0.8819999999999997,100.0,1.0,1.0,207.62333333333333,0.0,0.0,0.0,0.0,0.0,0.0,0.0,8800.4,0.0,55.0,5.0,242.22,0.0,0.0,0.0,0.0,0.0,0.0,1.0,0.0,0.7079999999999984,0.7079999999999984,0.0,0.0,0.0,55.0,616.79921,10000.0,85.000001,85.000001,85.000001,85.000001,395.0,0.0,0.0,0.0,1.0,333.33500000000004,49.072,49.072,46.463,46.463,34.0,-46.5675,53.855999999999995,-26.285,30.2975,0.0,1782.995,-11.86,100.0,31.022,31.467,44.177,44.996,0.0,0.0,100.0,0.0,0.0,0.0,0.0,3046.75,3151.4,3990.75,4089.8,305.7266666666667,304.59725,315.2625,314.65175,21.9074,20.6353,22.0671,21.4691,314.999998,314.999998,324.999988,324.999988,99.5583,99.51221666666666,99.57644285714285,99.54937142857143,-0.03325,0.85075,-0.07333333333333336,0.15599999999999992,-0.086666666666666,-0.07333333333333059,1.5663333333333334,1.538,37.921,29.9705,38.92,35.182,58.087,37.153999999999996,62.536500000000004,53.2365,54.016,36.1795,61.0965,51.558,51.164500000000004,35.703,61.091499999999996,50.989666666666665,0.0013333333333331865,0.8449999999999998,0.097545,0.11217,0.0,210.685,210.68,207.62333333333333,207.62333333333333,0.0,0.0
15,0.0,0.0,0.0,1.0,1.0,0.0,0.0,1.0,0.0,100.0,1.0,1.1856,26.0,0.0,0.0,0.0,59.999996,0.0,26.0,26.0,26.0,26.0,0.121,0.26970000000000005,0.0461,290.176,-5.7021,-2.667375,-1.6409,-1.4852222222222222,-225.63,215.865,190.680875,0.0,0.0,0.0,0.0,0.0307,-5.498166666666667,-5.498166666666667,-0.5751000000000001,0.21799999999999997,0.06887500000000002,-1.07,67.419,0.045700000000000074,-0.24705000000000002,-1.1439999999999997,100.0,1.0,1.0,207.97333333333333,0.0,0.0,0.0,0.0,0.0,0.0,0.0,8815.3,0.0,55.0,5.0,242.68,1.0,0.0,0.0,0.0,0.0,0.0,1.0,0.0,0.7560000000000002,0.7560000000000002,0.0,0.0,1.0,55.0,616.79921,10000.0,85.000001,85.000001,85.000001,85.000001,395.0,0.0,0.0,0.0,1.0,333.33500000000004,49.103,49.103,46.371,46.371,34.0,-45.5725,53.544,-26.6,32.47,0.0,1782.948,-11.864999999999998,100.0,31.017,31.598,43.954,45.082,0.0,0.0,100.0,0.0,0.0,0.0,0.0,3000.0,3137.6,4053.125,4307.0,305.872,304.61925,315.1335,314.156,21.9163,20.6412,22.0775,21.477899999999998,314.999998,314.999998,324.999988,324.999988,99.5583,99.51231666666666,99.57658571428571,99.54951428571428,-0.02675000000000005,0.8542500000000001,-0.0625,0.1711666666666667,-0.06666666666666998,-0.07833333333332604,1.5376666666666665,1.491,37.977000000000004,30.006999999999998,38.983999999999995,35.237,58.071,37.2365,62.5595,53.292500000000004,54.001999999999995,36.2505,61.1175,51.6085,51.15,35.7705,61.1105,51.03933333333333,-0.002666666666666595,0.8443333333333336,0.11071500000000001,0.10970500000000001,0.0,211.04500000000002,211.12,207.97333333333333,207.97333333333333,0.0,0.0
16,0.0,0.0,0.0,1.0,1.0,0.0,0.0,1.0,0.0,100.0,1.0,1.1856,26.0,0.0,0.0,0.0,59.999996,0.0,26.0,26.0,26.0,26.0,0.13277777777777788,0.2643,0.00305,290.115,-5.7645,-2.611375,-1.6189,-1.5422222222222222,-221.98,215.845,190.6575,0.0,0.0,0.0,0.0,0.0328,-5.498166666666667,-5.498166666666667,-0.5965,-0.5720000000000001,0.0618749999999999,-1.535,67.563,0.06459999999999999,-0.26880000000000004,-1.346,100.0,1.0,1.0,208.43,0.0,0.0,0.0,0.0,0.0,0.0,0.0,8834.7,0.0,55.0,5.0,243.2,0.0,0.0,0.0,0.0,0.0,0.0,1.0,0.0,0.8099999999999987,0.8099999999999987,0.0,0.0,0.0,55.0,616.79921,10000.0,85.000001,85.000001,85.000001,85.000001,395.0,0.0,0.0,0.0,1.0,166.665,48.766999999999996,48.766999999999996,46.249,46.249,34.0,-48.8775,55.762,-24.1175,32.230000000000004,0.0,1782.896,-11.629999999999999,100.0,30.795,31.762999999999998,44.207,45.254999999999995,0.0,0.0,100.0,0.0,0.0,0.0,0.0,3175.25,3278.1,3980.75,4058.0,305.46566666666666,304.3045,315.278,314.6975,21.9262,20.6479,22.089199999999998,21.4878,314.999998,314.999998,324.999988,324.999988,99.5583,99.51243333333333,99.57674285714286,99.54967142857143,-0.03249999999999997,0.8545,-0.03183333333333338,0.19599999999999995,-0.07333333333333059,-0.054999999999999716,1.5723333333333334,1.5090000000000001,38.039,30.049,39.058,35.299,58.05,37.3305,62.59,53.355000000000004,53.983000000000004,36.337,61.144999999999996,51.669,51.1315,35.8535,61.1345,51.098333333333336,0.016666666666666607,0.8286666666666664,0.10346500000000002,0.11070500000000001,0.0,211.47,211.53,208.43,208.43,0.0,0.0
17,0.0,0.0,0.0,1.0,1.0,0.0,0.0,1.0,0.0,100.0,1.0,1.1856,26.0,0.0,0.0,0.0,59.999996,0.0,26.0,26.0,26.0,26.0,0.10899999999999999,0.2864,0.03605,289.764,-5.7212,-2.6005000000000003,-1.6568,-1.5073333333333332,-218.53,215.82999999999998,190.635125,0.0,0.0,0.0,0.0,0.034833333333333334,-5.498166666666667,-5.498166666666667,-0.5816,0.346,0.04237500000000005,0.9990000000000001,67.69800000000001,0.07679999999999998,-0.246475,-1.1719999999999997,100.0,1.0,1.0,208.76999999999998,0.0,0.0,0.0,0.0,0.0,0.0,0.0,8849.0,0.0,55.0,5.0,243.68333333333334,1.0,0.0,0.0,0.0,0.0,0.0,1.0,0.0,0.8610000000000007,0.8610000000000007,0.0,0.0,1.0,55.0,616.79921,10000.0,85.000001,85.000001,85.000001,85.000001,395.0,0.0,0.0,0.0,1.0,166.665,48.751999999999995,48.751999999999995,45.807,45.807,34.0,-46.06,54.854,-26.1925,35.07,0.0,1782.844,-11.7,100.0,31.429000000000002,31.739,44.284,45.115,0.0,0.0,100.0,0.0,0.0,0.0,0.0,3015.875,3242.4,4244.875,4366.7,305.60966666666667,304.6625,314.6125,314.17025,21.9357,20.6543,22.1002,21.4971,314.999998,314.999998,324.999988,324.999988,99.55831428571429,99.51255,99.57688571428571,99.54981428571429,-0.008750000000000036,0.8765000000000001,-0.02066666666666661,0.20766666666666667,-0.061666666666667425,-0.07833333333332604,1.5390000000000001,1.489,38.098,30.089,39.126000000000005,35.357,58.033,37.42,62.617,53.415,53.967,36.42,61.1695,51.726,51.116,35.9325,61.1555,51.154333333333334,0.01633333333333331,0.8156666666666665,0.10928500000000001,0.10308500000000001,0.0,211.92000000000002,211.98000000000002,208.76999999999998,208.76999999999998,0.0,0.0
18,0.0,0.0,0.0,1.0,1.0,0.0,0.0,1.0,0.0,100.0,1.0,1.1856,26.0,0.0,0.0,0.0,59.999996,0.0,26.0,26.0,26.0,26.0,0.14422222222222225,0.2775000000000001,-0.0007750000000000001,289.734,-5.7472,-2.578125,-1.6681,-1.4524444444444444,-215.28,215.82,190.61425,0.0,0.0,0.0,0.0,0.0367,-5.498166666666667,-5.498166666666667,-0.5992000000000001,-0.5235000000000001,0.06374999999999997,1.5819999999999999,67.824,0.0706,-0.268,-1.1960000000000002,100.0,1.0,1.0,209.17666666666668,0.0,0.0,0.0,0.0,0.0,0.0,0.0,8866.2,0.0,55.0,5.0,244.14,0.0,0.0,0.0,0.0,0.0,0.0,1.0,0.0,0.9089999999999989,0.9089999999999989,0.0,0.0,0.0,55.0,616.79921,10000.0,85.000001,85.000001,85.000001,85.000001,395.0,0.0,0.0,0.0,1.0,166.665,48.416,48.416,45.975,45.975,34.0,-46.235,59.822,-24.3175,33.5025,0.0,1782.796,-12.105,100.0,31.314,31.716,44.461,45.256,0.0,0.0,100.0,0.0,0.0,0.0,0.0,3061.625,3469.8,3985.125,4302.7,305.526,303.999,315.17,314.31575,21.9446,20.6602,22.110599999999998,21.506,314.999998,314.999998,324.999988,324.999988,99.55831428571429,99.51265,99.57701428571428,99.54995714285714,0.017749999999999932,0.90425,-0.018166666666666553,0.20616666666666683,-0.045000000000001705,-0.07166666666666544,1.5523333333333333,1.5170000000000001,38.153,30.1265,39.191,35.4125,58.015,37.5035,62.643,53.472,53.951,36.497,61.1935,51.781,51.1,36.006,61.176,51.208,-0.012333333333333307,0.8529999999999998,0.10178000000000001,0.11081500000000001,0.0,212.275,212.325,209.17666666666668,209.17666666666668,0.0,0.0
19,0.0,0.0,0.0,1.0,1.0,0.0,0.0,1.0,0.0,100.0,1.0,1.1856,26.0,0.0,0.0,0.0,59.999996,0.0,26.0,26.0,26.0,26.0,0.16633333333333322,0.2792000000000001,0.050375,289.352,-5.6668,-2.6808750000000003,-1.6842000000000001,-1.435,-212.01999999999998,215.8125,190.593,0.0,0.0,0.0,0.0,0.0386,-5.498166666666667,-5.498166666666667,-0.5873,0.937,0.07362500000000005,1.0259999999999998,67.949,0.07160000000000011,-0.257375,-1.5699999999999998,100.0,1.0,1.0,209.54333333333335,0.0,0.0,0.0,0.0,0.0,0.0,0.0,8881.8,0.0,55.0,5.0,244.58666666666664,1.0,0.0,0.0,0.0,0.0,0.0,1.0,0.0,0.9570000000000007,0.9570000000000007,0.0,0.0,1.0,55.0,616.79921,10000.0,85.000001,85.000001,85.000001,85.000001,395.0,0.0,0.0,0.0,1.0,166.665,48.004,48.004,45.775999999999996,45.775999999999996,34.0,-45.1225,60.05800000000001,-25.4075,36.1875,0.0,1782.749,-12.469999999999999,100.0,31.716,32.148,44.2,45.243,0.0,0.0,100.0,0.0,0.0,0.0,0.0,3038.375,3396.6,4146.875,4534.1,305.4273333333333,303.93125,314.857,313.78875,21.9536,20.6664,22.1209,21.5148,314.999998,314.999998,324.999988,324.999988,99.55831428571429,99.51276666666666,99.57714285714286,99.5501,0.048249999999999904,0.9267500000000001,-0.011833333333333362,0.2168333333333332,-0.051666666666669414,-0.07000000000000028,1.5310000000000001,1.477,38.21,30.1655,39.254999999999995,35.468,58.0,37.594,62.6665,53.5285,53.938,36.58,61.2145,51.836,51.087,36.085499999999996,61.194,51.26166666666667,-0.04733333333333323,0.8833333333333333,0.103815,0.1097,0.0,212.7,212.76,209.54333333333335,209.54333333333335,0.0,0.0
20,0.0,0.0,0.0,1.0,1.0,0.0,0.0,1.0,0.0,100.0,1.0,1.1856,26.0,0.0,0.0,0.0,59.999996,0.0,26.0,26.0,26.0,26.0,0.21100000000000008,0.256,0.013075,289.825,-5.7759,-2.621625,-1.6179999999999999,-1.5486666666666669,-208.55,215.81,190.57075,0.0,0.0,0.0,0.0,0.040633333333333334,-5.498166666666667,-5.498166666666667,-0.5930000000000001,-1.2565,0.07762500000000006,-1.248,68.083,0.0818000000000001,-0.270075,-1.9539999999999997,100.0,1.0,1.0,209.88333333333333,0.0,0.0,0.0,0.0,0.0,0.0,0.0,8896.2,0.0,55.0,5.0,245.07666666666665,0.0,0.0,0.0,0.0,0.0,0.0,0.0,0.0,1.0079999999999991,1.0079999999999991,0.0,0.0,0.0,55.0,616.79921,10000.0,85.000001,85.000001,85.000001,85.000001,395.0,0.0,0.0,0.0,1.0,333.33500000000004,49.088,49.088,45.516999999999996,45.516999999999996,34.0,-43.395,54.544,-24.425,36.08,0.0,1782.696,-12.774999999999999,100.0,30.887,32.127,44.513,45.786,0.0,0.0,100.0,0.0,0.0,0.0,0.0,2975.875,3131.6,4109.375,4260.7,306.061,304.7315,314.92925,314.121,21.9628,20.6728,22.131999999999998,21.5244,314.999998,314.999998,324.999988,324.999988,99.55832857142858,99.51288333333333,99.5773,99.55024285714286,0.05025000000000013,0.93175,-0.01416666666666666,0.22049999999999992,-0.051666666666669414,-0.07000000000000028,1.5123333333333333,1.43,38.266999999999996,30.205,39.325,35.5275,57.980000000000004,37.6855,62.696,53.592,53.92,36.664500000000004,61.2415,51.8965,51.0695,36.1665,61.2175,51.321,-0.07133333333333325,0.9126666666666665,0.10899,0.10993000000000001,0.0,213.035,213.15,209.88333333333333,209.88333333333333,0.0,0.0
21,0.0,0.0,0.0,1.0,1.0,0.0,0.0,1.0,0.0,100.0,1.0,1.1856,26.0,0.0,0.0,0.0,59.999996,0.0,26.0,26.0,26.0,26.0,0.1834444444444443,0.26660000000000017,-0.07295,290.176,-5.7534,-2.6625,-1.6884000000000001,-1.4986666666666668,-205.28,215.81,190.54925,0.0,0.0,0.0,0.0,0.04253333333333333,-5.498166666666667,-5.498166666666667,-0.6199,0.364,0.0694999999999999,-1.643,68.20400000000001,0.10670000000000002,-0.273075,-2.028,100.0,1.0,1.0,210.5,0.0,0.0,0.0,0.0,0.0,0.0,0.0,8922.3,0.0,55.0,5.0,245.50666666666666,1.0,0.0,0.0,0.0,0.0,0.0,0.0,0.0,1.056000000000001,1.056000000000001,0.0,0.0,1.0,55.0,616.79921,10000.0,85.000001,85.000001,85.000001,85.000001,395.0,0.0,0.0,0.0,1.0,166.665,48.569,48.569,46.829,46.829,34.0,-46.625,54.566,-22.4525,32.7625,0.0,1782.649,-11.515,100.0,31.173000000000002,32.366,43.74,45.356,0.0,0.0,100.0,0.0,0.0,0.0,0.0,3110.0,3150.0,3950.625,4015.5,305.59566666666666,304.602,315.4955,314.87025,21.9716,20.679,22.1421,21.5331,314.999998,314.999998,324.999988,324.999988,99.55832857142858,99.513,99.57742857142857,99.55038571428571,0.018000000000000238,0.89325,0.00883333333333347,0.23416666666666686,-0.0833333333333286,-0.07166666666666544,1.6276666666666666,1.564,38.323,30.243499999999997,39.388,35.582,57.964,37.7755,62.716,53.646,53.905,36.7475,61.2595,51.949,51.055,36.2455,61.2325,51.37233333333333,-0.007333333333333192,0.8456666666666663,0.10707000000000001,0.10155,0.0,213.45,213.56,210.5,210.5,0.0,0.0
22,0.0,0.0,0.0,1.0,1.0,0.0,0.0,1.0,0.0,100.0,1.0,1.1856,26.0,0.0,0.0,0.0,59.999996,0.0,26.0,26.0,26.0,26.0,0.14744444444444427,0.2741,0.013325,289.597,-5.6817,-2.66925,-1.6768,-1.4947777777777778,-201.8,215.8175,190.525375,0.0,0.0,0.0,0.0,0.044533333333333334,-5.498166666666667,-5.498166666666667,-0.5989,0.13649999999999995,0.07574999999999998,1.287,68.338,0.11390000000000011,-0.253,-1.0860000000000003,100.0,1.0,1.0,210.68333333333334,0.0,0.0,0.0,0.0,0.0,0.0,0.0,8930.1,0.0,55.0,5.0,245.99,0.0,0.0,0.0,0.0,0.0,0.0,0.0,0.0,1.1069999999999993,1.1069999999999993,0.0,0.0,0.0,55.0,616.79921,10000.0,85.000001,85.000001,85.000001,85.000001,395.0,0.0,0.0,0.0,1.0,333.33500000000004,48.584,48.584,45.593,45.593,34.0,-43.9025,55.361999999999995,-24.28,37.545,0.0,1782.597,-10.439999999999998,100.0,31.547,32.184,44.266999999999996,45.421,0.0,0.0,100.0,0.0,0.0,0.0,0.0,2833.625,3289.8,4134.25,4472.9,306.04633333333334,304.38175,314.836,313.91975,21.981,20.6855,22.1531,21.5426,314.999998,314.999998,324.999988,324.999988,99.55832857142858,99.5131,99.57757142857143,99.55054285714286,-0.050249999999999906,0.8225,0.008499999999999952,0.23449999999999993,-0.05333333333332746,-0.07666666666666799,1.5093333333333332,1.466,38.381,30.2845,39.457,35.6415,57.946,37.8655,62.7445,53.7085,53.888999999999996,36.83,61.2855,52.009,51.039,36.3245,61.2545,51.431,0.10666666666666647,0.7356666666666665,0.1145,0.10814000000000001,0.0,213.89499999999998,213.96,210.68333333333334,210.68333333333334,0.0,0.0
23,0.0,0.0,0.0,1.0,1.0,0.0,0.0,1.0,0.0,100.0,1.0,1.1856,26.0,0.0,0.0,0.0,59.999996,0.0,26.0,26.0,26.0,26.0,0.07422222222222219,0.24,-0.072225,289.703,-5.7021,-2.629375,-1.7067,-1.5783333333333334,-198.31,215.8275,190.502125,0.0,0.0,0.0,0.0,0.04656666666666667,-5.498166666666667,-5.498166666666667,-0.6186,-0.22750000000000004,0.04675000000000007,-2.032,68.468,0.08160000000000012,-0.2841,0.30600000000000005,100.0,1.0,1.0,211.20666666666668,0.0,0.0,0.0,0.0,0.0,0.0,0.0,8952.2,0.0,55.0,5.0,246.46,1.0,0.0,0.0,0.0,0.0,0.0,0.0,0.0,1.1580000000000013,1.1580000000000013,0.0,0.0,1.0,55.0,616.79921,10000.0,85.000001,85.000001,85.000001,85.000001,395.0,0.0,0.0,0.0,1.0,333.33500000000004,47.958,47.958,46.783,46.783,34.0,-54.2325,51.04,-26.4175,30.81,0.0,1782.545,-9.684999999999999,100.0,31.606,32.395,44.324,45.622,0.0,0.0,100.0,0.0,0.0,0.0,0.0,3333.625,3133.0,4002.125,3949.1000000000004,304.83133333333336,304.67875,315.37525,314.91975,21.9904,20.6921,22.1642,21.5521,314.999998,314.999998,324.999988,324.999988,99.55835714285715,99.51321666666666,99.57771428571428,99.5507,-0.12274999999999991,0.75025,-0.04949999999999999,0.1781666666666668,-0.06833333333332803,-0.05666666666667197,1.513,1.534,38.44,30.325499999999998,39.525999999999996,35.7005,57.931,37.955,62.7725,53.772999999999996,53.876000000000005,36.913,61.311,52.0715,51.025999999999996,36.4035,61.275999999999996,51.492,0.16266666666666652,0.6633333333333336,0.102135,0.10782000000000001,0.0,214.32,214.285,211.20666666666668,211.20666666666668,0.0,0.0
24,0.0,0.0,0.0,1.0,1.0,0.0,0.0,1.0,0.0,100.0,1.0,1.1856,26.0,0.0,0.0,0.0,59.999996,0.0,26.0,26.0,26.0,26.0,0.01677777777777778,0.26870000000000016,-0.114275,289.948,-5.6885,-2.6755,-1.5957,-1.552,-195.01999999999998,215.8375,190.47975,0.0,0.0,0.0,0.0,0.0485,-5.498166666666667,-5.498166666666667,-0.6239,-0.49350000000000005,0.023249999999999993,-1.335,68.592,0.027100000000000124,-0.26727500000000004,1.194,100.0,1.0,1.0,211.51999999999998,0.0,0.0,0.0,0.0,0.0,0.0,0.0,8965.5,0.0,55.0,5.0,246.90333333333334,0.0,0.0,0.0,0.0,0.0,0.0,0.0,0.0,1.2059999999999995,1.2059999999999995,0.0,0.0,0.0,55.0,616.79921,10000.0,85.000001,85.000001,85.000001,85.000001,395.0,0.0,0.0,0.0,1.0,333.33500000000004,49.118,49.118,45.807,45.807,34.0,-49.485,45.84,-31.1925,27.6675,0.0,1782.497,-9.555,100.0,31.603,31.891,44.646,45.274,0.0,0.0,100.0,0.0,0.0,0.0,0.0,3055.5,2894.2,4324.75,4008.3,305.7393333333333,305.481,314.454,314.881,21.999299999999998,20.698,22.174599999999998,21.5608,314.999998,314.999998,324.999988,324.999988,99.55837142857143,99.5133,99.57785714285714,99.55082857142857,-0.16149999999999998,0.716,-0.11249999999999993,0.11316666666666686,-0.05833333333333002,-0.06499999999999773,1.4883333333333333,1.544,38.495999999999995,30.362499999999997,39.591,35.754999999999995,57.921,38.0255,62.7985,53.827,53.867000000000004,36.9775,61.335,52.1235,51.016,36.4655,61.2965,51.54266666666666,0.17766666666666664,0.6526666666666663,0.09951,0.11309500000000001,0.0,214.75,214.65,211.51999999999998,211.51999999999998,0.0,0.0
25,0.0,0.0,0.0,1.0,1.0,0.0,0.0,1.0,0.0,100.0,1.0,1.1856,26.0,0.0,0.0,0.0,59.999996,0.0,26.0,26.0,26.0,26.0,-0.07144444444444442,0.26180000000000003,-0.052075,289.673,-5.7224,-2.667125,-1.5861,-1.580111111111111,-191.31,215.85,190.452875,0.0,0.0,0.0,0.0,0.050633333333333336,-5.498166666666667,-5.498166666666667,-0.6505000000000001,0.16549999999999998,-0.004750000000000032,-2.14,68.72800000000001,-0.0373,-0.270025,1.4460000000000006,100.0,1.0,1.0,212.0366666666667,0.0,0.0,0.0,0.0,0.0,0.0,0.0,8987.5,0.0,55.0,5.0,247.39666666666665,1.0,0.0,0.0,0.0,0.0,0.0,0.0,0.0,1.259999999999998,1.259999999999998,0.0,0.0,1.0,55.0,616.79921,10000.0,85.000001,85.000001,85.000001,85.000001,395.0,0.0,0.0,0.0,1.0,166.665,47.958,47.958,46.387,46.387,34.0,-58.08,50.802,-31.369999999999997,24.865000000000002,0.0,1782.445,-9.469999999999999,100.0,31.775,31.895,44.672,44.837,0.0,0.0,100.0,0.0,0.0,0.0,0.0,3435.25,3224.1,4095.625,3929.2,304.676,304.48075,315.086,315.0705,22.0093,20.7048,22.1862,21.5705,314.999998,314.999998,324.999988,324.999988,99.55838571428572,99.51338333333334,99.578,99.55098571428572,-0.21849999999999992,0.6717500000000001,-0.16549999999999998,0.0645,-0.06499999999999773,-0.07833333333332604,1.5436666666666667,1.581,38.558,30.405,39.663,35.816,57.914,38.1005,62.8245,53.8815,53.86,37.0465,61.3585,52.1755,51.0085,36.5315,61.317,51.593666666666664,0.18933333333333335,0.6509999999999998,0.102165,0.11361500000000001,0.0,215.185,215.05,212.0366666666667,212.0366666666667,0.0,0.0
26,0.0,0.0,0.0,1.0,1.0,0.0,0.0,1.0,0.0,100.0,1.0,1.1856,26.0,0.0,0.0,0.0,59.999996,0.0,26.0,26.0,26.0,26.0,-0.13144444444444447,0.2691000000000001,0.045200000000000004,288.788,-5.643,-2.78125,-1.6069,-1.6004444444444443,-188.01,215.86,190.428875,0.0,0.0,0.0,0.0,0.052566666666666664,-5.498166666666667,-5.498166666666667,-0.6072000000000001,0.8005,-0.05312500000000009,-1.5959999999999999,68.852,-0.07629999999999992,-0.24550000000000002,1.7220000000000004,100.0,1.0,1.0,212.17333333333335,0.0,0.0,0.0,0.0,0.0,0.0,0.0,8993.2,0.0,55.0,5.0,247.84333333333336,0.0,0.0,0.0,0.0,0.0,0.0,0.0,0.0,1.3079999999999998,1.3079999999999998,0.0,0.0,0.0,55.0,616.79921,10000.0,85.000001,85.000001,85.000001,85.000001,395.0,0.0,0.0,0.0,1.0,166.665,47.913,47.913,44.769,44.769,34.0,-58.0025,46.238,-40.955,25.845,0.0,1782.397,-9.594999999999999,100.0,32.471000000000004,32.075,45.424,44.944,0.0,0.0,100.0,0.0,0.0,0.0,0.0,3417.875,2945.8,4716.25,4340.0,304.577,305.19125,313.601,314.12,22.0186,20.711,22.1967,21.5794,314.999998,314.999998,324.999988,324.999988,99.55841428571429,99.51346666666667,99.57814285714285,99.55111428571429,-0.22449999999999992,0.6535,-0.21083333333333332,0.012666666666666604,-0.060000000000002274,-0.061666666666667425,1.4103333333333334,1.461,38.616,30.4435,39.730000000000004,35.871,57.916,38.170500000000004,62.8555,53.936,53.861999999999995,37.1115,61.387,52.228,51.007999999999996,36.593,61.342,51.644333333333336,0.17500000000000027,0.6626666666666665,0.10752,0.11175000000000002,0.0,215.615,215.46,212.17333333333335,212.17333333333335,0.0,0.0
27,0.0,0.0,0.0,1.0,1.0,0.0,0.0,1.0,0.0,100.0,1.0,1.1856,26.0,0.0,0.0,0.0,59.999996,0.0,26.0,26.0,26.0,26.0,-0.13655555555555554,0.23540000000000005,-0.042975,289.444,-5.599,-2.7586250000000003,-1.5846,-1.6797777777777778,-184.7,215.8675,190.406125,0.0,0.0,0.0,0.0,0.0545,-5.498166666666667,-5.498166666666667,-0.6378,-1.3575,-0.0625,-1.278,68.973,-0.09889999999999999,-0.2934,1.5300000000000002,100.0,1.0,1.0,212.65,0.0,0.0,0.0,0.0,0.0,0.0,0.0,9013.4,0.0,55.0,5.0,248.28,1.0,0.0,0.0,0.0,0.0,0.0,0.0,0.0,1.355999999999998,1.355999999999998,0.0,0.0,1.0,55.0,616.79921,10000.0,85.000001,85.000001,85.000001,85.000001,395.0,0.0,0.0,0.0,1.0,166.665,48.355000000000004,48.355000000000004,45.578,45.578,34.0,-55.9,45.184,-37.0675,22.262500000000003,0.0,1782.349,-9.75,100.0,32.328,31.798000000000002,45.865,45.231,0.0,0.0,100.0,0.0,0.0,0.0,0.0,3304.125,2931.0,4280.75,3853.2,304.969,305.38275,314.57,315.166,22.0275,20.7168,22.2074,21.5882,314.999998,314.999998,324.999988,324.999988,99.55844285714285,99.51355,99.5783,99.55125714285714,-0.24524999999999997,0.638,-0.23383333333333334,-0.009166666666666656,-0.06833333333332803,-0.05333333333332746,1.4783333333333333,1.536,38.672,30.48,39.796,35.9265,57.914,38.2335,62.8885,53.9895,53.858999999999995,37.169,61.417500000000004,52.278999999999996,51.0045,36.647999999999996,61.3695,51.693666666666665,0.16566666666666663,0.6739999999999999,0.100265,0.10956,0.0,215.925,215.775,212.65,212.65,0.0,0.0
28,0.0,0.0,0.0,1.0,1.0,0.0,0.0,1.0,0.0,100.0,1.0,1.1856,26.0,0.0,0.0,0.0,59.999996,0.0,26.0,26.0,26.0,26.0,-0.15488888888888885,0.25690000000000013,-0.062525,289.566,-5.5763,-2.746,-1.5275,-1.641,-180.97,215.87,190.37925,0.0,0.0,0.0,0.0,0.056666666666666664,-5.498166666666667,-5.498166666666667,-0.65,0.736,-0.0714999999999999,-1.533,69.107,-0.11219999999999997,-0.26795,1.4939999999999998,100.0,1.0,1.0,213.18,0.0,0.0,0.0,0.0,0.0,0.0,0.0,9036.0,0.0,55.0,5.0,248.75666666666666,0.0,0.0,0.0,0.0,0.0,0.0,0.0,0.0,1.4100000000000001,1.4100000000000001,0.0,0.0,0.0,55.0,616.79921,10000.0,85.000001,85.000001,85.000001,85.000001,395.0,0.0,0.0,0.0,1.0,166.665,47.928,47.928,46.463,46.463,34.0,-57.9825,45.269999999999996,-35.745,21.5075,0.0,1782.295,-9.919999999999998,100.0,32.66,31.911,45.159,44.438,0.0,0.0,100.0,0.0,0.0,0.0,0.0,3404.875,2944.3,4235.25,3955.0,304.579,305.29725,314.83325,315.04775,22.0376,20.7236,22.218899999999998,21.5978,314.999998,314.999998,324.999988,324.999988,99.55848571428571,99.51363333333333,99.57845714285715,99.5514,-0.24,0.63,-0.24316666666666664,-0.021166666666666556,-0.07000000000000028,-0.05666666666667197,1.5366666666666666,1.595,38.735,30.5225,39.867999999999995,35.9865,57.916,38.307,62.917,54.044,53.86,37.2365,61.444,52.331,51.0035,36.712,61.391999999999996,51.74433333333333,0.14700000000000024,0.6803333333333335,0.10322,0.10799500000000001,0.0,216.39,216.24,213.18,213.18,0.0,0.0
29,0.0,0.0,0.0,1.0,1.0,0.0,0.0,1.0,0.0,100.0,1.0,1.1856,26.0,0.0,0.0,0.0,59.999996,0.0,26.0,26.0,26.0,26.0,-0.14522222222222214,0.2542,0.048125,289.047,-5.5497,-2.8133749999999997,-1.5208,-1.6320000000000001,-177.64999999999998,215.87,190.35425,0.0,0.0,0.0,0.0,0.05856666666666666,-5.498166666666667,-5.498166666666667,-0.6512,-0.7265000000000001,-0.07874999999999988,-0.9009999999999998,69.23,-0.11259999999999992,-0.27132500000000004,1.178,100.0,1.0,1.0,213.3466666666667,0.0,0.0,0.0,0.0,0.0,0.0,0.0,9043.1,0.0,55.0,5.0,249.20333333333335,1.0,0.0,0.0,0.0,0.0,0.0,0.0,0.0,1.4579999999999984,1.4579999999999984,0.0,0.0,1.0,55.0,616.79921,10000.0,85.000001,85.000001,85.000001,85.000001,395.0,0.0,0.0,0.0,1.0,166.665,47.943,47.943,45.181,45.181,34.0,-58.2225,47.3,-38.585,23.9575,0.0,1782.247,-10.099999999999998,100.0,32.472,31.725,45.737,44.708,0.0,0.0,100.0,0.0,0.0,0.0,0.0,3439.5,3026.7,4476.75,4126.3,304.572,305.00225,314.05425,314.58725,22.0465,20.7295,22.2296,21.6067,314.999998,314.999998,324.999988,324.999988,99.55851428571428,99.5137,99.5786,99.55154285714286,-0.2337499999999999,0.6335000000000001,-0.23299999999999998,-0.0023333333333332984,-0.06333333333333258,-0.07166666666666544,1.4206666666666667,1.484,38.791,30.5595,39.935,36.042,57.914,38.37,62.95,54.097,53.858000000000004,37.2945,61.4745,52.382,51.0005,36.766999999999996,61.4195,51.794,0.13566666666666638,0.698,0.10235000000000001,0.11369000000000001,0.0,216.71,216.61,213.3466666666667,213.3466666666667,0.0,0.0
30,0.0,0.0,0.0,1.0,1.0,0.0,0.0,1.0,0.0,100.0,1.0,1.1856,26.0,0.0,0.0,0.0,59.999996,0.0,26.0,26.0,26.0,26.0,-0.13111111111111107,0.25229999999999997,0.0456,288.879,-5.6068,-2.7033750000000003,-1.4997,-1.683,-174.12,215.865,190.328125,0.0,0.0,0.0,0.0,0.06063333333333334,-5.498166666666667,-5.498166666666667,-0.6488,0.9195,-0.07050000000000001,1.1260000000000003,69.355,-0.10809999999999997,-0.277775,0.9979999999999993,100.0,1.0,1.0,213.84333333333333,0.0,0.0,0.0,0.0,0.0,0.0,0.0,9064.1,0.0,55.0,5.0,249.65333333333334,0.0,0.0,0.0,0.0,0.0,0.0,1.0,0.0,1.5090000000000003,1.5090000000000003,0.0,0.0,0.0,55.0,616.79921,10000.0,85.000001,85.000001,85.000001,85.000001,395.0,0.0,0.0,0.0,1.0,166.665,47.195,47.195,45.914,45.914,34.0,-59.0,49.612,-34.6075,25.6875,0.0,1782.197,-10.370000000000001,100.0,33.267,32.025,45.647,44.519,0.0,0.0,100.0,0.0,0.0,0.0,0.0,3475.875,3159.8,4233.5,4148.9,304.22633333333334,304.7945,314.59325,314.625,22.0564,20.7361,22.2406,21.616,314.999998,314.999998,324.999988,324.999988,99.55854285714285,99.51378333333334,99.57875714285714,99.55168571428571,-0.19900000000000007,0.67225,-0.21350000000000002,0.016833333333333478,-0.07333333333333059,-0.060000000000002274,1.4693333333333334,1.506,38.852000000000004,30.601,40.004000000000005,36.1,57.917,38.4445,62.979,54.1515,53.861000000000004,37.3625,61.5015,52.4345,51.001,36.832,61.443,51.84466666666667,0.1123333333333334,0.7163333333333335,0.09985500000000001,0.11113500000000001,0.0,217.15,217.03,213.84333333333333,213.84333333333333,0.0,0.0
31,0.0,0.0,0.0,1.0,1.0,0.0,0.0,1.0,0.0,100.0,1.0,1.1856,26.0,0.0,0.0,0.0,59.999996,0.0,26.0,26.0,26.0,26.0,-0.1263333333333334,0.2479,0.0056,288.956,-5.6721,-2.78375,-1.584,-1.5763333333333334,-170.79,215.85750000000002,190.304125,0.0,0.0,0.0,0.0,0.06256666666666666,-5.498166666666667,-5.498166666666667,-0.6327,-0.641,-0.06274999999999986,1.1749999999999998,69.476,-0.0928,-0.2725,0.40200000000000014,100.0,1.0,1.0,214.07666666666665,0.0,0.0,0.0,0.0,0.0,0.0,0.0,9073.9,0.0,55.0,5.0,250.09,1.0,0.0,0.0,0.0,0.0,0.0,1.0,0.0,1.5569999999999986,1.5569999999999986,0.0,0.0,1.0,55.0,616.79921,10000.0,85.000001,85.000001,85.000001,85.000001,395.0,0.0,0.0,0.0,1.0,166.665,48.157,48.157,44.571,44.571,34.0,-51.5875,48.192,-37.4475,25.4225,0.0,1782.148,-10.509999999999998,100.0,32.951,32.003,46.144999999999996,45.027,0.0,0.0,100.0,0.0,0.0,0.0,0.0,3115.25,3058.4,4468.375,4173.0,305.425,305.169,314.02275,314.5735,22.0652,20.7422,22.2513,21.6249,314.999998,314.999998,324.999988,324.999988,99.55857142857143,99.51386666666667,99.5789,99.55182857142857,-0.1895,0.67925,-0.19666666666666666,0.033666666666666734,-0.041666666666671404,-0.07000000000000028,1.439,1.461,38.908,30.6385,40.071,36.156,57.913,38.5115,63.0115,54.206,53.857,37.4245,61.532,52.4865,50.996,36.8905,61.47,51.89533333333333,0.10066666666666668,0.7266666666666666,0.10544500000000001,0.10883000000000001,0.0,217.45499999999998,217.4,214.07666666666665,214.07666666666665,0.0,0.0
32,0.0,0.0,0.0,1.0,1.0,0.0,0.0,1.0,0.0,100.0,1.0,1.1856,26.0,0.0,0.0,0.0,59.999996,0.0,26.0,26.0,26.0,26.0,-0.10944444444444446,0.2641,-0.058825,289.154,-5.6233,-2.768375,-1.6189,-1.5736666666666668,-167.24,215.845,190.278625,0.0,0.0,0.0,0.0,0.06463333333333333,-5.498166666666667,-5.498166666666667,-0.6585000000000001,0.05249999999999999,-0.0794999999999999,-1.586,69.599,-0.07419999999999993,-0.28575,0.5,100.0,1.0,1.0,214.63666666666666,0.0,0.0,0.0,0.0,0.0,0.0,0.0,9097.6,0.0,55.0,5.0,250.53,0.0,0.0,0.0,0.0,0.0,0.0,1.0,0.0,1.6080000000000005,1.6080000000000005,0.0,0.0,0.0,55.0,616.79921,10000.0,85.000001,85.000001,85.000001,85.000001,395.0,0.0,0.0,0.0,1.0,166.665,47.592,47.592,45.822,45.822,34.0,-56.9925,48.004000000000005,-34.7725,23.8675,0.0,1782.098,-10.454999999999998,100.0,32.775,32.412,45.521,44.981,0.0,0.0,100.0,0.0,0.0,0.0,0.0,3421.875,3023.6,4281.5,4006.9,304.67066666666665,305.0535,314.743,315.01675,22.0747,20.7487,22.2623,21.6342,314.999998,314.999998,324.999988,324.999988,99.5586,99.51395,99.57904285714285,99.55197142857143,-0.18825000000000003,0.6785,-0.1901666666666666,0.03600000000000003,-0.0799999999999983,-0.05666666666667197,1.5376666666666665,1.564,38.967,30.679499999999997,40.138999999999996,36.214,57.909,38.585499999999996,63.039500000000004,54.2585,53.852999999999994,37.4925,61.558,52.537,50.991,36.9555,61.4925,51.94433333333333,0.10133333333333372,0.7243333333333335,0.104645,0.10606000000000002,0.0,217.86,217.785,214.63666666666666,214.63666666666666,0.0,0.0
33,0.0,0.0,0.0,1.0,1.0,0.0,0.0,1.0,0.0,100.0,1.0,1.1856,26.0,0.0,0.0,0.0,59.999996,0.0,26.0,26.0,26.0,26.0,-0.07599999999999996,0.24950000000000006,-0.01705,289.093,-5.6253,-2.7661249999999997,-1.5775000000000001,-1.656777777777778,-163.89999999999998,215.835,190.2535,0.0,0.0,0.0,0.0,0.06656666666666666,-5.498166666666667,-5.498166666666667,-0.661,-0.28400000000000003,-0.07850000000000001,-0.6419999999999999,69.719,-0.061999999999999944,-0.27295,0.5600000000000005,100.0,1.0,1.0,214.88333333333333,0.0,0.0,0.0,0.0,0.0,0.0,0.0,9108.1,0.0,55.0,5.0,250.96333333333334,1.0,0.0,0.0,0.0,0.0,0.0,1.0,0.0,1.6559999999999988,1.6559999999999988,0.0,0.0,1.0,55.0,616.79921,10000.0,85.000001,85.000001,85.000001,85.000001,395.0,0.0,0.0,0.0,1.0,166.665,48.019,48.019,45.394999999999996,45.394999999999996,34.0,-54.1225,47.126,-36.17,26.7725,0.0,1782.049,-10.739999999999998,100.0,32.722,32.205,45.567,45.087,0.0,0.0,100.0,0.0,0.0,0.0,0.0,3306.75,2947.5,4426.625,4142.4,305.0606666666667,305.292,314.312,314.602,22.0836,20.7548,22.2727,21.643,314.999998,314.999998,324.999988,324.999988,99.55861428571428,99.51403333333333,99.5792,99.55211428571428,-0.16500000000000004,0.70325,-0.19199999999999995,0.0431666666666668,-0.06666666666666998,-0.07000000000000028,1.4793333333333334,1.496,39.022,30.717,40.204,36.269,57.903999999999996,38.6535,63.068,54.3105,53.848,37.5545,61.584,52.587,50.985,37.0145,61.515,51.992666666666665,0.08333333333333348,0.7429999999999999,0.1044,0.111765,0.0,218.22,218.14499999999998,214.88333333333333,214.88333333333333,0.0,0.0
34,0.0,0.0,0.0,1.0,1.0,0.0,0.0,1.0,0.0,100.0,1.0,1.1856,26.0,0.0,0.0,0.0,59.999996,0.0,26.0,26.0,26.0,26.0,-0.06222222222222218,0.2481,-0.045950000000000005,289.337,-5.6625,-2.6825,-1.6225,-1.6107777777777779,-160.13,215.8175,190.224,0.0,0.0,0.0,0.0,0.06876666666666667,-5.498166666666667,-5.498166666666667,-0.6933,-0.7929999999999999,-0.03774999999999995,-0.5760000000000001,69.85,-0.05169999999999997,-0.285225,0.33200000000000074,100.0,1.0,1.0,215.34333333333333,0.0,0.0,0.0,0.0,0.0,0.0,0.0,9127.6,0.0,55.0,5.0,251.43666666666667,0.0,0.0,0.0,0.0,0.0,0.0,1.0,0.0,1.7100000000000009,1.7100000000000009,0.0,0.0,0.0,55.0,616.79921,10000.0,85.000001,85.000001,85.000001,85.000001,395.0,0.0,0.0,0.0,1.0,166.665,48.126,48.126,46.188,46.188,34.0,-52.7225,47.604,-33.0075,26.1175,0.0,1781.995,-10.89,100.0,32.566,32.068,45.375,45.284,0.0,0.0,100.0,0.0,0.0,0.0,0.0,3229.625,2962.3,4168.625,4061.8,305.103,305.2555,314.93,314.7475,22.0935,20.761499999999998,22.284399999999998,21.653,314.999998,314.999998,324.999988,324.999988,99.55862857142857,99.51413333333333,99.57935714285715,99.55225714285714,-0.14074999999999993,0.72875,-0.17149999999999999,0.05566666666666675,-0.05666666666667197,-0.05666666666667197,1.52,1.524,39.084,30.7595,40.277,36.331,57.894999999999996,38.7305,63.0965,54.369,53.84,37.6255,61.6105,52.643,50.976,37.082,61.538,52.047,0.07033333333333358,0.7633333333333336,0.10577500000000001,0.11164,0.0,218.61,218.515,215.34333333333333,215.34333333333333,0.0,0.0
35,0.0,0.0,0.0,1.0,1.0,0.0,0.0,1.0,0.0,100.0,1.0,1.1856,26.0,0.0,0.0,0.0,59.999996,0.0,26.0,26.0,26.0,26.0,-0.030555555555555558,0.23750000000000004,-0.04245,289.352,-5.7094000000000005,-2.673,-1.6149,-1.6143333333333334,-156.76999999999998,215.8025,190.196,0.0,0.0,0.0,0.0,0.07073333333333334,-5.498166666666667,-5.498166666666667,-0.7305,-0.3640000000000001,-0.03862500000000013,-1.567,69.96600000000001,-0.03469999999999995,-0.28905000000000003,-0.1379999999999999,100.0,1.0,1.0,215.76666666666665,0.0,0.0,0.0,0.0,0.0,0.0,0.0,9145.6,0.0,55.0,5.0,251.85333333333335,1.0,0.0,0.0,0.0,0.0,0.0,1.0,0.0,1.7579999999999991,1.7579999999999991,0.0,0.0,1.0,55.0,616.79921,10000.0,85.000001,85.000001,85.000001,85.000001,395.0,0.0,0.0,0.0,1.0,166.665,47.821,47.821,45.609,45.609,34.0,-54.4775,53.45,-31.1075,25.7925,0.0,1781.947,-10.774999999999999,100.0,32.096000000000004,32.248,45.215,44.978,0.0,0.0,100.0,0.0,0.0,0.0,0.0,3335.25,3288.4,4134.25,3868.0,305.04766666666666,304.31575,314.94075,315.22925,22.1021,20.7678,22.2946,21.6616,314.999998,314.999998,324.999988,324.999988,99.55865714285714,99.51421666666667,99.57948571428571,99.5524,-0.15074999999999994,0.7272500000000001,-0.1423333333333333,0.08016666666666672,-0.08166666666667055,-0.07166666666666544,1.5473333333333334,1.54,39.138,30.7985,40.341,36.385,57.884,38.804,63.121,54.418,53.83,37.6935,61.632999999999996,52.6905,50.966,37.1465,61.557,52.093,0.07966666666666677,0.7490000000000001,0.10595500000000001,0.10362,0.0,218.95499999999998,218.93,215.76666666666665,215.76666666666665,0.0,0.0
36,0.0,0.0,0.0,1.0,1.0,0.0,0.0,1.0,0.0,100.0,1.0,1.1856,26.0,0.0,0.0,0.0,59.999996,0.0,26.0,26.0,26.0,26.0,-0.026222222222222147,0.2591000000000001,0.028875,288.559,-5.7063,-2.7117500000000003,-1.5624,-1.597,-153.41,215.7875,190.1665,0.0,0.0,0.0,0.0,0.07266666666666667,-5.498166666666667,-5.498166666666667,-0.7057,0.46799999999999997,-0.0793750000000002,-1.677,70.08500000000001,-0.011799999999999922,-0.252525,0.07000000000000028,100.0,1.0,1.0,215.91333333333333,0.0,0.0,0.0,0.0,0.0,0.0,0.0,9151.7,0.0,55.0,5.0,252.28,0.0,0.0,0.0,0.0,0.0,0.0,1.0,0.0,1.806000000000001,1.806000000000001,0.0,0.0,0.0,55.0,616.79921,10000.0,85.000001,85.000001,85.000001,85.000001,395.0,0.0,0.0,0.0,1.0,166.665,47.668,47.668,44.891,44.891,34.0,-55.89,49.28,-33.4225,31.1675,0.0,1781.899,-10.555,100.0,32.555,32.552,45.400999999999996,45.205,0.0,0.0,100.0,0.0,0.0,0.0,0.0,3407.75,3042.2,4548.375,4426.2,304.7803333333333,305.0255,313.99025,313.94275,22.111,20.7742,22.3049,21.6705,314.999998,314.999998,324.999988,324.999988,99.55867142857143,99.51431666666667,99.57964285714286,99.55254285714285,-0.14375000000000004,0.7335,-0.121,0.09400000000000008,-0.04833333333333201,-0.07333333333333059,1.43,1.453,39.194,30.8385,40.406,36.4405,57.876999999999995,38.8795,63.1475,54.471000000000004,53.824,37.763,61.657,52.741,50.9585,37.213,61.578,52.14233333333333,0.09166666666666634,0.7323333333333335,0.10306000000000001,0.10863500000000001,0.0,219.32999999999998,219.32999999999998,215.91333333333333,215.91333333333333,0.0,0.0
37,0.0,0.0,0.0,1.0,1.0,0.0,0.0,1.0,0.0,100.0,1.0,1.1856,26.0,0.0,0.0,0.0,59.999996,0.0,26.0,26.0,26.0,26.0,-0.029777777777777792,0.2492000000000001,-0.10235000000000001,289.917,-5.7204,-2.6745,-1.5407000000000002,-1.6073333333333333,-149.84,215.76999999999998,190.135125,0.0,0.0,0.0,0.0,0.07476666666666666,-5.498166666666667,-5.498166666666667,-0.771,-2.5625,-0.074125,2.1340000000000003,70.209,-0.014599999999999946,-0.30995,0.08199999999999985,100.0,1.0,1.0,216.36666666666667,0.0,0.0,0.0,0.0,0.0,0.0,0.0,9171.0,0.0,55.0,5.0,252.73000000000002,1.0,0.0,0.0,0.0,0.0,0.0,1.0,0.0,1.8569999999999993,1.8569999999999993,0.0,0.0,1.0,55.0,616.79921,10000.0,85.000001,85.000001,85.000001,85.000001,395.0,0.0,0.0,0.0,1.0,166.665,49.774,49.774,45.578,45.578,34.0,-42.575,47.144000000000005,-28.685000000000002,29.535,0.0,1781.848,-10.79,100.0,31.858,31.387,45.897999999999996,45.317,0.0,0.0,100.0,0.0,0.0,0.0,0.0,2686.5,2940.8,3970.0,4179.5,306.50866666666667,305.59275,314.99375,314.6675,22.12,20.7805,22.3161,21.68,314.999998,314.999998,324.999988,324.999988,99.55868571428572,99.5144,99.57978571428572,99.55268571428572,-0.10824999999999996,0.7605000000000001,-0.12849999999999995,0.10650000000000004,-0.041666666666671404,-0.08166666666667055,1.4973333333333334,1.495,39.25,30.878,40.476,36.5,57.861999999999995,38.9505,63.1775,54.5275,53.81,37.828,61.6845,52.795500000000004,50.945499999999996,37.275,61.602000000000004,52.195,0.08899999999999997,0.754,0.101595,0.109035,0.0,219.66,219.60500000000002,216.36666666666667,216.36666666666667,0.0,0.0
