,ABS Active,ABS Enabled,AID Allow Tire Blankets,AID Auto Blip,AID Auto Clutch,AID Auto Shift,AID Fuel Rate,AID Ideal Line,AID Mech Damage,AID Stability,AID Tire Wear Rate,Air Density,Air Temp,Ballast,Best Lap Delta,Best Lap Time,Brake Bias,Brake Pos,Brake Temp FL,Brake Temp FR,Brake Temp RL,Brake Temp RR,CG Accel Lateral,CG Accel Longitudinal,CG Accel Vertical,CG Height,Camber FL,Camber FR,Camber RL,Camber RR,Car Coord X,Car Coord Y,Car Coord Z,Car Damage Front,Car Damage Left,Car Damage Rear,Car Damage Right,Car Pos Norm,Caster FL,Caster FR,Chassis Pitch Angle,Chassis Pitch Rate,Chassis Roll Angle,Chassis Roll Rate,Chassis Velocity X,Chassis Velocity Y,Chassis Velocity Z,Chassis Yaw Rate,Clutch Pos,DRS Active,DRS Available,Drive Train Speed,ERS Heat Charging,ERS Is Charging,ERS Max Energy,ERS Power Level,ERS Recovery Level,Engine Brake Setting,Engine Limiter,Engine RPM,Flags,Fuel Level,Gear,Ground Speed,HR Sample Clock,In Pit,KERS Charge,KERS Deployed Energy,KERS Input,KERS Max Energy,LR Sample Clock,Lap Invalidated,Lap Time,Lap Time2,Last Lap Time,Last Sector Time,MR Sample Clock,Max Fuel,Max Power,Max RPM,Max Sus Travel FL,Max Sus Travel FR,Max Sus Travel RL,Max Sus Travel RR,Max Torque,Max Turbo Boost,Num Tires Off Track,Penalties Enabled,Position,Raw Data Sample Rate,Ride Height FL,Ride Height FR,Ride Height RL,Ride Height RR,Road Temp,Self Align Torque FL,Self Align Torque FR,Self Align Torque RL,Self Align Torque RR,Session Lap Count,Session Time Left,Steering Angle,Surface Grip,Suspension Travel FL,Suspension Travel FR,Suspension Travel RL,Suspension Travel RR,TC Active,TC Enabled,Throttle Pos,Tire Dirt Level FL,Tire Dirt Level FR,Tire Dirt Level RL,Tire Dirt Level RR,Tire Load FL,Tire Load FR,Tire Load RL,Tire Load RR,Tire Loaded Radius FL,Tire Loaded Radius FR,Tire Loaded Radius RL,Tire Loaded Radius RR,Tire Pressure FL,Tire Pressure FR,Tire Pressure RL,Tire Pressure RR,Tire Radius FL,Tire Radius FR,Tire Radius RL,Tire Radius RR,Tire Rubber Grip FL,Tire Rubber Grip FR,Tire Rubber Grip RL,Tire Rubber Grip RR,Tire Slip Angle FL,Tire Slip Angle FR,Tire Slip Angle RL,Tire Slip Angle RR,Tire Slip Ratio FL,Tire Slip Ratio FR,Tire Slip Ratio RL,Tire Slip Ratio RR,Tire Temp Core FL,Tire Temp Core FR,Tire Temp Core RL,Tire Temp Core RR,Tire Temp Inner FL,Tire Temp Inner FR,Tire Temp Inner RL,Tire Temp Inner RR,Tire Temp Middle FL,Tire Temp Middle FR,Tire Temp Middle RL,Tire Temp Middle RR,Tire Temp Outer FL,Tire Temp Outer FR,Tire Temp Outer RL,Tire Temp Outer RR,Toe In FL,Toe In FR,Toe In RL,Toe In RR,Turbo Boost,Wheel Angular Speed FL,Wheel Angular Speed FR,Wheel Angular Speed RL,Wheel Angular Speed RR,Wind Direction,Wind Speed
0,0.0,0.0,0.0,1.0,1.0,0.0,0.0,1.0,0.0,100.0,1.0,1.1856,26.0,0.0,0.0,0.0,53.99999,0.0,26.0,26.0,26.0,26.0,-0.0555,0.3064,0.11875000000000001,293.884,-2.7148,-2.4861,-1.52475,-1.5352000000000001,-275.69,215.985,190.98775,0.0,0.0,0.0,0.0,0.0015666666666666051,-5.498166666666667,-5.498166666666667,-0.5484,1.641,-0.013555555555555543,-0.7280000000000002,65.513,-0.0413,-0.21080000000000002,0.7060000000000004,100.0,1.0,1.0,202.25,0.0,0.0,0.0,0.0,0.0,0.0,0.0,8572.6,0.0,55.0,5.0,235.81666666666666,0.0,0.0,0.0,0.0,0.0,0.0,0.0,0.0,0.0030000000000001137,0.0030000000000001137,0.0,0.0,0.0,55.0,616.79921,10000.0,85.0,85.0,85.0,85.0,395.0,0.0,0.0,0.0,1.0,20.0,52.383,52.383,49.316,49.316,34.0,-28.549999999999997,23.225,-30.536666666666665,24.634999999999998,0.0,1782.947,0.6950000000000003,100.0,27.111,26.733,40.51,40.206,0.0,0.0,100.0,0.0,0.0,0.0,0.0,3163.142857142857,3617.1000000000004,4104.875,4050.9,305.206,303.17875,314.8495,314.75925,21.7821,20.5164,21.7894,21.3291,314.99999,314.99999,324.99998,324.99998,99.55915714285715,99.50723333333333,99.56608571428572,99.54588571428572,-0.01475000000000004,-0.1276666666666666,-0.16319999999999998,0.057,-0.04833333333333201,-0.06499999999999773,1.544,1.5810000000000004,37.138,29.227333333333334,37.184,34.307,56.363,34.4705,59.364,51.8755,54.277,33.6445,57.980000000000004,50.2205,53.445,33.21,57.9435,49.641999999999996,-0.01849999999999996,-0.12749999999999995,0.11171,0.09788000000000001,0.0,205.29000000000002,205.23000000000002,202.25,202.25,0.0,0.0
1,0.0,0.0,0.0,1.0,1.0,0.0,0.0,1.0,0.0,100.0,1.0,1.1856,26.0,0.0,0.0,0.0,53.999996,0.0,26.0,26.0,26.0,26.0,-0.130625,0.31730000000000014,-0.019725,293.167,-2.6465,-2.7173,-1.51895,-1.3736000000000002,-272.34,216.0025,190.96775,0.0,0.0,0.0,0.0,0.0035333333333333883,-5.498166666666667,-5.498166666666667,-0.4848,-0.8265,-0.05888888888888877,-0.20299999999999985,65.668,-0.0526,-0.186525,1.2379999999999995,100.0,1.0,1.0,202.34333333333333,0.0,0.0,0.0,0.0,0.0,0.0,0.0,8576.6,0.0,55.0,5.0,236.37333333333333,1.0,0.0,0.0,0.0,0.0,0.0,0.0,0.0,0.053999999999998494,0.053999999999998494,0.0,0.0,1.0,55.0,616.79921,10000.0,85.000001,85.000001,85.000001,85.000001,395.0,0.0,0.0,0.0,1.0,333.33500000000004,54.26,54.26,48.263999999999996,48.263999999999996,34.0,-25.87,16.19833333333333,-34.696666666666665,27.5275,0.0,1782.894,0.9149999999999991,100.0,27.377,26.643,42.699,41.768,0.0,0.0,100.0,0.0,0.0,0.0,0.0,2945.0,2492.3,4394.5,4890.0,305.762,306.818,314.023,312.58925,21.7919,20.5214,21.8004,21.3383,314.999998,314.999998,324.999988,324.999988,99.55915714285715,99.50725,99.56624285714285,99.54602857142856,-0.01574999999999993,-0.1419999999999999,-0.17200000000000001,0.0352,-0.03166666666666629,-0.045000000000001705,1.3505,1.4184999999999999,37.2,29.259,37.251999999999995,34.3645,56.347,34.5105,59.4095,51.941,54.260999999999996,33.682,58.0225,50.283,53.429,33.2455,57.9835,49.704,-0.0014999999999999458,-0.14500000000000002,0.10372,0.107075,0.0,205.76,205.64499999999998,202.34333333333333,202.34333333333333,0.0,0.0
2,0.0,0.0,0.0,1.0,1.0,0.0,0.0,1.0,0.0,100.0,1.0,1.1856,26.0,0.0,0.0,0.0,53.999996,0.0,26.0,26.0,26.0,26.0,-0.134,0.2794000000000001,-0.09695000000000001,294.083,-2.596,-2.7923,-1.49165,-1.6458,-268.99,216.01749999999998,190.948875,0.0,0.0,0.0,0.0,0.005466666666666509,-5.498166666666667,-5.498166666666667,-0.5547000000000001,0.15549999999999997,-0.04822222222222239,1.634,65.807,-0.0731,-0.25427500000000003,1.6959999999999997,100.0,1.0,1.0,203.43333333333334,0.0,0.0,0.0,0.0,0.0,0.0,0.0,8622.7,0.0,55.0,5.0,236.87666666666667,0.0,0.0,0.0,0.0,0.0,0.0,0.0,0.0,0.10500000000000043,0.10500000000000043,0.0,0.0,0.0,55.0,616.79921,10000.0,85.000001,85.000001,85.000001,85.000001,395.0,0.0,0.0,0.0,1.0,333.33500000000004,52.658,52.658,50.613,50.613,34.0,-31.53,19.066666666666666,-28.583333333333336,19.0375,0.0,1782.843,0.9600000000000009,100.0,28.031,26.669,42.362,41.171,0.0,0.0,100.0,0.0,0.0,0.0,0.0,3434.142857142857,2901.3,3701.375,3483.1,304.379,305.5415,315.78775,316.32075,21.8022,20.5264,21.8108,21.347,314.999998,314.999998,324.999988,324.999988,99.55917142857143,99.50726666666667,99.56638571428572,99.54617142857143,-0.04200000000000004,-0.16433333333333322,-0.22319999999999998,0.0094,-0.041666666666671404,-0.05833333333333002,1.6935,1.7545000000000002,37.263,29.289666666666665,37.318,34.419,56.333,34.5525,59.4475,51.9975,54.248000000000005,33.7205,58.0585,50.3375,53.415,33.2825,58.016,49.757,-0.0034999999999999476,-0.14949999999999997,0.10683500000000001,0.11068000000000001,0.0,206.21,206.06,203.43333333333334,203.43333333333334,0.0,0.0
3,0.0,0.0,0.0,1.0,1.0,0.0,0.0,1.0,0.0,100.0,1.0,1.1856,26.0,0.0,0.0,0.0,53.999996,0.0,26.0,26.0,26.0,26.0,-0.14400000000000002,0.31089999999999995,0.09860000000000001,293.427,-2.6286,-2.7074,-1.49235,-1.5901,-265.63,216.03,190.928875,0.0,0.0,0.0,0.0,0.007433333333333292,-5.498166666666667,-5.498166666666667,-0.5036,0.4075,-0.02300000000000013,-0.10499999999999998,65.961,-0.0952,-0.190275,1.4060000000000006,100.0,1.0,1.0,203.47,0.0,0.0,0.0,0.0,0.0,0.0,0.0,8624.4,0.0,55.0,5.0,237.43,1.0,0.0,0.0,0.0,0.0,0.0,0.0,0.0,0.1559999999999988,0.1559999999999988,0.0,0.0,1.0,55.0,616.79921,10000.0,85.000001,85.000001,85.000001,85.000001,395.0,0.0,0.0,0.0,1.0,166.665,53.619,53.619,48.08,48.08,34.0,-26.82,17.685000000000002,-35.736666666666665,24.759999999999998,0.0,1782.794,0.9849999999999994,100.0,27.752,26.724,42.493,41.275999999999996,0.0,0.0,100.0,0.0,0.0,0.0,0.0,2975.0,2875.2,4372.875,4266.5,305.7885,305.68425,314.138,314.30525,21.8121,20.5315,21.8213,21.356,314.999998,314.999998,324.999988,324.999988,99.55917142857143,99.5073,99.56651428571429,99.5463,-0.040000000000000036,-0.17433333333333323,-0.2132,0.012199999999999999,-0.06499999999999773,-0.051666666666669414,1.459,1.516,37.325,29.322,37.382999999999996,34.475,56.319,34.594,59.4845,52.057,54.233999999999995,33.7585,58.093,50.3945,53.4,33.319,58.048,49.813,-0.0024999999999999467,-0.14850000000000008,0.09841000000000001,0.11646500000000001,0.0,206.715,206.585,203.47,203.47,0.0,0.0
4,0.0,0.0,0.0,1.0,1.0,0.0,0.0,1.0,0.0,100.0,1.0,1.1856,26.0,0.0,0.0,0.0,53.999996,0.0,26.0,26.0,26.0,26.0,-0.161625,0.2946,0.0039250000000000005,293.671,-2.6541,-2.7989,-1.42955,-1.6059,-262.26,216.0375,190.909375,0.0,0.0,0.0,0.0,0.009399999999999964,-5.498166666666667,-5.498166666666667,-0.5364,-0.7949999999999999,-0.08966666666666656,-1.6019999999999999,66.108,-0.10550000000000001,-0.23345000000000002,1.6479999999999997,100.0,1.0,1.0,204.04333333333335,0.0,0.0,0.0,0.0,0.0,0.0,0.0,8648.6,0.0,55.0,5.0,237.96,0.0,0.0,0.0,0.0,0.0,0.0,0.0,0.0,0.20700000000000074,0.20700000000000074,0.0,0.0,0.0,55.0,616.79921,10000.0,85.000001,85.000001,85.000001,85.000001,395.0,0.0,0.0,0.0,1.0,166.665,53.36,53.36,48.644999999999996,48.644999999999996,34.0,-31.7825,17.665,-34.343333333333334,19.7675,0.0,1782.742,0.995000000000001,100.0,27.486,26.568,42.945,41.446,0.0,0.0,100.0,0.0,0.0,0.0,0.0,3327.142857142857,2819.1,4225.125,3698.6,304.8655,305.70725,314.58425,315.592,21.822,20.5366,21.832,21.3649,314.999998,314.999998,324.999988,324.999988,99.55917142857143,99.50731666666667,99.56667142857142,99.54644285714286,-0.06699999999999995,-0.18833333333333324,-0.24280000000000002,-0.0106,-0.06833333333332803,-0.05333333333332746,1.5514999999999999,1.6155,37.387,29.353666666666665,37.45,34.5305,56.304,34.635999999999996,59.5265,52.1155,54.22,33.797,58.1325,50.451,53.385,33.356,58.0845,49.868,0.0044999999999999485,-0.15050000000000008,0.10741500000000001,0.10215500000000001,0.0,207.115,206.97500000000002,204.04333333333335,204.04333333333335,0.0,0.0
5,0.0,0.0,0.0,1.0,1.0,0.0,0.0,1.0,0.0,100.0,1.0,1.1856,26.0,0.0,0.0,0.0,53.999996,0.0,26.0,26.0,26.0,26.0,-0.15787500000000002,0.3023,-0.01905,293.823,-2.6648,-2.7685,-1.4997500000000001,-1.6388,-259.09,216.04000000000002,190.89025,0.0,0.0,0.0,0.0,0.011233333333333317,-5.498166666666667,-5.498166666666667,-0.5363,0.36,-0.09288888888888858,-0.3650000000000002,66.245,-0.117,-0.21400000000000002,1.5999999999999996,100.0,1.0,1.0,204.51,0.0,0.0,0.0,0.0,0.0,0.0,0.0,8668.5,0.0,55.0,5.0,238.45,1.0,0.0,0.0,0.0,0.0,0.0,0.0,0.0,0.254999999999999,0.254999999999999,0.0,0.0,1.0,55.0,616.79921,10000.0,85.000001,85.000001,85.000001,85.000001,395.0,0.0,0.0,0.0,1.0,166.665,53.589,53.589,49.21,49.21,34.0,-30.802500000000002,17.195,-34.97333333333333,21.2275,0.0,1782.695,0.7850000000000001,100.0,27.678,26.471,42.672,41.043,0.0,0.0,100.0,0.0,0.0,0.0,0.0,3246.5714285714284,2740.9,4128.625,3940.5,305.0695,306.00375,314.85,315.06375,21.8314,20.5413,21.8419,21.3731,314.999998,314.999998,324.999988,324.999988,99.55918571428572,99.50733333333334,99.5668,99.54657142857143,-0.06125000000000003,-0.17766666666666664,-0.2556,-0.0206,-0.04333333333332945,-0.06499999999999773,1.5350000000000001,1.6115000000000004,37.446,29.383,37.512,34.582,56.292,34.675,59.563,52.168,54.209,33.8335,58.1665,50.501,53.373000000000005,33.39,58.116,49.917,-0.015499999999999958,-0.12050000000000005,0.110825,0.113945,0.0,207.57,207.425,204.51,204.51,0.0,0.0
6,0.0,0.0,0.0,1.0,1.0,0.0,0.0,1.0,0.0,100.0,1.0,1.1856,26.0,0.0,0.0,0.0,53.999996,0.0,26.0,26.0,26.0,26.0,-0.182,0.29190000000000005,0.009525,293.472,-2.6135,-2.8207,-1.52805,-1.5988,-255.7,216.04000000000002,190.869625,0.0,0.0,0.0,0.0,0.01319999999999999,-5.498166666666667,-5.498166666666667,-0.527,0.029000000000000026,-0.08966666666666656,0.6619999999999999,66.392,-0.1189,-0.20685,1.3499999999999996,100.0,1.0,1.0,204.86,0.0,0.0,0.0,0.0,0.0,0.0,0.0,8683.3,0.0,55.0,5.0,238.98333333333335,0.0,0.0,0.0,0.0,0.0,0.0,0.0,0.0,0.30600000000000094,0.30600000000000094,0.0,0.0,0.0,55.0,616.79921,10000.0,85.000001,85.000001,85.000001,85.000001,395.0,0.0,0.0,0.0,1.0,166.665,53.406,53.406,48.569,48.569,34.0,-29.1325,18.828333333333333,-35.82,22.009999999999998,0.0,1782.644,0.4800000000000004,100.0,27.885,26.389,42.998000000000005,41.203,0.0,0.0,100.0,0.0,0.0,0.0,0.0,3145.4285714285716,2877.8,4217.625,4061.9,305.153,305.67425,314.538,314.8125,21.8414,20.5464,21.8525,21.3821,314.999998,314.999998,324.999988,324.999988,99.5592,99.50735,99.56694285714286,99.54671428571429,-0.05049999999999999,-0.17066666666666674,-0.24180000000000001,-0.013000000000000001,-0.04833333333333201,-0.054999999999999716,1.521,1.5575,37.509,29.414666666666665,37.578,34.638,56.278999999999996,34.717,59.604,52.228,54.197,33.872,58.205,50.5585,53.36,33.427,58.1515,49.9735,-0.029000000000000026,-0.11749999999999994,0.10497000000000001,0.11511,0.0,208.01,207.9,204.86,204.86,0.0,0.0
7,0.0,0.0,0.0,1.0,1.0,0.0,0.0,1.0,0.0,100.0,1.0,1.1856,26.0,0.0,0.0,0.0,53.999996,0.0,26.0,26.0,26.0,26.0,-0.134625,0.2802,0.015375000000000002,293.365,-2.5827999999999998,-2.8137,-1.4862,-1.6441,-252.31,216.035,190.849125,0.0,0.0,0.0,0.0,0.01516666666666655,-5.498166666666667,-5.498166666666667,-0.5357000000000001,0.03949999999999998,-0.08166666666666655,-0.18400000000000016,66.537,-0.1149,-0.2248,1.1660000000000004,100.0,1.0,1.0,205.35000000000002,0.0,0.0,0.0,0.0,0.0,0.0,0.0,8704.0,0.0,55.0,5.0,239.50333333333333,1.0,0.0,0.0,0.0,0.0,0.0,0.0,0.0,0.3569999999999993,0.3569999999999993,0.0,0.0,1.0,55.0,616.79921,10000.0,85.000001,85.000001,85.000001,85.000001,395.0,0.0,0.0,0.0,1.0,166.665,52.963,52.963,48.965,48.965,34.0,-29.189999999999998,19.313333333333333,-34.16666666666667,21.625,0.0,1782.592,0.21999999999999886,100.0,27.995,26.717,42.974000000000004,41.477000000000004,0.0,0.0,100.0,0.0,0.0,0.0,0.0,3302.857142857143,2852.0,4090.0,3925.6000000000004,304.794,305.5585,314.8805,315.03325,21.851399999999998,20.5515,21.8631,21.3911,314.999998,314.999998,324.999988,324.999988,99.5592,99.50736666666667,99.5671,99.54685714285715,-0.023499999999999854,-0.15700000000000003,-0.246,-0.0174,-0.06499999999999773,-0.04999999999999716,1.5125,1.5570000000000004,37.571,29.446666666666665,37.644999999999996,34.694,56.266999999999996,34.759,59.6445,52.2875,54.184,33.9105,58.2425,50.6155,53.347,33.464,58.1865,50.0285,-0.06499999999999995,-0.08949999999999991,0.10999500000000001,0.10409,0.0,208.46,208.35000000000002,205.35000000000002,205.35000000000002,0.0,0.0
8,0.0,0.0,0.0,1.0,1.0,0.0,0.0,1.0,0.0,100.0,1.0,1.1856,26.0,0.0,0.0,0.0,53.999996,0.0,26.0,26.0,26.0,26.0,-0.111125,0.2942,-0.01645,293.503,-2.6653000000000002,-2.7453000000000003,-1.4694500000000001,-1.633,-249.12,216.0275,190.82975,0.0,0.0,0.0,0.0,0.017033333333333345,-5.498166666666667,-5.498166666666667,-0.5355,-0.4465000000000001,-0.06666666666666643,-0.7040000000000002,66.675,-0.10010000000000001,-0.216125,0.6579999999999995,100.0,1.0,1.0,205.68,0.0,0.0,0.0,0.0,0.0,0.0,0.0,8718.0,0.0,55.0,5.0,240.0,0.0,0.0,0.0,0.0,0.0,0.0,0.0,0.0,0.40500000000000114,0.40500000000000114,0.0,0.0,0.0,55.0,616.79921,10000.0,85.000001,85.000001,85.000001,85.000001,395.0,0.0,0.0,0.0,1.0,333.33500000000004,53.65,53.65,48.233000000000004,48.233000000000004,34.0,-27.215,19.25333333333333,-33.83333333333333,23.66,0.0,1782.543,0.120000000000001,100.0,27.573,26.658,42.988,41.562,0.0,0.0,100.0,0.0,0.0,0.0,0.0,3078.5714285714284,2841.9,4197.5,4065.0,305.5795,305.67125,314.5995,314.66025,21.860500000000002,20.5563,21.8731,21.3995,314.999998,314.999998,324.999988,324.999988,99.5592,99.50738333333334,99.56724285714286,99.54698571428571,-0.01749999999999985,-0.1399999999999999,-0.22,0.0036000000000000003,-0.03833333333332689,-0.03833333333332689,1.499,1.5194999999999999,37.628,29.476666666666667,37.707,34.747,56.25,34.7995,59.685,52.347,54.168,33.9475,58.2805,50.6725,53.331,33.4995,58.2215,50.084,-0.0665,-0.07400000000000007,0.10766500000000001,0.10436000000000001,0.0,208.82,208.78,205.68,205.68,0.0,0.0
9,0.0,0.0,0.0,1.0,1.0,0.0,0.0,1.0,0.0,100.0,1.0,1.1856,26.0,0.0,0.0,0.0,53.999996,0.0,26.0,26.0,26.0,26.0,-0.106125,0.2873000000000001,0.030025000000000003,293.182,-2.5842,-2.7711,-1.5197,-1.5867,-245.71,216.015,190.808625,0.0,0.0,0.0,0.0,0.019033333333333347,-5.498166666666667,-5.498166666666667,-0.5391,0.621,-0.07055555555555548,0.954,66.81700000000001,-0.082,-0.214125,0.5140000000000002,100.0,1.0,1.0,206.22333333333333,0.0,0.0,0.0,0.0,0.0,0.0,0.0,8741.1,0.0,55.0,5.0,240.51333333333332,1.0,0.0,0.0,0.0,0.0,0.0,0.0,0.0,0.4559999999999995,0.4559999999999995,0.0,0.0,1.0,55.0,616.79921,10000.0,85.000001,85.000001,85.000001,85.000001,395.0,0.0,0.0,0.0,1.0,166.665,52.582,52.582,49.103,49.103,34.0,-27.75,21.523333333333333,-31.543333333333333,23.9575,0.0,1782.494,-0.129999999999999,100.0,28.214,26.851,42.79,41.475,0.0,0.0,100.0,0.0,0.0,0.0,0.0,3295.285714285714,3002.2,4051.5,4066.6000000000004,304.7,305.296,315.0145,314.8315,21.8704,20.5615,21.8836,21.4084,314.999998,314.999998,324.999988,324.999988,99.5592,99.5074,99.56737142857143,99.54712857142857,0.011499999999999844,-0.11799999999999988,-0.19440000000000002,0.0292,-0.036666666666668846,-0.060000000000002274,1.542,1.58,37.69,29.509333333333334,37.772,34.8025,56.236999999999995,34.838,59.72,52.400999999999996,54.156,33.9835,58.313,50.724000000000004,53.317,33.533500000000004,58.2515,50.135,-0.08399999999999996,-0.0685,0.10819500000000001,0.100025,0.0,209.28,209.255,206.22333333333333,206.22333333333333,0.0,0.0
10,0.0,0.0,0.0,1.0,1.0,0.0,0.0,1.0,0.0,100.0,1.0,1.1856,26.0,0.0,0.0,0.0,53.999996,0.0,26.0,26.0,26.0,26.0,-0.07200000000000001,0.2956000000000001,0.044575000000000004,293.076,-2.6174,-2.7523,-1.4977,-1.5752000000000002,-242.5,216.0025,190.789125,0.0,0.0,0.0,0.0,0.02089999999999992,-5.498166666666667,-5.498166666666667,-0.5204,-0.45300000000000007,-0.031444444444444386,1.823,66.955,-0.06280000000000001,-0.2068,0.08800000000000008,100.0,1.0,1.0,206.46333333333334,0.0,0.0,0.0,0.0,0.0,0.0,0.0,8751.2,0.0,55.0,5.0,241.00666666666666,0.0,0.0,0.0,0.0,0.0,0.0,1.0,0.0,0.5040000000000013,0.5040000000000013,0.0,0.0,0.0,55.0,616.79921,10000.0,85.000001,85.000001,85.000001,85.000001,395.0,0.0,0.0,0.0,1.0,333.33500000000004,53.497,53.497,47.806,47.806,34.0,-23.29,21.191666666666666,-32.5,27.035,0.0,1782.445,-0.19500000000000028,100.0,28.018,26.826,43.195,42.118,0.0,0.0,100.0,0.0,0.0,0.0,0.0,2904.0,2904.8,4256.125,4277.7,305.8985,305.65425,314.3845,314.2625,21.8796,20.5663,21.8936,21.4171,314.999998,314.999998,324.999988,324.999988,99.55921428571429,99.5074,99.56751428571428,99.54725714285715,0.03500000000000014,-0.10033333333333316,-0.1716,0.0522,-0.05333333333332746,-0.04833333333333201,1.4805,1.479,37.748000000000005,29.539666666666665,37.835,34.8565,56.222,34.8745,59.7585,52.4595,54.141999999999996,34.016999999999996,58.3495,50.7805,53.303,33.5655,58.285,50.1895,-0.09050000000000002,-0.06000000000000005,0.10979000000000001,0.10107500000000001,0.0,209.72,209.675,206.46333333333334,206.46333333333334,0.0,0.0
11,0.0,0.0,0.0,1.0,1.0,0.0,0.0,1.0,0.0,100.0,1.0,1.1856,26.0,0.0,0.0,0.0,53.999996,0.0,26.0,26.0,26.0,26.0,-0.019,0.27249999999999996,-0.091425,293.579,-2.6689,-2.7267,-1.5535,-1.5652,-239.07999999999998,215.9875,190.768375,0.0,0.0,0.0,0.0,0.022599999999999953,-5.498166666666667,-5.498166666666667,-0.5588000000000001,-0.21500000000000008,-0.008444444444444255,-0.5920000000000001,67.094,-0.0393,-0.23500000000000001,0.020000000000000462,100.0,1.0,1.0,207.16333333333333,0.0,0.0,0.0,0.0,0.0,0.0,0.0,8780.9,0.0,55.0,5.0,241.51,1.0,0.0,0.0,0.0,0.0,0.0,1.0,0.0,0.5549999999999997,0.5549999999999997,0.0,0.0,1.0,55.0,616.79921,10000.0,85.000001,85.000001,85.000001,85.000001,395.0,0.0,0.0,0.0,1.0,166.665,52.979,52.979,49.271,49.271,34.0,-25.8725,22.416666666666668,-27.203333333333333,24.225,0.0,1782.395,-0.134999999999998,100.0,27.605,27.201,42.676,42.156,0.0,0.0,100.0,0.0,0.0,0.0,0.0,3177.0,2993.3,3790.0,3838.5,305.295,305.1575,315.6685,315.3025,21.8893,20.5716,21.9041,21.426099999999998,314.999998,314.999998,324.999988,324.999988,99.55921428571429,99.50741666666667,99.56765714285714,99.5474,0.03925000000000001,-0.08966666666666678,-0.1502,0.0742,-0.04833333333333201,-0.03833333333332689,1.6105,1.6085000000000003,37.808,29.572666666666667,37.9,34.913,56.206,34.914,59.7935,52.5175,54.126000000000005,34.053,58.3815,50.836,53.286,33.6005,58.314499999999995,50.2445,-0.08950000000000002,-0.0625,0.10690500000000001,0.10355500000000001,0.0,210.10500000000002,210.095,207.16333333333333,207.16333333333333,0.0,0.0
12,0.0,0.0,0.0,1.0,1.0,0.0,0.0,1.0,0.0,100.0,1.0,1.1856,26.0,0.0,0.0,0.0,53.999996,0.0,26.0,26.0,26.0,26.0,-0.018625,0.29690000000000016,0.0219,293.091,-2.7256,-2.7173,-1.52455,-1.5828,-235.86,215.9725,190.74775,0.0,0.0,0.0,0.0,0.025466666666666526,-5.498166666666667,-5.498166666666667,-0.5447000000000001,0.31199999999999994,-0.018000000000000238,-0.7850000000000001,67.231,-0.022000000000000002,-0.20597500000000002,0.0039999999999995595,100.0,1.0,1.0,207.39,0.0,0.0,0.0,0.0,0.0,0.0,0.0,8790.5,0.0,55.0,5.0,242.0,0.0,0.0,0.0,0.0,0.0,0.0,1.0,0.0,0.602999999999998,0.602999999999998,0.0,0.0,0.0,55.0,616.79921,10000.0,85.000001,85.000001,85.000001,85.000001,395.0,0.0,0.0,0.0,1.0,333.33500000000004,52.979,52.979,48.111,48.111,34.0,-26.044999999999998,23.081666666666663,-30.556666666666665,27.3125,0.0,1782.345,-0.22499999999999787,100.0,27.44,27.316,42.515,42.102000000000004,0.0,0.0,100.0,0.0,0.0,0.0,0.0,3202.285714285714,3011.5,4251.25,4119.6,305.24,305.11725,314.565,314.61075,21.8983,20.5767,21.913899999999998,21.4345,314.999998,314.999998,324.999988,324.999988,99.55922857142858,99.50743333333334,99.5678,99.54752857142857,0.05250000000000021,-0.07499999999999996,-0.13640000000000002,0.0808,-0.05333333333332746,-0.03833333333332689,1.5205,1.5235000000000003,37.864999999999995,29.604333333333333,37.962,34.966,56.192,34.951,59.829,52.5725,54.113,34.0875,58.415,50.8895,53.272,33.632999999999996,58.345,50.2965,-0.08999999999999997,-0.0605,0.10391500000000001,0.10254,0.0,210.555,210.55,207.39,207.39,0.0,0.0
13,0.0,0.0,0.0,1.0,1.0,0.0,0.0,1.0,0.0,100.0,1.0,1.1856,26.0,0.0,0.0,0.0,53.999996,0.0,26.0,26.0,26.0,26.0,-0.00725,0.2844,0.04675,292.709,-2.6952,-2.7185,-1.5546,-1.5735999999999999,-232.43,215.95499999999998,190.726,0.0,0.0,0.0,0.0,0.026733333333333387,-5.498166666666667,-5.498166666666667,-0.5374,-0.08250000000000002,-0.015444444444444372,1.1019999999999999,67.373,-0.0155,-0.211825,-0.14999999999999947,100.0,1.0,1.0,207.76666666666665,0.0,0.0,0.0,0.0,0.0,0.0,0.0,8806.4,0.0,55.0,5.0,242.51333333333332,1.0,0.0,0.0,0.0,0.0,0.0,1.0,0.0,0.6539999999999999,0.6539999999999999,0.0,0.0,1.0,55.0,616.79921,10000.0,85.000001,85.000001,85.000001,85.000001,395.0,0.0,0.0,0.0,1.0,166.665,52.673,52.673,47.989,47.989,34.0,-23.8325,25.341666666666665,-29.63,30.02,0.0,1782.296,-0.36499999999999844,100.0,27.927,27.339,42.894,42.480000000000004,0.0,0.0,100.0,0.0,0.0,0.0,0.0,3128.857142857143,3091.5,4182.75,4301.9,305.262,305.04825,314.6035,314.23675,21.9081,20.5821,21.9245,21.4437,314.999998,314.999998,324.999988,324.999988,99.55922857142858,99.50743333333334,99.56794285714285,99.54767142857143,0.08725000000000005,-0.03266666666666662,-0.1168,0.105,-0.051666666666669414,-0.03833333333332689,1.5005000000000002,1.4889999999999999,37.925,29.637999999999998,38.028,35.0235,56.178,34.9895,59.8675,52.6345,54.099999999999994,34.123,58.4505,50.948499999999996,53.257999999999996,33.667,58.3775,50.3545,-0.11099999999999999,-0.038999999999999924,0.1052,0.106255,0.0,210.995,210.97,207.76666666666665,207.76666666666665,0.0,0.0
14,0.0,0.0,0.0,1.0,1.0,0.0,0.0,1.0,0.0,100.0,1.0,1.1856,26.0,0.0,0.0,0.0,53.999996,0.0,26.0,26.0,26.0,26.0,0.0095,0.27960000000000007,-0.005775000000000001,292.877,-2.6997,-2.6564,-1.56265,-1.5455,-228.99,215.9375,190.704625,0.0,0.0,0.0,0.0,0.02873333333333339,-5.498166666666667,-5.498166666666667,-0.5487000000000001,-0.19599999999999995,0.00955555555555554,-0.13600000000000012,67.513,-0.0031000000000000003,-0.22640000000000002,-0.2679999999999998,100.0,1.0,1.0,208.2733333333333,0.0,0.0,0.0,0.0,0.0,0.0,0.0,8827.9,0.0,55.0,5.0,243.01999999999998,0.0,0.0,0.0,0.0,0.0,0.0,1.0,0.0,0.7049999999999983,0.7049999999999983,0.0,0.0,0.0,55.0,616.79921,10000.0,85.000001,85.000001,85.000001,85.000001,395.0,0.0,0.0,0.0,1.0,166.665,52.673,52.673,48.172,48.172,34.0,-24.0175,24.133333333333333,-28.076666666666664,28.11,0.0,1782.245,-0.379999999999999,100.0,27.724,27.605,42.784,42.792,0.0,0.0,100.0,0.0,0.0,0.0,0.0,3125.4285714285716,3089.9,4044.0,4107.3,305.4525,304.88675,315.02075,314.63875,21.9178,20.5875,21.9351,21.4529,314.999998,314.999998,324.999988,324.999988,99.55924285714286,99.50745,99.56808571428571,99.54781428571428,0.07825000000000015,-0.05333333333333323,-0.1138,0.1088,-0.05833333333333002,-0.04833333333333201,1.5550000000000002,1.5354999999999999,37.986000000000004,29.671666666666667,38.094,35.0805,56.165,35.0275,59.903999999999996,52.695,54.088,34.158,58.4845,51.007,53.245000000000005,33.701,58.408500000000004,50.411500000000004,-0.10699999999999998,-0.045500000000000096,0.10608500000000001,0.10481000000000001,0.0,211.42000000000002,211.42000000000002,208.2733333333333,208.2733333333333,0.0,0.0
15,0.0,0.0,0.0,1.0,1.0,0.0,0.0,1.0,0.0,100.0,1.0,1.1856,26.0,0.0,0.0,0.0,53.999996,0.0,26.0,26.0,26.0,26.0,0.026125,0.2811000000000001,-0.03135,292.831,-2.6707,-2.6152,-1.5862500000000002,-1.4929000000000001,-225.74,215.9225,190.68425,0.0,0.0,0.0,0.0,0.0306333333333334,-5.498166666666667,-5.498166666666667,-0.5403,0.27449999999999997,0.03533333333333322,-0.33599999999999985,67.645,0.009000000000000001,-0.210125,-0.2779999999999996,100.0,1.0,1.0,208.66666666666669,0.0,0.0,0.0,0.0,0.0,0.0,0.0,8844.6,0.0,55.0,5.0,243.49333333333334,1.0,0.0,0.0,0.0,0.0,0.0,1.0,0.0,0.7530000000000001,0.7530000000000001,0.0,0.0,1.0,55.0,616.79921,10000.0,85.000001,85.000001,85.000001,85.000001,395.0,0.0,0.0,0.0,1.0,166.665,52.811,52.811,48.157,48.157,34.0,-22.24,23.939999999999998,-27.933333333333334,29.6,0.0,1782.195,-0.3049999999999997,100.0,27.835,27.73,42.596000000000004,42.894999999999996,0.0,0.0,100.0,0.0,0.0,0.0,0.0,2981.0,3058.2,4053.875,4282.4,305.8265,304.97,315.02825,314.234,21.9269,20.5926,21.9449,21.4615,314.999998,314.999998,324.999988,324.999988,99.55925714285715,99.50745,99.56821428571429,99.54795714285714,0.08550000000000013,-0.04266666666666663,-0.1014,0.1226,-0.04999999999999716,-0.045000000000001705,1.5255,1.5215000000000005,38.043,29.703666666666663,38.156,35.1345,56.153,35.0635,59.937,52.751999999999995,54.076,34.1915,58.515,51.0615,53.233000000000004,33.733000000000004,58.4365,50.465,-0.10299999999999998,-0.046499999999999986,0.104815,0.10947000000000001,0.0,211.835,211.835,208.66666666666669,208.66666666666669,0.0,0.0
16,0.0,0.0,0.0,1.0,1.0,0.0,0.0,1.0,0.0,100.0,1.0,1.1856,26.0,0.0,0.0,0.0,53.999996,0.0,26.0,26.0,26.0,26.0,0.03075,0.27970000000000006,-0.027800000000000002,292.816,-2.7585,-2.6292,-1.5586,-1.5554999999999999,-222.09,215.905,190.660875,0.0,0.0,0.0,0.0,0.03276666666666661,-5.498166666666667,-5.498166666666667,-0.5612,-0.6620000000000001,0.018888888888888955,-1.241,67.793,0.014700000000000001,-0.22692500000000002,-0.18200000000000038,100.0,1.0,1.0,209.12666666666667,0.0,0.0,0.0,0.0,0.0,0.0,0.0,8864.1,0.0,55.0,5.0,244.03,0.0,0.0,0.0,0.0,0.0,0.0,1.0,0.0,0.8069999999999986,0.8069999999999986,0.0,0.0,0.0,55.0,616.79921,10000.0,85.000001,85.000001,85.000001,85.000001,395.0,0.0,0.0,0.0,1.0,166.665,52.628,52.628,47.958,47.958,34.0,-24.474999999999998,24.509999999999998,-27.123333333333335,28.7075,0.0,1782.142,-0.17999999999999972,100.0,27.48,27.819,42.887,43.018,0.0,0.0,100.0,0.0,0.0,0.0,0.0,3186.142857142857,3127.2,4022.125,4041.6000000000004,305.419,304.77875,315.096,314.74525,21.936799999999998,20.5984,21.9561,21.4712,314.999998,314.999998,324.999988,324.999988,99.55927142857144,99.50745,99.56837142857142,99.54811428571429,0.08899999999999997,-0.046666666666666634,-0.0986,0.127,-0.03833333333332689,-0.03999999999999915,1.5390000000000001,1.5350000000000001,38.105000000000004,29.740000000000002,38.226,35.195,56.135999999999996,35.1045,59.9765,52.8155,54.06,34.229,58.552,51.123,53.216,33.769,58.47,50.5255,-0.09699999999999998,-0.06299999999999994,0.10985500000000001,0.106355,0.0,212.255,212.26,209.12666666666667,209.12666666666667,0.0,0.0
17,0.0,0.0,0.0,1.0,1.0,0.0,0.0,1.0,0.0,100.0,1.0,1.1856,26.0,0.0,0.0,0.0,53.999996,0.0,26.0,26.0,26.0,26.0,0.011,0.2843,0.0148,292.587,-2.718,-2.614,-1.5955,-1.5192999999999999,-218.82999999999998,215.89,190.63975,0.0,0.0,0.0,0.0,0.034633333333333294,-5.498166666666667,-5.498166666666667,-0.5498000000000001,0.482,-0.004888888888888943,-0.8199999999999998,67.924,0.01,-0.206075,-0.03399999999999981,100.0,1.0,1.0,209.50333333333333,0.0,0.0,0.0,0.0,0.0,0.0,0.0,8880.0,0.0,55.0,5.0,244.49666666666667,1.0,0.0,0.0,0.0,0.0,0.0,1.0,0.0,0.8550000000000004,0.8550000000000004,0.0,0.0,1.0,55.0,616.79921,10000.0,85.000001,85.000001,85.000001,85.000001,395.0,0.0,0.0,0.0,1.0,333.33500000000004,52.536,52.536,47.897,47.897,34.0,-24.155,23.314999999999998,-29.89,29.3075,0.0,1782.093,-0.254999999999999,100.0,27.938,27.98,42.661,42.919,0.0,0.0,100.0,0.0,0.0,0.0,0.0,3193.285714285714,2985.1,4301.125,4186.3,305.3045,305.243,314.53725,314.52225,21.945999999999998,20.6036,21.966,21.4798,314.999998,314.999998,324.999988,324.999988,99.55928571428572,99.50746666666667,99.5685,99.54824285714285,0.09175000000000022,-0.04033333333333311,-0.0998,0.1256,-0.05333333333332746,-0.041666666666671404,1.536,1.5110000000000001,38.163,29.772666666666666,38.287,35.2485,56.125,35.141,60.0095,52.871,54.049,34.263,58.583,51.1765,53.204,33.8015,58.498,50.5775,-0.10099999999999998,-0.05699999999999994,0.10736000000000001,0.108325,0.0,212.695,212.71,209.50333333333333,209.50333333333333,0.0,0.0
18,0.0,0.0,0.0,1.0,1.0,0.0,0.0,1.0,0.0,100.0,1.0,1.1856,26.0,0.0,0.0,0.0,53.999996,0.0,26.0,26.0,26.0,26.0,0.00625,0.27360000000000007,-0.0223,292.526,-2.7426,-2.5965,-1.6038000000000001,-1.472,-215.57,215.875,190.618625,0.0,0.0,0.0,0.0,0.03653333333333331,-5.498166666666667,-5.498166666666667,-0.5588000000000001,-0.5369999999999999,0.011333333333333195,-0.31700000000000017,68.055,0.008700000000000001,-0.22035000000000002,-0.07600000000000051,100.0,1.0,1.0,209.9,0.0,0.0,0.0,0.0,0.0,0.0,0.0,8896.9,0.0,55.0,5.0,244.97,0.0,0.0,0.0,0.0,0.0,0.0,1.0,0.0,0.9029999999999987,0.9029999999999987,0.0,0.0,0.0,55.0,616.79921,10000.0,85.000001,85.000001,85.000001,85.000001,395.0,0.0,0.0,0.0,1.0,333.33500000000004,52.429,52.429,47.745,47.745,34.0,-24.925,24.295,-29.346666666666664,27.4675,0.0,1782.045,-0.23999999999999844,100.0,27.755,27.805,43.054,43.259,0.0,0.0,100.0,0.0,0.0,0.0,0.0,3209.714285714286,3158.5,4133.125,4126.6,305.312,304.7625,314.866,314.63725,21.955,20.6087,21.976,21.4885,314.999998,314.999998,324.999988,324.999988,99.55928571428572,99.50746666666667,99.56864285714286,99.54837142857143,0.08174999999999999,-0.04899999999999993,-0.11159999999999999,0.11320000000000001,-0.051666666666669414,-0.03499999999999659,1.5245,1.5339999999999998,38.219,29.804666666666666,38.349999999999994,35.3035,56.111999999999995,35.1765,60.045,52.929,54.037,34.295500000000004,58.616,51.232,53.191,33.832499999999996,58.5285,50.632,-0.09450000000000003,-0.06099999999999994,0.10675000000000001,0.10556000000000001,0.0,213.085,213.055,209.9,209.9,0.0,0.0
19,0.0,0.0,0.0,1.0,1.0,0.0,0.0,1.0,0.0,100.0,1.0,1.1856,26.0,0.0,0.0,0.0,53.999996,0.0,26.0,26.0,26.0,26.0,0.016,0.28880000000000017,0.06430000000000001,291.946,-2.6565,-2.6978,-1.61715,-1.4608,-211.89,215.85750000000002,190.594625,0.0,0.0,0.0,0.0,0.038666666666666516,-5.498166666666667,-5.498166666666667,-0.5491,0.776,0.015555555555555545,-0.7400000000000002,68.201,0.0118,-0.211075,-0.15799999999999947,100.0,1.0,1.0,210.29000000000002,0.0,0.0,0.0,0.0,0.0,0.0,0.0,8913.4,0.0,55.0,5.0,245.49333333333334,1.0,0.0,0.0,0.0,0.0,0.0,1.0,0.0,0.9570000000000007,0.9570000000000007,0.0,0.0,1.0,55.0,616.79921,10000.0,85.000001,85.000001,85.000001,85.000001,395.0,0.0,0.0,0.0,1.0,166.665,51.788,51.788,47.379,47.379,34.0,-23.81,24.983333333333334,-31.043333333333333,30.165,0.0,1781.993,-0.18499999999999872,100.0,28.376,28.373,42.905,43.249,0.0,0.0,100.0,0.0,0.0,0.0,0.0,3202.714285714286,3109.6,4325.375,4396.2,305.1515,304.63275,314.46075,314.018,21.9653,20.6147,21.987099999999998,21.4982,314.999998,314.999998,324.999988,324.999988,99.5593,99.50748333333334,99.56878571428571,99.54854285714286,0.09175000000000022,-0.052000000000000046,-0.1086,0.1246,-0.05333333333332746,-0.07000000000000028,1.5075,1.5135000000000005,38.283,29.842,38.419,35.364,56.101,35.219,60.082499999999996,52.9925,54.025999999999996,34.335,58.650999999999996,51.2935,53.178,33.8705,58.5595,50.692,-0.09450000000000003,-0.06400000000000006,0.10688500000000001,0.10474000000000001,0.0,213.56,213.585,210.29000000000002,210.29000000000002,0.0,0.0
20,0.0,0.0,0.0,1.0,1.0,0.0,0.0,1.0,0.0,100.0,1.0,1.1856,26.0,0.0,0.0,0.0,53.999996,0.0,26.0,26.0,26.0,26.0,0.0155,0.2751000000000001,-0.020475,292.328,-2.7526,-2.6527000000000003,-1.54005,-1.5824,-208.61,215.845,190.573625,0.0,0.0,0.0,0.0,0.04059999999999997,-5.498166666666667,-5.498166666666667,-0.5543,-1.064,0.014333333333333309,-0.9870000000000001,68.331,0.0126,-0.22385000000000002,-0.09600000000000009,100.0,1.0,1.0,210.63,0.0,0.0,0.0,0.0,0.0,0.0,0.0,8927.8,0.0,55.0,5.0,245.96666666666667,0.0,0.0,0.0,0.0,0.0,0.0,0.0,0.0,1.004999999999999,1.004999999999999,0.0,0.0,0.0,55.0,616.79921,10000.0,85.000001,85.000001,85.000001,85.000001,395.0,0.0,0.0,0.0,1.0,166.665,52.78,52.78,46.997,46.997,34.0,-23.2775,23.621666666666666,-29.356666666666666,30.56,0.0,1781.944,-0.120000000000001,100.0,27.825,28.022,43.422,43.632,0.0,0.0,100.0,0.0,0.0,0.0,0.0,3015.142857142857,3017.2,4240.5,4213.1,305.8605,305.11325,314.53275,314.2435,21.9741,20.6198,21.9971,21.506999999999998,314.999998,314.999998,324.999988,324.999988,99.55931428571428,99.50748333333334,99.56892857142857,99.54867142857142,0.08174999999999999,-0.04966666666666675,-0.1044,0.1196,-0.03499999999999659,-0.03833333333332689,1.4685000000000001,1.4805000000000001,38.338,29.874000000000002,38.482,35.419,56.086,35.2545,60.1195,53.0505,54.012,34.368,58.6855,51.3495,53.164,33.902,58.591499999999996,50.747,-0.09350000000000003,-0.06350000000000011,0.10649000000000002,0.10891500000000001,0.0,213.91,213.91500000000002,210.63,210.63,0.0,0.0
21,0.0,0.0,0.0,1.0,1.0,0.0,0.0,1.0,0.0,100.0,1.0,1.1856,26.0,0.0,0.0,0.0,53.999996,0.0,26.0,26.0,26.0,26.0,0.024,0.28080000000000016,-0.077125,292.725,-2.7175,-2.7103,-1.60385,-1.5434,-205.32999999999998,215.82999999999998,190.552125,0.0,0.0,0.0,0.0,0.04249999999999998,-5.498166666666667,-5.498166666666667,-0.5781000000000001,0.397,-0.004222222222222349,-0.968,68.456,0.0095,-0.226225,-0.036000000000000476,100.0,1.0,1.0,211.25666666666666,0.0,0.0,0.0,0.0,0.0,0.0,0.0,8954.4,0.0,55.0,5.0,246.41333333333336,1.0,0.0,0.0,0.0,0.0,0.0,0.0,0.0,1.0530000000000008,1.0530000000000008,0.0,0.0,1.0,55.0,616.79921,10000.0,85.000001,85.000001,85.000001,85.000001,395.0,0.0,0.0,0.0,1.0,166.665,52.383,52.383,48.325,48.325,34.0,-24.585,24.236666666666665,-27.99,27.4125,0.0,1781.897,-0.14499999999999957,100.0,28.052,28.078,42.857,43.114000000000004,0.0,0.0,100.0,0.0,0.0,0.0,0.0,3188.857142857143,3015.2,4023.0,3973.9,305.3185,305.0595,315.1905,315.03825,21.983,20.6251,22.0069,21.5155,314.999998,314.999998,324.999988,324.999988,99.55931428571428,99.5075,99.56905714285715,99.54881428571429,0.08150000000000013,-0.04800000000000004,-0.111,0.1228,-0.04833333333333201,-0.045000000000001705,1.6,1.5854999999999997,38.394,29.907,38.543,35.472,56.074,35.2915,60.1495,53.104,54.0,34.402,58.713499999999996,51.4005,53.150999999999996,33.935,58.6165,50.7975,-0.09450000000000003,-0.062000000000000055,0.112555,0.104815,0.0,214.34,214.34,211.25666666666666,211.25666666666666,0.0,0.0
22,0.0,0.0,0.0,1.0,1.0,0.0,0.0,1.0,0.0,100.0,1.0,1.1856,26.0,0.0,0.0,0.0,53.999996,0.0,26.0,26.0,26.0,26.0,0.008125,0.2715000000000001,-0.0029000000000000002,292.236,-2.6451000000000002,-2.7183,-1.5974,-1.5314999999999999,-201.82999999999998,215.8175,190.52825,0.0,0.0,0.0,0.0,0.044533333333333314,-5.498166666666667,-5.498166666666667,-0.5572,0.10549999999999993,0.007444444444444365,1.27,68.595,0.006200000000000001,-0.204025,-0.07399999999999984,100.0,1.0,1.0,211.4766666666667,0.0,0.0,0.0,0.0,0.0,0.0,0.0,8963.7,0.0,55.0,5.0,246.91333333333336,0.0,0.0,0.0,0.0,0.0,0.0,0.0,0.0,1.1039999999999992,1.1039999999999992,0.0,0.0,0.0,55.0,616.79921,10000.0,85.000001,85.000001,85.000001,85.000001,395.0,0.0,0.0,0.0,1.0,166.665,52.49,52.49,47.211,47.211,34.0,-21.45,25.026666666666667,-29.593333333333334,30.6925,0.0,1781.845,-0.22499999999999787,100.0,28.259,28.003,43.295,43.249,0.0,0.0,100.0,0.0,0.0,0.0,0.0,2933.4285714285716,3099.4,4206.0,4364.7,305.7845,304.9455,314.62175,314.16375,21.9925,20.6306,22.0175,21.5248,314.999998,314.999998,324.999988,324.999988,99.55932857142857,99.5075,99.56921428571428,99.54895714285715,0.09549999999999992,-0.045666666666666744,-0.1014,0.11900000000000001,-0.026666666666670835,-0.060000000000002274,1.4985,1.4829999999999997,38.453,29.941666666666666,38.608999999999995,35.53,56.061,35.3305,60.188,53.164500000000004,53.988,34.438,58.749,51.459,53.138,33.9695,58.649,50.8545,-0.09550000000000003,-0.05800000000000005,0.10346000000000001,0.10856,0.0,214.76,214.76999999999998,211.4766666666667,211.4766666666667,0.0,0.0
23,0.0,0.0,0.0,1.0,1.0,0.0,0.0,1.0,0.0,100.0,1.0,1.1856,26.0,0.0,0.0,0.0,53.999996,0.0,26.0,26.0,26.0,26.0,0.024,0.25340000000000007,-0.061950000000000005,292.221,-2.6844,-2.6587,-1.6550500000000001,-1.5917,-198.32999999999998,215.8025,190.504875,0.0,0.0,0.0,0.0,0.046566666666666534,-5.498166666666667,-5.498166666666667,-0.5769000000000001,-0.27249999999999996,0.007777777777777883,-0.718,68.72800000000001,0.0032,-0.23145000000000002,0.020000000000000462,100.0,1.0,1.0,211.99333333333334,0.0,0.0,0.0,0.0,0.0,0.0,0.0,8985.6,0.0,55.0,5.0,247.39666666666665,1.0,0.0,0.0,0.0,0.0,0.0,0.0,0.0,1.1550000000000011,1.1550000000000011,0.0,0.0,1.0,55.0,616.79921,10000.0,85.000001,85.000001,85.000001,85.000001,395.0,0.0,0.0,0.0,1.0,333.33500000000004,51.772999999999996,51.772999999999996,48.233000000000004,48.233000000000004,34.0,-25.447499999999998,24.293333333333333,-28.543333333333333,27.947499999999998,0.0,1781.793,-0.23000000000000043,100.0,28.285,28.288,43.291,43.636,0.0,0.0,100.0,0.0,0.0,0.0,0.0,3333.5714285714284,3081.7,3986.875,3984.1000000000004,304.7995,304.89025,315.2985,314.88875,22.0019,20.6362,22.028,21.5341,314.999998,314.999998,324.999988,324.999988,99.55934285714285,99.5075,99.56937142857143,99.54911428571428,0.08674999999999988,-0.04966666666666675,-0.10940000000000001,0.11040000000000001,-0.060000000000002274,-0.03999999999999915,1.5325,1.5305,38.512,29.976666666666667,38.675,35.588,56.048,35.372,60.2255,53.229,53.974999999999994,34.4765,58.784,51.521,53.123999999999995,34.006,58.681,50.915,-0.10099999999999998,-0.05600000000000005,0.10721000000000001,0.10939000000000002,0.0,215.17000000000002,215.16,211.99333333333334,211.99333333333334,0.0,0.0
24,0.0,0.0,0.0,1.0,1.0,0.0,0.0,1.0,0.0,100.0,1.0,1.1856,26.0,0.0,0.0,0.0,53.999996,0.0,26.0,26.0,26.0,26.0,-0.002625,0.27980000000000005,-0.04285,292.45,-2.7035,-2.6734999999999998,-1.5725,-1.5346000000000002,-194.82,215.7875,190.480875,0.0,0.0,0.0,0.0,0.04859999999999998,-5.498166666666667,-5.498166666666667,-0.5826,-0.567,0.016666666666666607,1.091,68.86500000000001,0.005200000000000001,-0.21937500000000001,-0.13399999999999945,100.0,1.0,1.0,212.31666666666666,0.0,0.0,0.0,0.0,0.0,0.0,0.0,8999.4,0.0,55.0,5.0,247.88666666666666,0.0,0.0,0.0,0.0,0.0,0.0,0.0,0.0,1.2059999999999995,1.2059999999999995,0.0,0.0,0.0,55.0,616.79921,10000.0,85.000001,85.000001,85.000001,85.000001,395.0,0.0,0.0,0.0,1.0,166.665,52.872,52.872,47.256,47.256,34.0,-21.9,23.89666666666667,-29.596666666666664,29.4025,0.0,1781.744,-0.28000000000000114,100.0,28.149,27.831,43.379,43.428,0.0,0.0,100.0,0.0,0.0,0.0,0.0,2903.4285714285716,3051.4,4225.0,4196.8,305.9825,305.21825,314.545,314.52925,22.0112,20.6417,22.0385,21.5433,314.999998,314.999998,324.999988,324.999988,99.55935714285714,99.5075,99.5695,99.54925714285714,0.08775000000000022,-0.04899999999999993,-0.1044,0.121,-0.04333333333332945,-0.041666666666671404,1.5055,1.5060000000000002,38.57,30.010666666666665,38.741,35.6455,56.034,35.407,60.26,53.2845,53.962,34.5085,58.816,51.575,53.111000000000004,34.037,58.7095,50.9675,-0.09850000000000003,-0.05750000000000011,0.10743000000000001,0.113555,0.0,215.565,215.59,212.31666666666666,212.31666666666666,0.0,0.0
25,0.0,0.0,0.0,1.0,1.0,0.0,0.0,1.0,0.0,100.0,1.0,1.1856,26.0,0.0,0.0,0.0,53.999996,0.0,26.0,26.0,26.0,26.0,0.02,0.25480000000000014,-0.0425,292.297,-2.7701,-2.6341,-1.58465,-1.5409000000000002,-191.31,215.775,190.4555,0.0,0.0,0.0,0.0,0.05063333333333331,-5.498166666666667,-5.498166666666667,-0.6105,0.07350000000000001,0.015444444444444372,-1.064,68.997,0.0071,-0.224825,-0.13399999999999945,100.0,1.0,1.0,212.86,0.0,0.0,0.0,0.0,0.0,0.0,0.0,9022.4,0.0,55.0,5.0,248.36,1.0,0.0,0.0,0.0,0.0,0.0,0.0,0.0,1.256999999999998,1.256999999999998,0.0,0.0,1.0,55.0,616.79921,10000.0,85.000001,85.000001,85.000001,85.000001,395.0,0.0,0.0,0.0,1.0,166.665,51.743,51.743,48.035,48.035,34.0,-26.185,26.046666666666667,-27.439999999999998,28.06,0.0,1781.692,-0.28000000000000114,100.0,28.031,28.266,43.034,43.28,0.0,0.0,100.0,0.0,0.0,0.0,0.0,3340.142857142857,3257.2,3966.5,4036.7,304.935,304.3855,315.28375,314.856,22.0205,20.6473,22.0489,21.5524,314.999998,314.999998,324.999988,324.999988,99.55935714285714,99.50751666666666,99.56964285714285,99.5494,0.08674999999999988,-0.04033333333333311,-0.1086,0.1212,-0.05666666666667197,-0.04833333333333201,1.5525,1.548,38.628,30.046,38.806,35.7025,56.019999999999996,35.446,60.293,53.342,53.949,34.545,58.847,51.629999999999995,53.096000000000004,34.072,58.7375,51.0215,-0.10449999999999993,-0.052000000000000046,0.11049,0.10637,0.0,216.0,215.995,212.86,212.86,0.0,0.0
26,0.0,0.0,0.0,1.0,1.0,0.0,0.0,1.0,0.0,100.0,1.0,1.1856,26.0,0.0,0.0,0.0,53.999996,0.0,26.0,26.0,26.0,26.0,0.014,0.2731000000000001,0.07335,291.214,-2.7252,-2.705,-1.6371,-1.5288,-187.99,215.7625,190.43125,0.0,0.0,0.0,0.0,0.05256666666666654,-5.498166666666667,-5.498166666666667,-0.5732,0.6855,0.0022222222222221255,-0.7589999999999999,69.125,0.008,-0.1983,-0.1299999999999999,100.0,1.0,1.0,212.99333333333334,0.0,0.0,0.0,0.0,0.0,0.0,0.0,9028.0,0.0,55.0,5.0,248.82333333333332,0.0,0.0,0.0,0.0,0.0,0.0,0.0,0.0,1.3049999999999997,1.3049999999999997,0.0,0.0,0.0,55.0,616.79921,10000.0,85.000001,85.000001,85.000001,85.000001,395.0,0.0,0.0,0.0,1.0,333.33500000000004,51.437,51.437,46.341,46.341,34.0,-24.4725,24.613333333333333,-33.513333333333335,31.72,0.0,1781.644,-0.3550000000000004,100.0,28.813,28.887,43.482,43.72,0.0,0.0,100.0,0.0,0.0,0.0,0.0,3243.0,3060.2,4579.5,4485.0,305.11,304.86725,313.8595,313.768,22.0296,20.6528,22.0589,21.5612,314.999998,314.999998,324.999988,324.999988,99.55938571428571,99.50751666666666,99.5698,99.54954285714285,0.09850000000000003,-0.05033333333333312,-0.1004,0.1128,-0.03833333333332689,-0.051666666666669414,1.4344999999999999,1.4344999999999999,38.685,30.08,38.867999999999995,35.7575,56.010999999999996,35.4845,60.329499999999996,53.4,53.94,34.5805,58.8805,51.686,53.086,34.106,58.768,51.076,-0.11149999999999993,-0.05899999999999994,0.10361500000000001,0.09967000000000001,0.0,216.43,216.42000000000002,212.99333333333334,212.99333333333334,0.0,0.0
27,0.0,0.0,0.0,1.0,1.0,0.0,0.0,1.0,0.0,100.0,1.0,1.1856,26.0,0.0,0.0,0.0,53.999996,0.0,26.0,26.0,26.0,26.0,0.01725,0.26080000000000014,-0.044875000000000005,291.748,-2.6874000000000002,-2.6754,-1.62535,-1.6034000000000002,-184.45999999999998,215.75,190.406625,0.0,0.0,0.0,0.0,0.05463333333333331,-5.498166666666667,-5.498166666666667,-0.5998,-1.0,0.004999999999999893,0.6890000000000001,69.257,0.0117,-0.244625,-0.2939999999999996,100.0,1.0,1.0,213.53333333333333,0.0,0.0,0.0,0.0,0.0,0.0,0.0,9050.8,0.0,55.0,5.0,249.3,1.0,0.0,0.0,0.0,0.0,0.0,0.0,0.0,1.355999999999998,1.355999999999998,0.0,0.0,1.0,55.0,616.79921,10000.0,85.000001,85.000001,85.000001,85.000001,395.0,0.0,0.0,0.0,1.0,166.665,51.849000000000004,51.849000000000004,46.707,46.707,34.0,-22.06,25.936666666666667,-27.78,29.9775,0.0,1781.594,-0.36499999999999844,100.0,28.646,28.54,44.215,44.213,0.0,0.0,100.0,0.0,0.0,0.0,0.0,3019.5714285714284,3217.7,4043.25,4058.5,305.608,304.6765,314.92025,314.7825,22.038899999999998,20.6584,22.0696,21.5707,314.999998,314.999998,324.999988,324.999988,99.5594,99.50753333333333,99.56994285714286,99.54968571428572,0.10599999999999987,-0.03866666666666663,-0.0838,0.133,-0.03166666666666629,-0.05333333333332746,1.518,1.4865000000000004,38.742999999999995,30.115000000000002,38.935,35.8165,55.998000000000005,35.5235,60.3675,53.461,53.927,34.6165,58.916,51.745,53.072,34.1405,58.8005,51.134,-0.10849999999999993,-0.0535000000000001,0.101985,0.10849,0.0,216.76999999999998,216.78,213.53333333333333,213.53333333333333,0.0,0.0
28,0.0,0.0,0.0,1.0,1.0,0.0,0.0,1.0,0.0,100.0,1.0,1.1856,26.0,0.0,0.0,0.0,53.999996,0.0,26.0,26.0,26.0,26.0,0.0185,0.26680000000000015,-0.046425,291.962,-2.6738,-2.6709,-1.6213000000000002,-1.5664,-181.13,215.7375,190.38275,0.0,0.0,0.0,0.0,0.05656666666666654,-5.498166666666667,-5.498166666666667,-0.6034,0.6539999999999999,-0.0006666666666665932,0.6799999999999999,69.379,0.0159,-0.21935000000000002,-0.3200000000000003,100.0,1.0,1.0,214.01,0.0,0.0,0.0,0.0,0.0,0.0,0.0,9071.1,0.0,55.0,5.0,249.73666666666668,0.0,0.0,0.0,0.0,0.0,0.0,0.0,0.0,1.404,1.404,0.0,0.0,0.0,55.0,616.79921,10000.0,85.000001,85.000001,85.000001,85.000001,395.0,0.0,0.0,0.0,1.0,166.665,51.743,51.743,47.699,47.699,34.0,-22.485,25.845,-27.506666666666664,29.95,0.0,1781.545,-0.3550000000000004,100.0,28.734,28.448999999999998,43.516999999999996,43.693,0.0,0.0,100.0,0.0,0.0,0.0,0.0,3107.4285714285716,3181.6,4011.375,4156.8,305.3095,304.7595,315.21375,314.66475,22.0478,20.6638,22.0793,21.5793,314.999998,314.999998,324.999988,324.999988,99.55941428571428,99.50753333333333,99.57007142857142,99.54982857142858,0.11149999999999993,-0.03299999999999992,-0.094,0.1338,-0.03999999999999915,-0.04999999999999716,1.5630000000000002,1.5469999999999997,38.799,30.148666666666664,38.995999999999995,35.8705,55.986999999999995,35.5605,60.397,53.5145,53.917,34.6505,58.9435,51.7965,53.061,34.173,58.825,51.184,-0.11149999999999993,-0.055500000000000105,0.10313000000000001,0.105675,0.0,217.19,217.215,214.01,214.01,0.0,0.0
29,0.0,0.0,0.0,1.0,1.0,0.0,0.0,1.0,0.0,100.0,1.0,1.1856,26.0,0.0,0.0,0.0,53.999996,0.0,26.0,26.0,26.0,26.0,0.038875,0.25280000000000014,0.0449,291.656,-2.6671,-2.7082,-1.5761,-1.5462,-177.59,215.725,190.356375,0.0,0.0,0.0,0.0,0.058633333333333315,-5.498166666666667,-5.498166666666667,-0.605,-0.687,0.0029999999999998916,-0.6520000000000001,69.513,0.0182,-0.2164,-0.24600000000000044,100.0,1.0,1.0,214.23666666666668,0.0,0.0,0.0,0.0,0.0,0.0,0.0,9080.6,0.0,55.0,5.0,250.22333333333336,1.0,0.0,0.0,0.0,0.0,0.0,0.0,0.0,1.4549999999999983,1.4549999999999983,0.0,0.0,1.0,55.0,616.79921,10000.0,85.000001,85.000001,85.000001,85.000001,395.0,0.0,0.0,0.0,1.0,166.665,52.016999999999996,52.016999999999996,46.631,46.631,34.0,-23.2125,25.403333333333332,-29.419999999999998,31.3225,0.0,1781.495,-0.370000000000001,100.0,28.178,28.477,43.803,44.097,0.0,0.0,100.0,0.0,0.0,0.0,0.0,3172.714285714286,3104.2,4242.125,4269.3,305.379,304.75425,314.5555,314.24925,22.0571,20.6694,22.0899,21.5886,314.999998,314.999998,324.999988,324.999988,99.55941428571428,99.50753333333333,99.57022857142857,99.54998571428571,0.09925000000000006,-0.04133333333333322,-0.0948,0.1348,-0.051666666666669414,-0.036666666666668846,1.464,1.4569999999999999,38.857,30.183666666666667,39.062,35.929,55.974000000000004,35.598,60.4355,53.5755,53.903999999999996,34.6855,58.979,51.855000000000004,53.047,34.2065,58.857,51.2415,-0.11199999999999999,-0.05249999999999999,0.10641,0.11488000000000001,0.0,217.59,217.57,214.23666666666668,214.23666666666668,0.0,0.0
30,0.0,0.0,0.0,1.0,1.0,0.0,0.0,1.0,0.0,100.0,1.0,1.1856,26.0,0.0,0.0,0.0,53.999996,0.0,26.0,26.0,26.0,26.0,0.0375,0.25639999999999996,0.020900000000000002,291.199,-2.7205,-2.5984,-1.54755,-1.6005,-174.25,215.715,190.3315,0.0,0.0,0.0,0.0,0.060566666666666547,-5.498166666666667,-5.498166666666667,-0.6062000000000001,0.79,-0.0012222222222222356,-0.794,69.635,0.020800000000000003,-0.22065,-0.3099999999999996,100.0,1.0,1.0,214.69666666666666,0.0,0.0,0.0,0.0,0.0,0.0,0.0,9100.2,0.0,55.0,5.0,250.66,0.0,0.0,0.0,0.0,0.0,0.0,1.0,0.0,1.5030000000000001,1.5030000000000001,0.0,0.0,0.0,55.0,616.79921,10000.0,85.000001,85.000001,85.000001,85.000001,395.0,0.0,0.0,0.0,1.0,333.33500000000004,50.72,50.72,47.18,47.18,34.0,-25.4975,25.634999999999998,-28.143333333333334,30.6225,0.0,1781.445,-0.384999999999998,100.0,29.006999999999998,29.206,43.571,44.073,0.0,0.0,100.0,0.0,0.0,0.0,0.0,3409.142857142857,3195.0,4186.25,4159.0,304.576,304.455,314.77475,314.486,22.0662,20.6749,22.0998,21.5974,314.999998,314.999998,324.999988,324.999988,99.55942857142857,99.50755,99.57037142857143,99.55012857142857,0.10824999999999996,-0.03266666666666662,-0.0928,0.12819999999999998,-0.04999999999999716,-0.03499999999999659,1.5075,1.5010000000000003,38.913,30.218333333333334,39.123000000000005,35.9835,55.966,35.637,60.466499999999996,53.6315,53.896,34.7215,59.007999999999996,51.909,53.038,34.241,58.8835,51.294,-0.11449999999999994,-0.05049999999999999,0.11225500000000001,0.10425500000000001,0.0,217.985,217.985,214.69666666666666,214.69666666666666,0.0,0.0
31,0.0,0.0,0.0,1.0,1.0,0.0,0.0,1.0,0.0,100.0,1.0,1.1856,26.0,0.0,0.0,0.0,53.999996,0.0,26.0,26.0,26.0,26.0,0.02425,0.2538,0.028800000000000003,290.924,-2.7682,-2.579,-1.5939,-1.4987,-170.49,215.70499999999998,190.304125,0.0,0.0,0.0,0.0,0.06273333333333331,-5.498166666666667,-5.498166666666667,-0.5910000000000001,-0.516,0.005444444444444363,-0.8930000000000002,69.775,0.027,-0.22207500000000002,-0.3020000000000005,100.0,1.0,1.0,215.00666666666666,0.0,0.0,0.0,0.0,0.0,0.0,0.0,9113.3,0.0,55.0,5.0,251.16333333333336,1.0,0.0,0.0,0.0,0.0,0.0,1.0,0.0,1.5569999999999986,1.5569999999999986,0.0,0.0,1.0,55.0,616.79921,10000.0,85.000001,85.000001,85.000001,85.000001,395.0,0.0,0.0,0.0,1.0,166.665,51.147,51.147,45.7,45.7,34.0,-24.1675,25.831666666666667,-30.669999999999998,30.2475,0.0,1781.393,-0.34999999999999787,100.0,28.781,29.241,44.339,44.79,0.0,0.0,100.0,0.0,0.0,0.0,0.0,3241.4285714285716,3276.1,4335.0,4186.6,305.2695,304.399,314.34125,314.41775,22.0761,20.6811,22.1111,21.6074,314.999998,314.999998,324.999988,324.999988,99.55944285714286,99.50755,99.57052857142857,99.55028571428572,0.1107499999999999,-0.03600000000000003,-0.09820000000000001,0.139,-0.03833333333332689,-0.05833333333333002,1.461,1.4485000000000001,38.976,30.256666666666668,39.194,36.0465,55.953,35.679,60.507999999999996,53.697,53.884,34.7605,59.0465,51.972,53.025,34.2785,58.9185,51.356,-0.11849999999999994,-0.05750000000000011,0.11413000000000001,0.10888500000000001,0.0,218.39,218.405,215.00666666666666,215.00666666666666,0.0,0.0
32,0.0,0.0,0.0,1.0,1.0,0.0,0.0,1.0,0.0,100.0,1.0,1.1856,26.0,0.0,0.0,0.0,53.999996,0.0,26.0,26.0,26.0,26.0,0.042,0.26870000000000016,-0.0071,291.229,-2.6909,-2.6844,-1.6456,-1.5082,-167.14,215.6975,190.28,0.0,0.0,0.0,0.0,0.06469999999999998,-5.498166666666667,-5.498166666666667,-0.6059,-0.04150000000000009,-0.01722222222222225,-0.9910000000000001,69.895,0.026600000000000002,-0.2277,-0.28000000000000025,100.0,1.0,1.0,215.47333333333333,0.0,0.0,0.0,0.0,0.0,0.0,0.0,9133.1,0.0,55.0,5.0,251.59333333333336,0.0,0.0,0.0,0.0,0.0,0.0,1.0,0.0,1.6050000000000004,1.6050000000000004,0.0,0.0,0.0,55.0,616.79921,10000.0,85.000001,85.000001,85.000001,85.000001,395.0,0.0,0.0,0.0,1.0,333.33500000000004,51.376,51.376,46.509,46.509,34.0,-23.37,25.316666666666666,-29.583333333333336,30.81,0.0,1781.343,-0.34499999999999886,100.0,28.76,29.131999999999998,44.112,44.575,0.0,0.0,100.0,0.0,0.0,0.0,0.0,3234.285714285714,3108.7,4257.375,4262.5,305.142,304.82025,314.6655,314.4205,22.0849,20.6865,22.1209,21.6162,314.999998,314.999998,324.999988,324.999988,99.55945714285714,99.50756666666666,99.57065714285714,99.55042857142857,0.11450000000000005,-0.03733333333333322,-0.085,0.1446,-0.04999999999999716,-0.05833333333333002,1.522,1.5084999999999997,39.031,30.290666666666667,39.256,36.101,55.943,35.716499999999996,60.54,53.752,53.873999999999995,34.795500000000004,59.076499999999996,52.025,53.013999999999996,34.312,58.945,51.4075,-0.11449999999999994,-0.05899999999999994,0.10247,0.10895500000000001,0.0,218.76999999999998,218.79000000000002,215.47333333333333,215.47333333333333,0.0,0.0
33,0.0,0.0,0.0,1.0,1.0,0.0,0.0,1.0,0.0,100.0,1.0,1.1856,26.0,0.0,0.0,0.0,53.999996,0.0,26.0,26.0,26.0,26.0,0.045875,0.2663,-0.0274,291.473,-2.7254,-2.6805,-1.58735,-1.5944,-163.78,215.69,190.255,0.0,0.0,0.0,0.0,0.06663333333333332,-5.498166666666667,-5.498166666666667,-0.6138,-0.33000000000000007,-0.015666666666666718,-0.06899999999999995,70.017,0.024200000000000003,-0.21725,-0.22799999999999976,100.0,1.0,1.0,215.81666666666666,0.0,0.0,0.0,0.0,0.0,0.0,0.0,9147.7,0.0,55.0,5.0,252.03333333333336,1.0,0.0,0.0,0.0,0.0,0.0,1.0,0.0,1.6529999999999987,1.6529999999999987,0.0,0.0,1.0,55.0,616.79921,10000.0,85.000001,85.000001,85.000001,85.000001,395.0,0.0,0.0,0.0,1.0,166.665,51.819,51.819,46.631,46.631,34.0,-22.965,24.706666666666667,-28.833333333333336,31.2525,0.0,1781.297,-0.39000000000000057,100.0,28.623,28.884999999999998,44.038,44.5,0.0,0.0,100.0,0.0,0.0,0.0,0.0,3158.714285714286,3038.0,4210.375,4216.8,305.4545,305.05825,314.69125,314.4465,22.0937,20.6918,22.1308,21.625,314.999998,314.999998,324.999988,324.999988,99.55948571428571,99.50756666666666,99.57081428571429,99.55055714285714,0.11425000000000018,-0.03466666666666662,-0.0902,0.1346,-0.045000000000001705,-0.03833333333332689,1.5075,1.5040000000000004,39.085,30.323666666666668,39.317,36.156,55.931,35.7515,60.5725,53.8075,53.864000000000004,34.8275,59.107,52.0785,53.001999999999995,34.343,58.972,51.4595,-0.12,-0.050999999999999934,0.10808000000000001,0.11207,0.0,219.14,219.15,215.81666666666666,215.81666666666666,0.0,0.0
34,0.0,0.0,0.0,1.0,1.0,0.0,0.0,1.0,0.0,100.0,1.0,1.1856,26.0,0.0,0.0,0.0,53.999996,0.0,26.0,26.0,26.0,26.0,0.035875000000000004,0.26770000000000005,-0.052750000000000005,291.763,-2.7532,-2.6756,-1.65665,-1.5517,-159.99,215.6825,190.225375,0.0,0.0,0.0,0.0,0.0688333333333333,-5.498166666666667,-5.498166666666667,-0.644,-0.855,0.01344444444444437,-0.16100000000000003,70.153,0.0222,-0.224225,-0.2079999999999993,100.0,1.0,1.0,216.25666666666666,0.0,0.0,0.0,0.0,0.0,0.0,0.0,9166.3,0.0,55.0,5.0,252.52333333333334,0.0,0.0,0.0,0.0,0.0,0.0,1.0,0.0,1.7070000000000007,1.7070000000000007,0.0,0.0,0.0,55.0,616.79921,10000.0,85.000001,85.000001,85.000001,85.000001,395.0,0.0,0.0,0.0,1.0,166.665,52.124,52.124,47.211,47.211,34.0,-22.947499999999998,25.006666666666668,-28.743333333333336,30.3675,0.0,1781.243,-0.39000000000000057,100.0,28.334,28.535,43.815,44.504999999999995,0.0,0.0,100.0,0.0,0.0,0.0,0.0,3088.5714285714284,3077.1,4102.75,4164.3,305.512,305.05025,314.988,314.531,22.1034,20.6977,22.1418,21.634900000000002,314.999998,314.999998,324.999988,324.999988,99.5595,99.50756666666666,99.57095714285714,99.55071428571429,0.11100000000000021,-0.03200000000000003,-0.0902,0.1372,-0.04333333333332945,-0.03999999999999915,1.53,1.5090000000000003,39.146,30.360666666666667,39.385999999999996,36.218,55.918,35.79,60.6075,53.8705,53.851,34.8635,59.138999999999996,52.1395,52.988,34.377,59.001,51.519,-0.11349999999999993,-0.0495000000000001,0.104025,0.1106,0.0,219.54000000000002,219.54500000000002,216.25666666666666,216.25666666666666,0.0,0.0
35,0.0,0.0,0.0,1.0,1.0,0.0,0.0,1.0,0.0,100.0,1.0,1.1856,26.0,0.0,0.0,0.0,53.999996,0.0,26.0,26.0,26.0,26.0,0.036375,0.25080000000000013,-0.025875000000000002,291.733,-2.7278000000000002,-2.6162,-1.6238000000000001,-1.5136,-156.62,215.675,190.19725,0.0,0.0,0.0,0.0,0.07079999999999997,-5.498166666666667,-5.498166666666667,-0.6815,-0.3145,-0.005666666666666931,-1.237,70.272,0.023700000000000002,-0.22945000000000002,-0.242,100.0,1.0,1.0,216.68333333333334,0.0,0.0,0.0,0.0,0.0,0.0,0.0,9184.4,0.0,55.0,5.0,252.95333333333335,1.0,0.0,0.0,0.0,0.0,0.0,1.0,0.0,1.754999999999999,1.754999999999999,0.0,0.0,1.0,55.0,616.79921,10000.0,85.000001,85.000001,85.000001,85.000001,395.0,0.0,0.0,0.0,1.0,166.665,51.650999999999996,51.650999999999996,46.814,46.814,34.0,-23.755,26.393333333333334,-27.783333333333335,28.605,0.0,1781.194,-0.29499999999999815,100.0,28.168,28.817,43.638,44.016000000000005,0.0,0.0,100.0,0.0,0.0,0.0,0.0,3181.142857142857,3303.0,4096.75,4004.9,305.351,304.24975,314.938,314.96675,22.1119,20.7031,22.1516,21.6435,314.999998,314.999998,324.999988,324.999988,99.55951428571429,99.50758333333333,99.5711,99.55085714285714,0.1027499999999999,-0.038999999999999924,-0.08,0.1428,-0.05333333333332746,-0.03333333333333144,1.54,1.5285000000000002,39.199,30.394666666666666,39.447,36.2715,55.903999999999996,35.827,60.6385,53.9225,53.837,34.8975,59.168,52.1895,52.974000000000004,34.41,59.027,51.568,-0.09899999999999998,-0.0605,0.10028000000000001,0.109905,0.0,219.91500000000002,219.935,216.68333333333334,216.68333333333334,0.0,0.0
36,0.0,0.0,0.0,1.0,1.0,0.0,0.0,1.0,0.0,100.0,1.0,1.1856,26.0,0.0,0.0,0.0,53.999996,0.0,26.0,26.0,26.0,26.0,0.03975,0.26680000000000015,0.06770000000000001,291.016,-2.6428,-2.7229,-1.5664500000000001,-1.5772,-153.04,215.67000000000002,190.165875,0.0,0.0,0.0,0.0,0.07289999999999996,-5.498166666666667,-5.498166666666667,-0.6636000000000001,0.1735,-0.05011111111111122,0.20799999999999996,70.402,0.023,-0.203125,-0.20000000000000018,100.0,1.0,1.0,216.87666666666667,0.0,0.0,0.0,0.0,0.0,0.0,0.0,9192.6,0.0,55.0,5.0,253.42000000000002,0.0,0.0,0.0,0.0,0.0,0.0,1.0,0.0,1.806000000000001,1.806000000000001,0.0,0.0,0.0,55.0,616.79921,10000.0,85.000001,85.000001,85.000001,85.000001,395.0,0.0,0.0,0.0,1.0,166.665,51.453,51.453,46.341,46.341,34.0,-21.865,26.526666666666667,-29.423333333333336,34.44,0.0,1781.143,-0.18499999999999872,100.0,28.961,28.807000000000002,43.931,44.152,0.0,0.0,100.0,0.0,0.0,0.0,0.0,3060.714285714286,3177.3,4375.5,4535.5,305.3005,304.687,314.246,313.77075,22.1211,20.709,22.1621,21.6529,314.999998,314.999998,324.999988,324.999988,99.55952857142857,99.50758333333333,99.57125714285715,99.55101428571429,0.11500000000000021,-0.03066666666666662,-0.0762,0.1408,-0.046666666666666856,-0.060000000000002274,1.4545,1.4320000000000004,39.257,30.431333333333335,39.513,36.3305,55.893,35.867,60.674,53.9825,53.827,34.9345,59.201,52.247,52.962,34.445499999999996,59.0565,51.6245,-0.09950000000000003,-0.06400000000000006,0.10174000000000001,0.10574000000000001,0.0,220.37,220.365,216.87666666666667,216.87666666666667,0.0,0.0
