,ABS Active,ABS Enabled,AID Allow Tire Blankets,AID Auto Blip,AID Auto Clutch,AID Auto Shift,AID Fuel Rate,AID Ideal Line,AID Mech Damage,AID Stability,AID Tire Wear Rate,Air Density,Air Temp,Ballast,Best Lap Delta,Best Lap Time,Brake Bias,Brake Pos,Brake Temp FL,Brake Temp FR,Brake Temp RL,Brake Temp RR,CG Accel Lateral,CG Accel Longitudinal,CG Accel Vertical,CG Height,Camber FL,Camber FR,Camber RL,Camber RR,Car Coord X,Car Coord Y,Car Coord Z,Car Damage Front,Car Damage Left,Car Damage Rear,Car Damage Right,Car Pos Norm,Caster FL,Caster FR,Chassis Pitch Angle,Chassis Pitch Rate,Chassis Roll Angle,Chassis Roll Rate,Chassis Velocity X,Chassis Velocity Y,Chassis Velocity Z,Chassis Yaw Rate,Clutch Pos,DRS Active,DRS Available,Drive Train Speed,ERS Heat Charging,ERS Is Charging,ERS Max Energy,ERS Power Level,ERS Recovery Level,Engine Brake Setting,Engine Limiter,Engine RPM,Flags,Fuel Level,Gear,Ground Speed,HR Sample Clock,In Pit,KERS Charge,KERS Deployed Energy,KERS Input,KERS Max Energy,LR Sample Clock,Lap Invalidated,Lap Time,Lap Time2,Last Lap Time,Last Sector Time,MR Sample Clock,Max Fuel,Max Power,Max RPM,Max Sus Travel FL,Max Sus Travel FR,Max Sus Travel RL,Max Sus Travel RR,Max Torque,Max Turbo Boost,Num Tires Off Track,Penalties Enabled,Position,Raw Data Sample Rate,Ride Height FL,Ride Height FR,Ride Height RL,Ride Height RR,Road Temp,Self Align Torque FL,Self Align Torque FR,Self Align Torque RL,Self Align Torque RR,Session Lap Count,Session Time Left,Steering Angle,Surface Grip,Suspension Travel FL,Suspension Travel FR,Suspension Travel RL,Suspension Travel RR,TC Active,TC Enabled,Throttle Pos,Tire Dirt Level FL,Tire Dirt Level FR,Tire Dirt Level RL,Tire Dirt Level RR,Tire Load FL,Tire Load FR,Tire Load RL,Tire Load RR,Tire Loaded Radius FL,Tire Loaded Radius FR,Tire Loaded Radius RL,Tire Loaded Radius RR,Tire Pressure FL,Tire Pressure FR,Tire Pressure RL,Tire Pressure RR,Tire Radius FL,Tire Radius FR,Tire Radius RL,Tire Radius RR,Tire Rubber Grip FL,Tire Rubber Grip FR,Tire Rubber Grip RL,Tire Rubber Grip RR,Tire Slip Angle FL,Tire Slip Angle FR,Tire Slip Angle RL,Tire Slip Angle RR,Tire Slip Ratio FL,Tire Slip Ratio FR,Tire Slip Ratio RL,Tire Slip Ratio RR,Tire Temp Core FL,Tire Temp Core FR,Tire Temp Core RL,Tire Temp Core RR,Tire Temp Inner FL,Tire Temp Inner FR,Tire Temp Inner RL,Tire Temp Inner RR,Tire Temp Middle FL,Tire Temp Middle FR,Tire Temp Middle RL,Tire Temp Middle RR,Tire Temp Outer FL,Tire Temp Outer FR,Tire Temp Outer RL,Tire Temp Outer RR,Toe In FL,Toe In FR,Toe In RL,Toe In RR,Turbo Boost,Wheel Angular Speed FL,Wheel Angular Speed FR,Wheel Angular Speed RL,Wheel Angular Speed RR,Wind Direction,Wind Speed
0,0.0,0.0,0.0,1.0,1.0,0.0,0.0,1.0,0.0,100.0,1.0,1.1856,26.0,0.0,0.0,0.0,53.99999,0.0,26.0,26.0,26.0,26.0,-0.09144444444444444,0.2872000000000001,0.0531,293.839,-2.7136,-2.483,-1.5088,-1.5362,-275.67,216.0325,190.9875,0.0,0.0,0.0,0.0,0.0015999999999999348,-5.498166666666667,-5.498166666666667,-0.5507000000000001,1.8445,-0.013444444444444592,-0.7800000000000002,65.509,-0.0417,-0.214425,0.7640000000000002,100.0,1.0,1.0,202.24666666666667,0.0,0.0,0.0,0.0,0.0,0.0,0.0,8572.5,0.0,55.0,5.0,235.8,0.0,0.0,0.0,0.0,0.0,0.0,0.0,0.0,0.0030000000000001137,0.0030000000000001137,0.0,0.0,0.0,55.0,616.79921,10000.0,85.0,85.0,85.0,85.0,395.0,0.0,0.0,0.0,1.0,20.0,52.322,52.322,49.393,49.393,34.0,-27.695,23.328,-30.2,25.185000000000002,0.0,1782.819,0.7250000000000014,100.0,27.347,26.9,40.448,40.241,0.0,0.0,100.0,0.0,0.0,0.0,0.0,3108.142857142857,3591.2,4144.0,4031.2,305.3125,303.30025,314.81875,314.79,21.7818,20.5153,21.782899999999998,21.328,314.99999,314.99999,324.99998,324.99998,99.55917142857143,99.50728333333333,99.56571428571428,99.54581428571429,-0.006666666666666599,-0.1206666666666667,-0.15583333333333335,0.07000000000000006,-0.061666666666667425,-0.0357142857142847,1.545,1.578,37.137,29.220666666666666,37.143,34.3,56.376000000000005,34.4905,59.2465,51.857,54.287,33.65,57.865,50.201,53.454,33.202,57.8275,49.62,-0.017000000000000015,-0.12450000000000006,0.10411000000000001,0.11483000000000002,0.0,205.3,205.215,202.24666666666667,202.24666666666667,0.0,0.0
1,0.0,0.0,0.0,1.0,1.0,0.0,0.0,1.0,0.0,100.0,1.0,1.1856,26.0,0.0,0.0,0.0,53.999996,0.0,26.0,26.0,26.0,26.0,-0.11699999999999999,0.32420000000000004,0.20350000000000001,293.167,-2.6507,-2.8015,-1.5232999999999999,-1.3717000000000001,-272.32,216.0375,190.967625,0.0,0.0,0.0,0.0,0.0035333333333333883,-5.498166666666667,-5.498166666666667,-0.4874,-0.9605000000000001,-0.05933333333333346,-0.8759999999999999,65.664,-0.0517,-0.186125,1.2759999999999998,100.0,1.0,1.0,202.34,0.0,0.0,0.0,0.0,0.0,0.0,0.0,8576.5,0.0,55.0,5.0,236.36333333333334,1.0,0.0,0.0,0.0,0.0,0.0,0.0,0.0,0.053999999999998494,0.053999999999998494,0.0,0.0,1.0,55.0,616.79921,10000.0,85.000001,85.000001,85.000001,85.000001,395.0,0.0,0.0,0.0,1.0,333.33500000000004,54.169,54.169,48.294,48.294,34.0,-26.455,16.958000000000002,-34.846666666666664,27.0175,0.0,1782.767,0.8599999999999994,100.0,27.3,26.79,42.699,41.792,0.0,0.0,100.0,0.0,0.0,0.0,0.0,3046.5714285714284,2529.2,4388.375,4837.7,305.6255,306.84675,314.08375,312.7265,21.7917,20.5203,21.7938,21.3372,314.999998,314.999998,324.999988,324.999988,99.55917142857143,99.50731666666667,99.56587142857143,99.54595714285715,-0.009333333333333194,-0.1413333333333333,-0.17966666666666667,0.033666666666666734,-0.09166666666666856,-0.021428571428565135,1.3916666666666666,1.4195,37.198,29.252000000000002,37.211,34.3575,56.358999999999995,34.5305,59.292,51.923,54.271,33.687,57.908,50.263999999999996,53.437,33.23766666666667,57.8675,49.682,-0.009499999999999953,-0.14050000000000007,0.10443000000000001,0.10610000000000001,0.0,205.76999999999998,205.62,202.34,202.34,0.0,0.0
2,0.0,0.0,0.0,1.0,1.0,0.0,0.0,1.0,0.0,100.0,1.0,1.1856,26.0,0.0,0.0,0.0,53.999996,0.0,26.0,26.0,26.0,26.0,-0.14988888888888885,0.29200000000000004,-0.09680000000000001,293.991,-2.5921000000000003,-2.7926,-1.4913,-1.6455000000000002,-268.97,216.04000000000002,190.94875,0.0,0.0,0.0,0.0,0.005499999999999949,-5.498166666666667,-5.498166666666667,-0.5563,0.16349999999999998,-0.05566666666666675,2.622,65.804,-0.069,-0.25477500000000003,1.597999999999999,100.0,1.0,1.0,203.41333333333333,0.0,0.0,0.0,0.0,0.0,0.0,0.0,8621.9,0.0,55.0,5.0,236.86666666666667,0.0,0.0,0.0,0.0,0.0,0.0,0.0,0.0,0.10500000000000043,0.10500000000000043,0.0,0.0,0.0,55.0,616.79921,10000.0,85.000001,85.000001,85.000001,85.000001,395.0,0.0,0.0,0.0,1.0,333.33500000000004,52.567,52.567,50.552,50.552,34.0,-30.299999999999997,19.98,-28.426666666666666,19.305,0.0,1782.716,0.879999999999999,100.0,28.258,26.683,42.44,41.161,0.0,0.0,100.0,0.0,0.0,0.0,0.0,3347.4285714285716,2967.7,3691.0,3524.2,304.4865,305.48125,315.78825,316.22975,21.8019,20.5253,21.8042,21.3459,314.999998,314.999998,324.999988,324.999988,99.55918571428572,99.50731666666667,99.56601428571429,99.54608571428571,-0.030999999999999917,-0.15133333333333332,-0.21816666666666668,0.008166666666666655,-0.04999999999999716,-0.09285714285714874,1.6653333333333333,1.7349999999999999,37.262,29.283,37.275999999999996,34.411500000000004,56.346000000000004,34.57,59.3285,51.977000000000004,54.257999999999996,33.723,57.942,50.316,53.424,33.272,57.8985,49.7325,-0.009000000000000008,-0.139,0.10907000000000001,0.10476,0.0,206.19,206.06,203.41333333333333,203.41333333333333,0.0,0.0
3,0.0,0.0,0.0,1.0,1.0,0.0,0.0,1.0,0.0,100.0,1.0,1.1856,26.0,0.0,0.0,0.0,53.999996,0.0,26.0,26.0,26.0,26.0,-0.1396666666666666,0.31390000000000007,0.0819,293.396,-2.6348000000000003,-2.6978,-1.4965,-1.5845,-265.81,216.0375,190.929875,0.0,0.0,0.0,0.0,0.007333333333333303,-5.498166666666667,-5.498166666666667,-0.5072,0.5235,-0.018000000000000238,0.050000000000000044,65.949,-0.0863,-0.19392500000000001,1.3200000000000003,100.0,1.0,1.0,203.44666666666666,0.0,0.0,0.0,0.0,0.0,0.0,0.0,8623.3,0.0,55.0,5.0,237.38666666666666,1.0,0.0,0.0,0.0,0.0,0.0,0.0,0.0,0.1529999999999987,0.1529999999999987,0.0,0.0,1.0,55.0,616.79921,10000.0,85.000001,85.000001,85.000001,85.000001,395.0,0.0,0.0,0.0,1.0,166.665,53.467,53.467,48.08,48.08,34.0,-26.3325,18.264,-34.95666666666666,24.740000000000002,0.0,1782.67,0.9000000000000021,100.0,27.87,26.873,42.426,41.28,0.0,0.0,100.0,0.0,0.0,0.0,0.0,2953.142857142857,2905.3,4354.0,4250.2,305.8505,305.5785,314.18425,314.3515,21.8112,20.5302,21.814,21.3543,314.999998,314.999998,324.999988,324.999988,99.55918571428572,99.50733333333334,99.56614285714285,99.54622857142857,-0.03166666666666673,-0.16366666666666663,-0.20183333333333334,0.015333333333333421,-0.03166666666666629,-0.07857142857142918,1.4673333333333334,1.5135,37.32,29.313333333333333,37.338,34.464,56.331,34.6105,59.365,52.036,54.244,33.760999999999996,57.976,50.3725,53.409,33.30833333333334,57.93,49.788,-0.012499999999999956,-0.14450000000000007,0.10412,0.10618500000000002,0.0,206.635,206.56,203.44666666666666,203.44666666666666,0.0,0.0
4,0.0,0.0,0.0,1.0,1.0,0.0,0.0,1.0,0.0,100.0,1.0,1.1856,26.0,0.0,0.0,0.0,53.999996,0.0,26.0,26.0,26.0,26.0,-0.15444444444444438,0.2832000000000001,-0.000275,293.655,-2.6624,-2.7881,-1.437,-1.5972,-262.44,216.035,190.910375,0.0,0.0,0.0,0.0,0.009299999999999975,-5.498166666666667,-5.498166666666667,-0.5359,-0.8340000000000001,-0.0825555555555555,-1.814,66.095,-0.0951,-0.234,1.5939999999999994,100.0,1.0,1.0,204.00333333333333,0.0,0.0,0.0,0.0,0.0,0.0,0.0,8647.0,0.0,55.0,5.0,237.91666666666669,0.0,0.0,0.0,0.0,0.0,0.0,0.0,0.0,0.20400000000000063,0.20400000000000063,0.0,0.0,0.0,55.0,616.79921,10000.0,85.000001,85.000001,85.000001,85.000001,395.0,0.0,0.0,0.0,1.0,166.665,53.314,53.314,48.644999999999996,48.644999999999996,34.0,-30.8875,17.97,-33.85666666666667,20.29,0.0,1782.618,0.9200000000000017,100.0,27.473,26.667,42.877,41.528,0.0,0.0,100.0,0.0,0.0,0.0,0.0,3303.5714285714284,2831.4,4205.875,3724.0,304.9575,305.66175,314.631,315.51675,21.820999999999998,20.5352,21.8247,21.3632,314.999998,314.999998,324.999988,324.999988,99.5592,99.50736666666667,99.56628571428571,99.54635714285715,-0.05133333333333323,-0.18033333333333323,-0.23266666666666666,-0.0018333333333333535,-0.03499999999999659,-0.04142857142856826,1.5256666666666665,1.5995,37.381,29.345,37.405,34.519999999999996,56.315,34.6525,59.407,52.0955,54.229,33.7995,58.0155,50.4295,53.393,33.345,57.966499999999996,49.844,-0.0030000000000000027,-0.14600000000000013,0.10956,0.10852,0.0,207.055,206.94,204.00333333333333,204.00333333333333,0.0,0.0
5,0.0,0.0,0.0,1.0,1.0,0.0,0.0,1.0,0.0,100.0,1.0,1.1856,26.0,0.0,0.0,0.0,53.999996,0.0,26.0,26.0,26.0,26.0,-0.17599999999999993,0.30100000000000016,-0.042125,293.839,-2.6662,-2.7669,-1.5032999999999999,-1.6329,-259.07,216.025,190.89025,0.0,0.0,0.0,0.0,0.011266666666666536,-5.498166666666667,-5.498166666666667,-0.5364,0.4265,-0.08722222222222209,0.937,66.242,-0.1071,-0.2147,1.5280000000000005,100.0,1.0,1.0,204.48000000000002,0.0,0.0,0.0,0.0,0.0,0.0,0.0,8667.1,0.0,55.0,5.0,238.44,1.0,0.0,0.0,0.0,0.0,0.0,0.0,0.0,0.254999999999999,0.254999999999999,0.0,0.0,1.0,55.0,616.79921,10000.0,85.000001,85.000001,85.000001,85.000001,395.0,0.0,0.0,0.0,1.0,166.665,53.574,53.574,49.21,49.21,34.0,-28.6,18.488,-33.68333333333334,21.9225,0.0,1782.568,0.5850000000000009,100.0,27.832,26.411,42.658,40.982,0.0,0.0,100.0,0.0,0.0,0.0,0.0,3128.142857142857,2822.9,4093.5,4002.8,305.2385,305.8965,314.88075,314.9725,21.831,20.5402,21.8352,21.3719,314.999998,314.999998,324.999988,324.999988,99.5592,99.50738333333334,99.56642857142857,99.5465,-0.03200000000000003,-0.15599999999999992,-0.23500000000000001,-0.01100000000000001,-0.04833333333333201,-0.03999999999999915,1.548,1.6235,37.444,29.376333333333335,37.47,34.5745,56.302,34.694,59.446,52.150999999999996,54.217,33.8375,58.052,50.483000000000004,53.379999999999995,33.38166666666667,58.0005,49.896,-0.03049999999999997,-0.12050000000000005,0.10566500000000001,0.10607000000000001,0.0,207.54000000000002,207.41500000000002,204.48000000000002,204.48000000000002,0.0,0.0
6,0.0,0.0,0.0,1.0,1.0,0.0,0.0,1.0,0.0,100.0,1.0,1.1856,26.0,0.0,0.0,0.0,53.999996,0.0,26.0,26.0,26.0,26.0,-0.16466666666666663,0.2854000000000001,0.010475,293.488,-2.6214,-2.8125999999999998,-1.5367000000000002,-1.5877,-255.88,216.015,190.870625,0.0,0.0,0.0,0.0,0.0131,-5.498166666666667,-5.498166666666667,-0.5284,0.04849999999999999,-0.08011111111111147,0.7269999999999999,66.38,-0.11080000000000001,-0.20802500000000002,1.218,100.0,1.0,1.0,204.83333333333331,0.0,0.0,0.0,0.0,0.0,0.0,0.0,8682.2,0.0,55.0,5.0,238.93666666666667,0.0,0.0,0.0,0.0,0.0,0.0,0.0,0.0,0.3030000000000008,0.3030000000000008,0.0,0.0,0.0,55.0,616.79921,10000.0,85.000001,85.000001,85.000001,85.000001,395.0,0.0,0.0,0.0,1.0,333.33500000000004,53.329,53.329,48.629999999999995,48.629999999999995,34.0,-28.535,19.566,-34.97666666666667,22.387500000000003,0.0,1782.517,0.504999999999999,100.0,27.835,26.482,42.900999999999996,41.238,0.0,0.0,100.0,0.0,0.0,0.0,0.0,3152.0,2915.3,4174.875,4069.0,305.1685,305.56825,314.6455,314.798,21.8404,20.545,21.8452,21.3804,314.999998,314.999998,324.999988,324.999988,99.5592,99.5074,99.56657142857142,99.54664285714286,-0.03400000000000003,-0.15766666666666662,-0.231,-0.0040000000000000036,-0.02833333333332888,-0.05142857142856627,1.5150000000000001,1.5525,37.503,29.406333333333336,37.532,34.6275,56.289,34.733000000000004,59.4845,52.208,54.204,33.8735,58.088,50.5375,53.366,33.416,58.033500000000004,49.9495,-0.03600000000000003,-0.10899999999999999,0.10609500000000001,0.11319000000000001,0.0,207.95499999999998,207.85500000000002,204.83333333333331,204.83333333333331,0.0,0.0
7,0.0,0.0,0.0,1.0,1.0,0.0,0.0,1.0,0.0,100.0,1.0,1.1856,26.0,0.0,0.0,0.0,53.999996,0.0,26.0,26.0,26.0,26.0,-0.12622222222222212,0.29510000000000014,0.019100000000000002,293.335,-2.5913,-2.8074,-1.492,-1.6362999999999999,-252.5,215.9975,190.85025,0.0,0.0,0.0,0.0,0.015066666666666562,-5.498166666666667,-5.498166666666667,-0.5358,0.0034999999999999476,-0.07622222222222241,-0.31199999999999983,66.525,-0.1032,-0.224675,1.0299999999999994,100.0,1.0,1.0,205.29333333333335,0.0,0.0,0.0,0.0,0.0,0.0,0.0,8701.6,0.0,55.0,5.0,239.46333333333334,1.0,0.0,0.0,0.0,0.0,0.0,0.0,0.0,0.3539999999999992,0.3539999999999992,0.0,0.0,1.0,55.0,616.79921,10000.0,85.000001,85.000001,85.000001,85.000001,395.0,0.0,0.0,0.0,1.0,333.33500000000004,52.933,52.933,48.92,48.92,34.0,-28.747500000000002,19.858,-33.78,22.12,0.0,1782.467,0.10500000000000043,100.0,27.933,26.749,42.869,41.536,0.0,0.0,100.0,0.0,0.0,0.0,0.0,3317.0,2875.0,4110.875,3952.3,304.7945,305.46775,314.82025,314.95775,21.8504,20.5501,21.8558,21.3893,314.999998,314.999998,324.999988,324.999988,99.55921428571429,99.5074,99.56671428571428,99.54677142857143,-0.009666666666666712,-0.14700000000000002,-0.23316666666666666,-0.008333333333333304,-0.05666666666667197,-0.05285714285714249,1.525,1.571,37.565,29.438333333333333,37.598,34.6835,56.275,34.774,59.525,52.268,54.191,33.911500000000004,58.1255,50.5945,53.352999999999994,33.452333333333335,58.0685,50.0055,-0.0695,-0.08400000000000007,0.108975,0.10645500000000001,0.0,208.42000000000002,208.31,205.29333333333335,205.29333333333335,0.0,0.0
8,0.0,0.0,0.0,1.0,1.0,0.0,0.0,1.0,0.0,100.0,1.0,1.1856,26.0,0.0,0.0,0.0,53.999996,0.0,26.0,26.0,26.0,26.0,-0.09844444444444445,0.28370000000000006,0.0274,293.488,-2.6697,-2.7408,-1.4762,-1.6271,-249.1,215.97750000000002,190.829625,0.0,0.0,0.0,0.0,0.017033333333333345,-5.498166666666667,-5.498166666666667,-0.5365,-0.49150000000000005,-0.057111111111111335,0.756,66.67099999999999,-0.0881,-0.2165,0.4720000000000004,100.0,1.0,1.0,205.68,0.0,0.0,0.0,0.0,0.0,0.0,0.0,8718.0,0.0,55.0,5.0,239.99,0.0,0.0,0.0,0.0,0.0,0.0,0.0,0.0,0.40500000000000114,0.40500000000000114,0.0,0.0,0.0,55.0,616.79921,10000.0,85.000001,85.000001,85.000001,85.000001,395.0,0.0,0.0,0.0,1.0,166.665,53.589,53.589,48.294,48.294,34.0,-25.665,20.99,-32.129999999999995,25.197499999999998,0.0,1782.417,-0.02499999999999858,100.0,27.698999999999998,26.584,43.008,41.575,0.0,0.0,100.0,0.0,0.0,0.0,0.0,2988.0,2969.9,4106.5,4112.7,305.717,305.45825,314.73675,314.6295,21.8602,20.5552,21.8663,21.3983,314.999998,314.999998,324.999988,324.999988,99.55921428571429,99.50743333333334,99.56685714285715,99.54691428571428,0.0040000000000000036,-0.1166666666666667,-0.20033333333333334,0.030999999999999917,-0.04999999999999716,-0.05857142857143316,1.512,1.537,37.626000000000005,29.47,37.664,34.739,56.257999999999996,34.814,59.565,52.327,54.174,33.948,58.163,50.6515,53.336,33.48733333333333,58.103,50.061,-0.07250000000000001,-0.07000000000000006,0.11067,0.11292500000000001,0.0,208.835,208.76999999999998,205.68,205.68,0.0,0.0
9,0.0,0.0,0.0,1.0,1.0,0.0,0.0,1.0,0.0,100.0,1.0,1.1856,26.0,0.0,0.0,0.0,53.999996,0.0,26.0,26.0,26.0,26.0,-0.0808888888888889,0.2903,0.031575,293.198,-2.5943,-2.7604,-1.5283,-1.5796999999999999,-245.9,215.95749999999998,190.80975,0.0,0.0,0.0,0.0,0.018899999999999917,-5.498166666666667,-5.498166666666667,-0.5405,0.5485,-0.061555555555555586,0.8440000000000001,66.805,-0.0712,-0.215425,0.3260000000000005,100.0,1.0,1.0,206.19333333333333,0.0,0.0,0.0,0.0,0.0,0.0,0.0,8739.8,0.0,55.0,5.0,240.47,1.0,0.0,0.0,0.0,0.0,0.0,0.0,0.0,0.4529999999999994,0.4529999999999994,0.0,0.0,1.0,55.0,616.79921,10000.0,85.000001,85.000001,85.000001,85.000001,395.0,0.0,0.0,0.0,1.0,333.33500000000004,52.582,52.582,49.088,49.088,34.0,-26.85,22.7,-30.773333333333333,24.942500000000003,0.0,1782.368,-0.2049999999999983,100.0,28.096,26.919,42.718,41.593,0.0,0.0,100.0,0.0,0.0,0.0,0.0,3286.142857142857,3030.3,4022.125,4058.2,304.7315,305.205,315.0465,314.84775,21.8695,20.560200000000002,21.8761,21.4067,314.999998,314.999998,324.999988,324.999988,99.55921428571429,99.50743333333334,99.567,99.54704285714286,0.031333333333333435,-0.09299999999999997,-0.181,0.050000000000000044,-0.04833333333333201,-0.047142857142851824,1.546,1.5594999999999999,37.685,29.501333333333335,37.726,34.7915,56.244,34.852000000000004,59.6,52.3815,54.161,33.9835,58.196,50.704,53.322,33.521,58.132999999999996,50.112,-0.09350000000000003,-0.05699999999999994,0.101775,0.10768000000000001,0.0,209.255,209.22,206.19333333333333,206.19333333333333,0.0,0.0
10,0.0,0.0,0.0,1.0,1.0,0.0,0.0,1.0,0.0,100.0,1.0,1.1856,26.0,0.0,0.0,0.0,53.999996,0.0,26.0,26.0,26.0,26.0,-0.04355555555555557,0.28880000000000017,-0.00745,293.091,-2.6688,-2.7398,-1.505,-1.5547,-242.48,215.9325,190.789,0.0,0.0,0.0,0.0,0.02089999999999992,-5.498166666666667,-5.498166666666667,-0.5215000000000001,-0.4119999999999999,-0.026333333333333098,0.2649999999999999,66.952,-0.0482,-0.20905,-0.006000000000000227,100.0,1.0,1.0,206.45666666666668,0.0,0.0,0.0,0.0,0.0,0.0,0.0,8751.0,0.0,55.0,5.0,240.99666666666667,0.0,0.0,0.0,0.0,0.0,0.0,1.0,0.0,0.5040000000000013,0.5040000000000013,0.0,0.0,0.0,55.0,616.79921,10000.0,85.000001,85.000001,85.000001,85.000001,395.0,0.0,0.0,0.0,1.0,166.665,53.482,53.482,47.882,47.882,34.0,-24.325,20.868,-32.45,26.6175,0.0,1782.319,-0.3249999999999993,100.0,27.787,27.067,42.980000000000004,42.289,0.0,0.0,100.0,0.0,0.0,0.0,0.0,3003.4285714285716,2811.0,4295.0,4218.8,305.791,305.7455,314.3845,314.32325,21.8793,20.5654,21.8868,21.4158,314.999998,314.999998,324.999988,324.999988,99.55922857142858,99.50745,99.56714285714285,99.5472,0.03733333333333322,-0.09099999999999997,-0.1655,0.057333333333333236,-0.03833333333332689,-0.021428571428565135,1.488,1.492,37.745999999999995,29.533666666666665,37.792,34.849000000000004,56.230000000000004,34.8905,59.641,52.444,54.147,34.0185,58.234,50.7635,53.307,33.55466666666666,58.1685,50.170500000000004,-0.10250000000000004,-0.04800000000000004,0.10726000000000001,0.10514000000000001,0.0,209.69,209.66500000000002,206.45666666666668,206.45666666666668,0.0,0.0
11,0.0,0.0,0.0,1.0,1.0,0.0,0.0,1.0,0.0,100.0,1.0,1.1856,26.0,0.0,0.0,0.0,53.999996,0.0,26.0,26.0,26.0,26.0,-0.030555555555555558,0.27890000000000015,-0.067525,293.579,-2.6797,-2.7191,-1.5614,-1.5241,-239.07,215.9075,190.76825,0.0,0.0,0.0,0.0,0.022599999999999953,-5.498166666666667,-5.498166666666667,-0.5574,-0.13949999999999996,0.003555555555555534,0.667,67.092,-0.025,-0.2326,-0.24399999999999977,100.0,1.0,1.0,207.15333333333334,0.0,0.0,0.0,0.0,0.0,0.0,0.0,8780.4,0.0,55.0,5.0,241.5,1.0,0.0,0.0,0.0,0.0,0.0,1.0,0.0,0.5549999999999997,0.5549999999999997,0.0,0.0,1.0,55.0,616.79921,10000.0,85.000001,85.000001,85.000001,85.000001,395.0,0.0,0.0,0.0,1.0,333.33500000000004,53.055,53.055,49.21,49.21,34.0,-23.68,24.509999999999998,-26.23,25.177500000000002,0.0,1782.266,-0.36499999999999844,100.0,27.629,27.076,42.601,42.184,0.0,0.0,100.0,0.0,0.0,0.0,0.0,3041.285714285714,3104.5,3764.375,3915.5,305.5245,304.98975,315.699,315.195,21.889,20.5707,21.897199999999998,21.4248,314.999998,314.999998,324.999988,324.999988,99.55922857142858,99.50745,99.56727142857143,99.54732857142857,0.06866666666666665,-0.056333333333333124,-0.13066666666666665,0.09549999999999992,-0.054999999999999716,-0.03857142857143003,1.6133333333333333,1.6139999999999999,37.806,29.567,37.857,34.905,56.214,34.929,59.6755,52.5025,54.132,34.054,58.2665,50.82,53.291,33.58866666666667,58.198,50.2255,-0.10250000000000004,-0.04400000000000004,0.10412500000000001,0.10235000000000001,0.0,210.095,210.09,207.15333333333334,207.15333333333334,0.0,0.0
12,0.0,0.0,0.0,1.0,1.0,0.0,0.0,1.0,0.0,100.0,1.0,1.1856,26.0,0.0,0.0,0.0,53.999996,0.0,26.0,26.0,26.0,26.0,0.0040000000000000036,0.30090000000000017,0.024975,293.06,-2.7052,-2.7064,-1.5350000000000001,-1.5499,-235.64,215.8825,190.746375,0.0,0.0,0.0,0.0,0.025466666666666526,-5.498166666666667,-5.498166666666667,-0.543,0.30799999999999994,-0.006222222222222129,-0.6720000000000002,67.236,-0.0066,-0.20475000000000002,-0.21200000000000063,100.0,1.0,1.0,207.4,0.0,0.0,0.0,0.0,0.0,0.0,0.0,8790.9,0.0,55.0,5.0,242.01999999999998,0.0,0.0,0.0,0.0,0.0,0.0,1.0,0.0,0.6059999999999981,0.6059999999999981,0.0,0.0,0.0,55.0,616.79921,10000.0,85.000001,85.000001,85.000001,85.000001,395.0,0.0,0.0,0.0,1.0,166.665,52.933,52.933,48.111,48.111,34.0,-24.49,24.418,-29.593333333333334,28.0375,0.0,1782.216,-0.370000000000001,100.0,27.404,27.415,42.414,42.247,0.0,0.0,100.0,0.0,0.0,0.0,0.0,3157.4285714285716,3039.8,4236.25,4152.9,305.332,305.02575,314.59525,314.549,21.898600000000002,20.5761,21.9076,21.433799999999998,314.999998,314.999998,324.999988,324.999988,99.55924285714286,99.50746666666667,99.56742857142856,99.54747142857143,0.07566666666666677,-0.046333333333333115,-0.11800000000000001,0.09899999999999998,-0.060000000000002274,-0.04999999999999716,1.5226666666666666,1.527,37.866,29.600666666666665,37.923,34.961,56.199,34.967,59.713499999999996,52.562,54.119,34.0895,58.3015,50.876999999999995,53.277,33.62266666666667,58.230000000000004,50.2815,-0.10499999999999998,-0.04049999999999998,0.11039500000000001,0.10643000000000001,0.0,210.57,210.565,207.4,207.4,0.0,0.0
13,0.0,0.0,0.0,1.0,1.0,0.0,0.0,1.0,0.0,100.0,1.0,1.1856,26.0,0.0,0.0,0.0,53.999996,0.0,26.0,26.0,26.0,26.0,0.022777777777777786,0.28580000000000005,0.035575,292.694,-2.6838,-2.6982,-1.5695000000000001,-1.5596,-232.41,215.85750000000002,190.725875,0.0,0.0,0.0,0.0,0.026766666666666605,-5.498166666666667,-5.498166666666667,-0.5381,-0.14400000000000013,-0.003666666666666707,-0.5140000000000002,67.37,0.005200000000000001,-0.21357500000000001,-0.3099999999999996,100.0,1.0,1.0,207.76,0.0,0.0,0.0,0.0,0.0,0.0,0.0,8806.2,0.0,55.0,5.0,242.50333333333333,1.0,0.0,0.0,0.0,0.0,0.0,1.0,0.0,0.6539999999999999,0.6539999999999999,0.0,0.0,1.0,55.0,616.79921,10000.0,85.000001,85.000001,85.000001,85.000001,395.0,0.0,0.0,0.0,1.0,333.33500000000004,52.643,52.643,48.004,48.004,34.0,-23.96,24.71,-29.939999999999998,29.8275,0.0,1782.166,-0.4549999999999983,100.0,27.707,27.618,42.657,42.738,0.0,0.0,100.0,0.0,0.0,0.0,0.0,3187.714285714286,3020.7,4230.625,4241.3,305.2325,305.079,314.573,314.2825,21.9077,20.5812,21.9176,21.4424,314.999998,314.999998,324.999988,324.999988,99.55925714285715,99.50748333333334,99.56757142857143,99.54762857142858,0.08966666666666656,-0.03299999999999992,-0.113,0.11299999999999999,-0.05666666666667197,-0.04285714285714448,1.4973333333333334,1.5,37.923,29.632666666666665,37.985,35.0155,56.187,35.004999999999995,59.7515,52.6245,54.105999999999995,34.1245,58.3375,50.937,53.263,33.656333333333336,58.263,50.3405,-0.11299999999999999,-0.04049999999999998,0.10974,0.098265,0.0,210.97,210.97,207.76,207.76,0.0,0.0
14,0.0,0.0,0.0,1.0,1.0,0.0,0.0,1.0,0.0,100.0,1.0,1.1856,26.0,0.0,0.0,0.0,53.999996,0.0,26.0,26.0,26.0,26.0,0.028999999999999915,0.2670000000000001,-0.0115,292.892,-2.7039,-2.6468,-1.5731000000000002,-1.5396,-228.97,215.83249999999998,190.704625,0.0,0.0,0.0,0.0,0.028766666666666607,-5.498166666666667,-5.498166666666667,-0.5499,-0.09549999999999992,0.024222222222222145,1.298,67.51,0.0164,-0.22805,-0.44399999999999995,100.0,1.0,1.0,208.28333333333333,0.0,0.0,0.0,0.0,0.0,0.0,0.0,8828.4,0.0,55.0,5.0,243.00666666666666,0.0,0.0,0.0,0.0,0.0,0.0,1.0,0.0,0.7049999999999983,0.7049999999999983,0.0,0.0,0.0,55.0,616.79921,10000.0,85.000001,85.000001,85.000001,85.000001,395.0,0.0,0.0,0.0,1.0,333.33500000000004,52.673,52.673,48.248,48.248,34.0,-22.15,26.366,-26.683333333333334,30.3725,0.0,1782.116,-0.47499999999999787,100.0,27.801000000000002,27.606,42.674,42.777,0.0,0.0,100.0,0.0,0.0,0.0,0.0,2985.857142857143,3213.1,3968.5,4174.3,305.666,304.6735,315.143,314.54725,21.9173,20.5867,21.9281,21.4516,314.999998,314.999998,324.999988,324.999988,99.55927142857144,99.50748333333334,99.5677,99.54775714285714,0.10000000000000009,-0.02066666666666661,-0.09283333333333334,0.14400000000000013,-0.03166666666666629,-0.060000000000002274,1.5393333333333334,1.5190000000000001,37.983000000000004,29.667,38.05,35.0725,56.175,35.0405,59.786,52.681,54.095,34.1575,58.369,50.9915,53.251000000000005,33.688,58.292,50.394,-0.10649999999999993,-0.03699999999999992,0.10834,0.10699000000000002,0.0,211.4,211.41500000000002,208.28333333333333,208.28333333333333,0.0,0.0
15,0.0,0.0,0.0,1.0,1.0,0.0,0.0,1.0,0.0,100.0,1.0,1.1856,26.0,0.0,0.0,0.0,53.999996,0.0,26.0,26.0,26.0,26.0,0.05166666666666675,0.28990000000000005,-0.0325,292.908,-2.7154,-2.6637,-1.5955,-1.5436,-225.51999999999998,215.8075,190.682875,0.0,0.0,0.0,0.0,0.03076666666666661,-5.498166666666667,-5.498166666666667,-0.5408000000000001,0.20499999999999996,0.044333333333333114,-0.8220000000000001,67.651,0.0251,-0.210875,-0.45399999999999974,100.0,1.0,1.0,208.68,0.0,0.0,0.0,0.0,0.0,0.0,0.0,8845.2,0.0,55.0,5.0,243.51333333333332,1.0,0.0,0.0,0.0,0.0,0.0,1.0,0.0,0.7560000000000002,0.7560000000000002,0.0,0.0,1.0,55.0,616.79921,10000.0,85.000001,85.000001,85.000001,85.000001,395.0,0.0,0.0,0.0,1.0,166.665,52.887,52.887,48.203,48.203,34.0,-21.3925,25.352,-27.166666666666664,31.087500000000002,0.0,1782.067,-0.4499999999999993,100.0,27.63,27.847,42.41,43.035,0.0,0.0,100.0,0.0,0.0,0.0,0.0,2972.285714285714,3041.0,4037.0,4242.8,305.9025,304.94025,315.074,314.25025,21.9269,20.5922,21.9384,21.4607,314.999998,314.999998,324.999988,324.999988,99.55928571428572,99.50748333333334,99.56784285714286,99.5479,0.1123333333333334,-0.016999999999999904,-0.08700000000000001,0.13983333333333325,-0.05833333333333002,-0.03857142857143003,1.5306666666666666,1.5025,38.043,29.701333333333334,38.114999999999995,35.1295,56.162,35.078,59.821,52.7425,54.083,34.192,58.4015,51.051,53.238,33.721333333333334,58.321,50.4525,-0.119,-0.033500000000000085,0.10185000000000001,0.11429,0.0,211.82999999999998,211.85500000000002,208.68,208.68,0.0,0.0
16,0.0,0.0,0.0,1.0,1.0,0.0,0.0,1.0,0.0,100.0,1.0,1.1856,26.0,0.0,0.0,0.0,53.999996,0.0,26.0,26.0,26.0,26.0,0.0387777777777778,0.27690000000000015,-0.014925,292.847,-2.7684,-2.6214,-1.5673,-1.5457,-222.07,215.7825,190.660875,0.0,0.0,0.0,0.0,0.03276666666666661,-5.498166666666667,-5.498166666666667,-0.5595,-0.544,0.03155555555555556,0.129,67.78999999999999,0.0298,-0.225325,-0.37399999999999967,100.0,1.0,1.0,209.12333333333333,0.0,0.0,0.0,0.0,0.0,0.0,0.0,8864.0,0.0,55.0,5.0,244.01666666666665,0.0,0.0,0.0,0.0,0.0,0.0,1.0,0.0,0.8069999999999986,0.8069999999999986,0.0,0.0,0.0,55.0,616.79921,10000.0,85.000001,85.000001,85.000001,85.000001,395.0,0.0,0.0,0.0,1.0,166.665,52.612,52.612,48.019,48.019,34.0,-22.89,26.654,-25.32,30.4575,0.0,1782.015,-0.3249999999999993,100.0,27.493,27.724,42.751,43.025,0.0,0.0,100.0,0.0,0.0,0.0,0.0,3079.714285714286,3264.3,3961.875,4097.4,305.5415,304.54975,315.1575,314.68425,21.9363,20.5977,21.948999999999998,21.4699,314.999998,314.999998,324.999988,324.999988,99.55928571428572,99.50748333333334,99.56798571428571,99.54805714285715,0.1113333333333335,-0.018999999999999906,-0.0675,0.15766666666666684,-0.041666666666671404,-0.05285714285714249,1.5363333333333333,1.542,38.102000000000004,29.736,38.181,35.1865,56.147999999999996,35.116,59.8585,52.803,54.069,34.227000000000004,58.4365,51.109,53.223,33.754999999999995,58.353,50.509,-0.10150000000000003,-0.050000000000000044,0.09788500000000001,0.10981,0.0,212.24,212.26999999999998,209.12333333333333,209.12333333333333,0.0,0.0
17,0.0,0.0,0.0,1.0,1.0,0.0,0.0,1.0,0.0,100.0,1.0,1.1856,26.0,0.0,0.0,0.0,53.999996,0.0,26.0,26.0,26.0,26.0,0.02633333333333332,0.2834000000000001,-0.004,292.557,-2.7243,-2.6083,-1.6031,-1.5104000000000002,-218.81,215.7625,190.63975,0.0,0.0,0.0,0.0,0.03466666666666651,-5.498166666666667,-5.498166666666667,-0.5498000000000001,0.35850000000000004,0.008333333333333304,0.5720000000000001,67.92099999999999,0.027200000000000002,-0.207675,-0.33399999999999963,100.0,1.0,1.0,209.47,0.0,0.0,0.0,0.0,0.0,0.0,0.0,8878.7,0.0,55.0,5.0,244.48666666666668,1.0,0.0,0.0,0.0,0.0,0.0,1.0,0.0,0.8550000000000004,0.8550000000000004,0.0,0.0,1.0,55.0,616.79921,10000.0,85.000001,85.000001,85.000001,85.000001,395.0,0.0,0.0,0.0,1.0,333.33500000000004,52.475,52.475,47.806,47.806,34.0,-22.474999999999998,25.561999999999998,-28.383333333333333,31.205000000000002,0.0,1781.966,-0.34999999999999787,100.0,27.927,27.873,42.618,42.939,0.0,0.0,100.0,0.0,0.0,0.0,0.0,3089.857142857143,3146.2,4252.25,4272.2,305.4265,304.89275,314.56825,314.37025,21.9453,20.603,21.9587,21.4785,314.999998,314.999998,324.999988,324.999988,99.5593,99.5075,99.56812857142857,99.54818571428571,0.1160000000000001,-0.016666666666666607,-0.0745,0.15166666666666684,-0.041666666666671404,-0.044285714285713595,1.5273333333333334,1.5105,38.158,29.768666666666668,38.242000000000004,35.2405,56.137,35.152,59.891999999999996,52.8595,54.059,34.2605,58.468,51.1635,53.212,33.787,58.3815,50.5625,-0.10649999999999993,-0.0495000000000001,0.10615500000000001,0.10883500000000002,0.0,212.685,212.68,209.47,209.47,0.0,0.0
18,0.0,0.0,0.0,1.0,1.0,0.0,0.0,1.0,0.0,100.0,1.0,1.1856,26.0,0.0,0.0,0.0,53.999996,0.0,26.0,26.0,26.0,26.0,0.013666666666666716,0.27880000000000016,-0.005325,292.435,-2.7472000000000003,-2.5919,-1.6093000000000002,-1.4664000000000001,-215.55,215.74,190.618625,0.0,0.0,0.0,0.0,0.036566666666666525,-5.498166666666667,-5.498166666666667,-0.5601,-0.4455,0.020777777777777784,0.988,68.05199999999999,0.0268,-0.223,-0.2999999999999998,100.0,1.0,1.0,209.87666666666667,0.0,0.0,0.0,0.0,0.0,0.0,0.0,8895.8,0.0,55.0,5.0,244.96,0.0,0.0,0.0,0.0,0.0,0.0,1.0,0.0,0.9029999999999987,0.9029999999999987,0.0,0.0,0.0,55.0,616.79921,10000.0,85.000001,85.000001,85.000001,85.000001,395.0,0.0,0.0,0.0,1.0,166.665,52.307,52.307,47.699,47.699,34.0,-23.265,26.88,-27.723333333333333,29.705000000000002,0.0,1781.919,-0.3299999999999983,100.0,27.804000000000002,27.77,42.93,43.244,0.0,0.0,100.0,0.0,0.0,0.0,0.0,3125.857142857143,3311.4,4115.375,4224.8,305.358,304.44175,314.836,314.45475,21.9542,20.6082,21.9687,21.4872,314.999998,314.999998,324.999988,324.999988,99.55931428571428,99.5075,99.56825714285715,99.54832857142857,0.10899999999999999,-0.016666666666666607,-0.07966666666666668,0.14166666666666683,-0.036666666666668846,-0.048571428571428044,1.525,1.508,38.214,29.801333333333332,38.304,35.2945,56.125,35.187,59.928,52.917,54.047,34.293,58.501,51.219,53.199,33.818333333333335,58.412,50.617,-0.10299999999999998,-0.0535000000000001,0.10213000000000001,0.107185,0.0,213.055,213.075,209.87666666666667,209.87666666666667,0.0,0.0
19,0.0,0.0,0.0,1.0,1.0,0.0,0.0,1.0,0.0,100.0,1.0,1.1856,26.0,0.0,0.0,0.0,53.999996,0.0,26.0,26.0,26.0,26.0,0.03288888888888897,0.2884,0.0621,292.038,-2.6651,-2.6912,-1.5413000000000001,-1.4527,-211.87,215.7175,190.594625,0.0,0.0,0.0,0.0,0.03869999999999996,-5.498166666666667,-5.498166666666667,-0.5488000000000001,0.7404999999999999,0.027888888888888852,0.677,68.19800000000001,0.0252,-0.21215,-0.3020000000000005,100.0,1.0,1.0,210.27666666666667,0.0,0.0,0.0,0.0,0.0,0.0,0.0,8912.9,0.0,55.0,5.0,245.48333333333335,1.0,0.0,0.0,0.0,0.0,0.0,1.0,0.0,0.9570000000000007,0.9570000000000007,0.0,0.0,1.0,55.0,616.79921,10000.0,85.000001,85.000001,85.000001,85.000001,395.0,0.0,0.0,0.0,1.0,166.665,51.956,51.956,47.531,47.531,34.0,-21.86,26.36,-27.72,32.25,0.0,1781.866,-0.3099999999999987,100.0,28.378,28.316,42.828,43.302,0.0,0.0,100.0,0.0,0.0,0.0,0.0,3039.857142857143,3172.1,4177.25,4511.3,305.472,304.633,314.66125,313.805,21.9645,20.6142,21.9797,21.4969,314.999998,314.999998,324.999988,324.999988,99.55932857142857,99.5075,99.5684,99.54848571428572,0.11066666666666647,-0.026666666666666616,-0.085,0.14533333333333331,-0.045000000000001705,-0.06857142857143117,1.4956666666666667,1.4775,38.278,29.839,38.373000000000005,35.3555,56.113,35.2295,59.965,52.9815,54.036,34.332,58.5355,51.281,53.187,33.856,58.443,50.678,-0.10299999999999998,-0.05400000000000005,0.11088,0.10558500000000001,0.0,213.54000000000002,213.57,210.27666666666667,210.27666666666667,0.0,0.0
20,0.0,0.0,0.0,1.0,1.0,0.0,0.0,1.0,0.0,100.0,1.0,1.1856,26.0,0.0,0.0,0.0,53.999996,0.0,26.0,26.0,26.0,26.0,0.04488888888888898,0.2713000000000001,-0.025625000000000002,292.358,-2.7611,-2.6441,-1.5484,-1.5765,-208.39,215.6975,190.57225,0.0,0.0,0.0,0.0,0.04069999999999996,-5.498166666666667,-5.498166666666667,-0.5573,-1.0340000000000003,0.021777777777777896,-0.9649999999999999,68.336,0.0227,-0.22595,-0.1639999999999997,100.0,1.0,1.0,210.69,0.0,0.0,0.0,0.0,0.0,0.0,0.0,8930.4,0.0,55.0,5.0,245.98333333333335,0.0,0.0,0.0,0.0,0.0,0.0,0.0,0.0,1.0079999999999991,1.0079999999999991,0.0,0.0,0.0,55.0,616.79921,10000.0,85.000001,85.000001,85.000001,85.000001,395.0,0.0,0.0,0.0,1.0,166.665,52.582,52.582,47.241,47.241,34.0,-23.2625,24.54,-27.626666666666665,30.4375,0.0,1781.814,-0.28000000000000114,100.0,27.743,28.122,43.34,43.8,0.0,0.0,100.0,0.0,0.0,0.0,0.0,3095.142857142857,3058.7,4136.75,4100.6,305.647,304.97525,314.77625,314.5475,21.9738,20.6197,21.9903,21.5062,314.999998,314.999998,324.999988,324.999988,99.55934285714285,99.5075,99.56855714285714,99.54862857142857,0.10066666666666668,-0.03466666666666662,-0.08716666666666667,0.13916666666666666,-0.061666666666667425,-0.04285714285714448,1.488,1.4855,38.337,29.873333333333335,38.44,35.414,56.098,35.2665,60.004,53.0435,54.022,34.3665,58.572,51.3405,53.172,33.888999999999996,58.4765,50.736000000000004,-0.10449999999999993,-0.055500000000000105,0.10467000000000001,0.11094500000000002,0.0,213.94,213.945,210.69,210.69,0.0,0.0
21,0.0,0.0,0.0,1.0,1.0,0.0,0.0,1.0,0.0,100.0,1.0,1.1856,26.0,0.0,0.0,0.0,53.999996,0.0,26.0,26.0,26.0,26.0,0.010000000000000009,0.27580000000000005,-0.06685,292.633,-2.7237999999999998,-2.6537,-1.6147,-1.5350000000000001,-205.31,215.6825,190.551875,0.0,0.0,0.0,0.0,0.04249999999999998,-5.498166666666667,-5.498166666666667,-0.5755,0.24,0.00955555555555554,0.3579999999999999,68.45400000000001,0.0181,-0.22460000000000002,-0.2560000000000002,100.0,1.0,1.0,211.21333333333334,0.0,0.0,0.0,0.0,0.0,0.0,0.0,8952.6,0.0,55.0,5.0,246.40333333333334,1.0,0.0,0.0,0.0,0.0,0.0,0.0,0.0,1.0530000000000008,1.0530000000000008,0.0,0.0,1.0,55.0,616.79921,10000.0,85.000001,85.000001,85.000001,85.000001,395.0,0.0,0.0,0.0,1.0,333.33500000000004,52.383,52.383,48.157,48.157,34.0,-22.715,25.756,-27.023333333333333,28.55,0.0,1781.768,-0.33999999999999986,100.0,28.088,27.977,42.903999999999996,43.272,0.0,0.0,100.0,0.0,0.0,0.0,0.0,3076.0,3171.4,4017.0,4043.0,305.4715,304.845,315.14575,314.902,21.9823,20.6247,21.9994,21.5142,314.999998,314.999998,324.999988,324.999988,99.55935714285714,99.5075,99.56868571428572,99.54875714285714,0.1080000000000001,-0.026666666666666616,-0.08633333333333333,0.13600000000000012,-0.03333333333333144,-0.06285714285714761,1.58,1.57,38.388999999999996,29.904333333333334,38.495999999999995,35.464,56.088,35.3005,60.0325,53.094,54.010999999999996,34.397999999999996,58.5985,51.3895,53.161,33.919,58.5005,50.784,-0.10299999999999998,-0.0515000000000001,0.10636500000000002,0.103525,0.0,214.305,214.335,211.21333333333334,211.21333333333334,0.0,0.0
22,0.0,0.0,0.0,1.0,1.0,0.0,0.0,1.0,0.0,100.0,1.0,1.1856,26.0,0.0,0.0,0.0,53.999996,0.0,26.0,26.0,26.0,26.0,0.030000000000000027,0.27480000000000016,0.0016250000000000001,292.297,-2.6618,-2.7021,-1.6095000000000002,-1.5211000000000001,-201.82,215.6625,190.52825,0.0,0.0,0.0,0.0,0.044533333333333314,-5.498166666666667,-5.498166666666667,-0.5577,0.08199999999999996,0.015444444444444372,-0.46399999999999997,68.592,0.016,-0.20355,-0.23399999999999999,100.0,1.0,1.0,211.46666666666667,0.0,0.0,0.0,0.0,0.0,0.0,0.0,8963.3,0.0,55.0,5.0,246.90333333333334,0.0,0.0,0.0,0.0,0.0,0.0,0.0,0.0,1.1039999999999992,1.1039999999999992,0.0,0.0,0.0,55.0,616.79921,10000.0,85.000001,85.000001,85.000001,85.000001,395.0,0.0,0.0,0.0,1.0,333.33500000000004,52.612,52.612,47.165,47.165,34.0,-21.509999999999998,24.414,-30.62,30.2575,0.0,1781.718,-0.384999999999998,100.0,27.977,28.223,43.068,43.496,0.0,0.0,100.0,0.0,0.0,0.0,0.0,2986.5714285714284,2991.6,4280.0,4313.2,305.831,305.098,314.53025,314.19425,21.9917,20.6303,22.009999999999998,21.5235,314.999998,314.999998,324.999988,324.999988,99.55935714285714,99.50751666666666,99.56882857142857,99.5489,0.10266666666666646,-0.03766666666666674,-0.10783333333333334,0.1206666666666667,-0.041666666666671404,-0.05285714285714249,1.4986666666666668,1.499,38.448,29.939,38.562,35.5215,56.076,35.338499999999996,60.070499999999996,53.155,54.0,34.433,58.634,51.448,53.147999999999996,33.953,58.5325,50.841499999999996,-0.11299999999999999,-0.045500000000000096,0.11117,0.10765500000000001,0.0,214.76,214.76,211.46666666666667,211.46666666666667,0.0,0.0
23,0.0,0.0,0.0,1.0,1.0,0.0,0.0,1.0,0.0,100.0,1.0,1.1856,26.0,0.0,0.0,0.0,53.999996,0.0,26.0,26.0,26.0,26.0,0.017111111111111077,0.2593000000000001,-0.02545,292.191,-2.6907,-2.6544,-1.6602999999999999,-1.4976,-198.31,215.64499999999998,190.50475,0.0,0.0,0.0,0.0,0.046566666666666534,-5.498166666666667,-5.498166666666667,-0.5749000000000001,-0.2270000000000001,0.016222222222222138,0.5589999999999999,68.725,0.0188,-0.22742500000000002,-0.2779999999999996,100.0,1.0,1.0,211.98333333333335,0.0,0.0,0.0,0.0,0.0,0.0,0.0,8985.2,0.0,55.0,5.0,247.38333333333333,1.0,0.0,0.0,0.0,0.0,0.0,0.0,0.0,1.1550000000000011,1.1550000000000011,0.0,0.0,1.0,55.0,616.79921,10000.0,85.000001,85.000001,85.000001,85.000001,395.0,0.0,0.0,0.0,1.0,166.665,51.819,51.819,47.958,47.958,34.0,-23.412499999999998,26.262,-28.189999999999998,28.7725,0.0,1781.667,-0.35999999999999943,100.0,28.313,28.147,43.262,43.614000000000004,0.0,0.0,100.0,0.0,0.0,0.0,0.0,3204.5714285714284,3206.0,4028.5,4100.5,305.0285,304.69225,315.13025,314.79475,22.0012,20.6359,22.0205,21.5328,314.999998,314.999998,324.999988,324.999988,99.55938571428571,99.50751666666666,99.56897142857143,99.54904285714285,0.11166666666666636,-0.024333333333333318,-0.09283333333333334,0.139,-0.036666666666668846,-0.048571428571428044,1.5473333333333334,1.5455,38.507999999999996,29.974333333333334,38.628,35.58,56.064,35.3775,60.1065,53.2155,53.988,34.469,58.667500000000004,51.5065,53.135999999999996,33.98766666666667,58.563,50.899,-0.10649999999999993,-0.0495000000000001,0.11271,0.10500500000000001,0.0,215.135,215.16,211.98333333333335,211.98333333333335,0.0,0.0
24,0.0,0.0,0.0,1.0,1.0,0.0,0.0,1.0,0.0,100.0,1.0,1.1856,26.0,0.0,0.0,0.0,53.999996,0.0,26.0,26.0,26.0,26.0,0.02866666666666684,0.2761,-0.028900000000000002,292.45,-2.7201,-2.66,-1.5492,-1.5242,-194.81,215.6275,190.48075,0.0,0.0,0.0,0.0,0.04859999999999998,-5.498166666666667,-5.498166666666667,-0.5832,-0.43199999999999994,0.02544444444444438,-0.16900000000000004,68.861,0.023700000000000002,-0.21962500000000001,-0.2839999999999998,100.0,1.0,1.0,212.31666666666666,0.0,0.0,0.0,0.0,0.0,0.0,0.0,8999.4,0.0,55.0,5.0,247.87333333333333,0.0,0.0,0.0,0.0,0.0,0.0,0.0,0.0,1.2059999999999995,1.2059999999999995,0.0,0.0,0.0,55.0,616.79921,10000.0,85.000001,85.000001,85.000001,85.000001,395.0,0.0,0.0,0.0,1.0,166.665,52.841,52.841,47.318,47.318,34.0,-22.0325,24.073999999999998,-28.696666666666665,29.795,0.0,1781.616,-0.3150000000000013,100.0,27.907,28.029,43.161,43.622,0.0,0.0,100.0,0.0,0.0,0.0,0.0,2986.285714285714,2996.9,4230.125,4172.4,305.8755,305.203,314.5765,314.5295,22.0106,20.6414,22.031,21.542,314.999998,314.999998,324.999988,324.999988,99.5594,99.50751666666666,99.56912857142858,99.5492,0.10166666666666657,-0.03499999999999992,-0.09483333333333333,0.13383333333333325,-0.03833333333332689,-0.03285714285714647,1.5106666666666668,1.5045,38.566,30.009,38.694,35.6375,56.05,35.414,60.143,53.275,53.976,34.5035,58.701,51.564,53.122,34.02033333333333,58.5935,50.955,-0.10099999999999998,-0.052999999999999936,0.11261000000000002,0.11497500000000001,0.0,215.565,215.57999999999998,212.31666666666666,212.31666666666666,0.0,0.0
25,0.0,0.0,0.0,1.0,1.0,0.0,0.0,1.0,0.0,100.0,1.0,1.1856,26.0,0.0,0.0,0.0,53.999996,0.0,26.0,26.0,26.0,26.0,0.052888888888888985,0.2701,-0.034225,292.282,-2.786,-2.6193,-1.5983,-1.5268000000000002,-191.5,215.6125,190.456875,0.0,0.0,0.0,0.0,0.05053333333333332,-5.498166666666667,-5.498166666666667,-0.6058,-0.020499999999999963,0.03133333333333321,-0.8999999999999999,68.986,0.0234,-0.221725,-0.2560000000000002,100.0,1.0,1.0,212.79666666666668,0.0,0.0,0.0,0.0,0.0,0.0,0.0,9019.7,0.0,55.0,5.0,248.32333333333332,1.0,0.0,0.0,0.0,0.0,0.0,0.0,0.0,1.2540000000000013,1.2540000000000013,0.0,0.0,1.0,55.0,616.79921,10000.0,85.000001,85.000001,85.000001,85.000001,395.0,0.0,0.0,0.0,1.0,166.665,51.894999999999996,51.894999999999996,47.882,47.882,34.0,-25.0425,26.811999999999998,-26.566666666666663,29.1525,0.0,1781.569,-0.375,100.0,27.847,28.259,42.95,43.463,0.0,0.0,100.0,0.0,0.0,0.0,0.0,3289.714285714286,3273.2,3989.75,4102.8,305.088,304.34025,315.2235,314.719,22.0193,20.6467,22.0407,21.5506,314.999998,314.999998,324.999988,324.999988,99.55941428571428,99.50753333333333,99.56925714285714,99.54932857142857,0.10499999999999998,-0.02299999999999991,-0.08283333333333333,0.13716666666666666,-0.03999999999999915,-0.06285714285714761,1.5473333333333334,1.558,38.620999999999995,30.042333333333332,38.754999999999995,35.6915,56.038,35.4505,60.1745,53.33,53.963,34.537,58.7305,51.617,53.108999999999995,34.05266666666667,58.62,51.0065,-0.11099999999999999,-0.04400000000000004,0.10251500000000001,0.109655,0.0,215.95,215.985,212.79666666666668,212.79666666666668,0.0,0.0
26,0.0,0.0,0.0,1.0,1.0,0.0,0.0,1.0,0.0,100.0,1.0,1.1856,26.0,0.0,0.0,0.0,53.999996,0.0,26.0,26.0,26.0,26.0,0.030444444444444274,0.2793000000000001,0.09055,291.245,-2.6848,-2.7191,-1.6233,-1.5203,-187.98000000000002,215.595,190.43125,0.0,0.0,0.0,0.0,0.05256666666666654,-5.498166666666667,-5.498166666666667,-0.5733,0.552,0.017888888888888843,0.6759999999999999,69.122,0.026500000000000003,-0.199775,-0.4220000000000006,100.0,1.0,1.0,212.98333333333335,0.0,0.0,0.0,0.0,0.0,0.0,0.0,9027.6,0.0,55.0,5.0,248.81,0.0,0.0,0.0,0.0,0.0,0.0,0.0,0.0,1.3049999999999997,1.3049999999999997,0.0,0.0,0.0,55.0,616.79921,10000.0,85.000001,85.000001,85.000001,85.000001,395.0,0.0,0.0,0.0,1.0,166.665,51.544,51.544,46.341,46.341,34.0,-21.9925,26.396,-31.62,34.3675,0.0,1781.518,-0.3949999999999996,100.0,28.838,28.723,43.499,43.825,0.0,0.0,100.0,0.0,0.0,0.0,0.0,3116.4285714285716,3159.1,4518.0,4540.3,305.3085,304.76025,313.9205,313.70725,22.0289,20.6526,22.0513,21.56,314.999998,314.999998,324.999988,324.999988,99.55941428571428,99.50753333333333,99.56941428571429,99.54948571428571,0.1256666666666666,-0.026999999999999913,-0.08,0.1543333333333332,-0.01999999999999602,-0.048571428571428044,1.4483333333333333,1.432,38.681,30.078666666666663,38.821,35.75,56.028,35.491,60.2125,53.391999999999996,53.954,34.5745,58.766,51.6765,53.098,34.08833333333333,58.652,51.065,-0.11599999999999999,-0.055500000000000105,0.11444000000000001,0.11423000000000001,0.0,216.39499999999998,216.425,212.98333333333335,212.98333333333335,0.0,0.0
27,0.0,0.0,0.0,1.0,1.0,0.0,0.0,1.0,0.0,100.0,1.0,1.1856,26.0,0.0,0.0,0.0,53.999996,0.0,26.0,26.0,26.0,26.0,0.054333333333333345,0.24330000000000007,-0.0441,291.824,-2.7607,-2.6512000000000002,-1.621,-1.6087,-184.45,215.57999999999998,190.406625,0.0,0.0,0.0,0.0,0.05463333333333331,-5.498166666666667,-5.498166666666667,-0.5984,-0.9355,0.020000000000000018,-0.6909999999999998,69.253,0.0262,-0.24105000000000001,-0.29000000000000004,100.0,1.0,1.0,213.53333333333333,0.0,0.0,0.0,0.0,0.0,0.0,0.0,9050.8,0.0,55.0,5.0,249.28666666666666,1.0,0.0,0.0,0.0,0.0,0.0,0.0,0.0,1.355999999999998,1.355999999999998,0.0,0.0,1.0,55.0,616.79921,10000.0,85.000001,85.000001,85.000001,85.000001,395.0,0.0,0.0,0.0,1.0,166.665,51.941,51.941,46.707,46.707,34.0,-23.335,25.573999999999998,-28.24,29.605,0.0,1781.466,-0.3999999999999986,100.0,28.279,28.726,43.912,44.335,0.0,0.0,100.0,0.0,0.0,0.0,0.0,3127.857142857143,3134.4,4106.125,4007.6000000000004,305.5765,304.7375,314.844,314.8435,22.0382,20.6582,22.0619,21.5694,314.999998,314.999998,324.999988,324.999988,99.55944285714286,99.50753333333333,99.56955714285715,99.54964285714286,0.10566666666666658,-0.02933333333333321,-0.08483333333333333,0.13200000000000012,-0.041666666666671404,-0.05142857142856627,1.5066666666666668,1.4954999999999998,38.739000000000004,30.113999999999997,38.887,35.809,56.015,35.528999999999996,60.2505,53.453,53.942,34.61,58.8015,51.7355,53.085,34.12266666666667,58.684,51.1225,-0.11299999999999999,-0.04899999999999993,0.103025,0.10613500000000001,0.0,216.765,216.78,213.53333333333333,213.53333333333333,0.0,0.0
28,0.0,0.0,0.0,1.0,1.0,0.0,0.0,1.0,0.0,100.0,1.0,1.1856,26.0,0.0,0.0,0.0,53.999996,0.0,26.0,26.0,26.0,26.0,0.05366666666666675,0.26560000000000006,-0.068525,291.992,-2.6912000000000003,-2.6464,-1.633,-1.5612,-181.12,215.5675,190.38275,0.0,0.0,0.0,0.0,0.05656666666666654,-5.498166666666667,-5.498166666666667,-0.6033000000000001,0.5934999999999999,0.00955555555555554,-0.8130000000000002,69.376,0.0256,-0.219475,-0.31599999999999984,100.0,1.0,1.0,213.99666666666667,0.0,0.0,0.0,0.0,0.0,0.0,0.0,9070.6,0.0,55.0,5.0,249.72666666666666,0.0,0.0,0.0,0.0,0.0,0.0,0.0,0.0,1.404,1.404,0.0,0.0,0.0,55.0,616.79921,10000.0,85.000001,85.000001,85.000001,85.000001,395.0,0.0,0.0,0.0,1.0,166.665,51.819,51.819,47.592,47.592,34.0,-22.7525,25.422,-27.849999999999998,29.5425,0.0,1781.418,-0.48999999999999844,100.0,28.454,28.68,43.324,43.903,0.0,0.0,100.0,0.0,0.0,0.0,0.0,3172.142857142857,3108.3,4076.375,4097.2,305.31,304.80525,315.092,314.7415,22.0471,20.6636,22.0716,21.578,314.999998,314.999998,324.999988,324.999988,99.55944285714286,99.50755,99.56968571428571,99.54977142857143,0.1163333333333334,-0.02633333333333332,-0.08766666666666667,0.1353333333333333,-0.051666666666669414,-0.04999999999999716,1.5590000000000002,1.547,38.794,30.147666666666666,38.947,35.8625,56.004999999999995,35.566,60.2805,53.5075,53.932,34.644,58.829,51.7875,53.074,34.15533333333333,58.709,51.173500000000004,-0.119,-0.04249999999999998,0.10286000000000001,0.10413000000000001,0.0,217.185,217.20499999999998,213.99666666666667,213.99666666666667,0.0,0.0
29,0.0,0.0,0.0,1.0,1.0,0.0,0.0,1.0,0.0,100.0,1.0,1.1856,26.0,0.0,0.0,0.0,53.999996,0.0,26.0,26.0,26.0,26.0,0.05711111111111111,0.25980000000000003,-0.006125,291.809,-2.6737,-2.7013,-1.5822,-1.5398,-177.37,215.555,190.354875,0.0,0.0,0.0,0.0,0.058733333333333304,-5.498166666666667,-5.498166666666667,-0.6064,-0.722,0.009888888888888836,-0.7149999999999999,69.518,0.027800000000000002,-0.217,-0.4139999999999997,100.0,1.0,1.0,214.26,0.0,0.0,0.0,0.0,0.0,0.0,0.0,9081.8,0.0,55.0,5.0,250.24,1.0,0.0,0.0,0.0,0.0,0.0,0.0,0.0,1.4579999999999984,1.4579999999999984,0.0,0.0,1.0,55.0,616.79921,10000.0,85.000001,85.000001,85.000001,85.000001,395.0,0.0,0.0,0.0,1.0,166.665,52.2,52.2,46.875,46.875,34.0,-22.1725,25.387999999999998,-28.156666666666666,31.715,0.0,1781.365,-0.509999999999998,100.0,28.078,28.502,43.681,44.184,0.0,0.0,100.0,0.0,0.0,0.0,0.0,3125.4285714285716,3046.3,4177.625,4262.5,305.5315,304.95225,314.72275,314.26375,22.0568,20.6696,22.0828,21.5879,314.999998,314.999998,324.999988,324.999988,99.55947142857143,99.50755,99.56985714285715,99.54992857142857,0.11500000000000021,-0.02633333333333332,-0.08183333333333333,0.14583333333333326,-0.04333333333332945,-0.03285714285714647,1.4866666666666668,1.4675,38.855000000000004,30.185000000000002,39.016999999999996,35.9245,55.991,35.6055,60.321,53.572,53.919,34.68,58.8665,51.85,53.06,34.190333333333335,58.743,51.2345,-0.119,-0.04049999999999998,0.10274000000000001,0.11405000000000001,0.0,217.57999999999998,217.595,214.26,214.26,0.0,0.0
30,0.0,0.0,0.0,1.0,1.0,0.0,0.0,1.0,0.0,100.0,1.0,1.1856,26.0,0.0,0.0,0.0,53.999996,0.0,26.0,26.0,26.0,26.0,0.052444444444444294,0.25470000000000015,0.00725,291.245,-2.6921,-2.5862,-1.6484,-1.5917,-174.03,215.54500000000002,190.329875,0.0,0.0,0.0,0.0,0.060699999999999976,-5.498166666666667,-5.498166666666667,-0.6046,0.909,0.009666666666666712,-0.6200000000000001,69.639,0.0308,-0.21775,-0.4739999999999993,100.0,1.0,1.0,214.73666666666668,0.0,0.0,0.0,0.0,0.0,0.0,0.0,9101.8,0.0,55.0,5.0,250.67333333333335,0.0,0.0,0.0,0.0,0.0,0.0,1.0,0.0,1.5060000000000002,1.5060000000000002,0.0,0.0,0.0,55.0,616.79921,10000.0,85.000001,85.000001,85.000001,85.000001,395.0,0.0,0.0,0.0,1.0,166.665,50.674,50.674,47.089,47.089,34.0,-23.675,26.616,-28.97,30.285,0.0,1781.317,-0.504999999999999,100.0,29.03,29.259999999999998,43.47,44.115,0.0,0.0,100.0,0.0,0.0,0.0,0.0,3323.857142857143,3243.6,4228.625,4084.5,304.7755,304.28675,314.817,314.69875,22.0658,20.6752,22.0925,21.5967,314.999998,314.999998,324.999988,324.999988,99.55948571428571,99.50755,99.56998571428572,99.55007142857143,0.12633333333333363,-0.01866666666666661,-0.08,0.13866666666666672,-0.054999999999999716,-0.05285714285714249,1.525,1.5105,38.911,30.22,39.078,35.9795,55.983999999999995,35.644,60.3525,53.6275,53.911,34.716499999999996,58.896,51.9035,53.051,34.224666666666664,58.7695,51.287,-0.129,-0.040000000000000036,0.10563000000000002,0.106325,0.0,218.005,218.01999999999998,214.73666666666668,214.73666666666668,0.0,0.0
31,0.0,0.0,0.0,1.0,1.0,0.0,0.0,1.0,0.0,100.0,1.0,1.1856,26.0,0.0,0.0,0.0,53.999996,0.0,26.0,26.0,26.0,26.0,0.05311111111111111,0.24970000000000003,0.041425000000000003,290.833,-2.7763,-2.6189,-1.6026,-1.4913,-170.68,215.535,190.305625,0.0,0.0,0.0,0.0,0.06263333333333332,-5.498166666666667,-5.498166666666667,-0.5884,-0.4245000000000001,0.014555555555555655,-0.871,69.765,0.0371,-0.22015,-0.4560000000000004,100.0,1.0,1.0,214.93333333333334,0.0,0.0,0.0,0.0,0.0,0.0,0.0,9110.2,0.0,55.0,5.0,251.12666666666667,1.0,0.0,0.0,0.0,0.0,0.0,1.0,0.0,1.5539999999999985,1.5539999999999985,0.0,0.0,1.0,55.0,616.79921,10000.0,85.000001,85.000001,85.000001,85.000001,395.0,0.0,0.0,0.0,1.0,166.665,51.163,51.163,45.638999999999996,45.638999999999996,34.0,-23.685,26.72,-30.006666666666664,31.82,0.0,1781.268,-0.47499999999999787,100.0,28.774,29.275,44.208,44.858000000000004,0.0,0.0,100.0,0.0,0.0,0.0,0.0,3222.714285714286,3261.8,4387.875,4325.0,305.316,304.429,314.20525,314.053,22.0746,20.6807,22.1026,21.6057,314.999998,314.999998,324.999988,324.999988,99.5595,99.50756666666666,99.57012857142857,99.55022857142858,0.11966666666666637,-0.02200000000000002,-0.07466666666666667,0.14549999999999996,-0.03999999999999915,-0.034285714285715585,1.442,1.43,38.966,30.254333333333335,39.141,36.0355,55.974000000000004,35.6815,60.3895,53.6875,53.902,34.7505,58.9305,51.961,53.04,34.257666666666665,58.801,51.3435,-0.12,-0.046499999999999986,0.10791500000000001,0.10415,0.0,218.35000000000002,218.385,214.93333333333334,214.93333333333334,0.0,0.0
32,0.0,0.0,0.0,1.0,1.0,0.0,0.0,1.0,0.0,100.0,1.0,1.1856,26.0,0.0,0.0,0.0,53.999996,0.0,26.0,26.0,26.0,26.0,0.08099999999999996,0.2721,-0.0118,291.321,-2.7067,-2.6747,-1.5918,-1.6166,-166.91,215.5275,190.278625,0.0,0.0,0.0,0.0,0.0648333333333333,-5.498166666666667,-5.498166666666667,-0.6071000000000001,-0.2430000000000001,-0.002000000000000224,-0.9710000000000001,69.899,0.0374,-0.23165000000000002,-0.4379999999999997,100.0,1.0,1.0,215.48000000000002,0.0,0.0,0.0,0.0,0.0,0.0,0.0,9133.4,0.0,55.0,5.0,251.61333333333334,0.0,0.0,0.0,0.0,0.0,0.0,1.0,0.0,1.6080000000000005,1.6080000000000005,0.0,0.0,0.0,55.0,616.79921,10000.0,85.000001,85.000001,85.000001,85.000001,395.0,0.0,0.0,0.0,1.0,166.665,51.544,51.544,46.631,46.631,34.0,-22.3375,26.07,-27.536666666666665,32.9925,0.0,1781.215,-0.4800000000000004,100.0,28.654,29.12,44.013,44.707,0.0,0.0,100.0,0.0,0.0,0.0,0.0,3157.714285714286,3115.5,4139.5,4265.0,305.401,304.78975,314.8355,314.25475,22.0844,20.6869,22.113599999999998,21.6156,314.999998,314.999998,324.999988,324.999988,99.55951428571429,99.50756666666666,99.57028571428572,99.55037142857142,0.12533333333333374,-0.018999999999999906,-0.07566666666666667,0.15250000000000008,-0.05333333333332746,-0.05571428571428072,1.5146666666666666,1.5150000000000001,39.027,30.293,39.21,36.0975,55.962,35.7225,60.426,53.7505,53.89,34.789,58.9645,52.0215,53.028,34.294666666666664,58.831,51.4025,-0.121,-0.045500000000000096,0.11150000000000002,0.10697000000000001,0.0,218.775,218.8,215.48000000000002,215.48000000000002,0.0,0.0
33,0.0,0.0,0.0,1.0,1.0,0.0,0.0,1.0,0.0,100.0,1.0,1.1856,26.0,0.0,0.0,0.0,53.999996,0.0,26.0,26.0,26.0,26.0,0.06499999999999995,0.26270000000000016,-0.053575000000000005,291.58,-2.7393,-2.6686,-1.5995,-1.5814,-163.55,215.51999999999998,190.2535,0.0,0.0,0.0,0.0,0.06676666666666653,-5.498166666666667,-5.498166666666667,-0.6148,-0.22100000000000009,-0.002777777777777768,-0.2560000000000002,70.02,0.0378,-0.21582500000000002,-0.4299999999999997,100.0,1.0,1.0,215.86,0.0,0.0,0.0,0.0,0.0,0.0,0.0,9149.4,0.0,55.0,5.0,252.05,1.0,0.0,0.0,0.0,0.0,0.0,1.0,0.0,1.6559999999999988,1.6559999999999988,0.0,0.0,1.0,55.0,616.79921,10000.0,85.000001,85.000001,85.000001,85.000001,395.0,0.0,0.0,0.0,1.0,166.665,51.88,51.88,46.89,46.89,34.0,-22.5225,25.398,-27.65,31.64,0.0,1781.166,-0.5,100.0,28.532,28.829,43.879,44.513999999999996,0.0,0.0,100.0,0.0,0.0,0.0,0.0,3152.4285714285716,3047.8,4135.0,4207.7,305.4695,305.01175,314.859,314.47625,22.0931,20.6922,22.1234,21.624299999999998,314.999998,314.999998,324.999988,324.999988,99.55952857142857,99.50756666666666,99.57042857142856,99.55052857142857,0.12633333333333363,-0.018000000000000016,-0.07716666666666668,0.14766666666666683,-0.045000000000001705,-0.04285714285714448,1.5216666666666665,1.506,39.082,30.326333333333334,39.271,36.152,55.951,35.7575,60.458,53.805,53.879999999999995,34.821,58.9945,52.0745,53.016999999999996,34.32533333333333,58.858000000000004,51.454,-0.125,-0.045500000000000096,0.105885,0.10908000000000001,0.0,219.14499999999998,219.18,215.86,215.86,0.0,0.0
34,0.0,0.0,0.0,1.0,1.0,0.0,0.0,1.0,0.0,100.0,1.0,1.1856,26.0,0.0,0.0,0.0,53.999996,0.0,26.0,26.0,26.0,26.0,0.0645555555555557,0.26180000000000003,-0.056925,291.84,-2.6734999999999998,-2.6678,-1.6320000000000001,-1.5487000000000002,-160.19,215.515,190.227125,0.0,0.0,0.0,0.0,0.06873333333333331,-5.498166666666667,-5.498166666666667,-0.6395000000000001,-0.863,0.017888888888888843,-0.2469999999999999,70.142,0.0388,-0.2209,-0.4119999999999999,100.0,1.0,1.0,216.20666666666668,0.0,0.0,0.0,0.0,0.0,0.0,0.0,9164.2,0.0,55.0,5.0,252.48666666666668,0.0,0.0,0.0,0.0,0.0,0.0,1.0,0.0,1.7040000000000006,1.7040000000000006,0.0,0.0,0.0,55.0,616.79921,10000.0,85.000001,85.000001,85.000001,85.000001,395.0,0.0,0.0,0.0,1.0,166.665,52.368,52.368,47.15,47.15,34.0,-21.4175,24.654,-28.02,31.44,0.0,1781.119,-0.48999999999999844,100.0,28.197,28.476,43.765,44.573,0.0,0.0,100.0,0.0,0.0,0.0,0.0,3101.142857142857,2979.4,4147.25,4179.9,305.617,305.1755,314.86675,314.50125,22.1018,20.6975,22.1332,21.6331,314.999998,314.999998,324.999988,324.999988,99.55955714285714,99.50756666666666,99.57055714285714,99.55067142857143,0.12766666666666637,-0.021333333333333204,-0.07383333333333333,0.15650000000000008,-0.054999999999999716,-0.05571428571428072,1.5110000000000001,1.5110000000000001,39.135999999999996,30.359333333333332,39.333,36.207,55.939,35.7915,60.49,53.8615,53.869,34.8525,59.024,52.129,53.004000000000005,34.355666666666664,58.8845,51.507,-0.119,-0.043500000000000094,0.099885,0.11713000000000001,0.0,219.515,219.54000000000002,216.20666666666665,216.20666666666668,0.0,0.0
35,0.0,0.0,0.0,1.0,1.0,0.0,0.0,1.0,0.0,100.0,1.0,1.1856,26.0,0.0,0.0,0.0,53.999996,0.0,26.0,26.0,26.0,26.0,0.056111111111111,0.2562,-0.081775,291.809,-2.7354000000000003,-2.6107,-1.5495999999999999,-1.5732,-156.61,215.51,190.19725,0.0,0.0,0.0,0.0,0.0708333333333333,-5.498166666666667,-5.498166666666667,-0.6783,-0.26049999999999995,0.007111111111111068,-0.14700000000000024,70.269,0.039,-0.226825,-0.5060000000000002,100.0,1.0,1.0,216.68,0.0,0.0,0.0,0.0,0.0,0.0,0.0,9184.2,0.0,55.0,5.0,252.94,1.0,0.0,0.0,0.0,0.0,0.0,1.0,0.0,1.754999999999999,1.754999999999999,0.0,0.0,1.0,55.0,616.79921,10000.0,85.000001,85.000001,85.000001,85.000001,395.0,0.0,0.0,0.0,1.0,166.665,51.788,51.788,46.753,46.753,34.0,-22.0425,28.497999999999998,-25.7,30.900000000000002,0.0,1781.067,-0.34999999999999787,100.0,28.165,28.67,43.594,44.031,0.0,0.0,100.0,0.0,0.0,0.0,0.0,3039.714285714286,3406.1,4084.375,4074.4,305.626,304.0825,315.0115,314.9035,22.1108,20.7033,22.1436,21.6423,314.999998,314.999998,324.999988,324.999988,99.55955714285714,99.50758333333333,99.57071428571429,99.55081428571428,0.11966666666666637,-0.009333333333333194,-0.06366666666666666,0.16516666666666668,-0.041666666666671404,-0.05285714285714249,1.554,1.5415,39.193,30.396,39.397,36.2645,55.925,35.8305,60.522999999999996,53.917500000000004,53.855000000000004,34.888999999999996,59.0545,52.183,52.989999999999995,34.39033333333333,58.912,51.56,-0.10449999999999993,-0.05449999999999999,0.10494500000000001,0.10561000000000001,0.0,219.89499999999998,219.935,216.68,216.68,0.0,0.0
36,0.0,0.0,0.0,1.0,1.0,0.0,0.0,1.0,0.0,100.0,1.0,1.1856,26.0,0.0,0.0,0.0,53.999996,0.0,26.0,26.0,26.0,26.0,0.07166666666666677,0.26760000000000006,0.0275,291.138,-2.6593,-2.7085,-1.6508,-1.5525,-153.02,215.5075,190.166,0.0,0.0,0.0,0.0,0.07289999999999996,-5.498166666666667,-5.498166666666667,-0.6619,0.09699999999999998,-0.04211111111111121,-1.4010000000000002,70.399,0.0362,-0.20095000000000002,-0.2579999999999991,100.0,1.0,1.0,216.87333333333333,0.0,0.0,0.0,0.0,0.0,0.0,0.0,9192.4,0.0,55.0,5.0,253.41,0.0,0.0,0.0,0.0,0.0,0.0,1.0,0.0,1.806000000000001,1.806000000000001,0.0,0.0,0.0,55.0,616.79921,10000.0,85.000001,85.000001,85.000001,85.000001,395.0,0.0,0.0,0.0,1.0,166.665,51.727,51.727,46.417,46.417,34.0,-21.865,25.396,-31.193333333333335,33.69,0.0,1781.016,-0.2699999999999996,100.0,28.671,28.963,43.743,44.396,0.0,0.0,100.0,0.0,0.0,0.0,0.0,3085.714285714286,3035.7,4418.75,4460.7,305.4235,304.9615,314.24625,313.84775,22.1201,20.7092,22.154,21.651699999999998,314.999998,314.999998,324.999988,324.999988,99.55957142857143,99.50758333333333,99.57085714285714,99.55097142857143,0.11799999999999988,-0.026666666666666616,-0.08116666666666668,0.14416666666666678,-0.05666666666667197,-0.03142857142857025,1.453,1.438,39.251000000000005,30.432666666666666,39.463,36.323,55.915,35.8695,60.5585,53.978,53.845,34.925,59.0875,52.2415,52.977999999999994,34.425333333333334,58.9415,51.617,-0.10549999999999993,-0.056499999999999995,0.10816,0.109215,0.0,220.345,220.35000000000002,216.87333333333333,216.87333333333333,0.0,0.0
