,ABS Active,ABS Enabled,AID Allow Tire Blankets,AID Auto Blip,AID Auto Clutch,AID Auto Shift,AID Fuel Rate,AID Ideal Line,AID Mech Damage,AID Stability,AID Tire Wear Rate,Air Density,Air Temp,Ballast,Best Lap Delta,Best Lap Time,Brake Bias,Brake Pos,Brake Temp FL,Brake Temp FR,Brake Temp RL,Brake Temp RR,CG Accel Lateral,CG Accel Longitudinal,CG Accel Vertical,CG Height,Camber FL,Camber FR,Camber RL,Camber RR,Car Coord X,Car Coord Y,Car Coord Z,Car Damage Front,Car Damage Left,Car Damage Rear,Car Damage Right,Car Pos Norm,Caster FL,Caster FR,Chassis Pitch Angle,Chassis Pitch Rate,Chassis Roll Angle,Chassis Roll Rate,Chassis Velocity X,Chassis Velocity Y,Chassis Velocity Z,Chassis Yaw Rate,Clutch Pos,DRS Active,DRS Available,Drive Train Speed,ERS Heat Charging,ERS Is Charging,ERS Max Energy,ERS Power Level,ERS Recovery Level,Engine Brake Setting,Engine Limiter,Engine RPM,Flags,Fuel Level,Gear,Ground Speed,HR Sample Clock,In Pit,KERS Charge,KERS Deployed Energy,KERS Input,KERS Max Energy,LR Sample Clock,Lap Invalidated,Lap Time,Lap Time2,Last Lap Time,Last Sector Time,MR Sample Clock,Max Fuel,Max Power,Max RPM,Max Sus Travel FL,Max Sus Travel FR,Max Sus Travel RL,Max Sus Travel RR,Max Torque,Max Turbo Boost,Num Tires Off Track,Penalties Enabled,Position,Raw Data Sample Rate,Ride Height FL,Ride Height FR,Ride Height RL,Ride Height RR,Road Temp,Self Align Torque FL,Self Align Torque FR,Self Align Torque RL,Self Align Torque RR,Session Lap Count,Session Time Left,Steering Angle,Surface Grip,Suspension Travel FL,Suspension Travel FR,Suspension Travel RL,Suspension Travel RR,TC Active,TC Enabled,Throttle Pos,Tire Dirt Level FL,Tire Dirt Level FR,Tire Dirt Level RL,Tire Dirt Level RR,Tire Load FL,Tire Load FR,Tire Load RL,Tire Load RR,Tire Loaded Radius FL,Tire Loaded Radius FR,Tire Loaded Radius RL,Tire Loaded Radius RR,Tire Pressure FL,Tire Pressure FR,Tire Pressure RL,Tire Pressure RR,Tire Radius FL,Tire Radius FR,Tire Radius RL,Tire Radius RR,Tire Rubber Grip FL,Tire Rubber Grip FR,Tire Rubber Grip RL,Tire Rubber Grip RR,Tire Slip Angle FL,Tire Slip Angle FR,Tire Slip Angle RL,Tire Slip Angle RR,Tire Slip Ratio FL,Tire Slip Ratio FR,Tire Slip Ratio RL,Tire Slip Ratio RR,Tire Temp Core FL,Tire Temp Core FR,Tire Temp Core RL,Tire Temp Core RR,Tire Temp Inner FL,Tire Temp Inner FR,Tire Temp Inner RL,Tire Temp Inner RR,Tire Temp Middle FL,Tire Temp Middle FR,Tire Temp Middle RL,Tire Temp Middle RR,Tire Temp Outer FL,Tire Temp Outer FR,Tire Temp Outer RL,Tire Temp Outer RR,Toe In FL,Toe In FR,Toe In RL,Toe In RR,Turbo Boost,Wheel Angular Speed FL,Wheel Angular Speed FR,Wheel Angular Speed RL,Wheel Angular Speed RR,Wind Direction,Wind Speed
0,0.0,0.0,0.0,1.0,1.0,0.0,0.0,1.0,0.0,100.0,1.0,1.1856,26.0,0.0,0.0,0.0,53.99999,0.0,26.0,26.0,26.0,26.0,-0.110875,0.30580000000000007,-0.011175000000000001,294.159,-2.7049,-2.67675,-1.50465,-1.5687,-275.73,216.29250000000002,190.988,0.0,0.0,0.0,0.0,0.0015666666666666051,-5.498166666666667,-5.498166666666667,-0.5503,1.0425,-0.02244444444444449,-1.037,65.52,-0.0526,-0.21482500000000002,1.0839999999999996,100.0,1.0,1.0,202.3,0.0,0.0,0.0,0.0,0.0,0.0,0.0,8574.8,0.0,55.0,5.0,235.84333333333333,0.0,0.0,0.0,0.0,0.0,0.0,0.0,0.0,0.0030000000000001137,0.0030000000000001137,0.0,0.0,0.0,55.0,616.79921,10000.0,85.0,85.0,85.0,85.0,395.0,0.0,0.0,0.0,1.0,20.0,52.917,52.917,49.789,49.789,34.0,-27.59,22.0,-31.003333333333334,23.1475,0.0,1782.94,0.9050000000000011,100.0,27.45,26.709,40.698,40.374,0.0,0.0,100.0,0.0,0.0,0.0,0.0,3043.5714285714284,3316.8,4077.777777777778,3946.6000000000004,305.6175,304.21366666666665,314.97025,314.957,21.7715,20.5085,21.7823,21.3234,314.99999,314.99999,324.99998,324.99998,99.55861428571428,99.5071,99.56587142857143,99.54571428571428,-0.02675000000000005,-0.14600000000000002,-0.18483333333333335,0.03333333333333334,-0.06666666666666998,-0.04142857142857537,1.5474999999999999,1.5975000000000001,37.072,29.177999999999997,37.138999999999996,34.271,56.205,34.39,59.306,51.836,54.131,33.579499999999996,57.927,50.1785,53.306,33.157,57.894,49.596000000000004,-0.0035000000000000586,-0.14449999999999985,0.10676000000000001,0.10221000000000001,0.0,205.335,205.215,202.3,202.3,0.0,0.0
1,0.0,0.0,0.0,1.0,1.0,0.0,0.0,1.0,0.0,100.0,1.0,1.1856,26.0,0.0,0.0,0.0,53.999996,0.0,26.0,26.0,26.0,26.0,-0.134,0.30610000000000004,-0.002375,293.167,-2.6336,-2.784,-1.5117,-1.5607,-272.39,216.28750000000002,190.96775,0.0,0.0,0.0,0.0,0.0034999999999999476,-5.498166666666667,-5.498166666666667,-0.49710000000000004,-0.21500000000000008,-0.06877777777777805,-0.06599999999999995,65.675,-0.0648,-0.19285000000000002,1.5279999999999996,100.0,1.0,1.0,202.45333333333332,0.0,0.0,0.0,0.0,0.0,0.0,0.0,8581.2,0.0,55.0,5.0,236.39666666666668,1.0,0.0,0.0,0.0,0.0,0.0,0.0,0.0,0.053999999999998494,0.053999999999998494,0.0,0.0,1.0,55.0,616.79921,10000.0,85.000001,85.000001,85.000001,85.000001,395.0,0.0,0.0,0.0,1.0,333.33500000000004,53.619,53.619,48.416,48.416,34.0,-27.447499999999998,17.669999999999998,-34.69,28.5325,0.0,1782.887,0.9750000000000014,100.0,27.724,26.809,42.697,41.275,0.0,0.0,100.0,0.0,0.0,0.0,0.0,3067.857142857143,2665.0,4353.222222222223,4696.8,305.3495,306.34233333333333,314.17275,313.19425,21.7815,20.5136,21.7931,21.3325,314.999998,314.999998,324.999988,324.999988,99.55862857142857,99.50711666666666,99.56601428571429,99.54585714285714,-0.02499999999999991,-0.14966666666666661,-0.18966666666666665,0.02816666666666667,-0.03166666666666629,-0.028571428571432023,1.43,1.4725000000000001,37.134,29.21,37.207,34.328,56.191,34.4325,59.3505,51.8995,54.116,33.6185,57.9685,50.239,53.291,33.19433333333333,57.933,49.6555,0.0030000000000001137,-0.14500000000000002,0.10375500000000001,0.11204000000000001,0.0,205.76999999999998,205.675,202.45333333333332,202.45333333333332,0.0,0.0
2,0.0,0.0,0.0,1.0,1.0,0.0,0.0,1.0,0.0,100.0,1.0,1.1856,26.0,0.0,0.0,0.0,53.999996,0.0,26.0,26.0,26.0,26.0,-0.167125,0.28600000000000003,-0.06315,293.747,-2.5914,-2.80925,-1.48225,-1.6155,-268.84,216.28,190.94775,0.0,0.0,0.0,0.0,0.005566666666666609,-5.498166666666667,-5.498166666666667,-0.5476,0.09350000000000003,-0.05544444444444441,2.71,65.825,-0.0849,-0.25167500000000004,1.6600000000000001,100.0,1.0,1.0,203.37333333333333,0.0,0.0,0.0,0.0,0.0,0.0,0.0,8620.3,0.0,55.0,5.0,236.94333333333333,0.0,0.0,0.0,0.0,0.0,0.0,0.0,0.0,0.10800000000000054,0.10800000000000054,0.0,0.0,0.0,55.0,616.79921,10000.0,85.000001,85.000001,85.000001,85.000001,395.0,0.0,0.0,0.0,1.0,166.665,52.505,52.505,50.171,50.171,34.0,-30.035,19.95,-29.593333333333334,19.765,0.0,1782.835,0.6950000000000003,100.0,28.415,26.718,42.639,41.193,0.0,0.0,100.0,0.0,0.0,0.0,0.0,3302.142857142857,2986.6,3756.1111111111113,3719.8,304.607,305.418,315.62075,315.6965,21.7923,20.5188,21.8043,21.3418,314.999998,314.999998,324.999988,324.999988,99.55862857142857,99.50713333333333,99.56617142857142,99.546,-0.03574999999999995,-0.15900000000000003,-0.22816666666666666,-0.007833333333333333,-0.05666666666667197,-0.04999999999999716,1.6165,1.6825,37.202,29.242666666666665,37.277,34.3865,56.178,34.4745,59.391,51.96,54.105000000000004,33.657,58.0065,50.297,53.278,33.231,57.968,49.7125,-0.016999999999999904,-0.13549999999999995,0.10036500000000001,0.10372500000000001,0.0,206.28,206.12,203.37333333333333,203.37333333333333,0.0,0.0
3,0.0,0.0,0.0,1.0,1.0,0.0,0.0,1.0,0.0,100.0,1.0,1.1856,26.0,0.0,0.0,0.0,53.999996,0.0,26.0,26.0,26.0,26.0,-0.146,0.31390000000000007,0.0794,293.533,-2.7193,-2.702125,-1.50525,-1.5972,-265.67,216.26999999999998,190.92925,0.0,0.0,0.0,0.0,0.007399999999999962,-5.498166666666667,-5.498166666666667,-0.5102,0.263,-0.01622222222222236,0.2510000000000001,65.969,-0.0974,-0.1996,1.218,100.0,1.0,1.0,203.51666666666665,0.0,0.0,0.0,0.0,0.0,0.0,0.0,8626.3,0.0,55.0,5.0,237.45666666666668,1.0,0.0,0.0,0.0,0.0,0.0,0.0,0.0,0.1559999999999988,0.1559999999999988,0.0,0.0,1.0,55.0,616.79921,10000.0,85.000001,85.000001,85.000001,85.000001,395.0,0.0,0.0,0.0,1.0,166.665,53.635,53.635,48.248,48.248,34.0,-25.9275,18.526,-35.16,24.4,0.0,1782.787,0.620000000000001,100.0,27.907,26.785,42.493,41.237,0.0,0.0,100.0,0.0,0.0,0.0,0.0,2858.857142857143,2884.3,4268.333333333333,4251.5,306.064,305.669,314.38125,314.335,21.8016,20.523699999999998,21.8142,21.3502,314.999998,314.999998,324.999988,324.999988,99.55862857142857,99.50715,99.5663,99.54614285714285,-0.026999999999999913,-0.15333333333333332,-0.22066666666666665,0.0061666666666666675,-0.041666666666671404,-0.07714285714286007,1.482,1.5245000000000002,37.26,29.273,37.339,34.439,56.163,34.5145,59.427,52.018,54.09,33.6945,58.04,50.353,53.263,33.266666666666666,57.9995,49.7675,-0.02849999999999997,-0.11949999999999994,0.111115,0.105645,0.0,206.70499999999998,206.61,203.51666666666665,203.51666666666665,0.0,0.0
4,0.0,0.0,0.0,1.0,1.0,0.0,0.0,1.0,0.0,100.0,1.0,1.1856,26.0,0.0,0.0,0.0,53.999996,0.0,26.0,26.0,26.0,26.0,-0.14775,0.27070000000000016,-0.006675,293.701,-2.6548,-2.749625,-1.5199,-1.6038999999999999,-262.31,216.2575,190.9095,0.0,0.0,0.0,0.0,0.009366666666666523,-5.498166666666667,-5.498166666666667,-0.5454,-0.7110000000000001,-0.08611111111111125,-1.712,66.114,-0.0916,-0.23717500000000002,1.1579999999999995,100.0,1.0,1.0,204.11666666666667,0.0,0.0,0.0,0.0,0.0,0.0,0.0,8651.8,0.0,55.0,5.0,237.98333333333335,0.0,0.0,0.0,0.0,0.0,0.0,0.0,0.0,0.20700000000000074,0.20700000000000074,0.0,0.0,0.0,55.0,616.79921,10000.0,85.000001,85.000001,85.000001,85.000001,395.0,0.0,0.0,0.0,1.0,166.665,53.085,53.085,48.888999999999996,48.888999999999996,34.0,-30.310000000000002,18.798,-33.34,20.6675,0.0,1782.736,0.6500000000000021,100.0,27.638,26.791,42.78,41.349000000000004,0.0,0.0,100.0,0.0,0.0,0.0,0.0,3320.0,2876.3,4099.777777777777,3670.3,304.8955,305.5233333333333,314.82875,315.6825,21.8113,20.5287,21.8249,21.359099999999998,314.999998,314.999998,324.999988,324.999988,99.55864285714286,99.50716666666666,99.56644285714286,99.54627142857143,-0.03499999999999992,-0.15966666666666662,-0.222,0.0135,-0.051666666666669414,-0.06571428571428584,1.5565,1.6045000000000003,37.321,29.304666666666666,37.406,34.4945,56.146,34.5565,59.4685,52.076,54.074,33.733000000000004,58.079,50.408500000000004,53.245999999999995,33.303333333333335,58.035,49.8215,-0.023499999999999854,-0.11900000000000022,0.10864000000000001,0.10488000000000001,0.0,207.115,207.025,204.11666666666667,204.11666666666667,0.0,0.0
5,0.0,0.0,0.0,1.0,1.0,0.0,0.0,1.0,0.0,100.0,1.0,1.1856,26.0,0.0,0.0,0.0,53.999996,0.0,26.0,26.0,26.0,26.0,-0.1465,0.2942,-0.010325,293.671,-2.6641,-2.774,-1.50535,-1.5909,-258.93,216.24,190.889125,0.0,0.0,0.0,0.0,0.011333333333333306,-5.498166666666667,-5.498166666666667,-0.5351,0.42399999999999993,-0.08488888888888857,1.1920000000000002,66.261,-0.09000000000000001,-0.21315,1.0360000000000005,100.0,1.0,1.0,204.48666666666668,0.0,0.0,0.0,0.0,0.0,0.0,0.0,8667.5,0.0,55.0,5.0,238.51,1.0,0.0,0.0,0.0,0.0,0.0,0.0,0.0,0.2579999999999991,0.2579999999999991,0.0,0.0,1.0,55.0,616.79921,10000.0,85.000001,85.000001,85.000001,85.000001,395.0,0.0,0.0,0.0,1.0,166.665,53.482,53.482,48.965,48.965,34.0,-27.53,19.742,-33.266666666666666,22.887500000000003,0.0,1782.684,0.21000000000000085,100.0,27.942,26.546,42.67,41.032,0.0,0.0,100.0,0.0,0.0,0.0,0.0,3093.285714285714,2847.9,4149.777777777777,4106.7,305.3435,305.83366666666666,314.72825,314.713,21.8213,20.5338,21.8354,21.368,314.999998,314.999998,324.999988,324.999988,99.55864285714286,99.50718333333333,99.56658571428571,99.54641428571429,-0.01550000000000007,-0.1296666666666666,-0.213,0.0016666666666666668,-0.03166666666666629,-0.05571428571428072,1.5375,1.5699999999999998,37.382999999999996,29.336333333333336,37.471000000000004,34.5495,56.132999999999996,34.5975,59.507999999999996,52.132999999999996,54.061,33.7705,58.1155,50.463,53.233000000000004,33.339333333333336,58.069,49.875,-0.047499999999999876,-0.09350000000000014,0.109185,0.09710500000000001,0.0,207.61,207.515,204.48666666666668,204.48666666666668,0.0,0.0
6,0.0,0.0,0.0,1.0,1.0,0.0,0.0,1.0,0.0,100.0,1.0,1.1856,26.0,0.0,0.0,0.0,53.999996,0.0,26.0,26.0,26.0,26.0,-0.112375,0.29879999999999995,0.0082,293.472,-2.6347,-2.802625,-1.5507,-1.5844,-255.75,216.2175,190.86975,0.0,0.0,0.0,0.0,0.01319999999999999,-5.498166666666667,-5.498166666666667,-0.5313,0.10599999999999998,-0.06355555555555581,1.037,66.399,-0.0855,-0.214375,0.7539999999999996,100.0,1.0,1.0,204.92333333333335,0.0,0.0,0.0,0.0,0.0,0.0,0.0,8686.0,0.0,55.0,5.0,239.00666666666666,0.0,0.0,0.0,0.0,0.0,0.0,0.0,0.0,0.30600000000000094,0.30600000000000094,0.0,0.0,0.0,55.0,616.79921,10000.0,85.000001,85.000001,85.000001,85.000001,395.0,0.0,0.0,0.0,1.0,166.665,53.162,53.162,48.751999999999995,48.751999999999995,34.0,-26.515,21.752000000000002,-32.693333333333335,23.82,0.0,1782.637,0.02500000000000213,100.0,27.843,26.689,42.762,41.403999999999996,0.0,0.0,100.0,0.0,0.0,0.0,0.0,3099.714285714286,2977.3,4072.3333333333335,4059.9,305.275,305.338,314.9035,314.82675,21.8306,20.5387,21.845399999999998,21.3765,314.999998,314.999998,324.999988,324.999988,99.55865714285714,99.5072,99.56672857142857,99.54654285714285,0.006000000000000227,-0.11466666666666658,-0.20183333333333334,0.02716666666666667,-0.03999999999999915,-0.048571428571428044,1.5154999999999998,1.568,37.441,29.366666666666667,37.534,34.603,56.117999999999995,34.6355,59.545,52.19,54.048,33.8055,58.1505,50.518,53.218,33.37266666666667,58.101,49.9285,-0.0674999999999999,-0.07299999999999995,0.10336500000000001,0.115555,0.0,208.015,207.93,204.92333333333335,204.92333333333335,0.0,0.0
7,0.0,0.0,0.0,1.0,1.0,0.0,0.0,1.0,0.0,100.0,1.0,1.1856,26.0,0.0,0.0,0.0,53.999996,0.0,26.0,26.0,26.0,26.0,-0.07325,0.2764,0.022925,293.243,-2.6135,-2.729375,-1.51445,-1.625,-252.36,216.195,190.849375,0.0,0.0,0.0,0.0,0.01516666666666655,-5.498166666666667,-5.498166666666667,-0.5352,-0.014000000000000012,-0.052999999999999936,-0.276,66.545,-0.07010000000000001,-0.224725,0.4239999999999995,100.0,1.0,1.0,205.34,0.0,0.0,0.0,0.0,0.0,0.0,0.0,8703.6,0.0,55.0,5.0,239.53333333333333,1.0,0.0,0.0,0.0,0.0,0.0,0.0,0.0,0.3569999999999993,0.3569999999999993,0.0,0.0,1.0,55.0,616.79921,10000.0,85.000001,85.000001,85.000001,85.000001,395.0,0.0,0.0,0.0,1.0,166.665,52.811,52.811,48.888999999999996,48.888999999999996,34.0,-26.9875,21.576,-31.446666666666665,24.835,0.0,1782.585,-0.21999999999999886,100.0,27.807,26.928,42.669,41.784,0.0,0.0,100.0,0.0,0.0,0.0,0.0,3277.4285714285716,2951.1,4088.777777777778,4019.5,304.855,305.25166666666667,314.8805,314.774,21.8405,20.5438,21.8559,21.3855,314.999998,314.999998,324.999988,324.999988,99.55865714285714,99.50721666666666,99.56687142857143,99.54668571428572,0.027249999999999996,-0.10266666666666657,-0.184,0.036000000000000004,-0.026666666666670835,-0.03999999999999915,1.524,1.536,37.503,29.399,37.599999999999994,34.6595,56.104,34.6755,59.584,52.2505,54.034,33.842,58.187,50.576,53.204,33.408,58.1345,49.9855,-0.09099999999999997,-0.059499999999999886,0.10457500000000002,0.11103,0.0,208.435,208.405,205.34,205.34,0.0,0.0
8,0.0,0.0,0.0,1.0,1.0,0.0,0.0,1.0,0.0,100.0,1.0,1.1856,26.0,0.0,0.0,0.0,53.999996,0.0,26.0,26.0,26.0,26.0,-0.03625,0.29090000000000016,0.022225,293.51800000000003,-2.6948,-2.720875,-1.4952,-1.5771000000000002,-248.96,216.16750000000002,190.82875,0.0,0.0,0.0,0.0,0.017133333333333334,-5.498166666666667,-5.498166666666667,-0.5367000000000001,-0.5700000000000001,-0.033666666666666956,0.8980000000000001,66.691,-0.0489,-0.21610000000000001,-0.0860000000000003,100.0,1.0,1.0,205.73000000000002,0.0,0.0,0.0,0.0,0.0,0.0,0.0,8720.1,0.0,55.0,5.0,240.06,0.0,0.0,0.0,0.0,0.0,0.0,0.0,0.0,0.40800000000000125,0.40800000000000125,0.0,0.0,0.0,55.0,616.79921,10000.0,85.000001,85.000001,85.000001,85.000001,395.0,0.0,0.0,0.0,1.0,166.665,53.68,53.68,48.218,48.218,34.0,-23.3,22.695999999999998,-29.726666666666663,27.3475,0.0,1782.535,-0.36499999999999844,100.0,27.455,26.72,42.762,41.822,0.0,0.0,100.0,0.0,0.0,0.0,0.0,2929.857142857143,3005.8,4109.111111111111,4146.6,305.899,305.33433333333335,314.7205,314.537,21.8501,20.549,21.8665,21.3945,314.999998,314.999998,324.999988,324.999988,99.55865714285714,99.50723333333333,99.56701428571428,99.54682857142858,0.05449999999999999,-0.07766666666666666,-0.14833333333333334,0.078,-0.045000000000001705,-0.04714285714285893,1.5295,1.5060000000000002,37.563,29.431333333333335,37.666,34.716,56.087,34.714,59.623,52.3105,54.018,33.8775,58.223,50.632999999999996,53.187,33.44166666666666,58.168,50.0415,-0.10450000000000004,-0.046499999999999986,0.10569500000000001,0.11172000000000001,0.0,208.875,208.865,205.73000000000002,205.73000000000002,0.0,0.0
9,0.0,0.0,0.0,1.0,1.0,0.0,0.0,1.0,0.0,100.0,1.0,1.1856,26.0,0.0,0.0,0.0,53.999996,0.0,26.0,26.0,26.0,26.0,-0.013875,0.2921,-0.022675,293.213,-2.6889,-2.719125,-1.5562,-1.5517,-245.96,216.14499999999998,190.810125,0.0,0.0,0.0,0.0,0.018866666666666587,-5.498166666666667,-5.498166666666667,-0.5431,0.5595,-0.034333333333333105,-0.477,66.816,-0.030000000000000002,-0.21777500000000002,-0.12600000000000033,100.0,1.0,1.0,206.24,0.0,0.0,0.0,0.0,0.0,0.0,0.0,8741.8,0.0,55.0,5.0,240.51,1.0,0.0,0.0,0.0,0.0,0.0,0.0,0.0,0.4529999999999994,0.4529999999999994,0.0,0.0,1.0,55.0,616.79921,10000.0,85.000001,85.000001,85.000001,85.000001,395.0,0.0,0.0,0.0,1.0,166.665,52.475,52.475,49.194,49.194,34.0,-26.58,23.966,-28.516666666666666,25.87,0.0,1782.49,-0.5249999999999986,100.0,27.765,27.291,42.359,41.92,0.0,0.0,100.0,0.0,0.0,0.0,0.0,3363.857142857143,3013.2,3983.5555555555557,4021.3,304.715,305.06666666666666,315.198,314.862,21.8587,20.5538,21.8757,21.4025,314.999998,314.999998,324.999988,324.999988,99.55865714285714,99.50723333333333,99.56714285714285,99.54695714285714,0.06700000000000017,-0.05466666666666664,-0.13966666666666666,0.081,-0.054999999999999716,-0.04714285714285893,1.5859999999999999,1.5765000000000002,37.617000000000004,29.461,37.723,34.7655,56.076,34.749,59.653999999999996,52.362,54.007,33.91,58.251999999999995,50.683,53.176,33.47266666666667,58.1945,50.09,-0.11650000000000005,-0.028500000000000192,0.10671000000000001,0.10463000000000001,0.0,209.26999999999998,209.26999999999998,206.24,206.24,0.0,0.0
10,0.0,0.0,0.0,1.0,1.0,0.0,0.0,1.0,0.0,100.0,1.0,1.1856,26.0,0.0,0.0,0.0,53.999996,0.0,26.0,26.0,26.0,26.0,0.002375,0.28269999999999995,0.051925000000000006,292.938,-2.6542,-2.704625,-1.5314999999999999,-1.5379,-242.54,216.1175,190.78925,0.0,0.0,0.0,0.0,0.02086666666666659,-5.498166666666667,-5.498166666666667,-0.5176000000000001,-0.405,0.006222222222222129,1.823,66.963,-0.0086,-0.2048,-0.5279999999999996,100.0,1.0,1.0,206.47333333333333,0.0,0.0,0.0,0.0,0.0,0.0,0.0,8751.6,0.0,55.0,5.0,241.0366666666667,0.0,0.0,0.0,0.0,0.0,0.0,1.0,0.0,0.5040000000000013,0.5040000000000013,0.0,0.0,0.0,55.0,616.79921,10000.0,85.000001,85.000001,85.000001,85.000001,395.0,0.0,0.0,0.0,1.0,333.33500000000004,53.436,53.436,47.607,47.607,34.0,-20.6875,24.058,-29.793333333333333,30.385,0.0,1782.437,-0.6050000000000004,100.0,27.834,27.167,42.877,42.575,0.0,0.0,100.0,0.0,0.0,0.0,0.0,2832.4285714285716,2968.7,4276.555555555556,4347.8,306.112,305.43966666666665,314.32325,314.07925,21.8684,20.559,21.8863,21.4117,314.999998,314.999998,324.999988,324.999988,99.55867142857143,99.50723333333333,99.56728571428572,99.5471,0.09250000000000025,-0.03200000000000003,-0.10833333333333334,0.1115,-0.036666666666668846,-0.04714285714285893,1.475,1.4635000000000002,37.678,29.494,37.789,34.823,56.064,34.786,59.6945,52.4255,53.995000000000005,33.944,58.289500000000004,50.7435,53.163,33.50533333333333,58.2285,50.1495,-0.12549999999999994,-0.02200000000000024,0.10737500000000001,0.10749,0.0,209.69,209.735,206.47333333333333,206.47333333333333,0.0,0.0
11,0.0,0.0,0.0,1.0,1.0,0.0,0.0,1.0,0.0,100.0,1.0,1.1856,26.0,0.0,0.0,0.0,53.999996,0.0,26.0,26.0,26.0,26.0,0.054125,0.26690000000000014,-0.09395,293.51800000000003,-2.7103,-2.6812500000000004,-1.55505,-1.5225,-239.12,216.09,190.768625,0.0,0.0,0.0,0.0,0.022599999999999953,-5.498166666666667,-5.498166666666667,-0.5614,-0.29699999999999993,0.03311111111111109,-0.591,67.102,0.0122,-0.239625,-0.5899999999999999,100.0,1.0,1.0,207.21333333333334,0.0,0.0,0.0,0.0,0.0,0.0,0.0,8783.0,0.0,55.0,5.0,241.5366666666667,1.0,0.0,0.0,0.0,0.0,0.0,1.0,0.0,0.5549999999999997,0.5549999999999997,0.0,0.0,1.0,55.0,616.79921,10000.0,85.000001,85.000001,85.000001,85.000001,395.0,0.0,0.0,0.0,1.0,166.665,52.826,52.826,49.301,49.301,34.0,-22.6125,25.345999999999997,-24.009999999999998,26.3075,0.0,1782.387,-0.6950000000000003,100.0,27.431,27.561,42.363,42.638,0.0,0.0,100.0,0.0,0.0,0.0,0.0,3094.142857142857,3096.1,3670.0,3855.9,305.539,304.8206666666667,315.92775,315.25575,21.8779,20.5644,21.8967,21.4207,314.999998,314.999998,324.999988,324.999988,99.55868571428572,99.50723333333333,99.56742857142856,99.54722857142858,0.10625000000000018,-0.03166666666666662,-0.1005,0.12683333333333333,-0.060000000000002274,-0.04285714285714448,1.62,1.605,37.736999999999995,29.52766666666667,37.854,34.8795,56.049,34.823499999999996,59.728,52.4845,53.982,33.979,58.321,50.8005,53.147999999999996,33.538666666666664,58.257,50.2055,-0.12450000000000006,-0.028999999999999915,0.10731,0.10434,0.0,210.12,210.14499999999998,207.21333333333334,207.21333333333334,0.0,0.0
12,0.0,0.0,0.0,1.0,1.0,0.0,0.0,1.0,0.0,100.0,1.0,1.1856,26.0,0.0,0.0,0.0,53.999996,0.0,26.0,26.0,26.0,26.0,0.0525,0.28900000000000015,0.031100000000000003,292.984,-2.7646,-2.6793750000000003,-1.55375,-1.5228000000000002,-235.9,216.065,190.747875,0.0,0.0,0.0,0.0,0.025466666666666526,-5.498166666666667,-5.498166666666667,-0.5461,0.31499999999999995,0.017888888888888843,-0.926,67.238,0.028200000000000003,-0.2061,-0.6600000000000001,100.0,1.0,1.0,207.40666666666667,0.0,0.0,0.0,0.0,0.0,0.0,0.0,8791.2,0.0,55.0,5.0,242.03,0.0,0.0,0.0,0.0,0.0,0.0,1.0,0.0,0.602999999999998,0.602999999999998,0.0,0.0,0.0,55.0,616.79921,10000.0,85.000001,85.000001,85.000001,85.000001,395.0,0.0,0.0,0.0,1.0,333.33500000000004,52.872,52.872,47.974000000000004,47.974000000000004,34.0,-23.1925,25.766,-27.456666666666663,30.4025,0.0,1782.339,-0.6799999999999997,100.0,27.29,27.716,42.186,42.559,0.0,0.0,100.0,0.0,0.0,0.0,0.0,3122.714285714286,3086.0,4244.111111111111,4168.2,305.4995,304.87233333333336,314.57975,314.488,21.8869,20.5696,21.9065,21.4292,314.999998,314.999998,324.999988,324.999988,99.5587,99.50723333333333,99.56757142857143,99.54737142857142,0.10899999999999999,-0.018333333333333313,-0.07283333333333333,0.14766666666666667,-0.04833333333333201,-0.05571428571428072,1.5354999999999999,1.5100000000000002,37.793,29.560000000000002,37.916,34.933,56.038,34.8595,59.763,52.541,53.97,34.012,58.353,50.855000000000004,53.135999999999996,33.57033333333334,58.286500000000004,50.2585,-0.121,-0.03100000000000014,0.10214000000000001,0.11606000000000001,0.0,210.555,210.60500000000002,207.40666666666667,207.40666666666667,0.0,0.0
13,0.0,0.0,0.0,1.0,1.0,0.0,0.0,1.0,0.0,100.0,1.0,1.1856,26.0,0.0,0.0,0.0,53.999996,0.0,26.0,26.0,26.0,26.0,0.079875,0.2912000000000001,0.033525,292.572,-2.7407,-2.6702500000000002,-1.59205,-1.5062,-232.26999999999998,216.0375,190.724875,0.0,0.0,0.0,0.0,0.026833333333333376,-5.498166666666667,-5.498166666666667,-0.5395,-0.10899999999999999,0.022333333333333316,-0.519,67.389,0.0367,-0.21580000000000002,-0.7779999999999996,100.0,1.0,1.0,207.81666666666666,0.0,0.0,0.0,0.0,0.0,0.0,0.0,8808.6,0.0,55.0,5.0,242.57333333333332,1.0,0.0,0.0,0.0,0.0,0.0,1.0,0.0,0.657,0.657,0.0,0.0,1.0,55.0,616.79921,10000.0,85.000001,85.000001,85.000001,85.000001,395.0,0.0,0.0,0.0,1.0,166.665,52.49,52.49,47.928,47.928,34.0,-21.73,26.863999999999997,-27.846666666666664,31.830000000000002,0.0,1782.285,-0.875,100.0,27.635,27.947,42.47,43.093,0.0,0.0,100.0,0.0,0.0,0.0,0.0,3159.714285714286,3085.8,4199.111111111111,4289.5,305.353,304.8636666666667,314.64825,314.15925,21.897100000000002,20.5754,21.9177,21.4391,314.999998,314.999998,324.999988,324.999988,99.55871428571429,99.50725,99.56771428571429,99.54752857142857,0.14524999999999988,0.010666666666666602,-0.0735,0.1555,-0.046666666666666856,-0.03142857142857025,1.508,1.4820000000000002,37.857,29.596666666666664,37.986000000000004,34.994,56.027,34.9,59.8025,52.608000000000004,53.96,34.0495,58.39,50.9195,53.123999999999995,33.60633333333333,58.320499999999996,50.322,-0.14749999999999996,-0.007000000000000117,0.10414000000000001,0.10820500000000001,0.0,211.015,211.04500000000002,207.81666666666666,207.81666666666666,0.0,0.0
14,0.0,0.0,0.0,1.0,1.0,0.0,0.0,1.0,0.0,100.0,1.0,1.1856,26.0,0.0,0.0,0.0,53.999996,0.0,26.0,26.0,26.0,26.0,0.08637500000000001,0.2893000000000001,-0.008425,292.786,-2.734,-2.615625,-1.59835,-1.5116,-228.82999999999998,216.015,190.703625,0.0,0.0,0.0,0.0,0.028833333333333377,-5.498166666666667,-5.498166666666667,-0.5497000000000001,-0.11499999999999999,0.05311111111111111,1.286,67.529,0.0495,-0.22895000000000001,-1.0499999999999998,100.0,1.0,1.0,208.32999999999998,0.0,0.0,0.0,0.0,0.0,0.0,0.0,8830.4,0.0,55.0,5.0,243.07666666666665,0.0,0.0,0.0,0.0,0.0,0.0,1.0,0.0,0.7079999999999984,0.7079999999999984,0.0,0.0,0.0,55.0,616.79921,10000.0,85.000001,85.000001,85.000001,85.000001,395.0,0.0,0.0,0.0,1.0,166.665,52.567,52.567,48.111,48.111,34.0,-19.4875,28.642,-24.436666666666664,31.9175,0.0,1782.234,-0.9549999999999983,100.0,27.729,27.887999999999998,42.512,43.199,0.0,0.0,100.0,0.0,0.0,0.0,0.0,2928.4285714285716,3264.6,3949.0,4217.8,305.849,304.5036666666667,315.1875,314.4395,21.9067,20.581,21.9282,21.4483,314.999998,314.999998,324.999988,324.999988,99.55872857142857,99.50725,99.56785714285714,99.54767142857143,0.15850000000000009,0.027666666666666728,-0.04533333333333334,0.17350000000000002,-0.051666666666669414,-0.05714285714285694,1.5605,1.5150000000000001,37.917,29.631,38.051,35.0515,56.016999999999996,34.9385,59.838499999999996,52.6695,53.95,34.085,58.423,50.979,53.113,33.64033333333333,58.35,50.3805,-0.15249999999999986,-0.0034999999999998366,0.10296500000000001,0.10842500000000001,0.0,211.425,211.505,208.32999999999998,208.32999999999998,0.0,0.0
15,0.0,0.0,0.0,1.0,1.0,0.0,0.0,1.0,0.0,100.0,1.0,1.1856,26.0,0.0,0.0,0.0,53.999996,0.0,26.0,26.0,26.0,26.0,0.11900000000000001,0.2872000000000001,-0.03855,292.816,-2.7151,-2.5696250000000003,-1.6319,-1.4515,-225.78,215.9975,190.6845,0.0,0.0,0.0,0.0,0.03059999999999996,-5.498166666666667,-5.498166666666667,-0.5405,0.31199999999999994,0.08177777777777773,-0.118,67.652,0.0648,-0.21185,-1.1520000000000001,100.0,1.0,1.0,208.7,0.0,0.0,0.0,0.0,0.0,0.0,0.0,8846.0,0.0,55.0,5.0,243.51999999999998,1.0,0.0,0.0,0.0,0.0,0.0,1.0,0.0,0.7530000000000001,0.7530000000000001,0.0,0.0,1.0,55.0,616.79921,10000.0,85.000001,85.000001,85.000001,85.000001,395.0,0.0,0.0,0.0,1.0,333.33500000000004,52.75,52.75,48.203,48.203,34.0,-19.044999999999998,27.1,-24.916666666666664,32.3925,0.0,1782.189,-0.9699999999999989,100.0,27.621,28.07,42.191,43.345,0.0,0.0,100.0,0.0,0.0,0.0,0.0,2891.285714285714,3133.6,3991.222222222222,4321.0,306.086,304.725,315.18,314.1415,21.9151,20.5859,21.9373,21.4564,314.999998,314.999998,324.999988,324.999988,99.55875714285715,99.50726666666667,99.56797142857143,99.5478,0.15500000000000025,0.02633333333333332,-0.0415,0.179,-0.051666666666669414,-0.054285714285711606,1.553,1.512,37.969,29.661666666666665,38.108000000000004,35.1025,56.009,34.9725,59.869,52.724000000000004,53.942,34.1165,58.451499999999996,51.0315,53.104,33.67066666666666,58.3755,50.432,-0.14849999999999985,-0.002000000000000224,0.10344500000000001,0.10797000000000001,0.0,211.82999999999998,211.9,208.7,208.7,0.0,0.0
16,0.0,0.0,0.0,1.0,1.0,0.0,0.0,1.0,0.0,100.0,1.0,1.1856,26.0,0.0,0.0,0.0,53.999996,0.0,26.0,26.0,26.0,26.0,0.121625,0.2865,-0.01165,292.862,-2.8053,-2.608625,-1.60045,-1.4527,-222.32999999999998,215.98000000000002,190.6625,0.0,0.0,0.0,0.0,0.03259999999999996,-5.498166666666667,-5.498166666666667,-0.5607,-0.7850000000000001,0.07099999999999995,0.10499999999999998,67.792,0.07880000000000001,-0.22487500000000002,-1.3079999999999998,100.0,1.0,1.0,209.12333333333333,0.0,0.0,0.0,0.0,0.0,0.0,0.0,8863.9,0.0,55.0,5.0,244.02666666666664,0.0,0.0,0.0,0.0,0.0,0.0,1.0,0.0,0.8039999999999985,0.8039999999999985,0.0,0.0,0.0,55.0,616.79921,10000.0,85.000001,85.000001,85.000001,85.000001,395.0,0.0,0.0,0.0,1.0,166.665,52.75,52.75,47.882,47.882,34.0,-19.377499999999998,29.448,-23.036666666666665,32.457499999999996,0.0,1782.139,-0.8649999999999984,100.0,27.337,28.003,42.525999999999996,43.406,0.0,0.0,100.0,0.0,0.0,0.0,0.0,2919.142857142857,3287.3,3927.3333333333335,4168.8,306.047,304.42766666666665,315.264,314.54575,21.9243,20.5915,21.9478,21.4656,314.999998,314.999998,324.999988,324.999988,99.55877142857143,99.50726666666667,99.56812857142857,99.54794285714286,0.17025000000000023,0.04200000000000004,-0.02066666666666667,0.2085,-0.051666666666669414,-0.058571428571426054,1.5630000000000002,1.5175,38.027,29.697,38.174,35.16,55.995000000000005,35.0125,59.906,52.786,53.929,34.1535,58.486,51.091,53.09,33.70633333333333,58.407,50.4905,-0.14549999999999996,-0.00749999999999984,0.11257500000000001,0.10701500000000001,0.0,212.20499999999998,212.315,209.12333333333333,209.12333333333333,0.0,0.0
17,0.0,0.0,0.0,1.0,1.0,0.0,0.0,1.0,0.0,100.0,1.0,1.1856,26.0,0.0,0.0,0.0,53.999996,0.0,26.0,26.0,26.0,26.0,0.11737500000000001,0.28669999999999995,-0.014375,292.419,-2.7634,-2.565,-1.64065,-1.4769,-218.66,215.9625,190.6385,0.0,0.0,0.0,0.0,0.034733333333333394,-5.498166666666667,-5.498166666666667,-0.5501,0.5015000000000001,0.05033333333333312,0.855,67.94,0.0857,-0.2071,-1.1799999999999997,100.0,1.0,1.0,209.53,0.0,0.0,0.0,0.0,0.0,0.0,0.0,8881.2,0.0,55.0,5.0,244.55333333333334,1.0,0.0,0.0,0.0,0.0,0.0,1.0,0.0,0.8580000000000005,0.8580000000000005,0.0,0.0,1.0,55.0,616.79921,10000.0,85.000001,85.000001,85.000001,85.000001,395.0,0.0,0.0,0.0,1.0,166.665,52.368,52.368,47.714,47.714,34.0,-19.169999999999998,28.247999999999998,-25.163333333333334,35.2325,0.0,1782.085,-0.8949999999999996,100.0,27.88,28.305,42.319,43.394999999999996,0.0,0.0,100.0,0.0,0.0,0.0,0.0,2992.857142857143,3180.9,4235.111111111111,4349.7,305.716,304.78366666666665,314.613,314.186,21.9344,20.5975,21.9588,21.4753,314.999998,314.999998,324.999988,324.999988,99.55878571428572,99.50726666666667,99.56827142857144,99.54811428571429,0.1825000000000001,0.050000000000000044,-0.008,0.22116666666666665,-0.03333333333333144,-0.04714285714285893,1.5310000000000001,1.4845000000000002,38.09,29.734666666666666,38.242999999999995,35.2205,55.986999999999995,35.0565,59.942499999999995,52.851,53.921,34.194,58.5195,51.153999999999996,53.081,33.745333333333335,58.4375,50.552,-0.14900000000000002,-0.010000000000000231,0.09967500000000001,0.11056,0.0,212.7,212.79500000000002,209.53,209.53,0.0,0.0
18,0.0,0.0,0.0,1.0,1.0,0.0,0.0,1.0,0.0,100.0,1.0,1.1856,26.0,0.0,0.0,0.0,53.999996,0.0,26.0,26.0,26.0,26.0,0.129375,0.2579,-0.057025,292.557,-2.8002,-2.534125,-1.6589,-1.4198,-215.6,215.9525,190.618875,0.0,0.0,0.0,0.0,0.03653333333333331,-5.498166666666667,-5.498166666666667,-0.5593,-0.5589999999999999,0.07366666666666677,-0.121,68.061,0.085,-0.22257500000000002,-1.1639999999999997,100.0,1.0,1.0,209.94,0.0,0.0,0.0,0.0,0.0,0.0,0.0,8898.5,0.0,55.0,5.0,244.99333333333334,0.0,0.0,0.0,0.0,0.0,0.0,1.0,0.0,0.9029999999999987,0.9029999999999987,0.0,0.0,0.0,55.0,616.79921,10000.0,85.000001,85.000001,85.000001,85.000001,395.0,0.0,0.0,0.0,1.0,166.665,52.46,52.46,47.745,47.745,34.0,-19.625,29.096,-24.669999999999998,32.2,0.0,1782.04,-1.1900000000000013,100.0,27.437,28.267,42.535,43.85,0.0,0.0,100.0,0.0,0.0,0.0,0.0,3042.714285714286,3247.5,4031.0,4174.4,305.8005,304.48633333333333,315.1095,314.51475,21.9427,20.6025,21.9681,21.4835,314.999998,314.999998,324.999988,324.999988,99.55881428571429,99.50728333333333,99.5684,99.54824285714285,0.18299999999999983,0.057333333333333236,-0.023,0.2085,-0.030000000000001137,-0.03714285714285381,1.5430000000000001,1.499,38.141999999999996,29.765666666666668,38.301,35.272,55.979,35.092,59.975,52.907,53.913,34.227000000000004,58.55,51.208,53.072,33.776666666666664,58.465,50.605000000000004,-0.16300000000000003,0.007500000000000062,0.10189500000000001,0.11653500000000001,0.0,213.05,213.125,209.94,209.94,0.0,0.0
19,0.0,0.0,0.0,1.0,1.0,0.0,0.0,1.0,0.0,100.0,1.0,1.1856,26.0,0.0,0.0,0.0,53.999996,0.0,26.0,26.0,26.0,26.0,0.14675,0.2834000000000001,0.025475,292.038,-2.767,-2.5275,-1.6726,-1.4016,-212.13,215.945,190.59625,0.0,0.0,0.0,0.0,0.03853333333333331,-5.498166666666667,-5.498166666666667,-0.5524,0.856,0.0862222222222222,0.917,68.199,0.0898,-0.212375,-1.5860000000000003,100.0,1.0,1.0,210.3466666666667,0.0,0.0,0.0,0.0,0.0,0.0,0.0,8915.8,0.0,55.0,5.0,245.48666666666668,1.0,0.0,0.0,0.0,0.0,0.0,1.0,0.0,0.9540000000000006,0.9540000000000006,0.0,0.0,1.0,55.0,616.79921,10000.0,85.000001,85.000001,85.000001,85.000001,395.0,0.0,0.0,0.0,1.0,166.665,51.666,51.666,47.653,47.653,34.0,-17.88,31.924,-24.06,34.4975,0.0,1781.99,-1.5,100.0,28.058,28.618000000000002,42.329,43.731,0.0,0.0,100.0,0.0,0.0,0.0,0.0,3041.714285714286,3412.5,4103.555555555556,4421.2,305.5175,304.01933333333335,314.948,314.0475,21.9522,20.6083,21.9785,21.4928,314.999998,314.999998,324.999988,324.999988,99.55884285714286,99.5073,99.56854285714286,99.54838571428571,0.2217500000000001,0.08533333333333326,0.0011666666666666668,0.21833333333333335,-0.03833333333332689,-0.060000000000002274,1.5585,1.5145,38.201,29.802,38.364999999999995,35.329499999999996,55.973,35.1365,60.0085,52.969,53.907,34.268,58.5805,51.268,53.064,33.81633333333333,58.4925,50.664500000000004,-0.1944999999999999,0.03149999999999986,0.10601000000000001,0.101635,0.0,213.495,213.615,210.3466666666667,210.3466666666667,0.0,0.0
20,0.0,0.0,0.0,1.0,1.0,0.0,0.0,1.0,0.0,100.0,1.0,1.1856,26.0,0.0,0.0,0.0,53.999996,0.0,26.0,26.0,26.0,26.0,0.185625,0.2793000000000001,0.04945,292.328,-2.8258,-2.58175,-1.6059999999999999,-1.5173,-208.44,215.9425,190.5725,0.0,0.0,0.0,0.0,0.04069999999999996,-5.498166666666667,-5.498166666666667,-0.5564,-1.2715,0.09344444444444422,0.4099999999999999,68.346,0.10590000000000001,-0.22345,-1.8159999999999998,100.0,1.0,1.0,210.68666666666667,0.0,0.0,0.0,0.0,0.0,0.0,0.0,8930.2,0.0,55.0,5.0,246.01999999999998,0.0,0.0,0.0,0.0,0.0,0.0,0.0,0.0,1.0079999999999991,1.0079999999999991,0.0,0.0,0.0,55.0,616.79921,10000.0,85.000001,85.000001,85.000001,85.000001,395.0,0.0,0.0,0.0,1.0,166.665,52.765,52.765,46.997,46.997,34.0,-17.4025,30.073999999999998,-21.97,37.0925,0.0,1781.935,-0.8350000000000009,100.0,27.442,28.356,42.891,44.317,0.0,0.0,100.0,0.0,0.0,0.0,0.0,2787.857142857143,3284.0,4048.5555555555557,4323.6,306.456,304.4703333333333,314.91325,314.044,21.9618,20.6144,21.9897,21.5028,314.999998,314.999998,324.999988,324.999988,99.55887142857142,99.5073,99.5687,99.54854285714286,0.19899999999999984,0.06366666666666676,0.02266666666666667,0.24066666666666667,-0.01999999999999602,-0.058571428571426054,1.517,1.4489999999999998,38.260999999999996,29.839666666666666,38.436,35.391999999999996,55.962,35.1815,60.049,53.038,53.896,34.31,58.6185,51.3345,53.052,33.85666666666667,58.5265,50.7295,-0.15749999999999997,0.0015000000000000568,0.10431000000000001,0.10285000000000001,0.0,213.885,214.03,210.68666666666667,210.68666666666667,0.0,0.0
21,0.0,0.0,0.0,1.0,1.0,0.0,0.0,1.0,0.0,100.0,1.0,1.1856,26.0,0.0,0.0,0.0,53.999996,0.0,26.0,26.0,26.0,26.0,0.15812500000000002,0.26660000000000017,-0.06722500000000001,292.572,-2.738,-2.63525,-1.665,-1.4856,-205.36,215.9425,190.552125,0.0,0.0,0.0,0.0,0.04246666666666654,-5.498166666666667,-5.498166666666667,-0.5802,0.47,0.06633333333333313,-1.239,68.462,0.1148,-0.22790000000000002,-1.1479999999999997,100.0,1.0,1.0,211.30333333333334,0.0,0.0,0.0,0.0,0.0,0.0,0.0,8956.4,0.0,55.0,5.0,246.43333333333334,1.0,0.0,0.0,0.0,0.0,0.0,0.0,0.0,1.0530000000000008,1.0530000000000008,0.0,0.0,1.0,55.0,616.79921,10000.0,85.000001,85.000001,85.000001,85.000001,395.0,0.0,0.0,0.0,1.0,166.665,52.094,52.094,48.325,48.325,34.0,-20.91,27.677999999999997,-22.25,32.769999999999996,0.0,1781.89,0.02500000000000213,100.0,27.695,28.725,42.213,43.946,0.0,0.0,100.0,0.0,0.0,0.0,0.0,3072.4285714285716,3176.9,3932.777777777778,4013.1000000000004,305.595,304.524,315.41875,314.946,21.9701,20.6195,21.9987,21.5108,314.999998,314.999998,324.999988,324.999988,99.55888571428571,99.5073,99.56882857142857,99.54868571428571,0.14875000000000016,0.012666666666666604,0.006666666666666667,0.24183333333333334,-0.061666666666667425,-0.03142857142857025,1.6085,1.5685000000000002,38.313,29.872,38.492000000000004,35.442499999999995,55.954,35.2185,60.076,53.09,53.888,34.344,58.6435,51.3845,53.043,33.88933333333333,58.549,50.778999999999996,-0.08949999999999991,-0.07100000000000017,0.11091500000000001,0.11073500000000001,0.0,214.32,214.39,211.30333333333334,211.30333333333334,0.0,0.0
22,0.0,0.0,0.0,1.0,1.0,0.0,0.0,1.0,0.0,100.0,1.0,1.1856,26.0,0.0,0.0,0.0,53.999996,0.0,26.0,26.0,26.0,26.0,0.0935,0.26490000000000014,0.013850000000000001,292.038,-2.7088,-2.650875,-1.64485,-1.4898,-201.66,215.9475,190.527,0.0,0.0,0.0,0.0,0.0446333333333333,-5.498166666666667,-5.498166666666667,-0.5565,0.07699999999999996,0.0564444444444443,-0.879,68.60900000000001,0.0898,-0.20595000000000002,0.05600000000000005,100.0,1.0,1.0,211.50666666666666,0.0,0.0,0.0,0.0,0.0,0.0,0.0,8965.1,0.0,55.0,5.0,246.96333333333334,0.0,0.0,0.0,0.0,0.0,0.0,0.0,0.0,1.1069999999999993,1.1069999999999993,0.0,0.0,0.0,55.0,616.79921,10000.0,85.000001,85.000001,85.000001,85.000001,395.0,0.0,0.0,0.0,1.0,166.665,52.322,52.322,47.012,47.012,34.0,-21.9675,24.772,-27.77,33.425,0.0,1781.835,0.5199999999999996,100.0,27.836,28.67,42.807,44.141000000000005,0.0,0.0,100.0,0.0,0.0,0.0,0.0,2966.142857142857,3094.4,4248.444444444444,4334.9,305.891,304.746,314.606,314.1325,21.98,20.6256,22.009999999999998,21.5206,314.999998,314.999998,324.999988,324.999988,99.5589,99.50731666666667,99.56897142857143,99.54884285714286,0.09750000000000014,-0.041999999999999926,-0.049666666666666665,0.183,-0.05333333333332746,-0.0357142857142847,1.488,1.4865,38.375,29.909666666666666,38.562,35.504,55.941,35.2605,60.1165,53.1565,53.876000000000005,34.382999999999996,58.6805,51.449,53.03,33.92666666666666,58.583,50.842,-0.03600000000000003,-0.12049999999999983,0.10954000000000001,0.11345500000000001,0.0,214.82,214.81,211.50666666666666,211.50666666666666,0.0,0.0
23,0.0,0.0,0.0,1.0,1.0,0.0,0.0,1.0,0.0,100.0,1.0,1.1856,26.0,0.0,0.0,0.0,53.999996,0.0,26.0,26.0,26.0,26.0,0.0245,0.2451000000000001,-0.01835,292.099,-2.7073,-2.63525,-1.54495,-1.582,-198.16,215.9525,190.5035,0.0,0.0,0.0,0.0,0.04666666666666652,-5.498166666666667,-5.498166666666667,-0.5758,-0.23649999999999993,0.02733333333333321,0.09000000000000008,68.742,0.041800000000000004,-0.23240000000000002,0.766,100.0,1.0,1.0,212.06333333333333,0.0,0.0,0.0,0.0,0.0,0.0,0.0,8988.6,0.0,55.0,5.0,247.44666666666666,1.0,0.0,0.0,0.0,0.0,0.0,0.0,0.0,1.1580000000000013,1.1580000000000013,0.0,0.0,1.0,55.0,616.79921,10000.0,85.000001,85.000001,85.000001,85.000001,395.0,0.0,0.0,0.0,1.0,166.665,51.650999999999996,51.650999999999996,48.111,48.111,34.0,-25.3675,24.77,-25.386666666666663,29.1925,0.0,1781.785,0.7199999999999989,100.0,28.432,28.386,43.231,44.057,0.0,0.0,100.0,0.0,0.0,0.0,0.0,3203.0,3205.5,3902.4444444444443,3979.4,305.0265,304.69166666666666,315.3,314.964,21.9894,20.6313,22.0205,21.5299,314.999998,314.999998,324.999988,324.999988,99.55891428571428,99.50731666666667,99.56912857142858,99.54898571428572,0.0717500000000002,-0.054333333333333345,-0.08133333333333333,0.14216666666666666,-0.045000000000001705,-0.05714285714285694,1.5135,1.5390000000000001,38.433,29.945333333333334,38.628,35.562,55.928,35.301,60.152,53.218,53.863,34.420500000000004,58.714,51.507999999999996,53.016,33.962666666666664,58.6125,50.9,-0.024499999999999966,-0.13500000000000023,0.10442000000000001,0.10942,0.0,215.235,215.19,212.06333333333333,212.06333333333333,0.0,0.0
24,0.0,0.0,0.0,1.0,1.0,0.0,0.0,1.0,0.0,100.0,1.0,1.1856,26.0,0.0,0.0,0.0,53.999996,0.0,26.0,26.0,26.0,26.0,-0.034875,0.2801,-0.006500000000000001,292.358,-2.7088,-2.664625,-1.5694,-1.5406,-195.06,215.95749999999998,190.4825,0.0,0.0,0.0,0.0,0.04846666666666655,-5.498166666666667,-5.498166666666667,-0.5770000000000001,-0.42999999999999994,0.01200000000000001,-0.509,68.863,-0.0006000000000000001,-0.21580000000000002,1.0379999999999994,100.0,1.0,1.0,212.31666666666666,0.0,0.0,0.0,0.0,0.0,0.0,0.0,8999.3,0.0,55.0,5.0,247.87666666666667,0.0,0.0,0.0,0.0,0.0,0.0,0.0,0.0,1.2029999999999994,1.2029999999999994,0.0,0.0,0.0,55.0,616.79921,10000.0,85.000001,85.000001,85.000001,85.000001,395.0,0.0,0.0,0.0,1.0,333.33500000000004,52.887,52.887,47.058,47.058,34.0,-24.3925,20.59,-32.39,27.1975,0.0,1781.739,0.6849999999999987,100.0,28.099,28.106,43.34,43.76,0.0,0.0,100.0,0.0,0.0,0.0,0.0,2996.857142857143,2886.2,4374.444444444444,4082.4,305.844,305.57033333333334,314.255,314.75825,21.9976,20.6361,22.0298,21.538,314.999998,314.999998,324.999988,324.999988,99.55892857142857,99.50731666666667,99.56925714285714,99.54911428571428,0.04349999999999987,-0.09833333333333338,-0.13316666666666666,0.09583333333333333,-0.05666666666667197,-0.03714285714285381,1.4845,1.529,38.485,29.97533333333333,38.686,35.6125,55.914,35.335499999999996,60.185,53.2695,53.851,34.452,58.7445,51.558,53.003,33.99333333333333,58.6405,50.949,-0.025499999999999856,-0.13350000000000017,0.103705,0.11127500000000001,0.0,215.635,215.535,212.31666666666666,212.31666666666666,0.0,0.0
25,0.0,0.0,0.0,1.0,1.0,0.0,0.0,1.0,0.0,100.0,1.0,1.1856,26.0,0.0,0.0,0.0,53.999996,0.0,26.0,26.0,26.0,26.0,-0.075375,0.25770000000000004,-0.07375000000000001,292.389,-2.7496,-2.656,-1.56425,-1.5648,-191.55,215.965,190.45725,0.0,0.0,0.0,0.0,0.05049999999999999,-5.498166666666667,-5.498166666666667,-0.6122000000000001,-0.09450000000000003,-0.004666666666666597,-0.388,68.994,-0.041100000000000005,-0.2267,1.1620000000000008,100.0,1.0,1.0,212.87333333333333,0.0,0.0,0.0,0.0,0.0,0.0,0.0,9022.9,0.0,55.0,5.0,248.35333333333335,1.0,0.0,0.0,0.0,0.0,0.0,0.0,0.0,1.2540000000000013,1.2540000000000013,0.0,0.0,1.0,55.0,616.79921,10000.0,85.000001,85.000001,85.000001,85.000001,395.0,0.0,0.0,0.0,1.0,166.665,51.987,51.987,47.928,47.928,34.0,-28.175,22.747999999999998,-29.883333333333333,25.0325,0.0,1781.689,0.6550000000000011,100.0,28.255,28.009,43.376,43.21,0.0,0.0,100.0,0.0,0.0,0.0,0.0,3231.5714285714284,3258.9,3969.222222222222,3975.4,305.1325,304.5853333333333,315.2375,315.08375,22.0069,20.6416,22.0402,21.5471,314.999998,314.999998,324.999988,324.999988,99.55892857142857,99.50733333333334,99.5694,99.54925714285714,0.018000000000000238,-0.1133333333333334,-0.16233333333333336,0.0695,-0.054999999999999716,-0.058571428571426054,1.5425,1.5935000000000001,38.543,30.009999999999998,38.751000000000005,35.669,55.897,35.3775,60.2195,53.326,53.834,34.491,58.777,51.612,52.986000000000004,34.03033333333333,58.6695,51.0015,-0.028999999999999915,-0.133,0.102855,0.1121,0.0,216.04000000000002,215.94,212.87333333333333,212.87333333333333,0.0,0.0
26,0.0,0.0,0.0,1.0,1.0,0.0,0.0,1.0,0.0,100.0,1.0,1.1856,26.0,0.0,0.0,0.0,53.999996,0.0,26.0,26.0,26.0,26.0,-0.10875,0.2754000000000001,0.059925000000000006,291.168,-2.6723,-2.758,-1.5876000000000001,-1.5811000000000002,-188.03,215.9675,190.431375,0.0,0.0,0.0,0.0,0.05256666666666654,-5.498166666666667,-5.498166666666667,-0.5709000000000001,0.7855,-0.05311111111111133,-1.242,69.13,-0.06620000000000001,-0.19567500000000002,1.1820000000000004,100.0,1.0,1.0,213.03,0.0,0.0,0.0,0.0,0.0,0.0,0.0,9029.6,0.0,55.0,5.0,248.84333333333336,0.0,0.0,0.0,0.0,0.0,0.0,0.0,0.0,1.3049999999999997,1.3049999999999997,0.0,0.0,0.0,55.0,616.79921,10000.0,85.000001,85.000001,85.000001,85.000001,395.0,0.0,0.0,0.0,1.0,166.665,51.361000000000004,51.361000000000004,46.249,46.249,34.0,-29.1025,20.546,-38.31666666666666,26.885,0.0,1781.637,0.46999999999999886,100.0,29.163,28.618000000000002,44.003,43.39,0.0,0.0,100.0,0.0,0.0,0.0,0.0,3347.5714285714284,2976.6,4638.111111111111,4366.3,304.7885,305.1116666666667,313.72125,314.0725,22.0167,20.6473,22.0509,21.5563,314.999998,314.999998,324.999988,324.999988,99.55892857142857,99.50735,99.56955714285715,99.54941428571429,0.007249999999999979,-0.14200000000000002,-0.18616666666666667,0.0335,-0.04833333333333201,-0.05285714285714249,1.4264999999999999,1.464,38.604,30.045666666666666,38.818,35.727000000000004,55.885,35.4225,60.26,53.3855,53.822,34.5325,58.814499999999995,51.6695,52.973,34.07,58.704499999999996,51.0575,-0.044499999999999984,-0.12199999999999989,0.10319,0.11261000000000002,0.0,216.505,216.41,213.03,213.03,0.0,0.0
27,0.0,0.0,0.0,1.0,1.0,0.0,0.0,1.0,0.0,100.0,1.0,1.1856,26.0,0.0,0.0,0.0,53.999996,0.0,26.0,26.0,26.0,26.0,-0.10212500000000001,0.2518,-0.012425,291.534,-2.6269,-2.736875,-1.5708,-1.6623,-184.70999999999998,215.97,190.40825,0.0,0.0,0.0,0.0,0.05446666666666655,-5.498166666666667,-5.498166666666667,-0.595,-1.0875,-0.061333333333333684,-0.743,69.255,-0.07680000000000001,-0.24150000000000002,1.064,100.0,1.0,1.0,213.49,0.0,0.0,0.0,0.0,0.0,0.0,0.0,9049.0,0.0,55.0,5.0,249.29333333333335,1.0,0.0,0.0,0.0,0.0,0.0,0.0,0.0,1.352999999999998,1.352999999999998,0.0,0.0,1.0,55.0,616.79921,10000.0,85.000001,85.000001,85.000001,85.000001,395.0,0.0,0.0,0.0,1.0,166.665,51.743,51.743,46.616,46.616,34.0,-28.5275,20.348,-34.60333333333333,25.11,0.0,1781.59,0.35999999999999943,100.0,28.948,28.268,44.858000000000004,43.891,0.0,0.0,100.0,0.0,0.0,0.0,0.0,3295.857142857143,2992.3,4216.555555555556,4033.0,304.936,305.1963333333333,314.62975,314.75275,22.0257,20.6524,22.0611,21.5652,314.999998,314.999998,324.999988,324.999988,99.55892857142857,99.50736666666667,99.5697,99.54955714285714,-0.0009999999999998899,-0.1423333333333333,-0.2,0.024833333333333332,-0.046666666666666856,-0.03857142857143003,1.4615,1.5025,38.66,30.077666666666666,38.882,35.7825,55.870000000000005,35.462,60.2995,53.442,53.808,34.569,58.8515,51.724000000000004,52.958,34.105000000000004,58.738,51.1105,-0.04849999999999999,-0.11149999999999993,0.10527500000000001,0.107425,0.0,216.815,216.715,213.49,213.49,0.0,0.0
28,0.0,0.0,0.0,1.0,1.0,0.0,0.0,1.0,0.0,100.0,1.0,1.1856,26.0,0.0,0.0,0.0,53.999996,0.0,26.0,26.0,26.0,26.0,-0.113375,0.2773000000000001,-0.058475000000000006,291.87,-2.6482,-2.72875,-1.5171999999999999,-1.6251,-181.17000000000002,215.9675,190.382875,0.0,0.0,0.0,0.0,0.056533333333333324,-5.498166666666667,-5.498166666666667,-0.6011000000000001,0.6425000000000001,-0.06466666666666665,0.768,69.385,-0.0839,-0.21715,0.8940000000000001,100.0,1.0,1.0,214.01,0.0,0.0,0.0,0.0,0.0,0.0,0.0,9071.1,0.0,55.0,5.0,249.76,0.0,0.0,0.0,0.0,0.0,0.0,0.0,0.0,1.404,1.404,0.0,0.0,0.0,55.0,616.79921,10000.0,85.000001,85.000001,85.000001,85.000001,395.0,0.0,0.0,0.0,1.0,166.665,51.788,51.788,47.516,47.516,34.0,-28.0675,21.246,-31.86,24.93,0.0,1781.54,0.20500000000000185,100.0,29.208,28.061,44.272,43.213,0.0,0.0,100.0,0.0,0.0,0.0,0.0,3245.285714285714,3038.9,4086.6666666666665,4101.6,304.941,305.218,314.9405,314.80225,22.0353,20.6579,22.0714,21.5742,314.999998,314.999998,324.999988,324.999988,99.55894285714285,99.50738333333334,99.56984285714286,99.54968571428572,0.007000000000000117,-0.124,-0.191,0.030333333333333334,-0.041666666666671404,-0.05571428571428072,1.53,1.5605000000000002,38.721000000000004,30.112000000000002,38.946,35.838499999999996,55.855999999999995,35.504999999999995,60.3335,53.4975,53.795,34.6085,58.882999999999996,51.777,52.944,34.14266666666666,58.766999999999996,51.162,-0.059499999999999886,-0.09850000000000003,0.10539000000000001,0.10890000000000001,0.0,217.26999999999998,217.18,214.01,214.01,0.0,0.0
29,0.0,0.0,0.0,1.0,1.0,0.0,0.0,1.0,0.0,100.0,1.0,1.1856,26.0,0.0,0.0,0.0,53.999996,0.0,26.0,26.0,26.0,26.0,-0.100125,0.2558,0.04285,291.458,-2.5987,-2.77475,-1.55475,-1.6012,-177.63,215.9625,190.3565,0.0,0.0,0.0,0.0,0.058599999999999985,-5.498166666666667,-5.498166666666667,-0.6043000000000001,-0.74,-0.06088888888888855,-0.5589999999999999,69.519,-0.0771,-0.215,0.6579999999999995,100.0,1.0,1.0,214.24666666666667,0.0,0.0,0.0,0.0,0.0,0.0,0.0,9081.2,0.0,55.0,5.0,250.24333333333334,1.0,0.0,0.0,0.0,0.0,0.0,0.0,0.0,1.4549999999999983,1.4549999999999983,0.0,0.0,1.0,55.0,616.79921,10000.0,85.000001,85.000001,85.000001,85.000001,395.0,0.0,0.0,0.0,1.0,166.665,51.697,51.697,46.402,46.402,34.0,-28.185,21.902,-34.91333333333333,25.4675,0.0,1781.487,0.10000000000000142,100.0,28.697,28.029,44.564,43.594,0.0,0.0,100.0,0.0,0.0,0.0,0.0,3352.5714285714284,3066.7,4339.111111111111,4176.9,304.798,304.861,314.311,314.47775,22.0447,20.6633,22.0821,21.5835,314.999998,314.999998,324.999988,324.999988,99.55894285714285,99.5074,99.57,99.54984285714286,0.012500000000000178,-0.1303333333333333,-0.18466666666666667,0.0275,-0.04833333333333201,-0.03285714285714647,1.447,1.4820000000000002,38.778999999999996,30.146,39.013,35.897,55.839,35.546,60.374,53.5565,53.778999999999996,34.6465,58.9215,51.834,52.927,34.179,58.802,51.2175,-0.0734999999999999,-0.08999999999999986,0.103705,0.107325,0.0,217.63,217.565,214.24666666666667,214.24666666666667,0.0,0.0
30,0.0,0.0,0.0,1.0,1.0,0.0,0.0,1.0,0.0,100.0,1.0,1.1856,26.0,0.0,0.0,0.0,53.999996,0.0,26.0,26.0,26.0,26.0,-0.09275,0.26570000000000005,0.045075000000000004,291.0,-2.6555999999999997,-2.658375,-1.49755,-1.6560000000000001,-174.29,215.95749999999998,190.3315,0.0,0.0,0.0,0.0,0.06053333333333333,-5.498166666666667,-5.498166666666667,-0.6048,0.7655,-0.061555555555555586,-0.782,69.641,-0.0669,-0.21957500000000002,0.5960000000000001,100.0,1.0,1.0,214.66666666666669,0.0,0.0,0.0,0.0,0.0,0.0,0.0,9099.0,0.0,55.0,5.0,250.68,0.0,0.0,0.0,0.0,0.0,0.0,1.0,0.0,1.5030000000000001,1.5030000000000001,0.0,0.0,0.0,55.0,616.79921,10000.0,85.000001,85.000001,85.000001,85.000001,395.0,0.0,0.0,0.0,1.0,166.665,50.781,50.781,46.829,46.829,34.0,-29.7025,21.118,-33.52666666666667,26.875,0.0,1781.44,-0.030000000000001137,100.0,29.564,28.835,44.376,43.619,0.0,0.0,100.0,0.0,0.0,0.0,0.0,3499.5714285714284,3035.1,4335.666666666667,4206.2,304.3155,304.974,314.40875,314.349,22.0539,20.6687,22.0919,21.5922,314.999998,314.999998,324.999988,324.999988,99.55894285714285,99.50741666666667,99.57014285714286,99.54998571428571,0.02450000000000019,-0.118,-0.1805,0.034333333333333334,-0.04999999999999716,-0.04142857142857537,1.4845,1.4945,38.837,30.179666666666666,39.075,35.951,55.828,35.588,60.408,53.611000000000004,53.769,34.6855,58.953,51.885999999999996,52.916,34.216,58.8305,51.2685,-0.08499999999999996,-0.07650000000000023,0.10925000000000001,0.110225,0.0,218.04500000000002,217.985,214.66666666666669,214.66666666666669,0.0,0.0
31,0.0,0.0,0.0,1.0,1.0,0.0,0.0,1.0,0.0,100.0,1.0,1.1856,26.0,0.0,0.0,0.0,53.999996,0.0,26.0,26.0,26.0,26.0,-0.067125,0.26550000000000007,-0.015625,290.985,-2.7247,-2.638875,-1.54535,-1.6465,-170.51999999999998,215.9475,190.30425,0.0,0.0,0.0,0.0,0.06273333333333331,-5.498166666666667,-5.498166666666667,-0.5913,-0.623,-0.05077777777777781,-0.679,69.78,-0.0506,-0.22215000000000001,0.24200000000000088,100.0,1.0,1.0,215.01,0.0,0.0,0.0,0.0,0.0,0.0,0.0,9113.4,0.0,55.0,5.0,251.18333333333334,1.0,0.0,0.0,0.0,0.0,0.0,1.0,0.0,1.5569999999999986,1.5569999999999986,0.0,0.0,1.0,55.0,616.79921,10000.0,85.000001,85.000001,85.000001,85.000001,395.0,0.0,0.0,0.0,1.0,166.665,51.407,51.407,45.593,45.593,34.0,-27.105,22.002000000000002,-33.79333333333334,28.3725,0.0,1781.386,-0.07000000000000028,100.0,29.245,28.84,44.998000000000005,44.219,0.0,0.0,100.0,0.0,0.0,0.0,0.0,3235.714285714286,3109.8,4413.777777777777,4241.9,305.2535,304.97833333333335,314.14225,314.3995,22.0639,20.6747,22.1033,21.6022,314.999998,314.999998,324.999988,324.999988,99.55895714285714,99.50743333333334,99.5703,99.55014285714286,0.03500000000000014,-0.10133333333333339,-0.155,0.06133333333333334,-0.03999999999999915,-0.0357142857142847,1.462,1.4809999999999999,38.899,30.217,39.146,36.013999999999996,55.813,35.632999999999996,60.451499999999996,53.675,53.754000000000005,34.7265,58.9935,51.9475,52.900999999999996,34.25566666666667,58.8675,51.3285,-0.08899999999999997,-0.07799999999999985,0.10015500000000001,0.10819500000000001,0.0,218.425,218.41,215.01,215.01,0.0,0.0
32,0.0,0.0,0.0,1.0,1.0,0.0,0.0,1.0,0.0,100.0,1.0,1.1856,26.0,0.0,0.0,0.0,53.999996,0.0,26.0,26.0,26.0,26.0,-0.05425,0.2703,-0.053725,291.26,-2.6611,-2.7395,-1.6139999999999999,-1.5564,-167.17000000000002,215.9375,190.280125,0.0,0.0,0.0,0.0,0.06466666666666654,-5.498166666666667,-5.498166666666667,-0.6088,0.16600000000000004,-0.07222222222222241,-0.983,69.899,-0.0415,-0.2291,0.29800000000000004,100.0,1.0,1.0,215.54333333333335,0.0,0.0,0.0,0.0,0.0,0.0,0.0,9136.1,0.0,55.0,5.0,251.61,0.0,0.0,0.0,0.0,0.0,0.0,1.0,0.0,1.6050000000000004,1.6050000000000004,0.0,0.0,0.0,55.0,616.79921,10000.0,85.000001,85.000001,85.000001,85.000001,395.0,0.0,0.0,0.0,1.0,166.665,51.163,51.163,46.661,46.661,34.0,-27.195,22.811999999999998,-32.79333333333334,26.6875,0.0,1781.339,-0.14999999999999858,100.0,29.2,28.891,44.583,43.998000000000005,0.0,0.0,100.0,0.0,0.0,0.0,0.0,3376.4285714285716,3051.0,4233.0,4117.3,304.7585,304.988,314.74025,314.8005,22.0728,20.6801,22.1132,21.6109,314.999998,314.999998,324.999988,324.999988,99.55895714285714,99.50745,99.57044285714285,99.55027142857143,0.051750000000000185,-0.09666666666666657,-0.16083333333333336,0.0795,-0.054999999999999716,-0.04142857142857537,1.537,1.5445000000000002,38.955,30.250666666666667,39.207,36.068,55.801,35.6735,60.484,53.728,53.742999999999995,34.763999999999996,59.024,51.999,52.888,34.291333333333334,58.894999999999996,51.3785,-0.09399999999999986,-0.07399999999999984,0.10834,0.11102000000000001,0.0,218.81,218.775,215.54333333333335,215.54333333333335,0.0,0.0
33,0.0,0.0,0.0,1.0,1.0,0.0,0.0,1.0,0.0,100.0,1.0,1.1856,26.0,0.0,0.0,0.0,53.999996,0.0,26.0,26.0,26.0,26.0,-0.042875,0.26249999999999996,-0.034225,291.397,-2.6709,-2.7344999999999997,-1.54805,-1.631,-163.6,215.925,190.2535,0.0,0.0,0.0,0.0,0.06673333333333331,-5.498166666666667,-5.498166666666667,-0.6117,-0.4425000000000001,-0.06066666666666665,1.42,70.03,-0.0316,-0.21677500000000002,0.10000000000000053,100.0,1.0,1.0,215.82,0.0,0.0,0.0,0.0,0.0,0.0,0.0,9147.9,0.0,55.0,5.0,252.08333333333334,1.0,0.0,0.0,0.0,0.0,0.0,1.0,0.0,1.6559999999999988,1.6559999999999988,0.0,0.0,1.0,55.0,616.79921,10000.0,85.000001,85.000001,85.000001,85.000001,395.0,0.0,0.0,0.0,1.0,166.665,51.865,51.865,46.478,46.478,34.0,-24.66,23.182000000000002,-31.36,30.31,0.0,1781.286,-0.21499999999999986,100.0,29.113,28.402,44.622,44.010999999999996,0.0,0.0,100.0,0.0,0.0,0.0,0.0,3122.714285714286,3047.3,4237.111111111111,4303.1,305.392,305.19533333333334,314.50875,314.29375,22.0821,20.6856,22.1237,21.6202,314.999998,314.999998,324.999988,324.999988,99.55897142857143,99.50745,99.5706,99.55042857142857,0.06125000000000025,-0.08066666666666666,-0.139,0.09266666666666667,-0.04999999999999716,-0.058571428571426054,1.488,1.48,39.013,30.285,39.272999999999996,36.1265,55.787,35.712,60.521,53.787,53.730000000000004,34.7995,59.0585,52.0555,52.873999999999995,34.32533333333333,58.9265,51.4335,-0.09499999999999997,-0.06999999999999984,0.10033,0.11243000000000002,0.0,219.20499999999998,219.185,215.82,215.82,0.0,0.0
34,0.0,0.0,0.0,1.0,1.0,0.0,0.0,1.0,0.0,100.0,1.0,1.1856,26.0,0.0,0.0,0.0,53.999996,0.0,26.0,26.0,26.0,26.0,-0.027625,0.26260000000000017,-0.069025,291.824,-2.693,-2.7105,-1.6137000000000001,-1.5848,-160.03,215.9125,190.225625,0.0,0.0,0.0,0.0,0.0688333333333333,-5.498166666666667,-5.498166666666667,-0.6447,-0.786,-0.02733333333333343,-0.09699999999999998,70.158,-0.02,-0.22690000000000002,0.08000000000000007,100.0,1.0,1.0,216.29000000000002,0.0,0.0,0.0,0.0,0.0,0.0,0.0,9167.7,0.0,55.0,5.0,252.54333333333335,0.0,0.0,0.0,0.0,0.0,0.0,1.0,0.0,1.7070000000000007,1.7070000000000007,0.0,0.0,0.0,55.0,616.79921,10000.0,85.000001,85.000001,85.000001,85.000001,395.0,0.0,0.0,0.0,1.0,166.665,52.139,52.139,47.379,47.379,34.0,-24.9575,22.786,-29.97,27.9725,0.0,1781.235,-0.17999999999999972,100.0,28.63,28.234,44.175,44.098,0.0,0.0,100.0,0.0,0.0,0.0,0.0,3143.285714285714,2969.4,4071.4444444444443,4126.8,305.328,305.2506666666667,315.04875,314.622,22.0914,20.6911,22.1341,21.6295,314.999998,314.999998,324.999988,324.999988,99.55897142857143,99.50746666666667,99.57074285714286,99.55057142857143,0.0637500000000002,-0.07366666666666666,-0.131,0.089,-0.051666666666669414,-0.054285714285711606,1.53,1.5175,39.071,30.319666666666667,39.338,36.1845,55.772999999999996,35.75,60.5545,53.8455,53.716,34.835,59.09,52.1115,52.86,34.359,58.954499999999996,51.4885,-0.09699999999999998,-0.06300000000000017,0.104705,0.10951000000000001,0.0,219.57999999999998,219.565,216.29000000000002,216.29000000000002,0.0,0.0
35,0.0,0.0,0.0,1.0,1.0,0.0,0.0,1.0,0.0,100.0,1.0,1.1856,26.0,0.0,0.0,0.0,53.999996,0.0,26.0,26.0,26.0,26.0,-0.008625,0.24530000000000007,-0.053375000000000006,291.779,-2.7441,-2.65125,-1.57955,-1.6002,-156.66,215.9,190.197375,0.0,0.0,0.0,0.0,0.07079999999999997,-5.498166666666667,-5.498166666666667,-0.6842,-0.42999999999999994,-0.038000000000000256,-0.975,70.277,-0.0078000000000000005,-0.23,-0.04999999999999982,100.0,1.0,1.0,216.70666666666668,0.0,0.0,0.0,0.0,0.0,0.0,0.0,9185.3,0.0,55.0,5.0,252.97333333333336,1.0,0.0,0.0,0.0,0.0,0.0,1.0,0.0,1.754999999999999,1.754999999999999,0.0,0.0,1.0,55.0,616.79921,10000.0,85.000001,85.000001,85.000001,85.000001,395.0,0.0,0.0,0.0,1.0,166.665,51.650999999999996,51.650999999999996,46.936,46.936,34.0,-25.794999999999998,24.854,-28.753333333333334,27.485,0.0,1781.189,-0.08500000000000085,100.0,28.448999999999998,28.527,43.921,43.671,0.0,0.0,100.0,0.0,0.0,0.0,0.0,3258.714285714286,3254.7,4100.444444444444,3947.4,305.211,304.418,314.92225,315.10375,22.099899999999998,20.6965,22.1439,21.6381,314.999998,314.999998,324.999988,324.999988,99.55898571428571,99.50748333333334,99.57088571428571,99.55071428571429,0.07350000000000012,-0.07033333333333336,-0.1105,0.108,-0.05666666666667197,-0.04714285714285893,1.545,1.5420000000000003,39.123999999999995,30.353,39.4,36.238,55.757999999999996,35.7875,60.5865,53.897,53.702,34.869,59.1195,52.161500000000004,52.844,34.391999999999996,58.981,51.537,-0.09499999999999997,-0.07100000000000017,0.10122500000000001,0.101915,0.0,219.95,219.935,216.70666666666668,216.70666666666668,0.0,0.0
36,0.0,0.0,0.0,1.0,1.0,0.0,0.0,1.0,0.0,100.0,1.0,1.1856,26.0,0.0,0.0,0.0,53.999996,0.0,26.0,26.0,26.0,26.0,-0.012375,0.2682,0.04385,290.863,-2.7505,-2.6225,-1.55285,-1.5889,-153.28,215.885,190.167625,0.0,0.0,0.0,0.0,0.07276666666666654,-5.498166666666667,-5.498166666666667,-0.6654,0.38349999999999995,-0.07011111111111124,-1.376,70.4,-0.0016,-0.20045000000000002,0.1299999999999999,100.0,1.0,1.0,216.86333333333334,0.0,0.0,0.0,0.0,0.0,0.0,0.0,9192.1,0.0,55.0,5.0,253.41,0.0,0.0,0.0,0.0,0.0,0.0,1.0,0.0,1.8030000000000008,1.8030000000000008,0.0,0.0,0.0,55.0,616.79921,10000.0,85.000001,85.000001,85.000001,85.000001,395.0,0.0,0.0,0.0,1.0,333.33500000000004,51.254,51.254,46.173,46.173,34.0,-26.7225,23.759999999999998,-32.233333333333334,32.74,0.0,1781.139,-0.07499999999999929,100.0,28.946,28.953,44.016,43.973,0.0,0.0,100.0,0.0,0.0,0.0,0.0,3380.4285714285716,3115.2,4524.111111111111,4491.0,304.852,304.85266666666666,313.9715,313.8015,22.1086,20.701999999999998,22.1538,21.6469,314.999998,314.999998,324.999988,324.999988,99.559,99.50748333333334,99.57102857142857,99.55085714285714,0.07925000000000004,-0.06099999999999994,-0.1075,0.11333333333333333,-0.02833333333332888,-0.03999999999999915,1.4355,1.435,39.179,30.387666666666668,39.461,36.293,55.747,35.827,60.62,53.952,53.692,34.906,59.150999999999996,52.2145,52.833,34.427,59.0095,51.589,-0.09599999999999986,-0.0754999999999999,0.10522000000000001,0.112945,0.0,220.35000000000002,220.35000000000002,216.86333333333334,216.86333333333334,0.0,0.0
