,ABS Active,ABS Enabled,AID Allow Tire Blankets,AID Auto Blip,AID Auto Clutch,AID Auto Shift,AID Fuel Rate,AID Ideal Line,AID Mech Damage,AID Stability,AID Tire Wear Rate,Air Density,Air Temp,Ballast,Best Lap Delta,Best Lap Time,Brake Bias,Brake Pos,Brake Temp FL,Brake Temp FR,Brake Temp RL,Brake Temp RR,CG Accel Lateral,CG Accel Longitudinal,CG Accel Vertical,CG Height,Camber FL,Camber FR,Camber RL,Camber RR,Car Coord X,Car Coord Y,Car Coord Z,Car Damage Front,Car Damage Left,Car Damage Rear,Car Damage Right,Car Pos Norm,Caster FL,Caster FR,Chassis Pitch Angle,Chassis Pitch Rate,Chassis Roll Angle,Chassis Roll Rate,Chassis Velocity X,Chassis Velocity Y,Chassis Velocity Z,Chassis Yaw Rate,Clutch Pos,DRS Active,DRS Available,Drive Train Speed,ERS Heat Charging,ERS Is Charging,ERS Max Energy,ERS Power Level,ERS Recovery Level,Engine Brake Setting,Engine Limiter,Engine RPM,Flags,Fuel Level,Gear,Ground Speed,HR Sample Clock,In Pit,KERS Charge,KERS Deployed Energy,KERS Input,KERS Max Energy,LR Sample Clock,Lap Invalidated,Lap Time,Lap Time2,Last Lap Time,Last Sector Time,MR Sample Clock,Max Fuel,Max Power,Max RPM,Max Sus Travel FL,Max Sus Travel FR,Max Sus Travel RL,Max Sus Travel RR,Max Torque,Max Turbo Boost,Num Tires Off Track,Penalties Enabled,Position,Raw Data Sample Rate,Ride Height FL,Ride Height FR,Ride Height RL,Ride Height RR,Road Temp,Self Align Torque FL,Self Align Torque FR,Self Align Torque RL,Self Align Torque RR,Session Lap Count,Session Time Left,Steering Angle,Surface Grip,Suspension Travel FL,Suspension Travel FR,Suspension Travel RL,Suspension Travel RR,TC Active,TC Enabled,Throttle Pos,Tire Dirt Level FL,Tire Dirt Level FR,Tire Dirt Level RL,Tire Dirt Level RR,Tire Load FL,Tire Load FR,Tire Load RL,Tire Load RR,Tire Loaded Radius FL,Tire Loaded Radius FR,Tire Loaded Radius RL,Tire Loaded Radius RR,Tire Pressure FL,Tire Pressure FR,Tire Pressure RL,Tire Pressure RR,Tire Radius FL,Tire Radius FR,Tire Radius RL,Tire Radius RR,Tire Rubber Grip FL,Tire Rubber Grip FR,Tire Rubber Grip RL,Tire Rubber Grip RR,Tire Slip Angle FL,Tire Slip Angle FR,Tire Slip Angle RL,Tire Slip Angle RR,Tire Slip Ratio FL,Tire Slip Ratio FR,Tire Slip Ratio RL,Tire Slip Ratio RR,Tire Temp Core FL,Tire Temp Core FR,Tire Temp Core RL,Tire Temp Core RR,Tire Temp Inner FL,Tire Temp Inner FR,Tire Temp Inner RL,Tire Temp Inner RR,Tire Temp Middle FL,Tire Temp Middle FR,Tire Temp Middle RL,Tire Temp Middle RR,Tire Temp Outer FL,Tire Temp Outer FR,Tire Temp Outer RL,Tire Temp Outer RR,Toe In FL,Toe In FR,Toe In RL,Toe In RR,Turbo Boost,Wheel Angular Speed FL,Wheel Angular Speed FR,Wheel Angular Speed RL,Wheel Angular Speed RR,Wind Direction,Wind Speed
0,0.0,0.0,0.0,1.0,1.0,0.0,0.0,1.0,0.0,100.0,1.0,1.1856,26.0,0.0,0.0,0.0,53.99999,0.0,26.0,26.0,26.0,26.0,-0.07655555555555549,0.2986,0.059866666666666665,294.128,-2.717,-2.6645000000000003,-1.51645,-1.5592000000000001,-275.71,216.29000000000002,190.987875,0.0,0.0,0.0,0.0,0.0015666666666666667,-5.498166666666667,-5.498166666666667,-0.5475,1.1473333333333333,-0.010222222222222133,-0.31499999999999995,65.481,-0.0375,-0.2119,1.017999999999999,100.0,1.0,1.0,202.18,0.0,0.0,0.0,0.0,0.0,0.0,0.0,8569.7,0.0,55.0,5.0,235.7,0.0,0.0,0.0,0.0,0.0,0.0,0.0,0.0,0.0030000000000001137,0.0030000000000001137,0.0,0.0,0.0,55.0,616.79921,10000.0,85.0,85.0,85.0,85.0,395.0,0.0,0.0,0.0,1.0,20.0,52.963,52.963,49.683,49.683,34.0,-26.0625,23.256,-30.253333333333334,25.14,0.0,1782.866,0.8599999999999994,100.0,27.468,26.782,40.604,40.461,0.0,0.0,100.0,0.0,0.0,0.0,0.0,2968.5,3359.1,4079.6666666666665,4015.8,305.818,304.18525,314.9115,314.837,21.7793,20.5138,21.7779,21.3226,314.99999,314.99999,324.99998,324.99998,99.55894285714285,99.50725,99.56554285714286,99.54558571428572,-0.0040000000000000036,-0.1213333333333334,-0.16466666666666666,0.06633333333333333,-0.06333333333333258,-0.07499999999999574,1.5474999999999999,1.5895000000000001,37.120999999999995,29.211333333333336,37.111999999999995,34.2665,56.302,34.489,59.189,51.769,54.217,33.6485,57.811,50.117,53.385,33.1995,57.775,49.5375,-0.006000000000000005,-0.13900000000000023,0.10973000000000001,0.11451000000000001,0.0,205.22500000000002,205.14,202.18,202.18,0.0,0.0
1,0.0,0.0,0.0,1.0,1.0,0.0,0.0,1.0,0.0,100.0,1.0,1.1856,26.0,0.0,0.0,0.0,53.999996,0.0,26.0,26.0,26.0,26.0,-0.11466666666666658,0.3256000000000001,0.1950666666666667,293.091,-2.65275,-2.76525,-1.5253,-1.5466,-272.37,216.28750000000002,190.967625,0.0,0.0,0.0,0.0,0.0035333333333333336,-5.498166666666667,-5.498166666666667,-0.4994,-0.5326666666666666,-0.05422222222222217,-0.7249999999999999,65.636,-0.0551,-0.19287500000000002,1.4720000000000013,100.0,1.0,1.0,202.33666666666667,0.0,0.0,0.0,0.0,0.0,0.0,0.0,8576.3,0.0,55.0,5.0,236.26,1.0,0.0,0.0,0.0,0.0,0.0,0.0,0.0,0.053999999999998494,0.053999999999998494,0.0,0.0,1.0,55.0,616.79921,10000.0,85.000001,85.000001,85.000001,85.000001,395.0,0.0,0.0,0.0,1.0,166.665,53.497,53.497,48.385999999999996,48.385999999999996,34.0,-27.5825,17.772,-34.980000000000004,28.9125,0.0,1782.814,0.9050000000000011,100.0,27.532,27.024,42.482,41.525,0.0,0.0,100.0,0.0,0.0,0.0,0.0,3144.375,2695.0,4372.444444444444,4683.5,305.3065,306.2535,314.16,313.19675,21.7892,20.5189,21.7887,21.331699999999998,314.999998,314.999998,324.999988,324.999988,99.55895714285714,99.50726666666667,99.56568571428572,99.54572857142857,-0.011249999999999982,-0.14933333333333332,-0.18716666666666665,0.03833333333333334,-0.04333333333332945,-0.03999999999999915,1.411,1.4619999999999997,37.183,29.243333333333332,37.18,34.323499999999996,56.286,34.5305,59.2345,51.833,54.202,33.6865,57.8535,50.178,53.369,33.236000000000004,57.814499999999995,49.597,-0.009500000000000064,-0.1495000000000002,0.10215,0.11623000000000001,0.0,205.655,205.535,202.33666666666667,202.33666666666667,0.0,0.0
2,0.0,0.0,0.0,1.0,1.0,0.0,0.0,1.0,0.0,100.0,1.0,1.1856,26.0,0.0,0.0,0.0,53.999996,0.0,26.0,26.0,26.0,26.0,-0.15644444444444439,0.26690000000000014,-0.0755,293.73199999999997,-2.59575,-2.80125,-1.4828999999999999,-1.6129,-269.02,216.28,190.94875,0.0,0.0,0.0,0.0,0.0054666666666666665,-5.498166666666667,-5.498166666666667,-0.5516,0.011333333333333334,-0.05255555555555569,2.3529999999999998,65.77799999999999,-0.077,-0.2575,1.6059999999999999,100.0,1.0,1.0,203.24666666666667,0.0,0.0,0.0,0.0,0.0,0.0,0.0,8614.9,0.0,55.0,5.0,236.76999999999998,0.0,0.0,0.0,0.0,0.0,0.0,0.0,0.0,0.10500000000000043,0.10500000000000043,0.0,0.0,0.0,55.0,616.79921,10000.0,85.000001,85.000001,85.000001,85.000001,395.0,0.0,0.0,0.0,1.0,333.33500000000004,52.382999999999996,52.382999999999996,50.247,50.247,34.0,-30.119999999999997,20.038,-29.54,20.0775,0.0,1782.763,0.7650000000000006,100.0,28.432,26.931,42.507,41.283,0.0,0.0,100.0,0.0,0.0,0.0,0.0,3329.625,2960.4,3778.4444444444443,3661.9,304.534,305.48225,315.5625,315.8365,21.7993,20.5239,21.7992,21.3405,314.999998,314.999998,324.999988,324.999988,99.55897142857143,99.50728333333333,99.56581428571428,99.54587142857143,-0.03049999999999997,-0.15066666666666662,-0.222,0.0071666666666666675,-0.045000000000001705,-0.06333333333333258,1.619,1.666,37.245999999999995,29.27433333333333,37.245000000000005,34.3785,56.272999999999996,34.57,59.272,51.89,54.19,33.723,57.8885,50.233000000000004,53.356,33.271,57.847,49.650999999999996,-0.01550000000000007,-0.133,0.10367000000000001,0.10476500000000001,0.0,206.10500000000002,205.985,203.24666666666667,203.24666666666667,0.0,0.0
3,0.0,0.0,0.0,1.0,1.0,0.0,0.0,1.0,0.0,100.0,1.0,1.1856,26.0,0.0,0.0,0.0,53.999996,0.0,26.0,26.0,26.0,26.0,-0.1466666666666666,0.31590000000000007,-0.028333333333333332,293.503,-2.7237999999999998,-2.69325,-1.50625,-1.5937000000000001,-265.66,216.26749999999998,190.929125,0.0,0.0,0.0,0.0,0.0074333333333333335,-5.498166666666667,-5.498166666666667,-0.5099,0.48033333333333333,-0.014888888888889174,-0.901,65.931,-0.0911,-0.201825,1.2579999999999991,100.0,1.0,1.0,203.4,0.0,0.0,0.0,0.0,0.0,0.0,0.0,8621.4,0.0,55.0,5.0,237.32,1.0,0.0,0.0,0.0,0.0,0.0,0.0,0.0,0.1559999999999988,0.1559999999999988,0.0,0.0,1.0,55.0,616.79921,10000.0,85.000001,85.000001,85.000001,85.000001,395.0,0.0,0.0,0.0,1.0,166.665,53.604,53.604,48.187,48.187,34.0,-26.185,17.624,-35.74666666666667,23.965,0.0,1782.713,0.629999999999999,100.0,27.899,27.058,42.346000000000004,41.397,0.0,0.0,100.0,0.0,0.0,0.0,0.0,2875.0,2770.1,4351.333333333333,4205.8,306.0665,305.8235,314.2615,314.38275,21.8092,20.5291,21.8097,21.3495,314.999998,314.999998,324.999988,324.999988,99.55897142857143,99.5073,99.56595714285714,99.54601428571429,-0.030000000000000027,-0.15800000000000003,-0.21833333333333335,0.004,-0.04333333333332945,-0.03999999999999915,1.483,1.5305,37.307,29.306666666666665,37.31,34.434,56.257,34.612,59.311,51.951499999999996,54.174,33.762,57.925,50.292,53.34,33.3085,57.8805,49.709,-0.026499999999999968,-0.11799999999999988,0.10801500000000001,0.113875,0.0,206.575,206.48000000000002,203.4,203.4,0.0,0.0
4,0.0,0.0,0.0,1.0,1.0,0.0,0.0,1.0,0.0,100.0,1.0,1.1856,26.0,0.0,0.0,0.0,53.999996,0.0,26.0,26.0,26.0,26.0,-0.1486666666666666,0.2772000000000001,-0.03446666666666667,293.686,-2.6574,-2.748125,-1.52385,-1.6003,-262.29,216.2525,190.9095,0.0,0.0,0.0,0.0,0.009366666666666667,-5.498166666666667,-5.498166666666667,-0.5457000000000001,-0.791,-0.07866666666666644,-0.526,66.076,-0.0898,-0.2379,1.1080000000000005,100.0,1.0,1.0,204.01,0.0,0.0,0.0,0.0,0.0,0.0,0.0,8647.3,0.0,55.0,5.0,237.8466666666667,0.0,0.0,0.0,0.0,0.0,0.0,0.0,0.0,0.20700000000000074,0.20700000000000074,0.0,0.0,0.0,55.0,616.79921,10000.0,85.000001,85.000001,85.000001,85.000001,395.0,0.0,0.0,0.0,1.0,166.665,53.07,53.07,48.92,48.92,34.0,-29.105,20.09,-32.163333333333334,20.990000000000002,0.0,1782.663,0.6099999999999994,100.0,27.771,26.69,42.822,41.382,0.0,0.0,100.0,0.0,0.0,0.0,0.0,3218.125,2984.7,4032.6666666666665,3685.4,305.066,305.37325,314.9225,315.66925,21.8188,20.5342,21.8203,21.3584,314.999998,314.999998,324.999988,324.999988,99.55897142857143,99.50731666666667,99.56611428571429,99.54614285714285,-0.02675000000000005,-0.1436666666666666,-0.20883333333333334,0.02,-0.04833333333333201,-0.05833333333333002,1.5655000000000001,1.6065,37.367999999999995,29.33866666666667,37.376999999999995,34.49,56.239000000000004,34.6535,59.3525,52.0095,54.157,33.8,57.963499999999996,50.348,53.323,33.3445,57.9165,49.7635,-0.028000000000000025,-0.11850000000000005,0.10984000000000001,0.10321000000000001,0.0,206.99,206.89499999999998,204.01,204.01,0.0,0.0
5,0.0,0.0,0.0,1.0,1.0,0.0,0.0,1.0,0.0,100.0,1.0,1.1856,26.0,0.0,0.0,0.0,53.999996,0.0,26.0,26.0,26.0,26.0,-0.134,0.30600000000000005,-0.0051333333333333335,293.655,-2.67245,-2.765375,-1.5091,-1.5867,-258.92,216.235,190.889,0.0,0.0,0.0,0.0,0.011333333333333334,-5.498166666666667,-5.498166666666667,-0.5359,0.3696666666666667,-0.08355555555555583,-0.2469999999999999,66.224,-0.0883,-0.213925,1.0520000000000014,100.0,1.0,1.0,204.37666666666667,0.0,0.0,0.0,0.0,0.0,0.0,0.0,8662.8,0.0,55.0,5.0,238.37333333333333,1.0,0.0,0.0,0.0,0.0,0.0,0.0,0.0,0.2579999999999991,0.2579999999999991,0.0,0.0,1.0,55.0,616.79921,10000.0,85.000001,85.000001,85.000001,85.000001,395.0,0.0,0.0,0.0,1.0,166.665,53.467,53.467,48.981,48.981,34.0,-28.825,18.684,-34.42,22.62,0.0,1782.612,0.23499999999999943,100.0,27.747,26.746,42.506,41.182,0.0,0.0,100.0,0.0,0.0,0.0,0.0,3206.875,2759.7,4211.666666666667,4043.0,305.1935,305.9425,314.63875,314.7915,21.8288,20.5393,21.8307,21.3672,314.999998,314.999998,324.999988,324.999988,99.55898571428571,99.50733333333334,99.56625714285714,99.54628571428572,-0.022750000000000048,-0.1416666666666666,-0.22483333333333336,0.0051666666666666675,-0.04333333333332945,-0.036666666666668846,1.5345,1.5844999999999998,37.43,29.370333333333335,37.442,34.545,56.226,34.694,59.391999999999996,52.067,54.144,33.837,58.001,50.4025,53.309,33.3805,57.951,49.817,-0.052000000000000046,-0.09100000000000019,0.10986000000000001,0.10579500000000001,0.0,207.495,207.4,204.37666666666667,204.37666666666667,0.0,0.0
6,0.0,0.0,0.0,1.0,1.0,0.0,0.0,1.0,0.0,100.0,1.0,1.1856,26.0,0.0,0.0,0.0,53.999996,0.0,26.0,26.0,26.0,26.0,-0.11655555555555552,0.27470000000000017,0.0076,293.503,-2.6387,-2.7437500000000004,-1.55355,-1.5809000000000002,-255.94,216.2175,190.870875,0.0,0.0,0.0,0.0,0.013066666666666666,-5.498166666666667,-5.498166666666667,-0.5317000000000001,0.095,-0.06077777777777804,0.976,66.35300000000001,-0.0839,-0.21557500000000002,0.7539999999999996,100.0,1.0,1.0,204.77666666666667,0.0,0.0,0.0,0.0,0.0,0.0,0.0,8679.7,0.0,55.0,5.0,238.84,0.0,0.0,0.0,0.0,0.0,0.0,0.0,0.0,0.3030000000000008,0.3030000000000008,0.0,0.0,0.0,55.0,616.79921,10000.0,85.000001,85.000001,85.000001,85.000001,395.0,0.0,0.0,0.0,1.0,166.665,53.146,53.146,48.843,48.843,34.0,-26.8,21.258,-32.30333333333333,23.3425,0.0,1782.566,0.015000000000000568,100.0,27.815,26.71,42.713,41.447,0.0,0.0,100.0,0.0,0.0,0.0,0.0,3120.75,2999.7,4057.777777777778,4039.3,305.247,305.32475,314.93675,314.8755,21.8375,20.5438,21.84,21.3751,314.999998,314.999998,324.999988,324.999988,99.55898571428571,99.50735,99.56638571428572,99.54641428571429,0.0040000000000000036,-0.1173333333333334,-0.1975,0.021166666666666667,-0.04999999999999716,-0.046666666666666856,1.53,1.5644999999999998,37.483999999999995,29.398666666666664,37.5,34.5945,56.212,34.7295,59.4275,52.121,54.131,33.87,58.033500000000004,50.454,53.295,33.412,57.981,49.8675,-0.06899999999999995,-0.08150000000000013,0.100165,0.10661000000000001,0.0,207.87,207.79500000000002,204.77666666666667,204.77666666666667,0.0,0.0
7,0.0,0.0,0.0,1.0,1.0,0.0,0.0,1.0,0.0,100.0,1.0,1.1856,26.0,0.0,0.0,0.0,53.999996,0.0,26.0,26.0,26.0,26.0,-0.08133333333333337,0.2985,0.04676666666666667,293.243,-2.61055,-2.7315,-1.5142,-1.6228,-252.35,216.1925,190.84925,0.0,0.0,0.0,0.0,0.015166666666666667,-5.498166666666667,-5.498166666666667,-0.5348,0.02733333333333333,-0.04877777777777803,1.1030000000000002,66.508,-0.07010000000000001,-0.22415000000000002,0.39400000000000013,100.0,1.0,1.0,205.22333333333333,0.0,0.0,0.0,0.0,0.0,0.0,0.0,8698.7,0.0,55.0,5.0,239.4,1.0,0.0,0.0,0.0,0.0,0.0,0.0,0.0,0.3569999999999993,0.3569999999999993,0.0,0.0,1.0,55.0,616.79921,10000.0,85.000001,85.000001,85.000001,85.000001,395.0,0.0,0.0,0.0,1.0,166.665,52.811,52.811,48.874,48.874,34.0,-25.857499999999998,22.462,-30.426666666666666,25.689999999999998,0.0,1782.512,-0.21000000000000085,100.0,27.932,26.813,42.751,41.734,0.0,0.0,100.0,0.0,0.0,0.0,0.0,3176.625,3041.5,4028.6666666666665,4076.3,304.995,305.1475,314.95875,314.715,21.848,20.5493,21.8511,21.3847,314.999998,314.999998,324.999988,324.999988,99.55898571428571,99.50736666666667,99.56654285714286,99.54655714285714,0.035250000000000004,-0.09533333333333338,-0.17400000000000002,0.049,-0.04999999999999716,-0.05333333333332746,1.5385,1.5635,37.55,29.433,37.57,34.6545,56.196,34.7715,59.469,52.185,54.116,33.908500000000004,58.0725,50.516,53.278999999999996,33.448499999999996,58.016999999999996,49.9275,-0.09149999999999991,-0.058499999999999996,0.10742000000000002,0.11177500000000001,0.0,208.325,208.285,205.22333333333333,205.22333333333333,0.0,0.0
8,0.0,0.0,0.0,1.0,1.0,0.0,0.0,1.0,0.0,100.0,1.0,1.1856,26.0,0.0,0.0,0.0,53.999996,0.0,26.0,26.0,26.0,26.0,-0.051444444444444404,0.3044,0.034333333333333334,293.472,-2.69395,-2.7186250000000003,-1.49695,-1.5547,-249.15,216.16750000000002,190.829875,0.0,0.0,0.0,0.0,0.017033333333333334,-5.498166666666667,-5.498166666666667,-0.5345,-0.5256666666666666,-0.03277777777777802,0.8639999999999999,66.646,-0.0521,-0.21315,-0.07200000000000006,100.0,1.0,1.0,205.58333333333331,0.0,0.0,0.0,0.0,0.0,0.0,0.0,8713.9,0.0,55.0,5.0,239.89333333333332,0.0,0.0,0.0,0.0,0.0,0.0,0.0,0.0,0.40500000000000114,0.40500000000000114,0.0,0.0,0.0,55.0,616.79921,10000.0,85.000001,85.000001,85.000001,85.000001,395.0,0.0,0.0,0.0,1.0,333.33500000000004,53.711,53.711,48.096000000000004,48.096000000000004,34.0,-23.195,22.698,-30.723333333333333,27.2,0.0,1782.463,-0.375,100.0,27.484,26.715,42.758,41.844,0.0,0.0,100.0,0.0,0.0,0.0,0.0,2911.375,2995.6,4156.0,4184.4,305.963,305.368,314.60125,314.46325,21.8571,20.5542,21.861,21.3932,314.999998,314.999998,324.999988,324.999988,99.55898571428571,99.50736666666667,99.56667142857142,99.54668571428572,0.05250000000000021,-0.07499999999999996,-0.15766666666666665,0.07633333333333334,-0.045000000000001705,-0.05833333333333002,1.5125,1.512,37.607,29.46366666666667,37.631,34.707499999999996,56.18,34.807,59.506,52.2415,54.101,33.9415,58.107,50.57,53.263,33.480000000000004,58.0485,49.9805,-0.10450000000000004,-0.04200000000000026,0.10951000000000001,0.110505,0.0,208.72,208.72,205.58333333333331,205.58333333333331,0.0,0.0
9,0.0,0.0,0.0,1.0,1.0,0.0,0.0,1.0,0.0,100.0,1.0,1.1856,26.0,0.0,0.0,0.0,53.999996,0.0,26.0,26.0,26.0,26.0,-0.019444444444444486,0.29259999999999997,-0.017433333333333335,293.137,-2.68525,-2.721875,-1.553,-1.5558,-245.75,216.14,190.808875,0.0,0.0,0.0,0.0,0.019,-5.498166666666667,-5.498166666666667,-0.5415,0.6563333333333334,-0.03611111111111098,-0.44799999999999995,66.788,-0.0284,-0.2164,-0.1299999999999999,100.0,1.0,1.0,206.15,0.0,0.0,0.0,0.0,0.0,0.0,0.0,8738.0,0.0,55.0,5.0,240.40666666666667,1.0,0.0,0.0,0.0,0.0,0.0,0.0,0.0,0.4559999999999995,0.4559999999999995,0.0,0.0,1.0,55.0,616.79921,10000.0,85.000001,85.000001,85.000001,85.000001,395.0,0.0,0.0,0.0,1.0,166.665,52.399,52.399,49.179,49.179,34.0,-26.5575,23.427999999999997,-28.436666666666664,26.45,0.0,1782.414,-0.5,100.0,27.856,27.331,42.357,41.931,0.0,0.0,100.0,0.0,0.0,0.0,0.0,3376.625,2993.0,4007.4444444444443,4033.6000000000004,304.671,305.1295,315.13875,314.83325,21.8669,20.5595,21.8714,21.4022,314.999998,314.999998,324.999988,324.999988,99.559,99.50738333333334,99.56681428571429,99.54682857142858,0.06950000000000012,-0.06433333333333335,-0.13366666666666666,0.089,-0.04333333333332945,-0.03833333333332689,1.577,1.573,37.668,29.497333333333334,37.696,34.7635,56.167,34.8465,59.542,52.3,54.088,33.978,58.1405,50.626,53.25,33.515,58.079,50.036,-0.11699999999999999,-0.04300000000000015,0.098225,0.10698500000000001,0.0,209.185,209.175,206.15,206.15,0.0,0.0
10,0.0,0.0,0.0,1.0,1.0,0.0,0.0,1.0,0.0,100.0,1.0,1.1856,26.0,0.0,0.0,0.0,53.999996,0.0,26.0,26.0,26.0,26.0,0.002555555555555644,0.2896000000000001,0.004333333333333334,292.953,-2.6609,-2.702125,-1.5321500000000001,-1.5371000000000001,-242.54,216.115,190.78925,0.0,0.0,0.0,0.0,0.020866666666666665,-5.498166666666667,-5.498166666666667,-0.5175000000000001,-0.3106666666666667,0.003555555555555534,0.387,66.926,-0.009300000000000001,-0.20565,-0.4220000000000006,100.0,1.0,1.0,206.35666666666668,0.0,0.0,0.0,0.0,0.0,0.0,0.0,8746.7,0.0,55.0,5.0,240.90333333333334,0.0,0.0,0.0,0.0,0.0,0.0,1.0,0.0,0.5040000000000013,0.5040000000000013,0.0,0.0,0.0,55.0,616.79921,10000.0,85.000001,85.000001,85.000001,85.000001,395.0,0.0,0.0,0.0,1.0,166.665,53.436,53.436,47.607,47.607,34.0,-21.38,22.67,-30.506666666666668,28.962500000000002,0.0,1782.365,-0.6050000000000004,100.0,27.728,27.334,42.772999999999996,42.666,0.0,0.0,100.0,0.0,0.0,0.0,0.0,2910.125,2859.7,4344.0,4279.6,306.0225,305.579,314.24925,314.15775,21.8761,20.5645,21.8814,21.410899999999998,314.999998,314.999998,324.999988,324.999988,99.559,99.5074,99.56694285714286,99.54697142857142,0.08924999999999983,-0.04733333333333334,-0.11433333333333333,0.09433333333333332,-0.045000000000001705,-0.02833333333332888,1.4925,1.467,37.726,29.528,37.759,34.818,56.155,34.881,59.58,52.3595,54.077,34.01,58.176,50.6835,53.238,33.545500000000004,58.112,50.092,-0.12949999999999995,-0.02499999999999991,0.09704,0.10394,0.0,209.595,209.61,206.35666666666668,206.35666666666668,0.0,0.0
11,0.0,0.0,0.0,1.0,1.0,0.0,0.0,1.0,0.0,100.0,1.0,1.1856,26.0,0.0,0.0,0.0,53.999996,0.0,26.0,26.0,26.0,26.0,0.049111111111111105,0.27960000000000007,-0.09376666666666666,293.549,-2.70955,-2.683375,-1.5894,-1.5228000000000002,-238.92000000000002,216.085,190.767375,0.0,0.0,0.0,0.0,0.022600000000000002,-5.498166666666667,-5.498166666666667,-0.5615,-0.14133333333333334,0.030999999999999917,-0.758,67.07300000000001,0.0122,-0.237125,-0.6120000000000001,100.0,1.0,1.0,207.12666666666667,0.0,0.0,0.0,0.0,0.0,0.0,0.0,8779.4,0.0,55.0,5.0,241.43666666666667,1.0,0.0,0.0,0.0,0.0,0.0,1.0,0.0,0.5579999999999998,0.5579999999999998,0.0,0.0,1.0,55.0,616.79921,10000.0,85.000001,85.000001,85.000001,85.000001,395.0,0.0,0.0,0.0,1.0,166.665,52.841,52.841,49.286,49.286,34.0,-22.7175,25.602,-24.41,26.695,0.0,1782.312,-0.7199999999999989,100.0,27.411,27.559,42.26,42.556,0.0,0.0,100.0,0.0,0.0,0.0,0.0,3094.5,3084.5,3718.777777777778,3864.5,305.541,304.85325,315.852,315.24175,21.8862,20.5702,21.8924,21.4204,314.999998,314.999998,324.999988,324.999988,99.55901428571428,99.5074,99.5671,99.54711428571429,0.10375000000000023,-0.023333333333333317,-0.09533333333333333,0.135,-0.045000000000001705,-0.06333333333333258,1.649,1.62,37.789,29.564,37.827,34.8775,56.14,34.921,59.616,52.4225,54.062,34.0465,58.2095,50.744,53.222,33.581,58.141999999999996,50.1515,-0.1279999999999999,-0.022499999999999964,0.10802500000000001,0.114335,0.0,210.01999999999998,210.075,207.12666666666667,207.12666666666667,0.0,0.0
12,0.0,0.0,0.0,1.0,1.0,0.0,0.0,1.0,0.0,100.0,1.0,1.1856,26.0,0.0,0.0,0.0,53.999996,0.0,26.0,26.0,26.0,26.0,0.04299999999999993,0.29300000000000015,0.004633333333333334,293.015,-2.7578,-2.682875,-1.55165,-1.5241,-235.9,216.0625,190.747875,0.0,0.0,0.0,0.0,0.025466666666666665,-5.498166666666667,-5.498166666666667,-0.5463,0.3093333333333333,0.019777777777777894,0.657,67.202,0.0279,-0.20665,-0.7120000000000006,100.0,1.0,1.0,207.30333333333334,0.0,0.0,0.0,0.0,0.0,0.0,0.0,8786.9,0.0,55.0,5.0,241.89666666666665,0.0,0.0,0.0,0.0,0.0,0.0,1.0,0.0,0.602999999999998,0.602999999999998,0.0,0.0,0.0,55.0,616.79921,10000.0,85.000001,85.000001,85.000001,85.000001,395.0,0.0,0.0,0.0,1.0,166.665,52.887,52.887,48.004,48.004,34.0,-22.5225,26.378,-26.32,31.740000000000002,0.0,1782.267,-0.4450000000000003,100.0,27.456,27.532,42.309,42.442,0.0,0.0,100.0,0.0,0.0,0.0,0.0,3009.625,3190.7,4156.444444444444,4218.3,305.654,304.73725,314.704,314.4445,21.8947,20.5751,21.9016,21.4284,314.999998,314.999998,324.999988,324.999988,99.55904285714286,99.5074,99.56722857142857,99.54724285714286,0.10524999999999984,-0.02300000000000002,-0.0635,0.16533333333333336,-0.03166666666666629,-0.04999999999999716,1.542,1.492,37.842,29.59433333333333,37.885,34.9275,56.128,34.954,59.6495,52.4755,54.051,34.0775,58.2405,50.795,53.21,33.6105,58.170500000000004,50.201499999999996,-0.11050000000000004,-0.04300000000000015,0.105355,0.114265,0.0,210.41500000000002,210.49,207.30333333333334,207.30333333333334,0.0,0.0
13,0.0,0.0,0.0,1.0,1.0,0.0,0.0,1.0,0.0,100.0,1.0,1.1856,26.0,0.0,0.0,0.0,53.999996,0.0,26.0,26.0,26.0,26.0,0.07011111111111101,0.28380000000000005,0.052700000000000004,292.603,-2.73305,-2.6775,-1.58865,-1.5098,-232.26999999999998,216.035,190.724875,0.0,0.0,0.0,0.0,0.026833333333333334,-5.498166666666667,-5.498166666666667,-0.539,-0.093,0.022777777777777786,1.06,67.35300000000001,0.0369,-0.214925,-0.8959999999999999,100.0,1.0,1.0,207.7,0.0,0.0,0.0,0.0,0.0,0.0,0.0,8803.7,0.0,55.0,5.0,242.44,1.0,0.0,0.0,0.0,0.0,0.0,1.0,0.0,0.657,0.657,0.0,0.0,1.0,55.0,616.79921,10000.0,85.000001,85.000001,85.000001,85.000001,395.0,0.0,0.0,0.0,1.0,166.665,52.521,52.521,47.928,47.928,34.0,-20.68,27.988,-26.95,32.5225,0.0,1782.212,-0.879999999999999,100.0,27.786,27.741,42.551,42.957,0.0,0.0,100.0,0.0,0.0,0.0,0.0,3054.125,3184.3,4143.0,4353.3,305.492,304.744,314.69625,314.1005,21.9049,20.5809,21.9127,21.4382,314.999998,314.999998,324.999988,324.999988,99.55905714285714,99.5074,99.56737142857143,99.5474,0.15249999999999986,0.018000000000000016,-0.0635,0.15933333333333335,-0.02499999999999858,-0.05833333333333002,1.5070000000000001,1.4845000000000002,37.905,29.631,37.955,34.989,56.117999999999995,34.9945,59.689499999999995,52.542500000000004,54.041,34.1145,58.278,50.8595,53.198,33.6465,58.204499999999996,50.265,-0.14949999999999997,-0.00749999999999984,0.11398000000000001,0.100315,0.0,210.89,210.95,207.7,207.7,0.0,0.0
14,0.0,0.0,0.0,1.0,1.0,0.0,0.0,1.0,0.0,100.0,1.0,1.1856,26.0,0.0,0.0,0.0,53.999996,0.0,26.0,26.0,26.0,26.0,0.08666666666666667,0.2865,-0.0122,292.816,-2.73405,-2.619875,-1.63005,-1.5134,-229.03,216.015,190.704875,0.0,0.0,0.0,0.0,0.0287,-5.498166666666667,-5.498166666666667,-0.5491,-0.145,0.051444444444444404,1.42,67.48400000000001,0.0521,-0.22865000000000002,-1.0820000000000007,100.0,1.0,1.0,208.19333333333333,0.0,0.0,0.0,0.0,0.0,0.0,0.0,8824.5,0.0,55.0,5.0,242.91666666666666,0.0,0.0,0.0,0.0,0.0,0.0,1.0,0.0,0.7049999999999983,0.7049999999999983,0.0,0.0,0.0,55.0,616.79921,10000.0,85.000001,85.000001,85.000001,85.000001,395.0,0.0,0.0,0.0,1.0,333.33500000000004,52.612,52.612,48.157,48.157,34.0,-19.6825,28.622,-25.04,32.197500000000005,0.0,1782.162,-0.9349999999999987,100.0,27.722,27.795,42.51,43.143,0.0,0.0,100.0,0.0,0.0,0.0,0.0,2937.125,3256.4,3970.777777777778,4216.1,305.821,304.537,315.15925,314.44225,21.913899999999998,20.5861,21.9226,21.4469,314.999998,314.999998,324.999988,324.999988,99.55907142857143,99.5074,99.5675,99.54752857142857,0.15549999999999997,0.02833333333333332,-0.04666666666666666,0.17816666666666667,-0.054999999999999716,-0.04999999999999716,1.564,1.5105,37.962,29.663333333333334,38.016,35.043,56.108000000000004,35.03,59.7235,52.601,54.031,34.1475,58.3095,50.9155,53.188,33.678,58.233000000000004,50.3195,-0.1519999999999999,-0.0045000000000001705,0.10485000000000001,0.10239000000000001,0.0,211.29500000000002,211.36,208.19333333333333,208.19333333333333,0.0,0.0
15,0.0,0.0,0.0,1.0,1.0,0.0,0.0,1.0,0.0,100.0,1.0,1.1856,26.0,0.0,0.0,0.0,53.999996,0.0,26.0,26.0,26.0,26.0,0.11755555555555564,0.2802,0.007933333333333334,292.862,-2.70975,-2.5755,-1.63155,-1.4516,-225.79,215.995,190.684625,0.0,0.0,0.0,0.0,0.030600000000000002,-5.498166666666667,-5.498166666666667,-0.5405,0.3296666666666667,0.08399999999999985,1.2120000000000002,67.616,0.06670000000000001,-0.21027500000000002,-1.1959999999999997,100.0,1.0,1.0,208.59,0.0,0.0,0.0,0.0,0.0,0.0,0.0,8841.4,0.0,55.0,5.0,243.39,1.0,0.0,0.0,0.0,0.0,0.0,1.0,0.0,0.7530000000000001,0.7530000000000001,0.0,0.0,1.0,55.0,616.79921,10000.0,85.000001,85.000001,85.000001,85.000001,395.0,0.0,0.0,0.0,1.0,166.665,52.811,52.811,48.278999999999996,48.278999999999996,34.0,-17.8975,28.416,-24.16,33.9025,0.0,1782.116,-0.9400000000000013,100.0,27.693,27.882,42.226,43.214,0.0,0.0,100.0,0.0,0.0,0.0,0.0,2806.125,3231.8,3941.6666666666665,4378.8,306.1795,304.60525,315.24325,314.08275,21.9228,20.5914,21.932299999999998,21.4555,314.999998,314.999998,324.999988,324.999988,99.55908571428571,99.5074,99.56764285714286,99.54767142857143,0.17025000000000023,0.03866666666666685,-0.03233333333333334,0.20083333333333334,-0.03166666666666629,-0.051666666666669414,1.5495,1.5234999999999999,38.016999999999996,29.695999999999998,38.077,35.097,56.099000000000004,35.0665,59.756,52.6595,54.022,34.1815,58.3395,50.972,53.178,33.710499999999996,58.2605,50.375,-0.15300000000000002,-0.000500000000000167,0.10633000000000001,0.10871000000000001,0.0,211.715,211.78,208.59,208.59,0.0,0.0
16,0.0,0.0,0.0,1.0,1.0,0.0,0.0,1.0,0.0,100.0,1.0,1.1856,26.0,0.0,0.0,0.0,53.999996,0.0,26.0,26.0,26.0,26.0,0.12244444444444436,0.26239999999999997,-0.0074666666666666675,292.831,-2.80465,-2.58375,-1.5998,-1.5152,-222.13,215.975,190.66125,0.0,0.0,0.0,0.0,0.03273333333333333,-5.498166666666667,-5.498166666666667,-0.562,-0.7353333333333334,0.07033333333333314,0.08800000000000008,67.765,0.07740000000000001,-0.2262,-1.2279999999999998,100.0,1.0,1.0,209.05,0.0,0.0,0.0,0.0,0.0,0.0,0.0,8860.9,0.0,55.0,5.0,243.92666666666668,0.0,0.0,0.0,0.0,0.0,0.0,1.0,0.0,0.8069999999999986,0.8069999999999986,0.0,0.0,0.0,55.0,616.79921,10000.0,85.000001,85.000001,85.000001,85.000001,395.0,0.0,0.0,0.0,1.0,166.665,52.689,52.689,47.958,47.958,34.0,-19.65,29.560000000000002,-22.973333333333333,33.695,0.0,1782.063,-0.870000000000001,100.0,27.326999999999998,28.008,42.466,43.393,0.0,0.0,100.0,0.0,0.0,0.0,0.0,2945.25,3308.9,3927.3333333333335,4154.7,305.957,304.39825,315.2655,314.518,21.9325,20.5973,21.9434,21.4652,314.999998,314.999998,324.999988,324.999988,99.5591,99.50741666666667,99.5678,99.54782857142857,0.16900000000000004,0.04600000000000004,-0.019,0.21666666666666667,-0.04999999999999716,-0.046666666666666856,1.5565,1.5099999999999998,38.078,29.733333333333334,38.146,35.158,56.085,35.1085,59.795500000000004,52.725,54.009,34.2205,58.376,51.0355,53.163,33.748,58.2935,50.4375,-0.1439999999999999,-0.010499999999999954,0.10456000000000001,0.11449500000000001,0.0,212.12,212.215,209.05,209.05,0.0,0.0
17,0.0,0.0,0.0,1.0,1.0,0.0,0.0,1.0,0.0,100.0,1.0,1.1856,26.0,0.0,0.0,0.0,53.999996,0.0,26.0,26.0,26.0,26.0,0.11555555555555563,0.2923,0.023333333333333334,292.465,-2.7674,-2.561125,-1.6416,-1.4756,-218.68,215.96,190.638625,0.0,0.0,0.0,0.0,0.03473333333333333,-5.498166666666667,-5.498166666666667,-0.5503,0.4896666666666667,0.0474444444444444,-0.6930000000000001,67.904,0.07970000000000001,-0.20685,-1.064,100.0,1.0,1.0,209.42000000000002,0.0,0.0,0.0,0.0,0.0,0.0,0.0,8876.6,0.0,55.0,5.0,244.42333333333335,1.0,0.0,0.0,0.0,0.0,0.0,1.0,0.0,0.8580000000000005,0.8580000000000005,0.0,0.0,1.0,55.0,616.79921,10000.0,85.000001,85.000001,85.000001,85.000001,395.0,0.0,0.0,0.0,1.0,166.665,52.399,52.399,47.745,47.745,34.0,-20.54,26.988,-26.523333333333333,33.587500000000006,0.0,1782.012,-0.6750000000000007,100.0,27.677,28.407,42.188,43.445,0.0,0.0,100.0,0.0,0.0,0.0,0.0,3101.125,3093.8,4290.111111111111,4286.6,305.581,304.89275,314.554,314.26425,21.942,20.603,21.9537,21.4744,314.999998,314.999998,324.999988,324.999988,99.55912857142857,99.50743333333334,99.56794285714285,99.54797142857143,0.1665000000000001,0.035666666666666735,-0.02716666666666667,0.20083333333333334,-0.054999999999999716,-0.05333333333332746,1.5350000000000001,1.4985,38.138,29.769,38.211,35.215,56.077,35.15,59.8305,52.786500000000004,54.001000000000005,34.2585,58.408500000000004,51.095,53.153999999999996,33.7845,58.3225,50.4955,-0.1419999999999999,-0.01650000000000018,0.11069000000000001,0.1072,0.0,212.61,212.68,209.42000000000002,209.42000000000002,0.0,0.0
18,0.0,0.0,0.0,1.0,1.0,0.0,0.0,1.0,0.0,100.0,1.0,1.1856,26.0,0.0,0.0,0.0,53.999996,0.0,26.0,26.0,26.0,26.0,0.08133333333333326,0.28,-0.0267,292.587,-2.79395,-2.54425,-1.64775,-1.4299,-215.62,215.95,190.619,0.0,0.0,0.0,0.0,0.036500000000000005,-5.498166666666667,-5.498166666666667,-0.559,-0.5690000000000001,0.06488888888888877,0.8580000000000001,68.026,0.0799,-0.221975,-0.8179999999999996,100.0,1.0,1.0,209.82666666666665,0.0,0.0,0.0,0.0,0.0,0.0,0.0,8893.7,0.0,55.0,5.0,244.86666666666667,0.0,0.0,0.0,0.0,0.0,0.0,1.0,0.0,0.9029999999999987,0.9029999999999987,0.0,0.0,0.0,55.0,616.79921,10000.0,85.000001,85.000001,85.000001,85.000001,395.0,0.0,0.0,0.0,1.0,166.665,52.521,52.521,47.791,47.791,34.0,-21.175,27.688,-24.626666666666665,32.010000000000005,0.0,1781.966,-0.17999999999999972,100.0,27.613,28.041,42.646,43.709,0.0,0.0,100.0,0.0,0.0,0.0,0.0,2972.375,3318.2,4012.8888888888887,4184.1,305.8635,304.4585,315.0965,314.5475,21.9503,20.608,21.963,21.482599999999998,314.999998,314.999998,324.999988,324.999988,99.55914285714286,99.50743333333334,99.56805714285714,99.54811428571429,0.13600000000000012,0.011333333333333417,-0.0265,0.20383333333333334,-0.05333333333332746,-0.04999999999999716,1.544,1.5179999999999998,38.189,29.799999999999997,38.269,35.2665,56.067,35.1835,59.8635,52.8425,53.991,34.289500000000004,58.439,51.149,53.144,33.8145,58.3505,50.548500000000004,-0.09499999999999997,-0.05500000000000016,0.11048500000000001,0.1092,0.0,212.965,213.005,209.82666666666665,209.82666666666665,0.0,0.0
19,0.0,0.0,0.0,1.0,1.0,0.0,0.0,1.0,0.0,100.0,1.0,1.1856,26.0,0.0,0.0,0.0,53.999996,0.0,26.0,26.0,26.0,26.0,0.04688888888888898,0.29390000000000005,0.03896666666666667,291.931,-2.6963,-2.5465,-1.6480000000000001,-1.4302000000000001,-211.94,215.94,190.595,0.0,0.0,0.0,0.0,0.03866666666666667,-5.498166666666667,-5.498166666666667,-0.5498000000000001,0.8486666666666667,0.05511111111111111,0.4820000000000002,68.172,0.0695,-0.21080000000000002,-0.2579999999999991,100.0,1.0,1.0,210.2266666666667,0.0,0.0,0.0,0.0,0.0,0.0,0.0,8910.8,0.0,55.0,5.0,245.39,1.0,0.0,0.0,0.0,0.0,0.0,1.0,0.0,0.9570000000000007,0.9570000000000007,0.0,0.0,1.0,55.0,616.79921,10000.0,85.000001,85.000001,85.000001,85.000001,395.0,0.0,0.0,0.0,1.0,166.665,51.666,51.666,47.455,47.455,34.0,-22.099999999999998,26.75,-27.136666666666663,32.78,0.0,1781.913,0.1999999999999993,100.0,28.281,28.481,42.562,43.573,0.0,0.0,100.0,0.0,0.0,0.0,0.0,3066.875,3348.8,4227.222222222223,4415.6,305.382,304.22,314.62975,314.04975,21.9604,20.6141,21.974,21.4923,314.999998,314.999998,324.999988,324.999988,99.55915714285715,99.50743333333334,99.56821428571429,99.54825714285714,0.11724999999999985,-0.02066666666666661,-0.043500000000000004,0.17933333333333334,-0.045000000000001705,-0.04333333333332945,1.5335,1.5114999999999998,38.253,29.838,38.338,35.327,56.056,35.226,59.9,52.9075,53.980999999999995,34.329499999999996,58.473,51.2115,53.132,33.853,58.3815,50.61,-0.06699999999999995,-0.09299999999999997,0.11009000000000001,0.10500500000000001,0.0,213.465,213.485,210.2266666666667,210.2266666666667,0.0,0.0
20,0.0,0.0,0.0,1.0,1.0,0.0,0.0,1.0,0.0,100.0,1.0,1.1856,26.0,0.0,0.0,0.0,53.999996,0.0,26.0,26.0,26.0,26.0,0.023555555555555552,0.2734000000000001,0.016800000000000002,292.282,-2.77595,-2.631125,-1.5587,-1.4545,-208.66,215.9325,190.574,0.0,0.0,0.0,0.0,0.04056666666666667,-5.498166666666667,-5.498166666666667,-0.552,-1.1243333333333332,0.03633333333333311,0.07100000000000017,68.303,0.0448,-0.219475,0.22799999999999976,100.0,1.0,1.0,210.53,0.0,0.0,0.0,0.0,0.0,0.0,0.0,8923.6,0.0,55.0,5.0,245.86333333333334,0.0,0.0,0.0,0.0,0.0,0.0,0.0,0.0,1.004999999999999,1.004999999999999,0.0,0.0,0.0,55.0,616.79921,10000.0,85.000001,85.000001,85.000001,85.000001,395.0,0.0,0.0,0.0,1.0,333.33500000000004,52.887,52.887,46.799,46.799,34.0,-22.6875,24.328,-27.426666666666666,31.765,0.0,1781.863,0.40000000000000213,100.0,27.73,28.045,43.353,43.796,0.0,0.0,100.0,0.0,0.0,0.0,0.0,2892.75,3126.3,4204.0,4378.2,306.121,304.963,314.51925,314.04475,21.9691,20.6193,21.984099999999998,21.5011,314.999998,314.999998,324.999988,324.999988,99.55917142857143,99.50743333333334,99.56835714285714,99.54841428571429,0.07725000000000026,-0.046666666666666634,-0.06716666666666667,0.15333333333333335,-0.041666666666671404,-0.061666666666667425,1.471,1.4625,38.307,29.870666666666665,38.4,35.382,56.041,35.262,59.938,52.966499999999996,53.966,34.3625,58.507999999999996,51.2685,53.117,33.8845,58.4135,50.6665,-0.03699999999999992,-0.10950000000000015,0.10408,0.10611000000000001,0.0,213.86,213.815,210.53,210.53,0.0,0.0
21,0.0,0.0,0.0,1.0,1.0,0.0,0.0,1.0,0.0,100.0,1.0,1.1856,26.0,0.0,0.0,0.0,53.999996,0.0,26.0,26.0,26.0,26.0,-0.01822222222222214,0.27049999999999996,-0.0762,292.725,-2.66495,-2.7117500000000003,-1.60315,-1.5458,-205.38,215.9275,190.552375,0.0,0.0,0.0,0.0,0.04246666666666667,-5.498166666666667,-5.498166666666667,-0.5787,0.451,-0.001777777777777878,-0.14300000000000002,68.42699999999999,0.008400000000000001,-0.22717500000000002,0.6320000000000006,100.0,1.0,1.0,211.19333333333333,0.0,0.0,0.0,0.0,0.0,0.0,0.0,8951.7,0.0,55.0,5.0,246.31,1.0,0.0,0.0,0.0,0.0,0.0,0.0,0.0,1.0530000000000008,1.0530000000000008,0.0,0.0,1.0,55.0,616.79921,10000.0,85.000001,85.000001,85.000001,85.000001,395.0,0.0,0.0,0.0,1.0,166.665,52.277,52.277,48.400999999999996,48.400999999999996,34.0,-24.065,24.354,-27.62,26.8875,0.0,1781.817,0.33500000000000085,100.0,28.196,27.993,42.853,43.186,0.0,0.0,100.0,0.0,0.0,0.0,0.0,3092.5,3117.2,3977.6666666666665,3944.5,305.351,304.9095,315.26825,315.1465,21.9781,20.6246,21.9937,21.5096,314.999998,314.999998,324.999988,324.999988,99.55918571428572,99.50745,99.56848571428571,99.54854285714286,0.06950000000000012,-0.06333333333333335,-0.10833333333333334,0.11900000000000001,-0.04833333333333201,-0.051666666666669414,1.5705,1.6044999999999998,38.363,29.903666666666666,38.461,35.435,56.028,35.2995,59.9685,53.019999999999996,53.954,34.3975,58.536500000000004,51.32,53.103,33.918,58.439,50.716499999999996,-0.04849999999999999,-0.10950000000000015,0.103595,0.10935500000000001,0.0,214.285,214.215,211.19333333333333,211.19333333333333,0.0,0.0
22,0.0,0.0,0.0,1.0,1.0,0.0,0.0,1.0,0.0,100.0,1.0,1.1856,26.0,0.0,0.0,0.0,53.999996,0.0,26.0,26.0,26.0,26.0,-0.0441111111111111,0.27070000000000016,-0.004266666666666667,292.175,-2.63275,-2.729625,-1.58725,-1.5451000000000001,-201.68,215.92000000000002,190.52725,0.0,0.0,0.0,0.0,0.0446,-5.498166666666667,-5.498166666666667,-0.5562,0.04133333333333334,-0.0076666666666667105,0.8820000000000001,68.575,-0.023700000000000002,-0.204025,0.6820000000000004,100.0,1.0,1.0,211.41,0.0,0.0,0.0,0.0,0.0,0.0,0.0,8960.9,0.0,55.0,5.0,246.84333333333336,0.0,0.0,0.0,0.0,0.0,0.0,0.0,0.0,1.1069999999999993,1.1069999999999993,0.0,0.0,0.0,55.0,616.79921,10000.0,85.000001,85.000001,85.000001,85.000001,395.0,0.0,0.0,0.0,1.0,166.665,52.429,52.429,47.104,47.104,34.0,-23.54,22.855999999999998,-32.05,28.3575,0.0,1781.763,0.245000000000001,100.0,28.377,27.966,43.502,43.269999999999996,0.0,0.0,100.0,0.0,0.0,0.0,0.0,2970.125,3061.0,4234.444444444444,4334.6,305.6785,305.06975,314.547,314.226,21.9882,20.6304,22.005,21.5193,314.999998,314.999998,324.999988,324.999988,99.55918571428572,99.50745,99.56864285714286,99.54868571428571,0.04974999999999996,-0.09166666666666656,-0.14383333333333334,0.07883333333333332,-0.030000000000001137,-0.07666666666666799,1.476,1.504,38.426,29.940333333333335,38.531,35.496,56.013,35.342,60.0105,53.084,53.94,34.4365,58.5755,51.382,53.088,33.956,58.475,50.777,-0.05899999999999994,-0.10099999999999998,0.11155000000000001,0.10665000000000001,0.0,214.72,214.68,211.41,211.41,0.0,0.0
23,0.0,0.0,0.0,1.0,1.0,0.0,0.0,1.0,0.0,100.0,1.0,1.1856,26.0,0.0,0.0,0.0,53.999996,0.0,26.0,26.0,26.0,26.0,-0.05733333333333335,0.2551000000000001,-0.0005,292.099,-2.64955,-2.693,-1.5039,-1.6213000000000002,-198.39,215.91,190.505125,0.0,0.0,0.0,0.0,0.046533333333333336,-5.498166666666667,-5.498166666666667,-0.5755,-0.3686666666666667,-0.021777777777777896,0.4700000000000002,68.701,-0.0364,-0.23197500000000001,0.6639999999999997,100.0,1.0,1.0,211.88666666666666,0.0,0.0,0.0,0.0,0.0,0.0,0.0,8981.1,0.0,55.0,5.0,247.3,1.0,0.0,0.0,0.0,0.0,0.0,0.0,0.0,1.1550000000000011,1.1550000000000011,0.0,0.0,1.0,55.0,616.79921,10000.0,85.000001,85.000001,85.000001,85.000001,395.0,0.0,0.0,0.0,1.0,333.33500000000004,51.712,51.712,48.019,48.019,34.0,-27.3725,23.055999999999997,-28.703333333333333,26.655,0.0,1781.712,0.245000000000001,100.0,28.665,27.961,43.749,43.406,0.0,0.0,100.0,0.0,0.0,0.0,0.0,3344.625,3127.2,3967.777777777778,4026.0,304.707,304.954,315.12025,314.84525,21.9972,20.6356,22.015,21.528,314.999998,314.999998,324.999988,324.999988,99.5592,99.50746666666667,99.56878571428571,99.54884285714286,0.041749999999999954,-0.09033333333333338,-0.14833333333333334,0.07100000000000001,-0.03333333333333144,-0.060000000000002274,1.514,1.5255,38.483000000000004,29.972666666666665,38.594,35.55,55.998999999999995,35.3805,60.046,53.1405,53.927,34.472,58.609,51.436,53.075,33.99,58.504999999999995,50.83,-0.0605,-0.0950000000000002,0.10292000000000001,0.10768000000000001,0.0,215.10000000000002,215.05,211.88666666666666,211.88666666666666,0.0,0.0
24,0.0,0.0,0.0,1.0,1.0,0.0,0.0,1.0,0.0,100.0,1.0,1.1856,26.0,0.0,0.0,0.0,53.999996,0.0,26.0,26.0,26.0,26.0,-0.07055555555555548,0.27970000000000006,-0.059366666666666665,292.389,-2.6698,-2.706375,-1.5441500000000001,-1.5649000000000002,-195.09,215.9,190.482625,0.0,0.0,0.0,0.0,0.048433333333333335,-5.498166666666667,-5.498166666666667,-0.5786,-0.49633333333333335,-0.016555555555555657,1.0220000000000002,68.82900000000001,-0.0414,-0.217875,0.5260000000000007,100.0,1.0,1.0,212.21333333333334,0.0,0.0,0.0,0.0,0.0,0.0,0.0,8995.0,0.0,55.0,5.0,247.75666666666666,0.0,0.0,0.0,0.0,0.0,0.0,0.0,0.0,1.2029999999999994,1.2029999999999994,0.0,0.0,0.0,55.0,616.79921,10000.0,85.000001,85.000001,85.000001,85.000001,395.0,0.0,0.0,0.0,1.0,166.665,52.872,52.872,47.165,47.165,34.0,-24.21,21.11,-32.63333333333333,26.8475,0.0,1781.666,0.16000000000000014,100.0,28.486,27.693,43.741,43.229,0.0,0.0,100.0,0.0,0.0,0.0,0.0,2955.625,2942.1,4299.444444444444,4133.7,305.816,305.55675,314.3485,314.684,22.0062,20.6407,22.0249,21.5366,314.999998,314.999998,324.999988,324.999988,99.5592,99.50748333333334,99.56892857142857,99.54897142857143,0.03500000000000014,-0.10133333333333339,-0.156,0.07483333333333334,-0.02833333333332888,-0.041666666666671404,1.5,1.5150000000000001,38.539,30.004666666666665,38.655,35.604,55.985,35.417500000000004,60.0815,53.195499999999996,53.913,34.506,58.641999999999996,51.489,53.06,34.0225,58.5355,50.8815,-0.06400000000000006,-0.09450000000000003,0.10418000000000001,0.11028,0.0,215.495,215.445,212.21333333333334,212.21333333333334,0.0,0.0
25,0.0,0.0,0.0,1.0,1.0,0.0,0.0,1.0,0.0,100.0,1.0,1.1856,26.0,0.0,0.0,0.0,53.999996,0.0,26.0,26.0,26.0,26.0,-0.044333333333333336,0.25849999999999995,-0.06816666666666667,292.419,-2.7389,-2.667,-1.5585499999999999,-1.5684,-191.57,215.89,190.4575,0.0,0.0,0.0,0.0,0.0505,-5.498166666666667,-5.498166666666667,-0.6131,-0.10400000000000001,-0.01622222222222236,-1.101,68.961,-0.0473,-0.226825,0.5499999999999998,100.0,1.0,1.0,212.7733333333333,0.0,0.0,0.0,0.0,0.0,0.0,0.0,9018.6,0.0,55.0,5.0,248.23333333333335,1.0,0.0,0.0,0.0,0.0,0.0,0.0,0.0,1.2540000000000013,1.2540000000000013,0.0,0.0,1.0,55.0,616.79921,10000.0,85.000001,85.000001,85.000001,85.000001,395.0,0.0,0.0,0.0,1.0,166.665,51.971000000000004,51.971000000000004,48.019,48.019,34.0,-28.12,22.926,-29.52,24.942500000000003,0.0,1781.614,0.030000000000001137,100.0,28.252,28.017,43.428,42.993,0.0,0.0,100.0,0.0,0.0,0.0,0.0,3333.75,3165.3,3970.8888888888887,3974.6000000000004,304.9975,304.709,315.27,315.05525,22.0156,20.6463,22.0353,21.5457,314.999998,314.999998,324.999988,324.999988,99.5592,99.5075,99.56907142857143,99.54911428571428,0.03500000000000014,-0.09866666666666657,-0.16,0.06416666666666668,-0.05833333333333002,-0.041666666666671404,1.576,1.569,38.597,30.039,38.721000000000004,35.6605,55.968,35.4585,60.1165,53.2515,53.897,34.544,58.675,51.543,53.043,34.059,58.565,50.9345,-0.07600000000000007,-0.08450000000000024,0.10212500000000001,0.10906500000000001,0.0,215.91,215.85000000000002,212.7733333333333,212.7733333333333,0.0,0.0
26,0.0,0.0,0.0,1.0,1.0,0.0,0.0,1.0,0.0,100.0,1.0,1.1856,26.0,0.0,0.0,0.0,53.999996,0.0,26.0,26.0,26.0,26.0,-0.06688888888888889,0.2753000000000001,0.0733,291.168,-2.6779,-2.7512499999999998,-1.59925,-1.5659,-188.05,215.8775,190.431625,0.0,0.0,0.0,0.0,0.05253333333333334,-5.498166666666667,-5.498166666666667,-0.5731,0.7943333333333333,-0.03622222222222238,0.7490000000000001,69.098,-0.0465,-0.19742500000000002,0.3380000000000001,100.0,1.0,1.0,212.92000000000002,0.0,0.0,0.0,0.0,0.0,0.0,0.0,9024.9,0.0,55.0,5.0,248.72333333333336,0.0,0.0,0.0,0.0,0.0,0.0,0.0,0.0,1.3049999999999997,1.3049999999999997,0.0,0.0,0.0,55.0,616.79921,10000.0,85.000001,85.000001,85.000001,85.000001,395.0,0.0,0.0,0.0,1.0,333.33500000000004,51.315,51.315,46.295,46.295,34.0,-25.7775,23.686,-35.35333333333333,30.080000000000002,0.0,1781.563,-0.129999999999999,100.0,29.314,28.539,43.961,43.272999999999996,0.0,0.0,100.0,0.0,0.0,0.0,0.0,3212.25,3117.0,4551.666666666667,4493.0,305.005,304.8695,313.8455,313.84575,22.0253,20.652,22.0459,21.5549,314.999998,314.999998,324.999988,324.999988,99.55921428571429,99.5075,99.56921428571428,99.54925714285714,0.05874999999999986,-0.08933333333333338,-0.14466666666666667,0.07583333333333334,-0.054999999999999716,-0.04999999999999716,1.435,1.439,38.658,30.075,38.787,35.7185,55.957,35.5015,60.1565,53.312,53.885999999999996,34.584,58.712,51.601,53.031,34.097,58.5995,50.991,-0.09149999999999991,-0.07799999999999985,0.10056000000000001,0.11234500000000001,0.0,216.375,216.31,212.92000000000002,212.92000000000002,0.0,0.0
27,0.0,0.0,0.0,1.0,1.0,0.0,0.0,1.0,0.0,100.0,1.0,1.1856,26.0,0.0,0.0,0.0,53.999996,0.0,26.0,26.0,26.0,26.0,-0.040000000000000036,0.26049999999999995,0.0046,291.534,-2.6516,-2.712625,-1.5965500000000001,-1.6346,-184.73000000000002,215.8625,190.4085,0.0,0.0,0.0,0.0,0.05446666666666666,-5.498166666666667,-5.498166666666667,-0.596,-1.056,-0.029555555555555557,0.8490000000000002,69.22200000000001,-0.0376,-0.243175,0.0940000000000003,100.0,1.0,1.0,213.37666666666667,0.0,0.0,0.0,0.0,0.0,0.0,0.0,9044.3,0.0,55.0,5.0,249.17666666666668,1.0,0.0,0.0,0.0,0.0,0.0,0.0,0.0,1.352999999999998,1.352999999999998,0.0,0.0,1.0,55.0,616.79921,10000.0,85.000001,85.000001,85.000001,85.000001,395.0,0.0,0.0,0.0,1.0,166.665,51.712,51.712,46.6,46.6,34.0,-24.0975,24.034,-31.266666666666666,28.4525,0.0,1781.517,-0.1999999999999993,100.0,28.973,28.351,44.657,43.978,0.0,0.0,100.0,0.0,0.0,0.0,0.0,3114.375,3149.7,4127.666666666667,4133.8,305.305,304.89275,314.76925,314.587,22.0342,20.6572,22.056,21.5638,314.999998,314.999998,324.999988,324.999988,99.55922857142858,99.50751666666666,99.56935714285714,99.5494,0.07074999999999987,-0.07633333333333336,-0.14366666666666666,0.08266666666666668,-0.02833333333332888,-0.06833333333332803,1.4795,1.495,38.714,30.107333333333333,38.849999999999994,35.774,55.943,35.539500000000004,60.1945,53.37,53.873000000000005,34.619,58.748,51.657,53.016999999999996,34.1305,58.632,51.045500000000004,-0.10349999999999993,-0.06550000000000011,0.10239000000000001,0.10287,0.0,216.675,216.67000000000002,213.37666666666667,213.37666666666667,0.0,0.0
28,0.0,0.0,0.0,1.0,1.0,0.0,0.0,1.0,0.0,100.0,1.0,1.1856,26.0,0.0,0.0,0.0,53.999996,0.0,26.0,26.0,26.0,26.0,-0.028111111111111087,0.2673000000000001,-0.05353333333333334,291.931,-2.6776,-2.697375,-1.5500500000000001,-1.59,-181.2,215.8475,190.38325,0.0,0.0,0.0,0.0,0.05653333333333334,-5.498166666666667,-5.498166666666667,-0.6034,0.629,-0.031444444444444386,-0.48099999999999987,69.352,-0.024,-0.220525,0.04600000000000026,100.0,1.0,1.0,213.92333333333335,0.0,0.0,0.0,0.0,0.0,0.0,0.0,9067.5,0.0,55.0,5.0,249.64,0.0,0.0,0.0,0.0,0.0,0.0,0.0,0.0,1.404,1.404,0.0,0.0,0.0,55.0,616.79921,10000.0,85.000001,85.000001,85.000001,85.000001,395.0,0.0,0.0,0.0,1.0,166.665,51.743,51.743,47.653,47.653,34.0,-25.835,22.774,-29.419999999999998,27.0325,0.0,1781.465,-0.2049999999999983,100.0,28.802,28.466,43.79,43.516999999999996,0.0,0.0,100.0,0.0,0.0,0.0,0.0,3288.25,3010.9,4050.4444444444443,4090.9,305.0055,305.11225,315.0795,314.7735,22.0437,20.6628,22.0663,21.5729,314.999998,314.999998,324.999988,324.999988,99.55922857142858,99.50753333333333,99.5695,99.54955714285714,0.06674999999999986,-0.07966666666666666,-0.14316666666666666,0.0805,-0.06499999999999773,-0.041666666666671404,1.5525,1.556,38.772999999999996,30.142666666666663,38.914,35.8305,55.93,35.58,60.2275,53.426,53.861000000000004,34.6565,58.7785,51.710499999999996,53.004999999999995,34.1665,58.6595,51.098,-0.10299999999999998,-0.06499999999999995,0.1068,0.1015,0.0,217.13,217.11,213.92333333333335,213.92333333333335,0.0,0.0
29,0.0,0.0,0.0,1.0,1.0,0.0,0.0,1.0,0.0,100.0,1.0,1.1856,26.0,0.0,0.0,0.0,53.999996,0.0,26.0,26.0,26.0,26.0,-0.004888888888888943,0.26770000000000005,0.0217,291.534,-2.6365,-2.73775,-1.5551,-1.5615,-177.66,215.82999999999998,190.356875,0.0,0.0,0.0,0.0,0.05856666666666666,-5.498166666666667,-5.498166666666667,-0.6049,-0.7043333333333334,-0.01811111111111119,0.9370000000000003,69.487,-0.0094,-0.216225,-0.17600000000000016,100.0,1.0,1.0,214.14333333333332,0.0,0.0,0.0,0.0,0.0,0.0,0.0,9076.8,0.0,55.0,5.0,250.12666666666667,1.0,0.0,0.0,0.0,0.0,0.0,0.0,0.0,1.4549999999999983,1.4549999999999983,0.0,0.0,1.0,55.0,616.79921,10000.0,85.000001,85.000001,85.000001,85.000001,395.0,0.0,0.0,0.0,1.0,333.33500000000004,51.834,51.834,46.478,46.478,34.0,-23.5425,25.458,-30.29,30.29,0.0,1781.412,-0.23499999999999943,100.0,28.59,28.205,44.182,43.804,0.0,0.0,100.0,0.0,0.0,0.0,0.0,3124.125,3190.8,4225.777777777777,4301.9,305.3345,304.6335,314.496,314.25075,22.0529,20.6684,22.0769,21.5822,314.999998,314.999998,324.999988,324.999988,99.55924285714286,99.50753333333333,99.56965714285714,99.5497,0.0807500000000001,-0.06099999999999994,-0.11816666666666667,0.10933333333333332,-0.03499999999999659,-0.046666666666666856,1.4815,1.4659999999999997,38.831,30.177333333333333,38.980999999999995,35.888999999999996,55.915,35.6185,60.266999999999996,53.4865,53.847,34.692,58.815,51.769,52.989999999999995,34.2005,58.693,51.1545,-0.09850000000000003,-0.06050000000000022,0.11006,0.11157,0.0,217.48000000000002,217.505,214.14333333333332,214.14333333333332,0.0,0.0
30,0.0,0.0,0.0,1.0,1.0,0.0,0.0,1.0,0.0,100.0,1.0,1.1856,26.0,0.0,0.0,0.0,53.999996,0.0,26.0,26.0,26.0,26.0,0.008888888888888946,0.26859999999999995,0.057966666666666666,291.077,-2.7005,-2.617375,-1.53465,-1.6165,-174.32,215.815,190.331875,0.0,0.0,0.0,0.0,0.06053333333333334,-5.498166666666667,-5.498166666666667,-0.6061000000000001,0.7973333333333333,-0.014888888888889174,0.641,69.608,-0.0016,-0.22007500000000002,-0.15200000000000014,100.0,1.0,1.0,214.60000000000002,0.0,0.0,0.0,0.0,0.0,0.0,0.0,9096.1,0.0,55.0,5.0,250.56333333333333,0.0,0.0,0.0,0.0,0.0,0.0,1.0,0.0,1.5030000000000001,1.5030000000000001,0.0,0.0,0.0,55.0,616.79921,10000.0,85.000001,85.000001,85.000001,85.000001,395.0,0.0,0.0,0.0,1.0,333.33500000000004,50.705,50.705,46.967,46.967,34.0,-25.36,25.374000000000002,-28.596666666666668,31.462500000000002,0.0,1781.364,-0.3000000000000007,100.0,29.336,28.982,43.921,43.861000000000004,0.0,0.0,100.0,0.0,0.0,0.0,0.0,3335.125,3258.9,4182.0,4280.2,304.654,304.4415,314.7155,314.259,22.0619,20.6739,22.0867,21.5909,314.999998,314.999998,324.999988,324.999988,99.55925714285715,99.50755,99.5698,99.54982857142858,0.09675000000000011,-0.050999999999999934,-0.10250000000000001,0.12183333333333334,-0.03333333333333144,-0.06333333333333258,1.4915,1.5044999999999997,38.887,30.212,39.042,35.9435,55.906,35.658,60.299,53.542,53.838,34.729,58.845,51.8225,52.980000000000004,34.236000000000004,58.72,51.207,-0.10650000000000004,-0.06349999999999989,0.10429500000000001,0.115555,0.0,217.88,217.925,214.60000000000002,214.60000000000002,0.0,0.0
31,0.0,0.0,0.0,1.0,1.0,0.0,0.0,1.0,0.0,100.0,1.0,1.1856,26.0,0.0,0.0,0.0,53.999996,0.0,26.0,26.0,26.0,26.0,-0.002666666666666595,0.24940000000000007,0.0074,290.985,-2.7656,-2.59925,-1.58185,-1.6127,-170.56,215.7975,190.304625,0.0,0.0,0.0,0.0,0.0627,-5.498166666666667,-5.498166666666667,-0.5906,-0.6063333333333334,-0.006888888888889166,0.6230000000000002,69.748,0.0054,-0.22130000000000002,-0.2679999999999998,100.0,1.0,1.0,214.92666666666668,0.0,0.0,0.0,0.0,0.0,0.0,0.0,9109.9,0.0,55.0,5.0,251.06666666666666,1.0,0.0,0.0,0.0,0.0,0.0,1.0,0.0,1.5569999999999986,1.5569999999999986,0.0,0.0,1.0,55.0,616.79921,10000.0,85.000001,85.000001,85.000001,85.000001,395.0,0.0,0.0,0.0,1.0,166.665,51.3,51.3,45.624,45.624,34.0,-23.3175,26.238,-29.826666666666668,31.755,0.0,1781.312,-0.3999999999999986,100.0,29.016,28.921,44.631,44.592,0.0,0.0,100.0,0.0,0.0,0.0,0.0,3127.75,3330.6,4293.444444444444,4261.9,305.439,304.446,314.34275,314.432,22.0718,20.68,22.098,21.601,314.999998,314.999998,324.999988,324.999988,99.55927142857144,99.50755,99.56995714285715,99.55,0.11149999999999993,-0.03700000000000003,-0.09016666666666667,0.12983333333333336,-0.02833333333332888,-0.051666666666669414,1.461,1.4474999999999998,38.948,30.250333333333334,39.113,36.006,55.894,35.7005,60.341,53.608000000000004,53.826,34.768,58.884,51.885999999999996,52.967,34.2735,58.7555,51.269,-0.119,-0.05500000000000016,0.10285000000000001,0.103035,0.0,218.285,218.32999999999998,214.92666666666668,214.92666666666668,0.0,0.0
32,0.0,0.0,0.0,1.0,1.0,0.0,0.0,1.0,0.0,100.0,1.0,1.1856,26.0,0.0,0.0,0.0,53.999996,0.0,26.0,26.0,26.0,26.0,0.005333333333333412,0.26580000000000004,-0.06976666666666667,291.245,-2.7008,-2.70125,-1.64725,-1.5221,-167.20999999999998,215.7825,190.2805,0.0,0.0,0.0,0.0,0.06466666666666666,-5.498166666666667,-5.498166666666667,-0.6053000000000001,0.08533333333333333,-0.03000000000000025,0.2520000000000002,69.867,0.0146,-0.22625,-0.3719999999999999,100.0,1.0,1.0,215.42333333333335,0.0,0.0,0.0,0.0,0.0,0.0,0.0,9130.9,0.0,55.0,5.0,251.49666666666667,0.0,0.0,0.0,0.0,0.0,0.0,1.0,0.0,1.6050000000000004,1.6050000000000004,0.0,0.0,0.0,55.0,616.79921,10000.0,85.000001,85.000001,85.000001,85.000001,395.0,0.0,0.0,0.0,1.0,166.665,51.346000000000004,51.346000000000004,46.524,46.524,34.0,-23.325,26.02,-29.426666666666666,30.0225,0.0,1781.264,-0.39000000000000057,100.0,29.003,28.966,44.313,44.385999999999996,0.0,0.0,100.0,0.0,0.0,0.0,0.0,3183.25,3172.1,4202.666666666667,4236.6,305.1725,304.776,314.758,314.52825,22.0805,20.6855,22.1078,21.6097,314.999998,314.999998,324.999988,324.999988,99.55928571428572,99.50756666666666,99.5701,99.55012857142857,0.11100000000000021,-0.03400000000000003,-0.09066666666666667,0.133,-0.04333333333332945,-0.04999999999999716,1.534,1.5270000000000001,39.003,30.284333333333336,39.174,36.0605,55.882999999999996,35.738,60.3735,53.6625,53.816,34.803,58.914500000000004,51.9385,52.955,34.307,58.783,51.32,-0.11499999999999999,-0.053999999999999826,0.10700000000000001,0.10418000000000001,0.0,218.695,218.71,215.42333333333335,215.42333333333335,0.0,0.0
33,0.0,0.0,0.0,1.0,1.0,0.0,0.0,1.0,0.0,100.0,1.0,1.1856,26.0,0.0,0.0,0.0,53.999996,0.0,26.0,26.0,26.0,26.0,0.01722222222222225,0.27080000000000015,-0.0536,291.397,-2.7151,-2.690625,-1.58285,-1.5955,-163.85,215.76749999999998,190.2555,0.0,0.0,0.0,0.0,0.0666,-5.498166666666667,-5.498166666666667,-0.6117,-0.35133333333333333,-0.02011111111111097,1.259,69.99000000000001,0.02,-0.2164,-0.32399999999999984,100.0,1.0,1.0,215.72333333333333,0.0,0.0,0.0,0.0,0.0,0.0,0.0,9143.7,0.0,55.0,5.0,251.94,1.0,0.0,0.0,0.0,0.0,0.0,1.0,0.0,1.6529999999999987,1.6529999999999987,0.0,0.0,1.0,55.0,616.79921,10000.0,85.000001,85.000001,85.000001,85.000001,395.0,0.0,0.0,0.0,1.0,166.665,51.804,51.804,46.463,46.463,34.0,-22.155,25.439999999999998,-28.673333333333332,31.7825,0.0,1781.215,-0.4250000000000007,100.0,28.839,28.739,44.262,44.432,0.0,0.0,100.0,0.0,0.0,0.0,0.0,3052.25,3118.2,4184.111111111111,4292.0,305.608,304.95325,314.67775,314.326,22.0893,20.6908,22.1177,21.6184,314.999998,314.999998,324.999988,324.999988,99.5593,99.50756666666666,99.57024285714286,99.55027142857143,0.11425000000000018,-0.033333333333333326,-0.09083333333333334,0.13266666666666665,-0.030000000000001137,-0.054999999999999716,1.509,1.4945,39.058,30.317333333333334,39.236000000000004,36.1155,55.872,35.772999999999996,60.407,53.7185,53.806,34.835,58.946,51.9925,52.944,34.338,58.811,51.373,-0.11349999999999993,-0.052999999999999936,0.10727500000000001,0.10594,0.0,219.065,219.07,215.72333333333333,215.72333333333333,0.0,0.0
34,0.0,0.0,0.0,1.0,1.0,0.0,0.0,1.0,0.0,100.0,1.0,1.1856,26.0,0.0,0.0,0.0,53.999996,0.0,26.0,26.0,26.0,26.0,0.023222222222222255,0.262,-0.06043333333333334,291.672,-2.66095,-2.61225,-1.64425,-1.5589,-160.28,215.7525,190.227625,0.0,0.0,0.0,0.0,0.06866666666666667,-5.498166666666667,-5.498166666666667,-0.6405000000000001,-0.7976666666666666,0.0058888888888888324,-0.18999999999999995,70.119,0.0227,-0.224,-0.2579999999999991,100.0,1.0,1.0,216.14666666666668,0.0,0.0,0.0,0.0,0.0,0.0,0.0,9161.7,0.0,55.0,5.0,252.40333333333334,0.0,0.0,0.0,0.0,0.0,0.0,1.0,0.0,1.7040000000000006,1.7040000000000006,0.0,0.0,0.0,55.0,616.79921,10000.0,85.000001,85.000001,85.000001,85.000001,395.0,0.0,0.0,0.0,1.0,333.33500000000004,51.956,51.956,47.226,47.226,34.0,-22.669999999999998,24.54,-28.53,30.3175,0.0,1781.164,-0.46000000000000085,100.0,28.439,28.535,43.903999999999996,44.510999999999996,0.0,0.0,100.0,0.0,0.0,0.0,0.0,3182.75,3060.3,4092.1111111111113,4195.6,305.3285,305.068,314.99025,314.4565,22.098399999999998,20.6964,22.1281,21.6278,314.999998,314.999998,324.999988,324.999988,99.55931428571428,99.50756666666666,99.57038571428572,99.55042857142857,0.11324999999999985,-0.027000000000000024,-0.08933333333333333,0.12933333333333336,-0.051666666666669414,-0.03166666666666629,1.516,1.5110000000000001,39.114999999999995,30.352666666666664,39.3,36.1735,55.86,35.8095,60.4405,53.7785,53.794,34.869,58.9765,52.0505,52.931,34.3705,58.839,51.4295,-0.11850000000000005,-0.04600000000000026,0.105675,0.10161,0.0,219.45499999999998,219.435,216.14666666666665,216.14666666666668,0.0,0.0
35,0.0,0.0,0.0,1.0,1.0,0.0,0.0,1.0,0.0,100.0,1.0,1.1856,26.0,0.0,0.0,0.0,53.999996,0.0,26.0,26.0,26.0,26.0,0.02488888888888896,0.2591000000000001,-0.07406666666666667,291.779,-2.7243,-2.621,-1.6271499999999999,-1.514,-156.7,215.74,190.197875,0.0,0.0,0.0,0.0,0.07076666666666667,-5.498166666666667,-5.498166666666667,-0.6806,-0.4176666666666667,-0.003666666666666707,0.09200000000000008,70.24600000000001,0.030600000000000002,-0.22990000000000002,-0.49600000000000044,100.0,1.0,1.0,216.60666666666668,0.0,0.0,0.0,0.0,0.0,0.0,0.0,9181.2,0.0,55.0,5.0,252.86,1.0,0.0,0.0,0.0,0.0,0.0,1.0,0.0,1.754999999999999,1.754999999999999,0.0,0.0,1.0,55.0,616.79921,10000.0,85.000001,85.000001,85.000001,85.000001,395.0,0.0,0.0,0.0,1.0,333.33500000000004,51.712,51.712,46.799,46.799,34.0,-22.384999999999998,28.122,-27.243333333333336,29.175,0.0,1781.113,-0.375,100.0,28.25,28.573,43.769999999999996,43.96,0.0,0.0,100.0,0.0,0.0,0.0,0.0,3092.75,3391.2,4027.4444444444443,4019.3,305.459,304.145,315.031,314.95325,22.1074,20.7022,22.1384,21.6369,314.999998,314.999998,324.999988,324.999988,99.55932857142857,99.50758333333333,99.57052857142857,99.55058571428572,0.11975000000000025,-0.015666666666666607,-0.07866666666666668,0.15266666666666667,-0.03333333333333144,-0.04999999999999716,1.548,1.5310000000000001,39.172,30.388666666666666,39.364999999999995,36.231,55.846000000000004,35.8475,60.474000000000004,53.8345,53.78,34.9045,59.007999999999996,52.1045,52.916,34.4045,58.8665,51.482,-0.11349999999999993,-0.047499999999999876,0.10891500000000001,0.10697000000000001,0.0,219.825,219.85500000000002,216.60666666666668,216.60666666666668,0.0,0.0
36,0.0,0.0,0.0,1.0,1.0,0.0,0.0,1.0,0.0,100.0,1.0,1.1856,26.0,0.0,0.0,0.0,53.999996,0.0,26.0,26.0,26.0,26.0,0.03955555555555579,0.272,0.040600000000000004,291.0,-2.76955,-2.659125,-1.57495,-1.5527000000000002,-153.32,215.72750000000002,190.168375,0.0,0.0,0.0,0.0,0.07273333333333334,-5.498166666666667,-5.498166666666667,-0.6631,0.28400000000000003,-0.04244444444444451,0.07100000000000017,70.368,0.0346,-0.198975,-0.28200000000000003,100.0,1.0,1.0,216.79000000000002,0.0,0.0,0.0,0.0,0.0,0.0,0.0,9188.9,0.0,55.0,5.0,253.29666666666668,0.0,0.0,0.0,0.0,0.0,0.0,1.0,0.0,1.8030000000000008,1.8030000000000008,0.0,0.0,0.0,55.0,616.79921,10000.0,85.000001,85.000001,85.000001,85.000001,395.0,0.0,0.0,0.0,1.0,166.665,51.391999999999996,51.391999999999996,46.417,46.417,34.0,-24.255,26.694000000000003,-29.34,35.182500000000005,0.0,1781.067,-0.22499999999999787,100.0,28.787,28.786,43.788,44.077,0.0,0.0,100.0,0.0,0.0,0.0,0.0,3245.125,3242.5,4398.666666666667,4527.8,305.083,304.62525,314.1865,313.77275,22.1162,20.7078,22.1482,21.645699999999998,314.999998,314.999998,324.999988,324.999988,99.55932857142857,99.50758333333333,99.57067142857143,99.55071428571429,0.11500000000000021,-0.023333333333333317,-0.06916666666666667,0.16283333333333336,-0.046666666666666856,-0.041666666666671404,1.4535,1.4505,39.226,30.423666666666666,39.426,36.2855,55.836,35.885,60.507,53.8905,53.771,34.939,59.039,52.158500000000004,52.906,34.438,58.8945,51.535,-0.09699999999999998,-0.06950000000000012,0.10816,0.114235,0.0,220.255,220.265,216.79000000000002,216.79000000000002,0.0,0.0
