,ABS Active,ABS Enabled,AID Allow Tire Blankets,AID Auto Blip,AID Auto Clutch,AID Auto Shift,AID Fuel Rate,AID Ideal Line,AID Mech Damage,AID Stability,AID Tire Wear Rate,Air Density,Air Temp,Ballast,Best Lap Delta,Best Lap Time,Brake Bias,Brake Pos,Brake Temp FL,Brake Temp FR,Brake Temp RL,Brake Temp RR,CG Accel Lateral,CG Accel Longitudinal,CG Accel Vertical,CG Height,Camber FL,Camber FR,Camber RL,Camber RR,Car Coord X,Car Coord Y,Car Coord Z,Car Damage Front,Car Damage Left,Car Damage Rear,Car Damage Right,Car Pos Norm,Caster FL,Caster FR,Chassis Pitch Angle,Chassis Pitch Rate,Chassis Roll Angle,Chassis Roll Rate,Chassis Velocity X,Chassis Velocity Y,Chassis Velocity Z,Chassis Yaw Rate,Clutch Pos,DRS Active,DRS Available,Drive Train Speed,ERS Heat Charging,ERS Is Charging,ERS Max Energy,ERS Power Level,ERS Recovery Level,Engine Brake Setting,Engine Limiter,Engine RPM,Flags,Fuel Level,Gear,Ground Speed,HR Sample Clock,In Pit,KERS Charge,KERS Deployed Energy,KERS Input,KERS Max Energy,LR Sample Clock,Lap Invalidated,Lap Time,Lap Time2,Last Lap Time,Last Sector Time,MR Sample Clock,Max Fuel,Max Power,Max RPM,Max Sus Travel FL,Max Sus Travel FR,Max Sus Travel RL,Max Sus Travel RR,Max Torque,Max Turbo Boost,Num Tires Off Track,Penalties Enabled,Position,Raw Data Sample Rate,Ride Height FL,Ride Height FR,Ride Height RL,Ride Height RR,Road Temp,Self Align Torque FL,Self Align Torque FR,Self Align Torque RL,Self Align Torque RR,Session Lap Count,Session Time Left,Steering Angle,Surface Grip,Suspension Travel FL,Suspension Travel FR,Suspension Travel RL,Suspension Travel RR,TC Active,TC Enabled,Throttle Pos,Tire Dirt Level FL,Tire Dirt Level FR,Tire Dirt Level RL,Tire Dirt Level RR,Tire Load FL,Tire Load FR,Tire Load RL,Tire Load RR,Tire Loaded Radius FL,Tire Loaded Radius FR,Tire Loaded Radius RL,Tire Loaded Radius RR,Tire Pressure FL,Tire Pressure FR,Tire Pressure RL,Tire Pressure RR,Tire Radius FL,Tire Radius FR,Tire Radius RL,Tire Radius RR,Tire Rubber Grip FL,Tire Rubber Grip FR,Tire Rubber Grip RL,Tire Rubber Grip RR,Tire Slip Angle FL,Tire Slip Angle FR,Tire Slip Angle RL,Tire Slip Angle RR,Tire Slip Ratio FL,Tire Slip Ratio FR,Tire Slip Ratio RL,Tire Slip Ratio RR,Tire Temp Core FL,Tire Temp Core FR,Tire Temp Core RL,Tire Temp Core RR,Tire Temp Inner FL,Tire Temp Inner FR,Tire Temp Inner RL,Tire Temp Inner RR,Tire Temp Middle FL,Tire Temp Middle FR,Tire Temp Middle RL,Tire Temp Middle RR,Tire Temp Outer FL,Tire Temp Outer FR,Tire Temp Outer RL,Tire Temp Outer RR,Toe In FL,Toe In FR,Toe In RL,Toe In RR,Turbo Boost,Wheel Angular Speed FL,Wheel Angular Speed FR,Wheel Angular Speed RL,Wheel Angular Speed RR,Wind Direction,Wind Speed
0,0.0,0.0,0.0,1.0,1.0,0.0,0.0,1.0,0.0,100.0,1.0,1.1856,26.0,0.0,0.0,0.0,53.99999,0.0,26.0,26.0,26.0,26.0,-0.04355555555555557,0.29710000000000014,0.14906666666666668,293.991,-2.72355,-2.4857500000000003,-1.5281,-1.5345,-275.7,215.95,190.988,0.0,0.0,0.0,0.0,0.0015666666666666667,-5.498166666666667,-5.498166666666667,-0.5493,1.2723333333333335,-0.009666666666666934,-0.8360000000000001,65.509,-0.0422,-0.21115,0.6579999999999995,100.0,1.0,1.0,202.26666666666665,0.0,0.0,0.0,0.0,0.0,0.0,0.0,8573.3,0.0,55.0,5.0,235.80333333333334,0.0,0.0,0.0,0.0,0.0,0.0,0.0,0.0,0.0030000000000001137,0.0030000000000001137,0.0,0.0,0.0,55.0,616.79921,10000.0,85.0,85.0,85.0,85.0,395.0,0.0,0.0,0.0,1.0,20.0,52.429,52.429,49.438,49.438,34.0,-28.9825,24.154,-29.776666666666664,24.4825,0.0,1782.897,0.7050000000000018,100.0,26.758,26.507,40.492000000000004,40.265,0.0,0.0,100.0,0.0,0.0,0.0,0.0,3234.142857142857,3702.5,4032.0,3984.1000000000004,305.069,302.93466666666666,315.03266666666667,314.89675,21.7777,20.5128,21.7893,21.3279,314.99999,314.99999,324.99998,324.99998,99.55904285714286,99.50711666666666,99.56608571428572,99.54581428571429,-0.008333333333333304,-0.12166666666666681,-0.16059999999999997,0.06233333333333335,-0.054999999999999716,-0.06571428571428584,1.547,1.567,37.11,29.205,37.183,34.2995,56.335,34.438,59.362,51.868,54.248000000000005,33.605000000000004,57.977000000000004,50.212,53.416,33.1605,57.939499999999995,49.632,-0.02400000000000002,-0.12049999999999983,0.10679000000000001,0.10753000000000001,0.0,205.26999999999998,205.23000000000002,202.26666666666665,202.26666666666665,0.0,0.0
1,0.0,0.0,0.0,1.0,1.0,0.0,0.0,1.0,0.0,100.0,1.0,1.1856,26.0,0.0,0.0,0.0,53.999996,0.0,26.0,26.0,26.0,26.0,-0.1243333333333334,0.31530000000000014,-0.019366666666666667,293.213,-2.6515,-2.715375,-1.5213,-1.3714,-272.36,215.9675,190.967875,0.0,0.0,0.0,0.0,0.0035333333333333336,-5.498166666666667,-5.498166666666667,-0.48190000000000005,-0.6819999999999999,-0.056888888888888545,-0.3340000000000001,65.66499999999999,-0.0477,-0.18065,1.1660000000000004,100.0,1.0,1.0,202.32666666666665,0.0,0.0,0.0,0.0,0.0,0.0,0.0,8575.8,0.0,55.0,5.0,236.36333333333334,1.0,0.0,0.0,0.0,0.0,0.0,0.0,0.0,0.053999999999998494,0.053999999999998494,0.0,0.0,1.0,55.0,616.79921,10000.0,85.000001,85.000001,85.000001,85.000001,395.0,0.0,0.0,0.0,1.0,333.33500000000004,54.443,54.443,48.233000000000004,48.233000000000004,34.0,-25.59,16.066,-35.04333333333334,28.1075,0.0,1782.844,0.9149999999999991,100.0,27.225,26.615000000000002,42.58,41.786,0.0,0.0,100.0,0.0,0.0,0.0,0.0,2931.857142857143,2472.1,4436.25,4936.9,305.7925,306.8793333333333,313.9316666666667,312.4675,21.7876,20.5179,21.8002,21.3371,314.999998,314.999998,324.999988,324.999988,99.55904285714286,99.50713333333333,99.56622857142857,99.54595714285715,-0.010666666666666602,-0.14066666666666672,-0.17199999999999993,0.03933333333333322,-0.030000000000001137,-0.05571428571428072,1.363,1.41,37.172,29.237000000000002,37.251000000000005,34.357,56.319,34.4785,59.4065,51.934,54.232,33.643,58.019,50.275,53.399,33.197,57.979,49.694,-0.0035000000000000586,-0.14300000000000024,0.10446000000000001,0.10746000000000001,0.0,205.75,205.65,202.32666666666665,202.32666666666665,0.0,0.0
2,0.0,0.0,0.0,1.0,1.0,0.0,0.0,1.0,0.0,100.0,1.0,1.1856,26.0,0.0,0.0,0.0,53.999996,0.0,26.0,26.0,26.0,26.0,-0.1413333333333333,0.27270000000000016,-0.10463333333333333,294.128,-2.6012,-2.79125,-1.4934,-1.6441,-269.0,215.98250000000002,190.949,0.0,0.0,0.0,0.0,0.0054666666666666665,-5.498166666666667,-5.498166666666667,-0.5552,0.07033333333333336,-0.053999999999999826,1.718,65.805,-0.0646,-0.25317500000000004,1.63,100.0,1.0,1.0,203.42666666666668,0.0,0.0,0.0,0.0,0.0,0.0,0.0,8622.5,0.0,55.0,5.0,236.86666666666667,0.0,0.0,0.0,0.0,0.0,0.0,0.0,0.0,0.10500000000000043,0.10500000000000043,0.0,0.0,0.0,55.0,616.79921,10000.0,85.000001,85.000001,85.000001,85.000001,395.0,0.0,0.0,0.0,1.0,333.33500000000004,52.734,52.734,50.629,50.629,34.0,-31.310000000000002,19.108,-28.736666666666665,19.035,0.0,1782.793,0.9299999999999997,100.0,27.944,26.576,42.329,41.237,0.0,0.0,100.0,0.0,0.0,0.0,0.0,3427.714285714286,2911.6,3705.375,3452.4,304.395,305.511,315.7726666666667,316.39725,21.7977,20.5228,21.8107,21.3458,314.999998,314.999998,324.999988,324.999988,99.55905714285714,99.50715,99.56637142857143,99.54608571428571,-0.03766666666666674,-0.16500000000000004,-0.2237999999999999,0.01416666666666666,-0.04999999999999716,-0.06571428571428584,1.6795,1.7445,37.236000000000004,29.267666666666663,37.317,34.411500000000004,56.306,34.518,59.4435,51.987,54.22,33.679,58.0535,50.326,53.385999999999996,33.2315,58.0105,49.7445,-0.0015000000000000568,-0.15300000000000002,0.10262,0.10923000000000001,0.0,206.175,206.065,203.42666666666668,203.42666666666668,0.0,0.0
3,0.0,0.0,0.0,1.0,1.0,0.0,0.0,1.0,0.0,100.0,1.0,1.1856,26.0,0.0,0.0,0.0,53.999996,0.0,26.0,26.0,26.0,26.0,-0.14555555555555555,0.3034000000000001,-0.023866666666666668,293.457,-2.64,-2.7113750000000003,-1.4995,-1.5827,-265.84,215.9925,190.930125,0.0,0.0,0.0,0.0,0.0073,-5.498166666666667,-5.498166666666667,-0.5056,0.6793333333333333,-0.01811111111111119,-1.4060000000000001,65.95,-0.08800000000000001,-0.19255,1.4379999999999997,100.0,1.0,1.0,203.43333333333334,0.0,0.0,0.0,0.0,0.0,0.0,0.0,8622.8,0.0,55.0,5.0,237.38666666666666,1.0,0.0,0.0,0.0,0.0,0.0,0.0,0.0,0.1529999999999987,0.1529999999999987,0.0,0.0,1.0,55.0,616.79921,10000.0,85.000001,85.000001,85.000001,85.000001,395.0,0.0,0.0,0.0,1.0,166.665,53.574,53.574,48.096000000000004,48.096000000000004,34.0,-27.195,17.336,-36.43666666666667,23.57,0.0,1782.746,0.9299999999999997,100.0,27.674,26.987000000000002,42.248000000000005,41.377,0.0,0.0,100.0,0.0,0.0,0.0,0.0,2994.857142857143,2807.6,4424.375,4181.4,305.819,305.69966666666664,314.0926666666667,314.45825,21.807,20.5278,21.8205,21.3543,314.999998,314.999998,324.999988,324.999988,99.55905714285714,99.50716666666666,99.5665,99.54622857142857,-0.045333333333333226,-0.17633333333333323,-0.21920000000000006,0.0035000000000000586,-0.026666666666670835,-0.03857142857143003,1.4789999999999999,1.537,37.294,29.298333333333332,37.378,34.464,56.291,34.56,59.4795,52.046,54.206,33.7175,58.087,50.382999999999996,53.372,33.2685,58.0415,49.8,-0.0035000000000000586,-0.14700000000000024,0.10190500000000001,0.10863500000000001,0.0,206.66500000000002,206.54500000000002,203.43333333333334,203.43333333333334,0.0,0.0
4,0.0,0.0,0.0,1.0,1.0,0.0,0.0,1.0,0.0,100.0,1.0,1.1856,26.0,0.0,0.0,0.0,53.999996,0.0,26.0,26.0,26.0,26.0,-0.16766666666666663,0.29800000000000004,-0.03656666666666667,293.686,-2.65835,-2.793875,-1.437,-1.6015000000000001,-262.47,216.0,190.910625,0.0,0.0,0.0,0.0,0.009266666666666668,-5.498166666666667,-5.498166666666667,-0.5332,-0.915,-0.08000000000000007,-0.43799999999999994,66.096,-0.101,-0.231325,1.5940000000000003,100.0,1.0,1.0,204.0,0.0,0.0,0.0,0.0,0.0,0.0,0.0,8646.8,0.0,55.0,5.0,237.92000000000002,0.0,0.0,0.0,0.0,0.0,0.0,0.0,0.0,0.20400000000000063,0.20400000000000063,0.0,0.0,0.0,55.0,616.79921,10000.0,85.000001,85.000001,85.000001,85.000001,395.0,0.0,0.0,0.0,1.0,166.665,53.421,53.421,48.615,48.615,34.0,-29.8125,18.722,-32.916666666666664,21.23,0.0,1782.696,0.9849999999999994,100.0,27.572,26.451,42.988,41.509,0.0,0.0,100.0,0.0,0.0,0.0,0.0,3190.857142857143,2926.5,4155.25,3773.8,305.11,305.5706666666667,314.677,315.4405,21.8168,20.5328,21.8313,21.3633,314.999998,314.999998,324.999988,324.999988,99.55905714285714,99.50718333333333,99.56664285714285,99.54637142857143,-0.04933333333333323,-0.17533333333333312,-0.22299999999999998,0.009666666666666712,-0.03166666666666629,-0.044285714285713595,1.5454999999999999,1.5835,37.355000000000004,29.33,37.445,34.5205,56.275,34.602000000000004,59.5215,52.1055,54.191,33.756,58.1265,50.44,53.355999999999995,33.3055,58.078,49.8555,0.0030000000000001137,-0.14849999999999985,0.109545,0.11073500000000001,0.0,207.04500000000002,206.925,204.0,204.0,0.0,0.0
5,0.0,0.0,0.0,1.0,1.0,0.0,0.0,1.0,0.0,100.0,1.0,1.1856,26.0,0.0,0.0,0.0,53.999996,0.0,26.0,26.0,26.0,26.0,-0.1677777777777778,0.2896000000000001,-0.023700000000000002,293.884,-2.67035,-2.764125,-1.5035,-1.6325,-259.1,216.005,190.8905,0.0,0.0,0.0,0.0,0.011233333333333333,-5.498166666666667,-5.498166666666667,-0.5368,0.3593333333333333,-0.08933333333333371,-0.532,66.241,-0.11270000000000001,-0.215425,1.6160000000000005,100.0,1.0,1.0,204.50333333333333,0.0,0.0,0.0,0.0,0.0,0.0,0.0,8668.1,0.0,55.0,5.0,238.44,1.0,0.0,0.0,0.0,0.0,0.0,0.0,0.0,0.254999999999999,0.254999999999999,0.0,0.0,1.0,55.0,616.79921,10000.0,85.000001,85.000001,85.000001,85.000001,395.0,0.0,0.0,0.0,1.0,333.33500000000004,53.619,53.619,49.286,49.286,34.0,-30.572499999999998,17.094,-34.45666666666666,21.262500000000003,0.0,1782.644,0.5350000000000001,100.0,27.627,26.464,42.592,41.049,0.0,0.0,100.0,0.0,0.0,0.0,0.0,3241.285714285714,2746.7,4117.75,3926.8,305.085,305.973,314.8806666666667,315.09425,21.8268,20.5378,21.8418,21.372,314.999998,314.999998,324.999988,324.999988,99.55907142857143,99.50721666666666,99.5668,99.5465,-0.056333333333333124,-0.18066666666666675,-0.249,-0.017000000000000015,-0.04999999999999716,-0.06285714285714761,1.56,1.6019999999999999,37.418,29.361333333333334,37.510999999999996,34.575,56.263,34.644,59.5605,52.161,54.179,33.795,58.163,50.493,53.343,33.3425,58.1115,49.9075,-0.018000000000000016,-0.1259999999999999,0.10841500000000001,0.11158000000000001,0.0,207.575,207.44,204.50333333333333,204.50333333333333,0.0,0.0
6,0.0,0.0,0.0,1.0,1.0,0.0,0.0,1.0,0.0,100.0,1.0,1.1856,26.0,0.0,0.0,0.0,53.999996,0.0,26.0,26.0,26.0,26.0,-0.16388888888888886,0.28370000000000006,0.018633333333333335,293.51800000000003,-2.62285,-2.814625,-1.5311,-1.5941,-255.92,216.005,190.870875,0.0,0.0,0.0,0.0,0.0131,-5.498166666666667,-5.498166666666667,-0.5266000000000001,0.08166666666666678,-0.08744444444444444,-0.7570000000000001,66.38,-0.1173,-0.205425,1.3600000000000003,100.0,1.0,1.0,204.83333333333331,0.0,0.0,0.0,0.0,0.0,0.0,0.0,8682.1,0.0,55.0,5.0,238.94,0.0,0.0,0.0,0.0,0.0,0.0,0.0,0.0,0.3030000000000008,0.3030000000000008,0.0,0.0,0.0,55.0,616.79921,10000.0,85.000001,85.000001,85.000001,85.000001,395.0,0.0,0.0,0.0,1.0,166.665,53.421,53.421,48.599000000000004,48.599000000000004,34.0,-30.295,18.084,-36.513333333333335,20.82,0.0,1782.598,0.6099999999999994,100.0,27.626,26.531,42.797,41.304,0.0,0.0,100.0,0.0,0.0,0.0,0.0,3263.285714285714,2792.8,4270.625,3990.1000000000004,305.016,305.766,314.49266666666665,314.91975,21.836199999999998,20.5426,21.8518,21.3805,314.999998,314.999998,324.999988,324.999988,99.55907142857143,99.50723333333333,99.56694285714286,99.54664285714286,-0.05366666666666675,-0.17633333333333323,-0.246,-0.02616666666666656,-0.041666666666671404,-0.048571428571428044,1.5145,1.573,37.476,29.391,37.574,34.628,56.25,34.683,59.599000000000004,52.2175,54.167,33.831,58.199,50.547,53.33,33.376999999999995,58.144999999999996,49.96,-0.030000000000000027,-0.11949999999999994,0.10899500000000001,0.10621000000000001,0.0,207.97,207.87,204.83333333333331,204.83333333333331,0.0,0.0
7,0.0,0.0,0.0,1.0,1.0,0.0,0.0,1.0,0.0,100.0,1.0,1.1856,26.0,0.0,0.0,0.0,53.999996,0.0,26.0,26.0,26.0,26.0,-0.12888888888888894,0.2835000000000001,0.012533333333333334,293.411,-2.5896,-2.807625,-1.4908000000000001,-1.6395,-252.32999999999998,216.0,190.84925,0.0,0.0,0.0,0.0,0.015166666666666667,-5.498166666666667,-5.498166666666667,-0.5352,0.032333333333333325,-0.07644444444444431,-0.29699999999999993,66.53399999999999,-0.11,-0.223425,1.0979999999999999,100.0,1.0,1.0,205.34,0.0,0.0,0.0,0.0,0.0,0.0,0.0,8703.6,0.0,55.0,5.0,239.49333333333334,1.0,0.0,0.0,0.0,0.0,0.0,0.0,0.0,0.3569999999999993,0.3569999999999993,0.0,0.0,1.0,55.0,616.79921,10000.0,85.000001,85.000001,85.000001,85.000001,395.0,0.0,0.0,0.0,1.0,166.665,53.024,53.024,48.981,48.981,34.0,-29.2675,19.584,-33.943333333333335,22.122500000000002,0.0,1782.544,0.21499999999999986,100.0,27.904,26.713,42.887,41.502,0.0,0.0,100.0,0.0,0.0,0.0,0.0,3289.4285714285716,2856.7,4090.375,3930.8,304.8405,305.54333333333335,314.88033333333334,315.018,21.8468,20.548,21.863,21.39,314.999998,314.999998,324.999988,324.999988,99.55908571428571,99.50725,99.5671,99.54678571428572,-0.026999999999999913,-0.1499999999999999,-0.24160000000000004,-0.005833333333333357,-0.06833333333332803,-0.0357142857142847,1.5265,1.5745,37.542,29.424666666666667,37.644,34.6875,56.236999999999995,34.7275,59.641999999999996,52.28,54.153999999999996,33.8715,58.239,50.607,53.316,33.416,58.182,50.019,-0.05499999999999994,-0.09149999999999991,0.10966500000000001,0.11482500000000001,0.0,208.445,208.32999999999998,205.34,205.34,0.0,0.0
8,0.0,0.0,0.0,1.0,1.0,0.0,0.0,1.0,0.0,100.0,1.0,1.1856,26.0,0.0,0.0,0.0,53.999996,0.0,26.0,26.0,26.0,26.0,-0.10233333333333339,0.28710000000000013,-0.010866666666666667,293.503,-2.6712,-2.7426250000000003,-1.4692,-1.6309,-249.13,215.9925,190.829875,0.0,0.0,0.0,0.0,0.017033333333333334,-5.498166666666667,-5.498166666666667,-0.5354,-0.43166666666666664,-0.06388888888888866,-0.7210000000000001,66.672,-0.09770000000000001,-0.21625,0.6760000000000002,100.0,1.0,1.0,205.68,0.0,0.0,0.0,0.0,0.0,0.0,0.0,8718.0,0.0,55.0,5.0,239.99,0.0,0.0,0.0,0.0,0.0,0.0,0.0,0.0,0.40500000000000114,0.40500000000000114,0.0,0.0,0.0,55.0,616.79921,10000.0,85.000001,85.000001,85.000001,85.000001,395.0,0.0,0.0,0.0,1.0,333.33500000000004,53.65,53.65,48.263999999999996,48.263999999999996,34.0,-27.0575,19.36,-33.21,24.03,0.0,1782.494,0.08999999999999986,100.0,27.504,26.662,42.955,41.599000000000004,0.0,0.0,100.0,0.0,0.0,0.0,0.0,3096.0,2849.8,4192.0,4052.5,305.5335,305.641,314.61466666666666,314.6905,21.856,20.5528,21.873,21.3984,314.999998,314.999998,324.999988,324.999988,99.55908571428571,99.50726666666667,99.56722857142857,99.54691428571428,-0.008000000000000007,-0.1383333333333332,-0.20999999999999996,0.01333333333333342,-0.036666666666668846,-0.057142857142849834,1.5085,1.528,37.599999999999994,29.454666666666668,37.706,34.7405,56.221000000000004,34.7655,59.6795,52.336,54.138999999999996,33.907,58.274,50.6605,53.301,33.4495,58.2145,50.0715,-0.07200000000000006,-0.08199999999999985,0.105395,0.11139500000000001,0.0,208.84,208.785,205.68,205.68,0.0,0.0
9,0.0,0.0,0.0,1.0,1.0,0.0,0.0,1.0,0.0,100.0,1.0,1.1856,26.0,0.0,0.0,0.0,53.999996,0.0,26.0,26.0,26.0,26.0,-0.10277777777777786,0.28370000000000006,0.0292,293.289,-2.585,-2.769,-1.5204,-1.5864,-245.73,215.98250000000002,190.808875,0.0,0.0,0.0,0.0,0.019,-5.498166666666667,-5.498166666666667,-0.5376000000000001,0.6093333333333333,-0.0685555555555557,0.919,66.814,-0.0823,-0.21300000000000002,0.5020000000000007,100.0,1.0,1.0,206.22,0.0,0.0,0.0,0.0,0.0,0.0,0.0,8741.0,0.0,55.0,5.0,240.5,1.0,0.0,0.0,0.0,0.0,0.0,0.0,0.0,0.4559999999999995,0.4559999999999995,0.0,0.0,1.0,55.0,616.79921,10000.0,85.000001,85.000001,85.000001,85.000001,395.0,0.0,0.0,0.0,1.0,166.665,52.734,52.734,49.164,49.164,34.0,-27.575,21.688,-31.303333333333335,24.415,0.0,1782.444,-0.10500000000000043,100.0,28.095,26.772,42.742000000000004,41.479,0.0,0.0,100.0,0.0,0.0,0.0,0.0,3279.857142857143,2992.2,4034.75,4059.2,304.746,305.327,315.01533333333333,314.847,21.8659,20.558,21.8834,21.4074,314.999998,314.999998,324.999988,324.999988,99.55908571428571,99.50728333333333,99.56737142857143,99.54705714285714,0.01200000000000001,-0.11133333333333328,-0.19220000000000004,0.03849999999999998,-0.041666666666671404,-0.0714285714285694,1.5514999999999999,1.5735,37.662,29.487666666666666,37.772,34.796,56.207,34.807,59.717,52.394,54.126000000000005,33.945,58.309,50.716,53.286,33.486000000000004,58.2465,50.1255,-0.08199999999999985,-0.0665,0.11000000000000001,0.11332500000000001,0.0,209.29500000000002,209.24,206.22,206.22,0.0,0.0
10,0.0,0.0,0.0,1.0,1.0,0.0,0.0,1.0,0.0,100.0,1.0,1.1856,26.0,0.0,0.0,0.0,53.999996,0.0,26.0,26.0,26.0,26.0,-0.06544444444444442,0.2982,0.038033333333333336,293.198,-2.65775,-2.7515,-1.4975,-1.5758,-242.51999999999998,215.97,190.789375,0.0,0.0,0.0,0.0,0.020866666666666665,-5.498166666666667,-5.498166666666667,-0.5202,-0.45966666666666667,-0.030777777777777793,1.83,66.952,-0.0645,-0.205675,0.07000000000000028,100.0,1.0,1.0,206.46666666666667,0.0,0.0,0.0,0.0,0.0,0.0,0.0,8751.3,0.0,55.0,5.0,241.0,0.0,0.0,0.0,0.0,0.0,0.0,1.0,0.0,0.5040000000000013,0.5040000000000013,0.0,0.0,0.0,55.0,616.79921,10000.0,85.000001,85.000001,85.000001,85.000001,395.0,0.0,0.0,0.0,1.0,333.33500000000004,53.604,53.604,47.928,47.928,34.0,-23.697499999999998,21.444000000000003,-32.46333333333333,27.195,0.0,1782.395,-0.26500000000000057,100.0,27.896,26.738,43.129,42.056,0.0,0.0,100.0,0.0,0.0,0.0,0.0,2922.285714285714,2900.2,4238.625,4271.5,305.883,305.66966666666667,314.43033333333335,314.27775,21.8751,20.5629,21.8935,21.416,314.999998,314.999998,324.999988,324.999988,99.55908571428571,99.5073,99.5675,99.5472,0.03633333333333333,-0.09266666666666667,-0.17479999999999996,0.05683333333333329,-0.05333333333332746,-0.05857142857143316,1.4869999999999999,1.4905,37.72,29.518,37.834,34.85,56.192,34.843,59.7555,52.452,54.111999999999995,33.9785,58.3455,50.772,53.272,33.518,58.28,50.18,-0.09749999999999992,-0.04800000000000004,0.113555,0.109475,0.0,209.7,209.685,206.46666666666667,206.46666666666667,0.0,0.0
11,0.0,0.0,0.0,1.0,1.0,0.0,0.0,1.0,0.0,100.0,1.0,1.1856,26.0,0.0,0.0,0.0,53.999996,0.0,26.0,26.0,26.0,26.0,-0.04399999999999993,0.27859999999999996,-0.0636,293.625,-2.6728,-2.72975,-1.5531000000000001,-1.5304,-238.9,215.9525,190.76725,0.0,0.0,0.0,0.0,0.022600000000000002,-5.498166666666667,-5.498166666666667,-0.5578000000000001,-0.05599999999999994,-0.004999999999999893,0.48,67.1,-0.040600000000000004,-0.23090000000000002,-0.04999999999999982,100.0,1.0,1.0,207.18,0.0,0.0,0.0,0.0,0.0,0.0,0.0,8781.6,0.0,55.0,5.0,241.53,1.0,0.0,0.0,0.0,0.0,0.0,1.0,0.0,0.5579999999999998,0.5579999999999998,0.0,0.0,1.0,55.0,616.79921,10000.0,85.000001,85.000001,85.000001,85.000001,395.0,0.0,0.0,0.0,1.0,166.665,53.055,53.055,49.24,49.24,34.0,-24.6175,23.604,-27.299999999999997,24.302500000000002,0.0,1782.342,-0.3299999999999983,100.0,27.65,27.006,42.594,42.018,0.0,0.0,100.0,0.0,0.0,0.0,0.0,3065.714285714286,3088.5,3792.875,3923.1000000000004,305.447,305.035,315.6376666666667,315.17925,21.8854,20.5685,21.9045,21.4256,314.999998,314.999998,324.999988,324.999988,99.5591,99.5073,99.56765714285714,99.54734285714285,0.05033333333333356,-0.07699999999999996,-0.15000000000000002,0.0738333333333332,-0.041666666666671404,-0.04999999999999716,1.5965,1.6079999999999999,37.784,29.552999999999997,37.903,34.91,56.175,34.885,59.792,52.513999999999996,54.095,34.016999999999996,58.3795,50.8315,53.254999999999995,33.555,58.311,50.2385,-0.09850000000000003,-0.05500000000000016,0.10812500000000001,0.098905,0.0,210.12,210.125,207.18,207.18,0.0,0.0
12,0.0,0.0,0.0,1.0,1.0,0.0,0.0,1.0,0.0,100.0,1.0,1.1856,26.0,0.0,0.0,0.0,53.999996,0.0,26.0,26.0,26.0,26.0,-0.02100000000000002,0.2876000000000001,0.018466666666666666,293.137,-2.7296,-2.714625,-1.5255,-1.5807,-235.87,215.94,190.747875,0.0,0.0,0.0,0.0,0.025466666666666665,-5.498166666666667,-5.498166666666667,-0.5454,0.2813333333333332,-0.015888888888889063,-0.768,67.22800000000001,-0.022500000000000003,-0.206925,-0.05999999999999961,100.0,1.0,1.0,207.39,0.0,0.0,0.0,0.0,0.0,0.0,0.0,8790.5,0.0,55.0,5.0,241.99,0.0,0.0,0.0,0.0,0.0,0.0,1.0,0.0,0.602999999999998,0.602999999999998,0.0,0.0,0.0,55.0,616.79921,10000.0,85.000001,85.000001,85.000001,85.000001,395.0,0.0,0.0,0.0,1.0,166.665,52.994,52.994,48.172,48.172,34.0,-26.3625,23.13,-30.82,27.8075,0.0,1782.297,-0.23000000000000043,100.0,27.399,27.283,42.444,42.069,0.0,0.0,100.0,0.0,0.0,0.0,0.0,3201.5714285714284,3020.8,4243.125,4112.3,305.24,305.087,314.58033333333333,314.626,21.8939,20.5732,21.9138,21.4335,314.999998,314.999998,324.999988,324.999988,99.5591,99.50731666666667,99.56778571428572,99.54747142857143,0.04600000000000026,-0.07533333333333325,-0.14260000000000006,0.09200000000000008,-0.03333333333333144,-0.047142857142851824,1.5255,1.5245,37.837,29.582666666666668,37.961,34.9595,56.162,34.9195,59.826,52.566,54.083,34.048500000000004,58.411,50.8815,53.242000000000004,33.585,58.34,50.2875,-0.08250000000000002,-0.06150000000000011,0.11022000000000001,0.10281000000000001,0.0,210.535,210.555,207.39,207.39,0.0,0.0
13,0.0,0.0,0.0,1.0,1.0,0.0,0.0,1.0,0.0,100.0,1.0,1.1856,26.0,0.0,0.0,0.0,53.999996,0.0,26.0,26.0,26.0,26.0,-0.00822222222222213,0.2916000000000001,0.04923333333333333,292.725,-2.6964,-2.7186250000000003,-1.5548000000000002,-1.5739,-232.44,215.9225,190.726125,0.0,0.0,0.0,0.0,0.02673333333333333,-5.498166666666667,-5.498166666666667,-0.5385,-0.07299999999999995,-0.014222222222222136,1.092,67.37,-0.011300000000000001,-0.2126,-0.19200000000000017,100.0,1.0,1.0,207.75666666666666,0.0,0.0,0.0,0.0,0.0,0.0,0.0,8806.1,0.0,55.0,5.0,242.50333333333333,1.0,0.0,0.0,0.0,0.0,0.0,1.0,0.0,0.6539999999999999,0.6539999999999999,0.0,0.0,1.0,55.0,616.79921,10000.0,85.000001,85.000001,85.000001,85.000001,395.0,0.0,0.0,0.0,1.0,166.665,52.658,52.658,48.019,48.019,34.0,-23.65,25.1,-29.156666666666666,30.892500000000002,0.0,1782.246,-0.3999999999999986,100.0,27.927,27.342,42.835,42.453,0.0,0.0,100.0,0.0,0.0,0.0,0.0,3123.857142857143,3095.2,4183.25,4295.8,305.2775,305.03266666666667,314.60333333333335,314.252,21.9036,20.5786,21.9244,21.4427,314.999998,314.999998,324.999988,324.999988,99.55911428571429,99.50731666666667,99.56792857142857,99.54761428571429,0.0903333333333336,-0.03933333333333322,-0.10839999999999994,0.12283333333333335,-0.04999999999999716,-0.04571428571428271,1.51,1.4969999999999999,37.897999999999996,29.616333333333333,38.027,35.016999999999996,56.149,34.958,59.8645,52.6275,54.07,34.0845,58.4465,50.9405,53.227999999999994,33.6195,58.3725,50.3455,-0.10799999999999987,-0.04400000000000004,0.10527500000000001,0.11197000000000001,0.0,210.97500000000002,210.99,207.75666666666666,207.75666666666666,0.0,0.0
14,0.0,0.0,0.0,1.0,1.0,0.0,0.0,1.0,0.0,100.0,1.0,1.1856,26.0,0.0,0.0,0.0,53.999996,0.0,26.0,26.0,26.0,26.0,0.0032222222222222374,0.27760000000000007,-0.014633333333333335,292.892,-2.69525,-2.716875,-1.5644,-1.5473,-228.8,215.9075,190.7035,0.0,0.0,0.0,0.0,0.02886666666666667,-5.498166666666667,-5.498166666666667,-0.5495,-0.09933333333333338,0.014555555555555655,1.201,67.518,-0.0013000000000000002,-0.22685000000000002,-0.24399999999999977,100.0,1.0,1.0,208.3,0.0,0.0,0.0,0.0,0.0,0.0,0.0,8829.1,0.0,55.0,5.0,243.04000000000002,0.0,0.0,0.0,0.0,0.0,0.0,1.0,0.0,0.7079999999999984,0.7079999999999984,0.0,0.0,0.0,55.0,616.79921,10000.0,85.000001,85.000001,85.000001,85.000001,395.0,0.0,0.0,0.0,1.0,166.665,52.673,52.673,48.218,48.218,34.0,-22.7025,25.744,-27.296666666666667,29.2025,0.0,1782.192,-0.34499999999999886,100.0,27.88,27.512999999999998,42.789,42.686,0.0,0.0,100.0,0.0,0.0,0.0,0.0,2997.142857142857,3171.2,3983.125,4173.9,305.6355,304.7196666666667,315.112,314.547,21.9138,20.5844,21.9355,21.4524,314.999998,314.999998,324.999988,324.999988,99.55912857142857,99.50731666666667,99.56808571428571,99.54777142857142,0.08700000000000019,-0.043333333333333224,-0.1047999999999999,0.11916666666666687,-0.06833333333332803,-0.034285714285715585,1.5354999999999999,1.5195,37.961,29.65233333333333,38.097,35.0775,56.135,34.9985,59.903,52.6915,54.057,34.122,58.4825,51.0025,53.214,33.6555,58.4055,50.4055,-0.10599999999999987,-0.04800000000000004,0.10136,0.11185,0.0,211.445,211.43,208.3,208.3,0.0,0.0
15,0.0,0.0,0.0,1.0,1.0,0.0,0.0,1.0,0.0,100.0,1.0,1.1856,26.0,0.0,0.0,0.0,53.999996,0.0,26.0,26.0,26.0,26.0,0.026555555555555665,0.28310000000000013,-0.0268,292.847,-2.70495,-2.613875,-1.588,-1.4901,-225.76,215.89249999999998,190.684375,0.0,0.0,0.0,0.0,0.030633333333333332,-5.498166666666667,-5.498166666666667,-0.5413,0.2653333333333332,0.03699999999999992,-0.44500000000000006,67.643,0.0055000000000000005,-0.2117,-0.26399999999999935,100.0,1.0,1.0,208.66,0.0,0.0,0.0,0.0,0.0,0.0,0.0,8844.3,0.0,55.0,5.0,243.48333333333335,1.0,0.0,0.0,0.0,0.0,0.0,1.0,0.0,0.7530000000000001,0.7530000000000001,0.0,0.0,1.0,55.0,616.79921,10000.0,85.000001,85.000001,85.000001,85.000001,395.0,0.0,0.0,0.0,1.0,166.665,52.795,52.795,48.203,48.203,34.0,-22.6175,23.892,-28.25,29.2625,0.0,1782.147,-0.3200000000000003,100.0,27.794,27.756,42.545,42.894,0.0,0.0,100.0,0.0,0.0,0.0,0.0,3004.714285714286,3071.3,4047.75,4281.5,305.795,304.9243333333333,315.0436666666667,314.234,21.9223,20.589199999999998,21.9447,21.4605,314.999998,314.999998,324.999988,324.999988,99.55912857142857,99.50731666666667,99.56821428571429,99.54788571428571,0.08766666666666634,-0.046333333333333115,-0.10860000000000003,0.11749999999999994,-0.03999999999999915,-0.044285714285713595,1.528,1.5245,38.015,29.682333333333332,38.155,35.128,56.123999999999995,35.0325,59.934,52.745,54.046,34.1535,58.510999999999996,51.054,53.202,33.6855,58.4315,50.456,-0.10699999999999998,-0.046499999999999986,0.10629500000000001,0.10493500000000001,0.0,211.82999999999998,211.835,208.66,208.66,0.0,0.0
16,0.0,0.0,0.0,1.0,1.0,0.0,0.0,1.0,0.0,100.0,1.0,1.1856,26.0,0.0,0.0,0.0,53.999996,0.0,26.0,26.0,26.0,26.0,0.018777777777777782,0.27380000000000004,-0.024266666666666666,292.847,-2.7559,-2.6325000000000003,-1.5577,-1.5554000000000001,-222.31,215.8775,190.662375,0.0,0.0,0.0,0.0,0.032633333333333334,-5.498166666666667,-5.498166666666667,-0.559,-0.6786666666666668,0.021333333333333204,0.17499999999999993,67.783,0.0129,-0.225225,-0.2599999999999998,100.0,1.0,1.0,209.08666666666667,0.0,0.0,0.0,0.0,0.0,0.0,0.0,8862.4,0.0,55.0,5.0,243.99,0.0,0.0,0.0,0.0,0.0,0.0,1.0,0.0,0.8039999999999985,0.8039999999999985,0.0,0.0,0.0,55.0,616.79921,10000.0,85.000001,85.000001,85.000001,85.000001,395.0,0.0,0.0,0.0,1.0,166.665,52.75,52.75,47.897,47.897,34.0,-23.1775,25.374000000000002,-26.380000000000003,30.177500000000002,0.0,1782.097,-0.18499999999999872,100.0,27.589,27.621000000000002,42.936,42.915,0.0,0.0,100.0,0.0,0.0,0.0,0.0,3037.0,3208.7,3999.875,4120.3,305.649,304.71866666666665,315.08166666666665,314.60875,21.9317,20.5947,21.9553,21.4697,314.999998,314.999998,324.999988,324.999988,99.55914285714286,99.50733333333334,99.56835714285714,99.54802857142857,0.09333333333333371,-0.038999999999999924,-0.08579999999999999,0.14316666666666666,-0.03999999999999915,-0.05857142857143316,1.5394999999999999,1.52,38.073,29.716666666666665,38.221000000000004,35.1855,56.108000000000004,35.071,59.9715,52.805,54.031,34.1885,58.5465,51.1115,53.186,33.7195,58.463499999999996,50.513,-0.09149999999999991,-0.06150000000000011,0.10844000000000001,0.11766000000000001,0.0,212.23000000000002,212.23000000000002,209.08666666666667,209.08666666666667,0.0,0.0
17,0.0,0.0,0.0,1.0,1.0,0.0,0.0,1.0,0.0,100.0,1.0,1.1856,26.0,0.0,0.0,0.0,53.999996,0.0,26.0,26.0,26.0,26.0,0.0030000000000001137,0.2901,0.015233333333333335,292.587,-2.71685,-2.6153750000000002,-1.5949,-1.52,-218.84,215.8625,190.639875,0.0,0.0,0.0,0.0,0.034633333333333335,-5.498166666666667,-5.498166666666667,-0.5501,0.43700000000000006,-0.0058888888888888324,-0.867,67.922,0.0115,-0.2066,-0.047999999999999154,100.0,1.0,1.0,209.49,0.0,0.0,0.0,0.0,0.0,0.0,0.0,8879.5,0.0,55.0,5.0,244.49,1.0,0.0,0.0,0.0,0.0,0.0,1.0,0.0,0.8550000000000004,0.8550000000000004,0.0,0.0,1.0,55.0,616.79921,10000.0,85.000001,85.000001,85.000001,85.000001,395.0,0.0,0.0,0.0,1.0,166.665,52.49,52.49,47.882,47.882,34.0,-24.2775,23.368,-30.336666666666666,28.9975,0.0,1782.044,-0.23999999999999844,100.0,27.923000000000002,27.973,42.653,42.889,0.0,0.0,100.0,0.0,0.0,0.0,0.0,3197.714285714286,2990.1,4305.625,4190.4,305.289,305.228,314.52233333333334,314.50725,21.9414,20.6002,21.9657,21.4788,314.999998,314.999998,324.999988,324.999988,99.55915714285715,99.50735,99.5685,99.54818571428571,0.08966666666666656,-0.04033333333333311,-0.1067999999999999,0.11933333333333329,-0.05833333333333002,-0.03285714285714647,1.527,1.517,38.134,29.751333333333335,38.286,35.242,56.096000000000004,35.11,60.007,52.8645,54.019999999999996,34.225,58.579,51.1685,53.174,33.7545,58.4935,50.5685,-0.09699999999999998,-0.06050000000000022,0.11064,0.106535,0.0,212.7,212.69,209.49,209.49,0.0,0.0
18,0.0,0.0,0.0,1.0,1.0,0.0,0.0,1.0,0.0,100.0,1.0,1.1856,26.0,0.0,0.0,0.0,53.999996,0.0,26.0,26.0,26.0,26.0,-0.0010000000000000009,0.2753000000000001,-0.012566666666666667,292.389,-2.73865,-2.598375,-1.6043,-1.4719,-215.38,215.8475,190.617375,0.0,0.0,0.0,0.0,0.03666666666666667,-5.498166666666667,-5.498166666666667,-0.5613,-0.45533333333333337,0.014222222222222136,0.996,68.061,0.0076,-0.22325,-0.09999999999999964,100.0,1.0,1.0,209.90666666666667,0.0,0.0,0.0,0.0,0.0,0.0,0.0,8897.2,0.0,55.0,5.0,244.99,0.0,0.0,0.0,0.0,0.0,0.0,1.0,0.0,0.9059999999999988,0.9059999999999988,0.0,0.0,0.0,55.0,616.79921,10000.0,85.000001,85.000001,85.000001,85.000001,395.0,0.0,0.0,0.0,1.0,166.665,52.216,52.216,47.653,47.653,34.0,-23.9525,25.994,-28.696666666666665,28.545,0.0,1781.995,-0.28500000000000014,100.0,27.94,27.735,43.136,43.162,0.0,0.0,100.0,0.0,0.0,0.0,0.0,3146.285714285714,3311.0,4095.25,4207.2,305.2965,304.44166666666666,314.89633333333336,314.49975,21.9509,20.6057,21.9763,21.488,314.999998,314.999998,324.999988,324.999988,99.55917142857143,99.50735,99.56864285714286,99.54832857142857,0.09533333333333349,-0.038000000000000034,-0.10379999999999989,0.12250000000000005,-0.036666666666668846,-0.057142857142849834,1.5305,1.528,38.193,29.785666666666664,38.352000000000004,35.3,56.082,35.147999999999996,60.0445,52.9255,54.007,34.26,58.6145,51.2275,53.16,33.788,58.5255,50.6265,-0.09949999999999992,-0.05750000000000011,0.104205,0.10636500000000002,0.0,213.085,213.10000000000002,209.90666666666667,209.90666666666667,0.0,0.0
19,0.0,0.0,0.0,1.0,1.0,0.0,0.0,1.0,0.0,100.0,1.0,1.1856,26.0,0.0,0.0,0.0,53.999996,0.0,26.0,26.0,26.0,26.0,-0.007444444444444476,0.29110000000000014,0.043500000000000004,291.931,-2.654,-2.591125,-1.6158000000000001,-1.4592,-212.11,215.83249999999998,190.596125,0.0,0.0,0.0,0.0,0.03856666666666667,-5.498166666666667,-5.498166666666667,-0.551,0.839,0.019333333333333202,0.708,68.19,0.0079,-0.211725,-0.17799999999999905,100.0,1.0,1.0,210.28333333333333,0.0,0.0,0.0,0.0,0.0,0.0,0.0,8913.2,0.0,55.0,5.0,245.45333333333335,1.0,0.0,0.0,0.0,0.0,0.0,1.0,0.0,0.9540000000000006,0.9540000000000006,0.0,0.0,1.0,55.0,616.79921,10000.0,85.000001,85.000001,85.000001,85.000001,395.0,0.0,0.0,0.0,1.0,333.33500000000004,51.62,51.62,47.424,47.424,34.0,-23.365,25.958,-30.026666666666664,29.7925,0.0,1781.945,-0.245000000000001,100.0,28.523,28.23,42.95,43.173,0.0,0.0,100.0,0.0,0.0,0.0,0.0,3134.5714285714284,3310.0,4242.0,4400.4,305.1665,304.34166666666664,314.598,314.0945,21.96,20.611,21.9861,21.4966,314.999998,314.999998,324.999988,324.999988,99.55918571428572,99.50735,99.56878571428571,99.54845714285715,0.09299999999999997,-0.03966666666666674,-0.10320000000000007,0.11983333333333324,-0.03999999999999915,-0.04571428571428271,1.527,1.5125,38.25,29.819,38.413,35.354,56.072,35.186,60.0775,52.982,53.997,34.295500000000004,58.644999999999996,51.282,53.149,33.822,58.553,50.68,-0.09650000000000003,-0.06400000000000006,0.106315,0.101205,0.0,213.54000000000002,213.51999999999998,210.28333333333333,210.28333333333333,0.0,0.0
20,0.0,0.0,0.0,1.0,1.0,0.0,0.0,1.0,0.0,100.0,1.0,1.1856,26.0,0.0,0.0,0.0,53.999996,0.0,26.0,26.0,26.0,26.0,0.009888888888888836,0.26760000000000006,-0.0217,292.297,-2.75135,-2.653625,-1.5396,-1.5830000000000002,-208.63,215.8175,190.57375,0.0,0.0,0.0,0.0,0.04056666666666667,-5.498166666666667,-5.498166666666667,-0.5533,-1.0653333333333332,0.013666666666666716,-0.9550000000000001,68.32900000000001,0.0097,-0.22287500000000002,-0.12200000000000077,100.0,1.0,1.0,210.61666666666667,0.0,0.0,0.0,0.0,0.0,0.0,0.0,8927.3,0.0,55.0,5.0,245.95666666666665,0.0,0.0,0.0,0.0,0.0,0.0,0.0,0.0,1.004999999999999,1.004999999999999,0.0,0.0,0.0,55.0,616.79921,10000.0,85.000001,85.000001,85.000001,85.000001,395.0,0.0,0.0,0.0,1.0,166.665,52.75,52.75,46.951,46.951,34.0,-23.275,23.648,-28.689999999999998,30.4025,0.0,1781.895,-0.14499999999999957,100.0,27.805,28.029,43.472,43.678,0.0,0.0,100.0,0.0,0.0,0.0,0.0,3030.142857142857,3017.4,4232.375,4207.0,305.815,305.11333333333334,314.54833333333335,314.259,21.9694,20.6165,21.9968,21.506,314.999998,314.999998,324.999988,324.999988,99.5592,99.50736666666667,99.56892857142857,99.54861428571428,0.08499999999999996,-0.04933333333333323,-0.09299999999999997,0.11616666666666675,-0.03499999999999659,-0.04571428571428271,1.4625,1.4635,38.309,29.853,38.480000000000004,35.4125,56.057,35.2235,60.117,53.044,53.982,34.33,58.6815,51.341499999999996,53.134,33.8555,58.5865,50.7385,-0.09450000000000003,-0.06450000000000022,0.09849500000000001,0.10330500000000001,0.0,213.905,213.91500000000002,210.61666666666667,210.61666666666667,0.0,0.0
21,0.0,0.0,0.0,1.0,1.0,0.0,0.0,1.0,0.0,100.0,1.0,1.1856,26.0,0.0,0.0,0.0,53.999996,0.0,26.0,26.0,26.0,26.0,-0.0058888888888889435,0.26680000000000015,-0.0663,292.664,-2.71,-2.6656250000000004,-1.6025,-1.5441,-205.14,215.805,190.55075,0.0,0.0,0.0,0.0,0.0426,-5.498166666666667,-5.498166666666667,-0.5754,0.43566666666666687,-0.0024444444444444713,0.31299999999999994,68.462,0.006200000000000001,-0.2217,-0.07200000000000006,100.0,1.0,1.0,211.25666666666666,0.0,0.0,0.0,0.0,0.0,0.0,0.0,8954.3,0.0,55.0,5.0,246.43333333333334,1.0,0.0,0.0,0.0,0.0,0.0,0.0,0.0,1.056000000000001,1.056000000000001,0.0,0.0,1.0,55.0,616.79921,10000.0,85.000001,85.000001,85.000001,85.000001,395.0,0.0,0.0,0.0,1.0,166.665,52.399,52.399,48.172,48.172,34.0,-23.6375,25.18,-27.676666666666662,28.105,0.0,1781.844,-0.1999999999999993,100.0,28.169,27.896,42.95,43.093,0.0,0.0,100.0,0.0,0.0,0.0,0.0,3096.0,3145.3,4043.25,4029.4,305.4095,304.92066666666665,315.099,314.947,21.9789,20.6221,22.0071,21.515,314.999998,314.999998,324.999988,324.999988,99.5592,99.50736666666667,99.56907142857143,99.54875714285714,0.08766666666666634,-0.03699999999999992,-0.09799999999999998,0.12716666666666687,-0.045000000000001705,-0.047142857142851824,1.574,1.569,38.367999999999995,29.887999999999998,38.545,35.469,56.044,35.263,60.149,53.1005,53.97,34.3665,58.7115,51.3965,53.120000000000005,33.8905,58.6135,50.7915,-0.09099999999999997,-0.05799999999999983,0.09960000000000001,0.11493,0.0,214.36,214.35500000000002,211.25666666666666,211.25666666666666,0.0,0.0
22,0.0,0.0,0.0,1.0,1.0,0.0,0.0,1.0,0.0,100.0,1.0,1.1856,26.0,0.0,0.0,0.0,53.999996,0.0,26.0,26.0,26.0,26.0,0.009222222222222243,0.2742,-0.006733333333333333,292.236,-2.64605,-2.71875,-1.5991,-1.532,-201.85,215.79250000000002,190.528375,0.0,0.0,0.0,0.0,0.044533333333333334,-5.498166666666667,-5.498166666666667,-0.5566,0.08833333333333337,0.0076666666666667105,1.25,68.592,0.0039000000000000003,-0.203525,-0.10599999999999987,100.0,1.0,1.0,211.46666666666667,0.0,0.0,0.0,0.0,0.0,0.0,0.0,8963.3,0.0,55.0,5.0,246.90333333333334,0.0,0.0,0.0,0.0,0.0,0.0,0.0,0.0,1.1039999999999992,1.1039999999999992,0.0,0.0,0.0,55.0,616.79921,10000.0,85.000001,85.000001,85.000001,85.000001,395.0,0.0,0.0,0.0,1.0,333.33500000000004,52.505,52.505,47.18,47.18,34.0,-21.5325,25.07,-29.843333333333334,30.3875,0.0,1781.795,-0.245000000000001,100.0,28.25,27.989,43.322,43.285,0.0,0.0,100.0,0.0,0.0,0.0,0.0,2933.0,3103.9,4211.75,4363.8,305.785,304.93033333333335,314.6066666666667,314.16375,21.9879,20.627299999999998,22.0171,21.523699999999998,314.999998,314.999998,324.999988,324.999988,99.55921428571429,99.50736666666667,99.5692,99.5489,0.09366666666666656,-0.045333333333333226,-0.10399999999999998,0.11450000000000005,-0.03333333333333144,-0.05142857142856627,1.49,1.4965,38.424,29.920666666666666,38.607,35.5235,56.032,35.2995,60.1855,53.158,53.959,34.4005,58.7455,51.451499999999996,53.108000000000004,33.923,58.6445,50.8455,-0.09499999999999997,-0.058499999999999996,0.10729000000000001,0.09960500000000001,0.0,214.755,214.76,211.46666666666667,211.46666666666667,0.0,0.0
23,0.0,0.0,0.0,1.0,1.0,0.0,0.0,1.0,0.0,100.0,1.0,1.1856,26.0,0.0,0.0,0.0,53.999996,0.0,26.0,26.0,26.0,26.0,0.02733333333333321,0.25649999999999995,-0.060066666666666664,292.221,-2.68065,-2.664,-1.6522000000000001,-1.5952000000000002,-198.35,215.7775,190.504875,0.0,0.0,0.0,0.0,0.04656666666666667,-5.498166666666667,-5.498166666666667,-0.5759000000000001,-0.269,0.0033333333333331883,-0.7370000000000001,68.727,0.0068000000000000005,-0.23025,-0.04600000000000026,100.0,1.0,1.0,211.98333333333335,0.0,0.0,0.0,0.0,0.0,0.0,0.0,8985.2,0.0,55.0,5.0,247.39,1.0,0.0,0.0,0.0,0.0,0.0,0.0,0.0,1.1550000000000011,1.1550000000000011,0.0,0.0,1.0,55.0,616.79921,10000.0,85.000001,85.000001,85.000001,85.000001,395.0,0.0,0.0,0.0,1.0,333.33500000000004,51.788,51.788,48.157,48.157,34.0,-25.815,24.192,-28.663333333333334,28.56,0.0,1781.745,-0.21499999999999986,100.0,28.275,28.255,43.321,43.616,0.0,0.0,100.0,0.0,0.0,0.0,0.0,3374.4285714285716,3077.2,4006.5,3978.3,304.7825,304.906,315.253,314.90425,21.9974,20.6329,22.0277,21.533,314.999998,314.999998,324.999988,324.999988,99.55922857142858,99.50738333333334,99.56935714285714,99.54904285714285,0.08300000000000018,-0.052000000000000046,-0.11060000000000003,0.12283333333333335,-0.041666666666671404,-0.05285714285714249,1.5485,1.5275,38.483999999999995,29.956,38.673,35.5815,56.019,35.339,60.221000000000004,53.2185,53.946,34.4365,58.778999999999996,51.51,53.095,33.957499999999996,58.675,50.9025,-0.09650000000000003,-0.06499999999999995,0.10649000000000002,0.10667000000000001,0.0,215.14499999999998,215.155,211.98333333333335,211.98333333333335,0.0,0.0
24,0.0,0.0,0.0,1.0,1.0,0.0,0.0,1.0,0.0,100.0,1.0,1.1856,26.0,0.0,0.0,0.0,53.999996,0.0,26.0,26.0,26.0,26.0,0.007888888888888834,0.2852000000000001,-0.045000000000000005,292.435,-2.7051,-2.6721250000000003,-1.5749,-1.5343,-194.84,215.765,190.481,0.0,0.0,0.0,0.0,0.048600000000000004,-5.498166666666667,-5.498166666666667,-0.5819,-0.5186666666666666,0.018333333333333313,1.215,68.862,0.009000000000000001,-0.21912500000000001,-0.16199999999999992,100.0,1.0,1.0,212.31333333333333,0.0,0.0,0.0,0.0,0.0,0.0,0.0,8999.2,0.0,55.0,5.0,247.87666666666667,0.0,0.0,0.0,0.0,0.0,0.0,0.0,0.0,1.2059999999999995,1.2059999999999995,0.0,0.0,0.0,55.0,616.79921,10000.0,85.000001,85.000001,85.000001,85.000001,395.0,0.0,0.0,0.0,1.0,166.665,52.902,52.902,47.256,47.256,34.0,-21.759999999999998,24.128,-29.053333333333335,29.9425,0.0,1781.694,-0.23000000000000043,100.0,28.129,27.83,43.423,43.459,0.0,0.0,100.0,0.0,0.0,0.0,0.0,2903.714285714286,3060.5,4212.875,4210.9,305.967,305.18833333333333,314.57533333333333,314.49875,22.0068,20.6384,22.0382,21.5423,314.999998,314.999998,324.999988,324.999988,99.55922857142858,99.50738333333334,99.5695,99.5492,0.09200000000000008,-0.04499999999999993,-0.09639999999999993,0.12949999999999995,-0.03333333333333144,-0.057142857142849834,1.514,1.5055,38.542,29.990000000000002,38.739000000000004,35.638999999999996,56.006,35.3765,60.2575,53.278,53.933,34.4715,58.8125,51.567,53.081,33.991,58.705,50.9585,-0.09250000000000003,-0.06400000000000006,0.10487,0.104525,0.0,215.575,215.57,212.31333333333333,212.31333333333333,0.0,0.0
25,0.0,0.0,0.0,1.0,1.0,0.0,0.0,1.0,0.0,100.0,1.0,1.1856,26.0,0.0,0.0,0.0,53.999996,0.0,26.0,26.0,26.0,26.0,0.000888888888888939,0.25550000000000006,-0.05073333333333333,292.358,-2.77415,-2.6343750000000004,-1.5878999999999999,-1.5381,-191.53,215.7525,190.457125,0.0,0.0,0.0,0.0,0.05053333333333333,-5.498166666666667,-5.498166666666667,-0.6083000000000001,-0.046666666666666634,0.021777777777777896,0.11199999999999999,68.987,0.007500000000000001,-0.22305,-0.1559999999999997,100.0,1.0,1.0,212.81666666666666,0.0,0.0,0.0,0.0,0.0,0.0,0.0,9020.6,0.0,55.0,5.0,248.32333333333332,1.0,0.0,0.0,0.0,0.0,0.0,0.0,0.0,1.2540000000000013,1.2540000000000013,0.0,0.0,1.0,55.0,616.79921,10000.0,85.000001,85.000001,85.000001,85.000001,395.0,0.0,0.0,0.0,1.0,166.665,51.987,51.987,47.928,47.928,34.0,-24.5675,26.394,-26.616666666666667,28.62,0.0,1781.646,-0.28999999999999915,100.0,28.04,28.028,43.14,43.272999999999996,0.0,0.0,100.0,0.0,0.0,0.0,0.0,3192.714285714286,3339.5,3936.75,4100.2,305.2255,304.30966666666666,315.31466666666665,314.77975,22.0156,20.6437,22.0479,21.5509,314.999998,314.999998,324.999988,324.999988,99.55925714285715,99.5074,99.56962857142857,99.54932857142857,0.09766666666666657,-0.04466666666666663,-0.09460000000000002,0.12516666666666687,-0.04333333333332945,-0.047142857142851824,1.5494999999999999,1.5545,38.597,30.023333333333333,38.8,35.693,55.992000000000004,35.413,60.2885,53.332,53.921,34.5055,58.841499999999996,51.6195,53.067,34.0235,58.731,51.01,-0.10549999999999993,-0.06150000000000011,0.10320000000000001,0.107075,0.0,215.945,215.97500000000002,212.81666666666666,212.81666666666666,0.0,0.0
26,0.0,0.0,0.0,1.0,1.0,0.0,0.0,1.0,0.0,100.0,1.0,1.1856,26.0,0.0,0.0,0.0,53.999996,0.0,26.0,26.0,26.0,26.0,0.014666666666666606,0.29410000000000003,0.07223333333333334,291.26,-2.72365,-2.7075,-1.6347,-1.5317,-188.01,215.74,190.431375,0.0,0.0,0.0,0.0,0.052566666666666664,-5.498166666666667,-5.498166666666667,-0.5719000000000001,0.671,0.0,-0.847,69.123,0.0094,-0.197025,-0.12799999999999923,100.0,1.0,1.0,212.98666666666668,0.0,0.0,0.0,0.0,0.0,0.0,0.0,9027.7,0.0,55.0,5.0,248.81333333333333,0.0,0.0,0.0,0.0,0.0,0.0,0.0,0.0,1.3049999999999997,1.3049999999999997,0.0,0.0,0.0,55.0,616.79921,10000.0,85.000001,85.000001,85.000001,85.000001,395.0,0.0,0.0,0.0,1.0,166.665,51.513999999999996,51.513999999999996,46.356,46.356,34.0,-24.575,24.415999999999997,-33.29333333333334,32.0125,0.0,1781.596,-0.33500000000000085,100.0,28.739,28.79,43.481,43.713,0.0,0.0,100.0,0.0,0.0,0.0,0.0,3252.285714285714,3048.9,4591.125,4471.3,305.08,304.8976666666667,313.82866666666666,313.79875,22.025199999999998,20.6495,22.0585,21.560200000000002,314.999998,314.999998,324.999988,324.999988,99.55927142857144,99.5074,99.56978571428571,99.54947142857142,0.09766666666666657,-0.05266666666666664,-0.09699999999999998,0.1186666666666667,-0.03833333333332689,-0.04285714285714448,1.4495,1.4315,38.657,30.059333333333335,38.866,35.7515,55.983000000000004,35.454,60.326499999999996,53.3935,53.911,34.5435,58.8765,51.6785,53.057,34.06,58.7635,51.067499999999995,-0.11149999999999993,-0.06150000000000011,0.10425000000000001,0.10545500000000001,0.0,216.41500000000002,216.41,212.98666666666668,212.98666666666668,0.0,0.0
27,0.0,0.0,0.0,1.0,1.0,0.0,0.0,1.0,0.0,100.0,1.0,1.1856,26.0,0.0,0.0,0.0,53.999996,0.0,26.0,26.0,26.0,26.0,0.019333333333333425,0.24320000000000008,-0.043533333333333334,291.779,-2.688,-2.67425,-1.6264,-1.6018,-184.48000000000002,215.72750000000002,190.406875,0.0,0.0,0.0,0.0,0.0546,-5.498166666666667,-5.498166666666667,-0.5986,-1.005,0.006333333333333302,0.731,69.254,0.0114,-0.24280000000000002,-0.2779999999999996,100.0,1.0,1.0,213.5233333333333,0.0,0.0,0.0,0.0,0.0,0.0,0.0,9050.5,0.0,55.0,5.0,249.29000000000002,1.0,0.0,0.0,0.0,0.0,0.0,0.0,0.0,1.355999999999998,1.355999999999998,0.0,0.0,1.0,55.0,616.79921,10000.0,85.000001,85.000001,85.000001,85.000001,395.0,0.0,0.0,0.0,1.0,166.665,51.91,51.91,46.707,46.707,34.0,-22.075,26.234,-28.686666666666667,29.7575,0.0,1781.545,-0.370000000000001,100.0,28.576,28.471,44.218,44.17,0.0,0.0,100.0,0.0,0.0,0.0,0.0,3008.5714285714284,3217.4,4067.25,4071.2,305.639,304.67633333333333,314.934,314.75175,22.0345,20.6551,22.0692,21.5696,314.999998,314.999998,324.999988,324.999988,99.55928571428572,99.5074,99.56992857142858,99.54962857142857,0.10366666666666635,-0.03200000000000003,-0.09879999999999989,0.1280000000000001,-0.04333333333332945,-0.03142857142857025,1.5135,1.5025,38.716,30.094666666666665,38.933,35.8105,55.969,35.493,60.3645,53.454499999999996,53.899,34.579,58.9125,51.7375,53.043,34.0945,58.795500000000004,51.125,-0.10499999999999998,-0.051000000000000156,0.110515,0.10637500000000001,0.0,216.765,216.76999999999998,213.5233333333333,213.5233333333333,0.0,0.0
28,0.0,0.0,0.0,1.0,1.0,0.0,0.0,1.0,0.0,100.0,1.0,1.1856,26.0,0.0,0.0,0.0,53.999996,0.0,26.0,26.0,26.0,26.0,0.024555555555555664,0.26449999999999996,-0.054266666666666664,291.962,-2.6747,-2.6713750000000003,-1.6206,-1.568,-181.14999999999998,215.7175,190.382875,0.0,0.0,0.0,0.0,0.05656666666666667,-5.498166666666667,-5.498166666666667,-0.6029,0.6503333333333332,-0.00044444444444424747,0.702,69.376,0.0146,-0.218475,-0.29000000000000004,100.0,1.0,1.0,214.00333333333333,0.0,0.0,0.0,0.0,0.0,0.0,0.0,9070.8,0.0,55.0,5.0,249.73000000000002,0.0,0.0,0.0,0.0,0.0,0.0,0.0,0.0,1.404,1.404,0.0,0.0,0.0,55.0,616.79921,10000.0,85.000001,85.000001,85.000001,85.000001,395.0,0.0,0.0,0.0,1.0,166.665,51.772999999999996,51.772999999999996,47.684,47.684,34.0,-22.5475,25.89,-27.14333333333333,30.11,0.0,1781.497,-0.34499999999999886,100.0,28.717,28.435000000000002,43.528999999999996,43.739000000000004,0.0,0.0,100.0,0.0,0.0,0.0,0.0,3106.4285714285716,3181.3,4017.5,4138.3,305.3095,304.76,315.19866666666667,314.71075,22.0434,20.6605,22.0789,21.5782,314.999998,314.999998,324.999988,324.999988,99.55928571428572,99.5074,99.57007142857142,99.54977142857143,0.10999999999999988,-0.03166666666666673,-0.08620000000000005,0.13983333333333325,-0.041666666666671404,-0.06428571428571672,1.5675,1.548,38.771,30.128,38.992999999999995,35.864,55.959,35.53,60.3945,53.507999999999996,53.888999999999996,34.6135,58.94,51.789,53.032,34.127,58.82,51.1755,-0.11099999999999999,-0.053999999999999826,0.101745,0.11422000000000002,0.0,217.2,217.21,214.00333333333333,214.00333333333333,0.0,0.0
29,0.0,0.0,0.0,1.0,1.0,0.0,0.0,1.0,0.0,100.0,1.0,1.1856,26.0,0.0,0.0,0.0,53.999996,0.0,26.0,26.0,26.0,26.0,0.0407777777777778,0.2570000000000001,0.043633333333333336,291.626,-2.6675,-2.709,-1.576,-1.5455999999999999,-177.61,215.70749999999998,190.3565,0.0,0.0,0.0,0.0,0.058600000000000006,-5.498166666666667,-5.498166666666667,-0.6038,-0.6839999999999999,0.002555555555555644,-0.7570000000000001,69.511,0.0175,-0.21452500000000002,-0.274,100.0,1.0,1.0,214.2266666666667,0.0,0.0,0.0,0.0,0.0,0.0,0.0,9080.2,0.0,55.0,5.0,250.21333333333334,1.0,0.0,0.0,0.0,0.0,0.0,0.0,0.0,1.4549999999999983,1.4549999999999983,0.0,0.0,1.0,55.0,616.79921,10000.0,85.000001,85.000001,85.000001,85.000001,395.0,0.0,0.0,0.0,1.0,333.33500000000004,52.002,52.002,46.57,46.57,34.0,-23.0825,25.299999999999997,-29.769999999999996,30.9825,0.0,1781.444,-0.379999999999999,100.0,28.191,28.485,43.836,44.14,0.0,0.0,100.0,0.0,0.0,0.0,0.0,3164.5714285714284,3099.2,4255.75,4268.7,305.4095,304.7696666666667,314.5253333333333,314.24925,22.052599999999998,20.6661,22.0895,21.5876,314.999998,314.999998,324.999988,324.999988,99.5593,99.50741666666667,99.57021428571429,99.54991428571428,0.10066666666666668,-0.04266666666666663,-0.09920000000000007,0.129,-0.04999999999999716,-0.04571428571428271,1.4645,1.459,38.829,30.163,39.06,35.9225,55.945,35.568,60.4325,53.569,53.876000000000005,34.6485,58.9755,51.8475,53.018,34.161,58.8525,51.233000000000004,-0.10749999999999993,-0.047499999999999876,0.11041500000000001,0.10939000000000002,0.0,217.585,217.57999999999998,214.2266666666667,214.2266666666667,0.0,0.0
30,0.0,0.0,0.0,1.0,1.0,0.0,0.0,1.0,0.0,100.0,1.0,1.1856,26.0,0.0,0.0,0.0,53.999996,0.0,26.0,26.0,26.0,26.0,0.037555555555555786,0.2603,0.025266666666666666,291.183,-2.7192,-2.597625,-1.5473,-1.6017000000000001,-174.26999999999998,215.6975,190.331625,0.0,0.0,0.0,0.0,0.06053333333333334,-5.498166666666667,-5.498166666666667,-0.6065,0.7490000000000001,-0.0013333333333331865,-0.6990000000000001,69.633,0.0205,-0.22125,-0.25200000000000067,100.0,1.0,1.0,214.69333333333333,0.0,0.0,0.0,0.0,0.0,0.0,0.0,9100.0,0.0,55.0,5.0,250.65,0.0,0.0,0.0,0.0,0.0,0.0,1.0,0.0,1.5030000000000001,1.5030000000000001,0.0,0.0,0.0,55.0,616.79921,10000.0,85.000001,85.000001,85.000001,85.000001,395.0,0.0,0.0,0.0,1.0,333.33500000000004,50.659,50.659,47.15,47.15,34.0,-25.54,25.427999999999997,-27.93,31.2175,0.0,1781.396,-0.34499999999999886,100.0,29.048000000000002,29.191,43.617000000000004,44.094,0.0,0.0,100.0,0.0,0.0,0.0,0.0,3411.857142857143,3213.6,4172.25,4152.8,304.576,304.394,314.80533333333335,314.5015,22.0616,20.6716,22.0994,21.5964,314.999998,314.999998,324.999988,324.999988,99.55931428571428,99.50741666666667,99.57035714285715,99.55005714285714,0.1073333333333335,-0.04133333333333322,-0.09079999999999988,0.13916666666666666,-0.04999999999999716,-0.0357142857142847,1.5075,1.4865,38.885,30.197666666666667,39.120999999999995,35.9775,55.937,35.6065,60.464,53.6245,53.867000000000004,34.6845,59.0045,51.900999999999996,53.009,34.195499999999996,58.879,51.2855,-0.11549999999999994,-0.05699999999999994,0.10283,0.11326000000000001,0.0,217.98000000000002,217.98000000000002,214.69333333333333,214.69333333333333,0.0,0.0
31,0.0,0.0,0.0,1.0,1.0,0.0,0.0,1.0,0.0,100.0,1.0,1.1856,26.0,0.0,0.0,0.0,53.999996,0.0,26.0,26.0,26.0,26.0,0.015444444444444372,0.2561,0.03146666666666667,290.924,-2.76405,-2.58325,-1.5931000000000002,-1.501,-170.70999999999998,215.6875,190.30575,0.0,0.0,0.0,0.0,0.0626,-5.498166666666667,-5.498166666666667,-0.5896,-0.4926666666666667,0.007777777777777883,0.636,69.765,0.0224,-0.22035000000000002,-0.3540000000000001,100.0,1.0,1.0,214.94666666666666,0.0,0.0,0.0,0.0,0.0,0.0,0.0,9110.8,0.0,55.0,5.0,251.12666666666667,1.0,0.0,0.0,0.0,0.0,0.0,1.0,0.0,1.5539999999999985,1.5539999999999985,0.0,0.0,1.0,55.0,616.79921,10000.0,85.000001,85.000001,85.000001,85.000001,395.0,0.0,0.0,0.0,1.0,166.665,51.3,51.3,45.609,45.609,34.0,-22.662499999999998,26.412,-29.689999999999998,31.517500000000002,0.0,1781.347,-0.39000000000000057,100.0,28.939,29.032,44.417,44.688,0.0,0.0,100.0,0.0,0.0,0.0,0.0,3100.5714285714284,3337.9,4332.75,4303.9,305.499,304.4146666666667,314.251,314.20525,22.0709,20.6774,22.1101,21.6059,314.999998,314.999998,324.999988,324.999988,99.55932857142857,99.50743333333334,99.57051428571428,99.55021428571429,0.12133333333333374,-0.03066666666666662,-0.07779999999999998,0.1443333333333332,-0.03499999999999659,-0.044285714285713595,1.4465,1.4415,38.943,30.234,39.188,36.037,55.926,35.6465,60.5025,53.6875,53.855999999999995,34.7215,59.041,51.9615,52.997,34.231,58.911500000000004,51.3445,-0.11599999999999988,-0.052999999999999936,0.10262500000000001,0.11101000000000001,0.0,218.36,218.37,214.94666666666666,214.94666666666666,0.0,0.0
32,0.0,0.0,0.0,1.0,1.0,0.0,0.0,1.0,0.0,100.0,1.0,1.1856,26.0,0.0,0.0,0.0,53.999996,0.0,26.0,26.0,26.0,26.0,0.03844444444444428,0.2744,-0.009433333333333334,291.214,-2.691,-2.683375,-1.6471,-1.5079,-167.14999999999998,215.68,190.28025,0.0,0.0,0.0,0.0,0.06470000000000001,-5.498166666666667,-5.498166666666667,-0.6059,-0.09333333333333338,-0.01644444444444426,-1.001,69.892,0.0222,-0.228275,-0.3020000000000005,100.0,1.0,1.0,215.46,0.0,0.0,0.0,0.0,0.0,0.0,0.0,9132.6,0.0,55.0,5.0,251.58666666666664,0.0,0.0,0.0,0.0,0.0,0.0,1.0,0.0,1.6050000000000004,1.6050000000000004,0.0,0.0,0.0,55.0,616.79921,10000.0,85.000001,85.000001,85.000001,85.000001,395.0,0.0,0.0,0.0,1.0,333.33500000000004,51.361000000000004,51.361000000000004,46.494,46.494,34.0,-23.63,25.372,-29.496666666666663,30.59,0.0,1781.294,-0.39000000000000057,100.0,28.776,29.167,44.137,44.558,0.0,0.0,100.0,0.0,0.0,0.0,0.0,3228.857142857143,3105.8,4250.0,4277.7,305.157,304.83566666666667,314.68066666666664,314.37475,22.0802,20.6832,22.1206,21.6152,314.999998,314.999998,324.999988,324.999988,99.55934285714285,99.50743333333334,99.57065714285714,99.55035714285714,0.10766666666666636,-0.03466666666666662,-0.08499999999999996,0.13916666666666666,-0.051666666666669414,-0.05857142857143316,1.533,1.5255,39.001999999999995,30.270333333333333,39.254000000000005,36.095,55.914,35.6865,60.537,53.746,53.846000000000004,34.7585,59.0725,52.018,52.985,34.2665,58.94,51.3995,-0.11099999999999999,-0.05500000000000016,0.10311000000000001,0.107285,0.0,218.775,218.78,215.46,215.46,0.0,0.0
33,0.0,0.0,0.0,1.0,1.0,0.0,0.0,1.0,0.0,100.0,1.0,1.1856,26.0,0.0,0.0,0.0,53.999996,0.0,26.0,26.0,26.0,26.0,0.03788888888888886,0.2634000000000001,-0.022133333333333335,291.473,-2.7224,-2.681875,-1.5861,-1.5961,-163.8,215.6725,190.255125,0.0,0.0,0.0,0.0,0.06663333333333334,-5.498166666666667,-5.498166666666667,-0.6154000000000001,-0.35,-0.016666666666666607,-0.06899999999999995,70.014,0.019700000000000002,-0.2187,-0.2060000000000004,100.0,1.0,1.0,215.81333333333333,0.0,0.0,0.0,0.0,0.0,0.0,0.0,9147.5,0.0,55.0,5.0,252.02666666666664,1.0,0.0,0.0,0.0,0.0,0.0,1.0,0.0,1.6529999999999987,1.6529999999999987,0.0,0.0,1.0,55.0,616.79921,10000.0,85.000001,85.000001,85.000001,85.000001,395.0,0.0,0.0,0.0,1.0,333.33500000000004,51.757999999999996,51.757999999999996,46.661,46.661,34.0,-23.14,24.57,-28.766666666666666,31.0775,0.0,1781.245,-0.4349999999999987,100.0,28.654,28.918,44.042,44.462,0.0,0.0,100.0,0.0,0.0,0.0,0.0,3169.857142857143,3039.7,4196.75,4204.8,305.4235,305.0586666666667,314.7216666666667,314.47725,22.089,20.6885,22.1304,21.624,314.999998,314.999998,324.999988,324.999988,99.55935714285714,99.50743333333334,99.5708,99.5505,0.11166666666666636,-0.03833333333333311,-0.09139999999999993,0.133,-0.046666666666666856,-0.057142857142849834,1.5075,1.503,39.056,30.302999999999997,39.315,36.15,55.903,35.721000000000004,60.5695,53.801,53.835,34.7905,59.1025,52.0715,52.973,34.297,58.967,51.451499999999996,-0.11999999999999988,-0.04850000000000021,0.10859,0.10866500000000001,0.0,219.15,219.14499999999998,215.81333333333333,215.81333333333333,0.0,0.0
34,0.0,0.0,0.0,1.0,1.0,0.0,0.0,1.0,0.0,100.0,1.0,1.1856,26.0,0.0,0.0,0.0,53.999996,0.0,26.0,26.0,26.0,26.0,0.03433333333333333,0.2550000000000001,-0.0533,291.733,-2.7508,-2.678,-1.6529,-1.5533000000000001,-160.01,215.66500000000002,190.2255,0.0,0.0,0.0,0.0,0.06883333333333334,-5.498166666666667,-5.498166666666667,-0.6445000000000001,-0.8403333333333334,0.011777777777777887,-0.14700000000000002,70.15,0.0227,-0.22465000000000002,-0.28799999999999937,100.0,1.0,1.0,216.24666666666667,0.0,0.0,0.0,0.0,0.0,0.0,0.0,9165.9,0.0,55.0,5.0,252.51666666666665,0.0,0.0,0.0,0.0,0.0,0.0,1.0,0.0,1.7070000000000007,1.7070000000000007,0.0,0.0,0.0,55.0,616.79921,10000.0,85.000001,85.000001,85.000001,85.000001,395.0,0.0,0.0,0.0,1.0,166.665,52.078,52.078,47.211,47.211,34.0,-22.905,25.055999999999997,-29.009999999999998,30.17,0.0,1781.194,-0.379999999999999,100.0,28.406,28.576,43.822,44.483000000000004,0.0,0.0,100.0,0.0,0.0,0.0,0.0,3097.857142857143,3067.7,4114.75,4164.7,305.4815,305.0806666666667,314.9576666666667,314.5315,22.0987,20.6944,22.1414,21.6339,314.999998,314.999998,324.999988,324.999988,99.55938571428571,99.50745,99.57095714285714,99.55065714285715,0.11333333333333373,-0.028999999999999915,-0.09260000000000002,0.13250000000000006,-0.05333333333332746,-0.03999999999999915,1.5085,1.507,39.117000000000004,30.34,39.384,36.2115,55.89,35.76,60.6045,53.864,53.822,34.826499999999996,59.1355,52.132,52.959,34.3315,58.9965,51.5105,-0.11650000000000005,-0.04999999999999982,0.10586000000000001,0.10973000000000001,0.0,219.55,219.54500000000002,216.24666666666667,216.24666666666667,0.0,0.0
35,0.0,0.0,0.0,1.0,1.0,0.0,0.0,1.0,0.0,100.0,1.0,1.1856,26.0,0.0,0.0,0.0,53.999996,0.0,26.0,26.0,26.0,26.0,0.041777777777777914,0.2491000000000001,-0.03336666666666667,291.702,-2.7260999999999997,-2.6171249999999997,-1.6243,-1.5148000000000001,-156.64,215.66,190.197375,0.0,0.0,0.0,0.0,0.0708,-5.498166666666667,-5.498166666666667,-0.6826,-0.31766666666666665,-0.005777777777777882,-1.1510000000000002,70.27,0.027600000000000003,-0.23020000000000002,-0.3020000000000005,100.0,1.0,1.0,216.67666666666668,0.0,0.0,0.0,0.0,0.0,0.0,0.0,9184.1,0.0,55.0,5.0,252.94333333333333,1.0,0.0,0.0,0.0,0.0,0.0,1.0,0.0,1.754999999999999,1.754999999999999,0.0,0.0,1.0,55.0,616.79921,10000.0,85.000001,85.000001,85.000001,85.000001,395.0,0.0,0.0,0.0,1.0,333.33500000000004,51.62,51.62,46.753,46.753,34.0,-23.665,26.701999999999998,-27.78333333333333,28.895,0.0,1781.143,-0.22499999999999787,100.0,28.229,28.844,43.691,44.032,0.0,0.0,100.0,0.0,0.0,0.0,0.0,3179.142857142857,3307.0,4093.125,4005.4,305.351,304.23466666666667,314.938,314.967,22.1072,20.6999,22.1512,21.6425,314.999998,314.999998,324.999988,324.999988,99.55938571428571,99.50745,99.5711,99.5508,0.10400000000000009,-0.033333333333333215,-0.0806,0.14800000000000013,-0.045000000000001705,-0.04142857142856826,1.5445,1.524,39.17,30.374000000000002,39.445,36.2655,55.876000000000005,35.799,60.6375,53.9195,53.809,34.863,59.166,52.1855,52.945,34.3665,59.0235,51.563,-0.09749999999999992,-0.06499999999999995,0.09903,0.11106,0.0,219.92000000000002,219.93,216.67666666666668,216.67666666666668,0.0,0.0
