,ABS Active,ABS Enabled,AID Allow Tire Blankets,AID Auto Blip,AID Auto Clutch,AID Auto Shift,AID Fuel Rate,AID Ideal Line,AID Mech Damage,AID Stability,AID Tire Wear Rate,Air Density,Air Temp,Ballast,Best Lap Delta,Best Lap Time,Brake Bias,Brake Pos,Brake Temp FL,Brake Temp FR,Brake Temp RL,Brake Temp RR,CG Accel Lateral,CG Accel Longitudinal,CG Accel Vertical,CG Height,Camber FL,Camber FR,Camber RL,Camber RR,Car Coord X,Car Coord Y,Car Coord Z,Car Damage Front,Car Damage Left,Car Damage Rear,Car Damage Right,Car Pos Norm,Caster FL,Caster FR,Chassis Pitch Angle,Chassis Pitch Rate,Chassis Roll Angle,Chassis Roll Rate,Chassis Velocity X,Chassis Velocity Y,Chassis Velocity Z,Chassis Yaw Rate,Clutch Pos,DRS Active,DRS Available,Drive Train Speed,ERS Heat Charging,ERS Is Charging,ERS Max Energy,ERS Power Level,ERS Recovery Level,Engine Brake Setting,Engine Limiter,Engine RPM,Flags,Fuel Level,Gear,Ground Speed,HR Sample Clock,In Pit,KERS Charge,KERS Deployed Energy,KERS Input,KERS Max Energy,LR Sample Clock,Lap Invalidated,Lap Time,Lap Time2,Last Lap Time,Last Sector Time,MR Sample Clock,Max Fuel,Max Power,Max RPM,Max Sus Travel FL,Max Sus Travel FR,Max Sus Travel RL,Max Sus Travel RR,Max Torque,Max Turbo Boost,Num Tires Off Track,Penalties Enabled,Position,Raw Data Sample Rate,Ride Height FL,Ride Height FR,Ride Height RL,Ride Height RR,Road Temp,Self Align Torque FL,Self Align Torque FR,Self Align Torque RL,Self Align Torque RR,Session Lap Count,Session Time Left,Steering Angle,Surface Grip,Suspension Travel FL,Suspension Travel FR,Suspension Travel RL,Suspension Travel RR,TC Active,TC Enabled,Throttle Pos,Tire Dirt Level FL,Tire Dirt Level FR,Tire Dirt Level RL,Tire Dirt Level RR,Tire Load FL,Tire Load FR,Tire Load RL,Tire Load RR,Tire Loaded Radius FL,Tire Loaded Radius FR,Tire Loaded Radius RL,Tire Loaded Radius RR,Tire Pressure FL,Tire Pressure FR,Tire Pressure RL,Tire Pressure RR,Tire Radius FL,Tire Radius FR,Tire Radius RL,Tire Radius RR,Tire Rubber Grip FL,Tire Rubber Grip FR,Tire Rubber Grip RL,Tire Rubber Grip RR,Tire Slip Angle FL,Tire Slip Angle FR,Tire Slip Angle RL,Tire Slip Angle RR,Tire Slip Ratio FL,Tire Slip Ratio FR,Tire Slip Ratio RL,Tire Slip Ratio RR,Tire Temp Core FL,Tire Temp Core FR,Tire Temp Core RL,Tire Temp Core RR,Tire Temp Inner FL,Tire Temp Inner FR,Tire Temp Inner RL,Tire Temp Inner RR,Tire Temp Middle FL,Tire Temp Middle FR,Tire Temp Middle RL,Tire Temp Middle RR,Tire Temp Outer FL,Tire Temp Outer FR,Tire Temp Outer RL,Tire Temp Outer RR,Toe In FL,Toe In FR,Toe In RL,Toe In RR,Turbo Boost,Wheel Angular Speed FL,Wheel Angular Speed FR,Wheel Angular Speed RL,Wheel Angular Speed RR,Wind Direction,Wind Speed
0,0.0,0.0,0.0,1.0,1.0,0.0,0.0,1.0,0.0,100.0,1.0,1.1856,26.0,0.0,0.0,0.0,53.99999,0.0,26.0,26.0,26.0,26.0,-0.03922222222222216,0.28700000000000014,0.044625000000000005,293.579,-2.7432,-2.6301,-1.5287000000000002,-1.5282,-275.71,215.755,190.98775,0.0,0.0,0.0,0.0,0.0015666666666666051,-5.498166666666667,-5.498166666666667,-0.5552,1.7745,-0.00550000000000006,-0.1080000000000001,65.497,-0.038,-0.21745,0.3439999999999994,100.0,1.0,1.0,202.22,0.0,0.0,0.0,0.0,0.0,0.0,0.0,8571.4,0.0,55.0,5.0,235.76,0.0,0.0,0.0,0.0,0.0,0.0,0.0,0.0,0.0030000000000001137,0.0030000000000001137,0.0,0.0,0.0,55.0,616.79921,10000.0,85.0,85.0,85.0,85.0,395.0,0.0,0.0,0.0,1.0,20.0,51.666,51.666,49.057,49.057,34.0,-28.4775,30.028,-29.533333333333335,26.03,0.0,1782.904,0.4499999999999993,100.0,27.169,26.896,40.413,40.084,0.0,0.0,100.0,0.0,0.0,0.0,0.0,3203.285714285714,4119.1,4068.625,4091.4,305.008,302.15133333333335,314.942,314.684,21.7727,20.5097,21.7931,21.326,314.99999,314.99999,324.99998,324.99998,99.55872857142857,99.50706666666666,99.56617142857142,99.54571428571428,0.004999999999999893,-0.09833333333333316,-0.14716666666666667,0.0785,-0.03999999999999915,-0.03857142857143003,1.53,1.5495,37.08,29.185666666666666,37.207,34.2875,56.233999999999995,34.351,59.382,51.829,54.162,33.556,58.0005,50.174,53.34,33.1485,57.966499999999996,49.5945,-0.041999999999999926,-0.10650000000000004,0.10399000000000001,0.11050000000000001,0.0,205.24,205.175,202.22,202.22,0.0,0.0
1,0.0,0.0,0.0,1.0,1.0,0.0,0.0,1.0,0.0,100.0,1.0,1.1856,26.0,0.0,0.0,0.0,53.999996,0.0,26.0,26.0,26.0,26.0,-0.08633333333333337,0.33699999999999997,0.232875,292.816,-2.6532999999999998,-2.7082,-1.5426,-1.3731,-272.37,215.76999999999998,190.96775,0.0,0.0,0.0,0.0,0.0035333333333333883,-5.498166666666667,-5.498166666666667,-0.47950000000000004,-1.18,-0.053625000000000256,-0.542,65.656,-0.0454,-0.179875,1.0460000000000012,100.0,1.0,1.0,202.18333333333334,0.0,0.0,0.0,0.0,0.0,0.0,0.0,8569.8,0.0,55.0,5.0,236.32999999999998,1.0,0.0,0.0,0.0,0.0,0.0,0.0,0.0,0.053999999999998494,0.053999999999998494,0.0,0.0,1.0,55.0,616.79921,10000.0,85.000001,85.000001,85.000001,85.000001,395.0,0.0,0.0,0.0,1.0,333.33500000000004,54.306,54.306,47.867,47.867,34.0,-25.0075,16.444,-38.39,30.2275,0.0,1782.853,0.615000000000002,100.0,27.299,26.901,42.248000000000005,42.241,0.0,0.0,100.0,0.0,0.0,0.0,0.0,2946.4285714285716,2460.8,4705.125,5129.3,305.901,306.941,313.293,311.85975,21.7826,20.5147,21.804,21.3354,314.999998,314.999998,324.999988,324.999988,99.55874285714286,99.50708333333333,99.56632857142857,99.54585714285714,0.0030000000000001137,-0.12433333333333318,-0.17466666666666666,0.04466666666666667,-0.060000000000002274,-0.057142857142849834,1.3093333333333332,1.3555,37.141,29.217333333333336,37.275,34.346000000000004,56.217,34.3905,59.4285,51.8965,54.144999999999996,33.5925,58.044,50.239,53.323,33.1835,58.007,49.658,-0.025499999999999967,-0.12149999999999994,0.10803000000000001,0.11349500000000001,0.0,205.7,205.615,202.18333333333334,202.18333333333334,0.0,0.0
2,0.0,0.0,0.0,1.0,1.0,0.0,0.0,1.0,0.0,100.0,1.0,1.1856,26.0,0.0,0.0,0.0,53.999996,0.0,26.0,26.0,26.0,26.0,-0.10966666666666658,0.2792000000000001,-0.11900000000000001,294.174,-2.6267,-2.6712,-1.5186000000000002,-1.5238,-268.82,215.785,190.947875,0.0,0.0,0.0,0.0,0.005599999999999938,-5.498166666666667,-5.498166666666667,-0.5682,0.663,-0.024125000000000174,1.5710000000000002,65.8,-0.058600000000000006,-0.2626,1.2880000000000003,100.0,1.0,1.0,203.51,0.0,0.0,0.0,0.0,0.0,0.0,0.0,8626.0,0.0,55.0,5.0,236.85333333333335,0.0,0.0,0.0,0.0,0.0,0.0,0.0,0.0,0.10800000000000054,0.10800000000000054,0.0,0.0,0.0,55.0,616.79921,10000.0,85.000001,85.000001,85.000001,85.000001,395.0,0.0,0.0,0.0,1.0,166.665,52.414,52.414,50.934,50.934,34.0,-29.985,19.262,-26.683333333333337,17.8275,0.0,1782.799,0.7250000000000014,100.0,28.034,27.118,41.869,41.259,0.0,0.0,100.0,0.0,0.0,0.0,0.0,3369.4285714285716,2955.8,3576.625,3391.9,304.5635,305.2223333333333,316.137,316.47375,21.7933,20.5201,21.815,21.3444,314.999998,314.999998,324.999988,324.999988,99.55874285714286,99.5071,99.56647142857143,99.546,-0.01633333333333331,-0.14733333333333332,-0.20500000000000002,0.02733333333333333,-0.05666666666667197,-0.048571428571428044,1.749,1.7890000000000001,37.208,29.250666666666667,37.344,34.4025,56.203,34.433,59.4655,51.9505,54.131,33.632,58.0785,50.291,53.308,33.221000000000004,58.0385,49.7085,-0.029000000000000026,-0.13400000000000012,0.10321000000000001,0.10453000000000001,0.0,206.155,206.075,203.51,203.51,0.0,0.0
3,0.0,0.0,0.0,1.0,1.0,0.0,0.0,1.0,0.0,100.0,1.0,1.1856,26.0,0.0,0.0,0.0,53.999996,0.0,26.0,26.0,26.0,26.0,-0.1203333333333334,0.3087,0.1424,293.335,-2.6423,-2.7077,-1.5021,-1.4969999999999999,-265.85,215.79250000000002,190.93,0.0,0.0,0.0,0.0,0.007299999999999973,-5.498166666666667,-5.498166666666667,-0.5047,0.6325000000000001,-0.010499999999999954,-0.796,65.939,-0.0694,-0.18812500000000001,0.9900000000000002,100.0,1.0,1.0,203.36666666666667,0.0,0.0,0.0,0.0,0.0,0.0,0.0,8620.0,0.0,55.0,5.0,237.35000000000002,1.0,0.0,0.0,0.0,0.0,0.0,0.0,0.0,0.1529999999999987,0.1529999999999987,0.0,0.0,1.0,55.0,616.79921,10000.0,85.000001,85.000001,85.000001,85.000001,395.0,0.0,0.0,0.0,1.0,333.33500000000004,53.482,53.482,47.928,47.928,34.0,-25.5775,19.134,-34.519999999999996,24.81,0.0,1782.754,0.8099999999999987,100.0,27.777,27.06,42.141999999999996,41.509,0.0,0.0,100.0,0.0,0.0,0.0,0.0,2911.857142857143,2915.9,4446.875,4255.6,306.0035,305.54766666666666,313.98725,314.24775,21.8019,20.5247,21.8242,21.3524,314.999998,314.999998,324.999988,324.999988,99.55874285714286,99.50711666666666,99.56658571428571,99.54612857142857,-0.022666666666666613,-0.1463333333333332,-0.176,0.036333333333333336,-0.046666666666666856,-0.05285714285714249,1.458,1.4975,37.262,29.279333333333334,37.402,34.4525,56.187,34.4715,59.5,52.0075,54.117000000000004,33.667500000000004,58.1105,50.3455,53.293,33.254999999999995,58.068,49.7625,-0.010499999999999954,-0.13549999999999995,0.10030000000000001,0.10755,0.0,206.63,206.535,203.36666666666667,203.36666666666667,0.0,0.0
4,0.0,0.0,0.0,1.0,1.0,0.0,0.0,1.0,0.0,100.0,1.0,1.1856,26.0,0.0,0.0,0.0,53.999996,0.0,26.0,26.0,26.0,26.0,-0.13722222222222213,0.28680000000000017,-0.030750000000000003,293.564,-2.6657,-2.7829,-1.4448,-1.5935000000000001,-262.29,215.8,190.909375,0.0,0.0,0.0,0.0,0.009366666666666523,-5.498166666666667,-5.498166666666667,-0.534,-0.889,-0.0691250000000001,0.137,66.094,-0.0806,-0.235375,1.4440000000000008,100.0,1.0,1.0,204.0,0.0,0.0,0.0,0.0,0.0,0.0,0.0,8646.8,0.0,55.0,5.0,237.91,0.0,0.0,0.0,0.0,0.0,0.0,0.0,0.0,0.20700000000000074,0.20700000000000074,0.0,0.0,0.0,55.0,616.79921,10000.0,85.000001,85.000001,85.000001,85.000001,395.0,0.0,0.0,0.0,1.0,166.665,53.223,53.223,48.737,48.737,34.0,-29.02,19.354,-31.72,21.747500000000002,0.0,1782.7,0.8500000000000014,100.0,27.69,26.613,42.957,41.664,0.0,0.0,100.0,0.0,0.0,0.0,0.0,3187.857142857143,2938.3,4102.75,3811.6000000000004,305.0955,305.54,314.79875,315.34875,21.8124,20.53,21.8356,21.3619,314.999998,314.999998,324.999988,324.999988,99.55875714285715,99.50713333333333,99.56674285714286,99.54627142857143,-0.028666666666666618,-0.15966666666666662,-0.20700000000000002,0.01916666666666667,-0.04833333333333201,-0.05571428571428072,1.5516666666666667,1.6065,37.327,29.312666666666665,37.473,34.512,56.171,34.5155,59.544,52.07,54.101,33.707499999999996,58.152,50.4055,53.277,33.2935,58.107,49.821,-0.01100000000000001,-0.14200000000000013,0.108005,0.10494,0.0,207.04000000000002,206.94,204.0,204.0,0.0,0.0
5,0.0,0.0,0.0,1.0,1.0,0.0,0.0,1.0,0.0,100.0,1.0,1.1856,26.0,0.0,0.0,0.0,53.999996,0.0,26.0,26.0,26.0,26.0,-0.1343333333333333,0.29069999999999996,-0.034025,293.839,-2.6923,-2.7407,-1.4955,-1.6118000000000001,-258.91,215.8025,190.889375,0.0,0.0,0.0,0.0,0.011333333333333306,-5.498166666666667,-5.498166666666667,-0.5376000000000001,0.483,-0.06824999999999992,-0.6040000000000001,66.239,-0.09620000000000001,-0.2179,1.3920000000000012,100.0,1.0,1.0,204.51666666666665,0.0,0.0,0.0,0.0,0.0,0.0,0.0,8668.7,0.0,55.0,5.0,238.43,1.0,0.0,0.0,0.0,0.0,0.0,0.0,0.0,0.2579999999999991,0.2579999999999991,0.0,0.0,1.0,55.0,616.79921,10000.0,85.000001,85.000001,85.000001,85.000001,395.0,0.0,0.0,0.0,1.0,166.665,53.467,53.467,49.286,49.286,34.0,-29.8975,18.258,-32.93,21.4525,0.0,1782.649,0.6449999999999996,100.0,27.562,26.627,42.491,41.215,0.0,0.0,100.0,0.0,0.0,0.0,0.0,3230.857142857143,2805.2,4053.25,3922.5,305.101,305.75933333333336,315.018,315.10925,21.8223,20.5351,21.846,21.3706,314.999998,314.999998,324.999988,324.999988,99.55875714285715,99.50715,99.56688571428572,99.54641428571429,-0.03733333333333322,-0.15766666666666662,-0.23166666666666666,-0.0051666666666666675,-0.05333333333332746,-0.06714285714285495,1.553,1.6275,37.388999999999996,29.34433333333333,37.538,34.5665,56.157,34.557,59.5815,52.126,54.088,33.746,58.187,50.4595,53.263,33.33,58.138999999999996,49.874,-0.025000000000000022,-0.1200000000000001,0.10422000000000001,0.10689000000000001,0.0,207.54500000000002,207.43,204.51666666666665,204.51666666666665,0.0,0.0
6,0.0,0.0,0.0,1.0,1.0,0.0,0.0,1.0,0.0,100.0,1.0,1.1856,26.0,0.0,0.0,0.0,53.999996,0.0,26.0,26.0,26.0,26.0,-0.16788888888888887,0.2913000000000001,0.005925000000000001,293.564,-2.6271,-2.8099,-1.5394999999999999,-1.5865,-255.93,215.8025,190.871125,0.0,0.0,0.0,0.0,0.01306666666666656,-5.498166666666667,-5.498166666666667,-0.5236000000000001,-0.037,-0.07525000000000004,0.6499999999999999,66.37,-0.10200000000000001,-0.2011,1.1720000000000006,100.0,1.0,1.0,204.7733333333333,0.0,0.0,0.0,0.0,0.0,0.0,0.0,8679.6,0.0,55.0,5.0,238.90333333333334,0.0,0.0,0.0,0.0,0.0,0.0,0.0,0.0,0.3030000000000008,0.3030000000000008,0.0,0.0,0.0,55.0,616.79921,10000.0,85.000001,85.000001,85.000001,85.000001,395.0,0.0,0.0,0.0,1.0,166.665,53.665,53.665,48.492,48.492,34.0,-28.055,19.07,-35.806666666666665,22.8275,0.0,1782.604,0.5599999999999987,100.0,27.601,26.32,42.814,41.31,0.0,0.0,100.0,0.0,0.0,0.0,0.0,3119.285714285714,2864.7,4262.5,4092.1000000000004,305.276,305.75166666666667,314.41775,314.738,21.831,20.5395,21.8554,21.3786,314.999998,314.999998,324.999988,324.999988,99.55875714285715,99.50716666666666,99.56701428571428,99.54652857142857,-0.030000000000000027,-0.15900000000000003,-0.226,0.0016666666666666668,-0.03499999999999659,-0.06428571428571672,1.4913333333333334,1.5475,37.443,29.372,37.596000000000004,34.616,56.144,34.5935,59.6175,52.1795,54.076,33.7795,58.2205,50.5105,53.248999999999995,33.362,58.17,49.923500000000004,-0.02749999999999997,-0.11450000000000005,0.11117500000000001,0.10859500000000001,0.0,207.925,207.85000000000002,204.7733333333333,204.7733333333333,0.0,0.0
7,0.0,0.0,0.0,1.0,1.0,0.0,0.0,1.0,0.0,100.0,1.0,1.1856,26.0,0.0,0.0,0.0,53.999996,0.0,26.0,26.0,26.0,26.0,-0.12577777777777777,0.28070000000000017,0.0007,293.503,-2.5978,-2.8006,-1.5001,-1.6289,-252.34,215.8,190.849375,0.0,0.0,0.0,0.0,0.01516666666666655,-5.498166666666667,-5.498166666666667,-0.5351,0.07,-0.0625,1.1280000000000001,66.523,-0.10200000000000001,-0.22105000000000002,0.9039999999999999,100.0,1.0,1.0,205.32,0.0,0.0,0.0,0.0,0.0,0.0,0.0,8702.7,0.0,55.0,5.0,239.45666666666668,1.0,0.0,0.0,0.0,0.0,0.0,0.0,0.0,0.3569999999999993,0.3569999999999993,0.0,0.0,1.0,55.0,616.79921,10000.0,85.000001,85.000001,85.000001,85.000001,395.0,0.0,0.0,0.0,1.0,166.665,53.131,53.131,48.965,48.965,34.0,-26.8925,20.83,-32.269999999999996,22.6225,0.0,1782.55,0.07000000000000028,100.0,27.947,26.628,42.870000000000005,41.485,0.0,0.0,100.0,0.0,0.0,0.0,0.0,3136.5714285714284,2941.9,4023.25,3969.7,305.1305,305.4676666666667,314.98775,315.003,21.8415,20.545,21.8666,21.3881,314.999998,314.999998,324.999988,324.999988,99.55875714285715,99.50718333333333,99.56717142857143,99.54668571428572,-0.0009999999999998899,-0.1293333333333333,-0.21683333333333335,0.0033333333333333335,-0.03333333333333144,-0.06857142857143117,1.5336666666666665,1.5725,37.509,29.406,37.667,34.6755,56.129999999999995,34.637,59.6595,52.242,54.062,33.8195,58.2595,50.570499999999996,53.235,33.4,58.206,49.9825,-0.06899999999999995,-0.08250000000000002,0.10176500000000001,0.103025,0.0,208.38,208.34,205.32,205.32,0.0,0.0
8,0.0,0.0,0.0,1.0,1.0,0.0,0.0,1.0,0.0,100.0,1.0,1.1856,26.0,0.0,0.0,0.0,53.999996,0.0,26.0,26.0,26.0,26.0,-0.08244444444444443,0.2925,-0.015875,293.518,-2.6797,-2.731,-1.478,-1.6221,-248.94,215.79250000000002,190.828625,0.0,0.0,0.0,0.0,0.017133333333333334,-5.498166666666667,-5.498166666666667,-0.5377000000000001,-0.3615,-0.054625000000000146,-0.948,66.669,-0.085,-0.219275,0.5179999999999989,100.0,1.0,1.0,205.70666666666668,0.0,0.0,0.0,0.0,0.0,0.0,0.0,8719.2,0.0,55.0,5.0,239.98000000000002,0.0,0.0,0.0,0.0,0.0,0.0,0.0,0.0,0.40800000000000125,0.40800000000000125,0.0,0.0,0.0,55.0,616.79921,10000.0,85.000001,85.000001,85.000001,85.000001,395.0,0.0,0.0,0.0,1.0,166.665,53.452,53.452,48.447,48.447,34.0,-27.405,20.164,-31.553333333333335,23.7475,0.0,1782.499,0.030000000000001137,100.0,27.448999999999998,26.84,42.870000000000005,41.736000000000004,0.0,0.0,100.0,0.0,0.0,0.0,0.0,3136.4285714285716,2897.7,4097.5,3982.5,305.427,305.473,314.8585,314.87325,21.8512,20.5501,21.8772,21.397,314.999998,314.999998,324.999988,324.999988,99.55877142857143,99.50721666666666,99.56732857142858,99.54682857142858,-0.00533333333333319,-0.1256666666666666,-0.19466666666666665,0.021166666666666667,-0.054999999999999716,-0.030000000000001137,1.532,1.5405,37.57,29.438000000000002,37.733000000000004,34.7315,56.113,34.6775,59.699,52.302,54.046,33.8565,58.2965,50.628,53.218,33.4355,58.24,50.0385,-0.07050000000000001,-0.07050000000000001,0.10164500000000001,0.10756,0.0,208.825,208.76999999999998,205.70666666666668,205.70666666666668,0.0,0.0
9,0.0,0.0,0.0,1.0,1.0,0.0,0.0,1.0,0.0,100.0,1.0,1.1856,26.0,0.0,0.0,0.0,53.999996,0.0,26.0,26.0,26.0,26.0,-0.08333333333333337,0.29400000000000004,0.022875,293.259,-2.5955,-2.7459,-1.5307,-1.5784,-245.94,215.785,190.810125,0.0,0.0,0.0,0.0,0.018899999999999917,-5.498166666666667,-5.498166666666667,-0.5375,0.40900000000000003,-0.06000000000000005,0.856,66.79599999999999,-0.0704,-0.21477500000000002,0.30600000000000094,100.0,1.0,1.0,206.13666666666666,0.0,0.0,0.0,0.0,0.0,0.0,0.0,8737.4,0.0,55.0,5.0,240.43666666666667,1.0,0.0,0.0,0.0,0.0,0.0,0.0,0.0,0.4529999999999994,0.4529999999999994,0.0,0.0,1.0,55.0,616.79921,10000.0,85.000001,85.000001,85.000001,85.000001,395.0,0.0,0.0,0.0,1.0,333.33500000000004,52.795,52.795,48.935,48.935,34.0,-26.325,22.164,-30.9,24.4125,0.0,1782.454,-0.134999999999998,100.0,28.021,26.867,42.786,41.622,0.0,0.0,100.0,0.0,0.0,0.0,0.0,3224.5714285714284,3010.8,4042.0,4078.1000000000004,304.9305,305.2973333333333,314.9865,314.78775,21.8599,20.5547,21.886499999999998,21.4049,314.999998,314.999998,324.999988,324.999988,99.55877142857143,99.50721666666666,99.56744285714285,99.54694285714285,0.029666666666666952,-0.09799999999999986,-0.178,0.03766666666666667,-0.03833333333332689,-0.060000000000002274,1.5393333333333334,1.5695000000000001,37.623999999999995,29.467,37.791,34.781,56.099999999999994,34.713499999999996,59.732,52.3535,54.034,33.8895,58.3275,50.6775,53.205,33.467,58.268,50.0865,-0.08450000000000002,-0.062000000000000055,0.10319,0.10416500000000001,0.0,209.215,209.19,206.13666666666666,206.13666666666666,0.0,0.0
10,0.0,0.0,0.0,1.0,1.0,0.0,0.0,1.0,0.0,100.0,1.0,1.1856,26.0,0.0,0.0,0.0,53.999996,0.0,26.0,26.0,26.0,26.0,-0.04877777777777781,0.2903,0.014100000000000001,293.213,-2.6669,-2.7134,-1.5028000000000001,-1.556,-242.32999999999998,215.775,190.78825,0.0,0.0,0.0,0.0,0.020999999999999908,-5.498166666666667,-5.498166666666667,-0.5258,-0.46,-0.02287499999999998,1.7850000000000001,66.95,-0.0499,-0.21050000000000002,0.03200000000000003,100.0,1.0,1.0,206.49,0.0,0.0,0.0,0.0,0.0,0.0,0.0,8752.3,0.0,55.0,5.0,240.99,0.0,0.0,0.0,0.0,0.0,0.0,1.0,0.0,0.5069999999999979,0.5069999999999979,0.0,0.0,0.0,55.0,616.79921,10000.0,85.000001,85.000001,85.000001,85.000001,395.0,0.0,0.0,0.0,1.0,166.665,53.452,53.452,48.157,48.157,34.0,-23.735,22.162,-30.443333333333335,27.7375,0.0,1782.399,-0.23499999999999943,100.0,27.822,26.799,43.037,42.105000000000004,0.0,0.0,100.0,0.0,0.0,0.0,0.0,2948.857142857143,2974.1,4133.875,4266.6,305.7915,305.471,314.7045,314.30775,21.8702,20.560200000000002,21.8978,21.4146,314.999998,314.999998,324.999988,324.999988,99.55877142857143,99.50723333333333,99.5676,99.5471,0.04366666666666674,-0.08166666666666678,-0.15333333333333335,0.07333333333333333,-0.03333333333333144,-0.054285714285711606,1.4903333333333333,1.4955,37.689,29.501333333333335,37.861000000000004,34.841,56.085,34.7545,59.774,52.4185,54.019,33.9275,58.3665,50.7395,53.19,33.503,58.3045,50.1475,-0.09299999999999997,-0.0535000000000001,0.10509,0.11088500000000001,0.0,209.66500000000002,209.675,206.49,206.49,0.0,0.0
11,0.0,0.0,0.0,1.0,1.0,0.0,0.0,1.0,0.0,100.0,1.0,1.1856,26.0,0.0,0.0,0.0,53.999996,0.0,26.0,26.0,26.0,26.0,-0.04366666666666663,0.28390000000000004,-0.0541,293.594,-2.6749,-2.7055,-1.5571000000000002,-1.5287000000000002,-239.11,215.7625,190.768625,0.0,0.0,0.0,0.0,0.022599999999999953,-5.498166666666667,-5.498166666666667,-0.554,-0.1625,-0.002000000000000224,0.687,67.082,-0.0341,-0.22820000000000001,-0.12199999999999989,100.0,1.0,1.0,207.09,0.0,0.0,0.0,0.0,0.0,0.0,0.0,8777.8,0.0,55.0,5.0,241.46666666666667,1.0,0.0,0.0,0.0,0.0,0.0,1.0,0.0,0.5549999999999997,0.5549999999999997,0.0,0.0,1.0,55.0,616.79921,10000.0,85.000001,85.000001,85.000001,85.000001,395.0,0.0,0.0,0.0,1.0,166.665,53.192,53.192,49.118,49.118,34.0,-24.259999999999998,23.782,-27.623333333333335,25.47,0.0,1782.351,-0.22500000000000142,100.0,27.554000000000002,26.943,42.624,42.078,0.0,0.0,100.0,0.0,0.0,0.0,0.0,3044.285714285714,3086.4,3828.75,3968.5,305.509,305.08133333333336,315.53225,315.059,21.8793,20.5652,21.9076,21.423099999999998,314.999998,314.999998,324.999988,324.999988,99.55878571428572,99.50723333333333,99.56772857142857,99.54722857142858,0.05466666666666642,-0.06633333333333313,-0.14816666666666667,0.09083333333333334,-0.045000000000001705,-0.05142857142856627,1.5966666666666667,1.6035,37.745999999999995,29.532333333333334,37.923,34.894,56.07,34.7915,59.8065,52.4735,54.004999999999995,33.9615,58.397,50.793,53.175,33.5355,58.332,50.2,-0.09550000000000003,-0.052999999999999936,0.11444000000000001,0.10616,0.0,210.07,210.075,207.09,207.09,0.0,0.0
12,0.0,0.0,0.0,1.0,1.0,0.0,0.0,1.0,0.0,100.0,1.0,1.1856,26.0,0.0,0.0,0.0,53.999996,0.0,26.0,26.0,26.0,26.0,-0.028666666666666618,0.28680000000000017,0.0119,293.152,-2.7044,-2.709,-1.5318,-1.5517,-235.89,215.7525,190.748,0.0,0.0,0.0,0.0,0.025466666666666526,-5.498166666666667,-5.498166666666667,-0.5437000000000001,0.34600000000000003,-0.004624999999999879,0.899,67.217,-0.015600000000000001,-0.205525,-0.33200000000000074,100.0,1.0,1.0,207.37333333333333,0.0,0.0,0.0,0.0,0.0,0.0,0.0,8789.8,0.0,55.0,5.0,241.95333333333335,0.0,0.0,0.0,0.0,0.0,0.0,1.0,0.0,0.602999999999998,0.602999999999998,0.0,0.0,0.0,55.0,616.79921,10000.0,85.000001,85.000001,85.000001,85.000001,395.0,0.0,0.0,0.0,1.0,333.33500000000004,52.994,52.994,48.248,48.248,34.0,-25.81,22.810000000000002,-28.599999999999998,28.85,0.0,1782.302,0.5,100.0,27.561,27.153,42.556,42.065,0.0,0.0,100.0,0.0,0.0,0.0,0.0,3066.0,3127.3,4130.5,4188.3,305.424,304.935,314.779,314.5495,21.8884,20.5702,21.9175,21.4315,314.999998,314.999998,324.999988,324.999988,99.55878571428572,99.50723333333333,99.56785714285714,99.54735714285714,0.02933333333333321,-0.09899999999999998,-0.1165,0.11116666666666668,-0.03499999999999659,-0.06571428571428584,1.5443333333333333,1.5295,37.803,29.564,37.985,34.947,56.057,34.8275,59.841499999999996,52.5295,53.992999999999995,33.9945,58.4295,50.8465,53.162,33.567499999999995,58.3615,50.2525,-0.052999999999999936,-0.09699999999999998,0.11042500000000001,0.106605,0.0,210.5,210.54000000000002,207.37333333333333,207.37333333333333,0.0,0.0
13,0.0,0.0,0.0,1.0,1.0,0.0,0.0,1.0,0.0,100.0,1.0,1.1856,26.0,0.0,0.0,0.0,53.999996,0.0,26.0,26.0,26.0,26.0,0.016222222222222138,0.2844,0.03325,292.74,-2.6715,-2.7138999999999998,-1.5588000000000002,-1.5617,-232.46,215.74,190.72625,0.0,0.0,0.0,0.0,0.026733333333333387,-5.498166666666667,-5.498166666666667,-0.5372,-0.1665,-0.012125000000000163,-0.3800000000000001,67.36,-0.0067,-0.212425,-0.1299999999999999,100.0,1.0,1.0,207.73000000000002,0.0,0.0,0.0,0.0,0.0,0.0,0.0,8804.9,0.0,55.0,5.0,242.47,1.0,0.0,0.0,0.0,0.0,0.0,1.0,0.0,0.6539999999999999,0.6539999999999999,0.0,0.0,1.0,55.0,616.79921,10000.0,85.000001,85.000001,85.000001,85.000001,395.0,0.0,0.0,0.0,1.0,166.665,52.75,52.75,48.004,48.004,34.0,-23.7675,24.278,-30.23,28.8175,0.0,1782.253,-0.3099999999999987,100.0,27.733,27.502,42.78,42.652,0.0,0.0,100.0,0.0,0.0,0.0,0.0,3192.0,2991.6,4237.625,4215.7,305.2175,305.17133333333334,314.5585,314.35925,21.8982,20.5756,21.9282,21.4407,314.999998,314.999998,324.999988,324.999988,99.5588,99.50725,99.56801428571428,99.54751428571429,0.09200000000000008,-0.04033333333333311,-0.11983333333333333,0.09783333333333333,-0.06333333333333258,-0.044285714285713595,1.492,1.4975,37.864000000000004,29.597666666666665,38.051,35.0045,56.044,34.867,59.879999999999995,52.591499999999996,53.980000000000004,34.031,58.4655,50.906,53.147999999999996,33.602000000000004,58.3945,50.311,-0.11349999999999993,-0.040000000000000036,0.107465,0.10259000000000001,0.0,210.95,210.925,207.73000000000002,207.73000000000002,0.0,0.0
14,0.0,0.0,0.0,1.0,1.0,0.0,0.0,1.0,0.0,100.0,1.0,1.1856,26.0,0.0,0.0,0.0,53.999996,0.0,26.0,26.0,26.0,26.0,0.013666666666666716,0.26780000000000004,-0.018925,292.938,-2.6965,-2.7154,-1.5636999999999999,-1.5478,-229.01999999999998,215.72750000000002,190.704875,0.0,0.0,0.0,0.0,0.02873333333333339,-5.498166666666667,-5.498166666666667,-0.5497000000000001,-0.0735,0.015625,1.147,67.5,0.0017000000000000001,-0.22710000000000002,-0.30600000000000005,100.0,1.0,1.0,208.26,0.0,0.0,0.0,0.0,0.0,0.0,0.0,8827.4,0.0,55.0,5.0,242.97,0.0,0.0,0.0,0.0,0.0,0.0,1.0,0.0,0.7049999999999983,0.7049999999999983,0.0,0.0,0.0,55.0,616.79921,10000.0,85.000001,85.000001,85.000001,85.000001,395.0,0.0,0.0,0.0,1.0,333.33500000000004,52.689,52.689,48.248,48.248,34.0,-22.5775,25.77,-27.403333333333332,29.240000000000002,0.0,1782.2,-0.3550000000000004,100.0,27.843,27.525,42.78,42.678,0.0,0.0,100.0,0.0,0.0,0.0,0.0,3000.714285714286,3150.5,3966.375,4154.8,305.6205,304.782,315.1585,314.5935,21.907899999999998,20.5811,21.9387,21.4499,314.999998,314.999998,324.999988,324.999988,99.55881428571429,99.50726666666667,99.56815714285715,99.54765714285715,0.09100000000000019,-0.03766666666666674,-0.1105,0.12383333333333334,-0.036666666666668846,-0.06285714285714761,1.5403333333333333,1.5310000000000001,37.924,29.631666666666668,38.117000000000004,35.0615,56.03,34.9075,59.918,52.6555,53.967,34.0685,58.5005,50.968,53.134,33.638,58.4265,50.371,-0.10949999999999993,-0.04800000000000004,0.10901500000000001,0.10655500000000001,0.0,211.375,211.38,208.26,208.26,0.0,0.0
15,0.0,0.0,0.0,1.0,1.0,0.0,0.0,1.0,0.0,100.0,1.0,1.1856,26.0,0.0,0.0,0.0,53.999996,0.0,26.0,26.0,26.0,26.0,0.02055555555555566,0.2753000000000001,0.009725000000000001,292.862,-2.6967,-2.6823,-1.5801,-1.5554000000000001,-225.76999999999998,215.715,190.6845,0.0,0.0,0.0,0.0,0.03059999999999996,-5.498166666666667,-5.498166666666667,-0.5421,0.2685,0.03400000000000003,0.775,67.633,0.0102,-0.211675,-0.36599999999999966,100.0,1.0,1.0,208.62333333333333,0.0,0.0,0.0,0.0,0.0,0.0,0.0,8842.8,0.0,55.0,5.0,243.44666666666666,1.0,0.0,0.0,0.0,0.0,0.0,1.0,0.0,0.7530000000000001,0.7530000000000001,0.0,0.0,1.0,55.0,616.79921,10000.0,85.000001,85.000001,85.000001,85.000001,395.0,0.0,0.0,0.0,1.0,333.33500000000004,52.795,52.795,48.203,48.203,34.0,-21.65,25.292,-27.063333333333333,30.8425,0.0,1782.154,-0.3049999999999997,100.0,27.846,27.616,42.594,42.757,0.0,0.0,100.0,0.0,0.0,0.0,0.0,2933.4285714285716,3130.3,4017.125,4299.3,305.8265,304.8346666666667,315.05975,314.2055,21.9169,20.586199999999998,21.9485,21.4585,314.999998,314.999998,324.999988,324.999988,99.55882857142858,99.50726666666667,99.56828571428571,99.54778571428571,0.0993333333333335,-0.038000000000000034,-0.09033333333333333,0.12633333333333333,-0.03499999999999659,-0.05142857142856627,1.5276666666666667,1.5150000000000001,37.980999999999995,29.663666666666664,38.178,35.1155,56.019,34.9415,59.949,52.7095,53.956,34.1,58.5295,51.0195,53.122,33.6685,58.4525,50.422,-0.10549999999999993,-0.0495000000000001,0.10700000000000001,0.102275,0.0,211.775,211.805,208.62333333333333,208.62333333333333,0.0,0.0
16,0.0,0.0,0.0,1.0,1.0,0.0,0.0,1.0,0.0,100.0,1.0,1.1856,26.0,0.0,0.0,0.0,53.999996,0.0,26.0,26.0,26.0,26.0,0.016222222222222138,0.2781,-0.0070750000000000006,292.877,-2.7553,-2.6348000000000003,-1.5546,-1.557,-222.12,215.7025,190.66125,0.0,0.0,0.0,0.0,0.03273333333333339,-5.498166666666667,-5.498166666666667,-0.5579000000000001,-0.493,0.020375000000000032,0.138,67.781,0.0154,-0.225825,-0.2320000000000002,100.0,1.0,1.0,209.08666666666667,0.0,0.0,0.0,0.0,0.0,0.0,0.0,8862.4,0.0,55.0,5.0,243.98333333333335,0.0,0.0,0.0,0.0,0.0,0.0,1.0,0.0,0.8069999999999986,0.8069999999999986,0.0,0.0,0.0,55.0,616.79921,10000.0,85.000001,85.000001,85.000001,85.000001,395.0,0.0,0.0,0.0,1.0,166.665,52.658,52.658,48.019,48.019,34.0,-23.665,25.814,-26.543333333333337,29.4725,0.0,1782.1,-0.19000000000000128,100.0,27.552,27.608,42.855000000000004,42.874,0.0,0.0,100.0,0.0,0.0,0.0,0.0,3079.285714285714,3230.7,3996.25,4090.2,305.482,304.612,315.09675,314.70025,21.927,20.592,21.9598,21.4682,314.999998,314.999998,324.999988,324.999988,99.55884285714286,99.50726666666667,99.56844285714286,99.54794285714286,0.09166666666666634,-0.03499999999999992,-0.09083333333333334,0.1365,-0.03333333333333144,-0.06428571428571672,1.544,1.543,38.043,29.7,38.248000000000005,35.176,56.004000000000005,34.9825,59.988,52.772999999999996,53.941,34.1375,58.566,51.081,53.107,33.704499999999996,58.486,50.4825,-0.09299999999999997,-0.06150000000000011,0.10813,0.10225000000000001,0.0,212.20499999999998,212.245,209.08666666666667,209.08666666666667,0.0,0.0
17,0.0,0.0,0.0,1.0,1.0,0.0,0.0,1.0,0.0,100.0,1.0,1.1856,26.0,0.0,0.0,0.0,53.999996,0.0,26.0,26.0,26.0,26.0,0.01388888888888884,0.28659999999999997,0.01795,292.48,-2.7148,-2.6185,-1.5918999999999999,-1.5219,-218.66,215.6925,190.63875,0.0,0.0,0.0,0.0,0.034733333333333394,-5.498166666666667,-5.498166666666667,-0.5481,0.2965,-0.008000000000000007,-0.9390000000000001,67.92,0.0142,-0.20795000000000002,-0.07200000000000006,100.0,1.0,1.0,209.45333333333332,0.0,0.0,0.0,0.0,0.0,0.0,0.0,8877.9,0.0,55.0,5.0,244.48333333333335,1.0,0.0,0.0,0.0,0.0,0.0,1.0,0.0,0.8580000000000005,0.8580000000000005,0.0,0.0,1.0,55.0,616.79921,10000.0,85.000001,85.000001,85.000001,85.000001,395.0,0.0,0.0,0.0,1.0,166.665,52.46,52.46,47.653,47.653,34.0,-24.655,23.646,-30.806666666666665,29.8325,0.0,1782.05,-0.1750000000000007,100.0,27.815,27.876,42.707,42.928,0.0,0.0,100.0,0.0,0.0,0.0,0.0,3231.857142857143,3037.9,4369.875,4217.8,305.1675,305.04533333333336,314.355,314.4165,21.9366,20.5975,21.9702,21.4772,314.999998,314.999998,324.999988,324.999988,99.55884285714286,99.50728333333333,99.56858571428572,99.54808571428572,0.08800000000000008,-0.04600000000000004,-0.10350000000000001,0.12966666666666665,-0.05833333333333002,-0.03999999999999915,1.5016666666666667,1.5155,38.104,29.734333333333332,38.314,35.2325,55.992000000000004,35.0215,60.024,52.833,53.93,34.173500000000004,58.5995,51.1385,53.094,33.739,58.5165,50.5385,-0.09550000000000003,-0.062000000000000055,0.10845,0.11761,0.0,212.69,212.675,209.45333333333332,209.45333333333332,0.0,0.0
18,0.0,0.0,0.0,1.0,1.0,0.0,0.0,1.0,0.0,100.0,1.0,1.1856,26.0,0.0,0.0,0.0,53.999996,0.0,26.0,26.0,26.0,26.0,0.0003333333333332966,0.2822,0.000625,292.48,-2.7314,-2.608,-1.5958999999999999,-1.4792,-215.6,215.6825,190.619,0.0,0.0,0.0,0.0,0.03653333333333331,-5.498166666666667,-5.498166666666667,-0.5592,-0.444,0.0068749999999999645,1.013,68.043,0.0085,-0.221,-0.08000000000000007,100.0,1.0,1.0,209.83666666666667,0.0,0.0,0.0,0.0,0.0,0.0,0.0,8894.2,0.0,55.0,5.0,244.92666666666668,0.0,0.0,0.0,0.0,0.0,0.0,1.0,0.0,0.9029999999999987,0.9029999999999987,0.0,0.0,0.0,55.0,616.79921,10000.0,85.000001,85.000001,85.000001,85.000001,395.0,0.0,0.0,0.0,1.0,166.665,52.382999999999996,52.382999999999996,47.699,47.699,34.0,-24.1475,26.067999999999998,-28.836666666666666,29.31,0.0,1782.004,-0.21499999999999986,100.0,27.856,27.605,43.053,43.043,0.0,0.0,100.0,0.0,0.0,0.0,0.0,3143.714285714286,3281.4,4130.0,4236.4,305.297,304.5346666666667,314.806,314.42475,21.9449,20.6023,21.9796,21.4853,314.999998,314.999998,324.999988,324.999988,99.55885714285715,99.50728333333333,99.56871428571428,99.54821428571428,0.08899999999999997,-0.032333333333333325,-0.10183333333333333,0.12966666666666665,-0.036666666666668846,-0.06142857142857139,1.5173333333333334,1.52,38.156,29.764333333333333,38.372,35.283500000000004,55.980000000000004,35.055,60.057,52.887,53.918,34.204499999999996,58.629999999999995,51.1905,53.082,33.7685,58.544,50.5895,-0.09050000000000002,-0.05800000000000005,0.10792,0.10894000000000001,0.0,213.035,213.035,209.83666666666667,209.83666666666667,0.0,0.0
19,0.0,0.0,0.0,1.0,1.0,0.0,0.0,1.0,0.0,100.0,1.0,1.1856,26.0,0.0,0.0,0.0,53.999996,0.0,26.0,26.0,26.0,26.0,0.012555555555555653,0.28790000000000004,0.073225,292.007,-2.6517,-2.7041,-1.5286,-1.4642,-212.12,215.6725,190.59625,0.0,0.0,0.0,0.0,0.03853333333333331,-5.498166666666667,-5.498166666666667,-0.5494,0.7225,0.013249999999999984,-0.708,68.18,0.006200000000000001,-0.21365,-0.06599999999999984,100.0,1.0,1.0,210.23333333333335,0.0,0.0,0.0,0.0,0.0,0.0,0.0,8911.0,0.0,55.0,5.0,245.42000000000002,1.0,0.0,0.0,0.0,0.0,0.0,1.0,0.0,0.9540000000000006,0.9540000000000006,0.0,0.0,1.0,55.0,616.79921,10000.0,85.000001,85.000001,85.000001,85.000001,395.0,0.0,0.0,0.0,1.0,333.33500000000004,51.804,51.804,47.516,47.516,34.0,-24.25,25.03,-29.4,29.6625,0.0,1781.951,-0.2049999999999983,100.0,28.292,28.32,42.844,43.178,0.0,0.0,100.0,0.0,0.0,0.0,0.0,3218.4285714285716,3113.8,4257.375,4388.5,305.0915,304.634,314.53975,314.0345,21.9545,20.6079,21.99,21.4945,314.999998,314.999998,324.999988,324.999988,99.55887142857142,99.5073,99.56885714285714,99.54837142857143,0.08433333333333337,-0.052999999999999936,-0.11083333333333333,0.11483333333333333,-0.036666666666668846,-0.03999999999999915,1.513,1.499,38.216,29.799666666666667,38.438,35.3405,55.968,35.0975,60.094,52.951,53.907,34.244,58.664500000000004,51.251999999999995,53.069,33.8065,58.5755,50.65,-0.09650000000000003,-0.0625,0.10898000000000001,0.10695,0.0,213.485,213.485,210.23333333333335,210.23333333333335,0.0,0.0
20,0.0,0.0,0.0,1.0,1.0,0.0,0.0,1.0,0.0,100.0,1.0,1.1856,26.0,0.0,0.0,0.0,53.999996,0.0,26.0,26.0,26.0,26.0,0.004444444444444473,0.2622,0.02185,292.282,-2.7428,-2.6622,-1.5344,-1.5875,-208.64,215.6625,190.573875,0.0,0.0,0.0,0.0,0.04056666666666653,-5.498166666666667,-5.498166666666667,-0.5544,-0.9995,0.011749999999999927,0.5229999999999999,68.319,0.005200000000000001,-0.224775,-0.10599999999999987,100.0,1.0,1.0,210.61,0.0,0.0,0.0,0.0,0.0,0.0,0.0,8927.0,0.0,55.0,5.0,245.92000000000002,0.0,0.0,0.0,0.0,0.0,0.0,0.0,0.0,1.004999999999999,1.004999999999999,0.0,0.0,0.0,55.0,616.79921,10000.0,85.000001,85.000001,85.000001,85.000001,395.0,0.0,0.0,0.0,1.0,333.33500000000004,52.612,52.612,47.089,47.089,34.0,-23.15,24.476,-28.156666666666663,30.66,0.0,1781.902,-0.14499999999999957,100.0,28.02,27.893,43.58,43.564,0.0,0.0,100.0,0.0,0.0,0.0,0.0,2993.0,3127.5,4135.75,4224.1,305.7695,304.961,314.70125,314.32025,21.9638,20.6134,22.0007,21.5038,314.999998,314.999998,324.999988,324.999988,99.55887142857142,99.5073,99.56901428571429,99.54851428571429,0.08266666666666644,-0.04966666666666675,-0.098,0.11966666666666667,-0.02499999999999858,-0.048571428571428044,1.475,1.4635,38.274,29.833666666666666,38.504000000000005,35.3985,55.954,35.1335,60.1305,53.009,53.893,34.277,58.698499999999996,51.3085,53.055,33.838,58.6065,50.705,-0.08650000000000002,-0.06750000000000012,0.106065,0.10119,0.0,213.875,213.905,210.61,210.61,0.0,0.0
21,0.0,0.0,0.0,1.0,1.0,0.0,0.0,1.0,0.0,100.0,1.0,1.1856,26.0,0.0,0.0,0.0,53.999996,0.0,26.0,26.0,26.0,26.0,-0.006888888888888944,0.2721,-0.0747,292.679,-2.709,-2.6702,-1.6012,-1.5479,-205.36,215.655,190.55225,0.0,0.0,0.0,0.0,0.04246666666666654,-5.498166666666667,-5.498166666666667,-0.5761000000000001,0.211,-0.004125000000000156,0.43399999999999994,68.444,0.0032,-0.22575,-0.09200000000000053,100.0,1.0,1.0,211.19666666666666,0.0,0.0,0.0,0.0,0.0,0.0,0.0,8951.9,0.0,55.0,5.0,246.37,1.0,0.0,0.0,0.0,0.0,0.0,0.0,0.0,1.0530000000000008,1.0530000000000008,0.0,0.0,1.0,55.0,616.79921,10000.0,85.000001,85.000001,85.000001,85.000001,395.0,0.0,0.0,0.0,1.0,333.33500000000004,52.399,52.399,48.187,48.187,34.0,-23.7575,25.036,-27.953333333333333,27.71,0.0,1781.852,-0.19500000000000028,100.0,28.18,27.868,43.038,43.129,0.0,0.0,100.0,0.0,0.0,0.0,0.0,3104.0,3133.5,4030.0,4006.1000000000004,305.38,304.968,315.11575,314.994,21.9727,20.6186,22.0104,21.5123,314.999998,314.999998,324.999988,324.999988,99.55888571428571,99.5073,99.56914285714285,99.54864285714285,0.08666666666666645,-0.03866666666666663,-0.10616666666666667,0.12083333333333333,-0.030000000000001137,-0.06571428571428584,1.5773333333333333,1.5605,38.33,29.866333333333333,38.565,35.451499999999996,55.942,35.170500000000004,60.161500000000004,53.0625,53.882,34.3115,58.7275,51.3595,53.043,33.8705,58.6325,50.754999999999995,-0.08950000000000002,-0.06150000000000011,0.11388500000000001,0.10577500000000001,0.0,214.285,214.305,211.19666666666666,211.19666666666666,0.0,0.0
22,0.0,0.0,0.0,1.0,1.0,0.0,0.0,1.0,0.0,100.0,1.0,1.1856,26.0,0.0,0.0,0.0,53.999996,0.0,26.0,26.0,26.0,26.0,0.014777777777777779,0.2761,0.004625000000000001,292.282,-2.6503,-2.7122,-1.6,-1.5304,-201.87,215.64499999999998,190.5285,0.0,0.0,0.0,0.0,0.044499999999999984,-5.498166666666667,-5.498166666666667,-0.5577,0.1095,0.005374999999999908,-0.40700000000000003,68.582,0.0026000000000000003,-0.20295000000000002,-0.043999999999999595,100.0,1.0,1.0,211.44,0.0,0.0,0.0,0.0,0.0,0.0,0.0,8962.2,0.0,55.0,5.0,246.87,0.0,0.0,0.0,0.0,0.0,0.0,0.0,0.0,1.1039999999999992,1.1039999999999992,0.0,0.0,0.0,55.0,616.79921,10000.0,85.000001,85.000001,85.000001,85.000001,395.0,0.0,0.0,0.0,1.0,166.665,52.582,52.582,47.165,47.165,34.0,-22.572499999999998,23.668,-31.226666666666663,29.8625,0.0,1781.803,-0.25,100.0,28.054000000000002,28.136,43.181,43.363,0.0,0.0,100.0,0.0,0.0,0.0,0.0,3019.142857142857,2980.5,4294.375,4307.7,305.7245,305.129,314.5005,314.21,21.9822,20.6242,22.021,21.5215,314.999998,314.999998,324.999988,324.999988,99.5589,99.50731666666667,99.56928571428571,99.54878571428571,0.08166666666666655,-0.05600000000000005,-0.11833333333333333,0.111,-0.05666666666667197,-0.04142857142856826,1.4833333333333334,1.488,38.388999999999996,29.901,38.631,35.509,55.929,35.2095,60.199,53.123,53.870000000000005,34.3475,58.7625,51.418,53.028999999999996,33.905,58.665,50.812,-0.09799999999999998,-0.05499999999999994,0.109725,0.10796000000000001,0.0,214.74,214.73000000000002,211.44,211.44,0.0,0.0
23,0.0,0.0,0.0,1.0,1.0,0.0,0.0,1.0,0.0,100.0,1.0,1.1856,26.0,0.0,0.0,0.0,53.999996,0.0,26.0,26.0,26.0,26.0,-0.0050000000000000044,0.25690000000000013,-0.039775000000000005,292.16,-2.6801,-2.6653000000000002,-1.65,-1.5077,-198.16,215.635,190.50375,0.0,0.0,0.0,0.0,0.04666666666666652,-5.498166666666667,-5.498166666666667,-0.5749000000000001,-0.131,0.0017499999999999183,-0.6580000000000001,68.724,0.0055000000000000005,-0.22740000000000002,-0.04999999999999982,100.0,1.0,1.0,211.97,0.0,0.0,0.0,0.0,0.0,0.0,0.0,8984.7,0.0,55.0,5.0,247.38,1.0,0.0,0.0,0.0,0.0,0.0,0.0,0.0,1.1580000000000013,1.1580000000000013,0.0,0.0,1.0,55.0,616.79921,10000.0,85.000001,85.000001,85.000001,85.000001,395.0,0.0,0.0,0.0,1.0,166.665,51.834,51.834,47.867,47.867,34.0,-25.1825,24.128,-29.98,27.72,0.0,1781.749,-0.2049999999999983,100.0,28.299,28.214,43.313,43.544,0.0,0.0,100.0,0.0,0.0,0.0,0.0,3305.0,3077.0,4128.75,4068.3,304.8755,304.90566666666666,314.9475,314.81025,21.9922,20.6301,22.0321,21.5313,314.999998,314.999998,324.999988,324.999988,99.55891428571428,99.50731666666667,99.56944285714286,99.54895714285715,0.08599999999999985,-0.05400000000000005,-0.11583333333333333,0.11800000000000001,-0.045000000000001705,-0.047142857142851824,1.5503333333333333,1.5330000000000001,38.451,29.938000000000002,38.701,35.570499999999996,55.916,35.251999999999995,60.2375,53.187,53.857,34.3865,58.798,51.4795,53.016,33.942499999999995,58.697,50.8725,-0.10050000000000003,-0.0625,0.11082000000000002,0.10592000000000001,0.0,215.155,215.16,211.97,211.97,0.0,0.0
24,0.0,0.0,0.0,1.0,1.0,0.0,0.0,1.0,0.0,100.0,1.0,1.1856,26.0,0.0,0.0,0.0,53.999996,0.0,26.0,26.0,26.0,26.0,0.008444444444444477,0.27900000000000014,-0.042325,292.435,-2.6997999999999998,-2.6793,-1.5684,-1.5386000000000002,-195.06,215.6275,190.482625,0.0,0.0,0.0,0.0,0.04846666666666655,-5.498166666666667,-5.498166666666667,-0.5818,-0.4205,0.014124999999999943,1.208,68.844,0.0081,-0.22007500000000002,-0.1639999999999997,100.0,1.0,1.0,212.26333333333332,0.0,0.0,0.0,0.0,0.0,0.0,0.0,8997.1,0.0,55.0,5.0,247.81333333333333,0.0,0.0,0.0,0.0,0.0,0.0,0.0,0.0,1.2029999999999994,1.2029999999999994,0.0,0.0,0.0,55.0,616.79921,10000.0,85.000001,85.000001,85.000001,85.000001,395.0,0.0,0.0,0.0,1.0,333.33500000000004,52.811,52.811,47.318,47.318,34.0,-22.0075,24.177999999999997,-29.223333333333333,29.6075,0.0,1781.704,-0.21499999999999986,100.0,28.177,27.8,43.361000000000004,43.4,0.0,0.0,100.0,0.0,0.0,0.0,0.0,2937.5714285714284,3052.3,4231.625,4198.5,305.846,305.20466666666664,314.5305,314.53025,22.0005,20.634900000000002,22.0414,21.5394,314.999998,314.999998,324.999988,324.999988,99.55892857142857,99.50731666666667,99.56957142857142,99.54908571428571,0.09233333333333338,-0.044333333333333114,-0.09883333333333333,0.12433333333333334,-0.04833333333333201,-0.05857142857143316,1.5233333333333334,1.5105,38.503,29.968,38.759,35.621,55.903999999999996,35.285,60.2695,53.2395,53.846000000000004,34.417,58.828,51.53,53.004000000000005,33.972,58.724000000000004,50.9215,-0.09450000000000003,-0.06150000000000011,0.1063,0.10961000000000001,0.0,215.525,215.525,212.26333333333332,212.26333333333332,0.0,0.0
25,0.0,0.0,0.0,1.0,1.0,0.0,0.0,1.0,0.0,100.0,1.0,1.1856,26.0,0.0,0.0,0.0,53.999996,0.0,26.0,26.0,26.0,26.0,0.015444444444444372,0.268,-0.036125000000000004,292.343,-2.7741,-2.634,-1.5876000000000001,-1.5383,-191.55,215.6175,190.457375,0.0,0.0,0.0,0.0,0.05049999999999999,-5.498166666666667,-5.498166666666667,-0.6068,-0.066,0.018874999999999975,-0.962,68.977,0.0091,-0.222775,-0.12600000000000033,100.0,1.0,1.0,212.7733333333333,0.0,0.0,0.0,0.0,0.0,0.0,0.0,9018.7,0.0,55.0,5.0,248.29000000000002,1.0,0.0,0.0,0.0,0.0,0.0,0.0,0.0,1.2540000000000013,1.2540000000000013,0.0,0.0,1.0,55.0,616.79921,10000.0,85.000001,85.000001,85.000001,85.000001,395.0,0.0,0.0,0.0,1.0,166.665,51.941,51.941,47.958,47.958,34.0,-25.64,25.624000000000002,-27.896666666666665,28.335,0.0,1781.654,-0.2699999999999996,100.0,27.913,28.137,43.039,43.285,0.0,0.0,100.0,0.0,0.0,0.0,0.0,3306.142857142857,3243.4,3997.0,4076.8,305.043,304.43266666666665,315.20875,314.7805,22.0098,20.6405,22.0517,21.5485,314.999998,314.999998,324.999988,324.999988,99.55892857142857,99.50733333333334,99.56971428571428,99.54922857142857,0.09233333333333338,-0.046666666666666634,-0.11183333333333333,0.12216666666666667,-0.045000000000001705,-0.05142857142856627,1.553,1.558,38.561,30.003,38.823,35.678,55.89,35.3245,60.303,53.2975,53.832,34.453,58.859,51.586,52.989000000000004,34.0065,58.751999999999995,50.9765,-0.10199999999999998,-0.05750000000000011,0.11281000000000001,0.10762000000000001,0.0,215.93,215.94,212.7733333333333,212.7733333333333,0.0,0.0
26,0.0,0.0,0.0,1.0,1.0,0.0,0.0,1.0,0.0,100.0,1.0,1.1856,26.0,0.0,0.0,0.0,53.999996,0.0,26.0,26.0,26.0,26.0,0.025555555555555776,0.2882,0.07037500000000001,291.26,-2.6763,-2.7263,-1.5514000000000001,-1.5287000000000002,-187.82,215.61,190.430125,0.0,0.0,0.0,0.0,0.05266666666666653,-5.498166666666667,-5.498166666666667,-0.5728,0.456,0.005125000000000046,-0.6080000000000001,69.122,0.0115,-0.200775,-0.16199999999999992,100.0,1.0,1.0,212.95333333333332,0.0,0.0,0.0,0.0,0.0,0.0,0.0,9026.3,0.0,55.0,5.0,248.81,0.0,0.0,0.0,0.0,0.0,0.0,0.0,0.0,1.3079999999999998,1.3079999999999998,0.0,0.0,0.0,55.0,616.79921,10000.0,85.000001,85.000001,85.000001,85.000001,395.0,0.0,0.0,0.0,1.0,166.665,51.605000000000004,51.605000000000004,46.326,46.326,34.0,-24.1275,24.46,-31.826666666666664,32.5625,0.0,1781.599,-0.28999999999999915,100.0,28.764,28.779,43.556,43.794,0.0,0.0,100.0,0.0,0.0,0.0,0.0,3232.714285714286,3015.0,4569.125,4522.2,305.141,305.0203333333333,313.8,313.70675,22.02,20.6466,22.063,21.5584,314.999998,314.999998,324.999988,324.999988,99.55895714285714,99.50733333333334,99.56987142857143,99.54938571428572,0.09366666666666656,-0.047666666666666746,-0.09433333333333332,0.12266666666666667,-0.04999999999999716,-0.04999999999999716,1.4376666666666666,1.4335,38.625,30.041333333333334,38.893,35.74,55.879000000000005,35.3675,60.3435,53.3625,53.822,34.493,58.8965,51.649,52.977999999999994,34.045,58.786,51.038,-0.10499999999999998,-0.05600000000000005,0.100375,0.1116,0.0,216.41500000000002,216.4,212.95333333333332,212.95333333333332,0.0,0.0
27,0.0,0.0,0.0,1.0,1.0,0.0,0.0,1.0,0.0,100.0,1.0,1.1856,26.0,0.0,0.0,0.0,53.999996,0.0,26.0,26.0,26.0,26.0,0.03133333333333321,0.24530000000000007,-0.027950000000000003,291.748,-2.6951,-2.6681,-1.5791,-1.5973000000000002,-184.70999999999998,215.60250000000002,190.4085,0.0,0.0,0.0,0.0,0.05446666666666655,-5.498166666666667,-5.498166666666667,-0.5961000000000001,-0.991,0.011874999999999858,0.714,69.237,0.0103,-0.24047500000000002,-0.23599999999999977,100.0,1.0,1.0,213.44333333333333,0.0,0.0,0.0,0.0,0.0,0.0,0.0,9047.0,0.0,55.0,5.0,249.23000000000002,1.0,0.0,0.0,0.0,0.0,0.0,0.0,0.0,1.352999999999998,1.352999999999998,0.0,0.0,1.0,55.0,616.79921,10000.0,85.000001,85.000001,85.000001,85.000001,395.0,0.0,0.0,0.0,1.0,333.33500000000004,51.926,51.926,46.677,46.677,34.0,-21.9675,25.658,-28.283333333333335,30.6025,0.0,1781.553,-0.3099999999999987,100.0,28.583,28.503,44.117000000000004,44.165,0.0,0.0,100.0,0.0,0.0,0.0,0.0,3002.285714285714,3214.9,4106.75,4119.5,305.655,304.6773333333333,314.829,314.6315,22.0282,20.6516,22.072400000000002,21.5667,314.999998,314.999998,324.999988,324.999988,99.55895714285714,99.50735,99.57,99.54951428571428,0.10633333333333361,-0.04299999999999993,-0.095,0.13633333333333333,-0.03833333333332689,-0.03857142857143003,1.4913333333333334,1.486,38.676,30.072333333333333,38.952,35.7915,55.867999999999995,35.402,60.3765,53.4165,53.811,34.525,58.928,51.701,52.966,34.0755,58.814499999999995,51.089,-0.10699999999999998,-0.06299999999999994,0.10425000000000001,0.11461500000000001,0.0,216.71,216.72,213.44333333333333,213.44333333333333,0.0,0.0
28,0.0,0.0,0.0,1.0,1.0,0.0,0.0,1.0,0.0,100.0,1.0,1.1856,26.0,0.0,0.0,0.0,53.999996,0.0,26.0,26.0,26.0,26.0,0.03822222222222216,0.25780000000000003,-0.059825,292.023,-2.6793,-2.6564,-1.6240999999999999,-1.5608,-181.17000000000002,215.595,190.383125,0.0,0.0,0.0,0.0,0.056533333333333324,-5.498166666666667,-5.498166666666667,-0.605,0.6145,-0.00012500000000015277,-0.758,69.367,0.0102,-0.22132500000000002,-0.16600000000000037,100.0,1.0,1.0,213.98000000000002,0.0,0.0,0.0,0.0,0.0,0.0,0.0,9069.8,0.0,55.0,5.0,249.69333333333333,0.0,0.0,0.0,0.0,0.0,0.0,0.0,0.0,1.404,1.404,0.0,0.0,0.0,55.0,616.79921,10000.0,85.000001,85.000001,85.000001,85.000001,395.0,0.0,0.0,0.0,1.0,333.33500000000004,51.788,51.788,47.714,47.714,34.0,-23.555,24.752000000000002,-28.31,29.095,0.0,1781.502,-0.384999999999998,100.0,28.531,28.603,43.357,43.733000000000004,0.0,0.0,100.0,0.0,0.0,0.0,0.0,3202.714285714286,3088.7,4075.625,4090.7,305.2035,304.867,315.1075,314.77225,22.0377,20.6573,22.0826,21.5758,314.999998,314.999998,324.999988,324.999988,99.55897142857143,99.50735,99.57015714285714,99.54965714285714,0.10199999999999987,-0.04033333333333311,-0.1,0.1275,-0.054999999999999716,-0.05142857142856627,1.5656666666666665,1.5405,38.736000000000004,30.108,39.016999999999996,35.8485,55.857,35.442,60.408500000000004,53.4735,53.8,34.562,58.957499999999996,51.7555,52.954,34.1105,58.841,51.141999999999996,-0.118,-0.052999999999999936,0.10523500000000001,0.11006,0.0,217.175,217.16500000000002,213.98000000000002,213.98000000000002,0.0,0.0
29,0.0,0.0,0.0,1.0,1.0,0.0,0.0,1.0,0.0,100.0,1.0,1.1856,26.0,0.0,0.0,0.0,53.999996,0.0,26.0,26.0,26.0,26.0,0.0321111111111112,0.25950000000000006,-0.01545,291.733,-2.6574999999999998,-2.7173,-1.5704,-1.5483,-177.63,215.5875,190.35675,0.0,0.0,0.0,0.0,0.058599999999999985,-5.498166666666667,-5.498166666666667,-0.6048,-0.656,0.0024999999999999467,0.829,69.502,0.012700000000000001,-0.21532500000000002,-0.37600000000000033,100.0,1.0,1.0,214.19666666666666,0.0,0.0,0.0,0.0,0.0,0.0,0.0,9079.0,0.0,55.0,5.0,250.18,1.0,0.0,0.0,0.0,0.0,0.0,0.0,0.0,1.4549999999999983,1.4549999999999983,0.0,0.0,1.0,55.0,616.79921,10000.0,85.000001,85.000001,85.000001,85.000001,395.0,0.0,0.0,0.0,1.0,333.33500000000004,52.124,52.124,46.677,46.677,34.0,-21.87,26.323999999999998,-28.586666666666666,31.5975,0.0,1781.451,-0.3999999999999986,100.0,28.332,28.286,43.854,43.945,0.0,0.0,100.0,0.0,0.0,0.0,0.0,3037.4285714285716,3169.8,4188.625,4326.9,305.593,304.75466666666665,314.602,314.18875,22.047,20.6629,22.0933,21.5851,314.999998,314.999998,324.999988,324.999988,99.55898571428571,99.50735,99.5703,99.54981428571429,0.10666666666666647,-0.030333333333333323,-0.08866666666666667,0.1325,-0.02833333333332888,-0.05571428571428072,1.4849999999999999,1.459,38.794,30.143,39.083,35.907,55.843,35.480000000000004,60.4465,53.5345,53.787,34.597,58.993,51.8145,52.94,34.144,58.873,51.1995,-0.11049999999999993,-0.04699999999999993,0.10583000000000001,0.10095000000000001,0.0,217.54000000000002,217.565,214.19666666666666,214.19666666666666,0.0,0.0
30,0.0,0.0,0.0,1.0,1.0,0.0,0.0,1.0,0.0,100.0,1.0,1.1856,26.0,0.0,0.0,0.0,53.999996,0.0,26.0,26.0,26.0,26.0,0.03811111111111121,0.2533000000000001,0.051975,291.214,-2.7162,-2.6027,-1.546,-1.6032000000000002,-174.29,215.58249999999998,190.331875,0.0,0.0,0.0,0.0,0.06053333333333333,-5.498166666666667,-5.498166666666667,-0.6074,0.759,0.0011250000000000426,0.579,69.622,0.0189,-0.2205,-0.3799999999999999,100.0,1.0,1.0,214.67666666666668,0.0,0.0,0.0,0.0,0.0,0.0,0.0,9099.3,0.0,55.0,5.0,250.61666666666667,0.0,0.0,0.0,0.0,0.0,0.0,1.0,0.0,1.5030000000000001,1.5030000000000001,0.0,0.0,0.0,55.0,616.79921,10000.0,85.000001,85.000001,85.000001,85.000001,395.0,0.0,0.0,0.0,1.0,166.665,50.568,50.568,47.226,47.226,34.0,-24.945,26.79,-26.433333333333337,31.47,0.0,1781.405,-0.34499999999999886,100.0,29.126,28.987000000000002,43.64,43.945,0.0,0.0,100.0,0.0,0.0,0.0,0.0,3350.142857142857,3344.5,4088.125,4173.8,304.607,304.12033333333335,314.95825,314.53225,22.056,20.6685,22.1031,21.5938,314.999998,314.999998,324.999988,324.999988,99.559,99.50736666666667,99.57042857142856,99.54994285714285,0.11166666666666636,-0.03533333333333322,-0.07533333333333334,0.14316666666666666,-0.03333333333333144,-0.05571428571428072,1.5230000000000001,1.495,38.849999999999994,30.177666666666667,39.144,35.9615,55.835,35.5195,60.478,53.59,53.778999999999996,34.6335,59.0225,51.8675,52.931,34.179,58.8995,51.2515,-0.10799999999999998,-0.05499999999999994,0.100315,0.11406000000000001,0.0,217.94,217.96,214.67666666666668,214.67666666666668,0.0,0.0
31,0.0,0.0,0.0,1.0,1.0,0.0,0.0,1.0,0.0,100.0,1.0,1.1856,26.0,0.0,0.0,0.0,53.999996,0.0,26.0,26.0,26.0,26.0,0.025333333333333208,0.2550000000000001,0.018175,290.863,-2.7685,-2.6271,-1.5951,-1.5001,-170.74,215.5775,190.306,0.0,0.0,0.0,0.0,0.06259999999999999,-5.498166666666667,-5.498166666666667,-0.5882000000000001,-0.4645,0.006249999999999867,-0.929,69.756,0.0234,-0.219175,-0.3020000000000005,100.0,1.0,1.0,214.9,0.0,0.0,0.0,0.0,0.0,0.0,0.0,9108.8,0.0,55.0,5.0,251.09333333333336,1.0,0.0,0.0,0.0,0.0,0.0,1.0,0.0,1.5539999999999985,1.5539999999999985,0.0,0.0,1.0,55.0,616.79921,10000.0,85.000001,85.000001,85.000001,85.000001,395.0,0.0,0.0,0.0,1.0,166.665,51.239,51.239,45.593,45.593,34.0,-24.2475,25.799999999999997,-30.743333333333336,31.295,0.0,1781.353,-0.3500000000000014,100.0,28.796,29.187,44.32,44.762,0.0,0.0,100.0,0.0,0.0,0.0,0.0,3219.857142857143,3226.9,4405.875,4311.6,305.3165,304.5366666666667,314.16025,314.08425,22.0654,20.6742,22.1138,21.6033,314.999998,314.999998,324.999988,324.999988,99.55901428571428,99.50736666666667,99.57058571428571,99.5501,0.10499999999999998,-0.03699999999999992,-0.08716666666666667,0.13483333333333333,-0.046666666666666856,-0.03857142857143003,1.446,1.4195,38.909,30.214,39.211,36.021,55.824,35.5595,60.516999999999996,53.653,53.769,34.670500000000004,59.0585,51.9285,52.919,34.2145,58.9325,51.311,-0.11149999999999993,-0.050999999999999934,0.10064500000000001,0.11018000000000001,0.0,218.34,218.35500000000002,214.9,214.9,0.0,0.0
32,0.0,0.0,0.0,1.0,1.0,0.0,0.0,1.0,0.0,100.0,1.0,1.1856,26.0,0.0,0.0,0.0,53.999996,0.0,26.0,26.0,26.0,26.0,0.026888888888888962,0.2603,-0.045075000000000004,291.26,-2.6883,-2.6875,-1.6479,-1.5566,-167.18,215.575,190.2805,0.0,0.0,0.0,0.0,0.06466666666666654,-5.498166666666667,-5.498166666666667,-0.6061000000000001,-0.1555,-0.013125000000000053,0.257,69.883,0.0246,-0.230775,-0.3719999999999999,100.0,1.0,1.0,215.44,0.0,0.0,0.0,0.0,0.0,0.0,0.0,9131.7,0.0,55.0,5.0,251.55,0.0,0.0,0.0,0.0,0.0,0.0,1.0,0.0,1.6050000000000004,1.6050000000000004,0.0,0.0,0.0,55.0,616.79921,10000.0,85.000001,85.000001,85.000001,85.000001,395.0,0.0,0.0,0.0,1.0,333.33500000000004,51.453,51.453,46.509,46.509,34.0,-22.2425,26.503999999999998,-29.403333333333336,32.08,0.0,1781.302,-0.34499999999999886,100.0,28.919,28.948,44.204,44.492000000000004,0.0,0.0,100.0,0.0,0.0,0.0,0.0,3107.857142857143,3186.5,4213.625,4298.7,305.341,304.74466666666666,314.712,314.36,22.0746,20.68,22.124299999999998,21.6126,314.999998,314.999998,324.999988,324.999988,99.55902857142857,99.50736666666667,99.57072857142857,99.55025714285715,0.11966666666666637,-0.022333333333333316,-0.08583333333333333,0.1495,-0.03999999999999915,-0.04571428571428271,1.512,1.499,38.966,30.250333333333334,39.277,36.079,55.813,35.599000000000004,60.5515,53.7115,53.757999999999996,34.707,59.0905,51.985,52.907,34.2495,58.961,51.3665,-0.10999999999999999,-0.05499999999999994,0.11069500000000002,0.10758500000000001,0.0,218.715,218.74,215.44,215.44,0.0,0.0
33,0.0,0.0,0.0,1.0,1.0,0.0,0.0,1.0,0.0,100.0,1.0,1.1856,26.0,0.0,0.0,0.0,53.999996,0.0,26.0,26.0,26.0,26.0,0.04055555555555568,0.2559,-0.04485,291.534,-2.7286,-2.6790000000000003,-1.588,-1.5916000000000001,-163.61,215.57,190.253875,0.0,0.0,0.0,0.0,0.06673333333333331,-5.498166666666667,-5.498166666666667,-0.6157,-0.2965,-0.013250000000000206,-0.04400000000000004,70.012,0.0219,-0.21695,-0.19599999999999973,100.0,1.0,1.0,215.82999999999998,0.0,0.0,0.0,0.0,0.0,0.0,0.0,9148.2,0.0,55.0,5.0,252.01666666666665,1.0,0.0,0.0,0.0,0.0,0.0,1.0,0.0,1.6559999999999988,1.6559999999999988,0.0,0.0,1.0,55.0,616.79921,10000.0,85.000001,85.000001,85.000001,85.000001,395.0,0.0,0.0,0.0,1.0,166.665,51.804,51.804,46.844,46.844,34.0,-23.4675,24.716,-28.64,30.900000000000002,0.0,1781.251,-0.3999999999999986,100.0,28.637999999999998,28.84,44.016999999999996,44.402,0.0,0.0,100.0,0.0,0.0,0.0,0.0,3175.0,3033.6,4162.875,4207.0,305.393,305.074,314.813,314.477,22.0838,20.6856,22.1347,21.6219,314.999998,314.999998,324.999988,324.999988,99.55904285714286,99.50738333333334,99.57088571428571,99.5504,0.1070000000000002,-0.03299999999999992,-0.094,0.13066666666666665,-0.041666666666671404,-0.04999999999999716,1.5083333333333333,1.5050000000000001,39.024,30.285333333333334,39.342,36.137,55.801,35.6365,60.585499999999996,53.769999999999996,53.745999999999995,34.7415,59.122,52.0415,52.894999999999996,34.2825,58.9895,51.421,-0.10999999999999999,-0.04849999999999999,0.10544500000000001,0.10266000000000002,0.0,219.14499999999998,219.13,215.82999999999998,215.82999999999998,0.0,0.0
34,0.0,0.0,0.0,1.0,1.0,0.0,0.0,1.0,0.0,100.0,1.0,1.1856,26.0,0.0,0.0,0.0,53.999996,0.0,26.0,26.0,26.0,26.0,0.03688888888888897,0.24219999999999997,-0.042825,291.733,-2.6635999999999997,-2.6751,-1.6521,-1.5568,-160.25,215.5675,190.2275,0.0,0.0,0.0,0.0,0.06869999999999998,-5.498166666666667,-5.498166666666667,-0.6411,-0.855,0.00924999999999998,-0.31400000000000006,70.133,0.023,-0.22332500000000002,-0.2679999999999998,100.0,1.0,1.0,216.18666666666667,0.0,0.0,0.0,0.0,0.0,0.0,0.0,9163.4,0.0,55.0,5.0,252.45333333333335,0.0,0.0,0.0,0.0,0.0,0.0,1.0,0.0,1.7040000000000006,1.7040000000000006,0.0,0.0,0.0,55.0,616.79921,10000.0,85.000001,85.000001,85.000001,85.000001,395.0,0.0,0.0,0.0,1.0,333.33500000000004,52.138999999999996,52.138999999999996,47.134,47.134,34.0,-22.465,24.402,-29.953333333333333,30.1125,0.0,1781.201,-0.3999999999999986,100.0,28.389,28.536,43.861000000000004,44.47,0.0,0.0,100.0,0.0,0.0,0.0,0.0,3135.285714285714,2988.2,4144.0,4189.7,305.4955,305.14566666666667,314.88275,314.47125,22.0923,20.6909,22.1445,21.6307,314.999998,314.999998,324.999988,324.999988,99.55905714285714,99.50738333333334,99.57102857142857,99.55054285714286,0.10866666666666669,-0.03166666666666673,-0.10483333333333333,0.1255,-0.041666666666671404,-0.04285714285714448,1.495,1.4935,39.077,30.317999999999998,39.403,36.192,55.789,35.671,60.617,53.826499999999996,53.735,34.7735,59.1515,52.0955,52.882,34.313,59.0155,51.474000000000004,-0.11149999999999993,-0.04400000000000004,0.11255000000000001,0.10382000000000001,0.0,219.48000000000002,219.505,216.18666666666667,216.18666666666667,0.0,0.0
35,0.0,0.0,0.0,1.0,1.0,0.0,0.0,1.0,0.0,100.0,1.0,1.1856,26.0,0.0,0.0,0.0,53.999996,0.0,26.0,26.0,26.0,26.0,0.040888888888888975,0.2471000000000001,-0.082775,291.748,-2.7211,-2.6213,-1.6225,-1.5844,-156.67000000000002,215.5675,190.197625,0.0,0.0,0.0,0.0,0.07079999999999997,-5.498166666666667,-5.498166666666667,-0.6807000000000001,-0.28750000000000003,-0.004249999999999865,0.02300000000000002,70.26,0.0257,-0.231225,-0.3279999999999994,100.0,1.0,1.0,216.65,0.0,0.0,0.0,0.0,0.0,0.0,0.0,9183.0,0.0,55.0,5.0,252.91,1.0,0.0,0.0,0.0,0.0,0.0,1.0,0.0,1.754999999999999,1.754999999999999,0.0,0.0,1.0,55.0,616.79921,10000.0,85.000001,85.000001,85.000001,85.000001,395.0,0.0,0.0,0.0,1.0,333.33500000000004,51.697,51.697,46.753,46.753,34.0,-22.6825,27.451999999999998,-27.496666666666666,29.935000000000002,0.0,1781.152,-0.23999999999999844,100.0,28.301000000000002,28.658,43.733000000000004,43.942,0.0,0.0,100.0,0.0,0.0,0.0,0.0,3084.714285714286,3383.9,4070.75,4043.7,305.473,304.15933333333334,314.93825,314.9805,22.1013,20.6967,22.1549,21.6399,314.999998,314.999998,324.999988,324.999988,99.55907142857143,99.5074,99.57117142857143,99.5507,0.11100000000000021,-0.02933333333333321,-0.078,0.1485,-0.02499999999999858,-0.060000000000002274,1.5486666666666666,1.5445,39.132999999999996,30.354333333333333,39.468,36.2495,55.775,35.710499999999996,60.65,53.882,53.722,34.81,59.182,52.1495,52.867999999999995,34.348,59.042500000000004,51.5265,-0.10399999999999998,-0.06000000000000005,0.10398,0.11023500000000001,0.0,219.875,219.91,216.65,216.65,0.0,0.0
36,0.0,0.0,0.0,1.0,1.0,0.0,0.0,1.0,0.0,100.0,1.0,1.1856,26.0,0.0,0.0,0.0,53.999996,0.0,26.0,26.0,26.0,26.0,0.021888888888888847,0.26690000000000014,0.04585,290.985,-2.644,-2.6633,-1.5703,-1.5575,-153.29,215.5675,190.16825,0.0,0.0,0.0,0.0,0.07273333333333332,-5.498166666666667,-5.498166666666667,-0.6627000000000001,0.2425,-0.04499999999999993,0.15800000000000003,70.382,0.0241,-0.20090000000000002,-0.15200000000000014,100.0,1.0,1.0,216.84,0.0,0.0,0.0,0.0,0.0,0.0,0.0,9191.1,0.0,55.0,5.0,253.34666666666666,0.0,0.0,0.0,0.0,0.0,0.0,1.0,0.0,1.8030000000000008,1.8030000000000008,0.0,0.0,0.0,55.0,616.79921,10000.0,85.000001,85.000001,85.000001,85.000001,395.0,0.0,0.0,0.0,1.0,333.33500000000004,51.346000000000004,51.346000000000004,46.417,46.417,34.0,-22.33,26.049999999999997,-30.0,34.400000000000006,0.0,1781.102,-0.1750000000000007,100.0,28.93,28.794,43.897999999999996,44.131,0.0,0.0,100.0,0.0,0.0,0.0,0.0,3127.142857142857,3225.4,4364.5,4512.0,305.1325,304.6856666666667,314.27725,313.81775,22.11,20.7022,22.1647,21.648699999999998,314.999998,314.999998,324.999988,324.999988,99.55908571428571,99.5074,99.57131428571428,99.55082857142857,0.1160000000000001,-0.03533333333333322,-0.08650000000000001,0.1505,-0.03499999999999659,-0.048571428571428044,1.448,1.45,39.188,30.388666666666666,39.53,36.3045,55.765,35.7485,60.6825,53.9385,53.712,34.845,59.2125,52.2035,52.857,34.382,59.07,51.579499999999996,-0.09650000000000003,-0.07000000000000006,0.10552500000000001,0.11238000000000001,0.0,220.29500000000002,220.305,216.84,216.84,0.0,0.0
