,ABS Active,ABS Enabled,AID Allow Tire Blankets,AID Auto Blip,AID Auto Clutch,AID Auto Shift,AID Fuel Rate,AID Ideal Line,AID Mech Damage,AID Stability,AID Tire Wear Rate,Air Density,Air Temp,Ballast,Best Lap Delta,Best Lap Time,Brake Bias,Brake Pos,Brake Temp FL,Brake Temp FR,Brake Temp RL,Brake Temp RR,CG Accel Lateral,CG Accel Longitudinal,CG Accel Vertical,CG Height,Camber FL,Camber FR,Camber RL,Camber RR,Car Coord X,Car Coord Y,Car Coord Z,Car Damage Front,Car Damage Left,Car Damage Rear,Car Damage Right,Car Pos Norm,Caster FL,Caster FR,Chassis Pitch Angle,Chassis Pitch Rate,Chassis Roll Angle,Chassis Roll Rate,Chassis Velocity X,Chassis Velocity Y,Chassis Velocity Z,Chassis Yaw Rate,Clutch Pos,DRS Active,DRS Available,Drive Train Speed,ERS Heat Charging,ERS Is Charging,ERS Max Energy,ERS Power Level,ERS Recovery Level,Engine Brake Setting,Engine Limiter,Engine RPM,Flags,Fuel Level,Gear,Ground Speed,HR Sample Clock,In Pit,KERS Charge,KERS Deployed Energy,KERS Input,KERS Max Energy,LR Sample Clock,Lap Invalidated,Lap Time,Lap Time2,Last Lap Time,Last Sector Time,MR Sample Clock,Max Fuel,Max Power,Max RPM,Max Sus Travel FL,Max Sus Travel FR,Max Sus Travel RL,Max Sus Travel RR,Max Torque,Max Turbo Boost,Num Tires Off Track,Penalties Enabled,Position,Raw Data Sample Rate,Ride Height FL,Ride Height FR,Ride Height RL,Ride Height RR,Road Temp,Self Align Torque FL,Self Align Torque FR,Self Align Torque RL,Self Align Torque RR,Session Lap Count,Session Time Left,Steering Angle,Surface Grip,Suspension Travel FL,Suspension Travel FR,Suspension Travel RL,Suspension Travel RR,TC Active,TC Enabled,Throttle Pos,Tire Dirt Level FL,Tire Dirt Level FR,Tire Dirt Level RL,Tire Dirt Level RR,Tire Load FL,Tire Load FR,Tire Load RL,Tire Load RR,Tire Loaded Radius FL,Tire Loaded Radius FR,Tire Loaded Radius RL,Tire Loaded Radius RR,Tire Pressure FL,Tire Pressure FR,Tire Pressure RL,Tire Pressure RR,Tire Radius FL,Tire Radius FR,Tire Radius RL,Tire Radius RR,Tire Rubber Grip FL,Tire Rubber Grip FR,Tire Rubber Grip RL,Tire Rubber Grip RR,Tire Slip Angle FL,Tire Slip Angle FR,Tire Slip Angle RL,Tire Slip Angle RR,Tire Slip Ratio FL,Tire Slip Ratio FR,Tire Slip Ratio RL,Tire Slip Ratio RR,Tire Temp Core FL,Tire Temp Core FR,Tire Temp Core RL,Tire Temp Core RR,Tire Temp Inner FL,Tire Temp Inner FR,Tire Temp Inner RL,Tire Temp Inner RR,Tire Temp Middle FL,Tire Temp Middle FR,Tire Temp Middle RL,Tire Temp Middle RR,Tire Temp Outer FL,Tire Temp Outer FR,Tire Temp Outer RL,Tire Temp Outer RR,Toe In FL,Toe In FR,Toe In RL,Toe In RR,Turbo Boost,Wheel Angular Speed FL,Wheel Angular Speed FR,Wheel Angular Speed RL,Wheel Angular Speed RR,Wind Direction,Wind Speed
0,0.0,0.0,0.0,1.0,1.0,0.0,0.0,1.0,0.0,100.0,1.0,1.1856,26.0,0.0,0.0,0.0,53.99999,0.0,26.0,26.0,26.0,26.0,-0.1597777777777778,0.3084,0.05983333333333334,294.083,-2.66815,-2.7121250000000003,-1.47605,-1.5987,-275.66,216.2525,190.9875,0.0,0.0,0.0,0.0,0.0015999999999999348,-5.498166666666667,-5.498166666666667,-0.5474,1.098,-0.05425000000000013,-0.4479999999999995,65.523,-0.10350000000000001,-0.2109,1.6340000000000003,100.0,1.0,1.0,202.31666666666666,0.0,0.0,0.0,0.0,0.0,0.0,0.0,8575.5,0.0,55.0,5.0,235.85000000000002,0.0,0.0,0.0,0.0,0.0,0.0,0.0,0.0,0.0030000000000001137,0.0030000000000001137,0.0,0.0,0.0,55.0,616.79921,10000.0,85.0,85.0,85.0,85.0,395.0,0.0,0.0,0.0,1.0,20.0,52.856,52.856,49.622,49.622,34.0,-29.1875,20.564,-33.25,22.025,0.0,1783.474,1.120000000000001,100.0,27.81,26.472,41.103,40.035,0.0,0.0,100.0,0.0,0.0,0.0,0.0,3068.375,3310.3,4116.111111111111,3936.6000000000004,305.5246666666667,304.33566666666667,314.83275,315.033,21.7725,20.5096,21.7979,21.3315,314.99999,314.99999,324.99998,324.99998,99.5587,99.50716666666666,99.56648571428572,99.54598571428572,-0.06800000000000006,-0.18066666666666664,-0.22833333333333336,0.005333333333333333,-0.036666666666668846,-0.0799999999999983,1.533,1.5979999999999999,37.078,29.184666666666665,37.236999999999995,34.322,56.227000000000004,34.413,59.4955,51.9165,54.156,33.604,58.1115,50.256,53.335,33.184666666666665,58.0785,49.672,0.00649999999999995,-0.16100000000000003,0.10717000000000002,0.11484000000000001,0.0,205.36,205.265,202.31666666666666,202.31666666666666,0.0,0.0
1,0.0,0.0,0.0,1.0,1.0,0.0,0.0,1.0,0.0,100.0,1.0,1.1856,26.0,0.0,0.0,0.0,53.999996,0.0,26.0,26.0,26.0,26.0,-0.18666666666666665,0.3207,0.1796666666666667,293.015,-2.59035,-2.8133749999999997,-1.48715,-1.5877,-272.31,216.2575,190.96725,0.0,0.0,0.0,0.0,0.003566666666666607,-5.498166666666667,-5.498166666666667,-0.49960000000000004,-0.5725,-0.09925000000000006,-0.7610000000000001,65.67699999999999,-0.10940000000000001,-0.19387500000000002,1.854,100.0,1.0,1.0,202.46666666666667,0.0,0.0,0.0,0.0,0.0,0.0,0.0,8581.8,0.0,55.0,5.0,236.40666666666667,1.0,0.0,0.0,0.0,0.0,0.0,0.0,0.0,0.053999999999998494,0.053999999999998494,0.0,0.0,1.0,55.0,616.79921,10000.0,85.000001,85.000001,85.000001,85.000001,395.0,0.0,0.0,0.0,1.0,166.665,53.436,53.436,48.325,48.325,34.0,-30.5225,15.792000000000002,-37.75,25.615000000000002,0.0,1783.425,1.1950000000000003,100.0,27.899,26.721,43.128,41.198,0.0,0.0,100.0,0.0,0.0,0.0,0.0,3243.375,2619.0,4374.222222222223,4649.0,305.0283333333333,306.49533333333335,314.15775,313.286,21.7825,20.5146,21.808799999999998,21.3406,314.999998,314.999998,324.999988,324.999988,99.55871428571429,99.50718333333333,99.56664285714285,99.54612857142857,-0.07066666666666666,-0.19833333333333336,-0.24666666666666667,-0.020833333333333332,-0.036666666666668846,-0.04571428571428271,1.391,1.4749999999999999,37.141,29.216,37.305,34.379,56.215,34.4565,59.5415,51.9795,54.144,33.644,58.1545,50.316,53.323,33.223,58.119,49.731,0.019000000000000128,-0.16100000000000003,0.107365,0.10919500000000001,0.0,205.79500000000002,205.655,202.46666666666667,202.46666666666667,0.0,0.0
2,0.0,0.0,0.0,1.0,1.0,0.0,0.0,1.0,0.0,100.0,1.0,1.1856,26.0,0.0,0.0,0.0,53.999996,0.0,26.0,26.0,26.0,26.0,-0.20611111111111102,0.2681,-0.07826666666666666,293.64,-2.5573,-2.839875,-1.45315,-1.6471,-268.96,216.2575,190.948375,0.0,0.0,0.0,0.0,0.005499999999999949,-5.498166666666667,-5.498166666666667,-0.5493,0.07150000000000001,-0.08762500000000006,2.755000000000001,65.818,-0.12100000000000001,-0.25425000000000003,2.042,100.0,1.0,1.0,203.37,0.0,0.0,0.0,0.0,0.0,0.0,0.0,8620.1,0.0,55.0,5.0,236.91666666666669,0.0,0.0,0.0,0.0,0.0,0.0,0.0,0.0,0.10500000000000043,0.10500000000000043,0.0,0.0,0.0,55.0,616.79921,10000.0,85.000001,85.000001,85.000001,85.000001,395.0,0.0,0.0,0.0,1.0,333.33500000000004,52.383,52.383,50.125,50.125,34.0,-32.21,17.682,-31.506666666666668,18.572499999999998,0.0,1783.372,0.9349999999999987,100.0,28.739,26.689,43.04,40.984,0.0,0.0,100.0,0.0,0.0,0.0,0.0,3386.0,2885.7,3802.1111111111113,3655.1,304.34766666666667,305.72433333333333,315.51425,315.8645,21.7928,20.5194,21.8194,21.3494,314.999998,314.999998,324.999988,324.999988,99.55872857142857,99.50721666666666,99.56678571428571,99.54627142857143,-0.07166666666666677,-0.20266666666666666,-0.2688333333333333,-0.03333333333333334,-0.05666666666667197,-0.048571428571428044,1.6095000000000002,1.6815,37.205,29.246333333333332,37.370999999999995,34.434,56.207,34.4975,59.58,52.0355,54.135999999999996,33.6815,58.1905,50.37,53.314,33.25866666666667,58.152,49.783500000000004,0.0009999999999998899,-0.1535000000000002,0.10451,0.11627000000000001,0.0,206.28,206.075,203.37,203.37,0.0,0.0
3,0.0,0.0,0.0,1.0,1.0,0.0,0.0,1.0,0.0,100.0,1.0,1.1856,26.0,0.0,0.0,0.0,53.999996,0.0,26.0,26.0,26.0,26.0,-0.19755555555555548,0.3245,0.08016666666666666,293.427,-2.6906,-2.7279999999999998,-1.48235,-1.6207,-265.79,216.255,190.929875,0.0,0.0,0.0,0.0,0.007333333333333303,-5.498166666666667,-5.498166666666667,-0.5105000000000001,0.36249999999999993,-0.04200000000000026,0.2709999999999999,65.962,-0.1301,-0.20042500000000002,1.548,100.0,1.0,1.0,203.50666666666666,0.0,0.0,0.0,0.0,0.0,0.0,0.0,8625.9,0.0,55.0,5.0,237.43333333333334,1.0,0.0,0.0,0.0,0.0,0.0,0.0,0.0,0.1529999999999987,0.1529999999999987,0.0,0.0,1.0,55.0,616.79921,10000.0,85.000001,85.000001,85.000001,85.000001,395.0,0.0,0.0,0.0,1.0,166.665,53.467,53.467,48.187,48.187,34.0,-27.5275,16.936,-36.95,22.1,0.0,1783.325,0.8000000000000007,100.0,28.254,26.723,42.834,41.059,0.0,0.0,100.0,0.0,0.0,0.0,0.0,2925.375,2844.5,4304.222222222223,4210.3,305.8503333333333,305.79133333333334,314.30525,314.44175,21.8021,20.5242,21.8293,21.3578,314.999998,314.999998,324.999988,324.999988,99.55874285714286,99.50723333333333,99.56692857142858,99.5464,-0.056333333333333124,-0.19166666666666665,-0.25266666666666665,-0.035,-0.02833333333332888,-0.0357142857142847,1.4649999999999999,1.5525,37.263,29.276333333333334,37.433,34.486,56.194,34.539,59.6165,52.0935,54.125,33.72,58.225,50.4255,53.301,33.29533333333333,58.184,49.838,-0.018000000000000016,-0.13750000000000018,0.10505500000000001,0.105635,0.0,206.695,206.56,203.50666666666666,203.50666666666666,0.0,0.0
4,0.0,0.0,0.0,1.0,1.0,0.0,0.0,1.0,0.0,100.0,1.0,1.1856,26.0,0.0,0.0,0.0,53.999996,0.0,26.0,26.0,26.0,26.0,-0.18399999999999994,0.2832000000000001,-0.032233333333333336,293.61,-2.6341,-2.7705,-1.50445,-1.6214,-262.43,216.245,190.910125,0.0,0.0,0.0,0.0,0.009299999999999975,-5.498166666666667,-5.498166666666667,-0.5436,-0.7464999999999999,-0.10475000000000012,-1.569,66.108,-0.1236,-0.23675000000000002,1.476,100.0,1.0,1.0,204.08333333333331,0.0,0.0,0.0,0.0,0.0,0.0,0.0,8650.4,0.0,55.0,5.0,237.96333333333334,0.0,0.0,0.0,0.0,0.0,0.0,0.0,0.0,0.20400000000000063,0.20400000000000063,0.0,0.0,0.0,55.0,616.79921,10000.0,85.000001,85.000001,85.000001,85.000001,395.0,0.0,0.0,0.0,1.0,333.33500000000004,53.07,53.07,48.737,48.737,34.0,-31.225,17.304000000000002,-35.013333333333335,19.2575,0.0,1783.273,0.7600000000000016,100.0,27.925,26.681,43.131,41.246,0.0,0.0,100.0,0.0,0.0,0.0,0.0,3300.25,2834.1,4124.111111111111,3659.1,304.9266666666667,305.66133333333335,314.76825,315.7135,21.8119,20.5292,21.84,21.3667,314.999998,314.999998,324.999988,324.999988,99.55874285714286,99.50725,99.56707142857142,99.54652857142857,-0.06499999999999995,-0.19366666666666665,-0.25483333333333336,-0.02016666666666667,-0.04999999999999716,-0.06571428571428584,1.5524999999999998,1.6075,37.324,29.307333333333332,37.5,34.542,56.179,34.5845,59.661,52.153999999999996,54.11,33.762,58.2665,50.4835,53.286,33.33533333333334,58.2225,49.8945,-0.01649999999999996,-0.1379999999999999,0.106255,0.10930500000000001,0.0,207.09,206.985,204.08333333333331,204.08333333333331,0.0,0.0
5,0.0,0.0,0.0,1.0,1.0,0.0,0.0,1.0,0.0,100.0,1.0,1.1856,26.0,0.0,0.0,0.0,53.999996,0.0,26.0,26.0,26.0,26.0,-0.17866666666666664,0.29810000000000003,0.004200000000000001,293.655,-2.64505,-2.792125,-1.4907,-1.607,-259.05,216.23000000000002,190.88975,0.0,0.0,0.0,0.0,0.011266666666666536,-5.498166666666667,-5.498166666666667,-0.5356000000000001,0.4375,-0.10262500000000019,1.1840000000000002,66.256,-0.1202,-0.213475,1.2479999999999993,100.0,1.0,1.0,204.4766666666667,0.0,0.0,0.0,0.0,0.0,0.0,0.0,8667.0,0.0,55.0,5.0,238.49,1.0,0.0,0.0,0.0,0.0,0.0,0.0,0.0,0.254999999999999,0.254999999999999,0.0,0.0,1.0,55.0,616.79921,10000.0,85.000001,85.000001,85.000001,85.000001,395.0,0.0,0.0,0.0,1.0,166.665,53.482,53.482,48.996,48.996,34.0,-28.7025,18.23,-34.42666666666667,21.795,0.0,1783.224,0.28000000000000114,100.0,28.086,26.433,42.897999999999996,40.870000000000005,0.0,0.0,100.0,0.0,0.0,0.0,0.0,3133.375,2816.9,4154.777777777777,4084.4,305.2216666666667,305.9413333333333,314.72825,314.77425,21.8219,20.5342,21.8505,21.3755,314.999998,314.999998,324.999988,324.999988,99.55875714285715,99.50726666666667,99.56721428571429,99.54667142857143,-0.038000000000000034,-0.16600000000000004,-0.24116666666666667,-0.021166666666666667,-0.036666666666668846,-0.06714285714285495,1.552,1.563,37.387,29.339,37.566,34.5965,56.168,34.624,59.698,52.207499999999996,54.099000000000004,33.798,58.301,50.5345,53.274,33.36966666666667,58.2545,49.9445,-0.046499999999999986,-0.10599999999999987,0.10290500000000001,0.108465,0.0,207.59,207.485,204.4766666666667,204.4766666666667,0.0,0.0
6,0.0,0.0,0.0,1.0,1.0,0.0,0.0,1.0,0.0,100.0,1.0,1.1856,26.0,0.0,0.0,0.0,53.999996,0.0,26.0,26.0,26.0,26.0,-0.1406666666666666,0.2945,-0.012,293.442,-2.61975,-2.8141249999999998,-1.53795,-1.6009,-255.67,216.2125,190.86925,0.0,0.0,0.0,0.0,0.01323333333333332,-5.498166666666667,-5.498166666666667,-0.5306000000000001,0.08450000000000002,-0.08300000000000018,-0.4249999999999998,66.401,-0.10830000000000001,-0.21495,0.9420000000000002,100.0,1.0,1.0,204.93,0.0,0.0,0.0,0.0,0.0,0.0,0.0,8686.3,0.0,55.0,5.0,239.01333333333332,0.0,0.0,0.0,0.0,0.0,0.0,0.0,0.0,0.30600000000000094,0.30600000000000094,0.0,0.0,0.0,55.0,616.79921,10000.0,85.000001,85.000001,85.000001,85.000001,395.0,0.0,0.0,0.0,1.0,166.665,53.162,53.162,48.691,48.691,34.0,-28.8875,19.616,-34.7,21.825000000000003,0.0,1783.172,0.09499999999999886,100.0,27.822,26.758,42.94,41.384,0.0,0.0,100.0,0.0,0.0,0.0,0.0,3238.0,2831.9,4138.222222222223,3990.1000000000004,305.04633333333334,305.61266666666666,314.81125,314.918,21.8318,20.5393,21.8612,21.3845,314.999998,314.999998,324.999988,324.999988,99.55875714285715,99.5073,99.56737142857143,99.54681428571429,-0.02633333333333332,-0.1456666666666666,-0.23750000000000002,-0.008166666666666666,-0.061666666666667425,-0.05857142857143316,1.5415,1.577,37.449,29.370666666666665,37.632,34.653,56.153999999999996,34.665,59.7375,52.268,54.086,33.835499999999996,58.338,50.5925,53.26,33.40566666666666,58.2885,50.001,-0.06899999999999995,-0.07650000000000023,0.11067500000000001,0.109435,0.0,208.035,207.945,204.93,204.93,0.0,0.0
7,0.0,0.0,0.0,1.0,1.0,0.0,0.0,1.0,0.0,100.0,1.0,1.1856,26.0,0.0,0.0,0.0,53.999996,0.0,26.0,26.0,26.0,26.0,-0.1113333333333334,0.29700000000000015,0.013800000000000002,293.167,-2.59475,-2.746,-1.50235,-1.637,-252.48,216.19,190.85,0.0,0.0,0.0,0.0,0.015100000000000002,-5.498166666666667,-5.498166666666667,-0.5341,-0.03699999999999992,-0.0674999999999999,-0.10299999999999976,66.539,-0.0881,-0.223475,0.54,100.0,1.0,1.0,205.31666666666666,0.0,0.0,0.0,0.0,0.0,0.0,0.0,8702.6,0.0,55.0,5.0,239.51,1.0,0.0,0.0,0.0,0.0,0.0,0.0,0.0,0.3539999999999992,0.3539999999999992,0.0,0.0,1.0,55.0,616.79921,10000.0,85.000001,85.000001,85.000001,85.000001,395.0,0.0,0.0,0.0,1.0,333.33500000000004,52.795,52.795,48.813,48.813,34.0,-28.009999999999998,20.804000000000002,-32.72666666666667,24.205,0.0,1783.124,-0.16000000000000014,100.0,27.923000000000002,26.829,42.921,41.671,0.0,0.0,100.0,0.0,0.0,0.0,0.0,3325.5,2931.7,4106.444444444444,4033.1000000000004,304.733,305.374,314.83525,314.74375,21.8412,20.5441,21.8711,21.393,314.999998,314.999998,324.999988,324.999988,99.55875714285715,99.5073,99.5675,99.54694285714285,0.010333333333333083,-0.12,-0.20933333333333334,0.01916666666666667,-0.07499999999999574,-0.06142857142857139,1.5215,1.5434999999999999,37.507,29.400666666666666,37.694,34.706,56.14,34.7025,59.7745,52.3245,54.073,33.8705,58.3725,50.6465,53.245999999999995,33.439,58.320499999999996,50.054,-0.09250000000000003,-0.059499999999999886,0.11074,0.105035,0.0,208.45,208.38,205.31666666666666,205.31666666666666,0.0,0.0
8,0.0,0.0,0.0,1.0,1.0,0.0,0.0,1.0,0.0,100.0,1.0,1.1856,26.0,0.0,0.0,0.0,53.999996,0.0,26.0,26.0,26.0,26.0,-0.06588888888888889,0.2894000000000001,0.03446666666666667,293.442,-2.68175,-2.731125,-1.4881,-1.5638,-249.07999999999998,216.16750000000002,190.829375,0.0,0.0,0.0,0.0,0.017066666666666563,-5.498166666666667,-5.498166666666667,-0.5352,-0.575,-0.044500000000000206,0.7700000000000005,66.685,-0.0636,-0.21380000000000002,-0.0039999999999995595,100.0,1.0,1.0,205.70666666666668,0.0,0.0,0.0,0.0,0.0,0.0,0.0,8719.1,0.0,55.0,5.0,240.0366666666667,0.0,0.0,0.0,0.0,0.0,0.0,0.0,0.0,0.40500000000000114,0.40500000000000114,0.0,0.0,0.0,55.0,616.79921,10000.0,85.000001,85.000001,85.000001,85.000001,395.0,0.0,0.0,0.0,1.0,166.665,53.68,53.68,48.096000000000004,48.096000000000004,34.0,-23.8875,22.355999999999998,-31.016666666666666,26.3425,0.0,1783.073,-0.3200000000000003,100.0,27.606,26.656,42.966,41.745000000000005,0.0,0.0,100.0,0.0,0.0,0.0,0.0,2934.875,2980.6,4137.777777777777,4173.2,305.89933333333335,305.41133333333335,314.66,314.49125,21.8508,20.5493,21.8817,21.402,314.999998,314.999998,324.999988,324.999988,99.55875714285715,99.50731666666667,99.56764285714286,99.54708571428571,0.03733333333333322,-0.08299999999999996,-0.1685,0.059166666666666666,-0.03166666666666629,-0.054285714285711606,1.5074999999999998,1.5095,37.568,29.433,37.76,34.7625,56.123000000000005,34.7415,59.8125,52.384,54.057,33.906,58.408,50.7035,53.230000000000004,33.473,58.353,50.1095,-0.09999999999999987,-0.045500000000000096,0.10741500000000001,0.106215,0.0,208.845,208.84,205.70666666666668,205.70666666666668,0.0,0.0
9,0.0,0.0,0.0,1.0,1.0,0.0,0.0,1.0,0.0,100.0,1.0,1.1856,26.0,0.0,0.0,0.0,53.999996,0.0,26.0,26.0,26.0,26.0,-0.043888888888888866,0.2872000000000001,0.029933333333333333,293.137,-2.67135,-2.734125,-1.5438,-1.5668000000000002,-245.88,216.14249999999998,190.8095,0.0,0.0,0.0,0.0,0.018933333333333358,-5.498166666666667,-5.498166666666667,-0.5429,0.6174999999999999,-0.04349999999999987,0.9020000000000001,66.818,-0.0397,-0.21655000000000002,-0.09999999999999964,100.0,1.0,1.0,206.24333333333334,0.0,0.0,0.0,0.0,0.0,0.0,0.0,8741.9,0.0,55.0,5.0,240.51666666666665,1.0,0.0,0.0,0.0,0.0,0.0,0.0,0.0,0.4529999999999994,0.4529999999999994,0.0,0.0,1.0,55.0,616.79921,10000.0,85.000001,85.000001,85.000001,85.000001,395.0,0.0,0.0,0.0,1.0,166.665,52.383,52.383,49.149,49.149,34.0,-26.2975,24.27,-28.523333333333333,26.62,0.0,1783.025,-0.46499999999999986,100.0,28.061,27.127,42.576,41.784,0.0,0.0,100.0,0.0,0.0,0.0,0.0,3305.375,3089.7,3968.1111111111113,4063.1000000000004,304.7296666666667,305.0056666666667,315.198,314.83125,21.8601,20.5543,21.8915,21.4104,314.999998,314.999998,324.999988,324.999988,99.55877142857143,99.50731666666667,99.56778571428572,99.54721428571429,0.06199999999999983,-0.06266666666666665,-0.14366666666666666,0.08716666666666667,-0.036666666666668846,-0.05857142857143316,1.577,1.5795,37.626000000000005,29.464333333333336,37.822,34.815,56.111000000000004,34.778999999999996,59.846000000000004,52.4385,54.045,33.9405,58.439,50.756,53.217,33.506,58.3815,50.161,-0.11299999999999999,-0.046499999999999986,0.10518500000000001,0.11022000000000001,0.0,209.28,209.28,206.24333333333334,206.24333333333334,0.0,0.0
10,0.0,0.0,0.0,1.0,1.0,0.0,0.0,1.0,0.0,100.0,1.0,1.1856,26.0,0.0,0.0,0.0,53.999996,0.0,26.0,26.0,26.0,26.0,-0.006444444444444475,0.2916000000000001,0.0006333333333333333,292.923,-2.65355,-2.705,-1.5305,-1.5394999999999999,-242.46,216.115,190.78875,0.0,0.0,0.0,0.0,0.02089999999999992,-5.498166666666667,-5.498166666666667,-0.5182,-0.39349999999999996,0.0006249999999998757,0.3860000000000001,66.965,-0.0179,-0.20772500000000002,-0.39200000000000035,100.0,1.0,1.0,206.47,0.0,0.0,0.0,0.0,0.0,0.0,0.0,8751.5,0.0,55.0,5.0,241.04666666666668,0.0,0.0,0.0,0.0,0.0,0.0,1.0,0.0,0.5040000000000013,0.5040000000000013,0.0,0.0,0.0,55.0,616.79921,10000.0,85.000001,85.000001,85.000001,85.000001,395.0,0.0,0.0,0.0,1.0,166.665,53.421,53.421,47.592,47.592,34.0,-21.5575,22.362000000000002,-30.886666666666667,28.6375,0.0,1782.973,-0.6149999999999984,100.0,27.78,27.325,42.874,42.663,0.0,0.0,100.0,0.0,0.0,0.0,0.0,2908.375,2860.0,4334.111111111111,4279.6,306.02066666666667,305.57666666666665,314.2775,314.1555,21.8699,20.5595,21.9022,21.4197,314.999998,314.999998,324.999988,324.999988,99.55878571428572,99.50733333333334,99.56791428571428,99.54735714285714,0.08300000000000018,-0.056333333333333346,-0.122,0.08783333333333333,-0.051666666666669414,-0.034285714285715585,1.4805000000000001,1.472,37.687,29.497,37.888,34.873,56.098,34.8165,59.8855,52.5015,54.033,33.975,58.476,50.8165,53.203,33.539,58.4155,50.2205,-0.129,-0.03200000000000003,0.10315,0.10263000000000001,0.0,209.71,209.72,206.47,206.47,0.0,0.0
11,0.0,0.0,0.0,1.0,1.0,0.0,0.0,1.0,0.0,100.0,1.0,1.1856,26.0,0.0,0.0,0.0,53.999996,0.0,26.0,26.0,26.0,26.0,0.02444444444444427,0.2692000000000001,-0.0698,293.51800000000003,-2.6994,-2.691375,-1.5864,-1.5293999999999999,-239.05,216.0875,190.768125,0.0,0.0,0.0,0.0,0.022599999999999953,-5.498166666666667,-5.498166666666667,-0.5615,-0.22999999999999998,0.027874999999999872,0.3600000000000003,67.104,0.0044,-0.23797500000000002,-0.6420000000000003,100.0,1.0,1.0,207.2266666666667,0.0,0.0,0.0,0.0,0.0,0.0,0.0,8783.6,0.0,55.0,5.0,241.54666666666668,1.0,0.0,0.0,0.0,0.0,0.0,1.0,0.0,0.5549999999999997,0.5549999999999997,0.0,0.0,1.0,55.0,616.79921,10000.0,85.000001,85.000001,85.000001,85.000001,395.0,0.0,0.0,0.0,1.0,333.33500000000004,52.841,52.841,49.286,49.286,34.0,-22.25,26.398,-24.29,26.8925,0.0,1782.922,-0.6999999999999993,100.0,27.639,27.403,42.442,42.528,0.0,0.0,100.0,0.0,0.0,0.0,0.0,3007.25,3171.4,3684.777777777778,3873.1000000000004,305.646,304.76,315.9115,315.2555,21.8794,20.5649,21.9125,21.4287,314.999998,314.999998,324.999988,324.999988,99.55878571428572,99.50733333333334,99.56805714285714,99.54751428571429,0.0990000000000002,-0.02066666666666661,-0.09783333333333333,0.135,-0.051666666666669414,-0.06285714285714761,1.638,1.599,37.745999999999995,29.531,37.953,34.9295,56.083,34.8545,59.9185,52.56,54.019,34.01,58.5065,50.873,53.189,33.57266666666666,58.443,50.2755,-0.11999999999999988,-0.026000000000000245,0.11118000000000001,0.11267500000000001,0.0,210.11,210.16,207.2266666666667,207.2266666666667,0.0,0.0
12,0.0,0.0,0.0,1.0,1.0,0.0,0.0,1.0,0.0,100.0,1.0,1.1856,26.0,0.0,0.0,0.0,53.999996,0.0,26.0,26.0,26.0,26.0,0.04255555555555568,0.28590000000000004,0.014266666666666667,292.908,-2.75285,-2.686375,-1.5474999999999999,-1.5303,-235.82,216.065,190.747375,0.0,0.0,0.0,0.0,0.025466666666666526,-5.498166666666667,-5.498166666666667,-0.5466,0.279,0.014999999999999902,0.6470000000000002,67.241,0.0227,-0.206575,-0.6739999999999995,100.0,1.0,1.0,207.40666666666667,0.0,0.0,0.0,0.0,0.0,0.0,0.0,8791.2,0.0,55.0,5.0,242.03666666666666,0.0,0.0,0.0,0.0,0.0,0.0,1.0,0.0,0.602999999999998,0.602999999999998,0.0,0.0,0.0,55.0,616.79921,10000.0,85.000001,85.000001,85.000001,85.000001,395.0,0.0,0.0,0.0,1.0,166.665,52.765,52.765,47.928,47.928,34.0,-22.447499999999998,26.582,-26.886666666666667,31.1675,0.0,1782.875,-0.4549999999999983,100.0,27.573,27.551000000000002,42.41,42.435,0.0,0.0,100.0,0.0,0.0,0.0,0.0,3028.875,3194.6,4173.555555555556,4224.8,305.606,304.7196666666667,314.6715,314.42725,21.8884,20.5701,21.9224,21.4372,314.999998,314.999998,324.999988,324.999988,99.5588,99.50735,99.5682,99.54764285714286,0.10966666666666658,-0.020000000000000018,-0.07150000000000001,0.15233333333333335,-0.046666666666666856,-0.06428571428571672,1.5265,1.506,37.803,29.563000000000002,38.015,34.9825,56.071,34.89,59.953,52.616,54.007,34.043,58.5385,50.927,53.176,33.60433333333333,58.472,50.3285,-0.11099999999999999,-0.03750000000000009,0.101135,0.11228500000000001,0.0,210.555,210.625,207.40666666666667,207.40666666666667,0.0,0.0
13,0.0,0.0,0.0,1.0,1.0,0.0,0.0,1.0,0.0,100.0,1.0,1.1856,26.0,0.0,0.0,0.0,53.999996,0.0,26.0,26.0,26.0,26.0,0.06400000000000006,0.28269999999999995,0.0344,292.526,-2.73325,-2.673375,-1.6210499999999999,-1.5114,-232.39,216.04000000000002,190.7255,0.0,0.0,0.0,0.0,0.026766666666666605,-5.498166666666667,-5.498166666666667,-0.5397000000000001,-0.05800000000000005,0.017749999999999932,-0.44200000000000017,67.383,0.0308,-0.2156,-0.7620000000000005,100.0,1.0,1.0,207.79333333333335,0.0,0.0,0.0,0.0,0.0,0.0,0.0,8807.6,0.0,55.0,5.0,242.55,1.0,0.0,0.0,0.0,0.0,0.0,1.0,0.0,0.6539999999999999,0.6539999999999999,0.0,0.0,1.0,55.0,616.79921,10000.0,85.000001,85.000001,85.000001,85.000001,395.0,0.0,0.0,0.0,1.0,333.33500000000004,52.429,52.429,47.867,47.867,34.0,-22.2975,26.726,-28.293333333333333,31.52,0.0,1782.823,-0.9050000000000011,100.0,27.712,27.957,42.552,43.066,0.0,0.0,100.0,0.0,0.0,0.0,0.0,3173.125,3085.0,4221.0,4286.6,305.308,304.8636666666667,314.633,314.175,21.8981,20.5756,21.933,21.4465,314.999998,314.999998,324.999988,324.999988,99.55882857142858,99.50735,99.56834285714285,99.54778571428571,0.1336666666666666,0.006000000000000005,-0.07166666666666667,0.149,-0.060000000000002274,-0.048571428571428044,1.5114999999999998,1.4845,37.863,29.597666666666665,38.081,35.0405,56.061,34.9285,59.99,52.679,53.997,34.0785,58.573,50.9875,53.165,33.638,58.5035,50.388,-0.14749999999999996,-0.0040000000000000036,0.10154500000000001,0.111685,0.0,210.99,211.05,207.79333333333335,207.79333333333335,0.0,0.0
14,0.0,0.0,0.0,1.0,1.0,0.0,0.0,1.0,0.0,100.0,1.0,1.1856,26.0,0.0,0.0,0.0,53.999996,0.0,26.0,26.0,26.0,26.0,0.09800000000000009,0.2791000000000001,-0.012333333333333333,292.77,-2.7359999999999998,-2.612375,-1.6003,-1.5117,-228.75,216.015,190.703,0.0,0.0,0.0,0.0,0.028866666666666596,-5.498166666666667,-5.498166666666667,-0.5487000000000001,-0.13000000000000012,0.050999999999999934,-0.18900000000000006,67.531,0.045700000000000005,-0.22812500000000002,-1.0300000000000002,100.0,1.0,1.0,208.34,0.0,0.0,0.0,0.0,0.0,0.0,0.0,8830.8,0.0,55.0,5.0,243.08333333333334,0.0,0.0,0.0,0.0,0.0,0.0,1.0,0.0,0.7079999999999984,0.7079999999999984,0.0,0.0,0.0,55.0,616.79921,10000.0,85.000001,85.000001,85.000001,85.000001,395.0,0.0,0.0,0.0,1.0,166.665,52.567,52.567,48.065,48.065,34.0,-20.5975,27.422,-25.313333333333336,31.4775,0.0,1782.771,-0.9699999999999989,100.0,27.56,28.04,42.494,43.317,0.0,0.0,100.0,0.0,0.0,0.0,0.0,3026.75,3172.6,3985.6666666666665,4174.0,305.742,304.61,315.17225,314.47,21.9082,20.5815,21.9441,21.4562,314.999998,314.999998,324.999988,324.999988,99.55884285714286,99.50735,99.56848571428571,99.54794285714286,0.1459999999999999,0.015666666666666718,-0.0575,0.16966666666666666,-0.03999999999999915,-0.04285714285714448,1.5470000000000002,1.505,37.926,29.634,38.150999999999996,35.1015,56.051,34.9685,60.027,52.7445,53.986999999999995,34.116,58.6075,51.0505,53.153,33.674,58.5345,50.4495,-0.15649999999999986,0.0020000000000000018,0.10479000000000001,0.109505,0.0,211.425,211.51,208.34,208.34,0.0,0.0
15,0.0,0.0,0.0,1.0,1.0,0.0,0.0,1.0,0.0,100.0,1.0,1.1856,26.0,0.0,0.0,0.0,53.999996,0.0,26.0,26.0,26.0,26.0,0.10844444444444434,0.2922,0.012733333333333333,292.801,-2.708,-2.576125,-1.6304,-1.4563000000000001,-225.7,215.9975,190.684,0.0,0.0,0.0,0.0,0.0306333333333334,-5.498166666666667,-5.498166666666667,-0.5391,0.269,0.07974999999999999,1.0840000000000005,67.655,0.0609,-0.209875,-1.2199999999999998,100.0,1.0,1.0,208.69666666666666,0.0,0.0,0.0,0.0,0.0,0.0,0.0,8845.9,0.0,55.0,5.0,243.52666666666664,1.0,0.0,0.0,0.0,0.0,0.0,1.0,0.0,0.7530000000000001,0.7530000000000001,0.0,0.0,1.0,55.0,616.79921,10000.0,85.000001,85.000001,85.000001,85.000001,395.0,0.0,0.0,0.0,1.0,333.33500000000004,52.765,52.765,48.157,48.157,34.0,-17.83,27.997999999999998,-23.893333333333334,33.980000000000004,0.0,1782.723,-0.9699999999999989,100.0,27.743,27.912,42.343,43.268,0.0,0.0,100.0,0.0,0.0,0.0,0.0,2799.875,3227.1,3939.222222222222,4391.2,306.208,304.618,315.2565,314.05,21.9166,20.5864,21.9533,21.4643,314.999998,314.999998,324.999988,324.999988,99.55885714285715,99.50735,99.56862857142858,99.54808571428572,0.17033333333333367,0.02933333333333321,-0.028333333333333332,0.19733333333333336,-0.046666666666666856,-0.057142857142849834,1.5590000000000002,1.5115,37.977999999999994,29.664666666666665,38.208,35.152,56.041,35.004999999999995,60.059,52.803,53.977999999999994,34.1495,58.6365,51.107,53.143,33.70633333333333,58.561,50.504999999999995,-0.15249999999999986,-0.00649999999999995,0.105855,0.11292,0.0,211.825,211.91,208.69666666666666,208.69666666666666,0.0,0.0
16,0.0,0.0,0.0,1.0,1.0,0.0,0.0,1.0,0.0,100.0,1.0,1.1856,26.0,0.0,0.0,0.0,53.999996,0.0,26.0,26.0,26.0,26.0,0.1120000000000001,0.2775000000000001,-0.013633333333333334,292.801,-2.7992,-2.587625,-1.5985,-1.518,-222.05,215.97750000000002,190.660625,0.0,0.0,0.0,0.0,0.03276666666666661,-5.498166666666667,-5.498166666666667,-0.5631,-0.6859999999999999,0.06624999999999992,0.13100000000000023,67.803,0.0756,-0.22775,-1.2299999999999995,100.0,1.0,1.0,209.16666666666669,0.0,0.0,0.0,0.0,0.0,0.0,0.0,8865.8,0.0,55.0,5.0,244.06333333333333,0.0,0.0,0.0,0.0,0.0,0.0,1.0,0.0,0.8069999999999986,0.8069999999999986,0.0,0.0,0.0,55.0,616.79921,10000.0,85.000001,85.000001,85.000001,85.000001,395.0,0.0,0.0,0.0,1.0,166.665,52.567,52.567,47.974000000000004,47.974000000000004,34.0,-20.0475,29.658,-22.703333333333333,33.0775,0.0,1782.671,-0.8999999999999986,100.0,27.388,28.018,42.55,43.415,0.0,0.0,100.0,0.0,0.0,0.0,0.0,2993.0,3331.6,3904.8888888888887,4135.6,305.8466666666667,304.3503333333333,315.30925,314.5915,21.9263,20.5923,21.9645,21.4741,314.999998,314.999998,324.999988,324.999988,99.55887142857142,99.50736666666667,99.56875714285714,99.54822857142857,0.16633333333333367,0.04266666666666685,-0.0175,0.2085,-0.026666666666670835,-0.06714285714285495,1.5670000000000002,1.5175,38.039,29.701999999999998,38.278,35.213,56.028,35.045,60.095,52.8635,53.965,34.186,58.670500000000004,51.1655,53.129999999999995,33.74166666666667,58.591499999999996,50.5625,-0.1419999999999999,-0.0034999999999998366,0.10373,0.10473500000000001,0.0,212.24,212.34,209.16666666666669,209.16666666666669,0.0,0.0
17,0.0,0.0,0.0,1.0,1.0,0.0,0.0,1.0,0.0,100.0,1.0,1.1856,26.0,0.0,0.0,0.0,53.999996,0.0,26.0,26.0,26.0,26.0,0.11644444444444435,0.29170000000000007,-0.028300000000000002,292.496,-2.7601,-2.565875,-1.64015,-1.4766,-218.79,215.9625,190.639375,0.0,0.0,0.0,0.0,0.03466666666666651,-5.498166666666667,-5.498166666666667,-0.5505,0.556,0.049250000000000016,0.7460000000000004,67.93299999999999,0.0789,-0.206625,-1.1479999999999997,100.0,1.0,1.0,209.5233333333333,0.0,0.0,0.0,0.0,0.0,0.0,0.0,8880.9,0.0,55.0,5.0,244.53,1.0,0.0,0.0,0.0,0.0,0.0,1.0,0.0,0.8550000000000004,0.8550000000000004,0.0,0.0,1.0,55.0,616.79921,10000.0,85.000001,85.000001,85.000001,85.000001,395.0,0.0,0.0,0.0,1.0,333.33500000000004,52.429,52.429,47.836,47.836,34.0,-19.2,27.997999999999998,-25.316666666666666,34.1275,0.0,1782.623,-1.0199999999999996,100.0,27.874,28.310000000000002,42.331,43.358000000000004,0.0,0.0,100.0,0.0,0.0,0.0,0.0,2985.0,3155.1,4193.666666666667,4322.4,305.747,304.8453333333333,314.735,314.26225,21.935299999999998,20.5977,21.9743,21.4827,314.999998,314.999998,324.999988,324.999988,99.5589,99.50736666666667,99.5689,99.54835714285714,0.17966666666666642,0.04933333333333323,-0.018166666666666668,0.20800000000000002,-0.04333333333332945,-0.06714285714285495,1.5484999999999998,1.5135,38.096000000000004,29.735333333333333,38.339,35.266999999999996,56.021,35.0835,60.126999999999995,52.921,53.958,34.222,58.7,51.221000000000004,53.120999999999995,33.775999999999996,58.618,50.617,-0.15449999999999986,-0.00550000000000006,0.10817500000000001,0.10791,0.0,212.685,212.78,209.5233333333333,209.5233333333333,0.0,0.0
18,0.0,0.0,0.0,1.0,1.0,0.0,0.0,1.0,0.0,100.0,1.0,1.1856,26.0,0.0,0.0,0.0,53.999996,0.0,26.0,26.0,26.0,26.0,0.1136666666666668,0.28269999999999995,-0.020833333333333336,292.511,-2.79655,-2.5375,-1.6565500000000002,-1.4227,-215.51999999999998,215.9525,190.61825,0.0,0.0,0.0,0.0,0.036566666666666525,-5.498166666666667,-5.498166666666667,-0.5597,-0.5295000000000001,0.07299999999999995,1.0259999999999998,68.064,0.0818,-0.22282500000000002,-1.2560000000000002,100.0,1.0,1.0,209.94333333333333,0.0,0.0,0.0,0.0,0.0,0.0,0.0,8898.7,0.0,55.0,5.0,245.0,0.0,0.0,0.0,0.0,0.0,0.0,1.0,0.0,0.9029999999999987,0.9029999999999987,0.0,0.0,0.0,55.0,616.79921,10000.0,85.000001,85.000001,85.000001,85.000001,395.0,0.0,0.0,0.0,1.0,166.665,52.383,52.383,47.714,47.714,34.0,-19.5225,29.552,-24.126666666666665,32.8675,0.0,1782.576,-0.75,100.0,27.584,28.123,42.664,43.769,0.0,0.0,100.0,0.0,0.0,0.0,0.0,2983.5,3362.4,3992.777777777778,4225.1,305.8156666666667,304.30333333333334,315.155,314.45325,21.9441,20.603,21.9843,21.4915,314.999998,314.999998,324.999988,324.999988,99.55892857142857,99.50736666666667,99.56904285714286,99.54851428571429,0.17799999999999994,0.04499999999999993,-0.01916666666666667,0.21383333333333335,-0.051666666666669414,-0.048571428571428044,1.5705,1.5045,38.15,29.768333333333334,38.402,35.322,56.012,35.121,60.161,52.9805,53.949,34.257,58.7315,51.2785,53.111000000000004,33.809666666666665,58.6465,50.673500000000004,-0.14649999999999985,-0.008999999999999897,0.106575,0.10602,0.0,213.065,213.135,209.94333333333333,209.94333333333333,0.0,0.0
19,0.0,0.0,0.0,1.0,1.0,0.0,0.0,1.0,0.0,100.0,1.0,1.1856,26.0,0.0,0.0,0.0,53.999996,0.0,26.0,26.0,26.0,26.0,0.10611111111111104,0.3004,0.03736666666666667,291.992,-2.7654,-2.52925,-1.6609,-1.4155,-212.05,215.945,190.59575,0.0,0.0,0.0,0.0,0.03859999999999997,-5.498166666666667,-5.498166666666667,-0.5504,0.868,0.06899999999999995,-0.8559999999999999,68.201,0.0878,-0.21077500000000002,-0.7639999999999993,100.0,1.0,1.0,210.34333333333333,0.0,0.0,0.0,0.0,0.0,0.0,0.0,8915.7,0.0,55.0,5.0,245.49333333333334,1.0,0.0,0.0,0.0,0.0,0.0,1.0,0.0,0.9540000000000006,0.9540000000000006,0.0,0.0,1.0,55.0,616.79921,10000.0,85.000001,85.000001,85.000001,85.000001,395.0,0.0,0.0,0.0,1.0,333.33500000000004,51.682,51.682,47.546,47.546,34.0,-22.7225,26.862000000000002,-26.15,33.31,0.0,1782.523,-0.14999999999999858,100.0,28.002,28.706,42.379,43.8,0.0,0.0,100.0,0.0,0.0,0.0,0.0,3166.875,3282.3,4218.555555555556,4356.6,305.3186666666667,304.2486666666667,314.73425,314.139,21.9536,20.6088,21.9947,21.5007,314.999998,314.999998,324.999988,324.999988,99.55894285714285,99.50738333333334,99.56917142857142,99.54865714285714,0.1306666666666665,-0.005333333333333301,-0.0245,0.202,-0.06333333333333258,-0.03999999999999915,1.5305,1.518,38.21,29.805,38.467,35.3795,56.003,35.1625,60.1945,53.042,53.94,34.295,58.762,51.338,53.101,33.846333333333334,58.674,50.732,-0.09250000000000003,-0.06550000000000011,0.10865000000000001,0.10628000000000001,0.0,213.54000000000002,213.59,210.34333333333333,210.34333333333333,0.0,0.0
20,0.0,0.0,0.0,1.0,1.0,0.0,0.0,1.0,0.0,100.0,1.0,1.1856,26.0,0.0,0.0,0.0,53.999996,0.0,26.0,26.0,26.0,26.0,0.076888888888889,0.2731000000000001,0.021666666666666667,292.313,-2.79445,-2.616,-1.57205,-1.5529000000000002,-208.57,215.9375,190.573375,0.0,0.0,0.0,0.0,0.04059999999999997,-5.498166666666667,-5.498166666666667,-0.5532,-1.202,0.053625000000000034,0.08999999999999986,68.34,0.0697,-0.2207,-0.21399999999999952,100.0,1.0,1.0,210.66,0.0,0.0,0.0,0.0,0.0,0.0,0.0,8929.2,0.0,55.0,5.0,245.99666666666667,0.0,0.0,0.0,0.0,0.0,0.0,0.0,0.0,1.004999999999999,1.004999999999999,0.0,0.0,0.0,55.0,616.79921,10000.0,85.000001,85.000001,85.000001,85.000001,395.0,0.0,0.0,0.0,1.0,333.33500000000004,52.856,52.856,46.86,46.86,34.0,-21.1525,25.881999999999998,-25.9,34.415,0.0,1782.473,0.26000000000000156,100.0,27.622,28.119,43.216,44.037,0.0,0.0,100.0,0.0,0.0,0.0,0.0,2865.125,3176.9,4161.222222222223,4299.2,306.211,304.80733333333336,314.63925,314.1055,21.9628,20.6144,22.0054,21.5101,314.999998,314.999998,324.999988,324.999988,99.55895714285714,99.50738333333334,99.56932857142857,99.5488,0.11333333333333373,-0.01733333333333331,-0.041166666666666664,0.1855,-0.03166666666666629,-0.047142857142851824,1.4609999999999999,1.4605,38.268,29.839666666666666,38.534,35.438,55.988,35.2005,60.233000000000004,53.1055,53.926,34.33,58.798,51.399,53.086,33.879999999999995,58.7065,50.792,-0.059499999999999886,-0.09200000000000008,0.10403000000000001,0.10952500000000001,0.0,213.94,213.945,210.66,210.66,0.0,0.0
21,0.0,0.0,0.0,1.0,1.0,0.0,0.0,1.0,0.0,100.0,1.0,1.1856,26.0,0.0,0.0,0.0,53.999996,0.0,26.0,26.0,26.0,26.0,0.016888888888888953,0.28059999999999996,-0.07826666666666666,292.648,-2.6858,-2.6870000000000003,-1.6216,-1.5278,-205.28,215.935,190.551625,0.0,0.0,0.0,0.0,0.04253333333333331,-5.498166666666667,-5.498166666666667,-0.5779000000000001,0.48949999999999994,0.01949999999999985,-0.08899999999999952,68.464,0.0367,-0.224825,0.2939999999999996,100.0,1.0,1.0,211.29000000000002,0.0,0.0,0.0,0.0,0.0,0.0,0.0,8955.8,0.0,55.0,5.0,246.44333333333333,1.0,0.0,0.0,0.0,0.0,0.0,0.0,0.0,1.0530000000000008,1.0530000000000008,0.0,0.0,1.0,55.0,616.79921,10000.0,85.000001,85.000001,85.000001,85.000001,395.0,0.0,0.0,0.0,1.0,333.33500000000004,52.277,52.277,48.294,48.294,34.0,-22.5575,25.57,-26.156666666666666,28.490000000000002,0.0,1782.425,0.2699999999999996,100.0,28.108,28.175,42.68,43.428,0.0,0.0,100.0,0.0,0.0,0.0,0.0,3038.125,3159.9,3993.8888888888887,3991.3,305.517,304.76933333333335,315.2355,315.0375,21.9718,20.6197,22.0151,21.5185,314.999998,314.999998,324.999988,324.999988,99.55895714285714,99.5074,99.56945714285715,99.54894285714286,0.09766666666666657,-0.039000000000000035,-0.0725,0.14833333333333334,-0.05666666666667197,-0.05571428571428072,1.5945,1.5979999999999999,38.324,29.872999999999998,38.595,35.491,55.977000000000004,35.238,60.262,53.159,53.915,34.365,58.825,51.4505,53.074,33.913,58.731,50.8425,-0.05800000000000005,-0.09850000000000003,0.09823000000000001,0.11177000000000001,0.0,214.39,214.35500000000002,211.29000000000002,211.29000000000002,0.0,0.0
22,0.0,0.0,0.0,1.0,1.0,0.0,0.0,1.0,0.0,100.0,1.0,1.1856,26.0,0.0,0.0,0.0,53.999996,0.0,26.0,26.0,26.0,26.0,-0.017000000000000015,0.27059999999999995,-0.0074666666666666675,292.13,-2.6505,-2.7112499999999997,-1.6019999999999999,-1.5301,-201.57999999999998,215.93,190.5265,0.0,0.0,0.0,0.0,0.04466666666666652,-5.498166666666667,-5.498166666666667,-0.5568000000000001,-0.010000000000000009,0.009500000000000064,0.6690000000000005,68.611,0.0011,-0.20627500000000001,0.5620000000000003,100.0,1.0,1.0,211.5233333333333,0.0,0.0,0.0,0.0,0.0,0.0,0.0,8965.7,0.0,55.0,5.0,246.97333333333336,0.0,0.0,0.0,0.0,0.0,0.0,0.0,0.0,1.1069999999999993,1.1069999999999993,0.0,0.0,0.0,55.0,616.79921,10000.0,85.000001,85.000001,85.000001,85.000001,395.0,0.0,0.0,0.0,1.0,166.665,52.429,52.429,47.058,47.058,34.0,-22.7825,23.692,-31.116666666666667,29.8975,0.0,1782.372,0.240000000000002,100.0,28.277,28.093,43.371,43.515,0.0,0.0,100.0,0.0,0.0,0.0,0.0,2932.5,3090.7,4227.111111111111,4349.7,305.798,304.97566666666665,314.57525,314.178,21.9818,20.6256,22.0264,21.5284,314.999998,314.999998,324.999988,324.999988,99.55897142857143,99.5074,99.56961428571428,99.5491,0.06333333333333346,-0.07399999999999995,-0.12283333333333334,0.1075,-0.03999999999999915,-0.06714285714285495,1.4674999999999998,1.4935,38.387,29.91,38.665,35.552,55.962,35.28,60.3025,53.2235,53.900999999999996,34.403999999999996,58.863,51.513,53.059,33.95066666666666,58.765,50.9035,-0.05600000000000005,-0.10650000000000004,0.10491500000000001,0.107965,0.0,214.865,214.79500000000002,211.5233333333333,211.5233333333333,0.0,0.0
23,0.0,0.0,0.0,1.0,1.0,0.0,0.0,1.0,0.0,100.0,1.0,1.1856,26.0,0.0,0.0,0.0,53.999996,0.0,26.0,26.0,26.0,26.0,-0.03411111111111109,0.2471000000000001,-0.012633333333333333,292.099,-2.6617,-2.6795,-1.5141499999999999,-1.6131,-198.29,215.9275,190.504375,0.0,0.0,0.0,0.0,0.046599999999999975,-5.498166666666667,-5.498166666666667,-0.5754,-0.2885,-0.010625000000000107,0.4530000000000003,68.737,-0.0207,-0.23225,0.6440000000000001,100.0,1.0,1.0,212.01999999999998,0.0,0.0,0.0,0.0,0.0,0.0,0.0,8986.8,0.0,55.0,5.0,247.42666666666668,1.0,0.0,0.0,0.0,0.0,0.0,0.0,0.0,1.1550000000000011,1.1550000000000011,0.0,0.0,1.0,55.0,616.79921,10000.0,85.000001,85.000001,85.000001,85.000001,395.0,0.0,0.0,0.0,1.0,166.665,51.682,51.682,48.08,48.08,34.0,-26.287499999999998,23.584000000000003,-28.14,27.247500000000002,0.0,1782.324,0.1999999999999993,100.0,28.645,28.098,43.649,43.619,0.0,0.0,100.0,0.0,0.0,0.0,0.0,3281.875,3133.4,3944.222222222222,3980.8,304.7823333333333,304.936,315.19375,314.96475,21.9909,20.6309,22.0364,21.5371,314.999998,314.999998,324.999988,324.999988,99.55898571428571,99.5074,99.56975714285714,99.54922857142857,0.05799999999999983,-0.07666666666666666,-0.139,0.09416666666666668,-0.03499999999999659,-0.05285714285714249,1.5179999999999998,1.546,38.443,29.942999999999998,38.727000000000004,35.6065,55.95,35.3185,60.337,53.2795,53.888999999999996,34.4395,58.894999999999996,51.5665,53.046,33.98466666666667,58.794,50.956,-0.059499999999999886,-0.09699999999999998,0.109325,0.10559500000000001,0.0,215.22500000000002,215.175,212.01999999999998,212.01999999999998,0.0,0.0
24,0.0,0.0,0.0,1.0,1.0,0.0,0.0,1.0,0.0,100.0,1.0,1.1856,26.0,0.0,0.0,0.0,53.999996,0.0,26.0,26.0,26.0,26.0,-0.05699999999999994,0.26890000000000014,-0.058100000000000006,292.374,-2.6814999999999998,-2.6938750000000002,-1.5535,-1.5579,-194.98000000000002,215.9225,190.481875,0.0,0.0,0.0,0.0,0.04849999999999999,-5.498166666666667,-5.498166666666667,-0.5780000000000001,-0.5575000000000001,-0.005374999999999908,0.9770000000000003,68.86500000000001,-0.029900000000000003,-0.2157,0.49600000000000044,100.0,1.0,1.0,212.31333333333333,0.0,0.0,0.0,0.0,0.0,0.0,0.0,8999.2,0.0,55.0,5.0,247.88666666666666,0.0,0.0,0.0,0.0,0.0,0.0,0.0,0.0,1.2029999999999994,1.2029999999999994,0.0,0.0,0.0,55.0,616.79921,10000.0,85.000001,85.000001,85.000001,85.000001,395.0,0.0,0.0,0.0,1.0,166.665,52.887,52.887,47.073,47.073,34.0,-23.59,21.582,-32.1,27.275,0.0,1782.276,0.1999999999999993,100.0,28.404,27.756,43.711,43.423,0.0,0.0,100.0,0.0,0.0,0.0,0.0,2929.5,2966.3,4290.555555555556,4140.9,305.9053333333333,305.47833333333335,314.377,314.66675,21.9998,20.6359,22.0463,21.5457,314.999998,314.999998,324.999988,324.999988,99.55898571428571,99.50741666666667,99.5699,99.54937142857143,0.046333333333333115,-0.09233333333333338,-0.14516666666666667,0.08333333333333333,-0.041666666666671404,-0.06142857142857139,1.5044999999999997,1.512,38.498999999999995,29.974666666666664,38.789,35.6605,55.935,35.355000000000004,60.3715,53.334,53.875,34.473,58.9275,51.619,53.032,34.016999999999996,58.823499999999996,51.007,-0.07000000000000006,-0.09299999999999997,0.101705,0.10982000000000001,0.0,215.615,215.575,212.31333333333333,212.31333333333333,0.0,0.0
25,0.0,0.0,0.0,1.0,1.0,0.0,0.0,1.0,0.0,100.0,1.0,1.1856,26.0,0.0,0.0,0.0,53.999996,0.0,26.0,26.0,26.0,26.0,-0.04322222222222216,0.264,-0.058800000000000005,292.252,-2.7428,-2.65875,-1.56305,-1.5654,-191.47,215.91750000000002,190.4565,0.0,0.0,0.0,0.0,0.05056666666666654,-5.498166666666667,-5.498166666666667,-0.6126,-0.05449999999999999,-0.011624999999999996,-1.1760000000000002,68.997,-0.0356,-0.22612500000000002,0.5200000000000005,100.0,1.0,1.0,212.86333333333334,0.0,0.0,0.0,0.0,0.0,0.0,0.0,9022.6,0.0,55.0,5.0,248.36333333333334,1.0,0.0,0.0,0.0,0.0,0.0,0.0,0.0,1.2540000000000013,1.2540000000000013,0.0,0.0,1.0,55.0,616.79921,10000.0,85.000001,85.000001,85.000001,85.000001,395.0,0.0,0.0,0.0,1.0,166.665,51.788,51.788,47.867,47.867,34.0,-28.294999999999998,23.044,-29.53333333333333,25.509999999999998,0.0,1782.224,0.19000000000000128,100.0,28.317,28.147,43.436,43.168,0.0,0.0,100.0,0.0,0.0,0.0,0.0,3339.125,3186.3,3995.5555555555557,3989.2,304.965,304.6306666666667,315.22225,315.02275,22.0091,20.6415,22.0567,21.5547,314.999998,314.999998,324.999988,324.999988,99.559,99.50743333333334,99.57004285714285,99.54952857142857,0.033333333333333215,-0.09866666666666657,-0.15283333333333335,0.07533333333333334,-0.04333333333332945,-0.057142857142849834,1.556,1.5855,38.557,30.009333333333334,38.855000000000004,35.717,55.919,35.3965,60.406,53.3895,53.86,34.5115,58.959,51.673,53.015,34.053666666666665,58.8525,51.0595,-0.0674999999999999,-0.09200000000000008,0.10928,0.10457000000000001,0.0,216.015,215.965,212.86333333333334,212.86333333333334,0.0,0.0
26,0.0,0.0,0.0,1.0,1.0,0.0,0.0,1.0,0.0,100.0,1.0,1.1856,26.0,0.0,0.0,0.0,53.999996,0.0,26.0,26.0,26.0,26.0,-0.05955555555555547,0.27770000000000006,0.07250000000000001,291.061,-2.68675,-2.74175,-1.60385,-1.5665,-187.74,215.9075,190.42925,0.0,0.0,0.0,0.0,0.0527333333333333,-5.498166666666667,-5.498166666666667,-0.5705,0.594,-0.03562500000000002,-0.7530000000000001,69.142,-0.0386,-0.19865000000000002,0.4939999999999998,100.0,1.0,1.0,213.01999999999998,0.0,0.0,0.0,0.0,0.0,0.0,0.0,9029.1,0.0,55.0,5.0,248.88,0.0,0.0,0.0,0.0,0.0,0.0,0.0,0.0,1.3079999999999998,1.3079999999999998,0.0,0.0,0.0,55.0,616.79921,10000.0,85.000001,85.000001,85.000001,85.000001,395.0,0.0,0.0,0.0,1.0,166.665,51.407,51.407,46.066,46.066,34.0,-26.787499999999998,22.23,-36.84,29.3125,0.0,1782.17,0.010000000000001563,100.0,29.164,28.752,44.041,43.589,0.0,0.0,100.0,0.0,0.0,0.0,0.0,3294.375,2971.1,4654.555555555556,4490.4,304.95633333333336,305.15633333333335,313.6755,313.797,22.0194,20.6476,22.0681,21.5646,314.999998,314.999998,324.999988,324.999988,99.559,99.50745,99.5702,99.54967142857143,0.049666666666666526,-0.09633333333333338,-0.15283333333333335,0.062,-0.045000000000001705,-0.05142857142856627,1.4205,1.446,38.620999999999995,30.047333333333334,38.925,35.7785,55.906,35.442499999999995,60.4475,53.4535,53.848,34.5535,58.998,51.734,53.001999999999995,34.094,58.888,51.1195,-0.08349999999999991,-0.08250000000000002,0.10027000000000001,0.10867500000000001,0.0,216.505,216.465,213.01999999999998,213.01999999999998,0.0,0.0
27,0.0,0.0,0.0,1.0,1.0,0.0,0.0,1.0,0.0,100.0,1.0,1.1856,26.0,0.0,0.0,0.0,53.999996,0.0,26.0,26.0,26.0,26.0,-0.0417777777777778,0.2511000000000001,-0.014033333333333335,291.55,-2.64905,-2.713125,-1.59575,-1.6385,-184.62,215.9,190.407625,0.0,0.0,0.0,0.0,0.05453333333333332,-5.498166666666667,-5.498166666666667,-0.5965,-1.036,-0.030625000000000124,0.7730000000000006,69.258,-0.0375,-0.24325000000000002,0.2860000000000005,100.0,1.0,1.0,213.50666666666666,0.0,0.0,0.0,0.0,0.0,0.0,0.0,9049.8,0.0,55.0,5.0,249.30333333333334,1.0,0.0,0.0,0.0,0.0,0.0,0.0,0.0,1.352999999999998,1.352999999999998,0.0,0.0,1.0,55.0,616.79921,10000.0,85.000001,85.000001,85.000001,85.000001,395.0,0.0,0.0,0.0,1.0,166.665,51.743,51.743,46.616,46.616,34.0,-24.3925,23.756,-31.23,28.1625,0.0,1782.126,-0.04499999999999815,100.0,28.987000000000002,28.342,44.699,44.028999999999996,0.0,0.0,100.0,0.0,0.0,0.0,0.0,3105.75,3150.6,4115.444444444444,4104.9,305.3333333333333,304.89033333333333,314.8125,314.66075,22.0277,20.6525,22.0776,21.5729,314.999998,314.999998,324.999988,324.999988,99.559,99.50745,99.57032857142858,99.5498,0.061666666666666536,-0.08299999999999996,-0.14633333333333334,0.08016666666666668,-0.03499999999999659,-0.048571428571428044,1.4895,1.4929999999999999,38.673,30.078,38.985,35.8305,55.893,35.478,60.482,53.507,53.835,34.5865,59.0305,51.7855,52.989000000000004,34.12566666666667,58.917500000000004,51.1695,-0.08949999999999991,-0.07699999999999996,0.10237,0.11455000000000001,0.0,216.79000000000002,216.765,213.50666666666666,213.50666666666666,0.0,0.0
28,0.0,0.0,0.0,1.0,1.0,0.0,0.0,1.0,0.0,100.0,1.0,1.1856,26.0,0.0,0.0,0.0,53.999996,0.0,26.0,26.0,26.0,26.0,-0.04799999999999993,0.26080000000000014,-0.044500000000000005,291.84,-2.6696,-2.697375,-1.57185,-1.5979,-180.88,215.89,190.38075,0.0,0.0,0.0,0.0,0.05669999999999997,-5.498166666666667,-5.498166666666667,-0.5997,0.6725,-0.034499999999999975,0.79,69.395,-0.032,-0.21407500000000002,0.23399999999999999,100.0,1.0,1.0,214.03,0.0,0.0,0.0,0.0,0.0,0.0,0.0,9071.9,0.0,55.0,5.0,249.79666666666668,0.0,0.0,0.0,0.0,0.0,0.0,0.0,0.0,1.407,1.407,0.0,0.0,0.0,55.0,616.79921,10000.0,85.000001,85.000001,85.000001,85.000001,395.0,0.0,0.0,0.0,1.0,166.665,51.788,51.788,47.424,47.424,34.0,-24.9675,23.228,-30.18,27.5925,0.0,1782.072,-0.11499999999999844,100.0,29.015,28.253,43.938,43.475,0.0,0.0,100.0,0.0,0.0,0.0,0.0,3132.0,3095.3,4137.444444444444,4142.5,305.18666666666667,305.01866666666666,314.938,314.68,22.0378,20.6584,22.0885,21.5825,314.999998,314.999998,324.999988,324.999988,99.55901428571428,99.50746666666667,99.57048571428571,99.54995714285714,0.06000000000000005,-0.08199999999999996,-0.13783333333333334,0.08083333333333333,-0.026666666666670835,-0.044285714285713595,1.5404999999999998,1.5434999999999999,38.736000000000004,30.115000000000002,39.053,35.8905,55.879999999999995,35.5215,60.5165,53.566,53.822,34.6265,59.062,51.842,52.975,34.164,58.946,51.225,-0.08749999999999991,-0.07350000000000012,0.09866000000000001,0.10530500000000001,0.0,217.265,217.235,214.03,214.03,0.0,0.0
29,0.0,0.0,0.0,1.0,1.0,0.0,0.0,1.0,0.0,100.0,1.0,1.1856,26.0,0.0,0.0,0.0,53.999996,0.0,26.0,26.0,26.0,26.0,-0.016666666666666607,0.2673000000000001,0.0132,291.519,-2.6261,-2.745125,-1.5498500000000002,-1.5702,-177.55,215.88,190.356,0.0,0.0,0.0,0.0,0.058633333333333315,-5.498166666666667,-5.498166666666667,-0.6056,-0.6855,-0.026499999999999968,0.8639999999999999,69.522,-0.0245,-0.21725,0.016000000000000014,100.0,1.0,1.0,214.25666666666666,0.0,0.0,0.0,0.0,0.0,0.0,0.0,9081.6,0.0,55.0,5.0,250.25333333333333,1.0,0.0,0.0,0.0,0.0,0.0,0.0,0.0,1.4549999999999983,1.4549999999999983,0.0,0.0,1.0,55.0,616.79921,10000.0,85.000001,85.000001,85.000001,85.000001,395.0,0.0,0.0,0.0,1.0,111.11,51.819,51.819,46.524,46.524,34.0,-24.39,25.072000000000003,-30.74666666666667,29.5825,0.0,1782.024,-0.1999999999999993,100.0,28.645,28.151,44.327,43.788,0.0,0.0,100.0,0.0,0.0,0.0,0.0,3161.75,3176.6,4209.222222222223,4273.4,305.21,304.678,314.555,314.32475,22.0465,20.6636,22.0986,21.5913,314.999998,314.999998,324.999988,324.999988,99.55902857142857,99.50748333333334,99.57062857142857,99.5501,0.06700000000000017,-0.06866666666666665,-0.13083333333333336,0.09966666666666667,-0.021666666666668277,-0.04571428571428271,1.4775,1.484,38.791,30.147666666666666,39.116,35.945499999999996,55.864999999999995,35.5585,60.553,53.6225,53.809,34.661,59.0965,51.8965,52.961,34.196333333333335,58.977000000000004,51.278,-0.09399999999999986,-0.06349999999999989,0.11021500000000001,0.11044500000000002,0.0,217.61,217.59,214.25666666666666,214.25666666666666,0.0,0.0
30,0.0,0.0,0.0,1.0,1.0,0.0,0.0,1.0,0.0,100.0,1.0,1.1856,26.0,0.0,0.0,0.0,53.999996,0.0,26.0,26.0,26.0,26.0,-0.01388888888888884,0.26180000000000003,0.06910000000000001,291.061,-2.6873,-2.629375,-1.52685,-1.6276000000000002,-174.20999999999998,215.87,190.331,0.0,0.0,0.0,0.0,0.06059999999999999,-5.498166666666667,-5.498166666666667,-0.6038,0.788,-0.02574999999999994,0.6600000000000001,69.643,-0.0159,-0.21735000000000002,-0.036000000000000476,100.0,1.0,1.0,214.69333333333333,0.0,0.0,0.0,0.0,0.0,0.0,0.0,9100.0,0.0,55.0,5.0,250.69,0.0,0.0,0.0,0.0,0.0,0.0,1.0,0.0,1.5030000000000001,1.5030000000000001,0.0,0.0,0.0,55.0,616.79921,10000.0,85.000001,85.000001,85.000001,85.000001,395.0,0.0,0.0,0.0,1.0,166.665,50.766,50.766,46.906,46.906,34.0,-25.732499999999998,24.683999999999997,-29.913333333333334,30.142500000000002,0.0,1781.975,-0.23000000000000043,100.0,29.455,28.903,44.107,43.828,0.0,0.0,100.0,0.0,0.0,0.0,0.0,3344.125,3205.9,4209.888888888889,4260.8,304.6363333333333,304.62266666666665,314.6525,314.31825,22.0555,20.6692,22.1084,21.6,314.999998,314.999998,324.999988,324.999988,99.55904285714286,99.50748333333334,99.57077142857143,99.55024285714286,0.08766666666666634,-0.05833333333333335,-0.12416666666666668,0.0965,-0.045000000000001705,-0.06428571428571672,1.4845000000000002,1.494,38.847,30.182333333333332,39.178,36.0,55.855999999999995,35.5985,60.5845,53.677,53.8,34.698,59.126,51.9495,52.95,34.232,59.0035,51.329499999999996,-0.10699999999999998,-0.059499999999999886,0.10501500000000001,0.10407500000000001,0.0,218.015,218.025,214.69333333333333,214.69333333333333,0.0,0.0
31,0.0,0.0,0.0,1.0,1.0,0.0,0.0,1.0,0.0,100.0,1.0,1.1856,26.0,0.0,0.0,0.0,53.999996,0.0,26.0,26.0,26.0,26.0,-0.0067777777777777715,0.25370000000000004,-0.0005,290.909,-2.755,-2.609375,-1.57455,-1.6219000000000001,-170.44,215.85500000000002,190.303625,0.0,0.0,0.0,0.0,0.06276666666666653,-5.498166666666667,-5.498166666666667,-0.5920000000000001,-0.6825000000000001,-0.01662499999999989,0.5270000000000001,69.783,-0.0055000000000000005,-0.222775,-0.15399999999999991,100.0,1.0,1.0,215.03333333333333,0.0,0.0,0.0,0.0,0.0,0.0,0.0,9114.5,0.0,55.0,5.0,251.19333333333333,1.0,0.0,0.0,0.0,0.0,0.0,1.0,0.0,1.5569999999999986,1.5569999999999986,0.0,0.0,1.0,55.0,616.79921,10000.0,85.000001,85.000001,85.000001,85.000001,395.0,0.0,0.0,0.0,1.0,166.665,51.193,51.193,45.624,45.624,34.0,-24.3975,25.402,-30.32333333333333,31.59,0.0,1781.922,-0.26500000000000057,100.0,29.16,28.921,44.814,44.534,0.0,0.0,100.0,0.0,0.0,0.0,0.0,3148.0,3322.4,4275.111111111111,4292.7,305.3906666666667,304.4596666666667,314.402,314.3385,22.0654,20.6753,22.119799999999998,21.6101,314.999998,314.999998,324.999988,324.999988,99.55904285714286,99.5075,99.57092857142857,99.5504,0.08833333333333337,-0.05566666666666664,-0.10316666666666667,0.11850000000000001,-0.03833333333332689,-0.03285714285714647,1.4505,1.449,38.909,30.220333333333336,39.248999999999995,36.063,55.842,35.6415,60.626,53.742,53.787,34.7375,59.164500000000004,52.012,52.936,34.269999999999996,59.0385,51.3905,-0.10149999999999992,-0.06850000000000023,0.10325000000000001,0.10756,0.0,218.43,218.39499999999998,215.03333333333333,215.03333333333333,0.0,0.0
32,0.0,0.0,0.0,1.0,1.0,0.0,0.0,1.0,0.0,100.0,1.0,1.1856,26.0,0.0,0.0,0.0,53.999996,0.0,26.0,26.0,26.0,26.0,0.005333333333333412,0.25970000000000004,-0.010700000000000001,291.122,-2.6573,-2.714375,-1.6351,-1.534,-166.88,215.845,190.278,0.0,0.0,0.0,0.0,0.0648333333333333,-5.498166666666667,-5.498166666666667,-0.6068,0.11249999999999993,-0.04587500000000011,-0.8689999999999998,69.91,0.0011,-0.22687500000000002,-0.11399999999999988,100.0,1.0,1.0,215.50666666666666,0.0,0.0,0.0,0.0,0.0,0.0,0.0,9134.6,0.0,55.0,5.0,251.65,0.0,0.0,0.0,0.0,0.0,0.0,1.0,0.0,1.6080000000000005,1.6080000000000005,0.0,0.0,0.0,55.0,616.79921,10000.0,85.000001,85.000001,85.000001,85.000001,395.0,0.0,0.0,0.0,1.0,166.665,51.285,51.285,46.402,46.402,34.0,-24.31,24.451999999999998,-31.21,29.7825,0.0,1781.871,-0.28500000000000014,100.0,29.021,29.048000000000002,44.369,44.367000000000004,0.0,0.0,100.0,0.0,0.0,0.0,0.0,3283.5,3069.1,4320.222222222223,4259.5,304.97266666666667,304.9413333333333,314.52725,314.435,22.0748,20.6811,22.1303,21.6193,314.999998,314.999998,324.999988,324.999988,99.55905714285714,99.5075,99.57107142857143,99.55054285714286,0.09633333333333338,-0.05566666666666664,-0.10766666666666667,0.11883333333333333,-0.04833333333333201,-0.04999999999999716,1.5150000000000001,1.508,38.967,30.256666666666668,39.314,36.1205,55.831,35.6825,60.66,53.7995,53.775999999999996,34.7755,59.196,52.067499999999995,52.924,34.306,59.067,51.4445,-0.10850000000000004,-0.06599999999999984,0.10603000000000001,0.11203500000000001,0.0,218.835,218.82999999999998,215.50666666666666,215.50666666666666,0.0,0.0
33,0.0,0.0,0.0,1.0,1.0,0.0,0.0,1.0,0.0,100.0,1.0,1.1856,26.0,0.0,0.0,0.0,53.999996,0.0,26.0,26.0,26.0,26.0,0.00011111111111117289,0.2538,-0.04003333333333333,291.382,-2.70165,-2.703125,-1.57085,-1.6066,-163.73000000000002,215.83249999999998,190.2545,0.0,0.0,0.0,0.0,0.06666666666666654,-5.498166666666667,-5.498166666666667,-0.612,-0.381,-0.03212500000000018,1.3360000000000003,70.025,0.0046,-0.21685000000000001,-0.16199999999999992,100.0,1.0,1.0,215.81666666666666,0.0,0.0,0.0,0.0,0.0,0.0,0.0,9147.7,0.0,55.0,5.0,252.06333333333333,1.0,0.0,0.0,0.0,0.0,0.0,1.0,0.0,1.6529999999999987,1.6529999999999987,0.0,0.0,1.0,55.0,616.79921,10000.0,85.000001,85.000001,85.000001,85.000001,395.0,0.0,0.0,0.0,1.0,166.665,51.819,51.819,46.463,46.463,34.0,-22.9375,24.66,-29.366666666666667,31.1475,0.0,1781.825,-0.28500000000000014,100.0,28.929000000000002,28.613,44.382,44.288,0.0,0.0,100.0,0.0,0.0,0.0,0.0,3076.5,3108.2,4205.666666666667,4311.6,305.52933333333334,304.997,314.63025,314.2785,22.083,20.686,22.139499999999998,21.6275,314.999998,314.999998,324.999988,324.999988,99.55907142857143,99.5075,99.57121428571429,99.55067142857143,0.0983333333333336,-0.051999999999999935,-0.1015,0.1135,-0.02833333333332888,-0.05285714285714249,1.4845000000000002,1.4835,39.018,30.287333333333336,39.372,36.172,55.82,35.7155,60.6905,53.8515,53.765,34.806,59.225,52.1175,52.913,34.33533333333334,59.093,51.493,-0.10999999999999988,-0.058499999999999996,0.099515,0.10503000000000001,0.0,219.18,219.175,215.81666666666666,215.81666666666666,0.0,0.0
34,0.0,0.0,0.0,1.0,1.0,0.0,0.0,1.0,0.0,100.0,1.0,1.1856,26.0,0.0,0.0,0.0,53.999996,0.0,26.0,26.0,26.0,26.0,0.0030000000000001137,0.25250000000000017,-0.06016666666666667,291.809,-2.72955,-2.628625,-1.6401,-1.5669,-159.95,215.82,190.225,0.0,0.0,0.0,0.0,0.06886666666666652,-5.498166666666667,-5.498166666666667,-0.6443,-0.7290000000000001,-0.0027500000000002522,0.8929999999999998,70.16,0.0095,-0.225325,-0.1459999999999999,100.0,1.0,1.0,216.28333333333333,0.0,0.0,0.0,0.0,0.0,0.0,0.0,9167.5,0.0,55.0,5.0,252.55333333333334,0.0,0.0,0.0,0.0,0.0,0.0,1.0,0.0,1.7070000000000007,1.7070000000000007,0.0,0.0,0.0,55.0,616.79921,10000.0,85.000001,85.000001,85.000001,85.000001,395.0,0.0,0.0,0.0,1.0,166.665,52.185,52.185,47.256,47.256,34.0,-22.384999999999998,24.1,-28.80333333333333,29.67,0.0,1781.772,-0.2699999999999996,100.0,28.644,28.331,44.043,44.301,0.0,0.0,100.0,0.0,0.0,0.0,0.0,2980.5,3067.4,4058.8888888888887,4187.1,305.66366666666664,305.09766666666667,315.06375,314.54575,22.0927,20.6919,22.1505,21.6374,314.999998,314.999998,324.999988,324.999988,99.55908571428571,99.50751666666666,99.57137142857142,99.55082857142857,0.10166666666666657,-0.04133333333333333,-0.1005,0.11883333333333333,-0.04333333333332945,-0.04999999999999716,1.5105,1.5225,39.079,30.324333333333335,39.441,36.234,55.806,35.754999999999995,60.725,53.914,53.751999999999995,34.8425,59.2565,52.1775,52.899,34.370333333333335,59.1215,51.552,-0.09899999999999998,-0.058499999999999996,0.10935,0.10638500000000001,0.0,219.57999999999998,219.57999999999998,216.28333333333336,216.28333333333333,0.0,0.0
35,0.0,0.0,0.0,1.0,1.0,0.0,0.0,1.0,0.0,100.0,1.0,1.1856,26.0,0.0,0.0,0.0,53.999996,0.0,26.0,26.0,26.0,26.0,0.01388888888888884,0.26049999999999995,-0.0543,291.733,-2.70565,-2.63475,-1.6127,-1.5267,-156.57999999999998,215.81,190.196625,0.0,0.0,0.0,0.0,0.0708333333333333,-5.498166666666667,-5.498166666666667,-0.6846,-0.42999999999999994,-0.018375000000000252,-0.06799999999999962,70.28,0.0135,-0.23087500000000002,-0.21999999999999975,100.0,1.0,1.0,216.72333333333333,0.0,0.0,0.0,0.0,0.0,0.0,0.0,9186.2,0.0,55.0,5.0,252.98333333333335,1.0,0.0,0.0,0.0,0.0,0.0,1.0,0.0,1.754999999999999,1.754999999999999,0.0,0.0,1.0,55.0,616.79921,10000.0,85.000001,85.000001,85.000001,85.000001,395.0,0.0,0.0,0.0,1.0,333.33500000000004,51.528999999999996,51.528999999999996,46.906,46.906,34.0,-23.185,27.34,-27.276666666666667,28.1925,0.0,1781.723,-0.1999999999999993,100.0,28.481,28.596,43.879,43.846000000000004,0.0,0.0,100.0,0.0,0.0,0.0,0.0,3135.875,3386.5,4013.3333333333335,3970.2,305.3503333333333,304.15866666666665,315.09,315.08825,22.1012,20.6973,22.1603,21.646,314.999998,314.999998,324.999988,324.999988,99.5591,99.50751666666666,99.57151428571429,99.55098571428572,0.10533333333333372,-0.03466666666666662,-0.08633333333333333,0.139,-0.04833333333333201,-0.06285714285714761,1.5545,1.5414999999999999,39.132999999999996,30.358333333333334,39.501999999999995,36.2875,55.792,35.7915,60.756,53.9655,53.738,34.8765,59.2855,52.227000000000004,52.884,34.403,59.147,51.6005,-0.09949999999999992,-0.06300000000000017,0.09774000000000001,0.110825,0.0,219.95,219.95499999999998,216.72333333333336,216.72333333333333,0.0,0.0
