,ABS Active,ABS Enabled,AID Allow Tire Blankets,AID Auto Blip,AID Auto Clutch,AID Auto Shift,AID Fuel Rate,AID Ideal Line,AID Mech Damage,AID Stability,AID Tire Wear Rate,Air Density,Air Temp,Ballast,Best Lap Delta,Best Lap Time,Brake Bias,Brake Pos,Brake Temp FL,Brake Temp FR,Brake Temp RL,Brake Temp RR,CG Accel Lateral,CG Accel Longitudinal,CG Accel Vertical,CG Height,Camber FL,Camber FR,Camber RL,Camber RR,Car Coord X,Car Coord Y,Car Coord Z,Car Damage Front,Car Damage Left,Car Damage Rear,Car Damage Right,Car Pos Norm,Caster FL,Caster FR,Chassis Pitch Angle,Chassis Pitch Rate,Chassis Roll Angle,Chassis Roll Rate,Chassis Velocity X,Chassis Velocity Y,Chassis Velocity Z,Chassis Yaw Rate,Clutch Pos,DRS Active,DRS Available,Drive Train Speed,ERS Heat Charging,ERS Is Charging,ERS Max Energy,ERS Power Level,ERS Recovery Level,Engine Brake Setting,Engine Limiter,Engine RPM,Flags,Fuel Level,Gear,Ground Speed,HR Sample Clock,In Pit,KERS Charge,KERS Deployed Energy,KERS Input,KERS Max Energy,LR Sample Clock,Lap Invalidated,Lap Time,Lap Time2,Last Lap Time,Last Sector Time,MR Sample Clock,Max Fuel,Max Power,Max RPM,Max Sus Travel FL,Max Sus Travel FR,Max Sus Travel RL,Max Sus Travel RR,Max Torque,Max Turbo Boost,Num Tires Off Track,Penalties Enabled,Position,Raw Data Sample Rate,Ride Height FL,Ride Height FR,Ride Height RL,Ride Height RR,Road Temp,Self Align Torque FL,Self Align Torque FR,Self Align Torque RL,Self Align Torque RR,Session Lap Count,Session Time Left,Steering Angle,Surface Grip,Suspension Travel FL,Suspension Travel FR,Suspension Travel RL,Suspension Travel RR,TC Active,TC Enabled,Throttle Pos,Tire Dirt Level FL,Tire Dirt Level FR,Tire Dirt Level RL,Tire Dirt Level RR,Tire Load FL,Tire Load FR,Tire Load RL,Tire Load RR,Tire Loaded Radius FL,Tire Loaded Radius FR,Tire Loaded Radius RL,Tire Loaded Radius RR,Tire Pressure FL,Tire Pressure FR,Tire Pressure RL,Tire Pressure RR,Tire Radius FL,Tire Radius FR,Tire Radius RL,Tire Radius RR,Tire Rubber Grip FL,Tire Rubber Grip FR,Tire Rubber Grip RL,Tire Rubber Grip RR,Tire Slip Angle FL,Tire Slip Angle FR,Tire Slip Angle RL,Tire Slip Angle RR,Tire Slip Ratio FL,Tire Slip Ratio FR,Tire Slip Ratio RL,Tire Slip Ratio RR,Tire Temp Core FL,Tire Temp Core FR,Tire Temp Core RL,Tire Temp Core RR,Tire Temp Inner FL,Tire Temp Inner FR,Tire Temp Inner RL,Tire Temp Inner RR,Tire Temp Middle FL,Tire Temp Middle FR,Tire Temp Middle RL,Tire Temp Middle RR,Tire Temp Outer FL,Tire Temp Outer FR,Tire Temp Outer RL,Tire Temp Outer RR,Toe In FL,Toe In FR,Toe In RL,Toe In RR,Turbo Boost,Wheel Angular Speed FL,Wheel Angular Speed FR,Wheel Angular Speed RL,Wheel Angular Speed RR,Wind Direction,Wind Speed
0,0.0,1.0,0.0,1.0,1.0,0.0,0.0,1.0,0.0,0.0,1.0,1.1856,26.0,0.0,0.0,0.0,59.99999,0.0,26.0,26.0,26.0,26.0,-0.06822222222222218,0.29980000000000007,0.066875,294.006,-2.7234,-2.653777777777778,-1.5227,-1.5544,-275.76,216.29250000000002,190.988,0.0,0.0,0.0,0.0,0.0015666666666666051,-5.498166666666667,-5.498166666666667,-0.5497000000000001,1.2366666666666668,-0.0022500000000000853,-0.29800000000000004,65.526,-0.033100000000000004,-0.2142,0.9560000000000013,100.0,1.0,1.0,202.32666666666665,0.0,0.0,0.0,0.0,0.0,0.0,0.0,8575.9,0.0,55.0,5.0,235.86333333333334,0.0,0.0,0.0,0.0,0.0,0.0,0.0,0.0,0.0030000000000001137,0.0030000000000001137,0.0,0.0,0.0,55.0,616.79921,10000.0,85.0,85.0,85.0,85.0,395.0,0.0,0.0,0.0,1.0,20.0,52.795,52.795,49.622,49.622,34.0,-25.965,23.677999999999997,-30.043333333333337,25.48,0.0,1783.681,0.7600000000000016,100.0,27.501,26.947,40.592,40.604,0.0,1.0,100.0,0.0,0.0,0.0,0.0,2983.5714285714284,3386.3,4071.0,4032.7,305.754,304.09075,314.924,314.77325,21.7602,20.5087,21.7435,21.2763,314.99999,314.99999,324.99998,324.99998,99.55801428571428,99.50711666666666,99.56428571428572,99.54391428571428,0.004249999999999865,-0.11533333333333329,-0.16066666666666662,0.07200000000000006,-0.061666666666667425,-0.054999999999999716,1.5493333333333332,1.5905,37.001000000000005,29.179333333333332,36.897,33.9765,55.992000000000004,34.3525,58.7665,51.219,53.939,33.569,57.417500000000004,49.594,53.128,33.1725,57.397,49.022999999999996,-0.020000000000000018,-0.13600000000000012,0.10673,0.11603000000000001,0.0,205.35500000000002,205.26999999999998,202.32666666666665,202.32666666666665,0.0,0.0
1,0.0,1.0,0.0,1.0,1.0,0.0,0.0,1.0,0.0,0.0,1.0,1.1856,26.0,0.0,0.0,0.0,59.999996,0.0,26.0,26.0,26.0,26.0,-0.11011111111111105,0.3042,0.218525,292.969,-2.6518,-2.764555555555556,-1.5243,-1.5502,-272.41,216.29000000000002,190.96775,0.0,0.0,0.0,0.0,0.0034999999999999476,-5.498166666666667,-5.498166666666667,-0.49400000000000005,-0.4566666666666667,-0.055625000000000036,-0.8130000000000002,65.681,-0.052000000000000005,-0.1865,1.4380000000000006,100.0,1.0,1.0,202.46,0.0,0.0,0.0,0.0,0.0,0.0,0.0,8581.6,0.0,55.0,5.0,236.42000000000002,1.0,0.0,0.0,0.0,0.0,0.0,0.0,0.0,0.053999999999998494,0.053999999999998494,0.0,0.0,1.0,55.0,616.79921,10000.0,85.000001,85.000001,85.000001,85.000001,395.0,0.0,0.0,0.0,1.0,333.33500000000004,53.497,53.497,48.096000000000004,48.096000000000004,34.0,-27.552500000000002,17.896,-35.45,29.0775,0.0,1783.63,0.875,100.0,27.557,27.08,42.57,41.676,0.0,1.0,100.0,0.0,0.0,0.0,0.0,3138.4285714285716,2665.1,4452.375,4693.3,305.3185,306.34225,313.95925,313.14875,21.77,20.5138,21.7543,21.2853,314.999998,314.999998,324.999988,324.999988,99.55802857142857,99.50713333333333,99.56442857142856,99.54405714285714,-0.012499999999999956,-0.1393333333333333,-0.1805,0.03849999999999998,-0.03333333333333144,-0.051666666666669414,1.391,1.455,37.063,29.211333333333336,36.964,34.033,55.976,34.394,58.8125,51.2855,53.924,33.6075,57.460499999999996,49.6575,53.112,33.209,57.437,49.08533333333334,-0.0035000000000000586,-0.14150000000000018,0.101525,0.10898500000000001,0.0,205.805,205.69,202.46,202.46,0.0,0.0
2,0.0,1.0,0.0,1.0,1.0,0.0,0.0,1.0,0.0,0.0,1.0,1.1856,26.0,0.0,0.0,0.0,59.999996,0.0,26.0,26.0,26.0,26.0,-0.1524444444444445,0.2762,-0.0693,293.671,-2.5979,-2.7983333333333333,-1.4859,-1.6139000000000001,-269.06,216.2825,190.949,0.0,0.0,0.0,0.0,0.005433333333333401,-5.498166666666667,-5.498166666666667,-0.5514,-0.10633333333333334,-0.05025000000000013,2.445,65.82300000000001,-0.0722,-0.259375,1.5700000000000003,100.0,1.0,1.0,203.39,0.0,0.0,0.0,0.0,0.0,0.0,0.0,8620.9,0.0,55.0,5.0,236.93333333333334,0.0,0.0,0.0,0.0,0.0,0.0,0.0,0.0,0.10500000000000043,0.10500000000000043,0.0,0.0,0.0,55.0,616.79921,10000.0,85.000001,85.000001,85.000001,85.000001,395.0,0.0,0.0,0.0,1.0,333.33500000000004,52.353,52.353,50.186,50.186,34.0,-29.9825,20.272,-29.199999999999996,20.355,0.0,1783.579,0.7950000000000017,100.0,28.402,26.908,42.604,41.416,0.0,1.0,100.0,0.0,0.0,0.0,0.0,3342.4285714285716,2982.5,3752.625,3636.5,304.4855,305.4185,315.60525,315.87925,21.7802,20.5188,21.7647,21.294,314.999998,314.999998,324.999988,324.999988,99.55802857142857,99.50713333333333,99.56457142857143,99.54418571428572,-0.02400000000000002,-0.1483333333333332,-0.22016666666666662,0.019166666666666554,-0.03999999999999915,-0.06666666666666998,1.634,1.6945000000000001,37.126000000000005,29.242333333333335,37.03,34.0875,55.964,34.4335,58.852000000000004,51.3445,53.913,33.6435,57.4975,49.7145,53.1,33.2435,57.4715,49.141,-0.01550000000000007,-0.13549999999999995,0.11269000000000001,0.111155,0.0,206.245,206.125,203.39,203.39,0.0,0.0
3,0.0,1.0,0.0,1.0,1.0,0.0,0.0,1.0,0.0,0.0,1.0,1.1856,26.0,0.0,0.0,0.0,59.999996,0.0,26.0,26.0,26.0,26.0,-0.1386666666666666,0.3087,0.064675,293.503,-2.7274000000000003,-2.693666666666667,-1.5083,-1.592,-265.9,216.2725,190.9305,0.0,0.0,0.0,0.0,0.0072666666666665325,-5.498166666666667,-5.498166666666667,-0.5104000000000001,0.5203333333333334,-0.01012499999999994,0.33699999999999974,65.96600000000001,-0.0867,-0.199875,1.2220000000000013,100.0,1.0,1.0,203.54333333333335,0.0,0.0,0.0,0.0,0.0,0.0,0.0,8627.4,0.0,55.0,5.0,237.44666666666666,1.0,0.0,0.0,0.0,0.0,0.0,0.0,0.0,0.1529999999999987,0.1529999999999987,0.0,0.0,1.0,55.0,616.79921,10000.0,85.000001,85.000001,85.000001,85.000001,395.0,0.0,0.0,0.0,1.0,166.665,53.543,53.543,48.248,48.248,34.0,-25.85,18.567999999999998,-34.836666666666666,24.9675,0.0,1783.533,0.625,100.0,27.965,26.938,42.362,41.317,0.0,1.0,100.0,0.0,0.0,0.0,0.0,2859.5714285714284,2884.7,4294.625,4223.6,306.0335,305.65375,314.3045,314.39525,21.7894,20.523699999999998,21.7745,21.3023,314.999998,314.999998,324.999988,324.999988,99.55802857142857,99.50715,99.5647,99.54432857142857,-0.02200000000000002,-0.15166666666666662,-0.20950000000000002,0.022666666666666613,-0.061666666666667425,-0.05833333333333002,1.4913333333333334,1.53,37.184,29.273,37.09,34.138999999999996,55.95,34.474000000000004,58.8895,51.403999999999996,53.899,33.681,57.5325,49.7715,53.085,33.278999999999996,57.5035,49.197,-0.02949999999999986,-0.12049999999999983,0.10509,0.114445,0.0,206.715,206.60000000000002,203.54333333333335,203.54333333333335,0.0,0.0
4,0.0,1.0,0.0,1.0,1.0,0.0,0.0,1.0,0.0,0.0,1.0,1.1856,26.0,0.0,0.0,0.0,59.999996,0.0,26.0,26.0,26.0,26.0,-0.13211111111111107,0.2904,-0.0201,293.625,-2.6662,-2.737,-1.5317,-1.5944,-262.53,216.2575,190.91075,0.0,0.0,0.0,0.0,0.009233333333333316,-5.498166666666667,-5.498166666666667,-0.542,-0.8256666666666667,-0.07462500000000016,-1.814,66.113,-0.08660000000000001,-0.23420000000000002,1.1660000000000004,100.0,1.0,1.0,204.09333333333333,0.0,0.0,0.0,0.0,0.0,0.0,0.0,8650.8,0.0,55.0,5.0,237.9766666666667,0.0,0.0,0.0,0.0,0.0,0.0,0.0,0.0,0.20400000000000063,0.20400000000000063,0.0,0.0,0.0,55.0,616.79921,10000.0,85.000001,85.000001,85.000001,85.000001,395.0,0.0,0.0,0.0,1.0,166.665,53.116,53.116,48.66,48.66,34.0,-29.2625,19.162,-33.19,21.3175,0.0,1783.482,0.6400000000000006,100.0,27.644,26.881,42.787,41.549,0.0,1.0,100.0,0.0,0.0,0.0,0.0,3236.142857142857,2883.1,4120.625,3695.7,305.14,305.508,314.75275,315.59125,21.799,20.5287,21.7851,21.3111,314.999998,314.999998,324.999988,324.999988,99.55802857142857,99.50718333333333,99.56485714285714,99.54445714285714,-0.028999999999999915,-0.14900000000000002,-0.21083333333333332,0.026833333333333265,-0.060000000000002274,-0.023333333333326323,1.552,1.6099999999999999,37.244,29.304666666666666,37.157,34.1945,55.933,34.5155,58.933,51.465,53.882,33.719,57.573,49.829499999999996,53.068,33.3155,57.5415,49.254,-0.02499999999999991,-0.1200000000000001,0.10215500000000001,0.11786500000000001,0.0,207.10500000000002,206.98000000000002,204.09333333333333,204.09333333333333,0.0,0.0
5,0.0,1.0,0.0,1.0,1.0,0.0,0.0,1.0,0.0,0.0,1.0,1.1856,26.0,0.0,0.0,0.0,59.999996,0.0,26.0,26.0,26.0,26.0,-0.1366666666666666,0.2882,-0.013925,293.64,-2.6658,-2.770888888888889,-1.5077,-1.5889,-259.15,216.24,190.890375,0.0,0.0,0.0,0.0,0.011199999999999988,-5.498166666666667,-5.498166666666667,-0.5368,0.4696666666666667,-0.08274999999999988,1.059,66.259,-0.0906,-0.215425,1.0660000000000007,100.0,1.0,1.0,204.51,0.0,0.0,0.0,0.0,0.0,0.0,0.0,8668.4,0.0,55.0,5.0,238.50333333333333,1.0,0.0,0.0,0.0,0.0,0.0,0.0,0.0,0.254999999999999,0.254999999999999,0.0,0.0,1.0,55.0,616.79921,10000.0,85.000001,85.000001,85.000001,85.000001,395.0,0.0,0.0,0.0,1.0,166.665,53.406,53.406,49.010999999999996,49.010999999999996,34.0,-27.3275,19.906,-33.42666666666666,22.7575,0.0,1783.431,0.3049999999999997,100.0,27.962,26.633,42.639,41.111000000000004,0.0,1.0,100.0,0.0,0.0,0.0,0.0,3100.285714285714,2853.3,4133.5,4075.0,305.313,305.8185,314.7585,314.774,21.809,20.5338,21.7955,21.3198,314.999998,314.999998,324.999988,324.999988,99.55804285714285,99.50718333333333,99.565,99.5446,-0.008499999999999952,-0.1259999999999999,-0.21783333333333332,0.004166666666666652,-0.051666666666669414,-0.06333333333333258,1.5230000000000001,1.576,37.306,29.336333333333336,37.222,34.2485,55.92,34.557,58.974000000000004,51.5235,53.870000000000005,33.757,57.611,49.8855,53.055,33.3515,57.576499999999996,49.309,-0.052999999999999936,-0.08999999999999986,0.10791,0.107865,0.0,207.615,207.525,204.51,204.51,0.0,0.0
6,0.0,1.0,0.0,1.0,1.0,0.0,0.0,1.0,0.0,0.0,1.0,1.1856,26.0,0.0,0.0,0.0,59.999996,0.0,26.0,26.0,26.0,26.0,-0.10677777777777786,0.28859999999999997,-0.01025,293.427,-2.6395,-2.740333333333333,-1.5535,-1.5817999999999999,-255.77,216.2175,190.869875,0.0,0.0,0.0,0.0,0.013166666666666549,-5.498166666666667,-5.498166666666667,-0.5304,0.08933333333333333,-0.06475000000000009,-0.42399999999999993,66.406,-0.08560000000000001,-0.215,0.8040000000000003,100.0,1.0,1.0,204.94,0.0,0.0,0.0,0.0,0.0,0.0,0.0,8686.6,0.0,55.0,5.0,239.03333333333333,0.0,0.0,0.0,0.0,0.0,0.0,0.0,0.0,0.30600000000000094,0.30600000000000094,0.0,0.0,0.0,55.0,616.79921,10000.0,85.000001,85.000001,85.000001,85.000001,395.0,0.0,0.0,0.0,1.0,166.665,53.131,53.131,48.706,48.706,34.0,-27.740000000000002,20.054000000000002,-33.21666666666667,22.575000000000003,0.0,1783.38,-0.02499999999999858,100.0,27.682,26.871,42.7,41.574,0.0,1.0,100.0,0.0,0.0,0.0,0.0,3206.0,2900.9,4128.375,3995.1000000000004,305.1375,305.4585,314.811,314.88725,21.8188,20.539,21.806,21.3287,314.999998,314.999998,324.999988,324.999988,99.55804285714285,99.50721666666666,99.56514285714286,99.54474285714285,-0.0029999999999998916,-0.131,-0.20599999999999996,0.011166666666666547,-0.03833333333332689,-0.030000000000001137,1.5503333333333333,1.572,37.367999999999995,29.368666666666666,37.288,34.3045,55.905,34.5975,59.0155,51.586,53.855999999999995,33.794,57.65,49.945499999999996,53.04,33.387,57.6125,49.367333333333335,-0.07099999999999995,-0.08050000000000024,0.10468000000000001,0.10454500000000001,0.0,208.01999999999998,207.945,204.94,204.94,0.0,0.0
7,0.0,1.0,0.0,1.0,1.0,0.0,0.0,1.0,0.0,0.0,1.0,1.1856,26.0,0.0,0.0,0.0,59.999996,0.0,26.0,26.0,26.0,26.0,-0.0842222222222222,0.29310000000000014,0.018175,293.167,-2.6131,-2.7324444444444445,-1.5131000000000001,-1.5714000000000001,-252.57999999999998,216.1975,190.850625,0.0,0.0,0.0,0.0,0.015033333333333343,-5.498166666666667,-5.498166666666667,-0.5341,-0.06166666666666667,-0.05412499999999998,-0.27700000000000014,66.544,-0.068,-0.22232500000000002,0.4079999999999995,100.0,1.0,1.0,205.32666666666665,0.0,0.0,0.0,0.0,0.0,0.0,0.0,8703.0,0.0,55.0,5.0,239.53,1.0,0.0,0.0,0.0,0.0,0.0,0.0,0.0,0.3539999999999992,0.3539999999999992,0.0,0.0,1.0,55.0,616.79921,10000.0,85.000001,85.000001,85.000001,85.000001,395.0,0.0,0.0,0.0,1.0,166.665,52.78,52.78,48.798,48.798,34.0,-27.16,21.71,-31.923333333333332,23.9925,0.0,1783.332,-0.1999999999999993,100.0,27.766,26.92,42.762,41.835,0.0,1.0,100.0,0.0,0.0,0.0,0.0,3325.714285714286,2955.4,4106.0,4059.0,304.733,305.2975,314.8195,314.71175,21.8281,20.5438,21.8159,21.3371,314.999998,314.999998,324.999988,324.999988,99.55804285714285,99.50721666666666,99.56527142857144,99.54487142857143,0.03275000000000006,-0.09933333333333327,-0.1918333333333333,0.03166666666666673,-0.041666666666671404,-0.04833333333333201,1.5346666666666666,1.561,37.426,29.398666666666664,37.349999999999994,34.357,55.891,34.6345,59.054,51.644999999999996,53.843,33.8285,57.686,50.001999999999995,53.025999999999996,33.42,57.6455,49.422666666666665,-0.09999999999999987,-0.06050000000000022,0.10880500000000001,0.10300000000000001,0.0,208.425,208.375,205.32666666666665,205.32666666666665,0.0,0.0
8,0.0,1.0,0.0,1.0,1.0,0.0,0.0,1.0,0.0,0.0,1.0,1.1856,26.0,0.0,0.0,0.0,59.999996,0.0,26.0,26.0,26.0,26.0,-0.04699999999999993,0.3022,0.037725,293.411,-2.6794000000000002,-2.720222222222222,-1.4967000000000001,-1.5546,-249.18,216.17000000000002,190.83,0.0,0.0,0.0,0.0,0.016999999999999904,-5.498166666666667,-5.498166666666667,-0.5341,-0.5116666666666667,-0.03437499999999982,0.827,66.689,-0.0458,-0.212875,-0.07399999999999984,100.0,1.0,1.0,205.71666666666667,0.0,0.0,0.0,0.0,0.0,0.0,0.0,8719.6,0.0,55.0,5.0,240.05333333333334,0.0,0.0,0.0,0.0,0.0,0.0,0.0,0.0,0.40500000000000114,0.40500000000000114,0.0,0.0,0.0,55.0,616.79921,10000.0,85.000001,85.000001,85.000001,85.000001,395.0,0.0,0.0,0.0,1.0,166.665,53.68,53.68,48.019,48.019,34.0,-23.105,22.418,-30.406666666666666,26.875,0.0,1783.281,-0.3000000000000007,100.0,27.524,26.73,42.817,41.833,0.0,1.0,100.0,0.0,0.0,0.0,0.0,2910.5714285714284,2994.5,4164.75,4195.1,305.945,305.36525,314.568,314.41475,21.837699999999998,20.549,21.8264,21.346,314.999998,314.999998,324.999988,324.999988,99.55805714285714,99.50723333333333,99.56541428571428,99.54501428571429,0.051750000000000185,-0.08233333333333315,-0.15066666666666662,0.06866666666666688,-0.04333333333332945,-0.061666666666667425,1.5166666666666666,1.512,37.486000000000004,29.430999999999997,37.415,34.4125,55.876000000000005,34.6735,59.0945,51.707,53.828,33.864,57.7235,50.0615,53.010999999999996,33.454,57.6805,49.480666666666664,-0.09999999999999987,-0.05449999999999999,0.10258,0.10584,0.0,208.875,208.86,205.71666666666667,205.71666666666667,0.0,0.0
9,0.0,1.0,0.0,1.0,1.0,0.0,0.0,1.0,0.0,0.0,1.0,1.1856,26.0,0.0,0.0,0.0,59.999996,0.0,26.0,26.0,26.0,26.0,-0.03211111111111109,0.2957000000000001,0.028175000000000002,293.152,-2.6828000000000003,-2.724555555555556,-1.554,-1.5561,-245.98,216.14499999999998,190.810125,0.0,0.0,0.0,0.0,0.018866666666666587,-5.498166666666667,-5.498166666666667,-0.5435,0.5553333333333333,-0.03400000000000025,0.7629999999999999,66.82300000000001,-0.0285,-0.21782500000000002,-0.13399999999999945,100.0,1.0,1.0,206.26666666666665,0.0,0.0,0.0,0.0,0.0,0.0,0.0,8742.8,0.0,55.0,5.0,240.53333333333333,1.0,0.0,0.0,0.0,0.0,0.0,0.0,0.0,0.4529999999999994,0.4529999999999994,0.0,0.0,1.0,55.0,616.79921,10000.0,85.000001,85.000001,85.000001,85.000001,395.0,0.0,0.0,0.0,1.0,333.33500000000004,52.399,52.399,49.132999999999996,49.132999999999996,34.0,-25.585,24.778,-27.699999999999996,26.71,0.0,1783.231,-0.4450000000000003,100.0,27.943,27.18,42.485,41.867000000000004,0.0,1.0,100.0,0.0,0.0,0.0,0.0,3285.4285714285716,3108.5,3947.5,4057.7,304.791,304.94475,315.228,314.8155,21.846899999999998,20.554,21.836199999999998,21.3543,314.999998,314.999998,324.999988,324.999988,99.55805714285714,99.50723333333333,99.56555714285714,99.54515714285715,0.0757500000000002,-0.05266666666666664,-0.1283333333333333,0.09400000000000008,-0.045000000000001705,-0.07666666666666799,1.5846666666666667,1.5935,37.543,29.462666666666664,37.476,34.4645,55.864000000000004,34.711,59.1295,51.763999999999996,53.817,33.8985,57.7565,50.116,52.998000000000005,33.487,57.710499999999996,49.534333333333336,-0.11549999999999994,-0.04349999999999987,0.101415,0.10976000000000001,0.0,209.29000000000002,209.29000000000002,206.26666666666665,206.26666666666665,0.0,0.0
10,0.0,1.0,0.0,1.0,1.0,0.0,0.0,1.0,0.0,0.0,1.0,1.1856,26.0,0.0,0.0,0.0,59.999996,0.0,26.0,26.0,26.0,26.0,-0.0006666666666665932,0.3003,0.004125,292.923,-2.6602,-2.7015555555555557,-1.5915,-1.5377,-242.56,216.1175,190.789375,0.0,0.0,0.0,0.0,0.02083333333333337,-5.498166666666667,-5.498166666666667,-0.5166000000000001,-0.291,0.003374999999999906,0.28200000000000003,66.97,-0.0083,-0.204825,-0.45999999999999996,100.0,1.0,1.0,206.49,0.0,0.0,0.0,0.0,0.0,0.0,0.0,8752.3,0.0,55.0,5.0,241.06333333333333,0.0,0.0,0.0,0.0,0.0,0.0,1.0,0.0,0.5040000000000013,0.5040000000000013,0.0,0.0,0.0,55.0,616.79921,10000.0,85.000001,85.000001,85.000001,85.000001,395.0,0.0,0.0,0.0,1.0,333.33500000000004,53.421,53.421,47.546,47.546,34.0,-21.5575,22.766,-31.913333333333334,29.302500000000002,0.0,1783.18,-0.6050000000000004,100.0,27.746,27.371,42.778,42.69,0.0,1.0,100.0,0.0,0.0,0.0,0.0,2909.0,2854.3,4380.25,4284.0,306.02,305.59175,314.19975,314.1245,21.8566,20.5593,21.8468,21.3635,314.999998,314.999998,324.999988,324.999988,99.55807142857142,99.50723333333333,99.5657,99.5453,0.08424999999999994,-0.043333333333333224,-0.11966666666666659,0.09983333333333322,-0.03999999999999915,-0.021666666666668277,1.4929999999999999,1.468,37.604,29.495666666666665,37.543,34.5215,55.852000000000004,34.748,59.172,51.829,53.805,33.933,57.795500000000004,50.1785,52.986000000000004,33.5195,57.7465,49.595666666666666,-0.12199999999999989,-0.02200000000000024,0.10494500000000001,0.10193500000000001,0.0,209.715,209.73000000000002,206.49,206.49,0.0,0.0
11,0.0,1.0,0.0,1.0,1.0,0.0,0.0,1.0,0.0,0.0,1.0,1.1856,26.0,0.0,0.0,0.0,59.999996,0.0,26.0,26.0,26.0,26.0,0.024555555555555664,0.2715000000000001,-0.067425,293.503,-2.705,-2.686777777777778,-1.5529000000000002,-1.5253,-239.15,216.09,190.76875,0.0,0.0,0.0,0.0,0.022599999999999953,-5.498166666666667,-5.498166666666667,-0.5609000000000001,-0.3206666666666667,0.03349999999999986,0.43599999999999994,67.108,0.0128,-0.238575,-0.6420000000000003,100.0,1.0,1.0,207.23000000000002,0.0,0.0,0.0,0.0,0.0,0.0,0.0,8783.7,0.0,55.0,5.0,241.56333333333333,1.0,0.0,0.0,0.0,0.0,0.0,1.0,0.0,0.5549999999999997,0.5549999999999997,0.0,0.0,1.0,55.0,616.79921,10000.0,85.000001,85.000001,85.000001,85.000001,395.0,0.0,0.0,0.0,1.0,333.33500000000004,52.826,52.826,49.24,49.24,34.0,-21.825,26.432,-23.443333333333335,27.1625,0.0,1783.129,-0.5749999999999993,100.0,27.589,27.403,42.426,42.587,0.0,1.0,100.0,0.0,0.0,0.0,0.0,3000.857142857143,3190.4,3658.5,3886.4,305.661,304.69875,315.912,315.19425,21.8661,20.5647,21.8572,21.3724,314.999998,314.999998,324.999988,324.999988,99.55808571428571,99.50725,99.56582857142857,99.54544285714286,0.10899999999999999,-0.023333333333333206,-0.09150000000000003,0.14016666666666677,-0.04333333333332945,-0.06333333333333258,1.6406666666666667,1.6059999999999999,37.663,29.529333333333334,37.607,34.5775,55.838,34.786,59.207499999999996,51.8905,53.792,33.968,57.8285,50.2375,52.972,33.553,57.7765,49.653666666666666,-0.125,-0.03299999999999992,0.10724500000000001,0.10642000000000001,0.0,210.125,210.16500000000002,207.23000000000002,207.23000000000002,0.0,0.0
12,0.0,1.0,0.0,1.0,1.0,0.0,0.0,1.0,0.0,0.0,1.0,1.1856,26.0,0.0,0.0,0.0,59.999996,0.0,26.0,26.0,26.0,26.0,0.04699999999999993,0.29400000000000004,0.0066,292.969,-2.7611,-2.680888888888889,-1.5517,-1.5236,-235.92000000000002,216.065,190.748,0.0,0.0,0.0,0.0,0.025466666666666526,-5.498166666666667,-5.498166666666667,-0.5464,0.3143333333333333,0.020499999999999963,0.6280000000000001,67.245,0.0291,-0.20665,-0.7299999999999995,100.0,1.0,1.0,207.43666666666667,0.0,0.0,0.0,0.0,0.0,0.0,0.0,8792.5,0.0,55.0,5.0,242.05333333333334,0.0,0.0,0.0,0.0,0.0,0.0,1.0,0.0,0.602999999999998,0.602999999999998,0.0,0.0,0.0,55.0,616.79921,10000.0,85.000001,85.000001,85.000001,85.000001,395.0,0.0,0.0,0.0,1.0,166.665,52.841,52.841,47.958,47.958,34.0,-22.28,26.65,-26.299999999999997,31.21,0.0,1783.082,-0.3949999999999996,100.0,27.478,27.559,42.328,42.465,0.0,1.0,100.0,0.0,0.0,0.0,0.0,3013.142857142857,3194.3,4158.375,4223.4,305.636,304.7195,314.68625,314.41125,21.875,20.5698,21.867,21.3808,314.999998,314.999998,324.999988,324.999988,99.55808571428571,99.50725,99.56597142857143,99.54557142857144,0.11249999999999982,-0.016999999999999904,-0.06216666666666659,0.15566666666666684,-0.041666666666671404,-0.041666666666671404,1.534,1.5085,37.718,29.561666666666667,37.669,34.629999999999995,55.827,34.822,59.2435,51.948499999999996,53.781,34.001,57.862,50.2935,52.96,33.585,57.8075,49.708666666666666,-0.10899999999999999,-0.03949999999999987,0.10713,0.108365,0.0,210.565,210.615,207.43666666666667,207.43666666666667,0.0,0.0
13,0.0,1.0,0.0,1.0,1.0,0.0,0.0,1.0,0.0,0.0,1.0,1.1856,26.0,0.0,0.0,0.0,59.999996,0.0,26.0,26.0,26.0,26.0,0.0795555555555556,0.2873000000000001,0.032350000000000004,292.572,-2.7383,-2.672777777777778,-1.6226,-1.5082,-232.49,216.04000000000002,190.72625,0.0,0.0,0.0,0.0,0.026699999999999946,-5.498166666666667,-5.498166666666667,-0.5382,-0.051666666666666666,0.019625000000000004,-0.5220000000000002,67.387,0.0361,-0.21305000000000002,-0.7460000000000004,100.0,1.0,1.0,207.81333333333333,0.0,0.0,0.0,0.0,0.0,0.0,0.0,8808.4,0.0,55.0,5.0,242.56666666666666,1.0,0.0,0.0,0.0,0.0,0.0,1.0,0.0,0.6539999999999999,0.6539999999999999,0.0,0.0,1.0,55.0,616.79921,10000.0,85.000001,85.000001,85.000001,85.000001,395.0,0.0,0.0,0.0,1.0,333.33500000000004,52.504999999999995,52.504999999999995,47.867,47.867,34.0,-21.835,26.858,-28.726666666666667,31.8725,0.0,1783.031,-0.8550000000000004,100.0,27.624,27.896,42.44,43.055,0.0,1.0,100.0,0.0,0.0,0.0,0.0,3158.4285714285716,3079.7,4237.75,4282.6,305.3535,304.879,314.5715,314.1595,21.8845,20.5753,21.8775,21.3899,314.999998,314.999998,324.999988,324.999988,99.5581,99.50725,99.56611428571429,99.54571428571428,0.1419999999999999,0.011333333333333417,-0.07650000000000001,0.15733333333333333,-0.045000000000001705,-0.05833333333333002,1.5056666666666667,1.482,37.778,29.596,37.735,34.687,55.817,34.8605,59.283500000000004,52.0135,53.772,34.036500000000004,57.899,50.356,52.949,33.619,57.841,49.769999999999996,-0.14549999999999996,-0.008500000000000174,0.11116000000000001,0.106245,0.0,210.99,211.055,207.81333333333333,207.81333333333333,0.0,0.0
14,0.0,1.0,0.0,1.0,1.0,0.0,0.0,1.0,0.0,0.0,1.0,1.1856,26.0,0.0,0.0,0.0,59.999996,0.0,26.0,26.0,26.0,26.0,0.09833333333333338,0.27680000000000016,-0.00995,292.786,-2.7414,-2.612111111111111,-1.5997,-1.5108000000000001,-228.84,216.015,190.70375,0.0,0.0,0.0,0.0,0.028833333333333377,-5.498166666666667,-5.498166666666667,-0.549,-0.18,0.05074999999999985,-0.09399999999999986,67.535,0.0509,-0.22870000000000001,-0.9859999999999998,100.0,1.0,1.0,208.35666666666668,0.0,0.0,0.0,0.0,0.0,0.0,0.0,8831.4,0.0,55.0,5.0,243.10000000000002,0.0,0.0,0.0,0.0,0.0,0.0,1.0,0.0,0.7079999999999984,0.7079999999999984,0.0,0.0,0.0,55.0,616.79921,10000.0,85.000001,85.000001,85.000001,85.000001,395.0,0.0,0.0,0.0,1.0,166.665,52.597,52.597,48.096000000000004,48.096000000000004,34.0,-20.6275,27.422,-25.233333333333334,31.14,0.0,1782.978,-0.9450000000000003,100.0,27.541,28.008,42.451,43.29,0.0,1.0,100.0,0.0,0.0,0.0,0.0,3038.142857142857,3168.7,3992.875,4159.0,305.711,304.6255,315.126,314.48475,21.8946,20.5812,21.8886,21.3996,314.999998,314.999998,324.999988,324.999988,99.55812857142857,99.50726666666667,99.56625714285714,99.54587142857143,0.14825,0.016666666666666607,-0.05616666666666659,0.1665000000000001,-0.05333333333332746,-0.04999999999999716,1.565,1.5110000000000001,37.841,29.632333333333335,37.804,34.7475,55.807,34.900999999999996,59.323,52.0815,53.762,34.074,57.936,50.4215,52.938,33.6545,57.875,49.834,-0.15349999999999997,-0.004999999999999893,0.10741,0.10371000000000001,0.0,211.45,211.505,208.35666666666668,208.35666666666668,0.0,0.0
15,0.0,1.0,0.0,1.0,1.0,0.0,0.0,1.0,0.0,0.0,1.0,1.1856,26.0,0.0,0.0,0.0,59.999996,0.0,26.0,26.0,26.0,26.0,0.11355555555555563,0.2862,0.00615,292.831,-2.7086,-2.5745555555555555,-1.6309,-1.453,-225.8,215.9975,190.684625,0.0,0.0,0.0,0.0,0.03059999999999996,-5.498166666666667,-5.498166666666667,-0.5403,0.3176666666666667,0.08349999999999991,1.261,67.65899999999999,0.0631,-0.21000000000000002,-1.162,100.0,1.0,1.0,208.72333333333333,0.0,0.0,0.0,0.0,0.0,0.0,0.0,8847.1,0.0,55.0,5.0,243.54333333333335,1.0,0.0,0.0,0.0,0.0,0.0,1.0,0.0,0.7530000000000001,0.7530000000000001,0.0,0.0,1.0,55.0,616.79921,10000.0,85.000001,85.000001,85.000001,85.000001,395.0,0.0,0.0,0.0,1.0,166.665,52.765,52.765,48.203,48.203,34.0,-17.8625,28.182,-24.11,33.519999999999996,0.0,1782.932,-0.9800000000000004,100.0,27.724,27.896,42.271,43.228,0.0,1.0,100.0,0.0,0.0,0.0,0.0,2810.142857142857,3228.0,3936.375,4377.2,306.162,304.61775,315.24075,314.06475,21.9029,20.5861,21.8977,21.4076,314.999998,314.999998,324.999988,324.999988,99.55814285714285,99.50726666666667,99.56638571428572,99.546,0.17149999999999999,0.033666666666666956,-0.03266666666666662,0.19300000000000006,-0.030000000000001137,-0.054999999999999716,1.5543333333333333,1.5185,37.893,29.663,37.861000000000004,34.7975,55.8,34.9355,59.355000000000004,52.138,53.754000000000005,34.1055,57.9655,50.4755,52.93,33.685,57.9015,49.88733333333333,-0.1519999999999999,0.0,0.110615,0.11009000000000001,0.0,211.84,211.92000000000002,208.72333333333333,208.72333333333333,0.0,0.0
16,0.0,1.0,0.0,1.0,1.0,0.0,0.0,1.0,0.0,0.0,1.0,1.1856,26.0,0.0,0.0,0.0,59.999996,0.0,26.0,26.0,26.0,26.0,0.12677777777777788,0.2744,-0.051925000000000006,292.862,-2.8093,-2.607222222222222,-1.6023,-1.4511,-222.35,215.98000000000002,190.662625,0.0,0.0,0.0,0.0,0.03259999999999996,-5.498166666666667,-5.498166666666667,-0.5596,-0.729,0.06899999999999995,-1.016,67.799,0.077,-0.22440000000000002,-1.226,100.0,1.0,1.0,209.14333333333332,0.0,0.0,0.0,0.0,0.0,0.0,0.0,8864.8,0.0,55.0,5.0,244.04666666666668,0.0,0.0,0.0,0.0,0.0,0.0,1.0,0.0,0.8039999999999985,0.8039999999999985,0.0,0.0,0.0,55.0,616.79921,10000.0,85.000001,85.000001,85.000001,85.000001,395.0,0.0,0.0,0.0,1.0,333.33500000000004,52.78,52.78,47.836,47.836,34.0,-20.107499999999998,28.092,-23.86,31.89,0.0,1782.88,-0.879999999999999,100.0,27.214,28.144,42.442,43.463,0.0,1.0,100.0,0.0,0.0,0.0,0.0,2976.142857142857,3180.6,3987.75,4136.3,305.985,304.57975,315.15675,314.56075,21.9121,20.5917,21.9082,21.4168,314.999998,314.999998,324.999988,324.999988,99.55817142857143,99.50726666666667,99.56654285714286,99.54614285714285,0.1615000000000002,0.030666666666666842,-0.02983333333333338,0.20216666666666683,-0.041666666666671404,-0.04999999999999716,1.5706666666666667,1.512,37.95,29.697666666666667,37.926,34.855000000000004,55.787,34.9755,59.394,52.201499999999996,53.742000000000004,34.1425,58.0015,50.537,52.916,33.7205,57.9345,49.948,-0.14549999999999996,-0.01200000000000001,0.10942500000000001,0.10278500000000002,0.0,212.22500000000002,212.32999999999998,209.14333333333332,209.14333333333332,0.0,0.0
17,0.0,1.0,0.0,1.0,1.0,0.0,0.0,1.0,0.0,0.0,1.0,1.1856,26.0,0.0,0.0,0.0,59.999996,0.0,26.0,26.0,26.0,26.0,0.11766666666666681,0.28380000000000005,0.015425000000000001,292.435,-2.7672,-2.5597777777777777,-1.6415000000000002,-1.4744000000000002,-218.68,215.965,190.638625,0.0,0.0,0.0,0.0,0.034733333333333394,-5.498166666666667,-5.498166666666667,-0.55,0.4766666666666667,0.04862499999999992,-0.6179999999999999,67.946,0.0805,-0.2063,-1.0860000000000003,100.0,1.0,1.0,209.54666666666668,0.0,0.0,0.0,0.0,0.0,0.0,0.0,8882.0,0.0,55.0,5.0,244.57666666666665,1.0,0.0,0.0,0.0,0.0,0.0,1.0,0.0,0.8580000000000005,0.8580000000000005,0.0,0.0,1.0,55.0,616.79921,10000.0,85.000001,85.000001,85.000001,85.000001,395.0,0.0,0.0,0.0,1.0,166.665,52.414,52.414,47.745,47.745,34.0,-20.0625,27.046,-26.003333333333337,33.332499999999996,0.0,1782.828,-0.9499999999999993,100.0,27.683,28.44,42.215,43.436,0.0,1.0,100.0,0.0,0.0,0.0,0.0,3095.857142857143,3086.0,4277.875,4298.0,305.5935,304.92075,314.56675,314.216,21.9221,20.5977,21.9191,21.4264,314.999998,314.999998,324.999988,324.999988,99.55818571428571,99.50728333333333,99.56668571428571,99.54631428571429,0.17625000000000002,0.040000000000000036,-0.020166666666666555,0.19433333333333325,-0.054999999999999716,-0.051666666666669414,1.5466666666666666,1.496,38.013,29.735666666666667,37.994,34.915,55.78,35.0195,59.432,52.2685,53.735,34.183,58.037,50.602000000000004,52.908,33.7595,57.966499999999996,50.01133333333333,-0.15100000000000002,-0.007000000000000117,0.10637,0.09992500000000001,0.0,212.735,212.815,209.54666666666668,209.54666666666668,0.0,0.0
18,0.0,1.0,0.0,1.0,1.0,0.0,0.0,1.0,0.0,0.0,1.0,1.1856,26.0,0.0,0.0,0.0,59.999996,0.0,26.0,26.0,26.0,26.0,0.0882222222222222,0.2771000000000001,-0.026000000000000002,292.542,-2.7941000000000003,-2.5423333333333336,-1.6509,-1.4254,-215.62,215.9525,190.619,0.0,0.0,0.0,0.0,0.03649999999999998,-5.498166666666667,-5.498166666666667,-0.5595,-0.5713333333333334,0.0685,0.94,68.068,0.0814,-0.22255,-0.9500000000000002,100.0,1.0,1.0,209.95,0.0,0.0,0.0,0.0,0.0,0.0,0.0,8899.0,0.0,55.0,5.0,245.01666666666665,0.0,0.0,0.0,0.0,0.0,0.0,1.0,0.0,0.9029999999999987,0.9029999999999987,0.0,0.0,0.0,55.0,616.79921,10000.0,85.000001,85.000001,85.000001,85.000001,395.0,0.0,0.0,0.0,1.0,333.33500000000004,52.46,52.46,47.76,47.76,34.0,-20.515,28.262,-24.016666666666666,32.18,0.0,1782.782,-0.4800000000000004,100.0,27.614,28.085,42.637,43.724000000000004,0.0,1.0,100.0,0.0,0.0,0.0,0.0,2975.285714285714,3332.6,4008.0,4202.0,305.846,304.40975,315.09375,314.4835,21.9304,20.6026,21.9284,21.4346,314.999998,314.999998,324.999988,324.999988,99.5582,99.50728333333333,99.56681428571429,99.54644285714286,0.15225,0.021666666666666945,-0.016000000000000014,0.20650000000000013,-0.04833333333333201,-0.05333333333332746,1.566,1.5295,38.065,29.766333333333336,38.052,34.966,55.769999999999996,35.054,59.466499999999996,52.326499999999996,53.726,34.215,58.0685,50.6575,52.897999999999996,33.79,57.9955,50.06633333333333,-0.119,-0.040000000000000036,0.09916000000000001,0.11306500000000001,0.0,213.07999999999998,213.155,209.95,209.95,0.0,0.0
19,0.0,1.0,0.0,1.0,1.0,0.0,0.0,1.0,0.0,0.0,1.0,1.1856,26.0,0.0,0.0,0.0,59.999996,0.0,26.0,26.0,26.0,26.0,0.07766666666666677,0.2863,0.0244,292.023,-2.7564,-2.5388888888888888,-1.6526,-1.4236,-212.14999999999998,215.945,190.596375,0.0,0.0,0.0,0.0,0.03853333333333331,-5.498166666666667,-5.498166666666667,-0.5525,0.878,0.05887500000000001,-0.8719999999999999,68.20400000000001,0.0756,-0.211825,-0.3620000000000001,100.0,1.0,1.0,210.37666666666667,0.0,0.0,0.0,0.0,0.0,0.0,0.0,8917.0,0.0,55.0,5.0,245.50666666666666,1.0,0.0,0.0,0.0,0.0,0.0,1.0,0.0,0.9540000000000006,0.9540000000000006,0.0,0.0,1.0,55.0,616.79921,10000.0,85.000001,85.000001,85.000001,85.000001,395.0,0.0,0.0,0.0,1.0,166.665,51.635999999999996,51.635999999999996,47.638,47.638,34.0,-23.535,25.7,-26.810000000000002,31.86,0.0,1782.731,0.16000000000000014,100.0,28.076,28.653,42.391,43.664,0.0,1.0,100.0,0.0,0.0,0.0,0.0,3194.4285714285716,3260.3,4217.0,4307.7,305.226,304.325,314.7185,314.24525,21.9399,20.6084,21.9387,21.4436,314.999998,314.999998,324.999988,324.999988,99.55821428571429,99.5073,99.56695714285715,99.54658571428571,0.11575000000000024,-0.028999999999999915,-0.040000000000000036,0.1825000000000001,-0.046666666666666856,-0.04833333333333201,1.5386666666666666,1.5295,38.123999999999995,29.802333333333333,38.117000000000004,35.022999999999996,55.760999999999996,35.0945,59.501999999999995,52.3895,53.717,34.253,58.1015,50.7185,52.888,33.826499999999996,58.025,50.126,-0.07850000000000001,-0.09399999999999986,0.10791,0.10843000000000001,0.0,213.57,213.59,210.37666666666667,210.37666666666667,0.0,0.0
20,0.0,1.0,0.0,1.0,1.0,0.0,0.0,1.0,0.0,0.0,1.0,1.1856,26.0,0.0,0.0,0.0,59.999996,0.0,26.0,26.0,26.0,26.0,0.02866666666666684,0.27870000000000017,0.0105,292.267,-2.7829,-2.623111111111111,-1.5627,-1.4506000000000001,-208.67000000000002,215.9375,190.574,0.0,0.0,0.0,0.0,0.04056666666666653,-5.498166666666667,-5.498166666666667,-0.5516,-1.131,0.04212499999999997,0.11699999999999999,68.345,0.0507,-0.218725,0.1620000000000008,100.0,1.0,1.0,210.65666666666667,0.0,0.0,0.0,0.0,0.0,0.0,0.0,8928.9,0.0,55.0,5.0,246.01333333333332,0.0,0.0,0.0,0.0,0.0,0.0,0.0,0.0,1.004999999999999,1.004999999999999,0.0,0.0,0.0,55.0,616.79921,10000.0,85.000001,85.000001,85.000001,85.000001,395.0,0.0,0.0,0.0,1.0,333.33500000000004,52.887,52.887,46.753,46.753,34.0,-22.0475,24.326,-27.32,31.892500000000002,0.0,1782.679,0.41000000000000014,100.0,27.701999999999998,28.092,43.307,43.881,0.0,1.0,100.0,0.0,0.0,0.0,0.0,2876.285714285714,3141.0,4204.5,4377.2,306.165,304.914,314.5015,314.02675,21.9491,20.6139,21.9493,21.4529,314.999998,314.999998,324.999988,324.999988,99.55822857142857,99.5073,99.5671,99.54674285714286,0.09100000000000019,-0.04800000000000004,-0.0645,0.1581666666666668,-0.045000000000001705,-0.036666666666668846,1.4753333333333334,1.4745,38.182,29.837,38.183,35.081,55.747,35.1335,59.5435,52.455,53.703,34.2885,58.14,50.7815,52.873000000000005,33.8605,58.0605,50.188,-0.04600000000000004,-0.11149999999999993,0.10670500000000001,0.11159500000000001,0.0,213.96,213.95,210.65666666666667,210.65666666666667,0.0,0.0
21,0.0,1.0,0.0,1.0,1.0,0.0,0.0,1.0,0.0,0.0,1.0,1.1856,26.0,0.0,0.0,0.0,59.999996,0.0,26.0,26.0,26.0,26.0,-0.01200000000000001,0.27570000000000006,-0.07350000000000001,292.648,-2.6701,-2.702111111111111,-1.6084,-1.5432000000000001,-205.38,215.9325,190.552375,0.0,0.0,0.0,0.0,0.04246666666666654,-5.498166666666667,-5.498166666666667,-0.5785,0.4506666666666667,0.00275000000000003,-0.266,68.469,0.0146,-0.2268,0.620000000000001,100.0,1.0,1.0,211.31666666666666,0.0,0.0,0.0,0.0,0.0,0.0,0.0,8957.0,0.0,55.0,5.0,246.46,1.0,0.0,0.0,0.0,0.0,0.0,0.0,0.0,1.0530000000000008,1.0530000000000008,0.0,0.0,1.0,55.0,616.79921,10000.0,85.000001,85.000001,85.000001,85.000001,395.0,0.0,0.0,0.0,1.0,166.665,52.216,52.216,48.34,48.34,34.0,-24.0925,24.496000000000002,-27.72,27.200000000000003,0.0,1782.633,0.40500000000000114,100.0,28.218,28.097,42.843,43.283,0.0,1.0,100.0,0.0,0.0,0.0,0.0,3086.857142857143,3125.6,3986.125,3949.5,305.364,304.876,315.23525,315.1135,21.9581,20.6192,21.959,21.4613,314.999998,314.999998,324.999988,324.999988,99.55824285714286,99.5073,99.56724285714286,99.54687142857144,0.06875000000000009,-0.06000000000000005,-0.10833333333333339,0.12683333333333335,-0.046666666666666856,-0.046666666666666856,1.5833333333333335,1.621,38.238,29.869999999999997,38.244,35.1335,55.735,35.1715,59.575,52.5105,53.691,34.324,58.1695,50.8345,52.86,33.8945,58.087,50.24,-0.04349999999999987,-0.1070000000000002,0.11050000000000001,0.11203,0.0,214.39499999999998,214.35000000000002,211.31666666666666,211.31666666666666,0.0,0.0
22,0.0,1.0,0.0,1.0,1.0,0.0,0.0,1.0,0.0,0.0,1.0,1.1856,26.0,0.0,0.0,0.0,59.999996,0.0,26.0,26.0,26.0,26.0,-0.029444444444444384,0.264,0.0316,292.053,-2.6367000000000003,-2.7235555555555555,-1.5865,-1.5955,-201.89,215.925,190.5285,0.0,0.0,0.0,0.0,0.044499999999999984,-5.498166666666667,-5.498166666666667,-0.5563,0.13033333333333336,-0.009500000000000064,-0.6000000000000001,68.608,-0.0154,-0.20465,0.7960000000000012,100.0,1.0,1.0,211.52666666666667,0.0,0.0,0.0,0.0,0.0,0.0,0.0,8965.9,0.0,55.0,5.0,246.96,0.0,0.0,0.0,0.0,0.0,0.0,0.0,0.0,1.1039999999999992,1.1039999999999992,0.0,0.0,0.0,55.0,616.79921,10000.0,85.000001,85.000001,85.000001,85.000001,395.0,0.0,0.0,0.0,1.0,333.33500000000004,52.231,52.231,47.089,47.089,34.0,-24.8725,22.302,-33.13333333333333,28.4925,0.0,1782.581,0.3550000000000004,100.0,28.277,28.18,43.397999999999996,43.416,0.0,1.0,100.0,0.0,0.0,0.0,0.0,3123.857142857143,2999.0,4305.625,4217.2,305.3865,305.05225,314.45325,314.34725,21.9676,20.6247,21.9696,21.4705,314.999998,314.999998,324.999988,324.999988,99.55825714285714,99.50731666666667,99.56738571428572,99.54701428571428,0.047499999999999876,-0.09633333333333316,-0.15400000000000003,0.08099999999999996,-0.041666666666671404,-0.03999999999999915,1.4666666666666668,1.4895,38.297,29.904333333333334,38.31,35.1905,55.722,35.212,59.6165,52.5725,53.679,34.361000000000004,58.2085,50.8945,52.847,33.93,58.1225,50.29866666666666,-0.056499999999999995,-0.10999999999999988,0.106605,0.11023000000000001,0.0,214.845,214.755,211.52666666666667,211.52666666666667,0.0,0.0
23,0.0,1.0,0.0,1.0,1.0,0.0,0.0,1.0,0.0,0.0,1.0,1.1856,26.0,0.0,0.0,0.0,59.999996,0.0,26.0,26.0,26.0,26.0,-0.04688888888888887,0.25690000000000013,-0.048825,292.13,-2.6534,-2.6893333333333334,-1.5041,-1.6225,-198.18,215.91750000000002,190.503625,0.0,0.0,0.0,0.0,0.04666666666666652,-5.498166666666667,-5.498166666666667,-0.5757,-0.19833333333333333,-0.024375000000000036,-0.7469999999999999,68.749,-0.0346,-0.23192500000000002,0.8539999999999992,100.0,1.0,1.0,212.07999999999998,0.0,0.0,0.0,0.0,0.0,0.0,0.0,8989.3,0.0,55.0,5.0,247.47,1.0,0.0,0.0,0.0,0.0,0.0,0.0,0.0,1.1580000000000013,1.1580000000000013,0.0,0.0,1.0,55.0,616.79921,10000.0,85.000001,85.000001,85.000001,85.000001,395.0,0.0,0.0,0.0,1.0,166.665,51.682,51.682,48.126,48.126,34.0,-28.2725,21.618,-29.14,25.7175,0.0,1782.528,0.375,100.0,28.628,28.165,43.656,43.507,0.0,1.0,100.0,0.0,0.0,0.0,0.0,3381.714285714286,3020.0,3975.875,3919.7,304.6295,305.088,315.162,315.03975,21.9777,20.6305,21.9807,21.4802,314.999998,314.999998,324.999988,324.999988,99.55825714285714,99.50731666666667,99.56754285714285,99.54718571428572,0.02950000000000008,-0.10733333333333328,-0.15949999999999998,0.07016666666666671,-0.06499999999999773,-0.046666666666666856,1.528,1.555,38.36,29.941,38.379000000000005,35.2515,55.707,35.256,59.658,52.638,53.665,34.4015,58.247,50.957499999999996,52.832,33.969,58.158,50.36,-0.05549999999999988,-0.1070000000000002,0.10798,0.10862000000000001,0.0,215.275,215.195,212.07999999999998,212.07999999999998,0.0,0.0
24,0.0,1.0,0.0,1.0,1.0,0.0,0.0,1.0,0.0,0.0,1.0,1.1856,26.0,0.0,0.0,0.0,59.999996,0.0,26.0,26.0,26.0,26.0,-0.07299999999999995,0.26870000000000016,-0.056075,292.358,-2.668,-2.7075555555555555,-1.5427,-1.5670000000000002,-195.07999999999998,215.9075,190.482625,0.0,0.0,0.0,0.0,0.04846666666666655,-5.498166666666667,-5.498166666666667,-0.5777,-0.4896666666666667,-0.017125000000000057,1.1119999999999999,68.869,-0.0449,-0.21702500000000002,0.6720000000000006,100.0,1.0,1.0,212.34333333333333,0.0,0.0,0.0,0.0,0.0,0.0,0.0,9000.5,0.0,55.0,5.0,247.9,0.0,0.0,0.0,0.0,0.0,0.0,0.0,0.0,1.2029999999999994,1.2029999999999994,0.0,0.0,0.0,55.0,616.79921,10000.0,85.000001,85.000001,85.000001,85.000001,395.0,0.0,0.0,0.0,1.0,333.33500000000004,52.841,52.841,47.073,47.073,34.0,-24.28,21.02,-32.95333333333333,26.6625,0.0,1782.481,0.26000000000000156,100.0,28.503,27.687,43.804,43.254,0.0,1.0,100.0,0.0,0.0,0.0,0.0,2958.285714285714,2947.2,4306.375,4139.1,305.7975,305.53925,314.3155,314.651,21.986,20.6353,21.9899,21.4883,314.999998,314.999998,324.999988,324.999988,99.55827142857143,99.50733333333334,99.56767142857143,99.5473,0.033500000000000085,-0.10499999999999998,-0.15883333333333338,0.07050000000000001,-0.036666666666668846,-0.054999999999999716,1.4756666666666667,1.5215,38.412,29.970333333333336,38.437,35.3015,55.694,35.291,59.693,52.6915,53.653,34.434,58.2795,51.0085,52.819,33.9995,58.188,50.410333333333334,-0.06499999999999995,-0.09450000000000003,0.10436500000000001,0.107365,0.0,215.65,215.57999999999998,212.34333333333333,212.34333333333333,0.0,0.0
25,0.0,1.0,0.0,1.0,1.0,0.0,0.0,1.0,0.0,0.0,1.0,1.1856,26.0,0.0,0.0,0.0,59.999996,0.0,26.0,26.0,26.0,26.0,-0.0862222222222222,0.2651000000000001,-0.06392500000000001,292.267,-2.7282,-2.676,-1.5528,-1.5742,-191.36,215.8975,190.45575,0.0,0.0,0.0,0.0,0.05059999999999998,-5.498166666666667,-5.498166666666667,-0.6117,0.02366666666666667,-0.020624999999999893,-0.15399999999999991,69.009,-0.0497,-0.22475,0.548,100.0,1.0,1.0,212.91666666666669,0.0,0.0,0.0,0.0,0.0,0.0,0.0,9024.8,0.0,55.0,5.0,248.40666666666667,1.0,0.0,0.0,0.0,0.0,0.0,0.0,0.0,1.256999999999998,1.256999999999998,0.0,0.0,1.0,55.0,616.79921,10000.0,85.000001,85.000001,85.000001,85.000001,395.0,0.0,0.0,0.0,1.0,166.665,51.772999999999996,51.772999999999996,47.943,47.943,34.0,-27.875,23.876,-29.743333333333332,25.2175,0.0,1782.428,0.13500000000000156,100.0,28.44,27.893,43.513,42.942,0.0,1.0,100.0,0.0,0.0,0.0,0.0,3297.4285714285716,3272.4,3969.625,3998.8,304.903,304.52275,315.22125,314.97675,21.9958,20.6411,22.0009,21.497799999999998,314.999998,314.999998,324.999988,324.999988,99.55827142857143,99.50735,99.56782857142858,99.54745714285714,0.03624999999999989,-0.09599999999999986,-0.1638333333333334,0.06583333333333319,-0.041666666666671404,-0.045000000000001705,1.5586666666666666,1.584,38.474000000000004,30.006999999999998,38.506,35.3615,55.677,35.335499999999996,59.7315,52.753,53.635999999999996,34.475,58.3155,51.068,52.802,34.0385,58.221000000000004,50.468,-0.07050000000000001,-0.09149999999999991,0.10762000000000001,0.11206,0.0,216.05,216.01,212.91666666666669,212.91666666666669,0.0,0.0
26,0.0,1.0,0.0,1.0,1.0,0.0,0.0,1.0,0.0,0.0,1.0,1.1856,26.0,0.0,0.0,0.0,59.999996,0.0,26.0,26.0,26.0,26.0,-0.0748888888888889,0.27560000000000007,0.06915,291.153,-2.6746,-2.7545555555555556,-1.5958,-1.5716,-188.04,215.885,190.4315,0.0,0.0,0.0,0.0,0.05253333333333332,-5.498166666666667,-5.498166666666667,-0.5726,0.7846666666666666,-0.039750000000000174,0.7879999999999998,69.138,-0.0482,-0.19690000000000002,0.44599999999999973,100.0,1.0,1.0,213.04666666666668,0.0,0.0,0.0,0.0,0.0,0.0,0.0,9030.3,0.0,55.0,5.0,248.86666666666667,0.0,0.0,0.0,0.0,0.0,0.0,0.0,0.0,1.3049999999999997,1.3049999999999997,0.0,0.0,0.0,55.0,616.79921,10000.0,85.000001,85.000001,85.000001,85.000001,395.0,0.0,0.0,0.0,1.0,166.665,51.315,51.315,46.265,46.265,34.0,-26.075,23.486,-35.46666666666667,29.6825,0.0,1782.381,-0.019999999999999574,100.0,29.344,28.52,44.021,43.258,0.0,1.0,100.0,0.0,0.0,0.0,0.0,3215.5714285714284,3108.0,4551.875,4485.6,304.9865,304.89725,313.82775,313.84325,22.0049,20.6465,22.0109,21.5065,314.999998,314.999998,324.999988,324.999988,99.55827142857143,99.50736666666667,99.56797142857143,99.54758571428572,0.051750000000000185,-0.09266666666666667,-0.14816666666666656,0.06916666666666682,-0.03166666666666629,-0.054999999999999716,1.4426666666666668,1.4425,38.531,30.040333333333333,38.568,35.4155,55.667,35.3765,59.771,52.8115,53.626999999999995,34.5125,58.3525,51.124,52.791,34.075,58.2545,50.522999999999996,-0.08650000000000002,-0.08000000000000007,0.10146500000000001,0.108215,0.0,216.495,216.45,213.04666666666668,213.04666666666668,0.0,0.0
27,0.0,1.0,0.0,1.0,1.0,0.0,0.0,1.0,0.0,0.0,1.0,1.1856,26.0,0.0,0.0,0.0,59.999996,0.0,26.0,26.0,26.0,26.0,-0.04588888888888887,0.24950000000000006,0.001275,291.55,-2.6461,-2.7155555555555555,-1.5907,-1.6399,-184.72,215.8725,190.408375,0.0,0.0,0.0,0.0,0.05446666666666655,-5.498166666666667,-5.498166666666667,-0.5958,-1.0563333333333333,-0.0338750000000001,0.7730000000000001,69.262,-0.040100000000000004,-0.24197500000000002,0.20599999999999952,100.0,1.0,1.0,213.50333333333333,0.0,0.0,0.0,0.0,0.0,0.0,0.0,9049.7,0.0,55.0,5.0,249.31666666666666,1.0,0.0,0.0,0.0,0.0,0.0,0.0,0.0,1.352999999999998,1.352999999999998,0.0,0.0,1.0,55.0,616.79921,10000.0,85.000001,85.000001,85.000001,85.000001,395.0,0.0,0.0,0.0,1.0,166.665,51.727000000000004,51.727000000000004,46.6,46.6,34.0,-24.6325,23.594,-31.506666666666668,28.005000000000003,0.0,1782.333,-0.09999999999999787,100.0,29.022,28.306,44.684,43.931,0.0,1.0,100.0,0.0,0.0,0.0,0.0,3109.5714285714284,3144.6,4136.875,4126.9,305.318,304.9055,314.736,314.58425,22.0137,20.651699999999998,22.0209,21.5153,314.999998,314.999998,324.999988,324.999988,99.55828571428572,99.50736666666667,99.56811428571429,99.54774285714285,0.05575000000000019,-0.08633333333333315,-0.14916666666666656,0.07483333333333331,-0.030000000000001137,-0.054999999999999716,1.486,1.5055,38.586,30.073,38.631,35.471000000000004,55.653,35.415,59.8105,52.871,53.614000000000004,34.548,58.3895,51.1815,52.777,34.1085,58.2885,50.579,-0.09149999999999991,-0.07350000000000012,0.10676000000000001,0.10939000000000002,0.0,216.79000000000002,216.785,213.50333333333333,213.50333333333333,0.0,0.0
28,0.0,1.0,0.0,1.0,1.0,0.0,0.0,1.0,0.0,0.0,1.0,1.1856,26.0,0.0,0.0,0.0,59.999996,0.0,26.0,26.0,26.0,26.0,-0.0454444444444444,0.25849999999999995,-0.0443,291.87,-2.6381,-2.7046666666666668,-1.5735000000000001,-1.5957,-180.98000000000002,215.85500000000002,190.3815,0.0,0.0,0.0,0.0,0.05663333333333331,-5.498166666666667,-5.498166666666667,-0.6017,0.6970000000000001,-0.03312500000000007,0.9169999999999998,69.399,-0.030100000000000002,-0.21665,0.10999999999999943,100.0,1.0,1.0,214.06666666666666,0.0,0.0,0.0,0.0,0.0,0.0,0.0,9073.4,0.0,55.0,5.0,249.81,0.0,0.0,0.0,0.0,0.0,0.0,0.0,0.0,1.407,1.407,0.0,0.0,0.0,55.0,616.79921,10000.0,85.000001,85.000001,85.000001,85.000001,395.0,0.0,0.0,0.0,1.0,166.665,51.712,51.712,47.546,47.546,34.0,-24.3375,23.82,-30.519999999999996,28.060000000000002,0.0,1782.278,-0.2049999999999983,100.0,29.02,28.268,43.872,43.388,0.0,1.0,100.0,0.0,0.0,0.0,0.0,3147.285714285714,3117.2,4098.375,4146.1,305.126,304.97225,315.0135,314.64875,22.0238,20.6576,22.0318,21.5249,314.999998,314.999998,324.999988,324.999988,99.5583,99.50738333333334,99.56827142857144,99.54788571428571,0.07125000000000004,-0.07366666666666677,-0.15149999999999997,0.09183333333333321,-0.045000000000001705,-0.04999999999999716,1.5426666666666666,1.5615,38.649,30.11,38.699,35.5305,55.641,35.458,59.8475,52.9325,53.602000000000004,34.588,58.424,51.24,52.763999999999996,34.1465,58.3195,50.63633333333333,-0.09799999999999986,-0.06499999999999995,0.116525,0.11511,0.0,217.275,217.255,214.06666666666666,214.06666666666666,0.0,0.0
29,0.0,1.0,0.0,1.0,1.0,0.0,0.0,1.0,0.0,0.0,1.0,1.1856,26.0,0.0,0.0,0.0,59.999996,0.0,26.0,26.0,26.0,26.0,-0.01533333333333331,0.2714000000000001,0.019200000000000002,291.534,-2.6330999999999998,-2.741777777777778,-1.5544,-1.5655999999999999,-177.64,215.84,190.35675,0.0,0.0,0.0,0.0,0.058599999999999985,-5.498166666666667,-5.498166666666667,-0.6051000000000001,-0.7113333333333334,-0.021250000000000213,0.9420000000000002,69.526,-0.020900000000000002,-0.21645,-0.07200000000000006,100.0,1.0,1.0,214.26333333333332,0.0,0.0,0.0,0.0,0.0,0.0,0.0,9081.9,0.0,55.0,5.0,250.26999999999998,1.0,0.0,0.0,0.0,0.0,0.0,0.0,0.0,1.4549999999999983,1.4549999999999983,0.0,0.0,1.0,55.0,616.79921,10000.0,85.000001,85.000001,85.000001,85.000001,395.0,0.0,0.0,0.0,1.0,166.665,51.834,51.834,46.494,46.494,34.0,-23.615,25.622,-30.68,29.810000000000002,0.0,1782.23,-0.28500000000000014,100.0,28.637999999999998,28.184,44.233000000000004,43.759,0.0,1.0,100.0,0.0,0.0,0.0,0.0,3127.4285714285716,3196.9,4215.75,4300.2,305.317,304.6315,314.509,314.233,22.0325,20.6628,22.0417,21.5337,314.999998,314.999998,324.999988,324.999988,99.5583,99.5074,99.56841428571428,99.54802857142857,0.07900000000000018,-0.05933333333333324,-0.12716666666666665,0.10066666666666668,-0.04333333333332945,-0.045000000000001705,1.476,1.4769999999999999,38.703,30.142333333333333,38.760999999999996,35.585499999999996,55.626999999999995,35.495,59.885999999999996,52.9915,53.589,34.622,58.46,51.297,52.75,34.179,58.3525,50.69166666666666,-0.10499999999999998,-0.05549999999999988,0.10672000000000001,0.105925,0.0,217.63,217.61,214.26333333333332,214.26333333333332,0.0,0.0
30,0.0,1.0,0.0,1.0,1.0,0.0,0.0,1.0,0.0,0.0,1.0,1.1856,26.0,0.0,0.0,0.0,59.999996,0.0,26.0,26.0,26.0,26.0,-0.008000000000000007,0.2574000000000001,0.065675,291.016,-2.6927,-2.622333333333333,-1.5299,-1.6221,-174.3,215.825,190.331625,0.0,0.0,0.0,0.0,0.06053333333333333,-5.498166666666667,-5.498166666666667,-0.6065,0.7753333333333334,-0.0208750000000002,0.6099999999999999,69.647,-0.0102,-0.220475,-0.14200000000000035,100.0,1.0,1.0,214.71333333333334,0.0,0.0,0.0,0.0,0.0,0.0,0.0,9100.9,0.0,55.0,5.0,250.70333333333335,0.0,0.0,0.0,0.0,0.0,0.0,1.0,0.0,1.5030000000000001,1.5030000000000001,0.0,0.0,0.0,55.0,616.79921,10000.0,85.000001,85.000001,85.000001,85.000001,395.0,0.0,0.0,0.0,1.0,333.33500000000004,50.629,50.629,46.921,46.921,34.0,-25.64,25.240000000000002,-28.906666666666666,30.815,0.0,1782.181,-0.35999999999999943,100.0,29.423000000000002,29.003,44.005,43.824,0.0,1.0,100.0,0.0,0.0,0.0,0.0,3353.857142857143,3244.8,4195.0,4273.2,304.59,304.48475,314.6675,314.257,22.0415,20.6683,22.0515,21.5423,314.999998,314.999998,324.999988,324.999988,99.55831428571429,99.5074,99.56855714285714,99.54817142857142,0.09275000000000011,-0.052000000000000046,-0.10783333333333334,0.1076666666666668,-0.01666666666666572,-0.06833333333332803,1.4943333333333333,1.48,38.759,30.176666666666666,38.822,35.6395,55.619,35.535,59.92,53.048500000000004,53.581,34.658500000000004,58.4915,51.352000000000004,52.741,34.2145,58.381,50.745666666666665,-0.11299999999999999,-0.053999999999999826,0.10556000000000001,0.101025,0.0,218.01999999999998,218.05,214.71333333333334,214.71333333333334,0.0,0.0
31,0.0,1.0,0.0,1.0,1.0,0.0,0.0,1.0,0.0,0.0,1.0,1.1856,26.0,0.0,0.0,0.0,59.999996,0.0,26.0,26.0,26.0,26.0,-0.007444444444444476,0.2612000000000001,0.002775,290.955,-2.7623,-2.598,-1.5801,-1.5154,-170.75,215.8075,190.305875,0.0,0.0,0.0,0.0,0.06259999999999999,-5.498166666666667,-5.498166666666667,-0.5892000000000001,-0.5083333333333333,-0.012500000000000178,-0.7480000000000002,69.779,0.0029000000000000002,-0.219925,-0.23599999999999977,100.0,1.0,1.0,215.00333333333333,0.0,0.0,0.0,0.0,0.0,0.0,0.0,9113.2,0.0,55.0,5.0,251.18,1.0,0.0,0.0,0.0,0.0,0.0,1.0,0.0,1.5539999999999985,1.5539999999999985,0.0,0.0,1.0,55.0,616.79921,10000.0,85.000001,85.000001,85.000001,85.000001,395.0,0.0,0.0,0.0,1.0,166.665,51.407,51.407,45.486,45.486,34.0,-24.7,24.276,-31.586666666666666,29.6525,0.0,1782.132,-0.384999999999998,100.0,28.973,29.112000000000002,44.572,44.646,0.0,1.0,100.0,0.0,0.0,0.0,0.0,3179.4285714285716,3166.3,4428.375,4201.4,305.4365,304.77975,314.08175,314.35675,22.0508,20.674,22.0622,21.5518,314.999998,314.999998,324.999988,324.999988,99.55832857142858,99.5074,99.56871428571428,99.54832857142857,0.08499999999999996,-0.05166666666666675,-0.10366666666666657,0.1206666666666667,-0.03499999999999659,-0.046666666666666856,1.4606666666666666,1.444,38.818,30.212666666666664,38.888,35.698499999999996,55.607,35.575,59.9615,53.1125,53.57,34.696,58.53,51.4135,52.729,34.25,58.4165,50.80566666666667,-0.10799999999999987,-0.0535000000000001,0.1034,0.11083000000000001,0.0,218.41500000000002,218.425,215.00333333333333,215.00333333333333,0.0,0.0
32,0.0,1.0,0.0,1.0,1.0,0.0,0.0,1.0,0.0,0.0,1.0,1.1856,26.0,0.0,0.0,0.0,59.999996,0.0,26.0,26.0,26.0,26.0,0.025222222222222257,0.2714000000000001,-0.017875000000000002,291.138,-2.6692,-2.701777777777778,-1.6476000000000002,-1.5234,-166.98000000000002,215.79000000000002,190.27875,0.0,0.0,0.0,0.0,0.06479999999999997,-5.498166666666667,-5.498166666666667,-0.6058,0.02766666666666667,-0.03500000000000014,-0.9710000000000001,69.914,0.0122,-0.22667500000000002,-0.33200000000000074,100.0,1.0,1.0,215.5366666666667,0.0,0.0,0.0,0.0,0.0,0.0,0.0,9135.8,0.0,55.0,5.0,251.66333333333336,0.0,0.0,0.0,0.0,0.0,0.0,1.0,0.0,1.6080000000000005,1.6080000000000005,0.0,0.0,0.0,55.0,616.79921,10000.0,85.000001,85.000001,85.000001,85.000001,395.0,0.0,0.0,0.0,1.0,166.665,51.315,51.315,46.417,46.417,34.0,-23.5275,25.126,-30.843333333333334,30.26,0.0,1782.078,-0.41999999999999815,100.0,28.94,29.097,44.29,44.436,0.0,1.0,100.0,0.0,0.0,0.0,0.0,3255.714285714286,3083.9,4290.625,4270.5,305.064,304.89475,314.5725,314.3735,22.0607,20.6801,22.0732,21.5616,314.999998,314.999998,324.999988,324.999988,99.55832857142858,99.50741666666667,99.56885714285714,99.54848571428572,0.11025000000000018,-0.040000000000000036,-0.10250000000000004,0.12949999999999995,-0.046666666666666856,-0.030000000000001137,1.5163333333333333,1.514,38.879000000000005,30.250666666666667,38.957,35.7595,55.596000000000004,35.618,59.9995,53.1765,53.559,34.7355,58.5655,51.475,52.717,34.2875,58.448499999999996,50.86566666666667,-0.12349999999999994,-0.04999999999999982,0.10967,0.10651000000000001,0.0,218.84,218.845,215.5366666666667,215.5366666666667,0.0,0.0
33,0.0,1.0,0.0,1.0,1.0,0.0,0.0,1.0,0.0,0.0,1.0,1.1856,26.0,0.0,0.0,0.0,59.999996,0.0,26.0,26.0,26.0,26.0,0.019333333333333425,0.2551000000000001,-0.046675,291.382,-2.7094,-2.694777777777778,-1.5782,-1.6012,-163.82999999999998,215.775,190.25525,0.0,0.0,0.0,0.0,0.06663333333333332,-5.498166666666667,-5.498166666666667,-0.6135,-0.3233333333333333,-0.02499999999999991,1.3359999999999999,70.029,0.0187,-0.21727500000000002,-0.3460000000000001,100.0,1.0,1.0,215.86,0.0,0.0,0.0,0.0,0.0,0.0,0.0,9149.4,0.0,55.0,5.0,252.07666666666665,1.0,0.0,0.0,0.0,0.0,0.0,1.0,0.0,1.6529999999999987,1.6529999999999987,0.0,0.0,1.0,55.0,616.79921,10000.0,85.000001,85.000001,85.000001,85.000001,395.0,0.0,0.0,0.0,1.0,333.33500000000004,51.804,51.804,46.448,46.448,34.0,-22.36,25.503999999999998,-28.803333333333335,32.197500000000005,0.0,1782.03,-0.4299999999999997,100.0,28.872,28.675,44.296,44.36,0.0,1.0,100.0,0.0,0.0,0.0,0.0,3068.857142857143,3128.3,4191.875,4284.3,305.545,304.92025,314.64475,314.32375,22.0688,20.6851,22.0824,21.5697,314.999998,314.999998,324.999988,324.999988,99.55835714285715,99.50741666666667,99.56901428571429,99.54862857142857,0.11175000000000024,-0.03466666666666662,-0.09216666666666662,0.13883333333333336,-0.03499999999999659,-0.046666666666666856,1.4916666666666667,1.4755,38.93,30.281666666666666,39.015,35.811,55.586,35.653,60.0345,53.234,53.549,34.7675,58.598,51.53,52.706,34.3185,58.478,50.919666666666664,-0.11149999999999993,-0.04800000000000004,0.11399500000000001,0.10455,0.0,219.17000000000002,219.19,215.86,215.86,0.0,0.0
34,0.0,1.0,0.0,1.0,1.0,0.0,0.0,1.0,0.0,0.0,1.0,1.1856,26.0,0.0,0.0,0.0,59.999996,0.0,26.0,26.0,26.0,26.0,0.021888888888888847,0.26249999999999996,-0.059425000000000006,291.733,-2.7407,-2.618777777777778,-1.6495000000000002,-1.5566,-160.04,215.7575,190.22575,0.0,0.0,0.0,0.0,0.0688333333333333,-5.498166666666667,-5.498166666666667,-0.6405000000000001,-0.6823333333333333,0.008499999999999952,1.022,70.16499999999999,0.0246,-0.2217,-0.37399999999999967,100.0,1.0,1.0,216.29666666666668,0.0,0.0,0.0,0.0,0.0,0.0,0.0,9168.0,0.0,55.0,5.0,252.56666666666666,0.0,0.0,0.0,0.0,0.0,0.0,1.0,0.0,1.7070000000000007,1.7070000000000007,0.0,0.0,0.0,55.0,616.79921,10000.0,85.000001,85.000001,85.000001,85.000001,395.0,0.0,0.0,0.0,1.0,166.665,52.155,52.155,47.119,47.119,34.0,-21.5975,25.372,-28.166666666666664,30.7825,0.0,1781.978,-0.4400000000000013,100.0,28.556,28.349,43.984,44.428,0.0,1.0,100.0,0.0,0.0,0.0,0.0,2972.142857142857,3106.4,4067.375,4225.6,305.6635,304.975,315.0175,314.4235,22.0785,20.691,22.0933,21.5796,314.999998,314.999998,324.999988,324.999988,99.55837142857143,99.50743333333334,99.56914285714285,99.54877142857143,0.12150000000000016,-0.0173333333333332,-0.08599999999999997,0.1363333333333332,-0.01833333333333087,-0.051666666666669414,1.5336666666666665,1.5190000000000001,38.991,30.318333333333335,39.083,35.8725,55.574,35.69,60.069,53.296,53.537,34.8015,58.629999999999995,51.59,52.693,34.351,58.507,50.978,-0.11650000000000005,-0.03949999999999987,0.10577500000000001,0.10694000000000001,0.0,219.57,219.60000000000002,216.29666666666668,216.29666666666668,0.0,0.0
35,0.0,1.0,0.0,1.0,1.0,0.0,0.0,1.0,0.0,0.0,1.0,1.1856,26.0,0.0,0.0,0.0,59.999996,0.0,26.0,26.0,26.0,26.0,0.04355555555555557,0.25039999999999996,-0.046700000000000005,291.748,-2.7253,-2.617,-1.6239,-1.5142,-156.45999999999998,215.745,190.19575,0.0,0.0,0.0,0.0,0.07089999999999996,-5.498166666666667,-5.498166666666667,-0.6822,-0.3203333333333333,-0.007750000000000146,-1.1589999999999998,70.291,0.0329,-0.228075,-0.4399999999999995,100.0,1.0,1.0,216.76,0.0,0.0,0.0,0.0,0.0,0.0,0.0,9187.7,0.0,55.0,5.0,253.02333333333334,1.0,0.0,0.0,0.0,0.0,0.0,1.0,0.0,1.7579999999999991,1.7579999999999991,0.0,0.0,1.0,55.0,616.79921,10000.0,85.000001,85.000001,85.000001,85.000001,395.0,0.0,0.0,0.0,1.0,166.665,51.605000000000004,51.605000000000004,46.89,46.89,34.0,-23.197499999999998,27.066,-27.229999999999997,28.72,0.0,1781.928,-0.33500000000000085,100.0,28.206,28.810000000000002,43.709,43.998000000000005,0.0,1.0,100.0,0.0,0.0,0.0,0.0,3173.714285714286,3322.1,4016.5,3983.3,305.365,304.188,315.1195,315.011,22.0875,20.6967,22.1036,21.5887,314.999998,314.999998,324.999988,324.999988,99.55838571428572,99.50743333333334,99.5693,99.54892857142858,0.11324999999999985,-0.02833333333333332,-0.08383333333333332,0.15116666666666667,-0.051666666666669414,-0.04999999999999716,1.558,1.549,39.047,30.354666666666667,39.147,35.929,55.56,35.7285,60.104,53.3535,53.524,34.8375,58.6625,51.6455,52.679,34.3855,58.536,51.032333333333334,-0.10850000000000004,-0.053999999999999826,0.11353500000000001,0.10453000000000001,0.0,219.98000000000002,219.995,216.76,216.76,0.0,0.0
