,ABS Active,ABS Enabled,AID Allow Tire Blankets,AID Auto Blip,AID Auto Clutch,AID Auto Shift,AID Fuel Rate,AID Ideal Line,AID Mech Damage,AID Stability,AID Tire Wear Rate,Air Density,Air Temp,Ballast,Best Lap Delta,Best Lap Time,Brake Bias,Brake Pos,Brake Temp FL,Brake Temp FR,Brake Temp RL,Brake Temp RR,CG Accel Lateral,CG Accel Longitudinal,CG Accel Vertical,CG Height,Camber FL,Camber FR,Camber RL,Camber RR,Car Coord X,Car Coord Y,Car Coord Z,Car Damage Front,Car Damage Left,Car Damage Rear,Car Damage Right,Car Pos Norm,Caster FL,Caster FR,Chassis Pitch Angle,Chassis Pitch Rate,Chassis Roll Angle,Chassis Roll Rate,Chassis Velocity X,Chassis Velocity Y,Chassis Velocity Z,Chassis Yaw Rate,Clutch Pos,DRS Active,DRS Available,Drive Train Speed,ERS Heat Charging,ERS Is Charging,ERS Max Energy,ERS Power Level,ERS Recovery Level,Engine Brake Setting,Engine Limiter,Engine RPM,Flags,Fuel Level,Gear,Ground Speed,HR Sample Clock,In Pit,KERS Charge,KERS Deployed Energy,KERS Input,KERS Max Energy,LR Sample Clock,Lap Invalidated,Lap Time,Lap Time2,Last Lap Time,Last Sector Time,MR Sample Clock,Max Fuel,Max Power,Max RPM,Max Sus Travel FL,Max Sus Travel FR,Max Sus Travel RL,Max Sus Travel RR,Max Torque,Max Turbo Boost,Num Tires Off Track,Penalties Enabled,Position,Raw Data Sample Rate,Ride Height FL,Ride Height FR,Ride Height RL,Ride Height RR,Road Temp,Self Align Torque FL,Self Align Torque FR,Self Align Torque RL,Self Align Torque RR,Session Lap Count,Session Time Left,Steering Angle,Surface Grip,Suspension Travel FL,Suspension Travel FR,Suspension Travel RL,Suspension Travel RR,TC Active,TC Enabled,Throttle Pos,Tire Dirt Level FL,Tire Dirt Level FR,Tire Dirt Level RL,Tire Dirt Level RR,Tire Load FL,Tire Load FR,Tire Load RL,Tire Load RR,Tire Loaded Radius FL,Tire Loaded Radius FR,Tire Loaded Radius RL,Tire Loaded Radius RR,Tire Pressure FL,Tire Pressure FR,Tire Pressure RL,Tire Pressure RR,Tire Radius FL,Tire Radius FR,Tire Radius RL,Tire Radius RR,Tire Rubber Grip FL,Tire Rubber Grip FR,Tire Rubber Grip RL,Tire Rubber Grip RR,Tire Slip Angle FL,Tire Slip Angle FR,Tire Slip Angle RL,Tire Slip Angle RR,Tire Slip Ratio FL,Tire Slip Ratio FR,Tire Slip Ratio RL,Tire Slip Ratio RR,Tire Temp Core FL,Tire Temp Core FR,Tire Temp Core RL,Tire Temp Core RR,Tire Temp Inner FL,Tire Temp Inner FR,Tire Temp Inner RL,Tire Temp Inner RR,Tire Temp Middle FL,Tire Temp Middle FR,Tire Temp Middle RL,Tire Temp Middle RR,Tire Temp Outer FL,Tire Temp Outer FR,Tire Temp Outer RL,Tire Temp Outer RR,Toe In FL,Toe In FR,Toe In RL,Toe In RR,Turbo Boost,Wheel Angular Speed FL,Wheel Angular Speed FR,Wheel Angular Speed RL,Wheel Angular Speed RR,Wind Direction,Wind Speed
0,0.0,1.0,0.0,1.0,1.0,0.0,0.0,1.0,0.0,0.0,1.0,1.1856,26.0,0.0,0.0,0.0,59.99999,0.0,26.0,26.0,26.0,26.0,-0.08375,0.31130000000000013,0.0368,293.93,-2.71685,-2.663111111111111,-1.5114,-1.5593333333333332,-275.62,216.2975,190.987125,0.0,0.0,0.0,0.0,0.0016333333333333755,-5.498166666666667,-5.498166666666667,-0.5497000000000001,1.6025,-0.01088888888888917,-0.18899999999999995,65.511,-0.0351,-0.21705000000000002,0.96,100.0,1.0,1.0,202.24666666666667,0.0,0.0,0.0,0.0,0.0,0.0,0.0,8572.5,0.0,55.0,5.0,235.81,0.0,0.0,0.0,0.0,0.0,0.0,0.0,0.0,0.0030000000000001137,0.0030000000000001137,0.0,0.0,0.0,55.0,616.79921,10000.0,85.0,85.0,85.0,85.0,395.0,0.0,0.0,0.0,1.0,20.0,52.643,52.643,49.515,49.515,34.0,-26.895,23.857999999999997,-30.09,25.247500000000002,0.0,1783.571,0.8500000000000014,100.0,27.407,27.012999999999998,40.495000000000005,40.417,0.0,1.0,100.0,0.0,0.0,0.0,0.0,3061.714285714286,3405.9,4151.222222222223,4029.2,305.4345,304.00025,314.712,314.80525,21.768,20.5104,21.7304,21.2732,314.99999,314.99999,324.99998,324.99998,99.55838571428572,99.50715,99.56365714285714,99.54371428571429,0.0024999999999999467,-0.11749999999999994,-0.1494,0.0665,-0.05333333333332746,-0.06666666666666998,1.538,1.5805,37.05,29.189666666666668,36.815,33.957499999999996,56.105999999999995,34.4095,58.5665,51.1365,54.04,33.6,57.22,49.5155,53.22,33.179,57.1965,48.945,-0.00649999999999995,-0.13949999999999996,0.10166000000000001,0.10333,0.0,205.3,205.22500000000002,202.24666666666667,202.24666666666667,0.0,0.0
1,0.0,1.0,0.0,1.0,1.0,0.0,0.0,1.0,0.0,0.0,1.0,1.1856,26.0,0.0,0.0,0.0,59.999996,0.0,26.0,26.0,26.0,26.0,-0.10200000000000001,0.32140000000000013,0.170025,293.152,-2.6447,-2.759333333333333,-1.5333999999999999,-1.5443333333333333,-272.28,216.29250000000002,190.967125,0.0,0.0,0.0,0.0,0.003566666666666607,-5.498166666666667,-5.498166666666667,-0.49470000000000003,-0.6990000000000001,-0.049555555555555575,-0.836,65.66499999999999,-0.0492,-0.19210000000000002,1.4000000000000004,100.0,1.0,1.0,202.43333333333334,0.0,0.0,0.0,0.0,0.0,0.0,0.0,8580.5,0.0,55.0,5.0,236.36333333333334,1.0,0.0,0.0,0.0,0.0,0.0,0.0,0.0,0.053999999999998494,0.053999999999998494,0.0,0.0,1.0,55.0,616.79921,10000.0,85.000001,85.000001,85.000001,85.000001,395.0,0.0,0.0,0.0,1.0,166.665,53.711,53.711,48.325,48.325,34.0,-26.9425,17.866,-33.865,29.240000000000002,0.0,1783.519,0.9000000000000021,100.0,27.401,26.964,42.75,41.677,0.0,1.0,100.0,0.0,0.0,0.0,0.0,3097.857142857143,2674.5,4254.333333333333,4711.8,305.4875,306.32825,314.41775,313.0885,21.7779,20.5154,21.7412,21.2822,314.999998,314.999998,324.999988,324.999988,99.5584,99.50716666666666,99.5638,99.54385714285715,-0.010499999999999954,-0.14074999999999993,-0.1854,0.04016666666666666,-0.03833333333332689,-0.06333333333333258,1.412,1.453,37.111999999999995,29.221333333333334,36.882999999999996,34.013999999999996,56.09,34.45,58.6135,51.2035,54.025,33.6375,57.263999999999996,49.58,53.204,33.215,57.2375,49.007999999999996,-0.0020000000000000018,-0.14449999999999985,0.104565,0.11041500000000001,0.0,205.74,205.64,202.43333333333334,202.43333333333334,0.0,0.0
2,0.0,1.0,0.0,1.0,1.0,0.0,0.0,1.0,0.0,0.0,1.0,1.1856,26.0,0.0,0.0,0.0,59.999996,0.0,26.0,26.0,26.0,26.0,-0.149625,0.2912000000000001,-0.09415,293.671,-2.5962,-2.8024444444444443,-1.484,-1.6146666666666667,-268.92,216.285,190.94825,0.0,0.0,0.0,0.0,0.00553333333333339,-5.498166666666667,-5.498166666666667,-0.5482,0.04849999999999999,-0.053777777777777924,2.375,65.807,-0.0712,-0.249875,1.6180000000000003,100.0,1.0,1.0,203.33333333333331,0.0,0.0,0.0,0.0,0.0,0.0,0.0,8618.6,0.0,55.0,5.0,236.87666666666667,0.0,0.0,0.0,0.0,0.0,0.0,0.0,0.0,0.10500000000000043,0.10500000000000043,0.0,0.0,0.0,55.0,616.79921,10000.0,85.000001,85.000001,85.000001,85.000001,395.0,0.0,0.0,0.0,1.0,333.33500000000004,52.444,52.444,50.125,50.125,34.0,-29.77,20.278,-29.4225,20.1625,0.0,1783.467,0.740000000000002,100.0,28.379,26.92,42.609,41.352000000000004,0.0,1.0,100.0,0.0,0.0,0.0,0.0,3325.285714285714,2935.5,3776.8888888888887,3676.0,304.5465,305.54125,315.5605,315.78875,21.7881,20.5203,21.7516,21.2909,314.999998,314.999998,324.999988,324.999988,99.5584,99.50718333333333,99.56394285714286,99.54398571428571,-0.023499999999999854,-0.14074999999999993,-0.2206,0.008166666666666666,-0.01833333333333087,-0.02833333333332888,1.6236666666666668,1.688,37.175,29.252,36.947,34.0685,56.078,34.4885,58.6525,51.2625,54.013,33.673,57.3005,49.635999999999996,53.192,33.249,57.271,49.0635,-0.014499999999999957,-0.13149999999999995,0.107785,0.10433500000000001,0.0,206.195,206.05,203.33333333333331,203.33333333333331,0.0,0.0
3,0.0,1.0,0.0,1.0,1.0,0.0,0.0,1.0,0.0,0.0,1.0,1.1856,26.0,0.0,0.0,0.0,59.999996,0.0,26.0,26.0,26.0,26.0,-0.139375,0.32600000000000007,0.08175,293.35,-2.7264,-2.693666666666667,-1.5112,-1.5925555555555557,-265.76,216.2725,190.929625,0.0,0.0,0.0,0.0,0.0073666666666665215,-5.498166666666667,-5.498166666666667,-0.5105000000000001,0.35,-0.008777777777777995,0.44999999999999996,65.951,-0.08610000000000001,-0.20067500000000002,1.2100000000000009,100.0,1.0,1.0,203.45,0.0,0.0,0.0,0.0,0.0,0.0,0.0,8623.5,0.0,55.0,5.0,237.39333333333332,1.0,0.0,0.0,0.0,0.0,0.0,0.0,0.0,0.1529999999999987,0.1529999999999987,0.0,0.0,1.0,55.0,616.79921,10000.0,85.000001,85.000001,85.000001,85.000001,395.0,0.0,0.0,0.0,1.0,166.665,53.452,53.452,48.08,48.08,34.0,-25.9225,18.849999999999998,-34.495,25.0575,0.0,1783.42,0.6099999999999994,100.0,28.001,26.956,42.525999999999996,41.371,0.0,1.0,100.0,0.0,0.0,0.0,0.0,2866.714285714286,2920.6,4276.888888888889,4280.9,306.019,305.54775,314.33675,314.2445,21.7974,20.525199999999998,21.7614,21.2992,314.999998,314.999998,324.999988,324.999988,99.55841428571429,99.5072,99.56408571428571,99.54412857142857,-0.02224999999999988,-0.15074999999999994,-0.2052,0.01666666666666667,-0.021666666666668277,-0.046666666666666856,1.4863333333333335,1.5354999999999999,37.233000000000004,29.282666666666664,37.009,34.12,56.063,34.528999999999996,58.6915,51.323,53.998999999999995,33.71,57.3365,49.694,53.177,33.284,57.3045,49.12,-0.026999999999999913,-0.12250000000000005,0.10516500000000001,0.10395000000000001,0.0,206.635,206.54500000000002,203.45,203.45,0.0,0.0
4,0.0,1.0,0.0,1.0,1.0,0.0,0.0,1.0,0.0,0.0,1.0,1.1856,26.0,0.0,0.0,0.0,59.999996,0.0,26.0,26.0,26.0,26.0,-0.14100000000000001,0.26780000000000004,-0.031025,293.61,-2.66165,-2.742111111111111,-1.5272000000000001,-1.599222222222222,-262.39,216.2575,190.91,0.0,0.0,0.0,0.0,0.009333333333333305,-5.498166666666667,-5.498166666666667,-0.5441,-0.7370000000000001,-0.07933333333333348,-1.861,66.096,-0.0864,-0.2378,1.1600000000000001,100.0,1.0,1.0,204.05666666666667,0.0,0.0,0.0,0.0,0.0,0.0,0.0,8649.2,0.0,55.0,5.0,237.92000000000002,0.0,0.0,0.0,0.0,0.0,0.0,0.0,0.0,0.20400000000000063,0.20400000000000063,0.0,0.0,0.0,55.0,616.79921,10000.0,85.000001,85.000001,85.000001,85.000001,395.0,0.0,0.0,0.0,1.0,166.665,53.055,53.055,48.751999999999995,48.751999999999995,34.0,-29.45,18.846,-33.1325,20.985,0.0,1783.369,0.5800000000000018,100.0,27.729,26.936,42.801,41.506,0.0,1.0,100.0,0.0,0.0,0.0,0.0,3257.714285714286,2870.5,4102.888888888889,3677.7,305.0645,305.53975,314.7995,315.638,21.8071,20.5303,21.7719,21.308,314.999998,314.999998,324.999988,324.999988,99.55841428571429,99.50721666666666,99.56422857142857,99.54427142857143,-0.02849999999999997,-0.15574999999999994,-0.215,0.01983333333333333,-0.05666666666667197,-0.051666666666669414,1.554,1.5915,37.294,29.314333333333334,37.075,34.1755,56.046,34.570499999999996,58.7345,51.384,53.983000000000004,33.7485,57.376999999999995,49.7525,53.16,33.321,57.3425,49.177,-0.03200000000000003,-0.12449999999999983,0.10665500000000001,0.108505,0.0,207.06,206.95499999999998,204.05666666666667,204.05666666666667,0.0,0.0
5,0.0,1.0,0.0,1.0,1.0,0.0,0.0,1.0,0.0,0.0,1.0,1.1856,26.0,0.0,0.0,0.0,59.999996,0.0,26.0,26.0,26.0,26.0,-0.1345,0.3185,-0.005325,293.64,-2.66795,-2.769222222222222,-1.5085000000000002,-1.5876666666666668,-259.02,216.24,190.889625,0.0,0.0,0.0,0.0,0.011266666666666536,-5.498166666666667,-5.498166666666667,-0.5358,0.4385,-0.08166666666666655,1.1680000000000001,66.244,-0.0906,-0.213425,1.0700000000000003,100.0,1.0,1.0,204.44333333333333,0.0,0.0,0.0,0.0,0.0,0.0,0.0,8665.6,0.0,55.0,5.0,238.44666666666666,1.0,0.0,0.0,0.0,0.0,0.0,0.0,0.0,0.254999999999999,0.254999999999999,0.0,0.0,1.0,55.0,616.79921,10000.0,85.000001,85.000001,85.000001,85.000001,395.0,0.0,0.0,0.0,1.0,333.33500000000004,53.452,53.452,48.981,48.981,34.0,-27.07,19.83,-33.129999999999995,22.975,0.0,1783.318,0.1750000000000007,100.0,27.967,26.628,42.64,41.101,0.0,1.0,100.0,0.0,0.0,0.0,0.0,3089.4285714285716,2847.8,4136.444444444444,4092.6000000000004,305.36,305.835,314.74425,314.729,21.817,20.5354,21.7823,21.3167,314.999998,314.999998,324.999988,324.999988,99.55841428571429,99.50723333333333,99.56437142857143,99.5444,-0.004999999999999893,-0.12675000000000003,-0.2132,0.0075,-0.030000000000001137,-0.05833333333333002,1.5466666666666666,1.592,37.357,29.346333333333334,37.14,34.2295,56.032,34.6115,58.7765,51.443,53.97,33.786,57.416,49.809,53.146,33.357,57.3785,49.2325,-0.056499999999999995,-0.08599999999999985,0.10498,0.10631000000000002,0.0,207.535,207.46,204.44333333333333,204.44333333333333,0.0,0.0
6,0.0,1.0,0.0,1.0,1.0,0.0,0.0,1.0,0.0,0.0,1.0,1.1856,26.0,0.0,0.0,0.0,59.999996,0.0,26.0,26.0,26.0,26.0,-0.117125,0.2815000000000001,0.0115,293.411,-2.6361,-2.743888888888889,-1.5525,-1.5836666666666668,-255.84,216.22,190.87025,0.0,0.0,0.0,0.0,0.01313333333333333,-5.498166666666667,-5.498166666666667,-0.5309,0.10599999999999998,-0.06188888888888888,0.958,66.381,-0.0835,-0.21455000000000002,0.6760000000000002,100.0,1.0,1.0,204.86,0.0,0.0,0.0,0.0,0.0,0.0,0.0,8683.3,0.0,55.0,5.0,238.94333333333333,0.0,0.0,0.0,0.0,0.0,0.0,0.0,0.0,0.3030000000000008,0.3030000000000008,0.0,0.0,0.0,55.0,616.79921,10000.0,85.000001,85.000001,85.000001,85.000001,395.0,0.0,0.0,0.0,1.0,166.665,53.085,53.085,48.721000000000004,48.721000000000004,34.0,-26.795,21.256,-32.245000000000005,23.925,0.0,1783.271,0.08000000000000185,100.0,27.854,26.734,42.746,41.482,0.0,1.0,100.0,0.0,0.0,0.0,0.0,3109.0,3002.9,4081.3333333333335,4050.1000000000004,305.2455,305.323,314.85875,314.82775,21.8263,20.5402,21.7922,21.3251,314.999998,314.999998,324.999988,324.999988,99.55841428571429,99.50725,99.5645,99.54454285714286,0.0017499999999999183,-0.118,-0.1936,0.0305,-0.036666666666668846,-0.07499999999999574,1.5486666666666666,1.561,37.414,29.376666666666665,37.201,34.282,56.018,34.6495,58.816,51.502,53.956,33.821,57.453,49.8655,53.132,33.39,57.413,49.288,-0.06699999999999995,-0.08250000000000002,0.09990500000000001,0.11178500000000001,0.0,207.95,207.9,204.86,204.86,0.0,0.0
7,0.0,1.0,0.0,1.0,1.0,0.0,0.0,1.0,0.0,0.0,1.0,1.1856,26.0,0.0,0.0,0.0,59.999996,0.0,26.0,26.0,26.0,26.0,-0.080375,0.2876000000000001,0.02135,293.167,-2.6149,-2.7270000000000003,-1.5139,-1.623888888888889,-252.45,216.195,190.849875,0.0,0.0,0.0,0.0,0.015100000000000002,-5.498166666666667,-5.498166666666667,-0.5347000000000001,-0.019000000000000128,-0.051444444444444404,-0.18999999999999995,66.527,-0.0644,-0.2247,0.3860000000000001,100.0,1.0,1.0,205.29666666666668,0.0,0.0,0.0,0.0,0.0,0.0,0.0,8701.8,0.0,55.0,5.0,239.47,1.0,0.0,0.0,0.0,0.0,0.0,0.0,0.0,0.3539999999999992,0.3539999999999992,0.0,0.0,1.0,55.0,616.79921,10000.0,85.000001,85.000001,85.000001,85.000001,395.0,0.0,0.0,0.0,1.0,166.665,52.78,52.78,48.828,48.828,34.0,-27.064999999999998,21.8,-31.6125,25.2075,0.0,1783.22,-0.1999999999999993,100.0,27.802,26.942,42.698,41.846000000000004,0.0,1.0,100.0,0.0,0.0,0.0,0.0,3298.714285714286,2972.2,4096.0,4029.4,304.8095,305.237,314.83575,314.729,21.836100000000002,20.5454,21.8027,21.334,314.999998,314.999998,324.999988,324.999988,99.55841428571429,99.50726666666667,99.56465714285714,99.54467142857143,0.029749999999999943,-0.09950000000000003,-0.1856,0.042333333333333334,-0.041666666666671404,-0.046666666666666856,1.52,1.532,37.476,29.409,37.266999999999996,34.3375,56.004000000000005,34.689,58.8575,51.5645,53.943,33.8575,57.492,49.9255,53.117,33.425,57.448499999999996,49.3465,-0.09299999999999997,-0.05549999999999988,0.10541500000000001,0.10665000000000001,0.0,208.39499999999998,208.35000000000002,205.29666666666668,205.29666666666668,0.0,0.0
8,0.0,1.0,0.0,1.0,1.0,0.0,0.0,1.0,0.0,0.0,1.0,1.1856,26.0,0.0,0.0,0.0,59.999996,0.0,26.0,26.0,26.0,26.0,-0.03725,0.278,-0.041,293.503,-2.70025,-2.7186666666666666,-1.5006,-1.5723333333333334,-248.85,216.16750000000002,190.828,0.0,0.0,0.0,0.0,0.017199999999999993,-5.498166666666667,-5.498166666666667,-0.5366000000000001,-0.5489999999999999,-0.032333333333333325,-0.569,66.682,-0.0453,-0.215975,0.009999999999999787,100.0,1.0,1.0,205.71,0.0,0.0,0.0,0.0,0.0,0.0,0.0,8719.3,0.0,55.0,5.0,240.02666666666667,0.0,0.0,0.0,0.0,0.0,0.0,0.0,0.0,0.40800000000000125,0.40800000000000125,0.0,0.0,0.0,55.0,616.79921,10000.0,85.000001,85.000001,85.000001,85.000001,395.0,0.0,0.0,0.0,1.0,166.665,53.635,53.635,48.218,48.218,34.0,-24.2425,22.259999999999998,-30.485,26.0225,0.0,1783.165,-0.3550000000000004,100.0,27.377,26.916,42.676,41.988,0.0,1.0,100.0,0.0,0.0,0.0,0.0,2994.5714285714284,2923.6,4136.777777777777,4075.9,305.8685,305.411,314.721,314.61375,21.8462,20.5509,21.8137,21.3434,314.999998,314.999998,324.999988,324.999988,99.55842857142858,99.50726666666667,99.5648,99.54482857142857,0.04200000000000026,-0.07574999999999998,-0.15819999999999998,0.06366666666666666,-0.061666666666667425,-0.054999999999999716,1.513,1.52,37.539,29.443333333333335,37.335,34.3965,55.986000000000004,34.730000000000004,58.900999999999996,51.6305,53.926,33.894999999999996,57.532,49.989,53.1,33.461,57.486,49.408500000000004,-0.10050000000000003,-0.04600000000000026,0.102205,0.105925,0.0,208.85500000000002,208.845,205.71,205.71,0.0,0.0
9,0.0,1.0,0.0,1.0,1.0,0.0,0.0,1.0,0.0,0.0,1.0,1.1856,26.0,0.0,0.0,0.0,59.999996,0.0,26.0,26.0,26.0,26.0,-0.027625,0.29510000000000014,0.028300000000000002,293.121,-2.68205,-2.723111111111111,-1.5527000000000002,-1.5562222222222222,-245.85,216.14499999999998,190.809375,0.0,0.0,0.0,0.0,0.018933333333333358,-5.498166666666667,-5.498166666666667,-0.5426,0.612,-0.033444444444444166,0.815,66.807,-0.0284,-0.216175,-0.16199999999999992,100.0,1.0,1.0,206.21333333333334,0.0,0.0,0.0,0.0,0.0,0.0,0.0,8740.7,0.0,55.0,5.0,240.4766666666667,1.0,0.0,0.0,0.0,0.0,0.0,0.0,0.0,0.4529999999999994,0.4529999999999994,0.0,0.0,1.0,55.0,616.79921,10000.0,85.000001,85.000001,85.000001,85.000001,395.0,0.0,0.0,0.0,1.0,333.33500000000004,52.383,52.383,49.164,49.164,34.0,-25.4225,24.934,-27.75,27.1875,0.0,1783.119,-0.48999999999999844,100.0,27.977,27.193,42.408,41.876,0.0,1.0,100.0,0.0,0.0,0.0,0.0,3290.5714285714284,3103.5,3968.8888888888887,4070.4,304.7765,304.96075,315.168,314.78625,21.8549,20.5557,21.8228,21.3512,314.999998,314.999998,324.999988,324.999988,99.55842857142858,99.50728333333333,99.56492857142857,99.54495714285714,0.08024999999999993,-0.047250000000000014,-0.1264,0.09983333333333333,-0.05333333333332746,-0.054999999999999716,1.5903333333333334,1.5715,37.593,29.473,37.391999999999996,34.445499999999996,55.976,34.7645,58.934,51.684,53.916,33.927,57.563,50.04,53.089,33.492,57.5145,49.4585,-0.11699999999999999,-0.038000000000000256,0.104315,0.11068000000000001,0.0,209.25,209.235,206.21333333333334,206.21333333333334,0.0,0.0
10,0.0,1.0,0.0,1.0,1.0,0.0,0.0,1.0,0.0,0.0,1.0,1.1856,26.0,0.0,0.0,0.0,59.999996,0.0,26.0,26.0,26.0,26.0,-0.0053750000000000004,0.28049999999999997,-0.008975,292.938,-2.66165,-2.6977777777777776,-1.5354,-1.5341111111111112,-242.44,216.1175,190.788625,0.0,0.0,0.0,0.0,0.02093333333333336,-5.498166666666667,-5.498166666666667,-0.5184,-0.40700000000000003,0.007555555555555538,0.32899999999999996,66.95400000000001,-0.009000000000000001,-0.207425,-0.48599999999999977,100.0,1.0,1.0,206.44666666666666,0.0,0.0,0.0,0.0,0.0,0.0,0.0,8750.6,0.0,55.0,5.0,241.00333333333333,0.0,0.0,0.0,0.0,0.0,0.0,1.0,0.0,0.5040000000000013,0.5040000000000013,0.0,0.0,0.0,55.0,616.79921,10000.0,85.000001,85.000001,85.000001,85.000001,395.0,0.0,0.0,0.0,1.0,333.33500000000004,53.421,53.421,47.592,47.592,34.0,-21.2625,22.951999999999998,-30.4175,29.1375,0.0,1783.068,-0.6149999999999984,100.0,27.738,27.377,42.781,42.734,0.0,1.0,100.0,0.0,0.0,0.0,0.0,2888.5714285714284,2874.0,4322.444444444444,4269.4,306.0825,305.53175,314.27775,314.15575,21.8645,20.5609,21.8333,21.3604,314.999998,314.999998,324.999988,324.999988,99.55844285714285,99.5073,99.56507142857143,99.5451,0.08749999999999991,-0.04249999999999998,-0.11620000000000001,0.1,-0.045000000000001705,-0.03499999999999659,1.5026666666666666,1.4715,37.653,29.505666666666666,37.458,34.501999999999995,55.963,34.8015,58.977000000000004,51.7495,53.903999999999996,33.961,57.603,50.103,53.076,33.5245,57.551,49.5205,-0.12450000000000006,-0.026000000000000245,0.104175,0.10096000000000001,0.0,209.66,209.69,206.44666666666666,206.44666666666666,0.0,0.0
11,0.0,1.0,0.0,1.0,1.0,0.0,0.0,1.0,0.0,0.0,1.0,1.1856,26.0,0.0,0.0,0.0,59.999996,0.0,26.0,26.0,26.0,26.0,0.029875000000000002,0.26890000000000014,-0.070575,293.488,-2.7043,-2.687222222222222,-1.5897999999999999,-1.5254444444444444,-239.01999999999998,216.09,190.767875,0.0,0.0,0.0,0.0,0.022599999999999953,-5.498166666666667,-5.498166666666667,-0.5615,-0.21150000000000002,0.03222222222222215,0.30400000000000005,67.092,0.0131,-0.23765,-0.6660000000000004,100.0,1.0,1.0,207.19333333333333,0.0,0.0,0.0,0.0,0.0,0.0,0.0,8782.2,0.0,55.0,5.0,241.50666666666666,1.0,0.0,0.0,0.0,0.0,0.0,1.0,0.0,0.5549999999999997,0.5549999999999997,0.0,0.0,1.0,55.0,616.79921,10000.0,85.000001,85.000001,85.000001,85.000001,395.0,0.0,0.0,0.0,1.0,166.665,52.795,52.795,49.24,49.24,34.0,-21.775,26.456,-24.064999999999998,27.025,0.0,1783.018,-0.6400000000000006,100.0,27.597,27.434,42.368,42.568,0.0,1.0,100.0,0.0,0.0,0.0,0.0,3006.4285714285716,3184.8,3687.222222222222,3874.8,305.6465,304.71475,315.8815,315.2255,21.874,20.5663,21.8435,21.3693,314.999998,314.999998,324.999988,324.999988,99.55845714285714,99.5073,99.56521428571429,99.54524285714285,0.11125000000000007,-0.021499999999999964,-0.09179999999999999,0.1405,-0.054999999999999716,-0.060000000000002274,1.6406666666666667,1.6175,37.712,29.539666666666665,37.522,34.558,55.949,34.8395,59.013,51.811,53.89,33.996,57.6365,50.162,53.062,33.558,57.5815,49.5785,-0.1279999999999999,-0.03000000000000025,0.11224500000000001,0.10618500000000002,0.0,210.07999999999998,210.125,207.19333333333333,207.19333333333333,0.0,0.0
12,0.0,1.0,0.0,1.0,1.0,0.0,0.0,1.0,0.0,0.0,1.0,1.1856,26.0,0.0,0.0,0.0,59.999996,0.0,26.0,26.0,26.0,26.0,0.045375,0.29500000000000015,0.012775,292.908,-2.754,-2.686,-1.5501,-1.5278888888888889,-235.79,216.065,190.747125,0.0,0.0,0.0,0.0,0.025466666666666526,-5.498166666666667,-5.498166666666667,-0.5457000000000001,0.2985,0.017555555555555546,0.6580000000000001,67.229,0.0315,-0.20585,-0.7460000000000004,100.0,1.0,1.0,207.38,0.0,0.0,0.0,0.0,0.0,0.0,0.0,8790.0,0.0,55.0,5.0,241.99666666666667,0.0,0.0,0.0,0.0,0.0,0.0,1.0,0.0,0.602999999999998,0.602999999999998,0.0,0.0,0.0,55.0,616.79921,10000.0,85.000001,85.000001,85.000001,85.000001,395.0,0.0,0.0,0.0,1.0,333.33500000000004,52.795,52.795,47.897,47.897,34.0,-21.6325,26.98,-26.605,31.415,0.0,1782.968,-0.6449999999999996,100.0,27.558,27.589,42.385,42.491,0.0,1.0,100.0,0.0,0.0,0.0,0.0,3021.857142857143,3193.8,4173.555555555556,4226.9,305.622,304.72025,314.6415,314.39725,21.8829,20.5715,21.8533,21.3777,314.999998,314.999998,324.999988,324.999988,99.55847142857142,99.5073,99.56534285714285,99.54538571428571,0.1280000000000001,-0.010000000000000009,-0.066,0.15816666666666665,-0.03999999999999915,-0.03999999999999915,1.5316666666666667,1.509,37.768,29.572,37.583,34.6105,55.938,34.8755,59.05,51.8695,53.879000000000005,34.028999999999996,57.671,50.218,53.05,33.5895,57.6135,49.6335,-0.12199999999999989,-0.03000000000000025,0.11099,0.10889000000000001,0.0,210.51,210.565,207.38,207.38,0.0,0.0
13,0.0,1.0,0.0,1.0,1.0,0.0,0.0,1.0,0.0,0.0,1.0,1.1856,26.0,0.0,0.0,0.0,59.999996,0.0,26.0,26.0,26.0,26.0,0.07525,0.28400000000000003,0.0334,292.526,-2.73755,-2.6705555555555556,-1.6236000000000002,-1.5086666666666668,-232.36,216.04000000000002,190.725375,0.0,0.0,0.0,0.0,0.026766666666666605,-5.498166666666667,-5.498166666666667,-0.5392,-0.08499999999999996,0.02122222222222203,-0.478,67.372,0.0403,-0.2155,-0.7920000000000007,100.0,1.0,1.0,207.76666666666665,0.0,0.0,0.0,0.0,0.0,0.0,0.0,8806.5,0.0,55.0,5.0,242.51,1.0,0.0,0.0,0.0,0.0,0.0,1.0,0.0,0.6539999999999999,0.6539999999999999,0.0,0.0,1.0,55.0,616.79921,10000.0,85.000001,85.000001,85.000001,85.000001,395.0,0.0,0.0,0.0,1.0,333.33500000000004,52.46,52.46,47.867,47.867,34.0,-21.835,26.887999999999998,-28.315,31.6525,0.0,1782.917,-0.8350000000000009,100.0,27.675,27.956,42.506,43.098,0.0,1.0,100.0,0.0,0.0,0.0,0.0,3158.142857142857,3089.4,4215.0,4287.1,305.354,304.8495,314.61825,314.145,21.8925,20.576999999999998,21.8637,21.3868,314.999998,314.999998,324.999988,324.999988,99.55848571428571,99.5073,99.56548571428571,99.54551428571429,0.14175000000000004,0.010000000000000009,-0.0722,0.152,-0.060000000000002274,-0.046666666666666856,1.506,1.4829999999999999,37.828,29.606333333333332,37.647999999999996,34.667500000000004,55.928,34.9135,59.0905,51.935,53.870000000000005,34.064499999999995,57.7085,50.281,53.039,33.6235,57.647999999999996,49.695499999999996,-0.14349999999999996,-0.00749999999999984,0.11036000000000001,0.10220000000000001,0.0,210.965,211.0,207.76666666666665,207.76666666666665,0.0,0.0
14,0.0,1.0,0.0,1.0,1.0,0.0,0.0,1.0,0.0,0.0,1.0,1.1856,26.0,0.0,0.0,0.0,59.999996,0.0,26.0,26.0,26.0,26.0,0.105625,0.2835000000000001,-0.010625,292.77,-2.73685,-2.6100000000000003,-1.6019,-1.5094444444444444,-228.72,216.015,190.702875,0.0,0.0,0.0,0.0,0.028899999999999926,-5.498166666666667,-5.498166666666667,-0.5484,-0.13000000000000012,0.05288888888888876,-0.14600000000000002,67.52,0.0526,-0.227775,-0.9820000000000002,100.0,1.0,1.0,208.30666666666667,0.0,0.0,0.0,0.0,0.0,0.0,0.0,8829.3,0.0,55.0,5.0,243.04333333333335,0.0,0.0,0.0,0.0,0.0,0.0,1.0,0.0,0.7079999999999984,0.7079999999999984,0.0,0.0,0.0,55.0,616.79921,10000.0,85.000001,85.000001,85.000001,85.000001,395.0,0.0,0.0,0.0,1.0,166.665,52.597,52.597,48.065,48.065,34.0,-20.3,27.578,-25.18,31.2425,0.0,1782.866,-0.9600000000000009,100.0,27.529,28.041,42.432,43.314,0.0,1.0,100.0,0.0,0.0,0.0,0.0,3020.5714285714284,3177.7,3992.3333333333335,4170.4,305.7575,304.596,315.127,314.45525,21.9026,20.5829,21.8747,21.3964,314.999998,314.999998,324.999988,324.999988,99.55851428571428,99.50731666666667,99.56564285714286,99.54567142857142,0.15225,0.018750000000000044,-0.0546,0.16783333333333333,-0.041666666666671404,-0.046666666666666856,1.559,1.519,37.891,29.643,37.717,34.728,55.918,34.954,59.1305,52.003,53.86,34.102000000000004,57.746,50.3465,53.028,33.6595,57.682,49.7595,-0.15449999999999986,-0.0040000000000000036,0.10852500000000001,0.10593500000000002,0.0,211.4,211.45499999999998,208.30666666666667,208.30666666666667,0.0,0.0
15,0.0,1.0,0.0,1.0,1.0,0.0,0.0,1.0,0.0,0.0,1.0,1.1856,26.0,0.0,0.0,0.0,59.999996,0.0,26.0,26.0,26.0,26.0,0.108125,0.2862,0.01195,292.801,-2.71185,-2.574666666666667,-1.6306,-1.453,-225.68,215.9975,190.683875,0.0,0.0,0.0,0.0,0.03066666666666651,-5.498166666666667,-5.498166666666667,-0.5396000000000001,0.27049999999999996,0.08411111111111103,1.0499999999999998,67.643,0.06470000000000001,-0.209575,-1.2000000000000002,100.0,1.0,1.0,208.67333333333335,0.0,0.0,0.0,0.0,0.0,0.0,0.0,8845.0,0.0,55.0,5.0,243.48666666666668,1.0,0.0,0.0,0.0,0.0,0.0,1.0,0.0,0.7530000000000001,0.7530000000000001,0.0,0.0,1.0,55.0,616.79921,10000.0,85.000001,85.000001,85.000001,85.000001,395.0,0.0,0.0,0.0,1.0,333.33500000000004,52.795,52.795,48.157,48.157,34.0,-17.855,28.25,-24.02,34.265,0.0,1782.819,-0.9699999999999989,100.0,27.697,27.917,42.278,43.266,0.0,1.0,100.0,0.0,0.0,0.0,0.0,2793.0,3236.4,3940.8888888888887,4398.3,306.224,304.58825,315.2265,314.00475,21.911,20.5878,21.8837,21.4045,314.999998,314.999998,324.999988,324.999988,99.55851428571428,99.50731666666667,99.56577142857142,99.5458,0.1692499999999999,0.03374999999999995,-0.030600000000000002,0.20266666666666666,-0.05333333333332746,-0.05333333333332746,1.5593333333333332,1.51,37.943,29.673666666666666,37.772999999999996,34.778,55.909,34.9885,59.163,52.06,53.852000000000004,34.134,57.7755,50.4015,53.019,33.69,57.709,49.8135,-0.1499999999999999,-0.008000000000000007,0.108725,0.11433000000000001,0.0,211.805,211.87,208.67333333333335,208.67333333333335,0.0,0.0
16,0.0,1.0,0.0,1.0,1.0,0.0,0.0,1.0,0.0,0.0,1.0,1.1856,26.0,0.0,0.0,0.0,59.999996,0.0,26.0,26.0,26.0,26.0,0.130125,0.2715000000000001,-0.0492,292.877,-2.8078,-2.579777777777778,-1.6019,-1.4533333333333334,-222.22,215.97750000000002,190.661875,0.0,0.0,0.0,0.0,0.03266666666666651,-5.498166666666667,-5.498166666666667,-0.5603,-0.692,0.0685555555555557,-1.041,67.78399999999999,0.0758,-0.22575,-1.2220000000000004,100.0,1.0,1.0,209.09333333333333,0.0,0.0,0.0,0.0,0.0,0.0,0.0,8862.7,0.0,55.0,5.0,243.99333333333334,0.0,0.0,0.0,0.0,0.0,0.0,1.0,0.0,0.8039999999999985,0.8039999999999985,0.0,0.0,0.0,55.0,616.79921,10000.0,85.000001,85.000001,85.000001,85.000001,395.0,0.0,0.0,0.0,1.0,333.33500000000004,52.765,52.765,47.928,47.928,34.0,-20.099999999999998,28.488,-23.595,32.21,0.0,1782.768,-0.8900000000000006,100.0,27.151,28.118000000000002,42.426,43.439,0.0,1.0,100.0,0.0,0.0,0.0,0.0,3009.285714285714,3196.2,3960.5555555555557,4140.1,305.8945,304.565,315.21875,314.5465,21.9202,20.5934,21.8941,21.4136,314.999998,314.999998,324.999988,324.999988,99.55854285714285,99.50731666666667,99.56591428571429,99.54595714285715,0.16749999999999998,0.04325000000000001,-0.028399999999999998,0.20766666666666667,-0.051666666666669414,-0.03833333333332689,1.568,1.5185,38.001000000000005,29.708666666666666,37.838,34.835,55.897,35.0285,59.2025,52.124,53.84,34.170500000000004,57.8125,50.463499999999996,53.006,33.7255,57.7425,49.8745,-0.14849999999999985,0.0029999999999998916,0.10949,0.11657000000000001,0.0,212.185,212.26999999999998,209.09333333333333,209.09333333333333,0.0,0.0
17,0.0,1.0,0.0,1.0,1.0,0.0,0.0,1.0,0.0,0.0,1.0,1.1856,26.0,0.0,0.0,0.0,59.999996,0.0,26.0,26.0,26.0,26.0,0.114,0.2842,-0.0253,292.542,-2.7648,-2.567,-1.6401,-1.4757777777777779,-218.76,215.965,190.63925,0.0,0.0,0.0,0.0,0.03466666666666651,-5.498166666666667,-5.498166666666667,-0.5493,0.5285,0.04988888888888887,0.7190000000000001,67.922,0.0795,-0.20445000000000002,-1.194,100.0,1.0,1.0,209.49666666666667,0.0,0.0,0.0,0.0,0.0,0.0,0.0,8879.8,0.0,55.0,5.0,244.49,1.0,0.0,0.0,0.0,0.0,0.0,1.0,0.0,0.8550000000000004,0.8550000000000004,0.0,0.0,1.0,55.0,616.79921,10000.0,85.000001,85.000001,85.000001,85.000001,395.0,0.0,0.0,0.0,1.0,166.665,52.521,52.521,47.852000000000004,47.852000000000004,34.0,-18.89,28.323999999999998,-25.3825,34.0975,0.0,1782.718,-0.9699999999999989,100.0,27.782,28.235,42.263,43.322,0.0,1.0,100.0,0.0,0.0,0.0,0.0,2979.142857142857,3155.5,4200.222222222223,4322.6,305.763,304.861,314.69,314.2325,21.9297,20.5991,21.9043,21.4226,314.999998,314.999998,324.999988,324.999988,99.55855714285714,99.50731666666667,99.56605714285715,99.5461,0.18674999999999997,0.05725000000000002,-0.018000000000000002,0.20683333333333334,-0.04333333333332945,-0.03499999999999659,1.539,1.5005,38.061,29.744,37.902,34.8915,55.888999999999996,35.07,59.239,52.1875,53.832,34.209,57.846000000000004,50.5245,52.997,33.7625,57.772999999999996,49.9345,-0.15599999999999992,-0.0030000000000001137,0.113195,0.10770500000000001,0.0,212.655,212.73000000000002,209.49666666666667,209.49666666666667,0.0,0.0
18,0.0,1.0,0.0,1.0,1.0,0.0,0.0,1.0,0.0,0.0,1.0,1.1856,26.0,0.0,0.0,0.0,59.999996,0.0,26.0,26.0,26.0,26.0,0.11825000000000001,0.2731000000000001,-0.017400000000000002,292.496,-2.7966,-2.539888888888889,-1.6562000000000001,-1.4232222222222222,-215.5,215.9525,190.618125,0.0,0.0,0.0,0.0,0.036566666666666525,-5.498166666666667,-5.498166666666667,-0.5596,-0.5415000000000001,0.07333333333333325,1.1,68.05199999999999,0.0834,-0.222025,-1.2579999999999991,100.0,1.0,1.0,209.92000000000002,0.0,0.0,0.0,0.0,0.0,0.0,0.0,8897.7,0.0,55.0,5.0,244.96,0.0,0.0,0.0,0.0,0.0,0.0,1.0,0.0,0.9029999999999987,0.9029999999999987,0.0,0.0,0.0,55.0,616.79921,10000.0,85.000001,85.000001,85.000001,85.000001,395.0,0.0,0.0,0.0,1.0,166.665,52.414,52.414,47.714,47.714,34.0,-19.49,29.823999999999998,-24.0875,32.8925,0.0,1782.67,-0.8900000000000006,100.0,27.578,28.088,42.607,43.759,0.0,1.0,100.0,0.0,0.0,0.0,0.0,2979.285714285714,3370.7,4004.8888888888887,4221.2,305.8315,304.2735,315.0945,314.43875,21.9386,20.6043,21.9141,21.4313,314.999998,314.999998,324.999988,324.999988,99.55858571428571,99.50733333333334,99.56618571428571,99.54624285714286,0.17799999999999994,0.04849999999999999,-0.016,0.21566666666666667,-0.023333333333326323,-0.046666666666666856,1.558,1.5075,38.116,29.777,37.963,34.946,55.879999999999995,35.1075,59.275999999999996,52.2495,53.823,34.244,57.8805,50.584,52.986999999999995,33.795500000000004,57.8045,49.993,-0.14549999999999996,-0.0034999999999998366,0.11253,0.104205,0.0,213.01999999999998,213.10000000000002,209.92000000000002,209.92000000000002,0.0,0.0
19,0.0,1.0,0.0,1.0,1.0,0.0,0.0,1.0,0.0,0.0,1.0,1.1856,26.0,0.0,0.0,0.0,59.999996,0.0,26.0,26.0,26.0,26.0,0.093,0.2884,0.051425000000000005,291.916,-2.7118,-2.641111111111111,-1.6626,-1.4156666666666669,-211.82,215.945,190.59425,0.0,0.0,0.0,0.0,0.0387333333333334,-5.498166666666667,-5.498166666666667,-0.5478000000000001,0.8634999999999999,0.07222222222222219,0.44500000000000006,68.19800000000001,0.09140000000000001,-0.20897500000000002,-0.8860000000000001,100.0,1.0,1.0,210.30333333333334,0.0,0.0,0.0,0.0,0.0,0.0,0.0,8914.0,0.0,55.0,5.0,245.48333333333335,1.0,0.0,0.0,0.0,0.0,0.0,1.0,0.0,0.9570000000000007,0.9570000000000007,0.0,0.0,1.0,55.0,616.79921,10000.0,85.000001,85.000001,85.000001,85.000001,395.0,0.0,0.0,0.0,1.0,166.665,51.757999999999996,51.757999999999996,47.348,47.348,34.0,-20.9025,28.38,-26.0575,35.46,0.0,1782.616,0.02500000000000213,100.0,28.161,28.603,42.44,43.721000000000004,0.0,1.0,100.0,0.0,0.0,0.0,0.0,3001.0,3310.4,4220.0,4485.3,305.579,304.159,314.62825,313.84975,21.9487,20.610500000000002,21.925,21.441,314.999998,314.999998,324.999988,324.999988,99.5586,99.50733333333334,99.56634285714286,99.5464,0.13549999999999995,-0.0014999999999999458,-0.0202,0.21966666666666665,-0.03833333333332689,-0.06666666666666998,1.5273333333333334,1.5025,38.179,29.815666666666665,38.031,35.0065,55.870999999999995,35.1515,59.315,52.317499999999995,53.815,34.2845,57.9165,50.65,52.977000000000004,33.835,57.837,50.058,-0.08299999999999996,-0.07100000000000017,0.11456000000000001,0.11262000000000001,0.0,213.525,213.61,210.30333333333334,210.30333333333334,0.0,0.0
20,0.0,1.0,0.0,1.0,1.0,0.0,0.0,1.0,0.0,0.0,1.0,1.1856,26.0,0.0,0.0,0.0,59.999996,0.0,26.0,26.0,26.0,26.0,0.077,0.26570000000000005,-0.017525000000000002,292.374,-2.7962,-2.6126666666666667,-1.5707,-1.5536666666666668,-208.34,215.94,190.571875,0.0,0.0,0.0,0.0,0.0407333333333334,-5.498166666666667,-5.498166666666667,-0.5558000000000001,-1.1255000000000002,0.048222222222222166,-1.4020000000000001,68.337,0.0747,-0.223975,-0.02400000000000002,100.0,1.0,1.0,210.67333333333335,0.0,0.0,0.0,0.0,0.0,0.0,0.0,8929.6,0.0,55.0,5.0,245.98666666666668,0.0,0.0,0.0,0.0,0.0,0.0,0.0,0.0,1.0079999999999991,1.0079999999999991,0.0,0.0,0.0,55.0,616.79921,10000.0,85.000001,85.000001,85.000001,85.000001,395.0,0.0,0.0,0.0,1.0,166.665,52.826,52.826,47.043,47.043,34.0,-22.8825,24.204,-26.005,32.769999999999996,0.0,1782.565,0.4400000000000013,100.0,27.431,28.254,43.109,44.089,0.0,1.0,100.0,0.0,0.0,0.0,0.0,2998.5714285714284,3074.7,4171.222222222223,4174.3,305.9365,304.92975,314.6695,314.364,21.9578,20.616,21.9355,21.4503,314.999998,314.999998,324.999988,324.999988,99.55861428571428,99.50733333333334,99.56648571428572,99.54655714285714,0.09624999999999995,-0.03949999999999998,-0.0468,0.17916666666666667,-0.046666666666666856,-0.041666666666671404,1.4993333333333334,1.49,38.236000000000004,29.85033333333333,38.097,35.064499999999995,55.857,35.189499999999995,59.356,52.382999999999996,53.8,34.3195,57.955,50.713,52.962,33.8685,57.8725,50.12,-0.045499999999999874,-0.11350000000000016,0.10451500000000001,0.11021500000000001,0.0,213.935,213.935,210.67333333333335,210.67333333333335,0.0,0.0
21,0.0,1.0,0.0,1.0,1.0,0.0,0.0,1.0,0.0,0.0,1.0,1.1856,26.0,0.0,0.0,0.0,59.999996,0.0,26.0,26.0,26.0,26.0,0.003125,0.2679,-0.077475,292.694,-2.68615,-2.6911111111111112,-1.6173000000000002,-1.530888888888889,-205.26,215.935,190.551625,0.0,0.0,0.0,0.0,0.04253333333333331,-5.498166666666667,-5.498166666666667,-0.5760000000000001,0.46950000000000003,0.015666666666666718,-0.129,68.453,0.0379,-0.22340000000000002,0.5439999999999996,100.0,1.0,1.0,211.26333333333332,0.0,0.0,0.0,0.0,0.0,0.0,0.0,8954.7,0.0,55.0,5.0,246.40333333333334,1.0,0.0,0.0,0.0,0.0,0.0,0.0,0.0,1.0530000000000008,1.0530000000000008,0.0,0.0,1.0,55.0,616.79921,10000.0,85.000001,85.000001,85.000001,85.000001,395.0,0.0,0.0,0.0,1.0,333.33500000000004,52.368,52.368,48.294,48.294,34.0,-23.325,24.738,-26.73,27.89,0.0,1782.519,0.48499999999999943,100.0,28.055,28.084,42.684,43.397999999999996,0.0,1.0,100.0,0.0,0.0,0.0,0.0,3037.857142857143,3140.9,3999.0,3974.9,305.517,304.83125,315.1905,315.0535,21.9662,20.621,21.944499999999998,21.458199999999998,314.999998,314.999998,324.999988,324.999988,99.55862857142857,99.50735,99.56661428571428,99.54668571428572,0.0794999999999999,-0.05525000000000002,-0.0834,0.13883333333333334,-0.026666666666670835,-0.05666666666667197,1.5813333333333333,1.603,38.289,29.881333333333334,38.153,35.1135,55.846000000000004,35.225,59.385999999999996,52.4355,53.79,34.3525,57.983000000000004,50.7635,52.95,33.9,57.8975,50.169,-0.04149999999999987,-0.11799999999999988,0.105885,0.10305500000000001,0.0,214.35000000000002,214.315,211.26333333333332,211.26333333333332,0.0,0.0
22,0.0,1.0,0.0,1.0,1.0,0.0,0.0,1.0,0.0,0.0,1.0,1.1856,26.0,0.0,0.0,0.0,59.999996,0.0,26.0,26.0,26.0,26.0,-0.0145,0.27059999999999995,0.0212,292.16,-2.64785,-2.7134444444444443,-1.5955,-1.5341111111111112,-201.76999999999998,215.9325,190.52775,0.0,0.0,0.0,0.0,0.04456666666666653,-5.498166666666667,-5.498166666666667,-0.5559000000000001,0.08899999999999997,0.0,-0.838,68.593,-0.0009000000000000001,-0.203625,0.8420000000000005,100.0,1.0,1.0,211.48000000000002,0.0,0.0,0.0,0.0,0.0,0.0,0.0,8963.8,0.0,55.0,5.0,246.90666666666667,0.0,0.0,0.0,0.0,0.0,0.0,0.0,0.0,1.1039999999999992,1.1039999999999992,0.0,0.0,0.0,55.0,616.79921,10000.0,85.000001,85.000001,85.000001,85.000001,395.0,0.0,0.0,0.0,1.0,333.33500000000004,52.414,52.414,47.15,47.15,34.0,-24.5625,22.4,-32.11,28.1025,0.0,1782.467,0.46999999999999886,100.0,28.126,28.179000000000002,43.25,43.514,0.0,1.0,100.0,0.0,0.0,0.0,0.0,3084.857142857143,2990.8,4295.777777777777,4236.4,305.5245,305.0835,314.46925,314.362,21.9756,20.6266,21.955,21.4673,314.999998,314.999998,324.999988,324.999988,99.55864285714286,99.50735,99.56675714285714,99.54682857142858,0.04800000000000004,-0.08999999999999997,-0.1348,0.08983333333333333,-0.045000000000001705,-0.03499999999999659,1.4723333333333333,1.506,38.348,29.916,38.219,35.170500000000004,55.832,35.265,59.4275,52.4985,53.777,34.3895,58.0215,50.824,52.936,33.9355,57.933,50.2285,-0.038999999999999924,-0.11350000000000016,0.10991000000000001,0.10523,0.0,214.805,214.70499999999998,211.48000000000002,211.48000000000002,0.0,0.0
23,0.0,1.0,0.0,1.0,1.0,0.0,0.0,1.0,0.0,0.0,1.0,1.1856,26.0,0.0,0.0,0.0,59.999996,0.0,26.0,26.0,26.0,26.0,-0.038375,0.2542,-0.04745,292.206,-2.65805,-2.685777777777778,-1.6297000000000001,-1.6167777777777779,-198.06,215.9275,190.502875,0.0,0.0,0.0,0.0,0.04673333333333329,-5.498166666666667,-5.498166666666667,-0.5751000000000001,-0.10499999999999998,-0.020888888888888957,-0.732,68.73400000000001,-0.030100000000000002,-0.2291,0.9860000000000007,100.0,1.0,1.0,212.04333333333335,0.0,0.0,0.0,0.0,0.0,0.0,0.0,8987.7,0.0,55.0,5.0,247.41666666666666,1.0,0.0,0.0,0.0,0.0,0.0,0.0,0.0,1.1580000000000013,1.1580000000000013,0.0,0.0,1.0,55.0,616.79921,10000.0,85.000001,85.000001,85.000001,85.000001,395.0,0.0,0.0,0.0,1.0,166.665,51.757999999999996,51.757999999999996,48.172,48.172,34.0,-28.1,21.774,-31.349999999999998,24.9925,0.0,1782.416,0.4499999999999993,100.0,28.556,28.123,43.515,43.514,0.0,1.0,100.0,0.0,0.0,0.0,0.0,3364.714285714286,3020.4,4055.4444444444443,3888.8,304.691,305.089,315.1145,315.13175,21.9857,20.6324,21.9661,21.477,314.999998,314.999998,324.999988,324.999988,99.55864285714286,99.50736666666667,99.56691428571429,99.54698571428571,0.030749999999999833,-0.10275000000000001,-0.162,0.06266666666666666,-0.03833333333332689,-0.041666666666671404,1.5393333333333334,1.56,38.411,29.952666666666666,38.288,35.231,55.817,35.309,59.4695,52.5635,53.763,34.43,58.0605,50.8865,52.921,33.9745,57.969,50.289500000000004,-0.04600000000000004,-0.1120000000000001,0.10502,0.11092500000000001,0.0,215.22,215.15,212.04333333333335,212.04333333333335,0.0,0.0
24,0.0,1.0,0.0,1.0,1.0,0.0,0.0,1.0,0.0,0.0,1.0,1.1856,26.0,0.0,0.0,0.0,59.999996,0.0,26.0,26.0,26.0,26.0,-0.078875,0.2775000000000001,-0.058525,292.374,-2.67455,-2.7008888888888887,-1.5470000000000002,-1.563777777777778,-194.95999999999998,215.92000000000002,190.48175,0.0,0.0,0.0,0.0,0.04853333333333332,-5.498166666666667,-5.498166666666667,-0.5781000000000001,-0.5785,-0.013777777777777889,0.98,68.855,-0.0454,-0.21585000000000001,0.7779999999999996,100.0,1.0,1.0,212.29666666666668,0.0,0.0,0.0,0.0,0.0,0.0,0.0,8998.5,0.0,55.0,5.0,247.85000000000002,0.0,0.0,0.0,0.0,0.0,0.0,0.0,0.0,1.2029999999999994,1.2029999999999994,0.0,0.0,0.0,55.0,616.79921,10000.0,85.000001,85.000001,85.000001,85.000001,395.0,0.0,0.0,0.0,1.0,333.33500000000004,52.887,52.887,47.058,47.058,34.0,-24.5125,20.956,-33.1725,26.0475,0.0,1782.369,0.35999999999999943,100.0,28.44,27.693,43.785,43.316,0.0,1.0,100.0,0.0,0.0,0.0,0.0,2942.857142857143,2953.2,4289.555555555556,4130.7,305.86,305.525,314.34725,314.66725,21.994,20.6372,21.9754,21.485,314.999998,314.999998,324.999988,324.999988,99.55864285714286,99.50738333333334,99.56704285714285,99.54711428571429,0.02499999999999991,-0.10649999999999993,-0.1648,0.0605,-0.03833333333332689,-0.05833333333333002,1.4773333333333334,1.5165,38.462,29.982333333333333,38.346000000000004,35.281,55.803,35.344,59.5055,52.617,53.748999999999995,34.4625,58.094,50.938,52.907,34.0055,57.9995,50.34,-0.05149999999999988,-0.10199999999999987,0.10904000000000001,0.10068,0.0,215.59,215.525,212.29666666666668,212.29666666666668,0.0,0.0
25,0.0,1.0,0.0,1.0,1.0,0.0,0.0,1.0,0.0,0.0,1.0,1.1856,26.0,0.0,0.0,0.0,59.999996,0.0,26.0,26.0,26.0,26.0,-0.072625,0.26170000000000004,-0.048675,292.282,-2.7302,-2.672555555555556,-1.5526,-1.5762222222222222,-191.45,215.9125,190.456375,0.0,0.0,0.0,0.0,0.05056666666666654,-5.498166666666667,-5.498166666666667,-0.6118,-0.014499999999999957,-0.024555555555555664,-1.278,68.987,-0.054900000000000004,-0.225325,0.8079999999999998,100.0,1.0,1.0,212.84,0.0,0.0,0.0,0.0,0.0,0.0,0.0,9021.5,0.0,55.0,5.0,248.32666666666665,1.0,0.0,0.0,0.0,0.0,0.0,0.0,0.0,1.2540000000000013,1.2540000000000013,0.0,0.0,1.0,55.0,616.79921,10000.0,85.000001,85.000001,85.000001,85.000001,395.0,0.0,0.0,0.0,1.0,333.33500000000004,51.834,51.834,47.882,47.882,34.0,-29.3925,22.131999999999998,-30.54,24.3625,0.0,1782.318,0.245000000000001,100.0,28.31,28.037,43.521,43.027,0.0,1.0,100.0,0.0,0.0,0.0,0.0,3385.4285714285716,3160.8,4007.1111111111113,3972.2,304.8285,304.7075,315.16175,315.0385,22.0033,20.6427,21.9857,21.4939,314.999998,314.999998,324.999988,324.999988,99.55865714285714,99.5074,99.56718571428571,99.54725714285715,0.016750000000000043,-0.11724999999999997,-0.1748,0.05333333333333334,-0.05666666666667197,-0.036666666666668846,1.5633333333333332,1.6005,38.521,30.016666666666666,38.411,35.337,55.787,35.385999999999996,59.543,52.6755,53.733999999999995,34.5015,58.129,50.994,52.891,34.042500000000004,58.0315,50.394999999999996,-0.05800000000000005,-0.10250000000000004,0.10442000000000001,0.10573,0.0,215.995,215.92000000000002,212.84,212.84,0.0,0.0
26,0.0,1.0,0.0,1.0,1.0,0.0,0.0,1.0,0.0,0.0,1.0,1.1856,26.0,0.0,0.0,0.0,59.999996,0.0,26.0,26.0,26.0,26.0,-0.097875,0.27290000000000014,0.08332500000000001,291.122,-2.6662,-2.7616666666666667,-1.5916000000000001,-1.5766666666666669,-187.93,215.9025,190.430625,0.0,0.0,0.0,0.0,0.05259999999999998,-5.498166666666667,-5.498166666666667,-0.5688,0.7095,-0.04877777777777803,0.7910000000000001,69.123,-0.057800000000000004,-0.19587500000000002,0.5899999999999999,100.0,1.0,1.0,212.99333333333334,0.0,0.0,0.0,0.0,0.0,0.0,0.0,9027.9,0.0,55.0,5.0,248.81666666666666,0.0,0.0,0.0,0.0,0.0,0.0,0.0,0.0,1.3049999999999997,1.3049999999999997,0.0,0.0,0.0,55.0,616.79921,10000.0,85.000001,85.000001,85.000001,85.000001,395.0,0.0,0.0,0.0,1.0,333.33500000000004,51.361000000000004,51.361000000000004,46.126999999999995,46.126999999999995,34.0,-26.5875,22.832,-36.51,28.2575,0.0,1782.266,0.03500000000000014,100.0,29.382,28.463,44.171,43.29,0.0,1.0,100.0,0.0,0.0,0.0,0.0,3217.5714285714284,3078.9,4578.444444444444,4482.5,304.9875,305.00525,313.7525,313.84425,22.012999999999998,20.6483,21.996299999999998,21.5031,314.999998,314.999998,324.999988,324.999988,99.55865714285714,99.5074,99.56735714285715,99.54741428571428,0.03874999999999984,-0.10324999999999995,-0.16180000000000003,0.04516666666666667,-0.03499999999999659,-0.06833333333332803,1.4263333333333335,1.4635,38.581,30.052,38.477000000000004,35.3945,55.775,35.432,59.588499999999996,52.7415,53.722,34.544,58.172,51.0575,52.878,34.0835,58.071,50.457,-0.07699999999999996,-0.08899999999999997,0.10400500000000001,0.10359000000000002,0.0,216.45,216.4,212.99333333333334,212.99333333333334,0.0,0.0
27,0.0,1.0,0.0,1.0,1.0,0.0,0.0,1.0,0.0,0.0,1.0,1.1856,26.0,0.0,0.0,0.0,59.999996,0.0,26.0,26.0,26.0,26.0,-0.067,0.25360000000000005,-0.017175,291.58,-2.64245,-2.7225555555555556,-1.5868,-1.6448888888888888,-184.61,215.89249999999998,190.4075,0.0,0.0,0.0,0.0,0.05453333333333332,-5.498166666666667,-5.498166666666667,-0.5962000000000001,-1.033,-0.04022222222222238,0.788,69.247,-0.051800000000000006,-0.24275000000000002,0.35799999999999965,100.0,1.0,1.0,213.48000000000002,0.0,0.0,0.0,0.0,0.0,0.0,0.0,9048.7,0.0,55.0,5.0,249.26333333333332,1.0,0.0,0.0,0.0,0.0,0.0,0.0,0.0,1.352999999999998,1.352999999999998,0.0,0.0,1.0,55.0,616.79921,10000.0,85.000001,85.000001,85.000001,85.000001,395.0,0.0,0.0,0.0,1.0,166.665,51.743,51.743,46.585,46.585,34.0,-25.21,23.067999999999998,-31.599999999999998,27.42,0.0,1782.22,-0.02499999999999858,100.0,29.015,28.254,44.796,43.913,0.0,1.0,100.0,0.0,0.0,0.0,0.0,3124.5714285714284,3135.6,4110.555555555556,4082.3,305.2725,304.937,314.79775,314.69175,22.0218,20.6535,22.0063,21.5119,314.999998,314.999998,324.999988,324.999988,99.55865714285714,99.50741666666667,99.56748571428571,99.54754285714286,0.045250000000000234,-0.09799999999999998,-0.158,0.07,-0.03333333333333144,-0.04999999999999716,1.4973333333333332,1.5145,38.637,30.084333333333333,38.539,35.4495,55.760999999999996,35.4685,59.626,52.797,53.709,34.5775,58.2065,51.1105,52.864999999999995,34.1155,58.103,50.5085,-0.08799999999999986,-0.07500000000000018,0.10467000000000001,0.10876500000000001,0.0,216.76,216.72500000000002,213.48000000000002,213.48000000000002,0.0,0.0
28,0.0,1.0,0.0,1.0,1.0,0.0,0.0,1.0,0.0,0.0,1.0,1.1856,26.0,0.0,0.0,0.0,59.999996,0.0,26.0,26.0,26.0,26.0,-0.036375,0.26270000000000016,-0.0557,291.87,-2.66595,-2.699111111111111,-1.5367000000000002,-1.6044444444444443,-181.07,215.8775,190.382125,0.0,0.0,0.0,0.0,0.056599999999999984,-5.498166666666667,-5.498166666666667,-0.6003000000000001,0.6465000000000001,-0.04355555555555579,-0.388,69.377,-0.0425,-0.2156,0.35600000000000076,100.0,1.0,1.0,213.99333333333334,0.0,0.0,0.0,0.0,0.0,0.0,0.0,9070.4,0.0,55.0,5.0,249.73000000000002,0.0,0.0,0.0,0.0,0.0,0.0,0.0,0.0,1.404,1.404,0.0,0.0,0.0,55.0,616.79921,10000.0,85.000001,85.000001,85.000001,85.000001,395.0,0.0,0.0,0.0,1.0,333.33500000000004,51.727000000000004,51.727000000000004,47.516,47.516,34.0,-26.8375,22.287999999999997,-30.357499999999998,26.5675,0.0,1782.168,-0.14999999999999858,100.0,28.891,28.365000000000002,43.948,43.498000000000005,0.0,1.0,100.0,0.0,0.0,0.0,0.0,3306.5714285714284,2988.4,4116.111111111111,4090.5,304.9425,305.18725,314.96975,314.7565,22.031399999999998,20.6591,22.0165,21.5209,314.999998,314.999998,324.999988,324.999988,99.55867142857143,99.50743333333334,99.56762857142857,99.54768571428572,0.04600000000000026,-0.08724999999999994,-0.15580000000000002,0.06833333333333333,-0.04833333333333201,-0.051666666666669414,1.549,1.562,38.696,30.119333333333334,38.602999999999994,35.5055,55.748999999999995,35.5095,59.661500000000004,52.8545,53.697,34.6155,58.24,51.166,52.851,34.1515,58.132999999999996,50.563,-0.09650000000000003,-0.0674999999999999,0.09710500000000001,0.11059000000000001,0.0,217.215,217.19,213.99333333333334,213.99333333333334,0.0,0.0
29,0.0,1.0,0.0,1.0,1.0,0.0,0.0,1.0,0.0,0.0,1.0,1.1856,26.0,0.0,0.0,0.0,59.999996,0.0,26.0,26.0,26.0,26.0,-0.02775,0.2510000000000001,0.018000000000000002,291.58,-2.6291,-2.7447777777777778,-1.5478,-1.5723333333333334,-177.32,215.8625,190.35425,0.0,0.0,0.0,0.0,0.05876666666666652,-5.498166666666667,-5.498166666666667,-0.607,-0.7284999999999999,-0.03111111111111109,-0.606,69.519,-0.0304,-0.21882500000000002,0.10799999999999965,100.0,1.0,1.0,214.27666666666667,0.0,0.0,0.0,0.0,0.0,0.0,0.0,9082.4,0.0,55.0,5.0,250.24,1.0,0.0,0.0,0.0,0.0,0.0,0.0,0.0,1.4579999999999984,1.4579999999999984,0.0,0.0,1.0,55.0,616.79921,10000.0,85.000001,85.000001,85.000001,85.000001,395.0,0.0,0.0,0.0,1.0,166.665,51.865,51.865,46.677,46.677,34.0,-25.4225,23.348,-30.8125,28.45,0.0,1782.115,-0.2049999999999983,100.0,28.504,28.292,44.283,43.874,0.0,1.0,100.0,0.0,0.0,0.0,0.0,3269.5714285714284,3048.5,4207.888888888889,4200.2,305.0735,304.93725,314.61575,314.401,22.0412,20.6649,22.0277,21.5307,314.999998,314.999998,324.999988,324.999988,99.55867142857143,99.50745,99.5678,99.54785714285714,0.06150000000000011,-0.08574999999999999,-0.1362,0.08733333333333333,-0.04999999999999716,-0.03833333333332689,1.4866666666666666,1.4785,38.757999999999996,30.155666666666665,38.673,35.567,55.733000000000004,35.5515,59.7055,52.921,53.682,34.653999999999996,58.281,51.230000000000004,52.836,34.1885,58.170500000000004,50.625,-0.09949999999999992,-0.0665,0.09786500000000001,0.11313000000000001,0.0,217.60500000000002,217.585,214.27666666666667,214.27666666666667,0.0,0.0
30,0.0,1.0,0.0,1.0,1.0,0.0,0.0,1.0,0.0,0.0,1.0,1.1856,26.0,0.0,0.0,0.0,59.999996,0.0,26.0,26.0,26.0,26.0,-0.0165,0.2570000000000001,-0.015600000000000001,291.153,-2.68735,-2.627888888888889,-1.5229,-1.6292222222222221,-173.98000000000002,215.8475,190.329375,0.0,0.0,0.0,0.0,0.060733333333333306,-5.498166666666667,-5.498166666666667,-0.601,0.839,-0.031444444444444386,-0.5800000000000001,69.64,-0.0217,-0.215425,0.10000000000000053,100.0,1.0,1.0,214.71,0.0,0.0,0.0,0.0,0.0,0.0,0.0,9100.7,0.0,55.0,5.0,250.68,0.0,0.0,0.0,0.0,0.0,0.0,1.0,0.0,1.5060000000000002,1.5060000000000002,0.0,0.0,0.0,55.0,616.79921,10000.0,85.000001,85.000001,85.000001,85.000001,395.0,0.0,0.0,0.0,1.0,166.665,50.858000000000004,50.858000000000004,47.028,47.028,34.0,-26.7025,23.072000000000003,-30.33,28.825,0.0,1782.067,-0.3099999999999987,100.0,29.341,29.011,44.0,43.856,0.0,1.0,100.0,0.0,0.0,0.0,0.0,3431.714285714286,3061.9,4255.555555555556,4132.4,304.53,304.88175,314.57625,314.53175,22.0503,20.6704,22.0375,21.5393,314.999998,314.999998,324.999988,324.999988,99.55868571428572,99.50745,99.56794285714285,99.54798571428572,0.07975000000000021,-0.07074999999999998,-0.12819999999999998,0.08933333333333333,-0.061666666666667425,-0.04333333333332945,1.4903333333333333,1.486,38.814,30.189999999999998,38.733999999999995,35.621,55.724000000000004,35.592,59.74,52.978,53.674,34.6915,58.313,51.2845,52.826,34.2245,58.2,50.6785,-0.11099999999999999,-0.05750000000000011,0.09621,0.111585,0.0,218.025,218.01999999999998,214.71,214.71,0.0,0.0
31,0.0,1.0,0.0,1.0,1.0,0.0,0.0,1.0,0.0,0.0,1.0,1.1856,26.0,0.0,0.0,0.0,59.999996,0.0,26.0,26.0,26.0,26.0,-0.014375,0.25890000000000013,-0.002225,291.0,-2.758,-2.607,-1.5732,-1.6202222222222222,-170.63,215.83249999999998,190.305125,0.0,0.0,0.0,0.0,0.06266666666666654,-5.498166666666667,-5.498166666666667,-0.5900000000000001,-0.5820000000000001,-0.01966666666666672,-0.638,69.765,-0.0091,-0.220475,-0.16199999999999992,100.0,1.0,1.0,214.96666666666667,0.0,0.0,0.0,0.0,0.0,0.0,0.0,9111.6,0.0,55.0,5.0,251.13,1.0,0.0,0.0,0.0,0.0,0.0,1.0,0.0,1.5539999999999985,1.5539999999999985,0.0,0.0,1.0,55.0,616.79921,10000.0,85.000001,85.000001,85.000001,85.000001,395.0,0.0,0.0,0.0,1.0,166.665,51.391999999999996,51.391999999999996,45.563,45.563,34.0,-24.895,24.212,-31.735,30.285,0.0,1782.019,-0.36499999999999844,100.0,28.997,29.015,44.637,44.506,0.0,1.0,100.0,0.0,0.0,0.0,0.0,3194.714285714286,3179.8,4394.222222222223,4217.1,305.377,304.75025,314.15875,314.4465,22.0591,20.6758,22.0475,21.5482,314.999998,314.999998,324.999988,324.999988,99.5587,99.50746666666667,99.56808571428571,99.54812857142858,0.08325000000000005,-0.05799999999999994,-0.11320000000000001,0.106,-0.030000000000001137,-0.04999999999999716,1.458,1.4495,38.869,30.223666666666666,38.797,35.6765,55.712,35.629999999999995,59.78,53.0385,53.663,34.7265,58.3505,51.343,52.814,34.257999999999996,58.2345,50.7355,-0.11450000000000005,-0.04850000000000021,0.09859000000000001,0.10881,0.0,218.35000000000002,218.375,214.96666666666667,214.96666666666667,0.0,0.0
32,0.0,1.0,0.0,1.0,1.0,0.0,0.0,1.0,0.0,0.0,1.0,1.1856,26.0,0.0,0.0,0.0,59.999996,0.0,26.0,26.0,26.0,26.0,-0.007625,0.2623,-0.0317,291.199,-2.6921,-2.710777777777778,-1.642,-1.5275555555555558,-167.07,215.815,190.2795,0.0,0.0,0.0,0.0,0.06473333333333331,-5.498166666666667,-5.498166666666667,-0.6065,0.11299999999999999,-0.04066666666666663,0.266,69.892,-0.0005,-0.22742500000000002,-0.26200000000000045,100.0,1.0,1.0,215.49,0.0,0.0,0.0,0.0,0.0,0.0,0.0,9133.9,0.0,55.0,5.0,251.58666666666664,0.0,0.0,0.0,0.0,0.0,0.0,1.0,0.0,1.6050000000000004,1.6050000000000004,0.0,0.0,0.0,55.0,616.79921,10000.0,85.000001,85.000001,85.000001,85.000001,395.0,0.0,0.0,0.0,1.0,333.33500000000004,51.3,51.3,46.524,46.524,34.0,-23.849999999999998,25.836,-30.27,30.3625,0.0,1781.966,-0.3949999999999996,100.0,29.108,28.895,44.342,44.262,0.0,1.0,100.0,0.0,0.0,0.0,0.0,3197.142857142857,3185.1,4226.333333333333,4264.5,305.1255,304.74425,314.68025,314.45075,22.0685,20.6816,22.0578,21.5574,314.999998,314.999998,324.999988,324.999988,99.55871428571429,99.50746666666667,99.56824285714286,99.54828571428571,0.10000000000000009,-0.04299999999999993,-0.1038,0.13316666666666666,-0.03166666666666629,-0.06833333333332803,1.528,1.519,38.928,30.259999999999998,38.861999999999995,35.7335,55.701,35.673,59.819,53.1025,53.650999999999996,34.766,58.387,51.4045,52.802,34.296,58.2675,50.795500000000004,-0.11599999999999988,-0.04999999999999982,0.10298500000000001,0.11629,0.0,218.76,218.79000000000002,215.49,215.49,0.0,0.0
33,0.0,1.0,0.0,1.0,1.0,0.0,0.0,1.0,0.0,0.0,1.0,1.1856,26.0,0.0,0.0,0.0,59.999996,0.0,26.0,26.0,26.0,26.0,0.006,0.2623,-0.032925,291.428,-2.70355,-2.703222222222222,-1.5726,-1.6045555555555557,-163.72,215.8,190.2545,0.0,0.0,0.0,0.0,0.06669999999999998,-5.498166666666667,-5.498166666666667,-0.6119,-0.3560000000000001,-0.031333333333333435,1.3010000000000002,70.015,0.0095,-0.21680000000000002,-0.2939999999999996,100.0,1.0,1.0,215.79000000000002,0.0,0.0,0.0,0.0,0.0,0.0,0.0,9146.6,0.0,55.0,5.0,252.02666666666664,1.0,0.0,0.0,0.0,0.0,0.0,1.0,0.0,1.6529999999999987,1.6529999999999987,0.0,0.0,1.0,55.0,616.79921,10000.0,85.000001,85.000001,85.000001,85.000001,395.0,0.0,0.0,0.0,1.0,333.33500000000004,51.865,51.865,46.524,46.524,34.0,-22.7,24.996,-29.05,31.105,0.0,1781.919,-0.40500000000000114,100.0,28.871,28.563,44.296,44.254000000000005,0.0,1.0,100.0,0.0,0.0,0.0,0.0,3076.0,3108.7,4199.777777777777,4294.8,305.5305,304.9975,314.61525,314.29425,22.0772,20.686799999999998,22.0676,21.5661,314.999998,314.999998,324.999988,324.999988,99.55872857142857,99.50748333333334,99.56837142857142,99.54842857142857,0.10375000000000023,-0.043749999999999956,-0.0984,0.11750000000000001,-0.03999999999999915,-0.04999999999999716,1.5113333333333334,1.4975,38.983000000000004,30.292666666666666,38.923,35.788,55.69,35.706,59.8525,53.1565,53.641,34.7965,58.418,51.4565,52.791,34.325,58.295500000000004,50.8465,-0.11599999999999988,-0.05650000000000022,0.10162500000000001,0.10366,0.0,219.135,219.14,215.79000000000002,215.79000000000002,0.0,0.0
34,0.0,1.0,0.0,1.0,1.0,0.0,0.0,1.0,0.0,0.0,1.0,1.1856,26.0,0.0,0.0,0.0,59.999996,0.0,26.0,26.0,26.0,26.0,0.01175,0.24370000000000003,-0.06570000000000001,291.855,-2.73635,-2.625111111111111,-1.6437,-1.5616666666666668,-159.93,215.7825,190.224875,0.0,0.0,0.0,0.0,0.06889999999999996,-5.498166666666667,-5.498166666666667,-0.6442,-0.752,0.0021111111111109526,1.0220000000000002,70.15,0.0181,-0.22435000000000002,-0.3639999999999999,100.0,1.0,1.0,216.26999999999998,0.0,0.0,0.0,0.0,0.0,0.0,0.0,9166.8,0.0,55.0,5.0,252.51333333333332,0.0,0.0,0.0,0.0,0.0,0.0,1.0,0.0,1.7070000000000007,1.7070000000000007,0.0,0.0,0.0,55.0,616.79921,10000.0,85.000001,85.000001,85.000001,85.000001,395.0,0.0,0.0,0.0,1.0,166.665,52.261,52.261,47.287,47.287,34.0,-21.7225,24.747999999999998,-28.2025,30.34,0.0,1781.866,-0.384999999999998,100.0,28.548000000000002,28.264,43.944,44.271,0.0,1.0,100.0,0.0,0.0,0.0,0.0,2968.4285714285716,3093.2,4051.4444444444443,4189.9,305.695,305.022,315.04875,314.51575,22.0869,20.6927,22.0786,21.5759,314.999998,314.999998,324.999988,324.999988,99.55874285714286,99.50748333333334,99.56852857142857,99.54858571428572,0.11675000000000013,-0.03049999999999997,-0.0902,0.1325,-0.03333333333333144,-0.04999999999999716,1.5246666666666666,1.516,39.043,30.329666666666668,38.991,35.8495,55.677,35.7445,59.89,53.222,53.629000000000005,34.832499999999996,58.453,51.519,52.777,34.3595,58.327,50.9075,-0.11549999999999994,-0.047499999999999876,0.10608000000000001,0.10587500000000001,0.0,219.535,219.54000000000002,216.26999999999998,216.26999999999998,0.0,0.0
35,0.0,1.0,0.0,1.0,1.0,0.0,0.0,1.0,0.0,0.0,1.0,1.1856,26.0,0.0,0.0,0.0,59.999996,0.0,26.0,26.0,26.0,26.0,0.040375,0.24819999999999998,-0.052575000000000004,291.763,-2.7192,-2.639111111111111,-1.6186,-1.5185555555555557,-156.35,215.76749999999998,190.19475,0.0,0.0,0.0,0.0,0.07096666666666651,-5.498166666666667,-5.498166666666667,-0.683,-0.1915,-0.013222222222222246,-1.084,70.277,0.0269,-0.226775,-0.34999999999999964,100.0,1.0,1.0,216.73000000000002,0.0,0.0,0.0,0.0,0.0,0.0,0.0,9186.4,0.0,55.0,5.0,252.97,1.0,0.0,0.0,0.0,0.0,0.0,1.0,0.0,1.7579999999999991,1.7579999999999991,0.0,0.0,1.0,55.0,616.79921,10000.0,85.000001,85.000001,85.000001,85.000001,395.0,0.0,0.0,0.0,1.0,166.665,51.575,51.575,46.936,46.936,34.0,-23.695,27.118,-27.315,28.32,0.0,1781.815,-0.28999999999999915,100.0,28.285,28.8,43.691,43.881,0.0,1.0,100.0,0.0,0.0,0.0,0.0,3173.5714285714284,3333.9,4010.1111111111113,3992.4,305.3655,304.173,315.1355,314.99625,22.0958,20.6985,22.0888,21.585,314.999998,314.999998,324.999988,324.999988,99.55875714285715,99.50748333333334,99.56868571428572,99.54874285714286,0.10075000000000012,-0.03374999999999995,-0.0886,0.14116666666666666,-0.03999999999999915,-0.060000000000002274,1.5603333333333333,1.5565,39.099000000000004,30.365666666666666,39.055,35.906,55.663,35.784,59.9255,53.2795,53.614999999999995,34.869,58.486,51.5745,52.763,34.3945,58.3565,50.962,-0.09599999999999986,-0.06099999999999994,0.11223500000000002,0.10195000000000001,0.0,219.935,219.97,216.73000000000002,216.73000000000002,0.0,0.0
36,0.0,1.0,0.0,1.0,1.0,0.0,0.0,1.0,0.0,0.0,1.0,1.1856,26.0,0.0,0.0,0.0,59.999996,0.0,26.0,26.0,26.0,26.0,0.02225,0.2723,0.060625000000000005,290.771,-2.6389,-2.6655555555555557,-1.5691000000000002,-1.576111111111111,-153.18,215.755,190.166875,0.0,0.0,0.0,0.0,0.07279999999999998,-5.498166666666667,-5.498166666666667,-0.6636000000000001,0.275,-0.049666666666666526,0.19900000000000007,70.392,0.029300000000000003,-0.2005,-0.21999999999999975,100.0,1.0,1.0,216.84333333333333,0.0,0.0,0.0,0.0,0.0,0.0,0.0,9191.2,0.0,55.0,5.0,253.38666666666666,0.0,0.0,0.0,0.0,0.0,0.0,1.0,0.0,1.8030000000000008,1.8030000000000008,0.0,0.0,0.0,55.0,616.79921,10000.0,85.000001,85.000001,85.000001,85.000001,395.0,0.0,0.0,0.0,1.0,333.33500000000004,51.132,51.132,46.234,46.234,34.0,-22.48,26.58,-29.8375,34.745000000000005,0.0,1781.769,-0.23499999999999943,100.0,29.024,28.898,43.979,44.167,0.0,1.0,100.0,0.0,0.0,0.0,0.0,3182.285714285714,3256.9,4415.666666666667,4551.4,304.9645,304.578,314.12425,313.71,22.104,20.7037,22.098,21.5932,314.999998,314.999998,324.999988,324.999988,99.55875714285715,99.5075,99.56881428571428,99.54887142857143,0.12150000000000016,-0.030749999999999944,-0.077,0.146,-0.04833333333333201,-0.03499999999999659,1.4536666666666667,1.453,39.15,30.398333333333333,39.113,35.957499999999996,55.653999999999996,35.8195,59.959,53.3345,53.607,34.902,58.5175,51.628,52.753,34.426,58.3855,51.014,-0.09999999999999987,-0.06950000000000012,0.109655,0.105715,0.0,220.32,220.335,216.84333333333333,216.84333333333333,0.0,0.0
