,ABS Active,ABS Enabled,AID Allow Tire Blankets,AID Auto Blip,AID Auto Clutch,AID Auto Shift,AID Fuel Rate,AID Ideal Line,AID Mech Damage,AID Stability,AID Tire Wear Rate,Air Density,Air Temp,Ballast,Best Lap Delta,Best Lap Time,Brake Bias,Brake Pos,Brake Temp FL,Brake Temp FR,Brake Temp RL,Brake Temp RR,CG Accel Lateral,CG Accel Longitudinal,CG Accel Vertical,CG Height,Camber FL,Camber FR,Camber RL,Camber RR,Car Coord X,Car Coord Y,Car Coord Z,Car Damage Front,Car Damage Left,Car Damage Rear,Car Damage Right,Car Pos Norm,Caster FL,Caster FR,Chassis Pitch Angle,Chassis Pitch Rate,Chassis Roll Angle,Chassis Roll Rate,Chassis Velocity X,Chassis Velocity Y,Chassis Velocity Z,Chassis Yaw Rate,Clutch Pos,DRS Active,DRS Available,Drive Train Speed,ERS Heat Charging,ERS Is Charging,ERS Max Energy,ERS Power Level,ERS Recovery Level,Engine Brake Setting,Engine Limiter,Engine RPM,Flags,Fuel Level,Gear,Ground Speed,HR Sample Clock,In Pit,KERS Charge,KERS Deployed Energy,KERS Input,KERS Max Energy,LR Sample Clock,Lap Invalidated,Lap Time,Lap Time2,Last Lap Time,Last Sector Time,MR Sample Clock,Max Fuel,Max Power,Max RPM,Max Sus Travel FL,Max Sus Travel FR,Max Sus Travel RL,Max Sus Travel RR,Max Torque,Max Turbo Boost,Num Tires Off Track,Penalties Enabled,Position,Raw Data Sample Rate,Ride Height FL,Ride Height FR,Ride Height RL,Ride Height RR,Road Temp,Self Align Torque FL,Self Align Torque FR,Self Align Torque RL,Self Align Torque RR,Session Lap Count,Session Time Left,Steering Angle,Surface Grip,Suspension Travel FL,Suspension Travel FR,Suspension Travel RL,Suspension Travel RR,TC Active,TC Enabled,Throttle Pos,Tire Dirt Level FL,Tire Dirt Level FR,Tire Dirt Level RL,Tire Dirt Level RR,Tire Load FL,Tire Load FR,Tire Load RL,Tire Load RR,Tire Loaded Radius FL,Tire Loaded Radius FR,Tire Loaded Radius RL,Tire Loaded Radius RR,Tire Pressure FL,Tire Pressure FR,Tire Pressure RL,Tire Pressure RR,Tire Radius FL,Tire Radius FR,Tire Radius RL,Tire Radius RR,Tire Rubber Grip FL,Tire Rubber Grip FR,Tire Rubber Grip RL,Tire Rubber Grip RR,Tire Slip Angle FL,Tire Slip Angle FR,Tire Slip Angle RL,Tire Slip Angle RR,Tire Slip Ratio FL,Tire Slip Ratio FR,Tire Slip Ratio RL,Tire Slip Ratio RR,Tire Temp Core FL,Tire Temp Core FR,Tire Temp Core RL,Tire Temp Core RR,Tire Temp Inner FL,Tire Temp Inner FR,Tire Temp Inner RL,Tire Temp Inner RR,Tire Temp Middle FL,Tire Temp Middle FR,Tire Temp Middle RL,Tire Temp Middle RR,Tire Temp Outer FL,Tire Temp Outer FR,Tire Temp Outer RL,Tire Temp Outer RR,Toe In FL,Toe In FR,Toe In RL,Toe In RR,Turbo Boost,Wheel Angular Speed FL,Wheel Angular Speed FR,Wheel Angular Speed RL,Wheel Angular Speed RR,Wind Direction,Wind Speed
0,0.0,1.0,0.0,1.0,1.0,0.0,0.0,1.0,0.0,0.0,1.0,1.1856,26.0,0.0,0.0,0.0,59.99999,0.0,26.0,26.0,26.0,26.0,-0.08344444444444443,0.3023,-0.007966666666666667,293.884,-2.7241,-2.6544,-1.51635,-1.5575,-275.61,216.29500000000002,190.987,0.0,0.0,0.0,0.0,0.0016333333333333755,-5.498166666666667,-5.498166666666667,-0.5508000000000001,1.491,-0.007750000000000146,-0.9910000000000001,65.47200000000001,-0.0308,-0.21807500000000002,0.9820000000000011,100.0,1.0,1.0,202.14666666666668,0.0,0.0,0.0,0.0,0.0,0.0,0.0,8568.2,0.0,55.0,5.0,235.67000000000002,0.0,0.0,0.0,0.0,0.0,0.0,0.0,0.0,0.006000000000000227,0.006000000000000227,0.0,0.0,0.0,55.0,616.79921,10000.0,85.0,85.0,85.0,85.0,395.0,0.0,0.0,0.0,1.0,20.0,52.536,52.536,49.5,49.5,34.0,-27.1675,23.462,-30.519999999999996,24.595,0.0,1783.648,0.865000000000002,100.0,27.388,27.17,40.512,40.605000000000004,0.0,1.0,100.0,0.0,0.0,0.0,0.0,3084.5714285714284,3371.2,4150.125,3965.4,305.4065,304.00225,314.775,314.914,21.7667,20.5127,21.728,21.2706,314.99999,314.99999,324.99998,324.99998,99.55827142857143,99.50718333333333,99.56341428571429,99.54358571428571,0.0017499999999999183,-0.12033333333333318,-0.15866666666666665,0.065,-0.054999999999999716,-0.01999999999999602,1.5425,1.6113333333333335,37.042,29.2045,36.8,33.941,56.045,34.4255,58.4845,51.0695,53.983999999999995,33.6125,57.14,49.454,53.167,33.189499999999995,57.115,48.887,-0.00649999999999995,-0.14050000000000007,0.10424000000000001,0.10767000000000002,0.0,205.19,205.07999999999998,202.14666666666668,202.14666666666668,0.0,0.0
1,0.0,1.0,0.0,1.0,1.0,0.0,0.0,1.0,0.0,0.0,1.0,1.1856,26.0,0.0,0.0,0.0,59.999996,0.0,26.0,26.0,26.0,26.0,-0.1002222222222221,0.3219000000000001,0.15016666666666667,293.045,-2.6433,-2.7602,-1.5340500000000001,-1.5457,-272.26,216.29000000000002,190.967,0.0,0.0,0.0,0.0,0.003566666666666607,-5.498166666666667,-5.498166666666667,-0.4929,-0.49333333333333335,-0.05025000000000013,-0.9410000000000001,65.627,-0.0507,-0.18875,1.436,100.0,1.0,1.0,202.32999999999998,0.0,0.0,0.0,0.0,0.0,0.0,0.0,8576.1,0.0,55.0,5.0,236.22333333333333,1.0,0.0,0.0,0.0,0.0,0.0,0.0,0.0,0.05699999999999861,0.05699999999999861,0.0,0.0,1.0,55.0,616.79921,10000.0,85.000001,85.000001,85.000001,85.000001,395.0,0.0,0.0,0.0,1.0,166.665,53.68,53.68,48.203,48.203,34.0,-26.622500000000002,18.055999999999997,-33.64666666666666,29.259999999999998,0.0,1783.598,0.8350000000000009,100.0,27.462,27.0,42.908,41.748000000000005,0.0,1.0,100.0,0.0,0.0,0.0,0.0,3095.714285714286,2675.0,4243.375,4736.1,305.4895,306.31475,314.45,313.029,21.7766,20.5178,21.7387,21.2796,314.999998,314.999998,324.999988,324.999988,99.55827142857143,99.50721666666666,99.56357142857142,99.54374285714286,-0.003249999999999975,-0.1359999999999999,-0.18383333333333335,0.03916666666666666,-0.03999999999999915,-0.021666666666668277,1.4184999999999999,1.482,37.104,29.2365,36.867000000000004,33.9975,56.03,34.466499999999996,58.531,51.1365,53.969,33.6505,57.183,49.5185,53.150999999999996,33.226,57.1555,48.95,-0.009000000000000008,-0.14000000000000012,0.10227000000000001,0.11539500000000001,0.0,205.64,205.51,202.32999999999998,202.32999999999998,0.0,0.0
2,0.0,1.0,0.0,1.0,1.0,0.0,0.0,1.0,0.0,0.0,1.0,1.1856,26.0,0.0,0.0,0.0,59.999996,0.0,26.0,26.0,26.0,26.0,-0.14355555555555555,0.27649999999999997,-0.1396666666666667,293.594,-2.5945,-2.8036000000000003,-1.484,-1.6182,-268.91,216.2825,190.948125,0.0,0.0,0.0,0.0,0.00553333333333339,-5.498166666666667,-5.498166666666667,-0.5443,0.017,-0.05600000000000005,2.284,65.769,-0.07150000000000001,-0.2469,1.58,100.0,1.0,1.0,203.2,0.0,0.0,0.0,0.0,0.0,0.0,0.0,8613.0,0.0,55.0,5.0,236.74,0.0,0.0,0.0,0.0,0.0,0.0,0.0,0.0,0.10800000000000054,0.10800000000000054,0.0,0.0,0.0,55.0,616.79921,10000.0,85.000001,85.000001,85.000001,85.000001,395.0,0.0,0.0,0.0,1.0,166.665,52.475,52.475,49.942,49.942,34.0,-29.8275,19.582,-29.653333333333336,20.5175,0.0,1783.546,0.7600000000000016,100.0,28.376,26.971,42.768,41.476,0.0,1.0,100.0,0.0,0.0,0.0,0.0,3324.857142857143,2886.9,3792.25,3684.7,304.5495,305.65075,315.51733333333334,315.761,21.7867,20.5227,21.7491,21.2883,314.999998,314.999998,324.999988,324.999988,99.55828571428572,99.50721666666666,99.56371428571428,99.54387142857144,-0.025499999999999856,-0.14933333333333332,-0.22166666666666665,0.013000000000000001,-0.04333333333332945,-0.051666666666669414,1.6179999999999999,1.6783333333333332,37.167,29.267,36.932,34.0515,56.016999999999996,34.5045,58.571,51.196,53.958,33.6855,57.2205,49.575,53.138,33.2595,57.19,49.00566666666667,-0.01649999999999996,-0.133,0.106245,0.10810000000000002,0.0,206.075,205.94,203.2,203.2,0.0,0.0
3,0.0,1.0,0.0,1.0,1.0,0.0,0.0,1.0,0.0,0.0,1.0,1.1856,26.0,0.0,0.0,0.0,59.999996,0.0,26.0,26.0,26.0,26.0,-0.13322222222222213,0.3147,0.06003333333333334,293.289,-2.7295,-2.6922,-1.5145,-1.5932,-265.55,216.26999999999998,190.928375,0.0,0.0,0.0,0.0,0.0074666666666665105,-5.498166666666667,-5.498166666666667,-0.5091,0.16466666666666666,-0.00812500000000016,0.08799999999999997,65.92099999999999,-0.0845,-0.19965000000000002,1.1620000000000008,100.0,1.0,1.0,203.38666666666666,0.0,0.0,0.0,0.0,0.0,0.0,0.0,8620.8,0.0,55.0,5.0,237.2866666666667,1.0,0.0,0.0,0.0,0.0,0.0,0.0,0.0,0.15899999999999892,0.15899999999999892,0.0,0.0,1.0,55.0,616.79921,10000.0,85.000001,85.000001,85.000001,85.000001,395.0,0.0,0.0,0.0,1.0,166.665,53.467,53.467,47.974000000000004,47.974000000000004,34.0,-25.595,18.78,-34.403333333333336,24.9625,0.0,1783.495,0.625,100.0,27.965,26.981,42.677,41.625,0.0,1.0,100.0,0.0,0.0,0.0,0.0,2859.285714285714,2918.6,4253.625,4243.9,306.0825,305.5495,314.39933333333335,314.292,21.7964,20.5279,21.7595,21.2971,314.999998,314.999998,324.999988,324.999988,99.55828571428572,99.50723333333333,99.56385714285715,99.54402857142857,-0.01649999999999996,-0.1519999999999999,-0.20550000000000002,0.017333333333333333,-0.046666666666666856,-0.054999999999999716,1.4705,1.514,37.227999999999994,29.299500000000002,36.997,34.1065,56.001999999999995,34.5475,58.612,51.26,53.943,33.725,57.259,49.6365,53.123000000000005,33.297,57.2255,49.066,-0.03400000000000003,-0.12200000000000011,0.10863500000000001,0.10395000000000001,0.0,206.55,206.465,203.38666666666666,203.38666666666666,0.0,0.0
4,0.0,1.0,0.0,1.0,1.0,0.0,0.0,1.0,0.0,0.0,1.0,1.1856,26.0,0.0,0.0,0.0,59.999996,0.0,26.0,26.0,26.0,26.0,-0.13355555555555554,0.28280000000000016,-0.030033333333333332,293.533,-2.6617,-2.739,-1.5274,-1.5995,-262.19,216.255,190.908625,0.0,0.0,0.0,0.0,0.009433333333333294,-5.498166666666667,-5.498166666666667,-0.5433,-0.6463333333333334,-0.07900000000000018,-1.725,66.068,-0.08420000000000001,-0.2359,1.1720000000000006,100.0,1.0,1.0,203.96333333333334,0.0,0.0,0.0,0.0,0.0,0.0,0.0,8645.3,0.0,55.0,5.0,237.81333333333333,0.0,0.0,0.0,0.0,0.0,0.0,0.0,0.0,0.21000000000000085,0.21000000000000085,0.0,0.0,0.0,55.0,616.79921,10000.0,85.000001,85.000001,85.000001,85.000001,395.0,0.0,0.0,0.0,1.0,166.665,52.948,52.948,48.706,48.706,34.0,-29.655,19.298000000000002,-32.593333333333334,20.490000000000002,0.0,1783.444,0.620000000000001,100.0,27.759,26.95,42.891999999999996,41.626,0.0,1.0,100.0,0.0,0.0,0.0,0.0,3282.142857142857,2887.9,4077.375,3675.3,304.99,305.4805,314.8623333333333,315.655,21.806,20.533,21.77,21.3059,314.999998,314.999998,324.999988,324.999988,99.55828571428572,99.50725,99.564,99.54415714285715,-0.027249999999999996,-0.14733333333333332,-0.2095,0.011333333333333334,-0.02833333333332888,-0.04833333333333201,1.5615,1.6193333333333335,37.288,29.3315,37.063,34.161500000000004,55.983999999999995,34.589,58.6555,51.320499999999996,53.926,33.7635,57.3,49.6945,53.105999999999995,33.334,57.263999999999996,49.12266666666667,-0.030000000000000027,-0.1200000000000001,0.10445000000000002,0.10094500000000001,0.0,206.94,206.85500000000002,203.96333333333334,203.96333333333334,0.0,0.0
5,0.0,1.0,0.0,1.0,1.0,0.0,0.0,1.0,0.0,0.0,1.0,1.1856,26.0,0.0,0.0,0.0,59.999996,0.0,26.0,26.0,26.0,26.0,-0.12788888888888894,0.30920000000000014,-0.018033333333333335,293.533,-2.6694,-2.7671,-1.5100500000000001,-1.5891000000000002,-258.82,216.2375,190.88825,0.0,0.0,0.0,0.0,0.011399999999999966,-5.498166666666667,-5.498166666666667,-0.5337000000000001,0.3706666666666667,-0.08024999999999993,1.279,66.215,-0.08700000000000001,-0.2124,1.0280000000000005,100.0,1.0,1.0,204.35666666666668,0.0,0.0,0.0,0.0,0.0,0.0,0.0,8661.9,0.0,55.0,5.0,238.34333333333333,1.0,0.0,0.0,0.0,0.0,0.0,0.0,0.0,0.26099999999999923,0.26099999999999923,0.0,0.0,1.0,55.0,616.79921,10000.0,85.000001,85.000001,85.000001,85.000001,395.0,0.0,0.0,0.0,1.0,166.665,53.406,53.406,48.798,48.798,34.0,-27.2925,19.706,-33.45333333333333,23.845,0.0,1783.393,0.21000000000000085,100.0,27.957,26.662,42.718,41.238,0.0,1.0,100.0,0.0,0.0,0.0,0.0,3096.0,2848.7,4167.25,4101.7,305.331,305.8215,314.6546666666667,314.7005,21.8159,20.5381,21.7804,21.3145,314.999998,314.999998,324.999988,324.999988,99.5583,99.50726666666667,99.56414285714285,99.5443,-0.007749999999999924,-0.1296666666666666,-0.20966666666666667,0.021333333333333333,-0.02499999999999858,-0.07000000000000028,1.5135,1.572,37.349999999999994,29.363,37.128,34.216,55.971000000000004,34.6295,58.6975,51.379999999999995,53.913,33.8005,57.339,49.751,53.092,33.369,57.3,49.178,-0.05599999999999994,-0.09000000000000008,0.107465,0.11202500000000001,0.0,207.45,207.375,204.35666666666668,204.35666666666668,0.0,0.0
6,0.0,1.0,0.0,1.0,1.0,0.0,0.0,1.0,0.0,0.0,1.0,1.1856,26.0,0.0,0.0,0.0,59.999996,0.0,26.0,26.0,26.0,26.0,-0.10188888888888892,0.29500000000000015,-0.0092,293.396,-2.6447,-2.7349,-1.5574,-1.5792000000000002,-255.82999999999998,216.2175,190.87025,0.0,0.0,0.0,0.0,0.01313333333333333,-5.498166666666667,-5.498166666666667,-0.5307000000000001,0.08933333333333333,-0.06125000000000025,-0.522,66.345,-0.0824,-0.2146,0.8100000000000005,100.0,1.0,1.0,204.75333333333333,0.0,0.0,0.0,0.0,0.0,0.0,0.0,8678.7,0.0,55.0,5.0,238.81333333333333,0.0,0.0,0.0,0.0,0.0,0.0,0.0,0.0,0.30600000000000094,0.30600000000000094,0.0,0.0,0.0,55.0,616.79921,10000.0,85.000001,85.000001,85.000001,85.000001,395.0,0.0,0.0,0.0,1.0,333.33500000000004,53.085,53.085,48.691,48.691,34.0,-27.747500000000002,20.058,-32.913333333333334,23.035,0.0,1783.347,-0.00999999999999801,100.0,27.7,26.945,42.705,41.663,0.0,1.0,100.0,0.0,0.0,0.0,0.0,3211.4285714285716,2904.3,4114.125,3986.3,305.126,305.44725,314.84566666666666,314.9065,21.8246,20.5426,21.7897,21.322400000000002,314.999998,314.999998,324.999988,324.999988,99.5583,99.50728333333333,99.56427142857143,99.54441428571428,-0.0007500000000000284,-0.1306666666666667,-0.20016666666666666,0.021666666666666667,-0.04833333333333201,-0.051666666666669414,1.5325,1.5636666666666668,37.403999999999996,29.3915,37.185,34.265,55.958,34.665,58.7345,51.4355,53.900999999999996,33.8335,57.3735,49.8045,53.079,33.4005,57.332,49.230333333333334,-0.06899999999999995,-0.08099999999999996,0.10195000000000001,0.108045,0.0,207.835,207.76999999999998,204.75333333333333,204.75333333333333,0.0,0.0
7,0.0,1.0,0.0,1.0,1.0,0.0,0.0,1.0,0.0,0.0,1.0,1.1856,26.0,0.0,0.0,0.0,59.999996,0.0,26.0,26.0,26.0,26.0,-0.08899999999999997,0.28790000000000004,0.04626666666666667,293.121,-2.6099,-2.7316000000000003,-1.51665,-1.6246,-252.45,216.195,190.84975,0.0,0.0,0.0,0.0,0.015100000000000002,-5.498166666666667,-5.498166666666667,-0.5336000000000001,-0.005,-0.048125000000000195,1.148,66.49000000000001,-0.06860000000000001,-0.223225,0.3760000000000012,100.0,1.0,1.0,205.17666666666668,0.0,0.0,0.0,0.0,0.0,0.0,0.0,8696.7,0.0,55.0,5.0,239.33666666666667,1.0,0.0,0.0,0.0,0.0,0.0,0.0,0.0,0.3569999999999993,0.3569999999999993,0.0,0.0,1.0,55.0,616.79921,10000.0,85.000001,85.000001,85.000001,85.000001,395.0,0.0,0.0,0.0,1.0,333.33500000000004,52.75,52.75,48.737,48.737,34.0,-25.9825,22.948,-31.183333333333337,25.872500000000002,0.0,1783.296,-0.21999999999999886,100.0,27.965,26.843,42.823,41.833,0.0,1.0,100.0,0.0,0.0,0.0,0.0,3198.142857142857,3062.8,4048.0,4090.9,304.9495,305.13275,314.88366666666667,314.655,21.8344,20.5478,21.8001,21.3313,314.999998,314.999998,324.999988,324.999988,99.5583,99.5073,99.56441428571429,99.54455714285714,0.03600000000000003,-0.08666666666666667,-0.18416666666666667,0.04883333333333334,-0.036666666666668846,-0.04999999999999716,1.5295,1.5456666666666665,37.465,29.424,37.251000000000005,34.320499999999996,55.943,34.704499999999996,58.7765,51.4985,53.887,33.87,57.4125,49.865,53.064,33.4355,57.3685,49.28933333333333,-0.09150000000000003,-0.05750000000000011,0.10579500000000001,0.10801500000000001,0.0,208.275,208.22500000000002,205.17666666666668,205.17666666666668,0.0,0.0
8,0.0,1.0,0.0,1.0,1.0,0.0,0.0,1.0,0.0,0.0,1.0,1.1856,26.0,0.0,0.0,0.0,59.999996,0.0,26.0,26.0,26.0,26.0,-0.0387777777777778,0.29510000000000014,-0.03946666666666667,293.411,-2.6985,-2.7126,-1.5007000000000001,-1.5531000000000001,-249.05,216.17000000000002,190.82925,0.0,0.0,0.0,0.0,0.017066666666666563,-5.498166666666667,-5.498166666666667,-0.5344,-0.4723333333333333,-0.03362500000000024,-0.478,66.637,-0.048600000000000004,-0.21415,-0.02400000000000002,100.0,1.0,1.0,205.56666666666666,0.0,0.0,0.0,0.0,0.0,0.0,0.0,8713.3,0.0,55.0,5.0,239.86333333333334,0.0,0.0,0.0,0.0,0.0,0.0,0.0,0.0,0.40800000000000125,0.40800000000000125,0.0,0.0,0.0,55.0,616.79921,10000.0,85.000001,85.000001,85.000001,85.000001,395.0,0.0,0.0,0.0,1.0,333.33500000000004,53.665,53.665,48.05,48.05,34.0,-23.8325,21.658,-31.276666666666664,26.552500000000002,0.0,1783.244,-0.34499999999999886,100.0,27.428,26.943,42.731,42.019999999999996,0.0,1.0,100.0,0.0,0.0,0.0,0.0,2962.5714285714284,2895.9,4187.875,4115.2,305.9025,305.4905,314.58633333333336,314.54,21.844,20.553,21.8105,21.3401,314.999998,314.999998,324.999988,324.999988,99.5583,99.50731666666667,99.56455714285714,99.5447,0.04600000000000026,-0.08333333333333326,-0.165,0.07233333333333333,-0.03833333333332689,-0.045000000000001705,1.5195,1.5006666666666666,37.525,29.4565,37.316,34.376,55.927,34.743,58.818,51.5605,53.872,33.905,57.451499999999996,49.9245,53.048,33.469,57.403999999999996,49.34733333333333,-0.10749999999999993,-0.0475000000000001,0.10798,0.10931,0.0,208.69,208.68,205.56666666666666,205.56666666666666,0.0,0.0
9,0.0,1.0,0.0,1.0,1.0,0.0,0.0,1.0,0.0,0.0,1.0,1.1856,26.0,0.0,0.0,0.0,59.999996,0.0,26.0,26.0,26.0,26.0,-0.02922222222222215,0.2924,0.04186666666666667,293.03,-2.6236,-2.7231,-1.5542500000000001,-1.5564,-245.65,216.14249999999998,190.808125,0.0,0.0,0.0,0.0,0.019066666666666565,-5.498166666666667,-5.498166666666667,-0.5393,0.738,-0.03275000000000006,0.861,66.779,-0.028,-0.21335,-0.16199999999999992,100.0,1.0,1.0,206.11666666666667,0.0,0.0,0.0,0.0,0.0,0.0,0.0,8736.5,0.0,55.0,5.0,240.37333333333333,1.0,0.0,0.0,0.0,0.0,0.0,0.0,0.0,0.45899999999999963,0.45899999999999963,0.0,0.0,1.0,55.0,616.79921,10000.0,85.000001,85.000001,85.000001,85.000001,395.0,0.0,0.0,0.0,1.0,166.665,52.382999999999996,52.382999999999996,49.072,49.072,34.0,-24.8325,24.63,-28.023333333333333,27.085,0.0,1783.194,-0.5150000000000006,100.0,28.049,27.236,42.49,41.943,0.0,1.0,100.0,0.0,0.0,0.0,0.0,3258.857142857143,3092.4,4004.125,4113.8,304.7945,304.9925,315.12333333333333,314.69625,21.8538,20.5584,21.8208,21.349,314.999998,314.999998,324.999988,324.999988,99.55831428571429,99.50731666666667,99.5647,99.54484285714285,0.07624999999999993,-0.05233333333333312,-0.126,0.09133333333333334,-0.046666666666666856,-0.05666666666667197,1.582,1.573,37.586,29.490000000000002,37.379999999999995,34.431,55.915,34.7825,58.856,51.6215,53.86,33.9415,57.487,49.983000000000004,53.035,33.504,57.437,49.405,-0.11599999999999999,-0.04049999999999998,0.10493500000000001,0.11102000000000001,0.0,209.14499999999998,209.16500000000002,206.11666666666667,206.11666666666667,0.0,0.0
10,0.0,1.0,0.0,1.0,1.0,0.0,0.0,1.0,0.0,0.0,1.0,1.1856,26.0,0.0,0.0,0.0,59.999996,0.0,26.0,26.0,26.0,26.0,0.0086666666666666,0.28500000000000014,0.05393333333333334,292.923,-2.6595,-2.7045,-1.5338,-1.5361,-242.44,216.1175,190.788625,0.0,0.0,0.0,0.0,0.02093333333333336,-5.498166666666667,-5.498166666666667,-0.517,-0.5023333333333333,0.008124999999999938,1.838,66.917,-0.0095,-0.20535,-0.5060000000000002,100.0,1.0,1.0,206.34333333333333,0.0,0.0,0.0,0.0,0.0,0.0,0.0,8746.2,0.0,55.0,5.0,240.87333333333333,0.0,0.0,0.0,0.0,0.0,0.0,1.0,0.0,0.5069999999999979,0.5069999999999979,0.0,0.0,0.0,55.0,616.79921,10000.0,85.000001,85.000001,85.000001,85.000001,395.0,0.0,0.0,0.0,1.0,333.33500000000004,53.467,53.467,47.546,47.546,34.0,-20.4325,24.003999999999998,-29.613333333333337,30.8575,0.0,1783.145,-0.634999999999998,100.0,27.829,27.166,42.951,42.636,0.0,1.0,100.0,0.0,0.0,0.0,0.0,2813.4285714285716,2973.3,4251.25,4347.9,306.176,305.42725,314.35633333333334,314.05125,21.8629,20.563299999999998,21.8307,21.357599999999998,314.999998,314.999998,324.999988,324.999988,99.55832857142858,99.50731666666667,99.56482857142858,99.54497142857143,0.09575000000000022,-0.03433333333333333,-0.10866666666666668,0.12033333333333333,-0.041666666666671404,-0.04333333333332945,1.48,1.461,37.643,29.521,37.442,34.4845,55.903,34.817,58.897,51.6835,53.849000000000004,33.9735,57.525,50.042500000000004,53.022999999999996,33.5345,57.472,49.46333333333333,-0.12749999999999995,-0.022499999999999964,0.1092,0.11132,0.0,209.56,209.57999999999998,206.34333333333333,206.34333333333333,0.0,0.0
11,0.0,1.0,0.0,1.0,1.0,0.0,0.0,1.0,0.0,0.0,1.0,1.1856,26.0,0.0,0.0,0.0,59.999996,0.0,26.0,26.0,26.0,26.0,0.05544444444444441,0.27680000000000016,-0.10026666666666667,293.549,-2.7096999999999998,-2.6834,-1.5906500000000001,-1.5234,-239.01999999999998,216.09,190.768,0.0,0.0,0.0,0.0,0.022599999999999953,-5.498166666666667,-5.498166666666667,-0.5609000000000001,-0.21833333333333335,0.03137499999999993,-0.663,67.056,0.0109,-0.237375,-0.6120000000000001,100.0,1.0,1.0,207.08666666666667,0.0,0.0,0.0,0.0,0.0,0.0,0.0,8777.7,0.0,55.0,5.0,241.37333333333333,1.0,0.0,0.0,0.0,0.0,0.0,1.0,0.0,0.5579999999999998,0.5579999999999998,0.0,0.0,1.0,55.0,616.79921,10000.0,85.000001,85.000001,85.000001,85.000001,395.0,0.0,0.0,0.0,1.0,333.33500000000004,52.872,52.872,49.301,49.301,34.0,-22.8275,25.7,-24.159999999999997,26.630000000000003,0.0,1783.095,-0.6050000000000004,100.0,27.429,27.52,42.296,42.595,0.0,1.0,100.0,0.0,0.0,0.0,0.0,3080.285714285714,3090.0,3702.875,3848.8,305.5725,304.83875,315.86833333333334,315.25825,21.8724,20.5687,21.841,21.3665,314.999998,314.999998,324.999988,324.999988,99.55832857142858,99.50731666666667,99.56497142857143,99.54511428571429,0.09850000000000003,-0.022333333333333316,-0.09133333333333334,0.13633333333333333,-0.06499999999999773,-0.051666666666669414,1.6365,1.615,37.702,29.554499999999997,37.506,34.5405,55.888999999999996,34.855000000000004,58.933,51.745,53.835,34.0085,57.5585,50.1015,53.009,33.568,57.5025,49.52133333333333,-0.12049999999999994,-0.02300000000000013,0.10114000000000001,0.10597000000000001,0.0,209.985,210.015,207.08666666666667,207.08666666666667,0.0,0.0
12,0.0,1.0,0.0,1.0,1.0,0.0,0.0,1.0,0.0,0.0,1.0,1.1856,26.0,0.0,0.0,0.0,59.999996,0.0,26.0,26.0,26.0,26.0,0.04699999999999993,0.30069999999999997,0.03156666666666667,292.953,-2.7609,-2.6784,-1.5503,-1.5244,-235.8,216.065,190.74725,0.0,0.0,0.0,0.0,0.025466666666666526,-5.498166666666667,-5.498166666666667,-0.5462,0.281,0.01637500000000003,-0.895,67.193,0.0287,-0.20565,-0.6879999999999997,100.0,1.0,1.0,207.26999999999998,0.0,0.0,0.0,0.0,0.0,0.0,0.0,8785.4,0.0,55.0,5.0,241.86666666666667,0.0,0.0,0.0,0.0,0.0,0.0,1.0,0.0,0.6059999999999981,0.6059999999999981,0.0,0.0,0.0,55.0,616.79921,10000.0,85.000001,85.000001,85.000001,85.000001,395.0,0.0,0.0,0.0,1.0,166.665,52.811,52.811,47.943,47.943,34.0,-23.665,25.311999999999998,-27.35,30.5825,0.0,1783.049,-0.4499999999999993,100.0,27.328,27.709,42.207,42.538,0.0,1.0,100.0,0.0,0.0,0.0,0.0,3128.857142857143,3095.7,4232.25,4164.4,305.487,304.845,314.5826666666667,314.4755,21.8813,20.5739,21.8507,21.3748,314.999998,314.999998,324.999988,324.999988,99.55835714285715,99.50733333333334,99.56511428571429,99.54524285714285,0.09825000000000017,-0.03133333333333321,-0.074,0.15183333333333335,-0.07166666666666544,-0.054999999999999716,1.5415,1.5106666666666668,37.757999999999996,29.587,37.567,34.5925,55.878,34.8905,58.9705,51.804,53.824,34.0415,57.5935,50.158,52.997,33.5995,57.5345,49.57666666666667,-0.11249999999999993,-0.04200000000000004,0.10588,0.11225,0.0,210.42000000000002,210.445,207.26999999999998,207.26999999999998,0.0,0.0
13,0.0,1.0,0.0,1.0,1.0,0.0,0.0,1.0,0.0,0.0,1.0,1.1856,26.0,0.0,0.0,0.0,59.999996,0.0,26.0,26.0,26.0,26.0,0.07222222222222219,0.28070000000000017,0.0558,292.557,-2.7327,-2.6775,-1.621,-1.5084,-232.37,216.04000000000002,190.7255,0.0,0.0,0.0,0.0,0.026766666666666605,-5.498166666666667,-5.498166666666667,-0.5393,-0.058666666666666666,0.023249999999999993,1.088,67.336,0.0363,-0.214725,-0.8559999999999999,100.0,1.0,1.0,207.65333333333334,0.0,0.0,0.0,0.0,0.0,0.0,0.0,8801.7,0.0,55.0,5.0,242.38,1.0,0.0,0.0,0.0,0.0,0.0,1.0,0.0,0.657,0.657,0.0,0.0,1.0,55.0,616.79921,10000.0,85.000001,85.000001,85.000001,85.000001,395.0,0.0,0.0,0.0,1.0,166.665,52.475,52.475,47.897,47.897,34.0,-20.97,28.002000000000002,-27.299999999999997,32.6125,0.0,1782.998,-0.8649999999999984,100.0,27.808,27.772,42.536,42.937,0.0,1.0,100.0,0.0,0.0,0.0,0.0,3055.857142857143,3189.0,4159.75,4356.2,305.478,304.7295,314.66633333333334,314.071,21.8909,20.5794,21.8611,21.384,314.999998,314.999998,324.999988,324.999988,99.55837142857143,99.50733333333334,99.56525714285715,99.5454,0.1462500000000002,0.0173333333333332,-0.06016666666666667,0.16183333333333336,-0.03999999999999915,-0.05333333333332746,1.5085,1.4893333333333334,37.818,29.621499999999997,37.632,34.6495,55.867999999999995,34.929,59.010999999999996,51.8695,53.815,34.076499999999996,57.631,50.221000000000004,52.986000000000004,33.6335,57.569,49.638666666666666,-0.14249999999999996,-0.008499999999999952,0.10583000000000001,0.10148000000000001,0.0,210.845,210.9,207.65333333333334,207.65333333333334,0.0,0.0
14,0.0,1.0,0.0,1.0,1.0,0.0,0.0,1.0,0.0,0.0,1.0,1.1856,26.0,0.0,0.0,0.0,59.999996,0.0,26.0,26.0,26.0,26.0,0.09600000000000009,0.27680000000000016,-0.011633333333333334,292.847,-2.7396,-2.6151,-1.5981,-1.5106000000000002,-228.93,216.01749999999998,190.70425,0.0,0.0,0.0,0.0,0.028766666666666607,-5.498166666666667,-5.498166666666667,-0.5492,-0.17566666666666667,0.04974999999999996,-0.10000000000000009,67.475,0.0507,-0.2291,-1.0079999999999991,100.0,1.0,1.0,208.17666666666668,0.0,0.0,0.0,0.0,0.0,0.0,0.0,8823.9,0.0,55.0,5.0,242.88333333333333,0.0,0.0,0.0,0.0,0.0,0.0,1.0,0.0,0.7079999999999984,0.7079999999999984,0.0,0.0,0.0,55.0,616.79921,10000.0,85.000001,85.000001,85.000001,85.000001,395.0,0.0,0.0,0.0,1.0,166.665,52.612,52.612,48.141,48.141,34.0,-20.6275,27.604,-25.28333333333333,31.0125,0.0,1782.946,-0.9499999999999993,100.0,27.531,27.97,42.382,43.226,0.0,1.0,100.0,0.0,0.0,0.0,0.0,3036.857142857143,3158.9,4006.875,4150.1,305.7145,304.65975,315.084,314.5035,21.9005,20.5849,21.8715,21.393,314.999998,314.999998,324.999988,324.999988,99.55838571428572,99.50733333333334,99.5654,99.54554285714286,0.14774999999999983,0.022666666666666835,-0.05483333333333334,0.16633333333333333,-0.041666666666671404,-0.054999999999999716,1.555,1.5146666666666666,37.878,29.6555,37.697,34.7065,55.858999999999995,34.967,59.0495,51.9335,53.805,34.112,57.6665,50.2825,52.976,33.667,57.6015,49.699,-0.15200000000000002,-0.001000000000000112,0.10822000000000001,0.104275,0.0,211.26999999999998,211.32999999999998,208.17666666666668,208.17666666666668,0.0,0.0
15,0.0,1.0,0.0,1.0,1.0,0.0,0.0,1.0,0.0,0.0,1.0,1.1856,26.0,0.0,0.0,0.0,59.999996,0.0,26.0,26.0,26.0,26.0,0.11477777777777787,0.2833000000000001,0.020300000000000002,292.892,-2.747,-2.572,-1.62635,-1.4511,-225.49,215.995,190.68275,0.0,0.0,0.0,0.0,0.03076666666666661,-5.498166666666667,-5.498166666666667,-0.5395,0.22866666666666666,0.08525000000000005,0.909,67.616,0.06420000000000001,-0.20795000000000002,-1.2079999999999993,100.0,1.0,1.0,208.58333333333331,0.0,0.0,0.0,0.0,0.0,0.0,0.0,8841.1,0.0,55.0,5.0,243.39,1.0,0.0,0.0,0.0,0.0,0.0,1.0,0.0,0.7590000000000003,0.7590000000000003,0.0,0.0,1.0,55.0,616.79921,10000.0,85.000001,85.000001,85.000001,85.000001,395.0,0.0,0.0,0.0,1.0,166.665,52.902,52.902,48.203,48.203,34.0,-17.9575,28.468,-24.023333333333326,34.305,0.0,1782.895,-0.9699999999999989,100.0,27.609,27.869,42.172,43.2,0.0,1.0,100.0,0.0,0.0,0.0,0.0,2776.857142857143,3240.9,3926.375,4420.6,306.3315,304.5745,315.25866666666667,313.9455,21.91,20.5905,21.8817,21.4021,314.999998,314.999998,324.999988,324.999988,99.5584,99.50735,99.56554285714286,99.54568571428571,0.1695000000000002,0.03833333333333311,-0.0335,0.20033333333333334,-0.03833333333332689,-0.030000000000001137,1.555,1.5163333333333333,37.937,29.6905,37.760999999999996,34.763,55.849000000000004,35.006,59.086,51.9985,53.796,34.147999999999996,57.7005,50.345,52.965,33.702,57.6325,49.760666666666665,-0.15349999999999997,-0.0020000000000000018,0.11127000000000001,0.106505,0.0,211.70499999999998,211.765,208.58333333333331,208.58333333333331,0.0,0.0
16,0.0,1.0,0.0,1.0,1.0,0.0,0.0,1.0,0.0,0.0,1.0,1.1856,26.0,0.0,0.0,0.0,59.999996,0.0,26.0,26.0,26.0,26.0,0.12233333333333318,0.27560000000000007,-0.012766666666666667,292.892,-2.8062,-2.5826000000000002,-1.5995,-1.4529,-222.24,215.98000000000002,190.662,0.0,0.0,0.0,0.0,0.03266666666666651,-5.498166666666667,-5.498166666666667,-0.5613,-0.748,0.07137499999999997,0.05399999999999994,67.748,0.0772,-0.22490000000000002,-1.2979999999999992,100.0,1.0,1.0,208.99333333333334,0.0,0.0,0.0,0.0,0.0,0.0,0.0,8858.5,0.0,55.0,5.0,243.86333333333334,0.0,0.0,0.0,0.0,0.0,0.0,1.0,0.0,0.8069999999999986,0.8069999999999986,0.0,0.0,0.0,55.0,616.79921,10000.0,85.000001,85.000001,85.000001,85.000001,395.0,0.0,0.0,0.0,1.0,166.665,52.75,52.75,47.943,47.943,34.0,-19.68,29.328,-23.08333333333333,32.5625,0.0,1782.847,-0.8550000000000004,100.0,27.288,27.969,42.426,43.351,0.0,1.0,100.0,0.0,0.0,0.0,0.0,2926.285714285714,3303.2,3931.375,4171.4,306.0185,304.415,315.236,314.51775,21.918599999999998,20.5957,21.8915,21.4107,314.999998,314.999998,324.999988,324.999988,99.55841428571429,99.50735,99.56567142857143,99.54582857142857,0.16475000000000017,0.04233333333333311,-0.021333333333333333,0.21133333333333335,-0.045000000000001705,-0.04999999999999716,1.5625,1.5270000000000001,37.991,29.7235,37.822,34.8165,55.837,35.0435,59.1235,52.0585,53.784,34.1825,57.7355,50.403,52.953,33.735,57.664500000000004,49.81733333333334,-0.14,-0.010000000000000009,0.11072000000000001,0.104955,0.0,212.095,212.155,208.99333333333334,208.99333333333334,0.0,0.0
17,0.0,1.0,0.0,1.0,1.0,0.0,0.0,1.0,0.0,0.0,1.0,1.1856,26.0,0.0,0.0,0.0,59.999996,0.0,26.0,26.0,26.0,26.0,0.11744444444444446,0.28910000000000013,0.0067,292.542,-2.7664,-2.5631,-1.6388500000000001,-1.4753,-218.78,215.965,190.639375,0.0,0.0,0.0,0.0,0.03466666666666651,-5.498166666666667,-5.498166666666667,-0.5507000000000001,0.5193333333333334,0.046499999999999986,-0.6380000000000001,67.887,0.0819,-0.20625000000000002,-1.0579999999999998,100.0,1.0,1.0,209.39,0.0,0.0,0.0,0.0,0.0,0.0,0.0,8875.3,0.0,55.0,5.0,244.36333333333334,1.0,0.0,0.0,0.0,0.0,0.0,1.0,0.0,0.8580000000000005,0.8580000000000005,0.0,0.0,1.0,55.0,616.79921,10000.0,85.000001,85.000001,85.000001,85.000001,395.0,0.0,0.0,0.0,1.0,166.665,52.46,52.46,47.867,47.867,34.0,-20.5125,27.086,-25.806666666666665,33.4725,0.0,1782.796,-0.9100000000000001,100.0,27.646,28.38,42.141,43.418,0.0,1.0,100.0,0.0,0.0,0.0,0.0,3099.714285714286,3078.6,4264.875,4250.3,305.582,304.9395,314.6003333333333,314.34125,21.9281,20.601399999999998,21.901699999999998,21.4197,314.999998,314.999998,324.999988,324.999988,99.55844285714285,99.50735,99.56581428571428,99.54598571428572,0.1665000000000001,0.04166666666666696,-0.02,0.20650000000000002,-0.051666666666669414,-0.051666666666669414,1.5525,1.5006666666666666,38.051,29.759,37.885999999999996,34.873,55.83,35.0845,59.161,52.122,53.777,34.2205,57.769999999999996,50.464,52.944,33.7715,57.695499999999996,49.87733333333333,-0.15000000000000002,-0.007500000000000062,0.10476,0.11610500000000001,0.0,212.555,212.635,209.39,209.39,0.0,0.0
18,0.0,1.0,0.0,1.0,1.0,0.0,0.0,1.0,0.0,0.0,1.0,1.1856,26.0,0.0,0.0,0.0,59.999996,0.0,26.0,26.0,26.0,26.0,0.12455555555555575,0.2633000000000001,-0.0032666666666666664,292.435,-2.7989,-2.5351,-1.66065,-1.4174,-215.31,215.9525,190.617,0.0,0.0,0.0,0.0,0.036699999999999955,-5.498166666666667,-5.498166666666667,-0.5605,-0.4533333333333333,0.078125,1.012,68.026,0.08030000000000001,-0.22387500000000002,-1.314,100.0,1.0,1.0,209.82666666666665,0.0,0.0,0.0,0.0,0.0,0.0,0.0,8893.8,0.0,55.0,5.0,244.86333333333334,0.0,0.0,0.0,0.0,0.0,0.0,1.0,0.0,0.9089999999999989,0.9089999999999989,0.0,0.0,0.0,55.0,616.79921,10000.0,85.000001,85.000001,85.000001,85.000001,395.0,0.0,0.0,0.0,1.0,166.665,52.277,52.277,47.638,47.638,34.0,-18.8175,30.914,-24.233333333333334,32.8275,0.0,1782.745,-1.1400000000000006,100.0,27.56,28.144,42.589,43.778999999999996,0.0,1.0,100.0,0.0,0.0,0.0,0.0,2996.285714285714,3413.6,3999.25,4249.2,305.772,304.10725,315.1116666666667,314.364,21.9374,20.607,21.9121,21.4289,314.999998,314.999998,324.999988,324.999988,99.55845714285714,99.50736666666667,99.56595714285714,99.54612857142857,0.19724999999999993,0.06333333333333346,-0.019,0.2105,-0.041666666666671404,-0.03999999999999915,1.5645,1.5086666666666666,38.108999999999995,29.794,37.951,34.931,55.821,35.125,59.2,52.188,53.768,34.2585,57.8065,50.5275,52.934,33.808,57.729,49.94,-0.16600000000000004,0.010000000000000009,0.10944500000000001,0.10267000000000001,0.0,212.95499999999998,213.015,209.82666666666665,209.82666666666665,0.0,0.0
19,0.0,1.0,0.0,1.0,1.0,0.0,0.0,1.0,0.0,0.0,1.0,1.1856,26.0,0.0,0.0,0.0,59.999996,0.0,26.0,26.0,26.0,26.0,0.11766666666666681,0.2881,0.05396666666666666,291.946,-2.7199999999999998,-2.636,-1.667,-1.4089,-211.84,215.945,190.594375,0.0,0.0,0.0,0.0,0.03869999999999996,-5.498166666666667,-5.498166666666667,-0.5475,0.8230000000000001,0.07537499999999997,-0.923,68.163,0.09190000000000001,-0.20927500000000002,-1.13,100.0,1.0,1.0,210.20333333333332,0.0,0.0,0.0,0.0,0.0,0.0,0.0,8909.7,0.0,55.0,5.0,245.36,1.0,0.0,0.0,0.0,0.0,0.0,1.0,0.0,0.9600000000000009,0.9600000000000009,0.0,0.0,1.0,55.0,616.79921,10000.0,85.000001,85.000001,85.000001,85.000001,395.0,0.0,0.0,0.0,1.0,166.665,51.772999999999996,51.772999999999996,47.379,47.379,34.0,-20.9625,28.224,-25.990000000000002,34.135000000000005,0.0,1782.694,-0.35999999999999943,100.0,27.931,28.75,42.295,43.854,0.0,1.0,100.0,0.0,0.0,0.0,0.0,3093.714285714286,3231.0,4260.25,4422.7,305.475,304.2375,314.5996666666667,313.92825,21.9468,20.6129,21.9224,21.4381,314.999998,314.999998,324.999988,324.999988,99.55848571428571,99.50736666666667,99.56611428571429,99.54628571428572,0.14849999999999985,0.009333333333333194,-0.014333333333333335,0.20483333333333334,-0.06333333333333258,-0.04999999999999716,1.532,1.4916666666666667,38.168,29.8305,38.015,34.988,55.813,35.167500000000004,59.237,52.2525,53.760999999999996,34.2975,57.8405,50.59,52.925,33.8455,57.76,50.001666666666665,-0.11249999999999993,-0.04800000000000004,0.11139,0.10007,0.0,213.41500000000002,213.485,210.20333333333332,210.20333333333332,0.0,0.0
20,0.0,1.0,0.0,1.0,1.0,0.0,0.0,1.0,0.0,0.0,1.0,1.1856,26.0,0.0,0.0,0.0,59.999996,0.0,26.0,26.0,26.0,26.0,0.0932222222222221,0.2751000000000001,0.012700000000000001,292.389,-2.8009,-2.6078,-1.5767,-1.5477,-208.36,215.94,190.572125,0.0,0.0,0.0,0.0,0.0407333333333334,-5.498166666666667,-5.498166666666667,-0.5568000000000001,-1.2313333333333334,0.05912499999999987,0.041999999999999926,68.30199999999999,0.08370000000000001,-0.22395,-0.3420000000000005,100.0,1.0,1.0,210.57,0.0,0.0,0.0,0.0,0.0,0.0,0.0,8925.2,0.0,55.0,5.0,245.86333333333334,0.0,0.0,0.0,0.0,0.0,0.0,0.0,0.0,1.0109999999999992,1.0109999999999992,0.0,0.0,0.0,55.0,616.79921,10000.0,85.000001,85.000001,85.000001,85.000001,395.0,0.0,0.0,0.0,1.0,166.665,52.811,52.811,47.073,47.073,34.0,-21.0825,25.992,-24.39,34.432500000000005,0.0,1782.643,0.3949999999999996,100.0,27.53,28.116,43.085,44.05,0.0,1.0,100.0,0.0,0.0,0.0,0.0,2887.0,3211.6,4090.25,4239.0,306.1375,304.70275,314.77866666666665,314.27475,21.9559,20.6184,21.9329,21.4473,314.999998,314.999998,324.999988,324.999988,99.5585,99.50736666666667,99.56625714285714,99.54642857142858,0.12150000000000016,-0.020333333333333314,-0.02333333333333333,0.20183333333333334,-0.04833333333333201,-0.046666666666666856,1.4875,1.4763333333333333,38.224000000000004,29.865000000000002,38.081,35.045500000000004,55.799,35.205,59.278,52.3185,53.747,34.332499999999996,57.879,50.6535,52.91,33.879,57.795,50.064,-0.057499999999999996,-0.10699999999999998,0.10618500000000002,0.108035,0.0,213.815,213.835,210.57,210.57,0.0,0.0
21,0.0,1.0,0.0,1.0,1.0,0.0,0.0,1.0,0.0,0.0,1.0,1.1856,26.0,0.0,0.0,0.0,59.999996,0.0,26.0,26.0,26.0,26.0,0.05077777777777781,0.2763,-0.063,292.694,-2.6987,-2.678,-1.6251,-1.5221,-205.29,215.9375,190.55175,0.0,0.0,0.0,0.0,0.04253333333333331,-5.498166666666667,-5.498166666666667,-0.5776,0.501,0.022624999999999895,-1.3570000000000002,68.419,0.05,-0.22425,0.4039999999999999,100.0,1.0,1.0,211.16,0.0,0.0,0.0,0.0,0.0,0.0,0.0,8950.2,0.0,55.0,5.0,246.28,1.0,0.0,0.0,0.0,0.0,0.0,0.0,0.0,1.056000000000001,1.056000000000001,0.0,0.0,1.0,55.0,616.79921,10000.0,85.000001,85.000001,85.000001,85.000001,395.0,0.0,0.0,0.0,1.0,333.33500000000004,52.322,52.322,48.34,48.34,34.0,-23.6475,24.328,-26.42,28.5825,0.0,1782.597,0.490000000000002,100.0,27.857,28.289,42.492000000000004,43.46,0.0,1.0,100.0,0.0,0.0,0.0,0.0,3132.0,3071.0,4015.5,3967.0,305.413,304.8635,315.19266666666664,315.04025,21.964199999999998,20.6234,21.9418,21.4551,314.999998,314.999998,324.999988,324.999988,99.55851428571428,99.50738333333334,99.56637142857143,99.54655714285714,0.08924999999999983,-0.052000000000000046,-0.074,0.1555,-0.060000000000002274,-0.05333333333332746,1.5885,1.595,38.275999999999996,29.8965,38.135999999999996,35.0945,55.788,35.2405,59.308,52.371,53.736999999999995,34.365,57.9065,50.704499999999996,52.9,33.9105,57.820499999999996,50.11366666666667,-0.04399999999999993,-0.11850000000000005,0.103965,0.11232,0.0,214.26,214.22500000000002,211.16,211.16,0.0,0.0
22,0.0,1.0,0.0,1.0,1.0,0.0,0.0,1.0,0.0,0.0,1.0,1.1856,26.0,0.0,0.0,0.0,59.999996,0.0,26.0,26.0,26.0,26.0,-0.006666666666666599,0.2634000000000001,0.007533333333333333,292.16,-2.6521,-2.7110000000000003,-1.59855,-1.5329000000000002,-201.79,215.935,190.528,0.0,0.0,0.0,0.0,0.044533333333333314,-5.498166666666667,-5.498166666666667,-0.5558000000000001,0.10466666666666667,0.008499999999999952,0.735,68.55799999999999,0.008400000000000001,-0.20375000000000001,0.8020000000000014,100.0,1.0,1.0,211.37333333333333,0.0,0.0,0.0,0.0,0.0,0.0,0.0,8959.3,0.0,55.0,5.0,246.78,0.0,0.0,0.0,0.0,0.0,0.0,0.0,0.0,1.1069999999999993,1.1069999999999993,0.0,0.0,0.0,55.0,616.79921,10000.0,85.000001,85.000001,85.000001,85.000001,395.0,0.0,0.0,0.0,1.0,333.33500000000004,52.368,52.368,47.134,47.134,34.0,-23.384999999999998,23.552,-30.873333333333335,29.8075,0.0,1782.545,0.504999999999999,100.0,28.242,28.073999999999998,43.25,43.456,0.0,1.0,100.0,0.0,0.0,0.0,0.0,2966.714285714286,3104.5,4240.75,4304.7,305.6795,304.9175,314.51733333333334,314.27275,21.9736,20.629,21.9524,21.464199999999998,314.999998,314.999998,324.999988,324.999988,99.55851428571428,99.50738333333334,99.56652857142858,99.5467,0.05699999999999994,-0.08066666666666666,-0.11733333333333333,0.11333333333333333,-0.051666666666669414,-0.026666666666670835,1.47,1.504,38.335,29.9315,38.202,35.1515,55.775,35.281,59.35,52.4345,53.724000000000004,34.4025,57.945499999999996,50.7655,52.885999999999996,33.946,57.856,50.17333333333333,-0.03400000000000003,-0.123,0.10828000000000002,0.10927500000000001,0.0,214.695,214.60500000000002,211.37333333333333,211.37333333333333,0.0,0.0
23,0.0,1.0,0.0,1.0,1.0,0.0,0.0,1.0,0.0,0.0,1.0,1.1856,26.0,0.0,0.0,0.0,59.999996,0.0,26.0,26.0,26.0,26.0,-0.038555555555555565,0.2562,-0.037733333333333334,292.114,-2.6651,-2.6778,-1.5104000000000002,-1.6153,-198.29,215.9325,190.5045,0.0,0.0,0.0,0.0,0.046599999999999975,-5.498166666666667,-5.498166666666667,-0.5752,-0.265,-0.015000000000000124,-0.903,68.69200000000001,-0.025400000000000002,-0.2311,1.0139999999999993,100.0,1.0,1.0,211.87666666666667,0.0,0.0,0.0,0.0,0.0,0.0,0.0,8980.7,0.0,55.0,5.0,247.26666666666665,1.0,0.0,0.0,0.0,0.0,0.0,0.0,0.0,1.1580000000000013,1.1580000000000013,0.0,0.0,1.0,55.0,616.79921,10000.0,85.000001,85.000001,85.000001,85.000001,395.0,0.0,0.0,0.0,1.0,333.33500000000004,51.743,51.743,48.065,48.065,34.0,-28.4375,21.762,-29.123333333333335,26.0475,0.0,1782.494,0.490000000000002,100.0,28.459,28.182000000000002,43.531,43.604,0.0,1.0,100.0,0.0,0.0,0.0,0.0,3387.142857142857,3019.9,4015.25,3943.5,304.6175,305.0915,315.0593333333333,314.96725,21.9831,20.6346,21.9628,21.473399999999998,314.999998,314.999998,324.999988,324.999988,99.55852857142857,99.5074,99.56668571428571,99.54685714285715,0.029749999999999943,-0.10133333333333328,-0.15,0.07533333333333334,-0.03833333333332689,-0.030000000000001137,1.5234999999999999,1.5586666666666666,38.394,29.966,38.268,35.2085,55.760999999999996,35.3245,59.391999999999996,52.5005,53.71,34.442499999999995,57.9845,50.8285,52.870999999999995,33.9845,57.891999999999996,50.235,-0.040999999999999925,-0.11499999999999999,0.10232500000000001,0.10921000000000002,0.0,215.085,215.005,211.87666666666667,211.87666666666667,0.0,0.0
24,0.0,1.0,0.0,1.0,1.0,0.0,0.0,1.0,0.0,0.0,1.0,1.1856,26.0,0.0,0.0,0.0,59.999996,0.0,26.0,26.0,26.0,26.0,-0.07577777777777783,0.28080000000000016,-0.030633333333333332,292.419,-2.6769,-2.6993,-1.5453999999999999,-1.5636999999999999,-194.99,215.93,190.482,0.0,0.0,0.0,0.0,0.04849999999999999,-5.498166666666667,-5.498166666666667,-0.5780000000000001,-0.4683333333333333,-0.015625,-0.2530000000000001,68.82,-0.0466,-0.21657500000000002,0.9260000000000002,100.0,1.0,1.0,212.19,0.0,0.0,0.0,0.0,0.0,0.0,0.0,8993.9,0.0,55.0,5.0,247.72666666666666,0.0,0.0,0.0,0.0,0.0,0.0,0.0,0.0,1.2059999999999995,1.2059999999999995,0.0,0.0,0.0,55.0,616.79921,10000.0,85.000001,85.000001,85.000001,85.000001,395.0,0.0,0.0,0.0,1.0,333.33500000000004,52.917,52.917,47.104,47.104,34.0,-25.4675,19.734,-34.019999999999996,25.240000000000002,0.0,1782.446,0.39000000000000057,100.0,28.286,27.803,43.601,43.332,0.0,1.0,100.0,0.0,0.0,0.0,0.0,3020.714285714286,2861.9,4367.0,4083.3,305.755,305.64925,314.2423333333333,314.73025,21.992,20.6396,21.9726,21.4819,314.999998,314.999998,324.999988,324.999988,99.55852857142857,99.5074,99.56681428571429,99.54698571428571,0.016249999999999876,-0.12233333333333318,-0.17133333333333334,0.051166666666666666,-0.045000000000001705,-0.04833333333333201,1.4925,1.5213333333333334,38.45,29.997500000000002,38.329,35.2615,55.747,35.3595,59.428,52.554,53.697,34.475,58.0185,50.879999999999995,52.857,34.0155,57.9225,50.285666666666664,-0.04799999999999993,-0.11099999999999999,0.10734500000000001,0.106645,0.0,215.49,215.405,212.19,212.19,0.0,0.0
25,0.0,1.0,0.0,1.0,1.0,0.0,0.0,1.0,0.0,0.0,1.0,1.1856,26.0,0.0,0.0,0.0,59.999996,0.0,26.0,26.0,26.0,26.0,-0.0982222222222221,0.26360000000000006,-0.07780000000000001,292.389,-2.7281,-2.6765,-1.5505,-1.5775000000000001,-191.48000000000002,215.9225,190.45675,0.0,0.0,0.0,0.0,0.05053333333333332,-5.498166666666667,-5.498166666666667,-0.6123000000000001,-0.03266666666666666,-0.023625000000000007,-0.15700000000000003,68.952,-0.057100000000000005,-0.22595,0.7859999999999996,100.0,1.0,1.0,212.75333333333333,0.0,0.0,0.0,0.0,0.0,0.0,0.0,9017.9,0.0,55.0,5.0,248.2,1.0,0.0,0.0,0.0,0.0,0.0,0.0,0.0,1.256999999999998,1.256999999999998,0.0,0.0,1.0,55.0,616.79921,10000.0,85.000001,85.000001,85.000001,85.000001,395.0,0.0,0.0,0.0,1.0,333.33500000000004,51.956,51.956,48.019,48.019,34.0,-28.369999999999997,23.012,-30.33,24.3425,0.0,1782.395,0.34499999999999886,100.0,28.387999999999998,27.804000000000002,43.51,42.906,0.0,1.0,100.0,0.0,0.0,0.0,0.0,3278.5714285714284,3247.7,3967.0,3979.2,304.9675,304.61825,315.22433333333333,315.05575,22.0013,20.6451,21.9829,21.4908,314.999998,314.999998,324.999988,324.999988,99.55854285714285,99.50743333333334,99.56695714285715,99.54712857142857,0.020500000000000185,-0.10999999999999988,-0.17766666666666667,0.051333333333333335,-0.05833333333333002,-0.060000000000002274,1.56,1.5883333333333334,38.507999999999996,30.032,38.393,35.317499999999995,55.730000000000004,35.4015,59.4655,52.612,53.681,34.513999999999996,58.0535,50.936,52.841,34.0525,57.955,50.340333333333334,-0.05149999999999999,-0.1080000000000001,0.11091000000000001,0.10415,0.0,215.905,215.825,212.75333333333333,212.75333333333333,0.0,0.0
26,0.0,1.0,0.0,1.0,1.0,0.0,0.0,1.0,0.0,0.0,1.0,1.1856,26.0,0.0,0.0,0.0,59.999996,0.0,26.0,26.0,26.0,26.0,-0.11111111111111105,0.27649999999999997,0.09390000000000001,291.138,-2.6653000000000002,-2.7647,-1.5893000000000002,-1.5804,-187.75,215.91500000000002,190.429375,0.0,0.0,0.0,0.0,0.05269999999999997,-5.498166666666667,-5.498166666666667,-0.5681,0.599,-0.04937499999999995,0.722,69.09700000000001,-0.062400000000000004,-0.1942,0.6940000000000008,100.0,1.0,1.0,212.89333333333332,0.0,0.0,0.0,0.0,0.0,0.0,0.0,9023.7,0.0,55.0,5.0,248.72,0.0,0.0,0.0,0.0,0.0,0.0,0.0,0.0,1.311,1.311,0.0,0.0,0.0,55.0,616.79921,10000.0,85.000001,85.000001,85.000001,85.000001,395.0,0.0,0.0,0.0,1.0,166.665,51.544,51.544,46.066,46.066,34.0,-26.785,21.874000000000002,-37.52333333333333,28.7075,0.0,1782.343,0.08999999999999986,100.0,29.317,28.364,44.211,43.253,0.0,1.0,100.0,0.0,0.0,0.0,0.0,3204.0,3041.3,4623.125,4542.7,305.035,305.14425,313.64733333333334,313.72325,22.0116,20.6511,21.9941,21.5005,314.999998,314.999998,324.999988,324.999988,99.55854285714285,99.50745,99.56712857142857,99.54728571428572,0.03100000000000014,-0.1186666666666667,-0.17166666666666666,0.043833333333333335,-0.051666666666669414,-0.054999999999999716,1.4184999999999999,1.454,38.572,30.069499999999998,38.463,35.378,55.718,35.448,59.5115,52.6785,53.669,34.5565,58.0965,50.9995,52.827,34.094,57.9945,50.40233333333333,-0.07450000000000001,-0.09850000000000003,0.10032500000000001,0.10259000000000001,0.0,216.38,216.31,212.89333333333332,212.89333333333332,0.0,0.0
27,0.0,1.0,0.0,1.0,1.0,0.0,0.0,1.0,0.0,0.0,1.0,1.1856,26.0,0.0,0.0,0.0,59.999996,0.0,26.0,26.0,26.0,26.0,-0.0812222222222222,0.252,-0.031733333333333336,291.702,-2.6332,-2.7314,-1.5794000000000001,-1.6505,-184.43,215.905,190.406375,0.0,0.0,0.0,0.0,0.05463333333333331,-5.498166666666667,-5.498166666666667,-0.5998,-1.0496666666666667,-0.04837500000000006,0.779,69.22,-0.0587,-0.245125,0.48600000000000065,100.0,1.0,1.0,213.43666666666667,0.0,0.0,0.0,0.0,0.0,0.0,0.0,9046.8,0.0,55.0,5.0,249.17000000000002,1.0,0.0,0.0,0.0,0.0,0.0,0.0,0.0,1.3589999999999982,1.3589999999999982,0.0,0.0,1.0,55.0,616.79921,10000.0,85.000001,85.000001,85.000001,85.000001,395.0,0.0,0.0,0.0,1.0,166.665,51.804,51.804,46.768,46.768,34.0,-25.810000000000002,22.848,-31.6,26.5825,0.0,1782.295,0.019999999999999574,100.0,28.998,28.16,44.778999999999996,43.752,0.0,1.0,100.0,0.0,0.0,0.0,0.0,3140.285714285714,3126.3,4050.875,4016.3,305.2285,304.96925,314.8763333333333,314.8605,22.0205,20.6562,22.0041,21.5092,314.999998,314.999998,324.999988,324.999988,99.55854285714285,99.50745,99.56725714285714,99.54742857142857,0.032500000000000195,-0.10333333333333328,-0.1705,0.0635,-0.02833333333332888,-0.05833333333333002,1.5115,1.5270000000000001,38.628,30.1015,38.525999999999996,35.4325,55.703,35.4865,59.5515,52.7375,53.656,34.5925,58.134,51.056,52.813,34.128,58.028999999999996,50.45733333333334,-0.07650000000000001,-0.08350000000000013,0.11155500000000002,0.11328,0.0,216.685,216.64,213.43666666666667,213.43666666666667,0.0,0.0
28,0.0,1.0,0.0,1.0,1.0,0.0,0.0,1.0,0.0,0.0,1.0,1.1856,26.0,0.0,0.0,0.0,59.999996,0.0,26.0,26.0,26.0,26.0,-0.07011111111111101,0.2755000000000001,-0.050800000000000005,291.901,-2.6673,-2.7117,-1.5343,-1.608,-181.11,215.89249999999998,190.3825,0.0,0.0,0.0,0.0,0.05656666666666654,-5.498166666666667,-5.498166666666667,-0.6014,0.68,-0.04662500000000014,0.905,69.344,-0.0538,-0.21665,0.3979999999999997,100.0,1.0,1.0,213.89,0.0,0.0,0.0,0.0,0.0,0.0,0.0,9066.1,0.0,55.0,5.0,249.61,0.0,0.0,0.0,0.0,0.0,0.0,0.0,0.0,1.407,1.407,0.0,0.0,0.0,55.0,616.79921,10000.0,85.000001,85.000001,85.000001,85.000001,395.0,0.0,0.0,0.0,1.0,166.665,51.743,51.743,47.592,47.592,34.0,-25.905,22.86,-30.426666666666662,26.5,0.0,1782.247,-0.125,100.0,29.081,28.154,44.022999999999996,43.287,0.0,1.0,100.0,0.0,0.0,0.0,0.0,3207.857142857143,3082.3,4047.25,4129.6,305.0515,305.08275,315.01933333333335,314.713,22.0295,20.6615,22.0137,21.5177,314.999998,314.999998,324.999988,324.999988,99.55854285714285,99.50746666666667,99.5674,99.54755714285714,0.051750000000000185,-0.09066666666666667,-0.16566666666666666,0.06216666666666667,-0.041666666666671404,-0.04833333333333201,1.5385,1.5706666666666667,38.684,30.1345,38.586,35.4855,55.691,35.525999999999996,59.585499999999996,52.792,53.644,34.6285,58.1655,51.1085,52.801,34.1625,58.0575,50.50866666666667,-0.08999999999999997,-0.07600000000000007,0.10965000000000001,0.10446000000000001,0.0,217.095,217.065,213.89,213.89,0.0,0.0
29,0.0,1.0,0.0,1.0,1.0,0.0,0.0,1.0,0.0,0.0,1.0,1.1856,26.0,0.0,0.0,0.0,59.999996,0.0,26.0,26.0,26.0,26.0,-0.038111111111111096,0.258,0.04833333333333333,291.534,-2.6203,-2.7522,-1.5399500000000002,-1.5775000000000001,-177.57,215.88,190.356125,0.0,0.0,0.0,0.0,0.058633333333333315,-5.498166666666667,-5.498166666666667,-0.6056,-0.7523333333333334,-0.03862500000000013,-0.522,69.47800000000001,-0.040400000000000005,-0.21707500000000002,0.1379999999999999,100.0,1.0,1.0,214.12,0.0,0.0,0.0,0.0,0.0,0.0,0.0,9075.8,0.0,55.0,5.0,250.09666666666666,1.0,0.0,0.0,0.0,0.0,0.0,0.0,0.0,1.4579999999999984,1.4579999999999984,0.0,0.0,1.0,55.0,616.79921,10000.0,85.000001,85.000001,85.000001,85.000001,395.0,0.0,0.0,0.0,1.0,333.33500000000004,51.819,51.819,46.539,46.539,34.0,-25.924999999999997,23.378,-31.763333333333335,27.7975,0.0,1782.194,-0.17999999999999972,100.0,28.548000000000002,28.224,44.28,43.736000000000004,0.0,1.0,100.0,0.0,0.0,0.0,0.0,3281.142857142857,3067.1,4285.25,4203.5,305.0295,304.86375,314.42033333333336,314.38875,22.0387,20.667,22.0243,21.5269,314.999998,314.999998,324.999988,324.999988,99.55855714285714,99.50748333333334,99.56755714285714,99.54771428571429,0.051000000000000156,-0.09099999999999997,-0.14250000000000002,0.07233333333333333,-0.041666666666671404,-0.051666666666669414,1.4815,1.4666666666666668,38.742000000000004,30.1685,38.652,35.543,55.676,35.5655,59.628,52.8545,53.629999999999995,34.665,58.2055,51.1685,52.786,34.197,58.0945,50.567,-0.09599999999999997,-0.06600000000000006,0.102855,0.10587,0.0,217.485,217.45,214.12,214.12,0.0,0.0
30,0.0,1.0,0.0,1.0,1.0,0.0,0.0,1.0,0.0,0.0,1.0,1.1856,26.0,0.0,0.0,0.0,59.999996,0.0,26.0,26.0,26.0,26.0,-0.02200000000000002,0.2639,0.023733333333333335,291.10699999999997,-2.6832,-2.6333,-1.5199500000000001,-1.6318000000000001,-174.23000000000002,215.865,190.331125,0.0,0.0,0.0,0.0,0.060566666666666547,-5.498166666666667,-5.498166666666667,-0.6021000000000001,0.8336666666666667,-0.03312500000000007,-0.7050000000000001,69.6,-0.0263,-0.219525,0.05400000000000027,100.0,1.0,1.0,214.57999999999998,0.0,0.0,0.0,0.0,0.0,0.0,0.0,9095.3,0.0,55.0,5.0,250.53333333333336,0.0,0.0,0.0,0.0,0.0,0.0,1.0,0.0,1.5060000000000002,1.5060000000000002,0.0,0.0,0.0,55.0,616.79921,10000.0,85.000001,85.000001,85.000001,85.000001,395.0,0.0,0.0,0.0,1.0,333.33500000000004,50.781,50.781,46.982,46.982,34.0,-27.4025,23.195999999999998,-30.946666666666665,28.825000000000003,0.0,1782.146,-0.1999999999999993,100.0,29.349,28.982,44.044,43.774,0.0,1.0,100.0,0.0,0.0,0.0,0.0,3447.4285714285716,3098.8,4253.75,4189.0,304.471,304.76225,314.57866666666666,314.3815,22.0478,20.6724,22.034,21.5355,314.999998,314.999998,324.999988,324.999988,99.55857142857143,99.5075,99.5677,99.54787142857143,0.0674999999999999,-0.07633333333333314,-0.14,0.07966666666666668,-0.036666666666668846,-0.04999999999999716,1.482,1.4889999999999999,38.799,30.203,38.712,35.597,55.666,35.6085,59.665,52.915,53.620999999999995,34.704499999999996,58.24,51.2265,52.775,34.2355,58.126,50.624,-0.10599999999999998,-0.06350000000000011,0.11314,0.10398,0.0,217.885,217.89,214.57999999999998,214.57999999999998,0.0,0.0
31,0.0,1.0,0.0,1.0,1.0,0.0,0.0,1.0,0.0,0.0,1.0,1.1856,26.0,0.0,0.0,0.0,59.999996,0.0,26.0,26.0,26.0,26.0,-0.030444444444444385,0.24690000000000012,0.019,291.016,-2.7448,-2.6189,-1.5676999999999999,-1.5287000000000002,-170.67000000000002,215.8475,190.305375,0.0,0.0,0.0,0.0,0.06263333333333332,-5.498166666666667,-5.498166666666667,-0.5891000000000001,-0.6546666666666666,-0.02387499999999987,0.746,69.732,-0.0098,-0.21955000000000002,-0.2079999999999993,100.0,1.0,1.0,214.86666666666667,0.0,0.0,0.0,0.0,0.0,0.0,0.0,9107.5,0.0,55.0,5.0,251.01,1.0,0.0,0.0,0.0,0.0,0.0,1.0,0.0,1.5569999999999986,1.5569999999999986,0.0,0.0,1.0,55.0,616.79921,10000.0,85.000001,85.000001,85.000001,85.000001,395.0,0.0,0.0,0.0,1.0,166.665,51.468,51.468,45.563,45.563,34.0,-23.91,24.914,-31.056666666666665,29.5225,0.0,1782.097,-0.26500000000000057,100.0,29.136,28.810000000000002,44.802,44.382000000000005,0.0,1.0,100.0,0.0,0.0,0.0,0.0,3113.5714285714284,3240.9,4347.875,4212.2,305.486,304.75225,314.17633333333333,314.40525,22.0571,20.6781,22.0446,21.5449,314.999998,314.999998,324.999988,324.999988,99.55857142857143,99.5075,99.56784285714286,99.548,0.08999999999999986,-0.05166666666666675,-0.10733333333333334,0.1155,-0.04833333333333201,-0.04833333333333201,1.4565000000000001,1.449,38.857,30.238500000000002,38.778999999999996,35.6555,55.655,35.647,59.7055,52.9755,53.608999999999995,34.74,58.278,51.285,52.763,34.2695,58.1605,50.681,-0.10849999999999993,-0.058499999999999996,0.10652500000000001,0.106285,0.0,218.26,218.28,214.86666666666667,214.86666666666667,0.0,0.0
32,0.0,1.0,0.0,1.0,1.0,0.0,0.0,1.0,0.0,0.0,1.0,1.1856,26.0,0.0,0.0,0.0,59.999996,0.0,26.0,26.0,26.0,26.0,-0.00955555555555554,0.2670000000000001,-0.03116666666666667,291.199,-2.6578,-2.7155,-1.6362,-1.5314,-166.91,215.83249999999998,190.27825,0.0,0.0,0.0,0.0,0.0648333333333333,-5.498166666666667,-5.498166666666667,-0.6067,0.10400000000000001,-0.04249999999999998,0.31699999999999995,69.867,0.0013000000000000002,-0.22712500000000002,-0.21799999999999908,100.0,1.0,1.0,215.38333333333333,0.0,0.0,0.0,0.0,0.0,0.0,0.0,9129.3,0.0,55.0,5.0,251.49666666666667,0.0,0.0,0.0,0.0,0.0,0.0,1.0,0.0,1.6110000000000007,1.6110000000000007,0.0,0.0,0.0,55.0,616.79921,10000.0,85.000001,85.000001,85.000001,85.000001,395.0,0.0,0.0,0.0,1.0,166.665,51.346000000000004,51.346000000000004,46.463,46.463,34.0,-23.5675,25.444,-30.479999999999997,30.115000000000002,0.0,1782.043,-0.3049999999999997,100.0,29.111,28.875,44.375,44.186,0.0,1.0,100.0,0.0,0.0,0.0,0.0,3173.285714285714,3153.8,4254.875,4310.1,305.128,304.83725,314.606,314.3305,22.067,20.6843,22.0556,21.5546,314.999998,314.999998,324.999988,324.999988,99.5586,99.5075,99.568,99.54815714285715,0.09624999999999995,-0.046333333333333115,-0.10416666666666667,0.12033333333333333,-0.045000000000001705,-0.04333333333332945,1.526,1.522,38.919,30.2765,38.847,35.716,55.643,35.69,59.7445,53.039500000000004,53.598,34.78,58.314499999999995,51.3465,52.75,34.3075,58.194,50.741,-0.10649999999999993,-0.06000000000000005,0.10806500000000001,0.108295,0.0,218.7,218.69,215.38333333333333,215.38333333333333,0.0,0.0
33,0.0,1.0,0.0,1.0,1.0,0.0,0.0,1.0,0.0,0.0,1.0,1.1856,26.0,0.0,0.0,0.0,59.999996,0.0,26.0,26.0,26.0,26.0,0.0020000000000000018,0.25229999999999997,-0.04106666666666667,291.412,-2.7035,-2.7039,-1.5721500000000002,-1.6112000000000002,-163.55,215.8175,190.253125,0.0,0.0,0.0,0.0,0.06676666666666653,-5.498166666666667,-5.498166666666667,-0.6137,-0.3866666666666667,-0.03374999999999995,1.262,69.989,0.010400000000000001,-0.21695,-0.21399999999999952,100.0,1.0,1.0,215.73000000000002,0.0,0.0,0.0,0.0,0.0,0.0,0.0,9144.0,0.0,55.0,5.0,251.93666666666667,1.0,0.0,0.0,0.0,0.0,0.0,1.0,0.0,1.658999999999999,1.658999999999999,0.0,0.0,1.0,55.0,616.79921,10000.0,85.000001,85.000001,85.000001,85.000001,395.0,0.0,0.0,0.0,1.0,166.665,51.819,51.819,46.616,46.616,34.0,-23.035,24.619999999999997,-29.28,31.63,0.0,1781.995,-0.3249999999999993,100.0,28.893,28.617,44.325,44.211,0.0,1.0,100.0,0.0,0.0,0.0,0.0,3089.5714285714284,3081.5,4165.625,4294.9,305.441,305.07525,314.6786666666667,314.28075,22.0757,20.6895,22.0653,21.563299999999998,314.999998,314.999998,324.999988,324.999988,99.5586,99.50751666666666,99.56814285714286,99.5483,0.10024999999999995,-0.04733333333333323,-0.10666666666666667,0.123,-0.03999999999999915,-0.04833333333333201,1.4969999999999999,1.468,38.973,30.308999999999997,38.908,35.7705,55.631,35.725,59.7805,53.0975,53.587,34.8125,58.3475,51.402,52.739000000000004,34.338499999999996,58.224000000000004,50.79533333333333,-0.10749999999999993,-0.06000000000000005,0.110475,0.106575,0.0,219.065,219.07,215.73000000000002,215.73000000000002,0.0,0.0
34,0.0,1.0,0.0,1.0,1.0,0.0,0.0,1.0,0.0,0.0,1.0,1.1856,26.0,0.0,0.0,0.0,59.999996,0.0,26.0,26.0,26.0,26.0,0.026888888888888962,0.25880000000000014,-0.0497,291.763,-2.7407,-2.6181,-1.6447,-1.5603,-159.98000000000002,215.8,190.225125,0.0,0.0,0.0,0.0,0.06886666666666652,-5.498166666666667,-5.498166666666667,-0.6445000000000001,-0.8433333333333334,0.0020000000000000018,0.11599999999999999,70.118,0.0151,-0.22495,-0.18599999999999994,100.0,1.0,1.0,216.16,0.0,0.0,0.0,0.0,0.0,0.0,0.0,9162.3,0.0,55.0,5.0,252.4,0.0,0.0,0.0,0.0,0.0,0.0,1.0,0.0,1.7100000000000009,1.7100000000000009,0.0,0.0,0.0,55.0,616.79921,10000.0,85.000001,85.000001,85.000001,85.000001,395.0,0.0,0.0,0.0,1.0,166.665,52.124,52.124,47.226,47.226,34.0,-23.065,23.842,-28.519999999999996,30.0475,0.0,1781.944,-0.35999999999999943,100.0,28.485,28.496000000000002,43.957,44.364000000000004,0.0,1.0,100.0,0.0,0.0,0.0,0.0,3076.857142857143,3025.6,4064.0,4173.0,305.5445,305.11525,315.051,314.48725,22.0848,20.695,22.0756,21.572499999999998,314.999998,314.999998,324.999988,324.999988,99.55861428571428,99.50751666666666,99.56828571428571,99.54845714285715,0.10325000000000006,-0.03933333333333322,-0.09516666666666668,0.12816666666666665,-0.041666666666671404,-0.04833333333333201,1.526,1.5173333333333334,39.03,30.344,38.973,35.8285,55.620000000000005,35.7615,59.816,53.1595,53.576,34.846000000000004,58.381,51.4615,52.726,34.3705,58.254,50.85333333333333,-0.11349999999999993,-0.04800000000000004,0.10382500000000001,0.107115,0.0,219.43,219.445,216.16,216.16,0.0,0.0
35,0.0,1.0,0.0,1.0,1.0,0.0,0.0,1.0,0.0,0.0,1.0,1.1856,26.0,0.0,0.0,0.0,59.999996,0.0,26.0,26.0,26.0,26.0,0.019444444444444375,0.24960000000000004,-0.07623333333333335,291.733,-2.7129,-2.6288,-1.61555,-1.5213999999999999,-156.39999999999998,215.785,190.195125,0.0,0.0,0.0,0.0,0.0709333333333334,-5.498166666666667,-5.498166666666667,-0.6852,-0.24666666666666667,-0.014250000000000096,-0.21700000000000008,70.244,0.022600000000000002,-0.23117500000000002,-0.37399999999999967,100.0,1.0,1.0,216.63333333333333,0.0,0.0,0.0,0.0,0.0,0.0,0.0,9182.3,0.0,55.0,5.0,252.85666666666668,1.0,0.0,0.0,0.0,0.0,0.0,1.0,0.0,1.7609999999999992,1.7609999999999992,0.0,0.0,1.0,55.0,616.79921,10000.0,85.000001,85.000001,85.000001,85.000001,395.0,0.0,0.0,0.0,1.0,166.665,51.483000000000004,51.483000000000004,46.967,46.967,34.0,-22.884999999999998,27.732,-26.056666666666665,28.715,0.0,1781.893,-0.26500000000000057,100.0,28.442,28.706,43.761,43.826,0.0,1.0,100.0,0.0,0.0,0.0,0.0,3118.5714285714284,3406.8,3976.875,3985.1000000000004,305.383,304.084,315.168,315.029,22.0937,20.7008,22.0859,21.5816,314.999998,314.999998,324.999988,324.999988,99.55862857142857,99.50753333333333,99.56844285714286,99.5486,0.11100000000000021,-0.02933333333333321,-0.06916666666666667,0.1485,-0.04833333333333201,-0.05666666666667197,1.573,1.536,39.086,30.38,39.037,35.885,55.605999999999995,35.8005,59.8515,53.2175,53.562,34.8825,58.4135,51.5175,52.712,34.4055,58.283500000000004,50.908,-0.10299999999999998,-0.06299999999999994,0.099705,0.11102500000000001,0.0,219.845,219.85500000000002,216.63333333333333,216.63333333333333,0.0,0.0
36,0.0,1.0,0.0,1.0,1.0,0.0,0.0,1.0,0.0,0.0,1.0,1.1856,26.0,0.0,0.0,0.0,59.999996,0.0,26.0,26.0,26.0,26.0,0.036222222222222156,0.27049999999999996,0.03166666666666667,290.848,-2.7607,-2.664,-1.5659,-1.5762,-153.23,215.7725,190.167375,0.0,0.0,0.0,0.0,0.07276666666666654,-5.498166666666667,-5.498166666666667,-0.6641,0.362,-0.054625000000000146,-1.307,70.36,0.0238,-0.200825,-0.13399999999999945,100.0,1.0,1.0,216.74333333333334,0.0,0.0,0.0,0.0,0.0,0.0,0.0,9187.0,0.0,55.0,5.0,253.26999999999998,0.0,0.0,0.0,0.0,0.0,0.0,1.0,0.0,1.806000000000001,1.806000000000001,0.0,0.0,0.0,55.0,616.79921,10000.0,85.000001,85.000001,85.000001,85.000001,395.0,0.0,0.0,0.0,1.0,166.665,51.178,51.178,46.265,46.265,34.0,-25.41,25.52,-30.78333333333333,33.595,0.0,1781.848,-0.23000000000000043,100.0,28.839,29.023,43.827,44.126000000000005,0.0,1.0,100.0,0.0,0.0,0.0,0.0,3374.285714285714,3133.8,4487.5,4490.2,304.854,304.76325,314.0346666666667,313.77325,22.1019,20.706,22.095,21.5898,314.999998,314.999998,324.999988,324.999988,99.55864285714286,99.50753333333333,99.56857142857143,99.54874285714286,0.10850000000000026,-0.033666666666666734,-0.08566666666666667,0.13316666666666666,-0.02833333333332888,-0.046666666666666856,1.4489999999999998,1.4513333333333334,39.137,30.4125,39.094,35.936,55.597,35.836,59.8855,53.2725,53.554,34.915,58.445499999999996,51.570499999999996,52.703,34.437,58.3125,50.96,-0.10449999999999993,-0.06299999999999994,0.10134000000000001,0.10816,0.0,220.22500000000002,220.235,216.74333333333334,216.74333333333334,0.0,0.0
