,ABS Active,ABS Enabled,AID Allow Tire Blankets,AID Auto Blip,AID Auto Clutch,AID Auto Shift,AID Fuel Rate,AID Ideal Line,AID Mech Damage,AID Stability,AID Tire Wear Rate,Air Density,Air Temp,Ballast,Best Lap Delta,Best Lap Time,Brake Bias,Brake Pos,Brake Temp FL,Brake Temp FR,Brake Temp RL,Brake Temp RR,CG Accel Lateral,CG Accel Longitudinal,CG Accel Vertical,CG Height,Camber FL,Camber FR,Camber RL,Camber RR,Car Coord X,Car Coord Y,Car Coord Z,Car Damage Front,Car Damage Left,Car Damage Rear,Car Damage Right,Car Pos Norm,Caster FL,Caster FR,Chassis Pitch Angle,Chassis Pitch Rate,Chassis Roll Angle,Chassis Roll Rate,Chassis Velocity X,Chassis Velocity Y,Chassis Velocity Z,Chassis Yaw Rate,Clutch Pos,DRS Active,DRS Available,Drive Train Speed,ERS Heat Charging,ERS Is Charging,ERS Max Energy,ERS Power Level,ERS Recovery Level,Engine Brake Setting,Engine Limiter,Engine RPM,Flags,Fuel Level,Gear,Ground Speed,HR Sample Clock,In Pit,KERS Charge,KERS Deployed Energy,KERS Input,KERS Max Energy,LR Sample Clock,Lap Invalidated,Lap Time,Lap Time2,Last Lap Time,Last Sector Time,MR Sample Clock,Max Fuel,Max Power,Max RPM,Max Sus Travel FL,Max Sus Travel FR,Max Sus Travel RL,Max Sus Travel RR,Max Torque,Max Turbo Boost,Num Tires Off Track,Penalties Enabled,Position,Raw Data Sample Rate,Ride Height FL,Ride Height FR,Ride Height RL,Ride Height RR,Road Temp,Self Align Torque FL,Self Align Torque FR,Self Align Torque RL,Self Align Torque RR,Session Lap Count,Session Time Left,Steering Angle,Surface Grip,Suspension Travel FL,Suspension Travel FR,Suspension Travel RL,Suspension Travel RR,TC Active,TC Enabled,Throttle Pos,Tire Dirt Level FL,Tire Dirt Level FR,Tire Dirt Level RL,Tire Dirt Level RR,Tire Load FL,Tire Load FR,Tire Load RL,Tire Load RR,Tire Loaded Radius FL,Tire Loaded Radius FR,Tire Loaded Radius RL,Tire Loaded Radius RR,Tire Pressure FL,Tire Pressure FR,Tire Pressure RL,Tire Pressure RR,Tire Radius FL,Tire Radius FR,Tire Radius RL,Tire Radius RR,Tire Rubber Grip FL,Tire Rubber Grip FR,Tire Rubber Grip RL,Tire Rubber Grip RR,Tire Slip Angle FL,Tire Slip Angle FR,Tire Slip Angle RL,Tire Slip Angle RR,Tire Slip Ratio FL,Tire Slip Ratio FR,Tire Slip Ratio RL,Tire Slip Ratio RR,Tire Temp Core FL,Tire Temp Core FR,Tire Temp Core RL,Tire Temp Core RR,Tire Temp Inner FL,Tire Temp Inner FR,Tire Temp Inner RL,Tire Temp Inner RR,Tire Temp Middle FL,Tire Temp Middle FR,Tire Temp Middle RL,Tire Temp Middle RR,Tire Temp Outer FL,Tire Temp Outer FR,Tire Temp Outer RL,Tire Temp Outer RR,Toe In FL,Toe In FR,Toe In RL,Toe In RR,Turbo Boost,Wheel Angular Speed FL,Wheel Angular Speed FR,Wheel Angular Speed RL,Wheel Angular Speed RR,Wind Direction,Wind Speed
0,0.0,1.0,0.0,1.0,1.0,0.0,0.0,1.0,0.0,0.0,1.0,1.1856,26.0,0.0,0.0,0.0,59.99999,0.0,26.0,26.0,26.0,26.0,-0.02587499999999998,0.29720000000000013,0.17955000000000002,293.289,-2.7984999999999998,-2.618555555555556,-1.5620500000000002,-1.5058,-275.71,215.465,190.98775,0.0,0.0,0.0,0.0,0.0015666666666666667,-5.498166666666667,-5.498166666666667,-0.5613,1.4953333333333332,0.002888888888888941,-0.4790000000000001,65.533,-0.023200000000000002,-0.21880000000000002,0.012000000000000455,100.0,1.0,1.0,202.34,0.0,0.0,0.0,0.0,0.0,0.0,0.0,8576.4,0.0,55.0,5.0,235.88666666666666,0.0,0.0,0.0,0.0,0.0,0.0,0.0,0.0,0.0030000000000001137,0.0030000000000001137,0.0,0.0,0.0,55.0,616.79921,10000.0,85.0,85.0,85.0,85.0,395.0,0.0,0.0,0.0,1.0,20.0,51.025,51.025,48.981,48.981,34.0,-29.7775,32.966,-28.896666666666665,25.645,0.0,1783.475,0.20500000000000185,100.0,27.096,27.042,40.402,40.237,0.0,1.0,100.0,0.0,0.0,0.0,0.0,3395.0,4287.5,4042.625,4058.1000000000004,304.5335,301.554,315.031,314.69625,21.7795,20.5116,21.7377,21.2754,314.99999,314.99999,324.99998,324.99998,99.55917142857143,99.50715,99.56435714285715,99.54394285714285,0.028999999999999915,-0.07266666666666666,-0.13416666666666666,0.082,-0.06333333333333258,-0.024285714285717575,1.559,1.564,37.122,29.197666666666667,36.86,33.9715,56.382999999999996,34.4745,58.8185,51.254,54.293,33.637,57.4595,49.6255,53.458,33.19,57.4335,49.0525,-0.06400000000000006,-0.08349999999999991,0.10433,0.10667000000000001,0.0,205.35500000000002,205.275,202.34,202.34,0.0,0.0
1,0.0,1.0,0.0,1.0,1.0,0.0,0.0,1.0,0.0,0.0,1.0,1.1856,26.0,0.0,0.0,0.0,59.999996,0.0,26.0,26.0,26.0,26.0,-0.05399999999999994,0.3267,0.22855,292.145,-2.6935000000000002,-2.698666666666667,-1.6035,-1.3819,-272.17,215.4675,190.9665,0.0,0.0,0.0,0.0,0.003633333333333334,-5.498166666666667,-5.498166666666667,-0.4787,-2.0006666666666666,-0.045444444444444176,-0.5060000000000002,65.7,-0.0183,-0.18525,0.5579999999999998,100.0,1.0,1.0,202.23666666666668,0.0,0.0,0.0,0.0,0.0,0.0,0.0,8572.1,0.0,55.0,5.0,236.49,1.0,0.0,0.0,0.0,0.0,0.0,0.0,0.0,0.05699999999999861,0.05699999999999861,0.0,0.0,1.0,55.0,616.79921,10000.0,85.000001,85.000001,85.000001,85.000001,395.0,0.0,0.0,0.0,1.0,166.665,54.153,54.153,47.211,47.211,34.0,-23.12,17.387999999999998,-37.55,33.665,0.0,1783.422,0.34499999999999886,100.0,27.505,27.167,42.612,43.525999999999996,0.0,1.0,100.0,0.0,0.0,0.0,0.0,2860.857142857143,2480.5,4752.875,5270.8,306.173,306.92225,313.07875,311.325,21.7898,20.517,21.749299999999998,21.2853,314.999998,314.999998,324.999988,324.999988,99.55918571428572,99.50716666666666,99.56452857142857,99.5441,0.039000000000000146,-0.09666666666666668,-0.1335,0.07033333333333333,-0.054999999999999716,-0.02571428571428669,1.2836666666666667,1.311,37.186,29.231333333333332,36.933,34.033500000000004,56.364999999999995,34.515,58.87,51.3305,54.275999999999996,33.674,57.507999999999996,49.698499999999996,53.44,33.2255,57.4785,49.124,-0.04800000000000004,-0.10499999999999998,0.10336500000000001,0.11153,0.0,205.82,205.76,202.23666666666668,202.23666666666668,0.0,0.0
2,0.0,1.0,0.0,1.0,1.0,0.0,0.0,1.0,0.0,0.0,1.0,1.1856,26.0,0.0,0.0,0.0,59.999996,0.0,26.0,26.0,26.0,26.0,-0.07524999999999993,0.2922,0.035825,293.762,-2.6667,-2.652,-1.5726499999999999,-1.5167000000000002,-269.01,215.47,190.94875,0.0,0.0,0.0,0.0,0.0054666666666666665,-5.498166666666667,-5.498166666666667,-0.5791000000000001,0.35633333333333334,-0.006888888888889166,2.1390000000000002,65.826,-0.0238,-0.27165,0.7599999999999998,100.0,1.0,1.0,203.63666666666666,0.0,0.0,0.0,0.0,0.0,0.0,0.0,8631.4,0.0,55.0,5.0,236.94333333333333,0.0,0.0,0.0,0.0,0.0,0.0,0.0,0.0,0.10500000000000043,0.10500000000000043,0.0,0.0,0.0,55.0,616.79921,10000.0,85.000001,85.000001,85.000001,85.000001,395.0,0.0,0.0,0.0,1.0,333.33500000000004,51.772999999999996,51.772999999999996,50.613,50.613,34.0,-28.7875,22.82,-24.696666666666665,19.6175,0.0,1783.372,0.4400000000000013,100.0,28.113,27.486,41.935,41.872,0.0,1.0,100.0,0.0,0.0,0.0,0.0,3382.142857142857,3238.0,3499.625,3375.5,304.5165,304.45775,316.2875,316.517,21.7994,20.5219,21.7589,21.2932,314.999998,314.999998,324.999988,324.999988,99.55918571428572,99.50718333333333,99.56465714285714,99.54421428571429,0.021500000000000075,-0.1096666666666668,-0.15916666666666665,0.078,-0.07833333333332604,-0.0899999999999963,1.766,1.7885,37.245999999999995,29.262,36.992999999999995,34.082499999999996,56.352000000000004,34.5525,58.903,51.3765,54.263999999999996,33.709,57.5385,49.743,53.427,33.259,57.506,49.168,-0.046499999999999986,-0.1080000000000001,0.105135,0.10622000000000001,0.0,206.24,206.185,203.63666666666666,203.63666666666666,0.0,0.0
3,0.0,1.0,0.0,1.0,1.0,0.0,0.0,1.0,0.0,0.0,1.0,1.1856,26.0,0.0,0.0,0.0,59.999996,0.0,26.0,26.0,26.0,26.0,-0.0665,0.2944,0.033475000000000005,292.953,-2.6896,-2.6774444444444443,-1.55315,-1.4803,-265.65,215.47,190.928375,0.0,0.0,0.0,0.0,0.0074333333333333335,-5.498166666666667,-5.498166666666667,-0.4989,0.5376666666666666,0.008000000000000007,-2.29,65.983,-0.037200000000000004,-0.185625,0.6920000000000002,100.0,1.0,1.0,203.43666666666667,0.0,0.0,0.0,0.0,0.0,0.0,0.0,8622.9,0.0,55.0,5.0,237.50666666666666,1.0,0.0,0.0,0.0,0.0,0.0,0.0,0.0,0.1559999999999988,0.1559999999999988,0.0,0.0,1.0,55.0,616.79921,10000.0,85.000001,85.000001,85.000001,85.000001,395.0,0.0,0.0,0.0,1.0,166.665,53.345,53.345,47.44,47.44,34.0,-23.91,19.93,-34.833333333333336,27.1225,0.0,1783.323,0.5599999999999987,100.0,27.764,27.609,42.066,42.201,0.0,1.0,100.0,0.0,0.0,0.0,0.0,2857.5714285714284,2864.1,4543.75,4376.0,306.2295,305.51375,313.7725,313.8345,21.8091,20.5272,21.7694,21.3022,314.999998,314.999998,324.999988,324.999988,99.5592,99.50718333333333,99.56478571428572,99.54437142857142,0.014750000000000263,-0.1146666666666667,-0.14966666666666667,0.06283333333333334,-0.01999999999999602,-0.015714285714281573,1.4186666666666667,1.4695,37.307,29.295333333333332,37.058,34.138999999999996,56.334,34.5945,58.943,51.4445,54.245999999999995,33.748,57.576,49.808,53.409,33.2965,57.541,49.232,-0.03200000000000003,-0.11850000000000005,0.10350500000000001,0.10218500000000001,0.0,206.735,206.67000000000002,203.43666666666667,203.43666666666667,0.0,0.0
4,0.0,1.0,0.0,1.0,1.0,0.0,0.0,1.0,0.0,0.0,1.0,1.1856,26.0,0.0,0.0,0.0,59.999996,0.0,26.0,26.0,26.0,26.0,-0.073125,0.28200000000000003,0.006,293.335,-2.67285,-2.749888888888889,-1.491,-1.5973000000000002,-262.48,215.4675,190.910125,0.0,0.0,0.0,0.0,0.009266666666666668,-5.498166666666667,-5.498166666666667,-0.5333,-0.916,-0.045222222222222275,-0.7610000000000001,66.12,-0.0448,-0.23365000000000002,1.0359999999999996,100.0,1.0,1.0,204.07,0.0,0.0,0.0,0.0,0.0,0.0,0.0,8649.7,0.0,55.0,5.0,238.00333333333333,0.0,0.0,0.0,0.0,0.0,0.0,0.0,0.0,0.20400000000000063,0.20400000000000063,0.0,0.0,0.0,55.0,616.79921,10000.0,85.000001,85.000001,85.000001,85.000001,395.0,0.0,0.0,0.0,1.0,333.33500000000004,52.994,52.994,48.676,48.676,34.0,-27.947499999999998,19.558,-30.16,23.9325,0.0,1783.272,0.629999999999999,100.0,27.731,27.228,42.86,42.266999999999996,0.0,1.0,100.0,0.0,0.0,0.0,0.0,3221.4285714285716,2853.0,4074.625,3830.5,305.155,305.64475,314.90425,315.2555,21.8184,20.532,21.7794,21.3106,314.999998,314.999998,324.999988,324.999988,99.5592,99.50721666666666,99.56492857142857,99.54451428571429,0.0009999999999998899,-0.1346666666666667,-0.17133333333333334,0.06,-0.06499999999999773,-0.03285714285714647,1.5613333333333332,1.597,37.364999999999995,29.325,37.120999999999995,34.1915,56.317,34.634,58.9865,51.504999999999995,54.230000000000004,33.784,57.6165,49.866,53.391999999999996,33.331,57.578,49.2885,-0.030000000000000027,-0.12650000000000006,0.103705,0.103315,0.0,207.13,207.025,204.07,204.07,0.0,0.0
5,0.0,1.0,0.0,1.0,1.0,0.0,0.0,1.0,0.0,0.0,1.0,1.1856,26.0,0.0,0.0,0.0,59.999996,0.0,26.0,26.0,26.0,26.0,-0.07924999999999993,0.29269999999999996,-0.053775,293.655,-2.64855,-2.721,-1.5451000000000001,-1.5739,-258.9,215.465,190.88925,0.0,0.0,0.0,0.0,0.011333333333333334,-5.498166666666667,-5.498166666666667,-0.5373,0.5896666666666667,-0.028888888888888964,-0.45999999999999996,66.273,-0.063,-0.22282500000000002,0.9920000000000009,100.0,1.0,1.0,204.63666666666666,0.0,0.0,0.0,0.0,0.0,0.0,0.0,8673.8,0.0,55.0,5.0,238.55333333333334,1.0,0.0,0.0,0.0,0.0,0.0,0.0,0.0,0.2579999999999991,0.2579999999999991,0.0,0.0,1.0,55.0,616.79921,10000.0,85.000001,85.000001,85.000001,85.000001,395.0,0.0,0.0,0.0,1.0,166.665,53.238,53.238,49.072,49.072,34.0,-26.705,20.274,-30.666666666666664,23.095,0.0,1783.221,0.21499999999999986,100.0,27.643,27.145,42.406,41.724000000000004,0.0,1.0,100.0,0.0,0.0,0.0,0.0,3098.5714285714284,2889.4,3957.75,3956.5,305.45,305.4365,315.22925,315.0155,21.8289,20.5375,21.790399999999998,21.3198,314.999998,314.999998,324.999988,324.999988,99.5592,99.50721666666666,99.56508571428571,99.54464285714286,-0.0012499999999999734,-0.12033333333333318,-0.1925,0.03233333333333334,-0.03333333333333144,-0.0628571428571405,1.5813333333333333,1.6095,37.431,29.359666666666666,37.19,34.249,56.302,34.675,59.0245,51.564,54.215,33.8215,57.652,49.9225,53.376999999999995,33.367,57.611,49.344,-0.050000000000000044,-0.09549999999999992,0.10487,0.10898500000000001,0.0,207.635,207.565,204.63666666666666,204.63666666666666,0.0,0.0
6,0.0,1.0,0.0,1.0,1.0,0.0,0.0,1.0,0.0,0.0,1.0,1.1856,26.0,0.0,0.0,0.0,59.999996,0.0,26.0,26.0,26.0,26.0,-0.111375,0.29190000000000005,-0.0066,293.457,-2.67665,-2.7785555555555557,-1.48955,-1.5632000000000001,-255.92,215.46,190.871,0.0,0.0,0.0,0.0,0.0131,-5.498166666666667,-5.498166666666667,-0.5264,-0.26766666666666666,-0.0474444444444444,0.375,66.405,-0.0664,-0.20455,0.7720000000000002,100.0,1.0,1.0,204.87,0.0,0.0,0.0,0.0,0.0,0.0,0.0,8683.7,0.0,55.0,5.0,239.02666666666667,0.0,0.0,0.0,0.0,0.0,0.0,0.0,0.0,0.3030000000000008,0.3030000000000008,0.0,0.0,0.0,55.0,616.79921,10000.0,85.000001,85.000001,85.000001,85.000001,395.0,0.0,0.0,0.0,1.0,166.665,53.558,53.558,48.462,48.462,34.0,-26.7875,20.186,-32.156666666666666,24.675,0.0,1783.175,0.33000000000000185,100.0,27.561,26.642,42.7,41.787,0.0,1.0,100.0,0.0,0.0,0.0,0.0,3078.857142857143,2881.1,4195.375,4099.2,305.4425,305.7035,314.52325,314.67525,21.8375,20.542,21.7997,21.3277,314.999998,314.999998,324.999988,324.999988,99.5592,99.50723333333333,99.5652,99.54477142857142,-0.00024999999999986144,-0.127,-0.18066666666666667,0.0415,-0.04999999999999716,-0.05142857142857338,1.495,1.5415,37.483999999999995,29.387666666666668,37.248000000000005,34.2985,56.286,34.7095,59.0615,51.6195,54.2,33.8535,57.686,49.9755,53.361000000000004,33.3975,57.6425,49.396,-0.04349999999999987,-0.10250000000000004,0.11030500000000001,0.10323,0.0,208.01999999999998,207.95,204.87,204.87,0.0,0.0
7,0.0,1.0,0.0,1.0,1.0,0.0,0.0,1.0,0.0,0.0,1.0,1.1856,26.0,0.0,0.0,0.0,59.999996,0.0,26.0,26.0,26.0,26.0,-0.07824999999999993,0.2892000000000001,-0.0011,293.411,-2.62325,-2.7733333333333334,-1.54135,-1.6091,-252.53,215.45,190.850375,0.0,0.0,0.0,0.0,0.015066666666666666,-5.498166666666667,-5.498166666666667,-0.5338,0.12633333333333333,-0.04266666666666685,-0.2450000000000001,66.55,-0.0689,-0.21630000000000002,0.6539999999999999,100.0,1.0,1.0,205.38333333333333,0.0,0.0,0.0,0.0,0.0,0.0,0.0,8705.4,0.0,55.0,5.0,239.54666666666668,1.0,0.0,0.0,0.0,0.0,0.0,0.0,0.0,0.3539999999999992,0.3539999999999992,0.0,0.0,1.0,55.0,616.79921,10000.0,85.000001,85.000001,85.000001,85.000001,395.0,0.0,0.0,0.0,1.0,166.665,53.192,53.192,48.644999999999996,48.644999999999996,34.0,-26.595,20.932000000000002,-32.64333333333333,23.762500000000003,0.0,1783.124,-0.120000000000001,100.0,27.67,27.004,42.624,41.835,0.0,1.0,100.0,0.0,0.0,0.0,0.0,3188.142857142857,2859.6,4160.25,3949.7,305.2205,305.542,314.741,314.971,21.8474,20.5472,21.810200000000002,21.3366,314.999998,314.999998,324.999988,324.999988,99.5592,99.50723333333333,99.56535714285714,99.54491428571428,0.015750000000000153,-0.10866666666666669,-0.19266666666666665,0.033,-0.03833333333332689,-0.03285714285714647,1.561,1.5725,37.547,29.42,37.314,34.354,56.271,34.75,59.102000000000004,51.68,54.186,33.8905,57.724000000000004,50.034,53.346000000000004,33.433,57.678,49.453,-0.08099999999999996,-0.06899999999999995,0.10307000000000001,0.10608000000000001,0.0,208.46,208.39499999999998,205.38333333333333,205.38333333333333,0.0,0.0
8,0.0,1.0,0.0,1.0,1.0,0.0,0.0,1.0,0.0,0.0,1.0,1.1856,26.0,0.0,0.0,0.0,59.999996,0.0,26.0,26.0,26.0,26.0,-0.06387500000000002,0.2821,-0.01395,293.488,-2.66925,-2.708111111111111,-1.55565,-1.6014,-249.13,215.44,190.82975,0.0,0.0,0.0,0.0,0.017033333333333334,-5.498166666666667,-5.498166666666667,-0.5363,-0.113,-0.027444444444444382,0.373,66.694,-0.0606,-0.21965,0.2400000000000002,100.0,1.0,1.0,205.82333333333332,0.0,0.0,0.0,0.0,0.0,0.0,0.0,8724.1,0.0,55.0,5.0,240.07,0.0,0.0,0.0,0.0,0.0,0.0,0.0,0.0,0.40500000000000114,0.40500000000000114,0.0,0.0,0.0,55.0,616.79921,10000.0,85.000001,85.000001,85.000001,85.000001,395.0,0.0,0.0,0.0,1.0,166.665,53.314,53.314,48.492,48.492,34.0,-24.232499999999998,23.078,-30.2,25.875,0.0,1783.074,-0.254999999999999,100.0,27.53,26.928,42.685,41.884,0.0,1.0,100.0,0.0,0.0,0.0,0.0,2997.142857142857,3052.5,4026.25,4018.5,305.6395,305.151,314.9925,314.85575,21.8572,20.5525,21.8207,21.3456,314.999998,314.999998,324.999988,324.999988,99.55921428571429,99.50725,99.56548571428571,99.54505714285715,0.04325000000000001,-0.07733333333333325,-0.162,0.06633333333333333,-0.03999999999999915,-0.058571428571426054,1.5593333333333332,1.5475,37.608000000000004,29.453,37.379000000000005,34.41,56.254999999999995,34.789500000000004,59.141999999999996,51.7425,54.17,33.9275,57.7615,50.0935,53.33,33.4685,57.7125,49.5115,-0.09299999999999997,-0.052000000000000046,0.097015,0.11425,0.0,208.885,208.875,205.82333333333332,205.82333333333332,0.0,0.0
9,0.0,1.0,0.0,1.0,1.0,0.0,0.0,1.0,0.0,0.0,1.0,1.1856,26.0,0.0,0.0,0.0,59.999996,0.0,26.0,26.0,26.0,26.0,-0.04599999999999993,0.28,0.0094,293.289,-2.6711,-2.7215555555555557,-1.5206,-1.5598,-245.92000000000002,215.43,190.810125,0.0,0.0,0.0,0.0,0.0189,-5.498166666666667,-5.498166666666667,-0.5341,0.19766666666666666,-0.03733333333333322,0.7090000000000001,66.83,-0.0465,-0.2122,0.006000000000000227,100.0,1.0,1.0,206.2266666666667,0.0,0.0,0.0,0.0,0.0,0.0,0.0,8741.2,0.0,55.0,5.0,240.56,1.0,0.0,0.0,0.0,0.0,0.0,0.0,0.0,0.4529999999999994,0.4529999999999994,0.0,0.0,1.0,55.0,616.79921,10000.0,85.000001,85.000001,85.000001,85.000001,395.0,0.0,0.0,0.0,1.0,166.665,53.07,53.07,48.676,48.676,34.0,-24.8375,23.445999999999998,-29.5,26.59,0.0,1783.025,-0.3550000000000004,100.0,27.698,26.943,42.627,41.93,0.0,1.0,100.0,0.0,0.0,0.0,0.0,3103.5714285714284,3054.6,4033.75,4121.2,305.3255,305.15725,314.9695,314.64875,21.8664,20.5574,21.8305,21.354,314.999998,314.999998,324.999988,324.999988,99.55921428571429,99.50726666666667,99.56562857142858,99.54518571428571,0.052999999999999936,-0.07099999999999995,-0.15383333333333335,0.077,-0.045000000000001705,-0.03999999999999915,1.542,1.549,37.665,29.484,37.441,34.4625,56.241,34.826,59.1795,51.8,54.157,33.961,57.7965,50.149,53.316,33.5005,57.7445,49.566,-0.10149999999999992,-0.04600000000000026,0.11346,0.10927500000000001,0.0,209.305,209.29500000000002,206.2266666666667,206.2266666666667,0.0,0.0
10,0.0,1.0,0.0,1.0,1.0,0.0,0.0,1.0,0.0,0.0,1.0,1.1856,26.0,0.0,0.0,0.0,59.999996,0.0,26.0,26.0,26.0,26.0,-0.014249999999999985,0.2904,0.013425000000000001,293.182,-2.67695,-2.700555555555556,-1.5561500000000001,-1.5455999999999999,-242.31,215.41750000000002,190.788125,0.0,0.0,0.0,0.0,0.021,-5.498166666666667,-5.498166666666667,-0.5289,-0.21066666666666667,-0.012555555555555653,1.577,66.983,-0.027,-0.21077500000000002,-0.22000000000000064,100.0,1.0,1.0,206.62,0.0,0.0,0.0,0.0,0.0,0.0,0.0,8757.8,0.0,55.0,5.0,241.11,0.0,0.0,0.0,0.0,0.0,0.0,1.0,0.0,0.5069999999999979,0.5069999999999979,0.0,0.0,0.0,55.0,616.79921,10000.0,85.000001,85.000001,85.000001,85.000001,395.0,0.0,0.0,0.0,1.0,166.665,53.299,53.299,48.325,48.325,34.0,-23.0275,24.016,-29.38,28.745,0.0,1782.972,-0.4400000000000013,100.0,27.638,26.905,42.74,42.239000000000004,0.0,1.0,100.0,0.0,0.0,0.0,0.0,2982.4285714285716,3045.3,4086.0,4275.2,305.6675,305.20925,314.82375,314.27425,21.8768,20.563,21.8417,21.363599999999998,314.999998,314.999998,324.999988,324.999988,99.55922857142858,99.50726666666667,99.56578571428571,99.54532857142857,0.07200000000000006,-0.04966666666666675,-0.13033333333333336,0.09616666666666668,-0.04333333333332945,-0.03857142857143003,1.5226666666666668,1.5250000000000001,37.730000000000004,29.518666666666668,37.51,34.5225,56.226,34.866,59.2225,51.8665,54.143,33.998,57.8365,50.2125,53.301,33.536,57.7815,49.6285,-0.11199999999999988,-0.03200000000000003,0.100625,0.11472,0.0,209.775,209.76999999999998,206.62,206.62,0.0,0.0
11,0.0,1.0,0.0,1.0,1.0,0.0,0.0,1.0,0.0,0.0,1.0,1.1856,26.0,0.0,0.0,0.0,59.999996,0.0,26.0,26.0,26.0,26.0,-0.01387499999999997,0.2833000000000001,-0.031200000000000002,293.488,-2.7039999999999997,-2.693,-1.56725,-1.5183,-239.09,215.405,190.768375,0.0,0.0,0.0,0.0,0.022600000000000002,-5.498166666666667,-5.498166666666667,-0.5487000000000001,-0.269,0.012777777777777777,1.006,67.116,-0.0117,-0.22225,-0.3699999999999992,100.0,1.0,1.0,207.13333333333333,0.0,0.0,0.0,0.0,0.0,0.0,0.0,8779.6,0.0,55.0,5.0,241.59,1.0,0.0,0.0,0.0,0.0,0.0,1.0,0.0,0.5549999999999997,0.5549999999999997,0.0,0.0,1.0,55.0,616.79921,10000.0,85.000001,85.000001,85.000001,85.000001,395.0,0.0,0.0,0.0,1.0,333.33500000000004,53.314,53.314,48.828,48.828,34.0,-23.1025,25.086,-26.669999999999998,27.8675,0.0,1782.922,-0.7349999999999994,100.0,27.352,26.955,42.502,42.278,0.0,1.0,100.0,0.0,0.0,0.0,0.0,2990.4285714285716,3121.1,3890.875,4105.9,305.675,304.9725,315.333,314.69175,21.8858,20.568,21.851399999999998,21.372,314.999998,314.999998,324.999988,324.999988,99.55922857142858,99.50728333333333,99.56591428571429,99.54547142857143,0.0767500000000001,-0.03966666666666674,-0.1125,0.11583333333333333,-0.05833333333333002,-0.05285714285714249,1.5906666666666667,1.5565,37.786,29.549999999999997,37.571,34.575,56.212,34.900999999999996,59.2575,51.9245,54.129000000000005,34.0305,57.869,50.2685,53.286,33.567,57.811,49.683,-0.10999999999999988,-0.028500000000000192,0.10679000000000001,0.10411500000000001,0.0,210.185,210.185,207.13333333333333,207.13333333333333,0.0,0.0
12,0.0,1.0,0.0,1.0,1.0,0.0,0.0,1.0,0.0,0.0,1.0,1.1856,26.0,0.0,0.0,0.0,59.999996,0.0,26.0,26.0,26.0,26.0,-0.0036249999999999893,0.2923,0.000825,293.121,-2.7058,-2.679777777777778,-1.5657,-1.5319,-235.87,215.39249999999998,190.747875,0.0,0.0,0.0,0.0,0.025466666666666665,-5.498166666666667,-5.498166666666667,-0.542,0.42,0.018333333333333313,0.8619999999999999,67.25,0.0056,-0.2048,-0.5120000000000005,100.0,1.0,1.0,207.49333333333334,0.0,0.0,0.0,0.0,0.0,0.0,0.0,8794.9,0.0,55.0,5.0,242.07333333333332,0.0,0.0,0.0,0.0,0.0,0.0,1.0,0.0,0.602999999999998,0.602999999999998,0.0,0.0,0.0,55.0,616.79921,10000.0,85.000001,85.000001,85.000001,85.000001,395.0,0.0,0.0,0.0,1.0,333.33500000000004,53.009,53.009,48.294,48.294,34.0,-23.3475,24.842,-26.98,30.1925,0.0,1782.875,-0.375,100.0,27.5,27.307,42.346000000000004,42.304,0.0,1.0,100.0,0.0,0.0,0.0,0.0,2993.857142857143,3170.3,4069.375,4227.9,305.6515,304.7955,314.91375,314.425,21.8949,20.5731,21.8612,21.3805,314.999998,314.999998,324.999988,324.999988,99.55924285714286,99.50728333333333,99.56604285714286,99.54561428571428,0.07250000000000023,-0.05400000000000005,-0.08750000000000001,0.13533333333333333,-0.04333333333332945,-0.0628571428571405,1.5613333333333332,1.5245,37.843,29.582,37.632,34.628,56.199,34.937,59.293,51.983000000000004,54.117999999999995,34.0635,57.902,50.3245,53.274,33.599000000000004,57.841,49.738,-0.09099999999999997,-0.05600000000000005,0.10523,0.11175000000000002,0.0,210.595,210.64,207.49333333333334,207.49333333333334,0.0,0.0
13,0.0,1.0,0.0,1.0,1.0,0.0,0.0,1.0,0.0,0.0,1.0,1.1856,26.0,0.0,0.0,0.0,59.999996,0.0,26.0,26.0,26.0,26.0,0.044499999999999984,0.2793000000000001,0.014875000000000001,292.816,-2.69825,-2.6871111111111112,-1.5643500000000001,-1.5381,-232.43,215.38,190.726125,0.0,0.0,0.0,0.0,0.02673333333333333,-5.498166666666667,-5.498166666666667,-0.5372,-0.2653333333333333,0.012444444444444258,-0.565,67.393,0.014,-0.212975,-0.32399999999999984,100.0,1.0,1.0,207.84333333333333,0.0,0.0,0.0,0.0,0.0,0.0,0.0,8809.8,0.0,55.0,5.0,242.58666666666664,1.0,0.0,0.0,0.0,0.0,0.0,1.0,0.0,0.6539999999999999,0.6539999999999999,0.0,0.0,1.0,55.0,616.79921,10000.0,85.000001,85.000001,85.000001,85.000001,395.0,0.0,0.0,0.0,1.0,333.33500000000004,52.872,52.872,48.035,48.035,34.0,-23.07,24.814,-28.47,29.9575,0.0,1782.823,-0.4349999999999987,100.0,27.531,27.614,42.588,42.854,0.0,1.0,100.0,0.0,0.0,0.0,0.0,3116.714285714286,3025.9,4166.625,4235.3,305.475,305.06225,314.70875,314.28075,21.9046,20.5786,21.8717,21.3896,314.999998,314.999998,324.999988,324.999988,99.55925714285715,99.5073,99.5662,99.54575714285714,0.09799999999999986,-0.02933333333333321,-0.09716666666666668,0.123,-0.05333333333332746,-0.03857142857143003,1.502,1.5075,37.903999999999996,29.616,37.698,34.685,56.186,34.9755,59.3335,52.0475,54.105000000000004,34.099000000000004,57.939499999999995,50.3865,53.26,33.632999999999996,57.8755,49.799,-0.10699999999999998,-0.03699999999999992,0.108145,0.10406000000000001,0.0,211.04000000000002,211.035,207.84333333333333,207.84333333333333,0.0,0.0
14,0.0,1.0,0.0,1.0,1.0,0.0,0.0,1.0,0.0,0.0,1.0,1.1856,26.0,0.0,0.0,0.0,59.999996,0.0,26.0,26.0,26.0,26.0,0.046875,0.2712000000000001,-0.029875000000000002,293.076,-2.68545,-2.7074444444444445,-1.568,-1.5385,-228.99,215.37,190.704875,0.0,0.0,0.0,0.0,0.028733333333333333,-5.498166666666667,-5.498166666666667,-0.5508000000000001,-0.028,0.025666666666666726,1.109,67.532,0.0184,-0.2257,-0.44399999999999906,100.0,1.0,1.0,208.38,0.0,0.0,0.0,0.0,0.0,0.0,0.0,8832.5,0.0,55.0,5.0,243.09,0.0,0.0,0.0,0.0,0.0,0.0,1.0,0.0,0.7049999999999983,0.7049999999999983,0.0,0.0,0.0,55.0,616.79921,10000.0,85.000001,85.000001,85.000001,85.000001,395.0,0.0,0.0,0.0,1.0,333.33500000000004,52.841,52.841,48.462,48.462,34.0,-21.384999999999998,26.034,-25.653333333333332,29.7925,0.0,1782.771,-0.504999999999999,100.0,27.73,27.588,42.56,42.761,0.0,1.0,100.0,0.0,0.0,0.0,0.0,2978.714285714286,3120.9,3951.125,4124.8,305.6955,304.917,315.18675,314.65225,21.9142,20.584,21.8821,21.398699999999998,314.999998,314.999998,324.999988,324.999988,99.55927142857144,99.5073,99.56634285714286,99.5459,0.11249999999999982,-0.021333333333333204,-0.07816666666666668,0.14333333333333334,-0.021666666666668277,-0.0628571428571405,1.558,1.538,37.964,29.650333333333336,37.763,34.742,56.174,35.013,59.371,52.1095,54.093,34.134,57.9745,50.446,53.247,33.6665,57.9075,49.8575,-0.11450000000000005,-0.0365000000000002,0.101025,0.11202000000000001,0.0,211.445,211.5,208.38,208.38,0.0,0.0
15,0.0,1.0,0.0,1.0,1.0,0.0,0.0,1.0,0.0,0.0,1.0,1.1856,26.0,0.0,0.0,0.0,59.999996,0.0,26.0,26.0,26.0,26.0,0.05487500000000001,0.27870000000000017,-0.00425,292.953,-2.6776999999999997,-2.681,-1.5592000000000001,-1.5546,-225.75,215.36,190.68425,0.0,0.0,0.0,0.0,0.030633333333333332,-5.498166666666667,-5.498166666666667,-0.5437000000000001,0.2583333333333333,0.03633333333333311,0.794,67.66499999999999,0.0219,-0.211825,-0.4479999999999986,100.0,1.0,1.0,208.74333333333334,0.0,0.0,0.0,0.0,0.0,0.0,0.0,8847.8,0.0,55.0,5.0,243.56666666666666,1.0,0.0,0.0,0.0,0.0,0.0,1.0,0.0,0.7530000000000001,0.7530000000000001,0.0,0.0,1.0,55.0,616.79921,10000.0,85.000001,85.000001,85.000001,85.000001,395.0,0.0,0.0,0.0,1.0,333.33500000000004,52.856,52.856,48.218,48.218,34.0,-21.34,25.784,-25.91,30.7375,0.0,1782.723,-0.4299999999999997,100.0,27.693,27.691,42.435,42.84,0.0,1.0,100.0,0.0,0.0,0.0,0.0,2948.714285714286,3113.2,4039.5,4193.2,305.779,304.92425,314.98125,314.4625,21.9232,20.589199999999998,21.8919,21.4073,314.999998,314.999998,324.999988,324.999988,99.55928571428572,99.5073,99.56647142857143,99.54604285714285,0.10625000000000018,-0.02066666666666661,-0.06983333333333333,0.14483333333333334,-0.04333333333332945,-0.05285714285714249,1.5290000000000001,1.5355,38.019999999999996,29.682666666666666,37.824,34.795500000000004,56.161,35.051,59.408,52.1725,54.081,34.169,58.009,50.507,53.233999999999995,33.7,57.939,49.917,-0.10099999999999998,-0.045500000000000096,0.100805,0.10602500000000001,0.0,211.89,211.91,208.74333333333334,208.74333333333334,0.0,0.0
16,0.0,1.0,0.0,1.0,1.0,0.0,0.0,1.0,0.0,0.0,1.0,1.1856,26.0,0.0,0.0,0.0,59.999996,0.0,26.0,26.0,26.0,26.0,0.04425000000000012,0.2681,-0.0035,292.709,-2.7065,-2.629888888888889,-1.5905,-1.5535,-222.09,215.35,190.660875,0.0,0.0,0.0,0.0,0.03276666666666667,-5.498166666666667,-5.498166666666667,-0.5529000000000001,-0.28833333333333333,0.025222222222222035,0.31299999999999994,67.813,0.025,-0.22365000000000002,-0.3739999999999988,100.0,1.0,1.0,209.19,0.0,0.0,0.0,0.0,0.0,0.0,0.0,8866.7,0.0,55.0,5.0,244.10000000000002,0.0,0.0,0.0,0.0,0.0,0.0,1.0,0.0,0.8069999999999986,0.8069999999999986,0.0,0.0,0.0,55.0,616.79921,10000.0,85.000001,85.000001,85.000001,85.000001,395.0,0.0,0.0,0.0,1.0,166.665,52.444,52.444,47.913,47.913,34.0,-22.41,26.63,-26.75,30.0925,0.0,1782.672,-0.375,100.0,27.637,27.808,42.714,43.057,0.0,1.0,100.0,0.0,0.0,0.0,0.0,3064.5714285714284,3245.8,4064.25,4061.8,305.4345,304.54825,314.9565,314.75925,21.9332,20.5951,21.903,21.4169,314.999998,314.999998,324.999988,324.999988,99.5593,99.50731666666667,99.56661428571428,99.54618571428571,0.11025000000000018,-0.01866666666666661,-0.07583333333333334,0.15333333333333335,-0.04333333333332945,-0.058571428571426054,1.542,1.522,38.083,29.719,37.894,34.856,56.147999999999996,35.0895,59.4475,52.2355,54.068,34.204499999999996,58.045500000000004,50.567499999999995,53.22,33.7345,57.9725,49.9765,-0.10299999999999998,-0.04850000000000021,0.10679000000000001,0.11100000000000002,0.0,212.32,212.365,209.19,209.19,0.0,0.0
17,0.0,1.0,0.0,1.0,1.0,0.0,0.0,1.0,0.0,0.0,1.0,1.1856,26.0,0.0,0.0,0.0,59.999996,0.0,26.0,26.0,26.0,26.0,0.033625000000000016,0.2836000000000001,0.030275,292.45,-2.66695,-2.608777777777778,-1.5542,-1.5151,-218.82999999999998,215.3425,190.64,0.0,0.0,0.0,0.0,0.034633333333333335,-5.498166666666667,-5.498166666666667,-0.5503,0.165,0.005777777777777882,0.4119999999999999,67.944,0.0258,-0.216875,-0.33000000000000007,100.0,1.0,1.0,209.5366666666667,0.0,0.0,0.0,0.0,0.0,0.0,0.0,8881.5,0.0,55.0,5.0,244.57,1.0,0.0,0.0,0.0,0.0,0.0,1.0,0.0,0.8550000000000004,0.8550000000000004,0.0,0.0,1.0,55.0,616.79921,10000.0,85.000001,85.000001,85.000001,85.000001,395.0,0.0,0.0,0.0,1.0,166.665,52.338,52.338,47.562,47.562,34.0,-22.09,25.942,-27.233333333333334,30.835,0.0,1782.623,-0.254999999999999,100.0,27.891,27.904,42.769,43.037,0.0,1.0,100.0,0.0,0.0,0.0,0.0,3042.142857142857,3237.2,4172.25,4253.5,305.4575,304.57075,314.63,314.36925,21.9422,20.6003,21.9128,21.4255,314.999998,314.999998,324.999988,324.999988,99.55931428571428,99.50731666666667,99.56675714285714,99.54632857142857,0.10625000000000018,-0.028666666666666618,-0.07433333333333333,0.14633333333333334,-0.041666666666671404,-0.04999999999999716,1.5116666666666667,1.5130000000000001,38.138999999999996,29.752000000000002,37.955,34.9095,56.135999999999996,35.126,59.483000000000004,52.294,54.057,34.238,58.0785,50.624,53.208,33.7665,58.0025,50.0315,-0.10050000000000003,-0.059499999999999886,0.10664000000000001,0.103535,0.0,212.75,212.765,209.5366666666667,209.5366666666667,0.0,0.0
18,0.0,1.0,0.0,1.0,1.0,0.0,0.0,1.0,0.0,0.0,1.0,1.1856,26.0,0.0,0.0,0.0,59.999996,0.0,26.0,26.0,26.0,26.0,0.0378750000000001,0.26849999999999996,0.0368,292.435,-2.6582,-2.7424444444444447,-1.5356,-1.4833,-215.57,215.3375,190.618875,0.0,0.0,0.0,0.0,0.036533333333333334,-5.498166666666667,-5.498166666666667,-0.5589000000000001,-0.336,0.005111111111111066,0.911,68.075,0.0228,-0.22340000000000002,-0.2779999999999987,100.0,1.0,1.0,209.91,0.0,0.0,0.0,0.0,0.0,0.0,0.0,8897.3,0.0,55.0,5.0,245.04333333333335,0.0,0.0,0.0,0.0,0.0,0.0,1.0,0.0,0.9029999999999987,0.9029999999999987,0.0,0.0,0.0,55.0,616.79921,10000.0,85.000001,85.000001,85.000001,85.000001,395.0,0.0,0.0,0.0,1.0,166.665,52.414,52.414,47.684,47.684,34.0,-22.1725,26.466,-26.689999999999998,30.9925,0.0,1782.575,-0.21499999999999986,100.0,27.877,27.817,42.948,43.175,0.0,1.0,100.0,0.0,0.0,0.0,0.0,3052.142857142857,3177.0,4083.375,4323.5,305.4795,304.65675,314.8065,314.1795,21.9512,20.6055,21.9227,21.4341,314.999998,314.999998,324.999988,324.999988,99.55931428571428,99.50731666666667,99.5669,99.54645714285714,0.1030000000000002,-0.03466666666666662,-0.08016666666666668,0.14366666666666666,-0.046666666666666856,-0.04571428571428271,1.5003333333333333,1.4905,38.195,29.784,38.016999999999996,34.963,56.123999999999995,35.161,59.519999999999996,52.353,54.045,34.2705,58.1125,50.6805,53.195,33.798,58.034,50.0875,-0.10149999999999992,-0.05750000000000011,0.106255,0.11221500000000001,0.0,213.155,213.14,209.91,209.91,0.0,0.0
19,0.0,1.0,0.0,1.0,1.0,0.0,0.0,1.0,0.0,0.0,1.0,1.1856,26.0,0.0,0.0,0.0,59.999996,0.0,26.0,26.0,26.0,26.0,0.04200000000000004,0.26690000000000014,0.013975000000000001,292.236,-2.643,-2.7006666666666668,-1.53865,-1.6016,-212.09,215.32999999999998,190.596125,0.0,0.0,0.0,0.0,0.03856666666666667,-5.498166666666667,-5.498166666666667,-0.5529000000000001,0.5263333333333334,0.012555555555555653,-0.8080000000000003,68.212,0.016900000000000002,-0.2164,-0.06799999999999962,100.0,1.0,1.0,210.36333333333334,0.0,0.0,0.0,0.0,0.0,0.0,0.0,8916.5,0.0,55.0,5.0,245.53666666666666,1.0,0.0,0.0,0.0,0.0,0.0,1.0,0.0,0.9540000000000006,0.9540000000000006,0.0,0.0,1.0,55.0,616.79921,10000.0,85.000001,85.000001,85.000001,85.000001,395.0,0.0,0.0,0.0,1.0,166.665,52.032,52.032,47.821,47.821,34.0,-23.64,24.34,-28.009999999999998,30.6575,0.0,1782.524,-0.18499999999999872,100.0,28.215,28.4,42.769,43.334,0.0,1.0,100.0,0.0,0.0,0.0,0.0,3161.285714285714,3042.8,4152.25,4202.5,305.303,304.8915,314.782,314.30975,21.9609,20.6111,21.9331,21.4432,314.999998,314.999998,324.999988,324.999988,99.55932857142857,99.50731666666667,99.56704285714285,99.54661428571428,0.08375000000000021,-0.05166666666666675,-0.09883333333333333,0.122,-0.046666666666666856,-0.0357142857142847,1.516,1.502,38.256,29.819333333333333,38.082,35.0205,56.111999999999995,35.2005,59.5565,52.4155,54.034,34.3075,58.147,50.7405,53.183,33.833,58.065,50.1465,-0.08949999999999991,-0.06550000000000011,0.10927500000000001,0.103425,0.0,213.595,213.585,210.36333333333334,210.36333333333334,0.0,0.0
20,0.0,1.0,0.0,1.0,1.0,0.0,0.0,1.0,0.0,0.0,1.0,1.1856,26.0,0.0,0.0,0.0,59.999996,0.0,26.0,26.0,26.0,26.0,0.020000000000000018,0.26150000000000007,-0.0128,292.328,-2.70585,-2.6453333333333333,-1.52245,-1.5874000000000001,-208.61,215.325,190.573625,0.0,0.0,0.0,0.0,0.040600000000000004,-5.498166666666667,-5.498166666666667,-0.5543,-0.6953333333333334,0.014333333333333309,0.637,68.35,0.0117,-0.224725,-0.10799999999999876,100.0,1.0,1.0,210.76666666666665,0.0,0.0,0.0,0.0,0.0,0.0,0.0,8933.7,0.0,55.0,5.0,246.03333333333336,0.0,0.0,0.0,0.0,0.0,0.0,0.0,0.0,1.004999999999999,1.004999999999999,0.0,0.0,0.0,55.0,616.79921,10000.0,85.000001,85.000001,85.000001,85.000001,395.0,0.0,0.0,0.0,1.0,166.665,52.444,52.444,47.379,47.379,34.0,-22.5675,25.224,-27.536666666666665,29.580000000000002,0.0,1782.473,-0.23000000000000043,100.0,28.073999999999998,28.006999999999998,43.425,43.649,0.0,1.0,100.0,0.0,0.0,0.0,0.0,3010.714285714286,3149.5,4067.0,4116.3,305.646,304.898,314.866,314.59175,21.970399999999998,20.6166,21.9437,21.4525,314.999998,314.999998,324.999988,324.999988,99.55934285714285,99.50731666666667,99.56718571428571,99.54675714285715,0.0950000000000002,-0.03266666666666662,-0.10300000000000001,0.12116666666666667,-0.02499999999999858,-0.060000000000002274,1.502,1.5,38.315,29.853666666666665,38.147999999999996,35.0785,56.098,35.2385,59.5965,52.4795,54.019999999999996,34.3425,58.184,50.802,53.169,33.867,58.099000000000004,50.2065,-0.09699999999999998,-0.059499999999999886,0.11291000000000001,0.09471500000000001,0.0,213.97,213.995,210.76666666666665,210.76666666666665,0.0,0.0
21,0.0,1.0,0.0,1.0,1.0,0.0,0.0,1.0,0.0,0.0,1.0,1.1856,26.0,0.0,0.0,0.0,59.999996,0.0,26.0,26.0,26.0,26.0,0.0036249999999999893,0.26580000000000004,-0.048775,292.542,-2.7192,-2.626555555555556,-1.5708,-1.5293,-205.32999999999998,215.32,190.552125,0.0,0.0,0.0,0.0,0.0425,-5.498166666666667,-5.498166666666667,-0.5734,-0.032,0.005111111111111066,0.554,68.476,0.0115,-0.22560000000000002,-0.14000000000000057,100.0,1.0,1.0,211.26333333333332,0.0,0.0,0.0,0.0,0.0,0.0,0.0,8954.7,0.0,55.0,5.0,246.48666666666668,1.0,0.0,0.0,0.0,0.0,0.0,0.0,0.0,1.0530000000000008,1.0530000000000008,0.0,0.0,1.0,55.0,616.79921,10000.0,85.000001,85.000001,85.000001,85.000001,395.0,0.0,0.0,0.0,1.0,166.665,52.338,52.338,48.019,48.019,34.0,-23.71,25.234,-26.98,28.3525,0.0,1782.426,-0.1999999999999993,100.0,28.067,27.838,43.119,43.282,0.0,1.0,100.0,0.0,0.0,0.0,0.0,3121.142857142857,3201.5,4001.125,4060.3,305.3325,304.75225,315.11475,314.83975,21.9793,20.6218,21.9534,21.461,314.999998,314.999998,324.999988,324.999988,99.55935714285714,99.50733333333334,99.56732857142858,99.54688571428571,0.09324999999999983,-0.03966666666666674,-0.09716666666666668,0.1305,-0.026666666666670835,-0.060000000000002274,1.567,1.568,38.370999999999995,29.886333333333333,38.209,35.1315,56.086,35.275,59.6305,52.5355,54.007999999999996,34.376,58.2155,50.856,53.156,33.899,58.1275,50.2595,-0.09749999999999992,-0.06300000000000017,0.10933500000000002,0.10951500000000002,0.0,214.385,214.41,211.26333333333332,211.26333333333332,0.0,0.0
22,0.0,1.0,0.0,1.0,1.0,0.0,0.0,1.0,0.0,0.0,1.0,1.1856,26.0,0.0,0.0,0.0,59.999996,0.0,26.0,26.0,26.0,26.0,0.019625000000000004,0.27760000000000007,0.01635,292.16,-2.76525,-2.6562222222222225,-1.60195,-1.4944,-201.82999999999998,215.315,190.528375,0.0,0.0,0.0,0.0,0.044533333333333334,-5.498166666666667,-5.498166666666667,-0.5581,0.10533333333333333,0.009888888888888836,-0.5270000000000001,68.614,0.008400000000000001,-0.20075,-0.11799999999999855,100.0,1.0,1.0,211.53,0.0,0.0,0.0,0.0,0.0,0.0,0.0,8965.9,0.0,55.0,5.0,246.98000000000002,0.0,0.0,0.0,0.0,0.0,0.0,0.0,0.0,1.1039999999999992,1.1039999999999992,0.0,0.0,0.0,55.0,616.79921,10000.0,85.000001,85.000001,85.000001,85.000001,395.0,0.0,0.0,0.0,1.0,333.33500000000004,52.444,52.444,47.165,47.165,34.0,-24.37,24.39,-30.93,30.21,0.0,1782.373,-0.3099999999999987,100.0,27.922,28.073,43.096000000000004,43.402,0.0,1.0,100.0,0.0,0.0,0.0,0.0,3182.5714285714284,3069.4,4337.125,4335.0,305.3995,304.9875,314.3765,314.11675,21.9888,20.6274,21.9639,21.4702,314.999998,314.999998,324.999988,324.999988,99.55935714285714,99.50733333333334,99.56747142857142,99.54704285714286,0.09375,-0.04233333333333311,-0.1065,0.1225,-0.03166666666666629,-0.03714285714285381,1.4973333333333332,1.482,38.43,29.921,38.274,35.189,56.073,35.3135,59.6695,52.598,53.995999999999995,34.412,58.251999999999995,50.916,53.143,33.9335,58.1605,50.318,-0.10749999999999993,-0.052000000000000046,0.10079,0.112945,0.0,214.825,214.835,211.53,211.53,0.0,0.0
23,0.0,1.0,0.0,1.0,1.0,0.0,0.0,1.0,0.0,0.0,1.0,1.1856,26.0,0.0,0.0,0.0,59.999996,0.0,26.0,26.0,26.0,26.0,0.013749999999999929,0.2775000000000001,0.004675,292.023,-2.66505,-2.679555555555556,-1.6412499999999999,-1.5352999999999999,-198.12,215.31,190.503375,0.0,0.0,0.0,0.0,0.046700000000000005,-5.498166666666667,-5.498166666666667,-0.5720000000000001,-0.2636666666666667,0.008999999999999897,-0.762,68.757,0.0078000000000000005,-0.2242,-0.15000000000000036,100.0,1.0,1.0,211.99333333333334,0.0,0.0,0.0,0.0,0.0,0.0,0.0,8985.7,0.0,55.0,5.0,247.49666666666667,1.0,0.0,0.0,0.0,0.0,0.0,0.0,0.0,1.1580000000000013,1.1580000000000013,0.0,0.0,1.0,55.0,616.79921,10000.0,85.000001,85.000001,85.000001,85.000001,395.0,0.0,0.0,0.0,1.0,166.665,52.078,52.078,47.302,47.302,34.0,-23.9525,24.382,-30.82,29.6075,0.0,1782.32,-0.3249999999999993,100.0,28.189,28.258,43.334,43.666,0.0,1.0,100.0,0.0,0.0,0.0,0.0,3217.5714285714284,3050.7,4288.625,4197.3,305.134,304.95,314.5195,314.44325,21.9988,20.6333,21.975,21.48,314.999998,314.999998,324.999988,324.999988,99.55938571428571,99.50735,99.56761428571428,99.5472,0.09324999999999983,-0.04600000000000004,-0.10416666666666667,0.12366666666666667,-0.04999999999999716,-0.03142857142857025,1.5190000000000001,1.5085,38.492999999999995,29.958,38.344,35.25,56.06,35.355000000000004,59.71,52.664500000000004,53.983999999999995,34.4505,58.289500000000004,50.9805,53.129000000000005,33.9705,58.195,50.381,-0.10199999999999987,-0.0535000000000001,0.10537,0.113125,0.0,215.25,215.245,211.99333333333334,211.99333333333334,0.0,0.0
24,0.0,1.0,0.0,1.0,1.0,0.0,0.0,1.0,0.0,0.0,1.0,1.1856,26.0,0.0,0.0,0.0,59.999996,0.0,26.0,26.0,26.0,26.0,0.03137499999999993,0.2538,-0.0459,292.465,-2.7099,-2.6852222222222224,-1.55095,-1.5558,-194.82,215.3075,190.48075,0.0,0.0,0.0,0.0,0.048600000000000004,-5.498166666666667,-5.498166666666667,-0.5858,-0.37233333333333335,0.01633333333333331,-0.24800000000000022,68.883,0.007500000000000001,-0.222225,-0.1639999999999997,100.0,1.0,1.0,212.42333333333335,0.0,0.0,0.0,0.0,0.0,0.0,0.0,9003.8,0.0,55.0,5.0,247.95,0.0,0.0,0.0,0.0,0.0,0.0,0.0,0.0,1.2059999999999995,1.2059999999999995,0.0,0.0,0.0,55.0,616.79921,10000.0,85.000001,85.000001,85.000001,85.000001,395.0,0.0,0.0,0.0,1.0,166.665,52.704,52.704,47.516,47.516,34.0,-22.925,23.892,-28.64,28.87,0.0,1782.273,-0.33999999999999986,100.0,27.953,27.994,43.265,43.562,0.0,1.0,100.0,0.0,0.0,0.0,0.0,3059.5714285714284,2995.0,4134.125,4104.1,305.691,305.1565,314.8035,314.65025,22.0077,20.6385,21.9848,21.488599999999998,314.999998,314.999998,324.999988,324.999988,99.55938571428571,99.50735,99.56775714285715,99.54734285714285,0.09250000000000025,-0.04600000000000004,-0.10933333333333332,0.11883333333333333,-0.051666666666669414,-0.027142857142855803,1.5153333333333332,1.5105,38.548,29.990333333333332,38.405,35.304,56.047,35.39,59.745,52.722,53.971000000000004,34.483000000000004,58.322,51.0355,53.116,34.0015,58.2245,50.435,-0.10450000000000004,-0.052000000000000046,0.10793000000000001,0.11094000000000001,0.0,215.64499999999998,215.64,212.42333333333335,212.42333333333335,0.0,0.0
25,0.0,1.0,0.0,1.0,1.0,0.0,0.0,1.0,0.0,0.0,1.0,1.1856,26.0,0.0,0.0,0.0,59.999996,0.0,26.0,26.0,26.0,26.0,0.03287499999999999,0.26270000000000016,-0.0228,292.191,-2.6907,-2.6417777777777776,-1.5939,-1.5498,-191.51,215.305,190.457,0.0,0.0,0.0,0.0,0.05053333333333333,-5.498166666666667,-5.498166666666667,-0.5998,0.05466666666666666,0.024333333333333318,-0.8410000000000002,69.009,0.0102,-0.217625,-0.2320000000000011,100.0,1.0,1.0,212.84,0.0,0.0,0.0,0.0,0.0,0.0,0.0,9021.5,0.0,55.0,5.0,248.40333333333334,1.0,0.0,0.0,0.0,0.0,0.0,0.0,0.0,1.2540000000000013,1.2540000000000013,0.0,0.0,1.0,55.0,616.79921,10000.0,85.000001,85.000001,85.000001,85.000001,395.0,0.0,0.0,0.0,1.0,333.33500000000004,51.865,51.865,47.745,47.745,34.0,-24.7275,26.07,-27.973333333333333,29.155,0.0,1782.222,-0.34999999999999787,100.0,27.918,28.192,43.051,43.374,0.0,1.0,100.0,0.0,0.0,0.0,0.0,3284.5714285714284,3246.2,4072.5,4126.8,304.966,304.4155,315.02375,314.59675,22.0165,20.6438,21.9946,21.4972,314.999998,314.999998,324.999988,324.999988,99.5594,99.50736666666667,99.56791428571428,99.54748571428571,0.09375,-0.038999999999999924,-0.09866666666666668,0.12383333333333334,-0.060000000000002274,-0.03857142857143003,1.5406666666666669,1.534,38.602999999999994,30.023666666666664,38.466,35.3575,56.034,35.4295,59.781,52.7825,53.958,34.519,58.3555,51.0935,53.102000000000004,34.036500000000004,58.254999999999995,50.492,-0.10899999999999999,-0.04800000000000004,0.10355500000000001,0.10565000000000001,0.0,216.05,216.025,212.84,212.84,0.0,0.0
26,0.0,1.0,0.0,1.0,1.0,0.0,0.0,1.0,0.0,0.0,1.0,1.1856,26.0,0.0,0.0,0.0,59.999996,0.0,26.0,26.0,26.0,26.0,0.02212499999999995,0.2744,0.077625,291.473,-2.7082,-2.656,-1.5541,-1.5537,-187.98000000000002,215.3025,190.4315,0.0,0.0,0.0,0.0,0.052566666666666664,-5.498166666666667,-5.498166666666667,-0.5752,0.273,0.0129999999999999,0.905,69.144,0.0137,-0.20297500000000002,-0.3160000000000007,100.0,1.0,1.0,213.06666666666666,0.0,0.0,0.0,0.0,0.0,0.0,0.0,9031.2,0.0,55.0,5.0,248.89333333333335,0.0,0.0,0.0,0.0,0.0,0.0,0.0,0.0,1.3049999999999997,1.3049999999999997,0.0,0.0,0.0,55.0,616.79921,10000.0,85.000001,85.000001,85.000001,85.000001,395.0,0.0,0.0,0.0,1.0,333.33500000000004,51.757999999999996,51.757999999999996,46.753,46.753,34.0,-23.412499999999998,25.433999999999997,-30.313333333333333,33.2225,0.0,1782.172,-0.3550000000000004,100.0,28.745,28.42,43.528999999999996,43.697,0.0,1.0,100.0,0.0,0.0,0.0,0.0,3157.285714285714,3170.7,4380.5,4488.3,305.246,304.8945,314.1495,313.7825,22.0261,20.6495,22.0052,21.5065,314.999998,314.999998,324.999988,324.999988,99.55941428571428,99.50736666666667,99.56805714285714,99.54762857142858,0.10499999999999998,-0.033666666666666734,-0.0935,0.13316666666666666,-0.046666666666666856,-0.060000000000002274,1.4426666666666668,1.4345,38.663,30.059666666666665,38.532,35.416,56.024,35.467,59.8185,52.8425,53.949,34.554,58.3905,51.1515,53.092,34.07,58.287,50.548500000000004,-0.10899999999999999,-0.0535000000000001,0.108035,0.10901500000000001,0.0,216.47,216.495,213.06666666666666,213.06666666666666,0.0,0.0
27,0.0,1.0,0.0,1.0,1.0,0.0,0.0,1.0,0.0,0.0,1.0,1.1856,26.0,0.0,0.0,0.0,59.999996,0.0,26.0,26.0,26.0,26.0,0.030625000000000124,0.25970000000000004,-0.055850000000000004,291.84,-2.7580999999999998,-2.665222222222222,-1.6177000000000001,-1.5311,-184.66,215.3,190.40825,0.0,0.0,0.0,0.0,0.0545,-5.498166666666667,-5.498166666666667,-0.5955,-0.7426666666666667,0.026666666666666616,0.978,69.268,0.0125,-0.23567500000000002,-0.27999999999999936,100.0,1.0,1.0,213.56333333333333,0.0,0.0,0.0,0.0,0.0,0.0,0.0,9052.2,0.0,55.0,5.0,249.33666666666664,1.0,0.0,0.0,0.0,0.0,0.0,0.0,0.0,1.352999999999998,1.352999999999998,0.0,0.0,1.0,55.0,616.79921,10000.0,85.000001,85.000001,85.000001,85.000001,395.0,0.0,0.0,0.0,1.0,333.33500000000004,51.956,51.956,46.768,46.768,34.0,-22.4425,26.1,-28.126666666666665,29.8125,0.0,1782.123,-0.384999999999998,100.0,28.462,28.465,43.934,44.05,0.0,1.0,100.0,0.0,0.0,0.0,0.0,3024.5714285714284,3236.7,4108.25,4170.9,305.667,304.58425,314.85575,314.61125,22.0349,20.6548,22.0152,21.5153,314.999998,314.999998,324.999988,324.999988,99.55942857142857,99.50736666666667,99.56818571428572,99.54777142857142,0.11125000000000007,-0.03766666666666674,-0.08533333333333333,0.13616666666666666,-0.030000000000001137,-0.05714285714285694,1.5193333333333332,1.5170000000000001,38.718,30.092666666666666,38.595,35.471000000000004,56.012,35.5035,59.8555,52.9015,53.938,34.588,58.425,51.208,53.079,34.1025,58.318,50.604,-0.11149999999999993,-0.05650000000000022,0.10491,0.10940000000000001,0.0,216.815,216.82999999999998,213.56333333333333,213.56333333333333,0.0,0.0
28,0.0,1.0,0.0,1.0,1.0,0.0,0.0,1.0,0.0,0.0,1.0,1.1856,26.0,0.0,0.0,0.0,59.999996,0.0,26.0,26.0,26.0,26.0,0.04212499999999997,0.26150000000000007,-0.057875,291.977,-2.6887499999999998,-2.6486666666666667,-1.63195,-1.5615999999999999,-181.13,215.2975,190.382875,0.0,0.0,0.0,0.0,0.05656666666666667,-5.498166666666667,-5.498166666666667,-0.6017,0.482,0.007555555555555538,-1.2269999999999999,69.398,0.014400000000000001,-0.21825,-0.33000000000000007,100.0,1.0,1.0,214.04000000000002,0.0,0.0,0.0,0.0,0.0,0.0,0.0,9072.3,0.0,55.0,5.0,249.80666666666667,0.0,0.0,0.0,0.0,0.0,0.0,0.0,0.0,1.404,1.404,0.0,0.0,0.0,55.0,616.79921,10000.0,85.000001,85.000001,85.000001,85.000001,395.0,0.0,0.0,0.0,1.0,333.33500000000004,51.879999999999995,51.879999999999995,47.302,47.302,34.0,-23.1425,25.067999999999998,-29.123333333333335,29.19,0.0,1782.073,-0.4349999999999987,100.0,28.377,28.628,43.352000000000004,43.789,0.0,1.0,100.0,0.0,0.0,0.0,0.0,3169.714285714286,3104.5,4161.75,4100.0,305.339,304.804,314.86225,314.695,22.0443,20.6606,22.0255,21.5245,314.999998,314.999998,324.999988,324.999988,99.55944285714286,99.50738333333334,99.56832857142857,99.54791428571428,0.10599999999999987,-0.03499999999999992,-0.09766666666666668,0.12683333333333333,-0.046666666666666856,-0.05142857142857338,1.545,1.536,38.777,30.128666666666668,38.66,35.528,56.0,35.5435,59.89,52.9615,53.926,34.6245,58.457,51.266,53.067,34.1375,58.347,50.6605,-0.11349999999999993,-0.047499999999999876,0.11089,0.10146000000000001,0.0,217.255,217.265,214.04000000000002,214.04000000000002,0.0,0.0
29,0.0,1.0,0.0,1.0,1.0,0.0,0.0,1.0,0.0,0.0,1.0,1.1856,26.0,0.0,0.0,0.0,59.999996,0.0,26.0,26.0,26.0,26.0,0.04162500000000002,0.2570000000000001,-0.022425,291.901,-2.75075,-2.720666666666667,-1.5694,-1.5517,-177.57999999999998,215.2975,190.3565,0.0,0.0,0.0,0.0,0.05863333333333334,-5.498166666666667,-5.498166666666667,-0.6035,-0.657,0.0016666666666667052,0.9590000000000001,69.532,0.0195,-0.21382500000000002,-0.4079999999999995,100.0,1.0,1.0,214.31333333333333,0.0,0.0,0.0,0.0,0.0,0.0,0.0,9084.0,0.0,55.0,5.0,250.29000000000002,1.0,0.0,0.0,0.0,0.0,0.0,0.0,0.0,1.4549999999999983,1.4549999999999983,0.0,0.0,1.0,55.0,616.79921,10000.0,85.000001,85.000001,85.000001,85.000001,395.0,0.0,0.0,0.0,1.0,166.665,52.414,52.414,46.86,46.86,34.0,-22.724999999999998,25.654,-28.189999999999998,31.905,0.0,1782.024,-0.46999999999999886,100.0,28.218,28.186,43.856,43.963,0.0,1.0,100.0,0.0,0.0,0.0,0.0,3071.0,3091.7,4138.625,4315.5,305.6805,305.0275,314.7065,314.20175,22.0535,20.6661,22.0361,21.5338,314.999998,314.999998,324.999988,324.999988,99.55945714285714,99.50738333333334,99.56848571428571,99.54807142857143,0.10824999999999996,-0.027666666666666728,-0.08883333333333333,0.14066666666666666,-0.051666666666669414,-0.027142857142855803,1.476,1.4765,38.835,30.163333333333334,38.726,35.586,55.986999999999995,35.5805,59.9295,53.0235,53.914,34.659,58.494,51.326,53.053,34.171,58.3805,50.7195,-0.11299999999999999,-0.045500000000000096,0.10894000000000001,0.10769000000000001,0.0,217.635,217.64499999999998,214.31333333333333,214.31333333333333,0.0,0.0
30,0.0,1.0,0.0,1.0,1.0,0.0,0.0,1.0,0.0,0.0,1.0,1.1856,26.0,0.0,0.0,0.0,59.999996,0.0,26.0,26.0,26.0,26.0,0.0535000000000001,0.2479,0.035425000000000005,291.26,-2.6368,-2.7175555555555557,-1.6526,-1.4614,-174.24,215.3,190.331625,0.0,0.0,0.0,0.0,0.060566666666666664,-5.498166666666667,-5.498166666666667,-0.6063000000000001,0.7793333333333334,0.009888888888888836,0.815,69.653,0.0229,-0.21630000000000002,-0.44399999999999906,100.0,1.0,1.0,214.79333333333335,0.0,0.0,0.0,0.0,0.0,0.0,0.0,9104.4,0.0,55.0,5.0,250.72333333333336,0.0,0.0,0.0,0.0,0.0,0.0,1.0,0.0,1.5030000000000001,1.5030000000000001,0.0,0.0,0.0,55.0,616.79921,10000.0,85.000001,85.000001,85.000001,85.000001,395.0,0.0,0.0,0.0,1.0,333.33500000000004,50.613,50.613,47.15,47.15,34.0,-24.0125,29.248,-28.473333333333333,29.5225,0.0,1781.974,-0.4800000000000004,100.0,29.034,28.851,43.578,43.936,0.0,1.0,100.0,0.0,0.0,0.0,0.0,3370.5714285714284,3445.7,4154.625,4219.2,304.6655,303.8875,314.92225,314.6325,22.0626,20.6717,22.046,21.5425,314.999998,314.999998,324.999988,324.999988,99.55947142857143,99.50738333333334,99.56862857142858,99.5482,0.11474999999999991,-0.025333333333333208,-0.08133333333333333,0.14466666666666667,-0.036666666666668846,-0.05571428571428072,1.5423333333333333,1.5170000000000001,38.891,30.198,38.787,35.6405,55.979,35.619,59.963,53.081,53.906,34.695,58.5245,51.381,53.044,34.205,58.408500000000004,50.772999999999996,-0.11999999999999988,-0.04800000000000004,0.10472500000000001,0.10971000000000002,0.0,218.03,218.06,214.79333333333335,214.79333333333335,0.0,0.0
31,0.0,1.0,0.0,1.0,1.0,0.0,0.0,1.0,0.0,0.0,1.0,1.1856,26.0,0.0,0.0,0.0,59.999996,0.0,26.0,26.0,26.0,26.0,0.04249999999999998,0.2673000000000001,0.08885,290.68,-2.7777,-2.619666666666667,-1.6478000000000002,-1.538,-170.69,215.3,190.30575,0.0,0.0,0.0,0.0,0.06263333333333335,-5.498166666666667,-5.498166666666667,-0.5862,-0.35133333333333333,0.020333333333333314,-0.6190000000000002,69.786,0.028800000000000003,-0.21610000000000001,-0.4060000000000006,100.0,1.0,1.0,214.9766666666667,0.0,0.0,0.0,0.0,0.0,0.0,0.0,9112.0,0.0,55.0,5.0,251.20333333333335,1.0,0.0,0.0,0.0,0.0,0.0,1.0,0.0,1.5539999999999985,1.5539999999999985,0.0,0.0,1.0,55.0,616.79921,10000.0,85.000001,85.000001,85.000001,85.000001,395.0,0.0,0.0,0.0,1.0,333.33500000000004,51.086,51.086,45.516999999999996,45.516999999999996,34.0,-24.2175,26.146,-31.183333333333334,33.03,0.0,1781.922,-0.4499999999999993,100.0,28.818,29.198,44.272,44.768,0.0,1.0,100.0,0.0,0.0,0.0,0.0,3244.142857142857,3275.2,4426.875,4435.3,305.223,304.382,314.0825,313.74675,22.0719,20.6775,22.0567,21.552,314.999998,314.999998,324.999988,324.999988,99.5595,99.5074,99.56878571428571,99.54835714285714,0.11299999999999999,-0.03766666666666674,-0.07633333333333334,0.13516666666666666,-0.03999999999999915,-0.028571428571432023,1.4306666666666668,1.408,38.95,30.234333333333332,38.854,35.7,55.968,35.661500000000004,60.006,53.15,53.894999999999996,34.734,58.565,51.4475,53.032,34.243,58.445499999999996,50.838499999999996,-0.11999999999999988,-0.05149999999999988,0.10172500000000001,0.10139500000000001,0.0,218.43,218.44,214.9766666666667,214.9766666666667,0.0,0.0
32,0.0,1.0,0.0,1.0,1.0,0.0,0.0,1.0,0.0,0.0,1.0,1.1856,26.0,0.0,0.0,0.0,59.999996,0.0,26.0,26.0,26.0,26.0,0.05262499999999992,0.2538,-0.035625000000000004,291.336,-2.7055,-2.675111111111111,-1.59455,-1.6158000000000001,-167.12,215.305,190.28025,0.0,0.0,0.0,0.0,0.06470000000000001,-5.498166666666667,-5.498166666666667,-0.606,-0.3116666666666667,0.004111111111110954,0.30600000000000005,69.913,0.0323,-0.233075,-0.5099999999999998,100.0,1.0,1.0,215.52666666666667,0.0,0.0,0.0,0.0,0.0,0.0,0.0,9135.4,0.0,55.0,5.0,251.66,0.0,0.0,0.0,0.0,0.0,0.0,1.0,0.0,1.6050000000000004,1.6050000000000004,0.0,0.0,0.0,55.0,616.79921,10000.0,85.000001,85.000001,85.000001,85.000001,395.0,0.0,0.0,0.0,1.0,333.33500000000004,51.575,51.575,46.6,46.6,34.0,-21.465,26.346,-26.256666666666664,33.2525,0.0,1781.872,-0.4450000000000003,100.0,28.846,28.962,44.197,44.6,0.0,1.0,100.0,0.0,0.0,0.0,0.0,3044.714285714286,3198.5,4067.625,4260.6,305.5525,304.71225,314.92625,314.3,22.0812,20.6833,22.0671,21.5613,314.999998,314.999998,324.999988,324.999988,99.5595,99.5074,99.56892857142857,99.54851428571429,0.12849999999999984,-0.026000000000000023,-0.060333333333333336,0.159,-0.030000000000001137,-0.048571428571428044,1.5216666666666667,1.4965,39.007999999999996,30.270666666666664,38.92,35.757999999999996,55.957,35.698499999999996,60.04,53.207499999999996,53.885,34.7685,58.5965,51.503,53.021,34.2755,58.4735,50.8925,-0.119,-0.053999999999999826,0.10151500000000001,0.106435,0.0,218.805,218.85000000000002,215.52666666666667,215.52666666666667,0.0,0.0
33,0.0,1.0,0.0,1.0,1.0,0.0,0.0,1.0,0.0,0.0,1.0,1.1856,26.0,0.0,0.0,0.0,59.999996,0.0,26.0,26.0,26.0,26.0,0.050124999999999975,0.2538,-0.074925,291.626,-2.7332,-2.6883333333333335,-1.597,-1.5816,-163.76999999999998,215.3075,190.25525,0.0,0.0,0.0,0.0,0.06666666666666667,-5.498166666666667,-5.498166666666667,-0.6148,-0.15666666666666665,0.00044444444444424747,0.9610000000000001,70.03399999999999,0.032100000000000004,-0.21695,-0.4299999999999997,100.0,1.0,1.0,215.93,0.0,0.0,0.0,0.0,0.0,0.0,0.0,9152.5,0.0,55.0,5.0,252.09666666666666,1.0,0.0,0.0,0.0,0.0,0.0,1.0,0.0,1.6529999999999987,1.6529999999999987,0.0,0.0,1.0,55.0,616.79921,10000.0,85.000001,85.000001,85.000001,85.000001,395.0,0.0,0.0,0.0,1.0,166.665,51.879999999999995,51.879999999999995,46.967,46.967,34.0,-22.375,26.356,-26.59,31.955000000000002,0.0,1781.826,-0.46000000000000085,100.0,28.68,28.722,43.971000000000004,44.367000000000004,0.0,1.0,100.0,0.0,0.0,0.0,0.0,3075.4285714285716,3112.5,4086.625,4203.2,305.5295,304.96575,314.93325,314.52075,22.09,20.6886,22.0769,21.57,314.999998,314.999998,324.999988,324.999988,99.55952857142857,99.5074,99.56905714285715,99.54865714285714,0.11775000000000002,-0.008999999999999897,-0.06533333333333333,0.15566666666666665,-0.023333333333326323,-0.060000000000002274,1.5336666666666667,1.4995,39.062,30.303666666666665,38.980999999999995,35.812,55.946,35.7335,60.073499999999996,53.263999999999996,53.873999999999995,34.8005,58.6275,51.557,53.009,34.3065,58.5015,50.945,-0.11050000000000004,-0.04150000000000009,0.09423500000000001,0.11024500000000001,0.0,219.18,219.22,215.93,215.93,0.0,0.0
34,0.0,1.0,0.0,1.0,1.0,0.0,0.0,1.0,0.0,0.0,1.0,1.1856,26.0,0.0,0.0,0.0,59.999996,0.0,26.0,26.0,26.0,26.0,0.04812499999999997,0.2599,-0.10525000000000001,291.87,-2.6706,-2.677888888888889,-1.631,-1.5204,-159.98000000000002,215.315,190.2255,0.0,0.0,0.0,0.0,0.06886666666666666,-5.498166666666667,-5.498166666666667,-0.6436000000000001,-0.9386666666666666,0.020444444444444265,0.784,70.17099999999999,0.032,-0.2214,-0.47600000000000087,100.0,1.0,1.0,216.2866666666667,0.0,0.0,0.0,0.0,0.0,0.0,0.0,9167.6,0.0,55.0,5.0,252.59,0.0,0.0,0.0,0.0,0.0,0.0,1.0,0.0,1.7070000000000007,1.7070000000000007,0.0,0.0,0.0,55.0,616.79921,10000.0,85.000001,85.000001,85.000001,85.000001,395.0,0.0,0.0,0.0,1.0,166.665,52.414,52.414,47.073,47.073,34.0,-20.4425,25.758,-27.36,31.425,0.0,1781.772,-0.48999999999999844,100.0,28.351,28.403,43.856,44.422,0.0,1.0,100.0,0.0,0.0,0.0,0.0,2960.5714285714284,3098.3,4103.0,4263.2,305.875,305.1405,314.91075,314.3615,22.0997,20.6945,22.0879,21.5798,314.999998,314.999998,324.999988,324.999988,99.55952857142857,99.5074,99.56921428571428,99.54881428571429,0.12749999999999995,-0.014000000000000012,-0.069,0.1515,-0.045000000000001705,-0.04571428571428271,1.5343333333333333,1.502,39.123000000000005,30.340666666666664,39.05,35.874,55.932,35.7715,60.111,53.329499999999996,53.861000000000004,34.836,58.6625,51.6205,52.995000000000005,34.3405,58.533,51.007,-0.119,-0.047499999999999876,0.10756500000000001,0.11105000000000001,0.0,219.59,219.63,216.2866666666667,216.2866666666667,0.0,0.0
35,0.0,1.0,0.0,1.0,1.0,0.0,0.0,1.0,0.0,0.0,1.0,1.1856,26.0,0.0,0.0,0.0,59.999996,0.0,26.0,26.0,26.0,26.0,0.03699999999999992,0.2541,-0.092975,291.763,-2.80255,-2.651777777777778,-1.54245,-1.5784,-156.61,215.32,190.19725,0.0,0.0,0.0,0.0,0.07083333333333335,-5.498166666666667,-5.498166666666667,-0.6777000000000001,-0.063,0.0029999999999998916,-0.06599999999999984,70.28999999999999,0.0341,-0.2268,-0.42600000000000016,100.0,1.0,1.0,216.76999999999998,0.0,0.0,0.0,0.0,0.0,0.0,0.0,9188.1,0.0,55.0,5.0,253.01666666666665,1.0,0.0,0.0,0.0,0.0,0.0,1.0,0.0,1.754999999999999,1.754999999999999,0.0,0.0,1.0,55.0,616.79921,10000.0,85.000001,85.000001,85.000001,85.000001,395.0,0.0,0.0,0.0,1.0,333.33500000000004,51.62,51.62,46.906,46.906,34.0,-23.195,28.058,-25.603333333333335,30.5575,0.0,1781.723,-0.3000000000000007,100.0,28.301000000000002,28.765,43.589,43.959,0.0,1.0,100.0,0.0,0.0,0.0,0.0,3099.4285714285716,3382.4,4063.0,4047.0,305.4265,304.15725,315.05575,314.963,22.1082,20.7,22.0976,21.5884,314.999998,314.999998,324.999988,324.999988,99.55955714285714,99.5074,99.56935714285714,99.54895714285715,0.11975000000000025,-0.022333333333333316,-0.068,0.1625,-0.041666666666671404,-0.04285714285714448,1.5633333333333332,1.5385,39.176,30.375333333333334,39.11,35.9275,55.919,35.809,60.1435,53.3835,53.849000000000004,34.8705,58.692499999999995,51.6725,52.980999999999995,34.374,58.56,51.058,-0.10349999999999993,-0.05699999999999994,0.10298,0.110435,0.0,219.96,219.995,216.76999999999998,216.76999999999998,0.0,0.0
36,0.0,1.0,0.0,1.0,1.0,0.0,0.0,1.0,0.0,0.0,1.0,1.1856,26.0,0.0,0.0,0.0,59.999996,0.0,26.0,26.0,26.0,26.0,0.054624999999999924,0.25270000000000015,0.07025,291.138,-2.64995,-2.7145555555555556,-1.6508500000000002,-1.5886,-153.23,215.32999999999998,190.168,0.0,0.0,0.0,0.0,0.07276666666666666,-5.498166666666667,-5.498166666666667,-0.6623,0.017666666666666667,-0.03833333333333311,0.16399999999999992,70.412,0.030000000000000002,-0.2053,-0.32200000000000095,100.0,1.0,1.0,216.92000000000002,0.0,0.0,0.0,0.0,0.0,0.0,0.0,9194.5,0.0,55.0,5.0,253.45666666666665,0.0,0.0,0.0,0.0,0.0,0.0,1.0,0.0,1.8030000000000008,1.8030000000000008,0.0,0.0,0.0,55.0,616.79921,10000.0,85.000001,85.000001,85.000001,85.000001,395.0,0.0,0.0,0.0,1.0,333.33500000000004,51.712,51.712,46.356,46.356,34.0,-21.044999999999998,26.088,-30.466666666666665,34.0175,0.0,1781.674,-0.23999999999999844,100.0,28.902,28.787,43.872,44.227000000000004,0.0,1.0,100.0,0.0,0.0,0.0,0.0,3021.5714285714284,3121.9,4391.5,4466.0,305.5125,304.88475,314.1845,313.89275,22.117,20.7055,22.1075,21.5973,314.999998,314.999998,324.999988,324.999988,99.55955714285714,99.50741666666667,99.5695,99.5491,0.12524999999999986,-0.025333333333333208,-0.0685,0.14183333333333334,-0.03166666666666629,-0.05285714285714249,1.437,1.441,39.230999999999995,30.409666666666666,39.172,35.983000000000004,55.909,35.846000000000004,60.1785,53.443,53.839,34.905,58.7255,51.7295,52.971000000000004,34.407,58.59,51.114,-0.10650000000000004,-0.06300000000000017,0.10447500000000001,0.09738500000000001,0.0,220.37,220.39499999999998,216.92000000000002,216.92000000000002,0.0,0.0
