,ABS Active,ABS Enabled,AID Allow Tire Blankets,AID Auto Blip,AID Auto Clutch,AID Auto Shift,AID Fuel Rate,AID Ideal Line,AID Mech Damage,AID Stability,AID Tire Wear Rate,Air Density,Air Temp,Ballast,Best Lap Delta,Best Lap Time,Brake Bias,Brake Pos,Brake Temp FL,Brake Temp FR,Brake Temp RL,Brake Temp RR,CG Accel Lateral,CG Accel Longitudinal,CG Accel Vertical,CG Height,Camber FL,Camber FR,Camber RL,Camber RR,Car Coord X,Car Coord Y,Car Coord Z,Car Damage Front,Car Damage Left,Car Damage Rear,Car Damage Right,Car Pos Norm,Caster FL,Caster FR,Chassis Pitch Angle,Chassis Pitch Rate,Chassis Roll Angle,Chassis Roll Rate,Chassis Velocity X,Chassis Velocity Y,Chassis Velocity Z,Chassis Yaw Rate,Clutch Pos,DRS Active,DRS Available,Drive Train Speed,ERS Heat Charging,ERS Is Charging,ERS Max Energy,ERS Power Level,ERS Recovery Level,Engine Brake Setting,Engine Limiter,Engine RPM,Flags,Fuel Level,Gear,Ground Speed,HR Sample Clock,In Pit,KERS Charge,KERS Deployed Energy,KERS Input,KERS Max Energy,LR Sample Clock,Lap Invalidated,Lap Time,Lap Time2,Last Lap Time,Last Sector Time,MR Sample Clock,Max Fuel,Max Power,Max RPM,Max Sus Travel FL,Max Sus Travel FR,Max Sus Travel RL,Max Sus Travel RR,Max Torque,Max Turbo Boost,Num Tires Off Track,Penalties Enabled,Position,Raw Data Sample Rate,Ride Height FL,Ride Height FR,Ride Height RL,Ride Height RR,Road Temp,Self Align Torque FL,Self Align Torque FR,Self Align Torque RL,Self Align Torque RR,Session Lap Count,Session Time Left,Steering Angle,Surface Grip,Suspension Travel FL,Suspension Travel FR,Suspension Travel RL,Suspension Travel RR,TC Active,TC Enabled,Throttle Pos,Tire Dirt Level FL,Tire Dirt Level FR,Tire Dirt Level RL,Tire Dirt Level RR,Tire Load FL,Tire Load FR,Tire Load RL,Tire Load RR,Tire Loaded Radius FL,Tire Loaded Radius FR,Tire Loaded Radius RL,Tire Loaded Radius RR,Tire Pressure FL,Tire Pressure FR,Tire Pressure RL,Tire Pressure RR,Tire Radius FL,Tire Radius FR,Tire Radius RL,Tire Radius RR,Tire Rubber Grip FL,Tire Rubber Grip FR,Tire Rubber Grip RL,Tire Rubber Grip RR,Tire Slip Angle FL,Tire Slip Angle FR,Tire Slip Angle RL,Tire Slip Angle RR,Tire Slip Ratio FL,Tire Slip Ratio FR,Tire Slip Ratio RL,Tire Slip Ratio RR,Tire Temp Core FL,Tire Temp Core FR,Tire Temp Core RL,Tire Temp Core RR,Tire Temp Inner FL,Tire Temp Inner FR,Tire Temp Inner RL,Tire Temp Inner RR,Tire Temp Middle FL,Tire Temp Middle FR,Tire Temp Middle RL,Tire Temp Middle RR,Tire Temp Outer FL,Tire Temp Outer FR,Tire Temp Outer RL,Tire Temp Outer RR,Toe In FL,Toe In FR,Toe In RL,Toe In RR,Turbo Boost,Wheel Angular Speed FL,Wheel Angular Speed FR,Wheel Angular Speed RL,Wheel Angular Speed RR,Wind Direction,Wind Speed
0,0.0,1.0,0.0,1.0,1.0,0.0,0.0,1.0,0.0,0.0,1.0,1.1856,26.0,0.0,0.0,0.0,59.99999,0.0,26.0,26.0,26.0,26.0,-0.026222222222222223,0.2834000000000001,0.0766,293.503,-2.7932,-2.628625,-1.55745,-1.5118,-275.77,215.535,190.988125,0.0,0.0,0.0,0.0,0.0015333333333333865,-5.498166666666667,-5.498166666666667,-0.5595,1.527,-0.0012222222222222356,0.16199999999999992,65.508,-0.0269,-0.21745,0.08800000000000008,100.0,1.0,1.0,202.25,0.0,0.0,0.0,0.0,0.0,0.0,0.0,8572.7,0.0,55.0,5.0,235.8,0.0,0.0,0.0,0.0,0.0,0.0,0.0,0.0,0.0030000000000001137,0.0030000000000001137,0.0,0.0,0.0,55.0,616.79921,10000.0,85.0,85.0,85.0,85.0,395.0,0.0,0.0,0.0,1.0,20.0,51.453,51.453,49.149,49.149,34.0,-29.28,31.85333333333333,-28.216666666666665,26.122500000000002,0.0,1783.625,0.3049999999999997,100.0,27.094,26.773,40.492000000000004,40.128,0.0,1.0,100.0,0.0,0.0,0.0,0.0,3295.285714285714,4196.9,4002.1111111111113,4096.4,304.718,301.9065,315.09375,314.6675,21.764,20.5092,21.7501,21.2716,314.99999,314.99999,324.99998,324.99998,99.55851428571428,99.50706666666666,99.56465714285714,99.54368571428571,0.01949999999999985,-0.07866666666666666,-0.12916666666666665,0.08433333333333337,-0.04333333333332945,-0.01999999999999602,1.5793333333333335,1.5425,37.025,29.182333333333332,36.938,33.9475,56.15,34.385,58.8885,51.1405,54.08,33.5775,57.5285,49.519999999999996,53.257,33.157,57.501,48.951,-0.05599999999999994,-0.09349999999999992,0.10211,0.10850000000000001,0.0,205.26,205.19,202.25,202.25,0.0,0.0
1,0.0,1.0,0.0,1.0,1.0,0.0,0.0,1.0,0.0,0.0,1.0,1.1856,26.0,0.0,0.0,0.0,59.999996,0.0,26.0,26.0,26.0,26.0,-0.06133333333333334,0.3581000000000001,0.20935,292.419,-2.6897,-2.7047499999999998,-1.5937999999999999,-1.5236,-272.42,215.5475,190.968,0.0,0.0,0.0,0.0,0.0034999999999999476,-5.498166666666667,-5.498166666666667,-0.47290000000000004,-1.0875,-0.04999999999999982,-0.10499999999999998,65.667,-0.0241,-0.16935,0.7039999999999997,100.0,1.0,1.0,202.14333333333332,0.0,0.0,0.0,0.0,0.0,0.0,0.0,8568.1,0.0,55.0,5.0,236.37,1.0,0.0,0.0,0.0,0.0,0.0,0.0,0.0,0.053999999999998494,0.053999999999998494,0.0,0.0,1.0,55.0,616.79921,10000.0,85.000001,85.000001,85.000001,85.000001,395.0,0.0,0.0,0.0,1.0,333.33500000000004,54.245,54.245,47.256,47.256,34.0,-23.89,16.81,-38.586666666666666,38.685,0.0,1783.574,0.4499999999999993,100.0,27.429,27.137,42.321,42.326,0.0,1.0,100.0,0.0,0.0,0.0,0.0,2876.714285714286,2450.3,4836.0,5639.5,306.0985,306.98525,312.91175,311.01525,21.7739,20.5143,21.761,21.2809,314.999998,314.999998,324.999988,324.999988,99.55851428571428,99.50708333333333,99.5648,99.54384285714286,0.022499999999999964,-0.1096666666666668,-0.14283333333333337,0.07133333333333325,-0.045000000000001705,-0.06428571428571672,1.3116666666666668,1.3239999999999998,37.087,29.214333333333336,37.007,34.0055,56.134,34.4245,58.9365,51.211,54.064,33.614,57.573499999999996,49.5875,53.241,33.192499999999995,57.5435,49.016999999999996,-0.03749999999999998,-0.11050000000000004,0.10763500000000001,0.111335,0.0,205.72500000000002,205.69,202.14333333333332,202.14333333333332,0.0,0.0
2,0.0,1.0,0.0,1.0,1.0,0.0,0.0,1.0,0.0,0.0,1.0,1.1856,26.0,0.0,0.0,0.0,59.999996,0.0,26.0,26.0,26.0,26.0,-0.07744444444444444,0.27470000000000017,-0.103175,293.961,-2.63805,-2.65225,-1.5699,-1.5121,-268.87,215.5575,190.948125,0.0,0.0,0.0,0.0,0.005566666666666609,-5.498166666666667,-5.498166666666667,-0.5751000000000001,0.716,-0.008999999999999897,1.561,65.81,-0.0315,-0.26875,0.9320000000000004,100.0,1.0,1.0,203.58333333333331,0.0,0.0,0.0,0.0,0.0,0.0,0.0,8629.2,0.0,55.0,5.0,236.88666666666666,0.0,0.0,0.0,0.0,0.0,0.0,0.0,0.0,0.10800000000000054,0.10800000000000054,0.0,0.0,0.0,55.0,616.79921,10000.0,85.000001,85.000001,85.000001,85.000001,395.0,0.0,0.0,0.0,1.0,166.665,52.048,52.048,50.781,50.781,34.0,-29.0,21.081666666666667,-25.496666666666666,18.735,0.0,1783.522,0.5650000000000013,100.0,28.076999999999998,27.471,41.801,41.59,0.0,1.0,100.0,0.0,0.0,0.0,0.0,3347.714285714286,3088.6,3519.6666666666665,3401.1,304.624,304.7795,316.273,316.44175,21.7846,20.5197,21.772,21.2898,314.999998,314.999998,324.999988,324.999988,99.55852857142857,99.5071,99.56494285714285,99.54397142857142,0.0030000000000001137,-0.1253333333333333,-0.17616666666666658,0.05133333333333323,-0.07166666666666544,-0.060000000000002274,1.7616666666666667,1.777,37.153999999999996,29.248333333333335,37.075,34.0615,56.119,34.466499999999996,58.9745,51.2665,54.051,33.653,57.6085,49.641,53.226,33.2295,57.5755,49.07,-0.03700000000000003,-0.125,0.10724500000000001,0.10694500000000001,0.0,206.20499999999998,206.095,203.58333333333331,203.58333333333331,0.0,0.0
3,0.0,1.0,0.0,1.0,1.0,0.0,0.0,1.0,0.0,0.0,1.0,1.1856,26.0,0.0,0.0,0.0,59.999996,0.0,26.0,26.0,26.0,26.0,-0.07377777777777778,0.30380000000000007,-0.022725000000000002,293.091,-2.65785,-2.684125,-1.5441,-1.4872,-265.71,215.565,190.928875,0.0,0.0,0.0,0.0,0.007399999999999962,-5.498166666666667,-5.498166666666667,-0.5019,0.5674999999999999,-0.00022222222222234578,-2.2620000000000005,65.959,-0.0459,-0.1889,0.8460000000000001,100.0,1.0,1.0,203.39,0.0,0.0,0.0,0.0,0.0,0.0,0.0,8620.9,0.0,55.0,5.0,237.42000000000002,1.0,0.0,0.0,0.0,0.0,0.0,0.0,0.0,0.1559999999999988,0.1559999999999988,0.0,0.0,1.0,55.0,616.79921,10000.0,85.000001,85.000001,85.000001,85.000001,395.0,0.0,0.0,0.0,1.0,166.665,53.375,53.375,47.653,47.653,34.0,-24.745,19.12833333333333,-34.980000000000004,26.39,0.0,1783.475,0.7100000000000009,100.0,27.724,27.486,42.001,42.015,0.0,1.0,100.0,0.0,0.0,0.0,0.0,2901.285714285714,2848.2,4534.444444444444,4281.5,306.094,305.5615,313.804,314.04925,21.7937,20.5247,21.7818,21.2983,314.999998,314.999998,324.999988,324.999988,99.55852857142857,99.50711666666666,99.56508571428571,99.54411428571429,-0.00275000000000003,-0.133,-0.15800000000000003,0.06000000000000005,-0.04833333333333201,-0.03714285714285381,1.439,1.468,37.211,29.279333333333334,37.135999999999996,34.1145,56.102000000000004,34.507,59.0125,51.3305,54.035,33.69,57.6445,49.7025,53.21,33.265,57.6085,49.1305,-0.02200000000000002,-0.1280000000000001,0.10352000000000001,0.10704500000000002,0.0,206.66500000000002,206.59,203.39,203.39,0.0,0.0
4,0.0,1.0,0.0,1.0,1.0,0.0,0.0,1.0,0.0,0.0,1.0,1.1856,26.0,0.0,0.0,0.0,59.999996,0.0,26.0,26.0,26.0,26.0,-0.10022222222222223,0.2795000000000001,-0.053175,293.442,-2.65345,-2.76175,-1.4846,-1.5989,-262.34,215.5725,190.9095,0.0,0.0,0.0,0.0,0.009333333333333305,-5.498166666666667,-5.498166666666667,-0.5313,-0.8290000000000002,-0.04988888888888887,0.28800000000000003,66.104,-0.059500000000000004,-0.234775,1.1979999999999995,100.0,1.0,1.0,204.0366666666667,0.0,0.0,0.0,0.0,0.0,0.0,0.0,8648.4,0.0,55.0,5.0,237.94333333333333,0.0,0.0,0.0,0.0,0.0,0.0,0.0,0.0,0.20700000000000074,0.20700000000000074,0.0,0.0,0.0,55.0,616.79921,10000.0,85.000001,85.000001,85.000001,85.000001,395.0,0.0,0.0,0.0,1.0,166.665,53.131,53.131,48.721000000000004,48.721000000000004,34.0,-27.3475,20.368333333333332,-31.183333333333334,23.314999999999998,0.0,1783.423,0.7149999999999999,100.0,27.777,26.906,42.86,41.998000000000005,0.0,1.0,100.0,0.0,0.0,0.0,0.0,3115.857142857143,2937.6,4058.777777777778,3866.4,305.2775,305.5235,314.88975,315.2105,21.8035,20.5298,21.7925,21.3072,314.999998,314.999998,324.999988,324.999988,99.55852857142857,99.50713333333333,99.56521428571429,99.54425714285715,-0.008499999999999952,-0.1306666666666667,-0.19166666666666665,0.04200000000000004,-0.05333333333332746,-0.04285714285714448,1.5263333333333335,1.596,37.272,29.311,37.203,34.17,56.086,34.5475,59.056,51.391999999999996,54.019,33.727000000000004,57.6845,49.7615,53.194,33.3005,57.6455,49.188,-0.014499999999999957,-0.1280000000000001,0.10941500000000001,0.10136500000000001,0.0,207.095,206.995,204.0366666666667,204.0366666666667,0.0,0.0
5,0.0,1.0,0.0,1.0,1.0,0.0,0.0,1.0,0.0,0.0,1.0,1.1856,26.0,0.0,0.0,0.0,59.999996,0.0,26.0,26.0,26.0,26.0,-0.12422222222222223,0.29100000000000015,-0.04855,293.762,-2.66585,-2.7171250000000002,-1.51795,-1.5954000000000002,-259.17,215.575,190.890875,0.0,0.0,0.0,0.0,0.011199999999999988,-5.498166666666667,-5.498166666666667,-0.5403,0.46599999999999997,-0.04166666666666696,0.8200000000000001,66.24000000000001,-0.07980000000000001,-0.22612500000000002,1.2139999999999995,100.0,1.0,1.0,204.56,0.0,0.0,0.0,0.0,0.0,0.0,0.0,8670.6,0.0,55.0,5.0,238.43666666666667,1.0,0.0,0.0,0.0,0.0,0.0,0.0,0.0,0.254999999999999,0.254999999999999,0.0,0.0,1.0,55.0,616.79921,10000.0,85.000001,85.000001,85.000001,85.000001,395.0,0.0,0.0,0.0,1.0,166.665,53.238,53.238,49.332,49.332,34.0,-27.1875,19.611666666666665,-30.356666666666666,22.5,0.0,1783.376,0.22500000000000142,100.0,27.774,26.789,42.49,41.46,0.0,1.0,100.0,0.0,0.0,0.0,0.0,3078.5714285714284,2967.3,3914.8888888888887,3917.4,305.3155,305.42325,315.29175,315.15425,21.8128,20.5346,21.8023,21.3154,314.999998,314.999998,324.999988,324.999988,99.55852857142857,99.50713333333333,99.56535714285714,99.54438571428571,-0.008499999999999952,-0.14533333333333331,-0.2005,0.023833333333333373,-0.07333333333333059,-0.05285714285714249,1.583,1.645,37.33,29.34133333333333,37.263999999999996,34.221000000000004,56.072,34.586,59.092,51.447,54.006,33.763,57.718,49.814,53.179,33.3345,57.6765,49.2395,-0.04149999999999998,-0.11499999999999999,0.10393500000000001,0.11102500000000001,0.0,207.55,207.44,204.56,204.56,0.0,0.0
6,0.0,1.0,0.0,1.0,1.0,0.0,0.0,1.0,0.0,0.0,1.0,1.1856,26.0,0.0,0.0,0.0,59.999996,0.0,26.0,26.0,26.0,26.0,-0.11522222222222223,0.2954000000000001,0.0211,293.549,-2.64995,-2.7887500000000003,-1.5141499999999999,-1.5712000000000002,-255.78,215.5775,190.87025,0.0,0.0,0.0,0.0,0.013166666666666549,-5.498166666666667,-5.498166666666667,-0.5252,-0.17399999999999993,-0.06122222222222229,-1.048,66.389,-0.0843,-0.203,0.9060000000000006,100.0,1.0,1.0,204.82333333333332,0.0,0.0,0.0,0.0,0.0,0.0,0.0,8681.8,0.0,55.0,5.0,238.97,0.0,0.0,0.0,0.0,0.0,0.0,0.0,0.0,0.30600000000000094,0.30600000000000094,0.0,0.0,0.0,55.0,616.79921,10000.0,85.000001,85.000001,85.000001,85.000001,395.0,0.0,0.0,0.0,1.0,166.665,53.696,53.696,48.477000000000004,48.477000000000004,34.0,-28.285,18.883333333333333,-34.7,23.4625,0.0,1783.325,0.41000000000000014,100.0,27.339,26.596,42.615,41.628,0.0,1.0,100.0,0.0,0.0,0.0,0.0,3183.714285714286,2759.3,4295.555555555556,4044.7,305.2455,305.8725,314.3715,314.737,21.822499999999998,20.5397,21.8128,21.3242,314.999998,314.999998,324.999988,324.999988,99.55854285714285,99.50715,99.5655,99.54452857142857,-0.020000000000000018,-0.1433333333333333,-0.20950000000000002,0.021500000000000075,-0.06666666666666998,-0.06428571428571672,1.5203333333333333,1.5385,37.39,29.372999999999998,37.33,34.2765,56.056,34.626,59.134,51.5095,53.989999999999995,33.7995,57.7575,49.874,53.163,33.3695,57.713,49.298,-0.04149999999999998,-0.10250000000000004,0.10543000000000001,0.108725,0.0,207.99,207.91500000000002,204.82333333333332,204.82333333333332,0.0,0.0
7,0.0,1.0,0.0,1.0,1.0,0.0,0.0,1.0,0.0,0.0,1.0,1.1856,26.0,0.0,0.0,0.0,59.999996,0.0,26.0,26.0,26.0,26.0,-0.097,0.2794000000000001,-0.013625,293.51800000000003,-2.6090999999999998,-2.7893749999999997,-1.562,-1.6189,-252.39,215.575,190.849625,0.0,0.0,0.0,0.0,0.015133333333333332,-5.498166666666667,-5.498166666666667,-0.5329,0.123,-0.04999999999999982,1.165,66.533,-0.0839,-0.21565,0.7379999999999995,100.0,1.0,1.0,205.35666666666668,0.0,0.0,0.0,0.0,0.0,0.0,0.0,8704.2,0.0,55.0,5.0,239.49,1.0,0.0,0.0,0.0,0.0,0.0,0.0,0.0,0.3569999999999993,0.3569999999999993,0.0,0.0,1.0,55.0,616.79921,10000.0,85.000001,85.000001,85.000001,85.000001,395.0,0.0,0.0,0.0,1.0,166.665,53.284,53.284,48.798,48.798,34.0,-25.745,21.68,-32.693333333333335,23.5825,0.0,1783.274,-0.030000000000001137,100.0,27.826,26.669,42.766,41.589,0.0,1.0,100.0,0.0,0.0,0.0,0.0,3091.142857142857,2939.4,4086.222222222222,3982.0,305.3125,305.482,314.86425,314.9565,21.8323,20.5449,21.8233,21.3331,314.999998,314.999998,324.999988,324.999988,99.55854285714285,99.50716666666666,99.56564285714286,99.54465714285715,0.01650000000000018,-0.10499999999999998,-0.1991666666666666,0.023166666666666558,-0.03166666666666629,-0.06571428571428584,1.5453333333333332,1.565,37.452,29.40533333333333,37.396,34.332,56.042,34.667,59.1745,51.570499999999996,53.977000000000004,33.837,57.795,49.9325,53.149,33.4055,57.748,49.3555,-0.07699999999999996,-0.07050000000000001,0.103855,0.104815,0.0,208.43,208.375,205.35666666666668,205.35666666666668,0.0,0.0
8,0.0,1.0,0.0,1.0,1.0,0.0,0.0,1.0,0.0,0.0,1.0,1.1856,26.0,0.0,0.0,0.0,59.999996,0.0,26.0,26.0,26.0,26.0,-0.07166666666666667,0.28400000000000003,-0.0060750000000000005,293.549,-2.6921,-2.7199999999999998,-1.49285,-1.6091,-249.2,215.5725,190.83025,0.0,0.0,0.0,0.0,0.016999999999999904,-5.498166666666667,-5.498166666666667,-0.5363,-0.2120000000000002,-0.03644444444444428,0.5149999999999999,66.67099999999999,-0.0734,-0.21915,0.3639999999999999,100.0,1.0,1.0,205.73666666666668,0.0,0.0,0.0,0.0,0.0,0.0,0.0,8720.4,0.0,55.0,5.0,239.98666666666668,0.0,0.0,0.0,0.0,0.0,0.0,0.0,0.0,0.40500000000000114,0.40500000000000114,0.0,0.0,0.0,55.0,616.79921,10000.0,85.000001,85.000001,85.000001,85.000001,395.0,0.0,0.0,0.0,1.0,333.33500000000004,53.421,53.421,48.538,48.538,34.0,-25.509999999999998,22.133333333333333,-30.55,25.1075,0.0,1783.223,-0.09499999999999886,100.0,27.525,26.762,42.768,41.725,0.0,1.0,100.0,0.0,0.0,0.0,0.0,3010.142857142857,3025.8,4018.777777777778,4038.7,305.5945,305.24425,314.99475,314.7965,21.8415,20.5498,21.833199999999998,21.3415,314.999998,314.999998,324.999988,324.999988,99.55854285714285,99.50718333333333,99.56578571428571,99.54478571428571,0.019750000000000156,-0.09633333333333316,-0.1841666666666666,0.04683333333333328,-0.03166666666666629,-0.05285714285714249,1.5310000000000001,1.5565,37.509,29.436,37.458,34.3845,56.027,34.704499999999996,59.2125,51.6295,53.962,33.872,57.8305,49.989,53.134,33.439,57.7805,49.411,-0.07399999999999995,-0.06150000000000011,0.11075000000000002,0.105105,0.0,208.82,208.78,205.73666666666668,205.73666666666668,0.0,0.0
9,0.0,1.0,0.0,1.0,1.0,0.0,0.0,1.0,0.0,0.0,1.0,1.1856,26.0,0.0,0.0,0.0,59.999996,0.0,26.0,26.0,26.0,26.0,-0.05422222222222222,0.28380000000000005,0.008775,293.304,-2.6104,-2.735875,-1.5396,-1.5687,-245.99,215.565,190.810625,0.0,0.0,0.0,0.0,0.018866666666666587,-5.498166666666667,-5.498166666666667,-0.5357000000000001,0.242,-0.04933333333333367,0.754,66.806,-0.057300000000000004,-0.21330000000000002,0.15399999999999991,100.0,1.0,1.0,206.16,0.0,0.0,0.0,0.0,0.0,0.0,0.0,8738.4,0.0,55.0,5.0,240.47333333333333,1.0,0.0,0.0,0.0,0.0,0.0,0.0,0.0,0.4529999999999994,0.4529999999999994,0.0,0.0,1.0,55.0,616.79921,10000.0,85.000001,85.000001,85.000001,85.000001,395.0,0.0,0.0,0.0,1.0,166.665,53.009,53.009,48.782,48.782,34.0,-25.4975,22.846666666666668,-30.52,26.1425,0.0,1783.177,-0.21999999999999886,100.0,27.791,26.866,42.69,41.730000000000004,0.0,1.0,100.0,0.0,0.0,0.0,0.0,3158.285714285714,3026.2,4048.222222222222,4096.0,305.1435,305.2505,314.9405,314.711,21.8507,20.5547,21.843,21.3498,314.999998,314.999998,324.999988,324.999988,99.55854285714285,99.5072,99.56591428571429,99.54492857142857,0.03675000000000006,-0.08233333333333315,-0.16666666666666663,0.06899999999999995,-0.030000000000001137,-0.06142857142857139,1.5403333333333333,1.541,37.567,29.467,37.519,34.4365,56.013,34.742,59.25,51.6865,53.949,33.9065,57.8655,50.044,53.120000000000005,33.472,57.8125,49.4645,-0.08799999999999997,-0.05699999999999994,0.10833000000000001,0.11736500000000001,0.0,209.23000000000002,209.23000000000002,206.16,206.16,0.0,0.0
10,0.0,1.0,0.0,1.0,1.0,0.0,0.0,1.0,0.0,0.0,1.0,1.1856,26.0,0.0,0.0,0.0,59.999996,0.0,26.0,26.0,26.0,26.0,-0.04,0.29000000000000004,0.012475,293.182,-2.6712,-2.70975,-1.50555,-1.5523,-242.38,215.5575,190.7885,0.0,0.0,0.0,0.0,0.020966666666666578,-5.498166666666667,-5.498166666666667,-0.5281,-0.26000000000000023,-0.01955555555555577,1.642,66.96000000000001,-0.0391,-0.21085,-0.05399999999999938,100.0,1.0,1.0,206.53,0.0,0.0,0.0,0.0,0.0,0.0,0.0,8754.1,0.0,55.0,5.0,241.02666666666664,0.0,0.0,0.0,0.0,0.0,0.0,1.0,0.0,0.5069999999999979,0.5069999999999979,0.0,0.0,0.0,55.0,616.79921,10000.0,85.000001,85.000001,85.000001,85.000001,395.0,0.0,0.0,0.0,1.0,166.665,53.345,53.345,48.309,48.309,34.0,-23.845,22.665,-29.823333333333334,28.055,0.0,1783.124,-0.26500000000000057,100.0,27.752,26.876,42.853,42.125,0.0,1.0,100.0,0.0,0.0,0.0,0.0,2981.4285714285716,3010.9,4110.222222222223,4273.2,305.669,305.33275,314.7645,314.276,21.8611,20.560200000000002,21.8542,21.3594,314.999998,314.999998,324.999988,324.999988,99.55855714285714,99.50721666666666,99.56605714285715,99.54508571428572,0.05025000000000013,-0.07699999999999996,-0.14833333333333332,0.08099999999999996,-0.046666666666666856,-0.044285714285713595,1.526,1.5095,37.632,29.501333333333335,37.589,34.496,55.998000000000005,34.783,59.293,51.754,53.935,33.944,57.906,50.108000000000004,53.105000000000004,33.5075,57.85,49.5275,-0.09050000000000002,-0.052000000000000046,0.10931,0.11078500000000001,0.0,209.70499999999998,209.70499999999998,206.53,206.53,0.0,0.0
11,0.0,1.0,0.0,1.0,1.0,0.0,0.0,1.0,0.0,0.0,1.0,1.1856,26.0,0.0,0.0,0.0,59.999996,0.0,26.0,26.0,26.0,26.0,-0.029555555555555557,0.2801,-0.04405,293.51800000000003,-2.6786,-2.703125,-1.5598,-1.5275,-239.16,215.55,190.768875,0.0,0.0,0.0,0.0,0.022599999999999953,-5.498166666666667,-5.498166666666667,-0.5503,-0.25649999999999995,0.002666666666666595,0.901,67.092,-0.0233,-0.225475,-0.19200000000000017,100.0,1.0,1.0,207.07666666666665,0.0,0.0,0.0,0.0,0.0,0.0,0.0,8777.3,0.0,55.0,5.0,241.50333333333333,1.0,0.0,0.0,0.0,0.0,0.0,1.0,0.0,0.5549999999999997,0.5549999999999997,0.0,0.0,1.0,55.0,616.79921,10000.0,85.000001,85.000001,85.000001,85.000001,395.0,0.0,0.0,0.0,1.0,333.33500000000004,53.284,53.284,48.935,48.935,34.0,-23.8925,23.596666666666668,-27.703333333333333,26.05,0.0,1783.074,-0.5999999999999979,100.0,27.488,26.939,42.582,42.185,0.0,1.0,100.0,0.0,0.0,0.0,0.0,3017.857142857143,3088.1,3886.6666666666665,4037.6000000000004,305.5845,305.08075,315.3495,314.86075,21.8702,20.5652,21.864,21.3678,314.999998,314.999998,324.999988,324.999988,99.55855714285714,99.50721666666666,99.5662,99.54521428571428,0.058250000000000135,-0.07000000000000006,-0.13683333333333336,0.09066666666666667,-0.030000000000001137,-0.054285714285711606,1.5859999999999999,1.585,37.689,29.532666666666664,37.65,34.549,55.983999999999995,34.819,59.328,51.812,53.921,33.9775,57.9385,50.164,53.09,33.54,57.879999999999995,49.582,-0.10050000000000003,-0.052000000000000046,0.112475,0.104645,0.0,210.10500000000002,210.11,207.07666666666665,207.07666666666665,0.0,0.0
12,0.0,1.0,0.0,1.0,1.0,0.0,0.0,1.0,0.0,0.0,1.0,1.1856,26.0,0.0,0.0,0.0,59.999996,0.0,26.0,26.0,26.0,26.0,0.0023333333333333335,0.2922,0.0089,293.121,-2.7171,-2.6885000000000003,-1.5422,-1.542,-235.74,215.54250000000002,190.747,0.0,0.0,0.0,0.0,0.025466666666666526,-5.498166666666667,-5.498166666666667,-0.5424,0.3799999999999999,0.0038888888888888307,-0.641,67.236,-0.0068000000000000005,-0.205275,-0.2079999999999993,100.0,1.0,1.0,207.43666666666667,0.0,0.0,0.0,0.0,0.0,0.0,0.0,8792.4,0.0,55.0,5.0,242.01999999999998,0.0,0.0,0.0,0.0,0.0,0.0,1.0,0.0,0.6059999999999981,0.6059999999999981,0.0,0.0,0.0,55.0,616.79921,10000.0,85.000001,85.000001,85.000001,85.000001,395.0,0.0,0.0,0.0,1.0,166.665,52.979,52.979,48.233000000000004,48.233000000000004,34.0,-25.1575,23.44333333333333,-28.723333333333333,28.54,0.0,1783.024,-0.3000000000000007,100.0,27.382,27.383,42.358000000000004,42.261,0.0,1.0,100.0,0.0,0.0,0.0,0.0,3127.857142857143,3059.3,4155.777777777777,4157.8,305.423,304.9645,314.77775,314.51775,21.8798,20.5706,21.8744,21.3767,314.999998,314.999998,324.999988,324.999988,99.55857142857143,99.50723333333333,99.56634285714286,99.54535714285714,0.05600000000000005,-0.07033333333333314,-0.11466666666666658,0.11099999999999999,-0.04333333333332945,-0.060000000000002274,1.5486666666666666,1.5325,37.748999999999995,29.566333333333333,37.715,34.6045,55.971000000000004,34.858000000000004,59.366,51.8735,53.909,34.0135,57.974000000000004,50.223,53.077,33.5745,57.912,49.64,-0.08650000000000002,-0.06099999999999994,0.1043,0.10881500000000001,0.0,210.56,210.585,207.43666666666667,207.43666666666667,0.0,0.0
13,0.0,1.0,0.0,1.0,1.0,0.0,0.0,1.0,0.0,0.0,1.0,1.1856,26.0,0.0,0.0,0.0,59.999996,0.0,26.0,26.0,26.0,26.0,0.02722222222222222,0.278,0.024550000000000002,292.801,-2.6868,-2.700625,-1.5698500000000002,-1.5518,-232.51,215.535,190.726625,0.0,0.0,0.0,0.0,0.026699999999999946,-5.498166666666667,-5.498166666666667,-0.5367000000000001,-0.20650000000000013,0.0,-0.4849999999999999,67.37,-0.0015,-0.211875,-0.1720000000000006,100.0,1.0,1.0,207.76999999999998,0.0,0.0,0.0,0.0,0.0,0.0,0.0,8806.6,0.0,55.0,5.0,242.50333333333333,1.0,0.0,0.0,0.0,0.0,0.0,1.0,0.0,0.6539999999999999,0.6539999999999999,0.0,0.0,1.0,55.0,616.79921,10000.0,85.000001,85.000001,85.000001,85.000001,395.0,0.0,0.0,0.0,1.0,166.665,52.826,52.826,47.989,47.989,34.0,-23.4875,24.2,-29.666666666666664,29.16,0.0,1782.977,-0.4250000000000007,100.0,27.626,27.559,42.696,42.719,0.0,1.0,100.0,0.0,0.0,0.0,0.0,3150.5714285714284,2997.7,4206.0,4223.6,305.354,305.15525,314.61875,314.31275,21.8889,20.5757,21.8843,21.3853,314.999998,314.999998,324.999988,324.999988,99.55857142857143,99.50723333333333,99.56648571428572,99.5455,0.09299999999999997,-0.04066666666666663,-0.11183333333333334,0.10466666666666669,-0.046666666666666856,-0.047142857142851824,1.4996666666666667,1.4875,37.806,29.598333333333336,37.777,34.658,55.959,34.8945,59.403999999999996,51.934,53.897,34.047,58.009,50.2815,53.064,33.6065,57.9445,49.6975,-0.11449999999999994,-0.04400000000000004,0.104885,0.10718000000000001,0.0,210.97,210.97,207.76999999999998,207.76999999999998,0.0,0.0
14,0.0,1.0,0.0,1.0,1.0,0.0,0.0,1.0,0.0,0.0,1.0,1.1856,26.0,0.0,0.0,0.0,59.999996,0.0,26.0,26.0,26.0,26.0,0.03355555555555556,0.29170000000000007,-0.026675,293.03,-2.7023,-2.707875,-1.5644,-1.5448,-228.87,215.5275,190.704,0.0,0.0,0.0,0.0,0.028799999999999937,-5.498166666666667,-5.498166666666667,-0.5502,-0.053999999999999826,0.015333333333333199,-0.39800000000000013,67.518,0.0058000000000000005,-0.22592500000000001,-0.274,100.0,1.0,1.0,208.32999999999998,0.0,0.0,0.0,0.0,0.0,0.0,0.0,8830.3,0.0,55.0,5.0,243.03666666666666,0.0,0.0,0.0,0.0,0.0,0.0,1.0,0.0,0.7079999999999984,0.7079999999999984,0.0,0.0,0.0,55.0,616.79921,10000.0,85.000001,85.000001,85.000001,85.000001,395.0,0.0,0.0,0.0,1.0,166.665,52.811,52.811,48.385999999999996,48.385999999999996,34.0,-23.3775,24.331666666666667,-27.24,28.3425,0.0,1782.922,-0.3949999999999996,100.0,27.621,27.691,42.604,42.778999999999996,0.0,1.0,100.0,0.0,0.0,0.0,0.0,3100.5714285714284,3013.6,4007.8888888888887,4081.4,305.5135,305.0555,315.11125,314.6835,21.8991,20.5815,21.8953,21.3949,314.999998,314.999998,324.999988,324.999988,99.5586,99.50723333333333,99.56662857142857,99.54564285714285,0.08850000000000025,-0.044333333333333114,-0.10433333333333339,0.11933333333333329,-0.05833333333333002,-0.05571428571428072,1.5670000000000002,1.547,37.869,29.634333333333334,37.846000000000004,34.718,55.946,34.935,59.4435,52.0005,53.884,34.0845,58.046,50.345,53.051,33.6425,57.978,49.7595,-0.10749999999999993,-0.04899999999999993,0.10346500000000002,0.11050000000000001,0.0,211.43,211.44,208.32999999999998,208.32999999999998,0.0,0.0
15,0.0,1.0,0.0,1.0,1.0,0.0,0.0,1.0,0.0,0.0,1.0,1.1856,26.0,0.0,0.0,0.0,59.999996,0.0,26.0,26.0,26.0,26.0,0.026111111111111113,0.26990000000000003,0.0022500000000000003,292.908,-2.69365,-2.6862500000000002,-1.5767,-1.5602,-225.82,215.51999999999998,190.68475,0.0,0.0,0.0,0.0,0.03056666666666652,-5.498166666666667,-5.498166666666667,-0.5424,0.2549999999999999,0.02833333333333332,0.792,67.642,0.012100000000000001,-0.21265,-0.39999999999999947,100.0,1.0,1.0,208.67000000000002,0.0,0.0,0.0,0.0,0.0,0.0,0.0,8844.7,0.0,55.0,5.0,243.48333333333335,1.0,0.0,0.0,0.0,0.0,0.0,1.0,0.0,0.7530000000000001,0.7530000000000001,0.0,0.0,1.0,55.0,616.79921,10000.0,85.000001,85.000001,85.000001,85.000001,395.0,0.0,0.0,0.0,1.0,333.33500000000004,52.811,52.811,48.203,48.203,34.0,-21.8625,25.465,-27.203333333333333,30.695,0.0,1782.875,-0.3049999999999997,100.0,27.804,27.611,42.555,42.728,0.0,1.0,100.0,0.0,0.0,0.0,0.0,2951.142857142857,3116.1,4033.5555555555557,4243.9,305.765,304.895,314.998,314.32675,21.9076,20.5863,21.9045,21.4028,314.999998,314.999998,324.999988,324.999988,99.5586,99.50723333333333,99.56677142857143,99.54578571428571,0.09724999999999984,-0.030999999999999917,-0.09166666666666656,0.1313333333333333,-0.04833333333333201,-0.048571428571428044,1.529,1.5070000000000001,37.922,29.66433333333333,37.903,34.768,55.934,34.9715,59.4785,52.06,53.873000000000005,34.118,58.0785,50.402,53.039,33.6745,58.007999999999996,49.816,-0.10099999999999998,-0.0535000000000001,0.10551,0.10181000000000001,0.0,211.825,211.82999999999998,208.67000000000002,208.67000000000002,0.0,0.0
16,0.0,1.0,0.0,1.0,1.0,0.0,0.0,1.0,0.0,0.0,1.0,1.1856,26.0,0.0,0.0,0.0,59.999996,0.0,26.0,26.0,26.0,26.0,0.03244444444444444,0.27490000000000014,-0.0046,292.786,-2.7571,-2.630625,-1.5539,-1.5567,-222.37,215.515,190.66275,0.0,0.0,0.0,0.0,0.03259999999999996,-5.498166666666667,-5.498166666666667,-0.5541,-0.47750000000000004,0.01866666666666661,-1.1219999999999999,67.783,0.0162,-0.22385000000000002,-0.18599999999999994,100.0,1.0,1.0,209.07,0.0,0.0,0.0,0.0,0.0,0.0,0.0,8861.7,0.0,55.0,5.0,243.99,0.0,0.0,0.0,0.0,0.0,0.0,1.0,0.0,0.8039999999999985,0.8039999999999985,0.0,0.0,0.0,55.0,616.79921,10000.0,85.000001,85.000001,85.000001,85.000001,395.0,0.0,0.0,0.0,1.0,333.33500000000004,52.643,52.643,47.913,47.913,34.0,-24.835,24.938333333333333,-27.27,29.2625,0.0,1782.824,-0.22499999999999787,100.0,27.428,27.813,42.726,43.011,0.0,1.0,100.0,0.0,0.0,0.0,0.0,3174.857142857143,3119.2,4095.0,4054.4,305.359,304.77925,314.89875,314.68525,21.917,20.5918,21.915,21.4119,314.999998,314.999998,324.999988,324.999988,99.55861428571428,99.50725,99.56691428571429,99.54591428571429,0.08024999999999993,-0.03533333333333322,-0.09099999999999997,0.13416666666666677,-0.03499999999999659,-0.04999999999999716,1.5396666666666667,1.518,37.980999999999995,29.698666666666668,37.969,34.8245,55.92,35.0075,59.5155,52.119,53.86,34.150999999999996,58.113,50.459,53.025,33.7065,58.039500000000004,49.872,-0.09399999999999997,-0.0535000000000001,0.10527,0.11094000000000001,0.0,212.23000000000002,212.245,209.07,209.07,0.0,0.0
17,0.0,1.0,0.0,1.0,1.0,0.0,0.0,1.0,0.0,0.0,1.0,1.1856,26.0,0.0,0.0,0.0,59.999996,0.0,26.0,26.0,26.0,26.0,0.015333333333333334,0.2923,0.019075,292.511,-2.7151,-2.6189999999999998,-1.5935000000000001,-1.5205000000000002,-218.91,215.5075,190.6405,0.0,0.0,0.0,0.0,0.034599999999999964,-5.498166666666667,-5.498166666666667,-0.5509000000000001,0.1984999999999999,-0.0024444444444444713,0.45599999999999996,67.922,0.015300000000000001,-0.21355000000000002,-0.20199999999999996,100.0,1.0,1.0,209.47333333333333,0.0,0.0,0.0,0.0,0.0,0.0,0.0,8878.8,0.0,55.0,5.0,244.49,1.0,0.0,0.0,0.0,0.0,0.0,1.0,0.0,0.8550000000000004,0.8550000000000004,0.0,0.0,1.0,55.0,616.79921,10000.0,85.000001,85.000001,85.000001,85.000001,395.0,0.0,0.0,0.0,1.0,333.33500000000004,52.368,52.368,47.729,47.729,34.0,-23.59,25.335,-28.716666666666665,30.6275,0.0,1782.773,-0.16000000000000014,100.0,27.949,27.785,42.765,42.849000000000004,0.0,1.0,100.0,0.0,0.0,0.0,0.0,3136.4285714285716,3185.8,4230.444444444444,4233.6,305.274,304.75525,314.55375,314.40125,21.9266,20.5974,21.9254,21.421,314.999998,314.999998,324.999988,324.999988,99.55862857142857,99.50725,99.56704285714285,99.54607142857142,0.09775,-0.03299999999999992,-0.08566666666666656,0.14383333333333326,-0.03833333333332689,-0.057142857142849834,1.5310000000000001,1.512,38.041,29.733666666666664,38.034,34.881,55.908,35.0465,59.553,52.181,53.849000000000004,34.1875,58.1475,50.5185,53.012,33.741,58.0715,49.93,-0.09050000000000002,-0.0605,0.10994000000000001,0.11094500000000002,0.0,212.68,212.70499999999998,209.47333333333333,209.47333333333333,0.0,0.0
18,0.0,1.0,0.0,1.0,1.0,0.0,0.0,1.0,0.0,0.0,1.0,1.1856,26.0,0.0,0.0,0.0,59.999996,0.0,26.0,26.0,26.0,26.0,0.006333333333333333,0.28480000000000016,0.023075000000000002,292.404,-2.6443,-2.6100000000000003,-1.5904500000000001,-1.4813,-215.65,215.5025,190.619375,0.0,0.0,0.0,0.0,0.03649999999999998,-5.498166666666667,-5.498166666666667,-0.5601,-0.371,0.0032222222222222374,0.9550000000000001,68.053,0.0109,-0.223025,-0.11000000000000032,100.0,1.0,1.0,209.84333333333333,0.0,0.0,0.0,0.0,0.0,0.0,0.0,8894.5,0.0,55.0,5.0,244.96,0.0,0.0,0.0,0.0,0.0,0.0,1.0,0.0,0.9029999999999987,0.9029999999999987,0.0,0.0,0.0,55.0,616.79921,10000.0,85.000001,85.000001,85.000001,85.000001,395.0,0.0,0.0,0.0,1.0,166.665,52.277,52.277,47.607,47.607,34.0,-22.98,25.973333333333333,-28.96,29.3275,0.0,1782.726,-0.16499999999999915,100.0,27.89,27.7,42.962,43.0,0.0,1.0,100.0,0.0,0.0,0.0,0.0,3114.5714285714284,3296.3,4176.666666666667,4280.4,305.268,304.4725,314.6685,314.28725,21.9355,20.6025,21.935299999999998,21.4295,314.999998,314.999998,324.999988,324.999988,99.55864285714286,99.50726666666667,99.56718571428571,99.5462,0.09425000000000017,-0.03833333333333311,-0.09783333333333333,0.12166666666666681,-0.046666666666666856,-0.048571428571428044,1.5153333333333334,1.5070000000000001,38.097,29.765666666666668,38.096000000000004,34.9345,55.896,35.082499999999996,59.5895,52.2405,53.837,34.2205,58.182,50.576,52.998999999999995,33.7725,58.1025,49.986000000000004,-0.09050000000000002,-0.06150000000000011,0.11020500000000001,0.10197500000000001,0.0,213.06,213.07,209.84333333333333,209.84333333333333,0.0,0.0
19,0.0,1.0,0.0,1.0,1.0,0.0,0.0,1.0,0.0,0.0,1.0,1.1856,26.0,0.0,0.0,0.0,59.999996,0.0,26.0,26.0,26.0,26.0,0.015666666666666666,0.2976000000000001,0.064775,292.099,-2.65085,-2.706625,-1.5262,-1.6036000000000001,-212.17000000000002,215.4975,190.596625,0.0,0.0,0.0,0.0,0.03853333333333331,-5.498166666666667,-5.498166666666667,-0.5533,0.621,0.008111111111110958,-0.8340000000000001,68.19,0.0039000000000000003,-0.216975,0.02200000000000024,100.0,1.0,1.0,210.26666666666665,0.0,0.0,0.0,0.0,0.0,0.0,0.0,8912.4,0.0,55.0,5.0,245.45666666666665,1.0,0.0,0.0,0.0,0.0,0.0,1.0,0.0,0.9540000000000006,0.9540000000000006,0.0,0.0,1.0,55.0,616.79921,10000.0,85.000001,85.000001,85.000001,85.000001,395.0,0.0,0.0,0.0,1.0,166.665,51.88,51.88,47.699,47.699,34.0,-24.13,24.358333333333334,-29.376666666666665,30.4325,0.0,1782.676,-0.1750000000000007,100.0,28.295,28.346,42.777,43.168,0.0,1.0,100.0,0.0,0.0,0.0,0.0,3202.714285714286,3080.4,4221.0,4305.6,305.152,304.75575,314.616,314.037,21.9451,20.6081,21.9457,21.4386,314.999998,314.999998,324.999988,324.999988,99.55865714285714,99.50726666666667,99.56732857142858,99.54634285714286,0.08300000000000018,-0.062000000000000055,-0.11483333333333334,0.09966666666666679,-0.05666666666667197,-0.054285714285711606,1.4893333333333334,1.4954999999999998,38.157,29.800666666666665,38.161,34.991,55.885,35.123,59.626,52.303,53.826,34.257999999999996,58.216,50.635999999999996,52.988,33.8085,58.1335,50.045500000000004,-0.09499999999999997,-0.0685,0.106065,0.10328000000000001,0.0,213.535,213.51999999999998,210.26666666666665,210.26666666666665,0.0,0.0
20,0.0,1.0,0.0,1.0,1.0,0.0,0.0,1.0,0.0,0.0,1.0,1.1856,26.0,0.0,0.0,0.0,59.999996,0.0,26.0,26.0,26.0,26.0,0.008444444444444445,0.2622,0.001,292.297,-2.7371,-2.668125,-1.5292,-1.5936,-208.69,215.495,190.574125,0.0,0.0,0.0,0.0,0.04053333333333331,-5.498166666666667,-5.498166666666667,-0.5545,-0.8370000000000002,0.0067777777777777715,0.6099999999999999,68.328,0.0008,-0.22545,-0.0259999999999998,100.0,1.0,1.0,210.66,0.0,0.0,0.0,0.0,0.0,0.0,0.0,8929.2,0.0,55.0,5.0,245.95333333333335,0.0,0.0,0.0,0.0,0.0,0.0,0.0,0.0,1.004999999999999,1.004999999999999,0.0,0.0,0.0,55.0,616.79921,10000.0,85.000001,85.000001,85.000001,85.000001,395.0,0.0,0.0,0.0,1.0,166.665,52.521,52.521,47.241,47.241,34.0,-23.224999999999998,24.358333333333334,-28.343333333333334,30.17,0.0,1782.625,-0.15500000000000114,100.0,28.091,27.901,43.525999999999996,43.514,0.0,1.0,100.0,0.0,0.0,0.0,0.0,3028.142857142857,3120.9,4125.444444444444,4169.9,305.6315,304.976,314.7155,314.44125,21.9544,20.613599999999998,21.9563,21.4478,314.999998,314.999998,324.999988,324.999988,99.55865714285714,99.50726666666667,99.56748571428571,99.5465,0.08824999999999994,-0.05233333333333312,-0.10516666666666663,0.12050000000000005,-0.030000000000001137,-0.04142857142856826,1.479,1.4885,38.215,29.835,38.227000000000004,35.0485,55.870000000000005,35.161500000000004,59.6665,52.367,53.812,34.2935,58.2535,50.6975,52.973,33.843,58.1685,50.1055,-0.09250000000000003,-0.06750000000000012,0.10889000000000001,0.114165,0.0,213.91,213.91,210.66,210.66,0.0,0.0
21,0.0,1.0,0.0,1.0,1.0,0.0,0.0,1.0,0.0,0.0,1.0,1.1856,26.0,0.0,0.0,0.0,59.999996,0.0,26.0,26.0,26.0,26.0,0.005333333333333333,0.2782,-0.03835,292.572,-2.71495,-2.665,-1.5792000000000002,-1.5339,-205.2,215.49,190.55125,0.0,0.0,0.0,0.0,0.04256666666666653,-5.498166666666667,-5.498166666666667,-0.5738,0.13650000000000007,-0.004222222222222349,-0.7080000000000002,68.462,-0.0031000000000000003,-0.223425,-0.009999999999999787,100.0,1.0,1.0,211.2266666666667,0.0,0.0,0.0,0.0,0.0,0.0,0.0,8953.2,0.0,55.0,5.0,246.43666666666667,1.0,0.0,0.0,0.0,0.0,0.0,0.0,0.0,1.056000000000001,1.056000000000001,0.0,0.0,1.0,55.0,616.79921,10000.0,85.000001,85.000001,85.000001,85.000001,395.0,0.0,0.0,0.0,1.0,166.665,52.368,52.368,48.035,48.035,34.0,-25.275,24.046666666666667,-29.169999999999998,27.052500000000002,0.0,1782.574,-0.1999999999999993,100.0,27.983,27.974,43.045,43.206,0.0,1.0,100.0,0.0,0.0,0.0,0.0,3222.5714285714284,3070.4,4070.777777777778,4013.2,305.196,304.982,315.00875,314.91675,21.9639,20.6191,21.9666,21.456699999999998,314.999998,314.999998,324.999988,324.999988,99.55867142857143,99.50728333333333,99.56761428571428,99.54664285714286,0.07275000000000009,-0.05266666666666664,-0.12816666666666665,0.11050000000000004,-0.05666666666667197,-0.048571428571428044,1.5603333333333333,1.5735000000000001,38.274,29.869666666666667,38.291,35.1045,55.858000000000004,35.2005,59.702,52.4265,53.8,34.329499999999996,58.286500000000004,50.754999999999995,52.96,33.8775,58.198,50.161500000000004,-0.09099999999999997,-0.05699999999999994,0.11478500000000001,0.10715500000000001,0.0,214.35500000000002,214.345,211.2266666666667,211.2266666666667,0.0,0.0
22,0.0,1.0,0.0,1.0,1.0,0.0,0.0,1.0,0.0,0.0,1.0,1.1856,26.0,0.0,0.0,0.0,59.999996,0.0,26.0,26.0,26.0,26.0,-0.0077777777777777776,0.27780000000000005,0.00175,292.145,-2.769,-2.636625,-1.595,-1.5346000000000002,-201.70999999999998,215.485,190.5275,0.0,0.0,0.0,0.0,0.04459999999999997,-5.498166666666667,-5.498166666666667,-0.5574,0.028000000000000025,0.004888888888888943,1.059,68.6,-0.0026000000000000003,-0.2008,-0.09399999999999942,100.0,1.0,1.0,211.48666666666668,0.0,0.0,0.0,0.0,0.0,0.0,0.0,8964.1,0.0,55.0,5.0,246.93,0.0,0.0,0.0,0.0,0.0,0.0,0.0,0.0,1.1069999999999993,1.1069999999999993,0.0,0.0,0.0,55.0,616.79921,10000.0,85.000001,85.000001,85.000001,85.000001,395.0,0.0,0.0,0.0,1.0,166.665,52.46,52.46,47.104,47.104,34.0,-24.0475,24.19833333333333,-30.193333333333335,31.0625,0.0,1782.523,-0.254999999999999,100.0,28.207,27.918,43.348,43.302,0.0,1.0,100.0,0.0,0.0,0.0,0.0,3044.285714285714,3147.9,4262.666666666667,4391.8,305.6295,304.95825,314.469,314.0565,21.973399999999998,20.6247,21.9771,21.4659,314.999998,314.999998,324.999988,324.999988,99.55867142857143,99.5073,99.56777142857143,99.54678571428572,0.07774999999999999,-0.05366666666666675,-0.10333333333333339,0.12050000000000005,-0.03833333333332689,-0.0357142857142847,1.4876666666666667,1.4835,38.334,29.904333333333334,38.357,35.161500000000004,55.845,35.24,59.741,52.4895,53.788,34.366,58.323,50.815,52.947,33.912,58.2315,50.2205,-0.09599999999999997,-0.062000000000000055,0.097165,0.11260500000000001,0.0,214.79000000000002,214.76999999999998,211.48666666666668,211.48666666666668,0.0,0.0
23,0.0,1.0,0.0,1.0,1.0,0.0,0.0,1.0,0.0,0.0,1.0,1.1856,26.0,0.0,0.0,0.0,59.999996,0.0,26.0,26.0,26.0,26.0,-0.009111111111111111,0.2741,-0.024200000000000003,291.992,-2.6562,-2.691125,-1.6522000000000001,-1.5089000000000001,-198.2,215.48000000000002,190.503875,0.0,0.0,0.0,0.0,0.046633333333333304,-5.498166666666667,-5.498166666666667,-0.5733,-0.19899999999999984,0.0020000000000000018,-0.6779999999999999,68.73400000000001,-0.0031000000000000003,-0.2253,-0.0420000000000007,100.0,1.0,1.0,211.96333333333334,0.0,0.0,0.0,0.0,0.0,0.0,0.0,8984.4,0.0,55.0,5.0,247.41666666666666,1.0,0.0,0.0,0.0,0.0,0.0,0.0,0.0,1.1580000000000013,1.1580000000000013,0.0,0.0,1.0,55.0,616.79921,10000.0,85.000001,85.000001,85.000001,85.000001,395.0,0.0,0.0,0.0,1.0,166.665,51.865,51.865,47.516,47.516,34.0,-25.085,24.243333333333332,-31.156666666666666,27.572499999999998,0.0,1782.472,-0.28000000000000114,100.0,28.299,28.27,43.432,43.612,0.0,1.0,100.0,0.0,0.0,0.0,0.0,3278.0,3069.3,4204.666666666667,4134.2,304.9065,304.89075,314.73375,314.61175,21.9829,20.6303,21.9876,21.475,314.999998,314.999998,324.999988,324.999988,99.5587,99.5073,99.56791428571428,99.54694285714285,0.07900000000000018,-0.056333333333333124,-0.12283333333333335,0.10433333333333339,-0.046666666666666856,-0.044285714285713595,1.5283333333333333,1.5385,38.393,29.939333333333334,38.423,35.219,55.833,35.2795,59.778999999999996,52.5525,53.775999999999996,34.4025,58.3585,50.8755,52.934,33.9475,58.2635,50.28,-0.09750000000000003,-0.055500000000000105,0.10715500000000001,0.108145,0.0,215.185,215.175,211.96333333333334,211.96333333333334,0.0,0.0
24,0.0,1.0,0.0,1.0,1.0,0.0,0.0,1.0,0.0,0.0,1.0,1.1856,26.0,0.0,0.0,0.0,59.999996,0.0,26.0,26.0,26.0,26.0,0.012333333333333335,0.2704,-0.01815,292.374,-2.6836,-2.6675,-1.5458500000000002,-1.5649000000000002,-194.89999999999998,215.47750000000002,190.481375,0.0,0.0,0.0,0.0,0.048566666666666536,-5.498166666666667,-5.498166666666667,-0.5841000000000001,-0.3540000000000001,0.009777777777777885,-0.25,68.861,0.0014,-0.221475,-0.1299999999999999,100.0,1.0,1.0,212.33666666666667,0.0,0.0,0.0,0.0,0.0,0.0,0.0,9000.2,0.0,55.0,5.0,247.87333333333333,0.0,0.0,0.0,0.0,0.0,0.0,0.0,0.0,1.2059999999999995,1.2059999999999995,0.0,0.0,0.0,55.0,616.79921,10000.0,85.000001,85.000001,85.000001,85.000001,395.0,0.0,0.0,0.0,1.0,166.665,52.704,52.704,47.363,47.363,34.0,-23.115,23.125,-29.703333333333333,28.6525,0.0,1782.425,-0.254999999999999,100.0,28.099,28.011,43.359,43.565,0.0,1.0,100.0,0.0,0.0,0.0,0.0,3049.0,2975.6,4220.888888888889,4119.8,305.6775,305.264,314.59125,314.606,21.9918,20.6355,21.9974,21.4836,314.999998,314.999998,324.999988,324.999988,99.55871428571429,99.5073,99.56805714285714,99.54707142857143,0.08124999999999982,-0.055333333333333234,-0.11699999999999999,0.11033333333333317,-0.051666666666669414,-0.03714285714285381,1.5196666666666667,1.5190000000000001,38.448,29.971666666666664,38.483999999999995,35.2725,55.82,35.3155,59.814,52.61,53.763999999999996,34.4355,58.391,50.931,52.921,33.979,58.2935,50.3345,-0.10199999999999998,-0.05449999999999999,0.11482500000000001,0.10623,0.0,215.57999999999998,215.585,212.33666666666667,212.33666666666667,0.0,0.0
25,0.0,1.0,0.0,1.0,1.0,0.0,0.0,1.0,0.0,0.0,1.0,1.1856,26.0,0.0,0.0,0.0,59.999996,0.0,26.0,26.0,26.0,26.0,0.011111111111111112,0.2741,-0.01745,292.13,-2.7404,-2.651625,-1.586,-1.5417,-191.39,215.4725,190.456,0.0,0.0,0.0,0.0,0.05059999999999998,-5.498166666666667,-5.498166666666667,-0.6028,0.06400000000000006,0.01855555555555566,0.34099999999999997,68.994,0.005,-0.219225,-0.15399999999999991,100.0,1.0,1.0,212.81,0.0,0.0,0.0,0.0,0.0,0.0,0.0,9020.3,0.0,55.0,5.0,248.35333333333335,1.0,0.0,0.0,0.0,0.0,0.0,0.0,0.0,1.256999999999998,1.256999999999998,0.0,0.0,1.0,55.0,616.79921,10000.0,85.000001,85.000001,85.000001,85.000001,395.0,0.0,0.0,0.0,1.0,166.665,51.743,51.743,47.729,47.729,34.0,-25.1125,26.816666666666666,-27.509999999999998,29.53,0.0,1782.373,-0.23999999999999844,100.0,28.18,28.094,43.232,43.295,0.0,1.0,100.0,0.0,0.0,0.0,0.0,3251.0,3338.4,4023.3333333333335,4143.7,305.011,304.294,315.11575,314.6125,22.0011,20.6411,22.0078,21.4926,314.999998,314.999998,324.999988,324.999988,99.55871428571429,99.50731666666667,99.5682,99.54721428571429,0.09074999999999989,-0.03933333333333322,-0.09966666666666657,0.1326666666666667,-0.03833333333332689,-0.05857142857143316,1.5523333333333333,1.537,38.507,30.006999999999998,38.549,35.329,55.807,35.355000000000004,59.85,52.670500000000004,53.751000000000005,34.472,58.4245,50.989,52.907,34.013999999999996,58.323499999999996,50.391,-0.09499999999999997,-0.05950000000000011,0.10677500000000001,0.11152000000000001,0.0,215.985,216.01,212.81,212.81,0.0,0.0
26,0.0,1.0,0.0,1.0,1.0,0.0,0.0,1.0,0.0,0.0,1.0,1.1856,26.0,0.0,0.0,0.0,59.999996,0.0,26.0,26.0,26.0,26.0,0.02811111111111111,0.2735000000000001,0.065925,291.29,-2.7068,-2.7266250000000003,-1.5535999999999999,-1.5587,-187.86,215.47,190.4305,0.0,0.0,0.0,0.0,0.05263333333333331,-5.498166666666667,-5.498166666666667,-0.5732,0.37949999999999995,0.005444444444444363,-0.742,69.13,0.006500000000000001,-0.20167500000000002,-0.10799999999999965,100.0,1.0,1.0,213.00666666666666,0.0,0.0,0.0,0.0,0.0,0.0,0.0,9028.6,0.0,55.0,5.0,248.84,0.0,0.0,0.0,0.0,0.0,0.0,0.0,0.0,1.3079999999999998,1.3079999999999998,0.0,0.0,0.0,55.0,616.79921,10000.0,85.000001,85.000001,85.000001,85.000001,395.0,0.0,0.0,0.0,1.0,166.665,51.650999999999996,51.650999999999996,46.478,46.478,34.0,-24.8825,24.14666666666667,-32.086666666666666,32.025000000000006,0.0,1782.322,-0.3150000000000013,100.0,28.743,28.747,43.620000000000005,43.875,0.0,1.0,100.0,0.0,0.0,0.0,0.0,3266.142857142857,2998.4,4515.888888888889,4463.8,305.094,305.0805,313.92125,313.753,22.0107,20.6468,22.0183,21.5019,314.999998,314.999998,324.999988,324.999988,99.55872857142857,99.50731666666667,99.56835714285714,99.54737142857142,0.08850000000000025,-0.05133333333333323,-0.10583333333333333,0.11283333333333334,-0.04999999999999716,-0.03857142857143003,1.4323333333333332,1.4365,38.567,30.042666666666666,38.614000000000004,35.387,55.797,35.3955,59.8895,52.7345,53.742000000000004,34.51,58.4615,51.051,52.897,34.05,58.3575,50.451499999999996,-0.10549999999999993,-0.05699999999999994,0.10562,0.11326000000000001,0.0,216.445,216.435,213.00666666666666,213.00666666666666,0.0,0.0
27,0.0,1.0,0.0,1.0,1.0,0.0,0.0,1.0,0.0,0.0,1.0,1.1856,26.0,0.0,0.0,0.0,59.999996,0.0,26.0,26.0,26.0,26.0,0.03255555555555556,0.24609999999999999,-0.04975,291.809,-2.75195,-2.6705,-1.6099999999999999,-1.5449000000000002,-184.54,215.4675,190.407375,0.0,0.0,0.0,0.0,0.05456666666666654,-5.498166666666667,-5.498166666666667,-0.5964,-0.8734999999999999,0.011555555555555541,-0.5870000000000002,69.254,0.007200000000000001,-0.2386,-0.18399999999999928,100.0,1.0,1.0,213.5233333333333,0.0,0.0,0.0,0.0,0.0,0.0,0.0,9050.5,0.0,55.0,5.0,249.28666666666666,1.0,0.0,0.0,0.0,0.0,0.0,0.0,0.0,1.355999999999998,1.355999999999998,0.0,0.0,1.0,55.0,616.79921,10000.0,85.000001,85.000001,85.000001,85.000001,395.0,0.0,0.0,0.0,1.0,166.665,51.941,51.941,46.677,46.677,34.0,-23.9725,24.668333333333333,-29.53,28.6075,0.0,1782.274,-0.3150000000000013,100.0,28.385,28.645,44.041,44.195,0.0,1.0,100.0,0.0,0.0,0.0,0.0,3141.857142857143,3099.3,4168.333333333333,4058.7,305.5155,304.82925,314.7805,314.8105,22.0195,20.6522,22.0283,21.5107,314.999998,314.999998,324.999988,324.999988,99.55874285714286,99.50731666666667,99.56848571428571,99.54751428571429,0.09224999999999994,-0.047666666666666746,-0.10666666666666658,0.125,-0.060000000000002274,-0.047142857142851824,1.5246666666666666,1.5070000000000001,38.622,30.076,38.677,35.4415,55.785,35.4325,59.927,52.7935,53.730000000000004,34.544,58.496,51.1075,52.884,34.082499999999996,58.388999999999996,50.507,-0.11099999999999999,-0.05449999999999999,0.10678000000000001,0.10577,0.0,216.785,216.78,213.5233333333333,213.5233333333333,0.0,0.0
28,0.0,1.0,0.0,1.0,1.0,0.0,0.0,1.0,0.0,0.0,1.0,1.1856,26.0,0.0,0.0,0.0,59.999996,0.0,26.0,26.0,26.0,26.0,0.035666666666666666,0.27980000000000005,-0.072475,291.962,-2.6784,-2.6563749999999997,-1.62445,-1.5692,-181.22,215.465,190.3835,0.0,0.0,0.0,0.0,0.056499999999999995,-5.498166666666667,-5.498166666666667,-0.6032000000000001,0.5485,0.000888888888888939,-0.8940000000000001,69.376,0.0095,-0.22015,-0.19399999999999995,100.0,1.0,1.0,214.00666666666666,0.0,0.0,0.0,0.0,0.0,0.0,0.0,9071.0,0.0,55.0,5.0,249.72666666666666,0.0,0.0,0.0,0.0,0.0,0.0,0.0,0.0,1.404,1.404,0.0,0.0,0.0,55.0,616.79921,10000.0,85.000001,85.000001,85.000001,85.000001,395.0,0.0,0.0,0.0,1.0,166.665,51.804,51.804,47.516,47.516,34.0,-23.72,24.843333333333334,-28.566666666666663,28.8475,0.0,1782.226,-0.34999999999999787,100.0,28.497,28.608,43.466,43.772,0.0,1.0,100.0,0.0,0.0,0.0,0.0,3199.714285714286,3092.3,4087.6666666666665,4091.2,305.2185,304.85125,315.046,314.72625,22.0284,20.6575,22.038,21.5191,314.999998,314.999998,324.999988,324.999988,99.55875714285715,99.50733333333334,99.56862857142858,99.54764285714286,0.09724999999999984,-0.038999999999999924,-0.10233333333333339,0.1213333333333333,-0.04833333333333201,-0.04571428571428271,1.5613333333333332,1.553,38.677,30.109666666666666,38.736999999999995,35.4945,55.774,35.47,59.9585,52.8495,53.72,34.5785,58.525,51.161500000000004,52.873000000000005,34.116,58.4155,50.5595,-0.10799999999999998,-0.052000000000000046,0.10912500000000001,0.10659,0.0,217.19,217.19,214.00666666666666,214.00666666666666,0.0,0.0
29,0.0,1.0,0.0,1.0,1.0,0.0,0.0,1.0,0.0,0.0,1.0,1.1856,26.0,0.0,0.0,0.0,59.999996,0.0,26.0,26.0,26.0,26.0,0.030555555555555558,0.2693000000000001,-0.00805,291.748,-2.6576,-2.721625,-1.566,-1.5528,-177.67000000000002,215.4625,190.357125,0.0,0.0,0.0,0.0,0.058566666666666545,-5.498166666666667,-5.498166666666667,-0.6022000000000001,-0.6234999999999999,-0.0003333333333332966,0.9159999999999999,69.511,0.011300000000000001,-0.212975,-0.33200000000000074,100.0,1.0,1.0,214.2266666666667,0.0,0.0,0.0,0.0,0.0,0.0,0.0,9080.3,0.0,55.0,5.0,250.21333333333334,1.0,0.0,0.0,0.0,0.0,0.0,0.0,0.0,1.4549999999999983,1.4549999999999983,0.0,0.0,1.0,55.0,616.79921,10000.0,85.000001,85.000001,85.000001,85.000001,395.0,0.0,0.0,0.0,1.0,333.33500000000004,52.261,52.261,46.6,46.6,34.0,-21.572499999999998,25.990000000000002,-28.786666666666665,31.735,0.0,1782.174,-0.41999999999999815,100.0,28.329,28.247,43.956,43.939,0.0,1.0,100.0,0.0,0.0,0.0,0.0,3010.5714285714284,3130.5,4188.777777777777,4343.6,305.669,304.8915,314.586,314.127,22.0376,20.6631,22.0485,21.5284,314.999998,314.999998,324.999988,324.999988,99.55875714285715,99.50733333333334,99.56878571428571,99.5478,0.10824999999999996,-0.02933333333333321,-0.09333333333333338,0.13250000000000006,-0.04833333333333201,-0.05142857142856627,1.4816666666666667,1.4705,38.735,30.144666666666666,38.803,35.5525,55.760999999999996,35.507999999999996,59.998,52.9125,53.707,34.6135,58.5625,51.222,52.858999999999995,34.1495,58.449,50.619,-0.11399999999999999,-0.04400000000000004,0.11210500000000001,0.10943000000000001,0.0,217.585,217.585,214.2266666666667,214.2266666666667,0.0,0.0
30,0.0,1.0,0.0,1.0,1.0,0.0,0.0,1.0,0.0,0.0,1.0,1.1856,26.0,0.0,0.0,0.0,59.999996,0.0,26.0,26.0,26.0,26.0,0.04066666666666666,0.25150000000000006,0.005200000000000001,291.245,-2.72525,-2.6,-1.6398000000000001,-1.6014,-174.13,215.4625,190.330625,0.0,0.0,0.0,0.0,0.06063333333333332,-5.498166666666667,-5.498166666666667,-0.6052000000000001,0.833,0.0,-0.532,69.639,0.0142,-0.21705000000000002,-0.29000000000000004,100.0,1.0,1.0,214.75333333333333,0.0,0.0,0.0,0.0,0.0,0.0,0.0,9102.6,0.0,55.0,5.0,250.67666666666668,0.0,0.0,0.0,0.0,0.0,0.0,1.0,0.0,1.5060000000000002,1.5060000000000002,0.0,0.0,0.0,55.0,616.79921,10000.0,85.000001,85.000001,85.000001,85.000001,395.0,0.0,0.0,0.0,1.0,166.665,50.644,50.644,47.104,47.104,34.0,-25.384999999999998,26.098333333333333,-29.556666666666665,29.835,0.0,1782.125,-0.370000000000001,100.0,29.037,29.093,43.588,43.994,0.0,1.0,100.0,0.0,0.0,0.0,0.0,3373.4285714285716,3276.2,4215.111111111111,4063.4,304.623,304.18,314.832,314.729,22.0472,20.669,22.0589,21.5376,314.999998,314.999998,324.999988,324.999988,99.55877142857143,99.50735,99.56892857142857,99.54794285714286,0.10625000000000018,-0.040000000000000036,-0.09583333333333333,0.13050000000000006,-0.03833333333332689,-0.04285714285714448,1.528,1.5015,38.795,30.181333333333335,38.867999999999995,35.61,55.751999999999995,35.5495,60.033,52.9735,53.699,34.6515,58.595,51.281,52.849999999999994,34.186,58.4785,50.6765,-0.11399999999999999,-0.0535000000000001,0.100525,0.11127000000000001,0.0,217.985,218.01,214.75333333333333,214.75333333333333,0.0,0.0
31,0.0,1.0,0.0,1.0,1.0,0.0,0.0,1.0,0.0,0.0,1.0,1.1856,26.0,0.0,0.0,0.0,59.999996,0.0,26.0,26.0,26.0,26.0,0.02755555555555556,0.25460000000000016,0.058725,290.741,-2.7655,-2.630125,-1.63985,-1.499,-170.78,215.4625,190.30625,0.0,0.0,0.0,0.0,0.06256666666666655,-5.498166666666667,-5.498166666666667,-0.5866,-0.3599999999999999,0.007444444444444365,-0.6720000000000002,69.765,0.0184,-0.217175,-0.2560000000000002,100.0,1.0,1.0,214.91666666666669,0.0,0.0,0.0,0.0,0.0,0.0,0.0,9109.5,0.0,55.0,5.0,251.12666666666667,1.0,0.0,0.0,0.0,0.0,0.0,1.0,0.0,1.5539999999999985,1.5539999999999985,0.0,0.0,1.0,55.0,616.79921,10000.0,85.000001,85.000001,85.000001,85.000001,395.0,0.0,0.0,0.0,1.0,166.665,51.193,51.193,45.516999999999996,45.516999999999996,34.0,-24.255,25.801666666666666,-32.013333333333335,31.2075,0.0,1782.076,-0.39000000000000057,100.0,28.887999999999998,29.169,44.332,44.754999999999995,0.0,1.0,100.0,0.0,0.0,0.0,0.0,3218.285714285714,3237.9,4433.777777777777,4390.1,305.3005,304.50525,314.06825,313.87025,22.056,20.6745,22.069,21.5465,314.999998,314.999998,324.999988,324.999988,99.55878571428572,99.50735,99.56905714285715,99.54808571428572,0.10450000000000026,-0.03966666666666674,-0.09199999999999997,0.12216666666666676,-0.03833333333332689,-0.030000000000001137,1.4306666666666668,1.427,38.849999999999994,30.215333333333334,38.931,35.6655,55.742000000000004,35.587,60.072,53.0355,53.689,34.6865,58.631,51.3405,52.839,34.2195,58.5115,50.7345,-0.11449999999999994,-0.05600000000000005,0.10484,0.103355,0.0,218.365,218.385,214.91666666666669,214.91666666666669,0.0,0.0
32,0.0,1.0,0.0,1.0,1.0,0.0,0.0,1.0,0.0,0.0,1.0,1.1856,26.0,0.0,0.0,0.0,59.999996,0.0,26.0,26.0,26.0,26.0,0.03311111111111111,0.2733000000000001,-0.043775,291.245,-2.69245,-2.6870000000000003,-1.58495,-1.5534,-167.22,215.4625,190.280875,0.0,0.0,0.0,0.0,0.06463333333333332,-5.498166666666667,-5.498166666666667,-0.6048,-0.21750000000000025,-0.008444444444444255,0.349,69.892,0.025500000000000002,-0.23095000000000002,-0.41799999999999926,100.0,1.0,1.0,215.47,0.0,0.0,0.0,0.0,0.0,0.0,0.0,9132.9,0.0,55.0,5.0,251.58666666666664,0.0,0.0,0.0,0.0,0.0,0.0,1.0,0.0,1.6050000000000004,1.6050000000000004,0.0,0.0,0.0,55.0,616.79921,10000.0,85.000001,85.000001,85.000001,85.000001,395.0,0.0,0.0,0.0,1.0,333.33500000000004,51.514,51.514,46.448,46.448,34.0,-22.22,26.1,-27.983333333333334,32.4775,0.0,1782.023,-0.33999999999999986,100.0,28.91,28.918,44.291,44.522999999999996,0.0,1.0,100.0,0.0,0.0,0.0,0.0,3088.714285714286,3184.5,4148.333333333333,4305.3,305.4015,304.74425,314.72875,314.31375,22.0652,20.6803,22.0794,21.5557,314.999998,314.999998,324.999988,324.999988,99.5588,99.50735,99.56921428571428,99.54824285714285,0.11724999999999985,-0.03166666666666673,-0.08316666666666661,0.15716666666666668,-0.04999999999999716,-0.048571428571428044,1.5196666666666667,1.505,38.908,30.251666666666665,38.995999999999995,35.723,55.730999999999995,35.626999999999995,60.108000000000004,53.0965,53.678,34.724000000000004,58.664500000000004,51.399,52.827,34.254999999999995,58.5415,50.792,-0.11099999999999999,-0.05750000000000011,0.10938,0.11499000000000001,0.0,218.75,218.76999999999998,215.47,215.47,0.0,0.0
33,0.0,1.0,0.0,1.0,1.0,0.0,0.0,1.0,0.0,0.0,1.0,1.1856,26.0,0.0,0.0,0.0,59.999996,0.0,26.0,26.0,26.0,26.0,0.059222222222222225,0.2571000000000001,-0.0477,291.595,-2.72885,-2.69275,-1.59135,-1.5881,-163.64999999999998,215.465,190.25425,0.0,0.0,0.0,0.0,0.06673333333333331,-5.498166666666667,-5.498166666666667,-0.6143000000000001,-0.2400000000000002,-0.009333333333333194,-0.19200000000000017,70.021,0.023700000000000002,-0.21655000000000002,-0.26200000000000045,100.0,1.0,1.0,215.86333333333334,0.0,0.0,0.0,0.0,0.0,0.0,0.0,9149.6,0.0,55.0,5.0,252.05,1.0,0.0,0.0,0.0,0.0,0.0,1.0,0.0,1.6559999999999988,1.6559999999999988,0.0,0.0,1.0,55.0,616.79921,10000.0,85.000001,85.000001,85.000001,85.000001,395.0,0.0,0.0,0.0,1.0,166.665,51.865,51.865,46.86,46.86,34.0,-23.384999999999998,24.866666666666667,-28.099999999999998,31.0925,0.0,1781.975,-0.35999999999999943,100.0,28.544,28.769,43.964,44.412,0.0,1.0,100.0,0.0,0.0,0.0,0.0,3181.142857142857,3031.3,4159.333333333333,4184.2,305.3775,305.05825,314.8125,314.50675,22.0744,20.6859,22.0898,21.5649,314.999998,314.999998,324.999988,324.999988,99.55882857142858,99.50736666666667,99.56935714285714,99.54838571428571,0.10999999999999988,-0.032333333333333325,-0.08399999999999996,0.1403333333333332,-0.04999999999999716,-0.06142857142857139,1.5093333333333332,1.5135,38.965,30.287,39.062,35.7805,55.72,35.665,60.144,53.157,53.668,34.7585,58.698,51.457,52.815,34.288,58.5715,50.849000000000004,-0.10899999999999999,-0.05049999999999999,0.103925,0.10999500000000001,0.0,219.16500000000002,219.175,215.86333333333334,215.86333333333334,0.0,0.0
34,0.0,1.0,0.0,1.0,1.0,0.0,0.0,1.0,0.0,0.0,1.0,1.1856,26.0,0.0,0.0,0.0,59.999996,0.0,26.0,26.0,26.0,26.0,0.04744444444444444,0.25360000000000005,-0.058975,291.87,-2.66605,-2.674875,-1.62605,-1.5705,-160.29,215.4675,190.228,0.0,0.0,0.0,0.0,0.06866666666666654,-5.498166666666667,-5.498166666666667,-0.6388,-0.8500000000000001,0.010999999999999899,-0.3719999999999999,70.142,0.0238,-0.2209,-0.2579999999999991,100.0,1.0,1.0,216.21666666666667,0.0,0.0,0.0,0.0,0.0,0.0,0.0,9164.6,0.0,55.0,5.0,252.48666666666668,0.0,0.0,0.0,0.0,0.0,0.0,1.0,0.0,1.7040000000000006,1.7040000000000006,0.0,0.0,0.0,55.0,616.79921,10000.0,85.000001,85.000001,85.000001,85.000001,395.0,0.0,0.0,0.0,1.0,166.665,52.383,52.383,47.165,47.165,34.0,-22.2925,24.261666666666667,-28.686666666666664,30.6375,0.0,1781.927,-0.375,100.0,28.218,28.418,43.802,44.416,0.0,1.0,100.0,0.0,0.0,0.0,0.0,3103.714285714286,2967.3,4141.777777777777,4172.7,305.6015,305.20575,314.86675,314.48575,22.0829,20.6912,22.0996,21.5736,314.999998,314.999998,324.999988,324.999988,99.55884285714286,99.50736666666667,99.5695,99.54852857142858,0.1067499999999999,-0.030000000000000027,-0.08966666666666656,0.13650000000000007,-0.046666666666666856,-0.02571428571428669,1.5183333333333335,1.5125,39.018,30.32,39.123,35.835,55.708,35.6995,60.177,53.2155,53.656,34.7905,58.7285,51.5135,52.803,34.319,58.5995,50.903999999999996,-0.10949999999999993,-0.05049999999999999,0.10497000000000001,0.112265,0.0,219.515,219.525,216.21666666666667,216.21666666666667,0.0,0.0
35,0.0,1.0,0.0,1.0,1.0,0.0,0.0,1.0,0.0,0.0,1.0,1.1856,26.0,0.0,0.0,0.0,59.999996,0.0,26.0,26.0,26.0,26.0,0.035,0.24819999999999998,-0.108825,291.901,-2.7223,-2.625,-1.53745,-1.5828,-156.70999999999998,215.47,190.198125,0.0,0.0,0.0,0.0,0.07076666666666653,-5.498166666666667,-5.498166666666667,-0.6777000000000001,-0.2560000000000002,-0.0033333333333334103,-0.04700000000000015,70.269,0.022600000000000002,-0.22737500000000002,-0.32399999999999984,100.0,1.0,1.0,216.69333333333333,0.0,0.0,0.0,0.0,0.0,0.0,0.0,9184.8,0.0,55.0,5.0,252.94333333333333,1.0,0.0,0.0,0.0,0.0,0.0,1.0,0.0,1.754999999999999,1.754999999999999,0.0,0.0,1.0,55.0,616.79921,10000.0,85.000001,85.000001,85.000001,85.000001,395.0,0.0,0.0,0.0,1.0,166.665,51.865,51.865,46.875,46.875,34.0,-22.41,27.298333333333332,-26.24,29.6225,0.0,1781.875,-0.245000000000001,100.0,28.167,28.539,43.625,43.848,0.0,1.0,100.0,0.0,0.0,0.0,0.0,3065.0,3374.0,4083.0,4030.6000000000004,305.5185,304.18925,314.996,314.995,22.0919,20.697,22.1099,21.5827,314.999998,314.999998,324.999988,324.999988,99.55884285714286,99.50736666666667,99.56964285714285,99.54868571428571,0.11375000000000002,-0.03133333333333321,-0.07766666666666666,0.14566666666666683,-0.04833333333333201,-0.047142857142851824,1.5563333333333333,1.5455,39.075,30.356333333333332,39.187,35.891999999999996,55.694,35.7385,60.2115,53.2735,53.643,34.827,58.7605,51.5695,52.789,34.354,58.628,50.9585,-0.10549999999999993,-0.05950000000000011,0.107895,0.104025,0.0,219.925,219.925,216.69333333333333,216.69333333333333,0.0,0.0
