,ABS Active,ABS Enabled,AID Allow Tire Blankets,AID Auto Blip,AID Auto Clutch,AID Auto Shift,AID Fuel Rate,AID Ideal Line,AID Mech Damage,AID Stability,AID Tire Wear Rate,Air Density,Air Temp,Ballast,Best Lap Delta,Best Lap Time,Brake Bias,Brake Pos,Brake Temp FL,Brake Temp FR,Brake Temp RL,Brake Temp RR,CG Accel Lateral,CG Accel Longitudinal,CG Accel Vertical,CG Height,Camber FL,Camber FR,Camber RL,Camber RR,Car Coord X,Car Coord Y,Car Coord Z,Car Damage Front,Car Damage Left,Car Damage Rear,Car Damage Right,Car Pos Norm,Caster FL,Caster FR,Chassis Pitch Angle,Chassis Pitch Rate,Chassis Roll Angle,Chassis Roll Rate,Chassis Velocity X,Chassis Velocity Y,Chassis Velocity Z,Chassis Yaw Rate,Clutch Pos,DRS Active,DRS Available,Drive Train Speed,ERS Heat Charging,ERS Is Charging,ERS Max Energy,ERS Power Level,ERS Recovery Level,Engine Brake Setting,Engine Limiter,Engine RPM,Flags,Fuel Level,Gear,Ground Speed,HR Sample Clock,In Pit,KERS Charge,KERS Deployed Energy,KERS Input,KERS Max Energy,LR Sample Clock,Lap Invalidated,Lap Time,Lap Time2,Last Lap Time,Last Sector Time,MR Sample Clock,Max Fuel,Max Power,Max RPM,Max Sus Travel FL,Max Sus Travel FR,Max Sus Travel RL,Max Sus Travel RR,Max Torque,Max Turbo Boost,Num Tires Off Track,Penalties Enabled,Position,Raw Data Sample Rate,Ride Height FL,Ride Height FR,Ride Height RL,Ride Height RR,Road Temp,Self Align Torque FL,Self Align Torque FR,Self Align Torque RL,Self Align Torque RR,Session Lap Count,Session Time Left,Steering Angle,Surface Grip,Suspension Travel FL,Suspension Travel FR,Suspension Travel RL,Suspension Travel RR,TC Active,TC Enabled,Throttle Pos,Tire Dirt Level FL,Tire Dirt Level FR,Tire Dirt Level RL,Tire Dirt Level RR,Tire Load FL,Tire Load FR,Tire Load RL,Tire Load RR,Tire Loaded Radius FL,Tire Loaded Radius FR,Tire Loaded Radius RL,Tire Loaded Radius RR,Tire Pressure FL,Tire Pressure FR,Tire Pressure RL,Tire Pressure RR,Tire Radius FL,Tire Radius FR,Tire Radius RL,Tire Radius RR,Tire Rubber Grip FL,Tire Rubber Grip FR,Tire Rubber Grip RL,Tire Rubber Grip RR,Tire Slip Angle FL,Tire Slip Angle FR,Tire Slip Angle RL,Tire Slip Angle RR,Tire Slip Ratio FL,Tire Slip Ratio FR,Tire Slip Ratio RL,Tire Slip Ratio RR,Tire Temp Core FL,Tire Temp Core FR,Tire Temp Core RL,Tire Temp Core RR,Tire Temp Inner FL,Tire Temp Inner FR,Tire Temp Inner RL,Tire Temp Inner RR,Tire Temp Middle FL,Tire Temp Middle FR,Tire Temp Middle RL,Tire Temp Middle RR,Tire Temp Outer FL,Tire Temp Outer FR,Tire Temp Outer RL,Tire Temp Outer RR,Toe In FL,Toe In FR,Toe In RL,Toe In RR,Turbo Boost,Wheel Angular Speed FL,Wheel Angular Speed FR,Wheel Angular Speed RL,Wheel Angular Speed RR,Wind Direction,Wind Speed
0,0.0,1.0,0.0,1.0,1.0,0.0,0.0,1.0,0.0,0.0,1.0,1.1856,26.0,0.0,0.0,0.0,59.99999,0.0,26.0,26.0,26.0,26.0,-0.036111111111111094,0.2905,0.08806666666666667,293.35,-2.7939,-2.622777777777778,-1.5596,-1.5079,-275.75,215.47750000000002,190.988,0.0,0.0,0.0,0.0,0.0015333333333333334,-5.498166666666667,-5.498166666666667,-0.5616,1.5386666666666668,0.0017499999999999183,0.20599999999999996,65.508,-0.0233,-0.2197,-0.05200000000000049,100.0,1.0,1.0,202.24,0.0,0.0,0.0,0.0,0.0,0.0,0.0,8572.3,0.0,55.0,5.0,235.79666666666668,0.0,0.0,0.0,0.0,0.0,0.0,0.0,0.0,0.0030000000000001137,0.0030000000000001137,0.0,0.0,0.0,55.0,616.79921,10000.0,85.0,85.0,85.0,85.0,395.0,0.0,0.0,0.0,1.0,20.0,51.163,51.163,49.042,49.042,34.0,-29.377499999999998,32.214,-28.669999999999998,25.9,0.0,1783.789,0.26000000000000156,100.0,27.213,26.984,40.46,40.153999999999996,0.0,1.0,100.0,0.0,0.0,0.0,0.0,3317.714285714286,4243.5,4015.5,4103.4,304.6415,301.739,315.048,314.65225,21.7634,20.509,21.7292,21.273600000000002,314.99999,314.99999,324.99998,324.99998,99.55844285714285,99.50706666666666,99.5639,99.5438,0.02300000000000013,-0.07850000000000001,-0.1366666666666666,0.08216666666666672,-0.04333333333332945,-0.04833333333333201,1.5923333333333334,1.5715,37.021,29.180999999999997,36.807,33.96,56.120000000000005,34.394999999999996,58.6525,51.1755,54.054,33.5865,57.3035,49.5535,53.233000000000004,33.1665,57.2815,48.983000000000004,-0.057499999999999885,-0.09149999999999991,0.10906,0.09960000000000001,0.0,205.26,205.22500000000002,202.24,202.24,0.0,0.0
1,0.0,1.0,0.0,1.0,1.0,0.0,0.0,1.0,0.0,0.0,1.0,1.1856,26.0,0.0,0.0,0.0,59.999996,0.0,26.0,26.0,26.0,26.0,-0.05588888888888888,0.3365,0.21556666666666666,292.267,-2.6931,-2.6977777777777776,-1.6001,-1.5211000000000001,-272.4,215.49,190.967875,0.0,0.0,0.0,0.0,0.0035,-5.498166666666667,-5.498166666666667,-0.4737,-1.183,-0.04375000000000018,-0.10999999999999988,65.667,-0.0188,-0.17175,0.6299999999999999,100.0,1.0,1.0,202.13,0.0,0.0,0.0,0.0,0.0,0.0,0.0,8567.6,0.0,55.0,5.0,236.36666666666667,1.0,0.0,0.0,0.0,0.0,0.0,0.0,0.0,0.053999999999998494,0.053999999999998494,0.0,0.0,1.0,55.0,616.79921,10000.0,85.000001,85.000001,85.000001,85.000001,395.0,0.0,0.0,0.0,1.0,333.33500000000004,54.123,54.123,47.104,47.104,34.0,-23.607499999999998,16.992,-38.55,39.2475,0.0,1783.737,0.41499999999999915,100.0,27.484,27.265,42.351,42.652,0.0,1.0,100.0,0.0,0.0,0.0,0.0,2864.285714285714,2471.5,4845.5,5627.5,306.129,306.924,312.86625,311.0155,21.7732,20.5141,21.740099999999998,21.282899999999998,314.999998,314.999998,324.999988,324.999988,99.55844285714285,99.50708333333333,99.56404285714285,99.54394285714285,0.027750000000000163,-0.10725000000000007,-0.13749999999999996,0.08000000000000007,-0.046666666666666856,-0.046666666666666856,1.2966666666666666,1.322,37.082,29.213,36.875,34.018,56.104,34.4345,58.701499999999996,51.246,54.038,33.623,57.3495,49.621,53.216,33.201,57.3245,49.049,-0.038999999999999924,-0.11450000000000005,0.10497500000000001,0.11289500000000001,0.0,205.72,205.685,202.13,202.13,0.0,0.0
2,0.0,1.0,0.0,1.0,1.0,0.0,0.0,1.0,0.0,0.0,1.0,1.1856,26.0,0.0,0.0,0.0,59.999996,0.0,26.0,26.0,26.0,26.0,-0.07744444444444443,0.28500000000000014,-0.09383333333333334,293.884,-2.6723,-2.6433333333333335,-1.5745,-1.5070000000000001,-268.85,215.4975,190.947875,0.0,0.0,0.0,0.0,0.005566666666666667,-5.498166666666667,-5.498166666666667,-0.5769000000000001,0.7993333333333333,-0.003249999999999975,1.5200000000000005,65.81,-0.029400000000000003,-0.270025,0.8860000000000001,100.0,1.0,1.0,203.58666666666667,0.0,0.0,0.0,0.0,0.0,0.0,0.0,8629.3,0.0,55.0,5.0,236.88333333333333,0.0,0.0,0.0,0.0,0.0,0.0,0.0,0.0,0.10800000000000054,0.10800000000000054,0.0,0.0,0.0,55.0,616.79921,10000.0,85.000001,85.000001,85.000001,85.000001,395.0,0.0,0.0,0.0,1.0,166.665,51.926,51.926,50.705,50.705,34.0,-28.7725,21.622,-25.343333333333334,18.97,0.0,1783.686,0.46999999999999886,100.0,28.121,27.61,41.781,41.689,0.0,1.0,100.0,0.0,0.0,0.0,0.0,3342.142857142857,3119.7,3513.0,3410.2,304.6395,304.67266666666666,316.28825,316.42625,21.7838,20.5195,21.7509,21.2918,314.999998,314.999998,324.999988,324.999988,99.55844285714285,99.5071,99.5642,99.54407142857143,0.014250000000000096,-0.11674999999999991,-0.17199999999999993,0.05933333333333324,-0.05666666666667197,-0.07666666666666799,1.7516666666666665,1.8050000000000002,37.149,29.247,36.943,34.073499999999996,56.09,34.4765,58.7395,51.3015,54.025,33.661500000000004,57.385,49.674,53.202,33.2385,57.3565,49.1015,-0.04149999999999987,-0.11299999999999999,0.10522500000000001,0.10357000000000001,0.0,206.19,206.11,203.58666666666667,203.58666666666667,0.0,0.0
3,0.0,1.0,0.0,1.0,1.0,0.0,0.0,1.0,0.0,0.0,1.0,1.1856,26.0,0.0,0.0,0.0,59.999996,0.0,26.0,26.0,26.0,26.0,-0.08044444444444443,0.3123,0.1842,293.03,-2.6853,-2.681111111111111,-1.5512000000000001,-1.4787,-265.89,215.505,190.929875,0.0,0.0,0.0,0.0,0.0073,-5.498166666666667,-5.498166666666667,-0.5021,0.655,0.009500000000000064,-1.339,65.949,-0.0425,-0.183975,0.6860000000000008,100.0,1.0,1.0,203.36333333333334,0.0,0.0,0.0,0.0,0.0,0.0,0.0,8619.8,0.0,55.0,5.0,237.38666666666666,1.0,0.0,0.0,0.0,0.0,0.0,0.0,0.0,0.1529999999999987,0.1529999999999987,0.0,0.0,1.0,55.0,616.79921,10000.0,85.000001,85.000001,85.000001,85.000001,395.0,0.0,0.0,0.0,1.0,333.33500000000004,53.36,53.36,47.592,47.592,34.0,-23.5525,20.372,-34.7,27.22,0.0,1783.638,0.6099999999999994,100.0,27.799,27.425,41.976,41.985,0.0,1.0,100.0,0.0,0.0,0.0,0.0,2833.142857142857,2962.5,4495.75,4429.4,306.2775,305.37833333333333,313.85025,313.75975,21.7923,20.5242,21.7601,21.2997,314.999998,314.999998,324.999988,324.999988,99.55845714285714,99.50711666666666,99.56432857142858,99.54421428571429,0.018000000000000238,-0.11949999999999994,-0.15633333333333332,0.05800000000000005,-0.03833333333332689,-0.045000000000001705,1.4353333333333333,1.4490000000000003,37.202,29.2765,37.001000000000005,34.1235,56.074,34.513999999999996,58.775999999999996,51.362,54.01,33.6965,57.4185,49.732,53.186,33.2715,57.388,49.158500000000004,-0.03049999999999997,-0.11799999999999988,0.11197000000000001,0.09720000000000001,0.0,206.64499999999998,206.595,203.36333333333334,203.36333333333334,0.0,0.0
4,0.0,1.0,0.0,1.0,1.0,0.0,0.0,1.0,0.0,0.0,1.0,1.1856,26.0,0.0,0.0,0.0,59.999996,0.0,26.0,26.0,26.0,26.0,-0.10088888888888892,0.2997000000000001,-0.05,293.396,-2.6675,-2.7504444444444447,-1.4872,-1.5984,-262.32,215.51,190.909375,0.0,0.0,0.0,0.0,0.009366666666666667,-5.498166666666667,-5.498166666666667,-0.5321,-0.8243333333333334,-0.04674999999999985,0.5249999999999999,66.104,-0.050300000000000004,-0.23615,1.0460000000000012,100.0,1.0,1.0,204.03,0.0,0.0,0.0,0.0,0.0,0.0,0.0,8648.1,0.0,55.0,5.0,237.94333333333333,0.0,0.0,0.0,0.0,0.0,0.0,0.0,0.0,0.20700000000000074,0.20700000000000074,0.0,0.0,0.0,55.0,616.79921,10000.0,85.000001,85.000001,85.000001,85.000001,395.0,0.0,0.0,0.0,1.0,166.665,53.04,53.04,48.721000000000004,48.721000000000004,34.0,-27.175,20.38,-29.713333333333335,23.92,0.0,1783.587,0.740000000000002,100.0,27.848,26.996,42.897999999999996,42.099000000000004,0.0,1.0,100.0,0.0,0.0,0.0,0.0,3118.4285714285716,2950.4,4036.5,3862.3,305.263,305.493,314.93575,315.22575,21.8027,20.5296,21.7714,21.3091,314.999998,314.999998,324.999988,324.999988,99.55845714285714,99.50713333333333,99.56447142857142,99.54434285714285,-0.00024999999999986144,-0.12975000000000003,-0.16916666666666658,0.054333333333333345,-0.046666666666666856,-0.036666666666668846,1.568,1.5790000000000002,37.266999999999996,29.310000000000002,37.071,34.182,56.057,34.5565,58.823,51.4265,53.992999999999995,33.735,57.4625,49.794,53.169,33.3085,57.4285,49.2195,-0.023499999999999854,-0.12749999999999995,0.10065,0.10759500000000001,0.0,207.07,206.985,204.03,204.03,0.0,0.0
5,0.0,1.0,0.0,1.0,1.0,0.0,0.0,1.0,0.0,0.0,1.0,1.1856,26.0,0.0,0.0,0.0,59.999996,0.0,26.0,26.0,26.0,26.0,-0.09166666666666656,0.2845,-0.045866666666666674,293.716,-2.6463,-2.701666666666667,-1.5406,-1.5773000000000001,-258.95,215.515,190.8895,0.0,0.0,0.0,0.0,0.011333333333333334,-5.498166666666667,-5.498166666666667,-0.5377000000000001,0.548,-0.0338750000000001,-0.5779999999999998,66.248,-0.0693,-0.222975,1.1340000000000003,100.0,1.0,1.0,204.57,0.0,0.0,0.0,0.0,0.0,0.0,0.0,8671.0,0.0,55.0,5.0,238.46333333333334,1.0,0.0,0.0,0.0,0.0,0.0,0.0,0.0,0.2579999999999991,0.2579999999999991,0.0,0.0,1.0,55.0,616.79921,10000.0,85.000001,85.000001,85.000001,85.000001,395.0,0.0,0.0,0.0,1.0,166.665,53.284,53.284,49.21,49.21,34.0,-26.91,19.518,-30.71666666666667,22.575000000000003,0.0,1783.535,0.2699999999999996,100.0,27.606,27.03,42.382,41.611000000000004,0.0,1.0,100.0,0.0,0.0,0.0,0.0,3125.5714285714284,2885.2,3950.375,3942.4,305.376,305.48333333333335,315.24575,315.04725,21.8126,20.5348,21.7817,21.3178,314.999998,314.999998,324.999988,324.999988,99.55845714285714,99.50713333333333,99.56461428571428,99.54448571428571,-0.0009999999999998899,-0.13349999999999995,-0.1975,0.023833333333333373,-0.07833333333332604,-0.036666666666668846,1.5926666666666667,1.6219999999999999,37.329,29.3425,37.135999999999996,34.2365,56.042,34.5975,58.8615,51.4855,53.979,33.772999999999996,57.4985,49.8505,53.153999999999996,33.345,57.4615,49.2745,-0.04349999999999987,-0.10650000000000004,0.10325000000000001,0.105815,0.0,207.57999999999998,207.48000000000002,204.57,204.57,0.0,0.0
6,0.0,1.0,0.0,1.0,1.0,0.0,0.0,1.0,0.0,0.0,1.0,1.1856,26.0,0.0,0.0,0.0,59.999996,0.0,26.0,26.0,26.0,26.0,-0.11099999999999999,0.28869999999999996,-0.013333333333333334,293.51800000000003,-2.6513999999999998,-2.7854444444444444,-1.4815,-1.5686,-255.96,215.515,190.87125,0.0,0.0,0.0,0.0,0.013066666666666666,-5.498166666666667,-5.498166666666667,-0.5255000000000001,-0.21833333333333335,-0.05425000000000013,0.4159999999999999,66.38,-0.0757,-0.20275,0.9039999999999999,100.0,1.0,1.0,204.8,0.0,0.0,0.0,0.0,0.0,0.0,0.0,8680.7,0.0,55.0,5.0,238.93666666666667,0.0,0.0,0.0,0.0,0.0,0.0,0.0,0.0,0.3030000000000008,0.3030000000000008,0.0,0.0,0.0,55.0,616.79921,10000.0,85.000001,85.000001,85.000001,85.000001,395.0,0.0,0.0,0.0,1.0,333.33500000000004,53.65,53.65,48.447,48.447,34.0,-26.82,19.648,-32.63333333333333,24.372500000000002,0.0,1783.488,0.4299999999999997,100.0,27.493,26.559,42.7,41.641999999999996,0.0,1.0,100.0,0.0,0.0,0.0,0.0,3084.4285714285716,2856.2,4223.75,4090.3,305.398,305.78133333333335,314.44825,314.707,21.8212,20.5392,21.791,21.3257,314.999998,314.999998,324.999988,324.999988,99.55845714285714,99.50715,99.56474285714286,99.54461428571429,-0.004249999999999865,-0.137,-0.1865,0.03633333333333333,-0.045000000000001705,-0.060000000000002274,1.4926666666666666,1.5514999999999999,37.382,29.369999999999997,37.194,34.2855,56.027,34.6325,58.899,51.541,53.964,33.8055,57.533,49.903999999999996,53.138999999999996,33.376,57.494,49.327,-0.03949999999999987,-0.1080000000000001,0.10683000000000001,0.10909500000000001,0.0,207.95,207.88,204.8,204.8,0.0,0.0
7,0.0,1.0,0.0,1.0,1.0,0.0,0.0,1.0,0.0,0.0,1.0,1.1856,26.0,0.0,0.0,0.0,59.999996,0.0,26.0,26.0,26.0,26.0,-0.07433333333333336,0.2876000000000001,-0.0035,293.411,-2.6170999999999998,-2.7781111111111114,-1.5358,-1.6167,-252.57,215.5125,190.850625,0.0,0.0,0.0,0.0,0.015033333333333334,-5.498166666666667,-5.498166666666667,-0.534,0.10333333333333333,-0.048125000000000195,-0.31599999999999984,66.525,-0.0838,-0.2164,0.8279999999999994,100.0,1.0,1.0,205.31333333333333,0.0,0.0,0.0,0.0,0.0,0.0,0.0,8702.4,0.0,55.0,5.0,239.46,1.0,0.0,0.0,0.0,0.0,0.0,0.0,0.0,0.3539999999999992,0.3539999999999992,0.0,0.0,1.0,55.0,616.79921,10000.0,85.000001,85.000001,85.000001,85.000001,395.0,0.0,0.0,0.0,1.0,333.33500000000004,53.162,53.162,48.721000000000004,48.721000000000004,34.0,-26.745,20.746,-33.266666666666666,23.32,0.0,1783.437,-0.134999999999998,100.0,27.697,26.937,42.659,41.75,0.0,1.0,100.0,0.0,0.0,0.0,0.0,3204.714285714286,2857.7,4146.25,3953.1000000000004,305.161,305.5436666666667,314.77325,314.95725,21.8311,20.5444,21.8015,21.3345,314.999998,314.999998,324.999988,324.999988,99.55845714285714,99.50716666666666,99.56488571428571,99.54475714285714,0.015000000000000124,-0.11399999999999988,-0.20666666666666667,0.021666666666666723,-0.06666666666666998,-0.03333333333333144,1.5326666666666666,1.5735000000000001,37.444,29.4025,37.259,34.3405,56.013,34.673,58.94,51.602000000000004,53.951,33.8425,57.572,49.9625,53.125,33.411500000000004,57.5295,49.384,-0.0814999999999999,-0.0665,0.107285,0.10886000000000001,0.0,208.41,208.315,205.31333333333333,205.31333333333333,0.0,0.0
8,0.0,1.0,0.0,1.0,1.0,0.0,0.0,1.0,0.0,0.0,1.0,1.1856,26.0,0.0,0.0,0.0,59.999996,0.0,26.0,26.0,26.0,26.0,-0.06788888888888889,0.28770000000000007,-0.0122,293.488,-2.6943,-2.714444444444444,-1.5492,-1.6077,-249.18,215.51,190.830125,0.0,0.0,0.0,0.0,0.017,-5.498166666666667,-5.498166666666667,-0.5372,-0.15733333333333335,-0.0338750000000001,0.39800000000000013,66.67,-0.0747,-0.22115,0.3380000000000001,100.0,1.0,1.0,205.74333333333334,0.0,0.0,0.0,0.0,0.0,0.0,0.0,8720.7,0.0,55.0,5.0,239.98333333333335,0.0,0.0,0.0,0.0,0.0,0.0,0.0,0.0,0.40500000000000114,0.40500000000000114,0.0,0.0,0.0,55.0,616.79921,10000.0,85.000001,85.000001,85.000001,85.000001,395.0,0.0,0.0,0.0,1.0,333.33500000000004,53.314,53.314,48.522999999999996,48.522999999999996,34.0,-25.325,22.02,-30.55666666666667,25.535,0.0,1783.387,-0.19000000000000128,100.0,27.595,26.863,42.749,41.796,0.0,1.0,100.0,0.0,0.0,0.0,0.0,3009.142857142857,3037.9,4017.5,4028.2,305.595,305.1983333333333,315.0095,314.82675,21.8409,20.549599999999998,21.8119,21.3435,314.999998,314.999998,324.999988,324.999988,99.55847142857142,99.50718333333333,99.56502857142857,99.5449,0.02450000000000019,-0.1007499999999999,-0.17099999999999993,0.056666666666666865,-0.03166666666666629,-0.05666666666667197,1.544,1.5505,37.504999999999995,29.435000000000002,37.325,34.3965,55.997,34.713499999999996,58.9815,51.664500000000004,53.936,33.879999999999995,57.6105,50.0225,53.108999999999995,33.447,57.565,49.442499999999995,-0.08450000000000002,-0.05699999999999994,0.10255,0.11117500000000001,0.0,208.81,208.79000000000002,205.74333333333334,205.74333333333334,0.0,0.0
9,0.0,1.0,0.0,1.0,1.0,0.0,0.0,1.0,0.0,0.0,1.0,1.1856,26.0,0.0,0.0,0.0,59.999996,0.0,26.0,26.0,26.0,26.0,-0.04133333333333333,0.28910000000000013,-0.0048000000000000004,293.274,-2.6159,-2.728111111111111,-1.5413999999999999,-1.5657,-245.76999999999998,215.5025,190.80925,0.0,0.0,0.0,0.0,0.019,-5.498166666666667,-5.498166666666667,-0.5346000000000001,0.23166666666666666,-0.049125000000000085,-0.633,66.814,-0.056,-0.213125,0.08399999999999963,100.0,1.0,1.0,206.18,0.0,0.0,0.0,0.0,0.0,0.0,0.0,8739.3,0.0,55.0,5.0,240.5,1.0,0.0,0.0,0.0,0.0,0.0,0.0,0.0,0.4559999999999995,0.4559999999999995,0.0,0.0,1.0,55.0,616.79921,10000.0,85.000001,85.000001,85.000001,85.000001,395.0,0.0,0.0,0.0,1.0,166.665,52.994,52.994,48.706,48.706,34.0,-26.044999999999998,21.997999999999998,-30.98333333333333,24.950000000000003,0.0,1783.337,-0.2699999999999996,100.0,27.637,27.073999999999998,42.586,41.891,0.0,1.0,100.0,0.0,0.0,0.0,0.0,3239.0,2932.5,4102.625,4053.7,305.082,305.3566666666667,314.86375,314.741,21.8507,20.5549,21.822400000000002,21.3523,314.999998,314.999998,324.999988,324.999988,99.55848571428571,99.5072,99.56517142857143,99.54504285714286,0.03774999999999995,-0.08674999999999988,-0.16766666666666663,0.05166666666666675,-0.03833333333332689,-0.05666666666667197,1.541,1.5500000000000003,37.567,29.468,37.39,34.452,55.983000000000004,34.753,59.022,51.7255,53.922,33.916,57.647999999999996,50.0805,53.095,33.482,57.6,49.4995,-0.09549999999999992,-0.05049999999999999,0.109115,0.10219,0.0,209.25,209.26,206.18,206.18,0.0,0.0
10,0.0,1.0,0.0,1.0,1.0,0.0,0.0,1.0,0.0,0.0,1.0,1.1856,26.0,0.0,0.0,0.0,59.999996,0.0,26.0,26.0,26.0,26.0,-0.021222222222222142,0.2916000000000001,-0.0026333333333333334,293.213,-2.6754,-2.705111111111111,-1.5038,-1.5506,-242.56,215.4975,190.789625,0.0,0.0,0.0,0.0,0.020866666666666665,-5.498166666666667,-5.498166666666667,-0.5286000000000001,-0.22466666666666665,-0.022499999999999964,0.1259999999999999,66.951,-0.034800000000000005,-0.210625,-0.05999999999999961,100.0,1.0,1.0,206.5233333333333,0.0,0.0,0.0,0.0,0.0,0.0,0.0,8753.7,0.0,55.0,5.0,240.99333333333334,0.0,0.0,0.0,0.0,0.0,0.0,1.0,0.0,0.5040000000000013,0.5040000000000013,0.0,0.0,0.0,55.0,616.79921,10000.0,85.000001,85.000001,85.000001,85.000001,395.0,0.0,0.0,0.0,1.0,333.33500000000004,53.314,53.314,48.400999999999996,48.400999999999996,34.0,-25.3025,21.472,-30.306666666666665,27.2425,0.0,1783.288,-0.245000000000001,100.0,27.58,27.035,42.698,42.222,0.0,1.0,100.0,0.0,0.0,0.0,0.0,3106.714285714286,2904.5,4159.875,4180.7,305.4865,305.471,314.719,314.4135,21.8599,20.5598,21.8323,21.3608,314.999998,314.999998,324.999988,324.999988,99.55848571428571,99.50721666666666,99.56531428571428,99.54517142857142,0.03849999999999998,-0.08824999999999994,-0.15133333333333332,0.07850000000000001,-0.05333333333332746,-0.051666666666669414,1.5143333333333335,1.5245000000000002,37.623999999999995,29.4985,37.452,34.504999999999995,55.97,34.789,59.061,51.7845,53.91,33.9495,57.6845,50.1375,53.081,33.5135,57.6335,49.5555,-0.09050000000000002,-0.05650000000000022,0.103705,0.108045,0.0,209.68,209.655,206.5233333333333,206.5233333333333,0.0,0.0
11,0.0,1.0,0.0,1.0,1.0,0.0,0.0,1.0,0.0,0.0,1.0,1.1856,26.0,0.0,0.0,0.0,59.999996,0.0,26.0,26.0,26.0,26.0,-0.020000000000000018,0.2823,-0.037233333333333334,293.488,-2.6827,-2.701666666666667,-1.5605,-1.5262,-239.14,215.49,190.768625,0.0,0.0,0.0,0.0,0.022600000000000002,-5.498166666666667,-5.498166666666667,-0.5499,-0.2656666666666667,0.004874999999999963,0.903,67.092,-0.0201,-0.22390000000000002,-0.17600000000000016,100.0,1.0,1.0,207.06333333333333,0.0,0.0,0.0,0.0,0.0,0.0,0.0,8776.7,0.0,55.0,5.0,241.50333333333333,1.0,0.0,0.0,0.0,0.0,0.0,1.0,0.0,0.5549999999999997,0.5549999999999997,0.0,0.0,1.0,55.0,616.79921,10000.0,85.000001,85.000001,85.000001,85.000001,395.0,0.0,0.0,0.0,1.0,333.33500000000004,53.268,53.268,48.874,48.874,34.0,-23.745,23.992,-27.106666666666666,26.6825,0.0,1783.238,-0.629999999999999,100.0,27.43,26.921,42.553,42.195,0.0,1.0,100.0,0.0,0.0,0.0,0.0,3018.142857142857,3101.4,3895.75,4061.7,305.5845,305.0353333333333,315.31925,314.79975,21.8695,20.5651,21.8426,21.3697,314.999998,314.999998,324.999988,324.999988,99.55848571428571,99.50721666666666,99.56545714285714,99.54531428571428,0.06274999999999986,-0.06325000000000003,-0.12183333333333335,0.09933333333333327,-0.02499999999999858,-0.06333333333333258,1.5779999999999998,1.581,37.684,29.5315,37.516999999999996,34.561,55.955,34.8275,59.0985,51.847,53.894999999999996,33.985,57.7195,50.197,53.066,33.5475,57.666,49.614,-0.10399999999999987,-0.0495000000000001,0.10637500000000001,0.10404500000000001,0.0,210.095,210.10500000000002,207.06333333333333,207.06333333333333,0.0,0.0
12,0.0,1.0,0.0,1.0,1.0,0.0,0.0,1.0,0.0,0.0,1.0,1.1856,26.0,0.0,0.0,0.0,59.999996,0.0,26.0,26.0,26.0,26.0,-0.019000000000000017,0.2864,-0.0004333333333333333,293.137,-2.7142,-2.6896666666666667,-1.5432000000000001,-1.5413000000000001,-235.92000000000002,215.48250000000002,190.748125,0.0,0.0,0.0,0.0,0.025466666666666665,-5.498166666666667,-5.498166666666667,-0.5429,0.42033333333333334,0.00912500000000005,0.8820000000000001,67.226,-0.0074,-0.206025,-0.2860000000000005,100.0,1.0,1.0,207.42333333333335,0.0,0.0,0.0,0.0,0.0,0.0,0.0,8791.9,0.0,55.0,5.0,241.98666666666668,0.0,0.0,0.0,0.0,0.0,0.0,1.0,0.0,0.602999999999998,0.602999999999998,0.0,0.0,0.0,55.0,616.79921,10000.0,85.000001,85.000001,85.000001,85.000001,395.0,0.0,0.0,0.0,1.0,166.665,52.994,52.994,48.309,48.309,34.0,-24.447499999999998,24.137999999999998,-27.963333333333335,29.535,0.0,1783.19,-0.33500000000000085,100.0,27.543,27.227,42.411,42.179,0.0,1.0,100.0,0.0,0.0,0.0,0.0,3019.714285714286,3156.0,4085.125,4208.4,305.561,304.843,314.8695,314.47225,21.8785,20.5702,21.8524,21.3781,314.999998,314.999998,324.999988,324.999988,99.5585,99.50721666666666,99.56558571428572,99.54544285714286,0.0535000000000001,-0.0694999999999999,-0.10866666666666658,0.12349999999999994,-0.03499999999999659,-0.051666666666669414,1.5413333333333332,1.5255,37.741,29.563499999999998,37.578,34.6135,55.943,34.864,59.135,51.905,53.884,34.0185,57.7535,50.253,53.054,33.579499999999996,57.697,49.6685,-0.08299999999999996,-0.06800000000000006,0.10461000000000001,0.11425,0.0,210.53,210.55,207.42333333333335,207.42333333333335,0.0,0.0
13,0.0,1.0,0.0,1.0,1.0,0.0,0.0,1.0,0.0,0.0,1.0,1.1856,26.0,0.0,0.0,0.0,59.999996,0.0,26.0,26.0,26.0,26.0,0.02877777777777779,0.2824,0.020333333333333335,292.816,-2.6871,-2.698777777777778,-1.5716999999999999,-1.5495999999999999,-232.49,215.475,190.7265,0.0,0.0,0.0,0.0,0.0267,-5.498166666666667,-5.498166666666667,-0.5366000000000001,-0.22033333333333335,0.0011250000000000426,-0.512,67.37,-0.0014,-0.21200000000000002,-0.2060000000000004,100.0,1.0,1.0,207.78,0.0,0.0,0.0,0.0,0.0,0.0,0.0,8807.0,0.0,55.0,5.0,242.5,1.0,0.0,0.0,0.0,0.0,0.0,1.0,0.0,0.6539999999999999,0.6539999999999999,0.0,0.0,1.0,55.0,616.79921,10000.0,85.000001,85.000001,85.000001,85.000001,395.0,0.0,0.0,0.0,1.0,333.33500000000004,52.856,52.856,48.004,48.004,34.0,-23.5275,24.427999999999997,-29.72,29.59,0.0,1783.137,-0.4450000000000003,100.0,27.59,27.524,42.7,42.753,0.0,1.0,100.0,0.0,0.0,0.0,0.0,3145.857142857143,3001.5,4189.875,4217.4,305.3695,305.14,314.649,314.32775,21.8881,20.5756,21.863,21.3872,314.999998,314.999998,324.999988,324.999988,99.55851428571428,99.50723333333333,99.56572857142856,99.5456,0.09100000000000019,-0.035499999999999865,-0.11649999999999994,0.11533333333333329,-0.021666666666668277,-0.04333333333332945,1.5153333333333334,1.4980000000000002,37.801,29.5975,37.644,34.670500000000004,55.93,34.9025,59.176,51.969,53.870999999999995,34.054,57.7915,50.314499999999995,53.04,33.614,57.732,49.729,-0.11749999999999994,-0.03149999999999986,0.103815,0.11457,0.0,210.95,210.97,207.78,207.78,0.0,0.0
14,0.0,1.0,0.0,1.0,1.0,0.0,0.0,1.0,0.0,0.0,1.0,1.1856,26.0,0.0,0.0,0.0,59.999996,0.0,26.0,26.0,26.0,26.0,0.033666666666666734,0.2853000000000001,-0.032933333333333335,293.06,-2.7068,-2.707111111111111,-1.5691000000000002,-1.5415,-228.84,215.4675,190.703875,0.0,0.0,0.0,0.0,0.028833333333333332,-5.498166666666667,-5.498166666666667,-0.5492,-0.02366666666666667,0.01912500000000006,-0.3849999999999998,67.517,0.0028,-0.22385000000000002,-0.266,100.0,1.0,1.0,208.32666666666665,0.0,0.0,0.0,0.0,0.0,0.0,0.0,8830.2,0.0,55.0,5.0,243.03333333333336,0.0,0.0,0.0,0.0,0.0,0.0,1.0,0.0,0.7079999999999984,0.7079999999999984,0.0,0.0,0.0,55.0,616.79921,10000.0,85.000001,85.000001,85.000001,85.000001,395.0,0.0,0.0,0.0,1.0,166.665,52.887,52.887,48.416,48.416,34.0,-23.4325,24.676,-27.7,28.02,0.0,1783.085,-0.46999999999999886,100.0,27.558,27.668,42.579,42.804,0.0,1.0,100.0,0.0,0.0,0.0,0.0,3090.142857142857,3013.9,3993.375,4095.3,305.544,305.05533333333335,315.14175,314.653,21.8982,20.5813,21.874,21.3968,314.999998,314.999998,324.999988,324.999988,99.55851428571428,99.50723333333333,99.56588571428571,99.54574285714286,0.08625000000000016,-0.03574999999999995,-0.11416666666666664,0.11283333333333334,-0.05666666666667197,-0.03166666666666629,1.5563333333333333,1.5615,37.864000000000004,29.633499999999998,37.713,34.730000000000004,55.917,34.943,59.216499999999996,52.0355,53.858999999999995,34.091499999999996,57.829,50.378,53.027,33.6495,57.7665,49.7915,-0.10699999999999998,-0.034499999999999975,0.10798,0.10346500000000002,0.0,211.43,211.425,208.32666666666665,208.32666666666665,0.0,0.0
15,0.0,1.0,0.0,1.0,1.0,0.0,0.0,1.0,0.0,0.0,1.0,1.1856,26.0,0.0,0.0,0.0,59.999996,0.0,26.0,26.0,26.0,26.0,0.0427777777777778,0.27370000000000005,-0.02,292.969,-2.6963,-2.684222222222222,-1.5771000000000002,-1.5611000000000002,-225.6,215.46,190.683375,0.0,0.0,0.0,0.0,0.0307,-5.498166666666667,-5.498166666666667,-0.5416000000000001,0.18833333333333335,0.02675000000000005,-0.891,67.65,0.0109,-0.21075000000000002,-0.3439999999999994,100.0,1.0,1.0,208.69333333333333,0.0,0.0,0.0,0.0,0.0,0.0,0.0,8845.7,0.0,55.0,5.0,243.51,1.0,0.0,0.0,0.0,0.0,0.0,1.0,0.0,0.7560000000000002,0.7560000000000002,0.0,0.0,1.0,55.0,616.79921,10000.0,85.000001,85.000001,85.000001,85.000001,395.0,0.0,0.0,0.0,1.0,166.665,52.933,52.933,48.218,48.218,34.0,-23.125,23.716,-27.88,29.75,0.0,1783.037,-0.3200000000000003,100.0,27.545,27.761,42.475,42.903999999999996,0.0,1.0,100.0,0.0,0.0,0.0,0.0,3064.5714285714284,2981.3,4097.875,4136.1,305.6275,305.13866666666667,314.906,314.5095,21.9072,20.5865,21.8838,21.4053,314.999998,314.999998,324.999988,324.999988,99.55852857142857,99.50723333333333,99.56601428571429,99.54588571428572,0.08550000000000013,-0.04774999999999996,-0.09750000000000003,0.1293333333333333,-0.054999999999999716,-0.04333333333332945,1.5426666666666666,1.5135,37.92,29.6655,37.774,34.783,55.905,34.979,59.251999999999995,52.095,53.847,34.125,57.8625,50.4355,53.015,33.6815,57.7965,49.8475,-0.10050000000000003,-0.051000000000000156,0.10504500000000001,0.10791,0.0,211.835,211.85000000000002,208.69333333333333,208.69333333333333,0.0,0.0
16,0.0,1.0,0.0,1.0,1.0,0.0,0.0,1.0,0.0,0.0,1.0,1.1856,26.0,0.0,0.0,0.0,59.999996,0.0,26.0,26.0,26.0,26.0,0.035555555555555785,0.2715000000000001,-0.0023333333333333335,292.786,-2.7584,-2.6314444444444445,-1.5552000000000001,-1.5575,-222.35,215.45499999999998,190.662625,0.0,0.0,0.0,0.0,0.032600000000000004,-5.498166666666667,-5.498166666666667,-0.5522,-0.43433333333333335,0.019749999999999934,-1.034,67.782,0.011000000000000001,-0.222525,-0.13200000000000056,100.0,1.0,1.0,209.07333333333332,0.0,0.0,0.0,0.0,0.0,0.0,0.0,8861.9,0.0,55.0,5.0,243.98666666666668,0.0,0.0,0.0,0.0,0.0,0.0,1.0,0.0,0.8039999999999985,0.8039999999999985,0.0,0.0,0.0,55.0,616.79921,10000.0,85.000001,85.000001,85.000001,85.000001,395.0,0.0,0.0,0.0,1.0,166.665,52.612,52.612,47.882,47.882,34.0,-24.445,25.165999999999997,-27.45,28.765,0.0,1782.989,-0.3299999999999983,100.0,27.41,27.801000000000002,42.730000000000004,43.066,0.0,1.0,100.0,0.0,0.0,0.0,0.0,3172.285714285714,3127.2,4090.625,4050.6000000000004,305.36,304.7486666666667,314.89875,314.7005,21.9161,20.5916,21.8937,21.4138,314.999998,314.999998,324.999988,324.999988,99.55854285714285,99.50723333333333,99.56615714285714,99.54601428571429,0.08899999999999997,-0.03200000000000003,-0.09416666666666662,0.12549999999999994,-0.04833333333333201,-0.026666666666670835,1.532,1.5230000000000001,37.976,29.698,37.836,34.8365,55.891999999999996,35.015,59.289500000000004,52.153999999999996,53.835,34.158,57.8975,50.4925,53.001000000000005,33.713499999999996,57.829,49.9035,-0.09899999999999998,-0.04899999999999993,0.096915,0.11165000000000001,0.0,212.215,212.22500000000002,209.07333333333332,209.07333333333332,0.0,0.0
17,0.0,1.0,0.0,1.0,1.0,0.0,0.0,1.0,0.0,0.0,1.0,1.1856,26.0,0.0,0.0,0.0,59.999996,0.0,26.0,26.0,26.0,26.0,0.010000000000000009,0.2921,0.023633333333333336,292.465,-2.7149,-2.618888888888889,-1.5962,-1.5217,-218.89,215.45,190.640375,0.0,0.0,0.0,0.0,0.0346,-5.498166666666667,-5.498166666666667,-0.5495,0.16666666666666666,-0.0017499999999999183,0.3380000000000001,67.92099999999999,0.010400000000000001,-0.21285,-0.242,100.0,1.0,1.0,209.46666666666667,0.0,0.0,0.0,0.0,0.0,0.0,0.0,8878.5,0.0,55.0,5.0,244.48666666666668,1.0,0.0,0.0,0.0,0.0,0.0,1.0,0.0,0.8550000000000004,0.8550000000000004,0.0,0.0,1.0,55.0,616.79921,10000.0,85.000001,85.000001,85.000001,85.000001,395.0,0.0,0.0,0.0,1.0,333.33500000000004,52.368,52.368,47.653,47.653,34.0,-23.7275,25.39,-29.386666666666663,30.1025,0.0,1782.937,-0.21999999999999886,100.0,27.903,27.785,42.804,42.918,0.0,1.0,100.0,0.0,0.0,0.0,0.0,3136.142857142857,3198.2,4248.375,4238.1,305.274,304.7096666666667,314.538,314.38625,21.9257,20.5972,21.9041,21.4228,314.999998,314.999998,324.999988,324.999988,99.55855714285714,99.50725,99.5663,99.54617142857143,0.09450000000000003,-0.03475000000000006,-0.09483333333333333,0.1333333333333333,-0.03999999999999915,-0.06833333333332803,1.5186666666666666,1.5215,38.035,29.7325,37.900999999999996,34.8925,55.879999999999995,35.0545,59.328,52.216,53.823,34.194,57.933,50.552,52.989000000000004,33.7485,57.8615,49.962,-0.09999999999999987,-0.05650000000000022,0.10825000000000001,0.10892,0.0,212.67000000000002,212.70499999999998,209.46666666666667,209.46666666666667,0.0,0.0
18,0.0,1.0,0.0,1.0,1.0,0.0,0.0,1.0,0.0,0.0,1.0,1.1856,26.0,0.0,0.0,0.0,59.999996,0.0,26.0,26.0,26.0,26.0,0.015333333333333421,0.27459999999999996,0.02936666666666667,292.343,-2.6414999999999997,-2.6132222222222223,-1.4943,-1.4865,-215.63,215.4475,190.61925,0.0,0.0,0.0,0.0,0.036500000000000005,-5.498166666666667,-5.498166666666667,-0.5589000000000001,-0.36333333333333334,0.0003750000000000142,1.0140000000000002,68.05199999999999,0.008400000000000001,-0.22275,-0.12399999999999967,100.0,1.0,1.0,209.8466666666667,0.0,0.0,0.0,0.0,0.0,0.0,0.0,8894.6,0.0,55.0,5.0,244.96,0.0,0.0,0.0,0.0,0.0,0.0,1.0,0.0,0.9029999999999987,0.9029999999999987,0.0,0.0,0.0,55.0,616.79921,10000.0,85.000001,85.000001,85.000001,85.000001,395.0,0.0,0.0,0.0,1.0,333.33500000000004,52.292,52.292,47.531,47.531,34.0,-22.7125,25.782,-27.246666666666666,30.1675,0.0,1782.889,-0.2049999999999983,100.0,27.91,27.717,43.014,43.084,0.0,1.0,100.0,0.0,0.0,0.0,0.0,3097.285714285714,3299.7,4132.25,4280.9,305.3285,304.45733333333334,314.67075,314.2875,21.9346,20.6023,21.914,21.4314,314.999998,314.999998,324.999988,324.999988,99.55857142857143,99.50725,99.56644285714286,99.5463,0.09624999999999995,-0.04400000000000004,-0.09433333333333338,0.13483333333333336,-0.02833333333332888,-0.05333333333332746,1.5030000000000001,1.4929999999999999,38.091,29.764499999999998,37.963,34.9465,55.867000000000004,35.09,59.3655,52.275,53.812,34.2275,57.968,50.6085,52.976,33.78,57.8935,50.0175,-0.09699999999999998,-0.06349999999999989,0.10551500000000001,0.12118500000000001,0.0,213.065,213.07,209.8466666666667,209.8466666666667,0.0,0.0
19,0.0,1.0,0.0,1.0,1.0,0.0,0.0,1.0,0.0,0.0,1.0,1.1856,26.0,0.0,0.0,0.0,59.999996,0.0,26.0,26.0,26.0,26.0,0.03111111111111109,0.28580000000000005,0.05106666666666667,292.084,-2.6513,-2.706,-1.5272999999999999,-1.6059999999999999,-212.14999999999998,215.4425,190.5965,0.0,0.0,0.0,0.0,0.038533333333333336,-5.498166666666667,-5.498166666666667,-0.5526,0.5866666666666667,0.00924999999999998,-0.7949999999999999,68.189,0.002,-0.21655000000000002,-0.019999999999999574,100.0,1.0,1.0,210.28333333333333,0.0,0.0,0.0,0.0,0.0,0.0,0.0,8913.1,0.0,55.0,5.0,245.45333333333335,1.0,0.0,0.0,0.0,0.0,0.0,1.0,0.0,0.9540000000000006,0.9540000000000006,0.0,0.0,1.0,55.0,616.79921,10000.0,85.000001,85.000001,85.000001,85.000001,395.0,0.0,0.0,0.0,1.0,333.33500000000004,51.91,51.91,47.684,47.684,34.0,-24.1825,24.296,-29.043333333333333,30.767500000000002,0.0,1782.837,-0.19500000000000028,100.0,28.301000000000002,28.381,42.861000000000004,43.278999999999996,0.0,1.0,100.0,0.0,0.0,0.0,0.0,3189.0,3072.8,4185.75,4272.3,305.198,304.78633333333335,314.69225,314.1285,21.9442,20.6079,21.9245,21.4405,314.999998,314.999998,324.999988,324.999988,99.55857142857143,99.50726666666667,99.56658571428571,99.54644285714286,0.07925000000000004,-0.06099999999999994,-0.11399999999999999,0.1096666666666668,-0.04999999999999716,-0.045000000000001705,1.4896666666666667,1.4820000000000002,38.150999999999996,29.799500000000002,38.028,35.003,55.855999999999995,35.1305,59.4025,52.3375,53.801,34.2645,58.0025,50.669,52.964,33.8155,57.925,50.076499999999996,-0.09549999999999992,-0.06599999999999984,0.10487,0.11073500000000001,0.0,213.51999999999998,213.51,210.28333333333333,210.28333333333333,0.0,0.0
20,0.0,1.0,0.0,1.0,1.0,0.0,0.0,1.0,0.0,0.0,1.0,1.1856,26.0,0.0,0.0,0.0,59.999996,0.0,26.0,26.0,26.0,26.0,0.014444444444444482,0.25839999999999996,-0.0143,292.374,-2.7152,-2.6502222222222223,-1.5293,-1.5925,-208.47,215.4375,190.57275,0.0,0.0,0.0,0.0,0.04066666666666667,-5.498166666666667,-5.498166666666667,-0.5559000000000001,-0.7943333333333333,0.005374999999999908,-0.9579999999999997,68.33500000000001,-0.0012000000000000001,-0.22645,0.05799999999999983,100.0,1.0,1.0,210.72333333333333,0.0,0.0,0.0,0.0,0.0,0.0,0.0,8931.8,0.0,55.0,5.0,245.98000000000002,0.0,0.0,0.0,0.0,0.0,0.0,0.0,0.0,1.0079999999999991,1.0079999999999991,0.0,0.0,0.0,55.0,616.79921,10000.0,85.000001,85.000001,85.000001,85.000001,395.0,0.0,0.0,0.0,1.0,166.665,52.49,52.49,47.394,47.394,34.0,-24.3625,23.326,-28.91,28.3625,0.0,1782.785,-0.19000000000000128,100.0,27.893,28.082,43.399,43.655,0.0,1.0,100.0,0.0,0.0,0.0,0.0,3140.5714285714284,3026.6,4136.125,4030.9,305.4485,305.082,314.7755,314.715,21.9542,20.6137,21.9357,21.4503,314.999998,314.999998,324.999988,324.999988,99.5586,99.50726666666667,99.56674285714286,99.54661428571428,0.07624999999999993,-0.05824999999999991,-0.11783333333333335,0.1080000000000001,-0.051666666666669414,-0.030000000000001137,1.4886666666666666,1.4985,38.214,29.836,38.098,35.064499999999995,55.841,35.1715,59.445499999999996,52.405,53.787,34.3025,58.042500000000004,50.7335,52.949,33.852000000000004,57.962,50.14,-0.08949999999999991,-0.06599999999999984,0.10288000000000001,0.10310000000000001,0.0,213.945,213.93,210.72333333333333,210.72333333333333,0.0,0.0
21,0.0,1.0,0.0,1.0,1.0,0.0,0.0,1.0,0.0,0.0,1.0,1.1856,26.0,0.0,0.0,0.0,59.999996,0.0,26.0,26.0,26.0,26.0,0.008333333333333304,0.27160000000000006,-0.03606666666666667,292.572,-2.7143,-2.666444444444444,-1.5777,-1.5338,-205.18,215.435,190.551125,0.0,0.0,0.0,0.0,0.04256666666666667,-5.498166666666667,-5.498166666666667,-0.5740000000000001,0.06833333333333333,-0.003874999999999851,-0.6160000000000001,68.461,-0.004,-0.224,0.0,100.0,1.0,1.0,211.22,0.0,0.0,0.0,0.0,0.0,0.0,0.0,8952.9,0.0,55.0,5.0,246.43333333333334,1.0,0.0,0.0,0.0,0.0,0.0,0.0,0.0,1.056000000000001,1.056000000000001,0.0,0.0,1.0,55.0,616.79921,10000.0,85.000001,85.000001,85.000001,85.000001,395.0,0.0,0.0,0.0,1.0,166.665,52.338,52.338,48.035,48.035,34.0,-25.1775,24.345999999999997,-28.983333333333334,26.9325,0.0,1782.737,-0.25,100.0,27.968,27.976,43.028,43.22,0.0,1.0,100.0,0.0,0.0,0.0,0.0,3227.857142857143,3076.2,4066.0,4007.6000000000004,305.181,304.96666666666664,315.00875,314.932,21.9631,20.6189,21.9454,21.4588,314.999998,314.999998,324.999988,324.999988,99.5586,99.50728333333333,99.56688571428572,99.54674285714286,0.07600000000000007,-0.04675000000000007,-0.126,0.10899999999999999,-0.054999999999999716,-0.036666666666668846,1.5643333333333334,1.5725000000000002,38.269,29.868000000000002,38.159,35.117,55.829,35.208,59.4795,52.461,53.775,34.336,58.0745,50.7875,52.937,33.8845,57.991,50.192499999999995,-0.09450000000000003,-0.05799999999999983,0.105245,0.11054000000000001,0.0,214.365,214.335,211.22,211.22,0.0,0.0
22,0.0,1.0,0.0,1.0,1.0,0.0,0.0,1.0,0.0,0.0,1.0,1.1856,26.0,0.0,0.0,0.0,59.999996,0.0,26.0,26.0,26.0,26.0,-0.004222222222222127,0.28770000000000007,0.0152,292.13,-2.755,-2.634333333333333,-1.5968,-1.533,-201.69,215.4325,190.527375,0.0,0.0,0.0,0.0,0.0446,-5.498166666666667,-5.498166666666667,-0.5582,0.04,0.006750000000000034,1.016,68.6,-0.0047,-0.201375,-0.12399999999999967,100.0,1.0,1.0,211.46666666666667,0.0,0.0,0.0,0.0,0.0,0.0,0.0,8963.3,0.0,55.0,5.0,246.93,0.0,0.0,0.0,0.0,0.0,0.0,0.0,0.0,1.1069999999999993,1.1069999999999993,0.0,0.0,0.0,55.0,616.79921,10000.0,85.000001,85.000001,85.000001,85.000001,395.0,0.0,0.0,0.0,1.0,166.665,52.414,52.414,47.165,47.165,34.0,-23.685,24.817999999999998,-30.683333333333334,30.6725,0.0,1782.685,-0.3249999999999993,100.0,28.178,27.908,43.256,43.242000000000004,0.0,1.0,100.0,0.0,0.0,0.0,0.0,3069.4285714285716,3164.2,4277.25,4415.8,305.553,304.89733333333334,314.4235,313.99575,21.9726,20.6245,21.9559,21.4679,314.999998,314.999998,324.999988,324.999988,99.55861428571428,99.50728333333333,99.56701428571428,99.54688571428571,0.08899999999999997,-0.0422499999999999,-0.11066666666666658,0.11050000000000004,-0.023333333333326323,-0.06499999999999773,1.5,1.491,38.329,29.903,38.224999999999994,35.1745,55.817,35.2475,59.5195,52.5235,53.763,34.3725,58.1115,50.8475,52.923,33.919,58.025,50.2515,-0.10650000000000004,-0.05600000000000005,0.10089000000000001,0.10630500000000001,0.0,214.76999999999998,214.79500000000002,211.46666666666667,211.46666666666667,0.0,0.0
23,0.0,1.0,0.0,1.0,1.0,0.0,0.0,1.0,0.0,0.0,1.0,1.1856,26.0,0.0,0.0,0.0,59.999996,0.0,26.0,26.0,26.0,26.0,-0.018444444444444485,0.26660000000000017,0.004566666666666667,292.053,-2.6542,-2.6695555555555557,-1.635,-1.5105,-198.39,215.43,190.50525,0.0,0.0,0.0,0.0,0.046533333333333336,-5.498166666666667,-5.498166666666667,-0.5734,-0.2786666666666667,0.003874999999999851,0.4889999999999999,68.726,-0.0028,-0.22485000000000002,-0.12399999999999967,100.0,1.0,1.0,211.95,0.0,0.0,0.0,0.0,0.0,0.0,0.0,8983.8,0.0,55.0,5.0,247.38333333333333,1.0,0.0,0.0,0.0,0.0,0.0,0.0,0.0,1.1550000000000011,1.1550000000000011,0.0,0.0,1.0,55.0,616.79921,10000.0,85.000001,85.000001,85.000001,85.000001,395.0,0.0,0.0,0.0,1.0,333.33500000000004,51.865,51.865,47.623,47.623,34.0,-24.12,25.206,-29.653333333333336,29.0275,0.0,1782.637,-0.29499999999999815,100.0,28.378,28.073999999999998,43.428,43.488,0.0,1.0,100.0,0.0,0.0,0.0,0.0,3218.0,3185.1,4152.125,4168.4,304.9525,304.7536666666667,314.79525,314.58175,21.9815,20.6297,21.9658,21.4766,314.999998,314.999998,324.999988,324.999988,99.55862857142857,99.5073,99.56715714285714,99.54702857142857,0.09175000000000022,-0.047499999999999876,-0.10566666666666658,0.12716666666666687,-0.03999999999999915,-0.07499999999999574,1.5270000000000001,1.525,38.385,29.936,38.286,35.2285,55.805,35.285,59.556,52.582499999999996,53.751999999999995,34.407,58.1455,50.9045,52.912,33.9525,58.056,50.3075,-0.09749999999999992,-0.05549999999999988,0.09854,0.11615500000000001,0.0,215.15,215.175,211.95,211.95,0.0,0.0
24,0.0,1.0,0.0,1.0,1.0,0.0,0.0,1.0,0.0,0.0,1.0,1.1856,26.0,0.0,0.0,0.0,59.999996,0.0,26.0,26.0,26.0,26.0,0.002888888888888941,0.2762,-0.052700000000000004,292.389,-2.6787,-2.6735555555555557,-1.5431,-1.5398,-195.09,215.4275,190.48275,0.0,0.0,0.0,0.0,0.048433333333333335,-5.498166666666667,-5.498166666666667,-0.5840000000000001,-0.343,0.012499999999999956,1.2160000000000002,68.85300000000001,-0.0019,-0.22275,-0.1479999999999997,100.0,1.0,1.0,212.31666666666666,0.0,0.0,0.0,0.0,0.0,0.0,0.0,8999.3,0.0,55.0,5.0,247.84333333333336,0.0,0.0,0.0,0.0,0.0,0.0,0.0,0.0,1.2029999999999994,1.2029999999999994,0.0,0.0,0.0,55.0,616.79921,10000.0,85.000001,85.000001,85.000001,85.000001,395.0,0.0,0.0,0.0,1.0,333.33500000000004,52.689,52.689,47.379,47.379,34.0,-22.1025,24.194000000000003,-27.963333333333335,29.5775,0.0,1782.589,-0.3099999999999987,100.0,28.226,27.866,43.411,43.408,0.0,1.0,100.0,0.0,0.0,0.0,0.0,2962.5714285714284,3062.0,4162.25,4188.3,305.7535,305.15833333333336,314.6375,314.5295,21.9904,20.634900000000002,21.9756,21.4851,314.999998,314.999998,324.999988,324.999988,99.55862857142857,99.5073,99.5673,99.54717142857143,0.09149999999999991,-0.04499999999999993,-0.09216666666666662,0.1253333333333333,-0.03166666666666629,-0.051666666666669414,1.5223333333333335,1.512,38.44,29.968,38.348,35.282,55.794,35.320499999999996,59.592,52.6405,53.741,34.44,58.179,50.96,52.899,33.984,58.0865,50.3615,-0.10099999999999998,-0.06150000000000011,0.09448000000000001,0.10763,0.0,215.555,215.54000000000002,212.31666666666666,212.31666666666666,0.0,0.0
25,0.0,1.0,0.0,1.0,1.0,0.0,0.0,1.0,0.0,0.0,1.0,1.1856,26.0,0.0,0.0,0.0,59.999996,0.0,26.0,26.0,26.0,26.0,-0.002555555555555533,0.2751000000000001,-0.013000000000000001,292.13,-2.741,-2.6535555555555557,-1.5870000000000002,-1.5559,-191.37,215.4225,190.455875,0.0,0.0,0.0,0.0,0.0506,-5.498166666666667,-5.498166666666667,-0.6022000000000001,0.09266666666666667,0.018249999999999877,0.2200000000000002,68.994,0.0011,-0.218675,-0.2060000000000004,100.0,1.0,1.0,212.79000000000002,0.0,0.0,0.0,0.0,0.0,0.0,0.0,9019.4,0.0,55.0,5.0,248.35333333333335,1.0,0.0,0.0,0.0,0.0,0.0,0.0,0.0,1.256999999999998,1.256999999999998,0.0,0.0,1.0,55.0,616.79921,10000.0,85.000001,85.000001,85.000001,85.000001,395.0,0.0,0.0,0.0,1.0,166.665,51.758,51.758,47.76,47.76,34.0,-25.08,26.863999999999997,-27.816666666666666,28.75,0.0,1782.536,-0.3249999999999993,100.0,28.148,28.064,43.152,43.263,0.0,1.0,100.0,0.0,0.0,0.0,0.0,3261.714285714286,3335.9,4043.375,4146.1,304.9805,304.294,315.055,314.61275,22.0003,20.6408,21.9866,21.494799999999998,314.999998,314.999998,324.999988,324.999988,99.55864285714286,99.50731666666667,99.56745714285714,99.54731428571428,0.09375,-0.038249999999999895,-0.10233333333333339,0.11416666666666675,-0.030000000000001137,-0.05833333333333002,1.5553333333333335,1.5470000000000002,38.501999999999995,30.005499999999998,38.416,35.3425,55.778999999999996,35.362,59.6305,52.704,53.727000000000004,34.4785,58.215,51.0215,52.885,34.0205,58.119,50.422,-0.10650000000000004,-0.052000000000000046,0.10694500000000001,0.098905,0.0,215.98000000000002,216.01,212.79000000000002,212.79000000000002,0.0,0.0
26,0.0,1.0,0.0,1.0,1.0,0.0,0.0,1.0,0.0,0.0,1.0,1.1856,26.0,0.0,0.0,0.0,59.999996,0.0,26.0,26.0,26.0,26.0,0.011222222222222245,0.28170000000000006,0.07713333333333335,291.382,-2.6728,-2.733777777777778,-1.5508000000000002,-1.5431,-188.05,215.4225,190.431875,0.0,0.0,0.0,0.0,0.05253333333333334,-5.498166666666667,-5.498166666666667,-0.5746,0.4463333333333333,0.0068749999999999645,0.8120000000000003,69.122,0.0059,-0.20167500000000002,-0.2599999999999998,100.0,1.0,1.0,212.99,0.0,0.0,0.0,0.0,0.0,0.0,0.0,9027.9,0.0,55.0,5.0,248.81,0.0,0.0,0.0,0.0,0.0,0.0,0.0,0.0,1.3049999999999997,1.3049999999999997,0.0,0.0,0.0,55.0,616.79921,10000.0,85.000001,85.000001,85.000001,85.000001,395.0,0.0,0.0,0.0,1.0,166.665,51.666,51.666,46.539,46.539,34.0,-23.2425,25.298000000000002,-30.986666666666668,32.8825,0.0,1782.488,-0.29499999999999815,100.0,28.852,28.495,43.603,43.608000000000004,0.0,1.0,100.0,0.0,0.0,0.0,0.0,3139.5714285714284,3118.5,4437.5,4527.3,305.2325,304.8976666666667,313.99825,313.70725,22.0092,20.6462,21.9965,21.5035,314.999998,314.999998,324.999988,324.999988,99.55865714285714,99.50731666666667,99.56758571428571,99.54745714285714,0.09925000000000006,-0.046499999999999986,-0.09833333333333338,0.12516666666666687,-0.02833333333332888,-0.046666666666666856,1.4543333333333333,1.4410000000000003,38.558,30.039,38.477999999999994,35.397,55.769999999999996,35.4005,59.6685,52.763999999999996,53.718,34.513999999999996,58.2505,51.079,52.875,34.0545,58.1515,50.4785,-0.10850000000000004,-0.05750000000000011,0.10783000000000001,0.10631000000000002,0.0,216.39499999999998,216.425,212.99,212.99,0.0,0.0
27,0.0,1.0,0.0,1.0,1.0,0.0,0.0,1.0,0.0,0.0,1.0,1.1856,26.0,0.0,0.0,0.0,59.999996,0.0,26.0,26.0,26.0,26.0,0.018777777777777782,0.25649999999999995,-0.04703333333333334,291.824,-2.7456,-2.6687777777777777,-1.6095000000000002,-1.6162,-184.73000000000002,215.42000000000002,190.40875,0.0,0.0,0.0,0.0,0.05446666666666666,-5.498166666666667,-5.498166666666667,-0.5947,-0.872,0.014375000000000027,0.8120000000000003,69.24600000000001,0.008700000000000001,-0.237125,-0.25,100.0,1.0,1.0,213.49666666666667,0.0,0.0,0.0,0.0,0.0,0.0,0.0,9049.3,0.0,55.0,5.0,249.26,1.0,0.0,0.0,0.0,0.0,0.0,0.0,0.0,1.352999999999998,1.352999999999998,0.0,0.0,1.0,55.0,616.79921,10000.0,85.000001,85.000001,85.000001,85.000001,395.0,0.0,0.0,0.0,1.0,333.33500000000004,51.971000000000004,51.971000000000004,46.692,46.692,34.0,-22.715,25.348,-29.04,29.775000000000002,0.0,1782.439,-0.28999999999999915,100.0,28.535,28.44,44.055,44.069,0.0,1.0,100.0,0.0,0.0,0.0,0.0,3020.714285714286,3215.0,4116.25,4076.5,305.684,304.6773333333333,314.827,314.72225,22.018,20.6515,22.0065,21.5123,314.999998,314.999998,324.999988,324.999988,99.55867142857143,99.50731666666667,99.56772857142857,99.5476,0.10075000000000012,-0.05049999999999999,-0.10216666666666663,0.12416666666666676,-0.03999999999999915,-0.060000000000002274,1.501,1.4995000000000003,38.611999999999995,30.072,38.54,35.452,55.757999999999996,35.4375,59.7065,52.823499999999996,53.707,34.548,58.2855,51.1365,52.861999999999995,34.0875,58.1835,50.5345,-0.10699999999999998,-0.06450000000000022,0.11277000000000001,0.09977000000000001,0.0,216.745,216.755,213.49666666666667,213.49666666666667,0.0,0.0
28,0.0,1.0,0.0,1.0,1.0,0.0,0.0,1.0,0.0,0.0,1.0,1.1856,26.0,0.0,0.0,0.0,59.999996,0.0,26.0,26.0,26.0,26.0,0.03833333333333333,0.25360000000000005,-0.0689,291.962,-2.6842,-2.653666666666667,-1.6257000000000001,-1.5661,-181.2,215.41750000000002,190.383375,0.0,0.0,0.0,0.0,0.05653333333333334,-5.498166666666667,-5.498166666666667,-0.6026,0.5456666666666666,0.0026249999999998774,-0.9249999999999998,69.376,0.011000000000000001,-0.218925,-0.18799999999999972,100.0,1.0,1.0,213.99666666666667,0.0,0.0,0.0,0.0,0.0,0.0,0.0,9070.5,0.0,55.0,5.0,249.72666666666666,0.0,0.0,0.0,0.0,0.0,0.0,0.0,0.0,1.404,1.404,0.0,0.0,0.0,55.0,616.79921,10000.0,85.000001,85.000001,85.000001,85.000001,395.0,0.0,0.0,0.0,1.0,166.665,51.849000000000004,51.849000000000004,47.455,47.455,34.0,-23.58,24.664,-28.77,28.9425,0.0,1782.39,-0.33999999999999986,100.0,28.454,28.597,43.429,43.75,0.0,1.0,100.0,0.0,0.0,0.0,0.0,3190.857142857143,3096.6,4108.125,4103.5,305.2495,304.83566666666667,314.98525,314.696,22.0274,20.6572,22.0167,21.5213,314.999998,314.999998,324.999988,324.999988,99.55867142857143,99.50731666666667,99.56788571428571,99.54775714285714,0.09975000000000023,-0.043749999999999956,-0.10099999999999998,0.12083333333333335,-0.05666666666667197,-0.03999999999999915,1.5436666666666667,1.5420000000000003,38.671,30.108,38.605000000000004,35.5085,55.747,35.4775,59.741,52.882999999999996,53.696,34.585,58.318,51.1935,52.851,34.123,58.2125,50.59,-0.10899999999999999,-0.058499999999999996,0.10933500000000002,0.10490000000000001,0.0,217.18,217.195,213.99666666666667,213.99666666666667,0.0,0.0
29,0.0,1.0,0.0,1.0,1.0,0.0,0.0,1.0,0.0,0.0,1.0,1.1856,26.0,0.0,0.0,0.0,59.999996,0.0,26.0,26.0,26.0,26.0,0.049555555555555575,0.25980000000000003,-0.019200000000000002,291.84,-2.7535,-2.716333333333333,-1.5693000000000001,-1.5506,-177.45,215.41750000000002,190.355375,0.0,0.0,0.0,0.0,0.0587,-5.498166666666667,-5.498166666666667,-0.6051000000000001,-0.7196666666666667,-0.001374999999999904,-0.7039999999999997,69.518,0.0115,-0.215175,-0.21999999999999975,100.0,1.0,1.0,214.26,0.0,0.0,0.0,0.0,0.0,0.0,0.0,9081.8,0.0,55.0,5.0,250.24,1.0,0.0,0.0,0.0,0.0,0.0,0.0,0.0,1.4579999999999984,1.4579999999999984,0.0,0.0,1.0,55.0,616.79921,10000.0,85.000001,85.000001,85.000001,85.000001,395.0,0.0,0.0,0.0,1.0,166.665,52.292,52.292,46.875,46.875,34.0,-24.28,24.604,-28.84,30.865000000000002,0.0,1782.336,-0.3949999999999996,100.0,28.112000000000002,28.408,43.81,44.074,0.0,1.0,100.0,0.0,0.0,0.0,0.0,3205.857142857143,2995.7,4187.25,4252.8,305.4675,305.11966666666666,314.677,314.26375,22.0371,20.6631,22.0279,21.5312,314.999998,314.999998,324.999988,324.999988,99.5587,99.50733333333334,99.56804285714286,99.54791428571428,0.09474999999999989,-0.03649999999999998,-0.09699999999999998,0.12949999999999995,-0.054999999999999716,-0.026666666666670835,1.49,1.4755000000000003,38.732,30.1445,38.674,35.57,55.733999999999995,35.5175,59.783500000000004,52.9495,53.683,34.622,58.3575,51.2575,52.836,34.158,58.249,50.653,-0.10850000000000004,-0.04850000000000021,0.104525,0.11152000000000001,0.0,217.60000000000002,217.60500000000002,214.26,214.26,0.0,0.0
30,0.0,1.0,0.0,1.0,1.0,0.0,0.0,1.0,0.0,0.0,1.0,1.1856,26.0,0.0,0.0,0.0,59.999996,0.0,26.0,26.0,26.0,26.0,0.03444444444444428,0.2562,0.0318,291.183,-2.7229,-2.7223333333333333,-1.6387,-1.6038000000000001,-174.31,215.41750000000002,190.332,0.0,0.0,0.0,0.0,0.06053333333333334,-5.498166666666667,-5.498166666666667,-0.6084,0.717,0.0024999999999999467,0.573,69.631,0.0128,-0.2195,-0.347999999999999,100.0,1.0,1.0,214.73333333333335,0.0,0.0,0.0,0.0,0.0,0.0,0.0,9101.7,0.0,55.0,5.0,250.64666666666665,0.0,0.0,0.0,0.0,0.0,0.0,1.0,0.0,1.5030000000000001,1.5030000000000001,0.0,0.0,0.0,55.0,616.79921,10000.0,85.000001,85.000001,85.000001,85.000001,395.0,0.0,0.0,0.0,1.0,166.665,50.43,50.43,47.256,47.256,34.0,-25.1575,29.118,-28.576666666666664,30.337500000000002,0.0,1782.29,-0.384999999999998,100.0,29.149,28.926000000000002,43.646,43.941,0.0,1.0,100.0,0.0,0.0,0.0,0.0,3346.4285714285716,3458.8,4098.0,4129.5,304.547,303.8433333333333,315.06125,314.62275,22.0456,20.6684,22.037,21.5393,314.999998,314.999998,324.999988,324.999988,99.55871428571429,99.50733333333334,99.56815714285715,99.54804285714286,0.10975000000000001,-0.03200000000000003,-0.09516666666666662,0.13183333333333325,-0.03499999999999659,-0.04833333333333201,1.525,1.524,38.785,30.177500000000002,38.730999999999995,35.6205,55.726,35.5545,59.815,53.0035,53.676,34.656,58.3865,51.3095,52.828,34.191,58.2755,50.7035,-0.10949999999999993,-0.05600000000000005,0.10710000000000001,0.11025000000000001,0.0,217.965,217.965,214.73333333333335,214.73333333333335,0.0,0.0
31,0.0,1.0,0.0,1.0,1.0,0.0,0.0,1.0,0.0,0.0,1.0,1.1856,26.0,0.0,0.0,0.0,59.999996,0.0,26.0,26.0,26.0,26.0,0.028888888888888964,0.24330000000000007,0.05443333333333334,290.695,-2.7621,-2.6337777777777776,-1.6413,-1.5493999999999999,-170.55,215.42000000000002,190.304625,0.0,0.0,0.0,0.0,0.0627,-5.498166666666667,-5.498166666666667,-0.5878,-0.4063333333333333,0.010624999999999885,0.8330000000000002,69.772,0.0172,-0.2212,-0.347999999999999,100.0,1.0,1.0,214.95666666666668,0.0,0.0,0.0,0.0,0.0,0.0,0.0,9111.2,0.0,55.0,5.0,251.15333333333334,1.0,0.0,0.0,0.0,0.0,0.0,1.0,0.0,1.5569999999999986,1.5569999999999986,0.0,0.0,1.0,55.0,616.79921,10000.0,85.000001,85.000001,85.000001,85.000001,395.0,0.0,0.0,0.0,1.0,166.665,51.01,51.01,45.624,45.624,34.0,-23.095,27.512,-30.58,33.095,0.0,1782.235,-0.4299999999999997,100.0,29.107,29.094,44.518,44.695,0.0,1.0,100.0,0.0,0.0,0.0,0.0,3151.285714285714,3382.0,4298.375,4409.3,305.315,304.23066666666665,314.31175,313.9,22.0555,20.6745,22.0483,21.5493,314.999998,314.999998,324.999988,324.999988,99.55872857142857,99.50735,99.56832857142857,99.5482,0.12150000000000016,-0.02774999999999994,-0.08550000000000002,0.1413333333333333,-0.006666666666667709,-0.05833333333333002,1.4373333333333334,1.4255,38.847,30.2155,38.802,35.6835,55.715,35.597,59.859,53.0725,53.665,34.695499999999996,58.428,51.376,52.816,34.2285,58.313,50.7685,-0.12199999999999989,-0.052000000000000046,0.10656,0.11645000000000001,0.0,218.365,218.41,214.95666666666668,214.95666666666668,0.0,0.0
32,0.0,1.0,0.0,1.0,1.0,0.0,0.0,1.0,0.0,0.0,1.0,1.1856,26.0,0.0,0.0,0.0,59.999996,0.0,26.0,26.0,26.0,26.0,0.054333333333333345,0.2692000000000001,-0.016233333333333336,291.29,-2.6965,-2.6825555555555556,-1.5852,-1.6247,-166.99,215.4225,190.279125,0.0,0.0,0.0,0.0,0.0648,-5.498166666666667,-5.498166666666667,-0.606,-0.2733333333333333,-0.009500000000000064,-1.031,69.899,0.0198,-0.23147500000000001,-0.32200000000000006,100.0,1.0,1.0,215.48333333333335,0.0,0.0,0.0,0.0,0.0,0.0,0.0,9133.5,0.0,55.0,5.0,251.61333333333334,0.0,0.0,0.0,0.0,0.0,0.0,1.0,0.0,1.6080000000000005,1.6080000000000005,0.0,0.0,0.0,55.0,616.79921,10000.0,85.000001,85.000001,85.000001,85.000001,395.0,0.0,0.0,0.0,1.0,166.665,51.528999999999996,51.528999999999996,46.57,46.57,34.0,-23.175,25.107999999999997,-28.11,31.5125,0.0,1782.185,-0.3999999999999986,100.0,28.761,29.095,44.211,44.66,0.0,1.0,100.0,0.0,0.0,0.0,0.0,3175.5714285714284,3082.3,4137.625,4223.5,305.34,304.89633333333336,314.82025,314.33125,22.064799999999998,20.6803,22.0587,21.5586,314.999998,314.999998,324.999988,324.999988,99.55872857142857,99.50735,99.56847142857143,99.54835714285714,0.1080000000000001,-0.03600000000000003,-0.08899999999999997,0.1293333333333333,-0.045000000000001705,-0.046666666666666856,1.5166666666666666,1.512,38.905,30.2515,38.867000000000004,35.741,55.704,35.6365,59.896,53.1335,53.653999999999996,34.732,58.462,51.4345,52.804,34.2635,58.3435,50.826,-0.11099999999999999,-0.05500000000000016,0.102385,0.100305,0.0,218.78,218.805,215.48333333333335,215.48333333333335,0.0,0.0
33,0.0,1.0,0.0,1.0,1.0,0.0,0.0,1.0,0.0,0.0,1.0,1.1856,26.0,0.0,0.0,0.0,59.999996,0.0,26.0,26.0,26.0,26.0,0.035666666666666735,0.2570000000000001,-0.06933333333333334,291.534,-2.7243,-2.6983333333333333,-1.5896,-1.5918999999999999,-163.84,215.425,190.255625,0.0,0.0,0.0,0.0,0.0666,-5.498166666666667,-5.498166666666667,-0.6133000000000001,-0.181,-0.008999999999999897,0.9910000000000001,70.013,0.019100000000000002,-0.21677500000000002,-0.3539999999999992,100.0,1.0,1.0,215.8466666666667,0.0,0.0,0.0,0.0,0.0,0.0,0.0,9149.0,0.0,55.0,5.0,252.01999999999998,1.0,0.0,0.0,0.0,0.0,0.0,1.0,0.0,1.6529999999999987,1.6529999999999987,0.0,0.0,1.0,55.0,616.79921,10000.0,85.000001,85.000001,85.000001,85.000001,395.0,0.0,0.0,0.0,1.0,166.665,51.834,51.834,46.783,46.783,34.0,-22.2025,25.616,-27.83,31.7975,0.0,1782.14,-0.41499999999999915,100.0,28.73,28.687,44.102000000000004,44.361000000000004,0.0,1.0,100.0,0.0,0.0,0.0,0.0,3077.142857142857,3116.2,4118.25,4219.9,305.5155,304.95166666666665,314.84325,314.4765,22.0729,20.6853,22.0678,21.5667,314.999998,314.999998,324.999988,324.999988,99.55875714285715,99.50735,99.5686,99.54848571428572,0.12024999999999997,-0.03049999999999997,-0.08499999999999996,0.14749999999999996,-0.045000000000001705,-0.03833333333332689,1.5196666666666667,1.5060000000000002,38.956,30.283,38.924,35.7915,55.694,35.67,59.928,53.1865,53.644999999999996,34.763,58.492,51.4855,52.794,34.293,58.3705,50.8755,-0.119,-0.053999999999999826,0.10927,0.113985,0.0,219.14,219.14,215.8466666666667,215.8466666666667,0.0,0.0
34,0.0,1.0,0.0,1.0,1.0,0.0,0.0,1.0,0.0,0.0,1.0,1.1856,26.0,0.0,0.0,0.0,59.999996,0.0,26.0,26.0,26.0,26.0,0.04133333333333322,0.26060000000000016,-0.05686666666666666,291.84,-2.6659,-2.6755555555555555,-1.6254,-1.5719,-160.26999999999998,215.4275,190.22775,0.0,0.0,0.0,0.0,0.0687,-5.498166666666667,-5.498166666666667,-0.6383,-0.883,0.010624999999999885,-0.2639999999999998,70.142,0.0199,-0.22,-0.2699999999999996,100.0,1.0,1.0,216.20666666666668,0.0,0.0,0.0,0.0,0.0,0.0,0.0,9164.3,0.0,55.0,5.0,252.48666666666668,0.0,0.0,0.0,0.0,0.0,0.0,1.0,0.0,1.7040000000000006,1.7040000000000006,0.0,0.0,0.0,55.0,616.79921,10000.0,85.000001,85.000001,85.000001,85.000001,395.0,0.0,0.0,0.0,1.0,333.33500000000004,52.399,52.399,47.089,47.089,34.0,-21.9425,23.811999999999998,-28.57,30.5825,0.0,1782.087,-0.4299999999999997,100.0,28.271,28.467,43.872,44.483000000000004,0.0,1.0,100.0,0.0,0.0,0.0,0.0,3082.4285714285716,2952.1,4148.75,4168.4,305.663,305.26733333333334,314.83625,314.50125,22.082,20.6908,22.0782,21.576,314.999998,314.999998,324.999988,324.999988,99.55875714285715,99.50736666666667,99.56875714285714,99.54864285714285,0.1107499999999999,-0.03749999999999987,-0.08633333333333337,0.13583333333333325,-0.03833333333332689,-0.05833333333333002,1.5196666666666667,1.5110000000000001,39.013,30.3175,38.989000000000004,35.85,55.682,35.7065,59.9645,53.2485,53.632999999999996,34.7965,58.5255,51.545,52.781,34.3255,58.400999999999996,50.934,-0.11450000000000005,-0.04800000000000004,0.10058500000000001,0.11006500000000001,0.0,219.5,219.535,216.20666666666668,216.20666666666668,0.0,0.0
35,0.0,1.0,0.0,1.0,1.0,0.0,0.0,1.0,0.0,0.0,1.0,1.1856,26.0,0.0,0.0,0.0,59.999996,0.0,26.0,26.0,26.0,26.0,0.052444444444444294,0.2610000000000001,-0.038900000000000004,291.763,-2.7982,-2.6574444444444443,-1.5361,-1.5834000000000001,-156.48000000000002,215.4325,190.196125,0.0,0.0,0.0,0.0,0.0709,-5.498166666666667,-5.498166666666667,-0.6781,-0.108,-0.00749999999999984,-1.3439999999999999,70.276,0.025900000000000003,-0.224975,-0.3520000000000003,100.0,1.0,1.0,216.71666666666667,0.0,0.0,0.0,0.0,0.0,0.0,0.0,9185.8,0.0,55.0,5.0,252.96666666666667,1.0,0.0,0.0,0.0,0.0,0.0,1.0,0.0,1.7579999999999991,1.7579999999999991,0.0,0.0,1.0,55.0,616.79921,10000.0,85.000001,85.000001,85.000001,85.000001,395.0,0.0,0.0,0.0,1.0,166.665,51.727,51.727,46.753,46.753,34.0,-24.5325,26.542,-27.293333333333333,30.0225,0.0,1782.035,-0.1999999999999993,100.0,28.12,28.792,43.605000000000004,43.93,0.0,1.0,100.0,0.0,0.0,0.0,0.0,3178.285714285714,3292.8,4145.0,4057.4,305.381,304.25,314.904,314.90275,22.0916,20.697,22.089,21.5856,314.999998,314.999998,324.999988,324.999988,99.55878571428572,99.50736666666667,99.56891428571429,99.54878571428571,0.0987499999999999,-0.04325000000000001,-0.09116666666666662,0.14716666666666667,-0.04333333333332945,-0.05666666666667197,1.5630000000000002,1.5394999999999999,39.073,30.356,39.056,35.91,55.667,35.7485,60.0015,53.3095,53.619,34.835499999999996,58.56,51.604,52.766,34.363,58.4325,50.9915,-0.09749999999999992,-0.06599999999999984,0.11292500000000001,0.112015,0.0,219.93,219.96,216.71666666666667,216.71666666666667,0.0,0.0
