,ABS Active,ABS Enabled,AID Allow Tire Blankets,AID Auto Blip,AID Auto Clutch,AID Auto Shift,AID Fuel Rate,AID Ideal Line,AID Mech Damage,AID Stability,AID Tire Wear Rate,Air Density,Air Temp,Ballast,Best Lap Delta,Best Lap Time,Brake Bias,Brake Pos,Brake Temp FL,Brake Temp FR,Brake Temp RL,Brake Temp RR,CG Accel Lateral,CG Accel Longitudinal,CG Accel Vertical,CG Height,Camber FL,Camber FR,Camber RL,Camber RR,Car Coord X,Car Coord Y,Car Coord Z,Car Damage Front,Car Damage Left,Car Damage Rear,Car Damage Right,Car Pos Norm,Caster FL,Caster FR,Chassis Pitch Angle,Chassis Pitch Rate,Chassis Roll Angle,Chassis Roll Rate,Chassis Velocity X,Chassis Velocity Y,Chassis Velocity Z,Chassis Yaw Rate,Clutch Pos,DRS Active,DRS Available,Drive Train Speed,ERS Heat Charging,ERS Is Charging,ERS Max Energy,ERS Power Level,ERS Recovery Level,Engine Brake Setting,Engine Limiter,Engine RPM,Flags,Fuel Level,Gear,Ground Speed,HR Sample Clock,In Pit,KERS Charge,KERS Deployed Energy,KERS Input,KERS Max Energy,LR Sample Clock,Lap Invalidated,Lap Time,Lap Time2,Last Lap Time,Last Sector Time,MR Sample Clock,Max Fuel,Max Power,Max RPM,Max Sus Travel FL,Max Sus Travel FR,Max Sus Travel RL,Max Sus Travel RR,Max Torque,Max Turbo Boost,Num Tires Off Track,Penalties Enabled,Position,Raw Data Sample Rate,Ride Height FL,Ride Height FR,Ride Height RL,Ride Height RR,Road Temp,Self Align Torque FL,Self Align Torque FR,Self Align Torque RL,Self Align Torque RR,Session Lap Count,Session Time Left,Steering Angle,Surface Grip,Suspension Travel FL,Suspension Travel FR,Suspension Travel RL,Suspension Travel RR,TC Active,TC Enabled,Throttle Pos,Tire Dirt Level FL,Tire Dirt Level FR,Tire Dirt Level RL,Tire Dirt Level RR,Tire Load FL,Tire Load FR,Tire Load RL,Tire Load RR,Tire Loaded Radius FL,Tire Loaded Radius FR,Tire Loaded Radius RL,Tire Loaded Radius RR,Tire Pressure FL,Tire Pressure FR,Tire Pressure RL,Tire Pressure RR,Tire Radius FL,Tire Radius FR,Tire Radius RL,Tire Radius RR,Tire Rubber Grip FL,Tire Rubber Grip FR,Tire Rubber Grip RL,Tire Rubber Grip RR,Tire Slip Angle FL,Tire Slip Angle FR,Tire Slip Angle RL,Tire Slip Angle RR,Tire Slip Ratio FL,Tire Slip Ratio FR,Tire Slip Ratio RL,Tire Slip Ratio RR,Tire Temp Core FL,Tire Temp Core FR,Tire Temp Core RL,Tire Temp Core RR,Tire Temp Inner FL,Tire Temp Inner FR,Tire Temp Inner RL,Tire Temp Inner RR,Tire Temp Middle FL,Tire Temp Middle FR,Tire Temp Middle RL,Tire Temp Middle RR,Tire Temp Outer FL,Tire Temp Outer FR,Tire Temp Outer RL,Tire Temp Outer RR,Toe In FL,Toe In FR,Toe In RL,Toe In RR,Turbo Boost,Wheel Angular Speed FL,Wheel Angular Speed FR,Wheel Angular Speed RL,Wheel Angular Speed RR,Wind Direction,Wind Speed
0,0.0,1.0,0.0,1.0,1.0,0.0,0.0,1.0,0.0,0.0,1.0,1.1856,26.0,0.0,0.0,0.0,59.99999,0.0,26.0,26.0,26.0,26.0,-0.14800000000000002,0.31089999999999995,0.092325,294.174,-2.69805,-2.50525,-1.4888,-1.5586,-275.74,216.16500000000002,190.988125,0.0,0.0,0.0,0.0,0.0015666666666666051,-5.498166666666667,-5.498166666666667,-0.5485,1.0265,-0.03500000000000014,-0.7410000000000001,65.505,-0.0738,-0.20935,1.870000000000001,100.0,1.0,1.0,202.26333333333332,0.0,0.0,0.0,0.0,0.0,0.0,0.0,8573.2,0.0,55.0,5.0,235.7866666666667,0.0,0.0,0.0,0.0,0.0,0.0,0.0,0.0,0.0030000000000001137,0.0030000000000001137,0.0,0.0,0.0,55.0,616.79921,10000.0,85.0,85.0,85.0,85.0,395.0,0.0,0.0,0.0,1.0,20.0,52.917,52.917,49.759,49.759,34.0,-29.95,18.862,-31.933333333333334,21.4825,0.0,1783.126,1.495000000000001,100.0,27.31,26.458,40.781,40.176,0.0,1.0,100.0,0.0,0.0,0.0,0.0,3134.857142857143,3373.2,4088.375,3935.0,305.3425,304.12575,314.8795,315.00325,21.7735,20.5109,21.7359,21.2612,314.99999,314.99999,324.99998,324.99998,99.55898571428571,99.5071,99.56414285714285,99.54331428571429,-0.06274999999999986,-0.18033333333333323,-0.20433333333333334,0.006500000000000001,-0.051666666666669414,-0.06833333333332803,1.5434999999999999,1.6125,37.084,29.193333333333335,36.849000000000004,33.8825,56.296,34.442,58.7435,51.025999999999996,54.214,33.6115,57.388999999999996,49.412,53.385999999999996,33.170500000000004,57.3645,48.8465,0.039000000000000146,-0.18900000000000006,0.10499000000000001,0.09986,0.0,205.32,205.19,202.26333333333332,202.26333333333332,0.0,0.0
1,0.0,1.0,0.0,1.0,1.0,0.0,0.0,1.0,0.0,0.0,1.0,1.1856,26.0,0.0,0.0,0.0,59.999996,0.0,26.0,26.0,26.0,26.0,-0.21844444444444444,0.3055000000000001,0.041325,293.137,-2.6066,-2.8445,-1.4832,-1.5899,-272.39,216.1825,190.96775,0.0,0.0,0.0,0.0,0.0034999999999999476,-5.498166666666667,-5.498166666666667,-0.4898,-0.359,-0.0993333333333335,-0.31600000000000006,65.66,-0.10550000000000001,-0.18495,2.314000000000002,100.0,1.0,1.0,202.37666666666667,0.0,0.0,0.0,0.0,0.0,0.0,0.0,8578.0,0.0,55.0,5.0,236.34333333333333,1.0,0.0,0.0,0.0,0.0,0.0,0.0,0.0,0.053999999999998494,0.053999999999998494,0.0,0.0,1.0,55.0,616.79921,10000.0,85.000001,85.000001,85.000001,85.000001,395.0,0.0,0.0,0.0,1.0,166.665,53.848,53.848,48.187,48.187,34.0,-30.03,15.218,-39.516666666666666,25.5275,0.0,1783.075,1.504999999999999,100.0,27.795,26.55,42.875,41.153999999999996,0.0,1.0,100.0,0.0,0.0,0.0,0.0,3112.142857142857,2541.1,4532.125,4686.7,305.2275,306.771,313.71675,313.18075,21.7835,20.516,21.7468,21.2701,314.999998,314.999998,324.999988,324.999988,99.55898571428571,99.50713333333333,99.5643,99.54347142857142,-0.08374999999999999,-0.20500000000000007,-0.248,-0.02716666666666667,-0.015000000000000568,-0.046666666666666856,1.38,1.458,37.147,29.224666666666664,36.917,33.938,56.285,34.486,58.792,51.092,54.203,33.652,57.435,49.475,53.373000000000005,33.2095,57.4075,48.908,0.05049999999999999,-0.18999999999999995,0.10259000000000001,0.11332,0.0,205.76,205.62,202.37666666666667,202.37666666666667,0.0,0.0
2,0.0,1.0,0.0,1.0,1.0,0.0,0.0,1.0,0.0,0.0,1.0,1.1856,26.0,0.0,0.0,0.0,59.999996,0.0,26.0,26.0,26.0,26.0,-0.2202222222222222,0.27680000000000016,-0.052625000000000005,293.854,-2.5556,-2.847,-1.4601,-1.6521,-269.04,216.195,190.949,0.0,0.0,0.0,0.0,0.005466666666666509,-5.498166666666667,-5.498166666666667,-0.5531,-0.16300000000000003,-0.09811111111111126,1.5899999999999999,65.801,-0.1326,-0.2586,2.526,100.0,1.0,1.0,203.35666666666668,0.0,0.0,0.0,0.0,0.0,0.0,0.0,8619.6,0.0,55.0,5.0,236.85666666666668,0.0,0.0,0.0,0.0,0.0,0.0,0.0,0.0,0.10500000000000043,0.10500000000000043,0.0,0.0,0.0,55.0,616.79921,10000.0,85.000001,85.000001,85.000001,85.000001,395.0,0.0,0.0,0.0,1.0,333.33500000000004,52.505,52.505,50.385,50.385,34.0,-34.7125,16.18,-32.53333333333333,16.1275,0.0,1783.023,1.3000000000000007,100.0,28.471,26.54,42.924,40.875,0.0,1.0,100.0,0.0,0.0,0.0,0.0,3520.4285714285716,2818.9,3778.5,3519.7,304.105,305.83275,315.54525,316.1545,21.7938,20.5208,21.7573,21.2788,314.999998,314.999998,324.999988,324.999988,99.559,99.50715,99.56444285714285,99.5436,-0.09949999999999992,-0.23233333333333328,-0.29883333333333334,-0.06816666666666667,-0.06666666666666998,-0.03833333333332689,1.6305,1.7495,37.211,29.255,36.983000000000004,33.992,56.277,34.5275,58.8335,51.1505,54.196,33.69,57.474000000000004,49.531,53.366,33.246,57.444,48.963,0.01949999999999985,-0.18100000000000005,0.10744000000000001,0.101055,0.0,206.215,205.97500000000002,203.35666666666668,203.35666666666668,0.0,0.0
3,0.0,1.0,0.0,1.0,1.0,0.0,0.0,1.0,0.0,0.0,1.0,1.1856,26.0,0.0,0.0,0.0,59.999996,0.0,26.0,26.0,26.0,26.0,-0.2322222222222221,0.3034000000000001,-0.025175000000000003,293.503,-2.59275,-2.741,-1.4666000000000001,-1.6320000000000001,-265.88,216.2025,190.9305,0.0,0.0,0.0,0.0,0.007299999999999973,-5.498166666666667,-5.498166666666667,-0.5095000000000001,0.776,-0.05911111111111156,-0.899,65.944,-0.1532,-0.198575,2.106,100.0,1.0,1.0,203.47,0.0,0.0,0.0,0.0,0.0,0.0,0.0,8624.3,0.0,55.0,5.0,237.37,1.0,0.0,0.0,0.0,0.0,0.0,0.0,0.0,0.1529999999999987,0.1529999999999987,0.0,0.0,1.0,55.0,616.79921,10000.0,85.000001,85.000001,85.000001,85.000001,395.0,0.0,0.0,0.0,1.0,333.33500000000004,53.543,53.543,48.294,48.294,34.0,-29.7425,14.941999999999997,-39.763333333333335,19.8825,0.0,1782.976,1.1550000000000011,100.0,28.193,26.732,42.681,40.838,0.0,1.0,100.0,0.0,0.0,0.0,0.0,3044.5714285714284,2695.2,4416.25,4132.0,305.6205,306.052,314.092,314.5645,21.8032,20.5256,21.7671,21.2869,314.999998,314.999998,324.999988,324.999988,99.55901428571428,99.50716666666666,99.56458571428571,99.54372857142857,-0.10599999999999987,-0.22433333333333327,-0.2931666666666667,-0.0695,-0.03333333333333144,-0.04999999999999716,1.4809999999999999,1.568,37.269999999999996,29.284666666666666,37.044,34.0435,56.266999999999996,34.570499999999996,58.8735,51.210499999999996,54.186,33.7295,57.510999999999996,49.588499999999996,53.355000000000004,33.283500000000004,57.4785,49.019,0.016999999999999904,-0.1575000000000002,0.10647500000000001,0.113485,0.0,206.675,206.515,203.47,203.47,0.0,0.0
4,0.0,1.0,0.0,1.0,1.0,0.0,0.0,1.0,0.0,0.0,1.0,1.1856,26.0,0.0,0.0,0.0,59.999996,0.0,26.0,26.0,26.0,26.0,-0.2373333333333334,0.29990000000000006,-0.026475000000000002,293.655,-2.61245,-2.79275,-1.4863,-1.6399,-262.51,216.2025,190.91075,0.0,0.0,0.0,0.0,0.009266666666666534,-5.498166666666667,-5.498166666666667,-0.5397000000000001,-0.996,-0.12166666666666659,-0.5800000000000001,66.092,-0.1532,-0.234275,1.9260000000000002,100.0,1.0,1.0,204.01666666666665,0.0,0.0,0.0,0.0,0.0,0.0,0.0,8647.5,0.0,55.0,5.0,237.9,0.0,0.0,0.0,0.0,0.0,0.0,0.0,0.0,0.20400000000000063,0.20400000000000063,0.0,0.0,0.0,55.0,616.79921,10000.0,85.000001,85.000001,85.000001,85.000001,395.0,0.0,0.0,0.0,1.0,333.33500000000004,53.253,53.253,48.615,48.615,34.0,-32.4075,16.575999999999997,-36.54666666666667,18.66,0.0,1782.924,1.129999999999999,100.0,28.001,26.275,43.353,40.977000000000004,0.0,1.0,100.0,0.0,0.0,0.0,0.0,3270.5714285714284,2885.5,4151.125,3686.7,304.9115,305.69325,314.587,315.6235,21.813,20.5305,21.7778,21.2957,314.999998,314.999998,324.999988,324.999988,99.55902857142857,99.5072,99.56472857142857,99.54387142857144,-0.10199999999999987,-0.22099999999999986,-0.2795,-0.042166666666666665,-0.02833333333332888,-0.061666666666667425,1.521,1.596,37.332,29.315666666666665,37.111000000000004,34.0985,56.254999999999995,34.614,58.9195,51.272,54.174,33.7695,57.554,49.647,53.342,33.322,57.519,49.076499999999996,0.013500000000000068,-0.16199999999999992,0.10234000000000001,0.11471,0.0,207.04000000000002,206.92000000000002,204.01666666666665,204.01666666666665,0.0,0.0
5,0.0,1.0,0.0,1.0,1.0,0.0,0.0,1.0,0.0,0.0,1.0,1.1856,26.0,0.0,0.0,0.0,59.999996,0.0,26.0,26.0,26.0,26.0,-0.21799999999999997,0.30110000000000015,-0.028975,293.73199999999997,-2.62765,-2.81175,-1.4683000000000002,-1.6240999999999999,-259.14,216.1975,190.890375,0.0,0.0,0.0,0.0,0.011199999999999988,-5.498166666666667,-5.498166666666667,-0.5369,0.4295,-0.12744444444444447,-0.2610000000000001,66.238,-0.15660000000000002,-0.21505000000000002,1.8179999999999996,100.0,1.0,1.0,204.45666666666668,0.0,0.0,0.0,0.0,0.0,0.0,0.0,8666.1,0.0,55.0,5.0,238.42333333333335,1.0,0.0,0.0,0.0,0.0,0.0,0.0,0.0,0.254999999999999,0.254999999999999,0.0,0.0,1.0,55.0,616.79921,10000.0,85.000001,85.000001,85.000001,85.000001,395.0,0.0,0.0,0.0,1.0,333.33500000000004,53.497,53.497,49.118,49.118,34.0,-31.990000000000002,15.745999999999999,-36.75333333333333,18.5425,0.0,1782.873,0.5350000000000001,100.0,28.045,26.384,42.972,40.653,0.0,1.0,100.0,0.0,0.0,0.0,0.0,3288.714285714286,2669.3,4195.75,3974.5,304.9325,306.23225,314.6675,314.9425,21.8232,20.5355,21.7883,21.3043,314.999998,314.999998,324.999988,324.999988,99.55904285714286,99.50721666666666,99.56488571428571,99.54401428571428,-0.08624999999999994,-0.21166666666666667,-0.289,-0.0735,-0.051666666666669414,-0.026666666666670835,1.556,1.612,37.394999999999996,29.346666666666664,37.177,34.152,56.245999999999995,34.657,58.962,51.3305,54.166,33.809,57.5945,49.703,53.333,33.3595,57.5565,49.131,-0.026499999999999968,-0.12349999999999994,0.09847500000000001,0.10615500000000001,0.0,207.575,207.39499999999998,204.45666666666668,204.45666666666668,0.0,0.0
6,0.0,1.0,0.0,1.0,1.0,0.0,0.0,1.0,0.0,0.0,1.0,1.1856,26.0,0.0,0.0,0.0,59.999996,0.0,26.0,26.0,26.0,26.0,-0.18733333333333335,0.30900000000000016,-0.00855,293.51800000000003,-2.59405,-2.789625,-1.5105,-1.6231,-255.96,216.1875,190.871125,0.0,0.0,0.0,0.0,0.01306666666666656,-5.498166666666667,-5.498166666666667,-0.5298,0.07999999999999996,-0.11033333333333362,-0.488,66.376,-0.1459,-0.21230000000000002,1.3940000000000001,100.0,1.0,1.0,204.85000000000002,0.0,0.0,0.0,0.0,0.0,0.0,0.0,8682.9,0.0,55.0,5.0,238.92333333333335,0.0,0.0,0.0,0.0,0.0,0.0,0.0,0.0,0.3030000000000008,0.3030000000000008,0.0,0.0,0.0,55.0,616.79921,10000.0,85.000001,85.000001,85.000001,85.000001,395.0,0.0,0.0,0.0,1.0,333.33500000000004,53.223,53.223,48.782,48.782,34.0,-30.8975,17.331999999999997,-36.52666666666667,19.677500000000002,0.0,1782.825,0.370000000000001,100.0,27.943,26.465,43.078,41.045,0.0,1.0,100.0,0.0,0.0,0.0,0.0,3310.285714285714,2797.2,4184.25,3936.8,304.864,305.78125,314.6755,315.0265,21.8326,20.5402,21.7983,21.3126,314.999998,314.999998,324.999988,324.999988,99.55905714285714,99.50723333333333,99.56502857142857,99.54414285714286,-0.06174999999999997,-0.19033333333333324,-0.273,-0.04766666666666666,-0.05833333333333002,-0.03833333333332689,1.542,1.5995,37.454,29.376333333333335,37.239000000000004,34.204,56.236000000000004,34.697,59.0035,51.39,54.156,33.846000000000004,57.632999999999996,49.7595,53.322,33.3945,57.5925,49.186,-0.04800000000000004,-0.10550000000000015,0.10724500000000001,0.10733000000000001,0.0,207.95499999999998,207.85000000000002,204.85000000000002,204.85,0.0,0.0
7,0.0,1.0,0.0,1.0,1.0,0.0,0.0,1.0,0.0,0.0,1.0,1.1856,26.0,0.0,0.0,0.0,59.999996,0.0,26.0,26.0,26.0,26.0,-0.1631111111111111,0.28880000000000017,0.04755,293.228,-2.57,-2.777,-1.4791,-1.6035,-252.57,216.1725,190.850625,0.0,0.0,0.0,0.0,0.015033333333333343,-5.498166666666667,-5.498166666666667,-0.5349,-0.06099999999999994,-0.08844444444444433,1.319,66.522,-0.1231,-0.222925,0.886000000000001,100.0,1.0,1.0,205.26999999999998,0.0,0.0,0.0,0.0,0.0,0.0,0.0,8700.6,0.0,55.0,5.0,239.45,1.0,0.0,0.0,0.0,0.0,0.0,0.0,0.0,0.3539999999999992,0.3539999999999992,0.0,0.0,1.0,55.0,616.79921,10000.0,85.000001,85.000001,85.000001,85.000001,395.0,0.0,0.0,0.0,1.0,333.33500000000004,52.826,52.826,48.874,48.874,34.0,-29.0225,20.274,-33.59,22.465,0.0,1782.775,0.05999999999999872,100.0,28.157,26.427,43.161,41.239000000000004,0.0,1.0,100.0,0.0,0.0,0.0,0.0,3294.857142857143,2993.7,4080.0,4090.3,304.657,305.36025,314.8055,314.71325,21.8427,20.5453,21.808799999999998,21.3215,314.999998,314.999998,324.999988,324.999988,99.55905714285714,99.50726666666667,99.56515714285715,99.54428571428572,-0.01924999999999999,-0.14700000000000002,-0.23583333333333334,-0.009166666666666667,-0.045000000000001705,-0.045000000000001705,1.5150000000000001,1.5535,37.516999999999996,29.408,37.305,34.2595,56.223,34.7385,59.046,51.4525,54.144,33.884,57.673,49.8195,53.309,33.431,57.6295,49.245,-0.07499999999999996,-0.07600000000000007,0.10161500000000001,0.10486000000000001,0.0,208.39499999999998,208.285,205.26999999999998,205.26999999999998,0.0,0.0
8,0.0,1.0,0.0,1.0,1.0,0.0,0.0,1.0,0.0,0.0,1.0,1.1856,26.0,0.0,0.0,0.0,59.999996,0.0,26.0,26.0,26.0,26.0,-0.1062222222222221,0.28469999999999995,-0.022525,293.488,-2.6608,-2.7517500000000004,-1.4672,-1.5798,-249.17000000000002,216.155,190.83,0.0,0.0,0.0,0.0,0.016999999999999904,-5.498166666666667,-5.498166666666667,-0.5347000000000001,-0.42799999999999994,-0.06955555555555559,-0.4850000000000001,66.668,-0.09720000000000001,-0.21425000000000002,0.38200000000000145,100.0,1.0,1.0,205.66,0.0,0.0,0.0,0.0,0.0,0.0,0.0,8717.1,0.0,55.0,5.0,239.97333333333333,0.0,0.0,0.0,0.0,0.0,0.0,0.0,0.0,0.40500000000000114,0.40500000000000114,0.0,0.0,0.0,55.0,616.79921,10000.0,85.000001,85.000001,85.000001,85.000001,395.0,0.0,0.0,0.0,1.0,166.665,53.741,53.741,48.157,48.157,34.0,-26.23,19.746,-33.843333333333334,23.4025,0.0,1782.724,-0.16499999999999915,100.0,27.612000000000002,26.604,42.992000000000004,41.476,0.0,1.0,100.0,0.0,0.0,0.0,0.0,3047.714285714286,2828.4,4243.125,4100.3,305.6565,305.70225,314.4625,314.5685,21.8525,20.5504,21.8193,21.3303,314.999998,314.999998,324.999988,324.999988,99.55905714285714,99.50726666666667,99.56531428571428,99.54442857142857,-0.0012499999999999734,-0.1263333333333332,-0.2115,0.008666666666666666,-0.04333333333332945,-0.03999999999999915,1.494,1.5145,37.578,29.439666666666668,37.370999999999995,34.314499999999995,56.207,34.778,59.088,51.5145,54.128,33.920500000000004,57.712,49.879,53.293,33.466,57.666,49.303,-0.09050000000000002,-0.06050000000000022,0.10475000000000001,0.09967500000000001,0.0,208.805,208.76,205.66,205.66,0.0,0.0
9,0.0,1.0,0.0,1.0,1.0,0.0,0.0,1.0,0.0,0.0,1.0,1.1856,26.0,0.0,0.0,0.0,59.999996,0.0,26.0,26.0,26.0,26.0,-0.07877777777777784,0.28970000000000007,-0.021650000000000003,293.228,-2.65385,-2.7567500000000003,-1.5269,-1.5815000000000001,-245.97,216.135,190.81025,0.0,0.0,0.0,0.0,0.018866666666666587,-5.498166666666667,-5.498166666666667,-0.5433,0.5405,-0.06677777777777782,-0.30000000000000004,66.801,-0.0693,-0.21805000000000002,0.1980000000000004,100.0,1.0,1.0,206.20333333333332,0.0,0.0,0.0,0.0,0.0,0.0,0.0,8740.2,0.0,55.0,5.0,240.45333333333332,1.0,0.0,0.0,0.0,0.0,0.0,0.0,0.0,0.4529999999999994,0.4529999999999994,0.0,0.0,1.0,55.0,616.79921,10000.0,85.000001,85.000001,85.000001,85.000001,395.0,0.0,0.0,0.0,1.0,333.33500000000004,52.505,52.505,49.24,49.24,34.0,-28.95,21.994,-30.383333333333333,23.91,0.0,1782.675,-0.34499999999999886,100.0,27.976,27.056,42.683,41.528999999999996,0.0,1.0,100.0,0.0,0.0,0.0,0.0,3432.142857142857,2944.7,4004.875,3992.4,304.502,305.297,315.12275,314.9085,21.8618,20.5553,21.8291,21.3386,314.999998,314.999998,324.999988,324.999988,99.55905714285714,99.50728333333333,99.56544285714286,99.54455714285714,0.023249999999999993,-0.09633333333333316,-0.1815,0.03833333333333334,-0.046666666666666856,-0.04999999999999716,1.5775000000000001,1.573,37.637,29.470666666666666,37.432,34.3665,56.193,34.8165,59.124,51.5715,54.114999999999995,33.956,57.746,49.9335,53.278999999999996,33.4995,57.697,49.3565,-0.09999999999999987,-0.04899999999999993,0.10933000000000001,0.10210500000000002,0.0,209.23000000000002,209.2,206.20333333333332,206.20333333333332,0.0,0.0
10,0.0,1.0,0.0,1.0,1.0,0.0,0.0,1.0,0.0,0.0,1.0,1.1856,26.0,0.0,0.0,0.0,59.999996,0.0,26.0,26.0,26.0,26.0,-0.04033333333333333,0.2942,0.051550000000000006,292.953,-2.6294,-2.738875,-1.5119,-1.5573000000000001,-242.56,216.1125,190.789375,0.0,0.0,0.0,0.0,0.02086666666666659,-5.498166666666667,-5.498166666666667,-0.518,-0.4125000000000001,-0.016888888888888953,1.951,66.94800000000001,-0.0417,-0.20515,-0.2779999999999996,100.0,1.0,1.0,206.44,0.0,0.0,0.0,0.0,0.0,0.0,0.0,8750.2,0.0,55.0,5.0,240.98333333333335,0.0,0.0,0.0,0.0,0.0,0.0,1.0,0.0,0.5040000000000013,0.5040000000000013,0.0,0.0,0.0,55.0,616.79921,10000.0,85.000001,85.000001,85.000001,85.000001,395.0,0.0,0.0,0.0,1.0,166.665,53.436,53.436,47.638,47.638,34.0,-21.825,22.438,-31.56,28.955,0.0,1782.625,-0.4800000000000004,100.0,28.036,26.975,43.089,42.266,0.0,1.0,100.0,0.0,0.0,0.0,0.0,2868.0,2929.7,4291.5,4329.9,306.006,305.56275,314.263,314.095,21.8717,20.5605,21.8397,21.3477,314.999998,314.999998,324.999988,324.999988,99.55907142857143,99.5073,99.5656,99.5447,0.06625000000000014,-0.07166666666666677,-0.14400000000000002,0.0835,-0.02833333333332888,-0.054999999999999716,1.4809999999999999,1.4685000000000001,37.698,29.503333333333334,37.498000000000005,34.4235,56.179,34.8545,59.167,51.637,54.102000000000004,33.991,57.7855,49.996,53.265,33.533500000000004,57.7335,49.417500000000004,-0.11599999999999988,-0.03699999999999992,0.10465500000000001,0.11300500000000001,0.0,209.65,209.685,206.44,206.44,0.0,0.0
11,0.0,1.0,0.0,1.0,1.0,0.0,0.0,1.0,0.0,0.0,1.0,1.1856,26.0,0.0,0.0,0.0,59.999996,0.0,26.0,26.0,26.0,26.0,0.015222222222222248,0.2733000000000001,-0.1057,293.51800000000003,-2.6874000000000002,-2.7037500000000003,-1.5365,-1.5405,-239.14,216.0875,190.76875,0.0,0.0,0.0,0.0,0.022599999999999953,-5.498166666666667,-5.498166666666667,-0.5622,-0.3195000000000001,0.012333333333333307,-0.563,67.087,-0.015700000000000002,-0.239875,-0.4059999999999997,100.0,1.0,1.0,207.16666666666669,0.0,0.0,0.0,0.0,0.0,0.0,0.0,8781.0,0.0,55.0,5.0,241.48666666666668,1.0,0.0,0.0,0.0,0.0,0.0,1.0,0.0,0.5549999999999997,0.5549999999999997,0.0,0.0,1.0,55.0,616.79921,10000.0,85.000001,85.000001,85.000001,85.000001,395.0,0.0,0.0,0.0,1.0,166.665,52.811,52.811,49.286,49.286,34.0,-23.9575,24.189999999999998,-24.813333333333333,25.655,0.0,1782.574,-0.5949999999999989,100.0,27.639,27.431,42.531,42.339,0.0,1.0,100.0,0.0,0.0,0.0,0.0,3116.857142857143,3054.4,3693.25,3850.5,305.464,304.9595,315.85225,315.24125,21.8812,20.5659,21.8501,21.3566,314.999998,314.999998,324.999988,324.999988,99.55908571428571,99.5073,99.56572857142856,99.54484285714285,0.07500000000000018,-0.05499999999999994,-0.1215,0.10983333333333332,-0.061666666666667425,-0.05333333333332746,1.641,1.6095000000000002,37.757999999999996,29.536666666666665,37.563,34.479,56.164,34.893,59.203,51.698499999999996,54.087,34.0265,57.819,50.055,53.25,33.567499999999995,57.7645,49.4755,-0.11250000000000004,-0.032500000000000195,0.101305,0.11152000000000001,0.0,210.07999999999998,210.085,207.16666666666669,207.16666666666669,0.0,0.0
12,0.0,1.0,0.0,1.0,1.0,0.0,0.0,1.0,0.0,0.0,1.0,1.1856,26.0,0.0,0.0,0.0,59.999996,0.0,26.0,26.0,26.0,26.0,0.021666666666666723,0.2823,0.028300000000000002,292.938,-2.742,-2.697375,-1.5376,-1.5389,-235.91,216.065,190.747875,0.0,0.0,0.0,0.0,0.025466666666666526,-5.498166666666667,-5.498166666666667,-0.5481,0.30899999999999994,-0.00044444444444424747,-0.839,67.224,0.0038,-0.20785,-0.4820000000000002,100.0,1.0,1.0,207.36666666666667,0.0,0.0,0.0,0.0,0.0,0.0,0.0,8789.5,0.0,55.0,5.0,241.97666666666666,0.0,0.0,0.0,0.0,0.0,0.0,1.0,0.0,0.602999999999998,0.602999999999998,0.0,0.0,0.0,55.0,616.79921,10000.0,85.000001,85.000001,85.000001,85.000001,395.0,0.0,0.0,0.0,1.0,333.33500000000004,52.795,52.795,47.989,47.989,34.0,-24.4375,25.162,-29.05,29.265,0.0,1782.524,-0.6449999999999996,100.0,27.491,27.623,42.355000000000004,42.317,0.0,1.0,100.0,0.0,0.0,0.0,0.0,3165.142857142857,3063.5,4253.125,4145.7,305.378,304.94975,314.535,314.5195,21.8903,20.571,21.8598,21.365,314.999998,314.999998,324.999988,324.999988,99.55908571428571,99.50731666666667,99.56587142857143,99.54497142857143,0.08424999999999994,-0.03133333333333321,-0.106,0.1255,-0.05666666666667197,-0.04999999999999716,1.541,1.5115,37.814,29.569,37.623999999999995,34.5315,56.150999999999996,34.929,59.24,51.757,54.075,34.0595,57.8535,50.1115,53.236000000000004,33.599000000000004,57.796,49.5305,-0.11450000000000005,-0.026000000000000245,0.10949500000000001,0.11327000000000001,0.0,210.525,210.555,207.36666666666667,207.36666666666667,0.0,0.0
13,0.0,1.0,0.0,1.0,1.0,0.0,0.0,1.0,0.0,0.0,1.0,1.1856,26.0,0.0,0.0,0.0,59.999996,0.0,26.0,26.0,26.0,26.0,0.04299999999999993,0.28790000000000004,0.05205,292.557,-2.7218999999999998,-2.690375,-1.6115,-1.5194,-232.48,216.04250000000002,190.726125,0.0,0.0,0.0,0.0,0.026699999999999946,-5.498166666666667,-5.498166666666667,-0.5398000000000001,-0.02849999999999997,0.010666666666666602,1.119,67.366,0.0182,-0.215,-0.7379999999999995,100.0,1.0,1.0,207.75,0.0,0.0,0.0,0.0,0.0,0.0,0.0,8805.7,0.0,55.0,5.0,242.49,1.0,0.0,0.0,0.0,0.0,0.0,1.0,0.0,0.6539999999999999,0.6539999999999999,0.0,0.0,1.0,55.0,616.79921,10000.0,85.000001,85.000001,85.000001,85.000001,395.0,0.0,0.0,0.0,1.0,333.33500000000004,52.46,52.46,47.928,47.928,34.0,-21.759999999999998,27.35,-28.15,31.735,0.0,1782.474,-0.8399999999999999,100.0,27.933,27.697,42.668,42.76,0.0,1.0,100.0,0.0,0.0,0.0,0.0,3077.285714285714,3165.1,4163.5,4348.7,305.415,304.80425,314.6645,314.0845,21.8999,20.5765,21.8703,21.3741,314.999998,314.999998,324.999988,324.999988,99.5591,99.50731666666667,99.56601428571429,99.54511428571429,0.1299999999999999,0.0040000000000000036,-0.07833333333333332,0.14233333333333334,-0.030000000000001137,-0.07499999999999574,1.5095,1.473,37.873999999999995,29.60333333333333,37.69,34.588499999999996,56.14,34.967,59.2795,51.822,54.064,34.0945,57.8905,50.174,53.225,33.632999999999996,57.83,49.5925,-0.14300000000000002,-0.008500000000000174,0.102705,0.10161500000000001,0.0,210.93,211.005,207.75,207.75,0.0,0.0
14,0.0,1.0,0.0,1.0,1.0,0.0,0.0,1.0,0.0,0.0,1.0,1.1856,26.0,0.0,0.0,0.0,59.999996,0.0,26.0,26.0,26.0,26.0,0.07677777777777783,0.28790000000000004,-0.019275,292.816,-2.72765,-2.6275,-1.6215000000000002,-1.52,-229.04,216.01999999999998,190.705,0.0,0.0,0.0,0.0,0.028699999999999948,-5.498166666666667,-5.498166666666667,-0.5486,-0.16100000000000003,0.03922222222222205,0.008000000000000007,67.506,0.0339,-0.22820000000000001,-0.8520000000000003,100.0,1.0,1.0,208.26666666666665,0.0,0.0,0.0,0.0,0.0,0.0,0.0,8827.6,0.0,55.0,5.0,242.99333333333334,0.0,0.0,0.0,0.0,0.0,0.0,1.0,0.0,0.7049999999999983,0.7049999999999983,0.0,0.0,0.0,55.0,616.79921,10000.0,85.000001,85.000001,85.000001,85.000001,395.0,0.0,0.0,0.0,1.0,333.33500000000004,52.643,52.643,48.157,48.157,34.0,-21.2975,26.728,-26.37,30.5475,0.0,1782.423,-0.9699999999999989,100.0,27.629,27.903,42.533,43.116,0.0,1.0,100.0,0.0,0.0,0.0,0.0,3062.285714285714,3127.8,4027.75,4149.7,305.6365,304.76475,315.06625,314.50175,21.9095,20.582,21.8808,21.3832,314.999998,314.999998,324.999988,324.999988,99.55911428571429,99.50731666666667,99.56615714285714,99.54527142857143,0.13450000000000006,0.007000000000000117,-0.069,0.15483333333333335,-0.05833333333333002,-0.04333333333332945,1.569,1.518,37.934,29.637333333333334,37.754999999999995,34.644999999999996,56.129000000000005,35.004,59.317499999999995,51.8865,54.054,34.129,57.9255,50.236000000000004,53.213,33.666,57.862,49.653,-0.1499999999999999,-0.002000000000000224,0.10382500000000001,0.110505,0.0,211.375,211.41,208.26666666666665,208.26666666666665,0.0,0.0
15,0.0,1.0,0.0,1.0,1.0,0.0,0.0,1.0,0.0,0.0,1.0,1.1856,26.0,0.0,0.0,0.0,59.999996,0.0,26.0,26.0,26.0,26.0,0.09899999999999998,0.2844,-0.043425000000000005,292.847,-2.70395,-2.58175,-1.624,-1.4592,-225.8,216.0,190.684625,0.0,0.0,0.0,0.0,0.03059999999999996,-5.498166666666667,-5.498166666666667,-0.5398000000000001,0.3045,0.07299999999999995,-0.08099999999999996,67.638,0.050100000000000006,-0.20997500000000002,-1.0839999999999996,100.0,1.0,1.0,208.65666666666667,0.0,0.0,0.0,0.0,0.0,0.0,0.0,8844.2,0.0,55.0,5.0,243.46666666666667,1.0,0.0,0.0,0.0,0.0,0.0,1.0,0.0,0.7530000000000001,0.7530000000000001,0.0,0.0,1.0,55.0,616.79921,10000.0,85.000001,85.000001,85.000001,85.000001,395.0,0.0,0.0,0.0,1.0,166.665,52.811,52.811,48.218,48.218,34.0,-19.2625,26.95,-25.61,31.77,0.0,1782.376,-1.0249999999999986,100.0,27.624,27.961,42.292,43.207,0.0,1.0,100.0,0.0,0.0,0.0,0.0,2917.285714285714,3115.9,3990.25,4315.1,306.011,304.787,315.16575,314.12725,21.9185,20.5872,21.8905,21.3918,314.999998,314.999998,324.999988,324.999988,99.55914285714286,99.50731666666667,99.56628571428571,99.54541428571429,0.15200000000000014,0.024666666666666615,-0.0575,0.16633333333333333,-0.03833333333332689,-0.04333333333332945,1.551,1.506,37.991,29.67,37.815,34.698499999999996,56.120000000000005,35.04,59.3515,51.947,54.045,34.1625,57.957499999999996,50.2945,53.203,33.698,57.8905,49.710499999999996,-0.15349999999999997,0.00550000000000006,0.10499000000000001,0.110935,0.0,211.765,211.835,208.65666666666667,208.65666666666667,0.0,0.0
16,0.0,1.0,0.0,1.0,1.0,0.0,0.0,1.0,0.0,0.0,1.0,1.1856,26.0,0.0,0.0,0.0,59.999996,0.0,26.0,26.0,26.0,26.0,0.11388888888888893,0.27080000000000015,-0.0162,292.862,-2.79805,-2.6185,-1.5939,-1.4592,-222.35,215.98250000000002,190.662625,0.0,0.0,0.0,0.0,0.03259999999999996,-5.498166666666667,-5.498166666666667,-0.5588000000000001,-0.7525,0.06388888888888888,0.22099999999999997,67.778,0.0682,-0.22362500000000002,-1.2379999999999995,100.0,1.0,1.0,209.07999999999998,0.0,0.0,0.0,0.0,0.0,0.0,0.0,8862.1,0.0,55.0,5.0,243.97333333333336,0.0,0.0,0.0,0.0,0.0,0.0,1.0,0.0,0.8039999999999985,0.8039999999999985,0.0,0.0,0.0,55.0,616.79921,10000.0,85.000001,85.000001,85.000001,85.000001,395.0,0.0,0.0,0.0,1.0,166.665,52.811,52.811,47.836,47.836,34.0,-19.825,29.232,-23.28333333333333,32.2575,0.0,1782.325,-0.8900000000000006,100.0,27.318,27.908,42.623000000000005,43.298,0.0,1.0,100.0,0.0,0.0,0.0,0.0,2924.142857142857,3263.8,3937.125,4177.4,306.0165,304.505,315.219,314.501,21.9278,20.5928,21.9009,21.4009,314.999998,314.999998,324.999988,324.999988,99.55915714285715,99.50731666666667,99.56644285714286,99.54554285714286,0.1592500000000001,0.04066666666666663,-0.025500000000000002,0.2015,-0.021666666666668277,-0.06499999999999773,1.5575,1.5190000000000001,38.049,29.705,37.881,34.7555,56.105999999999995,35.079,59.3905,52.0115,54.031,34.198499999999996,57.9935,50.3565,53.189,33.7325,57.9235,49.7715,-0.1479999999999999,-0.000500000000000167,0.10436500000000001,0.10709,0.0,212.155,212.26999999999998,209.07999999999998,209.07999999999998,0.0,0.0
17,0.0,1.0,0.0,1.0,1.0,0.0,0.0,1.0,0.0,0.0,1.0,1.1856,26.0,0.0,0.0,0.0,59.999996,0.0,26.0,26.0,26.0,26.0,0.09944444444444445,0.29000000000000004,-0.008625,292.587,-2.7633,-2.567,-1.6339000000000001,-1.4807000000000001,-218.89,215.9675,190.64,0.0,0.0,0.0,0.0,0.034599999999999964,-5.498166666666667,-5.498166666666667,-0.5505,0.5305,0.03966666666666674,-0.772,67.916,0.0763,-0.20597500000000002,-0.9139999999999997,100.0,1.0,1.0,209.49666666666667,0.0,0.0,0.0,0.0,0.0,0.0,0.0,8879.8,0.0,55.0,5.0,244.47,1.0,0.0,0.0,0.0,0.0,0.0,1.0,0.0,0.8550000000000004,0.8550000000000004,0.0,0.0,1.0,55.0,616.79921,10000.0,85.000001,85.000001,85.000001,85.000001,395.0,0.0,0.0,0.0,1.0,166.665,52.521,52.521,47.943,47.943,34.0,-21.2,25.734,-26.14,32.3525,0.0,1782.274,-0.4250000000000007,100.0,27.71,28.348,42.275,43.356,0.0,1.0,100.0,0.0,0.0,0.0,0.0,3094.5714285714284,3046.6,4218.125,4225.9,305.6105,305.04425,314.7205,314.40025,21.9374,20.5985,21.9112,21.4099,314.999998,314.999998,324.999988,324.999988,99.55917142857143,99.50733333333334,99.56658571428571,99.5457,0.14900000000000002,0.015666666666666718,-0.033166666666666664,0.18916666666666665,-0.06499999999999773,-0.030000000000001137,1.5425,1.5185,38.108000000000004,29.740333333333332,37.945,34.812,56.097,35.119,59.4265,52.075,54.022999999999996,34.2355,58.0265,50.417500000000004,53.179,33.7685,57.9535,49.8315,-0.121,-0.03149999999999986,0.10459,0.10606000000000002,0.0,212.66500000000002,212.715,209.49666666666667,209.49666666666667,0.0,0.0
18,0.0,1.0,0.0,1.0,1.0,0.0,0.0,1.0,0.0,0.0,1.0,1.1856,26.0,0.0,0.0,0.0,59.999996,0.0,26.0,26.0,26.0,26.0,0.061111111111111116,0.2744,-0.0183,292.45,-2.78615,-2.54875,-1.643,-1.435,-215.42000000000002,215.95499999999998,190.617625,0.0,0.0,0.0,0.0,0.036633333333333296,-5.498166666666667,-5.498166666666667,-0.5596,-0.5125,0.058222222222222175,0.863,68.056,0.0714,-0.22262500000000002,-0.5139999999999993,100.0,1.0,1.0,209.91333333333333,0.0,0.0,0.0,0.0,0.0,0.0,0.0,8897.4,0.0,55.0,5.0,244.97,0.0,0.0,0.0,0.0,0.0,0.0,1.0,0.0,0.9059999999999988,0.9059999999999988,0.0,0.0,0.0,55.0,616.79921,10000.0,85.000001,85.000001,85.000001,85.000001,395.0,0.0,0.0,0.0,1.0,166.665,52.338,52.338,47.653,47.653,34.0,-21.9675,27.560000000000002,-25.226666666666663,31.4225,0.0,1782.223,-0.16999999999999815,100.0,27.68,28.024,42.755,43.665,0.0,1.0,100.0,0.0,0.0,0.0,0.0,3028.4285714285716,3353.4,4037.375,4199.9,305.6785,304.31925,315.01825,314.48425,21.9468,20.604,21.9217,21.4191,314.999998,314.999998,324.999988,324.999988,99.5592,99.50733333333334,99.56671428571428,99.54584285714286,0.12700000000000022,-0.0009999999999998899,-0.037333333333333336,0.1895,-0.030000000000001137,-0.05333333333332746,1.5615,1.5305,38.167,29.775333333333336,38.010999999999996,34.8695,56.085,35.157,59.4655,52.141,54.010999999999996,34.2705,58.063,50.481,53.166,33.802,57.987,49.8935,-0.08999999999999986,-0.06400000000000006,0.10949,0.10614000000000001,0.0,213.035,213.10500000000002,209.91333333333333,209.91333333333333,0.0,0.0
19,0.0,1.0,0.0,1.0,1.0,0.0,0.0,1.0,0.0,0.0,1.0,1.1856,26.0,0.0,0.0,0.0,59.999996,0.0,26.0,26.0,26.0,26.0,0.05755555555555558,0.2873000000000001,0.0506,291.946,-2.6934,-2.5505,-1.6456,-1.4334,-211.94,215.945,190.595,0.0,0.0,0.0,0.0,0.0386333333333333,-5.498166666666667,-5.498166666666667,-0.549,0.838,0.04800000000000004,-0.917,68.193,0.0557,-0.20980000000000001,-0.1039999999999992,100.0,1.0,1.0,210.30666666666667,0.0,0.0,0.0,0.0,0.0,0.0,0.0,8914.2,0.0,55.0,5.0,245.46333333333334,1.0,0.0,0.0,0.0,0.0,0.0,1.0,0.0,0.9570000000000007,0.9570000000000007,0.0,0.0,1.0,55.0,616.79921,10000.0,85.000001,85.000001,85.000001,85.000001,395.0,0.0,0.0,0.0,1.0,166.665,51.697,51.697,47.44,47.44,34.0,-23.1825,25.662,-28.58,31.2275,0.0,1782.172,0.010000000000001563,100.0,28.142,28.57,42.528,43.588,0.0,1.0,100.0,0.0,0.0,0.0,0.0,3175.4285714285716,3244.2,4281.5,4359.8,305.228,304.372,314.55175,314.094,21.9564,20.6098,21.932,21.4282,314.999998,314.999998,324.999988,324.999988,99.5592,99.50733333333334,99.56685714285715,99.546,0.10850000000000026,-0.028999999999999915,-0.06316666666666666,0.15833333333333335,-0.05666666666667197,-0.05666666666667197,1.516,1.5255,38.227999999999994,29.811333333333334,38.075,34.9265,56.075,35.197,59.5015,52.204499999999996,54.001000000000005,34.308,58.0965,50.542,53.155,33.838,58.0175,49.954,-0.08199999999999985,-0.08349999999999991,0.10403000000000001,0.10732000000000001,0.0,213.55,213.54500000000002,210.30666666666667,210.30666666666667,0.0,0.0
20,0.0,1.0,0.0,1.0,1.0,0.0,0.0,1.0,0.0,0.0,1.0,1.1856,26.0,0.0,0.0,0.0,59.999996,0.0,26.0,26.0,26.0,26.0,0.029111111111111088,0.27580000000000005,0.008475,292.358,-2.7721999999999998,-2.637,-1.5545,-1.5695000000000001,-208.45999999999998,215.9375,190.57275,0.0,0.0,0.0,0.0,0.04066666666666652,-5.498166666666667,-5.498166666666667,-0.5553,-1.198,0.03266666666666662,0.16200000000000003,68.332,0.0332,-0.222675,0.1039999999999992,100.0,1.0,1.0,210.64666666666668,0.0,0.0,0.0,0.0,0.0,0.0,0.0,8928.5,0.0,55.0,5.0,245.97,0.0,0.0,0.0,0.0,0.0,0.0,0.0,0.0,1.0079999999999991,1.0079999999999991,0.0,0.0,0.0,55.0,616.79921,10000.0,85.000001,85.000001,85.000001,85.000001,395.0,0.0,0.0,0.0,1.0,166.665,52.811,52.811,46.967,46.967,34.0,-22.169999999999998,24.744,-27.14,32.0025,0.0,1782.121,0.15000000000000213,100.0,27.735,27.994,43.369,43.777,0.0,1.0,100.0,0.0,0.0,0.0,0.0,2925.857142857143,3139.0,4152.125,4232.7,306.013,304.9305,314.6395,314.24325,21.9657,20.6153,21.9426,21.4375,314.999998,314.999998,324.999988,324.999988,99.55921428571429,99.50735,99.56701428571428,99.54614285714285,0.09699999999999998,-0.04033333333333311,-0.07116666666666667,0.1495,-0.04333333333332945,-0.061666666666667425,1.475,1.478,38.286,29.845666666666666,38.141,34.9845,56.059,35.235,59.543,52.2695,53.986999999999995,34.343,58.135,50.605000000000004,53.14,33.8715,58.0525,50.0155,-0.0714999999999999,-0.08899999999999997,0.10194,0.113225,0.0,213.92000000000002,213.91500000000002,210.64666666666668,210.64666666666668,0.0,0.0
21,0.0,1.0,0.0,1.0,1.0,0.0,0.0,1.0,0.0,0.0,1.0,1.1856,26.0,0.0,0.0,0.0,59.999996,0.0,26.0,26.0,26.0,26.0,0.012222222222222134,0.2844,-0.0671,292.679,-2.67285,-2.702125,-1.6082,-1.54,-205.38,215.93,190.552375,0.0,0.0,0.0,0.0,0.04246666666666654,-5.498166666666667,-5.498166666666667,-0.5785,0.4465,0.0020000000000000018,-1.2189999999999999,68.44800000000001,0.0112,-0.22612500000000002,0.33999999999999986,100.0,1.0,1.0,211.25333333333333,0.0,0.0,0.0,0.0,0.0,0.0,0.0,8954.2,0.0,55.0,5.0,246.38666666666666,1.0,0.0,0.0,0.0,0.0,0.0,0.0,0.0,1.0530000000000008,1.0530000000000008,0.0,0.0,1.0,55.0,616.79921,10000.0,85.000001,85.000001,85.000001,85.000001,395.0,0.0,0.0,0.0,1.0,333.33500000000004,52.231,52.231,48.355000000000004,48.355000000000004,34.0,-24.425,23.881999999999998,-28.093333333333334,26.65,0.0,1782.075,0.08500000000000085,100.0,28.036,28.186,42.769999999999996,43.265,0.0,1.0,100.0,0.0,0.0,0.0,0.0,3186.142857142857,3045.4,4004.5,3947.2,305.2435,304.95375,315.221,315.084,21.9742,20.6203,21.9517,21.4454,314.999998,314.999998,324.999988,324.999988,99.55922857142858,99.50735,99.56714285714285,99.54627142857143,0.07725000000000026,-0.062000000000000055,-0.1155,0.11566666666666667,-0.03999999999999915,-0.04999999999999716,1.601,1.6175000000000002,38.339,29.876666666666665,38.198,35.033500000000004,56.048,35.269999999999996,59.5725,52.3215,53.976,34.3755,58.1625,50.655,53.128,33.903,58.0775,50.0645,-0.0734999999999999,-0.08700000000000019,0.10724500000000001,0.10812500000000001,0.0,214.325,214.29000000000002,211.25333333333333,211.25333333333333,0.0,0.0
22,0.0,1.0,0.0,1.0,1.0,0.0,0.0,1.0,0.0,0.0,1.0,1.1856,26.0,0.0,0.0,0.0,59.999996,0.0,26.0,26.0,26.0,26.0,0.0007777777777777661,0.27500000000000013,0.014450000000000001,292.099,-2.63905,-2.722875,-1.5941,-1.5887,-201.89,215.9225,190.528625,0.0,0.0,0.0,0.0,0.044499999999999984,-5.498166666666667,-5.498166666666667,-0.5564,0.14149999999999996,0.0016666666666667052,1.1360000000000001,68.588,-0.0077,-0.205025,0.35599999999999987,100.0,1.0,1.0,211.46,0.0,0.0,0.0,0.0,0.0,0.0,0.0,8963.0,0.0,55.0,5.0,246.88666666666666,0.0,0.0,0.0,0.0,0.0,0.0,0.0,0.0,1.1039999999999992,1.1039999999999992,0.0,0.0,0.0,55.0,616.79921,10000.0,85.000001,85.000001,85.000001,85.000001,395.0,0.0,0.0,0.0,1.0,333.33500000000004,52.246,52.246,47.134,47.134,34.0,-22.6825,24.42,-30.713333333333335,30.43,0.0,1782.024,0.07000000000000028,100.0,28.371,28.051000000000002,43.394,43.32,0.0,1.0,100.0,0.0,0.0,0.0,0.0,2988.857142857143,3111.3,4222.875,4297.8,305.6015,304.88525,314.5615,314.22625,21.9837,20.625799999999998,21.9622,21.4545,314.999998,314.999998,324.999988,324.999988,99.55924285714286,99.50736666666667,99.56728571428572,99.54641428571429,0.07650000000000023,-0.06433333333333313,-0.11900000000000001,0.10866666666666668,-0.03833333333332689,-0.051666666666669414,1.478,1.495,38.397999999999996,29.91133333333333,38.263999999999996,35.091,56.035,35.3095,59.614,52.385,53.963,34.412,58.201,50.716,53.114999999999995,33.938,58.113,50.124,-0.07600000000000007,-0.0794999999999999,0.1072,0.11289,0.0,214.76999999999998,214.72,211.46,211.46,0.0,0.0
23,0.0,1.0,0.0,1.0,1.0,0.0,0.0,1.0,0.0,0.0,1.0,1.1856,26.0,0.0,0.0,0.0,59.999996,0.0,26.0,26.0,26.0,26.0,-0.014444444444444482,0.24760000000000004,-0.040400000000000005,292.084,-2.6715,-2.6710000000000003,-1.5192999999999999,-1.6063,-198.39,215.91500000000002,190.505125,0.0,0.0,0.0,0.0,0.046533333333333315,-5.498166666666667,-5.498166666666667,-0.5746,-0.32400000000000007,-0.007000000000000117,-0.7710000000000001,68.72200000000001,-0.0189,-0.2318,0.46000000000000085,100.0,1.0,1.0,211.96,0.0,0.0,0.0,0.0,0.0,0.0,0.0,8984.2,0.0,55.0,5.0,247.37333333333333,1.0,0.0,0.0,0.0,0.0,0.0,0.0,0.0,1.1550000000000011,1.1550000000000011,0.0,0.0,1.0,55.0,616.79921,10000.0,85.000001,85.000001,85.000001,85.000001,395.0,0.0,0.0,0.0,1.0,333.33500000000004,51.727000000000004,51.727000000000004,47.989,47.989,34.0,-27.1,22.68,-28.226666666666663,27.1025,0.0,1781.973,0.03500000000000014,100.0,28.427,28.258,43.535,43.661,0.0,1.0,100.0,0.0,0.0,0.0,0.0,3393.142857142857,3042.7,3995.625,3993.5,304.7215,305.01325,315.1035,314.8285,21.9933,20.6314,21.9727,21.4637,314.999998,314.999998,324.999988,324.999988,99.55925714285715,99.50736666666667,99.56742857142856,99.54657142857143,0.05750000000000011,-0.08299999999999996,-0.1315,0.089,-0.061666666666667425,-0.03333333333333144,1.509,1.54,38.458,29.945999999999998,38.33,35.1485,56.021,35.35,59.6525,52.448,53.95,34.4495,58.237,50.7765,53.1,33.9735,58.146,50.1835,-0.08050000000000002,-0.08450000000000024,0.10397500000000001,0.106425,0.0,215.175,215.12,211.96,211.96,0.0,0.0
24,0.0,1.0,0.0,1.0,1.0,0.0,0.0,1.0,0.0,0.0,1.0,1.1856,26.0,0.0,0.0,0.0,59.999996,0.0,26.0,26.0,26.0,26.0,-0.032333333333333325,0.2681,-0.0345,292.358,-2.6878,-2.686875,-1.5573000000000001,-1.5514000000000001,-195.09,215.905,190.482625,0.0,0.0,0.0,0.0,0.04843333333333333,-5.498166666666667,-5.498166666666667,-0.5777,-0.42900000000000005,-0.002888888888889163,-0.18999999999999995,68.85,-0.0239,-0.216625,0.3260000000000005,100.0,1.0,1.0,212.2733333333333,0.0,0.0,0.0,0.0,0.0,0.0,0.0,8997.6,0.0,55.0,5.0,247.82999999999998,0.0,0.0,0.0,0.0,0.0,0.0,0.0,0.0,1.2029999999999994,1.2029999999999994,0.0,0.0,0.0,55.0,616.79921,10000.0,85.000001,85.000001,85.000001,85.000001,395.0,0.0,0.0,0.0,1.0,166.665,52.872,52.872,47.119,47.119,34.0,-23.7,21.54,-32.25666666666666,26.7175,0.0,1781.926,-0.05000000000000071,100.0,28.238,27.948,43.524,43.464,0.0,1.0,100.0,0.0,0.0,0.0,0.0,3013.857142857143,2885.7,4344.875,4106.1,305.7845,305.5705,314.3015,314.6675,22.0022,20.636499999999998,21.982599999999998,21.4723,314.999998,314.999998,324.999988,324.999988,99.55925714285715,99.50738333333334,99.56757142857143,99.5467,0.06050000000000022,-0.07866666666666666,-0.14066666666666666,0.079,-0.04999999999999716,-0.03833333333332689,1.5075,1.516,38.513999999999996,29.978,38.391,35.202,56.007999999999996,35.385999999999996,59.689,52.5055,53.937,34.483000000000004,58.271,50.832,53.086,34.006,58.177,50.238,-0.08199999999999985,-0.0714999999999999,0.10877,0.105565,0.0,215.565,215.515,212.2733333333333,212.2733333333333,0.0,0.0
25,0.0,1.0,0.0,1.0,1.0,0.0,0.0,1.0,0.0,0.0,1.0,1.1856,26.0,0.0,0.0,0.0,59.999996,0.0,26.0,26.0,26.0,26.0,-0.03155555555555556,0.26570000000000005,-0.070775,292.358,-2.75155,-2.6557500000000003,-1.5710000000000002,-1.5563,-191.57,215.89499999999998,190.457375,0.0,0.0,0.0,0.0,0.05049999999999999,-5.498166666666667,-5.498166666666667,-0.6119,-0.08699999999999997,0.0006666666666665932,0.09499999999999997,68.982,-0.0239,-0.226325,0.1899999999999995,100.0,1.0,1.0,212.82999999999998,0.0,0.0,0.0,0.0,0.0,0.0,0.0,9021.1,0.0,55.0,5.0,248.30666666666667,1.0,0.0,0.0,0.0,0.0,0.0,0.0,0.0,1.2540000000000013,1.2540000000000013,0.0,0.0,1.0,55.0,616.79921,10000.0,85.000001,85.000001,85.000001,85.000001,395.0,0.0,0.0,0.0,1.0,333.33500000000004,51.971000000000004,51.971000000000004,47.958,47.958,34.0,-25.9875,24.588,-27.876666666666665,27.0475,0.0,1781.874,-0.04499999999999815,100.0,28.256,27.991,43.365,43.115,0.0,1.0,100.0,0.0,0.0,0.0,0.0,3220.857142857143,3287.6,3936.125,4027.5,305.1645,304.49375,315.29925,314.932,22.011499999999998,20.642,21.993,21.4813,314.999998,314.999998,324.999988,324.999988,99.55927142857144,99.5074,99.56771428571429,99.54685714285715,0.06599999999999984,-0.07833333333333314,-0.12783333333333333,0.10283333333333333,-0.045000000000001705,-0.051666666666669414,1.5775000000000001,1.5765,38.572,30.012666666666668,38.456,35.257999999999996,55.992000000000004,35.4265,59.725,52.565,53.922,34.519999999999996,58.305,50.888999999999996,53.07,34.0415,58.207499999999996,50.2935,-0.08599999999999985,-0.07900000000000018,0.10748500000000001,0.11055000000000001,0.0,215.96,215.935,212.82999999999998,212.82999999999998,0.0,0.0
26,0.0,1.0,0.0,1.0,1.0,0.0,0.0,1.0,0.0,0.0,1.0,1.1856,26.0,0.0,0.0,0.0,59.999996,0.0,26.0,26.0,26.0,26.0,-0.03722222222222216,0.26550000000000007,0.074875,291.168,-2.7008,-2.7266250000000003,-1.6152000000000002,-1.5527000000000002,-188.05,215.885,190.4315,0.0,0.0,0.0,0.0,0.05253333333333332,-5.498166666666667,-5.498166666666667,-0.5719000000000001,0.78,-0.021666666666666945,-0.8840000000000001,69.118,-0.0233,-0.1965,0.22000000000000064,100.0,1.0,1.0,212.99,0.0,0.0,0.0,0.0,0.0,0.0,0.0,9027.8,0.0,55.0,5.0,248.79666666666668,0.0,0.0,0.0,0.0,0.0,0.0,0.0,0.0,1.3049999999999997,1.3049999999999997,0.0,0.0,0.0,55.0,616.79921,10000.0,85.000001,85.000001,85.000001,85.000001,395.0,0.0,0.0,0.0,1.0,333.33500000000004,51.346000000000004,51.346000000000004,46.28,46.28,34.0,-26.29,23.402,-35.58,30.1675,0.0,1781.823,-0.18499999999999872,100.0,28.987000000000002,28.789,43.716,43.554,0.0,1.0,100.0,0.0,0.0,0.0,0.0,3287.285714285714,3041.0,4590.625,4444.2,304.973,304.9135,313.81375,313.8445,22.0212,20.6478,22.0035,21.4905,314.999998,314.999998,324.999988,324.999988,99.55927142857144,99.5074,99.56787142857142,99.547,0.06225000000000014,-0.08000000000000007,-0.14033333333333334,0.0855,-0.04333333333332945,-0.046666666666666856,1.4369999999999998,1.428,38.632,30.048666666666666,38.522,35.316,55.980999999999995,35.469,59.766,52.628,53.911,34.5595,58.343,50.95,53.059,34.079,58.2425,50.353,-0.09450000000000003,-0.0714999999999999,0.10806500000000001,0.10641500000000001,0.0,216.42000000000002,216.39,212.99,212.99,0.0,0.0
27,0.0,1.0,0.0,1.0,1.0,0.0,0.0,1.0,0.0,0.0,1.0,1.1856,26.0,0.0,0.0,0.0,59.999996,0.0,26.0,26.0,26.0,26.0,-0.006888888888888944,0.25660000000000016,-0.009675000000000001,291.565,-2.6663,-2.6955,-1.6056,-1.6256,-184.73000000000002,215.875,190.4085,0.0,0.0,0.0,0.0,0.05446666666666655,-5.498166666666667,-5.498166666666667,-0.5946,-1.0705,-0.021111111111111303,-0.661,69.242,-0.0162,-0.241125,0.04800000000000004,100.0,1.0,1.0,213.45333333333332,0.0,0.0,0.0,0.0,0.0,0.0,0.0,9047.5,0.0,55.0,5.0,249.25,1.0,0.0,0.0,0.0,0.0,0.0,0.0,0.0,1.352999999999998,1.352999999999998,0.0,0.0,1.0,55.0,616.79921,10000.0,85.000001,85.000001,85.000001,85.000001,395.0,0.0,0.0,0.0,1.0,333.33500000000004,51.772999999999996,51.772999999999996,46.585,46.585,34.0,-24.7625,23.694000000000003,-31.206666666666663,28.052500000000002,0.0,1781.775,-0.2049999999999983,100.0,28.669,28.542,44.452,44.208,0.0,1.0,100.0,0.0,0.0,0.0,0.0,3204.5714285714284,3062.9,4177.375,4070.7,305.2275,304.9675,314.70675,314.63125,22.03,20.653,22.0136,21.499299999999998,314.999998,314.999998,324.999988,324.999988,99.55928571428572,99.5074,99.56801428571428,99.54714285714286,0.0717500000000002,-0.06766666666666676,-0.13316666666666666,0.08633333333333333,-0.030000000000001137,-0.04833333333333201,1.475,1.5035,38.688,30.081333333333333,38.585,35.371,55.967,35.506,59.805,52.6885,53.899,34.5935,58.3795,51.0075,53.045,34.112,58.275999999999996,50.4095,-0.09699999999999998,-0.06199999999999983,0.10973500000000001,0.10484,0.0,216.73000000000002,216.72,213.45333333333332,213.45333333333332,0.0,0.0
28,0.0,1.0,0.0,1.0,1.0,0.0,0.0,1.0,0.0,0.0,1.0,1.1856,26.0,0.0,0.0,0.0,59.999996,0.0,26.0,26.0,26.0,26.0,-0.012777777777777777,0.25860000000000016,-0.044325,291.916,-2.6881,-2.679875,-1.5578,-1.5827,-181.19,215.8625,190.383125,0.0,0.0,0.0,0.0,0.056533333333333324,-5.498166666666667,-5.498166666666667,-0.6022000000000001,0.644,-0.016777777777778002,0.947,69.372,-0.0118,-0.218425,0.006000000000000227,100.0,1.0,1.0,213.99666666666667,0.0,0.0,0.0,0.0,0.0,0.0,0.0,9070.5,0.0,55.0,5.0,249.71333333333334,0.0,0.0,0.0,0.0,0.0,0.0,0.0,0.0,1.404,1.404,0.0,0.0,0.0,55.0,616.79921,10000.0,85.000001,85.000001,85.000001,85.000001,395.0,0.0,0.0,0.0,1.0,166.665,51.757999999999996,51.757999999999996,47.592,47.592,34.0,-24.21,24.848,-27.963333333333335,28.955,0.0,1781.725,-0.21999999999999886,100.0,28.858,28.34,43.75,43.588,0.0,1.0,100.0,0.0,0.0,0.0,0.0,3159.0,3150.3,4011.125,4146.5,305.202,304.867,315.10875,314.66525,22.0395,20.6587,22.0239,21.5083,314.999998,314.999998,324.999988,324.999988,99.5593,99.50741666666667,99.56815714285715,99.54728571428572,0.08424999999999994,-0.050999999999999934,-0.11666666666666667,0.11166666666666668,-0.026666666666670835,-0.051666666666669414,1.545,1.5425,38.747,30.116666666666667,38.649,35.427,55.955,35.546,59.8395,52.747,53.887,34.631,58.411500000000004,51.064,53.033,34.1475,58.3045,50.4645,-0.10699999999999998,-0.05650000000000022,0.09891000000000001,0.11249500000000001,0.0,217.16500000000002,217.18,213.99666666666667,213.99666666666667,0.0,0.0
29,0.0,1.0,0.0,1.0,1.0,0.0,0.0,1.0,0.0,0.0,1.0,1.1856,26.0,0.0,0.0,0.0,59.999996,0.0,26.0,26.0,26.0,26.0,0.004222222222222127,0.26980000000000004,0.041825,291.534,-2.6498,-2.724,-1.5636,-1.5551,-177.64999999999998,215.85,190.35675,0.0,0.0,0.0,0.0,0.058566666666666545,-5.498166666666667,-5.498166666666667,-0.6039,-0.7435,-0.01288888888888895,-0.7890000000000001,69.507,-0.0063,-0.21455000000000002,-0.08399999999999963,100.0,1.0,1.0,214.20666666666668,0.0,0.0,0.0,0.0,0.0,0.0,0.0,9079.5,0.0,55.0,5.0,250.2,1.0,0.0,0.0,0.0,0.0,0.0,0.0,0.0,1.4549999999999983,1.4549999999999983,0.0,0.0,1.0,55.0,616.79921,10000.0,85.000001,85.000001,85.000001,85.000001,395.0,0.0,0.0,0.0,1.0,333.33500000000004,51.865,51.865,46.463,46.463,34.0,-24.5275,24.64,-30.583333333333336,29.8475,0.0,1781.673,-0.2699999999999996,100.0,28.311,28.384999999999998,44.018,43.996,0.0,1.0,100.0,0.0,0.0,0.0,0.0,3231.142857142857,3111.4,4280.375,4243.2,305.196,304.70875,314.434,314.28,22.0488,20.6642,22.034399999999998,21.5177,314.999998,314.999998,324.999988,324.999988,99.55931428571428,99.50743333333334,99.5683,99.54744285714285,0.07774999999999999,-0.06499999999999995,-0.11483333333333333,0.11016666666666668,-0.03999999999999915,-0.02833333333332888,1.478,1.4655,38.805,30.151666666666664,38.715,35.4855,55.94,35.5845,59.8795,52.811,53.873000000000005,34.6665,58.449,51.1255,53.018,34.1815,58.339,50.5245,-0.10299999999999998,-0.05750000000000011,0.10305500000000001,0.11450500000000001,0.0,217.565,217.54500000000002,214.20666666666668,214.20666666666668,0.0,0.0
30,0.0,1.0,0.0,1.0,1.0,0.0,0.0,1.0,0.0,0.0,1.0,1.1856,26.0,0.0,0.0,0.0,59.999996,0.0,26.0,26.0,26.0,26.0,0.010222222222222133,0.2722,0.035,291.031,-2.7016,-2.614,-1.533,-1.6169,-174.31,215.84,190.33175,0.0,0.0,0.0,0.0,0.06053333333333333,-5.498166666666667,-5.498166666666667,-0.6056,0.7835,-0.01822222222222214,-0.708,69.628,0.00030000000000000003,-0.219675,-0.09799999999999898,100.0,1.0,1.0,214.65333333333334,0.0,0.0,0.0,0.0,0.0,0.0,0.0,9098.4,0.0,55.0,5.0,250.63666666666666,0.0,0.0,0.0,0.0,0.0,0.0,1.0,0.0,1.5030000000000001,1.5030000000000001,0.0,0.0,0.0,55.0,616.79921,10000.0,85.000001,85.000001,85.000001,85.000001,395.0,0.0,0.0,0.0,1.0,83.335,50.674,50.674,46.906,46.906,34.0,-26.3075,24.482,-29.243333333333336,30.1075,0.0,1781.626,-0.29499999999999815,100.0,29.203,29.129,43.864000000000004,44.006,0.0,1.0,100.0,0.0,0.0,0.0,0.0,3436.714285714286,3156.7,4251.0,4206.7,304.5,304.57775,314.59225,314.33425,22.0578,20.6698,22.0442,21.5263,314.999998,314.999998,324.999988,324.999988,99.55931428571428,99.50743333333334,99.56844285714286,99.54757142857143,0.09224999999999994,-0.05466666666666664,-0.10666666666666667,0.106,-0.036666666666668846,-0.05333333333332746,1.4985,1.4975,38.861999999999995,30.186,38.775999999999996,35.539500000000004,55.932,35.624,59.9135,52.8685,53.864000000000004,34.703,58.4805,51.1805,53.007999999999996,34.216499999999996,58.3675,50.5785,-0.11149999999999993,-0.05750000000000011,0.10195000000000001,0.10137,0.0,217.97,217.97,214.65333333333334,214.65333333333334,0.0,0.0
31,0.0,1.0,0.0,1.0,1.0,0.0,0.0,1.0,0.0,0.0,1.0,1.1856,26.0,0.0,0.0,0.0,59.999996,0.0,26.0,26.0,26.0,26.0,-0.0007777777777777661,0.24370000000000003,-0.01165,290.909,-2.7687,-2.5915,-1.5853000000000002,-1.6113,-170.55,215.8275,190.304375,0.0,0.0,0.0,0.0,0.06269999999999998,-5.498166666666667,-5.498166666666667,-0.5901000000000001,-0.5495000000000001,-0.006888888888889166,-0.7650000000000001,69.768,0.0079,-0.220975,-0.24600000000000044,100.0,1.0,1.0,214.98333333333335,0.0,0.0,0.0,0.0,0.0,0.0,0.0,9112.3,0.0,55.0,5.0,251.13666666666666,1.0,0.0,0.0,0.0,0.0,0.0,1.0,0.0,1.5569999999999986,1.5569999999999986,0.0,0.0,1.0,55.0,616.79921,10000.0,85.000001,85.000001,85.000001,85.000001,395.0,0.0,0.0,0.0,1.0,166.665,51.269999999999996,51.269999999999996,45.486,45.486,34.0,-24.255,25.07,-31.226666666666663,31.125,0.0,1781.572,-0.3249999999999993,100.0,28.965,29.164,44.557,44.7,0.0,1.0,100.0,0.0,0.0,0.0,0.0,3183.142857142857,3217.0,4380.375,4247.0,305.407,304.5975,314.20425,314.36975,22.0678,20.6759,22.0555,21.5363,314.999998,314.999998,324.999988,324.999988,99.55932857142857,99.50743333333334,99.5686,99.54774285714285,0.09825000000000017,-0.04299999999999993,-0.10333333333333333,0.11983333333333333,-0.03999999999999915,-0.036666666666668846,1.459,1.4535,38.923,30.224333333333334,38.847,35.602000000000004,55.919,35.667,59.957499999999996,52.937,53.852000000000004,34.7425,58.5215,51.2465,52.995000000000005,34.2545,58.405,50.643,-0.11199999999999988,-0.05750000000000011,0.10493500000000001,0.10455500000000001,0.0,218.37,218.375,214.98333333333335,214.98333333333335,0.0,0.0
32,0.0,1.0,0.0,1.0,1.0,0.0,0.0,1.0,0.0,0.0,1.0,1.1856,26.0,0.0,0.0,0.0,59.999996,0.0,26.0,26.0,26.0,26.0,0.001777777777777878,0.2632000000000001,-0.045575000000000004,291.153,-2.66545,-2.7043749999999998,-1.6455000000000002,-1.5243,-166.99,215.815,190.278875,0.0,0.0,0.0,0.0,0.06476666666666653,-5.498166666666667,-5.498166666666667,-0.6062000000000001,0.11349999999999993,-0.03277777777777802,0.22799999999999998,69.895,0.015300000000000001,-0.227075,-0.29000000000000004,100.0,1.0,1.0,215.49,0.0,0.0,0.0,0.0,0.0,0.0,0.0,9133.9,0.0,55.0,5.0,251.59666666666666,0.0,0.0,0.0,0.0,0.0,0.0,1.0,0.0,1.6080000000000005,1.6080000000000005,0.0,0.0,0.0,55.0,616.79921,10000.0,85.000001,85.000001,85.000001,85.000001,395.0,0.0,0.0,0.0,1.0,166.665,51.3,51.3,46.463,46.463,34.0,-22.96,25.686,-29.843333333333334,30.955,0.0,1781.52,-0.259999999999998,100.0,29.069,28.978,44.32,44.341,0.0,1.0,100.0,0.0,0.0,0.0,0.0,3165.285714285714,3170.9,4245.125,4296.4,305.1565,304.7745,314.6345,314.359,22.0771,20.6817,22.0659,21.5455,314.999998,314.999998,324.999988,324.999988,99.55934285714285,99.50745,99.56875714285714,99.54788571428571,0.10975000000000001,-0.04233333333333311,-0.09166666666666667,0.1395,-0.03166666666666629,-0.06833333333332803,1.5305,1.5135,38.982,30.260666666666665,38.912,35.6595,55.907,35.707,59.9935,52.9975,53.841,34.78,58.555,51.305,52.983000000000004,34.2905,58.4355,50.7,-0.10299999999999998,-0.06300000000000017,0.10917500000000001,0.115235,0.0,218.775,218.8,215.49,215.49,0.0,0.0
33,0.0,1.0,0.0,1.0,1.0,0.0,0.0,1.0,0.0,0.0,1.0,1.1856,26.0,0.0,0.0,0.0,59.999996,0.0,26.0,26.0,26.0,26.0,0.015000000000000124,0.2601,-0.047400000000000005,291.397,-2.70955,-2.6953750000000003,-1.5769000000000002,-1.6063,-163.63,215.805,190.25375,0.0,0.0,0.0,0.0,0.06673333333333331,-5.498166666666667,-5.498166666666667,-0.6136,-0.3820000000000001,-0.025222222222222257,1.254,70.018,0.0172,-0.21755000000000002,-0.21200000000000063,100.0,1.0,1.0,215.81333333333333,0.0,0.0,0.0,0.0,0.0,0.0,0.0,9147.5,0.0,55.0,5.0,252.03666666666666,1.0,0.0,0.0,0.0,0.0,0.0,1.0,0.0,1.6559999999999988,1.6559999999999988,0.0,0.0,1.0,55.0,616.79921,10000.0,85.000001,85.000001,85.000001,85.000001,395.0,0.0,0.0,0.0,1.0,166.665,51.772999999999996,51.772999999999996,46.57,46.57,34.0,-22.555,25.304000000000002,-28.686666666666664,31.51,0.0,1781.473,-0.3000000000000007,100.0,28.852,28.71,44.266,44.353,0.0,1.0,100.0,0.0,0.0,0.0,0.0,3091.5714285714284,3100.7,4180.0,4282.2,305.485,305.0125,314.676,314.30925,22.0859,20.6869,22.0757,21.5542,314.999998,314.999998,324.999988,324.999988,99.55935714285714,99.50745,99.5689,99.54802857142857,0.11175000000000024,-0.03299999999999992,-0.09333333333333332,0.12633333333333333,-0.04999999999999716,-0.04333333333332945,1.509,1.494,39.037,30.293333333333333,38.973,35.714,55.896,35.742,60.0285,53.0555,53.83,34.812,58.5875,51.361000000000004,52.971000000000004,34.3215,58.465,50.7545,-0.10749999999999993,-0.0535000000000001,0.105465,0.10484,0.0,219.14499999999998,219.155,215.81333333333333,215.81333333333333,0.0,0.0
34,0.0,1.0,0.0,1.0,1.0,0.0,0.0,1.0,0.0,0.0,1.0,1.1856,26.0,0.0,0.0,0.0,59.999996,0.0,26.0,26.0,26.0,26.0,0.007555555555555538,0.2594000000000001,-0.0786,291.641,-2.73595,-2.6171249999999997,-1.6413,-1.5615999999999999,-160.26999999999998,215.79500000000002,190.2275,0.0,0.0,0.0,0.0,0.06869999999999998,-5.498166666666667,-5.498166666666667,-0.6413,-0.6970000000000001,0.0043333333333333,0.923,70.139,0.0206,-0.22387500000000002,-0.19399999999999995,100.0,1.0,1.0,216.21,0.0,0.0,0.0,0.0,0.0,0.0,0.0,9164.3,0.0,55.0,5.0,252.47333333333336,0.0,0.0,0.0,0.0,0.0,0.0,1.0,0.0,1.7040000000000006,1.7040000000000006,0.0,0.0,0.0,55.0,616.79921,10000.0,85.000001,85.000001,85.000001,85.000001,395.0,0.0,0.0,0.0,1.0,166.665,51.941,51.941,47.287,47.287,34.0,-22.965,24.58,-28.466666666666665,30.564999999999998,0.0,1781.425,-0.259999999999998,100.0,28.659,28.501,44.001,44.375,0.0,1.0,100.0,0.0,0.0,0.0,0.0,3058.285714285714,3098.5,4054.625,4243.5,305.3905,305.067,315.03475,314.379,22.0946,20.6922,22.0855,21.563,314.999998,314.999998,324.999988,324.999988,99.55935714285714,99.50745,99.56902857142857,99.54817142857142,0.10650000000000004,-0.032333333333333325,-0.095,0.12866666666666665,-0.01833333333333087,-0.05333333333332746,1.5215,1.524,39.091,30.326,39.034,35.7685,55.882999999999996,35.7765,60.061,53.114,53.818,34.844,58.618,51.417,52.958,34.352000000000004,58.492,50.8095,-0.09450000000000003,-0.05799999999999983,0.10985500000000001,0.10365500000000001,0.0,219.485,219.51,216.21,216.21,0.0,0.0
35,0.0,1.0,0.0,1.0,1.0,0.0,0.0,1.0,0.0,0.0,1.0,1.1856,26.0,0.0,0.0,0.0,59.999996,0.0,26.0,26.0,26.0,26.0,0.025333333333333208,0.25870000000000015,-0.034425000000000004,291.656,-2.7199,-2.62125,-1.6219999999999999,-1.5183,-156.69,215.785,190.197625,0.0,0.0,0.0,0.0,0.07076666666666653,-5.498166666666667,-5.498166666666667,-0.6836,-0.40549999999999997,-0.01088888888888917,-1.076,70.265,0.023,-0.23142500000000002,-0.1899999999999995,100.0,1.0,1.0,216.67000000000002,0.0,0.0,0.0,0.0,0.0,0.0,0.0,9183.9,0.0,55.0,5.0,252.93,1.0,0.0,0.0,0.0,0.0,0.0,1.0,0.0,1.754999999999999,1.754999999999999,0.0,0.0,1.0,55.0,616.79921,10000.0,85.000001,85.000001,85.000001,85.000001,395.0,0.0,0.0,0.0,1.0,166.665,51.513999999999996,51.513999999999996,46.783,46.783,34.0,-24.09,26.43,-28.43,28.215,0.0,1781.374,-0.1750000000000007,100.0,28.314,28.829,43.754,43.957,0.0,1.0,100.0,0.0,0.0,0.0,0.0,3205.5714285714284,3305.6,4085.75,3989.6000000000004,305.26,304.251,314.93825,314.9825,22.1037,20.6979,22.0958,21.5721,314.999998,314.999998,324.999988,324.999988,99.55938571428571,99.50746666666667,99.56918571428571,99.54832857142857,0.0987499999999999,-0.03966666666666674,-0.09416666666666668,0.13833333333333334,-0.051666666666669414,-0.061666666666667425,1.5305,1.5474999999999999,39.147999999999996,30.362000000000002,39.099000000000004,35.8255,55.869,35.815,60.0965,53.1725,53.804,34.879999999999995,58.6505,51.4735,52.943,34.3865,58.5215,50.8645,-0.09949999999999992,-0.06499999999999995,0.11156500000000001,0.103675,0.0,219.89499999999998,219.91,216.67000000000002,216.67000000000002,0.0,0.0
36,0.0,1.0,0.0,1.0,1.0,0.0,0.0,1.0,0.0,0.0,1.0,1.1856,26.0,0.0,0.0,0.0,59.999996,0.0,26.0,26.0,26.0,26.0,0.021333333333333426,0.2691000000000001,0.024475,290.894,-2.76285,-2.661125,-1.5685,-1.5602,-153.31,215.775,190.168,0.0,0.0,0.0,0.0,0.07273333333333332,-5.498166666666667,-5.498166666666667,-0.6653,0.37949999999999995,-0.053777777777777924,-1.536,70.387,0.0216,-0.2024,-0.002000000000000668,100.0,1.0,1.0,216.85333333333335,0.0,0.0,0.0,0.0,0.0,0.0,0.0,9191.6,0.0,55.0,5.0,253.36666666666667,0.0,0.0,0.0,0.0,0.0,0.0,1.0,0.0,1.8030000000000008,1.8030000000000008,0.0,0.0,0.0,55.0,616.79921,10000.0,85.000001,85.000001,85.000001,85.000001,395.0,0.0,0.0,0.0,1.0,333.33500000000004,51.224000000000004,51.224000000000004,46.295,46.295,34.0,-25.89,24.778,-31.38,33.269999999999996,0.0,1781.326,-0.129999999999999,100.0,28.842,29.08,43.821,44.113,0.0,1.0,100.0,0.0,0.0,0.0,0.0,3362.857142857143,3120.4,4479.875,4462.6,304.8985,304.80725,314.06325,313.8175,22.1125,20.7035,22.1056,21.5809,314.999998,314.999998,324.999988,324.999988,99.5594,99.50746666666667,99.56932857142857,99.54845714285715,0.09650000000000025,-0.04733333333333323,-0.096,0.13533333333333333,-0.03999999999999915,-0.03333333333333144,1.4409999999999998,1.4435,39.203,30.397,39.16,35.8805,55.858000000000004,35.8535,60.131,53.231,53.794,34.9155,58.683,51.5295,52.932,34.420500000000004,58.551,50.9195,-0.09299999999999997,-0.0714999999999999,0.107215,0.10849,0.0,220.305,220.31,216.85333333333335,216.85333333333335,0.0,0.0
