,ABS Active,ABS Enabled,AID Allow Tire Blankets,AID Auto Blip,AID Auto Clutch,AID Auto Shift,AID Fuel Rate,AID Ideal Line,AID Mech Damage,AID Stability,AID Tire Wear Rate,Air Density,Air Temp,Ballast,Best Lap Delta,Best Lap Time,Brake Bias,Brake Pos,Brake Temp FL,Brake Temp FR,Brake Temp RL,Brake Temp RR,CG Accel Lateral,CG Accel Longitudinal,CG Accel Vertical,CG Height,Camber FL,Camber FR,Camber RL,Camber RR,Car Coord X,Car Coord Y,Car Coord Z,Car Damage Front,Car Damage Left,Car Damage Rear,Car Damage Right,Car Pos Norm,Caster FL,Caster FR,Chassis Pitch Angle,Chassis Pitch Rate,Chassis Roll Angle,Chassis Roll Rate,Chassis Velocity X,Chassis Velocity Y,Chassis Velocity Z,Chassis Yaw Rate,Clutch Pos,DRS Active,DRS Available,Drive Train Speed,ERS Heat Charging,ERS Is Charging,ERS Max Energy,ERS Power Level,ERS Recovery Level,Engine Brake Setting,Engine Limiter,Engine RPM,Flags,Fuel Level,Gear,Ground Speed,HR Sample Clock,In Pit,KERS Charge,KERS Deployed Energy,KERS Input,KERS Max Energy,LR Sample Clock,Lap Invalidated,Lap Time,Lap Time2,Last Lap Time,Last Sector Time,MR Sample Clock,Max Fuel,Max Power,Max RPM,Max Sus Travel FL,Max Sus Travel FR,Max Sus Travel RL,Max Sus Travel RR,Max Torque,Max Turbo Boost,Num Tires Off Track,Penalties Enabled,Position,Raw Data Sample Rate,Ride Height FL,Ride Height FR,Ride Height RL,Ride Height RR,Road Temp,Self Align Torque FL,Self Align Torque FR,Self Align Torque RL,Self Align Torque RR,Session Lap Count,Session Time Left,Steering Angle,Surface Grip,Suspension Travel FL,Suspension Travel FR,Suspension Travel RL,Suspension Travel RR,TC Active,TC Enabled,Throttle Pos,Tire Dirt Level FL,Tire Dirt Level FR,Tire Dirt Level RL,Tire Dirt Level RR,Tire Load FL,Tire Load FR,Tire Load RL,Tire Load RR,Tire Loaded Radius FL,Tire Loaded Radius FR,Tire Loaded Radius RL,Tire Loaded Radius RR,Tire Pressure FL,Tire Pressure FR,Tire Pressure RL,Tire Pressure RR,Tire Radius FL,Tire Radius FR,Tire Radius RL,Tire Radius RR,Tire Rubber Grip FL,Tire Rubber Grip FR,Tire Rubber Grip RL,Tire Rubber Grip RR,Tire Slip Angle FL,Tire Slip Angle FR,Tire Slip Angle RL,Tire Slip Angle RR,Tire Slip Ratio FL,Tire Slip Ratio FR,Tire Slip Ratio RL,Tire Slip Ratio RR,Tire Temp Core FL,Tire Temp Core FR,Tire Temp Core RL,Tire Temp Core RR,Tire Temp Inner FL,Tire Temp Inner FR,Tire Temp Inner RL,Tire Temp Inner RR,Tire Temp Middle FL,Tire Temp Middle FR,Tire Temp Middle RL,Tire Temp Middle RR,Tire Temp Outer FL,Tire Temp Outer FR,Tire Temp Outer RL,Tire Temp Outer RR,Toe In FL,Toe In FR,Toe In RL,Toe In RR,Turbo Boost,Wheel Angular Speed FL,Wheel Angular Speed FR,Wheel Angular Speed RL,Wheel Angular Speed RR,Wind Direction,Wind Speed
0,0.0,0.0,0.0,1.0,1.0,0.0,0.0,1.0,0.0,100.0,1.0,1.1856,26.0,0.0,0.0,0.0,59.99999,0.0,26.0,26.0,26.0,26.0,-0.08177777777777784,0.2964,0.093575,294.022,-2.7251,-2.6558,-1.51675,-1.5554999999999999,-275.79,216.29000000000002,190.98825,0.0,0.0,0.0,0.0,0.0015333333333333865,-5.498166666666667,-5.498166666666667,-0.5538000000000001,1.3656666666666664,-0.008249999999999869,-1.432,65.505,-0.0308,-0.21885000000000002,0.9800000000000004,100.0,1.0,1.0,202.23666666666668,0.0,0.0,0.0,0.0,0.0,0.0,0.0,8572.1,0.0,55.0,5.0,235.7866666666667,0.0,0.0,0.0,0.0,0.0,0.0,0.0,0.0,0.0030000000000001137,0.0030000000000001137,0.0,0.0,0.0,55.0,616.79921,10000.0,85.0,85.0,85.0,85.0,395.0,0.0,0.0,0.0,1.0,20.0,52.734,52.734,49.774,49.774,34.0,-28.21,23.23,-30.71666666666666,24.6575,0.0,1730.469,0.8200000000000003,100.0,27.213,27.046,40.419,40.592,0.0,0.0,100.0,0.0,0.0,0.0,0.0,3168.0,3342.6,4148.25,3983.7,305.3283333333333,304.1533333333333,314.8495,314.897,21.8945,20.5963,21.85,21.4005,314.99999,314.99999,324.99998,324.99998,99.5604,99.5078,99.56551428571429,99.54597142857143,-0.006000000000000005,-0.1206666666666667,-0.16316666666666657,0.06033333333333335,-0.07000000000000028,-0.05142857142856627,1.5415,1.581,37.841,29.7265,37.563,34.753,56.979,34.949,59.3115,51.9935,54.788,34.018,57.8965,50.309,53.866,33.5235,57.833,49.717,-0.015000000000000013,-0.139,0.10952,0.11071,0.0,205.29000000000002,205.195,202.23666666666668,202.23666666666668,0.0,0.0
1,0.0,0.0,0.0,1.0,1.0,0.0,0.0,1.0,0.0,100.0,1.0,1.1856,26.0,0.0,0.0,0.0,59.999996,0.0,26.0,26.0,26.0,26.0,-0.11922222222222212,0.30069999999999997,-0.006425,293.213,-2.6593999999999998,-2.759,-1.53525,-1.541,-272.45,216.285,190.968125,0.0,0.0,0.0,0.0,0.003466666666666507,-5.498166666666667,-5.498166666666667,-0.4927,-0.2273333333333334,-0.046499999999999986,-0.13400000000000012,65.65899999999999,-0.0456,-0.19060000000000002,1.3379999999999992,100.0,1.0,1.0,202.42000000000002,0.0,0.0,0.0,0.0,0.0,0.0,0.0,8579.9,0.0,55.0,5.0,236.33666666666667,1.0,0.0,0.0,0.0,0.0,0.0,0.0,0.0,0.053999999999998494,0.053999999999998494,0.0,0.0,1.0,55.0,616.79921,10000.0,85.000001,85.000001,85.000001,85.000001,395.0,0.0,0.0,0.0,1.0,333.33500000000004,53.787,53.787,48.355000000000004,48.355000000000004,34.0,-26.265,17.724999999999998,-33.236666666666665,29.25,0.0,1730.416,0.9399999999999995,100.0,27.568,27.004,42.784,41.536,0.0,0.0,100.0,0.0,0.0,0.0,0.0,2984.0,2654.2,4247.125,4721.1,305.6553333333333,306.41966666666667,314.494,313.1645,21.9043,20.6013,21.8607,21.4095,314.999998,314.999998,324.999988,324.999988,99.5604,99.50781666666667,99.56567142857143,99.54611428571428,-0.011249999999999982,-0.14066666666666672,-0.17566666666666664,0.04183333333333339,-0.02833333333332888,-0.04999999999999716,1.4290000000000003,1.48,37.902,29.758,37.629000000000005,34.8095,56.961,34.9885,59.355000000000004,52.057,54.771,34.0545,57.9375,50.3695,53.848,33.559,57.871,49.776666666666664,0.0030000000000001137,-0.14850000000000008,0.10098000000000001,0.10606000000000002,0.0,205.74,205.63,202.42000000000002,202.42000000000002,0.0,0.0
2,0.0,0.0,0.0,1.0,1.0,0.0,0.0,1.0,0.0,100.0,1.0,1.1856,26.0,0.0,0.0,0.0,59.999996,0.0,26.0,26.0,26.0,26.0,-0.13444444444444448,0.2771000000000001,0.01145,293.716,-2.5930999999999997,-2.80555,-1.4807000000000001,-1.6212,-269.1,216.2775,190.94925,0.0,0.0,0.0,0.0,0.005433333333333401,-5.498166666666667,-5.498166666666667,-0.5477000000000001,-0.30499999999999994,-0.05912499999999987,1.701,65.801,-0.06760000000000001,-0.24802500000000002,1.6639999999999997,100.0,1.0,1.0,203.3,0.0,0.0,0.0,0.0,0.0,0.0,0.0,8617.1,0.0,55.0,5.0,236.85666666666668,0.0,0.0,0.0,0.0,0.0,0.0,0.0,0.0,0.10500000000000043,0.10500000000000043,0.0,0.0,0.0,55.0,616.79921,10000.0,85.000001,85.000001,85.000001,85.000001,395.0,0.0,0.0,0.0,1.0,166.665,52.536,52.536,50.156,50.156,34.0,-30.810000000000002,19.648333333333333,-29.4,20.1075,0.0,1730.368,0.7800000000000011,100.0,28.192,26.936,42.66,41.457,0.0,0.0,100.0,0.0,0.0,0.0,0.0,3444.375,2877.7,3807.125,3612.4,304.3953333333333,305.74066666666664,315.53075,315.9725,21.9144,20.6061,21.871,21.4182,314.999998,314.999998,324.999988,324.999988,99.56041428571429,99.50783333333334,99.56581428571428,99.54624285714286,-0.024249999999999883,-0.1459999999999999,-0.21299999999999997,0.012333333333333307,-0.07333333333333059,-0.07000000000000028,1.6135000000000002,1.6795,37.965,29.788,37.694,34.864,56.946,35.0255,59.3915,52.1135,54.757,34.088499999999996,57.9715,50.424,53.833,33.591499999999996,57.902,49.83,-0.014000000000000012,-0.139,0.10786000000000001,0.10386000000000001,0.0,206.195,206.04000000000002,203.3,203.3,0.0,0.0
3,0.0,0.0,0.0,1.0,1.0,0.0,0.0,1.0,0.0,100.0,1.0,1.1856,26.0,0.0,0.0,0.0,59.999996,0.0,26.0,26.0,26.0,26.0,-0.1413333333333333,0.31510000000000016,0.056900000000000006,293.335,-2.7314,-2.68845,-1.5154,-1.5910000000000002,-265.94,216.26749999999998,190.930625,0.0,0.0,0.0,0.0,0.0072666666666665325,-5.498166666666667,-5.498166666666667,-0.5124000000000001,0.3963333333333332,-0.006250000000000089,0.243,65.944,-0.0853,-0.20122500000000001,1.2759999999999998,100.0,1.0,1.0,203.44333333333333,0.0,0.0,0.0,0.0,0.0,0.0,0.0,8623.2,0.0,55.0,5.0,237.37,1.0,0.0,0.0,0.0,0.0,0.0,0.0,0.0,0.1529999999999987,0.1529999999999987,0.0,0.0,1.0,55.0,616.79921,10000.0,85.000001,85.000001,85.000001,85.000001,395.0,0.0,0.0,0.0,1.0,166.665,53.314,53.314,48.172,48.172,34.0,-26.5075,19.05,-35.166666666666664,23.9325,0.0,1730.319,0.5750000000000011,100.0,28.006,27.119,42.512,41.479,0.0,0.0,100.0,0.0,0.0,0.0,0.0,2932.375,2913.4,4272.25,4221.2,305.89733333333334,305.57866666666666,314.41325,314.4125,21.9236,20.6109,21.8807,21.4265,314.999998,314.999998,324.999988,324.999988,99.56041428571429,99.50785,99.56594285714286,99.54638571428572,-0.01849999999999996,-0.1443333333333332,-0.21733333333333338,0.0035000000000000586,-0.02833333333332888,-0.0799999999999983,1.484,1.5430000000000001,38.022999999999996,29.817999999999998,37.754000000000005,34.9155,56.929,35.064,59.4265,52.170500000000004,54.741,34.1245,58.0045,50.479,53.817,33.626,57.9325,49.88366666666667,-0.03400000000000003,-0.11549999999999994,0.11057000000000002,0.10856500000000001,0.0,206.63,206.565,203.44333333333333,203.44333333333333,0.0,0.0
4,0.0,0.0,0.0,1.0,1.0,0.0,0.0,1.0,0.0,100.0,1.0,1.1856,26.0,0.0,0.0,0.0,59.999996,0.0,26.0,26.0,26.0,26.0,-0.12922222222222213,0.29310000000000014,-0.02925,293.503,-2.6671,-2.73235,-1.5354999999999999,-1.5944,-262.57,216.2525,190.910875,0.0,0.0,0.0,0.0,0.009233333333333316,-5.498166666666667,-5.498166666666667,-0.5422,-0.778,-0.07250000000000023,-1.9300000000000002,66.092,-0.08700000000000001,-0.2361,1.1500000000000004,100.0,1.0,1.0,204.00333333333333,0.0,0.0,0.0,0.0,0.0,0.0,0.0,8647.0,0.0,55.0,5.0,237.9,0.0,0.0,0.0,0.0,0.0,0.0,0.0,0.0,0.20400000000000063,0.20400000000000063,0.0,0.0,0.0,55.0,616.79921,10000.0,85.000001,85.000001,85.000001,85.000001,395.0,0.0,0.0,0.0,1.0,333.33500000000004,53.024,53.024,48.538,48.538,34.0,-29.075,19.15,-33.33,21.1525,0.0,1730.266,0.5850000000000009,100.0,27.803,27.045,42.900999999999996,41.725,0.0,0.0,100.0,0.0,0.0,0.0,0.0,3229.25,2890.8,4130.0,3702.0,305.202,305.50933333333336,314.77,315.6235,21.9332,20.6159,21.8912,21.435299999999998,314.999998,314.999998,324.999988,324.999988,99.56041428571429,99.50786666666667,99.5661,99.54652857142857,-0.02499999999999991,-0.15066666666666673,-0.20983333333333332,0.020333333333333314,-0.036666666666668846,-0.04999999999999716,1.545,1.5935000000000001,38.082,29.8495,37.82,34.9705,56.909,35.104,59.467,52.2285,54.722,34.161500000000004,58.043,50.535,53.798,33.661500000000004,57.968,49.93833333333333,-0.030000000000000027,-0.11650000000000005,0.10529500000000001,0.11374000000000001,0.0,207.025,206.95,204.00333333333333,204.00333333333333,0.0,0.0
5,0.0,0.0,0.0,1.0,1.0,0.0,0.0,1.0,0.0,100.0,1.0,1.1856,26.0,0.0,0.0,0.0,59.999996,0.0,26.0,26.0,26.0,26.0,-0.13222222222222213,0.2964,-0.031325,293.655,-2.665,-2.76885,-1.50845,-1.5910000000000002,-259.19,216.23250000000002,190.890625,0.0,0.0,0.0,0.0,0.011166666666666547,-5.498166666666667,-5.498166666666667,-0.5358,0.4746666666666668,-0.08237499999999986,1.112,66.238,-0.0893,-0.21535,1.048,100.0,1.0,1.0,204.44333333333333,0.0,0.0,0.0,0.0,0.0,0.0,0.0,8665.6,0.0,55.0,5.0,238.42333333333335,1.0,0.0,0.0,0.0,0.0,0.0,0.0,0.0,0.254999999999999,0.254999999999999,0.0,0.0,1.0,55.0,616.79921,10000.0,85.000001,85.000001,85.000001,85.000001,395.0,0.0,0.0,0.0,1.0,166.665,53.452,53.452,48.996,48.996,34.0,-27.0925,19.745,-33.21333333333334,23.8275,0.0,1730.218,0.2550000000000008,100.0,28.036,26.713,42.722,41.216,0.0,0.0,100.0,0.0,0.0,0.0,0.0,3082.875,2827.2,4125.625,4069.9,305.4216666666667,305.9266666666667,314.82075,314.83625,21.9431,20.621,21.9015,21.4439,314.999998,314.999998,324.999988,324.999988,99.56042857142857,99.50788333333334,99.56622857142857,99.54665714285714,-0.006750000000000034,-0.1246666666666667,-0.21516666666666662,0.023666666666666725,-0.06666666666666998,-0.057142857142849834,1.5385,1.562,38.144,29.881,37.885,35.0245,56.893,35.1435,59.506,52.284,54.707,34.198,58.079,50.588,53.782,33.6965,58.0015,49.99033333333333,-0.05149999999999999,-0.08850000000000002,0.10652500000000001,0.11217500000000001,0.0,207.54500000000002,207.445,204.44333333333333,204.44333333333333,0.0,0.0
6,0.0,0.0,0.0,1.0,1.0,0.0,0.0,1.0,0.0,100.0,1.0,1.1856,26.0,0.0,0.0,0.0,59.999996,0.0,26.0,26.0,26.0,26.0,-0.12122222222222212,0.2792000000000001,0.006050000000000001,293.457,-2.6364,-2.7436,-1.5554000000000001,-1.6242,-256.01,216.215,190.871375,0.0,0.0,0.0,0.0,0.013033333333333341,-5.498166666666667,-5.498166666666667,-0.5304,0.09299999999999997,-0.06150000000000011,0.933,66.377,-0.0848,-0.21435,0.7439999999999998,100.0,1.0,1.0,204.84,0.0,0.0,0.0,0.0,0.0,0.0,0.0,8682.4,0.0,55.0,5.0,238.92666666666668,0.0,0.0,0.0,0.0,0.0,0.0,0.0,0.0,0.3030000000000008,0.3030000000000008,0.0,0.0,0.0,55.0,616.79921,10000.0,85.000001,85.000001,85.000001,85.000001,395.0,0.0,0.0,0.0,1.0,166.665,53.162,53.162,48.782,48.782,34.0,-26.7725,21.153333333333332,-32.46666666666666,24.325000000000003,0.0,1730.169,0.08999999999999986,100.0,27.845,26.722,42.817,41.549,0.0,0.0,100.0,0.0,0.0,0.0,0.0,3121.875,2995.9,4052.125,4023.9,305.29133333333334,305.3693333333333,314.98125,314.90525,21.9523,20.6257,21.9113,21.4523,314.999998,314.999998,324.999988,324.999988,99.56042857142857,99.50788333333334,99.56637142857143,99.54678571428572,0.004999999999999893,-0.11966666666666681,-0.2028333333333333,0.030000000000000027,-0.02833333333332888,-0.060000000000002274,1.5460000000000003,1.5665,38.202,29.9105,37.946,35.076499999999996,56.876999999999995,35.18,59.542500000000004,52.3405,54.692,34.232,58.1135,50.6425,53.766999999999996,33.729,58.033500000000004,50.043,-0.07199999999999995,-0.08750000000000013,0.111155,0.10423500000000001,0.0,207.925,207.87,204.84,204.84,0.0,0.0
7,0.0,0.0,0.0,1.0,1.0,0.0,0.0,1.0,0.0,100.0,1.0,1.1856,26.0,0.0,0.0,0.0,59.999996,0.0,26.0,26.0,26.0,26.0,-0.07977777777777784,0.28659999999999997,0.016825,293.182,-2.6098,-2.73245,-1.51375,-1.5716,-252.62,216.19,190.850875,0.0,0.0,0.0,0.0,0.014999999999999902,-5.498166666666667,-5.498166666666667,-0.533,-0.07166666666666666,-0.053999999999999826,-0.2390000000000001,66.522,-0.0654,-0.22160000000000002,0.41000000000000014,100.0,1.0,1.0,205.26,0.0,0.0,0.0,0.0,0.0,0.0,0.0,8700.2,0.0,55.0,5.0,239.45,1.0,0.0,0.0,0.0,0.0,0.0,0.0,0.0,0.3539999999999992,0.3539999999999992,0.0,0.0,1.0,55.0,616.79921,10000.0,85.000001,85.000001,85.000001,85.000001,395.0,0.0,0.0,0.0,1.0,333.33500000000004,52.841,52.841,48.798,48.798,34.0,-27.310000000000002,21.781666666666666,-32.153333333333336,24.802500000000002,0.0,1730.117,-0.20500000000000007,100.0,27.749,26.903,42.774,41.877,0.0,0.0,100.0,0.0,0.0,0.0,0.0,3333.125,2951.9,4121.5,4060.8,304.76466666666664,305.3446666666667,314.821,314.75925,21.9621,20.6308,21.9217,21.461100000000002,314.999998,314.999998,324.999988,324.999988,99.56042857142857,99.5079,99.56651428571429,99.54694285714285,0.03100000000000014,-0.09699999999999998,-0.1901666666666666,0.043500000000000094,-0.06333333333333258,-0.05857142857143316,1.5055000000000005,1.5205,38.263,29.9425,38.010999999999996,35.132,56.86,35.218,59.5815,52.3995,54.676,34.266999999999996,58.15,50.699,53.75,33.7625,58.067,50.09866666666667,-0.09150000000000003,-0.05899999999999994,0.10930000000000001,0.11361,0.0,208.375,208.325,205.26,205.26,0.0,0.0
8,0.0,0.0,0.0,1.0,1.0,0.0,0.0,1.0,0.0,100.0,1.0,1.1856,26.0,0.0,0.0,0.0,59.999996,0.0,26.0,26.0,26.0,26.0,-0.03988888888888886,0.3014000000000001,0.039275000000000004,293.457,-2.6846,-2.7179,-1.49965,-1.5524,-249.23,216.16500000000002,190.830375,0.0,0.0,0.0,0.0,0.016966666666666574,-5.498166666666667,-5.498166666666667,-0.5331,-0.513,-0.030625000000000124,0.865,66.669,-0.0472,-0.211925,-0.07599999999999962,100.0,1.0,1.0,205.63666666666666,0.0,0.0,0.0,0.0,0.0,0.0,0.0,8716.2,0.0,55.0,5.0,239.9766666666667,0.0,0.0,0.0,0.0,0.0,0.0,0.0,0.0,0.40500000000000114,0.40500000000000114,0.0,0.0,0.0,55.0,616.79921,10000.0,85.000001,85.000001,85.000001,85.000001,395.0,0.0,0.0,0.0,1.0,333.33500000000004,53.741,53.741,48.035,48.035,34.0,-23.0,22.865000000000002,-30.526666666666664,27.36,0.0,1730.065,-0.3550000000000004,100.0,27.507,26.748,42.812,41.905,0.0,0.0,100.0,0.0,0.0,0.0,0.0,2896.375,2991.7,4175.75,4208.2,306.03833333333336,305.4123333333333,314.61475,314.4765,21.9717,20.6359,21.9321,21.47,314.999998,314.999998,324.999988,324.999988,99.56042857142857,99.50791666666667,99.56665714285714,99.54707142857143,0.05250000000000021,-0.07033333333333314,-0.15033333333333332,0.07766666666666677,-0.061666666666667425,-0.057142857142849834,1.5120000000000005,1.5225,38.323,29.9745,38.076,35.1875,56.841,35.254999999999995,59.62,52.458,54.659,34.3015,58.186,50.7555,53.732,33.795500000000004,58.1,50.153999999999996,-0.10299999999999998,-0.040999999999999925,0.10808500000000001,0.107935,0.0,208.81,208.79000000000002,205.63666666666666,205.63666666666666,0.0,0.0
9,0.0,0.0,0.0,1.0,1.0,0.0,0.0,1.0,0.0,100.0,1.0,1.1856,26.0,0.0,0.0,0.0,59.999996,0.0,26.0,26.0,26.0,26.0,-0.030888888888888855,0.2814000000000001,0.026425,293.213,-2.6847,-2.72325,-1.5556999999999999,-1.5552000000000001,-246.01999999999998,216.1375,190.8105,0.0,0.0,0.0,0.0,0.01883333333333337,-5.498166666666667,-5.498166666666667,-0.5433,0.5423333333333333,-0.032500000000000195,0.6799999999999999,66.80199999999999,-0.028800000000000003,-0.217225,-0.1739999999999995,100.0,1.0,1.0,206.19666666666666,0.0,0.0,0.0,0.0,0.0,0.0,0.0,8740.0,0.0,55.0,5.0,240.45666666666668,1.0,0.0,0.0,0.0,0.0,0.0,0.0,0.0,0.4529999999999994,0.4529999999999994,0.0,0.0,1.0,55.0,616.79921,10000.0,85.000001,85.000001,85.000001,85.000001,395.0,0.0,0.0,0.0,1.0,333.33500000000004,52.521,52.521,49.179,49.179,34.0,-25.5875,24.810000000000002,-28.18,27.025,0.0,1730.018,-0.45500000000000007,100.0,27.88,27.165,42.454,41.897999999999996,0.0,0.0,100.0,0.0,0.0,0.0,0.0,3284.0,3114.3,3950.875,4058.6,304.853,304.961,315.26,314.863,21.9808,20.6409,21.9417,21.4783,314.999998,314.999998,324.999988,324.999988,99.56044285714286,99.50793333333333,99.56678571428571,99.5472,0.07650000000000023,-0.05333333333333323,-0.136,0.09749999999999992,-0.041666666666671404,-0.05857142857143316,1.5724999999999998,1.569,38.379999999999995,30.005499999999998,38.135999999999996,35.239,56.827,35.291,59.6525,52.5125,54.644999999999996,34.3345,58.216499999999996,50.808,53.718,33.8275,58.128,50.205,-0.11549999999999994,-0.04499999999999993,0.10647000000000001,0.1077,0.0,209.23000000000002,209.22500000000002,206.19666666666666,206.19666666666666,0.0,0.0
10,0.0,0.0,0.0,1.0,1.0,0.0,0.0,1.0,0.0,100.0,1.0,1.1856,26.0,0.0,0.0,0.0,59.999996,0.0,26.0,26.0,26.0,26.0,0.0041111111111111764,0.2977000000000001,0.00595,292.969,-2.6601,-2.7083,-1.59185,-1.5388000000000002,-242.61,216.11,190.78975,0.0,0.0,0.0,0.0,0.02083333333333337,-5.498166666666667,-5.498166666666667,-0.5161,-0.2653333333333333,0.0036249999999999893,0.31499999999999995,66.949,-0.0079,-0.204375,-0.4379999999999997,100.0,1.0,1.0,206.41333333333333,0.0,0.0,0.0,0.0,0.0,0.0,0.0,8749.1,0.0,55.0,5.0,240.98666666666668,0.0,0.0,0.0,0.0,0.0,0.0,1.0,0.0,0.5040000000000013,0.5040000000000013,0.0,0.0,0.0,55.0,616.79921,10000.0,85.000001,85.000001,85.000001,85.000001,395.0,0.0,0.0,0.0,1.0,333.33500000000004,53.467,53.467,47.623,47.623,34.0,-21.2225,22.549999999999997,-32.17666666666666,29.475,0.0,1729.967,-0.5949999999999989,100.0,27.731,27.342,42.774,42.719,0.0,0.0,100.0,0.0,0.0,0.0,0.0,2914.375,2853.8,4373.25,4280.9,306.052,305.6236666666667,314.26225,314.187,21.9905,20.6461,21.9522,21.4873,314.999998,314.999998,324.999988,324.999988,99.56045714285715,99.50793333333333,99.56694285714286,99.54734285714285,0.09425000000000017,-0.050999999999999934,-0.12416666666666665,0.10183333333333322,-0.051666666666669414,-0.048571428571428044,1.4779999999999998,1.469,38.44,30.038,38.201,35.296,56.813,35.326499999999996,59.692499999999995,52.5745,54.632,34.3675,58.2535,50.8675,53.704,33.859,58.162,50.263666666666666,-0.12949999999999995,-0.03200000000000003,0.10423,0.103165,0.0,209.67000000000002,209.68,206.41333333333333,206.41333333333333,0.0,0.0
11,0.0,0.0,0.0,1.0,1.0,0.0,0.0,1.0,0.0,100.0,1.0,1.1856,26.0,0.0,0.0,0.0,59.999996,0.0,26.0,26.0,26.0,26.0,0.030444444444444274,0.26960000000000006,-0.06645000000000001,293.533,-2.7055,-2.68735,-1.55345,-1.5238,-239.19,216.08249999999998,190.769125,0.0,0.0,0.0,0.0,0.022599999999999953,-5.498166666666667,-5.498166666666667,-0.5599000000000001,-0.3413333333333334,0.03349999999999986,0.471,67.088,0.0123,-0.23800000000000002,-0.637999999999999,100.0,1.0,1.0,207.15,0.0,0.0,0.0,0.0,0.0,0.0,0.0,8780.3,0.0,55.0,5.0,241.48666666666668,1.0,0.0,0.0,0.0,0.0,0.0,1.0,0.0,0.5549999999999997,0.5549999999999997,0.0,0.0,1.0,55.0,616.79921,10000.0,85.000001,85.000001,85.000001,85.000001,395.0,0.0,0.0,0.0,1.0,333.33500000000004,52.887,52.887,49.24,49.24,34.0,-21.787499999999998,26.525,-23.43333333333333,27.325,0.0,1729.915,-0.5999999999999996,100.0,27.559,27.385,42.454,42.597,0.0,0.0,100.0,0.0,0.0,0.0,0.0,3001.375,3184.1,3660.125,3892.7,305.70733333333334,304.7606666666667,315.944,315.2265,21.9998,20.6514,21.9624,21.496299999999998,314.999998,314.999998,324.999988,324.999988,99.56045714285715,99.50795,99.56707142857142,99.54748571428571,0.1107499999999999,-0.020333333333333314,-0.08999999999999997,0.14200000000000013,-0.03333333333333144,-0.04999999999999716,1.6345,1.6025,38.498999999999995,30.0715,38.265,35.3515,56.796,35.3625,59.7255,52.632999999999996,54.616,34.400999999999996,58.285,50.924,53.688,33.8915,58.19,50.318666666666665,-0.127,-0.030999999999999917,0.10653000000000001,0.110905,0.0,210.075,210.10500000000002,207.15,207.15,0.0,0.0
12,0.0,0.0,0.0,1.0,1.0,0.0,0.0,1.0,0.0,100.0,1.0,1.1856,26.0,0.0,0.0,0.0,59.999996,0.0,26.0,26.0,26.0,26.0,0.04800000000000004,0.2914000000000001,0.00645,293.03,-2.7553,-2.68325,-1.552,-1.5259,-235.97,216.06,190.748375,0.0,0.0,0.0,0.0,0.025466666666666526,-5.498166666666667,-5.498166666666667,-0.5457000000000001,0.29699999999999993,0.01849999999999996,0.5549999999999999,67.224,0.028,-0.205775,-0.7120000000000006,100.0,1.0,1.0,207.36333333333334,0.0,0.0,0.0,0.0,0.0,0.0,0.0,8789.3,0.0,55.0,5.0,241.97666666666666,0.0,0.0,0.0,0.0,0.0,0.0,1.0,0.0,0.602999999999998,0.602999999999998,0.0,0.0,0.0,55.0,616.79921,10000.0,85.000001,85.000001,85.000001,85.000001,395.0,0.0,0.0,0.0,1.0,333.33500000000004,52.963,52.963,48.004,48.004,34.0,-21.7375,26.996666666666666,-26.553333333333335,31.4025,0.0,1729.868,-0.6549999999999994,100.0,27.451999999999998,27.53,42.353,42.459,0.0,0.0,100.0,0.0,0.0,0.0,0.0,3015.125,3182.8,4164.125,4219.1,305.683,304.7973333333333,314.71825,314.47375,22.0087,20.6565,21.9721,21.5046,314.999998,314.999998,324.999988,324.999988,99.56047142857143,99.50795,99.5672,99.54762857142858,0.125,-0.006999999999999895,-0.06499999999999995,0.15833333333333321,-0.03499999999999659,-0.07714285714285296,1.5244999999999997,1.5030000000000001,38.554,30.103,38.325,35.403999999999996,56.782,35.397,59.7595,52.688,54.602999999999994,34.433,58.3165,50.9775,53.674,33.922,58.219,50.37133333333333,-0.124,-0.02750000000000008,0.10332000000000001,0.10652,0.0,210.51,210.57999999999998,207.36333333333334,207.36333333333334,0.0,0.0
13,0.0,0.0,0.0,1.0,1.0,0.0,0.0,1.0,0.0,100.0,1.0,1.1856,26.0,0.0,0.0,0.0,59.999996,0.0,26.0,26.0,26.0,26.0,0.08299999999999996,0.27470000000000017,0.052875000000000005,292.603,-2.7334,-2.67605,-1.6221999999999999,-1.5411000000000001,-232.34,216.0325,190.72525,0.0,0.0,0.0,0.0,0.026799999999999935,-5.498166666666667,-5.498166666666667,-0.5379,-0.05799999999999994,0.023625000000000007,1.125,67.376,0.0369,-0.21332500000000001,-0.8899999999999997,100.0,1.0,1.0,207.76,0.0,0.0,0.0,0.0,0.0,0.0,0.0,8806.2,0.0,55.0,5.0,242.52333333333334,1.0,0.0,0.0,0.0,0.0,0.0,1.0,0.0,0.657,0.657,0.0,0.0,1.0,55.0,616.79921,10000.0,85.000001,85.000001,85.000001,85.000001,395.0,0.0,0.0,0.0,1.0,166.665,52.567,52.567,47.897,47.897,34.0,-20.665,28.121666666666666,-27.32666666666666,33.1775,0.0,1729.815,-0.8249999999999993,100.0,27.795,27.735,42.584,42.989000000000004,0.0,0.0,100.0,0.0,0.0,0.0,0.0,3047.875,3186.2,4163.25,4361.7,305.552,304.7726666666667,314.70975,314.1145,22.0188,20.6623,21.9831,21.5143,314.999998,314.999998,324.999988,324.999988,99.5605,99.50795,99.56735714285715,99.54778571428571,0.15249999999999986,0.020333333333333314,-0.059666666666666646,0.16100000000000003,-0.03499999999999659,-0.024285714285717575,1.5110000000000001,1.48,38.617000000000004,30.139,38.394,35.464,56.769999999999996,35.4355,59.799,52.754,54.591,34.469,58.3535,51.041,53.661,33.9565,58.2525,50.43333333333334,-0.14800000000000002,-0.007000000000000117,0.10906500000000001,0.101735,0.0,210.96,211.0,207.76,207.76,0.0,0.0
14,0.0,0.0,0.0,1.0,1.0,0.0,0.0,1.0,0.0,100.0,1.0,1.1856,26.0,0.0,0.0,0.0,59.999996,0.0,26.0,26.0,26.0,26.0,0.0795555555555556,0.27790000000000004,-0.010125,292.816,-2.7347,-2.61965,-1.6312,-1.5133,-229.1,216.01,190.70525,0.0,0.0,0.0,0.0,0.028666666666666507,-5.498166666666667,-5.498166666666667,-0.5478000000000001,-0.16033333333333333,0.05125000000000002,1.355,67.507,0.0509,-0.227325,-1.0460000000000003,100.0,1.0,1.0,208.26,0.0,0.0,0.0,0.0,0.0,0.0,0.0,8827.4,0.0,55.0,5.0,242.99666666666667,0.0,0.0,0.0,0.0,0.0,0.0,1.0,0.0,0.7049999999999983,0.7049999999999983,0.0,0.0,0.0,55.0,616.79921,10000.0,85.000001,85.000001,85.000001,85.000001,395.0,0.0,0.0,0.0,1.0,166.665,52.658,52.658,48.141,48.141,34.0,-19.73,28.231666666666666,-25.28,32.5475,0.0,1729.767,-0.9199999999999999,100.0,27.742,27.815,42.561,43.209,0.0,0.0,100.0,0.0,0.0,0.0,0.0,2937.25,3249.8,3976.375,4217.0,305.86533333333335,304.5966666666667,315.17325,314.4715,22.0277,20.6674,21.9928,21.5228,314.999998,314.999998,324.999988,324.999988,99.56051428571429,99.50795,99.56748571428571,99.54791428571428,0.15474999999999994,0.020333333333333314,-0.04899999999999993,0.18433333333333324,-0.03333333333333144,-0.057142857142849834,1.5475000000000003,1.5070000000000001,38.673,30.171,38.455,35.5175,56.757999999999996,35.47,59.832499999999996,52.811,54.58,34.501,58.384,51.096000000000004,53.649,33.9875,58.2805,50.48733333333333,-0.15000000000000002,-0.009500000000000064,0.10705500000000001,0.10877500000000001,0.0,211.345,211.43,208.26,208.26,0.0,0.0
15,0.0,0.0,0.0,1.0,1.0,0.0,0.0,1.0,0.0,100.0,1.0,1.1856,26.0,0.0,0.0,0.0,59.999996,0.0,26.0,26.0,26.0,26.0,0.09844444444444433,0.2856000000000001,0.0023250000000000002,292.847,-2.709,-2.5756,-1.6280000000000001,-1.4564,-225.85,215.99,190.685,0.0,0.0,0.0,0.0,0.03056666666666652,-5.498166666666667,-5.498166666666667,-0.5402,0.3443333333333334,0.08137499999999998,1.28,67.639,0.0626,-0.21052500000000002,-1.112,100.0,1.0,1.0,208.65666666666667,0.0,0.0,0.0,0.0,0.0,0.0,0.0,8844.1,0.0,55.0,5.0,243.47,1.0,0.0,0.0,0.0,0.0,0.0,1.0,0.0,0.7530000000000001,0.7530000000000001,0.0,0.0,1.0,55.0,616.79921,10000.0,85.000001,85.000001,85.000001,85.000001,395.0,0.0,0.0,0.0,1.0,166.665,52.795,52.795,48.248,48.248,34.0,-18.1825,28.028333333333332,-24.273333333333333,33.36,0.0,1729.719,-0.9900000000000002,100.0,27.736,27.897,42.315,43.232,0.0,0.0,100.0,0.0,0.0,0.0,0.0,2822.125,3220.5,3940.0,4375.1,306.163,304.68,315.2725,314.12725,22.0366,20.6726,22.0024,21.5313,314.999998,314.999998,324.999988,324.999988,99.56052857142858,99.50795,99.56761428571428,99.54805714285715,0.16674999999999995,0.03166666666666673,-0.03500000000000003,0.18866666666666676,-0.03333333333333144,-0.06285714285714761,1.5430000000000001,1.5145,38.729,30.2035,38.515,35.570499999999996,56.747,35.504999999999995,59.864,52.8685,54.57,34.533500000000004,58.4135,51.1515,53.638,34.019,58.307,50.541666666666664,-0.15249999999999997,-0.0040000000000000036,0.106035,0.10126500000000001,0.0,211.775,211.86,208.65666666666667,208.65666666666667,0.0,0.0
16,0.0,0.0,0.0,1.0,1.0,0.0,0.0,1.0,0.0,100.0,1.0,1.1856,26.0,0.0,0.0,0.0,59.999996,0.0,26.0,26.0,26.0,26.0,0.13377777777777777,0.2783,-0.051000000000000004,292.908,-2.8086,-2.6077,-1.60125,-1.4519,-222.4,215.9725,190.663,0.0,0.0,0.0,0.0,0.03256666666666652,-5.498166666666667,-5.498166666666667,-0.5585,-0.7393333333333333,0.06912499999999988,-0.9040000000000001,67.779,0.0736,-0.22382500000000002,-1.217999999999999,100.0,1.0,1.0,209.06333333333333,0.0,0.0,0.0,0.0,0.0,0.0,0.0,8861.5,0.0,55.0,5.0,243.97666666666666,0.0,0.0,0.0,0.0,0.0,0.0,1.0,0.0,0.8039999999999985,0.8039999999999985,0.0,0.0,0.0,55.0,616.79921,10000.0,85.000001,85.000001,85.000001,85.000001,395.0,0.0,0.0,0.0,1.0,333.33500000000004,52.872,52.872,47.867,47.867,34.0,-19.5125,28.483333333333334,-23.75333333333333,31.9675,0.0,1729.667,-0.8949999999999996,100.0,27.212,28.108,42.473,43.46,0.0,0.0,100.0,0.0,0.0,0.0,0.0,2960.5,3177.5,3978.375,4138.3,306.078,304.627,315.21925,314.608,22.0457,20.6781,22.0127,21.540399999999998,314.999998,314.999998,324.999988,324.999988,99.56054285714286,99.50795,99.56777142857143,99.5482,0.1732499999999999,0.040000000000000036,-0.02749999999999997,0.20316666666666672,-0.046666666666666856,-0.04142857142856826,1.5525000000000002,1.521,38.786,30.238,38.58,35.626999999999995,56.732,35.543,59.9005,52.929,54.555,34.569,58.448,51.21,53.623000000000005,34.053,58.338,50.599333333333334,-0.15349999999999997,-0.0020000000000000018,0.11230000000000001,0.10904000000000001,0.0,212.17000000000002,212.25,209.06333333333333,209.06333333333333,0.0,0.0
17,0.0,0.0,0.0,1.0,1.0,0.0,0.0,1.0,0.0,100.0,1.0,1.1856,26.0,0.0,0.0,0.0,59.999996,0.0,26.0,26.0,26.0,26.0,0.1200000000000001,0.29000000000000004,0.01235,292.526,-2.7636,-2.564,-1.63875,-1.4774,-218.74,215.95749999999998,190.639125,0.0,0.0,0.0,0.0,0.03469999999999995,-5.498166666666667,-5.498166666666667,-0.5496,0.5083333333333333,0.044875,-0.7430000000000001,67.926,0.0815,-0.20475000000000002,-1.1260000000000003,100.0,1.0,1.0,209.49333333333334,0.0,0.0,0.0,0.0,0.0,0.0,0.0,8879.7,0.0,55.0,5.0,244.50333333333333,1.0,0.0,0.0,0.0,0.0,0.0,1.0,0.0,0.8580000000000005,0.8580000000000005,0.0,0.0,1.0,55.0,616.79921,10000.0,85.000001,85.000001,85.000001,85.000001,395.0,0.0,0.0,0.0,1.0,166.665,52.475,52.475,47.806,47.806,34.0,-20.4425,26.948333333333334,-25.799999999999997,33.525000000000006,0.0,1729.614,-0.9199999999999999,100.0,27.675,28.389,42.232,43.445,0.0,0.0,100.0,0.0,0.0,0.0,0.0,3102.25,3077.5,4274.75,4271.9,305.62533333333334,304.983,314.62875,314.33925,22.0557,20.684,22.0235,21.5499,314.999998,314.999998,324.999988,324.999988,99.56057142857142,99.50796666666666,99.56791428571428,99.54835714285714,0.16849999999999987,0.03833333333333311,-0.01749999999999996,0.2008333333333332,-0.045000000000001705,-0.06285714285714761,1.5430000000000001,1.491,38.848,30.275,38.647,35.687,56.721000000000004,35.585,59.9365,52.9925,54.545,34.608000000000004,58.481,51.2715,53.611000000000004,34.091,58.368,50.659666666666666,-0.14449999999999996,-0.009000000000000119,0.10613,0.109655,0.0,212.67000000000002,212.765,209.49333333333334,209.49333333333334,0.0,0.0
18,0.0,0.0,0.0,1.0,1.0,0.0,0.0,1.0,0.0,100.0,1.0,1.1856,26.0,0.0,0.0,0.0,59.999996,0.0,26.0,26.0,26.0,26.0,0.14177777777777778,0.27790000000000004,-0.03705,292.511,-2.7967,-2.53945,-1.6574,-1.4217,-215.47,215.9475,190.618,0.0,0.0,0.0,0.0,0.036599999999999966,-5.498166666666667,-5.498166666666667,-0.5595,-0.5596666666666668,0.07099999999999995,-0.11299999999999999,68.056,0.0805,-0.22237500000000002,-1.202,100.0,1.0,1.0,209.90666666666667,0.0,0.0,0.0,0.0,0.0,0.0,0.0,8897.1,0.0,55.0,5.0,244.97666666666666,0.0,0.0,0.0,0.0,0.0,0.0,1.0,0.0,0.9059999999999988,0.9059999999999988,0.0,0.0,0.0,55.0,616.79921,10000.0,85.000001,85.000001,85.000001,85.000001,395.0,0.0,0.0,0.0,1.0,166.665,52.414,52.414,47.729,47.729,34.0,-19.6825,29.645,-25.10333333333333,31.7,0.0,1729.566,-1.1950000000000003,100.0,27.449,28.240000000000002,42.592,43.84,0.0,0.0,100.0,0.0,0.0,0.0,0.0,3084.625,3279.1,4041.375,4187.3,305.7246666666667,304.4103333333333,315.11,314.515,22.0645,20.6892,22.0333,21.5585,314.999998,314.999998,324.999988,324.999988,99.5606,99.50796666666666,99.56805714285714,99.54848571428572,0.18900000000000006,0.06033333333333335,-0.03049999999999997,0.19700000000000006,-0.04999999999999716,-0.05142857142856627,1.5465,1.518,38.903,30.307499999999997,38.708,35.741,56.711,35.6215,59.9705,53.0515,54.535,34.641999999999996,58.513,51.3285,53.599999999999994,34.1235,58.397,50.715666666666664,-0.16849999999999998,0.01649999999999996,0.11069500000000002,0.103605,0.0,213.04500000000002,213.135,209.90666666666667,209.90666666666667,0.0,0.0
19,0.0,0.0,0.0,1.0,1.0,0.0,0.0,1.0,0.0,100.0,1.0,1.1856,26.0,0.0,0.0,0.0,59.999996,0.0,26.0,26.0,26.0,26.0,0.12233333333333318,0.2864,0.016675000000000002,292.099,-2.7724,-2.52325,-1.6717,-1.4043,-212.2,215.94,190.59675,0.0,0.0,0.0,0.0,0.03849999999999998,-5.498166666666667,-5.498166666666667,-0.5526,0.8356666666666668,0.07974999999999999,-0.6520000000000001,68.185,0.0889,-0.21235,-1.2759999999999998,100.0,1.0,1.0,210.31333333333333,0.0,0.0,0.0,0.0,0.0,0.0,0.0,8914.4,0.0,55.0,5.0,245.43666666666667,1.0,0.0,0.0,0.0,0.0,0.0,1.0,0.0,0.9540000000000006,0.9540000000000006,0.0,0.0,1.0,55.0,616.79921,10000.0,85.000001,85.000001,85.000001,85.000001,395.0,0.0,0.0,0.0,1.0,166.665,51.727000000000004,51.727000000000004,47.745,47.745,34.0,-21.2025,28.811666666666667,-25.486666666666665,33.5525,0.0,1729.518,-0.4949999999999992,100.0,27.932,28.722,42.271,43.766999999999996,0.0,0.0,100.0,0.0,0.0,0.0,0.0,3151.125,3307.0,4145.0,4346.0,305.41133333333335,304.2183333333333,314.93325,314.20075,22.0733,20.6946,22.0428,21.5671,314.999998,314.999998,324.999988,324.999988,99.56061428571428,99.50798333333333,99.56818571428572,99.54864285714285,0.16374999999999984,0.03266666666666662,-0.021333333333333315,0.21016666666666683,-0.05333333333332746,-0.03142857142857025,1.5575,1.5154999999999998,38.958,30.3415,38.768,35.794,56.702,35.6605,60.0015,53.109,54.527,34.6785,58.5415,51.384,53.591,34.158500000000004,58.4225,50.77033333333333,-0.134,-0.025500000000000078,0.10844500000000001,0.10816500000000001,0.0,213.48000000000002,213.56,210.31333333333333,210.31333333333333,0.0,0.0
20,0.0,0.0,0.0,1.0,1.0,0.0,0.0,1.0,0.0,100.0,1.0,1.1856,26.0,0.0,0.0,0.0,59.999996,0.0,26.0,26.0,26.0,26.0,0.08811111111111103,0.28570000000000007,0.018075,292.328,-2.8079,-2.5995,-1.58195,-1.4284,-208.72,215.935,190.574375,0.0,0.0,0.0,0.0,0.04053333333333331,-5.498166666666667,-5.498166666666667,-0.5508000000000001,-1.1076666666666666,0.06624999999999992,0.133,68.325,0.0897,-0.2179,-0.6699999999999999,100.0,1.0,1.0,210.59,0.0,0.0,0.0,0.0,0.0,0.0,0.0,8926.1,0.0,55.0,5.0,245.94333333333333,0.0,0.0,0.0,0.0,0.0,0.0,0.0,0.0,1.004999999999999,1.004999999999999,0.0,0.0,0.0,55.0,616.79921,10000.0,85.000001,85.000001,85.000001,85.000001,395.0,0.0,0.0,0.0,1.0,333.33500000000004,52.948,52.948,46.799,46.799,34.0,-20.77,26.068333333333335,-24.453333333333333,34.59,0.0,1729.466,0.19500000000000028,100.0,27.545,28.222,43.08,44.098,0.0,0.0,100.0,0.0,0.0,0.0,0.0,2817.0,3186.9,4179.125,4405.4,306.39566666666667,304.808,314.60975,314.013,22.0824,20.7002,22.0533,21.5763,314.999998,314.999998,324.999988,324.999988,99.56062857142857,99.50798333333333,99.56832857142857,99.54878571428571,0.11624999999999996,-0.012333333333333307,-0.010499999999999954,0.20450000000000013,-0.036666666666668846,-0.06857142857143117,1.4800000000000004,1.4335,39.015,30.375999999999998,38.833,35.852000000000004,56.686,35.6975,60.04,53.1725,54.512,34.713,58.577,51.445499999999996,53.575,34.1915,58.455,50.830666666666666,-0.06399999999999995,-0.08699999999999997,0.10611000000000001,0.10407000000000001,0.0,213.87,213.935,210.59,210.59,0.0,0.0
21,0.0,0.0,0.0,1.0,1.0,0.0,0.0,1.0,0.0,100.0,1.0,1.1856,26.0,0.0,0.0,0.0,59.999996,0.0,26.0,26.0,26.0,26.0,0.038555555555555676,0.26859999999999995,-0.0658,292.694,-2.6971,-2.67515,-1.62935,-1.521,-205.44,215.9325,190.55275,0.0,0.0,0.0,0.0,0.04243333333333332,-5.498166666666667,-5.498166666666667,-0.5788,0.42066666666666674,0.028874999999999984,-0.20599999999999996,68.449,0.061200000000000004,-0.227575,0.19200000000000017,100.0,1.0,1.0,211.25666666666666,0.0,0.0,0.0,0.0,0.0,0.0,0.0,8954.3,0.0,55.0,5.0,246.39,1.0,0.0,0.0,0.0,0.0,0.0,0.0,0.0,1.0530000000000008,1.0530000000000008,0.0,0.0,1.0,55.0,616.79921,10000.0,85.000001,85.000001,85.000001,85.000001,395.0,0.0,0.0,0.0,1.0,333.33500000000004,52.246,52.246,48.400999999999996,48.400999999999996,34.0,-22.697499999999998,25.715,-25.39666666666666,29.7575,0.0,1729.418,0.46499999999999986,100.0,28.032,28.234,42.583,43.532,0.0,0.0,100.0,0.0,0.0,0.0,0.0,3047.75,3190.1,3952.125,3974.8,305.53333333333336,304.7096666666667,315.3585,315.0995,22.0912,20.7055,22.0628,21.584699999999998,314.999998,314.999998,324.999988,324.999988,99.56064285714285,99.50798333333333,99.56847142857143,99.54892857142858,0.09975000000000023,-0.040000000000000036,-0.06116666666666659,0.1778333333333333,-0.046666666666666856,-0.06857142857143117,1.5890000000000004,1.5845,39.07,30.409,38.893,35.903999999999996,56.673,35.7335,60.069,53.2255,54.498999999999995,34.7465,58.6045,51.497,53.561,34.224000000000004,58.480000000000004,50.881,-0.04499999999999993,-0.1140000000000001,0.109185,0.10747500000000001,0.0,214.32999999999998,214.31,211.25666666666666,211.25666666666666,0.0,0.0
22,0.0,0.0,0.0,1.0,1.0,0.0,0.0,1.0,0.0,100.0,1.0,1.1856,26.0,0.0,0.0,0.0,59.999996,0.0,26.0,26.0,26.0,26.0,-0.0022222222222221255,0.2654000000000001,-0.0032500000000000003,292.16,-2.6574999999999998,-2.70345,-1.60535,-1.5278,-201.74,215.93,190.527625,0.0,0.0,0.0,0.0,0.04456666666666653,-5.498166666666667,-5.498166666666667,-0.5562,0.07166666666666677,0.015249999999999986,0.752,68.596,0.018000000000000002,-0.2051,0.7000000000000011,100.0,1.0,1.0,211.4766666666667,0.0,0.0,0.0,0.0,0.0,0.0,0.0,8963.7,0.0,55.0,5.0,246.91666666666666,0.0,0.0,0.0,0.0,0.0,0.0,0.0,0.0,1.1069999999999993,1.1069999999999993,0.0,0.0,0.0,55.0,616.79921,10000.0,85.000001,85.000001,85.000001,85.000001,395.0,0.0,0.0,0.0,1.0,166.665,52.399,52.399,47.134,47.134,34.0,-22.73,23.89,-30.366666666666667,30.7025,0.0,1729.366,0.5500000000000007,100.0,28.271,28.157,43.264,43.578,0.0,0.0,100.0,0.0,0.0,0.0,0.0,2939.25,3112.4,4221.875,4322.1,305.8143333333333,304.93066666666664,314.60675,314.28575,22.1012,20.7113,22.073900000000002,21.5943,314.999998,314.999998,324.999988,324.999988,99.56065714285714,99.508,99.56862857142858,99.54908571428571,0.06850000000000023,-0.07299999999999995,-0.10866666666666658,0.12650000000000006,-0.03833333333332689,-0.048571428571428044,1.4714999999999998,1.488,39.132,30.4455,38.962,35.9645,56.656,35.774,60.1095,53.289,54.483000000000004,34.784,58.6425,51.5585,53.545,34.2605,58.513999999999996,50.941,-0.03749999999999998,-0.1280000000000001,0.11171500000000001,0.10866,0.0,214.81,214.74,211.4766666666667,211.4766666666667,0.0,0.0
23,0.0,0.0,0.0,1.0,1.0,0.0,0.0,1.0,0.0,100.0,1.0,1.1856,26.0,0.0,0.0,0.0,59.999996,0.0,26.0,26.0,26.0,26.0,-0.04677777777777781,0.25239999999999996,-0.0019500000000000001,292.084,-2.6673,-2.67305,-1.5151,-1.6103,-198.44,215.93,190.5055,0.0,0.0,0.0,0.0,0.046499999999999986,-5.498166666666667,-5.498166666666667,-0.5749000000000001,-0.41000000000000003,-0.007874999999999854,0.23199999999999998,68.72200000000001,-0.016300000000000002,-0.23197500000000001,0.9960000000000004,100.0,1.0,1.0,211.94666666666666,0.0,0.0,0.0,0.0,0.0,0.0,0.0,8983.6,0.0,55.0,5.0,247.37666666666667,1.0,0.0,0.0,0.0,0.0,0.0,0.0,0.0,1.1550000000000011,1.1550000000000011,0.0,0.0,1.0,55.0,616.79921,10000.0,85.000001,85.000001,85.000001,85.000001,395.0,0.0,0.0,0.0,1.0,166.665,51.757999999999996,51.757999999999996,47.943,47.943,34.0,-27.48,22.938333333333333,-28.67,27.795,0.0,1729.317,0.5649999999999995,100.0,28.573,28.102,43.598,43.655,0.0,0.0,100.0,0.0,0.0,0.0,0.0,3312.375,3142.8,3996.125,4030.9,304.858,304.93733333333336,315.0735,314.8595,22.11,20.7165,22.0838,21.602899999999998,314.999998,314.999998,324.999988,324.999988,99.56065714285714,99.50801666666666,99.56875714285714,99.54921428571429,0.03675000000000006,-0.09233333333333316,-0.1373333333333333,0.09450000000000003,-0.03833333333332689,-0.060000000000002274,1.4885000000000002,1.5154999999999998,39.188,30.478,39.024,36.018,56.64,35.8115,60.144,53.345,54.468,34.819,58.6745,51.612,53.528999999999996,34.294,58.5435,50.99366666666667,-0.028000000000000025,-0.125,0.10423500000000001,0.11467500000000001,0.0,215.19,215.12,211.94666666666666,211.94666666666666,0.0,0.0
24,0.0,0.0,0.0,1.0,1.0,0.0,0.0,1.0,0.0,100.0,1.0,1.1856,26.0,0.0,0.0,0.0,59.999996,0.0,26.0,26.0,26.0,26.0,-0.07811111111111102,0.28290000000000015,-0.0806,292.374,-2.673,-2.7013,-1.54475,-1.5653000000000001,-195.14,215.9275,190.483,0.0,0.0,0.0,0.0,0.04843333333333333,-5.498166666666667,-5.498166666666667,-0.5771000000000001,-0.44999999999999996,-0.014874999999999972,0.8160000000000001,68.85,-0.0422,-0.216625,0.9500000000000011,100.0,1.0,1.0,212.26999999999998,0.0,0.0,0.0,0.0,0.0,0.0,0.0,8997.3,0.0,55.0,5.0,247.83333333333334,0.0,0.0,0.0,0.0,0.0,0.0,0.0,0.0,1.2029999999999994,1.2029999999999994,0.0,0.0,0.0,55.0,616.79921,10000.0,85.000001,85.000001,85.000001,85.000001,395.0,0.0,0.0,0.0,1.0,166.665,52.872,52.872,47.104,47.104,34.0,-25.0175,20.564999999999998,-33.10666666666667,26.265,0.0,1729.269,0.46499999999999986,100.0,28.475,27.759,43.701,43.369,0.0,0.0,100.0,0.0,0.0,0.0,0.0,2962.875,2926.1,4373.375,4106.7,305.82966666666664,305.632,314.28475,314.77425,22.1188,20.7215,22.0935,21.6113,314.999998,314.999998,324.999988,324.999988,99.56067142857142,99.50803333333333,99.5689,99.54935714285715,0.018000000000000238,-0.11133333333333328,-0.15383333333333338,0.06716666666666682,-0.04333333333332945,-0.05142857142856627,1.4985,1.5190000000000001,39.242999999999995,30.509,39.085,36.070499999999996,56.623999999999995,35.848,60.179,53.3985,54.453,34.8525,58.707499999999996,51.6635,53.513,34.326,58.573499999999996,51.044,-0.03649999999999998,-0.1180000000000001,0.10229500000000001,0.11213000000000001,0.0,215.585,215.51,212.26999999999998,212.26999999999998,0.0,0.0
25,0.0,0.0,0.0,1.0,1.0,0.0,0.0,1.0,0.0,100.0,1.0,1.1856,26.0,0.0,0.0,0.0,59.999996,0.0,26.0,26.0,26.0,26.0,-0.10311111111111104,0.24740000000000006,-0.06965,292.358,-2.7274,-2.67585,-1.5502500000000001,-1.5781,-191.42000000000002,215.9225,190.456375,0.0,0.0,0.0,0.0,0.05056666666666654,-5.498166666666667,-5.498166666666667,-0.6123000000000001,0.010333333333333306,-0.02312499999999984,-0.15999999999999992,68.99000000000001,-0.0603,-0.22635000000000002,0.9000000000000004,100.0,1.0,1.0,212.85666666666668,0.0,0.0,0.0,0.0,0.0,0.0,0.0,9022.2,0.0,55.0,5.0,248.33666666666664,1.0,0.0,0.0,0.0,0.0,0.0,0.0,0.0,1.256999999999998,1.256999999999998,0.0,0.0,1.0,55.0,616.79921,10000.0,85.000001,85.000001,85.000001,85.000001,395.0,0.0,0.0,0.0,1.0,166.665,51.894999999999996,51.894999999999996,48.004,48.004,34.0,-28.6,22.86,-30.29,24.82,0.0,1729.216,0.34500000000000064,100.0,28.445,27.861,43.546,42.94,0.0,0.0,100.0,0.0,0.0,0.0,0.0,3294.125,3255.9,3971.375,3981.9,304.9646666666667,304.616,315.25325,315.0695,22.1287,20.7272,22.1044,21.6207,314.999998,314.999998,324.999988,324.999988,99.56067142857142,99.50803333333333,99.56905714285715,99.5495,0.02024999999999988,-0.11533333333333329,-0.17433333333333334,0.0581666666666667,-0.03333333333333144,-0.060000000000002274,1.5499999999999998,1.5750000000000002,39.304,30.545,39.153,36.1295,56.604,35.891,60.216,53.4565,54.434,34.8925,58.742,51.7195,53.494,34.3645,58.605000000000004,51.09866666666667,-0.05399999999999994,-0.1120000000000001,0.10716500000000001,0.10925000000000001,0.0,216.01,215.94,212.85666666666668,212.85666666666668,0.0,0.0
26,0.0,0.0,0.0,1.0,1.0,0.0,0.0,1.0,0.0,100.0,1.0,1.1856,26.0,0.0,0.0,0.0,59.999996,0.0,26.0,26.0,26.0,26.0,-0.10111111111111104,0.2673000000000001,0.07115,291.229,-2.6633,-2.76485,-1.5863,-1.5816,-188.11,215.91500000000002,190.432,0.0,0.0,0.0,0.0,0.05249999999999999,-5.498166666666667,-5.498166666666667,-0.5718,0.827,-0.05162500000000003,0.5449999999999999,69.119,-0.06770000000000001,-0.19545,0.7880000000000003,100.0,1.0,1.0,212.98666666666668,0.0,0.0,0.0,0.0,0.0,0.0,0.0,9027.7,0.0,55.0,5.0,248.8,0.0,0.0,0.0,0.0,0.0,0.0,0.0,0.0,1.3049999999999997,1.3049999999999997,0.0,0.0,0.0,55.0,616.79921,10000.0,85.000001,85.000001,85.000001,85.000001,395.0,0.0,0.0,0.0,1.0,166.665,51.391999999999996,51.391999999999996,46.371,46.371,34.0,-27.237499999999997,22.511666666666667,-36.989999999999995,28.3525,0.0,1729.167,0.1349999999999998,100.0,29.367,28.415,44.103,43.147,0.0,0.0,100.0,0.0,0.0,0.0,0.0,3244.125,3088.0,4555.0,4466.8,304.957,304.99033333333335,313.87475,313.95125,22.1377,20.7325,22.1143,21.6293,314.999998,314.999998,324.999988,324.999988,99.56067142857142,99.50805,99.5692,99.54964285714286,0.03025000000000011,-0.1156666666666668,-0.17516666666666658,0.046666666666666856,-0.021666666666668277,-0.05857142857143316,1.4240000000000004,1.4555,39.361000000000004,30.578,39.215,36.183,56.59,35.931,60.2535,53.512,54.421,34.93,58.777,51.772999999999996,53.480000000000004,34.4005,58.637,51.150666666666666,-0.07150000000000001,-0.09149999999999991,0.10172500000000001,0.108755,0.0,216.435,216.375,212.98666666666668,212.98666666666668,0.0,0.0
27,0.0,0.0,0.0,1.0,1.0,0.0,0.0,1.0,0.0,100.0,1.0,1.1856,26.0,0.0,0.0,0.0,59.999996,0.0,26.0,26.0,26.0,26.0,-0.08011111111111102,0.2551000000000001,0.010425,291.58,-2.6298,-2.7336,-1.57735,-1.6533,-184.78,215.9075,190.408875,0.0,0.0,0.0,0.0,0.054433333333333334,-5.498166666666667,-5.498166666666667,-0.5947,-1.0916666666666668,-0.05074999999999985,0.788,69.243,-0.0644,-0.241125,0.5500000000000007,100.0,1.0,1.0,213.43666666666667,0.0,0.0,0.0,0.0,0.0,0.0,0.0,9046.8,0.0,55.0,5.0,249.25,1.0,0.0,0.0,0.0,0.0,0.0,0.0,0.0,1.352999999999998,1.352999999999998,0.0,0.0,1.0,55.0,616.79921,10000.0,85.000001,85.000001,85.000001,85.000001,395.0,0.0,0.0,0.0,1.0,333.33500000000004,51.804,51.804,46.661,46.661,34.0,-25.990000000000002,22.28,-32.46,27.1,0.0,1729.117,0.0600000000000005,100.0,29.086,28.139,44.867000000000004,43.764,0.0,0.0,100.0,0.0,0.0,0.0,0.0,3165.5,3114.7,4146.625,4131.6,305.1963333333333,305.044,314.75275,314.61625,22.1465,20.7375,22.1244,21.637999999999998,314.999998,314.999998,324.999988,324.999988,99.56067142857142,99.50806666666666,99.56934285714286,99.54978571428572,0.03400000000000025,-0.11499999999999999,-0.16816666666666658,0.05133333333333323,-0.02499999999999858,-0.04142857142856826,1.4745,1.4929999999999999,39.416,30.6095,39.277,36.2375,56.574,35.9685,60.292,53.5685,54.406,34.9645,58.813,51.8275,53.464,34.4335,58.67,51.20366666666666,-0.07599999999999996,-0.08899999999999997,0.10264500000000001,0.10769000000000001,0.0,216.745,216.70499999999998,213.43666666666667,213.43666666666667,0.0,0.0
28,0.0,0.0,0.0,1.0,1.0,0.0,0.0,1.0,0.0,100.0,1.0,1.1856,26.0,0.0,0.0,0.0,59.999996,0.0,26.0,26.0,26.0,26.0,-0.05688888888888888,0.2630000000000001,-0.048525000000000006,291.962,-2.6662,-2.71075,-1.5303,-1.6111,-181.25,215.89499999999998,190.383625,0.0,0.0,0.0,0.0,0.056499999999999995,-5.498166666666667,-5.498166666666667,-0.6032000000000001,0.6393333333333333,-0.05337499999999995,-0.3780000000000001,69.373,-0.0585,-0.22035000000000002,0.4900000000000002,100.0,1.0,1.0,213.98000000000002,0.0,0.0,0.0,0.0,0.0,0.0,0.0,9069.8,0.0,55.0,5.0,249.71333333333334,0.0,0.0,0.0,0.0,0.0,0.0,0.0,0.0,1.404,1.404,0.0,0.0,0.0,55.0,616.79921,10000.0,85.000001,85.000001,85.000001,85.000001,395.0,0.0,0.0,0.0,1.0,166.665,51.788,51.788,47.638,47.638,34.0,-27.73,21.39,-31.236666666666665,26.0225,0.0,1729.068,-0.08000000000000007,100.0,28.955,28.272,44.002,43.315,0.0,0.0,100.0,0.0,0.0,0.0,0.0,3333.0,2978.5,4092.375,4061.7,304.9116666666667,305.2486666666667,315.00225,314.87925,22.156,20.743,22.1345,21.6469,314.999998,314.999998,324.999988,324.999988,99.56068571428571,99.50808333333333,99.56948571428572,99.54992857142857,0.03299999999999992,-0.10999999999999988,-0.1758333333333334,0.06000000000000005,-0.036666666666668846,-0.04285714285714448,1.5380000000000003,1.564,39.474999999999994,30.644,39.341,36.293,56.558,36.009,60.3245,53.6225,54.391999999999996,35.001999999999995,58.844,51.8795,53.449,34.4695,58.698,51.254333333333335,-0.08750000000000002,-0.08050000000000002,0.10328000000000001,0.11483000000000002,0.0,217.20499999999998,217.155,213.98000000000002,213.98000000000002,0.0,0.0
29,0.0,0.0,0.0,1.0,1.0,0.0,0.0,1.0,0.0,100.0,1.0,1.1856,26.0,0.0,0.0,0.0,59.999996,0.0,26.0,26.0,26.0,26.0,-0.05833333333333335,0.25839999999999996,0.020200000000000003,291.534,-2.6145,-2.75875,-1.5359500000000001,-1.5851000000000002,-177.70999999999998,215.8825,190.35725,0.0,0.0,0.0,0.0,0.058533333333333326,-5.498166666666667,-5.498166666666667,-0.6042000000000001,-0.7346666666666667,-0.039750000000000174,0.917,69.508,-0.0473,-0.2151,0.1720000000000006,100.0,1.0,1.0,214.2,0.0,0.0,0.0,0.0,0.0,0.0,0.0,9079.2,0.0,55.0,5.0,250.2,1.0,0.0,0.0,0.0,0.0,0.0,0.0,0.0,1.4549999999999983,1.4549999999999983,0.0,0.0,1.0,55.0,616.79921,10000.0,85.000001,85.000001,85.000001,85.000001,395.0,0.0,0.0,0.0,1.0,166.665,51.849000000000004,51.849000000000004,46.463,46.463,34.0,-24.9125,24.41166666666667,-31.766666666666666,28.7275,0.0,1729.018,-0.16999999999999993,100.0,28.748,28.018,44.4,43.579,0.0,0.0,100.0,0.0,0.0,0.0,0.0,3165.25,3175.9,4262.375,4281.2,305.21166666666664,304.72433333333333,314.434,314.326,22.1652,20.7484,22.145,21.6561,314.999998,314.999998,324.999988,324.999988,99.56068571428571,99.5081,99.56964285714285,99.55008571428571,0.05525000000000002,-0.08666666666666667,-0.14149999999999996,0.07699999999999996,-0.02833333333332888,-0.04999999999999716,1.4535,1.4665,39.533,30.677500000000002,39.406,36.3505,56.54,36.047,60.364,53.682,54.375,35.0375,58.881,51.9365,53.432,34.5035,58.7315,51.31,-0.09199999999999997,-0.06550000000000011,0.09914,0.109005,0.0,217.55,217.555,214.2,214.2,0.0,0.0
30,0.0,0.0,0.0,1.0,1.0,0.0,0.0,1.0,0.0,100.0,1.0,1.1856,26.0,0.0,0.0,0.0,59.999996,0.0,26.0,26.0,26.0,26.0,-0.047666666666666635,0.2654000000000001,0.060950000000000004,291.061,-2.6751,-2.64245,-1.51425,-1.6377000000000002,-174.37,215.8675,190.33225,0.0,0.0,0.0,0.0,0.0605,-5.498166666666667,-5.498166666666667,-0.6067,0.7676666666666667,-0.038124999999999964,0.627,69.629,-0.0345,-0.220225,0.08399999999999963,100.0,1.0,1.0,214.63666666666666,0.0,0.0,0.0,0.0,0.0,0.0,0.0,9097.6,0.0,55.0,5.0,250.64,0.0,0.0,0.0,0.0,0.0,0.0,1.0,0.0,1.5030000000000001,1.5030000000000001,0.0,0.0,0.0,55.0,616.79921,10000.0,85.000001,85.000001,85.000001,85.000001,395.0,0.0,0.0,0.0,1.0,333.33500000000004,50.735,50.735,46.936,46.936,34.0,-26.835,24.075,-30.026666666666664,30.1925,0.0,1728.968,-0.23499999999999943,100.0,29.519,28.842,44.173,43.677,0.0,0.0,100.0,0.0,0.0,0.0,0.0,3381.875,3201.1,4225.125,4268.8,304.5606666666667,304.6236666666667,314.6385,314.304,22.1743,20.7538,22.1547,21.6647,314.999998,314.999998,324.999988,324.999988,99.5607,99.50811666666667,99.56977142857143,99.55021428571429,0.06999999999999984,-0.07533333333333325,-0.127,0.09116666666666684,-0.051666666666669414,-0.03714285714285381,1.4825,1.4765000000000001,39.589,30.711,39.467,36.403999999999996,56.528,36.0865,60.396,53.7355,54.363,35.074,58.911,51.9885,53.42,34.5385,58.759,51.36033333333333,-0.10649999999999993,-0.06099999999999994,0.09852000000000001,0.11272000000000001,0.0,218.005,217.97,214.63666666666666,214.63666666666666,0.0,0.0
31,0.0,0.0,0.0,1.0,1.0,0.0,0.0,1.0,0.0,100.0,1.0,1.1856,26.0,0.0,0.0,0.0,59.999996,0.0,26.0,26.0,26.0,26.0,-0.027888888888888852,0.2590000000000001,0.001825,291.016,-2.7493,-2.71145,-1.60805,-1.5274,-170.81,215.85250000000002,190.306375,0.0,0.0,0.0,0.0,0.06256666666666655,-5.498166666666667,-5.498166666666667,-0.5881000000000001,-0.526,-0.026250000000000107,-0.843,69.762,-0.0189,-0.21825,-0.1039999999999992,100.0,1.0,1.0,214.93333333333334,0.0,0.0,0.0,0.0,0.0,0.0,0.0,9110.2,0.0,55.0,5.0,251.11666666666667,1.0,0.0,0.0,0.0,0.0,0.0,1.0,0.0,1.5539999999999985,1.5539999999999985,0.0,0.0,1.0,55.0,616.79921,10000.0,85.000001,85.000001,85.000001,85.000001,395.0,0.0,0.0,0.0,1.0,333.33500000000004,51.559,51.559,45.501999999999995,45.501999999999995,34.0,-25.255,23.251666666666665,-33.94,28.8,0.0,1728.917,-0.2699999999999996,100.0,29.068,28.990000000000002,44.696,44.476,0.0,0.0,100.0,0.0,0.0,0.0,0.0,3173.625,3043.6,4485.25,4208.3,305.51433333333335,304.9816666666667,314.0515,314.38875,22.1836,20.7594,22.1653,21.674,314.999998,314.999998,324.999988,324.999988,99.5607,99.50811666666667,99.56992857142858,99.55037142857142,0.06875000000000009,-0.08066666666666666,-0.12816666666666665,0.09883333333333333,-0.036666666666668846,-0.027142857142855803,1.439,1.4304999999999999,39.647,30.746499999999997,39.533,36.4625,56.513,36.1255,60.4355,53.796,54.349000000000004,35.1105,58.948,52.047,53.405,34.573499999999996,58.793,51.41733333333333,-0.10499999999999998,-0.0645,0.106145,0.10968000000000001,0.0,218.35500000000002,218.35500000000002,214.93333333333334,214.93333333333334,0.0,0.0
32,0.0,0.0,0.0,1.0,1.0,0.0,0.0,1.0,0.0,100.0,1.0,1.1856,26.0,0.0,0.0,0.0,59.999996,0.0,26.0,26.0,26.0,26.0,-0.025111111111111084,0.2591000000000001,-0.062025000000000004,291.336,-2.6824,-2.71925,-1.6338,-1.5349,-167.25,215.8375,190.280875,0.0,0.0,0.0,0.0,0.06463333333333332,-5.498166666666667,-5.498166666666667,-0.6078,0.1080000000000001,-0.046250000000000124,0.124,69.888,-0.0076,-0.229975,-0.14999999999999947,100.0,1.0,1.0,215.49,0.0,0.0,0.0,0.0,0.0,0.0,0.0,9133.9,0.0,55.0,5.0,251.57,0.0,0.0,0.0,0.0,0.0,0.0,1.0,0.0,1.6050000000000004,1.6050000000000004,0.0,0.0,0.0,55.0,616.79921,10000.0,85.000001,85.000001,85.000001,85.000001,395.0,0.0,0.0,0.0,1.0,166.665,51.315,51.315,46.692,46.692,34.0,-24.3175,25.383333333333333,-29.89,28.96,0.0,1728.867,-0.3049999999999997,100.0,29.155,28.881999999999998,44.4,44.178,0.0,0.0,100.0,0.0,0.0,0.0,0.0,3223.875,3163.1,4187.25,4172.3,305.095,304.83566666666667,314.833,314.72525,22.1929,20.7651,22.1756,21.6831,314.999998,314.999998,324.999988,324.999988,99.56072857142857,99.50813333333333,99.57007142857142,99.55051428571429,0.09350000000000014,-0.05133333333333323,-0.10533333333333339,0.11949999999999994,-0.046666666666666856,-0.04571428571428271,1.532,1.53,39.705,30.782,39.597,36.5195,56.498999999999995,36.1655,60.4695,53.8525,54.336,35.1475,58.980000000000004,52.1015,53.391,34.609,58.8215,51.470666666666666,-0.10849999999999993,-0.05950000000000011,0.09848000000000001,0.11090000000000001,0.0,218.76,218.765,215.49,215.49,0.0,0.0
33,0.0,0.0,0.0,1.0,1.0,0.0,0.0,1.0,0.0,100.0,1.0,1.1856,26.0,0.0,0.0,0.0,59.999996,0.0,26.0,26.0,26.0,26.0,-0.0010000000000000009,0.26380000000000003,-0.054175,291.473,-2.695,-2.70805,-1.5963500000000002,-1.6111,-163.89999999999998,215.8225,190.255875,0.0,0.0,0.0,0.0,0.06656666666666655,-5.498166666666667,-5.498166666666667,-0.6114,-0.29866666666666664,-0.03725000000000023,1.327,70.011,0.0006000000000000001,-0.2159,-0.17799999999999905,100.0,1.0,1.0,215.78333333333333,0.0,0.0,0.0,0.0,0.0,0.0,0.0,9146.2,0.0,55.0,5.0,252.01333333333332,1.0,0.0,0.0,0.0,0.0,0.0,1.0,0.0,1.6529999999999987,1.6529999999999987,0.0,0.0,1.0,55.0,616.79921,10000.0,85.000001,85.000001,85.000001,85.000001,395.0,0.0,0.0,0.0,1.0,333.33500000000004,51.894999999999996,51.894999999999996,46.509,46.509,34.0,-23.1375,24.75,-30.269999999999996,31.3725,0.0,1728.817,-0.3550000000000004,100.0,28.942,28.612000000000002,44.348,44.201,0.0,0.0,100.0,0.0,0.0,0.0,0.0,3070.625,3084.5,4243.5,4293.3,305.59133333333335,305.08933333333334,314.61475,314.3555,22.2015,20.7702,22.185299999999998,21.6918,314.999998,314.999998,324.999988,324.999988,99.56072857142857,99.50813333333333,99.57022857142857,99.55067142857143,0.09125000000000005,-0.047666666666666746,-0.10733333333333339,0.11933333333333329,-0.01666666666666572,-0.06285714285714761,1.4885000000000002,1.482,39.76,30.814,39.658,36.573499999999996,56.485,36.201,60.5045,53.9105,54.323,35.1805,59.013,52.1575,53.376999999999995,34.641,58.8515,51.525,-0.10949999999999993,-0.05400000000000005,0.10737000000000001,0.10448500000000001,0.0,219.12,219.14,215.78333333333333,215.78333333333333,0.0,0.0
34,0.0,0.0,0.0,1.0,1.0,0.0,0.0,1.0,0.0,100.0,1.0,1.1856,26.0,0.0,0.0,0.0,59.999996,0.0,26.0,26.0,26.0,26.0,0.015333333333333421,0.26870000000000016,-0.072425,291.733,-2.7328,-2.6238,-1.63365,-1.5685,-160.32,215.805,190.228,0.0,0.0,0.0,0.0,0.06866666666666654,-5.498166666666667,-5.498166666666667,-0.6405000000000001,-0.8063333333333333,-0.005625000000000213,-0.13800000000000012,70.139,0.0114,-0.22395,-0.22599999999999998,100.0,1.0,1.0,216.20666666666668,0.0,0.0,0.0,0.0,0.0,0.0,0.0,9164.2,0.0,55.0,5.0,252.47666666666666,0.0,0.0,0.0,0.0,0.0,0.0,1.0,0.0,1.7040000000000006,1.7040000000000006,0.0,0.0,0.0,55.0,616.79921,10000.0,85.000001,85.000001,85.000001,85.000001,395.0,0.0,0.0,0.0,1.0,166.665,51.987,51.987,47.379,47.379,34.0,-24.365,23.605,-29.119999999999997,29.9175,0.0,1728.767,-0.3149999999999995,100.0,28.487000000000002,28.409,43.992000000000004,44.362,0.0,0.0,100.0,0.0,0.0,0.0,0.0,3199.0,3032.2,4086.0,4189.4,305.192,305.189,315.035,314.50125,22.2106,20.7757,22.1955,21.7009,314.999998,314.999998,324.999988,324.999988,99.56074285714286,99.50813333333333,99.57037142857143,99.5508,0.09799999999999986,-0.046333333333333115,-0.10449999999999993,0.11933333333333329,-0.045000000000001705,-0.04999999999999716,1.5140000000000002,1.506,39.816,30.848,39.722,36.631,56.471000000000004,36.2345,60.5355,53.9655,54.309,35.2115,59.0415,52.210499999999996,53.363,34.670500000000004,58.876999999999995,51.577,-0.10649999999999993,-0.050999999999999934,0.10859500000000001,0.10574000000000001,0.0,219.515,219.515,216.20666666666668,216.20666666666668,0.0,0.0
35,0.0,0.0,0.0,1.0,1.0,0.0,0.0,1.0,0.0,100.0,1.0,1.1856,26.0,0.0,0.0,0.0,59.999996,0.0,26.0,26.0,26.0,26.0,0.011222222222222245,0.24040000000000017,-0.044225,291.794,-2.7135,-2.6298,-1.6168,-1.5231,-156.53,215.79000000000002,190.196375,0.0,0.0,0.0,0.0,0.07086666666666652,-5.498166666666667,-5.498166666666667,-0.6822,-0.2743333333333333,-0.01725000000000021,-0.992,70.273,0.021500000000000002,-0.22870000000000001,-0.2779999999999996,100.0,1.0,1.0,216.7,0.0,0.0,0.0,0.0,0.0,0.0,0.0,9185.1,0.0,55.0,5.0,252.96,1.0,0.0,0.0,0.0,0.0,0.0,1.0,0.0,1.7579999999999991,1.7579999999999991,0.0,0.0,1.0,55.0,616.79921,10000.0,85.000001,85.000001,85.000001,85.000001,395.0,0.0,0.0,0.0,1.0,166.665,51.650999999999996,51.650999999999996,46.89,46.89,34.0,-23.919999999999998,26.371666666666666,-27.996666666666663,27.9725,0.0,1728.714,-0.26500000000000057,100.0,28.296,28.728,43.772,43.883,0.0,0.0,100.0,0.0,0.0,0.0,0.0,3183.5,3291.6,4050.625,3974.0,305.366,304.32666666666665,315.07525,315.08875,22.2201,20.7817,22.2063,21.7105,314.999998,314.999998,324.999988,324.999988,99.56075714285714,99.50813333333333,99.57052857142857,99.55095714285714,0.09750000000000014,-0.04033333333333311,-0.09433333333333338,0.1333333333333333,-0.03833333333332689,-0.057142857142849834,1.5499999999999998,1.532,39.875,30.886,39.789,36.6905,56.453,36.274,60.57,54.0235,54.293,35.2485,59.074,52.2665,53.345,34.706,58.906,51.63133333333333,-0.10350000000000004,-0.05950000000000011,0.11211000000000002,0.10573500000000001,0.0,219.91500000000002,219.94,216.7,216.7,0.0,0.0
36,0.0,0.0,0.0,1.0,1.0,0.0,0.0,1.0,0.0,100.0,1.0,1.1856,26.0,0.0,0.0,0.0,59.999996,0.0,26.0,26.0,26.0,26.0,0.026111111111111196,0.2630000000000001,0.036525,290.848,-2.6422,-2.66305,-1.5674000000000001,-1.5768,-153.15,215.775,190.16675,0.0,0.0,0.0,0.0,0.0728333333333333,-5.498166666666667,-5.498166666666667,-0.6628000000000001,0.2913333333333332,-0.053999999999999826,-1.238,70.396,0.025400000000000002,-0.199825,-0.1459999999999999,100.0,1.0,1.0,216.84333333333333,0.0,0.0,0.0,0.0,0.0,0.0,0.0,9191.2,0.0,55.0,5.0,253.4,0.0,0.0,0.0,0.0,0.0,0.0,1.0,0.0,1.806000000000001,1.806000000000001,0.0,0.0,0.0,55.0,616.79921,10000.0,85.000001,85.000001,85.000001,85.000001,395.0,0.0,0.0,0.0,1.0,166.665,51.224000000000004,51.224000000000004,46.249,46.249,34.0,-23.77,25.189999999999998,-30.636666666666663,34.2,0.0,1728.666,-0.1850000000000005,100.0,28.863,29.043,43.921,44.247,0.0,0.0,100.0,0.0,0.0,0.0,0.0,3270.5,3132.8,4477.375,4502.1,304.91833333333335,304.8066666666667,314.109,313.80175,22.2287,20.7872,22.216,21.7192,314.999998,314.999998,324.999988,324.999988,99.56077142857143,99.50815,99.57067142857143,99.5511,0.1070000000000002,-0.04133333333333322,-0.08416666666666661,0.13949999999999996,-0.051666666666669414,-0.028571428571432023,1.4545000000000003,1.4304999999999999,39.93,30.92,39.85,36.745,56.441,36.3105,60.6035,54.079,54.282,35.2825,59.105000000000004,52.32,53.333,34.739,58.934,51.68366666666667,-0.09950000000000003,-0.06800000000000006,0.10771000000000001,0.10892500000000001,0.0,220.32999999999998,220.34,216.84333333333333,216.84333333333333,0.0,0.0
