,ABS Active,ABS Enabled,AID Allow Tire Blankets,AID Auto Blip,AID Auto Clutch,AID Auto Shift,AID Fuel Rate,AID Ideal Line,AID Mech Damage,AID Stability,AID Tire Wear Rate,Air Density,Air Temp,Ballast,Best Lap Delta,Best Lap Time,Brake Bias,Brake Pos,Brake Temp FL,Brake Temp FR,Brake Temp RL,Brake Temp RR,CG Accel Lateral,CG Accel Longitudinal,CG Accel Vertical,CG Height,Camber FL,Camber FR,Camber RL,Camber RR,Car Coord X,Car Coord Y,Car Coord Z,Car Damage Front,Car Damage Left,Car Damage Rear,Car Damage Right,Car Pos Norm,Caster FL,Caster FR,Chassis Pitch Angle,Chassis Pitch Rate,Chassis Roll Angle,Chassis Roll Rate,Chassis Velocity X,Chassis Velocity Y,Chassis Velocity Z,Chassis Yaw Rate,Clutch Pos,DRS Active,DRS Available,Drive Train Speed,ERS Heat Charging,ERS Is Charging,ERS Max Energy,ERS Power Level,ERS Recovery Level,Engine Brake Setting,Engine Limiter,Engine RPM,Flags,Fuel Level,Gear,Ground Speed,HR Sample Clock,In Pit,KERS Charge,KERS Deployed Energy,KERS Input,KERS Max Energy,LR Sample Clock,Lap Invalidated,Lap Time,Lap Time2,Last Lap Time,Last Sector Time,MR Sample Clock,Max Fuel,Max Power,Max RPM,Max Sus Travel FL,Max Sus Travel FR,Max Sus Travel RL,Max Sus Travel RR,Max Torque,Max Turbo Boost,Num Tires Off Track,Penalties Enabled,Position,Raw Data Sample Rate,Ride Height FL,Ride Height FR,Ride Height RL,Ride Height RR,Road Temp,Self Align Torque FL,Self Align Torque FR,Self Align Torque RL,Self Align Torque RR,Session Lap Count,Session Time Left,Steering Angle,Surface Grip,Suspension Travel FL,Suspension Travel FR,Suspension Travel RL,Suspension Travel RR,TC Active,TC Enabled,Throttle Pos,Tire Dirt Level FL,Tire Dirt Level FR,Tire Dirt Level RL,Tire Dirt Level RR,Tire Load FL,Tire Load FR,Tire Load RL,Tire Load RR,Tire Loaded Radius FL,Tire Loaded Radius FR,Tire Loaded Radius RL,Tire Loaded Radius RR,Tire Pressure FL,Tire Pressure FR,Tire Pressure RL,Tire Pressure RR,Tire Radius FL,Tire Radius FR,Tire Radius RL,Tire Radius RR,Tire Rubber Grip FL,Tire Rubber Grip FR,Tire Rubber Grip RL,Tire Rubber Grip RR,Tire Slip Angle FL,Tire Slip Angle FR,Tire Slip Angle RL,Tire Slip Angle RR,Tire Slip Ratio FL,Tire Slip Ratio FR,Tire Slip Ratio RL,Tire Slip Ratio RR,Tire Temp Core FL,Tire Temp Core FR,Tire Temp Core RL,Tire Temp Core RR,Tire Temp Inner FL,Tire Temp Inner FR,Tire Temp Inner RL,Tire Temp Inner RR,Tire Temp Middle FL,Tire Temp Middle FR,Tire Temp Middle RL,Tire Temp Middle RR,Tire Temp Outer FL,Tire Temp Outer FR,Tire Temp Outer RL,Tire Temp Outer RR,Toe In FL,Toe In FR,Toe In RL,Toe In RR,Turbo Boost,Wheel Angular Speed FL,Wheel Angular Speed FR,Wheel Angular Speed RL,Wheel Angular Speed RR,Wind Direction,Wind Speed
0,0.0,0.0,0.0,1.0,1.0,0.0,0.0,1.0,0.0,100.0,1.0,1.1856,26.0,0.0,0.0,0.0,59.99999,0.0,26.0,26.0,26.0,26.0,-0.06022222222222218,0.30990000000000006,0.06263333333333335,294.022,-2.72365,-2.6532999999999998,-1.521,-1.5528,-275.66,216.29000000000002,190.9875,0.0,0.0,0.0,0.0,0.0016,-5.498166666666667,-5.498166666666667,-0.5478000000000001,1.3376666666666668,-0.0024999999999999467,-0.4690000000000003,65.465,-0.029900000000000003,-0.21355000000000002,0.927999999999999,100.0,1.0,1.0,202.11666666666667,0.0,0.0,0.0,0.0,0.0,0.0,0.0,8567.0,0.0,55.0,5.0,235.64,0.0,0.0,0.0,0.0,0.0,0.0,0.0,0.0,0.0030000000000001137,0.0030000000000001137,0.0,0.0,0.0,55.0,616.79921,10000.0,85.0,85.0,85.0,85.0,395.0,0.0,0.0,0.0,1.0,20.0,52.811,52.811,49.576,49.576,34.0,-25.73,24.287999999999997,-29.763333333333332,25.4675,0.0,1783.661,0.7300000000000004,100.0,27.492,26.991,40.479,40.559,0.0,0.0,100.0,0.0,0.0,0.0,0.0,2969.0,3384.5,4113.555555555556,4026.9,305.803,304.0795,314.82125,314.80775,21.788,20.516,21.7602,21.3061,314.99999,314.99999,324.99998,324.99998,99.55935714285714,99.50726666666667,99.56451428571428,99.54485714285714,0.006750000000000256,-0.10233333333333317,-0.14716666666666656,0.0728333333333333,-0.06666666666666998,-0.060000000000002274,1.542,1.584,37.175,29.225,37.001000000000005,34.163,56.427,34.5025,58.8315,51.4745,54.328,33.661500000000004,57.465,49.843,53.486999999999995,33.212,57.4265,49.272999999999996,-0.019499999999999962,-0.131,0.10790000000000001,0.10386000000000001,0.0,205.195,205.075,202.11666666666667,202.11666666666667,0.0,0.0
1,0.0,0.0,0.0,1.0,1.0,0.0,0.0,1.0,0.0,100.0,1.0,1.1856,26.0,0.0,0.0,0.0,59.999996,0.0,26.0,26.0,26.0,26.0,-0.10999999999999999,0.2865,-0.011233333333333333,293.106,-2.63945,-2.7625,-1.5303,-1.5461,-272.12,216.285,190.96625,0.0,0.0,0.0,0.0,0.0036666666666666666,-5.498166666666667,-5.498166666666667,-0.5012,-0.7553333333333334,-0.05074999999999985,-0.3600000000000003,65.628,-0.0472,-0.20285,1.3420000000000005,100.0,1.0,1.0,202.31666666666666,0.0,0.0,0.0,0.0,0.0,0.0,0.0,8575.5,0.0,55.0,5.0,236.23000000000002,1.0,0.0,0.0,0.0,0.0,0.0,0.0,0.0,0.05699999999999861,0.05699999999999861,0.0,0.0,1.0,55.0,616.79921,10000.0,85.000001,85.000001,85.000001,85.000001,395.0,0.0,0.0,0.0,1.0,166.665,53.558,53.558,48.462,48.462,34.0,-26.255,18.632,-33.18333333333333,29.5325,0.0,1783.609,0.870000000000001,100.0,27.612000000000002,26.982,42.650999999999996,41.724000000000004,0.0,0.0,100.0,0.0,0.0,0.0,0.0,3033.714285714286,2721.6,4242.333333333333,4701.7,305.52,306.17775,314.42,313.1365,21.7985,20.5214,21.7715,21.3157,314.999998,314.999998,324.999988,324.999988,99.55937142857142,99.50728333333333,99.56467142857143,99.54501428571429,-0.004999999999999893,-0.1306666666666667,-0.17499999999999993,0.045500000000000096,-0.015000000000000568,-0.045000000000001705,1.4195,1.4535,37.241,29.258666666666667,37.072,34.2235,56.409,34.545,58.879999999999995,51.544,54.311,33.7005,57.5105,49.9095,53.469,33.25,57.469,49.33833333333333,-0.0010000000000000009,-0.139,0.10467000000000001,0.10555500000000001,0.0,205.615,205.515,202.31666666666666,202.31666666666666,0.0,0.0
2,0.0,0.0,0.0,1.0,1.0,0.0,0.0,1.0,0.0,100.0,1.0,1.1856,26.0,0.0,0.0,0.0,59.999996,0.0,26.0,26.0,26.0,26.0,-0.14600000000000002,0.28669999999999995,-0.08373333333333334,293.73199999999997,-2.5968999999999998,-2.7983000000000002,-1.4865,-1.611,-268.96,216.2775,190.9485,0.0,0.0,0.0,0.0,0.0055000000000000005,-5.498166666666667,-5.498166666666667,-0.5499,0.09933333333333333,-0.0495000000000001,2.4640000000000004,65.762,-0.0675,-0.25270000000000004,1.572000000000001,100.0,1.0,1.0,203.18666666666667,0.0,0.0,0.0,0.0,0.0,0.0,0.0,8612.3,0.0,55.0,5.0,236.71333333333334,0.0,0.0,0.0,0.0,0.0,0.0,0.0,0.0,0.10500000000000043,0.10500000000000043,0.0,0.0,0.0,55.0,616.79921,10000.0,85.000001,85.000001,85.000001,85.000001,395.0,0.0,0.0,0.0,1.0,166.665,52.46,52.46,50.217,50.217,34.0,-29.5,20.194,-29.10333333333333,20.425,0.0,1783.56,0.75,100.0,28.381,26.951999999999998,42.495000000000005,41.325,0.0,0.0,100.0,0.0,0.0,0.0,0.0,3315.4285714285716,2946.9,3779.222222222222,3674.9,304.5805,305.51375,315.5635,315.80675,21.8082,20.5261,21.7813,21.323900000000002,314.999998,314.999998,324.999988,324.999988,99.55937142857142,99.5073,99.5648,99.54515714285715,-0.019749999999999934,-0.1436666666666666,-0.21266666666666656,0.015333333333333421,-0.05833333333333002,-0.03499999999999659,1.6320000000000001,1.687,37.301,29.288,37.132999999999996,34.2745,56.397,34.5815,58.916,51.597,54.299,33.7345,57.544,49.960499999999996,53.457,33.282,57.5,49.388333333333335,-0.01200000000000001,-0.13749999999999996,0.10971000000000002,0.10797000000000001,0.0,206.085,205.905,203.18666666666667,203.18666666666667,0.0,0.0
3,0.0,0.0,0.0,1.0,1.0,0.0,0.0,1.0,0.0,100.0,1.0,1.1856,26.0,0.0,0.0,0.0,59.999996,0.0,26.0,26.0,26.0,26.0,-0.12722222222222213,0.31590000000000007,0.07176666666666667,293.442,-2.72885,-2.6924,-1.512,-1.5902,-265.8,216.265,190.93,0.0,0.0,0.0,0.0,0.007333333333333333,-5.498166666666667,-5.498166666666667,-0.51,0.403,-0.007750000000000146,0.3810000000000002,65.905,-0.0833,-0.200025,1.2260000000000009,100.0,1.0,1.0,203.33333333333331,0.0,0.0,0.0,0.0,0.0,0.0,0.0,8618.5,0.0,55.0,5.0,237.2266666666667,1.0,0.0,0.0,0.0,0.0,0.0,0.0,0.0,0.1529999999999987,0.1529999999999987,0.0,0.0,1.0,55.0,616.79921,10000.0,85.000001,85.000001,85.000001,85.000001,395.0,0.0,0.0,0.0,1.0,333.33500000000004,53.513,53.513,48.172,48.172,34.0,-25.435,18.698,-34.67,25.7725,0.0,1783.511,0.5749999999999993,100.0,27.93,26.931,42.413,41.333,0.0,0.0,100.0,0.0,0.0,0.0,0.0,2860.142857142857,2905.1,4281.666666666667,4260.8,306.037,305.5965,314.33925,314.308,21.8174,20.531,21.791,21.3323,314.999998,314.999998,324.999988,324.999988,99.55938571428571,99.50731666666667,99.56492857142857,99.54528571428571,-0.010000000000000009,-0.15133333333333332,-0.20699999999999996,0.03166666666666673,-0.02833333333332888,-0.0833333333333286,1.4845,1.5170000000000001,37.358999999999995,29.318666666666665,37.194,34.326499999999996,56.381,34.6215,58.9535,51.6565,54.284,33.771,57.579,50.0175,53.441,33.317499999999995,57.5325,49.444,-0.03300000000000003,-0.12650000000000006,0.10552,0.11837,0.0,206.5,206.435,203.33333333333331,203.33333333333331,0.0,0.0
4,0.0,0.0,0.0,1.0,1.0,0.0,0.0,1.0,0.0,100.0,1.0,1.1856,26.0,0.0,0.0,0.0,59.999996,0.0,26.0,26.0,26.0,26.0,-0.1476666666666666,0.2892000000000001,-0.04203333333333333,293.701,-2.6586499999999997,-2.746,-1.5265,-1.5977999999999999,-262.24,216.25,190.909125,0.0,0.0,0.0,0.0,0.0094,-5.498166666666667,-5.498166666666667,-0.5462,-0.7536666666666666,-0.07687500000000025,-0.5339999999999998,66.06,-0.08650000000000001,-0.23952500000000002,1.097999999999999,100.0,1.0,1.0,203.96666666666667,0.0,0.0,0.0,0.0,0.0,0.0,0.0,8645.5,0.0,55.0,5.0,237.7866666666667,0.0,0.0,0.0,0.0,0.0,0.0,0.0,0.0,0.20700000000000074,0.20700000000000074,0.0,0.0,0.0,55.0,616.79921,10000.0,85.000001,85.000001,85.000001,85.000001,395.0,0.0,0.0,0.0,1.0,166.665,53.04,53.04,48.935,48.935,34.0,-28.89,20.338,-31.973333333333333,20.945,0.0,1783.458,0.5549999999999997,100.0,27.766,26.718,42.799,41.403999999999996,0.0,0.0,100.0,0.0,0.0,0.0,0.0,3216.857142857143,2988.5,4017.5555555555557,3676.6,305.0665,305.3585,314.95375,315.68525,21.8277,20.5364,21.8021,21.3416,314.999998,314.999998,324.999988,324.999988,99.55938571428571,99.50733333333334,99.56508571428571,99.54542857142857,-0.021499999999999853,-0.1379999999999999,-0.2081666666666666,0.021333333333333426,-0.041666666666671404,-0.046666666666666856,1.5765,1.612,37.423,29.352333333333334,37.263,34.385,56.361999999999995,34.665,58.9985,51.7195,54.266,33.8115,57.621,50.0775,53.422,33.3555,57.5715,49.503,-0.03149999999999997,-0.11650000000000005,0.10985500000000001,0.105925,0.0,206.95,206.86,203.96666666666667,203.96666666666667,0.0,0.0
5,0.0,0.0,0.0,1.0,1.0,0.0,0.0,1.0,0.0,100.0,1.0,1.1856,26.0,0.0,0.0,0.0,59.999996,0.0,26.0,26.0,26.0,26.0,-0.13644444444444448,0.29080000000000017,-0.015366666666666666,293.716,-2.6691,-2.7681,-1.5070000000000001,-1.5855000000000001,-259.07,216.23250000000002,190.89,0.0,0.0,0.0,0.0,0.011266666666666668,-5.498166666666667,-5.498166666666667,-0.536,0.4573333333333333,-0.08050000000000024,1.173,66.19800000000001,-0.0891,-0.21377500000000002,0.9979999999999993,100.0,1.0,1.0,204.31333333333333,0.0,0.0,0.0,0.0,0.0,0.0,0.0,8660.2,0.0,55.0,5.0,238.28333333333333,1.0,0.0,0.0,0.0,0.0,0.0,0.0,0.0,0.254999999999999,0.254999999999999,0.0,0.0,1.0,55.0,616.79921,10000.0,85.000001,85.000001,85.000001,85.000001,395.0,0.0,0.0,0.0,1.0,166.665,53.513,53.513,49.057,49.057,34.0,-27.0525,19.782,-32.626666666666665,23.009999999999998,0.0,1783.41,0.2699999999999996,100.0,27.897,26.605,42.557,41.064,0.0,0.0,100.0,0.0,0.0,0.0,0.0,3083.5714285714284,2837.7,4134.0,4085.1000000000004,305.378,305.868,314.762,314.76225,21.8371,20.5412,21.8119,21.3498,314.999998,314.999998,324.999988,324.999988,99.55938571428571,99.50735,99.56522857142858,99.54555714285715,-0.005249999999999977,-0.1253333333333333,-0.2041666666666666,0.008333333333333304,-0.05666666666667197,-0.054999999999999716,1.5505,1.5705,37.482,29.382333333333335,37.324,34.4365,56.348,34.703,59.036500000000004,51.774,54.253,33.846000000000004,57.6565,50.129999999999995,53.408,33.388999999999996,57.6045,49.554,-0.05799999999999994,-0.08899999999999997,0.097625,0.106855,0.0,207.43,207.32999999999998,204.31333333333333,204.31333333333333,0.0,0.0
6,0.0,0.0,0.0,1.0,1.0,0.0,0.0,1.0,0.0,100.0,1.0,1.1856,26.0,0.0,0.0,0.0,59.999996,0.0,26.0,26.0,26.0,26.0,-0.11866666666666659,0.28300000000000014,0.012266666666666667,293.488,-2.6395,-2.7437,-1.5542,-1.582,-255.89,216.2125,190.870625,0.0,0.0,0.0,0.0,0.0131,-5.498166666666667,-5.498166666666667,-0.5315,0.08933333333333333,-0.06062499999999993,0.8689999999999998,66.338,-0.08410000000000001,-0.214925,0.734,100.0,1.0,1.0,204.72333333333333,0.0,0.0,0.0,0.0,0.0,0.0,0.0,8677.5,0.0,55.0,5.0,238.7866666666667,0.0,0.0,0.0,0.0,0.0,0.0,0.0,0.0,0.3030000000000008,0.3030000000000008,0.0,0.0,0.0,55.0,616.79921,10000.0,85.000001,85.000001,85.000001,85.000001,395.0,0.0,0.0,0.0,1.0,166.665,53.146,53.146,48.828,48.828,34.0,-26.5425,21.15,-32.336666666666666,23.57,0.0,1783.362,0.09499999999999886,100.0,27.82,26.71,42.714,41.442,0.0,0.0,100.0,0.0,0.0,0.0,0.0,3118.857142857143,2998.8,4061.6666666666665,4047.6000000000004,305.2635,305.32575,314.9225,314.846,21.8464,20.546,21.8217,21.3583,314.999998,314.999998,324.999988,324.999988,99.55938571428571,99.50736666666667,99.56535714285714,99.54568571428571,0.009749999999999925,-0.11999999999999988,-0.1988333333333333,0.02400000000000002,-0.03999999999999915,-0.046666666666666856,1.5455,1.5575,37.54,29.412666666666667,37.385999999999996,34.489,56.333,34.741,59.075,51.832499999999996,54.239000000000004,33.881,57.692499999999995,50.186,53.393,33.4225,57.638,49.608666666666664,-0.07399999999999995,-0.08650000000000002,0.10750000000000001,0.1073,0.0,207.81,207.745,204.72333333333333,204.72333333333333,0.0,0.0
7,0.0,0.0,0.0,1.0,1.0,0.0,0.0,1.0,0.0,100.0,1.0,1.1856,26.0,0.0,0.0,0.0,59.999996,0.0,26.0,26.0,26.0,26.0,-0.07844444444444443,0.2936000000000001,0.0179,293.198,-2.6107,-2.7323,-1.5125000000000002,-1.6259000000000001,-252.5,216.19,190.850125,0.0,0.0,0.0,0.0,0.015066666666666666,-5.498166666666667,-5.498166666666667,-0.5347000000000001,-0.014666666666666666,-0.05425000000000013,-0.21699999999999964,66.483,-0.0665,-0.223775,0.4239999999999995,100.0,1.0,1.0,205.14666666666668,0.0,0.0,0.0,0.0,0.0,0.0,0.0,8695.4,0.0,55.0,5.0,239.31,1.0,0.0,0.0,0.0,0.0,0.0,0.0,0.0,0.3539999999999992,0.3539999999999992,0.0,0.0,1.0,55.0,616.79921,10000.0,85.000001,85.000001,85.000001,85.000001,395.0,0.0,0.0,0.0,1.0,333.33500000000004,52.811,52.811,48.843,48.843,34.0,-26.995,21.887999999999998,-31.96333333333333,24.692500000000003,0.0,1783.31,-0.23000000000000043,100.0,27.81,26.909,42.7,41.81,0.0,0.0,100.0,0.0,0.0,0.0,0.0,3302.142857142857,2958.3,4106.333333333333,4028.6000000000004,304.8125,305.28525,314.823,314.74675,21.8563,20.5512,21.8322,21.3672,314.999998,314.999998,324.999988,324.999988,99.55938571428571,99.50736666666667,99.5655,99.54582857142857,0.03100000000000014,-0.09566666666666679,-0.1928333333333333,0.03383333333333338,-0.06499999999999773,-0.046666666666666856,1.536,1.5645,37.602000000000004,29.445,37.451,34.545,56.318,34.7805,59.1155,51.8935,54.224000000000004,33.917500000000004,57.7305,50.2445,53.378,33.457499999999996,57.673,49.666,-0.09099999999999997,-0.056499999999999995,0.109295,0.10101500000000001,0.0,208.265,208.215,205.14666666666668,205.14666666666668,0.0,0.0
8,0.0,0.0,0.0,1.0,1.0,0.0,0.0,1.0,0.0,100.0,1.0,1.1856,26.0,0.0,0.0,0.0,59.999996,0.0,26.0,26.0,26.0,26.0,-0.04399999999999993,0.2925,0.04243333333333334,293.472,-2.69555,-2.7163,-1.4982,-1.5522,-249.1,216.1625,190.829625,0.0,0.0,0.0,0.0,0.017033333333333334,-5.498166666666667,-5.498166666666667,-0.535,-0.5760000000000001,-0.03175000000000017,0.8170000000000002,66.629,-0.0466,-0.213675,-0.09799999999999898,100.0,1.0,1.0,205.54000000000002,0.0,0.0,0.0,0.0,0.0,0.0,0.0,8712.0,0.0,55.0,5.0,239.83666666666667,0.0,0.0,0.0,0.0,0.0,0.0,0.0,0.0,0.40500000000000114,0.40500000000000114,0.0,0.0,0.0,55.0,616.79921,10000.0,85.000001,85.000001,85.000001,85.000001,395.0,0.0,0.0,0.0,1.0,333.33500000000004,53.68,53.68,48.096000000000004,48.096000000000004,34.0,-23.0475,22.764000000000003,-30.049999999999997,27.0275,0.0,1783.258,-0.33999999999999986,100.0,27.51,26.742,42.794,41.849000000000004,0.0,0.0,100.0,0.0,0.0,0.0,0.0,2906.0,3000.0,4129.333333333333,4179.4,305.9945,305.3535,314.66325,314.46425,21.8659,20.5564,21.8427,21.3761,314.999998,314.999998,324.999988,324.999988,99.5594,99.50738333333334,99.56565714285715,99.54597142857143,0.054749999999999854,-0.07400000000000007,-0.14883333333333337,0.07433333333333336,-0.046666666666666856,-0.07499999999999574,1.5085,1.5095,37.662,29.477333333333334,37.516999999999996,34.601,56.301,34.8185,59.156,51.954499999999996,54.208,33.9525,57.768,50.303,53.361000000000004,33.491,57.707499999999996,49.723333333333336,-0.10399999999999998,-0.04249999999999998,0.10097500000000001,0.10231000000000001,0.0,208.685,208.7,205.54000000000002,205.54000000000002,0.0,0.0
9,0.0,0.0,0.0,1.0,1.0,0.0,0.0,1.0,0.0,100.0,1.0,1.1856,26.0,0.0,0.0,0.0,59.999996,0.0,26.0,26.0,26.0,26.0,-0.031888888888888856,0.28890000000000016,0.031200000000000002,293.182,-2.6825,-2.7243,-1.5521,-1.5549,-245.9,216.1375,190.80975,0.0,0.0,0.0,0.0,0.0189,-5.498166666666667,-5.498166666666667,-0.5437000000000001,0.5836666666666667,-0.034499999999999975,0.718,66.763,-0.025900000000000003,-0.2172,-0.18599999999999994,100.0,1.0,1.0,206.09,0.0,0.0,0.0,0.0,0.0,0.0,0.0,8735.4,0.0,55.0,5.0,240.31666666666666,1.0,0.0,0.0,0.0,0.0,0.0,0.0,0.0,0.4529999999999994,0.4529999999999994,0.0,0.0,1.0,55.0,616.79921,10000.0,85.000001,85.000001,85.000001,85.000001,395.0,0.0,0.0,0.0,1.0,333.33500000000004,52.429,52.429,49.21,49.21,34.0,-25.8125,24.619999999999997,-27.793333333333333,26.97,0.0,1783.211,-0.42499999999999893,100.0,27.94,27.169,42.405,41.826,0.0,0.0,100.0,0.0,0.0,0.0,0.0,3292.714285714286,3104.0,3955.3333333333335,4061.8,304.779,304.96325,315.21625,314.81925,21.8751,20.5614,21.8524,21.3845,314.999998,314.999998,324.999988,324.999988,99.55941428571428,99.5074,99.56578571428571,99.5461,0.07224999999999993,-0.055333333333333234,-0.129,0.09616666666666673,-0.03333333333333144,-0.07000000000000028,1.5795000000000001,1.5655000000000001,37.72,29.509,37.577,34.653,56.288,34.8555,59.1905,52.0105,54.196,33.987,57.8005,50.3565,53.348,33.5235,57.737,49.775999999999996,-0.10549999999999993,-0.04150000000000009,0.10989000000000002,0.10416500000000001,0.0,209.10000000000002,209.12,206.09,206.09,0.0,0.0
10,0.0,0.0,0.0,1.0,1.0,0.0,0.0,1.0,0.0,100.0,1.0,1.1856,26.0,0.0,0.0,0.0,59.999996,0.0,26.0,26.0,26.0,26.0,0.006333333333333302,0.2852000000000001,0.0021333333333333334,292.969,-2.6622500000000002,-2.7044,-1.5354999999999999,-1.5341,-242.49,216.11,190.789,0.0,0.0,0.0,0.0,0.020900000000000002,-5.498166666666667,-5.498166666666667,-0.5181,-0.3456666666666667,0.0063750000000000195,0.44099999999999984,66.911,-0.006500000000000001,-0.20700000000000002,-0.44599999999999973,100.0,1.0,1.0,206.31,0.0,0.0,0.0,0.0,0.0,0.0,0.0,8744.8,0.0,55.0,5.0,240.8466666666667,0.0,0.0,0.0,0.0,0.0,0.0,1.0,0.0,0.5040000000000013,0.5040000000000013,0.0,0.0,0.0,55.0,616.79921,10000.0,85.000001,85.000001,85.000001,85.000001,395.0,0.0,0.0,0.0,1.0,333.33500000000004,53.452,53.452,47.623,47.623,34.0,-21.195,22.926,-30.89333333333333,29.125,0.0,1783.16,-0.5949999999999989,100.0,27.722,27.352,42.743,42.688,0.0,0.0,100.0,0.0,0.0,0.0,0.0,2894.4285714285716,2869.6,4332.0,4275.2,306.0695,305.5495,314.2655,314.15875,21.884900000000002,20.5667,21.8629,21.3937,314.999998,314.999998,324.999988,324.999988,99.55941428571428,99.5074,99.56592857142857,99.54624285714286,0.09100000000000019,-0.043333333333333224,-0.12083333333333335,0.09866666666666668,-0.036666666666668846,-0.023333333333326323,1.4755,1.4655,37.78,29.542,37.643,34.710499999999996,56.275,34.891999999999996,59.232,52.0745,54.184,34.0205,57.8395,50.4185,53.335,33.556,57.772999999999996,49.836333333333336,-0.129,-0.025500000000000078,0.109975,0.099515,0.0,209.55,209.555,206.31,206.31,0.0,0.0
11,0.0,0.0,0.0,1.0,1.0,0.0,0.0,1.0,0.0,100.0,1.0,1.1856,26.0,0.0,0.0,0.0,59.999996,0.0,26.0,26.0,26.0,26.0,0.03544444444444439,0.2722,-0.06693333333333334,293.533,-2.70945,-2.684,-1.5929,-1.5213,-239.07999999999998,216.08249999999998,190.768375,0.0,0.0,0.0,0.0,0.022600000000000002,-5.498166666666667,-5.498166666666667,-0.5608000000000001,-0.251,0.03574999999999995,0.391,67.049,0.0122,-0.2376,-0.6299999999999999,100.0,1.0,1.0,207.05,0.0,0.0,0.0,0.0,0.0,0.0,0.0,8776.1,0.0,55.0,5.0,241.35000000000002,1.0,0.0,0.0,0.0,0.0,0.0,1.0,0.0,0.5549999999999997,0.5549999999999997,0.0,0.0,1.0,55.0,616.79921,10000.0,85.000001,85.000001,85.000001,85.000001,395.0,0.0,0.0,0.0,1.0,333.33500000000004,52.841,52.841,49.271,49.271,34.0,-22.12,26.560000000000002,-23.503333333333334,27.065,0.0,1783.108,-0.5749999999999993,100.0,27.529,27.421,42.348,42.585,0.0,0.0,100.0,0.0,0.0,0.0,0.0,2996.714285714286,3186.4,3676.1111111111113,3885.5,305.6795,304.7175,315.91475,315.213,21.8944,20.5721,21.8732,21.4026,314.999998,314.999998,324.999988,324.999988,99.55942857142857,99.5074,99.56605714285715,99.5464,0.10225000000000017,-0.01866666666666661,-0.07966666666666666,0.14000000000000012,-0.03499999999999659,-0.05666666666667197,1.635,1.614,37.84,29.575666666666663,37.707,34.7665,56.26,34.9295,59.266999999999996,52.135,54.169,34.055,57.872,50.4765,53.32,33.5895,57.8025,49.89333333333333,-0.11649999999999994,-0.03200000000000003,0.10074000000000001,0.10564000000000001,0.0,209.94,209.985,207.05,207.05,0.0,0.0
12,0.0,0.0,0.0,1.0,1.0,0.0,0.0,1.0,0.0,100.0,1.0,1.1856,26.0,0.0,0.0,0.0,59.999996,0.0,26.0,26.0,26.0,26.0,0.0584444444444443,0.2864,0.008466666666666667,292.999,-2.75975,-2.6834,-1.5518,-1.5248,-235.86,216.0575,190.747625,0.0,0.0,0.0,0.0,0.025466666666666665,-5.498166666666667,-5.498166666666667,-0.5454,0.296,0.02024999999999988,0.6070000000000002,67.186,0.027600000000000003,-0.20555,-0.7079999999999993,100.0,1.0,1.0,207.25333333333333,0.0,0.0,0.0,0.0,0.0,0.0,0.0,8784.7,0.0,55.0,5.0,241.84,0.0,0.0,0.0,0.0,0.0,0.0,1.0,0.0,0.602999999999998,0.602999999999998,0.0,0.0,0.0,55.0,616.79921,10000.0,85.000001,85.000001,85.000001,85.000001,395.0,0.0,0.0,0.0,1.0,333.33500000000004,52.902,52.902,47.943,47.943,34.0,-21.7925,27.253999999999998,-26.47,31.5975,0.0,1783.061,-0.6649999999999991,100.0,27.435,27.526,42.28,42.459,0.0,0.0,100.0,0.0,0.0,0.0,0.0,3011.0,3190.4,4171.444444444444,4226.7,305.655,304.73825,314.65925,314.415,21.9034,20.5773,21.8829,21.4111,314.999998,314.999998,324.999988,324.999988,99.55944285714286,99.5074,99.5662,99.54652857142857,0.12325000000000008,-0.0020000000000000018,-0.0631666666666666,0.1625000000000001,-0.026666666666670835,-0.04999999999999716,1.532,1.5105,37.896,29.608,37.768,34.819,56.248000000000005,34.965,59.3035,52.192499999999995,54.157,34.088,57.9055,50.5315,53.307,33.621,57.8335,49.94766666666666,-0.124,-0.026499999999999968,0.10676000000000001,0.11175000000000002,0.0,210.38,210.445,207.25333333333333,207.25333333333333,0.0,0.0
13,0.0,0.0,0.0,1.0,1.0,0.0,0.0,1.0,0.0,100.0,1.0,1.1856,26.0,0.0,0.0,0.0,59.999996,0.0,26.0,26.0,26.0,26.0,0.07377777777777794,0.29000000000000004,0.03216666666666667,292.603,-2.73925,-2.6732,-1.6240999999999999,-1.5388000000000002,-232.43,216.035,190.725875,0.0,0.0,0.0,0.0,0.02673333333333333,-5.498166666666667,-5.498166666666667,-0.5386000000000001,-0.07,0.02112500000000006,-0.5419999999999998,67.32900000000001,0.0352,-0.21365,-0.7839999999999998,100.0,1.0,1.0,207.63666666666666,0.0,0.0,0.0,0.0,0.0,0.0,0.0,8801.0,0.0,55.0,5.0,242.35666666666668,1.0,0.0,0.0,0.0,0.0,0.0,1.0,0.0,0.6539999999999999,0.6539999999999999,0.0,0.0,1.0,55.0,616.79921,10000.0,85.000001,85.000001,85.000001,85.000001,395.0,0.0,0.0,0.0,1.0,333.33500000000004,52.551,52.551,47.928,47.928,34.0,-21.7375,26.811999999999998,-28.686666666666667,32.010000000000005,0.0,1783.011,-0.8550000000000004,100.0,27.599,27.894,42.428,43.05,0.0,0.0,100.0,0.0,0.0,0.0,0.0,3155.714285714286,3080.1,4226.444444444444,4280.0,305.372,304.8825,314.6055,314.17825,21.9131,20.5828,21.8934,21.4202,314.999998,314.999998,324.999988,324.999988,99.55945714285714,99.5074,99.56634285714286,99.54667142857143,0.14400000000000013,0.010000000000000231,-0.0771666666666666,0.15200000000000014,-0.03999999999999915,-0.03333333333333144,1.506,1.486,37.957,29.642666666666663,37.834,34.8765,56.236999999999995,35.003,59.3425,52.2565,54.147,34.123,57.942,50.5935,53.296,33.6545,57.867,50.007999999999996,-0.14849999999999997,-0.0024999999999999467,0.10928500000000001,0.10963,0.0,210.815,210.86,207.63666666666666,207.63666666666666,0.0,0.0
14,0.0,0.0,0.0,1.0,1.0,0.0,0.0,1.0,0.0,100.0,1.0,1.1856,26.0,0.0,0.0,0.0,59.999996,0.0,26.0,26.0,26.0,26.0,0.0992222222222221,0.27470000000000017,-0.0108,292.831,-2.73705,-2.6123000000000003,-1.6011000000000002,-1.5097,-228.79,216.01,190.703375,0.0,0.0,0.0,0.0,0.02886666666666667,-5.498166666666667,-5.498166666666667,-0.549,-0.16866666666666666,0.05237500000000006,-0.07599999999999962,67.477,0.0487,-0.228225,-0.9779999999999998,100.0,1.0,1.0,208.18,0.0,0.0,0.0,0.0,0.0,0.0,0.0,8823.9,0.0,55.0,5.0,242.89,0.0,0.0,0.0,0.0,0.0,0.0,1.0,0.0,0.7079999999999984,0.7079999999999984,0.0,0.0,0.0,55.0,616.79921,10000.0,85.000001,85.000001,85.000001,85.000001,395.0,0.0,0.0,0.0,1.0,166.665,52.612,52.612,48.141,48.141,34.0,-20.4275,27.474,-25.259999999999998,31.31,0.0,1782.956,-0.9499999999999993,100.0,27.508,27.986,42.397999999999996,43.262,0.0,0.0,100.0,0.0,0.0,0.0,0.0,3028.142857142857,3173.4,3981.0,4163.1,305.745,304.61375,315.16,314.48825,21.9233,20.5887,21.9044,21.4299,314.999998,314.999998,324.999988,324.999988,99.55948571428571,99.50741666666667,99.5665,99.54682857142858,0.15074999999999994,0.016666666666666607,-0.05716666666666659,0.1708333333333334,-0.04333333333332945,-0.054999999999999716,1.552,1.5250000000000001,38.021,29.679000000000002,37.903,34.9365,56.226,35.043,59.382,52.323499999999996,54.135999999999996,34.1605,57.9785,50.6575,53.284,33.69,57.9,50.071,-0.15200000000000002,0.0,0.10385000000000001,0.11361,0.0,211.28,211.34,208.18,208.18,0.0,0.0
15,0.0,0.0,0.0,1.0,1.0,0.0,0.0,1.0,0.0,100.0,1.0,1.1856,26.0,0.0,0.0,0.0,59.999996,0.0,26.0,26.0,26.0,26.0,0.10188888888888892,0.2933000000000001,0.009966666666666667,292.862,-2.709,-2.5752,-1.6301999999999999,-1.4528,-225.75,215.9925,190.68425,0.0,0.0,0.0,0.0,0.030633333333333332,-5.498166666666667,-5.498166666666667,-0.5403,0.312,0.08187499999999992,1.0389999999999997,67.601,0.0641,-0.2101,-1.21,100.0,1.0,1.0,208.54333333333335,0.0,0.0,0.0,0.0,0.0,0.0,0.0,8839.4,0.0,55.0,5.0,243.33333333333334,1.0,0.0,0.0,0.0,0.0,0.0,1.0,0.0,0.7530000000000001,0.7530000000000001,0.0,0.0,1.0,55.0,616.79921,10000.0,85.000001,85.000001,85.000001,85.000001,395.0,0.0,0.0,0.0,1.0,166.665,52.795,52.795,48.203,48.203,34.0,-17.9375,28.244,-24.546666666666663,33.355000000000004,0.0,1782.912,-0.9649999999999999,100.0,27.704,27.881,42.255,43.217,0.0,0.0,100.0,0.0,0.0,0.0,0.0,2803.857142857143,3231.0,3945.222222222222,4379.6,306.196,304.606,315.229,314.0685,21.9317,20.5936,21.9135,21.4379,314.999998,314.999998,324.999988,324.999988,99.5595,99.50741666666667,99.56661428571428,99.54695714285714,0.16849999999999987,0.034666666666666845,-0.04033333333333333,0.18933333333333335,-0.045000000000001705,-0.051666666666669414,1.555,1.516,38.073,29.709666666666664,37.96,34.987,56.217,35.077,59.4135,52.379,54.126999999999995,34.192,58.0075,50.7115,53.274,33.7205,57.9265,50.123666666666665,-0.14949999999999997,0.0010000000000000009,0.10755500000000001,0.10764000000000001,0.0,211.67000000000002,211.74,208.54333333333335,208.54333333333335,0.0,0.0
16,0.0,0.0,0.0,1.0,1.0,0.0,0.0,1.0,0.0,100.0,1.0,1.1856,26.0,0.0,0.0,0.0,59.999996,0.0,26.0,26.0,26.0,26.0,0.13777777777777778,0.26900000000000013,-0.0528,292.877,-2.8056,-2.609,-1.6004,-1.4527,-222.3,215.9725,190.66225,0.0,0.0,0.0,0.0,0.032633333333333334,-5.498166666666667,-5.498166666666667,-0.56,-0.729,0.06774999999999998,-0.9180000000000001,67.741,0.0775,-0.22512500000000002,-1.194,100.0,1.0,1.0,208.97,0.0,0.0,0.0,0.0,0.0,0.0,0.0,8857.5,0.0,55.0,5.0,243.84,0.0,0.0,0.0,0.0,0.0,0.0,1.0,0.0,0.8039999999999985,0.8039999999999985,0.0,0.0,0.0,55.0,616.79921,10000.0,85.000001,85.000001,85.000001,85.000001,395.0,0.0,0.0,0.0,1.0,333.33500000000004,52.795,52.795,47.897,47.897,34.0,-20.189999999999998,28.144,-23.496666666666666,32.3425,0.0,1782.86,-0.879999999999999,100.0,27.2,28.121000000000002,42.451,43.434,0.0,0.0,100.0,0.0,0.0,0.0,0.0,2989.142857142857,3176.2,3970.5555555555557,4133.7,305.958,304.5985,315.206,314.5795,21.941,20.5992,21.924,21.4471,314.999998,314.999998,324.999988,324.999988,99.55951428571429,99.50743333333334,99.56677142857143,99.5471,0.1612499999999999,0.03266666666666662,-0.025499999999999967,0.21050000000000013,-0.041666666666671404,-0.051666666666669414,1.5695000000000001,1.5075,38.131,29.744666666666667,38.025,35.044,56.203,35.1165,59.452,52.4415,54.114000000000004,34.228,58.0435,50.7715,53.26,33.7555,57.9595,50.183,-0.14249999999999996,-0.00550000000000006,0.11141500000000001,0.10890500000000002,0.0,212.05,212.15,208.97,208.97,0.0,0.0
17,0.0,0.0,0.0,1.0,1.0,0.0,0.0,1.0,0.0,100.0,1.0,1.1856,26.0,0.0,0.0,0.0,59.999996,0.0,26.0,26.0,26.0,26.0,0.11555555555555563,0.28700000000000014,-0.025366666666666666,292.557,-2.76615,-2.5644,-1.6409,-1.4732,-218.84,215.95749999999998,190.63975,0.0,0.0,0.0,0.0,0.034633333333333335,-5.498166666666667,-5.498166666666667,-0.549,0.578,0.049250000000000016,0.6879999999999997,67.88,0.0784,-0.20625000000000002,-1.1439999999999992,100.0,1.0,1.0,209.37,0.0,0.0,0.0,0.0,0.0,0.0,0.0,8874.4,0.0,55.0,5.0,244.34,1.0,0.0,0.0,0.0,0.0,0.0,1.0,0.0,0.8550000000000004,0.8550000000000004,0.0,0.0,1.0,55.0,616.79921,10000.0,85.000001,85.000001,85.000001,85.000001,395.0,0.0,0.0,0.0,1.0,333.33500000000004,52.49,52.49,47.897,47.897,34.0,-19.03,28.0,-24.9,34.0525,0.0,1782.808,-0.9649999999999999,100.0,27.785,28.248,42.242000000000004,43.323,0.0,0.0,100.0,0.0,0.0,0.0,0.0,2979.4285714285716,3166.1,4180.666666666667,4317.1,305.7655,304.81775,314.75325,314.26525,21.9506,20.6049,21.9343,21.4561,314.999998,314.999998,324.999988,324.999988,99.55952857142857,99.50743333333334,99.56691428571429,99.54725714285715,0.18400000000000016,0.04733333333333345,-0.013499999999999956,0.20916666666666672,-0.045000000000001705,-0.061666666666667425,1.5665,1.5150000000000001,38.191,29.78033333333333,38.089,35.101,56.194,35.16,59.49,52.507999999999996,54.105000000000004,34.2685,58.0785,50.835499999999996,53.25,33.7945,57.991,50.245666666666665,-0.15449999999999997,-0.00550000000000006,0.10680500000000001,0.10858500000000001,0.0,212.525,212.625,209.37,209.37,0.0,0.0
18,0.0,0.0,0.0,1.0,1.0,0.0,0.0,1.0,0.0,100.0,1.0,1.1856,26.0,0.0,0.0,0.0,59.999996,0.0,26.0,26.0,26.0,26.0,0.1323333333333332,0.27070000000000016,-0.015233333333333335,292.465,-2.80145,-2.5371,-1.6576,-1.4214,-215.37,215.9475,190.617375,0.0,0.0,0.0,0.0,0.03666666666666667,-5.498166666666667,-5.498166666666667,-0.5601,-0.526,0.07237499999999986,-0.24300000000000033,68.019,0.0801,-0.2228,-1.2379999999999995,100.0,1.0,1.0,209.8,0.0,0.0,0.0,0.0,0.0,0.0,0.0,8892.7,0.0,55.0,5.0,244.84,0.0,0.0,0.0,0.0,0.0,0.0,1.0,0.0,0.9059999999999988,0.9059999999999988,0.0,0.0,0.0,55.0,616.79921,10000.0,85.000001,85.000001,85.000001,85.000001,395.0,0.0,0.0,0.0,1.0,166.665,52.353,52.353,47.699,47.699,34.0,-19.822499999999998,29.416,-24.966666666666665,32.0,0.0,1782.759,-1.2850000000000001,100.0,27.4,28.252,42.508,43.83,0.0,0.0,100.0,0.0,0.0,0.0,0.0,3097.4285714285716,3293.3,4058.5555555555557,4189.1,305.6505,304.32125,315.03575,314.4715,21.96,20.610500000000002,21.9448,21.4654,314.999998,314.999998,324.999988,324.999988,99.55955714285714,99.50743333333334,99.56704285714285,99.5474,0.18800000000000017,0.052000000000000046,-0.026499999999999968,0.20133333333333336,-0.045000000000001705,-0.04333333333332945,1.561,1.498,38.25,29.815666666666665,38.155,35.158500000000004,56.185,35.1975,59.525999999999996,52.5685,54.096000000000004,34.3035,58.112,50.894,53.239000000000004,33.828,58.0215,50.303333333333335,-0.1755,0.015499999999999958,0.10638,0.10568000000000001,0.0,212.925,213.0,209.8,209.8,0.0,0.0
19,0.0,0.0,0.0,1.0,1.0,0.0,0.0,1.0,0.0,100.0,1.0,1.1856,26.0,0.0,0.0,0.0,59.999996,0.0,26.0,26.0,26.0,26.0,0.15666666666666673,0.2855000000000001,0.028333333333333332,292.038,-2.76955,-2.5242,-1.6734,-1.4022000000000001,-212.1,215.94,190.596125,0.0,0.0,0.0,0.0,0.03856666666666667,-5.498166666666667,-5.498166666666667,-0.5518000000000001,0.8083333333333333,0.08349999999999991,-0.3849999999999998,68.148,0.0906,-0.21195,-1.6219999999999999,100.0,1.0,1.0,210.19666666666666,0.0,0.0,0.0,0.0,0.0,0.0,0.0,8909.4,0.0,55.0,5.0,245.30333333333334,1.0,0.0,0.0,0.0,0.0,0.0,1.0,0.0,0.9540000000000006,0.9540000000000006,0.0,0.0,1.0,55.0,616.79921,10000.0,85.000001,85.000001,85.000001,85.000001,395.0,0.0,0.0,0.0,1.0,166.665,51.682,51.682,47.623,47.623,34.0,-19.125,30.974,-24.873333333333335,33.985,0.0,1782.711,-1.5250000000000004,100.0,27.913,28.749,42.257,43.811,0.0,0.0,100.0,0.0,0.0,0.0,0.0,3137.0,3319.5,4157.777777777777,4376.3,305.4135,304.1445,314.8595,314.081,21.968899999999998,20.616,21.9544,21.474,314.999998,314.999998,324.999988,324.999988,99.55957142857143,99.50745,99.56718571428571,99.54754285714286,0.20599999999999996,0.08166666666666655,-0.0076666666666665995,0.21350000000000002,-0.04833333333333201,-0.051666666666669414,1.5555,1.5045,38.306,29.849666666666664,38.215,35.2125,56.179,35.239,59.559,52.628,54.09,34.342,58.1425,50.951,53.232,33.865,58.049,50.35933333333333,-0.1945,0.03849999999999998,0.10920500000000001,0.10772500000000002,0.0,213.36,213.46,210.19666666666666,210.19666666666666,0.0,0.0
20,0.0,0.0,0.0,1.0,1.0,0.0,0.0,1.0,0.0,100.0,1.0,1.1856,26.0,0.0,0.0,0.0,59.999996,0.0,26.0,26.0,26.0,26.0,0.19911111111111102,0.26290000000000013,0.05783333333333334,292.297,-2.8268,-2.582,-1.6099,-1.5131999999999999,-208.62,215.935,190.57375,0.0,0.0,0.0,0.0,0.04056666666666667,-5.498166666666667,-5.498166666666667,-0.5532,-1.2203333333333333,0.09762499999999985,0.5819999999999999,68.287,0.1047,-0.21932500000000002,-1.9939999999999998,100.0,1.0,1.0,210.49666666666667,0.0,0.0,0.0,0.0,0.0,0.0,0.0,8922.2,0.0,55.0,5.0,245.81,0.0,0.0,0.0,0.0,0.0,0.0,0.0,0.0,1.004999999999999,1.004999999999999,0.0,0.0,0.0,55.0,616.79921,10000.0,85.000001,85.000001,85.000001,85.000001,395.0,0.0,0.0,0.0,1.0,333.33500000000004,52.841,52.841,46.844,46.844,34.0,-15.9225,31.2,-22.47,38.3925,0.0,1782.659,-1.5700000000000003,100.0,27.423000000000002,28.36,42.83,44.244,0.0,0.0,100.0,0.0,0.0,0.0,0.0,2745.285714285714,3278.8,4089.4444444444443,4430.8,306.597,304.489,314.795,313.773,21.978,20.6217,21.965,21.4833,314.999998,314.999998,324.999988,324.999988,99.55961428571429,99.50746666666667,99.56732857142858,99.54768571428572,0.22924999999999995,0.09233333333333338,0.020333333333333314,0.24316666666666675,-0.046666666666666856,-0.046666666666666856,1.5005,1.427,38.361999999999995,29.885333333333335,38.281,35.271,56.168,35.282,59.599000000000004,52.694,54.08,34.3815,58.1795,51.015,53.221000000000004,33.9035,58.082499999999996,50.422333333333334,-0.19699999999999995,0.045499999999999985,0.10827,0.10966000000000001,0.0,213.73000000000002,213.85000000000002,210.49666666666667,210.49666666666667,0.0,0.0
21,0.0,0.0,0.0,1.0,1.0,0.0,0.0,1.0,0.0,100.0,1.0,1.1856,26.0,0.0,0.0,0.0,59.999996,0.0,26.0,26.0,26.0,26.0,0.15833333333333321,0.27390000000000003,-0.05993333333333334,292.633,-2.74135,-2.6319,-1.6719,-1.4772,-205.34,215.9375,190.552125,0.0,0.0,0.0,0.0,0.0425,-5.498166666666667,-5.498166666666667,-0.5811000000000001,0.4686666666666667,0.07737499999999997,-0.0129999999999999,68.412,0.12090000000000001,-0.22842500000000002,-1.686,100.0,1.0,1.0,211.15333333333334,0.0,0.0,0.0,0.0,0.0,0.0,0.0,8950.0,0.0,55.0,5.0,246.25333333333333,1.0,0.0,0.0,0.0,0.0,0.0,0.0,0.0,1.0530000000000008,1.0530000000000008,0.0,0.0,1.0,55.0,616.79921,10000.0,85.000001,85.000001,85.000001,85.000001,395.0,0.0,0.0,0.0,1.0,333.33500000000004,52.124,52.124,48.37,48.37,34.0,-18.7475,30.03,-21.05,33.879999999999995,0.0,1782.611,-0.5,100.0,27.762,28.573999999999998,42.128,43.879,0.0,0.0,100.0,0.0,0.0,0.0,0.0,2949.285714285714,3304.1,3883.3333333333335,4058.6000000000004,305.7965,304.3135,315.49775,314.85725,21.9867,20.6272,21.9745,21.4919,314.999998,314.999998,324.999988,324.999988,99.55962857142858,99.50746666666667,99.56745714285714,99.54784285714285,0.18175000000000008,0.04366666666666674,0.024499999999999966,0.25883333333333325,-0.03166666666666629,-0.06333333333333258,1.6415,1.566,38.417,29.919666666666664,38.341,35.324,56.16,35.323499999999996,59.629,52.7515,54.072,34.42,58.207,51.070499999999996,53.212,33.94,58.1075,50.47666666666667,-0.126,-0.03600000000000003,0.10374000000000001,0.10776000000000001,0.0,214.125,214.275,211.15333333333334,211.15333333333334,0.0,0.0
22,0.0,0.0,0.0,1.0,1.0,0.0,0.0,1.0,0.0,100.0,1.0,1.1856,26.0,0.0,0.0,0.0,59.999996,0.0,26.0,26.0,26.0,26.0,0.11511111111111116,0.26890000000000014,-0.002166666666666667,292.145,-2.71475,-2.6447000000000003,-1.6522999999999999,-1.4802,-201.64,215.9425,190.526875,0.0,0.0,0.0,0.0,0.04463333333333333,-5.498166666666667,-5.498166666666667,-0.5569000000000001,0.06066666666666667,0.06974999999999998,0.7709999999999999,68.559,0.10940000000000001,-0.206575,-0.3200000000000003,100.0,1.0,1.0,211.36333333333334,0.0,0.0,0.0,0.0,0.0,0.0,0.0,8958.9,0.0,55.0,5.0,246.78666666666666,0.0,0.0,0.0,0.0,0.0,0.0,0.0,0.0,1.1069999999999993,1.1069999999999993,0.0,0.0,0.0,55.0,616.79921,10000.0,85.000001,85.000001,85.000001,85.000001,395.0,0.0,0.0,0.0,1.0,166.665,52.429,52.429,47.134,47.134,34.0,-20.107499999999998,26.442,-24.95,35.92,0.0,1782.559,0.5650000000000013,100.0,27.905,28.532,42.722,44.024,0.0,0.0,100.0,0.0,0.0,0.0,0.0,2816.285714285714,3207.3,4162.666666666667,4420.2,306.1535,304.5965,314.71575,313.998,21.9966,20.6332,21.985599999999998,21.5016,314.999998,314.999998,324.999988,324.999988,99.55964285714286,99.50748333333334,99.56761428571428,99.548,0.11874999999999991,-0.02066666666666661,-0.00649999999999995,0.2188333333333332,-0.046666666666666856,-0.04999999999999716,1.4985,1.48,38.479,29.957666666666668,38.41,35.3855,56.147999999999996,35.365,59.670500000000004,52.82,54.06,34.4585,58.246,51.1365,53.198,33.9775,58.143,50.541666666666664,-0.03649999999999998,-0.12050000000000005,0.11255000000000001,0.11016500000000001,0.0,214.655,214.66,211.36333333333334,211.36333333333334,0.0,0.0
23,0.0,0.0,0.0,1.0,1.0,0.0,0.0,1.0,0.0,100.0,1.0,1.1856,26.0,0.0,0.0,0.0,59.999996,0.0,26.0,26.0,26.0,26.0,0.04200000000000004,0.24930000000000008,-0.013766666666666667,292.114,-2.7186,-2.6221,-1.5533000000000001,-1.5716,-198.35,215.95,190.504875,0.0,0.0,0.0,0.0,0.04656666666666667,-5.498166666666667,-5.498166666666667,-0.5761000000000001,-0.3746666666666667,0.03837500000000005,-0.03200000000000003,68.685,0.0635,-0.2335,0.6940000000000008,100.0,1.0,1.0,211.84333333333333,0.0,0.0,0.0,0.0,0.0,0.0,0.0,8979.3,0.0,55.0,5.0,247.24333333333334,1.0,0.0,0.0,0.0,0.0,0.0,0.0,0.0,1.1550000000000011,1.1550000000000011,0.0,0.0,1.0,55.0,616.79921,10000.0,85.000001,85.000001,85.000001,85.000001,395.0,0.0,0.0,0.0,1.0,166.665,51.712,51.712,48.065,48.065,34.0,-25.315,24.802,-24.663333333333334,30.355,0.0,1782.51,0.8449999999999989,100.0,28.232,28.428,43.028,44.098,0.0,0.0,100.0,0.0,0.0,0.0,0.0,3238.285714285714,3215.1,3940.3333333333335,4025.0,305.044,304.66475,315.182,314.83075,22.0054,20.6386,21.9955,21.5103,314.999998,314.999998,324.999988,324.999988,99.55965714285715,99.50748333333334,99.56775714285715,99.54812857142858,0.0794999999999999,-0.052999999999999936,-0.05799999999999994,0.15966666666666685,-0.03999999999999915,-0.051666666666669414,1.51,1.536,38.534,29.991333333333333,38.472,35.439499999999995,56.134,35.4025,59.7055,52.8795,54.047,34.4935,58.2785,51.194,53.185,34.010999999999996,58.1725,50.59766666666667,-0.007499999999999951,-0.14600000000000013,0.10407000000000001,0.10002000000000001,0.0,215.055,215.005,211.84333333333333,211.84333333333333,0.0,0.0
24,0.0,0.0,0.0,1.0,1.0,0.0,0.0,1.0,0.0,100.0,1.0,1.1856,26.0,0.0,0.0,0.0,59.999996,0.0,26.0,26.0,26.0,26.0,-0.04266666666666663,0.2813000000000001,-0.10696666666666668,292.419,-2.7145,-2.6603,-1.5750000000000002,-1.5349,-195.05,215.96,190.482375,0.0,0.0,0.0,0.0,0.04846666666666667,-5.498166666666667,-5.498166666666667,-0.5783,-0.48533333333333334,0.020999999999999908,0.5220000000000002,68.813,0.0099,-0.21685000000000001,1.17,100.0,1.0,1.0,212.17000000000002,0.0,0.0,0.0,0.0,0.0,0.0,0.0,8993.1,0.0,55.0,5.0,247.7,0.0,0.0,0.0,0.0,0.0,0.0,0.0,0.0,1.2029999999999994,1.2029999999999994,0.0,0.0,0.0,55.0,616.79921,10000.0,85.000001,85.000001,85.000001,85.000001,395.0,0.0,0.0,0.0,1.0,333.33500000000004,52.902,52.902,47.134,47.134,34.0,-23.78,21.072000000000003,-31.18,28.175,0.0,1782.461,0.875,100.0,28.159,28.048000000000002,43.268,43.717,0.0,0.0,100.0,0.0,0.0,0.0,0.0,2893.0,2961.7,4301.222222222223,4115.0,306.015,305.467,314.33425,314.71525,22.0142,20.6437,22.0053,21.5189,314.999998,314.999998,324.999988,324.999988,99.55965714285715,99.5075,99.56788571428571,99.54827142857143,0.0402499999999999,-0.09766666666666679,-0.12049999999999994,0.11216666666666675,-0.046666666666666856,-0.060000000000002274,1.502,1.5275,38.589,30.023333333333333,38.533,35.493,56.119,35.439499999999995,59.7415,52.9355,54.033,34.5275,58.312,51.248,53.17,34.0435,58.2025,50.650666666666666,-0.008000000000000007,-0.15149999999999997,0.10870500000000001,0.113265,0.0,215.48000000000002,215.375,212.17000000000002,212.17000000000002,0.0,0.0
25,0.0,0.0,0.0,1.0,1.0,0.0,0.0,1.0,0.0,100.0,1.0,1.1856,26.0,0.0,0.0,0.0,59.999996,0.0,26.0,26.0,26.0,26.0,-0.10077777777777785,0.26649999999999996,-0.07313333333333334,292.297,-2.7484,-2.6554,-1.5608,-1.5655000000000001,-191.32999999999998,215.9675,190.455625,0.0,0.0,0.0,0.0,0.050633333333333336,-5.498166666666667,-5.498166666666667,-0.6129,0.036333333333333336,-0.008500000000000174,-0.6799999999999997,68.953,-0.044000000000000004,-0.225475,1.3900000000000006,100.0,1.0,1.0,212.74666666666667,0.0,0.0,0.0,0.0,0.0,0.0,0.0,9017.5,0.0,55.0,5.0,248.20666666666665,1.0,0.0,0.0,0.0,0.0,0.0,0.0,0.0,1.256999999999998,1.256999999999998,0.0,0.0,1.0,55.0,616.79921,10000.0,85.000001,85.000001,85.000001,85.000001,395.0,0.0,0.0,0.0,1.0,166.665,51.804,51.804,47.974000000000004,47.974000000000004,34.0,-29.225,22.308,-30.38,24.375,0.0,1782.408,0.8350000000000009,100.0,28.311,28.033,43.248000000000005,43.146,0.0,0.0,100.0,0.0,0.0,0.0,0.0,3282.0,3276.6,4001.222222222222,3963.4,304.9665,304.51175,315.1485,315.07175,22.0242,20.6496,22.0163,21.5284,314.999998,314.999998,324.999988,324.999988,99.55967142857143,99.5075,99.56804285714286,99.54842857142857,0.006250000000000089,-0.1263333333333332,-0.16849999999999998,0.05750000000000011,-0.030000000000001137,-0.07333333333333059,1.5535,1.6,38.650999999999996,30.060000000000002,38.602000000000004,35.5525,56.101,35.4845,59.78,52.996,54.015,34.569,58.3475,51.306,53.150999999999996,34.0835,58.2355,50.70766666666667,-0.013000000000000012,-0.14800000000000013,0.10728000000000001,0.10461000000000001,0.0,215.91500000000002,215.82,212.74666666666667,212.74666666666667,0.0,0.0
26,0.0,0.0,0.0,1.0,1.0,0.0,0.0,1.0,0.0,100.0,1.0,1.1856,26.0,0.0,0.0,0.0,59.999996,0.0,26.0,26.0,26.0,26.0,-0.13122222222222213,0.2721,0.07196666666666666,291.199,-2.66075,-2.7686,-1.5802,-1.5883,-188.01999999999998,215.9725,190.43125,0.0,0.0,0.0,0.0,0.052566666666666664,-5.498166666666667,-5.498166666666667,-0.5720000000000001,0.8116666666666666,-0.057374999999999954,0.19599999999999973,69.082,-0.075,-0.19637500000000002,1.3900000000000006,100.0,1.0,1.0,212.88,0.0,0.0,0.0,0.0,0.0,0.0,0.0,9023.2,0.0,55.0,5.0,248.66666666666666,0.0,0.0,0.0,0.0,0.0,0.0,0.0,0.0,1.3049999999999997,1.3049999999999997,0.0,0.0,0.0,55.0,616.79921,10000.0,85.000001,85.000001,85.000001,85.000001,395.0,0.0,0.0,0.0,1.0,333.33500000000004,51.346000000000004,51.346000000000004,46.28,46.28,34.0,-28.5975,21.188,-38.446666666666665,27.035,0.0,1782.359,0.6900000000000013,100.0,29.386,28.417,44.099000000000004,43.208,0.0,0.0,100.0,0.0,0.0,0.0,0.0,3251.285714285714,3072.2,4587.444444444444,4410.9,304.898,305.00825,313.7545,314.04475,22.0334,20.655,22.0263,21.537,314.999998,314.999998,324.999988,324.999988,99.55967142857143,99.50751666666666,99.56818571428572,99.54857142857144,-0.00024999999999986144,-0.14266666666666672,-0.19733333333333336,0.03166666666666673,-0.03833333333332689,-0.051666666666669414,1.428,1.481,38.709,30.093333333333334,38.664,35.606,56.088,35.527,59.82,53.053,54.003,34.6085,58.3855,51.361000000000004,53.138,34.121,58.269999999999996,50.760999999999996,-0.030000000000000027,-0.137,0.1086,0.11012500000000001,0.0,216.35000000000002,216.23000000000002,212.88,212.88,0.0,0.0
27,0.0,0.0,0.0,1.0,1.0,0.0,0.0,1.0,0.0,100.0,1.0,1.1856,26.0,0.0,0.0,0.0,59.999996,0.0,26.0,26.0,26.0,26.0,-0.12644444444444447,0.25150000000000006,-0.004333333333333334,291.565,-2.61245,-2.7527,-1.56,-1.673,-184.7,215.975,190.40825,0.0,0.0,0.0,0.0,0.0545,-5.498166666666667,-5.498166666666667,-0.5956,-1.075,-0.06999999999999984,0.6440000000000001,69.207,-0.08990000000000001,-0.24185,1.2639999999999993,100.0,1.0,1.0,213.34333333333333,0.0,0.0,0.0,0.0,0.0,0.0,0.0,9042.9,0.0,55.0,5.0,249.12,1.0,0.0,0.0,0.0,0.0,0.0,0.0,0.0,1.352999999999998,1.352999999999998,0.0,0.0,1.0,55.0,616.79921,10000.0,85.000001,85.000001,85.000001,85.000001,395.0,0.0,0.0,0.0,1.0,333.33500000000004,51.757999999999996,51.757999999999996,46.661,46.661,34.0,-28.3,20.465999999999998,-34.379999999999995,25.192500000000003,0.0,1782.31,0.5850000000000009,100.0,29.183,28.042,45.004,43.650999999999996,0.0,0.0,100.0,0.0,0.0,0.0,0.0,3211.4285714285716,3072.7,4168.777777777777,4071.9,305.0155,305.1535,314.663,314.725,22.0424,20.66,22.0364,21.5457,314.999998,314.999998,324.999988,324.999988,99.55967142857143,99.50753333333333,99.56834285714285,99.5487,-0.0129999999999999,-0.15266666666666673,-0.2061666666666666,0.02066666666666661,-0.054999999999999716,-0.01999999999999602,1.468,1.5150000000000001,38.765,30.125333333333334,38.727999999999994,35.661,56.073,35.567,59.861,53.1105,53.989000000000004,34.644999999999996,58.424,51.416,53.123999999999995,34.1565,58.3055,50.81466666666667,-0.033499999999999974,-0.129,0.10637,0.10708500000000001,0.0,216.68,216.55,213.34333333333333,213.34333333333333,0.0,0.0
28,0.0,0.0,0.0,1.0,1.0,0.0,0.0,1.0,0.0,100.0,1.0,1.1856,26.0,0.0,0.0,0.0,59.999996,0.0,26.0,26.0,26.0,26.0,-0.1286666666666666,0.25150000000000006,-0.0408,291.901,-2.63765,-2.7363,-1.5068000000000001,-1.6360999999999999,-181.17000000000002,215.975,190.382875,0.0,0.0,0.0,0.0,0.05653333333333334,-5.498166666666667,-5.498166666666667,-0.6014,0.6363333333333334,-0.07900000000000018,-0.5030000000000001,69.336,-0.10020000000000001,-0.217125,1.2420000000000009,100.0,1.0,1.0,213.86666666666667,0.0,0.0,0.0,0.0,0.0,0.0,0.0,9065.1,0.0,55.0,5.0,249.58333333333334,0.0,0.0,0.0,0.0,0.0,0.0,0.0,0.0,1.404,1.404,0.0,0.0,0.0,55.0,616.79921,10000.0,85.000001,85.000001,85.000001,85.000001,395.0,0.0,0.0,0.0,1.0,166.665,51.788,51.788,47.531,47.531,34.0,-30.265,19.355999999999998,-33.803333333333335,23.1075,0.0,1782.26,0.33999999999999986,100.0,29.127,28.113,44.246,43.132,0.0,0.0,100.0,0.0,0.0,0.0,0.0,3370.714285714286,2912.6,4153.777777777777,4040.9,304.7605,305.4345,314.82125,314.8965,22.0521,20.6655,22.0467,21.5547,314.999998,314.999998,324.999988,324.999988,99.55968571428572,99.50756666666666,99.56848571428571,99.54885714285714,-0.021499999999999853,-0.15133333333333332,-0.22166666666666657,0.0004999999999999449,-0.03333333333333144,-0.030000000000001137,1.53,1.5715000000000001,38.826,30.159333333333336,38.792,35.716499999999996,56.06,35.61,59.8975,53.1665,53.976,34.685,58.457499999999996,51.4695,53.11,34.1945,58.3365,50.86666666666667,-0.04999999999999993,-0.10149999999999992,0.10183,0.10982000000000001,0.0,217.13,217.01,213.86666666666667,213.86666666666667,0.0,0.0
29,0.0,0.0,0.0,1.0,1.0,0.0,0.0,1.0,0.0,100.0,1.0,1.1856,26.0,0.0,0.0,0.0,59.999996,0.0,26.0,26.0,26.0,26.0,-0.12922222222222213,0.25770000000000004,0.0485,291.519,-2.58535,-2.7893,-1.544,-1.6092,-177.42000000000002,215.97,190.355,0.0,0.0,0.0,0.0,0.05873333333333334,-5.498166666666667,-5.498166666666667,-0.6074,-0.725,-0.074125,-0.6699999999999999,69.479,-0.0949,-0.21975,0.8360000000000003,100.0,1.0,1.0,214.15,0.0,0.0,0.0,0.0,0.0,0.0,0.0,9077.0,0.0,55.0,5.0,250.09666666666666,1.0,0.0,0.0,0.0,0.0,0.0,0.0,0.0,1.4579999999999984,1.4579999999999984,0.0,0.0,1.0,55.0,616.79921,10000.0,85.000001,85.000001,85.000001,85.000001,395.0,0.0,0.0,0.0,1.0,166.665,51.727000000000004,51.727000000000004,46.646,46.646,34.0,-29.4375,20.304000000000002,-36.18,24.5375,0.0,1782.206,0.23000000000000043,100.0,28.823999999999998,27.999,44.646,43.426,0.0,0.0,100.0,0.0,0.0,0.0,0.0,3377.714285714286,3000.7,4296.111111111111,4143.4,304.724,305.07775,314.42,314.55625,22.0622,20.6712,22.058,21.5644,314.999998,314.999998,324.999988,324.999988,99.55968571428572,99.50758333333333,99.56864285714286,99.54901428571429,-0.01200000000000001,-0.15866666666666673,-0.22050000000000003,0.012499999999999956,-0.04333333333332945,-0.046666666666666856,1.4505000000000001,1.4795,38.888999999999996,30.195,38.861999999999995,35.7775,56.042,35.653999999999996,59.942499999999995,53.230000000000004,53.959,34.726,58.5,51.5305,53.092,34.2335,58.3755,50.92633333333333,-0.0635,-0.10149999999999992,0.106425,0.10889000000000001,0.0,217.51,217.435,214.15,214.15,0.0,0.0
30,0.0,0.0,0.0,1.0,1.0,0.0,0.0,1.0,0.0,100.0,1.0,1.1856,26.0,0.0,0.0,0.0,59.999996,0.0,26.0,26.0,26.0,26.0,-0.121,0.26770000000000005,0.057300000000000004,291.077,-2.64045,-2.6791,-1.4828999999999999,-1.6681,-174.29,215.965,190.331625,0.0,0.0,0.0,0.0,0.06053333333333334,-5.498166666666667,-5.498166666666667,-0.6047,0.7926666666666666,-0.07299999999999995,0.7190000000000003,69.593,-0.0849,-0.218475,0.7140000000000004,100.0,1.0,1.0,214.53333333333333,0.0,0.0,0.0,0.0,0.0,0.0,0.0,9093.2,0.0,55.0,5.0,250.50666666666666,0.0,0.0,0.0,0.0,0.0,0.0,1.0,0.0,1.5030000000000001,1.5030000000000001,0.0,0.0,0.0,55.0,616.79921,10000.0,85.000001,85.000001,85.000001,85.000001,395.0,0.0,0.0,0.0,1.0,333.33500000000004,50.873,50.873,46.89,46.89,34.0,-29.2875,21.192,-33.403333333333336,27.325,0.0,1782.161,0.09499999999999886,100.0,29.762,28.518,44.531,43.308,0.0,0.0,100.0,0.0,0.0,0.0,0.0,3420.857142857143,3105.5,4294.555555555556,4252.3,304.3945,304.9465,314.42675,314.306,22.0709,20.6762,22.0671,21.572499999999998,314.999998,314.999998,324.999988,324.999988,99.55968571428572,99.50758333333333,99.56878571428571,99.54914285714285,0.01849999999999996,-0.1293333333333333,-0.18633333333333335,0.03600000000000003,-0.05666666666667197,-0.046666666666666856,1.4715,1.5125,38.943,30.226333333333336,38.92,35.828,56.031,35.694,59.9755,53.282,53.949,34.7625,58.531,51.58,53.081,34.269,58.403999999999996,50.974666666666664,-0.08050000000000002,-0.09250000000000003,0.09824000000000001,0.11059500000000001,0.0,217.92000000000002,217.835,214.53333333333333,214.53333333333333,0.0,0.0
31,0.0,0.0,0.0,1.0,1.0,0.0,0.0,1.0,0.0,100.0,1.0,1.1856,26.0,0.0,0.0,0.0,59.999996,0.0,26.0,26.0,26.0,26.0,-0.09211111111111103,0.2572000000000001,-0.003033333333333333,291.092,-2.71235,-2.7482,-1.5756999999999999,-1.6549,-170.74,215.95499999999998,190.30575,0.0,0.0,0.0,0.0,0.0626,-5.498166666666667,-5.498166666666667,-0.5886,-0.553,-0.06162500000000026,-0.75,69.725,-0.0711,-0.21815,0.4039999999999999,100.0,1.0,1.0,214.84333333333333,0.0,0.0,0.0,0.0,0.0,0.0,0.0,9106.4,0.0,55.0,5.0,250.98333333333335,1.0,0.0,0.0,0.0,0.0,0.0,1.0,0.0,1.5539999999999985,1.5539999999999985,0.0,0.0,1.0,55.0,616.79921,10000.0,85.000001,85.000001,85.000001,85.000001,395.0,0.0,0.0,0.0,1.0,166.665,51.635999999999996,51.635999999999996,45.532,45.532,34.0,-27.065,21.348,-36.38666666666667,27.2975,0.0,1782.11,-0.049999999999998934,100.0,29.264,28.729,45.047,44.042,0.0,0.0,100.0,0.0,0.0,0.0,0.0,3213.5714285714284,2971.1,4492.111111111111,4216.0,305.3485,305.198,314.0075,314.464,22.0803,20.6818,22.0779,21.5818,314.999998,314.999998,324.999988,324.999988,99.55968571428572,99.50761666666666,99.56894285714286,99.54928571428572,0.027499999999999858,-0.11833333333333318,-0.1795,0.04166666666666674,-0.04833333333333201,-0.013333333333328312,1.4365,1.4595,39.001999999999995,30.261333333333333,38.986999999999995,35.8865,56.016,35.7365,60.0185,53.3435,53.935,34.802,58.5715,51.6395,53.066,34.3065,58.441,51.032333333333334,-0.09299999999999997,-0.07350000000000012,0.10345000000000001,0.10658500000000001,0.0,218.265,218.21,214.84333333333333,214.84333333333333,0.0,0.0
32,0.0,0.0,0.0,1.0,1.0,0.0,0.0,1.0,0.0,100.0,1.0,1.1856,26.0,0.0,0.0,0.0,59.999996,0.0,26.0,26.0,26.0,26.0,-0.08744444444444444,0.2591000000000001,-0.05606666666666667,291.321,-2.644,-2.7557,-1.6024,-1.5651000000000002,-167.18,215.9425,190.280125,0.0,0.0,0.0,0.0,0.06466666666666666,-5.498166666666667,-5.498166666666667,-0.6098,0.17633333333333334,-0.08237499999999986,0.125,69.852,-0.0541,-0.2298,0.26200000000000045,100.0,1.0,1.0,215.41333333333333,0.0,0.0,0.0,0.0,0.0,0.0,0.0,9130.5,0.0,55.0,5.0,251.44,0.0,0.0,0.0,0.0,0.0,0.0,1.0,0.0,1.6050000000000004,1.6050000000000004,0.0,0.0,0.0,55.0,616.79921,10000.0,85.000001,85.000001,85.000001,85.000001,395.0,0.0,0.0,0.0,1.0,166.665,51.208,51.208,46.768,46.768,34.0,-26.7425,22.968,-32.29666666666667,26.3375,0.0,1782.06,-0.049999999999998934,100.0,29.425,28.653,44.712,43.771,0.0,0.0,100.0,0.0,0.0,0.0,0.0,3295.0,3119.6,4195.111111111111,4117.6,304.8375,304.9455,314.789,314.834,22.0898,20.6875,22.0882,21.591,314.999998,314.999998,324.999988,324.999988,99.5597,99.50763333333333,99.56908571428572,99.54942857142858,0.04600000000000026,-0.10599999999999987,-0.15916666666666657,0.07116666666666682,-0.041666666666671404,-0.051666666666669414,1.5255,1.5395,39.061,30.296666666666667,39.051,35.9435,56.001999999999995,35.7795,60.055,53.400999999999996,53.921,34.841499999999996,58.6055,51.6945,53.052,34.3445,58.472,51.086,-0.09199999999999997,-0.08150000000000013,0.107115,0.10849500000000001,0.0,218.66,218.635,215.41333333333333,215.41333333333333,0.0,0.0
33,0.0,0.0,0.0,1.0,1.0,0.0,0.0,1.0,0.0,100.0,1.0,1.1856,26.0,0.0,0.0,0.0,59.999996,0.0,26.0,26.0,26.0,26.0,-0.05211111111111111,0.2673000000000001,-0.0368,291.367,-2.6617,-2.7434000000000003,-1.5676,-1.5774,-163.82,215.9275,190.255125,0.0,0.0,0.0,0.0,0.06663333333333334,-5.498166666666667,-5.498166666666667,-0.6101,-0.3413333333333333,-0.07012499999999999,1.3929999999999998,69.975,-0.0424,-0.21402500000000002,0.2140000000000004,100.0,1.0,1.0,215.65333333333334,0.0,0.0,0.0,0.0,0.0,0.0,0.0,9140.7,0.0,55.0,5.0,251.88333333333333,1.0,0.0,0.0,0.0,0.0,0.0,1.0,0.0,1.6529999999999987,1.6529999999999987,0.0,0.0,1.0,55.0,616.79921,10000.0,85.000001,85.000001,85.000001,85.000001,395.0,0.0,0.0,0.0,1.0,333.33500000000004,51.865,51.865,46.356,46.356,34.0,-24.8525,22.778,-33.03,28.34,0.0,1782.01,-0.16999999999999993,100.0,29.185,28.391,44.698,43.878,0.0,0.0,100.0,0.0,0.0,0.0,0.0,3125.4285714285716,3028.9,4300.333333333333,4312.3,305.3955,305.2445,314.434,314.2815,22.0986,20.6926,22.0981,21.5997,314.999998,314.999998,324.999988,324.999988,99.55971428571429,99.50763333333333,99.56922857142857,99.54957142857143,0.05525000000000002,-0.08866666666666667,-0.15649999999999997,0.07133333333333325,-0.03833333333332689,-0.045000000000001705,1.479,1.495,39.116,30.328666666666663,39.113,35.998,55.988,35.816,60.091499999999996,53.457,53.909,34.875,58.64,51.7485,53.038,34.3765,58.5035,51.138333333333335,-0.09650000000000003,-0.07099999999999995,0.10747000000000001,0.10978,0.0,219.03,219.005,215.65333333333334,215.65333333333334,0.0,0.0
34,0.0,0.0,0.0,1.0,1.0,0.0,0.0,1.0,0.0,100.0,1.0,1.1856,26.0,0.0,0.0,0.0,59.999996,0.0,26.0,26.0,26.0,26.0,-0.0367777777777778,0.25429999999999997,-0.08853333333333334,291.718,-2.7385,-2.6882,-1.608,-1.5937000000000001,-160.25,215.9125,190.227375,0.0,0.0,0.0,0.0,0.0687,-5.498166666666667,-5.498166666666667,-0.6425000000000001,-0.8136666666666666,-0.035375000000000156,-0.133,70.10300000000001,-0.0313,-0.226825,0.14400000000000013,100.0,1.0,1.0,216.12,0.0,0.0,0.0,0.0,0.0,0.0,0.0,9160.5,0.0,55.0,5.0,252.34666666666666,0.0,0.0,0.0,0.0,0.0,0.0,1.0,0.0,1.7040000000000006,1.7040000000000006,0.0,0.0,0.0,55.0,616.79921,10000.0,85.000001,85.000001,85.000001,85.000001,395.0,0.0,0.0,0.0,1.0,166.665,51.971000000000004,51.971000000000004,47.394,47.394,34.0,-26.1175,22.604,-31.03333333333333,27.7325,0.0,1781.961,-0.2400000000000002,100.0,28.775,28.213,44.288,44.07,0.0,0.0,100.0,0.0,0.0,0.0,0.0,3247.5714285714284,2987.9,4083.3333333333335,4149.2,305.131,305.28275,315.00625,314.564,22.1079,20.6981,22.1084,21.6089,314.999998,314.999998,324.999988,324.999988,99.55971428571429,99.50765,99.56938571428572,99.54971428571429,0.06625000000000014,-0.07533333333333325,-0.14983333333333337,0.07883333333333331,-0.03999999999999915,-0.04333333333332945,1.508,1.5210000000000001,39.174,30.363,39.178,36.056,55.973,35.854,60.126999999999995,53.516999999999996,53.894,34.9105,58.6725,51.806,53.022999999999996,34.4105,58.533,51.19433333333333,-0.10649999999999993,-0.05249999999999999,0.10595500000000001,0.112655,0.0,219.405,219.39499999999998,216.12,216.12,0.0,0.0
35,0.0,0.0,0.0,1.0,1.0,0.0,0.0,1.0,0.0,100.0,1.0,1.1856,26.0,0.0,0.0,0.0,59.999996,0.0,26.0,26.0,26.0,26.0,-0.031888888888888856,0.252,-0.042,291.809,-2.73505,-2.6619,-1.5763,-1.603,-156.67000000000002,215.8975,190.1975,0.0,0.0,0.0,0.0,0.07076666666666667,-5.498166666666667,-5.498166666666667,-0.6841,-0.4756666666666667,-0.040999999999999925,-0.07500000000000018,70.23,-0.0188,-0.231375,-0.05399999999999938,100.0,1.0,1.0,216.57999999999998,0.0,0.0,0.0,0.0,0.0,0.0,0.0,9180.0,0.0,55.0,5.0,252.80333333333334,1.0,0.0,0.0,0.0,0.0,0.0,1.0,0.0,1.754999999999999,1.754999999999999,0.0,0.0,1.0,55.0,616.79921,10000.0,85.000001,85.000001,85.000001,85.000001,395.0,0.0,0.0,0.0,1.0,333.33500000000004,51.682,51.682,46.951,46.951,34.0,-25.2125,25.625999999999998,-29.003333333333334,27.5125,0.0,1781.908,-0.21499999999999986,100.0,28.579,28.354,44.061,43.574,0.0,0.0,100.0,0.0,0.0,0.0,0.0,3202.285714285714,3328.7,4040.6666666666665,3961.1000000000004,305.29,304.34475,315.001,315.07575,22.1169,20.7037,22.1187,21.618,314.999998,314.999998,324.999988,324.999988,99.55972857142856,99.50766666666667,99.56952857142858,99.54987142857142,0.0757500000000002,-0.06633333333333313,-0.12549999999999994,0.10633333333333339,-0.045000000000001705,-0.051666666666669414,1.5495,1.5495,39.230999999999995,30.398333333333333,39.242,36.1125,55.957,35.8935,60.162,53.573,53.879000000000005,34.947,58.7055,51.86,53.007,34.445499999999996,58.5625,51.247,-0.09799999999999998,-0.06550000000000011,0.10931,0.10898500000000001,0.0,219.805,219.785,216.57999999999998,216.57999999999998,0.0,0.0
