,ABS Active,ABS Enabled,AID Allow Tire Blankets,AID Auto Blip,AID Auto Clutch,AID Auto Shift,AID Fuel Rate,AID Ideal Line,AID Mech Damage,AID Stability,AID Tire Wear Rate,Air Density,Air Temp,Ballast,Best Lap Delta,Best Lap Time,Brake Bias,Brake Pos,Brake Temp FL,Brake Temp FR,Brake Temp RL,Brake Temp RR,CG Accel Lateral,CG Accel Longitudinal,CG Accel Vertical,CG Height,Camber FL,Camber FR,Camber RL,Camber RR,Car Coord X,Car Coord Y,Car Coord Z,Car Damage Front,Car Damage Left,Car Damage Rear,Car Damage Right,Car Pos Norm,Caster FL,Caster FR,Chassis Pitch Angle,Chassis Pitch Rate,Chassis Roll Angle,Chassis Roll Rate,Chassis Velocity X,Chassis Velocity Y,Chassis Velocity Z,Chassis Yaw Rate,Clutch Pos,DRS Active,DRS Available,Drive Train Speed,ERS Heat Charging,ERS Is Charging,ERS Max Energy,ERS Power Level,ERS Recovery Level,Engine Brake Setting,Engine Limiter,Engine RPM,Flags,Fuel Level,Gear,Ground Speed,HR Sample Clock,In Pit,KERS Charge,KERS Deployed Energy,KERS Input,KERS Max Energy,LR Sample Clock,Lap Invalidated,Lap Time,Lap Time2,Last Lap Time,Last Sector Time,MR Sample Clock,Max Fuel,Max Power,Max RPM,Max Sus Travel FL,Max Sus Travel FR,Max Sus Travel RL,Max Sus Travel RR,Max Torque,Max Turbo Boost,Num Tires Off Track,Penalties Enabled,Position,Raw Data Sample Rate,Ride Height FL,Ride Height FR,Ride Height RL,Ride Height RR,Road Temp,Self Align Torque FL,Self Align Torque FR,Self Align Torque RL,Self Align Torque RR,Session Lap Count,Session Time Left,Steering Angle,Surface Grip,Suspension Travel FL,Suspension Travel FR,Suspension Travel RL,Suspension Travel RR,TC Active,TC Enabled,Throttle Pos,Tire Dirt Level FL,Tire Dirt Level FR,Tire Dirt Level RL,Tire Dirt Level RR,Tire Load FL,Tire Load FR,Tire Load RL,Tire Load RR,Tire Loaded Radius FL,Tire Loaded Radius FR,Tire Loaded Radius RL,Tire Loaded Radius RR,Tire Pressure FL,Tire Pressure FR,Tire Pressure RL,Tire Pressure RR,Tire Radius FL,Tire Radius FR,Tire Radius RL,Tire Radius RR,Tire Rubber Grip FL,Tire Rubber Grip FR,Tire Rubber Grip RL,Tire Rubber Grip RR,Tire Slip Angle FL,Tire Slip Angle FR,Tire Slip Angle RL,Tire Slip Angle RR,Tire Slip Ratio FL,Tire Slip Ratio FR,Tire Slip Ratio RL,Tire Slip Ratio RR,Tire Temp Core FL,Tire Temp Core FR,Tire Temp Core RL,Tire Temp Core RR,Tire Temp Inner FL,Tire Temp Inner FR,Tire Temp Inner RL,Tire Temp Inner RR,Tire Temp Middle FL,Tire Temp Middle FR,Tire Temp Middle RL,Tire Temp Middle RR,Tire Temp Outer FL,Tire Temp Outer FR,Tire Temp Outer RL,Tire Temp Outer RR,Toe In FL,Toe In FR,Toe In RL,Toe In RR,Turbo Boost,Wheel Angular Speed FL,Wheel Angular Speed FR,Wheel Angular Speed RL,Wheel Angular Speed RR,Wind Direction,Wind Speed
0,0.0,0.0,0.0,1.0,1.0,0.0,0.0,1.0,0.0,100.0,1.0,1.1856,26.0,0.0,0.0,0.0,59.99999,0.0,26.0,26.0,26.0,26.0,-0.06766666666666665,0.3106,0.047433333333333334,293.991,-2.72605,-2.6528,-1.5209000000000001,-1.5543,-275.56,216.29500000000002,190.986875,0.0,0.0,0.0,0.0,0.0016666666666666668,-5.498166666666667,-5.498166666666667,-0.5488000000000001,1.1604999999999999,-0.005875000000000075,-1.407,65.504,-0.0351,-0.213425,1.0220000000000002,100.0,1.0,1.0,202.25,0.0,0.0,0.0,0.0,0.0,0.0,0.0,8572.6,0.0,55.0,5.0,235.78333333333333,0.0,0.0,0.0,0.0,0.0,0.0,0.0,0.0,0.006000000000000227,0.006000000000000227,0.0,0.0,0.0,55.0,616.79921,10000.0,85.0,85.0,85.0,85.0,395.0,0.0,0.0,0.0,1.0,20.0,52.673,52.673,49.545,49.545,34.0,-27.0225,23.598,-30.303333333333335,24.502499999999998,0.0,1783.715,0.8099999999999987,100.0,27.349,27.122,40.534,40.614000000000004,0.0,0.0,100.0,0.0,0.0,0.0,0.0,3059.4285714285716,3368.0,4115.625,3944.8,305.603,304.0466666666667,314.8795,314.95775,21.782,20.5107,21.762999999999998,21.3054,314.99999,314.99999,324.99998,324.99998,99.55902857142857,99.50715,99.5649,99.54495714285714,-0.004750000000000032,-0.11566666666666658,-0.16116666666666665,0.06583333333333333,-0.04833333333333201,-0.03833333333332689,1.5605,1.6055000000000001,37.138,29.192,37.019,34.158500000000004,56.318,34.444,58.973,51.507999999999996,54.233999999999995,33.6205,57.604,49.8735,53.402,33.188,57.569,49.30266666666667,-0.01100000000000001,-0.135,0.10551,0.11343,0.0,205.26999999999998,205.17000000000002,202.25,202.25,0.0,0.0
1,0.0,0.0,0.0,1.0,1.0,0.0,0.0,1.0,0.0,100.0,1.0,1.1856,26.0,0.0,0.0,0.0,59.999996,0.0,26.0,26.0,26.0,26.0,-0.10688888888888892,0.30479999999999996,0.0009333333333333334,292.938,-2.6302,-2.7693,-1.5218,-1.5546,-272.22,216.29000000000002,190.966625,0.0,0.0,0.0,0.0,0.0036000000000000003,-5.498166666666667,-5.498166666666667,-0.4974,-0.507,-0.05712500000000009,-0.1280000000000001,65.65899999999999,-0.055600000000000004,-0.1973,1.4380000000000006,100.0,1.0,1.0,202.37666666666667,0.0,0.0,0.0,0.0,0.0,0.0,0.0,8578.0,0.0,55.0,5.0,236.34,1.0,0.0,0.0,0.0,0.0,0.0,0.0,0.0,0.05699999999999861,0.05699999999999861,0.0,0.0,1.0,55.0,616.79921,10000.0,85.000001,85.000001,85.000001,85.000001,395.0,0.0,0.0,0.0,1.0,333.33500000000004,53.482,53.482,48.203,48.203,34.0,-26.43,18.49,-34.61333333333333,29.44,0.0,1783.664,0.8500000000000014,100.0,27.747,27.04,42.622,41.716,0.0,0.0,100.0,0.0,0.0,0.0,0.0,3052.714285714286,2702.1,4385.0,4731.5,305.4415,306.2366666666667,314.0525,313.074,21.792,20.5158,21.7738,21.3144,314.999998,314.999998,324.999988,324.999988,99.55904285714286,99.50716666666666,99.56505714285714,99.5451,-0.006000000000000005,-0.132,-0.176,0.03866666666666666,-0.013333333333328312,-0.041666666666671404,1.3965,1.4575,37.2,29.224,37.086,34.215,56.302,34.485,59.0185,51.573499999999996,54.219,33.658500000000004,57.6465,49.9365,53.385999999999996,33.224000000000004,57.6085,49.364333333333335,-0.010499999999999954,-0.13749999999999996,0.09551000000000001,0.11240000000000001,0.0,205.71,205.62,202.37666666666667,202.37666666666667,0.0,0.0
2,0.0,0.0,0.0,1.0,1.0,0.0,0.0,1.0,0.0,100.0,1.0,1.1856,26.0,0.0,0.0,0.0,59.999996,0.0,26.0,26.0,26.0,26.0,-0.15188888888888885,0.28659999999999997,-0.06906666666666667,293.73199999999997,-2.612,-2.7842000000000002,-1.4989,-1.5991,-268.67,216.28,190.94675,0.0,0.0,0.0,0.0,0.005666666666666667,-5.498166666666667,-5.498166666666667,-0.5494,0.27449999999999997,-0.03512499999999985,2.599,65.809,-0.0776,-0.25377500000000003,1.5239999999999991,100.0,1.0,1.0,203.35,0.0,0.0,0.0,0.0,0.0,0.0,0.0,8619.2,0.0,55.0,5.0,236.88333333333333,0.0,0.0,0.0,0.0,0.0,0.0,0.0,0.0,0.11100000000000065,0.11100000000000065,0.0,0.0,0.0,55.0,616.79921,10000.0,85.000001,85.000001,85.000001,85.000001,395.0,0.0,0.0,0.0,1.0,166.665,52.429,52.429,50.232,50.232,34.0,-28.9375,20.496,-28.82,20.747500000000002,0.0,1783.61,0.6600000000000001,100.0,28.381,26.939,42.44,41.318,0.0,0.0,100.0,0.0,0.0,0.0,0.0,3242.0,3038.1,3691.125,3761.3,304.7915,305.236,315.78875,315.58975,21.8027,20.5211,21.7848,21.3237,314.999998,314.999998,324.999988,324.999988,99.55904285714286,99.50718333333333,99.5652,99.54524285714285,-0.020750000000000046,-0.15066666666666662,-0.2235,0.013833333333333335,-0.06333333333333258,-0.04999999999999716,1.6435,1.7075,37.266999999999996,29.256666666666668,37.155,34.272999999999996,56.289,34.527,59.059,51.634,54.206,33.697,57.684,49.995,53.373000000000005,33.260999999999996,57.6435,49.42133333333334,-0.02300000000000002,-0.129,0.10658000000000001,0.11292,0.0,206.20499999999998,206.065,203.35000000000002,203.35,0.0,0.0
3,0.0,0.0,0.0,1.0,1.0,0.0,0.0,1.0,0.0,100.0,1.0,1.1856,26.0,0.0,0.0,0.0,59.999996,0.0,26.0,26.0,26.0,26.0,-0.13788888888888895,0.2974000000000001,-0.0309,293.549,-2.72935,-2.6918,-1.5075,-1.5913,-265.7,216.26999999999998,190.9295,0.0,0.0,0.0,0.0,0.0074,-5.498166666666667,-5.498166666666667,-0.5098,0.5455000000000001,-0.01175000000000015,-1.011,65.944,-0.0879,-0.200625,1.232000000000001,100.0,1.0,1.0,203.44666666666666,0.0,0.0,0.0,0.0,0.0,0.0,0.0,8623.4,0.0,55.0,5.0,237.36666666666667,1.0,0.0,0.0,0.0,0.0,0.0,0.0,0.0,0.1559999999999988,0.1559999999999988,0.0,0.0,1.0,55.0,616.79921,10000.0,85.000001,85.000001,85.000001,85.000001,395.0,0.0,0.0,0.0,1.0,166.665,53.665,53.665,48.263999999999996,48.263999999999996,34.0,-25.9725,17.66,-35.38666666666667,24.4125,0.0,1783.566,0.6000000000000014,100.0,27.825,27.06,42.254,41.407,0.0,0.0,100.0,0.0,0.0,0.0,0.0,2876.285714285714,2768.5,4351.0,4186.8,306.065,305.82233333333335,314.26025,314.4275,21.8114,20.5256,21.794,21.3315,314.999998,314.999998,324.999988,324.999988,99.55904285714286,99.5072,99.56532857142857,99.54537142857143,-0.022750000000000048,-0.15666666666666662,-0.21216666666666667,0.017333333333333333,-0.02833333333332888,-0.03999999999999915,1.49,1.554,37.321,29.285333333333334,37.213,34.322,56.274,34.564499999999995,59.094,51.689499999999995,54.191,33.7315,57.717,50.048,53.358000000000004,33.294,57.674,49.47366666666667,-0.035499999999999976,-0.11949999999999994,0.103095,0.114805,0.0,206.64,206.535,203.44666666666666,203.44666666666666,0.0,0.0
4,0.0,0.0,0.0,1.0,1.0,0.0,0.0,1.0,0.0,100.0,1.0,1.1856,26.0,0.0,0.0,0.0,59.999996,0.0,26.0,26.0,26.0,26.0,-0.1454444444444445,0.29690000000000016,-0.0345,293.686,-2.6583,-2.7466,-1.5257,-1.5973000000000002,-262.34,216.255,190.909625,0.0,0.0,0.0,0.0,0.009366666666666667,-5.498166666666667,-5.498166666666667,-0.5442,-0.8175,-0.07624999999999993,-0.488,66.09100000000001,-0.0867,-0.2361,1.1180000000000003,100.0,1.0,1.0,204.03,0.0,0.0,0.0,0.0,0.0,0.0,0.0,8648.1,0.0,55.0,5.0,237.9,0.0,0.0,0.0,0.0,0.0,0.0,0.0,0.0,0.20700000000000074,0.20700000000000074,0.0,0.0,0.0,55.0,616.79921,10000.0,85.000001,85.000001,85.000001,85.000001,395.0,0.0,0.0,0.0,1.0,166.665,53.101,53.101,48.828,48.828,34.0,-28.685000000000002,20.252,-31.75,21.205,0.0,1783.515,0.6000000000000014,100.0,27.723,26.69,42.817,41.421,0.0,0.0,100.0,0.0,0.0,0.0,0.0,3208.857142857143,2986.1,4047.75,3700.3,305.0955,305.37266666666665,314.87625,315.623,21.8211,20.5307,21.8047,21.3403,314.999998,314.999998,324.999988,324.999988,99.55905714285714,99.50721666666666,99.56547142857143,99.54551428571429,-0.01924999999999999,-0.1393333333333333,-0.1965,0.02333333333333333,-0.04999999999999716,-0.06333333333333258,1.564,1.6099999999999999,37.382,29.317,37.278999999999996,34.376999999999995,56.256,34.606,59.1365,51.749,54.174,33.7695,57.7565,50.1045,53.34,33.3305,57.710499999999996,49.528999999999996,-0.02949999999999997,-0.11499999999999999,0.102415,0.11402000000000001,0.0,207.03,206.93,204.03,204.03,0.0,0.0
5,0.0,0.0,0.0,1.0,1.0,0.0,0.0,1.0,0.0,100.0,1.0,1.1856,26.0,0.0,0.0,0.0,59.999996,0.0,26.0,26.0,26.0,26.0,-0.12011111111111106,0.31920000000000015,-0.0102,293.655,-2.6768,-2.7615,-1.5125000000000002,-1.5849,-258.96,216.2375,190.88925,0.0,0.0,0.0,0.0,0.011300000000000001,-5.498166666666667,-5.498166666666667,-0.5353,0.393,-0.07987499999999992,-0.3500000000000001,66.238,-0.0891,-0.2132,1.0600000000000005,100.0,1.0,1.0,204.42666666666668,0.0,0.0,0.0,0.0,0.0,0.0,0.0,8665.0,0.0,55.0,5.0,238.42333333333335,1.0,0.0,0.0,0.0,0.0,0.0,0.0,0.0,0.2579999999999991,0.2579999999999991,0.0,0.0,1.0,55.0,616.79921,10000.0,85.000001,85.000001,85.000001,85.000001,395.0,0.0,0.0,0.0,1.0,333.33500000000004,53.467,53.467,48.965,48.965,34.0,-28.325,19.078,-34.0,22.8425,0.0,1783.463,0.15500000000000114,100.0,27.711,26.737000000000002,42.501,41.244,0.0,0.0,100.0,0.0,0.0,0.0,0.0,3198.4285714285716,2775.4,4198.875,4040.4,305.223,305.8806666666667,314.66825,314.7905,21.8311,20.5358,21.8151,21.349,314.999998,314.999998,324.999988,324.999988,99.55905714285714,99.50723333333333,99.56561428571429,99.54564285714285,-0.012499999999999956,-0.134,-0.21733333333333335,0.0105,-0.046666666666666856,-0.02499999999999858,1.526,1.5855000000000001,37.444,29.348666666666666,37.344,34.4315,56.242000000000004,34.6465,59.1765,51.8065,54.161,33.807,57.794,50.16,53.326,33.366,57.7455,49.583333333333336,-0.056499999999999995,-0.09099999999999997,0.10586500000000001,0.109075,0.0,207.535,207.43,204.42666666666668,204.42666666666668,0.0,0.0
6,0.0,0.0,0.0,1.0,1.0,0.0,0.0,1.0,0.0,100.0,1.0,1.1856,26.0,0.0,0.0,0.0,59.999996,0.0,26.0,26.0,26.0,26.0,-0.09966666666666657,0.28800000000000003,-0.004633333333333334,293.457,-2.64025,-2.7406,-1.5534,-1.5813000000000001,-255.78,216.2175,190.869875,0.0,0.0,0.0,0.0,0.013166666666666667,-5.498166666666667,-5.498166666666667,-0.5306000000000001,0.07450000000000001,-0.06362500000000004,-0.48999999999999977,66.375,-0.0829,-0.214725,0.7439999999999998,100.0,1.0,1.0,204.85000000000002,0.0,0.0,0.0,0.0,0.0,0.0,0.0,8682.9,0.0,55.0,5.0,238.92000000000002,0.0,0.0,0.0,0.0,0.0,0.0,0.0,0.0,0.30600000000000094,0.30600000000000094,0.0,0.0,0.0,55.0,616.79921,10000.0,85.000001,85.000001,85.000001,85.000001,395.0,0.0,0.0,0.0,1.0,166.665,53.162,53.162,48.721000000000004,48.721000000000004,34.0,-27.5625,20.456,-33.29,22.735,0.0,1783.417,0.03500000000000014,100.0,27.671,26.879,42.647,41.586,0.0,0.0,100.0,0.0,0.0,0.0,0.0,3204.4285714285716,2900.4,4138.125,3986.5,305.1545,305.46,314.79775,314.9195,21.8404,20.5406,21.825,21.3575,314.999998,314.999998,324.999988,324.999988,99.55905714285714,99.50723333333333,99.56574285714285,99.54577142857143,0.0009999999999998899,-0.121,-0.20366666666666666,0.01633333333333333,-0.03999999999999915,-0.030000000000001137,1.5305,1.5835,37.501999999999995,29.378999999999998,37.406,34.484,56.227000000000004,34.6845,59.215,51.865,54.147,33.842,57.83,50.216,53.311,33.3995,57.7785,49.63766666666667,-0.06999999999999995,-0.07350000000000012,0.10367000000000001,0.10684500000000001,0.0,207.935,207.86,204.85000000000002,204.85,0.0,0.0
7,0.0,0.0,0.0,1.0,1.0,0.0,0.0,1.0,0.0,100.0,1.0,1.1856,26.0,0.0,0.0,0.0,59.999996,0.0,26.0,26.0,26.0,26.0,-0.08011111111111102,0.28190000000000004,0.04556666666666667,293.213,-2.60945,-2.7322,-1.5150000000000001,-1.6237,-252.39,216.1925,190.8495,0.0,0.0,0.0,0.0,0.015133333333333335,-5.498166666666667,-5.498166666666667,-0.5345,0.022499999999999964,-0.04899999999999993,1.1079999999999997,66.522,-0.0648,-0.22345,0.33000000000000007,100.0,1.0,1.0,205.26999999999998,0.0,0.0,0.0,0.0,0.0,0.0,0.0,8700.6,0.0,55.0,5.0,239.45,1.0,0.0,0.0,0.0,0.0,0.0,0.0,0.0,0.3569999999999993,0.3569999999999993,0.0,0.0,1.0,55.0,616.79921,10000.0,85.000001,85.000001,85.000001,85.000001,395.0,0.0,0.0,0.0,1.0,166.665,52.795,52.795,48.843,48.843,34.0,-25.997500000000002,22.747999999999998,-30.516666666666666,25.747500000000002,0.0,1783.365,-0.2049999999999983,100.0,27.927,26.8,42.778999999999996,41.753,0.0,0.0,100.0,0.0,0.0,0.0,0.0,3187.142857142857,3062.2,4032.625,4079.6000000000004,304.963,305.1306666666667,314.943,314.699,21.8503,20.5458,21.8355,21.3664,314.999998,314.999998,324.999988,324.999988,99.55905714285714,99.50725,99.5659,99.54591428571429,0.034250000000000114,-0.09166666666666656,-0.17383333333333334,0.048,-0.02833333333332888,-0.04999999999999716,1.526,1.5465,37.564,29.41133333333333,37.472,34.54,56.212,34.724000000000004,59.254999999999995,51.9265,54.132999999999996,33.8785,57.8675,50.2745,53.296,33.4345,57.813,49.69533333333334,-0.09050000000000002,-0.06299999999999994,0.107935,0.10747500000000001,0.0,208.365,208.32999999999998,205.26999999999998,205.26999999999998,0.0,0.0
8,0.0,0.0,0.0,1.0,1.0,0.0,0.0,1.0,0.0,100.0,1.0,1.1856,26.0,0.0,0.0,0.0,59.999996,0.0,26.0,26.0,26.0,26.0,-0.03688888888888886,0.2904,-0.03806666666666667,293.472,-2.69915,-2.7121,-1.4988000000000001,-1.5743,-248.99,216.16750000000002,190.828875,0.0,0.0,0.0,0.0,0.0171,-5.498166666666667,-5.498166666666667,-0.5353,-0.5095000000000001,-0.03312500000000007,-0.47699999999999987,66.668,-0.045700000000000005,-0.21480000000000002,-0.040000000000000036,100.0,1.0,1.0,205.65,0.0,0.0,0.0,0.0,0.0,0.0,0.0,8716.8,0.0,55.0,5.0,239.97333333333333,0.0,0.0,0.0,0.0,0.0,0.0,0.0,0.0,0.40800000000000125,0.40800000000000125,0.0,0.0,0.0,55.0,616.79921,10000.0,85.000001,85.000001,85.000001,85.000001,395.0,0.0,0.0,0.0,1.0,166.665,53.696,53.696,48.141,48.141,34.0,-23.925,22.034,-30.81,26.372500000000002,0.0,1783.314,-0.3550000000000004,100.0,27.386,26.899,42.688,41.959,0.0,0.0,100.0,0.0,0.0,0.0,0.0,2967.4285714285716,2906.1,4176.75,4104.3,305.9005,305.4576666666667,314.6305,314.55375,21.8599,20.551,21.846,21.3754,314.999998,314.999998,324.999988,324.999988,99.55907142857143,99.50726666666667,99.56604285714286,99.54605714285714,0.04475000000000007,-0.07599999999999996,-0.15783333333333335,0.06533333333333333,-0.045000000000001705,-0.02833333333332888,1.512,1.514,37.623999999999995,29.443333333333335,37.537,34.596000000000004,56.195,34.762,59.295,51.987,54.117000000000004,33.9135,57.9045,50.333,53.278999999999996,33.468,57.847,49.75233333333333,-0.09850000000000003,-0.04249999999999998,0.10739000000000001,0.10574000000000001,0.0,208.79500000000002,208.785,205.65,205.65,0.0,0.0
9,0.0,0.0,0.0,1.0,1.0,0.0,0.0,1.0,0.0,100.0,1.0,1.1856,26.0,0.0,0.0,0.0,59.999996,0.0,26.0,26.0,26.0,26.0,-0.027888888888888852,0.29269999999999996,0.04303333333333333,293.076,-2.62185,-2.7216,-1.5538,-1.5617,-245.59,216.14,190.80775,0.0,0.0,0.0,0.0,0.019100000000000002,-5.498166666666667,-5.498166666666667,-0.5402,0.7315,-0.032500000000000195,0.8980000000000001,66.81,-0.0233,-0.214925,-0.21999999999999975,100.0,1.0,1.0,206.19666666666666,0.0,0.0,0.0,0.0,0.0,0.0,0.0,8740.0,0.0,55.0,5.0,240.48666666666668,1.0,0.0,0.0,0.0,0.0,0.0,0.0,0.0,0.45899999999999963,0.45899999999999963,0.0,0.0,1.0,55.0,616.79921,10000.0,85.000001,85.000001,85.000001,85.000001,395.0,0.0,0.0,0.0,1.0,166.665,52.383,52.383,49.103,49.103,34.0,-24.3525,24.497999999999998,-28.136666666666663,27.2725,0.0,1783.263,-0.4750000000000014,100.0,28.058,27.234,42.403999999999996,41.891999999999996,0.0,0.0,100.0,0.0,0.0,0.0,0.0,3255.857142857143,3092.4,4021.0,4117.1,304.8075,304.99033333333335,315.09125,314.69475,21.8697,20.5563,21.8563,21.3843,314.999998,314.999998,324.999988,324.999988,99.55907142857143,99.50726666666667,99.56617142857142,99.5462,0.08599999999999985,-0.05499999999999994,-0.1245,0.092,-0.03833333333332689,-0.060000000000002274,1.5745,1.562,37.686,29.477,37.602000000000004,34.6515,56.183,34.8015,59.3315,52.047,54.104,33.95,57.939,50.3905,53.266,33.503,57.8785,49.80866666666667,-0.11849999999999994,-0.043500000000000094,0.10338000000000001,0.09973000000000001,0.0,209.255,209.275,206.19666666666666,206.19666666666666,0.0,0.0
10,0.0,0.0,0.0,1.0,1.0,0.0,0.0,1.0,0.0,100.0,1.0,1.1856,26.0,0.0,0.0,0.0,59.999996,0.0,26.0,26.0,26.0,26.0,0.012777777777777777,0.2894000000000001,0.05316666666666667,292.969,-2.66215,-2.7071,-1.5371000000000001,-1.5333,-242.38,216.1125,190.78825,0.0,0.0,0.0,0.0,0.020966666666666668,-5.498166666666667,-5.498166666666667,-0.5189,-0.5475,0.011125000000000052,1.8479999999999999,66.94800000000001,-0.0045000000000000005,-0.20685,-0.54,100.0,1.0,1.0,206.43,0.0,0.0,0.0,0.0,0.0,0.0,0.0,8749.9,0.0,55.0,5.0,240.98333333333335,0.0,0.0,0.0,0.0,0.0,0.0,1.0,0.0,0.5069999999999979,0.5069999999999979,0.0,0.0,0.0,55.0,616.79921,10000.0,85.000001,85.000001,85.000001,85.000001,395.0,0.0,0.0,0.0,1.0,166.665,53.467,53.467,47.623,47.623,34.0,-20.37,23.956,-28.866666666666664,30.775000000000002,0.0,1783.215,-0.5899999999999999,100.0,27.814,27.199,42.897,42.612,0.0,0.0,100.0,0.0,0.0,0.0,0.0,2803.5714285714284,2976.7,4226.625,4342.3,306.2195,305.42566666666664,314.431,314.08025,21.8788,20.5613,21.8663,21.3929,314.999998,314.999998,324.999988,324.999988,99.55908571428571,99.50728333333333,99.56631428571428,99.54634285714286,0.09549999999999992,-0.036666666666666625,-0.09783333333333333,0.11983333333333333,-0.03333333333333144,-0.061666666666667425,1.482,1.4545,37.742999999999995,29.508,37.665,34.7055,56.17,34.836,59.3705,52.1075,54.093,33.982,57.975,50.448499999999996,53.254000000000005,33.533500000000004,57.912,49.86566666666667,-0.12449999999999994,-0.026000000000000023,0.10200000000000001,0.10605,0.0,209.655,209.68,206.43,206.43,0.0,0.0
11,0.0,0.0,0.0,1.0,1.0,0.0,0.0,1.0,0.0,100.0,1.0,1.1856,26.0,0.0,0.0,0.0,59.999996,0.0,26.0,26.0,26.0,26.0,0.056666666666666865,0.2659,-0.10296666666666668,293.51800000000003,-2.71165,-2.6809000000000003,-1.5923,-1.521,-238.96,216.085,190.767625,0.0,0.0,0.0,0.0,0.022600000000000002,-5.498166666666667,-5.498166666666667,-0.5621,-0.16149999999999998,0.03337499999999993,-0.7229999999999999,67.087,0.0146,-0.23767500000000003,-0.6320000000000006,100.0,1.0,1.0,207.17333333333335,0.0,0.0,0.0,0.0,0.0,0.0,0.0,8781.4,0.0,55.0,5.0,241.48333333333335,1.0,0.0,0.0,0.0,0.0,0.0,1.0,0.0,0.5579999999999998,0.5579999999999998,0.0,0.0,1.0,55.0,616.79921,10000.0,85.000001,85.000001,85.000001,85.000001,395.0,0.0,0.0,0.0,1.0,166.665,52.795,52.795,49.271,49.271,34.0,-22.335,25.560000000000002,-24.36,26.98,0.0,1783.163,-0.6699999999999982,100.0,27.471,27.604,42.249,42.619,0.0,0.0,100.0,0.0,0.0,0.0,0.0,3076.857142857143,3094.7,3717.0,3850.7,305.586,304.82166666666666,315.85125,315.2715,21.8883,20.5667,21.8766,21.4018,314.999998,314.999998,324.999988,324.999988,99.5591,99.50728333333333,99.56645714285715,99.54647142857142,0.10975000000000001,-0.02633333333333332,-0.09383333333333332,0.14333333333333334,-0.054999999999999716,-0.04333333333332945,1.647,1.608,37.802,29.541666666666664,37.729,34.7615,56.156,34.874,59.405,52.167500000000004,54.079,34.0165,58.007,50.5065,53.239000000000004,33.567,57.941,49.922333333333334,-0.12849999999999995,-0.028000000000000025,0.111015,0.11301000000000001,0.0,210.06,210.095,207.17333333333335,207.17333333333335,0.0,0.0
12,0.0,0.0,0.0,1.0,1.0,0.0,0.0,1.0,0.0,100.0,1.0,1.1856,26.0,0.0,0.0,0.0,59.999996,0.0,26.0,26.0,26.0,26.0,0.05777777777777793,0.2833000000000001,0.035633333333333336,292.892,-2.76255,-2.6793,-1.5516,-1.5239,-235.74,216.06,190.74675,0.0,0.0,0.0,0.0,0.025466666666666665,-5.498166666666667,-5.498166666666667,-0.5465,0.2945,0.016874999999999973,-0.8929999999999998,67.224,0.031,-0.20652500000000001,-0.6679999999999993,100.0,1.0,1.0,207.35666666666668,0.0,0.0,0.0,0.0,0.0,0.0,0.0,8789.1,0.0,55.0,5.0,241.97666666666666,0.0,0.0,0.0,0.0,0.0,0.0,1.0,0.0,0.6059999999999981,0.6059999999999981,0.0,0.0,0.0,55.0,616.79921,10000.0,85.000001,85.000001,85.000001,85.000001,395.0,0.0,0.0,0.0,1.0,333.33500000000004,52.78,52.78,47.928,47.928,34.0,-23.072499999999998,26.162,-27.883333333333333,30.47,0.0,1783.114,-0.6449999999999996,100.0,27.379,27.774,42.221000000000004,42.58,0.0,0.0,100.0,0.0,0.0,0.0,0.0,3134.4285714285716,3100.8,4245.75,4170.4,305.4695,304.8276666666667,314.56575,314.474,21.8973,20.5718,21.8864,21.4103,314.999998,314.999998,324.999988,324.999988,99.55911428571429,99.5073,99.56658571428571,99.54661428571428,0.11375000000000002,-0.01200000000000001,-0.08,0.14783333333333334,-0.051666666666669414,-0.046666666666666856,1.5215,1.504,37.858000000000004,29.573666666666668,37.79,34.814,56.144,34.9095,59.4415,52.225,54.067,34.0495,58.0405,50.5615,53.226,33.5985,57.972,49.976333333333336,-0.12,-0.02849999999999997,0.112295,0.105065,0.0,210.51,210.555,207.35666666666668,207.35666666666668,0.0,0.0
13,0.0,0.0,0.0,1.0,1.0,0.0,0.0,1.0,0.0,100.0,1.0,1.1856,26.0,0.0,0.0,0.0,59.999996,0.0,26.0,26.0,26.0,26.0,0.08088888888888901,0.27900000000000014,0.03926666666666667,292.542,-2.70615,-2.6694,-1.5903,-1.5081,-232.1,216.035,190.723875,0.0,0.0,0.0,0.0,0.026933333333333333,-5.498166666666667,-5.498166666666667,-0.5398000000000001,-0.11749999999999994,0.02212499999999995,-0.44099999999999984,67.374,0.039900000000000005,-0.21775,-0.7699999999999996,100.0,1.0,1.0,207.76999999999998,0.0,0.0,0.0,0.0,0.0,0.0,0.0,8806.6,0.0,55.0,5.0,242.51999999999998,1.0,0.0,0.0,0.0,0.0,0.0,1.0,0.0,0.6600000000000001,0.6600000000000001,0.0,0.0,1.0,55.0,616.79921,10000.0,85.000001,85.000001,85.000001,85.000001,395.0,0.0,0.0,0.0,1.0,166.665,52.444,52.444,47.943,47.943,34.0,-21.595,26.887999999999998,-26.91,32.2,0.0,1783.062,-0.8449999999999989,100.0,27.665,27.951,42.468,43.11,0.0,0.0,100.0,0.0,0.0,0.0,0.0,3151.285714285714,3093.9,4189.125,4290.7,305.339,304.834,314.6645,314.14525,21.9075,20.5777,21.8975,21.42,314.999998,314.999998,324.999988,324.999988,99.55912857142857,99.5073,99.56674285714286,99.54677142857143,0.14024999999999999,0.0086666666666666,-0.057833333333333334,0.16033333333333336,-0.04999999999999716,-0.046666666666666856,1.5085,1.4675,37.922,29.610333333333333,37.86,34.875,56.132999999999996,34.95,59.4825,52.293,54.057,34.087,58.079,50.627,53.215,33.6345,58.007,50.04066666666667,-0.14300000000000002,-0.010000000000000009,0.09712000000000001,0.107785,0.0,210.97500000000002,211.005,207.76999999999998,207.76999999999998,0.0,0.0
14,0.0,0.0,0.0,1.0,1.0,0.0,0.0,1.0,0.0,100.0,1.0,1.1856,26.0,0.0,0.0,0.0,59.999996,0.0,26.0,26.0,26.0,26.0,0.09600000000000009,0.2896000000000001,-0.015600000000000001,292.831,-2.7418,-2.6118,-1.6,-1.5097,-228.87,216.0125,190.703875,0.0,0.0,0.0,0.0,0.028800000000000003,-5.498166666666667,-5.498166666666667,-0.549,-0.16100000000000003,0.052000000000000046,-0.11099999999999977,67.506,0.047400000000000005,-0.228575,-0.9100000000000001,100.0,1.0,1.0,208.26333333333332,0.0,0.0,0.0,0.0,0.0,0.0,0.0,8827.6,0.0,55.0,5.0,242.99333333333334,0.0,0.0,0.0,0.0,0.0,0.0,1.0,0.0,0.7079999999999984,0.7079999999999984,0.0,0.0,0.0,55.0,616.79921,10000.0,85.000001,85.000001,85.000001,85.000001,395.0,0.0,0.0,0.0,1.0,333.33500000000004,52.643,52.643,48.157,48.157,34.0,-20.537499999999998,27.412,-25.259999999999998,31.3225,0.0,1783.013,-1.004999999999999,100.0,27.512,27.983,42.400999999999996,43.259,0.0,0.0,100.0,0.0,0.0,0.0,0.0,3029.0,3168.4,3989.0,4163.4,305.7435,304.62733333333335,315.143,314.4865,21.9165,20.5828,21.9073,21.4286,314.999998,314.999998,324.999988,324.999988,99.55914285714286,99.5073,99.56688571428572,99.5469,0.14900000000000002,0.016666666666666607,-0.057666666666666665,0.171,-0.06333333333333258,-0.04833333333333201,1.5705,1.525,37.977999999999994,29.642666666666663,37.921,34.9285,56.123000000000005,34.986,59.5165,52.352000000000004,54.047,34.12,58.1105,50.684,53.204,33.6665,58.0355,50.096666666666664,-0.15249999999999997,-0.0044999999999999485,0.104385,0.11159500000000001,0.0,211.37,211.425,208.26333333333332,208.26333333333332,0.0,0.0
15,0.0,0.0,0.0,1.0,1.0,0.0,0.0,1.0,0.0,100.0,1.0,1.1856,26.0,0.0,0.0,0.0,59.999996,0.0,26.0,26.0,26.0,26.0,0.10788888888888892,0.2781,0.022333333333333337,292.862,-2.7442,-2.5772,-1.6252,-1.4533,-225.42000000000002,215.9925,190.68225,0.0,0.0,0.0,0.0,0.0308,-5.498166666666667,-5.498166666666667,-0.5384,0.22599999999999998,0.082125,0.7070000000000003,67.646,0.061700000000000005,-0.20625000000000002,-1.242,100.0,1.0,1.0,208.66666666666669,0.0,0.0,0.0,0.0,0.0,0.0,0.0,8844.7,0.0,55.0,5.0,243.49666666666667,1.0,0.0,0.0,0.0,0.0,0.0,1.0,0.0,0.7590000000000003,0.7590000000000003,0.0,0.0,1.0,55.0,616.79921,10000.0,85.000001,85.000001,85.000001,85.000001,395.0,0.0,0.0,0.0,1.0,166.665,52.917,52.917,48.157,48.157,34.0,-18.03,28.476,-24.303333333333335,34.254999999999995,0.0,1782.963,-1.0149999999999988,100.0,27.593,27.865000000000002,42.232,43.258,0.0,0.0,100.0,0.0,0.0,0.0,0.0,2790.5714285714284,3240.0,3940.875,4419.9,306.2995,304.573,315.242,313.95925,21.926,20.5884,21.9176,21.4377,314.999998,314.999998,324.999988,324.999988,99.55917142857143,99.5073,99.56701428571428,99.54704285714286,0.16975000000000007,0.03733333333333322,-0.036833333333333336,0.19616666666666666,-0.041666666666671404,-0.054999999999999716,1.5455,1.491,38.038,29.677333333333333,37.985,34.9855,56.113,35.025,59.552,52.4155,54.037,34.1565,58.143,50.745,53.193,33.701,58.065,50.156666666666666,-0.15700000000000003,0.0030000000000000027,0.11185,0.106215,0.0,211.805,211.87,208.66666666666669,208.66666666666669,0.0,0.0
16,0.0,0.0,0.0,1.0,1.0,0.0,0.0,1.0,0.0,100.0,1.0,1.1856,26.0,0.0,0.0,0.0,59.999996,0.0,26.0,26.0,26.0,26.0,0.13400000000000012,0.26439999999999997,-0.03743333333333333,292.816,-2.8048,-2.5831,-1.5996000000000001,-1.5137,-221.97,215.975,190.660125,0.0,0.0,0.0,0.0,0.03283333333333333,-5.498166666666667,-5.498166666666667,-0.5627,-0.6759999999999999,0.06600000000000006,-1.113,67.786,0.0756,-0.22662500000000002,-1.186,100.0,1.0,1.0,209.12,0.0,0.0,0.0,0.0,0.0,0.0,0.0,8863.8,0.0,55.0,5.0,244.00333333333333,0.0,0.0,0.0,0.0,0.0,0.0,1.0,0.0,0.8099999999999987,0.8099999999999987,0.0,0.0,0.0,55.0,616.79921,10000.0,85.000001,85.000001,85.000001,85.000001,395.0,0.0,0.0,0.0,1.0,166.665,52.567,52.567,48.019,48.019,34.0,-20.995,28.59,-23.193333333333335,32.4275,0.0,1782.912,-0.8999999999999986,100.0,27.18,28.131,42.423,43.452,0.0,0.0,100.0,0.0,0.0,0.0,0.0,3098.857142857143,3242.0,3934.0,4096.9,305.68,304.44233333333335,315.27975,314.623,21.935200000000002,20.594,21.9281,21.4468,314.999998,314.999998,324.999988,324.999988,99.55918571428572,99.50731666666667,99.56715714285714,99.5472,0.1612499999999999,0.03433333333333333,-0.0245,0.20266666666666666,-0.041666666666671404,-0.041666666666671404,1.5685,1.5194999999999999,38.095,29.712333333333333,38.05,35.042500000000004,56.099999999999994,35.064499999999995,59.59,52.4775,54.025,34.193,58.179,50.805,53.18,33.7365,58.0975,50.215666666666664,-0.14349999999999996,-0.006000000000000005,0.10635000000000001,0.10690000000000001,0.0,212.2,212.28,209.12,209.12,0.0,0.0
17,0.0,0.0,0.0,1.0,1.0,0.0,0.0,1.0,0.0,100.0,1.0,1.1856,26.0,0.0,0.0,0.0,59.999996,0.0,26.0,26.0,26.0,26.0,0.11966666666666681,0.2913000000000001,0.012766666666666667,292.465,-2.767,-2.5633,-1.6409,-1.4755,-218.71,215.96,190.638875,0.0,0.0,0.0,0.0,0.0347,-5.498166666666667,-5.498166666666667,-0.5495,0.48750000000000004,0.04699999999999993,-0.653,67.917,0.0789,-0.20515,-1.12,100.0,1.0,1.0,209.46333333333334,0.0,0.0,0.0,0.0,0.0,0.0,0.0,8878.4,0.0,55.0,5.0,244.47333333333336,1.0,0.0,0.0,0.0,0.0,0.0,1.0,0.0,0.8580000000000005,0.8580000000000005,0.0,0.0,1.0,55.0,616.79921,10000.0,85.000001,85.000001,85.000001,85.000001,395.0,0.0,0.0,0.0,1.0,166.665,52.46,52.46,47.76,47.76,34.0,-20.1225,27.055999999999997,-26.009999999999998,33.83,0.0,1782.864,-0.9849999999999994,100.0,27.676,28.408,42.229,43.443,0.0,0.0,100.0,0.0,0.0,0.0,0.0,3098.857142857143,3080.4,4275.375,4285.2,305.5955,304.938,314.58375,314.2635,21.9442,20.5993,21.9378,21.4554,314.999998,314.999998,324.999988,324.999988,99.5592,99.50731666666667,99.56728571428572,99.54734285714285,0.17525000000000013,0.040999999999999925,-0.021166666666666667,0.20583333333333334,-0.06499999999999773,-0.051666666666669414,1.5485,1.496,38.150999999999996,29.746000000000002,38.111000000000004,35.096000000000004,56.093,35.1035,59.6235,52.536500000000004,54.018,34.229,58.2095,50.8615,53.171,33.771,58.1255,50.271,-0.15800000000000003,-0.0030000000000001137,0.10720500000000001,0.11138,0.0,212.655,212.72,209.46333333333334,209.46333333333334,0.0,0.0
18,0.0,0.0,0.0,1.0,1.0,0.0,0.0,1.0,0.0,100.0,1.0,1.1856,26.0,0.0,0.0,0.0,59.999996,0.0,26.0,26.0,26.0,26.0,0.139,0.2752000000000001,-0.030533333333333332,292.465,-2.79905,-2.5391,-1.6573,-1.4215,-215.45,215.95,190.61775,0.0,0.0,0.0,0.0,0.0366,-5.498166666666667,-5.498166666666667,-0.5601,-0.552,0.072125,-0.15600000000000014,68.047,0.0806,-0.223,-1.2400000000000002,100.0,1.0,1.0,209.89,0.0,0.0,0.0,0.0,0.0,0.0,0.0,8896.5,0.0,55.0,5.0,244.94,0.0,0.0,0.0,0.0,0.0,0.0,1.0,0.0,0.9059999999999988,0.9059999999999988,0.0,0.0,0.0,55.0,616.79921,10000.0,85.000001,85.000001,85.000001,85.000001,395.0,0.0,0.0,0.0,1.0,333.33500000000004,52.353,52.353,47.699,47.699,34.0,-19.794999999999998,29.637999999999998,-24.953333333333333,31.9425,0.0,1782.814,-1.2400000000000002,100.0,27.437,28.276,42.545,43.855000000000004,0.0,0.0,100.0,0.0,0.0,0.0,0.0,3091.142857142857,3281.2,4052.875,4183.6,305.664,304.365,315.04925,314.485,21.953,20.6046,21.9476,21.4641,314.999998,314.999998,324.999988,324.999988,99.55922857142858,99.50731666666667,99.56742857142856,99.54747142857143,0.18725000000000014,0.06033333333333335,-0.026833333333333334,0.202,-0.054999999999999716,-0.041666666666671404,1.556,1.506,38.206,29.778666666666666,38.173,35.150999999999996,56.084,35.1415,59.659,52.597,54.009,34.263999999999996,58.243,50.92,53.161,33.8045,58.1555,50.32866666666666,-0.16849999999999998,0.014499999999999957,0.10472500000000001,0.109575,0.0,213.03,213.095,209.89,209.89,0.0,0.0
19,0.0,0.0,0.0,1.0,1.0,0.0,0.0,1.0,0.0,100.0,1.0,1.1856,26.0,0.0,0.0,0.0,59.999996,0.0,26.0,26.0,26.0,26.0,0.17222222222222228,0.2953000000000001,0.061000000000000006,291.885,-2.72275,-2.6309,-1.6767,-1.3998,-211.76999999999998,215.9425,190.593875,0.0,0.0,0.0,0.0,0.03876666666666667,-5.498166666666667,-5.498166666666667,-0.5477000000000001,0.8085,0.08650000000000002,-0.5569999999999999,68.193,0.0901,-0.21030000000000001,-1.6339999999999995,100.0,1.0,1.0,210.26999999999998,0.0,0.0,0.0,0.0,0.0,0.0,0.0,8912.5,0.0,55.0,5.0,245.46666666666667,1.0,0.0,0.0,0.0,0.0,0.0,1.0,0.0,0.9600000000000009,0.9600000000000009,0.0,0.0,1.0,55.0,616.79921,10000.0,85.000001,85.000001,85.000001,85.000001,395.0,0.0,0.0,0.0,1.0,166.665,51.758,51.758,47.318,47.318,34.0,-17.697499999999998,31.098,-25.663333333333334,35.082499999999996,0.0,1782.762,-1.6150000000000002,100.0,27.942,28.886,42.287,43.945,0.0,0.0,100.0,0.0,0.0,0.0,0.0,3061.0,3233.1,4251.375,4483.0,305.58,304.23533333333336,314.629,313.7895,21.9631,20.6108,21.9586,21.4739,314.999998,314.999998,324.999988,324.999988,99.55925714285715,99.50733333333334,99.56758571428571,99.54764285714286,0.21700000000000008,0.07833333333333337,-0.006333333333333333,0.213,-0.04999999999999716,-0.05333333333332746,1.526,1.482,38.269,29.817333333333334,38.241,35.2115,56.077,35.1885,59.696,52.664500000000004,54.001999999999995,34.3075,58.277,50.985,53.153,33.8465,58.1865,50.39266666666666,-0.2005,0.040000000000000036,0.10454000000000001,0.09854500000000001,0.0,213.49,213.60000000000002,210.26999999999998,210.26999999999998,0.0,0.0
20,0.0,0.0,0.0,1.0,1.0,0.0,0.0,1.0,0.0,100.0,1.0,1.1856,26.0,0.0,0.0,0.0,59.999996,0.0,26.0,26.0,26.0,26.0,0.21033333333333326,0.2781,0.04306666666666667,292.374,-2.8235,-2.5834,-1.6099,-1.5144000000000002,-208.29,215.9375,190.5715,0.0,0.0,0.0,0.0,0.04076666666666667,-5.498166666666667,-5.498166666666667,-0.5593,-1.2955,0.09775,0.5140000000000002,68.331,0.10840000000000001,-0.22645,-2.098,100.0,1.0,1.0,210.66333333333333,0.0,0.0,0.0,0.0,0.0,0.0,0.0,8929.2,0.0,55.0,5.0,245.96666666666667,0.0,0.0,0.0,0.0,0.0,0.0,0.0,0.0,1.0109999999999992,1.0109999999999992,0.0,0.0,0.0,55.0,616.79921,10000.0,85.000001,85.000001,85.000001,85.000001,395.0,0.0,0.0,0.0,1.0,166.665,52.689,52.689,47.134,47.134,34.0,-15.782499999999999,32.048,-21.490000000000002,37.195,0.0,1782.712,-1.7799999999999994,100.0,27.415,28.389,42.812,44.324,0.0,0.0,100.0,0.0,0.0,0.0,0.0,2803.4285714285716,3302.9,3997.625,4304.2,306.4115,304.4103333333333,315.02075,314.1355,21.9722,20.6164,21.9691,21.4832,314.999998,314.999998,324.999988,324.999988,99.55928571428572,99.50735,99.56772857142857,99.54778571428571,0.24175000000000013,0.10633333333333339,0.026000000000000002,0.249,-0.04999999999999716,-0.06833333333332803,1.5235,1.4475,38.326,29.852666666666664,38.307,35.269999999999996,56.067,35.2315,59.7355,52.730000000000004,53.992000000000004,34.3475,58.3135,51.048500000000004,53.141999999999996,33.885,58.2195,50.45466666666667,-0.21550000000000002,0.058499999999999996,0.10083500000000001,0.10760000000000002,0.0,213.84,213.995,210.66333333333333,210.66333333333333,0.0,0.0
21,0.0,0.0,0.0,1.0,1.0,0.0,0.0,1.0,0.0,100.0,1.0,1.1856,26.0,0.0,0.0,0.0,59.999996,0.0,26.0,26.0,26.0,26.0,0.23855555555555563,0.27870000000000017,-0.07696666666666667,292.618,-2.75205,-2.6203000000000003,-1.6828,-1.4654,-205.20999999999998,215.94,190.551125,0.0,0.0,0.0,0.0,0.04256666666666667,-5.498166666666667,-5.498166666666667,-0.5798,0.5045,0.08887500000000004,-0.738,68.447,0.1278,-0.22645,-2.314,100.0,1.0,1.0,211.25,0.0,0.0,0.0,0.0,0.0,0.0,0.0,8954.1,0.0,55.0,5.0,246.38333333333333,1.0,0.0,0.0,0.0,0.0,0.0,0.0,0.0,1.056000000000001,1.056000000000001,0.0,0.0,1.0,55.0,616.79921,10000.0,85.000001,85.000001,85.000001,85.000001,395.0,0.0,0.0,0.0,1.0,166.665,52.185,52.185,48.278999999999996,48.278999999999996,34.0,-16.7075,31.198,-20.556666666666665,34.7675,0.0,1782.666,-1.33,100.0,27.547,28.826999999999998,42.028999999999996,43.99,0.0,0.0,100.0,0.0,0.0,0.0,0.0,3002.714285714286,3213.2,3902.0,4094.8,305.81,304.4173333333333,315.4805,314.73325,21.9805,20.6216,21.978,21.4912,314.999998,314.999998,324.999988,324.999988,99.55931428571428,99.50736666666667,99.56785714285714,99.54791428571428,0.23550000000000004,0.09233333333333338,0.0395,0.271,-0.036666666666668846,-0.04999999999999716,1.637,1.5575,38.378,29.884999999999998,38.363,35.32,56.062,35.272999999999996,59.763,52.784,53.986999999999995,34.385999999999996,58.339,51.1,53.135999999999996,33.922,58.2425,50.50566666666667,-0.1995,0.03400000000000003,0.10826000000000001,0.10892500000000001,0.0,214.23000000000002,214.39499999999998,211.25,211.25,0.0,0.0
22,0.0,0.0,0.0,1.0,1.0,0.0,0.0,1.0,0.0,100.0,1.0,1.1856,26.0,0.0,0.0,0.0,59.999996,0.0,26.0,26.0,26.0,26.0,0.17622222222222228,0.2682,0.0046,292.13,-2.741,-2.6185,-1.6772,-1.454,-201.70999999999998,215.9475,190.527375,0.0,0.0,0.0,0.0,0.0446,-5.498166666666667,-5.498166666666667,-0.5577,0.09000000000000008,0.0987499999999999,0.8439999999999999,68.586,0.1427,-0.207875,-1.3779999999999992,100.0,1.0,1.0,211.45333333333332,0.0,0.0,0.0,0.0,0.0,0.0,0.0,8962.7,0.0,55.0,5.0,246.88333333333333,0.0,0.0,0.0,0.0,0.0,0.0,0.0,0.0,1.1069999999999993,1.1069999999999993,0.0,0.0,0.0,55.0,616.79921,10000.0,85.000001,85.000001,85.000001,85.000001,395.0,0.0,0.0,0.0,1.0,166.665,52.307,52.307,47.15,47.15,34.0,-18.215,28.846,-22.310000000000002,38.707499999999996,0.0,1782.615,-0.07499999999999929,100.0,27.735,28.741,42.471000000000004,44.244,0.0,0.0,100.0,0.0,0.0,0.0,0.0,2779.285714285714,3279.5,4109.875,4457.9,306.2595,304.3496666666667,314.85125,313.90475,21.9898,20.6274,21.9885,21.5006,314.999998,314.999998,324.999988,324.999988,99.55932857142857,99.50736666666667,99.568,99.54807142857143,0.16500000000000004,0.023666666666666725,0.04083333333333334,0.26816666666666666,-0.03499999999999659,-0.04999999999999716,1.5145,1.4555,38.436,29.921333333333333,38.428,35.3785,56.053,35.316,59.8015,52.8505,53.977999999999994,34.4255,58.3745,51.164500000000004,53.125,33.96,58.2745,50.568666666666665,-0.08299999999999996,-0.07550000000000012,0.10644,0.10945500000000001,0.0,214.69,214.79500000000002,211.45333333333332,211.45333333333332,0.0,0.0
23,0.0,0.0,0.0,1.0,1.0,0.0,0.0,1.0,0.0,100.0,1.0,1.1856,26.0,0.0,0.0,0.0,59.999996,0.0,26.0,26.0,26.0,26.0,0.11644444444444435,0.24740000000000006,-0.04056666666666667,292.145,-2.75405,-2.5888999999999998,-1.5775000000000001,-1.5453999999999999,-198.20999999999998,215.96,190.503875,0.0,0.0,0.0,0.0,0.04663333333333333,-5.498166666666667,-5.498166666666667,-0.5769000000000001,-0.1985,0.06487500000000002,-1.19,68.72,0.11460000000000001,-0.23405,0.040000000000000924,100.0,1.0,1.0,211.98000000000002,0.0,0.0,0.0,0.0,0.0,0.0,0.0,8985.1,0.0,55.0,5.0,247.36666666666667,1.0,0.0,0.0,0.0,0.0,0.0,0.0,0.0,1.1580000000000013,1.1580000000000013,0.0,0.0,1.0,55.0,616.79921,10000.0,85.000001,85.000001,85.000001,85.000001,395.0,0.0,0.0,0.0,1.0,333.33500000000004,51.697,51.697,48.187,48.187,34.0,-24.0425,25.369999999999997,-22.189999999999998,32.322500000000005,0.0,1782.563,0.7899999999999991,100.0,27.996,28.803,42.659,44.43,0.0,0.0,100.0,0.0,0.0,0.0,0.0,3217.714285714286,3167.4,3925.0,3982.6000000000004,305.151,304.601,315.30125,314.889,21.9991,20.6332,21.9989,21.5098,314.999998,314.999998,324.999988,324.999988,99.55934285714285,99.50736666666667,99.56814285714286,99.54822857142857,0.10975000000000001,-0.02833333333333332,-0.009166666666666667,0.21433333333333335,-0.07166666666666544,-0.045000000000001705,1.5485,1.532,38.494,29.957333333333334,38.492999999999995,35.4365,56.041,35.3555,59.8375,52.914500000000004,53.966,34.4625,58.408,51.226,53.113,33.9955,58.305,50.629333333333335,-0.02100000000000002,-0.135,0.10714000000000001,0.10538000000000002,0.0,215.16,215.135,211.98000000000002,211.98000000000002,0.0,0.0
24,0.0,0.0,0.0,1.0,1.0,0.0,0.0,1.0,0.0,100.0,1.0,1.1856,26.0,0.0,0.0,0.0,59.999996,0.0,26.0,26.0,26.0,26.0,0.02833333333333332,0.27659999999999996,-0.0027,292.419,-2.75125,-2.6252,-1.6002,-1.5091999999999999,-194.91,215.9725,190.4815,0.0,0.0,0.0,0.0,0.04856666666666667,-5.498166666666667,-5.498166666666667,-0.5789000000000001,-0.5035000000000001,0.04912499999999986,-0.5670000000000002,68.848,0.0589,-0.21632500000000002,0.9359999999999999,100.0,1.0,1.0,212.26666666666665,0.0,0.0,0.0,0.0,0.0,0.0,0.0,8997.2,0.0,55.0,5.0,247.82666666666665,0.0,0.0,0.0,0.0,0.0,0.0,0.0,0.0,1.2059999999999995,1.2059999999999995,0.0,0.0,0.0,55.0,616.79921,10000.0,85.000001,85.000001,85.000001,85.000001,395.0,0.0,0.0,0.0,1.0,166.665,52.933,52.933,47.104,47.104,34.0,-23.162499999999998,21.881999999999998,-29.93,29.8675,0.0,1782.516,0.9849999999999994,100.0,27.79,28.329,42.9,44.04,0.0,0.0,100.0,0.0,0.0,0.0,0.0,2917.857142857143,2969.3,4337.875,4133.3,306.0895,305.31166666666667,314.33225,314.622,22.0078,20.6384,22.0088,21.5185,314.999998,314.999998,324.999988,324.999988,99.55935714285714,99.50738333333334,99.56828571428571,99.54837142857143,0.06475000000000009,-0.07499999999999996,-0.08616666666666667,0.1475,-0.04999999999999716,-0.04999999999999716,1.486,1.522,38.549,29.990000000000002,38.555,35.4905,56.025999999999996,35.391999999999996,59.873,52.972,53.953,34.496,58.441,51.2815,53.098,34.028,58.3345,50.68366666666667,-0.0014999999999999458,-0.15749999999999997,0.10848000000000001,0.11417000000000001,0.0,215.56,215.5,212.26666666666665,212.26666666666665,0.0,0.0
25,0.0,0.0,0.0,1.0,1.0,0.0,0.0,1.0,0.0,100.0,1.0,1.1856,26.0,0.0,0.0,0.0,59.999996,0.0,26.0,26.0,26.0,26.0,-0.0427777777777778,0.2522,-0.07686666666666667,292.374,-2.7756,-2.6307,-1.5807,-1.5463,-191.39999999999998,215.9875,190.456125,0.0,0.0,0.0,0.0,0.0506,-5.498166666666667,-5.498166666666667,-0.6137,-0.025499999999999967,0.014999999999999902,-0.8029999999999999,68.98,-0.0066,-0.22742500000000002,1.4320000000000004,100.0,1.0,1.0,212.83333333333331,0.0,0.0,0.0,0.0,0.0,0.0,0.0,9021.3,0.0,55.0,5.0,248.3,1.0,0.0,0.0,0.0,0.0,0.0,0.0,0.0,1.256999999999998,1.256999999999998,0.0,0.0,1.0,55.0,616.79921,10000.0,85.000001,85.000001,85.000001,85.000001,395.0,0.0,0.0,0.0,1.0,333.33500000000004,51.894999999999996,51.894999999999996,48.019,48.019,34.0,-28.4125,22.990000000000002,-28.93,26.259999999999998,0.0,1782.464,1.0450000000000017,100.0,28.073999999999998,28.17,42.974000000000004,43.387,0.0,0.0,100.0,0.0,0.0,0.0,0.0,3234.0,3308.1,3976.625,3956.4,305.133,304.41833333333335,315.208,315.0855,22.0171,20.644,22.0191,21.5275,314.999998,314.999998,324.999988,324.999988,99.55935714285714,99.5074,99.56842857142857,99.54851428571429,0.01849999999999996,-0.11166666666666658,-0.13583333333333333,0.10116666666666667,-0.04999999999999716,-0.04333333333332945,1.5330000000000001,1.589,38.607,30.025333333333336,38.620000000000005,35.5465,56.009,35.434,59.9075,53.0295,53.936,34.535,58.473,51.337,53.081,34.0655,58.3635,50.73833333333333,0.00649999999999995,-0.16900000000000004,0.102815,0.11461500000000001,0.0,216.0,215.885,212.83333333333331,212.83333333333331,0.0,0.0
26,0.0,0.0,0.0,1.0,1.0,0.0,0.0,1.0,0.0,100.0,1.0,1.1856,26.0,0.0,0.0,0.0,59.999996,0.0,26.0,26.0,26.0,26.0,-0.14211111111111108,0.27560000000000007,0.10123333333333334,291.138,-2.6721,-2.7571,-1.5892,-1.581,-187.67000000000002,216.0,190.428875,0.0,0.0,0.0,0.0,0.05276666666666666,-5.498166666666667,-5.498166666666667,-0.5682,0.6154999999999999,-0.048249999999999904,0.02499999999999991,69.125,-0.063,-0.19437500000000002,1.597999999999999,100.0,1.0,1.0,212.9766666666667,0.0,0.0,0.0,0.0,0.0,0.0,0.0,9027.3,0.0,55.0,5.0,248.82,0.0,0.0,0.0,0.0,0.0,0.0,0.0,0.0,1.311,1.311,0.0,0.0,0.0,55.0,616.79921,10000.0,85.000001,85.000001,85.000001,85.000001,395.0,0.0,0.0,0.0,1.0,166.665,51.559,51.559,46.051,46.051,34.0,-27.8175,20.484,-39.20333333333333,27.465,0.0,1782.411,0.8449999999999989,100.0,29.248,28.442,44.09,43.442,0.0,0.0,100.0,0.0,0.0,0.0,0.0,3180.714285714286,3026.6,4673.125,4490.3,305.034,305.1736666666667,313.554,313.874,22.0274,20.65,22.0304,21.5372,314.999998,314.999998,324.999988,324.999988,99.55935714285714,99.5074,99.56858571428572,99.54867142857142,0.006000000000000227,-0.1476666666666666,-0.1915,0.031,-0.046666666666666856,-0.041666666666671404,1.412,1.475,38.671,30.062666666666665,38.69,35.6075,55.995000000000005,35.482,59.9525,53.094,53.923,34.579499999999996,58.515,51.399,53.066,34.1075,58.402,50.79866666666666,-0.014499999999999957,-0.15349999999999997,0.10649000000000002,0.10646000000000001,0.0,216.5,216.35000000000002,212.9766666666667,212.9766666666667,0.0,0.0
27,0.0,0.0,0.0,1.0,1.0,0.0,0.0,1.0,0.0,100.0,1.0,1.1856,26.0,0.0,0.0,0.0,59.999996,0.0,26.0,26.0,26.0,26.0,-0.14677777777777778,0.24340000000000006,-0.052066666666666664,291.718,-2.6121499999999997,-2.75,-1.5596,-1.6734,-184.35,216.01,190.40575,0.0,0.0,0.0,0.0,0.054700000000000006,-5.498166666666667,-5.498166666666667,-0.6014,-1.072,-0.06950000000000012,0.48,69.248,-0.09280000000000001,-0.24577500000000002,1.5299999999999994,100.0,1.0,1.0,213.53,0.0,0.0,0.0,0.0,0.0,0.0,0.0,9050.8,0.0,55.0,5.0,249.26666666666665,1.0,0.0,0.0,0.0,0.0,0.0,0.0,0.0,1.3589999999999982,1.3589999999999982,0.0,0.0,1.0,55.0,616.79921,10000.0,85.000001,85.000001,85.000001,85.000001,395.0,0.0,0.0,0.0,1.0,166.665,51.772999999999996,51.772999999999996,46.875,46.875,34.0,-28.6325,20.148,-33.730000000000004,23.747500000000002,0.0,1782.364,0.7750000000000021,100.0,29.131,28.076999999999998,44.888,43.683,0.0,0.0,100.0,0.0,0.0,0.0,0.0,3200.285714285714,3077.8,4070.875,3949.1000000000004,305.0585,305.1363333333333,314.844,315.05675,22.0363,20.6551,22.0405,21.5459,314.999998,314.999998,324.999988,324.999988,99.55935714285714,99.50743333333334,99.56872857142857,99.54881428571429,-0.023749999999999938,-0.16033333333333333,-0.21333333333333335,0.012666666666666666,-0.04999999999999716,-0.051666666666669414,1.4925,1.5415,38.727000000000004,30.094666666666665,38.753,35.662,55.980000000000004,35.522,59.992,53.1505,53.909,34.6165,58.5525,51.453,53.052,34.1435,58.4365,50.851333333333336,-0.016000000000000014,-0.13949999999999996,0.10369,0.1087,0.0,216.82,216.685,213.53,213.53,0.0,0.0
28,0.0,0.0,0.0,1.0,1.0,0.0,0.0,1.0,0.0,100.0,1.0,1.1856,26.0,0.0,0.0,0.0,59.999996,0.0,26.0,26.0,26.0,26.0,-0.16200000000000003,0.26990000000000003,-0.0637,291.855,-2.63035,-2.7464,-1.4999,-1.6412,-181.01999999999998,216.015,190.38175,0.0,0.0,0.0,0.0,0.05663333333333334,-5.498166666666667,-5.498166666666667,-0.6014,0.6745000000000001,-0.08199999999999985,0.6139999999999999,69.37,-0.1114,-0.21602500000000002,1.4540000000000006,100.0,1.0,1.0,213.96666666666667,0.0,0.0,0.0,0.0,0.0,0.0,0.0,9069.3,0.0,55.0,5.0,249.70666666666665,0.0,0.0,0.0,0.0,0.0,0.0,0.0,0.0,1.407,1.407,0.0,0.0,0.0,55.0,616.79921,10000.0,85.000001,85.000001,85.000001,85.000001,395.0,0.0,0.0,0.0,1.0,166.665,51.743,51.743,47.485,47.485,34.0,-29.744999999999997,19.234,-34.32666666666667,23.3375,0.0,1782.315,0.615000000000002,100.0,29.353,27.986,44.325,43.033,0.0,0.0,100.0,0.0,0.0,0.0,0.0,3282.4285714285716,2990.0,4181.0,4069.4,304.8345,305.37166666666667,314.772,314.84925,22.0455,20.6603,22.0502,21.5544,314.999998,314.999998,324.999988,324.999988,99.55937142857142,99.50745,99.56887142857143,99.54895714285715,-0.026249999999999885,-0.16633333333333333,-0.22783333333333336,-0.0003333333333333333,-0.046666666666666856,-0.051666666666669414,1.5165,1.5645,38.784,30.126666666666665,38.814,35.715,55.968,35.5635,60.0265,53.203,53.897999999999996,34.655,58.5845,51.5035,53.04,34.18,58.466,50.900333333333336,-0.03600000000000003,-0.12549999999999994,0.10693000000000001,0.105535,0.0,217.255,217.12,213.96666666666667,213.96666666666667,0.0,0.0
29,0.0,0.0,0.0,1.0,1.0,0.0,0.0,1.0,0.0,100.0,1.0,1.1856,26.0,0.0,0.0,0.0,59.999996,0.0,26.0,26.0,26.0,26.0,-0.1597777777777778,0.2492000000000001,0.049433333333333336,291.458,-2.57345,-2.7997,-1.5354,-1.6221999999999999,-177.48000000000002,216.01749999999998,190.355375,0.0,0.0,0.0,0.0,0.0587,-5.498166666666667,-5.498166666666667,-0.608,-0.7105,-0.08487500000000026,-0.71,69.505,-0.11280000000000001,-0.21937500000000001,1.2060000000000013,100.0,1.0,1.0,214.22,0.0,0.0,0.0,0.0,0.0,0.0,0.0,9080.0,0.0,55.0,5.0,250.19,1.0,0.0,0.0,0.0,0.0,0.0,0.0,0.0,1.4579999999999984,1.4579999999999984,0.0,0.0,1.0,55.0,616.79921,10000.0,85.000001,85.000001,85.000001,85.000001,395.0,0.0,0.0,0.0,1.0,166.665,51.59,51.59,46.57,46.57,34.0,-30.775,19.97,-37.24333333333333,23.380000000000003,0.0,1782.264,0.490000000000002,100.0,28.923000000000002,27.954,44.735,43.321,0.0,0.0,100.0,0.0,0.0,0.0,0.0,3427.0,3008.3,4333.25,4124.9,304.5695,305.0303333333333,314.327,314.6005,22.0549,20.6657,22.0609,21.5636,314.999998,314.999998,324.999988,324.999988,99.55938571428571,99.50746666666667,99.56902857142857,99.54908571428571,-0.03275000000000006,-0.17033333333333334,-0.23550000000000001,-0.008833333333333334,-0.046666666666666856,-0.015000000000000568,1.45,1.494,38.843,30.160333333333334,38.881,35.7725,55.953,35.6065,60.0695,53.2625,53.882999999999996,34.694,58.625,51.561,53.024,34.2175,58.503,50.956,-0.04399999999999993,-0.1160000000000001,0.11092500000000001,0.11397000000000002,0.0,217.60000000000002,217.48000000000002,214.22,214.22,0.0,0.0
30,0.0,0.0,0.0,1.0,1.0,0.0,0.0,1.0,0.0,100.0,1.0,1.1856,26.0,0.0,0.0,0.0,59.999996,0.0,26.0,26.0,26.0,26.0,-0.14922222222222215,0.27080000000000015,0.054766666666666665,291.061,-2.6233,-2.7943,-1.4706000000000001,-1.7023000000000001,-173.93,216.01749999999998,190.328875,0.0,0.0,0.0,0.0,0.06073333333333334,-5.498166666666667,-5.498166666666667,-0.6005,0.794,-0.08725000000000005,0.9910000000000001,69.634,-0.1071,-0.214975,1.1080000000000005,100.0,1.0,1.0,214.66,0.0,0.0,0.0,0.0,0.0,0.0,0.0,9098.6,0.0,55.0,5.0,250.65666666666667,0.0,0.0,0.0,0.0,0.0,0.0,1.0,0.0,1.5090000000000003,1.5090000000000003,0.0,0.0,0.0,55.0,616.79921,10000.0,85.000001,85.000001,85.000001,85.000001,395.0,0.0,0.0,0.0,1.0,166.665,50.858000000000004,50.858000000000004,46.829,46.829,34.0,-30.38,21.078,-34.94,26.130000000000003,0.0,1782.212,0.33000000000000185,100.0,29.984,28.42,44.708,43.242000000000004,0.0,0.0,100.0,0.0,0.0,0.0,0.0,3431.714285714286,3117.1,4333.125,4182.5,304.3765,305.094,314.3175,314.502,22.064799999999998,20.6713,22.0714,21.5727,314.999998,314.999998,324.999988,324.999988,99.55938571428571,99.50748333333334,99.56918571428571,99.54924285714286,-0.006750000000000034,-0.15400000000000003,-0.21033333333333334,0.0145,-0.046666666666666856,-0.045000000000001705,1.465,1.4995,38.905,30.195666666666668,38.946,35.829499999999996,55.942,35.6525,60.108000000000004,53.321,53.873000000000005,34.737,58.661,51.6165,53.013,34.2585,58.536,51.010333333333335,-0.061999999999999944,-0.10699999999999998,0.10260000000000001,0.111295,0.0,218.035,217.95499999999998,214.66,214.66,0.0,0.0
31,0.0,0.0,0.0,1.0,1.0,0.0,0.0,1.0,0.0,100.0,1.0,1.1856,26.0,0.0,0.0,0.0,59.999996,0.0,26.0,26.0,26.0,26.0,-0.12922222222222213,0.2619,-0.003033333333333333,291.031,-2.69245,-2.6718,-1.5622,-1.6719,-170.57999999999998,216.0125,190.304625,0.0,0.0,0.0,0.0,0.0627,-5.498166666666667,-5.498166666666667,-0.5910000000000001,-0.7545,-0.07525000000000004,0.6390000000000002,69.758,-0.09430000000000001,-0.22175,0.6720000000000006,100.0,1.0,1.0,214.93666666666667,0.0,0.0,0.0,0.0,0.0,0.0,0.0,9110.4,0.0,55.0,5.0,251.10333333333335,1.0,0.0,0.0,0.0,0.0,0.0,1.0,0.0,1.5569999999999986,1.5569999999999986,0.0,0.0,1.0,55.0,616.79921,10000.0,85.000001,85.000001,85.000001,85.000001,395.0,0.0,0.0,0.0,1.0,166.665,51.544,51.544,45.563,45.563,34.0,-27.71,20.2,-36.30666666666667,27.2725,0.0,1782.165,0.17999999999999972,100.0,29.525,28.488,45.317,43.83,0.0,0.0,100.0,0.0,0.0,0.0,0.0,3183.4285714285716,3121.1,4428.0,4287.3,305.3005,305.1483333333333,314.06625,314.33975,22.0737,20.6766,22.0815,21.5816,314.999998,314.999998,324.999988,324.999988,99.55938571428571,99.5075,99.56932857142857,99.54938571428572,0.005250000000000199,-0.14700000000000002,-0.19166666666666665,0.029166666666666667,-0.051666666666669414,-0.046666666666666856,1.452,1.478,38.961,30.228666666666665,39.01,35.885,55.928,35.694,60.1495,53.3785,53.858999999999995,34.775,58.7,51.672,52.998000000000005,34.295,58.572,51.06433333333334,-0.07299999999999995,-0.10099999999999998,0.09945000000000001,0.11614000000000001,0.0,218.38,218.305,214.93666666666667,214.93666666666667,0.0,0.0
32,0.0,0.0,0.0,1.0,1.0,0.0,0.0,1.0,0.0,100.0,1.0,1.1856,26.0,0.0,0.0,0.0,59.999996,0.0,26.0,26.0,26.0,26.0,-0.1213333333333334,0.2570000000000001,-0.0492,291.306,-2.64475,-2.7091000000000003,-1.586,-1.5792000000000002,-167.01999999999998,216.0025,190.279,0.0,0.0,0.0,0.0,0.06476666666666667,-5.498166666666667,-5.498166666666667,-0.6114,0.1905000000000001,-0.10150000000000015,-0.9729999999999999,69.885,-0.0819,-0.2311,0.6920000000000002,100.0,1.0,1.0,215.5,0.0,0.0,0.0,0.0,0.0,0.0,0.0,9134.2,0.0,55.0,5.0,251.56,0.0,0.0,0.0,0.0,0.0,0.0,1.0,0.0,1.6080000000000005,1.6080000000000005,0.0,0.0,0.0,55.0,616.79921,10000.0,85.000001,85.000001,85.000001,85.000001,395.0,0.0,0.0,0.0,1.0,166.665,51.147,51.147,46.783,46.783,34.0,-29.4,20.422,-34.75333333333333,24.11,0.0,1782.114,0.07000000000000028,100.0,29.425,28.707,44.733000000000004,43.633,0.0,0.0,100.0,0.0,0.0,0.0,0.0,3439.0,2995.6,4272.375,4095.8,304.576,305.188,314.63425,314.847,22.083199999999998,20.6822,22.092,21.5907,314.999998,314.999998,324.999988,324.999988,99.55938571428571,99.50751666666666,99.56948571428572,99.54952857142857,0.014000000000000234,-0.1353333333333333,-0.19916666666666666,0.02783333333333333,-0.03999999999999915,-0.04833333333333201,1.5365,1.5605,39.019999999999996,30.264,39.075,35.942,55.913,35.738,60.1865,53.4355,53.845,34.816,58.7345,51.7265,52.983999999999995,34.334,58.6035,51.117666666666665,-0.07799999999999996,-0.09149999999999991,0.11377500000000002,0.110975,0.0,218.78,218.71,215.5,215.5,0.0,0.0
33,0.0,0.0,0.0,1.0,1.0,0.0,0.0,1.0,0.0,100.0,1.0,1.1856,26.0,0.0,0.0,0.0,59.999996,0.0,26.0,26.0,26.0,26.0,-0.09844444444444445,0.26550000000000007,-0.021133333333333334,291.428,-2.64605,-2.7613000000000003,-1.5249000000000001,-1.5914000000000001,-163.45,215.9925,190.252375,0.0,0.0,0.0,0.0,0.06683333333333334,-5.498166666666667,-5.498166666666667,-0.6135,-0.43099999999999994,-0.08599999999999985,1.5270000000000001,70.016,-0.0649,-0.21780000000000002,0.36599999999999966,100.0,1.0,1.0,215.77666666666667,0.0,0.0,0.0,0.0,0.0,0.0,0.0,9145.9,0.0,55.0,5.0,252.03,1.0,0.0,0.0,0.0,0.0,0.0,1.0,0.0,1.658999999999999,1.658999999999999,0.0,0.0,1.0,55.0,616.79921,10000.0,85.000001,85.000001,85.000001,85.000001,395.0,0.0,0.0,0.0,1.0,166.665,51.865,51.865,46.585,46.585,34.0,-26.1425,21.636,-32.96666666666667,27.192500000000003,0.0,1782.063,-0.015000000000000568,100.0,29.296,28.195,44.823,43.622,0.0,0.0,100.0,0.0,0.0,0.0,0.0,3152.857142857143,3004.4,4226.875,4317.4,305.256,305.349,314.52475,314.294,22.0926,20.6877,22.1025,21.6,314.999998,314.999998,324.999988,324.999988,99.5594,99.50753333333333,99.56962857142857,99.54967142857143,0.02950000000000008,-0.1143333333333334,-0.17683333333333334,0.04683333333333334,-0.051666666666669414,-0.04833333333333201,1.478,1.499,39.079,30.298000000000002,39.141,35.9995,55.897999999999996,35.778,60.2255,53.4945,53.831,34.8525,58.771,51.783500000000004,52.969,34.369,58.6375,51.172666666666665,-0.08050000000000002,-0.08200000000000007,0.11056500000000001,0.104895,0.0,219.17000000000002,219.125,215.77666666666667,215.77666666666667,0.0,0.0
34,0.0,0.0,0.0,1.0,1.0,0.0,0.0,1.0,0.0,100.0,1.0,1.1856,26.0,0.0,0.0,0.0,59.999996,0.0,26.0,26.0,26.0,26.0,-0.05599999999999994,0.2563,-0.0932,291.901,-2.66765,-2.7358000000000002,-1.5924,-1.6073,-159.88,215.98000000000002,190.224375,0.0,0.0,0.0,0.0,0.0689,-5.498166666666667,-5.498166666666667,-0.6468,-0.7895,-0.05224999999999991,-0.053999999999999826,70.143,-0.0509,-0.22755,0.386000000000001,100.0,1.0,1.0,216.26,0.0,0.0,0.0,0.0,0.0,0.0,0.0,9166.5,0.0,55.0,5.0,252.49,0.0,0.0,0.0,0.0,0.0,0.0,1.0,0.0,1.7100000000000009,1.7100000000000009,0.0,0.0,0.0,55.0,616.79921,10000.0,85.000001,85.000001,85.000001,85.000001,395.0,0.0,0.0,0.0,1.0,166.665,52.246,52.246,47.394,47.394,34.0,-25.877499999999998,21.375999999999998,-31.45,26.68,0.0,1782.012,-0.05999999999999872,100.0,28.795,28.057000000000002,44.393,43.804,0.0,0.0,100.0,0.0,0.0,0.0,0.0,3158.285714285714,2917.5,4081.25,4089.1000000000004,305.298,305.41966666666667,315.01875,314.71425,22.102,20.6931,22.1129,21.6092,314.999998,314.999998,324.999988,324.999988,99.5594,99.50755,99.56978571428571,99.54982857142858,0.040000000000000036,-0.10299999999999998,-0.16416666666666666,0.06516666666666668,-0.04333333333332945,-0.036666666666668846,1.5225,1.5310000000000001,39.137,30.332,39.205,36.0575,55.882,35.817,60.260999999999996,53.5535,53.816,34.8885,58.804,51.84,52.953,34.4035,58.667,51.227666666666664,-0.08150000000000002,-0.07350000000000012,0.10547500000000001,0.11099500000000001,0.0,219.54500000000002,219.485,216.26,216.26,0.0,0.0
35,0.0,0.0,0.0,1.0,1.0,0.0,0.0,1.0,0.0,100.0,1.0,1.1856,26.0,0.0,0.0,0.0,59.999996,0.0,26.0,26.0,26.0,26.0,-0.051444444444444404,0.24680000000000013,-0.07403333333333334,291.763,-2.66875,-2.6877,-1.5625,-1.6171,-156.51,215.965,190.196,0.0,0.0,0.0,0.0,0.07086666666666666,-5.498166666666667,-5.498166666666667,-0.6854,-0.353,-0.05874999999999986,-0.903,70.263,-0.0385,-0.229325,0.19399999999999906,100.0,1.0,1.0,216.67666666666668,0.0,0.0,0.0,0.0,0.0,0.0,0.0,9184.1,0.0,55.0,5.0,252.92000000000002,1.0,0.0,0.0,0.0,0.0,0.0,1.0,0.0,1.7579999999999991,1.7579999999999991,0.0,0.0,1.0,55.0,616.79921,10000.0,85.000001,85.000001,85.000001,85.000001,395.0,0.0,0.0,0.0,1.0,333.33500000000004,51.559,51.559,47.012,47.012,34.0,-26.685000000000002,24.208,-30.083333333333336,26.322499999999998,0.0,1781.962,-0.04499999999999815,100.0,28.633,28.399,44.121,43.397999999999996,0.0,0.0,100.0,0.0,0.0,0.0,0.0,3269.857142857143,3248.0,4071.25,3946.6000000000004,305.046,304.46433333333334,314.984,315.1045,22.110599999999998,20.6985,22.1226,21.6177,314.999998,314.999998,324.999988,324.999988,99.55941428571428,99.50756666666666,99.56992857142858,99.54995714285714,0.04375000000000018,-0.09066666666666656,-0.14783333333333334,0.08,-0.054999999999999716,-0.036666666666668846,1.558,1.544,39.191,30.365333333333332,39.266,36.111,55.866,35.855000000000004,60.294,53.6055,53.801,34.923500000000004,58.835,51.89,52.937,34.437,58.695,51.276666666666664,-0.08450000000000002,-0.07699999999999996,0.103455,0.11010500000000001,0.0,219.91,219.87,216.67666666666668,216.67666666666668,0.0,0.0
36,0.0,0.0,0.0,1.0,1.0,0.0,0.0,1.0,0.0,100.0,1.0,1.1856,26.0,0.0,0.0,0.0,59.999996,0.0,26.0,26.0,26.0,26.0,-0.047222222222222165,0.2612000000000001,0.06216666666666667,290.787,-2.6161,-2.6563,-1.5323,-1.6134,-152.92,215.95,190.1645,0.0,0.0,0.0,0.0,0.07296666666666667,-5.498166666666667,-5.498166666666667,-0.6644,0.21100000000000008,-0.09299999999999997,0.2120000000000002,70.393,-0.028900000000000002,-0.2011,0.23000000000000043,100.0,1.0,1.0,216.82666666666665,0.0,0.0,0.0,0.0,0.0,0.0,0.0,9190.5,0.0,55.0,5.0,253.39,0.0,0.0,0.0,0.0,0.0,0.0,1.0,0.0,1.809000000000001,1.809000000000001,0.0,0.0,0.0,55.0,616.79921,10000.0,85.000001,85.000001,85.000001,85.000001,395.0,0.0,0.0,0.0,1.0,166.665,51.239,51.239,46.097,46.097,34.0,-24.305,23.976,-33.18333333333334,32.635000000000005,0.0,1781.912,-0.07000000000000028,100.0,29.31,28.631,44.393,43.769999999999996,0.0,0.0,100.0,0.0,0.0,0.0,0.0,3173.857142857143,3188.2,4469.125,4573.2,304.9345,304.8233333333333,313.988,313.64975,22.12,20.7043,22.1331,21.627,314.999998,314.999998,324.999988,324.999988,99.55941428571428,99.50758333333333,99.57007142857142,99.55011428571429,0.0767500000000001,-0.07299999999999995,-0.13366666666666666,0.09416666666666668,-0.02499999999999858,-0.07499999999999574,1.415,1.4344999999999999,39.25,30.401666666666664,39.332,36.169,55.852999999999994,35.8975,60.332,53.666,53.789,34.963,58.8705,51.948,52.924,34.4745,58.727000000000004,51.333,-0.09350000000000003,-0.07299999999999995,0.10729000000000001,0.11036000000000001,0.0,220.34,220.335,216.82666666666665,216.82666666666665,0.0,0.0
