,ABS Active,ABS Enabled,AID Allow Tire Blankets,AID Auto Blip,AID Auto Clutch,AID Auto Shift,AID Fuel Rate,AID Ideal Line,AID Mech Damage,AID Stability,AID Tire Wear Rate,Air Density,Air Temp,Ballast,Best Lap Delta,Best Lap Time,Brake Bias,Brake Pos,Brake Temp FL,Brake Temp FR,Brake Temp RL,Brake Temp RR,CG Accel Lateral,CG Accel Longitudinal,CG Accel Vertical,CG Height,Camber FL,Camber FR,Camber RL,Camber RR,Car Coord X,Car Coord Y,Car Coord Z,Car Damage Front,Car Damage Left,Car Damage Rear,Car Damage Right,Car Pos Norm,Caster FL,Caster FR,Chassis Pitch Angle,Chassis Pitch Rate,Chassis Roll Angle,Chassis Roll Rate,Chassis Velocity X,Chassis Velocity Y,Chassis Velocity Z,Chassis Yaw Rate,Clutch Pos,DRS Active,DRS Available,Drive Train Speed,ERS Heat Charging,ERS Is Charging,ERS Max Energy,ERS Power Level,ERS Recovery Level,Engine Brake Setting,Engine Limiter,Engine RPM,Flags,Fuel Level,Gear,Ground Speed,HR Sample Clock,In Pit,KERS Charge,KERS Deployed Energy,KERS Input,KERS Max Energy,LR Sample Clock,Lap Invalidated,Lap Time,Lap Time2,Last Lap Time,Last Sector Time,MR Sample Clock,Max Fuel,Max Power,Max RPM,Max Sus Travel FL,Max Sus Travel FR,Max Sus Travel RL,Max Sus Travel RR,Max Torque,Max Turbo Boost,Num Tires Off Track,Penalties Enabled,Position,Raw Data Sample Rate,Ride Height FL,Ride Height FR,Ride Height RL,Ride Height RR,Road Temp,Self Align Torque FL,Self Align Torque FR,Self Align Torque RL,Self Align Torque RR,Session Lap Count,Session Time Left,Steering Angle,Surface Grip,Suspension Travel FL,Suspension Travel FR,Suspension Travel RL,Suspension Travel RR,TC Active,TC Enabled,Throttle Pos,Tire Dirt Level FL,Tire Dirt Level FR,Tire Dirt Level RL,Tire Dirt Level RR,Tire Load FL,Tire Load FR,Tire Load RL,Tire Load RR,Tire Loaded Radius FL,Tire Loaded Radius FR,Tire Loaded Radius RL,Tire Loaded Radius RR,Tire Pressure FL,Tire Pressure FR,Tire Pressure RL,Tire Pressure RR,Tire Radius FL,Tire Radius FR,Tire Radius RL,Tire Radius RR,Tire Rubber Grip FL,Tire Rubber Grip FR,Tire Rubber Grip RL,Tire Rubber Grip RR,Tire Slip Angle FL,Tire Slip Angle FR,Tire Slip Angle RL,Tire Slip Angle RR,Tire Slip Ratio FL,Tire Slip Ratio FR,Tire Slip Ratio RL,Tire Slip Ratio RR,Tire Temp Core FL,Tire Temp Core FR,Tire Temp Core RL,Tire Temp Core RR,Tire Temp Inner FL,Tire Temp Inner FR,Tire Temp Inner RL,Tire Temp Inner RR,Tire Temp Middle FL,Tire Temp Middle FR,Tire Temp Middle RL,Tire Temp Middle RR,Tire Temp Outer FL,Tire Temp Outer FR,Tire Temp Outer RL,Tire Temp Outer RR,Toe In FL,Toe In FR,Toe In RL,Toe In RR,Turbo Boost,Wheel Angular Speed FL,Wheel Angular Speed FR,Wheel Angular Speed RL,Wheel Angular Speed RR,Wind Direction,Wind Speed
0,0.0,0.0,0.0,1.0,1.0,0.0,0.0,1.0,0.0,100.0,1.0,1.1856,26.0,0.0,0.0,0.0,59.99999,0.0,26.0,26.0,26.0,26.0,-0.08399999999999996,0.3045,0.016,293.64,-2.7172,-2.6436,-1.5244499999999999,-1.5549,-275.48,216.2975,190.986,0.0,0.0,0.0,0.0,0.0016999999999999238,-5.498166666666667,-5.498166666666667,-0.547,1.6916666666666664,-0.005444444444444585,-1.615,65.491,-0.0385,-0.21545,1.0060000000000002,100.0,1.0,1.0,202.18333333333334,0.0,0.0,0.0,0.0,0.0,0.0,0.0,8569.8,0.0,55.0,5.0,235.73666666666668,0.0,0.0,0.0,0.0,0.0,0.0,0.0,0.0,0.006000000000000227,0.006000000000000227,0.0,0.0,0.0,55.0,616.79921,10000.0,85.0,85.0,85.0,85.0,395.0,0.0,0.0,0.0,1.0,20.0,52.307,52.307,49.118,49.118,34.0,-25.8175,22.875999999999998,-32.016666666666666,24.4775,0.0,1783.431,0.7149999999999999,100.0,27.954,27.648,40.587,40.754,0.0,0.0,100.0,0.0,0.0,0.0,0.0,2959.714285714286,3326.8,4231.875,4002.0,305.863,304.1073333333333,314.60625,314.82175,21.783375,20.5091,21.7564,21.3032,314.99999,314.99999,324.99998,324.99998,99.55902857142857,99.50705,99.56445714285714,99.5448,-0.0007500000000000284,-0.1233333333333333,-0.17033333333333334,0.05483333333333329,-0.054999999999999716,-0.03999999999999915,1.526,1.5810000000000004,37.146,29.1815,36.977000000000004,34.1455,56.311,34.3995,58.827,51.4535,54.223,33.5725,57.460499999999996,49.823499999999996,53.388,33.1335,57.4225,49.254666666666665,-0.013499999999999956,-0.13749999999999996,0.10650000000000001,0.10336000000000001,0.0,205.26,205.18,202.18333333333334,202.18333333333334,0.0,0.0
1,0.0,0.0,0.0,1.0,1.0,0.0,0.0,1.0,0.0,100.0,1.0,1.1856,26.0,0.0,0.0,0.0,59.999996,0.0,26.0,26.0,26.0,26.0,-0.11775000000000002,0.31190000000000007,0.04953333333333333,292.816,-2.6273999999999997,-2.7636000000000003,-1.525,-1.5572,-272.14,216.29000000000002,190.966,0.0,0.0,0.0,0.0,0.003666666666666596,-5.498166666666667,-5.498166666666667,-0.5056,-0.7963333333333333,-0.05844444444444452,-0.43999999999999995,65.646,-0.052000000000000005,-0.20665,1.3179999999999996,100.0,1.0,1.0,202.36666666666667,0.0,0.0,0.0,0.0,0.0,0.0,0.0,8577.6,0.0,55.0,5.0,236.29333333333335,1.0,0.0,0.0,0.0,0.0,0.0,0.0,0.0,0.05699999999999861,0.05699999999999861,0.0,0.0,1.0,55.0,616.79921,10000.0,85.000001,85.000001,85.000001,85.000001,395.0,0.0,0.0,0.0,1.0,333.33500000000004,53.116,53.116,48.278999999999996,48.278999999999996,34.0,-26.439999999999998,18.296,-33.95333333333333,29.78,0.0,1783.378,0.8599999999999994,100.0,28.02,27.301000000000002,42.761,41.858000000000004,0.0,0.0,100.0,0.0,0.0,0.0,0.0,3079.142857142857,2727.3,4317.625,4678.4,305.397,306.1616666666667,314.25125,313.1965,21.79325,20.5141,21.7671,21.3123,314.999998,314.999998,324.999988,324.999988,99.55904285714286,99.50706666666666,99.56461428571428,99.54494285714286,-0.0012499999999999734,-0.14100000000000001,-0.17766666666666664,0.0491666666666668,-0.04999999999999716,-0.054999999999999716,1.4155,1.4500000000000002,37.208,29.213,37.045,34.202,56.294,34.439499999999995,58.8735,51.5195,54.207,33.609,57.504,49.8865,53.370999999999995,33.169,57.463499999999996,49.31633333333333,-0.014499999999999957,-0.14549999999999996,0.10305,0.11184500000000001,0.0,205.69,205.57999999999998,202.36666666666667,202.36666666666667,0.0,0.0
2,0.0,0.0,0.0,1.0,1.0,0.0,0.0,1.0,0.0,100.0,1.0,1.1856,26.0,0.0,0.0,0.0,59.999996,0.0,26.0,26.0,26.0,26.0,-0.14100000000000001,0.2921,-0.08376666666666667,293.472,-2.6090999999999998,-2.7781000000000002,-1.4993,-1.597,-268.59,216.2825,190.946125,0.0,0.0,0.0,0.0,0.005733333333333368,-5.498166666666667,-5.498166666666667,-0.5521,0.5433333333333332,-0.034666666666666845,2.63,65.79599999999999,-0.0712,-0.2553,1.5359999999999996,100.0,1.0,1.0,203.29333333333335,0.0,0.0,0.0,0.0,0.0,0.0,0.0,8616.9,0.0,55.0,5.0,236.83666666666667,0.0,0.0,0.0,0.0,0.0,0.0,0.0,0.0,0.11100000000000065,0.11100000000000065,0.0,0.0,0.0,55.0,616.79921,10000.0,85.000001,85.000001,85.000001,85.000001,395.0,0.0,0.0,0.0,1.0,166.665,52.094,52.094,50.064,50.064,34.0,-28.905,20.560000000000002,-28.666666666666664,21.255,0.0,1783.327,0.745000000000001,100.0,28.728,27.326,42.511,41.323,0.0,0.0,100.0,0.0,0.0,0.0,0.0,3243.714285714286,3027.0,3720.125,3829.8,304.777,305.2366666666667,315.72875,315.423,21.804,20.5194,21.7781,21.3215,314.999998,314.999998,324.999988,324.999988,99.55904285714286,99.50708333333333,99.56475714285715,99.54508571428572,-0.019749999999999934,-0.14666666666666672,-0.21283333333333332,0.01516666666666655,-0.04999999999999716,-0.061666666666667425,1.6315,1.702,37.275,29.246000000000002,37.113,34.2595,56.282,34.482,58.914,51.58,54.195,33.6485,57.5415,49.9445,53.358000000000004,33.2065,57.498,49.373333333333335,-0.022499999999999964,-0.133,0.10135000000000001,0.11167,0.0,206.16500000000002,206.05,203.29333333333335,203.29333333333335,0.0,0.0
3,0.0,0.0,0.0,1.0,1.0,0.0,0.0,1.0,0.0,100.0,1.0,1.1856,26.0,0.0,0.0,0.0,59.999996,0.0,26.0,26.0,26.0,26.0,-0.13212499999999994,0.30800000000000005,-0.03136666666666667,293.304,-2.72565,-2.6865,-1.51375,-1.5925,-265.62,216.2725,190.92875,0.0,0.0,0.0,0.0,0.007433333333333292,-5.498166666666667,-5.498166666666667,-0.5112,0.42533333333333334,-0.010222222222222133,-1.034,65.931,-0.0852,-0.204875,1.234,100.0,1.0,1.0,203.39,0.0,0.0,0.0,0.0,0.0,0.0,0.0,8620.9,0.0,55.0,5.0,237.32,1.0,0.0,0.0,0.0,0.0,0.0,0.0,0.0,0.1559999999999988,0.1559999999999988,0.0,0.0,1.0,55.0,616.79921,10000.0,85.000001,85.000001,85.000001,85.000001,395.0,0.0,0.0,0.0,1.0,166.665,53.391,53.391,48.035,48.035,34.0,-25.5475,18.025999999999996,-35.64,24.4375,0.0,1783.282,0.6099999999999994,100.0,28.143,27.345,42.464,41.597,0.0,0.0,100.0,0.0,0.0,0.0,0.0,2844.285714285714,2780.0,4348.25,4223.7,306.1575,305.793,314.26175,314.322,21.812625,20.5239,21.7873,21.3294,314.999998,314.999998,324.999988,324.999988,99.55904285714286,99.5071,99.56488571428571,99.54521428571428,-0.020999999999999908,-0.1479999999999999,-0.21466666666666656,0.01100000000000012,-0.04333333333332945,-0.03833333333332689,1.4795,1.5365000000000002,37.329,29.2745,37.17,34.3085,56.266,34.5195,58.9495,51.6365,54.18,33.683,57.575,49.9985,53.343,33.2395,57.528999999999996,49.42633333333333,-0.028000000000000025,-0.121,0.10629000000000001,0.11134000000000001,0.0,206.61,206.465,203.39,203.39,0.0,0.0
4,0.0,0.0,0.0,1.0,1.0,0.0,0.0,1.0,0.0,100.0,1.0,1.1856,26.0,0.0,0.0,0.0,59.999996,0.0,26.0,26.0,26.0,26.0,-0.14949999999999997,0.26859999999999995,-0.024966666666666668,293.533,-2.65585,-2.7451,-1.52485,-1.6007,-262.26,216.2575,190.909,0.0,0.0,0.0,0.0,0.009399999999999964,-5.498166666666667,-5.498166666666667,-0.5481,-0.754,-0.07866666666666644,-0.546,66.077,-0.08600000000000001,-0.2411,1.1240000000000006,100.0,1.0,1.0,204.00666666666666,0.0,0.0,0.0,0.0,0.0,0.0,0.0,8647.1,0.0,55.0,5.0,237.85000000000002,0.0,0.0,0.0,0.0,0.0,0.0,0.0,0.0,0.20700000000000074,0.20700000000000074,0.0,0.0,0.0,55.0,616.79921,10000.0,85.000001,85.000001,85.000001,85.000001,395.0,0.0,0.0,0.0,1.0,333.33500000000004,52.841,52.841,48.828,48.828,34.0,-28.7275,20.201999999999998,-31.939999999999998,20.58,0.0,1783.23,0.5549999999999997,100.0,28.012999999999998,26.887999999999998,42.91,41.516,0.0,0.0,100.0,0.0,0.0,0.0,0.0,3216.142857142857,2997.4,4030.0,3672.3,305.081,305.32733333333334,314.9225,315.7,21.82225,20.529,21.7978,21.3382,314.999998,314.999998,324.999988,324.999988,99.55905714285714,99.50711666666666,99.56502857142857,99.54535714285714,-0.01924999999999999,-0.14300000000000002,-0.20433333333333337,0.012666666666666604,-0.051666666666669414,-0.03999999999999915,1.5655000000000001,1.6029999999999998,37.388999999999996,29.305999999999997,37.236000000000004,34.3635,56.248000000000005,34.561,58.992,51.695,54.163,33.721000000000004,57.6145,50.055,53.325,33.2765,57.566,49.48133333333333,-0.025499999999999967,-0.119,0.105855,0.101745,0.0,206.99,206.885,204.00666666666666,204.00666666666666,0.0,0.0
5,0.0,0.0,0.0,1.0,1.0,0.0,0.0,1.0,0.0,100.0,1.0,1.1856,26.0,0.0,0.0,0.0,59.999996,0.0,26.0,26.0,26.0,26.0,-0.119,0.3106,-0.0037333333333333337,293.503,-2.6703,-2.7609,-1.5112999999999999,-1.5873,-258.88,216.2375,190.888625,0.0,0.0,0.0,0.0,0.011366666666666525,-5.498166666666667,-5.498166666666667,-0.5361,0.3536666666666668,-0.08199999999999985,-0.17599999999999993,66.224,-0.0874,-0.214625,1.08,100.0,1.0,1.0,204.37333333333333,0.0,0.0,0.0,0.0,0.0,0.0,0.0,8662.6,0.0,55.0,5.0,238.37666666666667,1.0,0.0,0.0,0.0,0.0,0.0,0.0,0.0,0.2579999999999991,0.2579999999999991,0.0,0.0,1.0,55.0,616.79921,10000.0,85.000001,85.000001,85.000001,85.000001,395.0,0.0,0.0,0.0,1.0,333.33500000000004,53.314,53.314,48.843,48.843,34.0,-28.1475,19.014000000000003,-33.51,23.2575,0.0,1783.177,0.19000000000000128,100.0,27.901,26.89,42.624,41.272,0.0,0.0,100.0,0.0,0.0,0.0,0.0,3194.142857142857,2766.4,4206.625,4057.0,305.2235,305.92766666666665,314.639,314.746,21.83225,20.534,21.8082,21.346899999999998,314.999998,314.999998,324.999988,324.999988,99.55905714285714,99.50713333333333,99.56517142857143,99.5455,-0.010000000000000009,-0.133,-0.20783333333333331,0.013833333333333364,-0.05833333333333002,-0.04833333333333201,1.5434999999999999,1.5594999999999999,37.451,29.338,37.301,34.4185,56.233999999999995,34.6015,59.033,51.7535,54.15,33.7585,57.653,50.1105,53.311,33.312,57.6015,49.536,-0.05599999999999994,-0.09200000000000008,0.10049500000000001,0.11478500000000001,0.0,207.515,207.39499999999998,204.37333333333333,204.37333333333333,0.0,0.0
6,0.0,0.0,0.0,1.0,1.0,0.0,0.0,1.0,0.0,100.0,1.0,1.1856,26.0,0.0,0.0,0.0,59.999996,0.0,26.0,26.0,26.0,26.0,-0.10587499999999994,0.29190000000000005,-0.008866666666666667,293.381,-2.6403499999999998,-2.7921,-1.5559500000000002,-1.5821,-255.7,216.2175,190.869375,0.0,0.0,0.0,0.0,0.01319999999999999,-5.498166666666667,-5.498166666666667,-0.5323,0.09699999999999998,-0.06333333333333346,-0.569,66.362,-0.08310000000000001,-0.21715,0.7760000000000007,100.0,1.0,1.0,204.8,0.0,0.0,0.0,0.0,0.0,0.0,0.0,8680.7,0.0,55.0,5.0,238.87666666666667,0.0,0.0,0.0,0.0,0.0,0.0,0.0,0.0,0.30600000000000094,0.30600000000000094,0.0,0.0,0.0,55.0,616.79921,10000.0,85.000001,85.000001,85.000001,85.000001,395.0,0.0,0.0,0.0,1.0,333.33500000000004,53.07,53.07,48.706,48.706,34.0,-27.4025,20.558,-32.84,23.125,0.0,1783.13,0.030000000000001137,100.0,27.762,26.97,42.702,41.594,0.0,0.0,100.0,0.0,0.0,0.0,0.0,3204.5714285714284,2881.2,4119.0,3996.2,305.1555,305.447,314.8445,314.89,21.8415,20.538899999999998,21.8181,21.3554,314.999998,314.999998,324.999988,324.999988,99.55905714285714,99.50715,99.56531428571428,99.54562857142857,0.004750000000000032,-0.1273333333333333,-0.20033333333333336,0.020000000000000018,-0.054999999999999716,-0.046666666666666856,1.5550000000000002,1.5514999999999999,37.51,29.368000000000002,37.363,34.471000000000004,56.22,34.64,59.0715,51.812,54.135999999999996,33.794,57.689,50.1665,53.296,33.346000000000004,57.6345,49.590666666666664,-0.07099999999999995,-0.07750000000000012,0.10170000000000001,0.10876000000000001,0.0,207.9,207.815,204.8,204.8,0.0,0.0
7,0.0,0.0,0.0,1.0,1.0,0.0,0.0,1.0,0.0,100.0,1.0,1.1856,26.0,0.0,0.0,0.0,59.999996,0.0,26.0,26.0,26.0,26.0,-0.06425000000000003,0.2865,0.014166666666666666,293.259,-2.6137,-2.7481,-1.5163,-1.6229,-252.11,216.1925,190.84775,0.0,0.0,0.0,0.0,0.01529999999999998,-5.498166666666667,-5.498166666666667,-0.5343,0.06833333333333336,-0.04988888888888887,-0.16999999999999993,66.516,-0.06520000000000001,-0.224825,0.34799999999999986,100.0,1.0,1.0,205.2733333333333,0.0,0.0,0.0,0.0,0.0,0.0,0.0,8700.8,0.0,55.0,5.0,239.43,1.0,0.0,0.0,0.0,0.0,0.0,0.0,0.0,0.35999999999999943,0.35999999999999943,0.0,0.0,1.0,55.0,616.79921,10000.0,85.000001,85.000001,85.000001,85.000001,395.0,0.0,0.0,0.0,1.0,166.665,52.856,52.856,48.813,48.813,34.0,-26.42,21.598,-31.056666666666665,24.4425,0.0,1783.078,-0.23999999999999844,100.0,27.872,27.052,42.726,41.883,0.0,0.0,100.0,0.0,0.0,0.0,0.0,3224.857142857143,2909.7,4051.5,3997.5,305.04,305.36033333333336,314.958,314.83625,21.852,20.5443,21.8292,21.3649,314.999998,314.999998,324.999988,324.999988,99.55905714285714,99.50716666666666,99.56547142857143,99.54577142857143,0.028249999999999886,-0.09766666666666679,-0.18366666666666664,0.03383333333333338,-0.04999999999999716,-0.030000000000001137,1.5345,1.5520000000000005,37.575,29.402,37.432,34.5305,56.204,34.6815,59.114,51.876999999999995,54.120999999999995,33.832499999999996,57.7285,50.229,53.281,33.3825,57.6715,49.651666666666664,-0.09350000000000003,-0.05400000000000005,0.10901500000000001,0.10792500000000001,0.0,208.36,208.315,205.2733333333333,205.2733333333333,0.0,0.0
8,0.0,0.0,0.0,1.0,1.0,0.0,0.0,1.0,0.0,100.0,1.0,1.1856,26.0,0.0,0.0,0.0,59.999996,0.0,26.0,26.0,26.0,26.0,-0.03687499999999999,0.2811000000000001,0.03516666666666667,293.472,-2.69445,-2.7227,-1.4985,-1.5748,-248.72,216.16500000000002,190.82725,0.0,0.0,0.0,0.0,0.01726666666666654,-5.498166666666667,-5.498166666666667,-0.5388000000000001,-0.6819999999999999,-0.03188888888888908,0.605,66.663,-0.0427,-0.21752500000000002,-0.12600000000000033,100.0,1.0,1.0,205.66,0.0,0.0,0.0,0.0,0.0,0.0,0.0,8717.1,0.0,55.0,5.0,239.95666666666668,0.0,0.0,0.0,0.0,0.0,0.0,0.0,0.0,0.41100000000000136,0.41100000000000136,0.0,0.0,0.0,55.0,616.79921,10000.0,85.000001,85.000001,85.000001,85.000001,395.0,0.0,0.0,0.0,1.0,166.665,53.528,53.528,48.278999999999996,48.278999999999996,34.0,-23.695,23.172,-28.909999999999997,26.75,0.0,1783.027,-0.3249999999999993,100.0,27.532,26.807,42.806,41.934,0.0,0.0,100.0,0.0,0.0,0.0,0.0,2960.142857142857,3033.1,4048.0,4096.5,305.8855,305.25966666666665,314.8745,314.64525,21.861625,20.5495,21.8396,21.3738,314.999998,314.999998,324.999988,324.999988,99.55907142857143,99.50716666666666,99.5656,99.54591428571429,0.04925000000000024,-0.07200000000000006,-0.14200000000000002,0.07650000000000001,-0.06499999999999773,-0.06666666666666998,1.5255,1.5309999999999997,37.635,29.4345,37.498000000000005,34.5865,56.187,34.72,59.1545,51.938,54.105000000000004,33.8675,57.7665,50.2875,53.263999999999996,33.4165,57.706,49.709,-0.09650000000000003,-0.046499999999999986,0.10660000000000001,0.10185500000000001,0.0,208.785,208.79000000000002,205.66,205.66,0.0,0.0
9,0.0,0.0,0.0,1.0,1.0,0.0,0.0,1.0,0.0,100.0,1.0,1.1856,26.0,0.0,0.0,0.0,59.999996,0.0,26.0,26.0,26.0,26.0,-0.013499999999999956,0.2881,-0.012833333333333335,293.076,-2.68655,-2.7192,-1.5546,-1.5550000000000002,-245.71,216.14249999999998,190.8085,0.0,0.0,0.0,0.0,0.019033333333333347,-5.498166666666667,-5.498166666666667,-0.5418000000000001,0.6996666666666669,-0.034555555555555895,-0.30799999999999994,66.788,-0.0251,-0.21605000000000002,-0.07600000000000051,100.0,1.0,1.0,206.14666666666668,0.0,0.0,0.0,0.0,0.0,0.0,0.0,8737.8,0.0,55.0,5.0,240.40666666666667,1.0,0.0,0.0,0.0,0.0,0.0,0.0,0.0,0.4559999999999995,0.4559999999999995,0.0,0.0,1.0,55.0,616.79921,10000.0,85.000001,85.000001,85.000001,85.000001,395.0,0.0,0.0,0.0,1.0,333.33500000000004,52.338,52.338,49.149,49.149,34.0,-26.48,23.6,-28.58,26.255,0.0,1782.98,-0.4750000000000014,100.0,27.913,27.39,42.362,41.981,0.0,0.0,100.0,0.0,0.0,0.0,0.0,3380.4285714285716,3006.7,4025.875,4039.0,304.6555,305.08366666666666,315.12275,314.818,21.870375,20.5542,21.8487,21.3816,314.999998,314.999998,324.999988,324.999988,99.55907142857143,99.50718333333333,99.56572857142856,99.54604285714285,0.07224999999999993,-0.06233333333333313,-0.13383333333333336,0.08550000000000013,-0.051666666666669414,-0.051666666666669414,1.5750000000000002,1.5825000000000005,37.69,29.464,37.555,34.635,56.176,34.754999999999995,59.187,51.9905,54.094,33.9,57.7965,50.3375,53.251999999999995,33.4475,57.734,49.757999999999996,-0.11599999999999999,-0.04499999999999993,0.105175,0.10625000000000001,0.0,209.19,209.18,206.14666666666668,206.14666666666668,0.0,0.0
10,0.0,0.0,0.0,1.0,1.0,0.0,0.0,1.0,0.0,100.0,1.0,1.1856,26.0,0.0,0.0,0.0,59.999996,0.0,26.0,26.0,26.0,26.0,0.016625000000000112,0.28880000000000017,0.06133333333333334,292.984,-2.66285,-2.7,-1.53935,-1.5332,-242.3,216.115,190.787875,0.0,0.0,0.0,0.0,0.020999999999999908,-5.498166666666667,-5.498166666666667,-0.5193,-0.618,0.012222222222222134,1.721,66.935,-0.007200000000000001,-0.20775000000000002,-0.5379999999999994,100.0,1.0,1.0,206.4,0.0,0.0,0.0,0.0,0.0,0.0,0.0,8748.5,0.0,55.0,5.0,240.93666666666667,0.0,0.0,0.0,0.0,0.0,0.0,1.0,0.0,0.5069999999999979,0.5069999999999979,0.0,0.0,0.0,55.0,616.79921,10000.0,85.000001,85.000001,85.000001,85.000001,395.0,0.0,0.0,0.0,1.0,333.33500000000004,53.467,53.467,47.607,47.607,34.0,-20.3075,23.933999999999997,-29.456666666666663,30.564999999999998,0.0,1782.93,-0.6400000000000006,100.0,27.784,27.193,42.905,42.657,0.0,0.0,100.0,0.0,0.0,0.0,0.0,2801.0,2985.1,4220.75,4334.1,306.236,305.396,314.447,314.09625,21.88,20.5595,21.8593,21.3908,314.999998,314.999998,324.999988,324.999988,99.55908571428571,99.50718333333333,99.56587142857143,99.54618571428571,0.09650000000000025,-0.03766666666666674,-0.10883333333333334,0.11733333333333329,-0.02499999999999858,-0.06499999999999773,1.4775,1.4539999999999997,37.75,29.497,37.620999999999995,34.692499999999995,56.163,34.792,59.229,52.055,54.082,33.934,57.835499999999996,50.4,53.239000000000004,33.480000000000004,57.769999999999996,49.819,-0.12749999999999995,-0.026000000000000023,0.109655,0.10576500000000001,0.0,209.59,209.64499999999998,206.4,206.4,0.0,0.0
11,0.0,0.0,0.0,1.0,1.0,0.0,0.0,1.0,0.0,100.0,1.0,1.1856,26.0,0.0,0.0,0.0,59.999996,0.0,26.0,26.0,26.0,26.0,0.048875,0.28049999999999997,-0.10426666666666667,293.533,-2.7085,-2.6831,-1.5906500000000001,-1.5232999999999999,-238.89,216.0875,190.767125,0.0,0.0,0.0,0.0,0.022599999999999953,-5.498166666666667,-5.498166666666667,-0.5617,-0.10099999999999998,0.03166666666666673,-0.717,67.074,0.0125,-0.236325,-0.6320000000000006,100.0,1.0,1.0,207.13333333333333,0.0,0.0,0.0,0.0,0.0,0.0,0.0,8779.6,0.0,55.0,5.0,241.43666666666667,1.0,0.0,0.0,0.0,0.0,0.0,1.0,0.0,0.5579999999999998,0.5579999999999998,0.0,0.0,1.0,55.0,616.79921,10000.0,85.000001,85.000001,85.000001,85.000001,395.0,0.0,0.0,0.0,1.0,333.33500000000004,52.826,52.826,49.271,49.271,34.0,-22.36,25.682000000000002,-24.28666666666666,26.4925,0.0,1782.878,-0.6849999999999987,100.0,27.459,27.591,42.230000000000004,42.585,0.0,0.0,100.0,0.0,0.0,0.0,0.0,3076.714285714286,3084.2,3727.75,3852.1,305.5865,304.853,315.8215,315.27225,21.889625,20.5649,21.8696,21.3997,314.999998,314.999998,324.999988,324.999988,99.5591,99.5072,99.56601428571429,99.54632857142857,0.10875000000000012,-0.021333333333333204,-0.09099999999999997,0.13349999999999995,-0.051666666666669414,-0.03999999999999915,1.6515,1.6230000000000002,37.81,29.5305,37.685,34.7485,56.147999999999996,34.829499999999996,59.2635,52.115,54.068,33.969,57.868,50.457499999999996,53.224000000000004,33.5135,57.799,49.87566666666667,-0.132,-0.021500000000000075,0.10601000000000001,0.10527,0.0,210.035,210.06,207.13333333333333,207.13333333333333,0.0,0.0
12,0.0,0.0,0.0,1.0,1.0,0.0,0.0,1.0,0.0,100.0,1.0,1.1856,26.0,0.0,0.0,0.0,59.999996,0.0,26.0,26.0,26.0,26.0,0.06087500000000001,0.28680000000000017,0.04173333333333333,292.938,-2.7606,-2.6788,-1.5567,-1.5238,-235.66,216.0625,190.746375,0.0,0.0,0.0,0.0,0.025466666666666526,-5.498166666666667,-5.498166666666667,-0.546,0.2763333333333333,0.0173333333333332,-0.856,67.211,0.0317,-0.2064,-0.6979999999999995,100.0,1.0,1.0,207.32,0.0,0.0,0.0,0.0,0.0,0.0,0.0,8787.5,0.0,55.0,5.0,241.92666666666668,0.0,0.0,0.0,0.0,0.0,0.0,1.0,0.0,0.6059999999999981,0.6059999999999981,0.0,0.0,0.0,55.0,616.79921,10000.0,85.000001,85.000001,85.000001,85.000001,395.0,0.0,0.0,0.0,1.0,166.665,52.811,52.811,47.958,47.958,34.0,-23.1,26.198,-27.766666666666666,31.0475,0.0,1782.832,-0.6449999999999996,100.0,27.341,27.729,42.186,42.553,0.0,0.0,100.0,0.0,0.0,0.0,0.0,3133.714285714286,3105.2,4244.625,4174.4,305.47,304.813,314.5665,314.4595,21.898625,20.57,21.8793,21.4082,314.999998,314.999998,324.999988,324.999988,99.55911428571429,99.5072,99.56614285714285,99.54645714285714,0.11249999999999982,-0.01200000000000001,-0.07733333333333337,0.15799999999999992,-0.03166666666666629,-0.03833333333332689,1.53,1.5015,37.866,29.5625,37.745999999999995,34.801,56.135999999999996,34.8655,59.3005,52.1725,54.056,34.001999999999995,57.902,50.513,53.212,33.545500000000004,57.8305,49.93,-0.127,-0.025500000000000078,0.10695,0.10813,0.0,210.46,210.515,207.32,207.32,0.0,0.0
13,0.0,0.0,0.0,1.0,1.0,0.0,0.0,1.0,0.0,100.0,1.0,1.1856,26.0,0.0,0.0,0.0,59.999996,0.0,26.0,26.0,26.0,26.0,0.0747500000000001,0.2872000000000001,0.05493333333333334,292.572,-2.73535,-2.675,-1.5893000000000002,-1.5082,-232.23,216.0375,190.724625,0.0,0.0,0.0,0.0,0.026866666666666594,-5.498166666666667,-5.498166666666667,-0.5394,-0.06766666666666665,0.02400000000000002,1.032,67.35300000000001,0.0408,-0.2159,-0.8339999999999996,100.0,1.0,1.0,207.70333333333332,0.0,0.0,0.0,0.0,0.0,0.0,0.0,8803.8,0.0,55.0,5.0,242.44333333333333,1.0,0.0,0.0,0.0,0.0,0.0,1.0,0.0,0.657,0.657,0.0,0.0,1.0,55.0,616.79921,10000.0,85.000001,85.000001,85.000001,85.000001,395.0,0.0,0.0,0.0,1.0,166.665,52.505,52.505,47.943,47.943,34.0,-20.72,27.98,-26.563333333333333,32.975,0.0,1782.78,-0.8550000000000004,100.0,27.816,27.758,42.522,42.945,0.0,0.0,100.0,0.0,0.0,0.0,0.0,3049.0,3191.4,4140.0,4366.6,305.5075,304.71366666666665,314.69625,314.05475,21.90825,20.575499999999998,21.8898,21.4174,314.999998,314.999998,324.999988,324.999988,99.55912857142857,99.5072,99.56628571428571,99.54661428571428,0.1512500000000001,0.016000000000000014,-0.056499999999999995,0.16566666666666685,-0.041666666666671404,-0.05833333333333002,1.505,1.4809999999999999,37.926,29.597,37.811,34.8585,56.126000000000005,34.903999999999996,59.3395,52.237,54.046,34.0375,57.9385,50.575,53.201,33.579499999999996,57.864,49.991,-0.14600000000000002,-0.016000000000000014,0.10662500000000001,0.10092500000000001,0.0,210.9,210.94,207.70333333333332,207.70333333333332,0.0,0.0
14,0.0,0.0,0.0,1.0,1.0,0.0,0.0,1.0,0.0,100.0,1.0,1.1856,26.0,0.0,0.0,0.0,59.999996,0.0,26.0,26.0,26.0,26.0,0.10250000000000004,0.2802,-0.0117,292.831,-2.73655,-2.6128,-1.6002,-1.5086,-228.79,216.015,190.703375,0.0,0.0,0.0,0.0,0.028866666666666596,-5.498166666666667,-5.498166666666667,-0.5493,-0.16999999999999993,0.052000000000000046,-0.05999999999999994,67.493,0.0526,-0.22887500000000002,-1.0060000000000002,100.0,1.0,1.0,208.2266666666667,0.0,0.0,0.0,0.0,0.0,0.0,0.0,8826.0,0.0,55.0,5.0,242.94666666666666,0.0,0.0,0.0,0.0,0.0,0.0,1.0,0.0,0.7079999999999984,0.7079999999999984,0.0,0.0,0.0,55.0,616.79921,10000.0,85.000001,85.000001,85.000001,85.000001,395.0,0.0,0.0,0.0,1.0,333.33500000000004,52.597,52.597,48.172,48.172,34.0,-20.4225,27.75,-24.939999999999998,31.4125,0.0,1782.729,-0.9450000000000003,100.0,27.522,27.990000000000002,42.394999999999996,43.249,0.0,0.0,100.0,0.0,0.0,0.0,0.0,3027.857142857143,3172.9,3981.0,4162.5,305.744,304.61266666666666,315.15925,314.4875,21.917749999999998,20.581,21.900199999999998,21.4265,314.999998,314.999998,324.999988,324.999988,99.55914285714286,99.50721666666666,99.56644285714286,99.54675714285715,0.15050000000000008,0.023666666666666725,-0.052166666666666583,0.17100000000000004,-0.051666666666669414,-0.041666666666671404,1.564,1.4990000000000006,37.986000000000004,29.6315,37.876000000000005,34.9155,56.116,34.942,59.376999999999995,52.3,54.036,34.073,57.973,50.6355,53.19,33.6135,57.894999999999996,50.05,-0.14849999999999997,0.0030000000000000027,0.09836500000000001,0.10716500000000001,0.0,211.325,211.37,208.2266666666667,208.2266666666667,0.0,0.0
15,0.0,0.0,0.0,1.0,1.0,0.0,0.0,1.0,0.0,100.0,1.0,1.1856,26.0,0.0,0.0,0.0,59.999996,0.0,26.0,26.0,26.0,26.0,0.1276250000000001,0.2842,-0.0562,292.877,-2.7485,-2.5704000000000002,-1.6287,-1.4511,-225.55,215.995,190.683125,0.0,0.0,0.0,0.0,0.03073333333333339,-5.498166666666667,-5.498166666666667,-0.5396000000000001,0.2586666666666668,0.0818888888888889,-0.45799999999999996,67.625,0.0674,-0.20975000000000002,-1.1660000000000004,100.0,1.0,1.0,208.62,0.0,0.0,0.0,0.0,0.0,0.0,0.0,8842.6,0.0,55.0,5.0,243.42000000000002,1.0,0.0,0.0,0.0,0.0,0.0,1.0,0.0,0.7560000000000002,0.7560000000000002,0.0,0.0,1.0,55.0,616.79921,10000.0,85.000001,85.000001,85.000001,85.000001,395.0,0.0,0.0,0.0,1.0,166.665,52.856,52.856,48.187,48.187,34.0,-18.845,27.334,-24.71,33.5925,0.0,1782.68,-0.9450000000000003,100.0,27.512,28.038,42.141999999999996,43.342,0.0,0.0,100.0,0.0,0.0,0.0,0.0,2872.5714285714284,3136.6,3974.0,4341.9,306.1935,304.711,315.21225,314.067,21.92675,20.5863,21.9099,21.4351,314.999998,314.999998,324.999988,324.999988,99.55917142857143,99.50721666666666,99.56657142857142,99.54688571428571,0.16225000000000023,0.03100000000000014,-0.040000000000000036,0.19700000000000006,-0.04333333333332945,-0.041666666666671404,1.541,1.5045000000000002,38.042,29.664,37.937,34.9695,56.105999999999995,34.979,59.41,52.3595,54.027,34.107,58.004,50.693,53.179,33.6465,57.923,50.10666666666667,-0.15549999999999997,0.0010000000000000009,0.10494,0.11343500000000001,0.0,211.74,211.815,208.62,208.62,0.0,0.0
16,0.0,0.0,0.0,1.0,1.0,0.0,0.0,1.0,0.0,100.0,1.0,1.1856,26.0,0.0,0.0,0.0,59.999996,0.0,26.0,26.0,26.0,26.0,0.12074999999999991,0.27590000000000003,-0.010233333333333334,292.847,-2.8047,-2.5836,-1.59855,-1.5141,-222.1,215.97750000000002,190.661,0.0,0.0,0.0,0.0,0.03273333333333339,-5.498166666666667,-5.498166666666667,-0.5621,-0.719,0.06955555555555559,0.16199999999999992,67.765,0.07830000000000001,-0.226,-1.217999999999999,100.0,1.0,1.0,209.05,0.0,0.0,0.0,0.0,0.0,0.0,0.0,8860.9,0.0,55.0,5.0,243.92666666666668,0.0,0.0,0.0,0.0,0.0,0.0,1.0,0.0,0.8069999999999986,0.8069999999999986,0.0,0.0,0.0,55.0,616.79921,10000.0,85.000001,85.000001,85.000001,85.000001,395.0,0.0,0.0,0.0,1.0,333.33500000000004,52.658,52.658,47.958,47.958,34.0,-19.875,29.492,-22.606666666666662,33.4425,0.0,1782.629,-0.8649999999999984,100.0,27.326999999999998,27.982,42.477000000000004,43.378,0.0,0.0,100.0,0.0,0.0,0.0,0.0,2965.4285714285716,3312.7,3917.5,4145.8,305.9405,304.3833333333333,315.2805,314.533,21.935875,20.5918,21.9203,21.4442,314.999998,314.999998,324.999988,324.999988,99.55918571428572,99.50721666666666,99.56671428571428,99.54704285714286,0.16625000000000023,0.04300000000000015,-0.01416666666666666,0.21550000000000002,-0.03999999999999915,-0.051666666666669414,1.566,1.5295000000000005,38.099000000000004,29.698999999999998,38.001999999999995,35.025999999999996,56.093,35.019,59.449,52.4225,54.013999999999996,34.144,58.04,50.7535,53.166,33.682,57.956,50.166,-0.14249999999999996,-0.010499999999999954,0.10425500000000001,0.11012000000000001,0.0,212.125,212.21,209.05,209.05,0.0,0.0
17,0.0,0.0,0.0,1.0,1.0,0.0,0.0,1.0,0.0,100.0,1.0,1.1856,26.0,0.0,0.0,0.0,59.999996,0.0,26.0,26.0,26.0,26.0,0.12050000000000005,0.28869999999999996,0.013266666666666666,292.343,-2.7645,-2.5644,-1.64175,-1.4742,-218.43,215.96,190.637125,0.0,0.0,0.0,0.0,0.0348666666666666,-5.498166666666667,-5.498166666666667,-0.5486,0.42100000000000004,0.05188888888888887,0.929,67.913,0.0787,-0.20595000000000002,-1.154,100.0,1.0,1.0,209.41666666666669,0.0,0.0,0.0,0.0,0.0,0.0,0.0,8876.4,0.0,55.0,5.0,244.45666666666665,1.0,0.0,0.0,0.0,0.0,0.0,1.0,0.0,0.8610000000000007,0.8610000000000007,0.0,0.0,1.0,55.0,616.79921,10000.0,85.000001,85.000001,85.000001,85.000001,395.0,0.0,0.0,0.0,1.0,166.665,52.353,52.353,47.562,47.562,34.0,-18.9225,28.695999999999998,-25.816666666666663,35.067499999999995,0.0,1782.576,-0.9800000000000004,100.0,27.839,28.271,42.346000000000004,43.396,0.0,0.0,100.0,0.0,0.0,0.0,0.0,3002.5714285714284,3203.5,4274.5,4404.5,305.687,304.709,314.493,314.0355,21.945875,20.5979,21.9312,21.4538,314.999998,314.999998,324.999988,324.999988,99.5592,99.50723333333333,99.56685714285715,99.5472,0.19025000000000025,0.05500000000000016,-0.014333333333333309,0.20866666666666678,-0.02833333333332888,-0.060000000000002274,1.5314999999999999,1.4825,38.162,29.7365,38.07,35.086,56.085,35.0625,59.487,52.489,54.006,34.1845,58.0755,50.818,53.156,33.721000000000004,57.9885,50.22933333333333,-0.15949999999999998,-0.0004999999999999449,0.1072,0.10525500000000002,0.0,212.615,212.72,209.41666666666669,209.41666666666669,0.0,0.0
18,0.0,0.0,0.0,1.0,1.0,0.0,0.0,1.0,0.0,100.0,1.0,1.1856,26.0,0.0,0.0,0.0,59.999996,0.0,26.0,26.0,26.0,26.0,0.1352500000000001,0.2671000000000001,-0.021666666666666667,292.45,-2.7997,-2.5343,-1.6569,-1.42,-215.38,215.9525,190.617375,0.0,0.0,0.0,0.0,0.036666666666666514,-5.498166666666667,-5.498166666666667,-0.5624,-0.5216666666666667,0.07533333333333325,-0.247,68.03399999999999,0.0795,-0.223925,-1.1920000000000002,100.0,1.0,1.0,209.85000000000002,0.0,0.0,0.0,0.0,0.0,0.0,0.0,8894.8,0.0,55.0,5.0,244.89666666666665,0.0,0.0,0.0,0.0,0.0,0.0,1.0,0.0,0.9059999999999988,0.9059999999999988,0.0,0.0,0.0,55.0,616.79921,10000.0,85.000001,85.000001,85.000001,85.000001,395.0,0.0,0.0,0.0,1.0,333.33500000000004,52.277,52.277,47.668,47.668,34.0,-20.0525,29.748,-25.053333333333335,32.2575,0.0,1782.529,-1.2199999999999989,100.0,27.443,28.313,42.527,43.837,0.0,0.0,100.0,0.0,0.0,0.0,0.0,3100.5714285714284,3293.2,4052.125,4194.9,305.6345,304.32,315.05,314.45525,21.954125,20.6028,21.9404,21.462,314.999998,314.999998,324.999988,324.999988,99.55922857142858,99.50723333333333,99.567,99.54734285714285,0.18325000000000014,0.06066666666666665,-0.029000000000000026,0.20650000000000013,-0.054999999999999716,-0.03166666666666629,1.556,1.505,38.213,29.7675,38.128,35.137,56.076,35.1005,59.522999999999996,52.55,53.997,34.22,58.1085,50.8765,53.146,33.754999999999995,58.0185,50.28666666666666,-0.16749999999999998,0.015000000000000013,0.11146500000000001,0.11326000000000001,0.0,212.97500000000002,213.04500000000002,209.85000000000002,209.85000000000002,0.0,0.0
19,0.0,0.0,0.0,1.0,1.0,0.0,0.0,1.0,0.0,100.0,1.0,1.1856,26.0,0.0,0.0,0.0,59.999996,0.0,26.0,26.0,26.0,26.0,0.148625,0.2876000000000001,0.05266666666666667,291.916,-2.7146,-2.5266,-1.6726,-1.4036,-211.89999999999998,215.9425,190.59475,0.0,0.0,0.0,0.0,0.038666666666666516,-5.498166666666667,-5.498166666666667,-0.5495,0.8676666666666668,0.08544444444444421,0.956,68.172,0.0901,-0.21072500000000002,-1.7000000000000002,100.0,1.0,1.0,210.23000000000002,0.0,0.0,0.0,0.0,0.0,0.0,0.0,8910.9,0.0,55.0,5.0,245.39,1.0,0.0,0.0,0.0,0.0,0.0,1.0,0.0,0.9570000000000007,0.9570000000000007,0.0,0.0,1.0,55.0,616.79921,10000.0,85.000001,85.000001,85.000001,85.000001,395.0,0.0,0.0,0.0,1.0,166.665,51.666,51.666,47.409,47.409,34.0,-17.2825,31.776,-24.356666666666662,35.769999999999996,0.0,1782.481,-1.58,100.0,28.12,28.674,42.367000000000004,43.764,0.0,0.0,100.0,0.0,0.0,0.0,0.0,2994.285714285714,3414.3,4167.5,4500.1,305.5965,304.00533333333334,314.767,313.836,21.963625,20.6086,21.9507,21.4711,314.999998,314.999998,324.999988,324.999988,99.55925714285715,99.50723333333333,99.56712857142857,99.54747142857143,0.21824999999999983,0.0813333333333337,0.0044999999999999485,0.22316666666666674,-0.02499999999999858,-0.05833333333333002,1.5575,1.4725000000000001,38.272999999999996,29.804000000000002,38.192,35.1945,56.07,35.1425,59.556,52.6095,53.992000000000004,34.2585,58.138999999999996,50.934,53.138999999999996,33.792,58.046,50.343333333333334,-0.1945,0.03649999999999998,0.10544,0.10562500000000001,0.0,213.405,213.55,210.23000000000002,210.23000000000002,0.0,0.0
20,0.0,0.0,0.0,1.0,1.0,0.0,0.0,1.0,0.0,100.0,1.0,1.1856,26.0,0.0,0.0,0.0,59.999996,0.0,26.0,26.0,26.0,26.0,0.21612500000000012,0.274,-0.06543333333333334,292.358,-2.8279,-2.5779,-1.60945,-1.5146000000000002,-208.42000000000002,215.94,190.572375,0.0,0.0,0.0,0.0,0.04069999999999996,-5.498166666666667,-5.498166666666667,-0.5568000000000001,-1.1696666666666666,0.09577777777777774,-0.614,68.311,0.10650000000000001,-0.225275,-2.018,100.0,1.0,1.0,210.58333333333331,0.0,0.0,0.0,0.0,0.0,0.0,0.0,8925.8,0.0,55.0,5.0,245.89333333333335,0.0,0.0,0.0,0.0,0.0,0.0,0.0,0.0,1.0079999999999991,1.0079999999999991,0.0,0.0,0.0,55.0,616.79921,10000.0,85.000001,85.000001,85.000001,85.000001,395.0,0.0,0.0,0.0,1.0,166.665,52.765,52.765,46.997,46.997,34.0,-15.915,30.612,-22.4,36.68,0.0,1782.429,-1.7699999999999996,100.0,27.378,28.542,42.757,44.365,0.0,0.0,100.0,0.0,0.0,0.0,0.0,2818.142857142857,3184.8,4093.375,4285.7,306.443,304.579,314.86925,314.06125,21.97275,20.6143,21.961199999999998,21.4805,314.999998,314.999998,324.999988,324.999988,99.55928571428572,99.50725,99.56728571428572,99.54762857142858,0.2400000000000002,0.09766666666666657,0.01866666666666661,0.23916666666666675,-0.03333333333333144,-0.05333333333332746,1.5265,1.4489999999999998,38.329,29.8395,38.257999999999996,35.253,56.06,35.1855,59.596000000000004,52.6755,53.982,34.2985,58.176,50.9975,53.128,33.8305,58.08,50.406,-0.21450000000000002,0.05599999999999994,0.10354000000000001,0.10368500000000001,0.0,213.78,213.93,210.58333333333331,210.58333333333331,0.0,0.0
21,0.0,0.0,0.0,1.0,1.0,0.0,0.0,1.0,0.0,100.0,1.0,1.1856,26.0,0.0,0.0,0.0,59.999996,0.0,26.0,26.0,26.0,26.0,0.2353750000000001,0.27790000000000004,-0.07173333333333334,292.648,-2.74715,-2.6246,-1.6792500000000001,-1.4673,-205.14,215.9425,190.55075,0.0,0.0,0.0,0.0,0.04259999999999997,-5.498166666666667,-5.498166666666667,-0.5798,0.5326666666666668,0.08544444444444421,-0.787,68.435,0.129,-0.225775,-2.3019999999999996,100.0,1.0,1.0,211.21,0.0,0.0,0.0,0.0,0.0,0.0,0.0,8952.4,0.0,55.0,5.0,246.34,1.0,0.0,0.0,0.0,0.0,0.0,0.0,0.0,1.056000000000001,1.056000000000001,0.0,0.0,1.0,55.0,616.79921,10000.0,85.000001,85.000001,85.000001,85.000001,395.0,0.0,0.0,0.0,1.0,166.665,52.231,52.231,48.294,48.294,34.0,-17.162499999999998,31.386,-20.68333333333333,34.4925,0.0,1782.381,-1.3650000000000002,100.0,27.547,28.773,41.991,43.931,0.0,0.0,100.0,0.0,0.0,0.0,0.0,3003.142857142857,3207.0,3927.125,4088.6000000000004,305.8105,304.4336666666667,315.42025,314.74925,21.9815,20.6198,21.9707,21.489,314.999998,314.999998,324.999988,324.999988,99.55931428571428,99.50726666666667,99.56741428571429,99.54777142857142,0.22425000000000006,0.09766666666666657,0.03866666666666685,0.26383333333333336,-0.04333333333332945,-0.05833333333333002,1.646,1.5380000000000003,38.384,29.8735,38.317,35.3065,56.055,35.230000000000004,59.626,52.733000000000004,53.976,34.3395,58.2035,51.053,53.120999999999995,33.87,58.1045,50.46033333333334,-0.1875,0.038000000000000034,0.11182,0.104645,0.0,214.195,214.36,211.21,211.21,0.0,0.0
22,0.0,0.0,0.0,1.0,1.0,0.0,0.0,1.0,0.0,100.0,1.0,1.1856,26.0,0.0,0.0,0.0,59.999996,0.0,26.0,26.0,26.0,26.0,0.18712499999999999,0.268,0.0017000000000000001,292.145,-2.7409,-2.6184000000000003,-1.6767,-1.4537,-201.64999999999998,215.95,190.526875,0.0,0.0,0.0,0.0,0.0446333333333333,-5.498166666666667,-5.498166666666667,-0.5574,0.06600000000000006,0.0988888888888888,0.964,68.574,0.1414,-0.206675,-1.3379999999999992,100.0,1.0,1.0,211.41333333333333,0.0,0.0,0.0,0.0,0.0,0.0,0.0,8961.1,0.0,55.0,5.0,246.83666666666664,0.0,0.0,0.0,0.0,0.0,0.0,0.0,0.0,1.1069999999999993,1.1069999999999993,0.0,0.0,0.0,55.0,616.79921,10000.0,85.000001,85.000001,85.000001,85.000001,395.0,0.0,0.0,0.0,1.0,333.33500000000004,52.383,52.383,47.134,47.134,34.0,-18.0475,29.012,-22.15,38.5375,0.0,1782.33,0.16000000000000014,100.0,27.71,28.71,42.47,44.221000000000004,0.0,0.0,100.0,0.0,0.0,0.0,0.0,2764.5714285714284,3269.6,4114.0,4470.1,306.3055,304.396,314.83675,313.875,21.99075,20.6256,21.981099999999998,21.4984,314.999998,314.999998,324.999988,324.999988,99.55932857142857,99.50726666666667,99.56757142857143,99.54791428571428,0.16625000000000023,0.030666666666666842,0.0451666666666668,0.2643333333333333,-0.03833333333332689,-0.046666666666666856,1.501,1.471,38.442,29.91,38.382,35.365,56.045,35.272999999999996,59.665,52.7995,53.967,34.3795,58.24,51.1175,53.111000000000004,33.908500000000004,58.1375,50.523666666666664,-0.08099999999999996,-0.07699999999999996,0.102925,0.10848000000000001,0.0,214.66,214.76,211.41333333333333,211.41333333333333,0.0,0.0
23,0.0,0.0,0.0,1.0,1.0,0.0,0.0,1.0,0.0,100.0,1.0,1.1856,26.0,0.0,0.0,0.0,59.999996,0.0,26.0,26.0,26.0,26.0,0.11412500000000003,0.24980000000000002,-0.042833333333333334,292.175,-2.7542,-2.5876,-1.5799,-1.5430000000000001,-198.14,215.96,190.5035,0.0,0.0,0.0,0.0,0.04666666666666652,-5.498166666666667,-5.498166666666667,-0.5775,-0.17033333333333334,0.0664444444444443,-1.241,68.707,0.11,-0.23465,0.08200000000000074,100.0,1.0,1.0,211.96,0.0,0.0,0.0,0.0,0.0,0.0,0.0,8984.1,0.0,55.0,5.0,247.32,1.0,0.0,0.0,0.0,0.0,0.0,0.0,0.0,1.1580000000000013,1.1580000000000013,0.0,0.0,1.0,55.0,616.79921,10000.0,85.000001,85.000001,85.000001,85.000001,395.0,0.0,0.0,0.0,1.0,333.33500000000004,51.697,51.697,48.248,48.248,34.0,-24.185000000000002,25.564,-22.89333333333333,31.7775,0.0,1782.277,0.7750000000000021,100.0,27.979,28.8,42.605000000000004,44.419,0.0,0.0,100.0,0.0,0.0,0.0,0.0,3215.5714285714284,3175.9,3905.625,3964.7,305.1515,304.571,315.34775,314.9355,22.000125,20.6314,21.9915,21.5077,314.999998,314.999998,324.999988,324.999988,99.55934285714285,99.50728333333333,99.5677,99.54808571428572,0.10625000000000018,-0.026000000000000023,-0.025000000000000022,0.20816666666666683,-0.051666666666669414,-0.02833333333332888,1.5415,1.54,38.501000000000005,29.9465,38.447,35.423,56.033,35.313,59.701,52.864,53.955,34.4165,58.2735,51.1795,53.098,33.944,58.168,50.584666666666664,-0.01849999999999996,-0.13050000000000006,0.11257500000000001,0.10654500000000001,0.0,215.10000000000002,215.085,211.96,211.96,0.0,0.0
24,0.0,0.0,0.0,1.0,1.0,0.0,0.0,1.0,0.0,100.0,1.0,1.1856,26.0,0.0,0.0,0.0,59.999996,0.0,26.0,26.0,26.0,26.0,0.02100000000000013,0.2761,-0.0035666666666666668,292.465,-2.7511,-2.6263,-1.59925,-1.5086,-194.84,215.975,190.481,0.0,0.0,0.0,0.0,0.04859999999999998,-5.498166666666667,-5.498166666666667,-0.5799000000000001,-0.5293333333333333,0.04755555555555557,-0.5469999999999999,68.836,0.0557,-0.21685000000000001,0.9479999999999995,100.0,1.0,1.0,212.22,0.0,0.0,0.0,0.0,0.0,0.0,0.0,8995.3,0.0,55.0,5.0,247.78333333333336,0.0,0.0,0.0,0.0,0.0,0.0,0.0,0.0,1.2059999999999995,1.2059999999999995,0.0,0.0,0.0,55.0,616.79921,10000.0,85.000001,85.000001,85.000001,85.000001,395.0,0.0,0.0,0.0,1.0,333.33500000000004,52.979,52.979,47.18,47.18,34.0,-23.505,21.522,-29.136666666666663,29.57,0.0,1782.229,1.0,100.0,27.794,28.32,42.897,43.980000000000004,0.0,0.0,100.0,0.0,0.0,0.0,0.0,2907.857142857143,2956.3,4318.25,4127.3,306.1205,305.358,314.37875,314.638,22.008875,20.6366,22.0014,21.5163,314.999998,314.999998,324.999988,324.999988,99.55935714285714,99.50728333333333,99.56784285714286,99.54821428571428,0.0535000000000001,-0.08133333333333326,-0.07633333333333336,0.14316666666666666,-0.03999999999999915,-0.046666666666666856,1.502,1.5255,38.556,29.979,38.509,35.4765,56.018,35.349000000000004,59.737,52.9215,53.941,34.45,58.307,51.235,53.083,33.9765,58.198,50.638999999999996,0.0044999999999999485,-0.15999999999999992,0.101635,0.11089,0.0,215.53,215.465,212.22,212.22,0.0,0.0
25,0.0,0.0,0.0,1.0,1.0,0.0,0.0,1.0,0.0,100.0,1.0,1.1856,26.0,0.0,0.0,0.0,59.999996,0.0,26.0,26.0,26.0,26.0,-0.06637499999999996,0.26690000000000014,-0.06996666666666666,292.374,-2.7702999999999998,-2.633,-1.57625,-1.5484,-191.32999999999998,215.9875,190.455625,0.0,0.0,0.0,0.0,0.05063333333333331,-5.498166666666667,-5.498166666666667,-0.6138,0.02499999999999991,0.011111111111111072,-0.946,68.968,-0.0092,-0.22635000000000002,1.4299999999999997,100.0,1.0,1.0,212.79666666666668,0.0,0.0,0.0,0.0,0.0,0.0,0.0,9019.7,0.0,55.0,5.0,248.25666666666666,1.0,0.0,0.0,0.0,0.0,0.0,0.0,0.0,1.256999999999998,1.256999999999998,0.0,0.0,1.0,55.0,616.79921,10000.0,85.000001,85.000001,85.000001,85.000001,395.0,0.0,0.0,0.0,1.0,166.665,51.834,51.834,48.019,48.019,34.0,-28.365000000000002,23.03,-29.206666666666663,25.4825,0.0,1782.18,1.0399999999999991,100.0,28.129,28.163,42.996,43.305,0.0,0.0,100.0,0.0,0.0,0.0,0.0,3244.4285714285716,3303.7,3978.0,3968.1000000000004,305.088,304.419,315.2085,315.0555,22.018250000000002,20.6422,22.0117,21.5253,314.999998,314.999998,324.999988,324.999988,99.55935714285714,99.5073,99.56798571428571,99.54835714285714,0.021250000000000213,-0.11099999999999999,-0.14449999999999996,0.0838333333333332,-0.04833333333333201,-0.051666666666669414,1.553,1.601,38.614000000000004,30.014,38.573,35.533,56.001000000000005,35.3915,59.772,52.9795,53.925,34.489,58.3395,51.2905,53.066,34.013999999999996,58.2275,50.693666666666665,0.00550000000000006,-0.16399999999999992,0.11188500000000001,0.1014,0.0,215.97,215.85500000000002,212.79666666666668,212.79666666666668,0.0,0.0
26,0.0,0.0,0.0,1.0,1.0,0.0,0.0,1.0,0.0,100.0,1.0,1.1856,26.0,0.0,0.0,0.0,59.999996,0.0,26.0,26.0,26.0,26.0,-0.11324999999999996,0.2714000000000001,0.0661,291.168,-2.67245,-2.7558,-1.5868,-1.584,-187.81,216.0,190.42975,0.0,0.0,0.0,0.0,0.05266666666666653,-5.498166666666667,-5.498166666666667,-0.5697,0.6706666666666667,-0.05322222222222228,-1.312,69.104,-0.0601,-0.195475,1.7060000000000013,100.0,1.0,1.0,212.94,0.0,0.0,0.0,0.0,0.0,0.0,0.0,9025.7,0.0,55.0,5.0,248.74666666666667,0.0,0.0,0.0,0.0,0.0,0.0,0.0,0.0,1.3079999999999998,1.3079999999999998,0.0,0.0,0.0,55.0,616.79921,10000.0,85.000001,85.000001,85.000001,85.000001,395.0,0.0,0.0,0.0,1.0,333.33500000000004,51.468,51.468,46.126999999999995,46.126999999999995,34.0,-29.5675,19.604,-39.269999999999996,27.0325,0.0,1782.128,0.879999999999999,100.0,29.144,28.633,43.982,43.479,0.0,0.0,100.0,0.0,0.0,0.0,0.0,3330.4285714285716,2932.9,4696.25,4385.6,304.8505,305.266,313.555,314.05825,22.028,20.6479,22.0224,21.534399999999998,314.999998,314.999998,324.999988,324.999988,99.55935714285714,99.50731666666667,99.56814285714286,99.54851428571429,-0.007249999999999979,-0.15566666666666662,-0.1908333333333333,0.03433333333333333,-0.03999999999999915,-0.04999999999999716,1.4085,1.471,38.675,30.049500000000002,38.64,35.5905,55.988,35.4365,59.815,53.04,53.913,34.531,58.3795,51.349000000000004,53.053,34.054,58.2645,50.75033333333333,-0.014499999999999957,-0.15650000000000008,0.10423,0.11227000000000001,0.0,216.435,216.31,212.94,212.94,0.0,0.0
27,0.0,0.0,0.0,1.0,1.0,0.0,0.0,1.0,0.0,100.0,1.0,1.1856,26.0,0.0,0.0,0.0,59.999996,0.0,26.0,26.0,26.0,26.0,-0.14587499999999998,0.2634000000000001,-0.049633333333333335,291.733,-2.613,-2.7495000000000003,-1.5599500000000002,-1.6714,-184.28,216.01,190.40525,0.0,0.0,0.0,0.0,0.0547333333333333,-5.498166666666667,-5.498166666666667,-0.6022000000000001,-1.037,-0.0682222222222224,0.4570000000000001,69.235,-0.09240000000000001,-0.246225,1.517999999999999,100.0,1.0,1.0,213.5,0.0,0.0,0.0,0.0,0.0,0.0,0.0,9049.5,0.0,55.0,5.0,249.22333333333336,1.0,0.0,0.0,0.0,0.0,0.0,0.0,0.0,1.3589999999999982,1.3589999999999982,0.0,0.0,1.0,55.0,616.79921,10000.0,85.000001,85.000001,85.000001,85.000001,395.0,0.0,0.0,0.0,1.0,166.665,51.772999999999996,51.772999999999996,46.921,46.921,34.0,-28.52,20.095999999999997,-33.236666666666665,23.5925,0.0,1782.079,0.7650000000000006,100.0,29.11,28.076,44.894,43.631,0.0,0.0,100.0,0.0,0.0,0.0,0.0,3223.4285714285716,3087.1,4034.5,3962.1000000000004,305.073,305.10633333333334,314.936,315.02675,22.0375,20.6533,22.0331,21.5437,314.999998,314.999998,324.999988,324.999988,99.55935714285714,99.50733333333334,99.5683,99.54865714285714,-0.018249999999999877,-0.16300000000000003,-0.21166666666666656,0.009666666666666712,-0.046666666666666856,-0.051666666666669414,1.5015,1.5629999999999997,38.733999999999995,30.0835,38.707,35.647999999999996,55.972,35.480000000000004,59.8575,53.1005,53.897999999999996,34.571,58.4195,51.407,53.037,34.092,58.301,50.807,-0.026499999999999968,-0.14100000000000001,0.105285,0.10479500000000001,0.0,216.78,216.65,213.5,213.5,0.0,0.0
28,0.0,0.0,0.0,1.0,1.0,0.0,0.0,1.0,0.0,100.0,1.0,1.1856,26.0,0.0,0.0,0.0,59.999996,0.0,26.0,26.0,26.0,26.0,-0.16612499999999997,0.2712000000000001,-0.0585,291.855,-2.6315,-2.7466,-1.4981,-1.6409,-180.95,216.01749999999998,190.38125,0.0,0.0,0.0,0.0,0.05666666666666653,-5.498166666666667,-5.498166666666667,-0.5998,0.6853333333333333,-0.08300000000000018,0.585,69.35900000000001,-0.11170000000000001,-0.214375,1.4939999999999998,100.0,1.0,1.0,213.91666666666669,0.0,0.0,0.0,0.0,0.0,0.0,0.0,9067.1,0.0,55.0,5.0,249.66333333333336,0.0,0.0,0.0,0.0,0.0,0.0,0.0,0.0,1.407,1.407,0.0,0.0,0.0,55.0,616.79921,10000.0,85.000001,85.000001,85.000001,85.000001,395.0,0.0,0.0,0.0,1.0,166.665,51.788,51.788,47.44,47.44,34.0,-29.53,19.128,-34.54666666666667,22.8625,0.0,1782.03,0.5350000000000001,100.0,29.333,27.914,44.328,43.015,0.0,0.0,100.0,0.0,0.0,0.0,0.0,3244.4285714285716,2995.0,4197.5,4080.6000000000004,304.8675,305.3573333333333,314.72725,314.8195,22.046625,20.6585,22.0429,21.5521,314.999998,314.999998,324.999988,324.999988,99.55937142857142,99.50735,99.56844285714286,99.5488,-0.027499999999999858,-0.16966666666666663,-0.2303333333333334,-0.010000000000000009,-0.02833333333332888,-0.054999999999999716,1.5265,1.5760000000000005,38.791,30.115499999999997,38.768,35.701,55.961,35.5215,59.8925,53.1535,53.885999999999996,34.6095,58.452,51.457499999999996,53.025,34.129,58.331,50.856,-0.03849999999999998,-0.125,0.10147500000000001,0.10775000000000001,0.0,217.195,217.07999999999998,213.91666666666669,213.91666666666669,0.0,0.0
29,0.0,0.0,0.0,1.0,1.0,0.0,0.0,1.0,0.0,100.0,1.0,1.1856,26.0,0.0,0.0,0.0,59.999996,0.0,26.0,26.0,26.0,26.0,-0.15425,0.2559,0.0021333333333333334,291.595,-2.56965,-2.8044000000000002,-1.5314,-1.6202,-177.2,216.01999999999998,190.353375,0.0,0.0,0.0,0.0,0.058833333333333404,-5.498166666666667,-5.498166666666667,-0.6103000000000001,-0.6863333333333332,-0.08433333333333337,0.726,69.5,-0.11280000000000001,-0.2227,1.1300000000000008,100.0,1.0,1.0,214.23333333333335,0.0,0.0,0.0,0.0,0.0,0.0,0.0,9080.6,0.0,55.0,5.0,250.17333333333335,1.0,0.0,0.0,0.0,0.0,0.0,0.0,0.0,1.4609999999999985,1.4609999999999985,0.0,0.0,1.0,55.0,616.79921,10000.0,85.000001,85.000001,85.000001,85.000001,395.0,0.0,0.0,0.0,1.0,166.665,51.712,51.712,46.844,46.844,34.0,-29.4625,20.252000000000002,-35.053333333333335,23.87,0.0,1781.976,0.46999999999999886,100.0,29.105,27.821,44.83,43.213,0.0,0.0,100.0,0.0,0.0,0.0,0.0,3315.857142857143,3042.8,4193.875,4152.8,304.738,305.12233333333336,314.586,314.61525,22.056625,20.6642,22.0542,21.5619,314.999998,314.999998,324.999988,324.999988,99.55938571428571,99.50736666666667,99.5686,99.54895714285715,-0.02499999999999991,-0.16633333333333322,-0.22066666666666657,0.0004999999999999449,-0.05666666666667197,-0.036666666666668846,1.4605000000000001,1.5190000000000001,38.854,30.1515,38.839,35.762,55.944,35.567,59.938,53.216499999999996,53.870999999999995,34.6515,58.495,51.5185,53.009,34.169,58.3705,50.915,-0.045499999999999985,-0.11749999999999994,0.103165,0.10830000000000001,0.0,217.59,217.47500000000002,214.23333333333335,214.23333333333335,0.0,0.0
30,0.0,0.0,0.0,1.0,1.0,0.0,0.0,1.0,0.0,100.0,1.0,1.1856,26.0,0.0,0.0,0.0,59.999996,0.0,26.0,26.0,26.0,26.0,-0.13924999999999998,0.2741,0.03593333333333333,291.10699999999997,-2.62705,-2.6892,-1.47305,-1.6987,-174.07,216.01749999999998,190.33,0.0,0.0,0.0,0.0,0.060666666666666536,-5.498166666666667,-5.498166666666667,-0.6019,0.8293333333333333,-0.08822222222222242,-0.573,69.614,-0.10650000000000001,-0.21635000000000001,1.1320000000000014,100.0,1.0,1.0,214.60000000000002,0.0,0.0,0.0,0.0,0.0,0.0,0.0,9096.1,0.0,55.0,5.0,250.58666666666664,0.0,0.0,0.0,0.0,0.0,0.0,1.0,0.0,1.5060000000000002,1.5060000000000002,0.0,0.0,0.0,55.0,616.79921,10000.0,85.000001,85.000001,85.000001,85.000001,395.0,0.0,0.0,0.0,1.0,166.665,50.934,50.934,46.875,46.875,34.0,-31.4975,18.951999999999998,-36.28666666666666,25.2375,0.0,1781.931,0.28999999999999915,100.0,29.784,28.561,44.577,43.31,0.0,0.0,100.0,0.0,0.0,0.0,0.0,3520.4285714285716,2935.2,4388.875,4153.4,304.271,305.296,314.2575,314.488,22.06525,20.6692,22.0634,21.5699,314.999998,314.999998,324.999988,324.999988,99.55938571428571,99.5074,99.56872857142857,99.54908571428571,-0.014999999999999902,-0.15700000000000003,-0.22716666666666663,0.0011666666666667602,-0.05833333333333002,-0.04999999999999716,1.4675,1.5025000000000004,38.908,30.182499999999997,38.896,35.812,55.935,35.608000000000004,59.9725,53.268,53.861999999999995,34.689,58.5275,51.567499999999995,52.998999999999995,34.205,58.4,50.963,-0.06499999999999995,-0.09850000000000003,0.10788500000000001,0.11177500000000001,0.0,217.99,217.905,214.60000000000002,214.60000000000002,0.0,0.0
31,0.0,0.0,0.0,1.0,1.0,0.0,0.0,1.0,0.0,100.0,1.0,1.1856,26.0,0.0,0.0,0.0,59.999996,0.0,26.0,26.0,26.0,26.0,-0.125625,0.2715000000000001,-0.010133333333333333,291.016,-2.6925,-2.6721,-1.5224,-1.6733,-170.51999999999998,216.0125,190.30425,0.0,0.0,0.0,0.0,0.06273333333333331,-5.498166666666667,-5.498166666666667,-0.5915,-0.7416666666666667,-0.07622222222222241,0.681,69.747,-0.0898,-0.22195,0.6239999999999997,100.0,1.0,1.0,214.91,0.0,0.0,0.0,0.0,0.0,0.0,0.0,9109.3,0.0,55.0,5.0,251.06333333333333,1.0,0.0,0.0,0.0,0.0,0.0,1.0,0.0,1.5569999999999986,1.5569999999999986,0.0,0.0,1.0,55.0,616.79921,10000.0,85.000001,85.000001,85.000001,85.000001,395.0,0.0,0.0,0.0,1.0,166.665,51.528999999999996,51.528999999999996,45.609,45.609,34.0,-27.97,20.317999999999998,-35.373333333333335,27.6825,0.0,1781.881,0.23499999999999943,100.0,29.493,28.457,45.32,43.834,0.0,0.0,100.0,0.0,0.0,0.0,0.0,3198.857142857143,3136.0,4388.625,4278.3,305.24,305.10333333333335,314.0985,314.3555,22.07475,20.6748,22.0741,21.5793,314.999998,314.999998,324.999988,324.999988,99.55938571428571,99.50741666666667,99.5689,99.54922857142857,0.003750000000000142,-0.14700000000000002,-0.1911666666666666,0.03733333333333322,-0.04333333333332945,-0.045000000000001705,1.459,1.4779999999999998,38.967,30.2175,38.963,35.871,55.919,35.652,60.0165,53.329,53.847,34.7295,58.5685,51.6265,52.983000000000004,34.244,58.4385,51.02066666666666,-0.06699999999999995,-0.10650000000000004,0.10541500000000001,0.11422000000000002,0.0,218.34,218.26999999999998,214.91,214.91,0.0,0.0
32,0.0,0.0,0.0,1.0,1.0,0.0,0.0,1.0,0.0,100.0,1.0,1.1856,26.0,0.0,0.0,0.0,59.999996,0.0,26.0,26.0,26.0,26.0,-0.10362499999999997,0.26180000000000003,-0.0482,291.29,-2.6489,-2.7079,-1.58785,-1.5786,-166.95999999999998,216.005,190.2785,0.0,0.0,0.0,0.0,0.06479999999999997,-5.498166666666667,-5.498166666666667,-0.61,0.21733333333333338,-0.09955555555555584,-0.894,69.873,-0.0775,-0.22912500000000002,0.694,100.0,1.0,1.0,215.45666666666668,0.0,0.0,0.0,0.0,0.0,0.0,0.0,9132.4,0.0,55.0,5.0,251.51666666666665,0.0,0.0,0.0,0.0,0.0,0.0,1.0,0.0,1.6080000000000005,1.6080000000000005,0.0,0.0,0.0,55.0,616.79921,10000.0,85.000001,85.000001,85.000001,85.000001,395.0,0.0,0.0,0.0,1.0,333.33500000000004,51.208,51.208,46.738,46.738,34.0,-29.2425,20.548000000000002,-34.489999999999995,25.13,0.0,1781.827,0.11500000000000199,100.0,29.393,28.658,44.731,43.643,0.0,0.0,100.0,0.0,0.0,0.0,0.0,3427.714285714286,3003.0,4290.5,4136.7,304.607,305.15833333333336,314.5895,314.74125,22.084125,20.6805,22.0845,21.5884,314.999998,314.999998,324.999988,324.999988,99.55938571428571,99.50743333333334,99.56904285714286,99.54937142857143,0.016000000000000014,-0.1336666666666666,-0.1888333333333334,0.04049999999999998,-0.03166666666666629,-0.06833333333332803,1.5234999999999999,1.5415,39.025999999999996,30.253,39.028,35.928,55.905,35.696,60.054,53.385999999999996,53.834,34.7705,58.6035,51.681,52.969,34.2825,58.4705,51.07366666666667,-0.07799999999999996,-0.09200000000000008,0.10347,0.108825,0.0,218.735,218.69,215.45666666666668,215.45666666666668,0.0,0.0
33,0.0,0.0,0.0,1.0,1.0,0.0,0.0,1.0,0.0,100.0,1.0,1.1856,26.0,0.0,0.0,0.0,59.999996,0.0,26.0,26.0,26.0,26.0,-0.08362499999999995,0.2695000000000001,-0.04173333333333333,291.428,-2.64935,-2.7574,-1.5246,-1.5901,-163.6,215.9925,190.2535,0.0,0.0,0.0,0.0,0.06673333333333331,-5.498166666666667,-5.498166666666667,-0.6113000000000001,-0.365,-0.08822222222222242,0.028999999999999915,69.997,-0.0687,-0.21705000000000002,0.54,100.0,1.0,1.0,215.71666666666667,0.0,0.0,0.0,0.0,0.0,0.0,0.0,9143.4,0.0,55.0,5.0,251.96333333333334,1.0,0.0,0.0,0.0,0.0,0.0,1.0,0.0,1.6559999999999988,1.6559999999999988,0.0,0.0,1.0,55.0,616.79921,10000.0,85.000001,85.000001,85.000001,85.000001,395.0,0.0,0.0,0.0,1.0,166.665,51.91,51.91,46.463,46.463,34.0,-27.115000000000002,21.134,-33.88333333333333,26.565,0.0,1781.781,-0.054999999999999716,100.0,29.112000000000002,28.298000000000002,44.711,43.749,0.0,0.0,100.0,0.0,0.0,0.0,0.0,3256.714285714286,2916.4,4336.375,4236.3,305.1495,305.42633333333333,314.3275,314.38725,22.093,20.6856,22.0944,21.5971,314.999998,314.999998,324.999988,324.999988,99.5594,99.50745,99.56918571428571,99.54952857142857,0.02499999999999991,-0.11299999999999999,-0.1768333333333334,0.044499999999999984,-0.05333333333332746,-0.03166666666666629,1.478,1.4965000000000002,39.081,30.285,39.09,35.982,55.891,35.7335,60.091,53.442,53.82,34.805,58.6385,51.735,52.955,34.316,58.5025,51.126,-0.08650000000000002,-0.07299999999999995,0.101815,0.11375500000000001,0.0,219.135,219.05,215.71666666666667,215.71666666666667,0.0,0.0
34,0.0,0.0,0.0,1.0,1.0,0.0,0.0,1.0,0.0,100.0,1.0,1.1856,26.0,0.0,0.0,0.0,59.999996,0.0,26.0,26.0,26.0,26.0,-0.08050000000000002,0.24490000000000012,-0.06333333333333334,291.901,-2.6612,-2.7138999999999998,-1.5887,-1.6097000000000001,-160.03,215.98000000000002,190.225625,0.0,0.0,0.0,0.0,0.0688333333333333,-5.498166666666667,-5.498166666666667,-0.6438,-0.7596666666666667,-0.05288888888888854,1.138,70.124,-0.054,-0.22555,0.2779999999999996,100.0,1.0,1.0,216.19666666666666,0.0,0.0,0.0,0.0,0.0,0.0,0.0,9163.8,0.0,55.0,5.0,252.42000000000002,0.0,0.0,0.0,0.0,0.0,0.0,1.0,0.0,1.7070000000000007,1.7070000000000007,0.0,0.0,0.0,55.0,616.79921,10000.0,85.000001,85.000001,85.000001,85.000001,395.0,0.0,0.0,0.0,1.0,333.33500000000004,52.231,52.231,47.44,47.44,34.0,-24.95,22.052,-31.23,26.945,0.0,1781.729,-0.07000000000000028,100.0,28.931,27.867,44.43,43.733000000000004,0.0,0.0,100.0,0.0,0.0,0.0,0.0,3080.142857142857,3013.5,4063.75,4136.2,305.3455,305.343,315.02,314.6545,22.102375,20.6911,22.1048,21.6064,314.999998,314.999998,324.999988,324.999988,99.5594,99.50745,99.56934285714286,99.54967142857143,0.04850000000000021,-0.09533333333333327,-0.16249999999999998,0.06333333333333324,-0.054999999999999716,-0.03499999999999659,1.5165,1.5229999999999997,39.14,30.319,39.155,36.04,55.875,35.7725,60.126999999999995,53.501,53.805,34.841,58.672,51.7915,52.939,34.3505,58.533,51.181,-0.09099999999999997,-0.07299999999999995,0.10107500000000001,0.11082000000000002,0.0,219.49,219.435,216.19666666666666,216.19666666666666,0.0,0.0
35,0.0,0.0,0.0,1.0,1.0,0.0,0.0,1.0,0.0,100.0,1.0,1.1856,26.0,0.0,0.0,0.0,59.999996,0.0,26.0,26.0,26.0,26.0,-0.04849999999999999,0.24439999999999995,-0.0703,291.794,-2.6719,-2.6869,-1.562,-1.6157,-156.45,215.965,190.1955,0.0,0.0,0.0,0.0,0.07089999999999996,-5.498166666666667,-5.498166666666667,-0.6863,-0.33799999999999997,-0.058555555555555916,-0.9339999999999999,70.251,-0.0371,-0.22890000000000002,0.13600000000000012,100.0,1.0,1.0,216.64666666666668,0.0,0.0,0.0,0.0,0.0,0.0,0.0,9182.9,0.0,55.0,5.0,252.88,1.0,0.0,0.0,0.0,0.0,0.0,1.0,0.0,1.7579999999999991,1.7579999999999991,0.0,0.0,1.0,55.0,616.79921,10000.0,85.000001,85.000001,85.000001,85.000001,395.0,0.0,0.0,0.0,1.0,166.665,51.528999999999996,51.528999999999996,47.058,47.058,34.0,-26.8525,24.368,-29.936666666666667,25.8125,0.0,1781.68,-0.015000000000000568,100.0,28.627,28.402,44.077,43.378,0.0,0.0,100.0,0.0,0.0,0.0,0.0,3269.857142857143,3261.5,4052.25,3941.4,305.0465,304.419,315.03025,315.12025,22.1115,20.6967,22.115,21.6154,314.999998,314.999998,324.999988,324.999988,99.55941428571428,99.50746666666667,99.56948571428572,99.54981428571429,0.040999999999999925,-0.08966666666666678,-0.14800000000000002,0.07150000000000012,-0.04333333333332945,-0.04833333333333201,1.5525,1.5514999999999999,39.197,30.3545,39.219,36.0965,55.858000000000004,35.813,60.1625,53.5565,53.789,34.8785,58.7055,51.845,52.922,34.3865,58.563,51.233000000000004,-0.07999999999999996,-0.07450000000000001,0.10748,0.09879,0.0,219.865,219.85000000000002,216.64666666666665,216.64666666666668,0.0,0.0
36,0.0,0.0,0.0,1.0,1.0,0.0,0.0,1.0,0.0,100.0,1.0,1.1856,26.0,0.0,0.0,0.0,59.999996,0.0,26.0,26.0,26.0,26.0,-0.04437499999999994,0.26649999999999996,0.07736666666666667,290.771,-2.61285,-2.6554,-1.5312999999999999,-1.6137000000000001,-152.85999999999999,215.95,190.163875,0.0,0.0,0.0,0.0,0.07299999999999995,-5.498166666666667,-5.498166666666667,-0.665,0.18933333333333335,-0.09322222222222232,0.2390000000000001,70.382,-0.0261,-0.20205,0.22599999999999998,100.0,1.0,1.0,216.7866666666667,0.0,0.0,0.0,0.0,0.0,0.0,0.0,9188.8,0.0,55.0,5.0,253.35000000000002,0.0,0.0,0.0,0.0,0.0,0.0,1.0,0.0,1.809000000000001,1.809000000000001,0.0,0.0,0.0,55.0,616.79921,10000.0,85.000001,85.000001,85.000001,85.000001,395.0,0.0,0.0,0.0,1.0,166.665,51.239,51.239,46.066,46.066,34.0,-24.2325,23.92,-32.95333333333333,32.9075,0.0,1781.628,-0.03999999999999915,100.0,29.347,28.643,44.383,43.781,0.0,0.0,100.0,0.0,0.0,0.0,0.0,3145.714285714286,3193.1,4467.0,4577.9,305.0275,304.778,313.98875,313.63525,22.120874999999998,20.7025,22.1255,21.6248,314.999998,314.999998,324.999988,324.999988,99.55941428571428,99.50748333333334,99.56962857142857,99.54997142857142,0.07200000000000006,-0.07600000000000007,-0.12983333333333336,0.09699999999999998,-0.05833333333333002,-0.045000000000001705,1.412,1.4219999999999997,39.256,30.391,39.284,36.155,55.845,35.8555,60.201,53.617,53.777,34.918,58.7415,51.903,52.909,34.424,58.596000000000004,51.28966666666666,-0.08650000000000002,-0.07950000000000013,0.10283,0.10627,0.0,220.305,220.29000000000002,216.78666666666666,216.7866666666667,0.0,0.0
