,ABS Active,ABS Enabled,AID Allow Tire Blankets,AID Auto Blip,AID Auto Clutch,AID Auto Shift,AID Fuel Rate,AID Ideal Line,AID Mech Damage,AID Stability,AID Tire Wear Rate,Air Density,Air Temp,Ballast,Best Lap Delta,Best Lap Time,Brake Bias,Brake Pos,Brake Temp FL,Brake Temp FR,Brake Temp RL,Brake Temp RR,CG Accel Lateral,CG Accel Longitudinal,CG Accel Vertical,CG Height,Camber FL,Camber FR,Camber RL,Camber RR,Car Coord X,Car Coord Y,Car Coord Z,Car Damage Front,Car Damage Left,Car Damage Rear,Car Damage Right,Car Pos Norm,Caster FL,Caster FR,Chassis Pitch Angle,Chassis Pitch Rate,Chassis Roll Angle,Chassis Roll Rate,Chassis Velocity X,Chassis Velocity Y,Chassis Velocity Z,Chassis Yaw Rate,Clutch Pos,DRS Active,DRS Available,Drive Train Speed,ERS Heat Charging,ERS Is Charging,ERS Max Energy,ERS Power Level,ERS Recovery Level,Engine Brake Setting,Engine Limiter,Engine RPM,Flags,Fuel Level,Gear,Ground Speed,HR Sample Clock,In Pit,KERS Charge,KERS Deployed Energy,KERS Input,KERS Max Energy,LR Sample Clock,Lap Invalidated,Lap Time,Lap Time2,Last Lap Time,Last Sector Time,MR Sample Clock,Max Fuel,Max Power,Max RPM,Max Sus Travel FL,Max Sus Travel FR,Max Sus Travel RL,Max Sus Travel RR,Max Torque,Max Turbo Boost,Num Tires Off Track,Penalties Enabled,Position,Raw Data Sample Rate,Ride Height FL,Ride Height FR,Ride Height RL,Ride Height RR,Road Temp,Self Align Torque FL,Self Align Torque FR,Self Align Torque RL,Self Align Torque RR,Session Lap Count,Session Time Left,Steering Angle,Surface Grip,Suspension Travel FL,Suspension Travel FR,Suspension Travel RL,Suspension Travel RR,TC Active,TC Enabled,Throttle Pos,Tire Dirt Level FL,Tire Dirt Level FR,Tire Dirt Level RL,Tire Dirt Level RR,Tire Load FL,Tire Load FR,Tire Load RL,Tire Load RR,Tire Loaded Radius FL,Tire Loaded Radius FR,Tire Loaded Radius RL,Tire Loaded Radius RR,Tire Pressure FL,Tire Pressure FR,Tire Pressure RL,Tire Pressure RR,Tire Radius FL,Tire Radius FR,Tire Radius RL,Tire Radius RR,Tire Rubber Grip FL,Tire Rubber Grip FR,Tire Rubber Grip RL,Tire Rubber Grip RR,Tire Slip Angle FL,Tire Slip Angle FR,Tire Slip Angle RL,Tire Slip Angle RR,Tire Slip Ratio FL,Tire Slip Ratio FR,Tire Slip Ratio RL,Tire Slip Ratio RR,Tire Temp Core FL,Tire Temp Core FR,Tire Temp Core RL,Tire Temp Core RR,Tire Temp Inner FL,Tire Temp Inner FR,Tire Temp Inner RL,Tire Temp Inner RR,Tire Temp Middle FL,Tire Temp Middle FR,Tire Temp Middle RL,Tire Temp Middle RR,Tire Temp Outer FL,Tire Temp Outer FR,Tire Temp Outer RL,Tire Temp Outer RR,Toe In FL,Toe In FR,Toe In RL,Toe In RR,Turbo Boost,Wheel Angular Speed FL,Wheel Angular Speed FR,Wheel Angular Speed RL,Wheel Angular Speed RR,Wind Direction,Wind Speed
0,0.0,0.0,0.0,1.0,1.0,0.0,0.0,1.0,0.0,100.0,1.0,1.1856,26.0,0.0,0.0,0.0,59.99999,0.0,26.0,26.0,26.0,26.0,-0.0792222222222222,0.29300000000000015,0.046933333333333334,294.083,-2.7148,-2.6648,-1.512,-1.5642,-275.64,216.29250000000002,190.987375,0.0,0.0,0.0,0.0,0.0016333333333333332,-5.498166666666667,-5.498166666666667,-0.5485,1.0446666666666666,-0.013666666666666938,-0.44499999999999984,65.5,-0.0408,-0.21327500000000002,1.0600000000000005,100.0,1.0,1.0,202.25,0.0,0.0,0.0,0.0,0.0,0.0,0.0,8572.7,0.0,55.0,5.0,235.76999999999998,0.0,0.0,0.0,0.0,0.0,0.0,0.0,0.0,0.0030000000000001137,0.0030000000000001137,0.0,0.0,0.0,55.0,616.79921,10000.0,85.0,85.0,85.0,85.0,395.0,0.0,0.0,0.0,1.0,20.0,52.826,52.826,49.622,49.622,34.0,-26.5675,23.616666666666667,-29.866666666666667,24.4125,0.0,1783.58,0.8249999999999993,100.0,27.484,26.761,40.702,40.496,0.0,0.0,100.0,0.0,0.0,0.0,0.0,3005.75,3405.5,4058.875,3955.4,305.71,304.03175,314.956,314.97325,21.785333333333334,20.5147,21.7566,21.3014,314.99999,314.99999,324.99998,324.99998,99.55938571428571,99.50726666666667,99.56451428571428,99.54471428571429,-0.007500000000000062,-0.122,-0.16233333333333336,0.060333333333333336,-0.06666666666666998,-0.03499999999999659,1.5514999999999999,1.5985,37.158,29.217,36.977999999999994,34.1335,56.451,34.522,58.845,51.427,54.351,33.6795,57.4785,49.797,53.509,33.2295,57.4415,49.22666666666667,-0.010499999999999954,-0.135,0.10165,0.10829000000000001,0.0,205.28,205.14499999999998,202.25,202.25,0.0,0.0
1,0.0,0.0,0.0,1.0,1.0,0.0,0.0,1.0,0.0,100.0,1.0,1.1856,26.0,0.0,0.0,0.0,59.999996,0.0,26.0,26.0,26.0,26.0,-0.12111111111111106,0.3143,0.007366666666666667,292.984,-2.6299,-2.7721999999999998,-1.5226000000000002,-1.5543,-272.1,216.28750000000002,190.966,0.0,0.0,0.0,0.0,0.0036666666666666666,-5.498166666666667,-5.498166666666667,-0.5011,-0.5906666666666667,-0.059555555555555806,-0.40200000000000014,65.664,-0.0582,-0.201625,1.4239999999999995,100.0,1.0,1.0,202.41333333333333,0.0,0.0,0.0,0.0,0.0,0.0,0.0,8579.6,0.0,55.0,5.0,236.36,1.0,0.0,0.0,0.0,0.0,0.0,0.0,0.0,0.05699999999999861,0.05699999999999861,0.0,0.0,1.0,55.0,616.79921,10000.0,85.000001,85.000001,85.000001,85.000001,395.0,0.0,0.0,0.0,1.0,166.665,53.467,53.467,48.355000000000004,48.355000000000004,34.0,-27.1475,18.46333333333333,-33.79,28.795,0.0,1783.526,0.8599999999999994,100.0,27.753,26.987000000000002,42.812,41.696,0.0,0.0,100.0,0.0,0.0,0.0,0.0,3060.875,2723.2,4267.75,4721.2,305.42633333333333,306.16025,314.37225,313.0885,21.79588888888889,20.5202,21.7679,21.311,314.999998,314.999998,324.999988,324.999988,99.55938571428571,99.50728333333333,99.56468571428572,99.54487142857143,-0.021749999999999936,-0.138,-0.18483333333333335,0.03,-0.02833333333332888,-0.030000000000001137,1.423,1.4649999999999999,37.224999999999994,29.250999999999998,37.049,34.1935,56.434,34.5655,58.8935,51.4965,54.334,33.7195,57.524,49.8635,53.492000000000004,33.268,57.484,49.292,-0.0034999999999999476,-0.14100000000000001,0.10276500000000001,0.10897000000000001,0.0,205.72500000000002,205.615,202.41333333333333,202.41333333333333,0.0,0.0
2,0.0,0.0,0.0,1.0,1.0,0.0,0.0,1.0,0.0,100.0,1.0,1.1856,26.0,0.0,0.0,0.0,59.999996,0.0,26.0,26.0,26.0,26.0,-0.16166666666666663,0.2794000000000001,-0.08046666666666667,293.655,-2.5926,-2.8038,-1.481,-1.6193,-268.94,216.28,190.94825,0.0,0.0,0.0,0.0,0.0055000000000000005,-5.498166666666667,-5.498166666666667,-0.5474,0.03266666666666662,-0.0564444444444443,2.5280000000000005,65.797,-0.0746,-0.25185,1.5839999999999996,100.0,1.0,1.0,203.29333333333335,0.0,0.0,0.0,0.0,0.0,0.0,0.0,8616.9,0.0,55.0,5.0,236.84,0.0,0.0,0.0,0.0,0.0,0.0,0.0,0.0,0.10500000000000043,0.10500000000000043,0.0,0.0,0.0,55.0,616.79921,10000.0,85.000001,85.000001,85.000001,85.000001,395.0,0.0,0.0,0.0,1.0,333.33500000000004,52.46,52.46,50.064,50.064,34.0,-29.7875,19.845,-29.583333333333332,20.5225,0.0,1783.477,0.7300000000000004,100.0,28.455,26.913,42.686,41.32,0.0,0.0,100.0,0.0,0.0,0.0,0.0,3321.25,2929.0,3789.5,3695.7,304.563,305.5725,315.53075,315.74375,21.805555555555557,20.5248,21.7777,21.3192,314.999998,314.999998,324.999988,324.999988,99.5594,99.5073,99.56481428571429,99.545,-0.025499999999999856,-0.15000000000000002,-0.22166666666666665,0.011166666666666667,-0.04833333333333201,-0.060000000000002274,1.6219999999999999,1.678,37.285,29.28,37.111000000000004,34.2445,56.422,34.602000000000004,58.93,51.55,54.323,33.7535,57.5585,49.915,53.480000000000004,33.3,57.5155,49.342333333333336,-0.018000000000000016,-0.13600000000000012,0.104605,0.10389500000000002,0.0,206.175,206.04500000000002,203.29333333333335,203.29333333333335,0.0,0.0
3,0.0,0.0,0.0,1.0,1.0,0.0,0.0,1.0,0.0,100.0,1.0,1.1856,26.0,0.0,0.0,0.0,59.999996,0.0,26.0,26.0,26.0,26.0,-0.14122222222222214,0.3115000000000001,-0.04106666666666667,293.427,-2.7279999999999998,-2.691,-1.5102,-1.5933000000000002,-265.58,216.26999999999998,190.928625,0.0,0.0,0.0,0.0,0.0074666666666666675,-5.498166666666667,-5.498166666666667,-0.5097,0.4003333333333333,-0.013222222222222246,-0.9129999999999998,65.95,-0.0872,-0.202,1.2220000000000013,100.0,1.0,1.0,203.45333333333332,0.0,0.0,0.0,0.0,0.0,0.0,0.0,8623.6,0.0,55.0,5.0,237.38666666666666,1.0,0.0,0.0,0.0,0.0,0.0,0.0,0.0,0.1559999999999988,0.1559999999999988,0.0,0.0,1.0,55.0,616.79921,10000.0,85.000001,85.000001,85.000001,85.000001,395.0,0.0,0.0,0.0,1.0,166.665,53.558,53.558,48.111,48.111,34.0,-25.9375,17.775,-35.54666666666667,24.145,0.0,1783.428,0.6550000000000011,100.0,27.941,27.085,42.456,41.504,0.0,0.0,100.0,0.0,0.0,0.0,0.0,2858.125,2785.1,4331.25,4207.0,306.11133333333333,305.77675,314.30625,314.3665,21.815444444444445,20.53,21.7881,21.328,314.999998,314.999998,324.999988,324.999988,99.5594,99.50731666666667,99.56495714285714,99.54512857142858,-0.02675000000000005,-0.15633333333333332,-0.21716666666666667,0.008333333333333335,-0.04833333333333201,-0.05333333333332746,1.4805,1.5455,37.347,29.3125,37.176,34.3,56.405,34.6445,58.97,51.613,54.307,33.792500000000004,57.5955,49.975,53.464,33.3375,57.5505,49.401666666666664,-0.02949999999999997,-0.12050000000000005,0.10295000000000001,0.10544500000000001,0.0,206.63,206.54500000000002,203.45333333333332,203.45333333333332,0.0,0.0
4,0.0,0.0,0.0,1.0,1.0,0.0,0.0,1.0,0.0,100.0,1.0,1.1856,26.0,0.0,0.0,0.0,59.999996,0.0,26.0,26.0,26.0,26.0,-0.13244444444444448,0.27459999999999996,-0.017066666666666667,293.655,-2.6633,-2.7415000000000003,-1.5266000000000002,-1.5979,-262.41,216.255,190.910125,0.0,0.0,0.0,0.0,0.009300000000000001,-5.498166666666667,-5.498166666666667,-0.5435,-0.7370000000000001,-0.07844444444444454,-1.7959999999999998,66.087,-0.0884,-0.236125,1.234,100.0,1.0,1.0,204.0233333333333,0.0,0.0,0.0,0.0,0.0,0.0,0.0,8647.8,0.0,55.0,5.0,237.88333333333333,0.0,0.0,0.0,0.0,0.0,0.0,0.0,0.0,0.20400000000000063,0.20400000000000063,0.0,0.0,0.0,55.0,616.79921,10000.0,85.000001,85.000001,85.000001,85.000001,395.0,0.0,0.0,0.0,1.0,333.33500000000004,53.116,53.116,48.766999999999996,48.766999999999996,34.0,-29.4225,18.86,-33.266666666666666,20.9225,0.0,1783.379,0.6449999999999996,100.0,27.686,26.881,42.762,41.501,0.0,0.0,100.0,0.0,0.0,0.0,0.0,3256.625,2875.2,4118.75,3683.0,305.08033333333333,305.52525,314.76975,315.63875,21.824555555555555,20.5348,21.798099999999998,21.3363,314.999998,314.999998,324.999988,324.999988,99.5594,99.50733333333334,99.56508571428571,99.54527142857143,-0.028000000000000025,-0.15633333333333332,-0.21233333333333335,0.017666666666666667,-0.06833333333332803,-0.05833333333333002,1.5310000000000001,1.5910000000000002,37.403999999999996,29.3425,37.238,34.352000000000004,56.388,34.6835,59.01,51.669,54.291,33.8285,57.632999999999996,50.028999999999996,53.447,33.372,57.585,49.454,-0.028000000000000025,-0.127,0.10056000000000001,0.10716500000000001,0.0,207.04000000000002,206.91500000000002,204.0233333333333,204.0233333333333,0.0,0.0
5,0.0,0.0,0.0,1.0,1.0,0.0,0.0,1.0,0.0,100.0,1.0,1.1856,26.0,0.0,0.0,0.0,59.999996,0.0,26.0,26.0,26.0,26.0,-0.14111111111111108,0.29180000000000006,-0.0025,293.655,-2.6683,-2.7712,-1.5066000000000002,-1.5878,-259.04,216.2375,190.88975,0.0,0.0,0.0,0.0,0.011266666666666668,-5.498166666666667,-5.498166666666667,-0.536,0.41700000000000004,-0.08199999999999985,1.117,66.23400000000001,-0.0936,-0.2139,1.064,100.0,1.0,1.0,204.41,0.0,0.0,0.0,0.0,0.0,0.0,0.0,8664.2,0.0,55.0,5.0,238.41333333333333,1.0,0.0,0.0,0.0,0.0,0.0,0.0,0.0,0.254999999999999,0.254999999999999,0.0,0.0,1.0,55.0,616.79921,10000.0,85.000001,85.000001,85.000001,85.000001,395.0,0.0,0.0,0.0,1.0,166.665,53.452,53.452,48.996,48.996,34.0,-27.197499999999998,19.706666666666667,-33.53333333333333,23.105,0.0,1783.329,0.14000000000000057,100.0,27.94,26.596,42.611000000000004,41.082,0.0,0.0,100.0,0.0,0.0,0.0,0.0,3091.0,2854.2,4145.625,4090.4,305.36033333333336,305.8205,314.72975,314.745,21.834666666666667,20.5399,21.8085,21.345,314.999998,314.999998,324.999988,324.999988,99.55941428571428,99.50735,99.56524285714286,99.54541428571429,-0.007249999999999979,-0.131,-0.22,0.009000000000000001,-0.036666666666668846,-0.04999999999999716,1.548,1.5750000000000002,37.466,29.374499999999998,37.303,34.4065,56.373999999999995,34.724000000000004,59.051,51.727000000000004,54.277,33.866,57.671,50.0845,53.433,33.4075,57.62,49.50833333333333,-0.058499999999999996,-0.08699999999999997,0.10708500000000001,0.10809,0.0,207.525,207.41500000000002,204.41,204.41,0.0,0.0
6,0.0,0.0,0.0,1.0,1.0,0.0,0.0,1.0,0.0,100.0,1.0,1.1856,26.0,0.0,0.0,0.0,59.999996,0.0,26.0,26.0,26.0,26.0,-0.11711111111111105,0.2804,0.011733333333333333,293.442,-2.6349,-2.7462,-1.5501,-1.584,-255.86,216.2175,190.870375,0.0,0.0,0.0,0.0,0.013133333333333335,-5.498166666666667,-5.498166666666667,-0.5318,0.09233333333333338,-0.06411111111111145,0.9510000000000005,66.37100000000001,-0.0859,-0.21575,0.6820000000000004,100.0,1.0,1.0,204.82999999999998,0.0,0.0,0.0,0.0,0.0,0.0,0.0,8681.9,0.0,55.0,5.0,238.91,0.0,0.0,0.0,0.0,0.0,0.0,0.0,0.0,0.3030000000000008,0.3030000000000008,0.0,0.0,0.0,55.0,616.79921,10000.0,85.000001,85.000001,85.000001,85.000001,395.0,0.0,0.0,0.0,1.0,166.665,53.116,53.116,48.782,48.782,34.0,-26.6375,21.351666666666667,-32.42333333333333,23.3525,0.0,1783.281,0.03999999999999915,100.0,27.862000000000002,26.713,42.739000000000004,41.417,0.0,0.0,100.0,0.0,0.0,0.0,0.0,3115.625,3000.2,4079.5,4041.5,305.231,305.3385,314.8745,314.859,21.844,20.5448,21.8184,21.3535,314.999998,314.999998,324.999988,324.999988,99.55941428571428,99.50736666666667,99.56537142857142,99.54554285714286,0.007000000000000117,-0.1153333333333334,-0.198,0.02066666666666667,-0.036666666666668846,-0.041666666666671404,1.546,1.5655000000000001,37.525,29.405,37.364999999999995,34.459,56.358999999999995,34.7615,59.0895,51.7855,54.263,33.9005,57.707,50.1405,53.418,33.441,57.653999999999996,49.563,-0.07250000000000001,-0.07250000000000001,0.106645,0.10453000000000001,0.0,207.925,207.86,204.82999999999998,204.82999999999998,0.0,0.0
7,0.0,0.0,0.0,1.0,1.0,0.0,0.0,1.0,0.0,100.0,1.0,1.1856,26.0,0.0,0.0,0.0,59.999996,0.0,26.0,26.0,26.0,26.0,-0.07977777777777784,0.2853000000000001,0.012133333333333333,293.182,-2.6117,-2.7303,-1.5138,-1.6245,-252.47,216.195,190.85,0.0,0.0,0.0,0.0,0.0151,-5.498166666666667,-5.498166666666667,-0.5351,-0.021333333333333426,-0.04977777777777792,-0.21199999999999974,66.518,-0.0669,-0.22487500000000002,0.4039999999999999,100.0,1.0,1.0,205.25666666666666,0.0,0.0,0.0,0.0,0.0,0.0,0.0,8700.1,0.0,55.0,5.0,239.43666666666667,1.0,0.0,0.0,0.0,0.0,0.0,0.0,0.0,0.3539999999999992,0.3539999999999992,0.0,0.0,1.0,55.0,616.79921,10000.0,85.000001,85.000001,85.000001,85.000001,395.0,0.0,0.0,0.0,1.0,333.33500000000004,52.765,52.765,48.843,48.843,34.0,-27.224999999999998,21.77166666666667,-31.253333333333334,24.5,0.0,1783.227,-0.17999999999999972,100.0,27.845,26.955,42.718,41.793,0.0,0.0,100.0,0.0,0.0,0.0,0.0,3297.875,2959.6,4088.25,4033.7,304.826,305.28325,314.86675,314.72975,21.85388888888889,20.55,21.8288,21.3624,314.999998,314.999998,324.999988,324.999988,99.55941428571428,99.50738333333334,99.56551428571429,99.54568571428571,0.025250000000000217,-0.09866666666666657,-0.17983333333333335,0.0285,-0.04999999999999716,-0.036666666666668846,1.5175,1.5470000000000002,37.587,29.4375,37.43,34.5155,56.343,34.8035,59.132,51.8505,54.248000000000005,33.939,57.747,50.203,53.402,33.478,57.6905,49.62433333333333,-0.08599999999999997,-0.058499999999999996,0.105825,0.09449500000000001,0.0,208.35500000000002,208.315,205.25666666666666,205.25666666666666,0.0,0.0
8,0.0,0.0,0.0,1.0,1.0,0.0,0.0,1.0,0.0,100.0,1.0,1.1856,26.0,0.0,0.0,0.0,59.999996,0.0,26.0,26.0,26.0,26.0,-0.03200000000000003,0.29290000000000016,-0.03383333333333333,293.503,-2.6976,-2.7153,-1.4971,-1.5766,-248.87,216.16750000000002,190.828125,0.0,0.0,0.0,0.0,0.017166666666666667,-5.498166666666667,-5.498166666666667,-0.5372,-0.5316666666666667,-0.03533333333333344,-0.46999999999999975,66.672,-0.0461,-0.216975,0.002000000000000668,100.0,1.0,1.0,205.68,0.0,0.0,0.0,0.0,0.0,0.0,0.0,8718.0,0.0,55.0,5.0,239.99,0.0,0.0,0.0,0.0,0.0,0.0,0.0,0.0,0.40800000000000125,0.40800000000000125,0.0,0.0,0.0,55.0,616.79921,10000.0,85.000001,85.000001,85.000001,85.000001,395.0,0.0,0.0,0.0,1.0,166.665,53.619,53.619,48.218,48.218,34.0,-24.2575,22.0,-30.18,26.78,0.0,1783.176,-0.33999999999999986,100.0,27.394,26.923000000000002,42.685,41.93,0.0,0.0,100.0,0.0,0.0,0.0,0.0,3010.5,2918.0,4152.875,4080.8,305.82366666666667,305.44225,314.691,314.61425,21.86411111111111,20.5555,21.8399,21.3719,314.999998,314.999998,324.999988,324.999988,99.55941428571428,99.5074,99.56567142857143,99.54582857142857,0.04499999999999993,-0.07933333333333337,-0.1515,0.0765,-0.051666666666669414,-0.046666666666666856,1.526,1.521,37.650999999999996,29.4715,37.5,34.5745,56.325,34.841499999999996,59.1725,51.911500000000004,54.230999999999995,33.974000000000004,57.7845,50.2615,53.384,33.510999999999996,57.725,49.681333333333335,-0.10199999999999998,-0.043500000000000094,0.09978500000000001,0.117,0.0,208.81,208.79000000000002,205.68,205.68,0.0,0.0
9,0.0,0.0,0.0,1.0,1.0,0.0,0.0,1.0,0.0,100.0,1.0,1.1856,26.0,0.0,0.0,0.0,59.999996,0.0,26.0,26.0,26.0,26.0,-0.01588888888888884,0.28400000000000003,-0.013733333333333335,293.106,-2.6258,-2.7168,-1.5551,-1.5535,-245.67000000000002,216.14,190.80825,0.0,0.0,0.0,0.0,0.019033333333333336,-5.498166666666667,-5.498166666666667,-0.5409,0.6923333333333332,-0.033777777777777906,-0.34299999999999997,66.806,-0.028,-0.216225,-0.1120000000000001,100.0,1.0,1.0,206.20666666666668,0.0,0.0,0.0,0.0,0.0,0.0,0.0,8740.3,0.0,55.0,5.0,240.47,1.0,0.0,0.0,0.0,0.0,0.0,0.0,0.0,0.4559999999999995,0.4559999999999995,0.0,0.0,1.0,55.0,616.79921,10000.0,85.000001,85.000001,85.000001,85.000001,395.0,0.0,0.0,0.0,1.0,166.665,52.399,52.399,49.149,49.149,34.0,-25.65,23.918333333333333,-29.19,26.5475,0.0,1783.127,-0.5300000000000011,100.0,27.892,27.36,42.328,41.953,0.0,0.0,100.0,0.0,0.0,0.0,0.0,3348.625,3002.3,4038.125,4055.8,304.6856666666667,305.09775,315.09125,314.78625,21.873444444444445,20.5605,21.8496,21.3803,314.999998,314.999998,324.999988,324.999988,99.55942857142857,99.5074,99.5658,99.54595714285715,0.07250000000000023,-0.052999999999999936,-0.14266666666666666,0.08833333333333333,-0.03999999999999915,-0.045000000000001705,1.5590000000000002,1.5665,37.709,29.5035,37.56,34.6265,56.313,34.878,59.207,51.968,54.22,34.007999999999996,57.817,50.3155,53.372,33.544,57.7545,49.73433333333333,-0.11699999999999999,-0.03299999999999992,0.104855,0.11198000000000001,0.0,209.235,209.235,206.20666666666668,206.20666666666668,0.0,0.0
10,0.0,0.0,0.0,1.0,1.0,0.0,0.0,1.0,0.0,100.0,1.0,1.1856,26.0,0.0,0.0,0.0,59.999996,0.0,26.0,26.0,26.0,26.0,0.013666666666666716,0.2902,-0.0089,292.984,-2.6619,-2.6988000000000003,-1.5352000000000001,-1.5352999999999999,-242.46,216.115,190.78875,0.0,0.0,0.0,0.0,0.020900000000000002,-5.498166666666667,-5.498166666666667,-0.5182,-0.373,0.006444444444444253,0.40800000000000036,66.945,-0.0094,-0.2068,-0.476,100.0,1.0,1.0,206.41333333333333,0.0,0.0,0.0,0.0,0.0,0.0,0.0,8749.1,0.0,55.0,5.0,240.97,0.0,0.0,0.0,0.0,0.0,0.0,1.0,0.0,0.5040000000000013,0.5040000000000013,0.0,0.0,0.0,55.0,616.79921,10000.0,85.000001,85.000001,85.000001,85.000001,395.0,0.0,0.0,0.0,1.0,166.665,53.467,53.467,47.638,47.638,34.0,-21.064999999999998,22.973333333333333,-30.509999999999998,29.8975,0.0,1783.08,-0.629999999999999,100.0,27.721,27.34,42.755,42.705,0.0,0.0,100.0,0.0,0.0,0.0,0.0,2884.5,2865.9,4320.875,4263.4,306.09766666666667,305.5625,314.29375,314.187,21.882555555555555,20.5655,21.8596,21.3889,314.999998,314.999998,324.999988,324.999988,99.55944285714286,99.5074,99.56592857142857,99.5461,0.09200000000000008,-0.04033333333333333,-0.11716666666666667,0.11516666666666667,-0.03166666666666629,-0.02833333333332888,1.491,1.4765000000000001,37.766,29.534,37.623000000000005,34.6805,56.3,34.9125,59.2465,52.028999999999996,54.208,34.039500000000004,57.8535,50.374,53.358999999999995,33.574,57.7885,49.791666666666664,-0.129,-0.02400000000000002,0.10666,0.11072000000000001,0.0,209.64499999999998,209.66500000000002,206.41333333333333,206.41333333333333,0.0,0.0
11,0.0,0.0,0.0,1.0,1.0,0.0,0.0,1.0,0.0,100.0,1.0,1.1856,26.0,0.0,0.0,0.0,59.999996,0.0,26.0,26.0,26.0,26.0,0.02677777777777779,0.2751000000000001,-0.06430000000000001,293.488,-2.7064,-2.6853,-1.5909,-1.5232,-239.04,216.0875,190.768,0.0,0.0,0.0,0.0,0.022600000000000002,-5.498166666666667,-5.498166666666667,-0.5615,-0.2586666666666668,0.03455555555555567,0.2969999999999997,67.083,0.0122,-0.2369,-0.6879999999999997,100.0,1.0,1.0,207.16,0.0,0.0,0.0,0.0,0.0,0.0,0.0,8780.7,0.0,55.0,5.0,241.47333333333336,1.0,0.0,0.0,0.0,0.0,0.0,1.0,0.0,0.5549999999999997,0.5549999999999997,0.0,0.0,1.0,55.0,616.79921,10000.0,85.000001,85.000001,85.000001,85.000001,395.0,0.0,0.0,0.0,1.0,166.665,52.795,52.795,49.24,49.24,34.0,-21.5775,26.491666666666667,-23.97,26.71,0.0,1783.028,-0.6649999999999991,100.0,27.607,27.461,42.357,42.601,0.0,0.0,100.0,0.0,0.0,0.0,0.0,2996.5,3186.7,3684.125,3878.6000000000004,305.693,304.71525,315.8975,315.22625,21.892111111111113,20.5709,21.8699,21.3979,314.999998,314.999998,324.999988,324.999988,99.55944285714286,99.5074,99.56607142857143,99.54624285714286,0.11425000000000018,-0.02066666666666661,-0.0895,0.13333333333333336,-0.036666666666668846,-0.04999999999999716,1.638,1.6150000000000002,37.826,29.567999999999998,37.687,34.737,56.285,34.95,59.2815,52.089,54.193,34.0745,57.885999999999996,50.432,53.344,33.6075,57.818,49.84866666666667,-0.12949999999999995,-0.03249999999999997,0.10637,0.10451,0.0,210.03,210.085,207.16,207.16,0.0,0.0
12,0.0,0.0,0.0,1.0,1.0,0.0,0.0,1.0,0.0,100.0,1.0,1.1856,26.0,0.0,0.0,0.0,59.999996,0.0,26.0,26.0,26.0,26.0,0.05188888888888887,0.29180000000000006,0.0159,292.877,-2.7578,-2.6813000000000002,-1.5525,-1.5252,-235.82,216.0625,190.74725,0.0,0.0,0.0,0.0,0.025466666666666665,-5.498166666666667,-5.498166666666667,-0.5469,0.29833333333333334,0.019777777777777894,0.6379999999999999,67.22,0.0291,-0.20722500000000002,-0.726,100.0,1.0,1.0,207.35333333333335,0.0,0.0,0.0,0.0,0.0,0.0,0.0,8788.9,0.0,55.0,5.0,241.96333333333334,0.0,0.0,0.0,0.0,0.0,0.0,1.0,0.0,0.602999999999998,0.602999999999998,0.0,0.0,0.0,55.0,616.79921,10000.0,85.000001,85.000001,85.000001,85.000001,395.0,0.0,0.0,0.0,1.0,166.665,52.734,52.734,47.882,47.882,34.0,-22.1125,27.416666666666668,-26.49,31.47,0.0,1782.981,-0.6600000000000001,100.0,27.581,27.642,42.354,42.518,0.0,0.0,100.0,0.0,0.0,0.0,0.0,3023.75,3203.7,4178.125,4225.6,305.62266666666665,304.6905,314.642,314.413,21.90111111111111,20.5761,21.8797,21.4063,314.999998,314.999998,324.999988,324.999988,99.55945714285714,99.5074,99.56621428571428,99.54638571428572,0.11775000000000002,-0.0010000000000000009,-0.06283333333333334,0.1595,-0.030000000000001137,-0.04999999999999716,1.5375,1.504,37.882,29.6005,37.748000000000005,34.789500000000004,56.272999999999996,34.986,59.318,52.1465,54.181,34.1075,57.92,50.487,53.331,33.638999999999996,57.8495,49.903,-0.12449999999999994,-0.024499999999999966,0.10651000000000001,0.11047000000000001,0.0,210.47,210.54000000000002,207.35333333333335,207.35333333333335,0.0,0.0
13,0.0,0.0,0.0,1.0,1.0,0.0,0.0,1.0,0.0,100.0,1.0,1.1856,26.0,0.0,0.0,0.0,59.999996,0.0,26.0,26.0,26.0,26.0,0.074888888888889,0.28059999999999996,0.035333333333333335,292.526,-2.7397,-2.6702,-1.625,-1.5074,-232.38,216.0375,190.7255,0.0,0.0,0.0,0.0,0.02676666666666667,-5.498166666666667,-5.498166666666667,-0.5394,-0.05466666666666686,0.02155555555555555,-0.5469999999999997,67.363,0.0398,-0.216175,-0.8159999999999998,100.0,1.0,1.0,207.73666666666668,0.0,0.0,0.0,0.0,0.0,0.0,0.0,8805.2,0.0,55.0,5.0,242.47666666666666,1.0,0.0,0.0,0.0,0.0,0.0,1.0,0.0,0.6539999999999999,0.6539999999999999,0.0,0.0,1.0,55.0,616.79921,10000.0,85.000001,85.000001,85.000001,85.000001,395.0,0.0,0.0,0.0,1.0,166.665,52.429,52.429,47.852000000000004,47.852000000000004,34.0,-21.9075,26.865,-28.45,31.745,0.0,1782.929,-0.8399999999999999,100.0,27.694,27.987000000000002,42.477000000000004,43.111000000000004,0.0,0.0,100.0,0.0,0.0,0.0,0.0,3160.5,3089.5,4226.25,4285.8,305.3546666666667,304.84975,314.6035,314.161,21.910777777777778,20.5816,21.8902,21.4155,314.999998,314.999998,324.999988,324.999988,99.55948571428571,99.50741666666667,99.56635714285714,99.54652857142857,0.14124999999999988,0.009000000000000119,-0.07333333333333333,0.15433333333333335,-0.036666666666668846,-0.03166666666666629,1.5154999999999998,1.4820000000000002,37.942,29.634999999999998,37.814,34.8465,56.262,35.024,59.3575,52.211,54.171,34.1425,57.9565,50.549,53.32,33.673,57.882999999999996,49.96366666666667,-0.14700000000000002,-0.007000000000000117,0.11096500000000001,0.10116000000000001,0.0,210.92000000000002,210.97500000000002,207.73666666666668,207.73666666666668,0.0,0.0
14,0.0,0.0,0.0,1.0,1.0,0.0,0.0,1.0,0.0,100.0,1.0,1.1856,26.0,0.0,0.0,0.0,59.999996,0.0,26.0,26.0,26.0,26.0,0.08577777777777795,0.2862,-0.011300000000000001,292.831,-2.7352,-2.6184000000000003,-1.5977999999999999,-1.5112999999999999,-228.95,216.015,190.704375,0.0,0.0,0.0,0.0,0.02876666666666667,-5.498166666666667,-5.498166666666667,-0.5485,-0.12033333333333318,0.05333333333333323,1.4089999999999998,67.502,0.0517,-0.228025,-0.9900000000000002,100.0,1.0,1.0,208.25333333333333,0.0,0.0,0.0,0.0,0.0,0.0,0.0,8827.1,0.0,55.0,5.0,242.98000000000002,0.0,0.0,0.0,0.0,0.0,0.0,1.0,0.0,0.7049999999999983,0.7049999999999983,0.0,0.0,0.0,55.0,616.79921,10000.0,85.000001,85.000001,85.000001,85.000001,395.0,0.0,0.0,0.0,1.0,333.33500000000004,52.658,52.658,48.141,48.141,34.0,-19.47,28.258333333333333,-24.646666666666665,32.2575,0.0,1782.878,-0.9299999999999997,100.0,27.71,27.837,42.498000000000005,43.167,0.0,0.0,100.0,0.0,0.0,0.0,0.0,2918.25,3253.4,3949.375,4219.6,305.881,304.55125,315.17375,314.42575,21.920333333333332,20.5872,21.9006,21.424599999999998,314.999998,314.999998,324.999988,324.999988,99.5595,99.50741666666667,99.5665,99.54667142857143,0.1572499999999999,0.02100000000000013,-0.049833333333333334,0.181,-0.046666666666666856,-0.05333333333332746,1.5615,1.5245000000000002,38.001999999999995,29.6695,37.879000000000005,34.903999999999996,56.251999999999995,35.0615,59.3945,52.2745,54.161,34.1775,57.991,50.61,53.308,33.7065,57.914,50.02333333333333,-0.14600000000000002,-0.013000000000000123,0.10787500000000001,0.114415,0.0,211.345,211.405,208.25333333333333,208.25333333333333,0.0,0.0
15,0.0,0.0,0.0,1.0,1.0,0.0,0.0,1.0,0.0,100.0,1.0,1.1856,26.0,0.0,0.0,0.0,59.999996,0.0,26.0,26.0,26.0,26.0,0.10555555555555562,0.2813000000000001,0.011866666666666668,292.847,-2.708,-2.5752,-1.6299000000000001,-1.4537,-225.7,215.995,190.684,0.0,0.0,0.0,0.0,0.03066666666666667,-5.498166666666667,-5.498166666666667,-0.5398000000000001,0.29033333333333333,0.08255555555555572,1.0,67.634,0.0626,-0.20895,-1.1679999999999993,100.0,1.0,1.0,208.64,0.0,0.0,0.0,0.0,0.0,0.0,0.0,8843.4,0.0,55.0,5.0,243.45333333333335,1.0,0.0,0.0,0.0,0.0,0.0,1.0,0.0,0.7530000000000001,0.7530000000000001,0.0,0.0,1.0,55.0,616.79921,10000.0,85.000001,85.000001,85.000001,85.000001,395.0,0.0,0.0,0.0,1.0,166.665,52.826,52.826,48.218,48.218,34.0,-17.72,28.366666666666667,-24.263333333333335,33.7825,0.0,1782.83,-1.0199999999999996,100.0,27.679,27.877,42.242000000000004,43.209,0.0,0.0,100.0,0.0,0.0,0.0,0.0,2801.25,3231.5,3945.875,4391.3,306.20933333333335,304.604,315.227,314.036,21.929333333333332,20.5924,21.9103,21.4332,314.999998,314.999998,324.999988,324.999988,99.55951428571429,99.50743333333334,99.56662857142857,99.5468,0.1732499999999999,0.03733333333333322,-0.034666666666666665,0.19416666666666665,-0.05666666666667197,-0.05833333333333002,1.556,1.5065,38.058,29.7025,37.94,34.957499999999996,56.242000000000004,35.098,59.428,52.334,54.150999999999996,34.2115,58.022,50.667500000000004,53.298,33.739,57.942,50.08,-0.15149999999999997,0.006000000000000005,0.10942,0.10921000000000002,0.0,211.775,211.845,208.64,208.64,0.0,0.0
16,0.0,0.0,0.0,1.0,1.0,0.0,0.0,1.0,0.0,100.0,1.0,1.1856,26.0,0.0,0.0,0.0,59.999996,0.0,26.0,26.0,26.0,26.0,0.13844444444444437,0.27590000000000003,-0.05176666666666666,292.877,-2.8044000000000002,-2.5821,-1.5992000000000002,-1.4531,-222.25,215.97750000000002,190.662,0.0,0.0,0.0,0.0,0.03266666666666667,-5.498166666666667,-5.498166666666667,-0.561,-0.7263333333333333,0.06622222222222218,-1.056,67.774,0.0751,-0.225975,-1.2120000000000006,100.0,1.0,1.0,209.06666666666666,0.0,0.0,0.0,0.0,0.0,0.0,0.0,8861.6,0.0,55.0,5.0,243.96,0.0,0.0,0.0,0.0,0.0,0.0,1.0,0.0,0.8039999999999985,0.8039999999999985,0.0,0.0,0.0,55.0,616.79921,10000.0,85.000001,85.000001,85.000001,85.000001,395.0,0.0,0.0,0.0,1.0,333.33500000000004,52.75,52.75,47.913,47.913,34.0,-20.3875,28.208333333333332,-23.439999999999998,31.767500000000002,0.0,1782.779,-0.9050000000000011,100.0,27.201,28.122,42.439,43.408,0.0,0.0,100.0,0.0,0.0,0.0,0.0,3012.25,3192.6,3972.0,4138.5,305.895,304.581,315.204,314.56225,21.938555555555556,20.598,21.9208,21.4423,314.999998,314.999998,324.999988,324.999988,99.55952857142857,99.50743333333334,99.56677142857143,99.54695714285714,0.16049999999999986,0.03699999999999992,-0.02316666666666667,0.199,-0.051666666666669414,-0.04999999999999716,1.5505,1.5180000000000002,38.116,29.737499999999997,38.004999999999995,35.0145,56.227999999999994,35.1375,59.466499999999996,52.397,54.138,34.248,58.058,50.728,53.284,33.774,57.975,50.13966666666666,-0.14749999999999996,-0.0040000000000000036,0.10487,0.10713500000000001,0.0,212.17000000000002,212.235,209.06666666666666,209.06666666666666,0.0,0.0
17,0.0,0.0,0.0,1.0,1.0,0.0,0.0,1.0,0.0,100.0,1.0,1.1856,26.0,0.0,0.0,0.0,59.999996,0.0,26.0,26.0,26.0,26.0,0.09888888888888903,0.29200000000000004,0.0298,292.435,-2.7675,-2.5638,-1.6360999999999999,-1.4776,-218.59,215.9625,190.638,0.0,0.0,0.0,0.0,0.034800000000000005,-5.498166666666667,-5.498166666666667,-0.5496,0.43099999999999994,0.04322222222222205,-0.7210000000000001,67.92099999999999,0.0819,-0.2061,-0.8719999999999999,100.0,1.0,1.0,209.47,0.0,0.0,0.0,0.0,0.0,0.0,0.0,8878.6,0.0,55.0,5.0,244.48666666666668,1.0,0.0,0.0,0.0,0.0,0.0,1.0,0.0,0.8580000000000005,0.8580000000000005,0.0,0.0,1.0,55.0,616.79921,10000.0,85.000001,85.000001,85.000001,85.000001,395.0,0.0,0.0,0.0,1.0,166.665,52.383,52.383,47.684,47.684,34.0,-21.815,25.818333333333335,-26.713333333333335,33.6775,0.0,1782.726,-0.3200000000000003,100.0,27.707,28.373,42.246,43.413,0.0,0.0,100.0,0.0,0.0,0.0,0.0,3112.5,3091.9,4308.625,4299.5,305.5493333333333,304.907,314.492,314.2175,21.948777777777778,20.604,21.9317,21.451999999999998,314.999998,314.999998,324.999988,324.999988,99.55955714285714,99.50743333333334,99.56692857142858,99.54711428571429,0.13975000000000026,0.0076666666666667105,-0.029333333333333333,0.19916666666666666,-0.045000000000001705,-0.060000000000002274,1.5345,1.4929999999999999,38.18,29.775,38.073,35.075,56.219,35.18,59.5045,52.463,54.129000000000005,34.2875,58.093,50.792,53.272999999999996,33.812,58.007,50.202333333333335,-0.10949999999999993,-0.04499999999999993,0.11153500000000001,0.114585,0.0,212.66,212.74,209.47,209.47,0.0,0.0
18,0.0,0.0,0.0,1.0,1.0,0.0,0.0,1.0,0.0,100.0,1.0,1.1856,26.0,0.0,0.0,0.0,59.999996,0.0,26.0,26.0,26.0,26.0,0.05833333333333335,0.2836000000000001,-0.028900000000000002,292.542,-2.7862999999999998,-2.5493,-1.6418,-1.4358,-215.53,215.95,190.618375,0.0,0.0,0.0,0.0,0.03656666666666667,-5.498166666666667,-5.498166666666667,-0.5599000000000001,-0.5423333333333333,0.05666666666666664,0.7409999999999997,68.044,0.0729,-0.223025,-0.4379999999999997,100.0,1.0,1.0,209.87666666666667,0.0,0.0,0.0,0.0,0.0,0.0,0.0,8895.9,0.0,55.0,5.0,244.93,0.0,0.0,0.0,0.0,0.0,0.0,1.0,0.0,0.9029999999999987,0.9029999999999987,0.0,0.0,0.0,55.0,616.79921,10000.0,85.000001,85.000001,85.000001,85.000001,395.0,0.0,0.0,0.0,1.0,333.33500000000004,52.429,52.429,47.76,47.76,34.0,-22.255,26.93,-25.346666666666664,31.11,0.0,1782.679,0.010000000000001563,100.0,27.641,28.016,42.703,43.614000000000004,0.0,0.0,100.0,0.0,0.0,0.0,0.0,3019.125,3325.4,4034.5,4187.4,305.7096666666667,304.42725,315.03425,314.531,21.957,20.6089,21.9409,21.4602,314.999998,314.999998,324.999988,324.999988,99.55957142857143,99.50743333333334,99.56705714285714,99.54724285714286,0.11825000000000019,-0.0086666666666666,-0.03883333333333334,0.185,-0.02833333333332888,-0.07166666666666544,1.541,1.5300000000000002,38.230999999999995,29.805999999999997,38.131,35.126,56.207,35.213,59.5385,52.519999999999996,54.117999999999995,34.318,58.1245,50.847,53.260999999999996,33.842,58.0355,50.256,-0.07550000000000001,-0.07699999999999996,0.10724,0.09680000000000001,0.0,213.005,213.065,209.87666666666667,209.87666666666667,0.0,0.0
19,0.0,0.0,0.0,1.0,1.0,0.0,0.0,1.0,0.0,100.0,1.0,1.1856,26.0,0.0,0.0,0.0,59.999996,0.0,26.0,26.0,26.0,26.0,0.029888888888888854,0.2833000000000001,0.042300000000000004,291.946,-2.6829,-2.6718,-1.6356000000000002,-1.4395,-211.85,215.94,190.594375,0.0,0.0,0.0,0.0,0.038700000000000005,-5.498166666666667,-5.498166666666667,-0.5489,0.8316666666666667,0.0434444444444444,0.44899999999999984,68.189,0.0524,-0.21080000000000002,0.043999999999999595,100.0,1.0,1.0,210.2866666666667,0.0,0.0,0.0,0.0,0.0,0.0,0.0,8913.2,0.0,55.0,5.0,245.45333333333335,1.0,0.0,0.0,0.0,0.0,0.0,1.0,0.0,0.9570000000000007,0.9570000000000007,0.0,0.0,1.0,55.0,616.79921,10000.0,85.000001,85.000001,85.000001,85.000001,395.0,0.0,0.0,0.0,1.0,166.665,51.743,51.743,47.409,47.409,34.0,-22.46,26.506666666666668,-28.396666666666665,32.5975,0.0,1782.627,0.2950000000000017,100.0,28.344,28.421,42.657,43.451,0.0,0.0,100.0,0.0,0.0,0.0,0.0,3067.625,3256.0,4253.0,4422.7,305.38033333333334,304.344,314.5525,314.01825,21.967222222222222,20.615,21.9519,21.4698,314.999998,314.999998,324.999988,324.999988,99.55958571428572,99.50745,99.5672,99.5474,0.10650000000000004,-0.038000000000000034,-0.06333333333333334,0.1715,-0.04999999999999716,-0.060000000000002274,1.4969999999999999,1.504,38.295,29.844,38.199,35.1865,56.196,35.256,59.576499999999996,52.586,54.105999999999995,34.3575,58.16,50.9105,53.248999999999995,33.879999999999995,58.068,50.318333333333335,-0.06299999999999994,-0.10099999999999998,0.10856500000000001,0.11367000000000001,0.0,213.55,213.51999999999998,210.2866666666667,210.2866666666667,0.0,0.0
20,0.0,0.0,0.0,1.0,1.0,0.0,0.0,1.0,0.0,100.0,1.0,1.1856,26.0,0.0,0.0,0.0,59.999996,0.0,26.0,26.0,26.0,26.0,0.011777777777777887,0.26160000000000005,-0.0228,292.404,-2.767,-2.6401,-1.5479,-1.5761,-208.37,215.93,190.572125,0.0,0.0,0.0,0.0,0.04073333333333334,-5.498166666666667,-5.498166666666667,-0.5567,-1.1113333333333335,0.02200000000000002,-1.354,68.328,0.0207,-0.224,0.49600000000000044,100.0,1.0,1.0,210.64333333333332,0.0,0.0,0.0,0.0,0.0,0.0,0.0,8928.5,0.0,55.0,5.0,245.95333333333335,0.0,0.0,0.0,0.0,0.0,0.0,0.0,0.0,1.0079999999999991,1.0079999999999991,0.0,0.0,0.0,55.0,616.79921,10000.0,85.000001,85.000001,85.000001,85.000001,395.0,0.0,0.0,0.0,1.0,166.665,52.811,52.811,47.089,47.089,34.0,-23.93,22.785,-28.793333333333333,30.0,0.0,1782.576,0.379999999999999,100.0,27.654,28.07,43.313,43.777,0.0,0.0,100.0,0.0,0.0,0.0,0.0,3032.125,3028.8,4200.5,4149.8,305.82966666666664,305.0835,314.609,314.441,21.976555555555557,20.6205,21.9625,21.4791,314.999998,314.999998,324.999988,324.999988,99.5596,99.50745,99.56735714285715,99.54754285714286,0.07224999999999993,-0.06999999999999995,-0.09816666666666668,0.12416666666666668,-0.04333333333332945,-0.023333333333326323,1.4695,1.4965000000000002,38.352999999999994,29.878,38.265,35.2445,56.179,35.294,59.6175,52.649,54.091,34.393,58.198499999999996,50.9715,53.232,33.914,58.103,50.37833333333333,-0.05449999999999999,-0.10549999999999993,0.10107000000000001,0.10759500000000001,0.0,213.935,213.86,210.64333333333332,210.64333333333332,0.0,0.0
21,0.0,0.0,0.0,1.0,1.0,0.0,0.0,1.0,0.0,100.0,1.0,1.1856,26.0,0.0,0.0,0.0,59.999996,0.0,26.0,26.0,26.0,26.0,-0.01966666666666661,0.2781,-0.04783333333333333,292.709,-2.7077,-2.6713,-1.5927,-1.5539,-205.07999999999998,215.9225,190.550375,0.0,0.0,0.0,0.0,0.042633333333333336,-5.498166666666667,-5.498166666666667,-0.5759000000000001,0.5196666666666667,-0.015222222222222026,-1.2119999999999997,68.453,-0.0082,-0.22032500000000002,0.7079999999999993,100.0,1.0,1.0,211.23666666666668,0.0,0.0,0.0,0.0,0.0,0.0,0.0,8953.6,0.0,55.0,5.0,246.40333333333334,1.0,0.0,0.0,0.0,0.0,0.0,0.0,0.0,1.056000000000001,1.056000000000001,0.0,0.0,1.0,55.0,616.79921,10000.0,85.000001,85.000001,85.000001,85.000001,395.0,0.0,0.0,0.0,1.0,166.665,52.368,52.368,48.203,48.203,34.0,-26.0575,22.393333333333334,-29.77,25.545,0.0,1782.527,0.2699999999999996,100.0,28.085,28.039,42.851,43.107,0.0,0.0,100.0,0.0,0.0,0.0,0.0,3221.375,3008.1,4108.875,3950.8,305.226,305.16625,314.97725,315.0995,21.985555555555557,20.625799999999998,21.9721,21.4875,314.999998,314.999998,324.999988,324.999988,99.55961428571429,99.50746666666667,99.56748571428571,99.54768571428572,0.052750000000000075,-0.08099999999999996,-0.13316666666666666,0.08750000000000001,-0.046666666666666856,-0.051666666666669414,1.5765,1.609,38.41,29.911,38.326,35.297,56.166,35.332499999999996,59.6495,52.703,54.078,34.4285,58.2285,51.0235,53.219,33.948,58.129999999999995,50.429,-0.05349999999999999,-0.10349999999999993,0.10178500000000001,0.10741500000000001,0.0,214.375,214.285,211.23666666666668,211.23666666666668,0.0,0.0
22,0.0,0.0,0.0,1.0,1.0,0.0,0.0,1.0,0.0,100.0,1.0,1.1856,26.0,0.0,0.0,0.0,59.999996,0.0,26.0,26.0,26.0,26.0,-0.04366666666666663,0.2671000000000001,0.0207,292.16,-2.6276,-2.7346,-1.5811000000000002,-1.5497,-201.79,215.9125,190.528,0.0,0.0,0.0,0.0,0.044533333333333334,-5.498166666666667,-5.498166666666667,-0.5565,0.08466666666666656,-0.016888888888888953,-0.5669999999999997,68.584,-0.028300000000000002,-0.20475000000000002,0.6779999999999999,100.0,1.0,1.0,211.44,0.0,0.0,0.0,0.0,0.0,0.0,0.0,8962.1,0.0,55.0,5.0,246.87333333333333,0.0,0.0,0.0,0.0,0.0,0.0,0.0,0.0,1.1039999999999992,1.1039999999999992,0.0,0.0,0.0,55.0,616.79921,10000.0,85.000001,85.000001,85.000001,85.000001,395.0,0.0,0.0,0.0,1.0,166.665,52.368,52.368,47.15,47.15,34.0,-24.9,22.131666666666668,-32.986666666666665,27.177500000000002,0.0,1782.48,0.18499999999999872,100.0,28.271,28.083,43.43,43.274,0.0,0.0,100.0,0.0,0.0,0.0,0.0,3115.75,2959.8,4304.25,4240.5,305.4336666666667,305.19075,314.45475,314.36275,21.994555555555557,20.6309,21.9821,21.4961,314.999998,314.999998,324.999988,324.999988,99.55961428571429,99.50748333333334,99.56762857142857,99.54781428571428,0.042749999999999844,-0.09433333333333338,-0.15366666666666667,0.06733333333333333,-0.04333333333332945,-0.046666666666666856,1.475,1.5,38.466,29.9435,38.388,35.351,56.152,35.37,59.6885,52.760999999999996,54.065,34.463499999999996,58.265,51.079,53.205,33.9815,58.1635,50.483666666666664,-0.0635,-0.09050000000000002,0.10852,0.11073000000000001,0.0,214.76999999999998,214.695,211.44,211.44,0.0,0.0
23,0.0,0.0,0.0,1.0,1.0,0.0,0.0,1.0,0.0,100.0,1.0,1.1856,26.0,0.0,0.0,0.0,59.999996,0.0,26.0,26.0,26.0,26.0,-0.052444444444444405,0.25239999999999996,-0.006266666666666667,292.145,-2.6496,-2.6931000000000003,-1.5036,-1.6213000000000002,-198.29,215.9,190.5045,0.0,0.0,0.0,0.0,0.0466,-5.498166666666667,-5.498166666666667,-0.5752,-0.27700000000000014,-0.022888888888888737,0.54,68.718,-0.0374,-0.2311,0.5960000000000001,100.0,1.0,1.0,211.96666666666667,0.0,0.0,0.0,0.0,0.0,0.0,0.0,8984.5,0.0,55.0,5.0,247.36,1.0,0.0,0.0,0.0,0.0,0.0,0.0,0.0,1.1550000000000011,1.1550000000000011,0.0,0.0,1.0,55.0,616.79921,10000.0,85.000001,85.000001,85.000001,85.000001,395.0,0.0,0.0,0.0,1.0,166.665,51.743,51.743,48.096000000000004,48.096000000000004,34.0,-26.7675,23.223333333333333,-28.606666666666666,26.535,0.0,1782.428,0.14499999999999957,100.0,28.698,27.959,43.735,43.389,0.0,0.0,100.0,0.0,0.0,0.0,0.0,3302.875,3116.6,3944.125,4000.0,304.723,304.98325,315.17975,314.90475,22.00422222222222,20.636499999999998,21.9925,21.5054,314.999998,314.999998,324.999988,324.999988,99.55961428571429,99.50748333333334,99.56777142857143,99.54797142857143,0.0495000000000001,-0.08466666666666656,-0.151,0.07383333333333333,-0.05666666666667197,-0.05833333333333002,1.513,1.5350000000000001,38.525999999999996,29.978,38.453,35.408500000000004,56.138,35.411,59.7275,52.822,54.051,34.501,58.301,51.138,53.19,34.0175,58.1965,50.541,-0.0675,-0.08699999999999997,0.10855000000000001,0.10366,0.0,215.17000000000002,215.115,211.96666666666667,211.96666666666667,0.0,0.0
24,0.0,0.0,0.0,1.0,1.0,0.0,0.0,1.0,0.0,100.0,1.0,1.1856,26.0,0.0,0.0,0.0,59.999996,0.0,26.0,26.0,26.0,26.0,-0.06422222222222218,0.2822,-0.055966666666666665,292.419,-2.6718,-2.7036,-1.5462,-1.5627,-194.99,215.89,190.482,0.0,0.0,0.0,0.0,0.0485,-5.498166666666667,-5.498166666666667,-0.5786,-0.5543333333333333,-0.0129999999999999,1.1450000000000005,68.846,-0.0393,-0.21657500000000002,0.43599999999999994,100.0,1.0,1.0,212.26333333333332,0.0,0.0,0.0,0.0,0.0,0.0,0.0,8997.0,0.0,55.0,5.0,247.81666666666666,0.0,0.0,0.0,0.0,0.0,0.0,0.0,0.0,1.2029999999999994,1.2029999999999994,0.0,0.0,0.0,55.0,616.79921,10000.0,85.000001,85.000001,85.000001,85.000001,395.0,0.0,0.0,0.0,1.0,333.33500000000004,52.917,52.917,47.15,47.15,34.0,-23.5325,21.631666666666668,-32.20333333333333,26.885,0.0,1782.38,0.05000000000000071,100.0,28.425,27.67,43.75,43.242000000000004,0.0,0.0,100.0,0.0,0.0,0.0,0.0,2943.5,2959.2,4276.25,4149.2,305.86066666666665,305.51,314.39325,314.63725,22.01311111111111,20.6415,22.0024,21.5139,314.999998,314.999998,324.999988,324.999988,99.55962857142858,99.5075,99.56791428571428,99.54811428571429,0.0495000000000001,-0.09133333333333338,-0.151,0.07433333333333333,-0.04833333333333201,-0.04833333333333201,1.4975,1.524,38.582,30.0095,38.515,35.462,56.123000000000005,35.4475,59.7645,52.8785,54.037,34.535,58.335499999999996,51.192,53.175,34.05,58.228,50.593666666666664,-0.07399999999999995,-0.08499999999999996,0.10377000000000002,0.10979000000000001,0.0,215.56,215.505,212.26333333333332,212.26333333333332,0.0,0.0
25,0.0,0.0,0.0,1.0,1.0,0.0,0.0,1.0,0.0,100.0,1.0,1.1856,26.0,0.0,0.0,0.0,59.999996,0.0,26.0,26.0,26.0,26.0,-0.06633333333333336,0.26900000000000013,-0.04563333333333333,292.221,-2.7351,-2.6678,-1.5587,-1.5685,-191.26999999999998,215.875,190.455125,0.0,0.0,0.0,0.0,0.05066666666666667,-5.498166666666667,-5.498166666666667,-0.612,0.09699999999999998,-0.014111111111111185,-0.08999999999999986,68.986,-0.039,-0.22475,0.35799999999999965,100.0,1.0,1.0,212.84333333333333,0.0,0.0,0.0,0.0,0.0,0.0,0.0,9021.6,0.0,55.0,5.0,248.32,1.0,0.0,0.0,0.0,0.0,0.0,0.0,0.0,1.256999999999998,1.256999999999998,0.0,0.0,1.0,55.0,616.79921,10000.0,85.000001,85.000001,85.000001,85.000001,395.0,0.0,0.0,0.0,1.0,166.665,51.666,51.666,47.958,47.958,34.0,-27.46,24.461666666666666,-29.196666666666665,26.2075,0.0,1782.326,-0.05000000000000071,100.0,28.434,27.991,43.421,42.977000000000004,0.0,0.0,100.0,0.0,0.0,0.0,0.0,3306.75,3294.0,3965.5,4021.6000000000004,304.874,304.44775,315.238,314.9325,22.02311111111111,20.6474,22.0133,21.5235,314.999998,314.999998,324.999988,324.999988,99.55962857142858,99.5075,99.56807142857143,99.54825714285714,0.04925000000000024,-0.08533333333333337,-0.15233333333333335,0.08283333333333333,-0.054999999999999716,-0.04833333333333201,1.5655000000000001,1.5755,38.644999999999996,30.0465,38.583,35.522,56.105000000000004,35.491,59.802,52.9395,54.021,34.575,58.3705,51.2505,53.158,34.088499999999996,58.2605,50.650999999999996,-0.08350000000000002,-0.08099999999999996,0.10761000000000001,0.11341000000000001,0.0,215.985,215.95,212.84333333333333,212.84333333333333,0.0,0.0
26,0.0,0.0,0.0,1.0,1.0,0.0,0.0,1.0,0.0,100.0,1.0,1.1856,26.0,0.0,0.0,0.0,59.999996,0.0,26.0,26.0,26.0,26.0,-0.05844444444444441,0.27780000000000005,0.08033333333333334,291.153,-2.686,-2.742,-1.6085,-1.5601,-187.95999999999998,215.86,190.430875,0.0,0.0,0.0,0.0,0.0526,-5.498166666666667,-5.498166666666667,-0.5717,0.7376666666666667,-0.027222222222222037,0.8580000000000005,69.114,-0.034300000000000004,-0.1971,0.15799999999999947,100.0,1.0,1.0,212.97,0.0,0.0,0.0,0.0,0.0,0.0,0.0,9027.0,0.0,55.0,5.0,248.78333333333336,0.0,0.0,0.0,0.0,0.0,0.0,0.0,0.0,1.3049999999999997,1.3049999999999997,0.0,0.0,0.0,55.0,616.79921,10000.0,85.000001,85.000001,85.000001,85.000001,395.0,0.0,0.0,0.0,1.0,166.665,51.376,51.376,46.219,46.219,34.0,-24.965,23.946666666666665,-35.34,30.5725,0.0,1782.279,-0.18499999999999872,100.0,29.258,28.575,43.953,43.394,0.0,0.0,100.0,0.0,0.0,0.0,0.0,3183.625,3117.2,4546.375,4516.6,305.0953333333333,304.88325,313.84475,313.76875,22.032333333333334,20.6528,22.0232,21.5322,314.999998,314.999998,324.999988,324.999988,99.55964285714286,99.50751666666666,99.56821428571429,99.5484,0.07250000000000023,-0.08066666666666666,-0.14216666666666666,0.08233333333333333,-0.03999999999999915,-0.061666666666667425,1.427,1.4355000000000002,38.702,30.08,38.644999999999996,35.576,56.095,35.531,59.841,52.9975,54.01,34.612,58.407,51.3065,53.147,34.1235,58.294,50.705666666666666,-0.09899999999999998,-0.07200000000000006,0.10677500000000001,0.10706500000000001,0.0,216.41500000000002,216.39,212.97,212.97,0.0,0.0
27,0.0,0.0,0.0,1.0,1.0,0.0,0.0,1.0,0.0,100.0,1.0,1.1856,26.0,0.0,0.0,0.0,59.999996,0.0,26.0,26.0,26.0,26.0,-0.03255555555555556,0.25140000000000007,-0.017266666666666666,291.595,-2.6606,-2.7034000000000002,-1.6037,-1.6259000000000001,-184.63,215.845,190.40775,0.0,0.0,0.0,0.0,0.054533333333333336,-5.498166666666667,-5.498166666666667,-0.5962000000000001,-1.0499999999999998,-0.020777777777778006,0.7940000000000005,69.239,-0.0252,-0.2422,0.04600000000000026,100.0,1.0,1.0,213.45,0.0,0.0,0.0,0.0,0.0,0.0,0.0,9047.3,0.0,55.0,5.0,249.23333333333335,1.0,0.0,0.0,0.0,0.0,0.0,0.0,0.0,1.352999999999998,1.352999999999998,0.0,0.0,1.0,55.0,616.79921,10000.0,85.000001,85.000001,85.000001,85.000001,395.0,0.0,0.0,0.0,1.0,166.665,51.772999999999996,51.772999999999996,46.6,46.6,34.0,-23.825,24.395,-30.546666666666667,29.0475,0.0,1782.23,-0.23000000000000043,100.0,28.876,28.37,44.553,44.057,0.0,0.0,100.0,0.0,0.0,0.0,0.0,3078.25,3170.1,4107.625,4105.9,305.426,304.8305,314.8135,314.6465,22.04111111111111,20.6581,22.0332,21.541,314.999998,314.999998,324.999988,324.999988,99.55964285714286,99.50753333333333,99.56835714285714,99.54854285714286,0.07125000000000004,-0.07033333333333336,-0.13333333333333336,0.10183333333333333,-0.045000000000001705,-0.054999999999999716,1.502,1.5030000000000001,38.757,30.113,38.708,35.6315,56.081,35.5685,59.879999999999995,53.0565,53.997,34.6465,58.4435,51.363,53.132999999999996,34.157,58.327,50.760999999999996,-0.09999999999999998,-0.06550000000000011,0.10694500000000001,0.11389,0.0,216.735,216.71,213.45,213.45,0.0,0.0
28,0.0,0.0,0.0,1.0,1.0,0.0,0.0,1.0,0.0,100.0,1.0,1.1856,26.0,0.0,0.0,0.0,59.999996,0.0,26.0,26.0,26.0,26.0,-0.01488888888888884,0.27,-0.0393,291.87,-2.6507,-2.6861,-1.5826,-1.5861,-180.89,215.825,190.380875,0.0,0.0,0.0,0.0,0.0567,-5.498166666666667,-5.498166666666667,-0.6002000000000001,0.7093333333333334,-0.021777777777777896,0.8380000000000001,69.377,-0.0165,-0.21407500000000002,-0.05600000000000005,100.0,1.0,1.0,213.98000000000002,0.0,0.0,0.0,0.0,0.0,0.0,0.0,9069.8,0.0,55.0,5.0,249.73000000000002,0.0,0.0,0.0,0.0,0.0,0.0,0.0,0.0,1.407,1.407,0.0,0.0,0.0,55.0,616.79921,10000.0,85.000001,85.000001,85.000001,85.000001,395.0,0.0,0.0,0.0,1.0,166.665,51.788,51.788,47.424,47.424,34.0,-23.5775,24.715,-29.346666666666664,28.5075,0.0,1782.176,-0.33999999999999986,100.0,28.913,28.316,43.763,43.527,0.0,0.0,100.0,0.0,0.0,0.0,0.0,3101.0,3131.5,4120.5,4162.7,305.28,304.9125,314.96925,314.62,22.051222222222222,20.664,22.0441,21.5506,314.999998,314.999998,324.999988,324.999988,99.55965714285715,99.50753333333333,99.56851428571429,99.54868571428571,0.08174999999999999,-0.05166666666666664,-0.12283333333333334,0.099,-0.051666666666669414,-0.03999999999999915,1.5535,1.548,38.82,30.15,38.775,35.6915,56.067,35.6105,59.916,53.1175,53.985,34.6855,58.477000000000004,51.422,53.119,34.194,58.3575,50.818333333333335,-0.10299999999999998,-0.056499999999999995,0.10589000000000001,0.103165,0.0,217.2,217.195,213.98000000000002,213.98000000000002,0.0,0.0
29,0.0,0.0,0.0,1.0,1.0,0.0,0.0,1.0,0.0,100.0,1.0,1.1856,26.0,0.0,0.0,0.0,59.999996,0.0,26.0,26.0,26.0,26.0,0.00855555555555565,0.2623,0.0111,291.58,-2.6412,-2.7316000000000003,-1.5596999999999999,-1.5636,-177.56,215.81,190.356125,0.0,0.0,0.0,0.0,0.05863333333333334,-5.498166666666667,-5.498166666666667,-0.6073000000000001,-0.6990000000000001,-0.015444444444444372,0.8890000000000002,69.503,-0.0051,-0.21645,-0.23599999999999977,100.0,1.0,1.0,214.20333333333332,0.0,0.0,0.0,0.0,0.0,0.0,0.0,9079.2,0.0,55.0,5.0,250.18666666666667,1.0,0.0,0.0,0.0,0.0,0.0,0.0,0.0,1.4549999999999983,1.4549999999999983,0.0,0.0,1.0,55.0,616.79921,10000.0,85.000001,85.000001,85.000001,85.000001,395.0,0.0,0.0,0.0,1.0,333.33500000000004,51.894999999999996,51.894999999999996,46.539,46.539,34.0,-23.1225,25.775,-29.613333333333333,31.25,0.0,1782.126,-0.3500000000000014,100.0,28.538,28.244,44.147,43.856,0.0,0.0,100.0,0.0,0.0,0.0,0.0,3112.75,3180.7,4194.5,4310.5,305.3643333333333,304.679,314.5715,314.21925,22.05988888888889,20.6693,22.054,21.5594,314.999998,314.999998,324.999988,324.999988,99.55967142857143,99.50755,99.56865714285715,99.54884285714286,0.08924999999999983,-0.04966666666666664,-0.109,0.12483333333333334,-0.05333333333332746,-0.05333333333332746,1.4735,1.4649999999999999,38.875,30.183,38.838,35.746,56.052,35.6485,59.956,53.1795,53.97,34.7205,58.5145,51.4815,53.104,34.228,58.3915,50.876333333333335,-0.10549999999999993,-0.05400000000000005,0.10457000000000001,0.11425,0.0,217.555,217.55,214.20333333333332,214.20333333333332,0.0,0.0
30,0.0,0.0,0.0,1.0,1.0,0.0,0.0,1.0,0.0,100.0,1.0,1.1856,26.0,0.0,0.0,0.0,59.999996,0.0,26.0,26.0,26.0,26.0,0.015111111111111075,0.254,0.054,291.138,-2.7026,-2.6170999999999998,-1.5364,-1.6152000000000002,-174.22,215.79250000000002,190.331125,0.0,0.0,0.0,0.0,0.060566666666666664,-5.498166666666667,-5.498166666666667,-0.6054,0.7556666666666667,-0.012777777777777999,0.6900000000000004,69.624,0.0053,-0.2195,-0.2579999999999991,100.0,1.0,1.0,214.66,0.0,0.0,0.0,0.0,0.0,0.0,0.0,9098.7,0.0,55.0,5.0,250.62,0.0,0.0,0.0,0.0,0.0,0.0,1.0,0.0,1.5030000000000001,1.5030000000000001,0.0,0.0,0.0,55.0,616.79921,10000.0,85.000001,85.000001,85.000001,85.000001,395.0,0.0,0.0,0.0,1.0,166.665,50.72,50.72,47.043,47.043,34.0,-24.9,25.681666666666665,-28.096666666666664,31.475,0.0,1782.081,-0.39000000000000057,100.0,29.315,28.968,43.872,43.862,0.0,0.0,100.0,0.0,0.0,0.0,0.0,3335.0,3255.9,4163.625,4246.5,304.668,304.4555,314.745,314.33425,22.069,20.6748,22.0638,21.5681,314.999998,314.999998,324.999988,324.999988,99.55968571428572,99.50755,99.56878571428571,99.54898571428572,0.1067499999999999,-0.04366666666666663,-0.095,0.12583333333333332,-0.060000000000002274,-0.04833333333333201,1.4875,1.4775,38.931,30.2175,38.899,35.8005,56.044,35.6855,59.987,53.2325,53.962,34.754999999999995,58.5435,51.5325,53.095,34.260999999999996,58.418,50.92633333333333,-0.11649999999999994,-0.05750000000000011,0.101315,0.10826500000000001,0.0,217.985,217.97,214.66,214.66,0.0,0.0
31,0.0,0.0,0.0,1.0,1.0,0.0,0.0,1.0,0.0,100.0,1.0,1.1856,26.0,0.0,0.0,0.0,59.999996,0.0,26.0,26.0,26.0,26.0,0.010333333333333306,0.25050000000000017,0.020833333333333336,290.97,-2.7702,-2.5915,-1.5864,-1.6059,-170.45999999999998,215.775,190.303875,0.0,0.0,0.0,0.0,0.06276666666666667,-5.498166666666667,-5.498166666666667,-0.5922000000000001,-0.5720000000000001,-0.0003333333333332966,0.7110000000000003,69.764,0.013000000000000001,-0.22375,-0.37399999999999967,100.0,1.0,1.0,214.97333333333333,0.0,0.0,0.0,0.0,0.0,0.0,0.0,9111.9,0.0,55.0,5.0,251.12666666666667,1.0,0.0,0.0,0.0,0.0,0.0,1.0,0.0,1.5569999999999986,1.5569999999999986,0.0,0.0,1.0,55.0,616.79921,10000.0,85.000001,85.000001,85.000001,85.000001,395.0,0.0,0.0,0.0,1.0,166.665,51.193,51.193,45.746,45.746,34.0,-23.265,27.083333333333332,-29.196666666666665,32.4375,0.0,1782.026,-0.46999999999999886,100.0,29.0,28.996000000000002,44.522,44.536,0.0,0.0,100.0,0.0,0.0,0.0,0.0,3132.125,3364.0,4253.5,4300.9,305.42266666666666,304.32325,314.4335,314.32425,22.07888888888889,20.6809,22.075,21.5781,314.999998,314.999998,324.999988,324.999988,99.55968571428572,99.50756666666666,99.56894285714286,99.54912857142857,0.11474999999999991,-0.023333333333333317,-0.08516666666666667,0.13816666666666666,-0.030000000000001137,-0.045000000000001705,1.4775,1.4525000000000001,38.992999999999995,30.255499999999998,38.969,35.863,56.032,35.7275,60.03,53.3,53.95,34.794,58.5835,51.5975,53.082,34.298500000000004,58.454499999999996,50.989666666666665,-0.11949999999999994,-0.045500000000000096,0.109115,0.1077,0.0,218.345,218.35500000000002,214.97333333333333,214.97333333333333,0.0,0.0
32,0.0,0.0,0.0,1.0,1.0,0.0,0.0,1.0,0.0,100.0,1.0,1.1856,26.0,0.0,0.0,0.0,59.999996,0.0,26.0,26.0,26.0,26.0,0.018000000000000016,0.27090000000000014,-0.04056666666666667,291.229,-2.6749,-2.6975,-1.6522000000000001,-1.5151,-167.1,215.76,190.27975,0.0,0.0,0.0,0.0,0.06470000000000001,-5.498166666666667,-5.498166666666667,-0.6067,0.04466666666666663,-0.025333333333333208,0.23399999999999999,69.884,0.0224,-0.228225,-0.46999999999999975,100.0,1.0,1.0,215.45,0.0,0.0,0.0,0.0,0.0,0.0,0.0,9132.2,0.0,55.0,5.0,251.55666666666667,0.0,0.0,0.0,0.0,0.0,0.0,1.0,0.0,1.6050000000000004,1.6050000000000004,0.0,0.0,0.0,55.0,616.79921,10000.0,85.000001,85.000001,85.000001,85.000001,395.0,0.0,0.0,0.0,1.0,333.33500000000004,51.346000000000004,51.346000000000004,46.555,46.555,34.0,-22.435,26.516666666666666,-29.22,30.95,0.0,1781.977,-0.4250000000000007,100.0,29.009,28.992,44.189,44.353,0.0,0.0,100.0,0.0,0.0,0.0,0.0,3147.75,3180.1,4227.5,4290.8,305.2183333333333,304.75975,314.681,314.39025,22.087666666666667,20.6864,22.0848,21.5868,314.999998,314.999998,324.999988,324.999988,99.55971428571429,99.50756666666666,99.56908571428572,99.54927142857143,0.1200000000000001,-0.02300000000000002,-0.08116666666666668,0.14333333333333334,-0.045000000000001705,-0.05333333333332746,1.5345,1.5234999999999999,39.048,30.29,39.03,35.917500000000004,56.021,35.765,60.0635,53.356,53.94,34.8285,58.6145,51.6515,53.07,34.3315,58.4825,51.04233333333333,-0.119,-0.0475000000000001,0.10595,0.10605500000000001,0.0,218.75,218.755,215.45,215.45,0.0,0.0
33,0.0,0.0,0.0,1.0,1.0,0.0,0.0,1.0,0.0,100.0,1.0,1.1856,26.0,0.0,0.0,0.0,59.999996,0.0,26.0,26.0,26.0,26.0,0.05255555555555569,0.2611000000000001,-0.03906666666666667,291.473,-2.723,-2.6834,-1.5872000000000002,-1.5961,-163.54,215.7425,190.253125,0.0,0.0,0.0,0.0,0.0668,-5.498166666666667,-5.498166666666667,-0.6155,-0.3726666666666667,-0.017555555555555546,0.09299999999999997,70.014,0.028,-0.2192,-0.2920000000000007,100.0,1.0,1.0,215.81333333333333,0.0,0.0,0.0,0.0,0.0,0.0,0.0,9147.5,0.0,55.0,5.0,252.02333333333334,1.0,0.0,0.0,0.0,0.0,0.0,1.0,0.0,1.6559999999999988,1.6559999999999988,0.0,0.0,1.0,55.0,616.79921,10000.0,85.000001,85.000001,85.000001,85.000001,395.0,0.0,0.0,0.0,1.0,166.665,51.772999999999996,51.772999999999996,46.738,46.738,34.0,-23.107499999999998,24.65833333333333,-27.83,32.175,0.0,1781.927,-0.4450000000000003,100.0,28.672,28.823999999999998,44.059,44.43,0.0,0.0,100.0,0.0,0.0,0.0,0.0,3151.0,3042.7,4166.5,4240.0,305.42466666666667,305.043,314.753,314.3705,22.097,20.692,22.0952,21.5961,314.999998,314.999998,324.999988,324.999988,99.55972857142856,99.50756666666666,99.56924285714285,99.54942857142858,0.11050000000000004,-0.037666666666666626,-0.07783333333333332,0.14716666666666667,-0.04833333333333201,-0.051666666666669414,1.512,1.4965000000000002,39.105999999999995,30.325,39.095,35.9755,56.009,35.8015,60.1,53.4165,53.928,34.8625,58.6485,51.7095,53.058,34.364,58.5135,51.099000000000004,-0.11449999999999994,-0.0535000000000001,0.10083500000000001,0.11472500000000001,0.0,219.135,219.16,215.81333333333333,215.81333333333333,0.0,0.0
34,0.0,0.0,0.0,1.0,1.0,0.0,0.0,1.0,0.0,100.0,1.0,1.1856,26.0,0.0,0.0,0.0,59.999996,0.0,26.0,26.0,26.0,26.0,0.043888888888888866,0.25429999999999997,-0.05106666666666667,291.733,-2.7502,-2.6707,-1.6488,-1.5517,-160.17000000000002,215.73000000000002,190.226875,0.0,0.0,0.0,0.0,0.06873333333333334,-5.498166666666667,-5.498166666666667,-0.6419,-0.8046666666666669,0.011555555555555541,-0.2570000000000001,70.135,0.0302,-0.2237,-0.38200000000000056,100.0,1.0,1.0,216.20333333333332,0.0,0.0,0.0,0.0,0.0,0.0,0.0,9164.1,0.0,55.0,5.0,252.46,0.0,0.0,0.0,0.0,0.0,0.0,1.0,0.0,1.7040000000000006,1.7040000000000006,0.0,0.0,0.0,55.0,616.79921,10000.0,85.000001,85.000001,85.000001,85.000001,395.0,0.0,0.0,0.0,1.0,333.33500000000004,52.078,52.078,47.302,47.302,34.0,-22.7475,24.768333333333334,-28.509999999999998,30.3675,0.0,1781.878,-0.4750000000000014,100.0,28.419,28.561,43.826,44.488,0.0,0.0,100.0,0.0,0.0,0.0,0.0,3116.125,3001.6,4083.125,4193.9,305.43666666666667,305.1,315.0045,314.44075,22.105555555555554,20.6973,22.1049,21.6049,314.999998,314.999998,324.999988,324.999988,99.55974285714285,99.50758333333333,99.56937142857143,99.54957142857143,0.12024999999999997,-0.025000000000000022,-0.09016666666666667,0.13183333333333336,-0.030000000000001137,-0.04999999999999716,1.526,1.5055,39.16,30.358,39.155,36.0305,55.997,35.835499999999996,60.1325,53.474000000000004,53.917,34.894,58.6785,51.765,53.046,34.3945,58.54,51.153333333333336,-0.12249999999999994,-0.04400000000000004,0.10923000000000001,0.10014,0.0,219.47,219.505,216.20333333333335,216.20333333333332,0.0,0.0
35,0.0,0.0,0.0,1.0,1.0,0.0,0.0,1.0,0.0,100.0,1.0,1.1856,26.0,0.0,0.0,0.0,59.999996,0.0,26.0,26.0,26.0,26.0,0.05011111111111122,0.2481,-0.029,291.733,-2.7262,-2.6161,-1.6245,-1.5116,-156.38,215.715,190.195125,0.0,0.0,0.0,0.0,0.07093333333333333,-5.498166666666667,-5.498166666666667,-0.6842,-0.22166666666666668,-0.005777777777777882,-1.124,70.269,0.0362,-0.23045000000000002,-0.3799999999999999,100.0,1.0,1.0,216.69333333333333,0.0,0.0,0.0,0.0,0.0,0.0,0.0,9184.9,0.0,55.0,5.0,252.94333333333333,1.0,0.0,0.0,0.0,0.0,0.0,1.0,0.0,1.7579999999999991,1.7579999999999991,0.0,0.0,1.0,55.0,616.79921,10000.0,85.000001,85.000001,85.000001,85.000001,395.0,0.0,0.0,0.0,1.0,166.665,51.513999999999996,51.513999999999996,46.921,46.921,34.0,-23.2175,27.39,-26.903333333333336,28.5825,0.0,1781.825,-0.3500000000000014,100.0,28.233,28.901,43.583,43.949,0.0,0.0,100.0,0.0,0.0,0.0,0.0,3178.75,3336.2,4025.0,4000.9,305.36633333333333,304.143,315.10575,314.982,22.115111111111112,20.7034,22.1157,21.6145,314.999998,314.999998,324.999988,324.999988,99.55975714285714,99.50758333333333,99.56952857142858,99.54972857142857,0.11375000000000002,-0.02400000000000002,-0.07583333333333334,0.1445,-0.060000000000002274,-0.04999999999999716,1.558,1.5340000000000003,39.219,30.3965,39.223,36.091,55.982,35.8765,60.169,53.5345,53.902,34.932,58.7125,51.823499999999996,53.03,34.431,58.570499999999996,51.21,-0.10350000000000004,-0.05499999999999994,0.10088000000000001,0.10260000000000001,0.0,219.92000000000002,219.945,216.69333333333333,216.69333333333333,0.0,0.0
36,0.0,0.0,0.0,1.0,1.0,0.0,0.0,1.0,0.0,100.0,1.0,1.1856,26.0,0.0,0.0,0.0,59.999996,0.0,26.0,26.0,26.0,26.0,0.040000000000000036,0.26449999999999996,0.05813333333333334,290.924,-2.6494999999999997,-2.658,-1.5747,-1.5514000000000001,-153.22,215.7025,190.167375,0.0,0.0,0.0,0.0,0.0728,-5.498166666666667,-5.498166666666667,-0.6651,0.268,-0.04111111111111132,0.17900000000000027,70.384,0.035,-0.2036,-0.2759999999999998,100.0,1.0,1.0,216.83333333333331,0.0,0.0,0.0,0.0,0.0,0.0,0.0,9190.7,0.0,55.0,5.0,253.35666666666668,0.0,0.0,0.0,0.0,0.0,0.0,1.0,0.0,1.8030000000000008,1.8030000000000008,0.0,0.0,0.0,55.0,616.79921,10000.0,85.000001,85.000001,85.000001,85.000001,395.0,0.0,0.0,0.0,1.0,166.665,51.239,51.239,46.432,46.432,34.0,-22.0825,26.641666666666666,-28.77,35.1875,0.0,1781.78,-0.28999999999999915,100.0,28.939,28.903,43.802,44.116,0.0,0.0,100.0,0.0,0.0,0.0,0.0,3149.5,3257.1,4377.25,4534.3,305.0713333333333,304.57875,314.23175,313.74175,22.123333333333335,20.7086,22.1249,21.622799999999998,314.999998,314.999998,324.999988,324.999988,99.55977142857142,99.50758333333333,99.56965714285714,99.54987142857142,0.12674999999999992,-0.027666666666666617,-0.06216666666666667,0.16033333333333336,-0.023333333333326323,-0.054999999999999716,1.45,1.4295,39.271,30.429000000000002,39.281,36.1425,55.972,35.911500000000004,60.201499999999996,53.588499999999996,53.894,34.9645,58.743,51.876,53.019999999999996,34.462,58.598,51.26133333333333,-0.10499999999999998,-0.0665,0.09929,0.11048500000000001,0.0,220.28,220.31,216.83333333333334,216.83333333333331,0.0,0.0
