,ABS Active,ABS Enabled,AID Allow Tire Blankets,AID Auto Blip,AID Auto Clutch,AID Auto Shift,AID Fuel Rate,AID Ideal Line,AID Mech Damage,AID Stability,AID Tire Wear Rate,Air Density,Air Temp,Ballast,Best Lap Delta,Best Lap Time,Brake Bias,Brake Pos,Brake Temp FL,Brake Temp FR,Brake Temp RL,Brake Temp RR,CG Accel Lateral,CG Accel Longitudinal,CG Accel Vertical,CG Height,Camber FL,Camber FR,Camber RL,Camber RR,Car Coord X,Car Coord Y,Car Coord Z,Car Damage Front,Car Damage Left,Car Damage Rear,Car Damage Right,Car Pos Norm,Caster FL,Caster FR,Chassis Pitch Angle,Chassis Pitch Rate,Chassis Roll Angle,Chassis Roll Rate,Chassis Velocity X,Chassis Velocity Y,Chassis Velocity Z,Chassis Yaw Rate,Clutch Pos,DRS Active,DRS Available,Drive Train Speed,ERS Heat Charging,ERS Is Charging,ERS Max Energy,ERS Power Level,ERS Recovery Level,Engine Brake Setting,Engine Limiter,Engine RPM,Flags,Fuel Level,Gear,Ground Speed,HR Sample Clock,In Pit,KERS Charge,KERS Deployed Energy,KERS Input,KERS Max Energy,LR Sample Clock,Lap Invalidated,Lap Time,Lap Time2,Last Lap Time,Last Sector Time,MR Sample Clock,Max Fuel,Max Power,Max RPM,Max Sus Travel FL,Max Sus Travel FR,Max Sus Travel RL,Max Sus Travel RR,Max Torque,Max Turbo Boost,Num Tires Off Track,Penalties Enabled,Position,Raw Data Sample Rate,Ride Height FL,Ride Height FR,Ride Height RL,Ride Height RR,Road Temp,Self Align Torque FL,Self Align Torque FR,Self Align Torque RL,Self Align Torque RR,Session Lap Count,Session Time Left,Steering Angle,Surface Grip,Suspension Travel FL,Suspension Travel FR,Suspension Travel RL,Suspension Travel RR,TC Active,TC Enabled,Throttle Pos,Tire Dirt Level FL,Tire Dirt Level FR,Tire Dirt Level RL,Tire Dirt Level RR,Tire Load FL,Tire Load FR,Tire Load RL,Tire Load RR,Tire Loaded Radius FL,Tire Loaded Radius FR,Tire Loaded Radius RL,Tire Loaded Radius RR,Tire Pressure FL,Tire Pressure FR,Tire Pressure RL,Tire Pressure RR,Tire Radius FL,Tire Radius FR,Tire Radius RL,Tire Radius RR,Tire Rubber Grip FL,Tire Rubber Grip FR,Tire Rubber Grip RL,Tire Rubber Grip RR,Tire Slip Angle FL,Tire Slip Angle FR,Tire Slip Angle RL,Tire Slip Angle RR,Tire Slip Ratio FL,Tire Slip Ratio FR,Tire Slip Ratio RL,Tire Slip Ratio RR,Tire Temp Core FL,Tire Temp Core FR,Tire Temp Core RL,Tire Temp Core RR,Tire Temp Inner FL,Tire Temp Inner FR,Tire Temp Inner RL,Tire Temp Inner RR,Tire Temp Middle FL,Tire Temp Middle FR,Tire Temp Middle RL,Tire Temp Middle RR,Tire Temp Outer FL,Tire Temp Outer FR,Tire Temp Outer RL,Tire Temp Outer RR,Toe In FL,Toe In FR,Toe In RL,Toe In RR,Turbo Boost,Wheel Angular Speed FL,Wheel Angular Speed FR,Wheel Angular Speed RL,Wheel Angular Speed RR,Wind Direction,Wind Speed
0,0.0,0.0,0.0,1.0,1.0,0.0,0.0,1.0,0.0,100.0,1.0,1.1856,26.0,0.0,0.0,0.0,59.99999,0.0,26.0,26.0,26.0,26.0,-0.10033333333333339,0.29500000000000015,-0.026750000000000003,294.037,-2.7154,-2.4827,-1.5103,-1.5391,-275.62,216.125,190.987375,0.0,0.0,0.0,0.0,0.0016333333333333332,-5.498166666666667,-5.498166666666667,-0.5481,1.6560000000000001,-0.014222222222222136,-0.5709999999999997,65.48,-0.0425,-0.2132,0.9420000000000002,100.0,1.0,1.0,202.16,0.0,0.0,0.0,0.0,0.0,0.0,0.0,8568.9,0.0,55.0,5.0,235.69666666666666,0.0,0.0,0.0,0.0,0.0,0.0,0.0,0.0,0.0030000000000001137,0.0030000000000001137,0.0,0.0,0.0,55.0,616.79921,10000.0,85.0,85.0,85.0,85.0,395.0,0.0,0.0,0.0,1.0,20.0,52.643,52.643,49.53,49.53,34.0,-27.7575,21.915,-30.133333333333333,24.25,0.0,1736.651,0.8900000000000006,100.0,27.209,26.833,40.561,40.32,0.0,0.0,100.0,0.0,0.0,0.0,0.0,3103.25,3460.5,4117.375,3988.3,305.345,303.72933333333333,314.8965,314.929,21.8646,20.5967,21.8379,21.3815,314.99999,314.99999,324.99998,324.99998,99.55954285714286,99.50796666666666,99.56538571428571,99.54548571428572,-0.008000000000000007,-0.1299999999999999,-0.15916666666666665,0.057833333333333334,-0.04999999999999716,-0.01666666666666572,1.554,1.5875,37.653999999999996,29.729666666666667,37.486999999999995,34.634,56.706,34.9845,59.260999999999996,51.826499999999996,54.535,34.067,57.8485,50.153999999999996,53.632,33.588,57.7875,49.56933333333333,-0.010000000000000009,-0.13850000000000007,0.1009,0.11196,0.0,205.20499999999998,205.10500000000002,202.16,202.16,0.0,0.0
1,0.0,0.0,0.0,1.0,1.0,0.0,0.0,1.0,0.0,100.0,1.0,1.1856,26.0,0.0,0.0,0.0,59.999996,0.0,26.0,26.0,26.0,26.0,-0.13077777777777777,0.3387,0.214675,293.274,-2.65,-2.8059000000000003,-1.5169000000000001,-1.3694,-272.28,216.13,190.967375,0.0,0.0,0.0,0.0,0.0035666666666666668,-5.498166666666667,-5.498166666666667,-0.48950000000000005,-0.9135,-0.06011111111111145,-0.8940000000000001,65.637,-0.0582,-0.18860000000000002,1.402000000000001,100.0,1.0,1.0,202.26333333333332,0.0,0.0,0.0,0.0,0.0,0.0,0.0,8573.2,0.0,55.0,5.0,236.26,1.0,0.0,0.0,0.0,0.0,0.0,0.0,0.0,0.053999999999998494,0.053999999999998494,0.0,0.0,1.0,55.0,616.79921,10000.0,85.000001,85.000001,85.000001,85.000001,395.0,0.0,0.0,0.0,1.0,333.33500000000004,54.108,54.108,48.34,48.34,34.0,-27.162499999999998,17.206666666666667,-35.87,26.36,0.0,1736.598,0.865000000000002,100.0,27.286,26.758,42.467,41.634,0.0,0.0,100.0,0.0,0.0,0.0,0.0,3079.125,2576.3,4457.75,4774.3,305.5656666666667,306.6963333333333,313.93275,312.972,21.8744,20.6017,21.8486,21.3905,314.999998,314.999998,324.999988,324.999988,99.55954285714286,99.50798333333333,99.56551428571429,99.54562857142857,-0.01849999999999996,-0.14733333333333332,-0.1855,0.03266666666666666,-0.06333333333333258,-0.04833333333333201,1.3785,1.4380000000000002,37.715,29.760666666666665,37.554,34.6905,56.689,35.0235,59.306,51.8915,54.519,34.103,57.891,50.216499999999996,53.614999999999995,33.6225,57.827,49.63033333333333,-0.0044999999999999485,-0.14100000000000001,0.098765,0.11481500000000001,0.0,205.68,205.535,202.26333333333332,202.26333333333332,0.0,0.0
2,0.0,0.0,0.0,1.0,1.0,0.0,0.0,1.0,0.0,100.0,1.0,1.1856,26.0,0.0,0.0,0.0,59.999996,0.0,26.0,26.0,26.0,26.0,-0.13511111111111107,0.28910000000000013,-0.07855000000000001,294.128,-2.60905,-2.7805,-1.4863,-1.6329,-268.73,216.13,190.9475,0.0,0.0,0.0,0.0,0.005633333333333334,-5.498166666666667,-5.498166666666667,-0.5563,0.31799999999999995,-0.047666666666666746,1.5990000000000002,65.785,-0.0805,-0.2555,1.7560000000000002,100.0,1.0,1.0,203.34,0.0,0.0,0.0,0.0,0.0,0.0,0.0,8618.8,0.0,55.0,5.0,236.79666666666668,0.0,0.0,0.0,0.0,0.0,0.0,0.0,0.0,0.10800000000000054,0.10800000000000054,0.0,0.0,0.0,55.0,616.79921,10000.0,85.000001,85.000001,85.000001,85.000001,395.0,0.0,0.0,0.0,1.0,166.665,52.643,52.643,50.766,50.766,34.0,-31.0675,19.35333333333333,-28.753333333333334,19.65,0.0,1736.545,0.8500000000000014,100.0,28.094,26.78,42.152,41.001,0.0,0.0,100.0,0.0,0.0,0.0,0.0,3383.375,2935.8,3674.125,3614.0,304.5636666666667,305.451,315.896,315.98675,21.8851,20.6069,21.8595,21.3996,314.999998,314.999998,324.999988,324.999988,99.55955714285714,99.508,99.56567142857143,99.54577142857143,-0.040750000000000064,-0.16233333333333322,-0.23316666666666666,0.004,-0.05333333333332746,-0.051666666666669414,1.6720000000000002,1.7309999999999999,37.782,29.793,37.622,34.7475,56.675,35.064,59.344,51.949,54.504999999999995,34.1405,57.9265,50.2715,53.601,33.658500000000004,57.86,49.684333333333335,-0.0050000000000000044,-0.13749999999999996,0.10823500000000001,0.11182,0.0,206.14499999999998,206.005,203.34,203.34,0.0,0.0
3,0.0,0.0,0.0,1.0,1.0,0.0,0.0,1.0,0.0,100.0,1.0,1.1856,26.0,0.0,0.0,0.0,59.999996,0.0,26.0,26.0,26.0,26.0,-0.15233333333333332,0.32299999999999995,0.0897,293.61,-2.6318,-2.7041,-1.4964,-1.585,-265.77,216.13,190.929875,0.0,0.0,0.0,0.0,0.007366666666666667,-5.498166666666667,-5.498166666666667,-0.5084000000000001,0.59,-0.021333333333333204,0.1200000000000001,65.92099999999999,-0.09570000000000001,-0.194275,1.4139999999999997,100.0,1.0,1.0,203.36333333333334,0.0,0.0,0.0,0.0,0.0,0.0,0.0,8619.8,0.0,55.0,5.0,237.28333333333333,1.0,0.0,0.0,0.0,0.0,0.0,0.0,0.0,0.1529999999999987,0.1529999999999987,0.0,0.0,1.0,55.0,616.79921,10000.0,85.000001,85.000001,85.000001,85.000001,395.0,0.0,0.0,0.0,1.0,166.665,53.65,53.65,48.34,48.34,34.0,-26.7575,17.788333333333334,-35.32333333333333,24.4025,0.0,1736.501,0.9450000000000003,100.0,27.793,26.747,42.266,41.045,0.0,0.0,100.0,0.0,0.0,0.0,0.0,2955.375,2870.2,4350.875,4250.1,305.8673333333333,305.7323333333333,314.21625,314.3835,21.8937,20.6114,21.8686,21.4073,314.999998,314.999998,324.999988,324.999988,99.55955714285714,99.50803333333333,99.5658,99.5459,-0.04149999999999987,-0.17066666666666674,-0.21083333333333334,0.009666666666666665,-0.05833333333333002,-0.04999999999999716,1.483,1.5220000000000002,37.835,29.821333333333335,37.679,34.795500000000004,56.66,35.1015,59.3785,52.0035,54.492000000000004,34.175,57.959,50.324,53.586,33.6915,57.89,49.736000000000004,-0.009499999999999953,-0.14600000000000013,0.100205,0.10695500000000001,0.0,206.575,206.465,203.36333333333334,203.36333333333334,0.0,0.0
4,0.0,0.0,0.0,1.0,1.0,0.0,0.0,1.0,0.0,100.0,1.0,1.1856,26.0,0.0,0.0,0.0,59.999996,0.0,26.0,26.0,26.0,26.0,-0.16655555555555557,0.28580000000000005,0.012825000000000001,293.747,-2.6595,-2.7943,-1.517,-1.6004,-262.4,216.1225,190.91025,0.0,0.0,0.0,0.0,0.009300000000000001,-5.498166666666667,-5.498166666666667,-0.5387000000000001,-0.853,-0.08733333333333348,-1.822,66.068,-0.10110000000000001,-0.23392500000000002,1.6280000000000001,100.0,1.0,1.0,203.92333333333335,0.0,0.0,0.0,0.0,0.0,0.0,0.0,8643.5,0.0,55.0,5.0,237.81666666666666,0.0,0.0,0.0,0.0,0.0,0.0,0.0,0.0,0.20400000000000063,0.20400000000000063,0.0,0.0,0.0,55.0,616.79921,10000.0,85.000001,85.000001,85.000001,85.000001,395.0,0.0,0.0,0.0,1.0,333.33500000000004,53.36,53.36,48.751999999999995,48.751999999999995,34.0,-31.622500000000002,17.90833333333333,-34.91666666666667,19.990000000000002,0.0,1736.448,0.9849999999999994,100.0,27.448,26.61,42.807,41.354,0.0,0.0,100.0,0.0,0.0,0.0,0.0,3320.0,2842.6,4181.5,3703.1,304.944,305.66366666666664,314.63425,315.59475,21.9033,20.6164,21.8792,21.4161,314.999998,314.999998,324.999988,324.999988,99.55955714285714,99.50803333333333,99.56594285714286,99.54604285714285,-0.0645,-0.18566666666666665,-0.23516666666666666,-0.006500000000000001,-0.045000000000001705,-0.03333333333333144,1.534,1.5965000000000003,37.896,29.852333333333334,37.745000000000005,34.8505,56.643,35.1415,59.42,52.0625,54.476,34.212,57.998,50.3805,53.57,33.727000000000004,57.9265,49.791333333333334,0.0044999999999999485,-0.15399999999999991,0.10540000000000001,0.10774,0.0,206.97,206.845,203.92333333333335,203.92333333333335,0.0,0.0
5,0.0,0.0,0.0,1.0,1.0,0.0,0.0,1.0,0.0,100.0,1.0,1.1856,26.0,0.0,0.0,0.0,59.999996,0.0,26.0,26.0,26.0,26.0,-0.16733333333333333,0.31710000000000016,-0.009625,293.808,-2.667,-2.769,-1.4978,-1.6362,-258.83,216.1125,190.88875,0.0,0.0,0.0,0.0,0.0114,-5.498166666666667,-5.498166666666667,-0.5356000000000001,0.34750000000000003,-0.09466666666666645,-0.48,66.223,-0.113,-0.213125,1.6079999999999997,100.0,1.0,1.0,204.38333333333333,0.0,0.0,0.0,0.0,0.0,0.0,0.0,8663.0,0.0,55.0,5.0,238.37333333333333,1.0,0.0,0.0,0.0,0.0,0.0,0.0,0.0,0.2579999999999991,0.2579999999999991,0.0,0.0,1.0,55.0,616.79921,10000.0,85.000001,85.000001,85.000001,85.000001,395.0,0.0,0.0,0.0,1.0,166.665,53.604,53.604,49.164,49.164,34.0,-30.2625,17.203333333333333,-35.46,21.192500000000003,0.0,1736.396,0.6050000000000004,100.0,27.677,26.476,42.556,40.951,0.0,0.0,100.0,0.0,0.0,0.0,0.0,3243.375,2742.9,4197.375,4009.1000000000004,305.1173333333333,306.0196666666667,314.69975,314.89825,21.9138,20.6216,21.8901,21.4252,314.999998,314.999998,324.999988,324.999988,99.55957142857143,99.50806666666666,99.5661,99.54618571428571,-0.048249999999999904,-0.17866666666666675,-0.25,-0.03216666666666666,-0.07000000000000028,-0.06499999999999773,1.5205,1.588,37.961,29.885333333333335,37.813,34.9075,56.629000000000005,35.184,59.4615,52.1215,54.462,34.2515,58.037,50.4375,53.556,33.765,57.962,49.846666666666664,-0.024499999999999966,-0.123,0.10427000000000002,0.10096000000000001,0.0,207.5,207.38,204.38333333333333,204.38333333333333,0.0,0.0
6,0.0,0.0,0.0,1.0,1.0,0.0,0.0,1.0,0.0,100.0,1.0,1.1856,26.0,0.0,0.0,0.0,59.999996,0.0,26.0,26.0,26.0,26.0,-0.16022222222222215,0.2896000000000001,0.014150000000000001,293.686,-2.6220499999999998,-2.8155,-1.5304,-1.594,-255.65,216.0975,190.869375,0.0,0.0,0.0,0.0,0.013233333333333335,-5.498166666666667,-5.498166666666667,-0.5292,0.08250000000000002,-0.08888888888888857,-0.6349999999999998,66.361,-0.1135,-0.210175,1.3160000000000007,100.0,1.0,1.0,204.79000000000002,0.0,0.0,0.0,0.0,0.0,0.0,0.0,8680.2,0.0,55.0,5.0,238.87,0.0,0.0,0.0,0.0,0.0,0.0,0.0,0.0,0.30600000000000094,0.30600000000000094,0.0,0.0,0.0,55.0,616.79921,10000.0,85.000001,85.000001,85.000001,85.000001,395.0,0.0,0.0,0.0,1.0,166.665,53.513,53.513,48.843,48.843,34.0,-29.7125,18.23,-35.879999999999995,21.4225,0.0,1736.347,0.4400000000000013,100.0,27.637,26.524,42.692,41.153,0.0,0.0,100.0,0.0,0.0,0.0,0.0,3236.125,2778.3,4233.25,3985.1000000000004,305.094,305.82866666666666,314.6005,314.9515,21.923000000000002,20.6263,21.8999,21.4335,314.999998,314.999998,324.999988,324.999988,99.55957142857143,99.50808333333333,99.56622857142857,99.54631428571429,-0.044499999999999984,-0.17066666666666674,-0.24066666666666667,-0.014333333333333335,-0.03999999999999915,-0.04999999999999716,1.5105,1.5659999999999998,38.019,29.914666666666665,37.873999999999995,34.9595,56.614999999999995,35.222,59.5,52.1775,54.45,34.286500000000004,58.073,50.491,53.542,33.798,57.9955,49.899,-0.03749999999999998,-0.11050000000000004,0.106645,0.10955000000000001,0.0,207.91,207.805,204.79000000000002,204.79000000000002,0.0,0.0
7,0.0,0.0,0.0,1.0,1.0,0.0,0.0,1.0,0.0,100.0,1.0,1.1856,26.0,0.0,0.0,0.0,59.999996,0.0,26.0,26.0,26.0,26.0,-0.13411111111111107,0.2724,0.021375,293.442,-2.59,-2.8085,-1.4894,-1.6368,-252.46,216.07999999999998,190.850125,0.0,0.0,0.0,0.0,0.0151,-5.498166666666667,-5.498166666666667,-0.5363,-0.04600000000000004,-0.0774444444444442,-0.274,66.498,-0.1048,-0.22425,1.0520000000000005,100.0,1.0,1.0,205.2,0.0,0.0,0.0,0.0,0.0,0.0,0.0,8697.7,0.0,55.0,5.0,239.36666666666667,1.0,0.0,0.0,0.0,0.0,0.0,0.0,0.0,0.3539999999999992,0.3539999999999992,0.0,0.0,1.0,55.0,616.79921,10000.0,85.000001,85.000001,85.000001,85.000001,395.0,0.0,0.0,0.0,1.0,166.665,52.994,52.994,49.057,49.057,34.0,-29.189999999999998,20.105,-33.75,22.08,0.0,1736.3,0.18499999999999872,100.0,27.87,26.636,42.769,41.387,0.0,0.0,100.0,0.0,0.0,0.0,0.0,3325.5,2888.4,4107.5,3964.2,304.796,305.454,314.85275,314.9445,21.932299999999998,20.6311,21.9096,21.4418,314.999998,314.999998,324.999988,324.999988,99.55957142857143,99.5081,99.56637142857143,99.54644285714286,-0.016999999999999904,-0.1443333333333332,-0.23233333333333334,-0.0125,-0.05833333333333002,-0.05333333333332746,1.5110000000000001,1.5485000000000002,38.077,29.944333333333333,37.935,35.0115,56.602000000000004,35.2595,59.5375,52.2335,54.437,34.321,58.108000000000004,50.545,53.528999999999996,33.831,58.028,49.95166666666667,-0.0665,-0.08750000000000013,0.10605500000000001,0.10475500000000001,0.0,208.335,208.235,205.2,205.2,0.0,0.0
8,0.0,0.0,0.0,1.0,1.0,0.0,0.0,1.0,0.0,100.0,1.0,1.1856,26.0,0.0,0.0,0.0,59.999996,0.0,26.0,26.0,26.0,26.0,-0.10055555555555551,0.29390000000000005,0.026000000000000002,293.625,-2.66655,-2.7439999999999998,-1.4722,-1.6280999999999999,-249.06,216.06,190.8295,0.0,0.0,0.0,0.0,0.017066666666666667,-5.498166666666667,-5.498166666666667,-0.5369,-0.5055000000000001,-0.05988888888888866,0.8250000000000002,66.645,-0.0878,-0.21585000000000001,0.46999999999999975,100.0,1.0,1.0,205.57999999999998,0.0,0.0,0.0,0.0,0.0,0.0,0.0,8713.8,0.0,55.0,5.0,239.89333333333332,0.0,0.0,0.0,0.0,0.0,0.0,0.0,0.0,0.40500000000000114,0.40500000000000114,0.0,0.0,0.0,55.0,616.79921,10000.0,85.000001,85.000001,85.000001,85.000001,395.0,0.0,0.0,0.0,1.0,166.665,53.726,53.726,48.385999999999996,48.385999999999996,34.0,-25.6275,20.82333333333333,-32.42,25.1575,0.0,1736.248,0.02499999999999858,100.0,27.613,26.494,42.884,41.42,0.0,0.0,100.0,0.0,0.0,0.0,0.0,2982.625,2957.4,4136.5,4125.3,305.764,305.536,314.67775,314.61625,21.9419,20.6361,21.92,21.4506,314.999998,314.999998,324.999988,324.999988,99.55957142857143,99.50811666666667,99.56651428571429,99.54658571428571,0.003249999999999975,-0.119,-0.19983333333333334,0.02733333333333333,-0.04833333333333201,-0.06333333333333258,1.4995,1.5274999999999999,38.137,29.976,38.0,35.0665,56.583,35.298,59.577,52.292500000000004,54.419,34.3565,58.1455,50.6015,53.510999999999996,33.865,58.0625,50.00666666666667,-0.07399999999999995,-0.07000000000000006,0.10793000000000001,0.10764000000000001,0.0,208.755,208.70499999999998,205.57999999999998,205.57999999999998,0.0,0.0
9,0.0,0.0,0.0,1.0,1.0,0.0,0.0,1.0,0.0,100.0,1.0,1.1856,26.0,0.0,0.0,0.0,59.999996,0.0,26.0,26.0,26.0,26.0,-0.08066666666666666,0.28300000000000014,-0.014075,293.289,-2.6002,-2.7557,-1.5291000000000001,-1.5748,-245.66,216.035,190.8085,0.0,0.0,0.0,0.0,0.019033333333333336,-5.498166666666667,-5.498166666666667,-0.54,0.6505,-0.06222222222222218,-0.32699999999999996,66.787,-0.0687,-0.2157,0.4139999999999997,100.0,1.0,1.0,206.13,0.0,0.0,0.0,0.0,0.0,0.0,0.0,8737.0,0.0,55.0,5.0,240.40333333333334,1.0,0.0,0.0,0.0,0.0,0.0,0.0,0.0,0.4559999999999995,0.4559999999999995,0.0,0.0,1.0,55.0,616.79921,10000.0,85.000001,85.000001,85.000001,85.000001,395.0,0.0,0.0,0.0,1.0,166.665,52.628,52.628,49.254999999999995,49.254999999999995,34.0,-27.985,21.744999999999997,-31.333333333333332,24.21,0.0,1736.197,-0.20500000000000007,100.0,27.978,27.057,42.519,41.557,0.0,0.0,100.0,0.0,0.0,0.0,0.0,3366.75,2923.6,4074.0,4033.1000000000004,304.6716666666667,305.38933333333335,315.03175,314.86425,21.9517,20.6414,21.9303,21.4594,314.999998,314.999998,324.999988,324.999988,99.55958571428572,99.50813333333333,99.56665714285714,99.54672857142857,0.021500000000000075,-0.09833333333333316,-0.18466666666666667,0.03883333333333334,-0.054999999999999716,-0.04833333333333201,1.5405,1.561,38.198,30.008333333333333,38.064,35.121,56.568,35.337,59.6135,52.35,54.405,34.393,58.18,50.6565,53.495999999999995,33.9,58.094,50.061,-0.08799999999999997,-0.05699999999999994,0.10646000000000001,0.11242500000000001,0.0,209.2,209.16500000000002,206.13,206.13,0.0,0.0
10,0.0,0.0,0.0,1.0,1.0,0.0,0.0,1.0,0.0,100.0,1.0,1.1856,26.0,0.0,0.0,0.0,59.999996,0.0,26.0,26.0,26.0,26.0,-0.051444444444444404,0.28200000000000003,0.036925,293.213,-2.6713,-2.7398,-1.5076,-1.5507,-242.25,216.0075,190.78775,0.0,0.0,0.0,0.0,0.021033333333333334,-5.498166666666667,-5.498166666666667,-0.5228,-0.6240000000000001,-0.01966666666666672,1.7389999999999999,66.934,-0.0485,-0.209425,-0.02400000000000002,100.0,1.0,1.0,206.4,0.0,0.0,0.0,0.0,0.0,0.0,0.0,8748.5,0.0,55.0,5.0,240.93333333333334,0.0,0.0,0.0,0.0,0.0,0.0,1.0,0.0,0.5069999999999979,0.5069999999999979,0.0,0.0,0.0,55.0,616.79921,10000.0,85.000001,85.000001,85.000001,85.000001,395.0,0.0,0.0,0.0,1.0,166.665,53.604,53.604,47.974000000000004,47.974000000000004,34.0,-22.9175,22.223333333333333,-30.916666666666668,27.6675,0.0,1736.146,-0.3349999999999991,100.0,27.84,26.846,43.053,42.162,0.0,0.0,100.0,0.0,0.0,0.0,0.0,2897.625,2927.2,4200.125,4283.0,306.0063333333333,305.625,314.5535,314.27875,21.9613,20.6465,21.9408,21.4684,314.999998,314.999998,324.999988,324.999988,99.5596,99.50813333333333,99.5668,99.54687142857144,0.052750000000000075,-0.07666666666666666,-0.14916666666666667,0.06983333333333333,-0.041666666666671404,-0.045000000000001705,1.486,1.4835000000000003,38.257999999999996,30.040333333333333,38.129999999999995,35.1775,56.552,35.3735,59.653999999999996,52.412,54.39,34.4265,58.218,50.716499999999996,53.480000000000004,33.9325,58.129,50.11933333333333,-0.10499999999999998,-0.044499999999999984,0.103245,0.10788500000000001,0.0,209.61,209.61,206.4,206.4,0.0,0.0
11,0.0,0.0,0.0,1.0,1.0,0.0,0.0,1.0,0.0,100.0,1.0,1.1856,26.0,0.0,0.0,0.0,59.999996,0.0,26.0,26.0,26.0,26.0,-0.005444444444444474,0.2714000000000001,-0.08475,293.655,-2.6848,-2.7178,-1.5615,-1.5213999999999999,-238.82999999999998,215.98000000000002,190.766875,0.0,0.0,0.0,0.0,0.022600000000000002,-5.498166666666667,-5.498166666666667,-0.5595,-0.06699999999999995,0.0009999999999998899,-0.677,67.07300000000001,-0.0273,-0.232775,-0.16999999999999993,100.0,1.0,1.0,207.0966666666667,0.0,0.0,0.0,0.0,0.0,0.0,0.0,8778.1,0.0,55.0,5.0,241.43333333333334,1.0,0.0,0.0,0.0,0.0,0.0,1.0,0.0,0.5579999999999998,0.5579999999999998,0.0,0.0,1.0,55.0,616.79921,10000.0,85.000001,85.000001,85.000001,85.000001,395.0,0.0,0.0,0.0,1.0,166.665,53.055,53.055,49.347,49.347,34.0,-24.825,23.423333333333332,-26.53,24.7725,0.0,1736.095,-0.3899999999999988,100.0,27.466,27.271,42.417,42.128,0.0,0.0,100.0,0.0,0.0,0.0,0.0,3154.375,3007.0,3794.625,3886.9,305.4033333333333,305.1433333333333,315.68475,315.24175,21.9708,20.651699999999998,21.951,21.4772,314.999998,314.999998,324.999988,324.999988,99.5596,99.50815,99.56694285714286,99.547,0.06225000000000014,-0.06666666666666665,-0.133,0.091,-0.061666666666667425,-0.05833333333333002,1.6179999999999999,1.6155,38.318,30.073333333333334,38.194,35.233000000000004,56.535,35.411,59.688,52.47,54.373999999999995,34.461,58.2495,50.772,53.464,33.9655,58.1575,50.174,-0.10899999999999999,-0.04849999999999999,0.102385,0.10666,0.0,210.04500000000002,210.055,207.0966666666667,207.0966666666667,0.0,0.0
12,0.0,0.0,0.0,1.0,1.0,0.0,0.0,1.0,0.0,100.0,1.0,1.1856,26.0,0.0,0.0,0.0,59.999996,0.0,26.0,26.0,26.0,26.0,-0.00477777777777777,0.28459999999999996,0.025675,293.106,-2.70175,-2.7084,-1.5327000000000002,-1.5737,-235.61,215.9525,190.74625,0.0,0.0,0.0,0.0,0.025466666666666665,-5.498166666666667,-5.498166666666667,-0.5445,0.3025,-0.010555555555555873,-0.7389999999999999,67.21000000000001,-0.0074,-0.206375,-0.2160000000000002,100.0,1.0,1.0,207.31666666666666,0.0,0.0,0.0,0.0,0.0,0.0,0.0,8787.4,0.0,55.0,5.0,241.92333333333335,0.0,0.0,0.0,0.0,0.0,0.0,1.0,0.0,0.6059999999999981,0.6059999999999981,0.0,0.0,0.0,55.0,616.79921,10000.0,85.000001,85.000001,85.000001,85.000001,395.0,0.0,0.0,0.0,1.0,166.665,52.963,52.963,48.157,48.157,34.0,-24.669999999999998,24.041666666666664,-30.256666666666668,28.85,0.0,1736.048,-0.41000000000000014,100.0,27.379,27.389,42.368,42.141999999999996,0.0,0.0,100.0,0.0,0.0,0.0,0.0,3177.375,3035.5,4250.5,4137.6,305.30266666666665,305.0726666666667,314.58175,314.5815,21.9798,20.6568,21.9607,21.485599999999998,314.999998,314.999998,324.999988,324.999988,99.55961428571429,99.50815,99.56707142857142,99.54714285714286,0.07600000000000007,-0.055333333333333234,-0.1275,0.1085,-0.05333333333332746,-0.03833333333332689,1.5150000000000001,1.512,38.373999999999995,30.105,38.254000000000005,35.285,56.521,35.446,59.7235,52.5255,54.36,34.4935,58.2825,50.826,53.449,33.9965,58.188,50.226333333333336,-0.10499999999999998,-0.04200000000000004,0.10783000000000001,0.10462500000000001,0.0,210.495,210.49,207.31666666666666,207.31666666666666,0.0,0.0
13,0.0,0.0,0.0,1.0,1.0,0.0,0.0,1.0,0.0,100.0,1.0,1.1856,26.0,0.0,0.0,0.0,59.999996,0.0,26.0,26.0,26.0,26.0,0.014777777777777779,0.2843,0.03325,292.77,-2.7137000000000002,-2.6987,-1.5678,-1.5603,-232.38,215.925,190.72575,0.0,0.0,0.0,0.0,0.02676666666666667,-5.498166666666667,-5.498166666666667,-0.5386000000000001,-0.1140000000000001,-0.005111111111111288,-0.46099999999999985,67.344,0.0054,-0.21352500000000002,-0.30799999999999983,100.0,1.0,1.0,207.68,0.0,0.0,0.0,0.0,0.0,0.0,0.0,8802.8,0.0,55.0,5.0,242.41,1.0,0.0,0.0,0.0,0.0,0.0,1.0,0.0,0.6539999999999999,0.6539999999999999,0.0,0.0,1.0,55.0,616.79921,10000.0,85.000001,85.000001,85.000001,85.000001,395.0,0.0,0.0,0.0,1.0,166.665,52.704,52.704,48.111,48.111,34.0,-24.2275,24.65,-30.05333333333333,30.1575,0.0,1736.0,-0.46999999999999886,100.0,27.686,27.587,42.614000000000004,42.672,0.0,0.0,100.0,0.0,0.0,0.0,0.0,3205.0,3021.0,4219.625,4238.8,305.24833333333333,305.111,314.6205,314.31475,21.9888,20.6618,21.9705,21.4941,314.999998,314.999998,324.999988,324.999988,99.55961428571429,99.50816666666667,99.56721428571429,99.54728571428572,0.09275000000000011,-0.03533333333333322,-0.11716666666666667,0.11683333333333333,-0.036666666666668846,-0.05666666666667197,1.4969999999999999,1.483,38.43,30.136666666666667,38.316,35.338,56.507999999999996,35.480000000000004,59.759,52.584,54.348,34.525,58.316,50.882,53.436,34.027,58.2185,50.281333333333336,-0.11649999999999994,-0.033500000000000085,0.114085,0.11167500000000001,0.0,210.88,210.905,207.68,207.68,0.0,0.0
14,0.0,0.0,0.0,1.0,1.0,0.0,0.0,1.0,0.0,100.0,1.0,1.1856,26.0,0.0,0.0,0.0,59.999996,0.0,26.0,26.0,26.0,26.0,0.019888888888888845,0.28190000000000004,-0.012325000000000001,292.923,-2.7036,-2.6462,-1.5726,-1.5342,-228.94,215.8975,190.7045,0.0,0.0,0.0,0.0,0.02876666666666667,-5.498166666666667,-5.498166666666667,-0.5493,-0.09800000000000009,0.024222222222222145,1.2359999999999998,67.48400000000001,0.0173,-0.226475,-0.4560000000000004,100.0,1.0,1.0,208.18333333333334,0.0,0.0,0.0,0.0,0.0,0.0,0.0,8824.2,0.0,55.0,5.0,242.91333333333336,0.0,0.0,0.0,0.0,0.0,0.0,1.0,0.0,0.7049999999999983,0.7049999999999983,0.0,0.0,0.0,55.0,616.79921,10000.0,85.000001,85.000001,85.000001,85.000001,395.0,0.0,0.0,0.0,1.0,166.665,52.689,52.689,48.248,48.248,34.0,-21.88,26.3,-26.44,29.6275,0.0,1735.947,-0.48499999999999943,100.0,27.81,27.589,42.673,42.796,0.0,0.0,100.0,0.0,0.0,0.0,0.0,2981.5,3213.5,3977.0,4183.8,305.71366666666665,304.7056666666667,315.14475,314.549,21.9983,20.6672,21.9808,21.5031,314.999998,314.999998,324.999988,324.999988,99.55962857142858,99.50816666666667,99.56735714285715,99.54742857142857,0.10550000000000015,-0.022666666666666613,-0.08616666666666667,0.1305,-0.03333333333333144,-0.06333333333333258,1.5354999999999999,1.5354999999999999,38.489000000000004,30.170333333333332,38.379999999999995,35.3945,56.494,35.516,59.795,52.6445,54.335,34.559,58.3495,50.9405,53.423,34.0595,58.249,50.33833333333333,-0.10849999999999993,-0.03750000000000009,0.10597500000000001,0.10307000000000001,0.0,211.3,211.335,208.18333333333334,208.18333333333334,0.0,0.0
15,0.0,0.0,0.0,1.0,1.0,0.0,0.0,1.0,0.0,100.0,1.0,1.1856,26.0,0.0,0.0,0.0,59.999996,0.0,26.0,26.0,26.0,26.0,0.040000000000000036,0.2903,0.01545,292.862,-2.71235,-2.6067,-1.5961,-1.4805000000000001,-225.7,215.8725,190.684,0.0,0.0,0.0,0.0,0.03066666666666667,-5.498166666666667,-5.498166666666667,-0.5408000000000001,0.276,0.04899999999999993,0.8860000000000001,67.617,0.0263,-0.21002500000000002,-0.5379999999999994,100.0,1.0,1.0,208.56333333333333,0.0,0.0,0.0,0.0,0.0,0.0,0.0,8840.3,0.0,55.0,5.0,243.39,1.0,0.0,0.0,0.0,0.0,0.0,1.0,0.0,0.7530000000000001,0.7530000000000001,0.0,0.0,1.0,55.0,616.79921,10000.0,85.000001,85.000001,85.000001,85.000001,395.0,0.0,0.0,0.0,1.0,333.33500000000004,52.856,52.856,48.172,48.172,34.0,-20.7975,26.11,-26.066666666666666,31.6225,0.0,1735.899,-0.41999999999999993,100.0,27.84,27.695,42.516999999999996,42.902,0.0,0.0,100.0,0.0,0.0,0.0,0.0,2877.875,3193.4,3986.5,4373.7,306.041,304.7583333333333,315.15225,314.11375,22.0072,20.6724,21.9904,21.5116,314.999998,314.999998,324.999988,324.999988,99.55964285714286,99.50816666666667,99.56748571428571,99.54755714285714,0.1120000000000001,-0.014666666666666606,-0.07116666666666667,0.14916666666666667,-0.01999999999999602,-0.04333333333332945,1.5305,1.5025,38.545,30.202333333333335,38.44,35.4475,56.482,35.55,59.8275,52.702,54.324,34.5905,58.3795,50.9955,53.41,34.0895,58.2765,50.39266666666666,-0.11299999999999999,-0.03950000000000009,0.10095000000000001,0.10583500000000001,0.0,211.715,211.745,208.56333333333333,208.56333333333333,0.0,0.0
16,0.0,0.0,0.0,1.0,1.0,0.0,0.0,1.0,0.0,100.0,1.0,1.1856,26.0,0.0,0.0,0.0,59.999996,0.0,26.0,26.0,26.0,26.0,0.043777777777777915,0.27649999999999997,-0.011675000000000001,292.862,-2.767,-2.6213,-1.5672000000000001,-1.5455999999999999,-222.05,215.8425,190.66075,0.0,0.0,0.0,0.0,0.03276666666666667,-5.498166666666667,-5.498166666666667,-0.5612,-0.5775000000000001,0.03222222222222215,0.07299999999999995,67.764,0.0329,-0.227025,-0.46200000000000063,100.0,1.0,1.0,209.04333333333335,0.0,0.0,0.0,0.0,0.0,0.0,0.0,8860.6,0.0,55.0,5.0,243.92666666666668,0.0,0.0,0.0,0.0,0.0,0.0,1.0,0.0,0.8069999999999986,0.8069999999999986,0.0,0.0,0.0,55.0,616.79921,10000.0,85.000001,85.000001,85.000001,85.000001,395.0,0.0,0.0,0.0,1.0,166.665,52.612,52.612,48.065,48.065,34.0,-22.65,27.10333333333333,-25.33,30.4375,0.0,1735.847,-0.3200000000000003,100.0,27.545,27.751,42.747,43.041,0.0,0.0,100.0,0.0,0.0,0.0,0.0,3073.75,3270.2,3952.25,4093.2,305.60433333333333,304.56666666666666,315.205,314.73125,22.017,20.6781,22.0014,21.5211,314.999998,314.999998,324.999988,324.999988,99.55965714285715,99.50816666666667,99.56764285714286,99.54771428571429,0.11525000000000007,-0.01200000000000001,-0.06933333333333333,0.15716666666666665,-0.03499999999999659,-0.061666666666667425,1.54,1.5285000000000002,38.605999999999995,30.238333333333333,38.509,35.507,56.465,35.588499999999996,59.8665,52.765,54.308,34.626,58.416,51.057,53.394,34.124,58.31,50.452666666666666,-0.10549999999999993,-0.050999999999999934,0.10562500000000001,0.10493000000000001,0.0,212.155,212.195,209.04333333333335,209.04333333333335,0.0,0.0
17,0.0,0.0,0.0,1.0,1.0,0.0,0.0,1.0,0.0,100.0,1.0,1.1856,26.0,0.0,0.0,0.0,59.999996,0.0,26.0,26.0,26.0,26.0,0.01677777777777778,0.2853000000000001,-0.013375000000000001,292.587,-2.7279,-2.6055,-1.6057000000000001,-1.5072999999999999,-218.79,215.82,190.639625,0.0,0.0,0.0,0.0,0.03466666666666667,-5.498166666666667,-5.498166666666667,-0.5493,0.43399999999999994,0.010000000000000009,0.5640000000000001,67.896,0.0304,-0.20650000000000002,-0.3099999999999996,100.0,1.0,1.0,209.39,0.0,0.0,0.0,0.0,0.0,0.0,0.0,8875.2,0.0,55.0,5.0,244.39666666666665,1.0,0.0,0.0,0.0,0.0,0.0,1.0,0.0,0.8550000000000004,0.8550000000000004,0.0,0.0,1.0,55.0,616.79921,10000.0,85.000001,85.000001,85.000001,85.000001,395.0,0.0,0.0,0.0,1.0,166.665,52.536,52.536,47.867,47.867,34.0,-22.365,25.286666666666665,-28.77,30.8425,0.0,1735.799,-0.33999999999999986,100.0,27.958,27.918,42.603,42.952,0.0,0.0,100.0,0.0,0.0,0.0,0.0,3069.125,3122.9,4250.25,4276.6,305.51933333333335,305.0006666666667,314.60025,314.387,22.026,20.6834,22.0111,21.5296,314.999998,314.999998,324.999988,324.999988,99.55967142857143,99.50818333333333,99.56778571428572,99.54785714285714,0.11575000000000024,-0.01766666666666672,-0.081,0.14583333333333334,-0.03833333333332689,-0.046666666666666856,1.5230000000000001,1.5245000000000002,38.662,30.271,38.569,35.56,56.454,35.6235,59.8995,52.8215,54.297,34.658500000000004,58.447,51.111000000000004,53.382,34.1555,58.338,50.506,-0.10599999999999998,-0.050000000000000044,0.10608000000000001,0.10346000000000001,0.0,212.61,212.615,209.39,209.39,0.0,0.0
18,0.0,0.0,0.0,1.0,1.0,0.0,0.0,1.0,0.0,100.0,1.0,1.1856,26.0,0.0,0.0,0.0,59.999996,0.0,26.0,26.0,26.0,26.0,0.016666666666666607,0.27590000000000003,-0.009925,292.496,-2.74915,-2.5877,-1.613,-1.4639,-215.53,215.7975,190.6185,0.0,0.0,0.0,0.0,0.03656666666666667,-5.498166666666667,-5.498166666666667,-0.5596,-0.482,0.023555555555555552,0.9660000000000002,68.026,0.027200000000000002,-0.22195,-0.2939999999999996,100.0,1.0,1.0,209.8,0.0,0.0,0.0,0.0,0.0,0.0,0.0,8892.6,0.0,55.0,5.0,244.86666666666667,0.0,0.0,0.0,0.0,0.0,0.0,1.0,0.0,0.9029999999999987,0.9029999999999987,0.0,0.0,0.0,55.0,616.79921,10000.0,85.000001,85.000001,85.000001,85.000001,395.0,0.0,0.0,0.0,1.0,166.665,52.383,52.383,47.729,47.729,34.0,-23.1175,26.863333333333333,-27.82,30.015,0.0,1735.751,-0.379999999999999,100.0,27.795,27.778,42.968,43.264,0.0,0.0,100.0,0.0,0.0,0.0,0.0,3111.375,3305.1,4088.0,4215.1,305.4356666666667,304.50466666666665,314.929,314.502,22.0348,20.6885,22.0209,21.5381,314.999998,314.999998,324.999988,324.999988,99.55968571428572,99.50818333333333,99.56791428571428,99.54798571428572,0.1107499999999999,-0.015333333333333199,-0.08466666666666667,0.14983333333333335,-0.046666666666666856,-0.05666666666667197,1.522,1.5125000000000002,38.718,30.302999999999997,38.631,35.6135,56.441,35.657,59.9345,52.879,54.285,34.689499999999995,58.4795,51.1665,53.369,34.1855,58.3675,50.56033333333333,-0.10599999999999998,-0.0475000000000001,0.10910500000000001,0.11431500000000001,0.0,212.99,213.0,209.8,209.8,0.0,0.0
19,0.0,0.0,0.0,1.0,1.0,0.0,0.0,1.0,0.0,100.0,1.0,1.1856,26.0,0.0,0.0,0.0,59.999996,0.0,26.0,26.0,26.0,26.0,0.03511111111111109,0.2842,0.061025,292.007,-2.67095,-2.6848,-1.6269,-1.4485000000000001,-212.06,215.7725,190.595875,0.0,0.0,0.0,0.0,0.0386,-5.498166666666667,-5.498166666666667,-0.5507000000000001,0.791,0.02822222222222215,-0.6720000000000002,68.164,0.0251,-0.212475,-0.2759999999999998,100.0,1.0,1.0,210.19,0.0,0.0,0.0,0.0,0.0,0.0,0.0,8909.2,0.0,55.0,5.0,245.36,1.0,0.0,0.0,0.0,0.0,0.0,1.0,0.0,0.9540000000000006,0.9540000000000006,0.0,0.0,1.0,55.0,616.79921,10000.0,85.000001,85.000001,85.000001,85.000001,395.0,0.0,0.0,0.0,1.0,333.33500000000004,51.788,51.788,47.47,47.47,34.0,-23.0275,26.183333333333334,-30.18,30.525000000000002,0.0,1735.698,-0.33999999999999986,100.0,28.231,28.466,42.704,43.334,0.0,0.0,100.0,0.0,0.0,0.0,0.0,3179.5,3149.0,4288.125,4394.9,305.245,304.54333333333335,314.56975,314.05075,22.0443,20.6941,22.0312,21.5472,314.999998,314.999998,324.999988,324.999988,99.5597,99.50818333333333,99.56805714285714,99.54812857142858,0.10824999999999996,-0.030333333333333323,-0.0945,0.133,-0.045000000000001705,-0.04999999999999716,1.4929999999999999,1.4935,38.777,30.33833333333333,38.695,35.67,56.429,35.695,59.969,52.939,54.274,34.725,58.512,51.2245,53.357,34.2195,58.397,50.617333333333335,-0.11049999999999993,-0.052999999999999936,0.10698500000000001,0.10443500000000001,0.0,213.44,213.465,210.19,210.19,0.0,0.0
20,0.0,0.0,0.0,1.0,1.0,0.0,0.0,1.0,0.0,100.0,1.0,1.1856,26.0,0.0,0.0,0.0,59.999996,0.0,26.0,26.0,26.0,26.0,0.03666666666666685,0.266,-0.03615,292.45,-2.76555,-2.6413,-1.5476,-1.5744,-208.37,215.75,190.572125,0.0,0.0,0.0,0.0,0.04073333333333334,-5.498166666666667,-5.498166666666667,-0.5581,-1.0805000000000002,0.022666666666666613,-1.1099999999999999,68.311,0.0246,-0.22692500000000002,-0.24799999999999933,100.0,1.0,1.0,210.60333333333335,0.0,0.0,0.0,0.0,0.0,0.0,0.0,8926.7,0.0,55.0,5.0,245.89333333333335,0.0,0.0,0.0,0.0,0.0,0.0,0.0,0.0,1.0079999999999991,1.0079999999999991,0.0,0.0,0.0,55.0,616.79921,10000.0,85.000001,85.000001,85.000001,85.000001,395.0,0.0,0.0,0.0,1.0,166.665,52.704,52.704,47.333,47.333,34.0,-22.884999999999998,24.681666666666665,-27.64666666666667,30.1275,0.0,1735.645,-0.27999999999999936,100.0,27.717,28.099,43.275999999999996,43.766999999999996,0.0,0.0,100.0,0.0,0.0,0.0,0.0,3068.0,3054.8,4132.625,4108.6,305.755,305.0226666666667,314.80825,314.57925,22.0541,20.6999,22.0422,21.5569,314.999998,314.999998,324.999988,324.999988,99.55971428571429,99.5082,99.56821428571429,99.54828571428571,0.10524999999999984,-0.030333333333333323,-0.0885,0.13366666666666666,-0.036666666666668846,-0.03333333333333144,1.49,1.4929999999999999,38.838,30.374333333333333,38.763999999999996,35.7305,56.412,35.733000000000004,60.0095,53.0045,54.257999999999996,34.7605,58.55,51.288,53.34,34.2535,58.4315,50.67933333333333,-0.10749999999999993,-0.05049999999999999,0.10873500000000001,0.10655,0.0,213.845,213.865,210.60333333333335,210.60333333333335,0.0,0.0
21,0.0,0.0,0.0,1.0,1.0,0.0,0.0,1.0,0.0,100.0,1.0,1.1856,26.0,0.0,0.0,0.0,59.999996,0.0,26.0,26.0,26.0,26.0,0.006444444444444475,0.28500000000000014,-0.0721,292.709,-2.72315,-2.6541,-1.6117,-1.537,-205.29,215.73000000000002,190.551875,0.0,0.0,0.0,0.0,0.0425,-5.498166666666667,-5.498166666666667,-0.5766,0.32599999999999996,0.007333333333333192,0.371,68.428,0.0241,-0.22435000000000002,-0.2679999999999998,100.0,1.0,1.0,211.14666666666668,0.0,0.0,0.0,0.0,0.0,0.0,0.0,8949.8,0.0,55.0,5.0,246.31333333333333,1.0,0.0,0.0,0.0,0.0,0.0,0.0,0.0,1.0530000000000008,1.0530000000000008,0.0,0.0,1.0,55.0,616.79921,10000.0,85.000001,85.000001,85.000001,85.000001,395.0,0.0,0.0,0.0,1.0,166.665,52.414,52.414,48.278999999999996,48.278999999999996,34.0,-23.085,25.746666666666666,-26.96333333333333,28.735,0.0,1735.601,-0.3100000000000005,100.0,28.098,28.003,42.852000000000004,43.208,0.0,0.0,100.0,0.0,0.0,0.0,0.0,3081.125,3151.2,4009.25,4023.1000000000004,305.488,304.93833333333333,315.19275,314.9795,22.0623,20.7048,22.0512,21.5647,314.999998,314.999998,324.999988,324.999988,99.55972857142856,99.5082,99.56834285714285,99.54841428571429,0.10075000000000012,-0.02299999999999991,-0.08750000000000001,0.14250000000000002,-0.04833333333333201,-0.06499999999999773,1.585,1.5715,38.89,30.405,38.82,35.7795,56.400999999999996,35.766,60.038,53.0545,54.247,34.791,58.576,51.336,53.329,34.2825,58.4555,50.726333333333336,-0.09499999999999997,-0.05600000000000005,0.10567000000000001,0.10863,0.0,214.245,214.265,211.14666666666668,211.14666666666668,0.0,0.0
22,0.0,0.0,0.0,1.0,1.0,0.0,0.0,1.0,0.0,100.0,1.0,1.1856,26.0,0.0,0.0,0.0,59.999996,0.0,26.0,26.0,26.0,26.0,0.038555555555555676,0.27770000000000006,0.014275000000000001,292.282,-2.6641,-2.6986,-1.6128,-1.518,-201.8,215.70749999999998,190.528125,0.0,0.0,0.0,0.0,0.044533333333333334,-5.498166666666667,-5.498166666666667,-0.5573,0.07150000000000001,0.018888888888888955,-0.3929999999999998,68.56700000000001,0.0213,-0.20365,-0.2400000000000002,100.0,1.0,1.0,211.36666666666667,0.0,0.0,0.0,0.0,0.0,0.0,0.0,8959.1,0.0,55.0,5.0,246.81333333333333,0.0,0.0,0.0,0.0,0.0,0.0,0.0,0.0,1.1039999999999992,1.1039999999999992,0.0,0.0,0.0,55.0,616.79921,10000.0,85.000001,85.000001,85.000001,85.000001,395.0,0.0,0.0,0.0,1.0,333.33500000000004,52.582,52.582,47.15,47.15,34.0,-21.435,24.7,-29.89666666666667,30.56,0.0,1735.548,-0.3949999999999996,100.0,27.966,28.254,43.037,43.518,0.0,0.0,100.0,0.0,0.0,0.0,0.0,2992.125,3010.5,4287.875,4332.2,305.84766666666667,305.069,314.53225,314.1655,22.0717,20.7103,22.0616,21.5738,314.999998,314.999998,324.999988,324.999988,99.55974285714285,99.5082,99.56848571428571,99.54857142857144,0.10650000000000004,-0.03499999999999992,-0.0915,0.12216666666666667,-0.05333333333332746,-0.046666666666666856,1.491,1.4885000000000002,38.948,30.439333333333334,38.885,35.8365,56.388,35.803,60.0755,53.115,54.235,34.825,58.6115,51.3945,53.316,34.3155,58.4875,50.78366666666666,-0.10799999999999998,-0.04899999999999993,0.10586500000000001,0.1014,0.0,214.69,214.685,211.36666666666667,211.36666666666667,0.0,0.0
23,0.0,0.0,0.0,1.0,1.0,0.0,0.0,1.0,0.0,100.0,1.0,1.1856,26.0,0.0,0.0,0.0,59.999996,0.0,26.0,26.0,26.0,26.0,0.022333333333333316,0.25970000000000004,-0.019100000000000002,292.236,-2.6908,-2.6544,-1.6629,-1.4959,-198.3,215.6875,190.504625,0.0,0.0,0.0,0.0,0.04656666666666667,-5.498166666666667,-5.498166666666667,-0.5754,-0.2310000000000001,0.018333333333333313,0.46799999999999997,68.701,0.0252,-0.228975,-0.3260000000000005,100.0,1.0,1.0,211.90333333333334,0.0,0.0,0.0,0.0,0.0,0.0,0.0,8981.9,0.0,55.0,5.0,247.29666666666668,1.0,0.0,0.0,0.0,0.0,0.0,0.0,0.0,1.1550000000000011,1.1550000000000011,0.0,0.0,1.0,55.0,616.79921,10000.0,85.000001,85.000001,85.000001,85.000001,395.0,0.0,0.0,0.0,1.0,166.665,51.849000000000004,51.849000000000004,48.08,48.08,34.0,-23.3675,26.143333333333334,-27.39,28.7575,0.0,1735.499,-0.3200000000000003,100.0,28.326999999999998,28.209,43.219,43.647,0.0,0.0,100.0,0.0,0.0,0.0,0.0,3204.5,3202.0,4006.875,4082.1000000000004,305.0606666666667,304.73966666666666,315.20825,314.8575,22.081,20.7159,22.0719,21.583,314.999998,314.999998,324.999988,324.999988,99.55975714285714,99.50821666666667,99.56862857142858,99.5487,0.11324999999999985,-0.026666666666666616,-0.08016666666666668,0.1405,-0.051666666666669414,-0.05833333333333002,1.552,1.5305,39.006,30.474333333333334,38.95,35.894,56.375,35.84,60.111,53.1755,54.223,34.86,58.6445,51.453,53.303,34.349000000000004,58.5175,50.841,-0.10599999999999998,-0.05400000000000005,0.10425500000000001,0.10354000000000001,0.0,215.075,215.085,211.90333333333334,211.90333333333334,0.0,0.0
24,0.0,0.0,0.0,1.0,1.0,0.0,0.0,1.0,0.0,100.0,1.0,1.1856,26.0,0.0,0.0,0.0,59.999996,0.0,26.0,26.0,26.0,26.0,0.023333333333333428,0.268,-0.047325,292.465,-2.71785,-2.6612999999999998,-1.5821,-1.5235,-195.0,215.67000000000002,190.482125,0.0,0.0,0.0,0.0,0.0485,-5.498166666666667,-5.498166666666667,-0.5820000000000001,-0.4555,0.02922222222222204,1.2030000000000003,68.82900000000001,0.0262,-0.21975,-0.3200000000000003,100.0,1.0,1.0,212.21666666666667,0.0,0.0,0.0,0.0,0.0,0.0,0.0,8995.1,0.0,55.0,5.0,247.75666666666666,0.0,0.0,0.0,0.0,0.0,0.0,0.0,0.0,1.2029999999999994,1.2029999999999994,0.0,0.0,0.0,55.0,616.79921,10000.0,85.000001,85.000001,85.000001,85.000001,395.0,0.0,0.0,0.0,1.0,333.33500000000004,52.841,52.841,47.302,47.302,34.0,-21.085,25.02,-28.2,30.925,0.0,1735.45,-0.35999999999999943,100.0,28.085,27.954,43.230000000000004,43.591,0.0,0.0,100.0,0.0,0.0,0.0,0.0,2895.875,3076.2,4212.375,4207.0,306.015,305.15933333333334,314.59275,314.5315,22.0897,20.721,22.081699999999998,21.5916,314.999998,314.999998,324.999988,324.999988,99.55977142857142,99.50821666666667,99.56875714285714,99.54885714285714,0.11025000000000018,-0.025666666666666726,-0.07716666666666668,0.15,-0.03499999999999659,-0.06333333333333258,1.499,1.4905,39.06,30.506666666666668,39.01,35.947,56.361999999999995,35.8735,60.1445,53.2315,54.21,34.891,58.676,51.507,53.289,34.3785,58.545500000000004,50.89366666666667,-0.10949999999999993,-0.0495000000000001,0.107505,0.11091000000000001,0.0,215.46,215.5,212.21666666666667,212.21666666666667,0.0,0.0
25,0.0,0.0,0.0,1.0,1.0,0.0,0.0,1.0,0.0,100.0,1.0,1.1856,26.0,0.0,0.0,0.0,59.999996,0.0,26.0,26.0,26.0,26.0,0.045222222222222275,0.27170000000000005,-0.032100000000000004,292.297,-2.78835,-2.6175,-1.5998,-1.5258,-191.49,215.65,190.456875,0.0,0.0,0.0,0.0,0.05053333333333333,-5.498166666666667,-5.498166666666667,-0.6074,-0.023500000000000076,0.031444444444444386,-1.035,68.962,0.0251,-0.222675,-0.29600000000000026,100.0,1.0,1.0,212.71666666666667,0.0,0.0,0.0,0.0,0.0,0.0,0.0,9016.3,0.0,55.0,5.0,248.23666666666668,1.0,0.0,0.0,0.0,0.0,0.0,0.0,0.0,1.2540000000000013,1.2540000000000013,0.0,0.0,1.0,55.0,616.79921,10000.0,85.000001,85.000001,85.000001,85.000001,395.0,0.0,0.0,0.0,1.0,166.665,51.849000000000004,51.849000000000004,47.943,47.943,34.0,-25.294999999999998,26.778333333333332,-26.48,29.19,0.0,1735.4,-0.3949999999999996,100.0,27.873,28.33,42.918,43.476,0.0,0.0,100.0,0.0,0.0,0.0,0.0,3298.75,3273.6,3985.25,4093.1000000000004,305.105,304.37233333333336,315.2555,314.76625,22.0988,20.7267,22.0919,21.6006,314.999998,314.999998,324.999988,324.999988,99.55977142857142,99.50821666666667,99.56891428571429,99.549,0.10225000000000017,-0.02400000000000002,-0.08283333333333333,0.13883333333333334,-0.036666666666668846,-0.05833333333333002,1.5655000000000001,1.557,39.117999999999995,30.541666666666664,39.074,36.0035,56.347,35.9105,60.178,53.289500000000004,54.196,34.9255,58.7065,51.563,53.275,34.411500000000004,58.573499999999996,50.94833333333334,-0.11049999999999993,-0.046499999999999986,0.101275,0.103025,0.0,215.87,215.905,212.71666666666667,212.71666666666667,0.0,0.0
26,0.0,0.0,0.0,1.0,1.0,0.0,0.0,1.0,0.0,100.0,1.0,1.1856,26.0,0.0,0.0,0.0,59.999996,0.0,26.0,26.0,26.0,26.0,0.03666666666666685,0.27380000000000004,0.069875,291.229,-2.68925,-2.7122,-1.5965,-1.5192,-187.76,215.6325,190.429625,0.0,0.0,0.0,0.0,0.052700000000000004,-5.498166666666667,-5.498166666666667,-0.5724,0.4165,0.01677777777777778,-0.5960000000000001,69.106,0.0267,-0.201875,-0.3460000000000001,100.0,1.0,1.0,212.91333333333333,0.0,0.0,0.0,0.0,0.0,0.0,0.0,9024.6,0.0,55.0,5.0,248.75333333333333,0.0,0.0,0.0,0.0,0.0,0.0,0.0,0.0,1.3079999999999998,1.3079999999999998,0.0,0.0,0.0,55.0,616.79921,10000.0,85.000001,85.000001,85.000001,85.000001,395.0,0.0,0.0,0.0,1.0,166.665,51.59,51.59,46.326,46.326,34.0,-23.107499999999998,25.161666666666665,-31.776666666666667,33.6775,0.0,1735.346,-0.4450000000000003,100.0,28.701,28.919,43.482,43.985,0.0,0.0,100.0,0.0,0.0,0.0,0.0,3212.625,3036.3,4549.25,4542.9,305.2336666666667,304.99033333333335,313.862,313.6775,22.1088,20.7327,22.102899999999998,21.6103,314.999998,314.999998,324.999988,324.999988,99.5598,99.50821666666667,99.56907142857143,99.54915714285714,0.11549999999999994,-0.03299999999999992,-0.08366666666666667,0.138,-0.046666666666666856,-0.04333333333332945,1.4295,1.4010000000000002,39.18,30.579666666666668,39.143,36.064499999999995,56.336,35.951499999999996,60.218,53.3545,54.186,34.963499999999996,58.7445,51.626,53.263,34.448,58.6075,51.01,-0.12149999999999994,-0.04849999999999999,0.10366,0.10766500000000001,0.0,216.36,216.37,212.91333333333333,212.91333333333333,0.0,0.0
27,0.0,0.0,0.0,1.0,1.0,0.0,0.0,1.0,0.0,100.0,1.0,1.1856,26.0,0.0,0.0,0.0,59.999996,0.0,26.0,26.0,26.0,26.0,0.04366666666666674,0.2639,-0.033600000000000005,291.748,-2.70505,-2.6553,-1.5889,-1.5886,-184.64999999999998,215.6175,190.408,0.0,0.0,0.0,0.0,0.054533333333333336,-5.498166666666667,-5.498166666666667,-0.596,-0.9645000000000001,0.023111111111111082,0.726,69.22200000000001,0.027800000000000002,-0.24072500000000002,-0.4320000000000004,100.0,1.0,1.0,213.4,0.0,0.0,0.0,0.0,0.0,0.0,0.0,9045.2,0.0,55.0,5.0,249.17666666666668,1.0,0.0,0.0,0.0,0.0,0.0,0.0,0.0,1.352999999999998,1.352999999999998,0.0,0.0,1.0,55.0,616.79921,10000.0,85.000001,85.000001,85.000001,85.000001,395.0,0.0,0.0,0.0,1.0,166.665,51.941,51.941,46.677,46.677,34.0,-21.075,26.64666666666667,-26.88,31.517500000000002,0.0,1735.3,-0.4450000000000003,100.0,28.524,28.619,44.037,44.355000000000004,0.0,0.0,100.0,0.0,0.0,0.0,0.0,2967.25,3235.8,4082.25,4109.8,305.79366666666664,304.648,314.90625,314.678,22.1169,20.7377,22.1122,21.6185,314.999998,314.999998,324.999988,324.999988,99.5598,99.50821666666667,99.5692,99.54928571428572,0.12325000000000008,-0.022666666666666613,-0.07033333333333333,0.157,-0.03499999999999659,-0.03999999999999915,1.512,1.4745,39.230000000000004,30.610666666666667,39.201,36.116,56.324,35.984,60.251,53.409,54.174,34.9935,58.775,51.678,53.251000000000005,34.4775,58.6355,51.061,-0.11049999999999993,-0.052000000000000046,0.10294500000000001,0.105495,0.0,216.66,216.675,213.4,213.4,0.0,0.0
28,0.0,0.0,0.0,1.0,1.0,0.0,0.0,1.0,0.0,100.0,1.0,1.1856,26.0,0.0,0.0,0.0,59.999996,0.0,26.0,26.0,26.0,26.0,0.03666666666666685,0.26750000000000007,-0.044675,291.962,-2.68715,-2.6524,-1.6301999999999999,-1.5626,-180.89999999999998,215.6,190.381125,0.0,0.0,0.0,0.0,0.0567,-5.498166666666667,-5.498166666666667,-0.6006,0.6485,0.010999999999999899,0.5609999999999999,69.36,0.0291,-0.21427500000000002,-0.4660000000000002,100.0,1.0,1.0,213.92000000000002,0.0,0.0,0.0,0.0,0.0,0.0,0.0,9067.3,0.0,55.0,5.0,249.66666666666666,0.0,0.0,0.0,0.0,0.0,0.0,0.0,0.0,1.407,1.407,0.0,0.0,0.0,55.0,616.79921,10000.0,85.000001,85.000001,85.000001,85.000001,395.0,0.0,0.0,0.0,1.0,166.665,51.926,51.926,47.379,47.379,34.0,-21.09,26.818333333333335,-27.493333333333332,30.8625,0.0,1735.245,-0.4900000000000002,100.0,28.596,28.521,43.378,43.843,0.0,0.0,100.0,0.0,0.0,0.0,0.0,3022.0,3199.8,4130.375,4182.8,305.571,304.745,314.9705,314.6355,22.1267,20.7437,22.1229,21.6281,314.999998,314.999998,324.999988,324.999988,99.55982857142857,99.50823333333334,99.56935714285714,99.54944285714285,0.13100000000000023,-0.010666666666666602,-0.07233333333333333,0.1475,-0.03999999999999915,-0.04833333333333201,1.5585,1.5394999999999999,39.292,30.648333333333333,39.268,36.1755,56.311,36.0235,60.2845,53.4695,54.162,35.0305,58.8065,51.7365,53.238,34.5125,58.6635,51.118,-0.12349999999999994,-0.040000000000000036,0.10729000000000001,0.1019,0.0,217.13,217.16,213.92000000000002,213.92000000000002,0.0,0.0
29,0.0,0.0,0.0,1.0,1.0,0.0,0.0,1.0,0.0,100.0,1.0,1.1856,26.0,0.0,0.0,0.0,59.999996,0.0,26.0,26.0,26.0,26.0,0.06377777777777793,0.2558,-0.001975,291.809,-2.67515,-2.6995,-1.5846,-1.5375,-177.36,215.5875,190.35475,0.0,0.0,0.0,0.0,0.05876666666666667,-5.498166666666667,-5.498166666666667,-0.6058,-0.7050000000000001,0.011888888888888838,-0.7109999999999999,69.495,0.033,-0.21632500000000002,-0.4720000000000004,100.0,1.0,1.0,214.18333333333334,0.0,0.0,0.0,0.0,0.0,0.0,0.0,9078.4,0.0,55.0,5.0,250.15333333333334,1.0,0.0,0.0,0.0,0.0,0.0,0.0,0.0,1.4579999999999984,1.4579999999999984,0.0,0.0,1.0,55.0,616.79921,10000.0,85.000001,85.000001,85.000001,85.000001,395.0,0.0,0.0,0.0,1.0,166.665,52.216,52.216,46.86,46.86,34.0,-22.27,25.82,-28.07,31.490000000000002,0.0,1735.195,-0.4900000000000002,100.0,28.078,28.527,43.701,44.256,0.0,0.0,100.0,0.0,0.0,0.0,0.0,3124.25,3055.7,4173.75,4259.5,305.56333333333333,304.95366666666666,314.755,314.296,22.1358,20.749299999999998,22.1334,21.6373,314.999998,314.999998,324.999988,324.999988,99.55984285714285,99.50823333333334,99.5695,99.54958571428571,0.11375000000000002,-0.018000000000000016,-0.0795,0.14216666666666666,-0.041666666666671404,-0.04999999999999716,1.4795,1.4689999999999999,39.349000000000004,30.683,39.334,36.233000000000004,56.297,36.059,60.3225,53.53,54.149,35.0635,58.841499999999996,51.795500000000004,53.224000000000004,34.5445,58.695499999999996,51.175333333333334,-0.11549999999999994,-0.03950000000000009,0.107855,0.10058500000000001,0.0,217.51,217.54000000000002,214.18333333333334,214.18333333333334,0.0,0.0
30,0.0,0.0,0.0,1.0,1.0,0.0,0.0,1.0,0.0,100.0,1.0,1.1856,26.0,0.0,0.0,0.0,59.999996,0.0,26.0,26.0,26.0,26.0,0.044333333333333336,0.25140000000000007,0.0528,291.214,-2.69025,-2.5892,-1.5577,-1.5932,-174.23000000000002,215.575,190.331375,0.0,0.0,0.0,0.0,0.060566666666666664,-5.498166666666667,-5.498166666666667,-0.6062000000000001,0.7555000000000001,0.012555555555555653,0.5409999999999999,69.608,0.039,-0.22005000000000002,-0.5659999999999998,100.0,1.0,1.0,214.63333333333333,0.0,0.0,0.0,0.0,0.0,0.0,0.0,9097.5,0.0,55.0,5.0,250.56,0.0,0.0,0.0,0.0,0.0,0.0,1.0,0.0,1.5030000000000001,1.5030000000000001,0.0,0.0,0.0,55.0,616.79921,10000.0,85.000001,85.000001,85.000001,85.000001,395.0,0.0,0.0,0.0,1.0,333.33500000000004,50.613,50.613,47.241,47.241,34.0,-23.5025,27.758333333333333,-26.23,31.685,0.0,1735.148,-0.4399999999999995,100.0,29.09,29.119,43.556,44.120999999999995,0.0,0.0,100.0,0.0,0.0,0.0,0.0,3289.75,3356.9,4073.75,4169.4,304.747,304.1206666666667,315.005,314.56375,22.1441,20.7545,22.1424,21.6454,314.999998,314.999998,324.999988,324.999988,99.55985714285714,99.50823333333334,99.56962857142857,99.54972857142857,0.12775000000000025,-0.014333333333333309,-0.06983333333333333,0.151,-0.03499999999999659,-0.04333333333332945,1.5185,1.4994999999999998,39.400999999999996,30.715666666666664,39.39,36.283500000000004,56.289,36.0945,60.3515,53.582,54.141,35.0965,58.869,51.8455,53.215,34.576,58.72,51.224333333333334,-0.12,-0.04699999999999993,0.112625,0.09973000000000001,0.0,217.88,217.92000000000002,214.63333333333333,214.63333333333333,0.0,0.0
31,0.0,0.0,0.0,1.0,1.0,0.0,0.0,1.0,0.0,100.0,1.0,1.1856,26.0,0.0,0.0,0.0,59.999996,0.0,26.0,26.0,26.0,26.0,0.049555555555555575,0.2512000000000001,0.02065,290.909,-2.7766,-2.6202,-1.6048,-1.4901,-170.47,215.5625,190.304125,0.0,0.0,0.0,0.0,0.06276666666666667,-5.498166666666667,-5.498166666666667,-0.5901000000000001,-0.4495,0.02055555555555566,0.7490000000000001,69.748,0.0437,-0.222925,-0.5199999999999996,100.0,1.0,1.0,214.91666666666669,0.0,0.0,0.0,0.0,0.0,0.0,0.0,9109.5,0.0,55.0,5.0,251.06666666666666,1.0,0.0,0.0,0.0,0.0,0.0,1.0,0.0,1.5569999999999986,1.5569999999999986,0.0,0.0,1.0,55.0,616.79921,10000.0,85.000001,85.000001,85.000001,85.000001,395.0,0.0,0.0,0.0,1.0,166.665,51.102,51.102,45.807,45.807,34.0,-22.495,28.46333333333333,-28.183333333333334,33.0,0.0,1735.097,-0.4499999999999993,100.0,28.9,29.172,44.304,44.784,0.0,0.0,100.0,0.0,0.0,0.0,0.0,3127.0,3409.3,4240.0,4326.0,305.4236666666667,304.1863333333333,314.49575,314.1755,22.1539,20.7606,22.1536,21.6553,314.999998,314.999998,324.999988,324.999988,99.55987142857143,99.50825,99.5698,99.54988571428571,0.1342500000000002,-0.010333333333333306,-0.06133333333333334,0.171,-0.03166666666666629,-0.05333333333332746,1.4515,1.444,39.462,30.753666666666668,39.46,36.3455,56.277,36.1345,60.3925,53.6485,54.129999999999995,35.134,58.907,51.9095,53.202,34.612,58.7545,51.287,-0.121,-0.04899999999999993,0.10964000000000002,0.11465000000000002,0.0,218.3,218.345,214.91666666666669,214.91666666666669,0.0,0.0
32,0.0,0.0,0.0,1.0,1.0,0.0,0.0,1.0,0.0,100.0,1.0,1.1856,26.0,0.0,0.0,0.0,59.999996,0.0,26.0,26.0,26.0,26.0,0.07422222222222219,0.2613000000000001,-0.006125,291.321,-2.7079,-2.6733000000000002,-1.5907,-1.6171,-166.91,215.5525,190.278625,0.0,0.0,0.0,0.0,0.06483333333333334,-5.498166666666667,-5.498166666666667,-0.6066,-0.22249999999999992,-0.0018888888888888289,-1.06,69.876,0.0434,-0.23040000000000002,-0.46999999999999975,100.0,1.0,1.0,215.39666666666668,0.0,0.0,0.0,0.0,0.0,0.0,0.0,9129.9,0.0,55.0,5.0,251.52666666666664,0.0,0.0,0.0,0.0,0.0,0.0,1.0,0.0,1.6080000000000005,1.6080000000000005,0.0,0.0,0.0,55.0,616.79921,10000.0,85.000001,85.000001,85.000001,85.000001,395.0,0.0,0.0,0.0,1.0,166.665,51.575,51.575,46.6,46.6,34.0,-22.415,26.14,-27.356666666666666,33.41,0.0,1735.045,-0.4450000000000003,100.0,28.62,29.158,43.973,44.723,0.0,0.0,100.0,0.0,0.0,0.0,0.0,3166.25,3112.0,4165.875,4279.6,305.40233333333333,304.83666666666664,314.79125,314.24125,22.163,20.7664,22.163899999999998,21.6645,314.999998,314.999998,324.999988,324.999988,99.55988571428571,99.50825,99.56992857142858,99.55004285714286,0.1259999999999999,-0.016666666666666607,-0.06816666666666667,0.15616666666666665,-0.046666666666666856,-0.06666666666666998,1.514,1.4980000000000002,39.519,30.789666666666665,39.524,36.403,56.265,36.172,60.426,53.707499999999996,54.117999999999995,35.1685,58.9385,51.966499999999996,53.19,34.6455,58.7825,51.342666666666666,-0.12,-0.050999999999999934,0.10584,0.11020500000000001,0.0,218.71,218.74,215.39666666666668,215.39666666666668,0.0,0.0
33,0.0,0.0,0.0,1.0,1.0,0.0,0.0,1.0,0.0,100.0,1.0,1.1856,26.0,0.0,0.0,0.0,59.999996,0.0,26.0,26.0,26.0,26.0,0.05277777777777781,0.2558,-0.06615,291.611,-2.7371,-2.6715,-1.5983,-1.5814,-163.76,215.54500000000002,190.255125,0.0,0.0,0.0,0.0,0.06666666666666667,-5.498166666666667,-5.498166666666667,-0.6148,-0.22999999999999998,0.00011111111111095084,1.045,69.99000000000001,0.0419,-0.21815,-0.44599999999999973,100.0,1.0,1.0,215.75666666666666,0.0,0.0,0.0,0.0,0.0,0.0,0.0,9145.1,0.0,55.0,5.0,251.93666666666667,1.0,0.0,0.0,0.0,0.0,0.0,1.0,0.0,1.6529999999999987,1.6529999999999987,0.0,0.0,1.0,55.0,616.79921,10000.0,85.000001,85.000001,85.000001,85.000001,395.0,0.0,0.0,0.0,1.0,333.33500000000004,51.894999999999996,51.894999999999996,46.86,46.86,34.0,-21.662499999999998,26.483333333333334,-27.156666666666666,32.8825,0.0,1734.999,-0.504999999999999,100.0,28.635,28.782,43.91,44.442,0.0,0.0,100.0,0.0,0.0,0.0,0.0,3049.875,3137.8,4114.875,4242.1,305.639,304.92266666666666,314.89075,314.463,22.1711,20.7713,22.173000000000002,21.6726,314.999998,314.999998,324.999988,324.999988,99.5599,99.50825,99.57007142857142,99.55017142857143,0.1302500000000002,-0.010666666666666602,-0.07,0.16516666666666666,-0.041666666666671404,-0.05333333333332746,1.521,1.4895,39.569,30.820666666666668,39.581,36.4535,56.254000000000005,36.2035,60.456,53.759,54.108000000000004,35.198,58.966499999999996,52.016,53.178,34.673500000000004,58.808,51.391,-0.11649999999999994,-0.04499999999999993,0.10755500000000001,0.113945,0.0,219.06,219.07999999999998,215.75666666666666,215.75666666666666,0.0,0.0
34,0.0,0.0,0.0,1.0,1.0,0.0,0.0,1.0,0.0,100.0,1.0,1.1856,26.0,0.0,0.0,0.0,59.999996,0.0,26.0,26.0,26.0,26.0,0.06355555555555559,0.25260000000000016,-0.05185,291.855,-2.68025,-2.6601,-1.6364,-1.5424,-160.19,215.5375,190.227125,0.0,0.0,0.0,0.0,0.06873333333333334,-5.498166666666667,-5.498166666666667,-0.6412,-0.8700000000000001,0.024222222222222145,-0.2570000000000001,70.119,0.0392,-0.22185000000000002,-0.41000000000000014,100.0,1.0,1.0,216.13666666666666,0.0,0.0,0.0,0.0,0.0,0.0,0.0,9161.3,0.0,55.0,5.0,252.40333333333334,0.0,0.0,0.0,0.0,0.0,0.0,1.0,0.0,1.7040000000000006,1.7040000000000006,0.0,0.0,0.0,55.0,616.79921,10000.0,85.000001,85.000001,85.000001,85.000001,395.0,0.0,0.0,0.0,1.0,166.665,52.307,52.307,47.241,47.241,34.0,-21.7125,25.15,-27.903333333333332,31.09,0.0,1734.949,-0.5299999999999994,100.0,28.194,28.565,43.671,44.565,0.0,0.0,100.0,0.0,0.0,0.0,0.0,3096.875,3000.8,4116.875,4194.5,305.664,305.14633333333336,314.95975,314.48725,22.1802,20.7768,22.1832,21.6818,314.999998,314.999998,324.999988,324.999988,99.55991428571429,99.50825,99.57021428571429,99.55032857142857,0.12199999999999989,-0.0129999999999999,-0.07483333333333334,0.148,-0.036666666666668846,-0.04999999999999716,1.5150000000000001,1.5055,39.626000000000005,30.855333333333334,39.644999999999996,36.510999999999996,56.239999999999995,36.238,60.489,53.8185,54.095,35.230000000000004,58.997,52.074,53.165,34.704499999999996,58.835499999999996,51.44733333333333,-0.12,-0.03950000000000009,0.10497000000000001,0.10515000000000001,0.0,219.435,219.47,216.13666666666666,216.13666666666666,0.0,0.0
35,0.0,0.0,0.0,1.0,1.0,0.0,0.0,1.0,0.0,100.0,1.0,1.1856,26.0,0.0,0.0,0.0,59.999996,0.0,26.0,26.0,26.0,26.0,0.0758888888888889,0.25849999999999995,-0.023100000000000002,291.809,-2.7367,-2.6072,-1.6306,-1.5051,-156.39999999999998,215.53,190.1955,0.0,0.0,0.0,0.0,0.07093333333333333,-5.498166666666667,-5.498166666666667,-0.6794,-0.12050000000000005,0.0029999999999998916,-1.312,70.253,0.0419,-0.22655,-0.49799999999999933,100.0,1.0,1.0,216.63,0.0,0.0,0.0,0.0,0.0,0.0,0.0,9182.2,0.0,55.0,5.0,252.88666666666666,1.0,0.0,0.0,0.0,0.0,0.0,1.0,0.0,1.7579999999999991,1.7579999999999991,0.0,0.0,1.0,55.0,616.79921,10000.0,85.000001,85.000001,85.000001,85.000001,395.0,0.0,0.0,0.0,1.0,166.665,51.743,51.743,46.829,46.829,34.0,-22.73,27.676666666666666,-27.196666666666665,29.8,0.0,1734.895,-0.34499999999999886,100.0,28.02,28.905,43.488,44.061,0.0,0.0,100.0,0.0,0.0,0.0,0.0,3147.0,3324.0,4069.25,4039.3,305.489,304.20533333333333,315.0305,314.90675,22.1896,20.783,22.194,21.6914,314.999998,314.999998,324.999988,324.999988,99.55994285714286,99.50825,99.57037142857143,99.55047142857143,0.12150000000000016,-0.014000000000000012,-0.07166666666666667,0.1635,-0.05333333333332746,-0.05666666666667197,1.545,1.5335,39.685,30.893666666666668,39.713,36.571,56.224999999999994,36.2775,60.5235,53.8775,54.081,35.266999999999996,59.028999999999996,52.131,53.149,34.74,58.864,51.503,-0.10999999999999999,-0.0515000000000001,0.11458000000000002,0.11185,0.0,219.875,219.89,216.63,216.63,0.0,0.0
36,0.0,0.0,0.0,1.0,1.0,0.0,0.0,1.0,0.0,100.0,1.0,1.1856,26.0,0.0,0.0,0.0,59.999996,0.0,26.0,26.0,26.0,26.0,0.06822222222222218,0.2632000000000001,0.023875,291.153,-2.6632,-2.7039,-1.5803,-1.5486,-153.02,215.5275,190.166,0.0,0.0,0.0,0.0,0.0729,-5.498166666666667,-5.498166666666667,-0.6615,0.11649999999999994,-0.038000000000000256,-1.332,70.376,0.0383,-0.201275,-0.25200000000000067,100.0,1.0,1.0,216.79000000000002,0.0,0.0,0.0,0.0,0.0,0.0,0.0,9189.0,0.0,55.0,5.0,253.32666666666665,0.0,0.0,0.0,0.0,0.0,0.0,1.0,0.0,1.806000000000001,1.806000000000001,0.0,0.0,0.0,55.0,616.79921,10000.0,85.000001,85.000001,85.000001,85.000001,395.0,0.0,0.0,0.0,1.0,166.665,51.743,51.743,46.432,46.432,34.0,-21.2775,25.42,-29.74,33.32,0.0,1734.846,-0.3100000000000005,100.0,28.7,29.006,43.701,44.44,0.0,0.0,100.0,0.0,0.0,0.0,0.0,3056.5,3045.0,4400.25,4462.4,305.53133333333335,304.963,314.29325,313.8645,22.1983,20.7884,22.2038,21.7001,314.999998,314.999998,324.999988,324.999988,99.55995714285714,99.50826666666667,99.57051428571428,99.55061428571429,0.12725000000000009,-0.028000000000000025,-0.07616666666666667,0.13916666666666666,-0.04999999999999716,-0.03999999999999915,1.449,1.4515000000000002,39.739000000000004,30.927666666666667,39.774,36.6255,56.214,36.313,60.557,53.9345,54.071,35.3,59.06,52.186,53.138,34.7715,58.891999999999996,51.557,-0.10899999999999999,-0.05699999999999994,0.107395,0.10037000000000001,0.0,220.26999999999998,220.28,216.79000000000002,216.79000000000002,0.0,0.0
