,ABS Active,ABS Enabled,AID Allow Tire Blankets,AID Auto Blip,AID Auto Clutch,AID Auto Shift,AID Fuel Rate,AID Ideal Line,AID Mech Damage,AID Stability,AID Tire Wear Rate,Air Density,Air Temp,Ballast,Best Lap Delta,Best Lap Time,Brake Bias,Brake Pos,Brake Temp FL,Brake Temp FR,Brake Temp RL,Brake Temp RR,CG Accel Lateral,CG Accel Longitudinal,CG Accel Vertical,CG Height,Camber FL,Camber FR,Camber RL,Camber RR,Car Coord X,Car Coord Y,Car Coord Z,Car Damage Front,Car Damage Left,Car Damage Rear,Car Damage Right,Car Pos Norm,Caster FL,Caster FR,Chassis Pitch Angle,Chassis Pitch Rate,Chassis Roll Angle,Chassis Roll Rate,Chassis Velocity X,Chassis Velocity Y,Chassis Velocity Z,Chassis Yaw Rate,Clutch Pos,DRS Active,DRS Available,Drive Train Speed,ERS Heat Charging,ERS Is Charging,ERS Max Energy,ERS Power Level,ERS Recovery Level,Engine Brake Setting,Engine Limiter,Engine RPM,Flags,Fuel Level,Gear,Ground Speed,HR Sample Clock,In Pit,KERS Charge,KERS Deployed Energy,KERS Input,KERS Max Energy,LR Sample Clock,Lap Invalidated,Lap Time,Lap Time2,Last Lap Time,Last Sector Time,MR Sample Clock,Max Fuel,Max Power,Max RPM,Max Sus Travel FL,Max Sus Travel FR,Max Sus Travel RL,Max Sus Travel RR,Max Torque,Max Turbo Boost,Num Tires Off Track,Penalties Enabled,Position,Raw Data Sample Rate,Ride Height FL,Ride Height FR,Ride Height RL,Ride Height RR,Road Temp,Self Align Torque FL,Self Align Torque FR,Self Align Torque RL,Self Align Torque RR,Session Lap Count,Session Time Left,Steering Angle,Surface Grip,Suspension Travel FL,Suspension Travel FR,Suspension Travel RL,Suspension Travel RR,TC Active,TC Enabled,Throttle Pos,Tire Dirt Level FL,Tire Dirt Level FR,Tire Dirt Level RL,Tire Dirt Level RR,Tire Load FL,Tire Load FR,Tire Load RL,Tire Load RR,Tire Loaded Radius FL,Tire Loaded Radius FR,Tire Loaded Radius RL,Tire Loaded Radius RR,Tire Pressure FL,Tire Pressure FR,Tire Pressure RL,Tire Pressure RR,Tire Radius FL,Tire Radius FR,Tire Radius RL,Tire Radius RR,Tire Rubber Grip FL,Tire Rubber Grip FR,Tire Rubber Grip RL,Tire Rubber Grip RR,Tire Slip Angle FL,Tire Slip Angle FR,Tire Slip Angle RL,Tire Slip Angle RR,Tire Slip Ratio FL,Tire Slip Ratio FR,Tire Slip Ratio RL,Tire Slip Ratio RR,Tire Temp Core FL,Tire Temp Core FR,Tire Temp Core RL,Tire Temp Core RR,Tire Temp Inner FL,Tire Temp Inner FR,Tire Temp Inner RL,Tire Temp Inner RR,Tire Temp Middle FL,Tire Temp Middle FR,Tire Temp Middle RL,Tire Temp Middle RR,Tire Temp Outer FL,Tire Temp Outer FR,Tire Temp Outer RL,Tire Temp Outer RR,Toe In FL,Toe In FR,Toe In RL,Toe In RR,Turbo Boost,Wheel Angular Speed FL,Wheel Angular Speed FR,Wheel Angular Speed RL,Wheel Angular Speed RR,Wind Direction,Wind Speed
0,0.0,0.0,0.0,1.0,1.0,0.0,0.0,1.0,0.0,100.0,1.0,1.1856,26.0,0.0,0.0,0.0,59.99999,0.0,26.0,26.0,26.0,26.0,-0.07644444444444443,0.3219000000000001,0.032175,293.991,-2.7212,-2.65375,-1.5171000000000001,-1.553,-275.73,216.2975,190.987875,0.0,0.0,0.0,0.0,0.0015666666666666051,-5.498166666666667,-5.498166666666667,-0.5509000000000001,1.5486666666666666,-0.007000000000000117,-1.306,65.494,-0.0304,-0.21605000000000002,0.968,100.0,1.0,1.0,202.20666666666668,0.0,0.0,0.0,0.0,0.0,0.0,0.0,8570.7,0.0,55.0,5.0,235.74666666666667,0.0,0.0,0.0,0.0,0.0,0.0,0.0,0.0,0.0030000000000001137,0.0030000000000001137,0.0,0.0,0.0,55.0,616.79921,10000.0,85.0,85.0,85.0,85.0,395.0,0.0,0.0,0.0,1.0,20.0,52.734,52.734,49.637,49.637,34.0,-26.14,22.857999999999997,-30.416666666666664,24.8,0.0,1783.676,0.8099999999999987,100.0,27.572,27.139,40.362,40.528,0.0,0.0,100.0,0.0,0.0,0.0,0.0,3011.857142857143,3309.8,4181.0,4014.3,305.7255,304.199,314.72775,314.79075,21.7836,20.5141,21.7603,21.305,314.99999,314.99999,324.99998,324.99998,99.55918571428572,99.50721666666666,99.56462857142857,99.54484285714285,0.004999999999999893,-0.12233333333333318,-0.15233333333333335,0.059666666666666666,-0.061666666666667425,-0.027142857142855803,1.5514999999999999,1.5785,37.147,29.213,37.001999999999995,34.156,56.366,34.476,58.8805,51.4555,54.274,33.638,57.513,49.8255,53.437,33.191,57.476,49.25666666666667,-0.016000000000000014,-0.14149999999999996,0.09451000000000001,0.11058000000000001,0.0,205.26,205.16500000000002,202.20666666666668,202.20666666666668,0.0,0.0
1,0.0,0.0,0.0,1.0,1.0,0.0,0.0,1.0,0.0,100.0,1.0,1.1856,26.0,0.0,0.0,0.0,59.999996,0.0,26.0,26.0,26.0,26.0,-0.11277777777777775,0.2916000000000001,-0.0027,293.076,-2.6507,-2.76325,-1.5267,-1.5474999999999999,-272.38,216.29250000000002,190.967625,0.0,0.0,0.0,0.0,0.0034999999999999476,-5.498166666666667,-5.498166666666667,-0.49670000000000003,-0.42100000000000004,-0.05262499999999992,-0.12700000000000022,65.648,-0.049100000000000005,-0.19405,1.3719999999999999,100.0,1.0,1.0,202.38333333333333,0.0,0.0,0.0,0.0,0.0,0.0,0.0,8578.3,0.0,55.0,5.0,236.3,1.0,0.0,0.0,0.0,0.0,0.0,0.0,0.0,0.053999999999998494,0.053999999999998494,0.0,0.0,1.0,55.0,616.79921,10000.0,85.000001,85.000001,85.000001,85.000001,395.0,0.0,0.0,0.0,1.0,333.33500000000004,53.543,53.543,48.309,48.309,34.0,-26.3575,18.23,-33.64,29.3,0.0,1783.624,0.9000000000000021,100.0,27.691,27.025,42.668,41.554,0.0,0.0,100.0,0.0,0.0,0.0,0.0,3028.857142857143,2683.8,4317.75,4706.5,305.4885,306.29825,314.2505,313.15,21.7934,20.5192,21.771,21.3141,314.999998,314.999998,324.999988,324.999988,99.5592,99.50723333333333,99.56478571428572,99.54498571428572,-0.004750000000000032,-0.1333333333333333,-0.17266666666666666,0.042166666666666665,-0.030000000000001137,-0.034285714285715585,1.432,1.467,37.209,29.244999999999997,37.069,34.213,56.349000000000004,34.516999999999996,58.9265,51.5205,54.257999999999996,33.6755,57.556,49.888,53.42,33.227000000000004,57.5165,49.318,-0.0030000000000000027,-0.14300000000000002,0.10401,0.111835,0.0,205.695,205.585,202.38333333333333,202.38333333333333,0.0,0.0
2,0.0,0.0,0.0,1.0,1.0,0.0,0.0,1.0,0.0,100.0,1.0,1.1856,26.0,0.0,0.0,0.0,59.999996,0.0,26.0,26.0,26.0,26.0,-0.15022222222222215,0.2784,-0.07955000000000001,293.655,-2.6029,-2.794,-1.4897,-1.6067,-268.83,216.2825,190.947625,0.0,0.0,0.0,0.0,0.005566666666666609,-5.498166666666667,-5.498166666666667,-0.5506,0.19900000000000007,-0.046250000000000124,2.542,65.799,-0.07150000000000001,-0.2543,1.572000000000001,100.0,1.0,1.0,203.32,0.0,0.0,0.0,0.0,0.0,0.0,0.0,8618.0,0.0,55.0,5.0,236.8466666666667,0.0,0.0,0.0,0.0,0.0,0.0,0.0,0.0,0.10800000000000054,0.10800000000000054,0.0,0.0,0.0,55.0,616.79921,10000.0,85.000001,85.000001,85.000001,85.000001,395.0,0.0,0.0,0.0,1.0,166.665,52.353,52.353,50.186,50.186,34.0,-29.405,20.41,-29.11,20.355,0.0,1783.571,0.6999999999999993,100.0,28.465,26.993,42.537,41.29,0.0,0.0,100.0,0.0,0.0,0.0,0.0,3297.285714285714,2989.4,3738.5,3724.4,304.624,305.3895,315.6675,315.682,21.8042,20.5244,21.782,21.3233,314.999998,314.999998,324.999988,324.999988,99.55921428571429,99.50725,99.56492857142857,99.54512857142858,-0.020000000000000018,-0.1456666666666666,-0.22083333333333335,0.007333333333333333,-0.045000000000001705,-0.0799999999999983,1.6284999999999998,1.689,37.275999999999996,29.278,37.138,34.271,56.335,34.5585,58.967,51.582,54.245000000000005,33.713499999999996,57.594,49.947,53.406,33.2635,57.5515,49.37566666666667,-0.022499999999999964,-0.13149999999999995,0.10980000000000001,0.111765,0.0,206.18,206.055,203.32,203.32,0.0,0.0
3,0.0,0.0,0.0,1.0,1.0,0.0,0.0,1.0,0.0,100.0,1.0,1.1856,26.0,0.0,0.0,0.0,59.999996,0.0,26.0,26.0,26.0,26.0,-0.13822222222222214,0.30920000000000014,-0.043175000000000005,293.427,-2.7272,-2.6885000000000003,-1.5091999999999999,-1.5910000000000002,-265.87,216.2725,190.930375,0.0,0.0,0.0,0.0,0.007299999999999973,-5.498166666666667,-5.498166666666667,-0.5111,0.6580000000000001,-0.010874999999999968,-0.7589999999999999,65.934,-0.0845,-0.202375,1.218,100.0,1.0,1.0,203.41666666666669,0.0,0.0,0.0,0.0,0.0,0.0,0.0,8622.2,0.0,55.0,5.0,237.32999999999998,1.0,0.0,0.0,0.0,0.0,0.0,0.0,0.0,0.1529999999999987,0.1529999999999987,0.0,0.0,1.0,55.0,616.79921,10000.0,85.000001,85.000001,85.000001,85.000001,395.0,0.0,0.0,0.0,1.0,333.33500000000004,53.452,53.452,48.203,48.203,34.0,-26.09,18.116,-35.31666666666666,23.695,0.0,1783.523,0.6050000000000004,100.0,27.997,27.159,42.315,41.425,0.0,0.0,100.0,0.0,0.0,0.0,0.0,2883.4285714285716,2791.7,4351.875,4190.3,306.0045,305.74675,314.261,314.428,21.8128,20.529,21.7912,21.3311,314.999998,314.999998,324.999988,324.999988,99.55921428571429,99.50726666666667,99.56505714285714,99.54525714285714,-0.02299999999999991,-0.14866666666666672,-0.21166666666666667,0.0031666666666666666,-0.07333333333333059,-0.03142857142857025,1.5034999999999998,1.5434999999999999,37.33,29.3065,37.195,34.3195,56.321,34.5955,59.0025,51.638,54.230999999999995,33.748,57.626999999999995,50.0005,53.391999999999996,33.297,57.582,49.428,-0.03300000000000003,-0.11749999999999994,0.10305,0.10641,0.0,206.65,206.49,203.41666666666669,203.41666666666669,0.0,0.0
4,0.0,0.0,0.0,1.0,1.0,0.0,0.0,1.0,0.0,100.0,1.0,1.1856,26.0,0.0,0.0,0.0,59.999996,0.0,26.0,26.0,26.0,26.0,-0.13555555555555554,0.2842,-0.01965,293.64,-2.6629,-2.73925,-1.5277,-1.5976,-262.3,216.2575,190.9095,0.0,0.0,0.0,0.0,0.009366666666666523,-5.498166666666667,-5.498166666666667,-0.5455,-0.6846666666666668,-0.07799999999999985,-1.706,66.089,-0.0826,-0.237825,1.1280000000000001,100.0,1.0,1.0,204.04333333333335,0.0,0.0,0.0,0.0,0.0,0.0,0.0,8648.7,0.0,55.0,5.0,237.89333333333332,0.0,0.0,0.0,0.0,0.0,0.0,0.0,0.0,0.20700000000000074,0.20700000000000074,0.0,0.0,0.0,55.0,616.79921,10000.0,85.000001,85.000001,85.000001,85.000001,395.0,0.0,0.0,0.0,1.0,166.665,53.024,53.024,48.843,48.843,34.0,-29.6475,18.834,-32.663333333333334,20.905,0.0,1783.471,0.615000000000002,100.0,27.703,26.933,42.766,41.493,0.0,0.0,100.0,0.0,0.0,0.0,0.0,3283.0,2885.6,4082.75,3674.1,305.004,305.49375,314.8605,315.6685,21.823,20.5344,21.8024,21.3405,314.999998,314.999998,324.999988,324.999988,99.55921428571429,99.50728333333333,99.56521428571429,99.54541428571429,-0.02675000000000005,-0.15833333333333321,-0.21133333333333335,0.02033333333333333,-0.07166666666666544,-0.044285714285713595,1.577,1.6099999999999999,37.394,29.34,37.265,34.3785,56.301,34.6395,59.0475,51.701,54.212,33.7885,57.669,50.061,53.373000000000005,33.335499999999996,57.621,49.487,-0.026000000000000023,-0.127,0.10582000000000001,0.111875,0.0,207.04500000000002,206.95,204.04333333333335,204.04333333333335,0.0,0.0
5,0.0,0.0,0.0,1.0,1.0,0.0,0.0,1.0,0.0,100.0,1.0,1.1856,26.0,0.0,0.0,0.0,59.999996,0.0,26.0,26.0,26.0,26.0,-0.127,0.30590000000000006,-0.021825,293.655,-2.6726,-2.763125,-1.5099,-1.5882,-259.13,216.24,190.89025,0.0,0.0,0.0,0.0,0.011233333333333317,-5.498166666666667,-5.498166666666667,-0.5364,0.405,-0.08300000000000018,-0.2829999999999999,66.22800000000001,-0.085,-0.21480000000000002,1.1219999999999999,100.0,1.0,1.0,204.41,0.0,0.0,0.0,0.0,0.0,0.0,0.0,8664.2,0.0,55.0,5.0,238.39,1.0,0.0,0.0,0.0,0.0,0.0,0.0,0.0,0.254999999999999,0.254999999999999,0.0,0.0,1.0,55.0,616.79921,10000.0,85.000001,85.000001,85.000001,85.000001,395.0,0.0,0.0,0.0,1.0,166.665,53.452,53.452,49.025999999999996,49.025999999999996,34.0,-28.015,18.63,-33.71,23.0,0.0,1783.423,0.18499999999999872,100.0,27.789,26.803,42.528999999999996,41.219,0.0,0.0,100.0,0.0,0.0,0.0,0.0,3190.714285714286,2745.8,4180.5,4023.0,305.2385,305.98825,314.7145,314.83675,21.8324,20.5392,21.8121,21.3487,314.999998,314.999998,324.999988,324.999988,99.55922857142858,99.5073,99.56534285714285,99.54554285714286,-0.007500000000000062,-0.1396666666666666,-0.2175,0.013166666666666667,-0.05833333333333002,-0.04571428571428271,1.5419999999999998,1.5594999999999999,37.453,29.369999999999997,37.326,34.4295,56.288,34.678,59.085499999999996,51.7555,54.2,33.824,57.704499999999996,50.113,53.358999999999995,33.3695,57.653999999999996,49.538,-0.05599999999999994,-0.09699999999999998,0.10778000000000001,0.10439000000000001,0.0,207.53,207.41,204.41,204.41,0.0,0.0
6,0.0,0.0,0.0,1.0,1.0,0.0,0.0,1.0,0.0,100.0,1.0,1.1856,26.0,0.0,0.0,0.0,59.999996,0.0,26.0,26.0,26.0,26.0,-0.11099999999999999,0.2861,0.0038,293.427,-2.6387,-2.79625,-1.5535,-1.5822,-255.75,216.2175,190.86975,0.0,0.0,0.0,0.0,0.01319999999999999,-5.498166666666667,-5.498166666666667,-0.5312,0.121,-0.06000000000000005,0.988,66.374,-0.0806,-0.2149,0.6959999999999997,100.0,1.0,1.0,204.84,0.0,0.0,0.0,0.0,0.0,0.0,0.0,8682.4,0.0,55.0,5.0,238.92000000000002,0.0,0.0,0.0,0.0,0.0,0.0,0.0,0.0,0.30600000000000094,0.30600000000000094,0.0,0.0,0.0,55.0,616.79921,10000.0,85.000001,85.000001,85.000001,85.000001,395.0,0.0,0.0,0.0,1.0,166.665,53.116,53.116,48.706,48.706,34.0,-26.335,21.868,-32.38666666666666,23.505000000000003,0.0,1783.371,0.05999999999999872,100.0,27.841,26.752,42.762,41.511,0.0,0.0,100.0,0.0,0.0,0.0,0.0,3100.285714285714,2986.8,4068.25,4049.4,305.276,305.30875,314.905,314.8435,21.8423,20.5444,21.8226,21.3577,314.999998,314.999998,324.999988,324.999988,99.55922857142858,99.50731666666667,99.56548571428571,99.54567142857142,0.011249999999999982,-0.11266666666666669,-0.19766666666666666,0.02333333333333333,-0.026666666666670835,-0.04142857142856826,1.536,1.569,37.513999999999996,29.402,37.391,34.4855,56.272,34.718,59.126,51.817499999999995,54.185,33.861,57.7425,50.1725,53.343,33.4045,57.689,49.596000000000004,-0.06799999999999995,-0.07850000000000001,0.10475500000000001,0.10456000000000001,0.0,207.935,207.86,204.84,204.84,0.0,0.0
7,0.0,0.0,0.0,1.0,1.0,0.0,0.0,1.0,0.0,100.0,1.0,1.1856,26.0,0.0,0.0,0.0,59.999996,0.0,26.0,26.0,26.0,26.0,-0.0845555555555555,0.29910000000000014,0.045450000000000004,293.167,-2.6109,-2.73025,-1.5162,-1.5675,-252.56,216.195,190.8505,0.0,0.0,0.0,0.0,0.015033333333333343,-5.498166666666667,-5.498166666666667,-0.534,-0.03300000000000003,-0.04775000000000018,1.1560000000000001,66.512,-0.0655,-0.2225,0.3680000000000003,100.0,1.0,1.0,205.23000000000002,0.0,0.0,0.0,0.0,0.0,0.0,0.0,8699.0,0.0,55.0,5.0,239.41333333333333,1.0,0.0,0.0,0.0,0.0,0.0,0.0,0.0,0.3539999999999992,0.3539999999999992,0.0,0.0,1.0,55.0,616.79921,10000.0,85.000001,85.000001,85.000001,85.000001,395.0,0.0,0.0,0.0,1.0,166.665,52.795,52.795,48.813,48.813,34.0,-26.28,23.060000000000002,-30.903333333333336,25.7575,0.0,1783.325,-0.17999999999999972,100.0,27.892,26.778,42.782,41.739000000000004,0.0,0.0,100.0,0.0,0.0,0.0,0.0,3216.714285714286,3064.4,4053.25,4138.9,304.9025,305.13125,314.8825,314.607,21.8516,20.5492,21.8325,21.3661,314.999998,314.999998,324.999988,324.999988,99.55922857142858,99.50731666666667,99.56562857142858,99.54581428571429,0.033500000000000085,-0.08399999999999985,-0.17716666666666667,0.05583333333333334,-0.03999999999999915,-0.05857142857143316,1.5225,1.544,37.573,29.432499999999997,37.453,34.5385,56.257999999999996,34.754999999999995,59.164,51.8755,54.171,33.894999999999996,57.7785,50.228,53.329,33.4375,57.722,49.650666666666666,-0.08599999999999997,-0.05499999999999994,0.10908500000000002,0.10984500000000001,0.0,208.325,208.3,205.23000000000002,205.23000000000002,0.0,0.0
8,0.0,0.0,0.0,1.0,1.0,0.0,0.0,1.0,0.0,100.0,1.0,1.1856,26.0,0.0,0.0,0.0,59.999996,0.0,26.0,26.0,26.0,26.0,-0.05022222222222217,0.2842,-0.02695,293.442,-2.6859,-2.7119999999999997,-1.4979,-1.552,-249.16,216.17000000000002,190.83,0.0,0.0,0.0,0.0,0.016999999999999904,-5.498166666666667,-5.498166666666667,-0.5341,-0.42966666666666664,-0.03437499999999982,-0.54,66.658,-0.0483,-0.214175,-0.0039999999999995595,100.0,1.0,1.0,205.62,0.0,0.0,0.0,0.0,0.0,0.0,0.0,8715.5,0.0,55.0,5.0,239.93666666666667,0.0,0.0,0.0,0.0,0.0,0.0,0.0,0.0,0.40500000000000114,0.40500000000000114,0.0,0.0,0.0,55.0,616.79921,10000.0,85.000001,85.000001,85.000001,85.000001,395.0,0.0,0.0,0.0,1.0,166.665,53.726,53.726,48.08,48.08,34.0,-23.805,21.804000000000002,-31.356666666666662,26.509999999999998,0.0,1783.273,-0.3550000000000004,100.0,27.384,26.914,42.697,41.942,0.0,0.0,100.0,0.0,0.0,0.0,0.0,2969.0,2884.8,4215.5,4132.6,305.8865,305.5195,314.5395,314.50825,21.8613,20.5544,21.8429,21.3751,314.999998,314.999998,324.999988,324.999988,99.55922857142858,99.50733333333334,99.56577142857142,99.54595714285715,0.04574999999999996,-0.07699999999999996,-0.16216666666666665,0.06966666666666667,-0.04833333333333201,-0.05142857142856627,1.5135,1.509,37.632999999999996,29.465,37.518,34.594,56.241,34.793,59.204,51.9365,54.155,33.93,57.8155,50.286500000000004,53.312,33.471000000000004,57.7565,49.708,-0.10199999999999998,-0.04299999999999993,0.10828000000000002,0.10611500000000001,0.0,208.76,208.755,205.62,205.62,0.0,0.0
9,0.0,0.0,0.0,1.0,1.0,0.0,0.0,1.0,0.0,100.0,1.0,1.1856,26.0,0.0,0.0,0.0,59.999996,0.0,26.0,26.0,26.0,26.0,-0.027000000000000024,0.2925,0.03435,293.137,-2.6819,-2.724625,-1.5521,-1.5571000000000002,-245.76,216.14249999999998,190.808875,0.0,0.0,0.0,0.0,0.018999999999999906,-5.498166666666667,-5.498166666666667,-0.541,0.6653333333333333,-0.03437499999999982,0.873,66.8,-0.027100000000000003,-0.214725,-0.1739999999999995,100.0,1.0,1.0,206.18666666666667,0.0,0.0,0.0,0.0,0.0,0.0,0.0,8739.5,0.0,55.0,5.0,240.45,1.0,0.0,0.0,0.0,0.0,0.0,0.0,0.0,0.4559999999999995,0.4559999999999995,0.0,0.0,1.0,55.0,616.79921,10000.0,85.000001,85.000001,85.000001,85.000001,395.0,0.0,0.0,0.0,1.0,166.665,52.429,52.429,49.179,49.179,34.0,-25.75,24.644,-27.986666666666665,26.905,0.0,1783.223,-0.4800000000000004,100.0,27.993,27.166,42.428,41.854,0.0,0.0,100.0,0.0,0.0,0.0,0.0,3285.142857142857,3094.5,3973.5,4088.8,304.792,304.99175,315.1685,314.756,21.8712,20.5597,21.8532,21.384,314.999998,314.999998,324.999988,324.999988,99.55924285714286,99.50733333333334,99.56591428571429,99.54608571428571,0.07224999999999993,-0.05266666666666664,-0.13033333333333336,0.09083333333333334,-0.03166666666666629,-0.07000000000000028,1.5865,1.575,37.695,29.4985,37.583,34.65,56.227999999999994,34.832499999999996,59.241,51.996,54.141999999999996,33.966,57.85,50.344,53.299,33.5055,57.788,49.763999999999996,-0.11049999999999993,-0.03950000000000009,0.10733000000000001,0.10889000000000001,0.0,209.21,209.22500000000002,206.18666666666667,206.18666666666667,0.0,0.0
10,0.0,0.0,0.0,1.0,1.0,0.0,0.0,1.0,0.0,100.0,1.0,1.1856,26.0,0.0,0.0,0.0,59.999996,0.0,26.0,26.0,26.0,26.0,0.01200000000000001,0.28980000000000006,-0.019625,293.015,-2.6666,-2.696625,-1.5381,-1.5311,-242.35,216.115,190.788125,0.0,0.0,0.0,0.0,0.020966666666666578,-5.498166666666667,-5.498166666666667,-0.5192,-0.4896666666666667,0.009374999999999911,0.3959999999999999,66.947,-0.0078000000000000005,-0.208575,-0.44599999999999973,100.0,1.0,1.0,206.43,0.0,0.0,0.0,0.0,0.0,0.0,0.0,8749.9,0.0,55.0,5.0,240.98000000000002,0.0,0.0,0.0,0.0,0.0,0.0,1.0,0.0,0.5069999999999979,0.5069999999999979,0.0,0.0,0.0,55.0,616.79921,10000.0,85.000001,85.000001,85.000001,85.000001,395.0,0.0,0.0,0.0,1.0,166.665,53.497,53.497,47.653,47.653,34.0,-21.1875,22.922,-30.373333333333335,29.3525,0.0,1783.172,-0.6099999999999994,100.0,27.684,27.337,42.778,42.712,0.0,0.0,100.0,0.0,0.0,0.0,0.0,2869.4285714285716,2876.1,4291.0,4267.6,306.1435,305.53225,314.37,314.17175,21.8809,20.565,21.8638,21.3931,314.999998,314.999998,324.999988,324.999988,99.55925714285715,99.50735,99.56605714285715,99.54622857142857,0.08650000000000002,-0.043333333333333224,-0.11750000000000001,0.1045,-0.03499999999999659,-0.04571428571428271,1.4779999999999998,1.4655,37.756,29.531,37.649,34.707,56.215,34.869,59.2825,52.061,54.129999999999995,34.0,57.888999999999996,50.406,53.285,33.538,57.823499999999996,49.825,-0.124,-0.026499999999999968,0.10364500000000001,0.11007000000000002,0.0,209.64499999999998,209.675,206.43,206.43,0.0,0.0
11,0.0,0.0,0.0,1.0,1.0,0.0,0.0,1.0,0.0,100.0,1.0,1.1856,26.0,0.0,0.0,0.0,59.999996,0.0,26.0,26.0,26.0,26.0,0.05877777777777782,0.2822,-0.098275,293.503,-2.709,-2.683375,-1.5529000000000002,-1.5249000000000001,-239.13,216.0875,190.768625,0.0,0.0,0.0,0.0,0.022599999999999953,-5.498166666666667,-5.498166666666667,-0.5617,-0.29133333333333333,0.03137499999999993,-0.6619999999999999,67.077,0.0098,-0.23945000000000002,-0.5700000000000003,100.0,1.0,1.0,207.14,0.0,0.0,0.0,0.0,0.0,0.0,0.0,8779.9,0.0,55.0,5.0,241.45,1.0,0.0,0.0,0.0,0.0,0.0,1.0,0.0,0.5549999999999997,0.5549999999999997,0.0,0.0,1.0,55.0,616.79921,10000.0,85.000001,85.000001,85.000001,85.000001,395.0,0.0,0.0,0.0,1.0,333.33500000000004,52.811,52.811,49.286,49.286,34.0,-22.68,25.724,-23.686666666666667,26.630000000000003,0.0,1783.122,-0.6999999999999993,100.0,27.464,27.582,42.342,42.609,0.0,0.0,100.0,0.0,0.0,0.0,0.0,3093.714285714286,3087.2,3685.25,3858.1,305.5405,304.85325,315.88325,315.242,21.8899,20.5701,21.8735,21.4016,314.999998,314.999998,324.999988,324.999988,99.55927142857144,99.50735,99.56618571428571,99.54635714285715,0.10450000000000026,-0.02066666666666661,-0.0925,0.13283333333333336,-0.04333333333332945,-0.07428571428571473,1.6324999999999998,1.6045,37.812,29.563000000000002,37.709,34.76,56.201,34.9045,59.315,52.1175,54.116,34.0325,57.919,50.460499999999996,53.271,33.5695,57.851,49.87833333333333,-0.13049999999999995,-0.02400000000000002,0.09781500000000001,0.10208,0.0,210.04500000000002,210.085,207.14,207.14,0.0,0.0
12,0.0,0.0,0.0,1.0,1.0,0.0,0.0,1.0,0.0,100.0,1.0,1.1856,26.0,0.0,0.0,0.0,59.999996,0.0,26.0,26.0,26.0,26.0,0.05222222222222217,0.2904,0.027700000000000002,292.984,-2.7618,-2.6799999999999997,-1.5522,-1.5239,-235.91,216.0625,190.747875,0.0,0.0,0.0,0.0,0.025466666666666526,-5.498166666666667,-5.498166666666667,-0.5467000000000001,0.31566666666666676,0.016249999999999876,-0.8700000000000001,67.214,0.0281,-0.206925,-0.6799999999999997,100.0,1.0,1.0,207.33333333333331,0.0,0.0,0.0,0.0,0.0,0.0,0.0,8788.1,0.0,55.0,5.0,241.94,0.0,0.0,0.0,0.0,0.0,0.0,1.0,0.0,0.602999999999998,0.602999999999998,0.0,0.0,0.0,55.0,616.79921,10000.0,85.000001,85.000001,85.000001,85.000001,395.0,0.0,0.0,0.0,1.0,166.665,52.872,52.872,47.974000000000004,47.974000000000004,34.0,-23.1925,26.29,-27.846666666666664,30.1275,0.0,1783.076,-0.6799999999999997,100.0,27.318,27.711,42.193,42.519999999999996,0.0,0.0,100.0,0.0,0.0,0.0,0.0,3125.285714285714,3086.7,4238.5,4165.0,305.5005,304.87375,314.5815,314.4895,21.8989,20.5752,21.8833,21.41,314.999998,314.999998,324.999988,324.999988,99.55928571428572,99.50735,99.56632857142857,99.5465,0.10875000000000012,-0.006000000000000005,-0.08083333333333333,0.14250000000000002,-0.041666666666671404,-0.05142857142856627,1.5310000000000001,1.5070000000000001,37.867999999999995,29.595,37.769999999999996,34.8125,56.189,34.94,59.3515,52.1745,54.105000000000004,34.0655,57.9525,50.5155,53.259,33.601,57.882,49.93233333333333,-0.12349999999999994,-0.01750000000000007,0.10479000000000001,0.11002,0.0,210.48000000000002,210.535,207.33333333333331,207.33333333333331,0.0,0.0
13,0.0,0.0,0.0,1.0,1.0,0.0,0.0,1.0,0.0,100.0,1.0,1.1856,26.0,0.0,0.0,0.0,59.999996,0.0,26.0,26.0,26.0,26.0,0.070888888888889,0.28669999999999995,0.0504,292.587,-2.7345,-2.67675,-1.6218,-1.5076,-232.48,216.0375,190.726125,0.0,0.0,0.0,0.0,0.026699999999999946,-5.498166666666667,-5.498166666666667,-0.5392,-0.04633333333333334,0.02387499999999987,1.0350000000000001,67.357,0.038200000000000005,-0.21365,-0.863999999999999,100.0,1.0,1.0,207.71666666666667,0.0,0.0,0.0,0.0,0.0,0.0,0.0,8804.4,0.0,55.0,5.0,242.45666666666665,1.0,0.0,0.0,0.0,0.0,0.0,1.0,0.0,0.6539999999999999,0.6539999999999999,0.0,0.0,1.0,55.0,616.79921,10000.0,85.000001,85.000001,85.000001,85.000001,395.0,0.0,0.0,0.0,1.0,166.665,52.521,52.521,47.943,47.943,34.0,-20.5975,27.982,-26.873333333333335,32.84,0.0,1783.025,-0.884999999999998,100.0,27.782,27.751,42.527,42.917,0.0,0.0,100.0,0.0,0.0,0.0,0.0,3049.857142857143,3184.2,4149.875,4356.8,305.5075,304.74375,314.71075,314.085,21.9086,20.5807,21.8938,21.4192,314.999998,314.999998,324.999988,324.999988,99.5593,99.50736666666667,99.56647142857143,99.54665714285714,0.15399999999999991,0.018000000000000238,-0.0535,0.165,-0.04333333333332945,-0.05571428571428072,1.5105,1.4775,37.929,29.6295,37.836,34.87,56.178,34.978,59.3905,52.239,54.094,34.1005,57.9885,50.5775,53.247,33.6345,57.915,49.993,-0.15100000000000002,-0.00649999999999995,0.09988000000000001,0.10297,0.0,210.9,210.95499999999998,207.71666666666667,207.71666666666667,0.0,0.0
14,0.0,0.0,0.0,1.0,1.0,0.0,0.0,1.0,0.0,100.0,1.0,1.1856,26.0,0.0,0.0,0.0,59.999996,0.0,26.0,26.0,26.0,26.0,0.09233333333333338,0.274,-0.011850000000000001,292.786,-2.7359999999999998,-2.61425,-1.6316000000000002,-1.5110999999999999,-229.04,216.015,190.704875,0.0,0.0,0.0,0.0,0.028699999999999948,-5.498166666666667,-5.498166666666667,-0.5487000000000001,-0.17399999999999993,0.04949999999999988,-0.09600000000000009,67.49600000000001,0.050300000000000004,-0.22795,-0.9800000000000004,100.0,1.0,1.0,208.23333333333335,0.0,0.0,0.0,0.0,0.0,0.0,0.0,8826.3,0.0,55.0,5.0,242.95666666666665,0.0,0.0,0.0,0.0,0.0,0.0,1.0,0.0,0.7049999999999983,0.7049999999999983,0.0,0.0,0.0,55.0,616.79921,10000.0,85.000001,85.000001,85.000001,85.000001,395.0,0.0,0.0,0.0,1.0,333.33500000000004,52.597,52.597,48.126,48.126,34.0,-20.5825,27.375999999999998,-26.36,30.9325,0.0,1782.972,-0.9600000000000009,100.0,27.566,27.997,42.444,43.28,0.0,0.0,100.0,0.0,0.0,0.0,0.0,3050.4285714285716,3155.8,4025.875,4157.0,305.683,304.67325,315.08225,314.5025,21.9182,20.586199999999998,21.9042,21.4283,314.999998,314.999998,324.999988,324.999988,99.55931428571428,99.50736666666667,99.56661428571428,99.5468,0.15050000000000008,0.01866666666666683,-0.06433333333333333,0.1635,-0.05666666666667197,-0.028571428571432023,1.545,1.52,37.988,29.664,37.900999999999996,34.9265,56.168,35.016,59.4275,52.302,54.084,34.135999999999996,58.022999999999996,50.638,53.236000000000004,33.6685,57.946,50.05233333333334,-0.14949999999999997,-0.0035000000000000586,0.11371500000000001,0.10181000000000001,0.0,211.34,211.39499999999998,208.23333333333335,208.23333333333335,0.0,0.0
15,0.0,0.0,0.0,1.0,1.0,0.0,0.0,1.0,0.0,100.0,1.0,1.1856,26.0,0.0,0.0,0.0,59.999996,0.0,26.0,26.0,26.0,26.0,0.12411111111111106,0.28800000000000003,-0.0444,292.831,-2.7122,-2.57225,-1.6299000000000001,-1.4547,-225.79,215.995,190.684625,0.0,0.0,0.0,0.0,0.03059999999999996,-5.498166666666667,-5.498166666666667,-0.5404,0.29266666666666685,0.07962500000000006,-0.06800000000000006,67.628,0.0664,-0.21185,-1.13,100.0,1.0,1.0,208.63666666666666,0.0,0.0,0.0,0.0,0.0,0.0,0.0,8843.3,0.0,55.0,5.0,243.43333333333334,1.0,0.0,0.0,0.0,0.0,0.0,1.0,0.0,0.7530000000000001,0.7530000000000001,0.0,0.0,1.0,55.0,616.79921,10000.0,85.000001,85.000001,85.000001,85.000001,395.0,0.0,0.0,0.0,1.0,166.665,52.78,52.78,48.233000000000004,48.233000000000004,34.0,-18.9775,27.049999999999997,-24.86,32.935,0.0,1782.926,-0.9450000000000003,100.0,27.616,28.035,42.208,43.321,0.0,0.0,100.0,0.0,0.0,0.0,0.0,2897.0,3129.5,3985.875,4310.6,306.0725,304.7415,315.1815,314.15825,21.9271,20.5915,21.913899999999998,21.436799999999998,314.999998,314.999998,324.999988,324.999988,99.55932857142857,99.50736666666667,99.56674285714286,99.54694285714285,0.15700000000000003,0.025333333333333208,-0.041166666666666664,0.19033333333333335,-0.05333333333332746,-0.044285714285713595,1.5465,1.5105,38.044,29.6965,37.962,34.980000000000004,56.158,35.0525,59.461,52.3615,54.075,34.1695,58.054,50.695499999999996,53.226,33.701,57.9745,50.108666666666664,-0.15100000000000002,-0.0035000000000000586,0.105855,0.11248500000000002,0.0,211.755,211.82,208.63666666666666,208.63666666666666,0.0,0.0
16,0.0,0.0,0.0,1.0,1.0,0.0,0.0,1.0,0.0,100.0,1.0,1.1856,26.0,0.0,0.0,0.0,59.999996,0.0,26.0,26.0,26.0,26.0,0.12844444444444436,0.2856000000000001,-0.0036000000000000003,292.877,-2.8059,-2.60875,-1.6019,-1.4534,-222.34,215.97750000000002,190.662625,0.0,0.0,0.0,0.0,0.03259999999999996,-5.498166666666667,-5.498166666666667,-0.5604,-0.8023333333333333,0.07224999999999993,0.10799999999999987,67.769,0.07440000000000001,-0.223925,-1.1959999999999997,100.0,1.0,1.0,209.04666666666668,0.0,0.0,0.0,0.0,0.0,0.0,0.0,8860.8,0.0,55.0,5.0,243.94,0.0,0.0,0.0,0.0,0.0,0.0,1.0,0.0,0.8039999999999985,0.8039999999999985,0.0,0.0,0.0,55.0,616.79921,10000.0,85.000001,85.000001,85.000001,85.000001,395.0,0.0,0.0,0.0,1.0,166.665,52.765,52.765,47.882,47.882,34.0,-19.255,29.374,-22.619999999999997,32.67,0.0,1782.873,-0.9100000000000001,100.0,27.34,27.992,42.505,43.385,0.0,0.0,100.0,0.0,0.0,0.0,0.0,2902.857142857143,3287.5,3923.25,4176.9,306.109,304.42925,315.26525,314.51675,21.9362,20.5971,21.9243,21.445999999999998,314.999998,314.999998,324.999988,324.999988,99.55934285714285,99.50736666666667,99.56688571428572,99.54708571428571,0.17025000000000023,0.04033333333333333,-0.013166666666666667,0.21133333333333335,-0.05666666666667197,-0.05571428571428072,1.5724999999999998,1.5185,38.101,29.7315,38.027,35.0375,56.144999999999996,35.092,59.499,52.4245,54.062,34.2065,58.09,50.756,53.212,33.7365,58.007,50.16833333333334,-0.14449999999999996,-0.008499999999999952,0.10350500000000001,0.11366500000000002,0.0,212.14499999999998,212.22,209.04666666666668,209.04666666666668,0.0,0.0
17,0.0,0.0,0.0,1.0,1.0,0.0,0.0,1.0,0.0,100.0,1.0,1.1856,26.0,0.0,0.0,0.0,59.999996,0.0,26.0,26.0,26.0,26.0,0.12644444444444436,0.28990000000000005,-0.005175,292.557,-2.7656,-2.5629999999999997,-1.6393,-1.4758,-218.88,215.9625,190.64,0.0,0.0,0.0,0.0,0.034599999999999964,-5.498166666666667,-5.498166666666667,-0.5518000000000001,0.5549999999999999,0.04600000000000004,-0.786,67.907,0.0772,-0.20755,-1.1020000000000003,100.0,1.0,1.0,209.46,0.0,0.0,0.0,0.0,0.0,0.0,0.0,8878.2,0.0,55.0,5.0,244.43666666666667,1.0,0.0,0.0,0.0,0.0,0.0,1.0,0.0,0.8550000000000004,0.8550000000000004,0.0,0.0,1.0,55.0,616.79921,10000.0,85.000001,85.000001,85.000001,85.000001,395.0,0.0,0.0,0.0,1.0,333.33500000000004,52.414,52.414,47.913,47.913,34.0,-19.955,27.036,-26.07,32.635000000000005,0.0,1782.822,-1.0149999999999988,100.0,27.713,28.444,42.173,43.417,0.0,0.0,100.0,0.0,0.0,0.0,0.0,3094.857142857143,3068.6,4234.75,4239.1,305.611,304.96875,314.6905,314.38575,21.9457,20.6028,21.9346,21.455,314.999998,314.999998,324.999988,324.999988,99.55937142857142,99.50738333333334,99.56702857142857,99.54722857142858,0.17799999999999994,0.043333333333333446,-0.02816666666666667,0.19283333333333336,-0.05333333333332746,-0.044285714285713595,1.5455,1.5115,38.161,29.7675,38.091,35.094,56.137,35.1335,59.5345,52.4865,54.054,34.245,58.1225,50.816,53.203,33.772999999999996,58.036500000000004,50.227333333333334,-0.16200000000000003,-0.0030000000000001137,0.10268500000000001,0.10374000000000001,0.0,212.62,212.685,209.46,209.46,0.0,0.0
18,0.0,0.0,0.0,1.0,1.0,0.0,0.0,1.0,0.0,100.0,1.0,1.1856,26.0,0.0,0.0,0.0,59.999996,0.0,26.0,26.0,26.0,26.0,0.12555555555555564,0.28490000000000015,-0.060000000000000005,292.587,-2.7981,-2.53825,-1.6562000000000001,-1.421,-215.62,215.9525,190.619,0.0,0.0,0.0,0.0,0.03649999999999998,-5.498166666666667,-5.498166666666667,-0.5591,-0.5700000000000001,0.07187499999999991,-0.052000000000000046,68.038,0.078,-0.22240000000000001,-1.2060000000000004,100.0,1.0,1.0,209.86333333333334,0.0,0.0,0.0,0.0,0.0,0.0,0.0,8895.3,0.0,55.0,5.0,244.91,0.0,0.0,0.0,0.0,0.0,0.0,1.0,0.0,0.9029999999999987,0.9029999999999987,0.0,0.0,0.0,55.0,616.79921,10000.0,85.000001,85.000001,85.000001,85.000001,395.0,0.0,0.0,0.0,1.0,166.665,52.505,52.505,47.775,47.775,34.0,-19.4525,29.038,-24.619999999999997,31.837500000000002,0.0,1782.775,-1.2449999999999992,100.0,27.458,28.236,42.534,43.814,0.0,0.0,100.0,0.0,0.0,0.0,0.0,3038.714285714286,3238.6,4031.875,4171.2,305.8175,304.5185,315.09575,314.516,21.9545,20.608,21.944499999999998,21.4638,314.999998,314.999998,324.999988,324.999988,99.55938571428571,99.50738333333334,99.56715714285714,99.54737142857142,0.18575000000000008,0.05733333333333368,-0.02416666666666667,0.20233333333333334,-0.06666666666666998,-0.05142857142856627,1.5665,1.5030000000000001,38.216,29.799999999999997,38.153,35.1485,56.128,35.171,59.571,52.5475,54.045,34.2795,58.1565,50.8745,53.193,33.8065,58.067499999999995,50.285,-0.17199999999999993,0.01649999999999996,0.10047500000000001,0.11206500000000001,0.0,212.99,213.06,209.86333333333334,209.86333333333334,0.0,0.0
19,0.0,0.0,0.0,1.0,1.0,0.0,0.0,1.0,0.0,100.0,1.0,1.1856,26.0,0.0,0.0,0.0,59.999996,0.0,26.0,26.0,26.0,26.0,0.14266666666666672,0.28500000000000014,0.022025,292.053,-2.7686,-2.52875,-1.6726,-1.4013,-212.14,215.945,190.596375,0.0,0.0,0.0,0.0,0.03853333333333331,-5.498166666666667,-5.498166666666667,-0.5528000000000001,0.8613333333333333,0.08612500000000001,0.9359999999999999,68.175,0.08700000000000001,-0.212625,-1.6239999999999997,100.0,1.0,1.0,210.29000000000002,0.0,0.0,0.0,0.0,0.0,0.0,0.0,8913.4,0.0,55.0,5.0,245.4,1.0,0.0,0.0,0.0,0.0,0.0,1.0,0.0,0.9540000000000006,0.9540000000000006,0.0,0.0,1.0,55.0,616.79921,10000.0,85.000001,85.000001,85.000001,85.000001,395.0,0.0,0.0,0.0,1.0,333.33500000000004,51.682,51.682,47.699,47.699,34.0,-18.1175,31.77,-24.32666666666666,34.980000000000004,0.0,1782.723,-1.4949999999999992,100.0,28.056,28.614,42.305,43.704,0.0,0.0,100.0,0.0,0.0,0.0,0.0,3042.857142857143,3408.5,4099.125,4416.4,305.5185,304.036,314.949,314.0485,21.964,20.6139,21.9548,21.4729,314.999998,314.999998,324.999988,324.999988,99.55941428571428,99.5074,99.5673,99.54751428571429,0.21700000000000008,0.08233333333333359,-0.005,0.22716666666666666,-0.054999999999999716,-0.05571428571428072,1.565,1.5025,38.275,29.8365,38.217,35.206,56.120999999999995,35.215,59.6055,52.611000000000004,54.039,34.320499999999996,58.1885,50.936,53.185,33.846000000000004,58.096000000000004,50.345,-0.19399999999999995,0.03649999999999998,0.10615000000000001,0.11468500000000001,0.0,213.445,213.54500000000002,210.29000000000002,210.29000000000002,0.0,0.0
20,0.0,0.0,0.0,1.0,1.0,0.0,0.0,1.0,0.0,100.0,1.0,1.1856,26.0,0.0,0.0,0.0,59.999996,0.0,26.0,26.0,26.0,26.0,0.19500000000000006,0.26960000000000006,-0.048,292.282,-2.8255,-2.58075,-1.6074000000000002,-1.4027,-208.66,215.94,190.574,0.0,0.0,0.0,0.0,0.04056666666666653,-5.498166666666667,-5.498166666666667,-0.552,-1.0396666666666667,0.09387499999999993,-0.569,68.315,0.1029,-0.2202,-1.9859999999999998,100.0,1.0,1.0,210.56666666666666,0.0,0.0,0.0,0.0,0.0,0.0,0.0,8925.2,0.0,55.0,5.0,245.90333333333334,0.0,0.0,0.0,0.0,0.0,0.0,0.0,0.0,1.004999999999999,1.004999999999999,0.0,0.0,0.0,55.0,616.79921,10000.0,85.000001,85.000001,85.000001,85.000001,395.0,0.0,0.0,0.0,1.0,333.33500000000004,52.887,52.887,46.799,46.799,34.0,-16.39,29.848,-23.153333333333336,36.495000000000005,0.0,1782.671,-1.4450000000000003,100.0,27.348,28.521,42.758,44.331,0.0,0.0,100.0,0.0,0.0,0.0,0.0,2793.714285714286,3160.9,4173.375,4426.8,306.519,304.655,314.671,313.8455,21.9732,20.6195,21.9653,21.4824,314.999998,314.999998,324.999988,324.999988,99.55944285714286,99.5074,99.56745714285714,99.54767142857143,0.2237499999999999,0.08433333333333337,0.015333333333333334,0.24133333333333334,-0.02833333333332888,-0.047142857142851824,1.508,1.4344999999999999,38.332,29.872,38.283,35.2645,56.111000000000004,35.257999999999996,59.6455,52.677,54.028999999999996,34.3605,58.2255,51.0,53.174,33.8845,58.129999999999995,50.408,-0.1985,0.04299999999999993,0.10586500000000001,0.11206500000000001,0.0,213.79000000000002,213.94,210.56666666666666,210.56666666666666,0.0,0.0
21,0.0,0.0,0.0,1.0,1.0,0.0,0.0,1.0,0.0,100.0,1.0,1.1856,26.0,0.0,0.0,0.0,59.999996,0.0,26.0,26.0,26.0,26.0,0.17677777777777792,0.27380000000000004,-0.075075,292.679,-2.7478,-2.62725,-1.674,-1.474,-205.38,215.9425,190.552375,0.0,0.0,0.0,0.0,0.04246666666666654,-5.498166666666667,-5.498166666666667,-0.5803,0.44833333333333325,0.07662499999999994,-1.2189999999999999,68.438,0.12090000000000001,-0.22817500000000002,-1.6099999999999994,100.0,1.0,1.0,211.23666666666668,0.0,0.0,0.0,0.0,0.0,0.0,0.0,8953.6,0.0,55.0,5.0,246.35000000000002,1.0,0.0,0.0,0.0,0.0,0.0,0.0,0.0,1.0530000000000008,1.0530000000000008,0.0,0.0,1.0,55.0,616.79921,10000.0,85.000001,85.000001,85.000001,85.000001,395.0,0.0,0.0,0.0,1.0,166.665,52.17,52.17,48.416,48.416,34.0,-20.29,28.532,-21.64666666666667,33.31,0.0,1782.625,-0.3500000000000014,100.0,27.56,28.709,42.082,43.923,0.0,0.0,100.0,0.0,0.0,0.0,0.0,3048.0,3195.5,3890.25,4037.5,305.673,304.46425,315.5115,314.871,21.982,20.625,21.9748,21.4909,314.999998,314.999998,324.999988,324.999988,99.55945714285714,99.50741666666667,99.56758571428571,99.5478,0.16075000000000017,0.0303333333333331,0.014166666666666666,0.25083333333333335,-0.05333333333332746,-0.047142857142851824,1.6255000000000002,1.566,38.388,29.9065,38.343,35.318,56.102999999999994,35.299,59.6755,52.7345,54.021,34.3985,58.253,51.0555,53.165,33.921,58.1545,50.46233333333333,-0.11349999999999993,-0.04200000000000004,0.11525,0.10658500000000001,0.0,214.23000000000002,214.34,211.23666666666668,211.23666666666668,0.0,0.0
22,0.0,0.0,0.0,1.0,1.0,0.0,0.0,1.0,0.0,100.0,1.0,1.1856,26.0,0.0,0.0,0.0,59.999996,0.0,26.0,26.0,26.0,26.0,0.1263333333333332,0.25649999999999995,0.0228,292.084,-2.711,-2.646875,-1.6488,-1.5341,-201.89,215.9475,190.5285,0.0,0.0,0.0,0.0,0.044499999999999984,-5.498166666666667,-5.498166666666667,-0.5572,0.14600000000000013,0.06662499999999993,0.839,68.577,0.1121,-0.2068,-0.3879999999999999,100.0,1.0,1.0,211.42000000000002,0.0,0.0,0.0,0.0,0.0,0.0,0.0,8961.4,0.0,55.0,5.0,246.85000000000002,0.0,0.0,0.0,0.0,0.0,0.0,0.0,0.0,1.1039999999999992,1.1039999999999992,0.0,0.0,0.0,55.0,616.79921,10000.0,85.000001,85.000001,85.000001,85.000001,395.0,0.0,0.0,0.0,1.0,166.665,52.216,52.216,47.165,47.165,34.0,-20.695,26.7,-24.39,36.3625,0.0,1782.573,0.5100000000000016,100.0,27.951,28.536,42.734,44.013000000000005,0.0,0.0,100.0,0.0,0.0,0.0,0.0,2881.4285714285716,3243.5,4166.0,4357.9,305.939,304.4575,314.71475,314.08975,21.9914,20.6308,21.9853,21.5002,314.999998,314.999998,324.999988,324.999988,99.55948571428571,99.50741666666667,99.56772857142857,99.54797142857143,0.11750000000000016,-0.024333333333333318,0.0035,0.22216666666666665,-0.03999999999999915,-0.048571428571428044,1.4939999999999998,1.476,38.446,29.942,38.408,35.376,56.091,35.339,59.715,52.7995,54.01,34.4355,58.289500000000004,51.1175,53.152,33.9565,58.188,50.523666666666664,-0.03849999999999998,-0.12200000000000011,0.100815,0.10834,0.0,214.695,214.745,211.42000000000002,211.42000000000002,0.0,0.0
23,0.0,0.0,0.0,1.0,1.0,0.0,0.0,1.0,0.0,100.0,1.0,1.1856,26.0,0.0,0.0,0.0,59.999996,0.0,26.0,26.0,26.0,26.0,0.046111111111111214,0.25849999999999995,-0.029075,292.053,-2.7229,-2.618125,-1.5571000000000002,-1.5697999999999999,-198.39,215.95499999999998,190.505125,0.0,0.0,0.0,0.0,0.046533333333333315,-5.498166666666667,-5.498166666666667,-0.5754,-0.29899999999999993,0.037250000000000005,-1.2680000000000002,68.711,0.0648,-0.233125,0.7599999999999998,100.0,1.0,1.0,211.92333333333335,0.0,0.0,0.0,0.0,0.0,0.0,0.0,8982.6,0.0,55.0,5.0,247.33666666666664,1.0,0.0,0.0,0.0,0.0,0.0,0.0,0.0,1.1550000000000011,1.1550000000000011,0.0,0.0,1.0,55.0,616.79921,10000.0,85.000001,85.000001,85.000001,85.000001,395.0,0.0,0.0,0.0,1.0,333.33500000000004,51.697,51.697,47.989,47.989,34.0,-26.6475,23.567999999999998,-25.880000000000003,29.740000000000002,0.0,1782.522,0.865000000000002,100.0,28.123,28.615000000000002,43.022999999999996,44.219,0.0,0.0,100.0,0.0,0.0,0.0,0.0,3325.857142857143,3114.9,3996.0,4007.3,304.936,304.76975,315.1195,314.814,22.000799999999998,20.6364,21.9957,21.5094,314.999998,314.999998,324.999988,324.999988,99.5595,99.50743333333334,99.56788571428571,99.54811428571429,0.06450000000000022,-0.06566666666666676,-0.07416666666666667,0.14916666666666667,-0.045000000000001705,-0.03999999999999915,1.505,1.536,38.504999999999995,29.978,38.473,35.434,56.078,35.379,59.751999999999995,52.8625,53.995999999999995,34.4725,58.324,51.1785,53.138,33.9925,58.219,50.583333333333336,-0.008499999999999952,-0.14800000000000013,0.11193000000000002,0.11077500000000001,0.0,215.12,215.095,211.92333333333335,211.92333333333335,0.0,0.0
24,0.0,0.0,0.0,1.0,1.0,0.0,0.0,1.0,0.0,100.0,1.0,1.1856,26.0,0.0,0.0,0.0,59.999996,0.0,26.0,26.0,26.0,26.0,-0.030000000000000027,0.2803,0.002625,292.389,-2.715,-2.660875,-1.5732,-1.5352999999999999,-195.09,215.9625,190.482625,0.0,0.0,0.0,0.0,0.04843333333333333,-5.498166666666667,-5.498166666666667,-0.5786,-0.41833333333333333,0.018750000000000044,-0.6139999999999999,68.839,0.0097,-0.21495,1.2120000000000015,100.0,1.0,1.0,212.23666666666668,0.0,0.0,0.0,0.0,0.0,0.0,0.0,8996.0,0.0,55.0,5.0,247.79333333333335,0.0,0.0,0.0,0.0,0.0,0.0,0.0,0.0,1.2029999999999994,1.2029999999999994,0.0,0.0,0.0,55.0,616.79921,10000.0,85.000001,85.000001,85.000001,85.000001,395.0,0.0,0.0,0.0,1.0,333.33500000000004,52.917,52.917,47.089,47.089,34.0,-24.349999999999998,20.442,-32.46333333333334,26.675,0.0,1782.473,0.8599999999999994,100.0,28.036,28.145,43.196,43.803,0.0,0.0,100.0,0.0,0.0,0.0,0.0,2990.0,2891.7,4394.0,4080.0,305.8755,305.5565,314.19525,314.7595,22.0097,20.6416,22.0055,21.518,314.999998,314.999998,324.999988,324.999988,99.5595,99.50743333333334,99.56802857142857,99.54825714285714,0.0442499999999999,-0.10233333333333317,-0.13083333333333336,0.08883333333333333,-0.051666666666669414,-0.04142857142856826,1.4929999999999999,1.5465,38.56,30.009999999999998,38.535,35.4875,56.062,35.4185,59.79,52.9225,53.980999999999995,34.509,58.3595,51.2365,53.122,34.0275,58.2515,50.63966666666666,-0.013499999999999956,-0.14949999999999997,0.107685,0.107075,0.0,215.57999999999998,215.45499999999998,212.23666666666668,212.23666666666668,0.0,0.0
25,0.0,0.0,0.0,1.0,1.0,0.0,0.0,1.0,0.0,100.0,1.0,1.1856,26.0,0.0,0.0,0.0,59.999996,0.0,26.0,26.0,26.0,26.0,-0.07722222222222219,0.26,-0.045125000000000005,292.328,-2.7519,-2.650375,-1.5639,-1.5631,-191.36,215.97,190.455875,0.0,0.0,0.0,0.0,0.05059999999999998,-5.498166666666667,-5.498166666666667,-0.6123000000000001,0.062000000000000055,-0.008875000000000188,-1.7530000000000001,68.979,-0.0426,-0.22512500000000002,1.4399999999999995,100.0,1.0,1.0,212.82999999999998,0.0,0.0,0.0,0.0,0.0,0.0,0.0,9021.1,0.0,55.0,5.0,248.3,1.0,0.0,0.0,0.0,0.0,0.0,0.0,0.0,1.256999999999998,1.256999999999998,0.0,0.0,1.0,55.0,616.79921,10000.0,85.000001,85.000001,85.000001,85.000001,395.0,0.0,0.0,0.0,1.0,166.665,51.849000000000004,51.849000000000004,47.958,47.958,34.0,-30.07,21.682000000000002,-30.983333333333334,24.130000000000003,0.0,1782.421,0.8300000000000018,100.0,28.15,28.161,43.226,43.21,0.0,0.0,100.0,0.0,0.0,0.0,0.0,3364.857142857143,3175.9,4023.25,3945.2,304.889,304.6475,315.14675,315.08525,22.0196,20.6475,22.0165,21.5276,314.999998,314.999998,324.999988,324.999988,99.5595,99.50745,99.56817142857143,99.54841428571429,0.002000000000000224,-0.1256666666666666,-0.17683333333333334,0.0545,-0.06666666666666998,-0.04571428571428271,1.5474999999999999,1.5915,38.623000000000005,30.0465,38.602999999999994,35.547,56.044,35.461,59.826,52.9795,53.965,34.5485,58.393,51.2915,53.105000000000004,34.065,58.282,50.693666666666665,-0.015499999999999958,-0.14349999999999996,0.10927,0.10726500000000001,0.0,216.005,215.87,212.82999999999998,212.82999999999998,0.0,0.0
26,0.0,0.0,0.0,1.0,1.0,0.0,0.0,1.0,0.0,100.0,1.0,1.1856,26.0,0.0,0.0,0.0,59.999996,0.0,26.0,26.0,26.0,26.0,-0.13011111111111107,0.27560000000000007,0.057050000000000003,291.199,-2.6654,-2.766375,-1.5811000000000002,-1.5878999999999999,-188.05,215.975,190.4315,0.0,0.0,0.0,0.0,0.05253333333333332,-5.498166666666667,-5.498166666666667,-0.5717,0.7983333333333333,-0.061125000000000096,-1.4060000000000001,69.108,-0.07440000000000001,-0.19595,1.4979999999999993,100.0,1.0,1.0,212.96666666666667,0.0,0.0,0.0,0.0,0.0,0.0,0.0,9026.9,0.0,55.0,5.0,248.76,0.0,0.0,0.0,0.0,0.0,0.0,0.0,0.0,1.3049999999999997,1.3049999999999997,0.0,0.0,0.0,55.0,616.79921,10000.0,85.000001,85.000001,85.000001,85.000001,395.0,0.0,0.0,0.0,1.0,166.665,51.376,51.376,46.28,46.28,34.0,-29.53,20.122,-39.416666666666664,25.627499999999998,0.0,1782.373,0.629999999999999,100.0,29.224,28.572,44.019,43.321,0.0,0.0,100.0,0.0,0.0,0.0,0.0,3360.4285714285716,2958.9,4647.0,4333.2,304.7595,305.159,313.692,314.15,22.0289,20.6528,22.0265,21.5362,314.999998,314.999998,324.999988,324.999988,99.55951428571429,99.50748333333334,99.56831428571428,99.54854285714286,-0.0009999999999998899,-0.15100000000000002,-0.20583333333333334,0.014333333333333335,-0.06333333333333258,-0.04142857142856826,1.4274999999999998,1.4689999999999999,38.681,30.08,38.665,35.601,56.032,35.5035,59.866,53.036500000000004,53.953,34.588,58.4305,51.346000000000004,53.092,34.103,58.3165,50.74666666666667,-0.03300000000000003,-0.13450000000000006,0.10676000000000001,0.10547500000000001,0.0,216.445,216.32,212.96666666666667,212.96666666666667,0.0,0.0
27,0.0,0.0,0.0,1.0,1.0,0.0,0.0,1.0,0.0,100.0,1.0,1.1856,26.0,0.0,0.0,0.0,59.999996,0.0,26.0,26.0,26.0,26.0,-0.122,0.2601,-0.008700000000000001,291.534,-2.6154,-2.747125,-1.561,-1.6717,-184.73000000000002,215.97750000000002,190.408375,0.0,0.0,0.0,0.0,0.05446666666666655,-5.498166666666667,-5.498166666666667,-0.595,-1.0783333333333334,-0.07237500000000008,-0.7189999999999999,69.232,-0.09140000000000001,-0.2412,1.3279999999999994,100.0,1.0,1.0,213.42333333333335,0.0,0.0,0.0,0.0,0.0,0.0,0.0,9046.2,0.0,55.0,5.0,249.21333333333334,1.0,0.0,0.0,0.0,0.0,0.0,0.0,0.0,1.352999999999998,1.352999999999998,0.0,0.0,1.0,55.0,616.79921,10000.0,85.000001,85.000001,85.000001,85.000001,395.0,0.0,0.0,0.0,1.0,166.665,51.743,51.743,46.646,46.646,34.0,-29.6925,19.496,-35.70333333333333,24.2975,0.0,1782.325,0.5300000000000011,100.0,29.017,28.197,44.924,43.766999999999996,0.0,0.0,100.0,0.0,0.0,0.0,0.0,3320.857142857143,2968.9,4237.375,4023.4,304.861,305.27425,314.57,314.76925,22.0379,20.6579,22.0366,21.545,314.999998,314.999998,324.999988,324.999988,99.55951428571429,99.5075,99.56845714285714,99.54868571428571,-0.02400000000000002,-0.16033333333333322,-0.22,0.008833333333333334,-0.05833333333333002,-0.03714285714285381,1.4609999999999999,1.516,38.736999999999995,30.112000000000002,38.729,35.656,56.016999999999996,35.5435,59.907,53.094,53.939,34.6245,58.469,51.400999999999996,53.078,34.1385,58.352000000000004,50.800666666666665,-0.03700000000000003,-0.12349999999999994,0.10870500000000001,0.109655,0.0,216.765,216.635,213.42333333333335,213.42333333333335,0.0,0.0
28,0.0,0.0,0.0,1.0,1.0,0.0,0.0,1.0,0.0,100.0,1.0,1.1856,26.0,0.0,0.0,0.0,59.999996,0.0,26.0,26.0,26.0,26.0,-0.12388888888888894,0.2562,-0.048175,291.885,-2.6414999999999997,-2.7344999999999997,-1.5070999999999999,-1.6329,-180.99,215.97750000000002,190.381625,0.0,0.0,0.0,0.0,0.05663333333333331,-5.498166666666667,-5.498166666666667,-0.6001000000000001,0.6356666666666668,-0.07774999999999999,-0.6390000000000002,69.37,-0.0993,-0.214975,1.1479999999999997,100.0,1.0,1.0,213.96666666666667,0.0,0.0,0.0,0.0,0.0,0.0,0.0,9069.3,0.0,55.0,5.0,249.70333333333335,0.0,0.0,0.0,0.0,0.0,0.0,0.0,0.0,1.407,1.407,0.0,0.0,0.0,55.0,616.79921,10000.0,85.000001,85.000001,85.000001,85.000001,395.0,0.0,0.0,0.0,1.0,166.665,51.819,51.819,47.501,47.501,34.0,-30.0825,19.3,-34.89333333333333,23.6825,0.0,1782.271,0.3249999999999993,100.0,29.097,28.095,44.198,43.095,0.0,0.0,100.0,0.0,0.0,0.0,0.0,3366.5714285714284,2907.8,4203.125,4058.0,304.774,305.44775,314.77225,314.81875,22.048099999999998,20.6637,22.0475,21.5545,314.999998,314.999998,324.999988,324.999988,99.55951428571429,99.5075,99.56861428571429,99.54884285714286,-0.017749999999999932,-0.15166666666666662,-0.23383333333333334,0.008666666666666666,-0.045000000000001705,-0.04571428571428271,1.5099999999999998,1.5605,38.801,30.148,38.797,35.7155,56.003,35.5895,59.945499999999996,53.1535,53.925,34.667,58.504999999999995,51.4585,53.063,34.179,58.3845,50.856,-0.05599999999999994,-0.1080000000000001,0.11314,0.11048500000000001,0.0,217.24,217.13,213.96666666666667,213.96666666666667,0.0,0.0
29,0.0,0.0,0.0,1.0,1.0,0.0,0.0,1.0,0.0,100.0,1.0,1.1856,26.0,0.0,0.0,0.0,59.999996,0.0,26.0,26.0,26.0,26.0,-0.1333333333333333,0.26760000000000006,0.03955,291.489,-2.5857,-2.790375,-1.5422,-1.6123,-177.64999999999998,215.9725,190.35675,0.0,0.0,0.0,0.0,0.058566666666666545,-5.498166666666667,-5.498166666666667,-0.6055,-0.7353333333333333,-0.07474999999999987,-0.5870000000000002,69.497,-0.094,-0.2164,0.8780000000000001,100.0,1.0,1.0,214.17666666666668,0.0,0.0,0.0,0.0,0.0,0.0,0.0,9078.1,0.0,55.0,5.0,250.16333333333336,1.0,0.0,0.0,0.0,0.0,0.0,0.0,0.0,1.4549999999999983,1.4549999999999983,0.0,0.0,1.0,55.0,616.79921,10000.0,85.000001,85.000001,85.000001,85.000001,395.0,0.0,0.0,0.0,1.0,166.665,51.697,51.697,46.478,46.478,34.0,-29.502499999999998,21.07,-36.28333333333333,24.22,0.0,1782.222,0.21499999999999986,100.0,28.778,27.93,44.615,43.372,0.0,0.0,100.0,0.0,0.0,0.0,0.0,3388.714285714286,3048.6,4353.0,4154.3,304.6925,304.9235,314.2665,314.52475,22.0569,20.6687,22.0575,21.5632,314.999998,314.999998,324.999988,324.999988,99.55952857142857,99.50753333333333,99.56875714285714,99.54898571428572,-0.011249999999999982,-0.1499999999999999,-0.21233333333333335,0.0061666666666666675,-0.041666666666671404,-0.027142857142855803,1.4609999999999999,1.5070000000000001,38.855999999999995,30.179499999999997,38.858999999999995,35.769999999999996,55.986999999999995,35.6285,59.9855,53.210499999999996,53.91,34.703,58.543,51.513,53.047,34.213499999999996,58.4195,50.909333333333336,-0.0635,-0.09850000000000003,0.110615,0.10061500000000001,0.0,217.55,217.48000000000002,214.17666666666668,214.17666666666668,0.0,0.0
30,0.0,0.0,0.0,1.0,1.0,0.0,0.0,1.0,0.0,100.0,1.0,1.1856,26.0,0.0,0.0,0.0,59.999996,0.0,26.0,26.0,26.0,26.0,-0.10744444444444445,0.25780000000000003,0.06557500000000001,291.122,-2.6409,-2.67625,-1.4842,-1.6663000000000001,-174.11,215.965,190.33025,0.0,0.0,0.0,0.0,0.06063333333333332,-5.498166666666667,-5.498166666666667,-0.6025,0.8046666666666669,-0.07112499999999988,0.938,69.626,-0.08170000000000001,-0.2165,0.7040000000000006,100.0,1.0,1.0,214.63,0.0,0.0,0.0,0.0,0.0,0.0,0.0,9097.4,0.0,55.0,5.0,250.62666666666667,0.0,0.0,0.0,0.0,0.0,0.0,1.0,0.0,1.5060000000000002,1.5060000000000002,0.0,0.0,0.0,55.0,616.79921,10000.0,85.000001,85.000001,85.000001,85.000001,395.0,0.0,0.0,0.0,1.0,166.665,50.919,50.919,46.951,46.951,34.0,-29.045,21.372,-33.31,27.21,0.0,1782.172,0.10000000000000142,100.0,29.784,28.499,44.51,43.29,0.0,0.0,100.0,0.0,0.0,0.0,0.0,3410.285714285714,3084.8,4284.5,4238.8,304.438,305.021,314.44025,314.36525,22.0667,20.6744,22.068,21.572400000000002,314.999998,314.999998,324.999988,324.999988,99.55952857142857,99.50755,99.56891428571429,99.54912857142857,0.020999999999999908,-0.11999999999999988,-0.1855,0.035500000000000004,-0.030000000000001137,-0.06285714285714761,1.4695,1.4914999999999998,38.917,30.215,38.925,35.8275,55.974999999999994,35.6735,60.0235,53.269,53.899,34.7445,58.578,51.569,53.035,34.253,58.452,50.964,-0.07950000000000002,-0.09250000000000003,0.10275000000000001,0.109325,0.0,218.0,217.95,214.63,214.63,0.0,0.0
31,0.0,0.0,0.0,1.0,1.0,0.0,0.0,1.0,0.0,100.0,1.0,1.1856,26.0,0.0,0.0,0.0,59.999996,0.0,26.0,26.0,26.0,26.0,-0.09044444444444444,0.2518,0.012325000000000001,291.10699999999997,-2.7105,-2.752375,-1.5771000000000002,-1.6564,-170.76,215.95499999999998,190.306,0.0,0.0,0.0,0.0,0.06259999999999999,-5.498166666666667,-5.498166666666667,-0.5894,-0.6546666666666667,-0.05862500000000015,0.6119999999999999,69.75,-0.06520000000000001,-0.21907500000000002,0.3100000000000005,100.0,1.0,1.0,214.92000000000002,0.0,0.0,0.0,0.0,0.0,0.0,0.0,9109.7,0.0,55.0,5.0,251.07333333333332,1.0,0.0,0.0,0.0,0.0,0.0,1.0,0.0,1.5539999999999985,1.5539999999999985,0.0,0.0,1.0,55.0,616.79921,10000.0,85.000001,85.000001,85.000001,85.000001,395.0,0.0,0.0,0.0,1.0,333.33500000000004,51.62,51.62,45.532,45.532,34.0,-26.237499999999997,22.058,-34.870000000000005,28.515,0.0,1782.123,0.015000000000000568,100.0,29.384,28.560000000000002,45.141,43.94,0.0,0.0,100.0,0.0,0.0,0.0,0.0,3128.0,3082.4,4407.875,4264.6,305.4685,305.029,314.11275,314.41675,22.075499999999998,20.6797,22.0781,21.5813,314.999998,314.999998,324.999988,324.999988,99.55952857142857,99.50756666666666,99.56905714285715,99.54925714285714,0.03100000000000014,-0.11999999999999988,-0.1645,0.0585,-0.041666666666671404,-0.04571428571428271,1.4474999999999998,1.4615,38.972,30.247999999999998,38.988,35.882999999999996,55.96,35.713499999999996,60.0635,53.3275,53.885,34.7815,58.616,51.625,53.019999999999996,34.2885,58.4865,51.01866666666667,-0.08699999999999997,-0.08550000000000013,0.10382000000000001,0.10635000000000001,0.0,218.35500000000002,218.3,214.92000000000002,214.92000000000002,0.0,0.0
32,0.0,0.0,0.0,1.0,1.0,0.0,0.0,1.0,0.0,100.0,1.0,1.1856,26.0,0.0,0.0,0.0,59.999996,0.0,26.0,26.0,26.0,26.0,-0.0768888888888889,0.258,-0.062325000000000005,291.336,-2.6487,-2.692,-1.6025,-1.5641,-167.2,215.9425,190.280375,0.0,0.0,0.0,0.0,0.06466666666666654,-5.498166666666667,-5.498166666666667,-0.6095,0.15100000000000002,-0.08412500000000023,-1.0190000000000001,69.877,-0.049600000000000005,-0.23012500000000002,0.347999999999999,100.0,1.0,1.0,215.47333333333333,0.0,0.0,0.0,0.0,0.0,0.0,0.0,9133.2,0.0,55.0,5.0,251.53,0.0,0.0,0.0,0.0,0.0,0.0,1.0,0.0,1.6050000000000004,1.6050000000000004,0.0,0.0,0.0,55.0,616.79921,10000.0,85.000001,85.000001,85.000001,85.000001,395.0,0.0,0.0,0.0,1.0,166.665,51.208,51.208,46.783,46.783,34.0,-27.822499999999998,22.009999999999998,-33.02333333333333,25.4175,0.0,1782.073,-0.0799999999999983,100.0,29.254,28.772,44.623000000000005,43.801,0.0,0.0,100.0,0.0,0.0,0.0,0.0,3398.285714285714,3031.6,4228.375,4088.5,304.699,305.06575,314.74175,314.863,22.085,20.6854,22.0885,21.5905,314.999998,314.999998,324.999988,324.999988,99.55952857142857,99.50758333333333,99.5692,99.54941428571429,0.040000000000000036,-0.10133333333333328,-0.169,0.057666666666666665,-0.05666666666667197,-0.034285714285715585,1.5339999999999998,1.5514999999999999,39.031,30.2835,39.053,35.9405,55.946,35.7565,60.1,53.385,53.872,34.821,58.65,51.6805,53.006,34.326499999999996,58.518,51.07266666666666,-0.08899999999999997,-0.07499999999999996,0.11134500000000001,0.09989,0.0,218.75,218.70499999999998,215.47333333333333,215.47333333333333,0.0,0.0
33,0.0,0.0,0.0,1.0,1.0,0.0,0.0,1.0,0.0,100.0,1.0,1.1856,26.0,0.0,0.0,0.0,59.999996,0.0,26.0,26.0,26.0,26.0,-0.04788888888888887,0.2659,-0.033225000000000005,291.428,-2.6651,-2.722,-1.5697,-1.5776,-163.84,215.93,190.255375,0.0,0.0,0.0,0.0,0.06659999999999999,-5.498166666666667,-5.498166666666667,-0.6107,-0.32999999999999996,-0.07212500000000022,0.16900000000000004,70.0,-0.0383,-0.216125,0.26200000000000045,100.0,1.0,1.0,215.74,0.0,0.0,0.0,0.0,0.0,0.0,0.0,9144.4,0.0,55.0,5.0,251.97333333333336,1.0,0.0,0.0,0.0,0.0,0.0,1.0,0.0,1.6529999999999987,1.6529999999999987,0.0,0.0,1.0,55.0,616.79921,10000.0,85.000001,85.000001,85.000001,85.000001,395.0,0.0,0.0,0.0,1.0,333.33500000000004,51.894999999999996,51.894999999999996,46.432,46.432,34.0,-25.9775,21.75,-33.379999999999995,27.6675,0.0,1782.025,-0.15500000000000114,100.0,29.028,28.463,44.553,43.914,0.0,0.0,100.0,0.0,0.0,0.0,0.0,3213.857142857143,2966.2,4345.25,4246.7,305.287,305.31825,314.3865,314.3715,22.0938,20.6905,22.098399999999998,21.5992,314.999998,314.999998,324.999988,324.999988,99.55954285714286,99.50758333333333,99.56935714285714,99.54955714285714,0.044500000000000206,-0.09933333333333327,-0.15666666666666665,0.06666666666666668,-0.04833333333333201,-0.017142857142850687,1.4834999999999998,1.495,39.086,30.3155,39.114999999999995,35.995,55.933,35.793,60.1365,53.441,53.858999999999995,34.855000000000004,58.684,51.7345,52.992999999999995,34.3585,58.549,51.125,-0.09299999999999997,-0.07350000000000012,0.10352000000000001,0.11071500000000001,0.0,219.12,219.07,215.74,215.74,0.0,0.0
34,0.0,0.0,0.0,1.0,1.0,0.0,0.0,1.0,0.0,100.0,1.0,1.1856,26.0,0.0,0.0,0.0,59.999996,0.0,26.0,26.0,26.0,26.0,-0.038111111111111096,0.2549000000000001,-0.06785000000000001,291.824,-2.6879,-2.716375,-1.6113,-1.5904,-160.06,215.91500000000002,190.225875,0.0,0.0,0.0,0.0,0.06879999999999997,-5.498166666666667,-5.498166666666667,-0.644,-0.8166666666666667,-0.032624999999999904,-0.03000000000000025,70.136,-0.028,-0.22617500000000001,0.13400000000000034,100.0,1.0,1.0,216.22333333333333,0.0,0.0,0.0,0.0,0.0,0.0,0.0,9165.0,0.0,55.0,5.0,252.46333333333334,0.0,0.0,0.0,0.0,0.0,0.0,1.0,0.0,1.7070000000000007,1.7070000000000007,0.0,0.0,0.0,55.0,616.79921,10000.0,85.000001,85.000001,85.000001,85.000001,395.0,0.0,0.0,0.0,1.0,166.665,52.155,52.155,47.379,47.379,34.0,-24.675,22.754,-30.593333333333334,27.92,0.0,1781.971,-0.22500000000000142,100.0,28.647,28.213,44.219,44.019000000000005,0.0,0.0,100.0,0.0,0.0,0.0,0.0,3159.285714285714,2953.5,4071.625,4128.0,305.284,305.31275,315.03475,314.608,22.1037,20.6963,22.1094,21.609,314.999998,314.999998,324.999988,324.999988,99.55955714285714,99.5076,99.5695,99.54971428571429,0.07250000000000023,-0.07200000000000006,-0.14416666666666667,0.08683333333333333,-0.05833333333333002,-0.027142857142855803,1.529,1.524,39.147999999999996,30.352,39.183,36.0565,55.917,35.833,60.1735,53.5045,53.845,34.891999999999996,58.7185,51.795500000000004,52.977000000000004,34.394,58.58,51.184333333333335,-0.09899999999999998,-0.0605,0.10344500000000001,0.11175000000000002,0.0,219.51999999999998,219.47500000000002,216.22333333333336,216.22333333333333,0.0,0.0
35,0.0,0.0,0.0,1.0,1.0,0.0,0.0,1.0,0.0,100.0,1.0,1.1856,26.0,0.0,0.0,0.0,59.999996,0.0,26.0,26.0,26.0,26.0,-0.023222222222222144,0.25450000000000017,-0.061250000000000006,291.779,-2.7393,-2.654125,-1.5776,-1.6011000000000002,-156.69,215.9,190.197625,0.0,0.0,0.0,0.0,0.07076666666666653,-5.498166666666667,-5.498166666666667,-0.6838000000000001,-0.41766666666666663,-0.04062499999999991,-0.988,70.255,-0.0155,-0.22912500000000002,-0.0259999999999998,100.0,1.0,1.0,216.64333333333332,0.0,0.0,0.0,0.0,0.0,0.0,0.0,9182.7,0.0,55.0,5.0,252.89333333333335,1.0,0.0,0.0,0.0,0.0,0.0,1.0,0.0,1.754999999999999,1.754999999999999,0.0,0.0,1.0,55.0,616.79921,10000.0,85.000001,85.000001,85.000001,85.000001,395.0,0.0,0.0,0.0,1.0,166.665,51.682,51.682,46.89,46.89,34.0,-25.89,25.012,-29.016666666666666,27.5,0.0,1781.923,-0.19000000000000128,100.0,28.443,28.482,43.994,43.616,0.0,0.0,100.0,0.0,0.0,0.0,0.0,3258.714285714286,3250.0,4089.625,3955.6000000000004,305.2125,304.4345,314.93875,315.0745,22.1122,20.7017,22.1191,21.6176,314.999998,314.999998,324.999988,324.999988,99.55955714285714,99.5076,99.56964285714285,99.54985714285715,0.07050000000000001,-0.06666666666666665,-0.11933333333333333,0.10683333333333334,-0.051666666666669414,-0.05142857142856627,1.5594999999999999,1.5455,39.201,30.3855,39.244,36.11,55.902,35.87,60.2065,53.557,53.83,34.9265,58.749,51.846000000000004,52.962,34.427,58.6075,51.234,-0.10350000000000004,-0.06150000000000011,0.10455500000000001,0.11438000000000001,0.0,219.88,219.88,216.64333333333335,216.64333333333332,0.0,0.0
36,0.0,0.0,0.0,1.0,1.0,0.0,0.0,1.0,0.0,100.0,1.0,1.1856,26.0,0.0,0.0,0.0,59.999996,0.0,26.0,26.0,26.0,26.0,-0.01822222222222214,0.2781,0.026500000000000003,290.863,-2.746,-2.628,-1.5489000000000002,-1.5925,-153.32,215.8825,190.167875,0.0,0.0,0.0,0.0,0.07273333333333332,-5.498166666666667,-5.498166666666667,-0.6641,0.4013333333333333,-0.07537500000000019,-1.411,70.378,-0.006500000000000001,-0.1985,0.0259999999999998,100.0,1.0,1.0,216.79333333333335,0.0,0.0,0.0,0.0,0.0,0.0,0.0,9189.0,0.0,55.0,5.0,253.33333333333334,0.0,0.0,0.0,0.0,0.0,0.0,1.0,0.0,1.8030000000000008,1.8030000000000008,0.0,0.0,0.0,55.0,616.79921,10000.0,85.000001,85.000001,85.000001,85.000001,395.0,0.0,0.0,0.0,1.0,166.665,51.3,51.3,46.112,46.112,34.0,-26.535,23.695999999999998,-32.346666666666664,32.275000000000006,0.0,1781.876,-0.16000000000000014,100.0,28.975,28.921,44.085,43.925,0.0,0.0,100.0,0.0,0.0,0.0,0.0,3376.142857142857,3089.3,4540.75,4485.6,304.8685,304.9305,313.92675,313.8025,22.121,20.7072,22.1289,21.6263,314.999998,314.999998,324.999988,324.999988,99.55957142857143,99.50761666666666,99.5698,99.55,0.08174999999999999,-0.058666666666666645,-0.10966666666666668,0.10566666666666667,-0.054999999999999716,-0.04142857142856826,1.4539999999999997,1.4425,39.257,30.42,39.306,36.164500000000004,55.891,35.909,60.2415,53.6135,53.819,34.9625,58.782,51.9005,52.95,34.462,58.6375,51.287,-0.09699999999999998,-0.06600000000000006,0.10407000000000001,0.106575,0.0,220.305,220.26999999999998,216.79333333333335,216.79333333333335,0.0,0.0
