,ABS Active,ABS Enabled,AID Allow Tire Blankets,AID Auto Blip,AID Auto Clutch,AID Auto Shift,AID Fuel Rate,AID Ideal Line,AID Mech Damage,AID Stability,AID Tire Wear Rate,Air Density,Air Temp,Ballast,Best Lap Delta,Best Lap Time,Brake Bias,Brake Pos,Brake Temp FL,Brake Temp FR,Brake Temp RL,Brake Temp RR,CG Accel Lateral,CG Accel Longitudinal,CG Accel Vertical,CG Height,Camber FL,Camber FR,Camber RL,Camber RR,Car Coord X,Car Coord Y,Car Coord Z,Car Damage Front,Car Damage Left,Car Damage Rear,Car Damage Right,Car Pos Norm,Caster FL,Caster FR,Chassis Pitch Angle,Chassis Pitch Rate,Chassis Roll Angle,Chassis Roll Rate,Chassis Velocity X,Chassis Velocity Y,Chassis Velocity Z,Chassis Yaw Rate,Clutch Pos,DRS Active,DRS Available,Drive Train Speed,ERS Heat Charging,ERS Is Charging,ERS Max Energy,ERS Power Level,ERS Recovery Level,Engine Brake Setting,Engine Limiter,Engine RPM,Flags,Fuel Level,Gear,Ground Speed,HR Sample Clock,In Pit,KERS Charge,KERS Deployed Energy,KERS Input,KERS Max Energy,LR Sample Clock,Lap Invalidated,Lap Time,Lap Time2,Last Lap Time,Last Sector Time,MR Sample Clock,Max Fuel,Max Power,Max RPM,Max Sus Travel FL,Max Sus Travel FR,Max Sus Travel RL,Max Sus Travel RR,Max Torque,Max Turbo Boost,Num Tires Off Track,Penalties Enabled,Position,Raw Data Sample Rate,Ride Height FL,Ride Height FR,Ride Height RL,Ride Height RR,Road Temp,Self Align Torque FL,Self Align Torque FR,Self Align Torque RL,Self Align Torque RR,Session Lap Count,Session Time Left,Steering Angle,Surface Grip,Suspension Travel FL,Suspension Travel FR,Suspension Travel RL,Suspension Travel RR,TC Active,TC Enabled,Throttle Pos,Tire Dirt Level FL,Tire Dirt Level FR,Tire Dirt Level RL,Tire Dirt Level RR,Tire Load FL,Tire Load FR,Tire Load RL,Tire Load RR,Tire Loaded Radius FL,Tire Loaded Radius FR,Tire Loaded Radius RL,Tire Loaded Radius RR,Tire Pressure FL,Tire Pressure FR,Tire Pressure RL,Tire Pressure RR,Tire Radius FL,Tire Radius FR,Tire Radius RL,Tire Radius RR,Tire Rubber Grip FL,Tire Rubber Grip FR,Tire Rubber Grip RL,Tire Rubber Grip RR,Tire Slip Angle FL,Tire Slip Angle FR,Tire Slip Angle RL,Tire Slip Angle RR,Tire Slip Ratio FL,Tire Slip Ratio FR,Tire Slip Ratio RL,Tire Slip Ratio RR,Tire Temp Core FL,Tire Temp Core FR,Tire Temp Core RL,Tire Temp Core RR,Tire Temp Inner FL,Tire Temp Inner FR,Tire Temp Inner RL,Tire Temp Inner RR,Tire Temp Middle FL,Tire Temp Middle FR,Tire Temp Middle RL,Tire Temp Middle RR,Tire Temp Outer FL,Tire Temp Outer FR,Tire Temp Outer RL,Tire Temp Outer RR,Toe In FL,Toe In FR,Toe In RL,Toe In RR,Turbo Boost,Wheel Angular Speed FL,Wheel Angular Speed FR,Wheel Angular Speed RL,Wheel Angular Speed RR,Wind Direction,Wind Speed
0,0.0,0.0,0.0,1.0,1.0,0.0,0.0,1.0,0.0,100.0,1.0,1.1856,26.0,0.0,0.0,0.0,59.99999,0.0,26.0,26.0,26.0,26.0,-0.026125,0.3164,0.17622500000000002,293.381,-2.7526,-2.6202,-1.56325,-1.5055,-275.79,215.4,190.98825,0.0,0.0,0.0,0.0,0.0015333333333333334,-5.498166666666667,-5.498166666666667,-0.5643,1.4965,0.003666666666666707,-0.34500000000000003,65.474,-0.024799999999999933,-0.22037500000000002,-0.0779999999999994,100.0,1.0,1.0,202.14333333333332,0.0,0.0,0.0,0.0,0.0,0.0,0.0,8568.1,0.0,55.0,5.0,235.67666666666668,0.0,0.0,0.0,0.0,0.0,0.0,0.0,0.0,0.0030000000000001137,0.0030000000000001137,0.0,0.0,0.0,55.0,616.79921,10000.0,85.0,85.0,85.0,85.0,395.0,0.0,0.0,0.0,1.0,20.0,51.147,51.147,49.24,49.24,34.0,-29.985,32.284,-29.176666666666666,26.27,0.0,1783.692,0.17999999999999972,100.0,27.136,26.97,40.366,40.18,0.0,0.0,100.0,0.0,0.0,0.0,0.0,3451.142857142857,4220.7,4040.0,4074.6000000000004,304.4905,301.802,315.05025,314.66975,21.775555555555556,20.5162,21.774444444444445,21.3029,314.99999,314.99999,324.99998,324.99998,99.55904285714286,99.50726666666667,99.56547142857143,99.54485714285714,0.023499999999999854,-0.07366666666666677,-0.14,0.09216666666666673,-0.05333333333332746,-0.07333333333333059,1.561,1.5655000000000001,37.098,29.2265,37.09,34.143,56.329,34.5275,59.1545,51.498,54.239999999999995,33.6855,57.777,49.864,53.405,33.2355,57.7385,49.293,-0.0695,-0.08050000000000002,0.10748,0.11344000000000001,0.0,205.13,205.14,202.14333333333332,202.14333333333332,0.0,0.0
1,0.0,0.0,0.0,1.0,1.0,0.0,0.0,1.0,0.0,100.0,1.0,1.1856,26.0,0.0,0.0,0.0,59.999996,0.0,26.0,26.0,26.0,26.0,-0.0445,0.32299999999999995,0.199575,292.114,-2.6936999999999998,-2.6981,-1.605,-1.3753,-272.25,215.4075,190.967,0.0,0.0,0.0,0.0,0.0035666666666666668,-5.498166666666667,-5.498166666666667,-0.47450000000000003,-1.8185000000000002,-0.042888888888888754,-0.25,65.641,-0.01649999999999996,-0.177375,0.46799999999999997,100.0,1.0,1.0,202.03333333333333,0.0,0.0,0.0,0.0,0.0,0.0,0.0,8563.4,0.0,55.0,5.0,236.27666666666667,1.0,0.0,0.0,0.0,0.0,0.0,0.0,0.0,0.05699999999999861,0.05699999999999861,0.0,0.0,1.0,55.0,616.79921,10000.0,85.000001,85.000001,85.000001,85.000001,395.0,0.0,0.0,0.0,1.0,166.665,54.245,54.245,47.058,47.058,34.0,-22.4275,17.18,-37.9,35.675,0.0,1783.638,0.3000000000000007,100.0,27.508,27.185,42.578,43.201,0.0,0.0,100.0,0.0,0.0,0.0,0.0,2813.5714285714284,2466.9,4802.555555555556,5493.5,306.2835,306.97125,312.9605,310.7945,21.785888888888888,20.5216,21.786,21.3128,314.999998,314.999998,324.999988,324.999988,99.55907142857143,99.50728333333333,99.56562857142858,99.54501428571429,0.046499999999999986,-0.09933333333333327,-0.13049999999999995,0.07483333333333331,-0.04999999999999716,-0.015000000000000568,1.283,1.294,37.162,29.2605,37.162,34.205,56.31,34.568,59.205,51.5725,54.222,33.723,57.824,49.9355,53.385999999999996,33.2715,57.7825,49.36333333333333,-0.05349999999999999,-0.10499999999999998,0.10659,0.10622500000000001,0.0,205.63,205.59,202.03333333333333,202.03333333333333,0.0,0.0
2,0.0,0.0,0.0,1.0,1.0,0.0,0.0,1.0,0.0,100.0,1.0,1.1856,26.0,0.0,0.0,0.0,59.999996,0.0,26.0,26.0,26.0,26.0,-0.069875,0.2934000000000001,-0.22015,293.747,-2.6598,-2.655,-1.5112,-1.5213999999999999,-269.1,215.4125,190.949375,0.0,0.0,0.0,0.0,0.005433333333333333,-5.498166666666667,-5.498166666666667,-0.5848,0.5335,-0.012444444444444258,2.019,65.767,-0.019399999999999973,-0.281725,0.6739999999999995,100.0,1.0,1.0,203.49,0.0,0.0,0.0,0.0,0.0,0.0,0.0,8625.2,0.0,55.0,5.0,236.73000000000002,0.0,0.0,0.0,0.0,0.0,0.0,0.0,0.0,0.10500000000000043,0.10500000000000043,0.0,0.0,0.0,55.0,616.79921,10000.0,85.000001,85.000001,85.000001,85.000001,395.0,0.0,0.0,0.0,1.0,166.665,51.605,51.605,50.69,50.69,34.0,-28.365000000000002,22.516,-24.09,19.0875,0.0,1783.588,0.45500000000000185,100.0,28.279,27.623,41.900999999999996,41.859,0.0,0.0,100.0,0.0,0.0,0.0,0.0,3348.142857142857,3205.1,3516.222222222222,3326.2,304.4745,304.4155,316.33475,316.65725,21.795444444444446,20.5266,21.795666666666666,21.3207,314.999998,314.999998,324.999988,324.999988,99.55907142857143,99.5073,99.56575714285714,99.54512857142858,0.026000000000000245,-0.11433333333333318,-0.16016666666666657,0.07516666666666683,-0.03833333333332689,-0.05333333333332746,1.77,1.823,37.222,29.291,37.223,34.2545,56.298,34.605000000000004,59.2365,51.6185,54.21,33.7575,57.853,49.980000000000004,53.373999999999995,33.3045,57.809,49.406666666666666,-0.051999999999999935,-0.1200000000000001,0.111365,0.10308500000000001,0.0,206.005,205.97500000000002,203.49,203.49,0.0,0.0
3,0.0,0.0,0.0,1.0,1.0,0.0,0.0,1.0,0.0,100.0,1.0,1.1856,26.0,0.0,0.0,0.0,59.999996,0.0,26.0,26.0,26.0,26.0,-0.064,0.3055000000000001,0.142825,292.847,-2.6903,-2.6737,-1.5584500000000001,-1.4784000000000002,-265.74,215.41500000000002,190.928875,0.0,0.0,0.0,0.0,0.007366666666666667,-5.498166666666667,-5.498166666666667,-0.4998,0.46950000000000003,0.013666666666666716,-1.488,65.925,-0.03199999999999992,-0.184625,0.612000000000001,100.0,1.0,1.0,203.24666666666667,0.0,0.0,0.0,0.0,0.0,0.0,0.0,8614.8,0.0,55.0,5.0,237.29666666666668,1.0,0.0,0.0,0.0,0.0,0.0,0.0,0.0,0.1559999999999988,0.1559999999999988,0.0,0.0,1.0,55.0,616.79921,10000.0,85.000001,85.000001,85.000001,85.000001,395.0,0.0,0.0,0.0,1.0,166.665,53.253,53.253,47.348,47.348,34.0,-23.107499999999998,20.456,-34.43666666666667,28.71,0.0,1783.539,0.5700000000000003,100.0,27.878,27.596,42.084,42.179,0.0,0.0,100.0,0.0,0.0,0.0,0.0,2819.5714285714284,2958.4,4529.777777777777,4466.9,306.34,305.38025,313.77625,313.62475,21.805222222222223,20.5319,21.80611111111111,21.3297,314.999998,314.999998,324.999988,324.999988,99.55908571428571,99.50731666666667,99.5659,99.54528571428571,0.02674999999999983,-0.11533333333333329,-0.1426666666666666,0.07650000000000001,-0.061666666666667425,-0.03833333333332689,1.4235000000000002,1.4369999999999998,37.283,29.3245,37.288,34.3105,56.28,34.6475,59.2755,51.6855,54.194,33.7965,57.8895,50.044,53.355999999999995,33.342,57.8425,49.46966666666667,-0.040999999999999925,-0.12850000000000006,0.1072,0.10112,0.0,206.59,206.495,203.24666666666667,203.24666666666667,0.0,0.0
4,0.0,0.0,0.0,1.0,1.0,0.0,0.0,1.0,0.0,100.0,1.0,1.1856,26.0,0.0,0.0,0.0,59.999996,0.0,26.0,26.0,26.0,26.0,-0.0925,0.2925,-0.07945,293.304,-2.6763,-2.7472,-1.4969000000000001,-1.5917,-262.57,215.42000000000002,190.91075,0.0,0.0,0.0,0.0,0.0092,-5.498166666666667,-5.498166666666667,-0.5326000000000001,-0.9585000000000001,-0.03822222222222216,0.296,66.062,-0.04169999999999996,-0.238575,0.9699999999999998,100.0,1.0,1.0,203.90333333333334,0.0,0.0,0.0,0.0,0.0,0.0,0.0,8642.8,0.0,55.0,5.0,237.79333333333335,0.0,0.0,0.0,0.0,0.0,0.0,0.0,0.0,0.20400000000000063,0.20400000000000063,0.0,0.0,0.0,55.0,616.79921,10000.0,85.000001,85.000001,85.000001,85.000001,395.0,0.0,0.0,0.0,1.0,166.665,52.887,52.887,48.766999999999996,48.766999999999996,34.0,-26.765,20.742,-29.343333333333334,24.58,0.0,1783.49,0.615000000000002,100.0,27.956,27.255,42.873000000000005,42.291,0.0,0.0,100.0,0.0,0.0,0.0,0.0,3104.5714285714284,2934.3,3999.4444444444443,3853.3,305.3265,305.52625,315.045,315.2435,21.814444444444444,20.5367,21.816222222222223,21.3381,314.999998,314.999998,324.999988,324.999988,99.55908571428571,99.50731666666667,99.56604285714286,99.54541428571429,0.007750000000000146,-0.11766666666666681,-0.16566666666666663,0.07200000000000006,-0.026666666666670835,-0.03499999999999659,1.569,1.595,37.34,29.3545,37.351,34.3635,56.263999999999996,34.6845,59.3155,51.742,54.179,33.831,57.927,50.098,53.341,33.3745,57.876999999999995,49.522666666666666,-0.027000000000000024,-0.13000000000000012,0.10813500000000001,0.11349000000000001,0.0,206.91500000000002,206.84,203.90333333333334,203.90333333333334,0.0,0.0
5,0.0,0.0,0.0,1.0,1.0,0.0,0.0,1.0,0.0,100.0,1.0,1.1856,26.0,0.0,0.0,0.0,59.999996,0.0,26.0,26.0,26.0,26.0,-0.067875,0.2894000000000001,-0.039400000000000004,293.64,-2.6477,-2.6947,-1.5446,-1.5732,-259.2,215.42000000000002,190.891,0.0,0.0,0.0,0.0,0.011166666666666668,-5.498166666666667,-5.498166666666667,-0.5419,0.5529999999999999,-0.027666666666666728,-0.312,66.206,-0.06309999999999993,-0.2285,1.0139999999999993,100.0,1.0,1.0,204.45,0.0,0.0,0.0,0.0,0.0,0.0,0.0,8665.9,0.0,55.0,5.0,238.31333333333333,1.0,0.0,0.0,0.0,0.0,0.0,0.0,0.0,0.254999999999999,0.254999999999999,0.0,0.0,1.0,55.0,616.79921,10000.0,85.000001,85.000001,85.000001,85.000001,395.0,0.0,0.0,0.0,1.0,166.665,53.07,53.07,49.194,49.194,34.0,-26.7275,20.184,-30.126666666666665,22.9025,0.0,1783.44,0.41499999999999915,100.0,27.72,27.273,42.374,41.697,0.0,0.0,100.0,0.0,0.0,0.0,0.0,3133.0,2903.6,3935.1111111111113,3913.9,305.348,305.4405,315.29375,315.141,21.824444444444445,20.542,21.826555555555554,21.3468,314.999998,314.999998,324.999988,324.999988,99.55908571428571,99.50733333333334,99.56617142857142,99.54554285714286,0.005749999999999922,-0.1186666666666667,-0.18733333333333335,0.036833333333333274,-0.086666666666666,-0.051666666666669414,1.5995,1.6365,37.403,29.3875,37.416,34.417500000000004,56.248999999999995,34.725,59.3525,51.799,54.164,33.868,57.961,50.153,53.325,33.4105,57.908500000000004,49.57666666666667,-0.04249999999999998,-0.10250000000000004,0.10039500000000001,0.10959,0.0,207.46,207.345,204.45,204.45,0.0,0.0
6,0.0,0.0,0.0,1.0,1.0,0.0,0.0,1.0,0.0,100.0,1.0,1.1856,26.0,0.0,0.0,0.0,59.999996,0.0,26.0,26.0,26.0,26.0,-0.096375,0.2973000000000001,0.0422,293.457,-2.6834,-2.7688,-1.49195,-1.5590000000000002,-256.02,215.41750000000002,190.871625,0.0,0.0,0.0,0.0,0.013033333333333334,-5.498166666666667,-5.498166666666667,-0.528,-0.26049999999999995,-0.04677777777777781,-1.149,66.34700000000001,-0.06909999999999994,-0.2053,0.8300000000000001,100.0,1.0,1.0,204.69,0.0,0.0,0.0,0.0,0.0,0.0,0.0,8676.1,0.0,55.0,5.0,238.82,0.0,0.0,0.0,0.0,0.0,0.0,0.0,0.0,0.3030000000000008,0.3030000000000008,0.0,0.0,0.0,55.0,616.79921,10000.0,85.000001,85.000001,85.000001,85.000001,395.0,0.0,0.0,0.0,1.0,166.665,53.528,53.528,48.507999999999996,48.507999999999996,34.0,-28.072499999999998,19.136,-33.31,23.8325,0.0,1783.391,0.28999999999999915,100.0,27.404,26.897,42.547,41.872,0.0,0.0,100.0,0.0,0.0,0.0,0.0,3184.0,2778.6,4262.777777777777,4049.3,305.3085,305.85925,314.466,314.73975,21.833555555555556,20.5468,21.836444444444446,21.3553,314.999998,314.999998,324.999988,324.999988,99.55908571428571,99.50735,99.5663,99.54568571428571,-0.009749999999999925,-0.135,-0.1928333333333333,0.03049999999999997,-0.061666666666667425,-0.04333333333332945,1.4994999999999998,1.5285,37.46,29.417,37.477999999999994,34.4705,56.233000000000004,34.7615,59.3905,51.858000000000004,54.147999999999996,33.902,57.9965,50.2095,53.309,33.443,57.941,49.63166666666667,-0.045499999999999985,-0.09850000000000003,0.11026000000000001,0.10524000000000001,0.0,207.85000000000002,207.785,204.69,204.69,0.0,0.0
7,0.0,0.0,0.0,1.0,1.0,0.0,0.0,1.0,0.0,100.0,1.0,1.1856,26.0,0.0,0.0,0.0,59.999996,0.0,26.0,26.0,26.0,26.0,-0.06675,0.2844,-0.000275,293.427,-2.6785,-2.772,-1.5398,-1.6107,-252.43,215.41500000000002,190.84975,0.0,0.0,0.0,0.0,0.0151,-5.498166666666667,-5.498166666666667,-0.5342,0.15649999999999997,-0.04244444444444451,-0.185,66.5,-0.0683999999999999,-0.21635000000000001,0.6060000000000008,100.0,1.0,1.0,205.24,0.0,0.0,0.0,0.0,0.0,0.0,0.0,8699.3,0.0,55.0,5.0,239.37,1.0,0.0,0.0,0.0,0.0,0.0,0.0,0.0,0.3569999999999993,0.3569999999999993,0.0,0.0,1.0,55.0,616.79921,10000.0,85.000001,85.000001,85.000001,85.000001,395.0,0.0,0.0,0.0,1.0,166.665,53.177,53.177,48.644999999999996,48.644999999999996,34.0,-27.1575,20.734,-32.46333333333333,23.7075,0.0,1783.338,-0.08000000000000007,100.0,27.685,27.019,42.641,41.823,0.0,0.0,100.0,0.0,0.0,0.0,0.0,3219.0,2845.3,4172.111111111111,3937.2,305.192,305.59075,314.72875,315.01975,21.84411111111111,20.5523,21.847666666666665,21.3647,314.999998,314.999998,324.999988,324.999988,99.55908571428571,99.50736666666667,99.56647142857143,99.54582857142857,0.019750000000000156,-0.10999999999999988,-0.18566666666666665,0.03249999999999997,-0.046666666666666856,-0.05833333333333002,1.5455,1.5605,37.525,29.451999999999998,37.548,34.528999999999996,56.217,34.8045,59.4325,51.920500000000004,54.134,33.941,58.036,50.2695,53.293,33.4805,57.977000000000004,49.690666666666665,-0.08150000000000002,-0.07200000000000006,0.09918,0.109575,0.0,208.32,208.265,205.24,205.24,0.0,0.0
8,0.0,0.0,0.0,1.0,1.0,0.0,0.0,1.0,0.0,100.0,1.0,1.1856,26.0,0.0,0.0,0.0,59.999996,0.0,26.0,26.0,26.0,26.0,-0.0365,0.2882,-0.02785,293.503,-2.6759,-2.7022,-1.5584500000000001,-1.5977999999999999,-249.24,215.41,190.8305,0.0,0.0,0.0,0.0,0.016966666666666668,-5.498166666666667,-5.498166666666667,-0.5359,-0.137,-0.027666666666666728,-1.037,66.637,-0.06009999999999993,-0.21980000000000002,0.3020000000000005,100.0,1.0,1.0,205.64666666666668,0.0,0.0,0.0,0.0,0.0,0.0,0.0,8716.6,0.0,55.0,5.0,239.86333333333334,0.0,0.0,0.0,0.0,0.0,0.0,0.0,0.0,0.40500000000000114,0.40500000000000114,0.0,0.0,0.0,55.0,616.79921,10000.0,85.000001,85.000001,85.000001,85.000001,395.0,0.0,0.0,0.0,1.0,166.665,53.36,53.36,48.492,48.492,34.0,-25.5075,21.686,-31.426666666666666,24.567500000000003,0.0,1783.29,-0.15499999999999936,100.0,27.373,27.105,42.584,42.006,0.0,0.0,100.0,0.0,0.0,0.0,0.0,3097.142857142857,2943.1,4098.888888888889,3956.8,305.536,305.307,314.9345,314.9355,21.85322222222222,20.5573,21.857444444444443,21.3731,314.999998,314.999998,324.999988,324.999988,99.5591,99.50736666666667,99.5666,99.54595714285715,0.030749999999999833,-0.09166666666666679,-0.17333333333333334,0.04899999999999993,-0.054999999999999716,-0.04833333333333201,1.533,1.5545,37.583,29.483,37.608999999999995,34.582,56.202,34.841499999999996,59.469,51.9785,54.119,33.9755,58.07,50.3255,53.278,33.5135,58.0085,49.745,-0.08999999999999997,-0.05750000000000011,0.10978,0.104175,0.0,208.72500000000002,208.69,205.64666666666668,205.64666666666668,0.0,0.0
9,0.0,0.0,0.0,1.0,1.0,0.0,0.0,1.0,0.0,100.0,1.0,1.1856,26.0,0.0,0.0,0.0,59.999996,0.0,26.0,26.0,26.0,26.0,-0.0365,0.2865,-0.008675,293.35,-2.674,-2.7198,-1.522,-1.5578,-246.04,215.4025,190.810875,0.0,0.0,0.0,0.0,0.018833333333333334,-5.498166666666667,-5.498166666666667,-0.5348,0.15149999999999997,-0.03966666666666674,-0.749,66.773,-0.045399999999999996,-0.213175,0.14400000000000013,100.0,1.0,1.0,206.05333333333334,0.0,0.0,0.0,0.0,0.0,0.0,0.0,8733.9,0.0,55.0,5.0,240.35333333333335,1.0,0.0,0.0,0.0,0.0,0.0,0.0,0.0,0.4529999999999994,0.4529999999999994,0.0,0.0,1.0,55.0,616.79921,10000.0,85.000001,85.000001,85.000001,85.000001,395.0,0.0,0.0,0.0,1.0,166.665,53.116,53.116,48.721000000000004,48.721000000000004,34.0,-26.16,22.305999999999997,-30.196666666666665,25.34,0.0,1783.241,-0.28999999999999915,100.0,27.491,27.064,42.495000000000005,41.986000000000004,0.0,0.0,100.0,0.0,0.0,0.0,0.0,3207.285714285714,2942.4,4090.6666666666665,4044.2,305.1915,305.32875,314.912,314.774,21.862444444444446,20.5622,21.867333333333335,21.3816,314.999998,314.999998,324.999988,324.999988,99.5591,99.50738333333334,99.56672857142857,99.54608571428571,0.0402499999999999,-0.07933333333333326,-0.15966666666666662,0.06299999999999994,-0.04833333333333201,-0.051666666666669414,1.5485000000000002,1.555,37.64,29.514,37.671,34.6345,56.187,34.878,59.504999999999995,52.035,54.105000000000004,34.0095,58.104,50.3795,53.263999999999996,33.545500000000004,58.04,49.798,-0.09399999999999997,-0.04849999999999999,0.103885,0.1091,0.0,209.135,209.135,206.05333333333334,206.05333333333334,0.0,0.0
10,0.0,0.0,0.0,1.0,1.0,0.0,0.0,1.0,0.0,100.0,1.0,1.1856,26.0,0.0,0.0,0.0,59.999996,0.0,26.0,26.0,26.0,26.0,-0.033375,0.28659999999999997,0.010825000000000001,293.228,-2.6738,-2.7058,-1.5537,-1.5478,-242.63,215.39499999999998,190.790125,0.0,0.0,0.0,0.0,0.020800000000000003,-5.498166666666667,-5.498166666666667,-0.5285000000000001,-0.12050000000000005,-0.016111111111110965,1.597,66.918,-0.03059999999999996,-0.2097,-0.13600000000000012,100.0,1.0,1.0,206.43,0.0,0.0,0.0,0.0,0.0,0.0,0.0,8749.8,0.0,55.0,5.0,240.87666666666667,0.0,0.0,0.0,0.0,0.0,0.0,1.0,0.0,0.5040000000000013,0.5040000000000013,0.0,0.0,0.0,55.0,616.79921,10000.0,85.000001,85.000001,85.000001,85.000001,395.0,0.0,0.0,0.0,1.0,166.665,53.329,53.329,48.431,48.431,34.0,-23.6175,23.286,-29.986666666666665,28.35,0.0,1783.19,-0.3699999999999992,100.0,27.668,26.87,42.696,42.135,0.0,0.0,100.0,0.0,0.0,0.0,0.0,2994.0,3021.3,4104.333333333333,4262.2,305.6255,305.28975,314.79725,314.32375,21.87211111111111,20.5675,21.87788888888889,21.3906,314.999998,314.999998,324.999988,324.999988,99.55911428571429,99.5074,99.56688571428572,99.54622857142857,0.059499999999999886,-0.06333333333333324,-0.13983333333333337,0.08933333333333326,-0.04333333333332945,-0.045000000000001705,1.521,1.5115,37.701,29.547,37.736000000000004,34.691,56.173,34.916,59.5445,52.0965,54.092,34.044,58.1405,50.4385,53.248999999999995,33.579,58.073499999999996,49.856,-0.09999999999999998,-0.04800000000000004,0.10432500000000001,0.10995,0.0,209.57999999999998,209.57,206.43,206.43,0.0,0.0
11,0.0,0.0,0.0,1.0,1.0,0.0,0.0,1.0,0.0,100.0,1.0,1.1856,26.0,0.0,0.0,0.0,59.999996,0.0,26.0,26.0,26.0,26.0,-0.00875,0.2815000000000001,-0.031775000000000005,293.51800000000003,-2.7005,-2.6975,-1.56195,-1.521,-239.01,215.385,190.767875,0.0,0.0,0.0,0.0,0.022600000000000002,-5.498166666666667,-5.498166666666667,-0.5501,-0.26649999999999996,0.008888888888888946,0.905,67.068,-0.015199999999999991,-0.22332500000000002,-0.2599999999999998,100.0,1.0,1.0,206.98333333333335,0.0,0.0,0.0,0.0,0.0,0.0,0.0,8773.2,0.0,55.0,5.0,241.41666666666666,1.0,0.0,0.0,0.0,0.0,0.0,1.0,0.0,0.5579999999999998,0.5579999999999998,0.0,0.0,1.0,55.0,616.79921,10000.0,85.000001,85.000001,85.000001,85.000001,395.0,0.0,0.0,0.0,1.0,166.665,53.314,53.314,48.903999999999996,48.903999999999996,34.0,-23.5825,24.573999999999998,-26.836666666666666,27.43,0.0,1783.137,-0.8100000000000005,100.0,27.353,26.921,42.464,42.194,0.0,0.0,100.0,0.0,0.0,0.0,0.0,3004.5714285714284,3116.1,3896.222222222222,4097.0,305.632,304.99075,315.336,314.72525,21.882333333333335,20.5731,21.88888888888889,21.4001,314.999998,314.999998,324.999988,324.999988,99.55911428571429,99.5074,99.56702857142857,99.54638571428572,0.0674999999999999,-0.05166666666666675,-0.11549999999999994,0.10850000000000004,-0.03499999999999659,-0.04999999999999716,1.5775000000000001,1.5655000000000001,37.765,29.582,37.805,34.751,56.157,34.9555,59.583,52.161,54.077,34.081,58.1765,50.5005,53.233000000000004,33.614,58.106,49.916666666666664,-0.10799999999999998,-0.03249999999999997,0.10226500000000001,0.11267500000000001,0.0,210.015,210.03,206.98333333333335,206.98333333333335,0.0,0.0
12,0.0,0.0,0.0,1.0,1.0,0.0,0.0,1.0,0.0,100.0,1.0,1.1856,26.0,0.0,0.0,0.0,59.999996,0.0,26.0,26.0,26.0,26.0,-0.01225,0.2842,0.0041,293.182,-2.7067,-2.6776,-1.56555,-1.5328,-235.79,215.3775,190.747375,0.0,0.0,0.0,0.0,0.025466666666666665,-5.498166666666667,-5.498166666666667,-0.5421,0.43299999999999994,0.016999999999999904,0.8140000000000001,67.203,-0.0007999999999999119,-0.205025,-0.4239999999999995,100.0,1.0,1.0,207.33666666666667,0.0,0.0,0.0,0.0,0.0,0.0,0.0,8788.2,0.0,55.0,5.0,241.9,0.0,0.0,0.0,0.0,0.0,0.0,1.0,0.0,0.6059999999999981,0.6059999999999981,0.0,0.0,0.0,55.0,616.79921,10000.0,85.000001,85.000001,85.000001,85.000001,395.0,0.0,0.0,0.0,1.0,166.665,52.994,52.994,48.325,48.325,34.0,-25.0175,23.128,-27.983333333333334,29.677500000000002,0.0,1783.089,0.6750000000000007,100.0,27.49,27.265,42.313,42.225,0.0,0.0,100.0,0.0,0.0,0.0,0.0,2991.5714285714284,3173.9,4073.0,4243.9,305.654,304.78275,314.917,314.3975,21.891444444444446,20.5783,21.898666666666667,21.4086,314.999998,314.999998,324.999988,324.999988,99.55912857142857,99.5074,99.56715714285714,99.54652857142857,0.03125,-0.09399999999999986,-0.10516666666666663,0.12316666666666687,-0.051666666666669414,-0.023333333333326323,1.5455,1.5335,37.821,29.613999999999997,37.867000000000004,34.8035,56.144999999999996,34.9915,59.6175,52.2185,54.065,34.114,58.2085,50.5555,53.22,33.646,58.1355,49.970666666666666,-0.04149999999999998,-0.10699999999999998,0.11195000000000001,0.10310000000000001,0.0,210.46,210.47,207.33666666666667,207.33666666666667,0.0,0.0
13,0.0,0.0,0.0,1.0,1.0,0.0,0.0,1.0,0.0,100.0,1.0,1.1856,26.0,0.0,0.0,0.0,59.999996,0.0,26.0,26.0,26.0,26.0,0.034125,0.2842,0.0218,292.892,-2.6849,-2.702,-1.55495,-1.5468000000000002,-232.56,215.37,190.727,0.0,0.0,0.0,0.0,0.02666666666666667,-5.498166666666667,-5.498166666666667,-0.5368,-0.21100000000000008,0.00855555555555565,1.167,67.338,0.0033000000000000806,-0.211675,-0.4059999999999997,100.0,1.0,1.0,207.67333333333335,0.0,0.0,0.0,0.0,0.0,0.0,0.0,8802.5,0.0,55.0,5.0,242.38666666666666,1.0,0.0,0.0,0.0,0.0,0.0,1.0,0.0,0.6539999999999999,0.6539999999999999,0.0,0.0,1.0,55.0,616.79921,10000.0,85.000001,85.000001,85.000001,85.000001,395.0,0.0,0.0,0.0,1.0,333.33500000000004,52.933,52.933,48.065,48.065,34.0,-21.86,26.194000000000003,-27.763333333333335,30.66,0.0,1783.04,-0.5149999999999988,100.0,27.688,27.347,42.696,42.625,0.0,0.0,100.0,0.0,0.0,0.0,0.0,3020.0,3108.0,4122.333333333333,4285.2,305.5695,305.00525,314.74275,314.26875,21.900555555555556,20.5834,21.908666666666665,21.4172,314.999998,314.999998,324.999988,324.999988,99.55914285714286,99.50741666666667,99.5673,99.54665714285714,0.10924999999999985,-0.012333333333333307,-0.09199999999999997,0.1273333333333333,-0.02833333333332888,-0.07166666666666544,1.517,1.4935,37.878,29.646,37.929,34.8575,56.132999999999996,35.028,59.6545,52.278,54.053,34.1475,58.243,50.6125,53.208,33.678,58.167,50.026666666666664,-0.121,-0.025500000000000078,0.10516,0.10215500000000001,0.0,210.85500000000002,210.88,207.67333333333335,207.67333333333335,0.0,0.0
14,0.0,0.0,0.0,1.0,1.0,0.0,0.0,1.0,0.0,100.0,1.0,1.1856,26.0,0.0,0.0,0.0,59.999996,0.0,26.0,26.0,26.0,26.0,0.0395,0.27849999999999997,-0.025675,293.137,-2.685,-2.7085,-1.56695,-1.5375,-228.92000000000002,215.3625,190.704375,0.0,0.0,0.0,0.0,0.028800000000000003,-5.498166666666667,-5.498166666666667,-0.5503,-0.009000000000000119,0.024777777777777787,1.002,67.486,0.011800000000000033,-0.224175,-0.4660000000000002,100.0,1.0,1.0,208.23666666666668,0.0,0.0,0.0,0.0,0.0,0.0,0.0,8826.5,0.0,55.0,5.0,242.92000000000002,0.0,0.0,0.0,0.0,0.0,0.0,1.0,0.0,0.7079999999999984,0.7079999999999984,0.0,0.0,0.0,55.0,616.79921,10000.0,85.000001,85.000001,85.000001,85.000001,395.0,0.0,0.0,0.0,1.0,166.665,52.948,52.948,48.522999999999996,48.522999999999996,34.0,-21.4875,25.546,-25.93,29.7775,0.0,1782.986,-0.46999999999999886,100.0,27.664,27.523,42.562,42.688,0.0,0.0,100.0,0.0,0.0,0.0,0.0,2973.142857142857,3106.3,3940.3333333333335,4134.4,305.714,304.96575,315.23525,314.63975,21.910666666666668,20.5891,21.919666666666668,21.4268,314.999998,314.999998,324.999988,324.999988,99.55915714285715,99.50741666666667,99.56745714285714,99.5468,0.10875000000000012,-0.030000000000000027,-0.08616666666666661,0.14216666666666677,-0.036666666666668846,-0.061666666666667425,1.5594999999999999,1.5445,37.942,29.682000000000002,37.998000000000005,34.917500000000004,56.119,35.068,59.693,52.3425,54.04,34.1845,58.2785,50.675,53.194,33.713499999999996,58.1995,50.087666666666664,-0.11199999999999999,-0.040000000000000036,0.100525,0.11099,0.0,211.3,211.35000000000002,208.23666666666668,208.23666666666668,0.0,0.0
15,0.0,0.0,0.0,1.0,1.0,0.0,0.0,1.0,0.0,100.0,1.0,1.1856,26.0,0.0,0.0,0.0,59.999996,0.0,26.0,26.0,26.0,26.0,0.055875,0.2835000000000001,-0.010750000000000001,292.953,-2.675,-2.684,-1.5564,-1.56,-225.88,215.35750000000002,190.685125,0.0,0.0,0.0,0.0,0.03056666666666667,-5.498166666666667,-5.498166666666667,-0.5439,0.23849999999999993,0.027222222222222037,-0.788,67.61,0.01770000000000005,-0.212725,-0.36799999999999944,100.0,1.0,1.0,208.56666666666666,0.0,0.0,0.0,0.0,0.0,0.0,0.0,8840.4,0.0,55.0,5.0,243.37,1.0,0.0,0.0,0.0,0.0,0.0,1.0,0.0,0.7530000000000001,0.7530000000000001,0.0,0.0,1.0,55.0,616.79921,10000.0,85.000001,85.000001,85.000001,85.000001,395.0,0.0,0.0,0.0,1.0,166.665,52.856,52.856,48.248,48.248,34.0,-22.495,24.532,-27.349999999999998,29.79,0.0,1782.941,-0.3699999999999992,100.0,27.557,27.79,42.396,42.887,0.0,0.0,100.0,0.0,0.0,0.0,0.0,3081.0,3004.2,4110.111111111111,4124.4,305.569,305.0645,314.89325,314.55775,21.91922222222222,20.594,21.92888888888889,21.4348,314.999998,314.999998,324.999988,324.999988,99.55917142857143,99.50743333333334,99.56757142857143,99.54694285714285,0.09975000000000023,-0.03266666666666662,-0.08999999999999997,0.13183333333333325,-0.06666666666666998,-0.03999999999999915,1.5380000000000003,1.5075,37.995000000000005,29.7125,38.055,34.968,56.108000000000004,35.101,59.725,52.3975,54.028999999999996,34.2155,58.3085,50.7275,53.182,33.7435,58.227000000000004,50.13933333333333,-0.10599999999999998,-0.04150000000000009,0.10683500000000001,0.10443500000000001,0.0,211.715,211.735,208.56666666666666,208.56666666666666,0.0,0.0
16,0.0,0.0,0.0,1.0,1.0,0.0,0.0,1.0,0.0,100.0,1.0,1.1856,26.0,0.0,0.0,0.0,59.999996,0.0,26.0,26.0,26.0,26.0,0.04475,0.2663,-0.001825,292.786,-2.742,-2.6278,-1.5339,-1.5563,-222.22,215.35250000000002,190.661875,0.0,0.0,0.0,0.0,0.03266666666666667,-5.498166666666667,-5.498166666666667,-0.5525,-0.33699999999999997,0.02155555555555555,-0.9380000000000001,67.759,0.02190000000000003,-0.223475,-0.24799999999999933,100.0,1.0,1.0,209.01,0.0,0.0,0.0,0.0,0.0,0.0,0.0,8859.2,0.0,55.0,5.0,243.90333333333334,0.0,0.0,0.0,0.0,0.0,0.0,1.0,0.0,0.8069999999999986,0.8069999999999986,0.0,0.0,0.0,55.0,616.79921,10000.0,85.000001,85.000001,85.000001,85.000001,395.0,0.0,0.0,0.0,1.0,166.665,52.551,52.551,47.989,47.989,34.0,-24.0825,25.222,-26.536666666666665,29.125,0.0,1782.887,-0.27999999999999936,100.0,27.436,27.853,42.635,43.057,0.0,0.0,100.0,0.0,0.0,0.0,0.0,3184.4285714285716,3139.7,4079.0,4028.1000000000004,305.3155,304.70425,314.94575,314.778,21.929222222222222,20.5998,21.94,21.444499999999998,314.999998,314.999998,324.999988,324.999988,99.55917142857143,99.50743333333334,99.56772857142857,99.5471,0.09675000000000011,-0.03299999999999992,-0.08466666666666656,0.13749999999999996,-0.07000000000000028,-0.04833333333333201,1.5415,1.5285,38.058,29.749000000000002,38.125,35.028,56.094,35.1415,59.7655,52.463,54.015,34.2525,58.346000000000004,50.791,53.167,33.778999999999996,58.260999999999996,50.20133333333334,-0.09650000000000003,-0.050999999999999934,0.09667,0.10751000000000001,0.0,212.16,212.18,209.01,209.01,0.0,0.0
17,0.0,0.0,0.0,1.0,1.0,0.0,0.0,1.0,0.0,100.0,1.0,1.1856,26.0,0.0,0.0,0.0,59.999996,0.0,26.0,26.0,26.0,26.0,0.027,0.28680000000000017,0.025475,292.511,-2.6702,-2.6112,-1.55225,-1.5152999999999999,-218.97,215.3475,190.640875,0.0,0.0,0.0,0.0,0.03456666666666667,-5.498166666666667,-5.498166666666667,-0.5509000000000001,0.1795,0.0,-1.17,67.89,0.02069999999999994,-0.21615,-0.16999999999999993,100.0,1.0,1.0,209.37333333333333,0.0,0.0,0.0,0.0,0.0,0.0,0.0,8874.6,0.0,55.0,5.0,244.37333333333333,1.0,0.0,0.0,0.0,0.0,0.0,1.0,0.0,0.8550000000000004,0.8550000000000004,0.0,0.0,1.0,55.0,616.79921,10000.0,85.000001,85.000001,85.000001,85.000001,395.0,0.0,0.0,0.0,1.0,333.33500000000004,52.368,52.368,47.668,47.668,34.0,-23.6475,24.65,-28.773333333333333,29.2325,0.0,1782.838,-0.1999999999999993,100.0,27.698,27.974,42.656,43.035,0.0,0.0,100.0,0.0,0.0,0.0,0.0,3174.714285714286,3125.9,4253.666666666667,4167.0,305.217,304.742,314.5565,314.495,21.938333333333333,20.6051,21.94988888888889,21.453,314.999998,314.999998,324.999988,324.999988,99.55918571428572,99.50743333333334,99.56785714285714,99.54722857142858,0.09299999999999997,-0.04033333333333311,-0.09433333333333338,0.12683333333333335,-0.05666666666667197,-0.03999999999999915,1.5185,1.5105,38.114000000000004,29.782,38.186,35.0815,56.082,35.1775,59.8,52.5205,54.004000000000005,34.286,58.378,50.846000000000004,53.155,33.8115,58.29,50.25533333333333,-0.09750000000000003,-0.06299999999999994,0.11226000000000001,0.107785,0.0,212.57999999999998,212.57999999999998,209.37333333333333,209.37333333333333,0.0,0.0
18,0.0,0.0,0.0,1.0,1.0,0.0,0.0,1.0,0.0,100.0,1.0,1.1856,26.0,0.0,0.0,0.0,59.999996,0.0,26.0,26.0,26.0,26.0,0.028875,0.2701,0.03665,292.48,-2.6527,-2.7475,-1.5322,-1.5895000000000001,-215.5,215.345,190.6185,0.0,0.0,0.0,0.0,0.03656666666666667,-5.498166666666667,-5.498166666666667,-0.5596,-0.31800000000000006,0.0006666666666665932,0.908,68.029,0.014599999999999946,-0.2238,-0.1639999999999997,100.0,1.0,1.0,209.78,0.0,0.0,0.0,0.0,0.0,0.0,0.0,8891.8,0.0,55.0,5.0,244.87666666666667,0.0,0.0,0.0,0.0,0.0,0.0,1.0,0.0,0.9059999999999988,0.9059999999999988,0.0,0.0,0.0,55.0,616.79921,10000.0,85.000001,85.000001,85.000001,85.000001,395.0,0.0,0.0,0.0,1.0,166.665,52.49,52.49,47.791,47.791,34.0,-22.4625,26.194000000000003,-26.93,31.31,0.0,1782.788,-0.1850000000000005,100.0,27.863,27.749,42.971000000000004,43.088,0.0,0.0,100.0,0.0,0.0,0.0,0.0,3060.142857142857,3158.0,4072.0,4260.1,305.4525,304.7205,314.855,314.23,21.94788888888889,20.610500000000002,21.960333333333335,21.4622,314.999998,314.999998,324.999988,324.999988,99.5592,99.50743333333334,99.56801428571428,99.54737142857142,0.09675000000000011,-0.03766666666666674,-0.08783333333333332,0.12883333333333336,-0.03833333333332689,-0.045000000000001705,1.504,1.498,38.174,29.816,38.251999999999995,35.1385,56.068,35.215,59.8375,52.582,53.991,34.320499999999996,58.413,50.9055,53.141,33.8445,58.322,50.31366666666666,-0.09299999999999997,-0.06099999999999994,0.10502,0.10605,0.0,212.985,213.005,209.78,209.78,0.0,0.0
19,0.0,0.0,0.0,1.0,1.0,0.0,0.0,1.0,0.0,100.0,1.0,1.1856,26.0,0.0,0.0,0.0,59.999996,0.0,26.0,26.0,26.0,26.0,0.046875,0.28180000000000005,0.057775,292.221,-2.6326,-2.7119,-1.5311,-1.6078999999999999,-212.23000000000002,215.34,190.597,0.0,0.0,0.0,0.0,0.0385,-5.498166666666667,-5.498166666666667,-0.553,0.569,0.00922222222222202,0.748,68.158,0.010299999999999976,-0.215925,-0.0860000000000003,100.0,1.0,1.0,210.18666666666667,0.0,0.0,0.0,0.0,0.0,0.0,0.0,8909.0,0.0,55.0,5.0,245.34333333333336,1.0,0.0,0.0,0.0,0.0,0.0,1.0,0.0,0.9540000000000006,0.9540000000000006,0.0,0.0,1.0,55.0,616.79921,10000.0,85.000001,85.000001,85.000001,85.000001,395.0,0.0,0.0,0.0,1.0,333.33500000000004,52.002,52.002,47.791,47.791,34.0,-22.732499999999998,25.573999999999998,-27.48,31.990000000000002,0.0,1782.739,-0.15499999999999936,100.0,28.39,28.147,42.911,43.15,0.0,0.0,100.0,0.0,0.0,0.0,0.0,3080.857142857143,3161.2,4120.444444444444,4297.3,305.352,304.697,314.80075,314.176,21.956888888888887,20.6158,21.970222222222223,21.4707,314.999998,314.999998,324.999988,324.999988,99.55921428571429,99.50745,99.56814285714286,99.54751428571429,0.09125000000000005,-0.04600000000000004,-0.09233333333333338,0.13216666666666677,-0.01833333333333087,-0.061666666666667425,1.4994999999999998,1.5045,38.230999999999995,29.849,38.314,35.192,56.057,35.2525,59.871,52.64,53.980000000000004,34.355000000000004,58.4445,50.961,53.129999999999995,33.8775,58.3505,50.368,-0.09199999999999997,-0.06550000000000011,0.09981500000000001,0.11377500000000002,0.0,213.405,213.42000000000002,210.18666666666667,210.18666666666667,0.0,0.0
20,0.0,0.0,0.0,1.0,1.0,0.0,0.0,1.0,0.0,100.0,1.0,1.1856,26.0,0.0,0.0,0.0,59.999996,0.0,26.0,26.0,26.0,26.0,0.02825,0.26980000000000004,-0.011025,292.358,-2.7054,-2.6593,-1.52055,-1.5897000000000001,-208.75,215.3375,190.574625,0.0,0.0,0.0,0.0,0.0405,-5.498166666666667,-5.498166666666667,-0.5526,-0.7035,0.0086666666666666,-0.918,68.29599999999999,0.0043999999999999595,-0.22307500000000002,0.02600000000000069,100.0,1.0,1.0,210.57999999999998,0.0,0.0,0.0,0.0,0.0,0.0,0.0,8925.7,0.0,55.0,5.0,245.84,0.0,0.0,0.0,0.0,0.0,0.0,0.0,0.0,1.004999999999999,1.004999999999999,0.0,0.0,0.0,55.0,616.79921,10000.0,85.000001,85.000001,85.000001,85.000001,395.0,0.0,0.0,0.0,1.0,166.665,52.536,52.536,47.348,47.348,34.0,-23.5875,23.612000000000002,-28.406666666666666,29.02,0.0,1782.69,-0.17999999999999972,100.0,27.869,28.081,43.342,43.665,0.0,0.0,100.0,0.0,0.0,0.0,0.0,3114.5714285714284,3014.4,4154.777777777777,4087.9,305.527,305.09975,314.7475,314.58,21.966333333333335,20.6213,21.980777777777778,21.48,314.999998,314.999998,324.999988,324.999988,99.55922857142858,99.50745,99.56828571428571,99.54765714285715,0.08674999999999988,-0.050999999999999934,-0.10799999999999998,0.1116666666666668,-0.046666666666666856,-0.03999999999999915,1.5,1.4969999999999999,38.29,29.883499999999998,38.379999999999995,35.25,56.043,35.2905,59.9105,52.7025,53.967,34.3905,58.4805,51.0215,53.114999999999995,33.911500000000004,58.384,50.42733333333334,-0.09299999999999997,-0.05800000000000005,0.10428000000000001,0.103715,0.0,213.82999999999998,213.815,210.57999999999998,210.57999999999998,0.0,0.0
21,0.0,0.0,0.0,1.0,1.0,0.0,0.0,1.0,0.0,100.0,1.0,1.1856,26.0,0.0,0.0,0.0,59.999996,0.0,26.0,26.0,26.0,26.0,0.008875000000000001,0.27449999999999997,-0.0371,292.648,-2.7196,-2.6316,-1.5679500000000002,-1.5310000000000001,-205.47,215.3375,190.553125,0.0,0.0,0.0,0.0,0.0424,-5.498166666666667,-5.498166666666667,-0.5733,-0.08650000000000002,-0.0012222222222222356,-0.713,68.423,0.0033000000000000806,-0.225275,-0.019999999999999574,100.0,1.0,1.0,211.0966666666667,0.0,0.0,0.0,0.0,0.0,0.0,0.0,8947.6,0.0,55.0,5.0,246.29666666666668,1.0,0.0,0.0,0.0,0.0,0.0,0.0,0.0,1.0530000000000008,1.0530000000000008,0.0,0.0,1.0,55.0,616.79921,10000.0,85.000001,85.000001,85.000001,85.000001,395.0,0.0,0.0,0.0,1.0,166.665,52.475,52.475,48.111,48.111,34.0,-25.1175,23.701999999999998,-28.473333333333333,26.939999999999998,0.0,1782.641,-0.1850000000000005,100.0,27.864,27.889,43.019999999999996,43.257,0.0,0.0,100.0,0.0,0.0,0.0,0.0,3225.142857142857,3069.1,4056.1111111111113,3999.7,305.1985,305.0,315.04175,314.95,21.97522222222222,20.6265,21.990555555555556,21.4885,314.999998,314.999998,324.999988,324.999988,99.55922857142858,99.50746666666667,99.56842857142857,99.5478,0.07774999999999999,-0.052999999999999936,-0.11983333333333335,0.1096666666666668,-0.04999999999999716,-0.04333333333332945,1.5635,1.5615,38.345,29.916,38.441,35.303,56.03,35.326499999999996,59.943,52.757999999999996,53.955,34.424,58.5115,51.0745,53.102000000000004,33.9435,58.411500000000004,50.47933333333333,-0.08999999999999997,-0.06099999999999994,0.11308000000000001,0.10628000000000001,0.0,214.22500000000002,214.20499999999998,211.0966666666667,211.0966666666667,0.0,0.0
22,0.0,0.0,0.0,1.0,1.0,0.0,0.0,1.0,0.0,100.0,1.0,1.1856,26.0,0.0,0.0,0.0,59.999996,0.0,26.0,26.0,26.0,26.0,-0.005625,0.2833000000000001,-0.0092,292.282,-2.7567,-2.6696999999999997,-1.5954000000000002,-1.5325,-201.98000000000002,215.335,190.529375,0.0,0.0,0.0,0.0,0.04443333333333333,-5.498166666666667,-5.498166666666667,-0.5588000000000001,0.15800000000000003,0.006444444444444253,1.1420000000000001,68.561,0.0038000000000000256,-0.20105,-0.1639999999999997,100.0,1.0,1.0,211.38,0.0,0.0,0.0,0.0,0.0,0.0,0.0,8959.7,0.0,55.0,5.0,246.79000000000002,0.0,0.0,0.0,0.0,0.0,0.0,0.0,0.0,1.1039999999999992,1.1039999999999992,0.0,0.0,0.0,55.0,616.79921,10000.0,85.000001,85.000001,85.000001,85.000001,395.0,0.0,0.0,0.0,1.0,166.665,52.536,52.536,47.256,47.256,34.0,-23.4425,24.945999999999998,-30.096666666666664,31.01,0.0,1782.59,-0.24499999999999922,100.0,28.108,27.822,43.209,43.147999999999996,0.0,0.0,100.0,0.0,0.0,0.0,0.0,3051.285714285714,3150.7,4256.0,4369.1,305.601,304.945,314.5015,314.13475,21.984666666666666,20.6321,22.001,21.4976,314.999998,314.999998,324.999988,324.999988,99.55925714285715,99.50746666666667,99.56857142857143,99.54794285714286,0.09149999999999991,-0.04366666666666674,-0.10416666666666663,0.12400000000000011,-0.03499999999999659,-0.04999999999999716,1.5045000000000002,1.4875,38.403999999999996,29.950499999999998,38.507,35.36,56.018,35.3655,59.9805,52.8185,53.942,34.46,58.546,51.132999999999996,53.089,33.978,58.4435,50.53633333333333,-0.09950000000000003,-0.05800000000000005,0.10599000000000001,0.10823,0.0,214.66,214.68,211.38,211.38,0.0,0.0
23,0.0,0.0,0.0,1.0,1.0,0.0,0.0,1.0,0.0,100.0,1.0,1.1856,26.0,0.0,0.0,0.0,59.999996,0.0,26.0,26.0,26.0,26.0,-0.003125,0.2835000000000001,0.023425,292.053,-2.6564,-2.6898999999999997,-1.6377000000000002,-1.5404,-198.26999999999998,215.33249999999998,190.5045,0.0,0.0,0.0,0.0,0.0466,-5.498166666666667,-5.498166666666667,-0.5720000000000001,-0.2630000000000001,0.006333333333333302,0.668,68.70400000000001,0.006399999999999961,-0.22337500000000002,-0.1479999999999997,100.0,1.0,1.0,211.8466666666667,0.0,0.0,0.0,0.0,0.0,0.0,0.0,8979.4,0.0,55.0,5.0,247.30666666666667,1.0,0.0,0.0,0.0,0.0,0.0,0.0,0.0,1.1580000000000013,1.1580000000000013,0.0,0.0,1.0,55.0,616.79921,10000.0,85.000001,85.000001,85.000001,85.000001,395.0,0.0,0.0,0.0,1.0,166.665,52.016999999999996,52.016999999999996,47.44,47.44,34.0,-23.7425,25.078,-30.09,29.3975,0.0,1782.537,-0.25,100.0,28.342,28.03,43.422,43.485,0.0,0.0,100.0,0.0,0.0,0.0,0.0,3152.142857142857,3159.4,4209.777777777777,4224.3,305.1525,304.801,314.65975,314.4615,21.994777777777777,20.637999999999998,22.01222222222222,21.5074,314.999998,314.999998,324.999988,324.999988,99.55925714285715,99.50748333333334,99.56872857142857,99.5481,0.08800000000000008,-0.05033333333333312,-0.10250000000000004,0.11650000000000005,-0.04333333333332945,-0.051666666666669414,1.5185,1.5185,38.467,29.987499999999997,38.576,35.4215,56.004000000000005,35.407,60.0205,52.884,53.929,34.498,58.583,51.196,53.075,34.015,58.477000000000004,50.598333333333336,-0.09399999999999997,-0.0625,0.11011000000000001,0.1044,0.0,215.09,215.095,211.8466666666667,211.8466666666667,0.0,0.0
24,0.0,0.0,0.0,1.0,1.0,0.0,0.0,1.0,0.0,100.0,1.0,1.1856,26.0,0.0,0.0,0.0,59.999996,0.0,26.0,26.0,26.0,26.0,0.022,0.2715000000000001,-0.017325,292.419,-2.686,-2.6678,-1.5458500000000002,-1.5602,-195.18,215.32999999999998,190.483375,0.0,0.0,0.0,0.0,0.048400000000000006,-5.498166666666667,-5.498166666666667,-0.5855,-0.32600000000000007,0.014999999999999902,-0.266,68.82300000000001,0.007300000000000084,-0.22287500000000002,-0.11799999999999944,100.0,1.0,1.0,212.21666666666667,0.0,0.0,0.0,0.0,0.0,0.0,0.0,8995.1,0.0,55.0,5.0,247.73333333333335,0.0,0.0,0.0,0.0,0.0,0.0,0.0,0.0,1.2029999999999994,1.2029999999999994,0.0,0.0,0.0,55.0,616.79921,10000.0,85.000001,85.000001,85.000001,85.000001,395.0,0.0,0.0,0.0,1.0,333.33500000000004,52.689,52.689,47.47,47.47,34.0,-23.107499999999998,23.369999999999997,-29.213333333333335,28.7125,0.0,1782.489,-0.2400000000000002,100.0,28.038,27.994,43.271,43.519999999999996,0.0,0.0,100.0,0.0,0.0,0.0,0.0,3075.857142857143,2982.1,4222.777777777777,4114.3,305.6035,305.236,314.60875,314.63875,22.003,20.6429,22.021444444444445,21.5155,314.999998,314.999998,324.999988,324.999988,99.55927142857144,99.50748333333334,99.56887142857143,99.54824285714285,0.08749999999999991,-0.050999999999999934,-0.10716666666666663,0.11283333333333334,-0.051666666666669414,-0.03999999999999915,1.5110000000000001,1.5135,38.519,30.018,38.634,35.472,55.991,35.442499999999995,60.0545,52.9405,53.917,34.531,58.615,51.2505,53.062,34.0465,58.5055,50.65133333333333,-0.10250000000000004,-0.06000000000000005,0.10356000000000001,0.10651000000000001,0.0,215.465,215.46,212.21666666666667,212.21666666666667,0.0,0.0
25,0.0,0.0,0.0,1.0,1.0,0.0,0.0,1.0,0.0,100.0,1.0,1.1856,26.0,0.0,0.0,0.0,59.999996,0.0,26.0,26.0,26.0,26.0,0.012125,0.26660000000000017,-0.024,292.282,-2.748,-2.6496,-1.59175,-1.5298,-191.66,215.32999999999998,190.458125,0.0,0.0,0.0,0.0,0.05043333333333334,-5.498166666666667,-5.498166666666667,-0.6017,-0.007500000000000062,0.02400000000000002,0.335,68.956,0.007300000000000084,-0.219,-0.1639999999999997,100.0,1.0,1.0,212.68,0.0,0.0,0.0,0.0,0.0,0.0,0.0,9014.8,0.0,55.0,5.0,248.21666666666667,1.0,0.0,0.0,0.0,0.0,0.0,0.0,0.0,1.2540000000000013,1.2540000000000013,0.0,0.0,1.0,55.0,616.79921,10000.0,85.000001,85.000001,85.000001,85.000001,395.0,0.0,0.0,0.0,1.0,166.665,52.002,52.002,47.836,47.836,34.0,-24.655,26.484,-27.276666666666664,29.1375,0.0,1782.441,-0.27999999999999936,100.0,27.993,27.991,43.133,43.244,0.0,0.0,100.0,0.0,0.0,0.0,0.0,3213.0,3322.2,3999.222222222222,4173.7,305.1355,304.3575,315.16425,314.584,22.012333333333334,20.6485,22.031777777777776,21.5246,314.999998,314.999998,324.999988,324.999988,99.55928571428572,99.50748333333334,99.56901428571429,99.54837142857143,0.0950000000000002,-0.04233333333333311,-0.09650000000000003,0.12366666666666681,-0.045000000000001705,-0.05666666666667197,1.5465,1.535,38.577,30.052999999999997,38.699,35.5285,55.977999999999994,35.479,60.087,52.9965,53.905,34.565,58.6455,51.304,53.049,34.079,58.533,50.704,-0.10050000000000003,-0.05800000000000005,0.10433,0.107005,0.0,215.865,215.89,212.68,212.68,0.0,0.0
26,0.0,0.0,0.0,1.0,1.0,0.0,0.0,1.0,0.0,100.0,1.0,1.1856,26.0,0.0,0.0,0.0,59.999996,0.0,26.0,26.0,26.0,26.0,0.0225,0.27790000000000004,0.043675000000000005,291.504,-2.6801,-2.7296,-1.5495999999999999,-1.5416,-188.14,215.3275,190.432625,0.0,0.0,0.0,0.0,0.052500000000000005,-5.498166666666667,-5.498166666666667,-0.5748,0.43899999999999995,0.005111111111111066,-0.759,69.092,0.007800000000000029,-0.20085,-0.18200000000000038,100.0,1.0,1.0,212.91,0.0,0.0,0.0,0.0,0.0,0.0,0.0,9024.4,0.0,55.0,5.0,248.70333333333335,0.0,0.0,0.0,0.0,0.0,0.0,0.0,0.0,1.3049999999999997,1.3049999999999997,0.0,0.0,0.0,55.0,616.79921,10000.0,85.000001,85.000001,85.000001,85.000001,395.0,0.0,0.0,0.0,1.0,333.33500000000004,51.819,51.819,46.722,46.722,34.0,-24.2225,24.188,-31.673333333333332,31.5375,0.0,1782.388,-0.3200000000000003,100.0,28.572,28.569,43.424,43.688,0.0,0.0,100.0,0.0,0.0,0.0,0.0,3243.0,2993.4,4479.666666666667,4431.9,305.1125,305.098,314.0,313.87675,22.02188888888889,20.6542,22.042333333333332,21.5339,314.999998,314.999998,324.999988,324.999988,99.55928571428572,99.5075,99.56915714285714,99.54852857142858,0.09425000000000017,-0.04966666666666675,-0.10633333333333339,0.11499999999999999,-0.041666666666671404,-0.060000000000002274,1.451,1.448,38.637,30.089,38.765,35.5865,55.968,35.519,60.1255,53.0585,53.894999999999996,34.602000000000004,58.681,51.364,53.038,34.1145,58.5655,50.76266666666667,-0.10949999999999993,-0.05600000000000005,0.10771000000000001,0.10808000000000001,0.0,216.32,216.335,212.91,212.91,0.0,0.0
27,0.0,0.0,0.0,1.0,1.0,0.0,0.0,1.0,0.0,100.0,1.0,1.1856,26.0,0.0,0.0,0.0,59.999996,0.0,26.0,26.0,26.0,26.0,0.013375,0.24409999999999998,-0.055025000000000004,291.87,-2.7535,-2.6696999999999997,-1.6141,-1.5382,-184.61,215.3275,190.408,0.0,0.0,0.0,0.0,0.054533333333333336,-5.498166666666667,-5.498166666666667,-0.5953,-0.784,0.02055555555555566,0.934,69.224,0.009100000000000108,-0.235325,-0.22799999999999976,100.0,1.0,1.0,213.43666666666667,0.0,0.0,0.0,0.0,0.0,0.0,0.0,9046.8,0.0,55.0,5.0,249.18,1.0,0.0,0.0,0.0,0.0,0.0,0.0,0.0,1.355999999999998,1.355999999999998,0.0,0.0,1.0,55.0,616.79921,10000.0,85.000001,85.000001,85.000001,85.000001,395.0,0.0,0.0,0.0,1.0,166.665,52.032,52.032,46.768,46.768,34.0,-22.995,25.742,-29.003333333333334,29.8475,0.0,1782.339,-0.3200000000000003,100.0,28.454,28.375,43.99,43.983000000000004,0.0,0.0,100.0,0.0,0.0,0.0,0.0,3029.142857142857,3222.6,4113.0,4161.4,305.655,304.63275,314.8585,314.6445,22.031333333333333,20.6599,22.053,21.5432,314.999998,314.999998,324.999988,324.999988,99.55931428571428,99.5075,99.5693,99.54867142857142,0.09775,-0.04366666666666674,-0.10133333333333339,0.13516666666666666,-0.051666666666669414,-0.041666666666671404,1.508,1.502,38.696,30.124000000000002,38.831,35.644999999999996,55.955,35.558,60.1635,53.1205,53.882999999999996,34.638,58.716499999999996,51.423500000000004,53.024,34.149,58.598,50.82066666666667,-0.10299999999999998,-0.0605,0.11194000000000001,0.11209000000000001,0.0,216.685,216.68,213.43666666666667,213.43666666666667,0.0,0.0
28,0.0,0.0,0.0,1.0,1.0,0.0,0.0,1.0,0.0,100.0,1.0,1.1856,26.0,0.0,0.0,0.0,59.999996,0.0,26.0,26.0,26.0,26.0,0.017875000000000002,0.27190000000000003,-0.0357,292.023,-2.6833,-2.6568,-1.6268500000000001,-1.5657,-181.29,215.32999999999998,190.384125,0.0,0.0,0.0,0.0,0.056466666666666665,-5.498166666666667,-5.498166666666667,-0.6029,0.4665,0.006444444444444253,0.192,69.346,0.008399999999999963,-0.22,-0.2599999999999998,100.0,1.0,1.0,213.89,0.0,0.0,0.0,0.0,0.0,0.0,0.0,9066.0,0.0,55.0,5.0,249.62,0.0,0.0,0.0,0.0,0.0,0.0,0.0,0.0,1.404,1.404,0.0,0.0,0.0,55.0,616.79921,10000.0,85.000001,85.000001,85.000001,85.000001,395.0,0.0,0.0,0.0,1.0,166.665,51.865,51.865,47.455,47.455,34.0,-22.6425,25.98,-28.03,29.677500000000002,0.0,1782.291,-0.40499999999999936,100.0,28.542,28.406,43.468,43.662,0.0,0.0,100.0,0.0,0.0,0.0,0.0,3088.4285714285716,3202.1,4078.5555555555557,4132.9,305.388,304.70025,315.033,314.68275,22.040222222222223,20.6653,22.06277777777778,21.5518,314.999998,314.999998,324.999988,324.999988,99.55931428571428,99.5075,99.56942857142857,99.54881428571429,0.10550000000000015,-0.030999999999999917,-0.09033333333333338,0.133,-0.04999999999999716,-0.04999999999999716,1.549,1.556,38.751000000000005,30.158,38.891999999999996,35.698499999999996,55.944,35.5955,60.1945,53.176,53.872,34.6725,58.7455,51.477000000000004,53.012,34.182,58.624,50.873,-0.10999999999999999,-0.04899999999999993,0.10665000000000001,0.10655,0.0,217.095,217.11,213.89,213.89,0.0,0.0
29,0.0,0.0,0.0,1.0,1.0,0.0,0.0,1.0,0.0,100.0,1.0,1.1856,26.0,0.0,0.0,0.0,59.999996,0.0,26.0,26.0,26.0,26.0,0.033875,0.2603,-0.016925000000000003,291.931,-2.7469,-2.7259,-1.56525,-1.5533000000000001,-177.54,215.32999999999998,190.35625,0.0,0.0,0.0,0.0,0.05863333333333334,-5.498166666666667,-5.498166666666667,-0.6039,-0.669,-0.0018888888888888289,0.915,69.489,0.012499999999999956,-0.21432500000000002,-0.347999999999999,100.0,1.0,1.0,214.17333333333335,0.0,0.0,0.0,0.0,0.0,0.0,0.0,9078.0,0.0,55.0,5.0,250.13333333333333,1.0,0.0,0.0,0.0,0.0,0.0,0.0,0.0,1.4579999999999984,1.4579999999999984,0.0,0.0,1.0,55.0,616.79921,10000.0,85.000001,85.000001,85.000001,85.000001,395.0,0.0,0.0,0.0,1.0,166.665,52.429,52.429,46.906,46.906,34.0,-23.1275,25.394,-28.026666666666664,31.47,0.0,1782.237,-0.42499999999999893,100.0,28.212,28.119,43.862,43.894999999999996,0.0,0.0,100.0,0.0,0.0,0.0,0.0,3084.714285714286,3089.9,4144.222222222223,4312.6,305.637,305.03025,314.70925,314.21975,22.05,20.6712,22.073999999999998,21.5616,314.999998,314.999998,324.999988,324.999988,99.55932857142857,99.50751666666666,99.5696,99.54897142857143,0.10075000000000012,-0.03499999999999992,-0.08616666666666661,0.13250000000000006,-0.03999999999999915,-0.046666666666666856,1.4795000000000003,1.4745,38.813,30.195,38.962,35.76,55.93,35.6345,60.2355,53.241,53.858999999999995,34.709,58.783500000000004,51.539500000000004,52.998000000000005,34.217,58.658500000000004,50.934,-0.11199999999999999,-0.050000000000000044,0.09814,0.10870500000000001,0.0,217.5,217.51999999999998,214.17333333333335,214.17333333333335,0.0,0.0
30,0.0,0.0,0.0,1.0,1.0,0.0,0.0,1.0,0.0,100.0,1.0,1.1856,26.0,0.0,0.0,0.0,59.999996,0.0,26.0,26.0,26.0,26.0,0.05525,0.258,-0.017325,291.382,-2.6414999999999997,-2.7242,-1.6405,-1.5996000000000001,-174.41,215.33249999999998,190.332875,0.0,0.0,0.0,0.0,0.06046666666666667,-5.498166666666667,-5.498166666666667,-0.6088,0.608,0.0032222222222222374,-0.309,69.602,0.014900000000000135,-0.21955000000000002,-0.31400000000000006,100.0,1.0,1.0,214.64333333333332,0.0,0.0,0.0,0.0,0.0,0.0,0.0,9098.0,0.0,55.0,5.0,250.54000000000002,0.0,0.0,0.0,0.0,0.0,0.0,1.0,0.0,1.5030000000000001,1.5030000000000001,0.0,0.0,0.0,55.0,616.79921,10000.0,85.000001,85.000001,85.000001,85.000001,395.0,0.0,0.0,0.0,1.0,166.665,50.705,50.705,47.47,47.47,34.0,-24.2375,28.242,-28.32,29.892500000000002,0.0,1782.192,-0.45500000000000007,100.0,28.893,28.849,43.541,43.951,0.0,0.0,100.0,0.0,0.0,0.0,0.0,3371.857142857143,3386.9,4097.555555555556,4074.9,304.565,304.027,315.124,314.71575,22.058555555555557,20.6764,22.083111111111112,21.5697,314.999998,314.999998,324.999988,324.999988,99.55934285714285,99.50751666666666,99.56972857142857,99.5491,0.11350000000000016,-0.03733333333333322,-0.09250000000000003,0.13116666666666688,-0.06666666666666998,-0.03833333333332689,1.5465,1.514,38.866,30.2275,39.019999999999996,35.811,55.922,35.670500000000004,60.2655,53.2935,53.851,34.7425,58.8115,51.59,52.989000000000004,34.249,58.6835,50.983333333333334,-0.123,-0.050000000000000044,0.103025,0.10799,0.0,217.89,217.865,214.64333333333332,214.64333333333332,0.0,0.0
31,0.0,0.0,0.0,1.0,1.0,0.0,0.0,1.0,0.0,100.0,1.0,1.1856,26.0,0.0,0.0,0.0,59.999996,0.0,26.0,26.0,26.0,26.0,0.04775,0.2574000000000001,0.095875,290.726,-2.7726,-2.6235,-1.64565,-1.5413999999999999,-170.64999999999998,215.335,190.305375,0.0,0.0,0.0,0.0,0.06266666666666666,-5.498166666666667,-5.498166666666667,-0.5855,-0.35050000000000003,0.013666666666666716,-0.617,69.743,0.01880000000000015,-0.216425,-0.3120000000000003,100.0,1.0,1.0,214.85000000000002,0.0,0.0,0.0,0.0,0.0,0.0,0.0,9106.7,0.0,55.0,5.0,251.05,1.0,0.0,0.0,0.0,0.0,0.0,1.0,0.0,1.5569999999999986,1.5569999999999986,0.0,0.0,1.0,55.0,616.79921,10000.0,85.000001,85.000001,85.000001,85.000001,395.0,0.0,0.0,0.0,1.0,166.665,51.147,51.147,45.578,45.578,34.0,-24.2575,26.488,-32.06333333333333,32.56,0.0,1782.137,-0.4599999999999991,100.0,28.821,29.156,44.313,44.723,0.0,0.0,100.0,0.0,0.0,0.0,0.0,3242.857142857143,3269.5,4409.222222222223,4410.3,305.2255,304.40025,314.146,313.82575,22.068444444444445,20.6825,22.094444444444445,21.5798,314.999998,314.999998,324.999988,324.999988,99.55935714285714,99.50753333333333,99.56988571428572,99.54925714285714,0.11100000000000021,-0.02966666666666673,-0.09466666666666657,0.13083333333333336,-0.04999999999999716,-0.04333333333332945,1.4250000000000003,1.421,38.928,30.266,39.09,35.8735,55.911,35.713,60.3075,53.3615,53.84,34.7815,58.8505,51.6555,52.977000000000004,34.287,58.7195,51.047333333333334,-0.12049999999999994,-0.04800000000000004,0.10842500000000001,0.10585000000000001,0.0,218.305,218.31,214.85000000000002,214.85000000000002,0.0,0.0
32,0.0,0.0,0.0,1.0,1.0,0.0,0.0,1.0,0.0,100.0,1.0,1.1856,26.0,0.0,0.0,0.0,59.999996,0.0,26.0,26.0,26.0,26.0,0.036625,0.2621,-0.033975,291.351,-2.6976,-2.684,-1.5881500000000002,-1.6196000000000002,-167.09,215.34,190.28,0.0,0.0,0.0,0.0,0.06473333333333334,-5.498166666666667,-5.498166666666667,-0.6059,-0.3155000000000001,-0.0023333333333335204,0.271,69.87100000000001,0.02320000000000011,-0.23247500000000001,-0.4479999999999995,100.0,1.0,1.0,215.39666666666668,0.0,0.0,0.0,0.0,0.0,0.0,0.0,9129.9,0.0,55.0,5.0,251.50666666666666,0.0,0.0,0.0,0.0,0.0,0.0,1.0,0.0,1.6080000000000005,1.6080000000000005,0.0,0.0,0.0,55.0,616.79921,10000.0,85.000001,85.000001,85.000001,85.000001,395.0,0.0,0.0,0.0,1.0,166.665,51.59,51.59,46.631,46.631,34.0,-22.0525,26.344,-27.493333333333336,32.5,0.0,1782.087,-0.4299999999999997,100.0,28.849,28.887999999999998,44.237,44.538,0.0,0.0,100.0,0.0,0.0,0.0,0.0,3058.5714285714284,3188.1,4072.222222222222,4258.2,305.51,304.7455,314.929,314.31775,22.07777777777778,20.688299999999998,22.104888888888887,21.5891,314.999998,314.999998,324.999988,324.999988,99.55937142857142,99.50753333333333,99.57002857142857,99.54941428571429,0.1160000000000001,-0.025666666666666726,-0.08433333333333337,0.14483333333333337,-0.036666666666668846,-0.045000000000001705,1.5125000000000002,1.5075,38.986000000000004,30.302,39.156,35.9315,55.899,35.7525,60.3425,53.422,53.829,34.818,58.882999999999996,51.713499999999996,52.965,34.3215,58.7485,51.104,-0.11749999999999994,-0.05400000000000005,0.11163000000000001,0.10350000000000001,0.0,218.66,218.7,215.39666666666668,215.39666666666668,0.0,0.0
33,0.0,0.0,0.0,1.0,1.0,0.0,0.0,1.0,0.0,100.0,1.0,1.1856,26.0,0.0,0.0,0.0,59.999996,0.0,26.0,26.0,26.0,26.0,0.050625,0.26550000000000007,-0.052750000000000005,291.626,-2.7308,-2.691,-1.5929,-1.5864,-163.94,215.3425,190.2565,0.0,0.0,0.0,0.0,0.06656666666666666,-5.498166666666667,-5.498166666666667,-0.6143000000000001,-0.17599999999999993,-0.0076666666666667105,-0.223,69.98400000000001,0.022900000000000142,-0.217625,-0.32200000000000006,100.0,1.0,1.0,215.76666666666665,0.0,0.0,0.0,0.0,0.0,0.0,0.0,9145.6,0.0,55.0,5.0,251.91666666666666,1.0,0.0,0.0,0.0,0.0,0.0,1.0,0.0,1.6529999999999987,1.6529999999999987,0.0,0.0,1.0,55.0,616.79921,10000.0,85.000001,85.000001,85.000001,85.000001,395.0,0.0,0.0,0.0,1.0,166.665,51.88,51.88,46.86,46.86,34.0,-23.3425,24.784,-28.153333333333336,30.7475,0.0,1782.042,-0.4499999999999993,100.0,28.539,28.797,43.952,44.385999999999996,0.0,0.0,100.0,0.0,0.0,0.0,0.0,3164.714285714286,3029.6,4149.444444444444,4155.0,305.426,305.06025,314.84475,314.6,22.08588888888889,20.6933,22.11411111111111,21.5972,314.999998,314.999998,324.999988,324.999988,99.55938571428571,99.50753333333333,99.57015714285714,99.54954285714285,0.10824999999999996,-0.033666666666666734,-0.08799999999999997,0.1393333333333333,-0.05333333333332746,-0.05333333333332746,1.5345,1.5175,39.037,30.333,39.213,35.9825,55.888999999999996,35.785,60.3735,53.4735,53.819,34.8485,58.911500000000004,51.7635,52.954,34.351,58.774,51.15266666666667,-0.119,-0.04849999999999999,0.10629500000000001,0.10697000000000001,0.0,219.04500000000002,219.07,215.76666666666665,215.76666666666665,0.0,0.0
34,0.0,0.0,0.0,1.0,1.0,0.0,0.0,1.0,0.0,100.0,1.0,1.1856,26.0,0.0,0.0,0.0,59.999996,0.0,26.0,26.0,26.0,26.0,0.04525,0.262,-0.06225,291.824,-2.6698,-2.6766,-1.6259000000000001,-1.5708,-160.37,215.35,190.228625,0.0,0.0,0.0,0.0,0.06863333333333334,-5.498166666666667,-5.498166666666667,-0.6375000000000001,-0.8005,0.015333333333333199,0.892,70.113,0.022499999999999964,-0.218775,-0.38200000000000056,100.0,1.0,1.0,216.12,0.0,0.0,0.0,0.0,0.0,0.0,0.0,9160.5,0.0,55.0,5.0,252.38333333333333,0.0,0.0,0.0,0.0,0.0,0.0,1.0,0.0,1.7040000000000006,1.7040000000000006,0.0,0.0,0.0,55.0,616.79921,10000.0,85.000001,85.000001,85.000001,85.000001,395.0,0.0,0.0,0.0,1.0,166.665,52.383,52.383,47.028,47.028,34.0,-20.58,25.11,-28.12,31.5075,0.0,1781.99,-0.47499999999999964,100.0,28.419,28.389,43.917,44.391999999999996,0.0,0.0,100.0,0.0,0.0,0.0,0.0,2934.857142857143,3040.9,4112.333333333333,4225.9,305.834,305.147,314.899,314.442,22.095,20.6989,22.124555555555556,21.6065,314.999998,314.999998,324.999988,324.999988,99.5594,99.50753333333333,99.57031428571429,99.5497,0.12225000000000019,-0.021666666666666723,-0.08116666666666661,0.14600000000000013,-0.03999999999999915,-0.05333333333332746,1.5074999999999998,1.516,39.094,30.368000000000002,39.278,36.0405,55.876000000000005,35.821,60.4075,53.535,53.807,34.882,58.9435,51.822,52.941,34.382999999999996,58.803,51.21,-0.11449999999999994,-0.04049999999999998,0.10055000000000001,0.11285,0.0,219.435,219.44,216.12,216.12,0.0,0.0
35,0.0,0.0,0.0,1.0,1.0,0.0,0.0,1.0,0.0,100.0,1.0,1.1856,26.0,0.0,0.0,0.0,59.999996,0.0,26.0,26.0,26.0,26.0,0.04025,0.25360000000000005,-0.09340000000000001,291.779,-2.7982,-2.6583,-1.5397,-1.581,-156.57999999999998,215.35750000000002,190.197,0.0,0.0,0.0,0.0,0.07083333333333335,-5.498166666666667,-5.498166666666667,-0.6777000000000001,-0.08450000000000002,-0.0013333333333331865,-0.139,70.247,0.02400000000000002,-0.2268,-0.36599999999999966,100.0,1.0,1.0,216.63,0.0,0.0,0.0,0.0,0.0,0.0,0.0,9182.2,0.0,55.0,5.0,252.86333333333334,1.0,0.0,0.0,0.0,0.0,0.0,1.0,0.0,1.7579999999999991,1.7579999999999991,0.0,0.0,1.0,55.0,616.79921,10000.0,85.000001,85.000001,85.000001,85.000001,395.0,0.0,0.0,0.0,1.0,166.665,51.666,51.666,46.875,46.875,34.0,-23.482499999999998,27.79,-26.11,30.105,0.0,1781.937,-0.3100000000000005,100.0,28.261,28.708,43.628,43.924,0.0,0.0,100.0,0.0,0.0,0.0,0.0,3099.857142857143,3373.4,4079.6666666666665,4048.9,305.4285,304.1755,315.02775,314.9655,22.104666666666667,20.7051,22.135444444444445,21.6162,314.999998,314.999998,324.999988,324.999988,99.55941428571428,99.50755,99.57047142857142,99.54985714285715,0.1120000000000001,-0.028000000000000025,-0.07566666666666666,0.1523333333333332,-0.03166666666666629,-0.06499999999999773,1.5615,1.545,39.153999999999996,30.4065,39.347,36.101,55.861000000000004,35.8625,60.443,53.595,53.793,34.920500000000004,58.9765,51.879999999999995,52.926,34.42,58.832499999999996,51.266666666666666,-0.10199999999999998,-0.05449999999999999,0.10918000000000001,0.10981,0.0,219.84,219.87,216.63,216.63,0.0,0.0
36,0.0,0.0,0.0,1.0,1.0,0.0,0.0,1.0,0.0,100.0,1.0,1.1856,26.0,0.0,0.0,0.0,59.999996,0.0,26.0,26.0,26.0,26.0,0.0235,0.25550000000000006,0.0067,291.10699999999997,-2.6532,-2.7108,-1.6507,-1.589,-153.41,215.365,190.169625,0.0,0.0,0.0,0.0,0.07266666666666667,-5.498166666666667,-5.498166666666667,-0.6615,0.20750000000000002,-0.04122222222222227,-1.347,70.362,0.021200000000000108,-0.20367500000000002,-0.16000000000000014,100.0,1.0,1.0,216.77666666666667,0.0,0.0,0.0,0.0,0.0,0.0,0.0,9188.4,0.0,55.0,5.0,253.27666666666664,0.0,0.0,0.0,0.0,0.0,0.0,1.0,0.0,1.8030000000000008,1.8030000000000008,0.0,0.0,0.0,55.0,616.79921,10000.0,85.000001,85.000001,85.000001,85.000001,395.0,0.0,0.0,0.0,1.0,333.33500000000004,51.528999999999996,51.528999999999996,46.432,46.432,34.0,-22.8425,25.028,-32.43,33.1175,0.0,1781.889,-0.24499999999999922,100.0,28.736,28.906,43.724000000000004,44.24,0.0,0.0,100.0,0.0,0.0,0.0,0.0,3175.5714285714284,3051.0,4458.888888888889,4396.1,305.149,304.8875,314.126,313.987,22.11277777777778,20.7102,22.144666666666666,21.6244,314.999998,314.999998,324.999988,324.999988,99.55942857142857,99.50755,99.57061428571429,99.55,0.11175000000000024,-0.04033333333333311,-0.09650000000000003,0.1353333333333333,-0.046666666666666856,-0.05333333333332746,1.4540000000000002,1.4485000000000001,39.205,30.438499999999998,39.403999999999996,36.1525,55.851,35.8995,60.4775,53.653,53.783,34.954499999999996,59.0085,51.936,52.915,34.4525,58.861,51.321333333333335,-0.10299999999999998,-0.05950000000000011,0.10294500000000001,0.112115,0.0,220.24,220.25,216.77666666666667,216.77666666666667,0.0,0.0
