,ABS Active,ABS Enabled,AID Allow Tire Blankets,AID Auto Blip,AID Auto Clutch,AID Auto Shift,AID Fuel Rate,AID Ideal Line,AID Mech Damage,AID Stability,AID Tire Wear Rate,Air Density,Air Temp,Ballast,Best Lap Delta,Best Lap Time,Brake Bias,Brake Pos,Brake Temp FL,Brake Temp FR,Brake Temp RL,Brake Temp RR,CG Accel Lateral,CG Accel Longitudinal,CG Accel Vertical,CG Height,Camber FL,Camber FR,Camber RL,Camber RR,Car Coord X,Car Coord Y,Car Coord Z,Car Damage Front,Car Damage Left,Car Damage Rear,Car Damage Right,Car Pos Norm,Caster FL,Caster FR,Chassis Pitch Angle,Chassis Pitch Rate,Chassis Roll Angle,Chassis Roll Rate,Chassis Velocity X,Chassis Velocity Y,Chassis Velocity Z,Chassis Yaw Rate,Clutch Pos,DRS Active,DRS Available,Drive Train Speed,ERS Heat Charging,ERS Is Charging,ERS Max Energy,ERS Power Level,ERS Recovery Level,Engine Brake Setting,Engine Limiter,Engine RPM,Flags,Fuel Level,Gear,Ground Speed,HR Sample Clock,In Pit,KERS Charge,KERS Deployed Energy,KERS Input,KERS Max Energy,LR Sample Clock,Lap Invalidated,Lap Time,Lap Time2,Last Lap Time,Last Sector Time,MR Sample Clock,Max Fuel,Max Power,Max RPM,Max Sus Travel FL,Max Sus Travel FR,Max Sus Travel RL,Max Sus Travel RR,Max Torque,Max Turbo Boost,Num Tires Off Track,Penalties Enabled,Position,Raw Data Sample Rate,Ride Height FL,Ride Height FR,Ride Height RL,Ride Height RR,Road Temp,Self Align Torque FL,Self Align Torque FR,Self Align Torque RL,Self Align Torque RR,Session Lap Count,Session Time Left,Steering Angle,Surface Grip,Suspension Travel FL,Suspension Travel FR,Suspension Travel RL,Suspension Travel RR,TC Active,TC Enabled,Throttle Pos,Tire Dirt Level FL,Tire Dirt Level FR,Tire Dirt Level RL,Tire Dirt Level RR,Tire Load FL,Tire Load FR,Tire Load RL,Tire Load RR,Tire Loaded Radius FL,Tire Loaded Radius FR,Tire Loaded Radius RL,Tire Loaded Radius RR,Tire Pressure FL,Tire Pressure FR,Tire Pressure RL,Tire Pressure RR,Tire Radius FL,Tire Radius FR,Tire Radius RL,Tire Radius RR,Tire Rubber Grip FL,Tire Rubber Grip FR,Tire Rubber Grip RL,Tire Rubber Grip RR,Tire Slip Angle FL,Tire Slip Angle FR,Tire Slip Angle RL,Tire Slip Angle RR,Tire Slip Ratio FL,Tire Slip Ratio FR,Tire Slip Ratio RL,Tire Slip Ratio RR,Tire Temp Core FL,Tire Temp Core FR,Tire Temp Core RL,Tire Temp Core RR,Tire Temp Inner FL,Tire Temp Inner FR,Tire Temp Inner RL,Tire Temp Inner RR,Tire Temp Middle FL,Tire Temp Middle FR,Tire Temp Middle RL,Tire Temp Middle RR,Tire Temp Outer FL,Tire Temp Outer FR,Tire Temp Outer RL,Tire Temp Outer RR,Toe In FL,Toe In FR,Toe In RL,Toe In RR,Turbo Boost,Wheel Angular Speed FL,Wheel Angular Speed FR,Wheel Angular Speed RL,Wheel Angular Speed RR,Wind Direction,Wind Speed
0,0.0,0.0,0.0,1.0,1.0,0.0,0.0,1.0,0.0,100.0,1.0,1.1856,26.0,0.0,0.0,0.0,59.99999,0.0,26.0,26.0,26.0,26.0,-0.048666666666666664,-0.37759999999999994,0.07548,294.434,-4.8825,-4.643555555555555,-2.1238,-2.1565,-275.43,215.98250000000002,190.98675,0.0,0.0,0.0,0.0,0.0017333333333333333,-5.498166666666667,-5.498166666666667,-0.63,0.35733333333333334,-0.015499999999999847,-0.47799999999999976,65.235,-0.06929999999999992,-0.295475,0.20999999999999996,100.0,1.0,1.0,198.32999999999998,0.0,0.0,0.0,0.0,0.0,0.0,0.0,9467.6,0.0,55.0,0.0,234.89,0.0,0.0,0.0,0.0,0.0,0.0,0.0,0.0,0.006000000000000227,0.006000000000000227,0.0,0.0,0.0,55.0,616.79921,10000.0,85.0,85.0,85.0,85.0,395.0,0.0,0.0,0.0,1.0,20.0,50.293,50.293,51.926,51.926,34.0,-68.93,74.85333333333334,9.0225,-14.844999999999999,0.0,1783.365,-0.07499999999999929,100.0,27.554000000000002,27.592,38.559,38.292,0.0,0.0,0.0,0.0,0.0,0.0,0.0,3632.375,3992.1000000000004,3797.6666666666665,3631.2,303.833,301.97375,315.61325,315.844,21.88142857142857,20.5459,21.71188888888889,21.440333333333335,314.99999,314.99999,324.99998,324.99998,99.56552857142857,99.51036666666667,99.56148571428571,99.55425714285714,-0.66675,0.63775,0.7122,-0.8462000000000001,-0.01666666666666572,-0.03999999999999915,-0.03599999999999959,-0.010000000000000009,37.759,29.412,36.699,35.001999999999995,60.875,36.2055,58.331,55.855000000000004,56.977999999999994,34.825,56.5135,53.5525,54.413,33.888,55.983000000000004,52.4535,0.5860000000000001,0.6404999999999998,-0.79068,-0.79923,0.0,204.425,204.37,198.32999999999998,198.32999999999998,0.0,0.0
1,0.0,0.0,0.0,1.0,1.0,0.0,0.0,1.0,0.0,100.0,1.0,1.1856,26.0,0.0,0.0,0.0,59.999996,0.0,26.0,26.0,26.0,26.0,-0.15377777777777776,0.28659999999999997,0.0949,293.625,-4.8068,-4.9383333333333335,-2.1675,-1.977625,-272.1,216.0,190.96675,0.0,0.0,0.0,0.0,0.0036666666666666666,-5.498166666666667,-5.498166666666667,-0.5435,0.03866666666666666,-0.04337500000000016,-1.0389999999999997,65.345,-0.054199999999999915,-0.262,0.8150000000000004,100.0,1.0,1.0,201.25666666666666,0.0,0.0,0.0,0.0,0.0,0.0,0.0,8530.5,0.0,55.0,5.0,235.21333333333334,1.0,0.0,0.0,0.0,0.0,0.0,0.0,0.0,0.05699999999999861,0.05699999999999861,0.0,0.0,1.0,55.0,616.79921,10000.0,85.000001,85.000001,85.000001,85.000001,395.0,0.0,0.0,0.0,1.0,333.33500000000004,53.116,53.116,50.156,50.156,34.0,-53.442499999999995,44.86333333333333,9.417500000000004,-21.730000000000004,0.0,1783.312,0.33000000000000185,100.0,28.512999999999998,27.936,39.980000000000004,40.087,0.0,0.0,100.0,0.0,0.0,0.0,0.0,2909.875,2603.6,4620.555555555556,4966.5,305.88933333333335,306.531,313.50975,312.42775,21.89242857142857,20.5516,21.72233333333333,21.450333333333333,314.999998,314.999998,324.999988,324.999988,99.56562857142858,99.51043333333334,99.56167142857143,99.55445714285715,-0.68675,0.5927500000000001,0.7158,-0.8402000000000001,-0.05666666666667197,-0.07499999999999574,1.3090000000000002,1.3519999999999999,37.827,29.447499999999998,36.763999999999996,35.065,60.897999999999996,36.278,58.3935,55.934,56.998000000000005,34.8885,56.572,53.626999999999995,54.429,33.945499999999996,56.0375,52.525999999999996,0.6415,0.5880000000000001,-0.77942,-0.7812,0.0,204.71,204.63,201.25666666666666,201.25666666666666,0.0,0.0
2,0.0,0.0,0.0,1.0,1.0,0.0,0.0,1.0,0.0,100.0,1.0,1.1856,26.0,0.0,0.0,0.0,59.999996,0.0,26.0,26.0,26.0,26.0,-0.12466666666666668,0.2861,-0.032560000000000006,294.998,-4.7753,-4.920444444444445,-2.1148,-2.235875,-268.56,216.015,190.947375,0.0,0.0,0.0,0.0,0.005733333333333334,-5.498166666666667,-5.498166666666667,-0.5994,0.07733333333333332,-0.028875000000000206,2.135,65.487,-0.08349999999999991,-0.30215000000000003,2.0700000000000003,100.0,1.0,1.0,202.37,0.0,0.0,0.0,0.0,0.0,0.0,0.0,8577.8,0.0,55.0,5.0,235.7266666666667,0.0,0.0,0.0,0.0,0.0,0.0,0.0,0.0,0.11100000000000065,0.11100000000000065,0.0,0.0,0.0,55.0,616.79921,10000.0,85.000001,85.000001,85.000001,85.000001,395.0,0.0,0.0,0.0,1.0,166.665,52.231,52.231,52.75,52.75,34.0,-61.64,51.56166666666667,4.042500000000004,-13.177500000000002,0.0,1783.259,-0.03500000000000014,100.0,28.488,27.494,40.047,39.228,0.0,0.0,100.0,0.0,0.0,0.0,0.0,3308.375,2935.2,3598.777777777778,3608.1,304.82733333333334,305.53275,316.02175,316.0365,21.90385714285714,20.5571,21.73311111111111,21.460444444444445,314.999998,314.999998,324.999988,324.999988,99.56571428571428,99.5105,99.56184285714286,99.55464285714285,-0.6819999999999999,0.5935000000000001,0.6427999999999999,-0.8959999999999999,-0.06666666666666998,-0.10333333333333172,1.657,1.721,37.899,29.482,36.832,35.128,60.919,36.345,58.454,56.003,57.016,34.947,56.628,53.692499999999995,54.444,33.998,56.0895,52.589,0.6200000000000001,0.6029999999999998,-0.79215,-0.77504,0.0,205.15,204.98000000000002,202.37,202.37,0.0,0.0
3,0.0,0.0,0.0,1.0,1.0,0.0,0.0,1.0,0.0,100.0,1.0,1.1856,26.0,0.0,0.0,0.0,59.999996,0.0,26.0,26.0,26.0,26.0,-0.125,0.2825,0.08394,294.388,-4.7988,-4.844111111111111,-2.123,-2.1865,-265.61,216.025,190.92975,0.0,0.0,0.0,0.0,0.0074333333333333335,-5.498166666666667,-5.498166666666667,-0.5587,0.5443333333333333,-0.003750000000000142,-0.16500000000000004,65.617,-0.11069999999999991,-0.248925,1.1124999999999998,100.0,1.0,1.0,202.37666666666667,0.0,0.0,0.0,0.0,0.0,0.0,0.0,8578.0,0.0,55.0,5.0,236.19333333333333,1.0,0.0,0.0,0.0,0.0,0.0,0.0,0.0,0.1559999999999988,0.1559999999999988,0.0,0.0,1.0,55.0,616.79921,10000.0,85.000001,85.000001,85.000001,85.000001,395.0,0.0,0.0,0.0,1.0,166.665,52.917,52.917,50.461,50.461,34.0,-54.78,51.77166666666667,5.990000000000002,-16.445,0.0,1783.215,0.27500000000000213,100.0,28.193,27.389,39.979,39.225,0.0,0.0,100.0,0.0,0.0,0.0,0.0,2985.625,2960.5,4300.222222222223,4236.9,305.811,305.41675,314.29675,314.4335,21.91314285714286,20.5621,21.742,21.46911111111111,314.999998,314.999998,324.999988,324.999988,99.56578571428571,99.51056666666666,99.562,99.55481428571429,-0.6989999999999998,0.5747500000000001,0.6596000000000001,-0.8785999999999998,-0.06666666666666998,-0.086666666666666,1.4639999999999995,1.504,37.957,29.512999999999998,36.887,35.182,60.933,36.407,58.501999999999995,56.0725,57.028,35.0015,56.672,53.757999999999996,54.453,34.047,56.1305,52.652,0.6185,0.6074999999999999,-0.78819,-0.77291,0.0,205.55,205.46,202.37666666666667,202.37666666666667,0.0,0.0
4,0.0,0.0,0.0,1.0,1.0,0.0,0.0,1.0,0.0,100.0,1.0,1.1856,26.0,0.0,0.0,0.0,59.999996,0.0,26.0,26.0,26.0,26.0,-0.12622222222222224,0.26049999999999995,0.00938,294.586,-4.8202,-4.940777777777778,-2.0549,-2.20925,-262.26,216.035,190.91025,0.0,0.0,0.0,0.0,0.0094,-5.498166666666667,-5.498166666666667,-0.5814,-0.7133333333333334,-0.07562500000000005,-1.7530000000000001,65.759,-0.11139999999999994,-0.285675,1.3950000000000005,100.0,1.0,1.0,202.88,0.0,0.0,0.0,0.0,0.0,0.0,0.0,8599.3,0.0,55.0,5.0,236.70333333333332,0.0,0.0,0.0,0.0,0.0,0.0,0.0,0.0,0.20700000000000074,0.20700000000000074,0.0,0.0,0.0,55.0,616.79921,10000.0,85.000001,85.000001,85.000001,85.000001,395.0,0.0,0.0,0.0,1.0,333.33500000000004,52.902,52.902,50.72,50.72,34.0,-61.815,49.62166666666667,6.137500000000003,-14.060000000000002,0.0,1783.162,0.6649999999999991,100.0,27.895,27.102,40.544,39.49,0.0,0.0,100.0,0.0,0.0,0.0,0.0,3289.875,2851.2,4257.666666666667,3730.2,305.0253333333333,305.60725,314.47,315.554,21.923857142857145,20.5676,21.752333333333333,21.47888888888889,314.999998,314.999998,324.999988,324.999988,99.56587142857143,99.51061666666666,99.56215714285715,99.55501428571428,-0.7469999999999999,0.53725,0.6467999999999999,-0.885,-0.05666666666667197,-0.07499999999999574,1.5089999999999995,1.5619999999999998,38.024,29.5475,36.952,35.242999999999995,60.952,36.472,58.563,56.147999999999996,57.044,35.0585,56.729,53.83,54.466,34.0985,56.1835,52.721000000000004,0.6620000000000001,0.5720000000000001,-0.78349,-0.7736999999999999,0.0,205.93,205.845,202.88,202.88,0.0,0.0
5,0.0,0.0,0.0,1.0,1.0,0.0,0.0,1.0,0.0,100.0,1.0,1.1856,26.0,0.0,0.0,0.0,59.999996,0.0,26.0,26.0,26.0,26.0,-0.17400000000000002,0.2901,-0.04956000000000001,294.891,-4.8248,-4.926111111111111,-2.1196,-2.247625,-258.91,216.04000000000002,190.89025,0.0,0.0,0.0,0.0,0.011333333333333334,-5.498166666666667,-5.498166666666667,-0.5792,0.448,-0.08450000000000024,0.6619999999999999,65.898,-0.1298999999999999,-0.265575,1.8275000000000006,100.0,1.0,1.0,203.35666666666668,0.0,0.0,0.0,0.0,0.0,0.0,0.0,8619.5,0.0,55.0,5.0,237.20333333333332,1.0,0.0,0.0,0.0,0.0,0.0,0.0,0.0,0.2579999999999991,0.2579999999999991,0.0,0.0,1.0,55.0,616.79921,10000.0,85.000001,85.000001,85.000001,85.000001,395.0,0.0,0.0,0.0,1.0,333.33500000000004,53.36,53.36,51.361,51.361,34.0,-58.9225,48.663333333333334,3.7974999999999994,-15.802500000000002,0.0,1783.11,0.26000000000000156,100.0,28.024,26.697,40.442,38.917,0.0,0.0,100.0,0.0,0.0,0.0,0.0,3140.875,2811.7,4090.222222222222,3983.6000000000004,305.245,305.919,314.85725,315.05575,21.934571428571427,20.573,21.762555555555554,21.488555555555557,314.999998,314.999998,324.999988,324.999988,99.56595714285714,99.51066666666667,99.56234285714285,99.5552,-0.7244999999999999,0.5640000000000001,0.6242000000000001,-0.9107999999999998,-0.09166666666666856,-0.09166666666666856,1.5140000000000002,1.5819999999999999,38.091,29.5815,37.016,35.303,60.974999999999994,36.536,58.6175,56.2185,57.065,35.114,56.7795,53.8965,54.482,34.1485,56.2305,52.785,0.6365000000000001,0.6004999999999998,-0.78538,-0.7654099999999999,0.0,206.445,206.3,203.35666666666668,203.35666666666668,0.0,0.0
6,0.0,0.0,0.0,1.0,1.0,0.0,0.0,1.0,0.0,100.0,1.0,1.1856,26.0,0.0,0.0,0.0,59.999996,0.0,26.0,26.0,26.0,26.0,-0.18688888888888888,0.28570000000000007,0.00574,294.708,-4.7714,-4.9847777777777775,-2.1432,-2.207875,-255.74,216.04250000000002,190.871,0.0,0.0,0.0,0.0,0.0132,-5.498166666666667,-5.498166666666667,-0.5673,0.14833333333333334,-0.08412500000000023,0.7450000000000001,66.031,-0.1492,-0.2518,1.6100000000000003,100.0,1.0,1.0,203.69666666666666,0.0,0.0,0.0,0.0,0.0,0.0,0.0,8633.9,0.0,55.0,5.0,237.68333333333334,0.0,0.0,0.0,0.0,0.0,0.0,0.0,0.0,0.30600000000000094,0.30600000000000094,0.0,0.0,0.0,55.0,616.79921,10000.0,85.000001,85.000001,85.000001,85.000001,395.0,0.0,0.0,0.0,1.0,333.33500000000004,53.375,53.375,50.827,50.827,34.0,-58.61,50.29166666666667,3.3075000000000045,-17.545,0.0,1783.063,-0.3550000000000004,100.0,27.883,26.466,40.647,39.048,0.0,0.0,100.0,0.0,0.0,0.0,0.0,3134.75,2876.4,4189.444444444444,4044.6000000000004,305.222,305.69775,314.57625,314.91175,21.944714285714284,20.5781,21.772222222222222,21.497777777777777,314.999998,314.999998,324.999988,324.999988,99.56604285714286,99.51073333333333,99.56248571428571,99.55538571428572,-0.7077499999999999,0.5720000000000001,0.6186,-0.929,-0.06833333333332803,-0.07833333333332604,1.4779999999999998,1.56,38.155,29.613500000000002,37.076,35.361000000000004,60.995999999999995,36.5965,58.67,56.2915,57.082,35.167,56.828,53.9655,54.497,34.196,56.2755,52.8515,0.5980000000000001,0.6389999999999998,-0.78322,-0.77606,0.0,206.82999999999998,206.70499999999998,203.69666666666666,203.69666666666666,0.0,0.0
7,0.0,0.0,0.0,1.0,1.0,0.0,0.0,1.0,0.0,100.0,1.0,1.1856,26.0,0.0,0.0,0.0,59.999996,0.0,26.0,26.0,26.0,26.0,-0.15622222222222223,0.2791000000000001,0.0025800000000000003,294.632,-4.7332,-4.988888888888889,-2.0958,-2.261375,-252.17,216.0375,190.8495,0.0,0.0,0.0,0.0,0.015266666666666666,-5.498166666666667,-5.498166666666667,-0.5729000000000001,0.076,-0.082125,0.9790000000000001,66.178,-0.14889999999999992,-0.26782500000000004,1.2250000000000005,100.0,1.0,1.0,204.17666666666668,0.0,0.0,0.0,0.0,0.0,0.0,0.0,8654.3,0.0,55.0,5.0,238.21333333333334,1.0,0.0,0.0,0.0,0.0,0.0,0.0,0.0,0.35999999999999943,0.35999999999999943,0.0,0.0,1.0,55.0,616.79921,10000.0,85.000001,85.000001,85.000001,85.000001,395.0,0.0,0.0,0.0,1.0,166.665,53.07,53.07,51.132,51.132,34.0,-59.46,51.55833333333334,3.9425000000000026,-15.907499999999999,0.0,1783.011,-0.6999999999999993,100.0,28.12,26.538,40.828,39.246,0.0,0.0,100.0,0.0,0.0,0.0,0.0,3187.5,2911.0,4040.5555555555557,3957.5,305.0156666666667,305.56675,314.9035,315.0715,21.956285714285713,20.5839,21.78311111111111,21.508222222222223,314.999998,314.999998,324.999988,324.999988,99.56614285714285,99.5108,99.56267142857143,99.5556,-0.67875,0.6085,0.6214,-0.9165999999999999,-0.08166666666667055,-0.07333333333333059,1.4980000000000002,1.549,38.227000000000004,29.6495,37.144999999999996,35.426,61.019,36.667,58.7295,56.374,57.102999999999994,35.2285,56.882999999999996,54.043,54.513,34.251,56.326499999999996,52.926,0.5615000000000001,0.6785000000000001,-0.78286,-0.77132,0.0,207.275,207.14499999999998,204.17666666666668,204.17666666666668,0.0,0.0
8,0.0,0.0,0.0,1.0,1.0,0.0,0.0,1.0,0.0,100.0,1.0,1.1856,26.0,0.0,0.0,0.0,59.999996,0.0,26.0,26.0,26.0,26.0,-0.11633333333333333,0.2734000000000001,0.025140000000000003,294.785,-4.814,-4.924888888888889,-2.0768,-2.252125,-248.99,216.0325,190.83025,0.0,0.0,0.0,0.0,0.0171,-5.498166666666667,-5.498166666666667,-0.5743,-0.495,-0.06787499999999991,0.8070000000000004,66.309,-0.1362,-0.259625,0.5525000000000002,100.0,1.0,1.0,204.50666666666666,0.0,0.0,0.0,0.0,0.0,0.0,0.0,8668.3,0.0,55.0,5.0,238.68666666666667,0.0,0.0,0.0,0.0,0.0,0.0,0.0,0.0,0.40800000000000125,0.40800000000000125,0.0,0.0,0.0,55.0,616.79921,10000.0,85.000001,85.000001,85.000001,85.000001,395.0,0.0,0.0,0.0,1.0,333.33500000000004,53.757,53.757,50.537,50.537,34.0,-54.995000000000005,51.99,5.727499999999999,-16.025,0.0,1782.96,-0.9199999999999982,100.0,27.608,26.357,40.894,39.275999999999996,0.0,0.0,100.0,0.0,0.0,0.0,0.0,3007.125,2939.8,4085.3333333333335,4081.4,305.69433333333336,305.57325,314.76,314.7595,21.966285714285714,20.5891,21.79277777777778,21.517444444444443,314.999998,314.999998,324.999988,324.999988,99.56621428571428,99.51086666666667,99.56284285714285,99.55578571428572,-0.657,0.6172500000000001,0.6492000000000001,-0.9024000000000001,-0.061666666666667425,-0.08833333333333115,1.4820000000000002,1.5220000000000002,38.289,29.682000000000002,37.205,35.483999999999995,61.034,36.730000000000004,58.7825,56.445499999999996,57.114999999999995,35.284,56.9325,54.111,54.522999999999996,34.3005,56.3725,52.991,0.536,0.6924999999999999,-0.7892699999999999,-0.77933,0.0,207.64499999999998,207.585,204.50666666666666,204.50666666666666,0.0,0.0
9,0.0,0.0,0.0,1.0,1.0,0.0,0.0,1.0,0.0,100.0,1.0,1.1856,26.0,0.0,0.0,0.0,59.999996,0.0,26.0,26.0,26.0,26.0,-0.13033333333333336,0.2755000000000001,0.034080000000000006,294.479,-4.7404,-4.942333333333333,-2.1309,-2.202875,-245.8,216.0225,190.8105,0.0,0.0,0.0,0.0,0.018966666666666666,-5.498166666666667,-5.498166666666667,-0.5758,0.6216666666666666,-0.07299999999999995,0.6660000000000004,66.438,-0.10809999999999997,-0.25555,0.45500000000000007,100.0,1.0,1.0,204.98333333333335,0.0,0.0,0.0,0.0,0.0,0.0,0.0,8688.6,0.0,55.0,5.0,239.15,1.0,0.0,0.0,0.0,0.0,0.0,0.0,0.0,0.4559999999999995,0.4559999999999995,0.0,0.0,1.0,55.0,616.79921,10000.0,85.000001,85.000001,85.000001,85.000001,395.0,0.0,0.0,0.0,1.0,166.665,52.78,52.78,51.331,51.331,34.0,-61.307500000000005,53.335,6.0625,-14.732500000000002,0.0,1782.915,-1.0,100.0,28.06,26.67,40.57,39.275,0.0,0.0,100.0,0.0,0.0,0.0,0.0,3300.25,2987.2,4027.1111111111113,4049.9,304.7246666666667,305.35125,315.00925,314.917,21.97642857142857,20.5944,21.802333333333333,21.526666666666667,314.999998,314.999998,324.999988,324.999988,99.56628571428571,99.51093333333333,99.563,99.55597142857143,-0.6444999999999999,0.6327499999999999,0.6734,-0.8677999999999999,-0.07000000000000028,-0.08500000000000085,1.5329999999999995,1.545,38.352999999999994,29.715,37.265,35.542,61.053,36.797,58.834,56.513999999999996,57.131,35.3425,56.980000000000004,54.176,54.536,34.353,56.4165,53.0535,0.534,0.6875,-0.78474,-0.77556,0.0,208.05,208.005,204.98333333333335,204.98333333333335,0.0,0.0
10,0.0,0.0,0.0,1.0,1.0,0.0,0.0,1.0,0.0,100.0,1.0,1.1856,26.0,0.0,0.0,0.0,59.999996,0.0,26.0,26.0,26.0,26.0,-0.06277777777777778,0.27960000000000007,0.0297,294.449,-4.8061,-4.933111111111112,-2.1052,-2.181,-242.21,216.0075,190.78875,0.0,0.0,0.0,0.0,0.021066666666666668,-5.498166666666667,-5.498166666666667,-0.56,-0.705,-0.037374999999999936,1.891,66.586,-0.08199999999999996,-0.252475,0.125,100.0,1.0,1.0,205.26999999999998,0.0,0.0,0.0,0.0,0.0,0.0,0.0,8700.7,0.0,55.0,5.0,239.68333333333334,0.0,0.0,0.0,0.0,0.0,0.0,1.0,0.0,0.509999999999998,0.509999999999998,0.0,0.0,0.0,55.0,616.79921,10000.0,85.000001,85.000001,85.000001,85.000001,395.0,0.0,0.0,0.0,1.0,166.665,53.757,53.757,50.171,50.171,34.0,-52.8375,51.42,8.25,-15.090000000000003,0.0,1782.86,-1.245000000000001,100.0,27.835,26.573,41.038,39.853,0.0,0.0,100.0,0.0,0.0,0.0,0.0,2937.625,2883.8,4203.888888888889,4235.5,305.891,305.75525,314.48425,314.40825,21.987714285714286,20.6003,21.813333333333333,21.537222222222223,314.999998,314.999998,324.999988,324.999988,99.56637142857143,99.51101666666666,99.56318571428571,99.55617142857143,-0.6062499999999997,0.6737500000000001,0.6992,-0.8479999999999999,-0.05666666666667197,-0.08166666666667055,1.4619999999999997,1.4569999999999999,38.423,29.7515,37.334,35.608000000000004,61.068,36.8715,58.899,56.596000000000004,57.144999999999996,35.4075,57.0405,54.2535,54.546,34.412,56.4725,53.128,0.5185,0.7204999999999999,-0.7791699999999999,-0.78243,0.0,208.485,208.44,205.26999999999998,205.26999999999998,0.0,0.0
11,0.0,0.0,0.0,1.0,1.0,0.0,0.0,1.0,0.0,100.0,1.0,1.1856,26.0,0.0,0.0,0.0,59.999996,0.0,26.0,26.0,26.0,26.0,-0.05333333333333334,0.27,-0.06946000000000001,294.907,-4.828,-4.899777777777778,-2.1681,-2.175875,-239.01,215.995,190.76925,0.0,0.0,0.0,0.0,0.022600000000000002,-5.498166666666667,-5.498166666666667,-0.5965,-0.10066666666666667,-0.004624999999999879,0.5920000000000005,66.711,-0.05249999999999999,-0.27635000000000004,-0.3724999999999996,100.0,1.0,1.0,205.93333333333334,0.0,0.0,0.0,0.0,0.0,0.0,0.0,8728.7,0.0,55.0,5.0,240.13333333333333,1.0,0.0,0.0,0.0,0.0,0.0,1.0,0.0,0.5579999999999998,0.5579999999999998,0.0,0.0,1.0,55.0,616.79921,10000.0,85.000001,85.000001,85.000001,85.000001,395.0,0.0,0.0,0.0,1.0,333.33500000000004,53.177,53.177,51.544,51.544,34.0,-55.292500000000004,55.95666666666666,7.43,-11.71,0.0,1782.81,-1.0799999999999983,100.0,27.606,26.886,40.442,39.79,0.0,0.0,100.0,0.0,0.0,0.0,0.0,3053.25,3084.8,3715.1111111111113,3881.5,305.53333333333336,305.06025,315.7995,315.296,21.997714285714284,20.6057,21.82288888888889,21.546555555555557,314.999998,314.999998,324.999988,324.999988,99.56644285714286,99.51108333333333,99.56334285714286,99.55635714285714,-0.6004999999999998,0.675,0.7278,-0.8126,-0.06833333333332803,-0.09166666666666856,1.6019999999999994,1.592,38.485,29.7855,37.393,35.666,61.079,36.942499999999995,58.9495,56.6625,57.153999999999996,35.4695,57.0875,54.3165,54.552,34.4675,56.516,53.189,0.528,0.7029999999999998,-0.77874,-0.78028,0.0,208.86,208.86,205.93333333333334,205.93333333333334,0.0,0.0
12,0.0,0.0,0.0,1.0,1.0,0.0,0.0,1.0,0.0,100.0,1.0,1.1856,26.0,0.0,0.0,0.0,59.999996,0.0,26.0,26.0,26.0,26.0,-0.021333333333333333,0.2803,0.0171,294.35699999999997,-4.8863,-4.8886666666666665,-2.1385,-2.19375,-235.81,215.98000000000002,190.748625,0.0,0.0,0.0,0.0,0.025466666666666665,-5.498166666666667,-5.498166666666667,-0.5813,0.289,-0.013374999999999915,0.7999999999999998,66.842,-0.022499999999999964,-0.2466,-0.3700000000000001,100.0,1.0,1.0,206.12,0.0,0.0,0.0,0.0,0.0,0.0,0.0,8736.6,0.0,55.0,5.0,240.60333333333335,0.0,0.0,0.0,0.0,0.0,0.0,1.0,0.0,0.6059999999999981,0.6059999999999981,0.0,0.0,0.0,55.0,616.79921,10000.0,85.000001,85.000001,85.000001,85.000001,395.0,0.0,0.0,0.0,1.0,166.665,53.131,53.131,50.308,50.308,34.0,-56.212500000000006,56.19666666666667,11.0775,-10.807500000000001,0.0,1782.764,-0.5300000000000011,100.0,27.475,27.043,40.370000000000005,39.818,0.0,0.0,100.0,0.0,0.0,0.0,0.0,3083.0,3108.4,4167.222222222223,4195.0,305.4633333333333,305.02075,314.651,314.55925,22.007571428571428,20.6111,21.832444444444445,21.555777777777777,314.999998,314.999998,324.999988,324.999988,99.5665,99.51116666666667,99.56352857142858,99.55652857142857,-0.6107499999999999,0.67075,0.7652000000000001,-0.7742,-0.05833333333333002,-0.0899999999999963,1.5039999999999996,1.487,38.547,29.819499999999998,37.453,35.724000000000004,61.088,37.015,59.0065,56.728,57.162,35.533,57.14,54.3785,54.558,34.525,56.564499999999995,53.2485,0.5665,0.6669999999999998,-0.77966,-0.77878,0.0,209.275,209.29000000000002,206.12,206.12,0.0,0.0
13,0.0,0.0,0.0,1.0,1.0,0.0,0.0,1.0,0.0,100.0,1.0,1.1856,26.0,0.0,0.0,0.0,59.999996,0.0,26.0,26.0,26.0,26.0,-0.01011111111111111,0.2791000000000001,0.03082,293.961,-4.8645,-4.879333333333333,-2.1702000000000004,-2.1855,-232.39,215.9625,190.727,0.0,0.0,0.0,0.0,0.02676666666666667,-5.498166666666667,-5.498166666666667,-0.5759000000000001,-0.12,-0.01587499999999986,-0.641,66.97800000000001,-0.006099999999999994,-0.256175,-0.05750000000000011,100.0,1.0,1.0,206.48000000000002,0.0,0.0,0.0,0.0,0.0,0.0,0.0,8752.0,0.0,55.0,5.0,241.09666666666666,1.0,0.0,0.0,0.0,0.0,0.0,1.0,0.0,0.657,0.657,0.0,0.0,1.0,55.0,616.79921,10000.0,85.000001,85.000001,85.000001,85.000001,395.0,0.0,0.0,0.0,1.0,166.665,52.78,52.78,50.262,50.262,34.0,-58.2725,54.55,10.425000000000004,-11.035000000000004,0.0,1782.713,-0.9299999999999997,100.0,27.663,27.417,40.487,40.424,0.0,0.0,100.0,0.0,0.0,0.0,0.0,3226.125,2992.5,4232.555555555556,4222.2,305.1956666666667,305.181,314.53725,314.38425,22.018142857142855,20.617,21.842777777777776,21.56588888888889,314.999998,314.999998,324.999988,324.999988,99.56658571428571,99.51125,99.5637,99.55671428571429,-0.5789999999999997,0.69475,0.7567999999999999,-0.7727999999999999,-0.06666666666666998,-0.0899999999999963,1.4699999999999998,1.46,38.613,29.856,37.516999999999996,35.787,61.099999999999994,37.0925,59.069,56.8005,57.172,35.601,57.198,54.4475,54.565,34.586,56.6185,53.315,0.5395000000000001,0.6894999999999998,-0.77905,-0.76801,0.0,209.695,209.68,206.48000000000002,206.48000000000002,0.0,0.0
14,0.0,0.0,0.0,1.0,1.0,0.0,0.0,1.0,0.0,100.0,1.0,1.1856,26.0,0.0,0.0,0.0,59.999996,0.0,26.0,26.0,26.0,26.0,-0.003,0.27300000000000013,-0.01128,294.174,-4.8525,-4.831222222222222,-2.1724,-2.16175,-228.98,215.9475,190.705875,0.0,0.0,0.0,0.0,0.028733333333333333,-5.498166666666667,-5.498166666666667,-0.5867,-0.11533333333333333,0.011500000000000066,1.4249999999999998,67.112,-0.0036999999999999256,-0.270475,-0.16999999999999993,100.0,1.0,1.0,206.97333333333333,0.0,0.0,0.0,0.0,0.0,0.0,0.0,8772.9,0.0,55.0,5.0,241.57666666666665,0.0,0.0,0.0,0.0,0.0,0.0,1.0,0.0,0.7079999999999984,0.7079999999999984,0.0,0.0,0.0,55.0,616.79921,10000.0,85.000001,85.000001,85.000001,85.000001,395.0,0.0,0.0,0.0,1.0,166.665,52.811,52.811,50.446,50.446,34.0,-53.765,58.28,10.4375,-11.125,0.0,1782.662,-1.1550000000000011,100.0,27.814,27.35,40.583,40.477000000000004,0.0,0.0,100.0,0.0,0.0,0.0,0.0,3007.5,3173.2,3980.222222222222,4156.9,305.64566666666667,304.82175,315.077,314.64925,22.028714285714287,20.622799999999998,21.853,21.57588888888889,314.999998,314.999998,324.999988,324.999988,99.56664285714285,99.51131666666667,99.56388571428572,99.55691428571429,-0.5527500000000001,0.7237500000000001,0.7736000000000001,-0.7746,-0.06833333333332803,-0.07666666666666799,1.5190000000000001,1.5110000000000001,38.679,29.893,37.581,35.849000000000004,61.11,37.172,59.129999999999995,56.871,57.18,35.670500000000004,57.2545,54.5145,54.57,34.6485,56.670500000000004,53.379,0.5225,0.7035,-0.78279,-0.78014,0.0,210.12,210.07999999999998,206.97333333333333,206.97333333333333,0.0,0.0
15,0.0,0.0,0.0,1.0,1.0,0.0,0.0,1.0,0.0,100.0,1.0,1.1856,26.0,0.0,0.0,0.0,59.999996,0.0,26.0,26.0,26.0,26.0,0.02066666666666667,0.27090000000000014,0.00548,294.205,-4.8283000000000005,-4.788555555555556,-2.198,-2.10275,-225.75,215.9325,190.685625,0.0,0.0,0.0,0.0,0.030633333333333332,-5.498166666666667,-5.498166666666667,-0.5776,0.2966666666666667,0.03962500000000002,0.992,67.238,0.0039000000000000146,-0.252075,-0.3949999999999996,100.0,1.0,1.0,207.3466666666667,0.0,0.0,0.0,0.0,0.0,0.0,0.0,8788.7,0.0,55.0,5.0,242.03,1.0,0.0,0.0,0.0,0.0,0.0,1.0,0.0,0.7560000000000002,0.7560000000000002,0.0,0.0,1.0,55.0,616.79921,10000.0,85.000001,85.000001,85.000001,85.000001,395.0,0.0,0.0,0.0,1.0,166.665,53.055,53.055,50.507,50.507,34.0,-50.9,57.471666666666664,10.9525,-11.6325,0.0,1782.614,-1.125,100.0,27.781,27.395,40.32,40.55,0.0,0.0,100.0,0.0,0.0,0.0,0.0,2874.25,3142.6,3980.222222222222,4334.7,306.02066666666667,304.905,315.11525,314.24475,22.03857142857143,20.6284,21.862555555555556,21.585333333333335,314.999998,314.999998,324.999988,324.999988,99.56671428571428,99.5114,99.56405714285714,99.55708571428572,-0.5444999999999998,0.7237500000000001,0.7908,-0.7572000000000001,-0.07333333333333059,-0.07333333333333059,1.5069999999999997,1.491,38.741,29.927500000000002,37.641,35.908,61.117999999999995,37.2475,59.1855,56.937,57.186,35.7365,57.3055,54.577,54.575,34.708,56.718,53.4395,0.5255000000000001,0.702,-0.78431,-0.77487,0.0,210.51,210.5,207.3466666666667,207.3466666666667,0.0,0.0
16,0.0,0.0,0.0,1.0,1.0,0.0,0.0,1.0,0.0,100.0,1.0,1.1856,26.0,0.0,0.0,0.0,59.999996,0.0,26.0,26.0,26.0,26.0,0.04277777777777778,0.2539,-0.043300000000000005,294.205,-4.9281,-4.789,-2.1771000000000003,-2.102,-222.32,215.91750000000002,190.66375,0.0,0.0,0.0,0.0,0.032633333333333334,-5.498166666666667,-5.498166666666667,-0.5972000000000001,-0.7233333333333334,0.02762500000000001,-1.0059999999999998,67.373,0.01760000000000006,-0.26775,-0.5499999999999998,100.0,1.0,1.0,207.76666666666665,0.0,0.0,0.0,0.0,0.0,0.0,0.0,8806.4,0.0,55.0,5.0,242.51333333333332,0.0,0.0,0.0,0.0,0.0,0.0,1.0,0.0,0.8069999999999986,0.8069999999999986,0.0,0.0,0.0,55.0,616.79921,10000.0,85.000001,85.000001,85.000001,85.000001,395.0,0.0,0.0,0.0,1.0,166.665,52.963,52.963,50.201,50.201,34.0,-55.34,56.93,11.719999999999999,-9.997500000000002,0.0,1782.563,-0.7149999999999999,100.0,27.278,27.646,40.536,40.778999999999996,0.0,0.0,100.0,0.0,0.0,0.0,0.0,3086.5,3114.4,3994.777777777778,4103.9,305.70633333333336,304.8515,315.123,314.71,22.048714285714286,20.6344,21.872888888888887,21.595333333333333,314.999998,314.999998,324.999988,324.999988,99.56678571428571,99.5115,99.56425714285714,99.55727142857143,-0.5882499999999999,0.69825,0.8006000000000001,-0.7387999999999999,-0.07166666666666544,-0.06499999999999773,1.516,1.495,38.804,29.9645,37.705,35.971000000000004,61.122,37.327,59.249,57.0055,57.19,35.8065,57.365,54.6425,54.576,34.7715,56.772999999999996,53.503,0.562,0.677,-0.7838499999999999,-0.77933,0.0,210.89,210.9,207.76666666666665,207.76666666666665,0.0,0.0
17,0.0,0.0,0.0,1.0,1.0,0.0,0.0,1.0,0.0,100.0,1.0,1.1856,26.0,0.0,0.0,0.0,59.999996,0.0,26.0,26.0,26.0,26.0,0.005,0.26970000000000005,-0.02792,293.93,-4.8762,-4.783111111111111,-2.2072000000000003,-2.13075,-218.88,215.9025,190.641375,0.0,0.0,0.0,0.0,0.034633333333333335,-5.498166666666667,-5.498166666666667,-0.5881000000000001,0.5166666666666666,-0.0012500000000001954,0.43400000000000016,67.505,0.02540000000000009,-0.249625,-0.10749999999999993,100.0,1.0,1.0,208.15,0.0,0.0,0.0,0.0,0.0,0.0,0.0,8822.7,0.0,55.0,5.0,242.99,1.0,0.0,0.0,0.0,0.0,0.0,1.0,0.0,0.8580000000000005,0.8580000000000005,0.0,0.0,1.0,55.0,616.79921,10000.0,85.000001,85.000001,85.000001,85.000001,395.0,0.0,0.0,0.0,1.0,333.33500000000004,52.734,52.734,50.247,50.247,34.0,-55.435,55.41666666666667,12.21,-9.86,0.0,1782.511,-0.5799999999999983,100.0,27.936,27.731,40.393,40.604,0.0,0.0,100.0,0.0,0.0,0.0,0.0,3080.375,3050.6,4223.666666666667,4220.0,305.4986666666667,305.2095,314.625,314.5645,22.059285714285714,20.6404,21.883,21.605333333333334,314.999998,314.999998,324.999988,324.999988,99.56685714285715,99.51158333333333,99.56444285714285,99.55744285714286,-0.5659999999999998,0.7125000000000001,0.8024,-0.7382,-0.06833333333332803,-0.0833333333333286,1.4989999999999997,1.487,38.870000000000005,30.002499999999998,37.769,36.033,61.132999999999996,37.408500000000004,59.3095,57.0725,57.199,35.878,57.420500000000004,54.706,54.582,34.836,56.8245,53.564,0.5660000000000001,0.6635,-0.7803599999999999,-0.7807499999999999,0.0,211.35000000000002,211.32999999999998,208.15,208.15,0.0,0.0
18,0.0,0.0,0.0,1.0,1.0,0.0,0.0,1.0,0.0,100.0,1.0,1.1856,26.0,0.0,0.0,0.0,59.999996,0.0,26.0,26.0,26.0,26.0,-0.00811111111111111,0.256,-0.024980000000000002,293.9,-4.9011,-4.765555555555556,-2.2180999999999997,-2.0845000000000002,-215.64,215.89,190.6205,0.0,0.0,0.0,0.0,0.036500000000000005,-5.498166666666667,-5.498166666666667,-0.5972000000000001,-0.5606666666666666,0.01587499999999986,1.1420000000000003,67.63,0.0121,-0.265375,0.03000000000000025,100.0,1.0,1.0,208.5366666666667,0.0,0.0,0.0,0.0,0.0,0.0,0.0,8839.1,0.0,55.0,5.0,243.44333333333333,0.0,0.0,0.0,0.0,0.0,0.0,1.0,0.0,0.9059999999999988,0.9059999999999988,0.0,0.0,0.0,55.0,616.79921,10000.0,85.000001,85.000001,85.000001,85.000001,395.0,0.0,0.0,0.0,1.0,166.665,52.704,52.704,50.095,50.095,34.0,-55.32,59.19666666666667,10.237500000000004,-11.682499999999997,0.0,1782.464,-0.870000000000001,100.0,27.747,27.498,40.783,40.918,0.0,0.0,100.0,0.0,0.0,0.0,0.0,3082.125,3240.3,4050.0,4156.3,305.5523333333333,304.729,314.96925,314.67975,22.069,20.646,21.892777777777777,21.61488888888889,314.999998,314.999998,324.999988,324.999988,99.56691428571429,99.51166666666667,99.56461428571428,99.55762857142857,-0.56175,0.7215,0.777,-0.7644,-0.06499999999999773,-0.07833333333332604,1.492,1.499,38.931,30.0375,37.83,36.093,61.14,37.4825,59.37,57.138999999999996,57.205,35.943,57.477000000000004,54.7695,54.586,34.894,56.8765,53.625,0.5509999999999999,0.681,-0.77565,-0.78858,0.0,211.715,211.67000000000002,208.5366666666667,208.5366666666667,0.0,0.0
19,0.0,0.0,0.0,1.0,1.0,0.0,0.0,1.0,0.0,100.0,1.0,1.1856,26.0,0.0,0.0,0.0,59.999996,0.0,26.0,26.0,26.0,26.0,0.015,0.27249999999999996,0.02832,293.442,-4.8671,-4.758555555555556,-2.2276,-2.074125,-212.18,215.8775,190.598,0.0,0.0,0.0,0.0,0.0385,-5.498166666666667,-5.498166666666667,-0.5904,0.859,0.015374999999999917,-0.742,67.761,0.010199999999999987,-0.255625,-0.01499999999999968,100.0,1.0,1.0,208.94666666666666,0.0,0.0,0.0,0.0,0.0,0.0,0.0,8856.5,0.0,55.0,5.0,243.91,1.0,0.0,0.0,0.0,0.0,0.0,1.0,0.0,0.9570000000000007,0.9570000000000007,0.0,0.0,1.0,55.0,616.79921,10000.0,85.000001,85.000001,85.000001,85.000001,395.0,0.0,0.0,0.0,1.0,333.33500000000004,51.91,51.91,50.018,50.018,34.0,-59.18,58.42,10.240000000000002,-12.29,0.0,1782.412,-0.8000000000000007,100.0,28.151,28.114,40.464,40.881,0.0,0.0,100.0,0.0,0.0,0.0,0.0,3266.0,3177.5,4229.111111111111,4276.9,305.056,304.6135,314.6705,314.39575,22.079571428571427,20.6522,21.90288888888889,21.62488888888889,314.999998,314.999998,324.999988,324.999988,99.567,99.51175,99.56481428571429,99.55781428571429,-0.5724999999999998,0.7015,0.7706000000000001,-0.7649999999999999,-0.07499999999999574,-0.07000000000000028,1.4959999999999996,1.4900000000000002,38.997,30.0765,37.893,36.156,61.152,37.5655,59.4285,57.207499999999996,57.215,36.016,57.531,54.835,54.593,34.96,56.9265,53.688,0.552,0.6720000000000002,-0.77388,-0.7821199999999999,0.0,212.15,212.11,208.94666666666666,208.94666666666666,0.0,0.0
20,0.0,0.0,0.0,1.0,1.0,0.0,0.0,1.0,0.0,100.0,1.0,1.1856,26.0,0.0,0.0,0.0,59.999996,0.0,26.0,26.0,26.0,26.0,0.01888888888888889,0.2694000000000001,0.050760000000000007,293.594,-4.9105,-4.827,-2.1504000000000003,-2.1965,-208.72,215.8625,190.57575,0.0,0.0,0.0,0.0,0.04053333333333333,-5.498166666666667,-5.498166666666667,-0.5902000000000001,-1.151,0.016000000000000014,0.6840000000000002,67.895,0.0051000000000001044,-0.2634,-0.21750000000000025,100.0,1.0,1.0,209.20666666666668,0.0,0.0,0.0,0.0,0.0,0.0,0.0,8867.5,0.0,55.0,5.0,244.39666666666665,0.0,0.0,0.0,0.0,0.0,0.0,0.0,0.0,1.0079999999999991,1.0079999999999991,0.0,0.0,0.0,55.0,616.79921,10000.0,85.000001,85.000001,85.000001,85.000001,395.0,0.0,0.0,0.0,1.0,333.33500000000004,53.009,53.009,49.164,49.164,34.0,-51.730000000000004,56.513333333333335,11.880000000000003,-10.765,0.0,1782.36,-0.7949999999999982,100.0,27.83,27.681,41.249,41.268,0.0,0.0,100.0,0.0,0.0,0.0,0.0,2911.0,3111.1,4185.222222222223,4328.4,306.102,305.05,314.53025,314.1035,22.089714285714287,20.6582,21.913444444444444,21.63511111111111,314.999998,314.999998,324.999988,324.999988,99.56705714285714,99.51183333333333,99.565,99.558,-0.5707499999999999,0.7015,0.7787999999999999,-0.7634000000000001,-0.05333333333332746,-0.07333333333333059,1.4329999999999998,1.439,39.061,30.113500000000002,37.959,36.219,61.157,37.6435,59.4945,57.2805,57.219,36.0845,57.5925,54.903999999999996,54.595,35.0215,56.9835,53.754999999999995,0.548,0.6749999999999998,-0.77546,-0.7795,0.0,212.5,212.485,209.20666666666668,209.20666666666668,0.0,0.0
21,0.0,0.0,0.0,1.0,1.0,0.0,0.0,1.0,0.0,100.0,1.0,1.1856,26.0,0.0,0.0,0.0,59.999996,0.0,26.0,26.0,26.0,26.0,-0.012,0.26239999999999997,-0.058820000000000004,294.006,-4.8209,-4.881666666666667,-2.2164,-2.15575,-205.45999999999998,215.85,190.55425,0.0,0.0,0.0,0.0,0.04243333333333334,-5.498166666666667,-5.498166666666667,-0.6176,0.41633333333333333,-0.0011250000000000426,0.052999999999999936,68.014,0.008099999999999996,-0.27192500000000003,-0.09750000000000014,100.0,1.0,1.0,209.8466666666667,0.0,0.0,0.0,0.0,0.0,0.0,0.0,8894.6,0.0,55.0,5.0,244.82333333333332,1.0,0.0,0.0,0.0,0.0,0.0,0.0,0.0,1.056000000000001,1.056000000000001,0.0,0.0,1.0,55.0,616.79921,10000.0,85.000001,85.000001,85.000001,85.000001,395.0,0.0,0.0,0.0,1.0,333.33500000000004,52.414,52.414,50.659,50.659,34.0,-55.697500000000005,57.17333333333333,10.340000000000003,-9.504999999999999,0.0,1782.313,-0.6499999999999986,100.0,28.114,27.837,40.647999999999996,40.876,0.0,0.0,100.0,0.0,0.0,0.0,0.0,3079.125,3127.5,3931.222222222222,3974.9,305.4393333333333,304.90525,315.35575,315.12725,22.09957142857143,20.664,21.922888888888888,21.644444444444446,314.999998,314.999998,324.999988,324.999988,99.56712857142857,99.51193333333333,99.56517142857143,99.55818571428571,-0.5812499999999998,0.6957500000000001,0.7898,-0.7538,-0.07499999999999574,-0.08500000000000085,1.577,1.568,39.122,30.15,38.018,36.278,61.167,37.719,59.547,57.341499999999996,57.227000000000004,36.150999999999996,57.641,54.962,54.601,35.0815,57.028,53.8105,0.5700000000000001,0.6625000000000001,-0.7884,-0.7759499999999999,0.0,212.905,212.885,209.8466666666667,209.8466666666667,0.0,0.0
22,0.0,0.0,0.0,1.0,1.0,0.0,0.0,1.0,0.0,100.0,1.0,1.1856,26.0,0.0,0.0,0.0,59.999996,0.0,26.0,26.0,26.0,26.0,0.01377777777777778,0.2539,0.0218,293.442,-4.8055,-4.884555555555556,-2.2091000000000003,-2.195875,-201.99,215.8375,190.530625,0.0,0.0,0.0,0.0,0.04443333333333333,-5.498166666666667,-5.498166666666667,-0.5948,0.12666666666666668,0.0021249999999999325,-0.30900000000000016,68.147,-0.0020000000000000018,-0.24952500000000002,0.21999999999999975,100.0,1.0,1.0,210.03333333333333,0.0,0.0,0.0,0.0,0.0,0.0,0.0,8902.5,0.0,55.0,5.0,245.30333333333334,0.0,0.0,0.0,0.0,0.0,0.0,0.0,0.0,1.1069999999999993,1.1069999999999993,0.0,0.0,0.0,55.0,616.79921,10000.0,85.000001,85.000001,85.000001,85.000001,395.0,0.0,0.0,0.0,1.0,333.33500000000004,52.444,52.444,49.438,49.438,34.0,-55.025000000000006,55.20166666666667,9.785000000000004,-11.792500000000004,0.0,1782.261,-0.9050000000000011,100.0,28.073999999999998,28.095,40.958,41.159,0.0,0.0,100.0,0.0,0.0,0.0,0.0,3076.375,3006.0,4267.111111111111,4237.1,305.58433333333335,305.05075,314.5285,314.3765,22.11,20.670099999999998,21.933333333333334,21.654555555555554,314.999998,314.999998,324.999988,324.999988,99.5672,99.51201666666667,99.56537142857142,99.55837142857143,-0.5655000000000001,0.6950000000000001,0.753,-0.7888,-0.06333333333333258,-0.08500000000000085,1.447,1.467,39.188,30.188000000000002,38.083,36.341,61.177,37.7985,59.611,57.412,57.236000000000004,36.22,57.7,55.0295,54.607,35.144,57.083,53.875,0.542,0.6800000000000002,-0.78007,-0.77835,0.0,213.32999999999998,213.29500000000002,210.03333333333333,210.03333333333333,0.0,0.0
23,0.0,0.0,0.0,1.0,1.0,0.0,0.0,1.0,0.0,100.0,1.0,1.1856,26.0,0.0,0.0,0.0,59.999996,0.0,26.0,26.0,26.0,26.0,-0.001,0.23880000000000012,-0.06314,293.549,-4.8397,-4.833777777777778,-2.1374,-2.20875,-198.31,215.825,190.506,0.0,0.0,0.0,0.0,0.04656666666666667,-5.498166666666667,-5.498166666666667,-0.6153000000000001,-0.24766666666666667,0.0004999999999999449,-0.7949999999999999,68.282,-0.00029999999999996696,-0.277275,0.015000000000000568,100.0,1.0,1.0,210.56666666666666,0.0,0.0,0.0,0.0,0.0,0.0,0.0,8925.2,0.0,55.0,5.0,245.79333333333335,1.0,0.0,0.0,0.0,0.0,0.0,0.0,0.0,1.1610000000000014,1.1610000000000014,0.0,0.0,1.0,55.0,616.79921,10000.0,85.000001,85.000001,85.000001,85.000001,395.0,0.0,0.0,0.0,1.0,166.665,51.894999999999996,51.894999999999996,50.552,50.552,34.0,-60.5525,55.980000000000004,9.8675,-10.482500000000002,0.0,1782.21,-0.8449999999999989,100.0,28.234,28.141,41.043,41.344,0.0,0.0,100.0,0.0,0.0,0.0,0.0,3329.75,3053.3,3889.3333333333335,3952.3,304.85833333333335,304.99575,315.35975,315.02375,22.121,20.6766,21.944222222222223,21.665333333333333,314.999998,314.999998,324.999988,324.999988,99.56727142857143,99.5121,99.56557142857143,99.55857142857143,-0.5732499999999998,0.7037500000000001,0.7582000000000001,-0.7862,-0.07499999999999574,-0.07833333333332604,1.513,1.5220000000000002,39.257,30.2285,38.150999999999996,36.408,61.187,37.8835,59.675,57.4875,57.244,36.295,57.7595,55.101,54.611999999999995,35.211,57.1375,53.944,0.546,0.6844999999999999,-0.77561,-0.7854099999999999,0.0,213.72500000000002,213.695,210.56666666666666,210.56666666666666,0.0,0.0
24,0.0,0.0,0.0,1.0,1.0,0.0,0.0,1.0,0.0,100.0,1.0,1.1856,26.0,0.0,0.0,0.0,59.999996,0.0,26.0,26.0,26.0,26.0,0.011111111111111112,0.26480000000000015,-0.04712,293.747,-4.8572,-4.849777777777778,-2.1771000000000003,-2.152625,-195.01999999999998,215.8125,190.483625,0.0,0.0,0.0,0.0,0.0485,-5.498166666666667,-5.498166666666667,-0.6181,-0.3876666666666667,0.007874999999999854,0.04100000000000037,68.405,0.0008000000000001339,-0.2619,0.012500000000000178,100.0,1.0,1.0,210.84,0.0,0.0,0.0,0.0,0.0,0.0,0.0,8936.7,0.0,55.0,5.0,246.23000000000002,0.0,0.0,0.0,0.0,0.0,0.0,0.0,0.0,1.2089999999999996,1.2089999999999996,0.0,0.0,0.0,55.0,616.79921,10000.0,85.000001,85.000001,85.000001,85.000001,395.0,0.0,0.0,0.0,1.0,166.665,53.024,53.024,49.484,49.484,34.0,-52.980000000000004,52.90166666666667,10.96,-11.270000000000003,0.0,1782.162,-0.9649999999999999,100.0,28.012,27.805,41.012,41.208,0.0,0.0,100.0,0.0,0.0,0.0,0.0,2979.25,2914.0,4303.444444444444,4130.6,305.92,305.49225,314.39075,314.69575,22.130714285714287,20.6822,21.95388888888889,21.674777777777777,314.999998,314.999998,324.999988,324.999988,99.56734285714286,99.51218333333334,99.56574285714285,99.55875714285715,-0.5659999999999998,0.7030000000000001,0.7647999999999999,-0.7747999999999999,-0.06833333333332803,-0.06666666666666998,1.4900000000000002,1.476,39.317,30.264,38.212,36.467,61.195,37.956,59.732,57.5515,57.251000000000005,36.3585,57.8125,55.162,54.616,35.2685,57.1865,54.003,0.538,0.6865000000000001,-0.77736,-0.78191,0.0,214.11,214.075,210.84,210.84,0.0,0.0
25,0.0,0.0,0.0,1.0,1.0,0.0,0.0,1.0,0.0,100.0,1.0,1.1856,26.0,0.0,0.0,0.0,59.999996,0.0,26.0,26.0,26.0,26.0,0.034666666666666665,0.2551000000000001,-0.07200000000000001,293.777,-4.9357,-4.798,-2.2038,-2.147875,-191.74,215.8,190.46,0.0,0.0,0.0,0.0,0.0504,-5.498166666666667,-5.498166666666667,-0.6492,-0.19866666666666666,0.02224999999999988,-0.8920000000000003,68.524,0.0026000000000001577,-0.2706,-0.3624999999999998,100.0,1.0,1.0,211.33666666666667,0.0,0.0,0.0,0.0,0.0,0.0,0.0,8957.8,0.0,55.0,5.0,246.66,1.0,0.0,0.0,0.0,0.0,0.0,0.0,0.0,1.256999999999998,1.256999999999998,0.0,0.0,1.0,55.0,616.79921,10000.0,85.000001,85.000001,85.000001,85.000001,395.0,0.0,0.0,0.0,1.0,166.665,52.260999999999996,52.260999999999996,50.278,50.278,34.0,-57.9275,59.303333333333335,9.6725,-10.220000000000002,0.0,1782.113,-0.875,100.0,27.826999999999998,28.044,40.801,41.068,0.0,0.0,100.0,0.0,0.0,0.0,0.0,3218.875,3220.6,3906.3333333333335,4024.4,305.39233333333334,304.55375,315.38975,314.97675,22.140428571428572,20.688,21.963555555555555,21.68422222222222,314.999998,314.999998,324.999988,324.999988,99.5674,99.51226666666666,99.56592857142857,99.55892857142857,-0.5782500000000002,0.7010000000000001,0.773,-0.7612000000000001,-0.07000000000000028,-0.0833333333333286,1.5569999999999995,1.5230000000000001,39.376999999999995,30.299999999999997,38.272,36.525999999999996,61.2,38.0315,59.786,57.614,57.254999999999995,36.425,57.8625,55.2215,54.617999999999995,35.3285,57.2325,54.06,0.5389999999999999,0.6854999999999998,-0.77587,-0.7787999999999999,0.0,214.465,214.445,211.33666666666667,211.33666666666667,0.0,0.0
26,0.0,0.0,0.0,1.0,1.0,0.0,0.0,1.0,0.0,100.0,1.0,1.1856,26.0,0.0,0.0,0.0,59.999996,0.0,26.0,26.0,26.0,26.0,0.0041111111111111105,0.27580000000000005,0.08212000000000001,292.572,-4.8763000000000005,-4.881666666666667,-2.2415000000000003,-2.146875,-188.24,215.7875,190.43425,0.0,0.0,0.0,0.0,0.05243333333333334,-5.498166666666667,-5.498166666666667,-0.6137,0.8150000000000001,0.0003750000000000142,0.633,68.654,0.013700000000000045,-0.24377500000000002,-0.16000000000000014,100.0,1.0,1.0,211.50333333333333,0.0,0.0,0.0,0.0,0.0,0.0,0.0,8964.8,0.0,55.0,5.0,247.12666666666667,0.0,0.0,0.0,0.0,0.0,0.0,0.0,0.0,1.3079999999999998,1.3079999999999998,0.0,0.0,0.0,55.0,616.79921,10000.0,85.000001,85.000001,85.000001,85.000001,395.0,0.0,0.0,0.0,1.0,333.33500000000004,51.483000000000004,51.483000000000004,48.798,48.798,34.0,-57.0775,58.665,11.9525,-10.7975,0.0,1782.06,-0.7699999999999996,100.0,28.891,28.605,41.134,41.262,0.0,0.0,100.0,0.0,0.0,0.0,0.0,3155.375,3181.8,4480.777777777777,4503.0,305.232,304.6685,313.9955,313.889,22.151,20.6944,21.97388888888889,21.694333333333333,314.999998,314.999998,324.999988,324.999988,99.56748571428571,99.51236666666667,99.56611428571429,99.55912857142857,-0.55525,0.7025000000000001,0.788,-0.7422,-0.07166666666666544,-0.0799999999999983,1.4260000000000002,1.4090000000000003,39.444,30.34,38.337,36.59,61.214,38.12,59.853,57.688,57.266999999999996,36.5025,57.9245,55.292,54.626999999999995,35.397999999999996,57.29,54.128,0.5485,0.6669999999999998,-0.77732,-0.77397,0.0,214.91,214.89,211.50333333333333,211.50333333333333,0.0,0.0
27,0.0,0.0,0.0,1.0,1.0,0.0,0.0,1.0,0.0,100.0,1.0,1.1856,26.0,0.0,0.0,0.0,59.999996,0.0,26.0,26.0,26.0,26.0,0.02988888888888889,0.24609999999999999,-0.02692,293.015,-4.8541,-4.835777777777778,-2.2395,-2.211375,-184.74,215.7775,190.41,0.0,0.0,0.0,0.0,0.05446666666666666,-5.498166666666667,-5.498166666666667,-0.6363,-1.06,0.0058749999999998526,-0.6529999999999996,68.781,0.010099999999999998,-0.29000000000000004,-0.11749999999999972,100.0,1.0,1.0,211.96333333333334,0.0,0.0,0.0,0.0,0.0,0.0,0.0,8984.4,0.0,55.0,5.0,247.58666666666664,1.0,0.0,0.0,0.0,0.0,0.0,0.0,0.0,1.3589999999999982,1.3589999999999982,0.0,0.0,1.0,55.0,616.79921,10000.0,85.000001,85.000001,85.000001,85.000001,395.0,0.0,0.0,0.0,1.0,166.665,51.971000000000004,51.971000000000004,49.042,49.042,34.0,-55.942499999999995,57.19,10.160000000000004,-9.807500000000001,0.0,1782.011,-0.9600000000000009,100.0,28.378,28.569,41.739000000000004,42.013,0.0,0.0,100.0,0.0,0.0,0.0,0.0,3128.625,3101.7,4122.111111111111,4075.5,305.5163333333333,304.85975,314.82775,314.7065,22.161285714285714,20.7006,21.984444444444446,21.704666666666668,314.999998,314.999998,324.999988,324.999988,99.56755714285714,99.51245,99.56631428571428,99.55932857142857,-0.5590000000000002,0.7072499999999999,0.7762000000000001,-0.7629999999999999,-0.06333333333333258,-0.07000000000000028,1.4740000000000002,1.4449999999999998,39.507999999999996,30.378999999999998,38.403,36.653999999999996,61.221000000000004,38.195499999999996,59.915,57.7565,57.272,36.5685,57.982,55.3575,54.629999999999995,35.458,57.343,54.19,0.5385,0.6869999999999998,-0.77671,-0.77354,0.0,215.245,215.22,211.96333333333334,211.96333333333334,0.0,0.0
28,0.0,0.0,0.0,1.0,1.0,0.0,0.0,1.0,0.0,100.0,1.0,1.1856,26.0,0.0,0.0,0.0,59.999996,0.0,26.0,26.0,26.0,26.0,0.029777777777777778,0.2571000000000001,-0.057479999999999996,293.335,-4.8649000000000004,-4.837,-2.1797,-2.1805,-181.43,215.765,190.386375,0.0,0.0,0.0,0.0,0.056400000000000006,-5.498166666666667,-5.498166666666667,-0.6453,0.5973333333333334,-0.006375000000000242,-0.7930000000000001,68.897,0.014499999999999957,-0.26965,-0.13750000000000018,100.0,1.0,1.0,212.47,0.0,0.0,0.0,0.0,0.0,0.0,0.0,9005.8,0.0,55.0,5.0,248.00333333333333,0.0,0.0,0.0,0.0,0.0,0.0,0.0,0.0,1.407,1.407,0.0,0.0,0.0,55.0,616.79921,10000.0,85.000001,85.000001,85.000001,85.000001,395.0,0.0,0.0,0.0,1.0,333.33500000000004,51.91,51.91,50.034,50.034,34.0,-58.42,56.260000000000005,10.712499999999999,-10.04,0.0,1781.962,-0.9199999999999982,100.0,28.435,28.468,41.071,41.429,0.0,0.0,100.0,0.0,0.0,0.0,0.0,3245.375,3056.1,4022.6666666666665,4051.9,305.187,304.974,315.12375,314.9245,22.171,20.7065,21.994,21.714111111111112,314.999998,314.999998,324.999988,324.999988,99.56761428571428,99.51253333333334,99.5665,99.5595,-0.5609999999999999,0.71275,0.779,-0.7647999999999999,-0.06499999999999773,-0.0833333333333286,1.5169999999999995,1.529,39.569,30.416,38.462,36.713,61.230000000000004,38.272999999999996,59.967,57.8165,57.28,36.6365,58.03,55.414,54.635,35.519,57.387,54.245,0.5385,0.6875,-0.77265,-0.78051,0.0,215.64499999999998,215.63,212.47,212.47,0.0,0.0
29,0.0,0.0,0.0,1.0,1.0,0.0,0.0,1.0,0.0,100.0,1.0,1.1856,26.0,0.0,0.0,0.0,59.999996,0.0,26.0,26.0,26.0,26.0,0.02722222222222222,0.24660000000000015,0.018500000000000003,292.923,-4.8184000000000005,-4.890444444444444,-2.1807,-2.169625,-177.91,215.755,190.360125,0.0,0.0,0.0,0.0,0.05843333333333334,-5.498166666666667,-5.498166666666667,-0.6409,-0.6713333333333333,0.001874999999999849,1.0650000000000004,69.027,0.016000000000000014,-0.258475,-0.33749999999999947,100.0,1.0,1.0,212.65,0.0,0.0,0.0,0.0,0.0,0.0,0.0,9013.5,0.0,55.0,5.0,248.47,1.0,0.0,0.0,0.0,0.0,0.0,0.0,0.0,1.4579999999999984,1.4579999999999984,0.0,0.0,1.0,55.0,616.79921,10000.0,85.000001,85.000001,85.000001,85.000001,395.0,0.0,0.0,0.0,1.0,166.665,52.078,52.078,48.766999999999996,48.766999999999996,34.0,-54.885000000000005,60.14666666666667,12.32,-10.100000000000001,0.0,1781.912,-1.004999999999999,100.0,28.231,28.073999999999998,41.522,41.58,0.0,0.0,100.0,0.0,0.0,0.0,0.0,3063.0,3238.9,4251.111111111111,4351.8,305.517,304.51075,314.43325,314.20375,22.181142857142856,20.7128,22.004444444444445,21.724333333333334,314.999998,314.999998,324.999988,324.999988,99.56768571428572,99.51261666666667,99.56668571428571,99.55968571428572,-0.5482499999999999,0.72075,0.7912,-0.7432000000000001,-0.06499999999999773,-0.06833333333332803,1.4370000000000003,1.4140000000000001,39.632999999999996,30.4545,38.528,36.777,61.235,38.3525,60.031,57.887,57.284,36.7065,58.0895,55.4815,54.637,35.582,57.442,54.3095,0.5355000000000001,0.6934999999999998,-0.77772,-0.78072,0.0,216.01,215.99,212.65,212.65,0.0,0.0
30,0.0,0.0,0.0,1.0,1.0,0.0,0.0,1.0,0.0,100.0,1.0,1.1856,26.0,0.0,0.0,0.0,59.999996,0.0,26.0,26.0,26.0,26.0,0.028444444444444442,0.25029999999999997,0.039080000000000004,292.48,-4.8788,-4.769555555555556,-2.1571,-2.215625,-174.39,215.745,190.333875,0.0,0.0,0.0,0.0,0.06046666666666667,-5.498166666666667,-5.498166666666667,-0.6468,0.7743333333333334,-0.003750000000000142,-0.9429999999999996,69.149,0.023700000000000054,-0.26825,-0.28749999999999964,100.0,1.0,1.0,213.13333333333333,0.0,0.0,0.0,0.0,0.0,0.0,0.0,9033.9,0.0,55.0,5.0,248.91333333333336,0.0,0.0,0.0,0.0,0.0,0.0,1.0,0.0,1.5090000000000003,1.5090000000000003,0.0,0.0,0.0,55.0,616.79921,10000.0,85.000001,85.000001,85.000001,85.000001,395.0,0.0,0.0,0.0,1.0,166.665,50.858000000000004,50.858000000000004,49.438,49.438,34.0,-62.1325,59.38666666666667,12.2575,-9.385000000000002,0.0,1781.861,-0.9250000000000007,100.0,28.901,29.043,41.255,41.764,0.0,0.0,100.0,0.0,0.0,0.0,0.0,3411.625,3191.4,4172.333333333333,4181.7,304.6376666666667,304.44125,314.77525,314.4865,22.191714285714287,20.7193,22.014666666666667,21.734444444444446,314.999998,314.999998,324.999988,324.999988,99.56775714285715,99.51271666666666,99.56688571428572,99.55988571428571,-0.5542500000000001,0.712,0.7918,-0.7514000000000001,-0.06666666666666998,-0.09666666666667112,1.471,1.4689999999999999,39.698,30.4955,38.592,36.84,61.247,38.439,60.09,57.954499999999996,57.294,36.782,58.144,55.545500000000004,54.644,35.6505,57.4925,54.371,0.5325,0.6859999999999999,-0.78113,-0.78126,0.0,216.41,216.425,213.13333333333333,213.13333333333333,0.0,0.0
31,0.0,0.0,0.0,1.0,1.0,0.0,0.0,1.0,0.0,100.0,1.0,1.1856,26.0,0.0,0.0,0.0,59.999996,0.0,26.0,26.0,26.0,26.0,0.05188888888888889,0.24260000000000015,0.024,292.313,-4.9411000000000005,-4.8501111111111115,-2.2434000000000003,-2.112,-171.07,215.735,190.309625,0.0,0.0,0.0,0.0,0.062400000000000004,-5.498166666666667,-5.498166666666667,-0.6264000000000001,-0.455,0.005374999999999908,-0.7729999999999997,69.269,0.020100000000000007,-0.26380000000000003,-0.28500000000000014,100.0,1.0,1.0,213.33333333333331,0.0,0.0,0.0,0.0,0.0,0.0,0.0,9042.5,0.0,55.0,5.0,249.34333333333336,1.0,0.0,0.0,0.0,0.0,0.0,1.0,0.0,1.5569999999999986,1.5569999999999986,0.0,0.0,1.0,55.0,616.79921,10000.0,85.000001,85.000001,85.000001,85.000001,395.0,0.0,0.0,0.0,1.0,333.33500000000004,51.727000000000004,51.727000000000004,47.836,47.836,34.0,-54.96,58.06333333333333,12.457500000000003,-11.1875,0.0,1781.811,-1.0199999999999996,100.0,28.715,29.04,41.857,42.448,0.0,0.0,100.0,0.0,0.0,0.0,0.0,3095.25,3145.1,4486.777777777777,4310.5,305.759,304.7975,313.97625,314.16075,22.201285714285714,20.7253,22.02466666666667,21.744222222222223,314.999998,314.999998,324.999988,324.999988,99.56782857142858,99.5128,99.56707142857142,99.56007142857143,-0.55125,0.722,0.796,-0.7475999999999998,-0.07000000000000028,-0.061666666666667425,1.404,1.396,39.757999999999996,30.5335,38.653999999999996,36.900999999999996,61.254000000000005,38.516999999999996,60.1535,58.0225,57.3,36.851,58.203,55.6105,54.647,35.712,57.5465,54.4335,0.5330000000000001,0.6915,-0.78177,-0.78076,0.0,216.785,216.76,213.33333333333331,213.33333333333331,0.0,0.0
32,0.0,0.0,0.0,1.0,1.0,0.0,0.0,1.0,0.0,100.0,1.0,1.1856,26.0,0.0,0.0,0.0,59.999996,0.0,26.0,26.0,26.0,26.0,0.030444444444444444,0.24060000000000015,-0.06864,292.755,-4.8802,-4.8486666666666665,-2.2749,-2.11625,-167.53,215.72750000000002,190.284375,0.0,0.0,0.0,0.0,0.06446666666666667,-5.498166666666667,-5.498166666666667,-0.647,0.005666666666666667,-0.01175000000000015,-0.10099999999999998,69.389,0.027800000000000047,-0.277225,-0.5125000000000002,100.0,1.0,1.0,213.90666666666667,0.0,0.0,0.0,0.0,0.0,0.0,0.0,9066.8,0.0,55.0,5.0,249.77666666666664,0.0,0.0,0.0,0.0,0.0,0.0,1.0,0.0,1.6080000000000005,1.6080000000000005,0.0,0.0,0.0,55.0,616.79921,10000.0,85.000001,85.000001,85.000001,85.000001,395.0,0.0,0.0,0.0,1.0,333.33500000000004,51.483000000000004,51.483000000000004,49.118,49.118,34.0,-56.18,58.85666666666667,11.185000000000002,-9.600000000000001,0.0,1781.761,-0.8449999999999989,100.0,28.793,28.963,41.716,42.113,0.0,0.0,100.0,0.0,0.0,0.0,0.0,3129.125,3193.1,4087.222222222222,4170.1,305.40166666666664,304.7305,315.017,314.772,22.21157142857143,20.7318,22.03488888888889,21.754333333333335,314.999998,314.999998,324.999988,324.999988,99.56788571428571,99.5129,99.56727142857143,99.56025714285714,-0.5442499999999999,0.71875,0.8104,-0.7325999999999999,-0.046666666666666856,-0.09666666666667112,1.5270000000000001,1.505,39.822,30.573999999999998,38.718,36.965,61.260999999999996,38.6015,60.213,58.088499999999996,57.306,36.925,58.257999999999996,55.673500000000004,54.650999999999996,35.778999999999996,57.5975,54.494,0.5435000000000001,0.6785000000000001,-0.77955,-0.78227,0.0,217.135,217.16,213.90666666666667,213.90666666666667,0.0,0.0
33,0.0,0.0,0.0,1.0,1.0,0.0,0.0,1.0,0.0,100.0,1.0,1.1856,26.0,0.0,0.0,0.0,59.999996,0.0,26.0,26.0,26.0,26.0,0.03933333333333334,0.24970000000000003,-0.021400000000000002,292.847,-4.8752,-4.856,-2.2174,-2.20875,-163.99,215.72,190.258,0.0,0.0,0.0,0.0,0.06653333333333335,-5.498166666666667,-5.498166666666667,-0.6537000000000001,-0.291,-0.02499999999999991,0.019000000000000128,69.515,0.02880000000000016,-0.264925,-0.009999999999999787,100.0,1.0,1.0,214.2,0.0,0.0,0.0,0.0,0.0,0.0,0.0,9079.2,0.0,55.0,5.0,250.23000000000002,1.0,0.0,0.0,0.0,0.0,0.0,1.0,0.0,1.658999999999999,1.658999999999999,0.0,0.0,1.0,55.0,616.79921,10000.0,85.000001,85.000001,85.000001,85.000001,395.0,0.0,0.0,0.0,1.0,166.665,51.971000000000004,51.971000000000004,48.965,48.965,34.0,-55.6575,55.49,11.75,-9.665,0.0,1781.711,-0.9749999999999979,100.0,28.597,28.728,41.619,42.066,0.0,0.0,100.0,0.0,0.0,0.0,0.0,3136.5,3019.1,4263.666666666667,4185.3,305.56233333333336,305.13675,314.5695,314.60025,22.221714285714285,20.7381,22.045222222222222,21.764555555555557,314.999998,314.999998,324.999988,324.999988,99.56795714285714,99.51298333333334,99.56747142857142,99.56045714285715,-0.5357500000000002,0.7205000000000001,0.7922,-0.7558,-0.07166666666666544,-0.0833333333333286,1.468,1.476,39.885999999999996,30.613,38.783,37.028,61.268,38.6805,60.275,58.155,57.312,36.9945,58.3155,55.737,54.653999999999996,35.841499999999996,57.65,54.5545,0.5265,0.6825000000000001,-0.77931,-0.78174,0.0,217.54000000000002,217.51,214.2,214.2,0.0,0.0
34,0.0,0.0,0.0,1.0,1.0,0.0,0.0,1.0,0.0,100.0,1.0,1.1856,26.0,0.0,0.0,0.0,59.999996,0.0,26.0,26.0,26.0,26.0,0.024333333333333332,0.23270000000000013,-0.06976,293.06,-4.9056,-4.780111111111111,-2.2539,-2.169,-160.64999999999998,215.715,190.232,0.0,0.0,0.0,0.0,0.06846666666666666,-5.498166666666667,-5.498166666666667,-0.6782,-0.8260000000000001,0.006750000000000034,-0.1739999999999995,69.631,0.022299999999999986,-0.26982500000000004,-0.14999999999999947,100.0,1.0,1.0,214.57333333333332,0.0,0.0,0.0,0.0,0.0,0.0,0.0,9094.9,0.0,55.0,5.0,250.64333333333335,0.0,0.0,0.0,0.0,0.0,0.0,1.0,0.0,1.7070000000000007,1.7070000000000007,0.0,0.0,0.0,55.0,616.79921,10000.0,85.000001,85.000001,85.000001,85.000001,395.0,0.0,0.0,0.0,1.0,166.665,52.155,52.155,49.728,49.728,34.0,-56.697500000000005,55.585,10.1475,-9.805,0.0,1781.663,-1.0700000000000003,100.0,28.358,28.429000000000002,41.457,42.131,0.0,0.0,100.0,0.0,0.0,0.0,0.0,3184.25,3031.1,4063.222222222222,4217.8,305.46433333333334,305.191,315.0665,314.45725,22.231285714285715,20.744,22.055,21.77411111111111,314.999998,314.999998,324.999988,324.999988,99.56802857142857,99.51306666666666,99.56765714285714,99.56064285714285,-0.5394999999999999,0.7284999999999999,0.784,-0.7454000000000001,-0.054999999999999716,-0.0799999999999983,1.4799999999999995,1.4729999999999999,39.945,30.65,38.844,37.088,61.272999999999996,38.754999999999995,60.33,58.219,57.316,37.06,58.366,55.798,54.656,35.9005,57.697,54.6135,0.5245,0.6974999999999998,-0.77869,-0.7727299999999999,0.0,217.87,217.85500000000002,214.57333333333332,214.57333333333332,0.0,0.0
35,0.0,0.0,0.0,1.0,1.0,0.0,0.0,1.0,0.0,100.0,1.0,1.1856,26.0,0.0,0.0,0.0,59.999996,0.0,26.0,26.0,26.0,26.0,0.04744444444444444,0.24930000000000008,-0.07122,293.167,-4.9398,-4.783,-2.1568,-2.118125,-157.1,215.70749999999998,190.202625,0.0,0.0,0.0,0.0,0.07053333333333334,-5.498166666666667,-5.498166666666667,-0.7209,-0.5983333333333334,0.0004999999999999449,0.2919999999999998,69.752,0.024699999999999944,-0.27915,-0.5649999999999995,100.0,1.0,1.0,215.00666666666666,0.0,0.0,0.0,0.0,0.0,0.0,0.0,9113.4,0.0,55.0,5.0,251.08333333333334,1.0,0.0,0.0,0.0,0.0,0.0,1.0,0.0,1.7579999999999991,1.7579999999999991,0.0,0.0,1.0,55.0,616.79921,10000.0,85.000001,85.000001,85.000001,85.000001,395.0,0.0,0.0,0.0,1.0,333.33500000000004,52.032,52.032,49.010999999999996,49.010999999999996,34.0,-54.260000000000005,62.295,12.64,-9.350000000000001,0.0,1781.61,-0.8449999999999989,100.0,28.19,28.455,41.357,41.711,0.0,0.0,100.0,0.0,0.0,0.0,0.0,3043.625,3362.6,4101.333333333333,4040.7,305.809,304.26825,314.89225,315.02875,22.241142857142858,20.7504,22.06522222222222,21.784222222222223,314.999998,314.999998,324.999988,324.999988,99.5681,99.51318333333333,99.56785714285714,99.56084285714286,-0.5539999999999998,0.71925,0.8048,-0.7345999999999999,-0.07000000000000028,-0.086666666666666,1.5140000000000002,1.504,40.007999999999996,30.689999999999998,38.908,37.150999999999996,61.277,38.842,60.3915,58.2855,57.318,37.1365,58.4235,55.8615,54.656,35.9695,57.749,54.6745,0.5385,0.6774999999999998,-0.77772,-0.7802899999999999,0.0,218.25,218.255,215.00666666666666,215.00666666666666,0.0,0.0
