,ABS Active,ABS Enabled,AID Allow Tire Blankets,AID Auto Blip,AID Auto Clutch,AID Auto Shift,AID Fuel Rate,AID Ideal Line,AID Mech Damage,AID Stability,AID Tire Wear Rate,Air Density,Air Temp,Ballast,Best Lap Delta,Best Lap Time,Brake Bias,Brake Pos,Brake Temp FL,Brake Temp FR,Brake Temp RL,Brake Temp RR,CG Accel Lateral,CG Accel Longitudinal,CG Accel Vertical,CG Height,Camber FL,Camber FR,Camber RL,Camber RR,Car Coord X,Car Coord Y,Car Coord Z,Car Damage Front,Car Damage Left,Car Damage Rear,Car Damage Right,Car Pos Norm,Caster FL,Caster FR,Chassis Pitch Angle,Chassis Pitch Rate,Chassis Roll Angle,Chassis Roll Rate,Chassis Velocity X,Chassis Velocity Y,Chassis Velocity Z,Chassis Yaw Rate,Clutch Pos,DRS Active,DRS Available,Drive Train Speed,ERS Heat Charging,ERS Is Charging,ERS Max Energy,ERS Power Level,ERS Recovery Level,Engine Brake Setting,Engine Limiter,Engine RPM,Flags,Fuel Level,Gear,Ground Speed,HR Sample Clock,In Pit,KERS Charge,KERS Deployed Energy,KERS Input,KERS Max Energy,LR Sample Clock,Lap Invalidated,Lap Time,Lap Time2,Last Lap Time,Last Sector Time,MR Sample Clock,Max Fuel,Max Power,Max RPM,Max Sus Travel FL,Max Sus Travel FR,Max Sus Travel RL,Max Sus Travel RR,Max Torque,Max Turbo Boost,Num Tires Off Track,Penalties Enabled,Position,Raw Data Sample Rate,Ride Height FL,Ride Height FR,Ride Height RL,Ride Height RR,Road Temp,Self Align Torque FL,Self Align Torque FR,Self Align Torque RL,Self Align Torque RR,Session Lap Count,Session Time Left,Steering Angle,Surface Grip,Suspension Travel FL,Suspension Travel FR,Suspension Travel RL,Suspension Travel RR,TC Active,TC Enabled,Throttle Pos,Tire Dirt Level FL,Tire Dirt Level FR,Tire Dirt Level RL,Tire Dirt Level RR,Tire Load FL,Tire Load FR,Tire Load RL,Tire Load RR,Tire Loaded Radius FL,Tire Loaded Radius FR,Tire Loaded Radius RL,Tire Loaded Radius RR,Tire Pressure FL,Tire Pressure FR,Tire Pressure RL,Tire Pressure RR,Tire Radius FL,Tire Radius FR,Tire Radius RL,Tire Radius RR,Tire Rubber Grip FL,Tire Rubber Grip FR,Tire Rubber Grip RL,Tire Rubber Grip RR,Tire Slip Angle FL,Tire Slip Angle FR,Tire Slip Angle RL,Tire Slip Angle RR,Tire Slip Ratio FL,Tire Slip Ratio FR,Tire Slip Ratio RL,Tire Slip Ratio RR,Tire Temp Core FL,Tire Temp Core FR,Tire Temp Core RL,Tire Temp Core RR,Tire Temp Inner FL,Tire Temp Inner FR,Tire Temp Inner RL,Tire Temp Inner RR,Tire Temp Middle FL,Tire Temp Middle FR,Tire Temp Middle RL,Tire Temp Middle RR,Tire Temp Outer FL,Tire Temp Outer FR,Tire Temp Outer RL,Tire Temp Outer RR,Toe In FL,Toe In FR,Toe In RL,Toe In RR,Turbo Boost,Wheel Angular Speed FL,Wheel Angular Speed FR,Wheel Angular Speed RL,Wheel Angular Speed RR,Wind Direction,Wind Speed
0,0.0,0.0,0.0,1.0,1.0,0.0,0.0,1.0,0.0,100.0,1.0,1.1856,26.0,0.0,0.0,0.0,59.99999,0.0,26.0,26.0,26.0,26.0,-0.063375,0.33730000000000016,0.07563333333333334,294.525,-4.3537,-4.132625,-2.1198,-2.1500000000000004,-275.63,216.125,190.987875,0.0,0.0,0.0,0.0,0.0016333333333333332,-5.498166666666667,-5.498166666666667,-0.645,1.185,-0.014000000000000234,-0.1629999999999998,65.286,-0.057699999999999974,-0.31305,0.6020000000000003,100.0,1.0,1.0,200.94666666666666,0.0,0.0,0.0,0.0,0.0,0.0,0.0,8517.4,0.0,55.0,5.0,235.02666666666667,0.0,0.0,0.0,0.0,0.0,0.0,0.0,0.0,0.0030000000000001137,0.0030000000000001137,0.0,0.0,0.0,55.0,616.79921,10000.0,85.0,85.0,85.0,85.0,395.0,0.0,0.0,0.0,1.0,20.0,50.217,50.217,52.536,52.536,34.0,-66.89,69.405,2.3700000000000045,-8.155000000000001,0.0,1782.964,0.14999999999999858,100.0,27.769,27.502,38.532,38.356,0.0,0.0,100.0,0.0,0.0,0.0,0.0,3680.25,3958.2,3694.1111111111113,3576.0,303.573,302.09575,315.9065,316.015,21.8544,20.5336,21.72088888888889,21.4218,314.99999,314.99999,324.99998,324.99998,99.56391428571429,99.50946666666667,99.56182857142858,99.55291428571428,-0.5807499999999999,0.5350000000000001,0.599,-0.7324999999999999,-0.07000000000000028,-0.086666666666666,0.984,1.0176666666666667,37.59,29.335,36.756,34.885999999999996,59.841,35.6885,58.3995,55.254999999999995,56.403999999999996,34.466499999999996,56.588499999999996,53.004999999999995,54.268,33.6725,56.0695,51.94,0.5203333333333338,0.5283333333333333,-0.6775888888888888,-0.6820888888888889,0.0,204.525,204.43,200.94666666666666,200.94666666666666,0.0,0.0
1,0.0,0.0,0.0,1.0,1.0,0.0,0.0,1.0,0.0,100.0,1.0,1.1856,26.0,0.0,0.0,0.0,59.999996,0.0,26.0,26.0,26.0,26.0,-0.15175,0.3087,0.1359,293.716,-4.3101,-4.427375,-2.1508000000000003,-1.966,-272.29,216.13,190.967875,0.0,0.0,0.0,0.0,0.0035666666666666668,-5.498166666666667,-5.498166666666667,-0.5182,0.392,-0.04112500000000008,-1.2479999999999998,65.428,-0.0512999999999999,-0.22512500000000002,0.8820000000000006,100.0,1.0,1.0,201.54000000000002,0.0,0.0,0.0,0.0,0.0,0.0,0.0,8542.5,0.0,55.0,5.0,235.51,1.0,0.0,0.0,0.0,0.0,0.0,0.0,0.0,0.053999999999998494,0.053999999999998494,0.0,0.0,1.0,55.0,616.79921,10000.0,85.000001,85.000001,85.000001,85.000001,395.0,0.0,0.0,0.0,1.0,166.665,53.696,53.696,49.545,49.545,34.0,-48.4475,40.266666666666666,3.2025000000000006,-15.024999999999999,0.0,1782.914,0.5249999999999986,100.0,28.278,27.717,40.613,40.03,0.0,0.0,100.0,0.0,0.0,0.0,0.0,2798.25,2501.1,4573.777777777777,4983.700000000001,306.296,306.86075,313.64175,312.437,21.865,20.5391,21.731333333333332,21.4317,314.999998,314.999998,324.999988,324.999988,99.56398571428572,99.50953333333334,99.562,99.5531,-0.5979999999999999,0.48975000000000013,0.6116666666666667,-0.7341666666666666,-0.06333333333333258,-0.03499999999999659,1.3425,1.3546666666666667,37.657,29.369500000000002,36.821,34.948499999999996,59.857,35.754999999999995,58.4585,55.331,56.418,34.5255,56.6435,53.077,54.2785,33.7265,56.1205,52.0095,0.5640000000000001,0.48766666666666625,-0.6761444444444444,-0.6757333333333333,0.0,205.0,204.91,201.54000000000002,201.54000000000002,0.0,0.0
2,0.0,0.0,0.0,1.0,1.0,0.0,0.0,1.0,0.0,100.0,1.0,1.1856,26.0,0.0,0.0,0.0,59.999996,0.0,26.0,26.0,26.0,26.0,-0.1375,0.2742,-0.0146,294.708,-4.2399000000000004,-4.44875,-2.1054000000000004,-2.267875,-268.95,216.13,190.949375,0.0,0.0,0.0,0.0,0.0055000000000000005,-5.498166666666667,-5.498166666666667,-0.5928,-0.7795,-0.06125000000000025,2.192,65.565,-0.06929999999999992,-0.29862500000000003,2.194,100.0,1.0,1.0,202.56666666666666,0.0,0.0,0.0,0.0,0.0,0.0,0.0,8586.1,0.0,55.0,5.0,236.00666666666666,0.0,0.0,0.0,0.0,0.0,0.0,0.0,0.0,0.10500000000000043,0.10500000000000043,0.0,0.0,0.0,55.0,616.79921,10000.0,85.000001,85.000001,85.000001,85.000001,395.0,0.0,0.0,0.0,1.0,333.33500000000004,52.17,52.17,52.260999999999996,52.260999999999996,34.0,-62.71,48.25666666666667,0.2850000000000037,-7.612500000000001,0.0,1782.861,0.6000000000000014,100.0,28.429000000000002,27.108,40.85,39.709,0.0,0.0,100.0,0.0,0.0,0.0,0.0,3484.625,2915.8,3668.222222222222,3454.2,304.289,305.6495,315.79,316.384,21.8757,20.5442,21.741555555555557,21.4413,314.999998,314.999998,324.999988,324.999988,99.56405714285714,99.50958333333334,99.56215714285715,99.55325714285715,-0.6167499999999999,0.49775000000000014,0.5536666666666666,-0.7793333333333332,-0.10499999999999687,-0.07000000000000028,1.616,1.712,37.723,29.401,36.885,35.007999999999996,59.873000000000005,35.811,58.5135,55.3955,56.432,34.575,56.694,53.1385,54.289500000000004,33.7715,56.167500000000004,52.0685,0.5783333333333336,0.4833333333333334,-0.6843888888888889,-0.6722666666666666,0.0,205.41,205.215,202.56666666666666,202.56666666666666,0.0,0.0
3,0.0,0.0,0.0,1.0,1.0,0.0,0.0,1.0,0.0,100.0,1.0,1.1856,26.0,0.0,0.0,0.0,59.999996,0.0,26.0,26.0,26.0,26.0,-0.1305,0.30889999999999995,0.06593333333333334,294.174,-4.293,-4.334,-2.1282,-2.18325,-265.8,216.1275,190.930625,0.0,0.0,0.0,0.0,0.007333333333333333,-5.498166666666667,-5.498166666666667,-0.5518000000000001,0.808,-0.002000000000000224,0.2010000000000005,65.70400000000001,-0.10649999999999993,-0.24365,1.3239999999999998,100.0,1.0,1.0,202.65333333333334,0.0,0.0,0.0,0.0,0.0,0.0,0.0,8589.7,0.0,55.0,5.0,236.50333333333333,1.0,0.0,0.0,0.0,0.0,0.0,0.0,0.0,0.1529999999999987,0.1529999999999987,0.0,0.0,1.0,55.0,616.79921,10000.0,85.000001,85.000001,85.000001,85.000001,395.0,0.0,0.0,0.0,1.0,166.665,52.917,52.917,50.034,50.034,34.0,-51.917500000000004,49.11666666666667,-0.18999999999999773,-12.067500000000003,0.0,1782.815,0.28000000000000114,100.0,28.272,27.365000000000002,40.482,39.608000000000004,0.0,0.0,100.0,0.0,0.0,0.0,0.0,2964.375,2974.9,4270.0,4230.1,305.8505,305.35,314.38275,314.428,21.8857,20.5494,21.751,21.4503,314.999998,314.999998,324.999988,324.999988,99.56412857142857,99.50965,99.56231428571428,99.55344285714285,-0.6134999999999999,0.48724999999999996,0.5501666666666667,-0.7946666666666666,-0.04999999999999716,-0.0933333333333266,1.462,1.5213333333333334,37.785,29.433999999999997,36.944,35.064499999999995,59.887,35.873,58.559,55.4645,56.444,34.629999999999995,56.736,53.2035,54.299,33.8215,56.206,52.131,0.544,0.5186666666666664,-0.6763888888888889,-0.6722444444444444,0.0,205.85500000000002,205.755,202.65333333333334,202.65333333333334,0.0,0.0
4,0.0,0.0,0.0,1.0,1.0,0.0,0.0,1.0,0.0,100.0,1.0,1.1856,26.0,0.0,0.0,0.0,59.999996,0.0,26.0,26.0,26.0,26.0,-0.1285,0.2853000000000001,-0.03163333333333333,294.403,-4.3143,-4.4305,-2.1446,-2.206625,-262.45,216.1225,190.911125,0.0,0.0,0.0,0.0,0.009300000000000001,-5.498166666666667,-5.498166666666667,-0.5712,-0.8735,-0.07525000000000004,-2.0839999999999996,65.84700000000001,-0.10539999999999994,-0.27315,1.2520000000000007,100.0,1.0,1.0,203.13666666666666,0.0,0.0,0.0,0.0,0.0,0.0,0.0,8610.2,0.0,55.0,5.0,237.0233333333333,0.0,0.0,0.0,0.0,0.0,0.0,0.0,0.0,0.20400000000000063,0.20400000000000063,0.0,0.0,0.0,55.0,616.79921,10000.0,85.000001,85.000001,85.000001,85.000001,395.0,0.0,0.0,0.0,1.0,333.33500000000004,53.04,53.04,50.217,50.217,34.0,-57.6175,46.626666666666665,0.13750000000000284,-9.895000000000003,0.0,1782.762,0.7449999999999974,100.0,27.907,27.056,41.018,39.951,0.0,0.0,100.0,0.0,0.0,0.0,0.0,3206.875,2848.3,4221.222222222223,3733.2,305.248,305.617,314.48175,315.53375,21.896,20.5548,21.761444444444443,21.4601,314.999998,314.999998,324.999988,324.999988,99.5642,99.50968333333333,99.56247142857143,99.55361428571429,-0.6635,0.44900000000000007,0.56,-0.7898333333333332,-0.06333333333333258,-0.05833333333333002,1.502,1.5466666666666666,37.849999999999994,29.4675,37.009,35.1255,59.899,35.932,58.615,55.5375,56.454,34.6825,56.788,53.2725,54.307,33.8695,56.2545,52.1975,0.5870000000000002,0.47966666666666624,-0.6766888888888889,-0.6842222222222222,0.0,206.25,206.11,203.13666666666666,203.13666666666666,0.0,0.0
5,0.0,0.0,0.0,1.0,1.0,0.0,0.0,1.0,0.0,100.0,1.0,1.1856,26.0,0.0,0.0,0.0,59.999996,0.0,26.0,26.0,26.0,26.0,-0.1855,0.3054000000000001,-0.049266666666666674,294.632,-4.3086,-4.4254999999999995,-2.1118,-2.251875,-259.09,216.1125,190.891,0.0,0.0,0.0,0.0,0.011233333333333333,-5.498166666666667,-5.498166666666667,-0.5734,0.47550000000000003,-0.09250000000000025,0.8819999999999997,65.988,-0.11819999999999997,-0.2586,1.7960000000000003,100.0,1.0,1.0,203.62666666666667,0.0,0.0,0.0,0.0,0.0,0.0,0.0,8631.1,0.0,55.0,5.0,237.52666666666667,1.0,0.0,0.0,0.0,0.0,0.0,0.0,0.0,0.254999999999999,0.254999999999999,0.0,0.0,1.0,55.0,616.79921,10000.0,85.000001,85.000001,85.000001,85.000001,395.0,0.0,0.0,0.0,1.0,166.665,53.268,53.268,50.964,50.964,34.0,-56.35,46.01833333333333,-0.9699999999999989,-10.892499999999998,0.0,1782.713,0.39000000000000057,100.0,28.136,26.686,40.897999999999996,39.306,0.0,0.0,100.0,0.0,0.0,0.0,0.0,3147.875,2816.1,4099.777777777777,3980.4,305.2085,305.91325,314.8365,315.0655,21.9067,20.5601,21.771555555555555,21.4696,314.999998,314.999998,324.999988,324.999988,99.56427142857143,99.50975,99.56264285714286,99.5538,-0.6285000000000001,0.4764999999999999,0.5321666666666667,-0.8093333333333332,-0.05333333333332746,-0.07666666666666799,1.52,1.5946666666666667,37.917,29.500999999999998,37.072,35.185,59.92,35.991,58.666,55.6035,56.472,34.7345,56.835499999999996,53.335,54.321,33.917,56.298,52.2575,0.5563333333333333,0.5043333333333333,-0.6785666666666667,-0.6817,0.0,206.72,206.57999999999998,203.62666666666667,203.62666666666667,0.0,0.0
6,0.0,0.0,0.0,1.0,1.0,0.0,0.0,1.0,0.0,100.0,1.0,1.1856,26.0,0.0,0.0,0.0,59.999996,0.0,26.0,26.0,26.0,26.0,-0.185875,0.2896000000000001,0.0015,294.418,-4.2678,-4.4708749999999995,-2.1479,-2.20625,-255.91,216.1,190.87175,0.0,0.0,0.0,0.0,0.0131,-5.498166666666667,-5.498166666666667,-0.5611,0.17550000000000002,-0.08162499999999984,0.7930000000000001,66.122,-0.13179999999999992,-0.24750000000000003,1.4660000000000002,100.0,1.0,1.0,203.97,0.0,0.0,0.0,0.0,0.0,0.0,0.0,8645.5,0.0,55.0,5.0,238.01333333333332,0.0,0.0,0.0,0.0,0.0,0.0,0.0,0.0,0.3030000000000008,0.3030000000000008,0.0,0.0,0.0,55.0,616.79921,10000.0,85.000001,85.000001,85.000001,85.000001,395.0,0.0,0.0,0.0,1.0,333.33500000000004,53.238,53.238,50.43,50.43,34.0,-56.0175,48.31166666666667,-2.1400000000000006,-11.844999999999999,0.0,1782.664,-0.21000000000000085,100.0,27.956,26.571,41.068,39.497,0.0,0.0,100.0,0.0,0.0,0.0,0.0,3143.75,2915.7,4157.222222222223,4044.1000000000004,305.216,305.57,314.6625,314.9065,21.9167,20.5652,21.781222222222222,21.4788,314.999998,314.999998,324.999988,324.999988,99.56434285714286,99.5098,99.56278571428571,99.55397142857143,-0.621,0.4837500000000001,0.5221666666666667,-0.8101666666666667,-0.061666666666667425,-0.07000000000000028,1.476,1.5433333333333334,37.979,29.5325,37.132999999999996,35.2425,59.936,36.0475,58.7145,55.6735,56.486000000000004,34.7845,56.879999999999995,53.400999999999996,54.332499999999996,33.9625,56.3395,52.321,0.5220000000000002,0.5426666666666664,-0.6751888888888888,-0.6721888888888888,0.0,207.125,206.99,203.97,203.97,0.0,0.0
7,0.0,0.0,0.0,1.0,1.0,0.0,0.0,1.0,0.0,100.0,1.0,1.1856,26.0,0.0,0.0,0.0,59.999996,0.0,26.0,26.0,26.0,26.0,-0.145,0.27470000000000017,0.03246666666666667,294.327,-4.2319,-4.4719999999999995,-2.1014,-2.25475,-252.34,216.08249999999998,190.85025,0.0,0.0,0.0,0.0,0.015166666666666667,-5.498166666666667,-5.498166666666667,-0.5668000000000001,0.0195,-0.07687500000000025,0.9750000000000005,66.271,-0.12939999999999996,-0.26165,1.1440000000000001,100.0,1.0,1.0,204.43333333333334,0.0,0.0,0.0,0.0,0.0,0.0,0.0,8665.1,0.0,55.0,5.0,238.55,1.0,0.0,0.0,0.0,0.0,0.0,0.0,0.0,0.3569999999999993,0.3569999999999993,0.0,0.0,1.0,55.0,616.79921,10000.0,85.000001,85.000001,85.000001,85.000001,395.0,0.0,0.0,0.0,1.0,166.665,52.963,52.963,50.72,50.72,34.0,-56.75,49.58333333333333,-0.6000000000000014,-10.512500000000003,0.0,1782.611,-0.5499999999999972,100.0,28.106,26.587,41.168,39.689,0.0,0.0,100.0,0.0,0.0,0.0,0.0,3201.25,2947.8,4043.0,3992.6000000000004,304.964,305.4235,314.8985,314.97475,21.9279,20.5709,21.79211111111111,21.4891,314.999998,314.999998,324.999988,324.999988,99.56442857142856,99.50985,99.56295714285714,99.55417142857142,-0.58775,0.51275,0.5356666666666666,-0.7989999999999999,-0.07833333333332604,-0.0899999999999963,1.4765000000000001,1.549,38.05,29.567999999999998,37.201,35.307,59.954,36.1125,58.7695,55.751,56.501999999999995,34.842,56.9315,53.474000000000004,54.345,34.015,56.387,52.3915,0.4913333333333334,0.5756666666666663,-0.6791555555555555,-0.6764,0.0,207.585,207.47,204.43333333333334,204.43333333333334,0.0,0.0
8,0.0,0.0,0.0,1.0,1.0,0.0,0.0,1.0,0.0,100.0,1.0,1.1856,26.0,0.0,0.0,0.0,59.999996,0.0,26.0,26.0,26.0,26.0,-0.11475,0.2892000000000001,0.0239,294.495,-4.3129,-4.4208750000000006,-2.0823,-2.2475,-249.16,216.0625,190.831,0.0,0.0,0.0,0.0,0.017033333333333334,-5.498166666666667,-5.498166666666667,-0.5670000000000001,-0.502,-0.06362500000000004,0.8230000000000004,66.404,-0.11629999999999996,-0.25085,0.4660000000000002,100.0,1.0,1.0,204.76999999999998,0.0,0.0,0.0,0.0,0.0,0.0,0.0,8679.5,0.0,55.0,5.0,239.02666666666667,0.0,0.0,0.0,0.0,0.0,0.0,0.0,0.0,0.40500000000000114,0.40500000000000114,0.0,0.0,0.0,55.0,616.79921,10000.0,85.000001,85.000001,85.000001,85.000001,395.0,0.0,0.0,0.0,1.0,333.33500000000004,53.726,53.726,50.034,50.034,34.0,-51.8475,49.22333333333333,0.917500000000004,-10.100000000000001,0.0,1782.563,-0.8399999999999963,100.0,27.669,26.469,41.211,39.731,0.0,0.0,100.0,0.0,0.0,0.0,0.0,2988.75,2936.2,4141.555555555556,4119.3,305.7495,305.56725,314.61725,314.6475,21.9377,20.5759,21.80177777777778,21.4983,314.999998,314.999998,324.999988,324.999988,99.5645,99.5099,99.56311428571429,99.55434285714286,-0.569,0.5295000000000001,0.5585,-0.7789999999999999,-0.07499999999999574,-0.08166666666667055,1.476,1.4929999999999999,38.111000000000004,29.5995,37.260999999999996,35.364,59.964,36.1715,58.819,55.8185,56.510999999999996,34.894,56.977000000000004,53.538,54.3515,34.062,56.429,52.4525,0.46799999999999997,0.5993333333333335,-0.6754555555555555,-0.6764111111111111,0.0,207.96,207.89499999999998,204.76999999999998,204.76999999999998,0.0,0.0
9,0.0,0.0,0.0,1.0,1.0,0.0,0.0,1.0,0.0,100.0,1.0,1.1856,26.0,0.0,0.0,0.0,59.999996,0.0,26.0,26.0,26.0,26.0,-0.107625,0.27690000000000015,0.02856666666666667,294.266,-4.3001000000000005,-4.423375,-2.1395999999999997,-2.2055,-245.97,216.04000000000002,190.81125,0.0,0.0,0.0,0.0,0.018866666666666667,-5.498166666666667,-5.498166666666667,-0.5729000000000001,0.5640000000000001,-0.06499999999999995,0.694,66.53399999999999,-0.0885999999999999,-0.25195,0.30799999999999983,100.0,1.0,1.0,205.29333333333335,0.0,0.0,0.0,0.0,0.0,0.0,0.0,8701.7,0.0,55.0,5.0,239.49333333333334,1.0,0.0,0.0,0.0,0.0,0.0,0.0,0.0,0.4529999999999994,0.4529999999999994,0.0,0.0,1.0,55.0,616.79921,10000.0,85.000001,85.000001,85.000001,85.000001,395.0,0.0,0.0,0.0,1.0,333.33500000000004,52.643,52.643,51.01,51.01,34.0,-58.6475,51.63666666666667,1.3524999999999991,-8.344999999999999,0.0,1782.515,-0.9299999999999997,100.0,28.033,26.806,40.884,39.699,0.0,0.0,100.0,0.0,0.0,0.0,0.0,3332.0,3026.1,3989.222222222222,4044.4,304.687,305.22275,315.11025,314.9115,21.9477,20.5812,21.811333333333334,21.5074,314.999998,314.999998,324.999988,324.999988,99.56457142857143,99.50996666666667,99.56325714285714,99.55451428571429,-0.55125,0.556,0.583,-0.7389999999999999,-0.05833333333333002,-0.07166666666666544,1.5105,1.5366666666666666,38.173,29.6325,37.321,35.421,59.977999999999994,36.2345,58.8665,55.882999999999996,56.522999999999996,34.9495,57.021,53.599000000000004,54.3605,34.113,56.4695,52.510999999999996,0.45666666666666655,0.6036666666666664,-0.6745222222222222,-0.6730555555555555,0.0,208.345,208.315,205.29333333333335,205.29333333333335,0.0,0.0
10,0.0,0.0,0.0,1.0,1.0,0.0,0.0,1.0,0.0,100.0,1.0,1.1856,26.0,0.0,0.0,0.0,59.999996,0.0,26.0,26.0,26.0,26.0,-0.047125,0.28469999999999995,0.0027333333333333333,294.128,-4.2716,-4.40925,-2.1104000000000003,-2.189,-242.57,216.0125,190.790625,0.0,0.0,0.0,0.0,0.020833333333333336,-5.498166666666667,-5.498166666666667,-0.5505,-0.378,-0.03299999999999992,0.4590000000000005,66.675,-0.0645,-0.24330000000000002,0.10400000000000009,100.0,1.0,1.0,205.53333333333333,0.0,0.0,0.0,0.0,0.0,0.0,0.0,8711.8,0.0,55.0,5.0,240.00333333333333,0.0,0.0,0.0,0.0,0.0,0.0,1.0,0.0,0.5040000000000013,0.5040000000000013,0.0,0.0,0.0,55.0,616.79921,10000.0,85.000001,85.000001,85.000001,85.000001,395.0,0.0,0.0,0.0,1.0,333.33500000000004,53.635,53.635,49.667,49.667,34.0,-50.7,47.49666666666667,2.7850000000000037,-8.82,0.0,1782.463,-1.1700000000000017,100.0,27.768,26.919,41.149,40.428,0.0,0.0,100.0,0.0,0.0,0.0,0.0,2991.875,2783.3,4339.444444444444,4206.5,305.8095,305.8405,314.23525,314.38775,21.958199999999998,20.5867,21.82177777777778,21.5173,314.999998,314.999998,324.999988,324.999988,99.56462857142857,99.51003333333334,99.56344285714286,99.5547,-0.51875,0.57525,0.5976666666666667,-0.7324999999999999,-0.06666666666666998,-0.0833333333333286,1.4289999999999998,1.4483333333333333,38.239000000000004,29.6665,37.385999999999996,35.483000000000004,59.988,36.301,58.9235,55.956,56.531,35.0085,57.073499999999996,53.668,54.367,34.1665,56.5185,52.5775,0.43500000000000005,0.6253333333333333,-0.6699666666666666,-0.6661111111111111,0.0,208.79500000000002,208.75,205.53333333333333,205.53333333333333,0.0,0.0
11,0.0,0.0,0.0,1.0,1.0,0.0,0.0,1.0,0.0,100.0,1.0,1.1856,26.0,0.0,0.0,0.0,59.999996,0.0,26.0,26.0,26.0,26.0,-0.026125,0.27090000000000014,-0.06603333333333335,294.662,-4.3299,-4.378,-2.1779,-2.1654999999999998,-239.16,215.985,190.77,0.0,0.0,0.0,0.0,0.022600000000000002,-5.498166666666667,-5.498166666666667,-0.5908,-0.2445,0.0068749999999999645,0.6290000000000004,66.81,-0.03489999999999993,-0.27105,-0.5,100.0,1.0,1.0,206.22333333333333,0.0,0.0,0.0,0.0,0.0,0.0,0.0,8741.1,0.0,55.0,5.0,240.49,1.0,0.0,0.0,0.0,0.0,0.0,1.0,0.0,0.5549999999999997,0.5549999999999997,0.0,0.0,1.0,55.0,616.79921,10000.0,85.000001,85.000001,85.000001,85.000001,395.0,0.0,0.0,0.0,1.0,333.33500000000004,53.085,53.085,51.147,51.147,34.0,-51.620000000000005,54.04833333333333,3.6075000000000017,-5.6875,0.0,1782.412,-1.1300000000000026,100.0,27.592,27.036,40.715,40.353,0.0,0.0,100.0,0.0,0.0,0.0,0.0,3029.0,3112.0,3710.6666666666665,3882.8,305.603,304.9775,315.809,315.275,21.9685,20.5923,21.831777777777777,21.5271,314.999998,314.999998,324.999988,324.999988,99.56468571428572,99.5101,99.5636,99.55487142857143,-0.504,0.6040000000000001,0.6456666666666666,-0.6815,-0.04333333333332945,-0.08833333333333115,1.6019999999999999,1.57,38.303,29.701999999999998,37.449,35.5445,59.992999999999995,36.3715,58.974000000000004,56.022999999999996,56.536,35.071,57.1205,53.7315,54.369,34.224000000000004,56.5615,52.6385,0.44233333333333347,0.6243333333333334,-0.6776111111111112,-0.6740555555555556,0.0,209.16,209.185,206.22333333333333,206.22333333333333,0.0,0.0
12,0.0,0.0,0.0,1.0,1.0,0.0,0.0,1.0,0.0,100.0,1.0,1.1856,26.0,0.0,0.0,0.0,59.999996,0.0,26.0,26.0,26.0,26.0,-0.0015,0.27170000000000005,0.015300000000000001,294.128,-4.386,-4.3695,-2.1418,-2.185125,-235.95,215.95749999999998,190.749375,0.0,0.0,0.0,0.0,0.025466666666666665,-5.498166666666667,-5.498166666666667,-0.5773,0.3065,-0.0045000000000001705,0.7060000000000004,66.943,-0.0033999999999999586,-0.24185,-0.484,100.0,1.0,1.0,206.43333333333334,0.0,0.0,0.0,0.0,0.0,0.0,0.0,8749.9,0.0,55.0,5.0,240.96333333333334,0.0,0.0,0.0,0.0,0.0,0.0,1.0,0.0,0.602999999999998,0.602999999999998,0.0,0.0,0.0,55.0,616.79921,10000.0,85.000001,85.000001,85.000001,85.000001,395.0,0.0,0.0,0.0,1.0,333.33500000000004,53.07,53.07,50.003,50.003,34.0,-52.4975,54.54,6.217500000000001,-4.642500000000002,0.0,1782.364,-1.134999999999998,100.0,27.447,27.166,40.573,40.268,0.0,0.0,100.0,0.0,0.0,0.0,0.0,3077.5,3130.9,4170.777777777777,4194.1,305.472,304.93775,314.645,314.55325,21.9782,20.5977,21.841333333333335,21.5363,314.999998,314.999998,324.999988,324.999988,99.56475714285715,99.51016666666666,99.56377142857143,99.55502857142856,-0.48950000000000005,0.6154999999999999,0.6735,-0.655,-0.046666666666666856,-0.07166666666666544,1.4954999999999998,1.471,38.364000000000004,29.735500000000002,37.509,35.602000000000004,59.998999999999995,36.44,59.0265,56.0845,56.541,35.1315,57.169,53.79,54.3715,34.278999999999996,56.606,52.695,0.4483333333333337,0.613,-0.6739333333333333,-0.6693555555555555,0.0,209.59,209.61,206.43333333333334,206.43333333333334,0.0,0.0
13,0.0,0.0,0.0,1.0,1.0,0.0,0.0,1.0,0.0,100.0,1.0,1.1856,26.0,0.0,0.0,0.0,59.999996,0.0,26.0,26.0,26.0,26.0,0.01625,0.2781,0.03336666666666667,293.747,-4.372,-4.353625,-2.1832000000000003,-2.168375,-232.54,215.93,190.72775,0.0,0.0,0.0,0.0,0.02666666666666667,-5.498166666666667,-5.498166666666667,-0.5702,-0.094,-0.0003750000000000142,-0.5760000000000001,67.081,0.014100000000000001,-0.25005,-0.3019999999999996,100.0,1.0,1.0,206.78333333333333,0.0,0.0,0.0,0.0,0.0,0.0,0.0,8764.8,0.0,55.0,5.0,241.46333333333334,1.0,0.0,0.0,0.0,0.0,0.0,1.0,0.0,0.6539999999999999,0.6539999999999999,0.0,0.0,1.0,55.0,616.79921,10000.0,85.000001,85.000001,85.000001,85.000001,395.0,0.0,0.0,0.0,1.0,333.33500000000004,52.75,52.75,49.866,49.866,34.0,-54.18,53.03,6.052500000000002,-5.392500000000002,0.0,1782.313,-0.9500000000000028,100.0,27.609,27.569,40.716,40.903,0.0,0.0,100.0,0.0,0.0,0.0,0.0,3189.75,3026.2,4218.333333333333,4246.7,305.2965,305.06725,314.577,314.317,21.988599999999998,20.6035,21.851666666666667,21.5463,314.999998,314.999998,324.999988,324.999988,99.56481428571429,99.51023333333333,99.56394285714286,99.55521428571429,-0.48425000000000007,0.6194999999999999,0.6795,-0.6621666666666668,-0.0833333333333286,-0.0799999999999983,1.4675,1.451,38.429,29.7715,37.573,35.664,60.004999999999995,36.5145,59.085,56.1535,56.545,35.1975,57.223,53.855000000000004,54.374,34.3395,56.656,52.757999999999996,0.4620000000000002,0.6019999999999999,-0.6794555555555555,-0.6807,0.0,210.03,210.025,206.78333333333333,206.78333333333333,0.0,0.0
14,0.0,0.0,0.0,1.0,1.0,0.0,0.0,1.0,0.0,100.0,1.0,1.1856,26.0,0.0,0.0,0.0,59.999996,0.0,26.0,26.0,26.0,26.0,0.021875000000000002,0.2791000000000001,-0.015233333333333335,293.961,-4.3575,-4.306875,-2.1818999999999997,-2.1492500000000003,-229.11,215.9025,190.7065,0.0,0.0,0.0,0.0,0.02866666666666667,-5.498166666666667,-5.498166666666667,-0.5820000000000001,-0.1465,0.021874999999999867,1.3760000000000003,67.21600000000001,0.021500000000000075,-0.26495,-0.4239999999999995,100.0,1.0,1.0,207.28333333333333,0.0,0.0,0.0,0.0,0.0,0.0,0.0,8786.0,0.0,55.0,5.0,241.95,0.0,0.0,0.0,0.0,0.0,0.0,1.0,0.0,0.7049999999999983,0.7049999999999983,0.0,0.0,0.0,55.0,616.79921,10000.0,85.000001,85.000001,85.000001,85.000001,395.0,0.0,0.0,0.0,1.0,333.33500000000004,52.765,52.765,50.11,50.11,34.0,-50.115,56.04333333333334,6.555,-4.66,0.0,1782.261,-1.0649999999999977,100.0,27.771,27.488,40.78,40.95,0.0,0.0,100.0,0.0,0.0,0.0,0.0,2991.875,3188.3,3983.5555555555557,4161.0,305.685,304.76925,315.071,314.628,21.999,20.6093,21.86188888888889,21.5562,314.999998,314.999998,324.999988,324.999988,99.56487142857142,99.51031666666667,99.56412857142857,99.5554,-0.45425000000000004,0.6445000000000001,0.6975,-0.6468333333333331,-0.061666666666667425,-0.0833333333333286,1.512,1.4923333333333333,38.492999999999995,29.808,37.637,35.726,60.009,36.594,59.144999999999996,56.224000000000004,56.549,35.268,57.2785,53.922,54.375,34.403999999999996,56.707,52.822,0.45066666666666677,0.609,-0.6783222222222223,-0.6838,0.0,210.435,210.425,207.28333333333333,207.28333333333333,0.0,0.0
15,0.0,0.0,0.0,1.0,1.0,0.0,0.0,1.0,0.0,100.0,1.0,1.1856,26.0,0.0,0.0,0.0,59.999996,0.0,26.0,26.0,26.0,26.0,0.061375,0.26750000000000007,-0.030600000000000002,293.93,-4.3718,-4.26025,-2.2110000000000003,-2.091125,-225.68,215.875,190.685,0.0,0.0,0.0,0.0,0.03066666666666667,-5.498166666666667,-5.498166666666667,-0.5728,0.244,0.049250000000000016,-0.5049999999999999,67.351,0.031400000000000095,-0.247675,-0.5659999999999998,100.0,1.0,1.0,207.68666666666667,0.0,0.0,0.0,0.0,0.0,0.0,0.0,8803.1,0.0,55.0,5.0,242.43666666666667,1.0,0.0,0.0,0.0,0.0,0.0,1.0,0.0,0.7560000000000002,0.7560000000000002,0.0,0.0,1.0,55.0,616.79921,10000.0,85.000001,85.000001,85.000001,85.000001,395.0,0.0,0.0,0.0,1.0,166.665,52.948,52.948,50.079,50.079,34.0,-49.415,54.32333333333334,6.052500000000002,-5.219999999999999,0.0,1782.212,-1.0399999999999991,100.0,27.554000000000002,27.755,40.482,41.147,0.0,0.0,100.0,0.0,0.0,0.0,0.0,2970.25,3087.7,4016.3333333333335,4308.8,305.936,304.8825,315.0935,314.20775,22.0093,20.615099999999998,21.87211111111111,21.5661,314.999998,314.999998,324.999988,324.999988,99.56491428571428,99.5104,99.5643,99.55555714285714,-0.4615,0.6435,0.6940000000000001,-0.6373333333333333,-0.07166666666666544,-0.0933333333333266,1.48,1.464,38.558,29.8445,37.701,35.788,60.012,36.6655,59.1965,56.286,56.551,35.3315,57.326,53.9815,54.3755,34.462,56.751,52.8795,0.44366666666666665,0.6126666666666662,-0.6729,-0.6792777777777778,0.0,210.89,210.89,207.68666666666667,207.68666666666667,0.0,0.0
16,0.0,0.0,0.0,1.0,1.0,0.0,0.0,1.0,0.0,100.0,1.0,1.1856,26.0,0.0,0.0,0.0,59.999996,0.0,26.0,26.0,26.0,26.0,0.06,0.2662,-0.025166666666666667,293.961,-4.4359,-4.2631250000000005,-2.1905,-2.0875000000000004,-222.44,215.85,190.664375,0.0,0.0,0.0,0.0,0.03253333333333333,-5.498166666666667,-5.498166666666667,-0.5897,-0.6920000000000001,0.04149999999999987,-1.0059999999999998,67.48,0.04290000000000016,-0.261675,-0.6779999999999999,100.0,1.0,1.0,208.06333333333333,0.0,0.0,0.0,0.0,0.0,0.0,0.0,8819.0,0.0,55.0,5.0,242.9,0.0,0.0,0.0,0.0,0.0,0.0,1.0,0.0,0.8039999999999985,0.8039999999999985,0.0,0.0,0.0,55.0,616.79921,10000.0,85.000001,85.000001,85.000001,85.000001,395.0,0.0,0.0,0.0,1.0,333.33500000000004,52.933,52.933,49.805,49.805,34.0,-51.745000000000005,54.95166666666667,7.3825,-4.227499999999999,0.0,1782.163,-0.7049999999999983,100.0,27.161,27.791,40.734,41.286,0.0,0.0,100.0,0.0,0.0,0.0,0.0,3071.75,3136.2,4004.777777777778,4144.1,305.7455,304.76875,315.10175,314.59725,22.0188,20.6206,21.881777777777778,21.575499999999998,314.999998,314.999998,324.999988,324.999988,99.56497142857143,99.51046666666667,99.56445714285714,99.55572857142857,-0.48150000000000004,0.6212500000000001,0.7158333333333334,-0.6223333333333332,-0.07000000000000028,-0.086666666666666,1.51,1.487,38.617000000000004,29.878999999999998,37.760999999999996,35.8465,60.012,36.737,59.253,56.3475,56.55,35.394999999999996,57.378,54.039500000000004,54.373,34.519999999999996,56.799,52.9355,0.47266666666666657,0.5913333333333335,-0.6745666666666666,-0.6801888888888888,0.0,211.22500000000002,211.25,208.06333333333333,208.06333333333333,0.0,0.0
17,0.0,0.0,0.0,1.0,1.0,0.0,0.0,1.0,0.0,100.0,1.0,1.1856,26.0,0.0,0.0,0.0,59.999996,0.0,26.0,26.0,26.0,26.0,0.0285,0.2714000000000001,-0.028633333333333334,293.73199999999997,-4.3863,-4.259,-2.2205000000000004,-2.1174999999999997,-219.0,215.825,190.642,0.0,0.0,0.0,0.0,0.03453333333333333,-5.498166666666667,-5.498166666666667,-0.5813,0.4675,0.01012499999999994,0.33000000000000007,67.613,0.04859999999999998,-0.244675,-0.33000000000000007,100.0,1.0,1.0,208.4766666666667,0.0,0.0,0.0,0.0,0.0,0.0,0.0,8836.6,0.0,55.0,5.0,243.38,1.0,0.0,0.0,0.0,0.0,0.0,1.0,0.0,0.8550000000000004,0.8550000000000004,0.0,0.0,1.0,55.0,616.79921,10000.0,85.000001,85.000001,85.000001,85.000001,395.0,0.0,0.0,0.0,1.0,333.33500000000004,52.658,52.658,49.881,49.881,34.0,-51.42,54.00666666666667,7.93,-3.4975000000000023,0.0,1782.111,-0.5749999999999957,100.0,27.83,27.86,40.585,41.121,0.0,0.0,100.0,0.0,0.0,0.0,0.0,3051.0,3102.5,4186.666666666667,4219.2,305.5835,305.0495,314.68025,314.52775,22.0291,20.6266,21.89188888888889,21.5853,314.999998,314.999998,324.999988,324.999988,99.56502857142857,99.51056666666666,99.56465714285714,99.5559,-0.4637499999999999,0.63775,0.7263333333333334,-0.6154999999999999,-0.054999999999999716,-0.07166666666666544,1.495,1.4906666666666668,38.682,29.9165,37.825,35.908,60.016999999999996,36.819,59.3125,56.414500000000004,56.554,35.468,57.4335,54.1035,54.3745,34.5865,56.8495,52.997,0.4833333333333334,0.5756666666666663,-0.6826222222222222,-0.6789888888888889,0.0,211.685,211.685,208.4766666666667,208.4766666666667,0.0,0.0
18,0.0,0.0,0.0,1.0,1.0,0.0,0.0,1.0,0.0,100.0,1.0,1.1856,26.0,0.0,0.0,0.0,59.999996,0.0,26.0,26.0,26.0,26.0,0.041375,0.26360000000000006,-0.010633333333333333,293.594,-4.4122,-4.238625,-2.2278000000000002,-2.0725,-215.55,215.8025,190.61975,0.0,0.0,0.0,0.0,0.03656666666666667,-5.498166666666667,-5.498166666666667,-0.5930000000000001,-0.531,0.02587499999999987,-0.2879999999999998,67.748,0.03310000000000013,-0.26065,-0.07000000000000028,100.0,1.0,1.0,208.87333333333333,0.0,0.0,0.0,0.0,0.0,0.0,0.0,8853.3,0.0,55.0,5.0,243.86666666666667,0.0,0.0,0.0,0.0,0.0,0.0,1.0,0.0,0.9059999999999988,0.9059999999999988,0.0,0.0,0.0,55.0,616.79921,10000.0,85.000001,85.000001,85.000001,85.000001,395.0,0.0,0.0,0.0,1.0,166.665,52.475,52.475,49.698,49.698,34.0,-53.917500000000004,56.39666666666667,5.947499999999998,-5.535,0.0,1782.062,-0.8599999999999994,100.0,27.528,27.822,40.862,41.449,0.0,0.0,100.0,0.0,0.0,0.0,0.0,3194.125,3210.6,4113.0,4158.5,305.3775,304.5995,314.88625,314.5965,22.0393,20.6325,21.90222222222222,21.5953,314.999998,314.999998,324.999988,324.999988,99.56508571428571,99.51063333333333,99.56482857142858,99.55607142857143,-0.4704999999999999,0.63425,0.6933333333333334,-0.643,-0.07333333333333059,-0.07333333333333059,1.4929999999999999,1.488,38.745000000000005,29.953,37.888999999999996,35.971000000000004,60.019,36.8895,59.3685,56.477000000000004,56.556,35.5305,57.4855,54.1635,54.3745,34.644,56.8975,53.055,0.4626666666666668,0.5960000000000001,-0.678611111111111,-0.6757444444444445,0.0,212.085,212.055,208.87333333333333,208.87333333333333,0.0,0.0
19,0.0,0.0,0.0,1.0,1.0,0.0,0.0,1.0,0.0,100.0,1.0,1.1856,26.0,0.0,0.0,0.0,59.999996,0.0,26.0,26.0,26.0,26.0,0.0305,0.27070000000000016,0.04423333333333333,293.182,-4.3227,-4.236,-2.2372,-2.0622499999999997,-212.29,215.78,190.5985,0.0,0.0,0.0,0.0,0.03843333333333333,-5.498166666666667,-5.498166666666667,-0.5869,0.8255,0.02675000000000005,-0.6680000000000001,67.873,0.029000000000000137,-0.2514,-0.20199999999999996,100.0,1.0,1.0,209.26333333333332,0.0,0.0,0.0,0.0,0.0,0.0,0.0,8869.9,0.0,55.0,5.0,244.31333333333333,1.0,0.0,0.0,0.0,0.0,0.0,1.0,0.0,0.9540000000000006,0.9540000000000006,0.0,0.0,1.0,55.0,616.79921,10000.0,85.000001,85.000001,85.000001,85.000001,395.0,0.0,0.0,0.0,1.0,166.665,51.788,51.788,49.667,49.667,34.0,-54.7425,56.971666666666664,6.030000000000001,-5.890000000000001,0.0,1782.014,-0.8100000000000023,100.0,28.123,28.275,40.661,41.377,0.0,0.0,100.0,0.0,0.0,0.0,0.0,3232.25,3234.4,4225.888888888889,4289.5,305.081,304.423,314.6795,314.35875,22.049,20.6382,21.91177777777778,21.6047,314.999998,314.999998,324.999988,324.999988,99.56514285714286,99.5107,99.565,99.55624285714286,-0.46599999999999997,0.6227500000000001,0.6940000000000001,-0.6431666666666667,-0.07333333333333059,-0.07166666666666544,1.4975,1.487,38.806,29.988999999999997,37.949,36.028999999999996,60.025,36.964,59.42,56.538,56.56,35.5965,57.5325,54.2215,54.3765,34.704499999999996,56.941,53.111000000000004,0.46066666666666656,0.5836666666666663,-0.6823666666666666,-0.6794888888888888,0.0,212.485,212.485,209.26333333333332,209.26333333333332,0.0,0.0
20,0.0,0.0,0.0,1.0,1.0,0.0,0.0,1.0,0.0,100.0,1.0,1.1856,26.0,0.0,0.0,0.0,59.999996,0.0,26.0,26.0,26.0,26.0,0.032875,0.27270000000000016,0.049,293.365,-4.4135,-4.306875,-2.1586,-2.1835,-208.82999999999998,215.76,190.576125,0.0,0.0,0.0,0.0,0.04046666666666667,-5.498166666666667,-5.498166666666667,-0.5838,-1.0125,0.02762500000000001,0.6509999999999998,68.008,0.02520000000000011,-0.2581,-0.38399999999999945,100.0,1.0,1.0,209.5366666666667,0.0,0.0,0.0,0.0,0.0,0.0,0.0,8881.4,0.0,55.0,5.0,244.80333333333334,0.0,0.0,0.0,0.0,0.0,0.0,0.0,0.0,1.004999999999999,1.004999999999999,0.0,0.0,0.0,55.0,616.79921,10000.0,85.000001,85.000001,85.000001,85.000001,395.0,0.0,0.0,0.0,1.0,333.33500000000004,52.902,52.902,48.843,48.843,34.0,-48.55,54.751666666666665,7.912500000000001,-4.4025,0.0,1781.962,-0.8049999999999997,100.0,27.768,27.824,41.424,41.71,0.0,0.0,100.0,0.0,0.0,0.0,0.0,2901.5,3138.1,4178.777777777777,4359.7,306.0795,304.93575,314.55425,314.02075,22.0591,20.6441,21.92222222222222,21.6148,314.999998,314.999998,324.999988,324.999988,99.5652,99.51078333333334,99.56517142857143,99.55641428571428,-0.4677499999999999,0.6275,0.7075,-0.645,-0.046666666666666856,-0.08833333333333115,1.446,1.421,38.869,30.026,38.013999999999996,36.092,60.025999999999996,37.038,59.4815,56.6075,56.561,35.6625,57.5895,54.287,54.375,34.7645,56.994,53.1745,0.4660000000000002,0.5923333333333334,-0.6738333333333333,-0.6786222222222222,0.0,212.87,212.88,209.5366666666667,209.5366666666667,0.0,0.0
21,0.0,0.0,0.0,1.0,1.0,0.0,0.0,1.0,0.0,100.0,1.0,1.1856,26.0,0.0,0.0,0.0,59.999996,0.0,26.0,26.0,26.0,26.0,0.006500000000000001,0.26290000000000013,-0.0641,293.869,-4.3294,-4.361,-2.2270000000000003,-2.144875,-205.56,215.74,190.55475,0.0,0.0,0.0,0.0,0.04236666666666667,-5.498166666666667,-5.498166666666667,-0.6103000000000001,0.28400000000000003,0.010624999999999885,0.1200000000000001,68.128,0.025500000000000078,-0.2657,-0.28000000000000025,100.0,1.0,1.0,210.17333333333335,0.0,0.0,0.0,0.0,0.0,0.0,0.0,8908.4,0.0,55.0,5.0,245.23333333333335,1.0,0.0,0.0,0.0,0.0,0.0,0.0,0.0,1.0530000000000008,1.0530000000000008,0.0,0.0,1.0,55.0,616.79921,10000.0,85.000001,85.000001,85.000001,85.000001,395.0,0.0,0.0,0.0,1.0,333.33500000000004,52.567,52.567,50.323,50.323,34.0,-51.230000000000004,54.61333333333333,6.0625,-4.142500000000002,0.0,1781.914,-0.7299999999999969,100.0,27.971,27.893,40.885,41.345,0.0,0.0,100.0,0.0,0.0,0.0,0.0,3038.375,3119.5,3930.6666666666665,3989.6000000000004,305.5545,304.92825,315.3495,315.07525,22.0687,20.6498,21.93177777777778,21.624,314.999998,314.999998,324.999988,324.999988,99.56525714285715,99.51085,99.56534285714285,99.55658571428572,-0.46675,0.6225,0.7031666666666666,-0.6408333333333331,-0.06666666666666998,-0.07166666666666544,1.553,1.552,38.929,30.061500000000002,38.073,36.15,60.03,37.1095,59.53,56.665,56.564,35.726,57.635,54.3425,54.3765,34.8225,57.035,53.2275,0.46966666666666645,0.5846666666666662,-0.6778666666666666,-0.6806777777777777,0.0,213.265,213.255,210.17333333333335,210.17333333333335,0.0,0.0
22,0.0,0.0,0.0,1.0,1.0,0.0,0.0,1.0,0.0,100.0,1.0,1.1856,26.0,0.0,0.0,0.0,59.999996,0.0,26.0,26.0,26.0,26.0,0.045375,0.27090000000000014,0.0165,293.32,-4.31,-4.3655,-2.2172,-2.1345,-202.07999999999998,215.72,190.531125,0.0,0.0,0.0,0.0,0.04436666666666667,-5.498166666666667,-5.498166666666667,-0.5900000000000001,0.1565,0.0129999999999999,-0.2650000000000001,68.262,0.019300000000000095,-0.2416,-0.08199999999999985,100.0,1.0,1.0,210.37666666666667,0.0,0.0,0.0,0.0,0.0,0.0,0.0,8917.1,0.0,55.0,5.0,245.71666666666667,0.0,0.0,0.0,0.0,0.0,0.0,0.0,0.0,1.1039999999999992,1.1039999999999992,0.0,0.0,0.0,55.0,616.79921,10000.0,85.000001,85.000001,85.000001,85.000001,395.0,0.0,0.0,0.0,1.0,333.33500000000004,52.504999999999995,52.504999999999995,49.132999999999996,49.132999999999996,34.0,-51.325,53.36333333333333,5.524999999999999,-5.307500000000001,0.0,1781.862,-0.8900000000000006,100.0,27.927,28.125,41.098,41.54,0.0,0.0,100.0,0.0,0.0,0.0,0.0,3056.375,3031.4,4265.666666666667,4266.9,305.638,304.967,314.53675,314.3685,22.0789,20.6558,21.94211111111111,21.6339,314.999998,314.999998,324.999988,324.999988,99.56531428571428,99.51093333333333,99.56552857142857,99.55675714285714,-0.47275,0.6165,0.6771666666666667,-0.6515,-0.07000000000000028,-0.06833333333332803,1.4585,1.4543333333333333,38.992999999999995,30.099,38.138,36.212,60.035,37.185,59.589,56.731,56.568,35.792500000000004,57.689,54.405,54.378,34.8835,57.085499999999996,53.2875,0.45933333333333337,0.5966666666666662,-0.6699777777777778,-0.6772333333333334,0.0,213.71,213.67000000000002,210.37666666666667,210.37666666666667,0.0,0.0
23,0.0,0.0,0.0,1.0,1.0,0.0,0.0,1.0,0.0,100.0,1.0,1.1856,26.0,0.0,0.0,0.0,59.999996,0.0,26.0,26.0,26.0,26.0,0.016375,0.24360000000000004,0.0064333333333333334,293.304,-4.3439,-4.312625,-2.1513,-2.193625,-198.6,215.7,190.50775,0.0,0.0,0.0,0.0,0.046400000000000004,-5.498166666666667,-5.498166666666667,-0.6086,-0.3695,0.01587499999999986,0.3899999999999997,68.392,0.022699999999999942,-0.2682,-0.35799999999999965,100.0,1.0,1.0,210.86666666666667,0.0,0.0,0.0,0.0,0.0,0.0,0.0,8937.9,0.0,55.0,5.0,246.18666666666667,1.0,0.0,0.0,0.0,0.0,0.0,0.0,0.0,1.1550000000000011,1.1550000000000011,0.0,0.0,1.0,55.0,616.79921,10000.0,85.000001,85.000001,85.000001,85.000001,395.0,0.0,0.0,0.0,1.0,333.33500000000004,51.971000000000004,51.971000000000004,49.942,49.942,34.0,-54.417500000000004,56.14,6.634999999999998,-3.5,0.0,1781.811,-0.8149999999999977,100.0,28.176000000000002,28.099,41.351,41.759,0.0,0.0,100.0,0.0,0.0,0.0,0.0,3208.75,3203.5,3879.777777777778,4092.8,305.1705,304.714,315.3235,314.728,22.0891,20.6619,21.952333333333332,21.644,314.999998,314.999998,324.999988,324.999988,99.56537142857142,99.51101666666666,99.56571428571428,99.55694285714286,-0.46825000000000006,0.6245,0.6945,-0.6373333333333333,-0.04333333333332945,-0.07333333333333059,1.4905,1.482,39.057,30.137,38.202,36.2745,60.039,37.266,59.6485,56.802,56.572,35.8645,57.7445,54.4725,54.379,34.9495,57.135999999999996,53.3525,0.4580000000000002,0.5903333333333336,-0.6694777777777778,-0.6740222222222222,0.0,214.05,214.055,210.86666666666667,210.86666666666667,0.0,0.0
24,0.0,0.0,0.0,1.0,1.0,0.0,0.0,1.0,0.0,100.0,1.0,1.1856,26.0,0.0,0.0,0.0,59.999996,0.0,26.0,26.0,26.0,26.0,0.04225,0.26670000000000016,-0.02566666666666667,293.518,-4.3669,-4.32375,-2.1903,-2.139625,-195.11,215.68,190.484,0.0,0.0,0.0,0.0,0.048433333333333335,-5.498166666666667,-5.498166666666667,-0.6132000000000001,-0.366,0.021625000000000005,-0.07499999999999973,68.523,0.026900000000000146,-0.256575,-0.19599999999999973,100.0,1.0,1.0,211.2,0.0,0.0,0.0,0.0,0.0,0.0,0.0,8952.0,0.0,55.0,5.0,246.65666666666667,0.0,0.0,0.0,0.0,0.0,0.0,0.0,0.0,1.2059999999999995,1.2059999999999995,0.0,0.0,0.0,55.0,616.79921,10000.0,85.000001,85.000001,85.000001,85.000001,395.0,0.0,0.0,0.0,1.0,166.665,52.948,52.948,49.21,49.21,34.0,-50.207499999999996,51.41833333333334,5.965000000000003,-4.807500000000001,0.0,1781.763,-0.865000000000002,100.0,27.895,27.971,41.2,41.74,0.0,0.0,100.0,0.0,0.0,0.0,0.0,2999.625,2952.2,4284.555555555556,4133.7,305.8665,305.3625,314.44475,314.6735,22.0993,20.6679,21.962666666666667,21.6539,314.999998,314.999998,324.999988,324.999988,99.56542857142857,99.51108333333333,99.5659,99.55711428571429,-0.4704999999999999,0.6267500000000001,0.6775,-0.6473333333333333,-0.0799999999999983,-0.07000000000000028,1.4735,1.4733333333333334,39.120000000000005,30.174,38.266999999999996,36.3365,60.042,37.335,59.701499999999996,56.8625,56.574,35.926,57.7935,54.53,54.3795,35.0055,57.181,53.408,0.4620000000000002,0.5916666666666663,-0.6691777777777778,-0.6817111111111112,0.0,214.505,214.47,211.2,211.2,0.0,0.0
25,0.0,0.0,0.0,1.0,1.0,0.0,0.0,1.0,0.0,100.0,1.0,1.1856,26.0,0.0,0.0,0.0,59.999996,0.0,26.0,26.0,26.0,26.0,0.05,0.25480000000000014,-0.05246666666666667,293.518,-4.4458,-4.272625,-2.2167000000000003,-2.1355,-191.81,215.66500000000002,190.460375,0.0,0.0,0.0,0.0,0.05036666666666667,-5.498166666666667,-5.498166666666667,-0.64,-0.2145,0.036375000000000046,-0.8319999999999999,68.644,0.02639999999999998,-0.2622,-0.43599999999999994,100.0,1.0,1.0,211.67000000000002,0.0,0.0,0.0,0.0,0.0,0.0,0.0,8971.9,0.0,55.0,5.0,247.09333333333336,1.0,0.0,0.0,0.0,0.0,0.0,0.0,0.0,1.2540000000000013,1.2540000000000013,0.0,0.0,1.0,55.0,616.79921,10000.0,85.000001,85.000001,85.000001,85.000001,395.0,0.0,0.0,0.0,1.0,166.665,52.246,52.246,49.82,49.82,34.0,-54.5225,57.19666666666667,5.9375,-4.4175,0.0,1781.714,-0.8500000000000014,100.0,27.667,28.131999999999998,41.016999999999996,41.562,0.0,0.0,100.0,0.0,0.0,0.0,0.0,3213.625,3243.3,3946.0,4075.0,305.385,304.4695,315.2915,314.83275,22.1087,20.6736,21.97222222222222,21.6632,314.999998,314.999998,324.999988,324.999988,99.56548571428571,99.51116666666667,99.56605714285715,99.55727142857143,-0.47875,0.62625,0.6968333333333334,-0.6408333333333331,-0.0833333333333286,-0.06833333333332803,1.5434999999999999,1.516,39.179,30.21,38.326,36.3945,60.043,37.4065,59.751999999999995,56.922,56.574,35.9895,57.84,54.5865,54.378,35.0635,57.2235,53.4625,0.4573333333333336,0.5966666666666662,-0.6755111111111112,-0.6762666666666666,0.0,214.845,214.84,211.67000000000002,211.67000000000002,0.0,0.0
26,0.0,0.0,0.0,1.0,1.0,0.0,0.0,1.0,0.0,100.0,1.0,1.1856,26.0,0.0,0.0,0.0,59.999996,0.0,26.0,26.0,26.0,26.0,0.029750000000000002,0.276,0.08176666666666667,292.404,-4.3375,-4.355,-2.257,-2.1295,-188.31,215.6475,190.43475,0.0,0.0,0.0,0.0,0.0524,-5.498166666666667,-5.498166666666667,-0.6086,0.781,0.017125000000000057,0.5280000000000005,68.775,0.03370000000000006,-0.2381,-0.3719999999999999,100.0,1.0,1.0,211.86333333333334,0.0,0.0,0.0,0.0,0.0,0.0,0.0,8980.1,0.0,55.0,5.0,247.56333333333333,0.0,0.0,0.0,0.0,0.0,0.0,0.0,0.0,1.3049999999999997,1.3049999999999997,0.0,0.0,0.0,55.0,616.79921,10000.0,85.000001,85.000001,85.000001,85.000001,395.0,0.0,0.0,0.0,1.0,333.33500000000004,51.498,51.498,48.507999999999996,48.507999999999996,34.0,-53.1275,56.89333333333333,7.094999999999999,-4.3825,0.0,1781.662,-0.7899999999999991,100.0,28.737000000000002,28.66,41.342,41.736000000000004,0.0,0.0,100.0,0.0,0.0,0.0,0.0,3142.625,3204.9,4455.777777777777,4519.1,305.255,304.58425,314.0645,313.836,22.119,20.6799,21.982555555555557,21.6732,314.999998,314.999998,324.999988,324.999988,99.56554285714286,99.51125,99.56624285714285,99.55745714285715,-0.4555,0.6327499999999999,0.709,-0.6278333333333332,-0.06666666666666998,-0.07333333333333059,1.4304999999999999,1.425,39.244,30.249499999999998,38.391,36.457499999999996,60.05,37.4865,59.81,56.9875,56.58,36.0605,57.894,54.6495,54.3815,35.1285,57.272999999999996,53.5225,0.46066666666666656,0.5876666666666663,-0.6778666666666666,-0.670711111111111,0.0,215.28,215.29000000000002,211.86333333333334,211.86333333333334,0.0,0.0
27,0.0,0.0,0.0,1.0,1.0,0.0,0.0,1.0,0.0,100.0,1.0,1.1856,26.0,0.0,0.0,0.0,59.999996,0.0,26.0,26.0,26.0,26.0,0.046625,0.25670000000000015,0.014066666666666667,292.77,-4.3576,-4.315625,-2.201,-2.198875,-185.01,215.6325,190.41175,0.0,0.0,0.0,0.0,0.0543,-5.498166666666667,-5.498166666666667,-0.625,-1.0130000000000001,0.023499999999999854,0.8940000000000001,68.896,0.029100000000000126,-0.27692500000000003,-0.3819999999999997,100.0,1.0,1.0,212.2733333333333,0.0,0.0,0.0,0.0,0.0,0.0,0.0,8997.5,0.0,55.0,5.0,248.00333333333333,1.0,0.0,0.0,0.0,0.0,0.0,0.0,0.0,1.352999999999998,1.352999999999998,0.0,0.0,1.0,55.0,616.79921,10000.0,85.000001,85.000001,85.000001,85.000001,395.0,0.0,0.0,0.0,1.0,333.33500000000004,52.032,52.032,48.584,48.584,34.0,-50.045,56.626666666666665,7.002499999999998,-3.1750000000000007,0.0,1781.613,-0.9050000000000011,100.0,28.419,28.467,41.998,42.345,0.0,0.0,100.0,0.0,0.0,0.0,0.0,2989.25,3213.6,4121.666666666667,4224.2,305.723,304.69975,314.74525,314.41025,22.1284,20.6857,21.992444444444445,21.6828,314.999998,314.999998,324.999988,324.999988,99.5656,99.51131666666667,99.56642857142857,99.55762857142857,-0.44999999999999996,0.63975,0.7043333333333334,-0.6296666666666668,-0.054999999999999716,-0.0833333333333286,1.4565000000000001,1.4293333333333333,39.303,30.2855,38.453,36.5175,60.052,37.558,59.8685,57.0525,56.582,36.124,57.9475,54.711,54.381,35.1865,57.3225,53.5815,0.4546666666666668,0.5976666666666666,-0.6733777777777777,-0.6661222222222223,0.0,215.60500000000002,215.615,212.2733333333333,212.2733333333333,0.0,0.0
28,0.0,0.0,0.0,1.0,1.0,0.0,0.0,1.0,0.0,100.0,1.0,1.1856,26.0,0.0,0.0,0.0,59.999996,0.0,26.0,26.0,26.0,26.0,0.0285,0.25540000000000007,-0.053266666666666664,293.152,-4.34,-4.3161249999999995,-2.2408,-2.1654999999999998,-181.28,215.6175,190.385125,0.0,0.0,0.0,0.0,0.056466666666666665,-5.498166666666667,-5.498166666666667,-0.6387,0.591,0.010624999999999885,0.3719999999999999,69.029,0.03269999999999995,-0.26032500000000003,-0.40200000000000014,100.0,1.0,1.0,212.85666666666668,0.0,0.0,0.0,0.0,0.0,0.0,0.0,9022.3,0.0,55.0,5.0,248.48000000000002,0.0,0.0,0.0,0.0,0.0,0.0,0.0,0.0,1.407,1.407,0.0,0.0,0.0,55.0,616.79921,10000.0,85.000001,85.000001,85.000001,85.000001,395.0,0.0,0.0,0.0,1.0,166.665,51.894999999999996,51.894999999999996,49.744,49.744,34.0,-52.1225,56.33166666666666,6.082500000000003,-3.150000000000002,0.0,1781.561,-0.8800000000000026,100.0,28.501,28.415,41.317,41.848,0.0,0.0,100.0,0.0,0.0,0.0,0.0,3094.125,3196.0,3990.777777777778,4115.3,305.3935,304.7215,315.2365,314.8095,22.1392,20.6923,22.00311111111111,21.6932,314.999998,314.999998,324.999988,324.999988,99.56565714285715,99.5114,99.56661428571428,99.55781428571429,-0.45100000000000007,0.6380000000000001,0.7045,-0.6234999999999999,-0.05666666666667197,-0.0899999999999963,1.5375,1.5116666666666667,39.370000000000005,30.326999999999998,38.519,36.582499999999996,60.056,37.6405,59.9225,57.1165,56.585,36.197,57.998,54.772,54.3815,35.2535,57.3685,53.6405,0.45533333333333337,0.5963333333333334,-0.6779111111111111,-0.6753,0.0,216.04500000000002,216.06,212.85666666666668,212.85666666666668,0.0,0.0
29,0.0,0.0,0.0,1.0,1.0,0.0,0.0,1.0,0.0,100.0,1.0,1.1856,26.0,0.0,0.0,0.0,59.999996,0.0,26.0,26.0,26.0,26.0,0.055,0.2502,0.0151,292.74,-4.3256,-4.3645,-2.192,-2.1494999999999997,-177.95999999999998,215.60250000000002,190.360375,0.0,0.0,0.0,0.0,0.0584,-5.498166666666667,-5.498166666666667,-0.6346,-0.5650000000000001,0.015249999999999986,1.037,69.152,0.02980000000000005,-0.251075,-0.44200000000000017,100.0,1.0,1.0,213.02666666666667,0.0,0.0,0.0,0.0,0.0,0.0,0.0,9029.3,0.0,55.0,5.0,248.92333333333335,1.0,0.0,0.0,0.0,0.0,0.0,0.0,0.0,1.4549999999999983,1.4549999999999983,0.0,0.0,1.0,55.0,616.79921,10000.0,85.000001,85.000001,85.000001,85.000001,395.0,0.0,0.0,0.0,1.0,166.665,52.155,52.155,48.431,48.431,34.0,-50.457499999999996,57.215,7.567500000000003,-3.7575000000000003,0.0,1781.513,-1.0,100.0,28.179000000000002,28.285,41.736000000000004,42.104,0.0,0.0,100.0,0.0,0.0,0.0,0.0,3014.5,3218.2,4244.888888888889,4371.9,305.6615,304.564,314.45625,314.1655,22.1485,20.6981,22.012888888888888,21.7027,314.999998,314.999998,324.999988,324.999988,99.56571428571428,99.51148333333333,99.5668,99.55798571428572,-0.45124999999999993,0.6395,0.7075,-0.6246666666666667,-0.05833333333333002,-0.08500000000000085,1.446,1.4100000000000001,39.428,30.363,38.581,36.641999999999996,60.057,37.7115,59.9795,57.179,56.585,36.26,58.0505,54.8315,54.379999999999995,35.311,57.4165,53.6975,0.4460000000000002,0.6043333333333334,-0.6815555555555555,-0.6716444444444445,0.0,216.41500000000002,216.41,213.02666666666667,213.02666666666667,0.0,0.0
30,0.0,0.0,0.0,1.0,1.0,0.0,0.0,1.0,0.0,100.0,1.0,1.1856,26.0,0.0,0.0,0.0,59.999996,0.0,26.0,26.0,26.0,26.0,0.059625000000000004,0.24829999999999997,0.044000000000000004,292.236,-4.3794,-4.388,-2.1672000000000002,-2.2039999999999997,-174.64,215.5925,190.3355,0.0,0.0,0.0,0.0,0.06033333333333334,-5.498166666666667,-5.498166666666667,-0.6446000000000001,0.5135,0.011374999999999913,0.2629999999999999,69.269,0.03610000000000002,-0.263875,-0.6160000000000005,100.0,1.0,1.0,213.48333333333335,0.0,0.0,0.0,0.0,0.0,0.0,0.0,9048.8,0.0,55.0,5.0,249.34333333333336,0.0,0.0,0.0,0.0,0.0,0.0,1.0,0.0,1.5030000000000001,1.5030000000000001,0.0,0.0,0.0,55.0,616.79921,10000.0,85.000001,85.000001,85.000001,85.000001,395.0,0.0,0.0,0.0,1.0,333.33500000000004,50.69,50.69,48.981,48.981,34.0,-57.1025,62.58166666666666,7.960000000000001,-2.9450000000000003,0.0,1781.464,-0.9399999999999977,100.0,28.843,28.939,41.583,42.171,0.0,0.0,100.0,0.0,0.0,0.0,0.0,3356.625,3488.2,4070.8888888888887,4255.8,304.766,303.86525,314.93625,314.37225,22.1582,20.7041,22.022555555555556,21.7122,314.999998,314.999998,324.999988,324.999988,99.56577142857142,99.51156666666667,99.56695714285715,99.55815714285714,-0.4495,0.6387499999999999,0.717,-0.6266666666666667,-0.07000000000000028,-0.0799999999999983,1.49,1.4673333333333334,39.489000000000004,30.4005,38.641,36.701,60.062,37.788,60.0305,57.2395,56.59,36.328,58.0975,54.888999999999996,54.3825,35.373,57.46,53.753,0.44700000000000006,0.597,-0.6741333333333333,-0.6820444444444445,0.0,216.79000000000002,216.81,213.48333333333335,213.48333333333335,0.0,0.0
31,0.0,0.0,0.0,1.0,1.0,0.0,0.0,1.0,0.0,100.0,1.0,1.1856,26.0,0.0,0.0,0.0,59.999996,0.0,26.0,26.0,26.0,26.0,0.0635,0.25970000000000004,0.07393333333333334,291.992,-4.4287,-4.2787500000000005,-2.2516,-2.10175,-171.11,215.57999999999998,190.30975,0.0,0.0,0.0,0.0,0.062400000000000004,-5.498166666666667,-5.498166666666667,-0.62,-0.2955,0.014499999999999957,-0.7509999999999999,69.398,0.04069999999999996,-0.25665,-0.4660000000000002,100.0,1.0,1.0,213.69666666666666,0.0,0.0,0.0,0.0,0.0,0.0,0.0,9057.8,0.0,55.0,5.0,249.80666666666667,1.0,0.0,0.0,0.0,0.0,0.0,1.0,0.0,1.5539999999999985,1.5539999999999985,0.0,0.0,1.0,55.0,616.79921,10000.0,85.000001,85.000001,85.000001,85.000001,395.0,0.0,0.0,0.0,1.0,166.665,51.59,51.59,47.47,47.47,34.0,-52.3675,55.25,6.945,-4.715,0.0,1781.415,-0.9699999999999989,100.0,28.708,29.183,42.123,42.854,0.0,0.0,100.0,0.0,0.0,0.0,0.0,3132.875,3141.5,4521.222222222223,4419.8,305.629,304.8045,313.8925,313.87875,22.1683,20.7104,22.03311111111111,21.7224,314.999998,314.999998,324.999988,324.999988,99.56581428571428,99.51165,99.56715714285714,99.55832857142858,-0.45225000000000004,0.6320000000000001,0.7021666666666666,-0.6268333333333331,-0.05666666666667197,-0.05833333333333002,1.4020000000000001,1.3816666666666668,39.552,30.4405,38.707,36.765,60.066,37.8665,60.092,57.3075,56.592,36.3975,58.1545,54.954,54.382999999999996,35.437,57.5125,53.8155,0.44499999999999984,0.5923333333333334,-0.6755333333333333,-0.6726333333333333,0.0,217.18,217.18,213.69666666666666,213.69666666666666,0.0,0.0
32,0.0,0.0,0.0,1.0,1.0,0.0,0.0,1.0,0.0,100.0,1.0,1.1856,26.0,0.0,0.0,0.0,59.999996,0.0,26.0,26.0,26.0,26.0,0.030375,0.25429999999999997,-0.08883333333333335,292.496,-4.3897,-4.3248750000000005,-2.2755,-2.15175,-167.56,215.57,190.2845,0.0,0.0,0.0,0.0,0.06443333333333334,-5.498166666666667,-5.498166666666667,-0.6395000000000001,-0.157,0.004249999999999865,0.020999999999999908,69.521,0.04600000000000004,-0.27155,-0.6559999999999997,100.0,1.0,1.0,214.2733333333333,0.0,0.0,0.0,0.0,0.0,0.0,0.0,9082.3,0.0,55.0,5.0,250.24666666666667,0.0,0.0,0.0,0.0,0.0,0.0,1.0,0.0,1.6050000000000004,1.6050000000000004,0.0,0.0,0.0,55.0,616.79921,10000.0,85.000001,85.000001,85.000001,85.000001,395.0,0.0,0.0,0.0,1.0,333.33500000000004,51.528999999999996,51.528999999999996,48.676,48.676,34.0,-51.96,56.79833333333333,6.5625,-2.397500000000001,0.0,1781.361,-0.884999999999998,100.0,28.758,29.022,42.045,42.671,0.0,0.0,100.0,0.0,0.0,0.0,0.0,3088.125,3215.5,4096.555555555556,4210.5,305.516,304.66125,314.97925,314.62725,22.1784,20.7168,22.043333333333333,21.7325,314.999998,314.999998,324.999988,324.999988,99.56588571428571,99.51173333333334,99.56734285714286,99.55851428571428,-0.45025000000000004,0.63775,0.7188333333333334,-0.6039999999999999,-0.06333333333333258,-0.07833333333332604,1.523,1.4786666666666668,39.614999999999995,30.48,38.771,36.828,60.067,37.945499999999996,60.147999999999996,57.3705,56.593,36.468,58.206,55.013999999999996,54.382,35.5015,57.5595,53.873,0.4546666666666668,0.5899999999999999,-0.6780777777777778,-0.6727333333333334,0.0,217.54500000000002,217.565,214.2733333333333,214.2733333333333,0.0,0.0
33,0.0,0.0,0.0,1.0,1.0,0.0,0.0,1.0,0.0,100.0,1.0,1.1856,26.0,0.0,0.0,0.0,59.999996,0.0,26.0,26.0,26.0,26.0,0.048375,0.24930000000000008,-0.08423333333333334,292.633,-4.3818,-4.33375,-2.2326,-2.1935000000000002,-164.22,215.5625,190.259625,0.0,0.0,0.0,0.0,0.0664,-5.498166666666667,-5.498166666666667,-0.6476000000000001,-0.201,-0.006375000000000242,0.9080000000000004,69.638,0.04610000000000003,-0.259,-0.34199999999999964,100.0,1.0,1.0,214.59333333333333,0.0,0.0,0.0,0.0,0.0,0.0,0.0,9095.9,0.0,55.0,5.0,250.67333333333335,1.0,0.0,0.0,0.0,0.0,0.0,1.0,0.0,1.6529999999999987,1.6529999999999987,0.0,0.0,1.0,55.0,616.79921,10000.0,85.000001,85.000001,85.000001,85.000001,395.0,0.0,0.0,0.0,1.0,166.665,51.894999999999996,51.894999999999996,48.584,48.584,34.0,-50.485,55.278333333333336,7.295000000000002,-2.9450000000000003,0.0,1781.315,-1.009999999999998,100.0,28.64,28.797,41.932,42.51,0.0,0.0,100.0,0.0,0.0,0.0,0.0,3033.25,3129.5,4185.777777777777,4211.5,305.707,304.8995,314.7145,314.57725,22.1878,20.7227,22.05311111111111,21.7419,314.999998,314.999998,324.999988,324.999988,99.56592857142857,99.51181666666666,99.56751428571428,99.55867142857143,-0.4364999999999999,0.6425000000000001,0.7168333333333334,-0.6248333333333331,-0.06333333333333258,-0.05333333333332746,1.4835,1.4576666666666667,39.674,30.5165,38.832,36.887,60.069,38.0165,60.201,57.429,56.595,36.531,58.254999999999995,55.07,54.3815,35.5585,57.604,53.9265,0.44566666666666643,0.5939999999999999,-0.6770444444444443,-0.6732111111111111,0.0,217.925,217.91,214.59333333333333,214.59333333333333,0.0,0.0
34,0.0,0.0,0.0,1.0,1.0,0.0,0.0,1.0,0.0,100.0,1.0,1.1856,26.0,0.0,0.0,0.0,59.999996,0.0,26.0,26.0,26.0,26.0,0.0495,0.24540000000000006,-0.05226666666666666,292.77,-4.4131,-4.25625,-2.2643,-2.158125,-160.67000000000002,215.555,190.232,0.0,0.0,0.0,0.0,0.06846666666666666,-5.498166666666667,-5.498166666666667,-0.6707000000000001,-0.8160000000000001,0.02012499999999995,-0.32499999999999973,69.763,0.04420000000000002,-0.26195,-0.3899999999999997,100.0,1.0,1.0,214.96,0.0,0.0,0.0,0.0,0.0,0.0,0.0,9111.4,0.0,55.0,5.0,251.12333333333333,0.0,0.0,0.0,0.0,0.0,0.0,1.0,0.0,1.7040000000000006,1.7040000000000006,0.0,0.0,0.0,55.0,616.79921,10000.0,85.000001,85.000001,85.000001,85.000001,395.0,0.0,0.0,0.0,1.0,333.33500000000004,52.032,52.032,49.194,49.194,34.0,-53.45,54.156666666666666,5.962499999999999,-3.240000000000002,0.0,1781.262,-1.0649999999999977,100.0,28.239,28.570999999999998,41.705,42.653999999999996,0.0,0.0,100.0,0.0,0.0,0.0,0.0,3197.625,3074.5,4107.111111111111,4228.0,305.426,305.03,314.96725,314.419,22.1977,20.7288,22.063333333333333,21.752,314.999998,314.999998,324.999988,324.999988,99.56598571428572,99.51188333333333,99.5677,99.55887142857142,-0.4424999999999999,0.65425,0.7028333333333334,-0.6203333333333332,-0.07000000000000028,-0.086666666666666,1.471,1.4506666666666668,39.736000000000004,30.555,38.896,36.95,60.069,38.091499999999996,60.2555,57.494,56.595,36.5975,58.306,55.1315,54.3795,35.6195,57.6505,53.9855,0.43833333333333346,0.6103333333333336,-0.6770222222222222,-0.6693888888888888,0.0,218.3,218.3,214.96,214.96,0.0,0.0
35,0.0,0.0,0.0,1.0,1.0,0.0,0.0,1.0,0.0,100.0,1.0,1.1856,26.0,0.0,0.0,0.0,59.999996,0.0,26.0,26.0,26.0,26.0,0.07275,0.24460000000000015,-0.04886666666666667,292.984,-4.4484,-4.26125,-2.1715999999999998,-2.1723749999999997,-157.11,215.55,190.202625,0.0,0.0,0.0,0.0,0.07053333333333334,-5.498166666666667,-5.498166666666667,-0.7131000000000001,-0.5475,0.016249999999999876,-0.0389999999999997,69.886,0.04710000000000014,-0.273,-0.8179999999999996,100.0,1.0,1.0,215.43,0.0,0.0,0.0,0.0,0.0,0.0,0.0,9131.3,0.0,55.0,5.0,251.56666666666666,1.0,0.0,0.0,0.0,0.0,0.0,1.0,0.0,1.754999999999999,1.754999999999999,0.0,0.0,1.0,55.0,616.79921,10000.0,85.000001,85.000001,85.000001,85.000001,395.0,0.0,0.0,0.0,1.0,166.665,51.926,51.926,48.888999999999996,48.888999999999996,34.0,-51.0775,60.13666666666667,8.402500000000003,-2.285,0.0,1781.213,-0.8549999999999969,100.0,28.124,28.604,41.556,42.186,0.0,0.0,100.0,0.0,0.0,0.0,0.0,3046.125,3388.8,3997.777777777778,3985.9,305.786,304.168,315.0995,315.02325,22.2075,20.7352,22.073555555555554,21.762,314.999998,314.999998,324.999988,324.999988,99.56604285714286,99.51198333333333,99.56788571428571,99.55904285714286,-0.45500000000000007,0.63825,0.7306666666666667,-0.6098333333333332,-0.05833333333333002,-0.07833333333332604,1.5110000000000001,1.4873333333333334,39.797,30.595,38.96,37.0125,60.067,38.1695,60.3095,57.5535,56.592,36.667,58.3555,55.1885,54.3755,35.6835,57.696,54.0405,0.4540000000000002,0.593,-0.6724222222222223,-0.6783888888888889,0.0,218.65,218.695,215.43,215.43,0.0,0.0
