,ABS Active,ABS Enabled,AID Allow Tire Blankets,AID Auto Blip,AID Auto Clutch,AID Auto Shift,AID Fuel Rate,AID Ideal Line,AID Mech Damage,AID Stability,AID Tire Wear Rate,Air Density,Air Temp,Ballast,Best Lap Delta,Best Lap Time,Brake Bias,Brake Pos,Brake Temp FL,Brake Temp FR,Brake Temp RL,Brake Temp RR,CG Accel Lateral,CG Accel Longitudinal,CG Accel Vertical,CG Height,Camber FL,Camber FR,Camber RL,Camber RR,Car Coord X,Car Coord Y,Car Coord Z,Car Damage Front,Car Damage Left,Car Damage Rear,Car Damage Right,Car Pos Norm,Caster FL,Caster FR,Chassis Pitch Angle,Chassis Pitch Rate,Chassis Roll Angle,Chassis Roll Rate,Chassis Velocity X,Chassis Velocity Y,Chassis Velocity Z,Chassis Yaw Rate,Clutch Pos,DRS Active,DRS Available,Drive Train Speed,ERS Heat Charging,ERS Is Charging,ERS Max Energy,ERS Power Level,ERS Recovery Level,Engine Brake Setting,Engine Limiter,Engine RPM,Flags,Fuel Level,Gear,Ground Speed,HR Sample Clock,In Pit,KERS Charge,KERS Deployed Energy,KERS Input,KERS Max Energy,LR Sample Clock,Lap Invalidated,Lap Time,Lap Time2,Last Lap Time,Last Sector Time,MR Sample Clock,Max Fuel,Max Power,Max RPM,Max Sus Travel FL,Max Sus Travel FR,Max Sus Travel RL,Max Sus Travel RR,Max Torque,Max Turbo Boost,Num Tires Off Track,Penalties Enabled,Position,Raw Data Sample Rate,Ride Height FL,Ride Height FR,Ride Height RL,Ride Height RR,Road Temp,Self Align Torque FL,Self Align Torque FR,Self Align Torque RL,Self Align Torque RR,Session Lap Count,Session Time Left,Steering Angle,Surface Grip,Suspension Travel FL,Suspension Travel FR,Suspension Travel RL,Suspension Travel RR,TC Active,TC Enabled,Throttle Pos,Tire Dirt Level FL,Tire Dirt Level FR,Tire Dirt Level RL,Tire Dirt Level RR,Tire Load FL,Tire Load FR,Tire Load RL,Tire Load RR,Tire Loaded Radius FL,Tire Loaded Radius FR,Tire Loaded Radius RL,Tire Loaded Radius RR,Tire Pressure FL,Tire Pressure FR,Tire Pressure RL,Tire Pressure RR,Tire Radius FL,Tire Radius FR,Tire Radius RL,Tire Radius RR,Tire Rubber Grip FL,Tire Rubber Grip FR,Tire Rubber Grip RL,Tire Rubber Grip RR,Tire Slip Angle FL,Tire Slip Angle FR,Tire Slip Angle RL,Tire Slip Angle RR,Tire Slip Ratio FL,Tire Slip Ratio FR,Tire Slip Ratio RL,Tire Slip Ratio RR,Tire Temp Core FL,Tire Temp Core FR,Tire Temp Core RL,Tire Temp Core RR,Tire Temp Inner FL,Tire Temp Inner FR,Tire Temp Inner RL,Tire Temp Inner RR,Tire Temp Middle FL,Tire Temp Middle FR,Tire Temp Middle RL,Tire Temp Middle RR,Tire Temp Outer FL,Tire Temp Outer FR,Tire Temp Outer RL,Tire Temp Outer RR,Toe In FL,Toe In FR,Toe In RL,Toe In RR,Turbo Boost,Wheel Angular Speed FL,Wheel Angular Speed FR,Wheel Angular Speed RL,Wheel Angular Speed RR,Wind Direction,Wind Speed
0,0.0,0.0,0.0,1.0,1.0,0.0,0.0,1.0,0.0,100.0,1.0,1.1856,26.0,0.0,0.0,0.0,59.99999,0.0,26.0,26.0,26.0,26.0,-0.02644444444444438,0.2965,0.1398,294.754,-3.8555,-3.794375,-1.6209,-1.6573333333333333,-275.68,216.32999999999998,190.988375,0.0,0.0,0.0,0.0,0.0015999999999999348,-5.498166666666667,-5.498166666666667,-0.6286,2.5330000000000004,-0.004750000000000032,-0.902,65.355,-0.047699999999999965,-0.29962500000000003,0.8940000000000001,100.0,1.0,1.0,201.88,0.0,0.0,0.0,0.0,0.0,0.0,0.0,8556.9,0.0,55.0,5.0,235.25333333333333,0.0,0.0,0.0,0.0,0.0,0.0,0.0,0.0,0.0030000000000001137,0.0030000000000001137,0.0,0.0,0.0,55.0,616.79921,10000.0,85.0,85.0,85.0,85.0,395.0,0.0,0.0,0.0,1.0,20.0,51.132,51.132,52.382999999999996,52.382999999999996,34.0,-54.7575,59.19166666666666,5.092500000000001,-9.5825,0.0,1783.433,0.1999999999999993,100.0,28.279,27.662,38.08,38.259,0.0,0.0,100.0,0.0,0.0,0.0,0.0,3315.375,3673.6000000000004,3953.875,3824.3,304.80333333333334,303.0185,315.314,315.39225,21.8325,20.5185,21.7434,21.4092,314.99999,314.99999,324.99998,324.99998,99.56268571428572,99.50858333333333,99.56341428571429,99.55218571428571,-0.49439999999999995,0.44225000000000003,0.5234000000000001,-0.6337999999999999,-0.07499999999999574,-0.0799999999999983,1.5665,1.6295000000000002,37.453,29.240499999999997,36.896,34.807500000000005,58.935,35.15,58.5215,54.644,55.94,34.091499999999996,57.0945,52.754999999999995,54.233000000000004,33.445,56.980000000000004,52.042,0.4540000000000002,0.42349999999999977,-0.5876428571428571,-0.5828142857142857,0.0,204.815,204.71,201.88,201.88,0.0,0.0
1,0.0,0.0,0.0,1.0,1.0,0.0,0.0,1.0,0.0,100.0,1.0,1.1856,26.0,0.0,0.0,0.0,59.999996,0.0,26.0,26.0,26.0,26.0,-0.14533333333333331,0.30520000000000014,0.103275,293.945,-3.7825,-3.905125,-1.6402999999999999,-1.653888888888889,-272.35,216.325,190.96825,0.0,0.0,0.0,0.0,0.0035333333333333883,-5.498166666666667,-5.498166666666667,-0.5148,-0.33299999999999996,-0.05074999999999985,-1.2610000000000001,65.511,-0.05599999999999994,-0.2179,1.2240000000000002,100.0,1.0,1.0,201.79666666666668,0.0,0.0,0.0,0.0,0.0,0.0,0.0,8553.4,0.0,55.0,5.0,235.80666666666667,1.0,0.0,0.0,0.0,0.0,0.0,0.0,0.0,0.053999999999998494,0.053999999999998494,0.0,0.0,1.0,55.0,616.79921,10000.0,85.000001,85.000001,85.000001,85.000001,395.0,0.0,0.0,0.0,1.0,166.665,53.848,53.848,49.637,49.637,34.0,-46.24,37.20666666666666,4.907499999999999,-14.3325,0.0,1783.383,0.615000000000002,100.0,27.946,27.326999999999998,40.837,39.856,0.0,0.0,100.0,0.0,0.0,0.0,0.0,2856.625,2518.9,4493.375,4875.700000000001,306.1383333333333,306.826,313.85025,312.71925,21.8428,20.523699999999998,21.7541,21.4192,314.999998,314.999998,324.999988,324.999988,99.56275714285714,99.50865,99.56358571428571,99.55237142857143,-0.518,0.3952500000000001,0.5070000000000001,-0.6477999999999999,-0.054999999999999716,-0.061666666666667425,1.3355000000000001,1.4055,37.516999999999996,29.2735,36.963,34.8695,58.943,35.207,58.579499999999996,54.7185,55.946,34.143,57.1485,52.826499999999996,54.2365,33.4925,57.031,52.112,0.488,0.391,-0.5834285714285714,-0.5805,0.0,205.235,205.14,201.79666666666668,201.79666666666668,0.0,0.0
2,0.0,0.0,0.0,1.0,1.0,0.0,0.0,1.0,0.0,100.0,1.0,1.1856,26.0,0.0,0.0,0.0,59.999996,0.0,26.0,26.0,26.0,26.0,-0.1393333333333333,0.26750000000000007,0.019375,294.571,-3.7278000000000002,-3.9547499999999998,-1.5871,-1.7286666666666668,-268.8,216.3175,190.9485,0.0,0.0,0.0,0.0,0.005599999999999938,-5.498166666666667,-5.498166666666667,-0.5965,-0.25,-0.05912499999999987,2.3770000000000002,65.655,-0.08289999999999997,-0.3015,2.1679999999999993,100.0,1.0,1.0,202.84666666666666,0.0,0.0,0.0,0.0,0.0,0.0,0.0,8597.9,0.0,55.0,5.0,236.32999999999998,0.0,0.0,0.0,0.0,0.0,0.0,0.0,0.0,0.10800000000000054,0.10800000000000054,0.0,0.0,0.0,55.0,616.79921,10000.0,85.000001,85.000001,85.000001,85.000001,395.0,0.0,0.0,0.0,1.0,166.665,51.879999999999995,51.879999999999995,52.277,52.277,34.0,-58.2775,46.928333333333335,1.2625000000000028,-10.9775,0.0,1783.329,0.33000000000000185,100.0,28.626,27.104,40.774,39.414,0.0,0.0,100.0,0.0,0.0,0.0,0.0,3495.375,3032.3,3665.625,3593.3,304.20666666666665,305.23175,315.845,316.0425,21.8541,20.5291,21.7651,21.4292,314.999998,314.999998,324.999988,324.999988,99.56282857142857,99.50868333333334,99.56375714285714,99.55255714285714,-0.5138,0.41074999999999995,0.44020000000000015,-0.7055999999999998,-0.0799999999999983,-0.07499999999999574,1.6015000000000001,1.697,37.588,29.3065,37.032,34.932,58.957,35.263,58.6285,54.783500000000004,55.96,34.193,57.1945,52.8885,54.247,33.539,57.073499999999996,52.173,0.46750000000000025,0.4129999999999998,-0.5804142857142857,-0.5840857142857143,0.0,205.70499999999998,205.51,202.8466666666667,202.84666666666666,0.0,0.0
3,0.0,0.0,0.0,1.0,1.0,0.0,0.0,1.0,0.0,100.0,1.0,1.1856,26.0,0.0,0.0,0.0,59.999996,0.0,26.0,26.0,26.0,26.0,-0.12877777777777777,0.30580000000000007,-0.006825,294.235,-3.8706,-3.83025,-1.6253000000000002,-1.6932222222222222,-265.85,216.3075,190.931,0.0,0.0,0.0,0.0,0.007299999999999973,-5.498166666666667,-5.498166666666667,-0.5481,1.0165,-0.0030000000000001137,-0.352,65.788,-0.10869999999999991,-0.24350000000000002,1.17,100.0,1.0,1.0,202.88,0.0,0.0,0.0,0.0,0.0,0.0,0.0,8599.3,0.0,55.0,5.0,236.80333333333334,1.0,0.0,0.0,0.0,0.0,0.0,0.0,0.0,0.1529999999999987,0.1529999999999987,0.0,0.0,1.0,55.0,616.79921,10000.0,85.000001,85.000001,85.000001,85.000001,395.0,0.0,0.0,0.0,1.0,166.665,53.192,53.192,49.927,49.927,34.0,-46.345,42.865,1.6475000000000009,-14.195,0.0,1783.283,-0.10999999999999943,100.0,28.322,27.463,40.464,39.531,0.0,0.0,100.0,0.0,0.0,0.0,0.0,2837.75,2820.1,4346.375,4306.6,306.1363333333333,305.64975,314.2715,314.225,21.8633,20.5339,21.7741,21.4376,314.999998,314.999998,324.999988,324.999988,99.56288571428571,99.50873333333334,99.56388571428572,99.5527,-0.5155999999999998,0.40175000000000005,0.45120000000000005,-0.6964000000000001,-0.07333333333333059,-0.04333333333332945,1.4594999999999998,1.499,37.644999999999996,29.3365,37.088,34.985,58.965,35.3165,58.667500000000004,54.8455,55.966,34.241,57.231,52.948,54.251999999999995,33.5835,57.1075,52.231,0.4335,0.4535,-0.5816,-0.5769571428571428,0.0,206.14499999999998,205.985,202.88,202.88,0.0,0.0
4,0.0,0.0,0.0,1.0,1.0,0.0,0.0,1.0,0.0,100.0,1.0,1.1856,26.0,0.0,0.0,0.0,59.999996,0.0,26.0,26.0,26.0,26.0,-0.14288888888888884,0.2922,-0.0063750000000000005,294.54,-3.8094,-3.88375,-1.6433,-1.7044444444444444,-262.49,216.29250000000002,190.9115,0.0,0.0,0.0,0.0,0.009266666666666534,-5.498166666666667,-5.498166666666667,-0.5785,-1.0310000000000001,-0.07062500000000016,-0.91,65.931,-0.09829999999999994,-0.27847500000000003,0.8900000000000006,100.0,1.0,1.0,203.45,0.0,0.0,0.0,0.0,0.0,0.0,0.0,8623.5,0.0,55.0,5.0,237.32333333333332,0.0,0.0,0.0,0.0,0.0,0.0,0.0,0.0,0.20400000000000063,0.20400000000000063,0.0,0.0,0.0,55.0,616.79921,10000.0,85.000001,85.000001,85.000001,85.000001,395.0,0.0,0.0,0.0,1.0,166.665,52.963,52.963,50.537,50.537,34.0,-52.7575,45.33833333333334,2.2349999999999994,-10.310000000000002,0.0,1783.233,0.3550000000000004,100.0,27.914,26.925,41.045,39.808,0.0,0.0,100.0,0.0,0.0,0.0,0.0,3174.875,2989.7,4038.25,3697.4,305.259,305.367,314.888,315.65,21.8734,20.5391,21.7846,21.4473,314.999998,314.999998,324.999988,324.999988,99.56294285714286,99.50876666666667,99.56404285714285,99.55288571428571,-0.536,0.3920000000000001,0.47,-0.6674,-0.06666666666666998,-0.04333333333332945,1.5150000000000001,1.5510000000000002,37.709,29.369500000000002,37.153,35.046,58.972,35.3725,58.717,54.9135,55.971000000000004,34.291,57.2775,53.013,54.254999999999995,33.6295,57.150999999999996,52.294,0.46799999999999997,0.41949999999999976,-0.5774142857142857,-0.5787857142857142,0.0,206.47500000000002,206.39499999999998,203.45,203.45,0.0,0.0
5,0.0,0.0,0.0,1.0,1.0,0.0,0.0,1.0,0.0,100.0,1.0,1.1856,26.0,0.0,0.0,0.0,59.999996,0.0,26.0,26.0,26.0,26.0,-0.1306666666666666,0.28900000000000015,-0.021,294.632,-3.8091,-3.91925,-1.6144,-1.700777777777778,-259.12,216.275,190.891125,0.0,0.0,0.0,0.0,0.011233333333333317,-5.498166666666667,-5.498166666666667,-0.5709000000000001,0.5255,-0.08800000000000008,-0.32299999999999995,66.07300000000001,-0.1018,-0.253625,1.3339999999999996,100.0,1.0,1.0,203.85666666666668,0.0,0.0,0.0,0.0,0.0,0.0,0.0,8640.8,0.0,55.0,5.0,237.83333333333331,1.0,0.0,0.0,0.0,0.0,0.0,0.0,0.0,0.254999999999999,0.254999999999999,0.0,0.0,1.0,55.0,616.79921,10000.0,85.000001,85.000001,85.000001,85.000001,395.0,0.0,0.0,0.0,1.0,166.665,53.391,53.391,50.873,50.873,34.0,-52.4875,41.64333333333333,1.7725000000000009,-13.0,0.0,1783.181,-0.14000000000000057,100.0,27.913,26.874,40.675,39.378,0.0,0.0,100.0,0.0,0.0,0.0,0.0,3194.625,2728.2,4193.625,4005.1000000000004,305.2336666666667,306.04425,314.67975,314.93925,21.884,20.5444,21.7948,21.456699999999998,314.999998,314.999998,324.999988,324.999988,99.56301428571429,99.50881666666666,99.5642,99.55304285714286,-0.512,0.4139999999999999,0.45199999999999996,-0.7005999999999999,-0.054999999999999716,-0.045000000000001705,1.4805000000000001,1.5625,37.775,29.4025,37.218,35.1045,58.985,35.4285,58.7635,54.976,55.983000000000004,34.341499999999996,57.321,53.073,54.263999999999996,33.676,57.191,52.352000000000004,0.4365000000000001,0.45299999999999985,-0.5807,-0.5859714285714286,0.0,206.995,206.875,203.85666666666668,203.85666666666668,0.0,0.0
6,0.0,0.0,0.0,1.0,1.0,0.0,0.0,1.0,0.0,100.0,1.0,1.1856,26.0,0.0,0.0,0.0,59.999996,0.0,26.0,26.0,26.0,26.0,-0.1213333333333334,0.2965,0.014,294.495,-3.7762000000000002,-3.8973750000000003,-1.6588,-1.6941111111111111,-255.75,216.255,190.87075,0.0,0.0,0.0,0.0,0.01319999999999999,-5.498166666666667,-5.498166666666667,-0.5643,0.09099999999999997,-0.06362500000000004,1.024,66.21600000000001,-0.10329999999999995,-0.2535,0.8239999999999998,100.0,1.0,1.0,204.28333333333333,0.0,0.0,0.0,0.0,0.0,0.0,0.0,8658.8,0.0,55.0,5.0,238.35000000000002,0.0,0.0,0.0,0.0,0.0,0.0,0.0,0.0,0.30600000000000094,0.30600000000000094,0.0,0.0,0.0,55.0,616.79921,10000.0,85.000001,85.000001,85.000001,85.000001,395.0,0.0,0.0,0.0,1.0,166.665,53.162,53.162,50.644,50.644,34.0,-50.4925,46.76833333333333,2.1799999999999997,-12.385000000000002,0.0,1783.13,-0.6600000000000001,100.0,27.847,26.675,40.865,39.581,0.0,0.0,100.0,0.0,0.0,0.0,0.0,3103.25,3001.4,4072.0,4056.1000000000004,305.287,305.334,314.8855,314.86975,21.8944,20.5497,21.8052,21.4665,314.999998,314.999998,324.999988,324.999988,99.56307142857143,99.50886666666666,99.56435714285715,99.55322857142858,-0.4838,0.4417500000000001,0.4725999999999999,-0.6819999999999999,-0.04833333333333201,-0.07833333333332604,1.4895,1.537,37.84,29.436,37.283,35.1655,58.995000000000005,35.487,58.811,55.045500000000004,55.992000000000004,34.3935,57.365,53.138999999999996,54.269999999999996,33.7245,57.2325,52.4165,0.3995000000000002,0.48999999999999977,-0.5817714285714285,-0.579,0.0,207.4,207.325,204.28333333333333,204.28333333333333,0.0,0.0
7,0.0,0.0,0.0,1.0,1.0,0.0,0.0,1.0,0.0,100.0,1.0,1.1856,26.0,0.0,0.0,0.0,59.999996,0.0,26.0,26.0,26.0,26.0,-0.09111111111111103,0.28200000000000003,0.02035,294.266,-3.7533000000000003,-3.8847500000000004,-1.6196000000000002,-1.7332222222222222,-252.37,216.23000000000002,190.850375,0.0,0.0,0.0,0.0,0.015133333333333332,-5.498166666666667,-5.498166666666667,-0.5680000000000001,-0.0050000000000001155,-0.055625000000000036,-0.29699999999999993,66.358,-0.08419999999999994,-0.2626,0.43599999999999994,100.0,1.0,1.0,204.68666666666667,0.0,0.0,0.0,0.0,0.0,0.0,0.0,8676.0,0.0,55.0,5.0,238.86,1.0,0.0,0.0,0.0,0.0,0.0,0.0,0.0,0.3569999999999993,0.3569999999999993,0.0,0.0,1.0,55.0,616.79921,10000.0,85.000001,85.000001,85.000001,85.000001,395.0,0.0,0.0,0.0,1.0,166.665,52.856,52.856,50.797,50.797,34.0,-53.065,46.38,3.375,-11.29,0.0,1783.08,-0.8249999999999993,100.0,27.777,26.862000000000002,40.792,39.889,0.0,0.0,100.0,0.0,0.0,0.0,0.0,3287.875,2934.8,4083.25,4029.9,304.837,305.31025,314.878,314.78675,21.9049,20.5551,21.8156,21.4762,314.999998,314.999998,324.999988,324.999988,99.56312857142858,99.50891666666666,99.56451428571428,99.55338571428571,-0.45940000000000003,0.45724999999999993,0.4845999999999999,-0.6701999999999999,-0.061666666666667425,-0.07333333333333059,1.483,1.512,37.906,29.4695,37.347,35.226,59.003,35.5475,58.8585,55.113,55.998999999999995,34.4475,57.4095,53.204,54.275,33.774,57.274,52.480000000000004,0.37349999999999994,0.5084999999999997,-0.5852428571428572,-0.5902428571428571,0.0,207.81,207.775,204.68666666666667,204.68666666666667,0.0,0.0
8,0.0,0.0,0.0,1.0,1.0,0.0,0.0,1.0,0.0,100.0,1.0,1.1856,26.0,0.0,0.0,0.0,59.999996,0.0,26.0,26.0,26.0,26.0,-0.0397777777777778,0.28590000000000004,-0.027100000000000003,294.479,-3.8254,-3.86975,-1.6014,-1.6624444444444444,-249.18,216.20499999999998,190.831125,0.0,0.0,0.0,0.0,0.016999999999999904,-5.498166666666667,-5.498166666666667,-0.5671,-0.401,-0.03762500000000024,-0.21999999999999997,66.492,-0.06289999999999996,-0.250825,-0.06200000000000028,100.0,1.0,1.0,205.02666666666667,0.0,0.0,0.0,0.0,0.0,0.0,0.0,8690.3,0.0,55.0,5.0,239.34333333333333,0.0,0.0,0.0,0.0,0.0,0.0,0.0,0.0,0.40500000000000114,0.40500000000000114,0.0,0.0,0.0,55.0,616.79921,10000.0,85.000001,85.000001,85.000001,85.000001,395.0,0.0,0.0,0.0,1.0,333.33500000000004,53.772,53.772,49.957,49.957,34.0,-46.94,45.53666666666667,6.255000000000003,-10.985,0.0,1783.03,-0.9499999999999993,100.0,27.386,26.819,40.788,40.002,0.0,0.0,100.0,0.0,0.0,0.0,0.0,2969.75,2880.0,4235.625,4133.2,305.897,305.5455,314.47475,314.56575,21.9146,20.5601,21.8253,21.4853,314.999998,314.999998,324.999988,324.999988,99.56318571428571,99.50896666666667,99.56465714285714,99.55355714285714,-0.4515999999999998,0.47425000000000006,0.5290000000000001,-0.6376,-0.05666666666667197,-0.05833333333333002,1.4805000000000001,1.472,37.966,29.500999999999998,37.408,35.283,59.006,35.605000000000004,58.9045,55.175,56.001000000000005,34.4985,57.4525,53.263,54.2755,33.8215,57.3135,52.5375,0.37349999999999994,0.5219999999999998,-0.5927714285714285,-0.5881857142857143,0.0,208.215,208.20499999999998,205.02666666666667,205.02666666666667,0.0,0.0
9,0.0,0.0,0.0,1.0,1.0,0.0,0.0,1.0,0.0,100.0,1.0,1.1856,26.0,0.0,0.0,0.0,59.999996,0.0,26.0,26.0,26.0,26.0,-0.04655555555555557,0.28770000000000007,0.0362,294.205,-3.8274,-3.872375,-1.6626,-1.6623333333333332,-245.78,216.1775,190.810125,0.0,0.0,0.0,0.0,0.018966666666666576,-5.498166666666667,-5.498166666666667,-0.5753,0.6559999999999999,-0.03212500000000018,0.6240000000000001,66.63,-0.031399999999999983,-0.25420000000000004,-0.3120000000000003,100.0,1.0,1.0,205.58333333333331,0.0,0.0,0.0,0.0,0.0,0.0,0.0,8714.0,0.0,55.0,5.0,239.84,1.0,0.0,0.0,0.0,0.0,0.0,0.0,0.0,0.4559999999999995,0.4559999999999995,0.0,0.0,1.0,55.0,616.79921,10000.0,85.000001,85.000001,85.000001,85.000001,395.0,0.0,0.0,0.0,1.0,166.665,52.46,52.46,51.086,51.086,34.0,-52.475,50.23166666666667,5.910000000000004,-8.68,0.0,1782.98,-0.9899999999999984,100.0,27.903,27.125,40.474000000000004,39.961,0.0,0.0,100.0,0.0,0.0,0.0,0.0,3290.375,3103.6,3955.75,4088.3,304.80333333333334,304.95675,315.211,314.7985,21.925,20.5657,21.8355,21.4949,314.999998,314.999998,324.999988,324.999988,99.56322857142857,99.50903333333333,99.56481428571429,99.55371428571429,-0.4179999999999999,0.5095000000000001,0.5494000000000001,-0.5988,-0.041666666666671404,-0.061666666666667425,1.5385,1.533,38.031,29.5355,37.472,35.3435,59.012,35.671,58.951,55.238,56.006,34.558,57.496,53.323499999999996,54.278,33.8765,57.354,52.5965,0.36350000000000016,0.5179999999999998,-0.5728857142857142,-0.5924857142857143,0.0,208.64,208.64,205.58333333333331,205.58333333333331,0.0,0.0
10,0.0,0.0,0.0,1.0,1.0,0.0,0.0,1.0,0.0,100.0,1.0,1.1856,26.0,0.0,0.0,0.0,59.999996,0.0,26.0,26.0,26.0,26.0,0.0038888888888888307,0.28970000000000007,0.054825000000000006,294.006,-3.7935,-3.864375,-1.6918000000000002,-1.6503333333333332,-242.57999999999998,216.1525,190.790625,0.0,0.0,0.0,0.0,0.02083333333333337,-5.498166666666667,-5.498166666666667,-0.5503,-0.37549999999999994,0.00012499999999993072,1.9330000000000003,66.765,-0.007399999999999962,-0.2429,-0.4820000000000002,100.0,1.0,1.0,205.78,0.0,0.0,0.0,0.0,0.0,0.0,0.0,8722.2,0.0,55.0,5.0,240.32666666666665,0.0,0.0,0.0,0.0,0.0,0.0,1.0,0.0,0.5040000000000013,0.5040000000000013,0.0,0.0,0.0,55.0,616.79921,10000.0,85.000001,85.000001,85.000001,85.000001,395.0,0.0,0.0,0.0,1.0,333.33500000000004,53.482,53.482,49.545,49.545,34.0,-43.4575,47.611666666666665,7.9325000000000045,-8.3975,0.0,1782.931,-1.1449999999999996,100.0,27.87,27.095,40.943,40.617000000000004,0.0,0.0,100.0,0.0,0.0,0.0,0.0,2839.625,2947.9,4317.25,4342.5,306.1093333333333,305.51425,314.25975,314.1385,21.9347,20.5708,21.845399999999998,21.5042,314.999998,314.999998,324.999988,324.999988,99.56327142857143,99.50908333333334,99.56497142857143,99.55388571428571,-0.38959999999999995,0.53525,0.5792000000000002,-0.5757999999999999,-0.06499999999999773,-0.09666666666667112,1.4514999999999998,1.424,38.092,29.5675,37.534,35.4015,59.013999999999996,35.7325,59.0015,55.3015,56.007999999999996,34.613,57.543,53.3845,54.278,33.9275,57.3975,52.656,0.3530000000000002,0.5375000000000001,-0.5817714285714285,-0.5854999999999999,0.0,209.07,209.07,205.78,205.78,0.0,0.0
11,0.0,0.0,0.0,1.0,1.0,0.0,0.0,1.0,0.0,100.0,1.0,1.1856,26.0,0.0,0.0,0.0,59.999996,0.0,26.0,26.0,26.0,26.0,0.05355555555555558,0.25280000000000014,-0.10892500000000001,294.601,-3.8573,-3.800375,-1.6656,-1.626111111111111,-239.17000000000002,216.125,190.77,0.0,0.0,0.0,0.0,0.022599999999999953,-5.498166666666667,-5.498166666666667,-0.5963,-0.351,0.03774999999999995,-0.5309999999999999,66.9,0.01880000000000015,-0.2797,-0.8879999999999999,100.0,1.0,1.0,206.51666666666665,0.0,0.0,0.0,0.0,0.0,0.0,0.0,8753.5,0.0,55.0,5.0,240.81333333333333,1.0,0.0,0.0,0.0,0.0,0.0,1.0,0.0,0.5549999999999997,0.5549999999999997,0.0,0.0,1.0,55.0,616.79921,10000.0,85.000001,85.000001,85.000001,85.000001,395.0,0.0,0.0,0.0,1.0,166.665,52.841,52.841,51.239,51.239,34.0,-47.395,50.9,7.704999999999998,-6.0075,0.0,1782.882,-1.0500000000000007,100.0,27.43,27.54,40.391999999999996,40.704,0.0,0.0,100.0,0.0,0.0,0.0,0.0,3064.75,3105.0,3638.5,3863.4,305.644,304.80375,315.9875,315.26975,21.9448,20.5764,21.8556,21.514,314.999998,314.999998,324.999988,324.999988,99.56332857142857,99.50913333333334,99.56514285714286,99.55404285714286,-0.3919999999999999,0.53525,0.6042000000000001,-0.5455999999999999,-0.061666666666667425,-0.07666666666666799,1.5985,1.55,38.155,29.603,37.597,35.4625,59.012,35.8015,59.0485,55.363,56.004999999999995,34.675,57.587,53.4435,54.274,33.9845,57.4385,52.713499999999996,0.36250000000000027,0.5244999999999997,-0.5745571428571428,-0.5836,0.0,209.44,209.47500000000002,206.51666666666665,206.51666666666665,0.0,0.0
12,0.0,0.0,0.0,1.0,1.0,0.0,0.0,1.0,0.0,100.0,1.0,1.1856,26.0,0.0,0.0,0.0,59.999996,0.0,26.0,26.0,26.0,26.0,0.06422222222222218,0.29390000000000005,0.0281,294.006,-3.91,-3.7952500000000002,-1.6607,-1.6300000000000001,-235.96,216.1,190.74925,0.0,0.0,0.0,0.0,0.025466666666666526,-5.498166666666667,-5.498166666666667,-0.5811000000000001,0.3405,0.01949999999999985,-0.872,67.033,0.04249999999999998,-0.24495,-0.75,100.0,1.0,1.0,206.70333333333332,0.0,0.0,0.0,0.0,0.0,0.0,0.0,8761.4,0.0,55.0,5.0,241.29333333333335,0.0,0.0,0.0,0.0,0.0,0.0,1.0,0.0,0.602999999999998,0.602999999999998,0.0,0.0,0.0,55.0,616.79921,10000.0,85.000001,85.000001,85.000001,85.000001,395.0,0.0,0.0,0.0,1.0,333.33500000000004,52.872,52.872,49.85,49.85,34.0,-48.2175,50.611666666666665,10.582500000000003,-6.2575,0.0,1782.833,-0.884999999999998,100.0,27.294,27.725,40.216,40.669,0.0,0.0,100.0,0.0,0.0,0.0,0.0,3114.125,3089.3,4243.875,4163.6,305.55833333333334,304.8705,314.56325,314.54775,21.9543,20.5818,21.8652,21.5231,314.999998,314.999998,324.999988,324.999988,99.56337142857143,99.50921666666666,99.5653,99.5542,-0.38359999999999994,0.5389999999999999,0.6240000000000001,-0.5392000000000001,-0.06333333333333258,-0.05833333333333002,1.4925000000000002,1.4695,38.214,29.636499999999998,37.658,35.5195,59.010999999999996,35.868,59.097,55.419,56.003,34.7345,57.632,53.4975,54.2705,34.04,57.4805,52.7665,0.37449999999999983,0.5074999999999998,-0.5787571428571427,-0.5926571428571428,0.0,209.875,209.92000000000002,206.70333333333332,206.70333333333332,0.0,0.0
13,0.0,0.0,0.0,1.0,1.0,0.0,0.0,1.0,0.0,100.0,1.0,1.1856,26.0,0.0,0.0,0.0,59.999996,0.0,26.0,26.0,26.0,26.0,0.06577777777777793,0.26770000000000005,0.060375000000000005,293.625,-3.8812,-3.8218750000000004,-1.7331,-1.614888888888889,-232.54,216.0725,190.7275,0.0,0.0,0.0,0.0,0.026666666666666505,-5.498166666666667,-5.498166666666667,-0.5730000000000001,-0.013500000000000068,0.02574999999999994,0.9020000000000001,67.172,0.0535000000000001,-0.25355,-0.8159999999999998,100.0,1.0,1.0,207.07666666666665,0.0,0.0,0.0,0.0,0.0,0.0,0.0,8777.2,0.0,55.0,5.0,241.79000000000002,1.0,0.0,0.0,0.0,0.0,0.0,1.0,0.0,0.6539999999999999,0.6539999999999999,0.0,0.0,1.0,55.0,616.79921,10000.0,85.000001,85.000001,85.000001,85.000001,395.0,0.0,0.0,0.0,1.0,166.665,52.521,52.521,49.866,49.866,34.0,-46.42,53.14833333333333,10.024999999999999,-5.184999999999999,0.0,1782.783,-1.129999999999999,100.0,27.766,27.749,40.563,41.056,0.0,0.0,100.0,0.0,0.0,0.0,0.0,3047.5,3193.9,4149.375,4366.2,305.5346666666667,304.71,314.70825,314.113,21.9645,20.5876,21.8756,21.533,314.999998,314.999998,324.999988,324.999988,99.56341428571429,99.50928333333333,99.56547142857143,99.55435714285714,-0.34440000000000004,0.5760000000000001,0.6364000000000001,-0.5098,-0.045000000000001705,-0.05833333333333002,1.4594999999999998,1.4325,38.278,29.6725,37.723,35.5815,59.009,35.941,59.150999999999996,55.483000000000004,56.001999999999995,34.8,57.6825,53.559,54.266999999999996,34.101,57.527,52.826499999999996,0.35199999999999987,0.5289999999999999,-0.5814571428571429,-0.5799428571428571,0.0,210.29000000000002,210.32999999999998,207.07666666666665,207.07666666666665,0.0,0.0
14,0.0,0.0,0.0,1.0,1.0,0.0,0.0,1.0,0.0,100.0,1.0,1.1856,26.0,0.0,0.0,0.0,59.999996,0.0,26.0,26.0,26.0,26.0,0.0858888888888889,0.27770000000000006,-0.015075,293.915,-3.8797,-3.77,-1.7377,-1.6024444444444443,-228.91,216.05,190.70525,0.0,0.0,0.0,0.0,0.028799999999999937,-5.498166666666667,-5.498166666666667,-0.5830000000000001,-0.13949999999999996,0.05249999999999999,1.4460000000000002,67.316,0.06289999999999996,-0.26795,-0.9880000000000004,100.0,1.0,1.0,207.5966666666667,0.0,0.0,0.0,0.0,0.0,0.0,0.0,8799.2,0.0,55.0,5.0,242.31,0.0,0.0,0.0,0.0,0.0,0.0,1.0,0.0,0.7079999999999984,0.7079999999999984,0.0,0.0,0.0,55.0,616.79921,10000.0,85.000001,85.000001,85.000001,85.000001,395.0,0.0,0.0,0.0,1.0,166.665,52.704,52.704,50.095,50.095,34.0,-43.805,54.28666666666667,10.182500000000005,-4.580000000000002,0.0,1782.728,-1.3249999999999993,100.0,27.663,27.762999999999998,40.513999999999996,41.249,0.0,0.0,100.0,0.0,0.0,0.0,0.0,2921.375,3250.5,3960.125,4204.9,305.8926666666667,304.564,315.171,314.515,21.9753,20.5937,21.8866,21.5434,314.999998,314.999998,324.999988,324.999988,99.56345714285715,99.50935,99.56565714285715,99.55452857142858,-0.32719999999999994,0.5907500000000001,0.6536,-0.5004,-0.051666666666669414,-0.07833333333332604,1.5175,1.4929999999999999,38.346000000000004,29.7105,37.791,35.6465,59.006,36.0185,59.2065,55.5485,55.998000000000005,34.8695,57.734,53.622,54.2615,34.1655,57.575,52.888,0.3410000000000002,0.5415000000000001,-0.5818714285714286,-0.5835714285714285,0.0,210.745,210.775,207.5966666666667,207.5966666666667,0.0,0.0
15,0.0,0.0,0.0,1.0,1.0,0.0,0.0,1.0,0.0,100.0,1.0,1.1856,26.0,0.0,0.0,0.0,59.999996,0.0,26.0,26.0,26.0,26.0,0.11077777777777786,0.2712000000000001,-0.039850000000000003,293.961,-3.8606,-3.722,-1.7395,-1.5638888888888889,-225.87,216.03,190.68625,0.0,0.0,0.0,0.0,0.0305333333333333,-5.498166666666667,-5.498166666666667,-0.5750000000000001,0.3215,0.08274999999999988,-0.10699999999999998,67.436,0.0757000000000001,-0.251275,-1.1760000000000002,100.0,1.0,1.0,207.96666666666667,0.0,0.0,0.0,0.0,0.0,0.0,0.0,8815.0,0.0,55.0,5.0,242.74333333333334,1.0,0.0,0.0,0.0,0.0,0.0,1.0,0.0,0.7530000000000001,0.7530000000000001,0.0,0.0,1.0,55.0,616.79921,10000.0,85.000001,85.000001,85.000001,85.000001,395.0,0.0,0.0,0.0,1.0,333.33500000000004,52.826,52.826,50.278,50.278,34.0,-43.1825,52.13333333333333,9.9225,-5.635000000000002,0.0,1782.682,-1.379999999999999,100.0,27.519,27.948,40.166,41.329,0.0,0.0,100.0,0.0,0.0,0.0,0.0,2916.0,3121.6,3972.875,4308.6,306.039,304.76975,315.20975,314.21725,21.9842,20.5988,21.8956,21.5521,314.999998,314.999998,324.999988,324.999988,99.56348571428572,99.50941666666667,99.5658,99.55468571428571,-0.32179999999999986,0.5945,0.6485999999999998,-0.5062,-0.054999999999999716,-0.06833333333332803,1.517,1.472,38.402,29.7425,37.848,35.7005,59.001999999999995,36.0845,59.251,55.602000000000004,55.994,34.9285,57.7755,53.674,54.256,34.2205,57.613,52.9385,0.3334999999999999,0.5524999999999998,-0.5740857142857143,-0.5878142857142856,0.0,211.115,211.17000000000002,207.96666666666667,207.96666666666667,0.0,0.0
16,0.0,0.0,0.0,1.0,1.0,0.0,0.0,1.0,0.0,100.0,1.0,1.1856,26.0,0.0,0.0,0.0,59.999996,0.0,26.0,26.0,26.0,26.0,0.12722222222222213,0.2741,-0.012025000000000001,294.006,-3.9157,-3.75325,-1.6817000000000002,-1.5532222222222223,-222.43,216.0125,190.66425,0.0,0.0,0.0,0.0,0.03256666666666652,-5.498166666666667,-5.498166666666667,-0.5940000000000001,-0.8265,0.07862499999999994,0.351,67.57300000000001,0.09079999999999999,-0.2641,-1.4820000000000002,100.0,1.0,1.0,208.36,0.0,0.0,0.0,0.0,0.0,0.0,0.0,8831.6,0.0,55.0,5.0,243.23666666666668,0.0,0.0,0.0,0.0,0.0,0.0,1.0,0.0,0.8039999999999985,0.8039999999999985,0.0,0.0,0.0,55.0,616.79921,10000.0,85.000001,85.000001,85.000001,85.000001,395.0,0.0,0.0,0.0,1.0,333.33500000000004,52.887,52.887,49.82,49.82,34.0,-42.71,55.22833333333333,12.090000000000003,-3.995000000000001,0.0,1782.631,-1.0799999999999983,100.0,27.224,27.918,40.476,41.422,0.0,0.0,100.0,0.0,0.0,0.0,0.0,2859.75,3296.0,3903.125,4186.1,306.1983333333333,304.41175,315.2645,314.54575,21.994,20.6047,21.906,21.562,314.999998,314.999998,324.999988,324.999988,99.56352857142858,99.5095,99.56598571428572,99.55484285714286,-0.3305999999999998,0.5940000000000001,0.6808000000000001,-0.4767999999999999,-0.061666666666667425,-0.0833333333333286,1.525,1.478,38.463,29.7795,37.912,35.7625,58.992000000000004,36.1605,59.306,55.662,55.985,34.997,57.827,53.7315,54.2455,34.283500000000004,57.661,52.9955,0.3570000000000002,0.5284999999999997,-0.5745142857142856,-0.5952142857142857,0.0,211.505,211.57,208.36,208.36,0.0,0.0
17,0.0,0.0,0.0,1.0,1.0,0.0,0.0,1.0,0.0,100.0,1.0,1.1856,26.0,0.0,0.0,0.0,59.999996,0.0,26.0,26.0,26.0,26.0,0.131,0.27090000000000014,-0.02215,293.793,-3.9155,-3.7091250000000002,-1.7464,-1.6075555555555556,-218.98,215.9975,190.64175,0.0,0.0,0.0,0.0,0.03456666666666652,-5.498166666666667,-5.498166666666667,-0.5872,0.565,0.04774999999999996,-0.8089999999999999,67.707,0.10460000000000003,-0.24785000000000001,-1.0579999999999998,100.0,1.0,1.0,208.7866666666667,0.0,0.0,0.0,0.0,0.0,0.0,0.0,8849.7,0.0,55.0,5.0,243.72,1.0,0.0,0.0,0.0,0.0,0.0,1.0,0.0,0.8550000000000004,0.8550000000000004,0.0,0.0,1.0,55.0,616.79921,10000.0,85.000001,85.000001,85.000001,85.000001,395.0,0.0,0.0,0.0,1.0,333.33500000000004,52.612,52.612,50.095,50.095,34.0,-46.1025,50.45666666666666,12.627499999999998,-2.4924999999999997,0.0,1782.58,-1.004999999999999,100.0,27.599,28.347,40.066,41.432,0.0,0.0,100.0,0.0,0.0,0.0,0.0,3073.125,3045.5,4182.125,4177.0,305.70033333333333,305.0585,314.781,314.5375,22.0041,20.6107,21.9162,21.5718,314.999998,314.999998,324.999988,324.999988,99.56357142857142,99.50956666666667,99.56615714285714,99.555,-0.3285999999999998,0.5927500000000001,0.6904000000000001,-0.4635999999999998,-0.061666666666667425,-0.07166666666666544,1.516,1.4765000000000001,38.525999999999996,29.817,37.976,35.823499999999996,58.989000000000004,36.2375,59.358000000000004,55.7195,55.980999999999995,35.0665,57.875,53.7875,54.24,34.348,57.7055,53.05,0.363,0.516,-0.5823,-0.5815857142857144,0.0,211.965,212.01999999999998,208.7866666666667,208.7866666666667,0.0,0.0
18,0.0,0.0,0.0,1.0,1.0,0.0,0.0,1.0,0.0,100.0,1.0,1.1856,26.0,0.0,0.0,0.0,59.999996,0.0,26.0,26.0,26.0,26.0,0.13455555555555576,0.2691000000000001,-0.08045000000000001,293.747,-3.9491,-3.683125,-1.7635,-1.528888888888889,-215.73000000000002,215.985,190.62075,0.0,0.0,0.0,0.0,0.03643333333333332,-5.498166666666667,-5.498166666666667,-0.5932000000000001,-0.593,0.0714999999999999,-0.15200000000000002,67.83500000000001,0.09560000000000013,-0.26180000000000003,-0.8839999999999995,100.0,1.0,1.0,209.16333333333333,0.0,0.0,0.0,0.0,0.0,0.0,0.0,8865.6,0.0,55.0,5.0,244.18,0.0,0.0,0.0,0.0,0.0,0.0,1.0,0.0,0.9029999999999987,0.9029999999999987,0.0,0.0,0.0,55.0,616.79921,10000.0,85.000001,85.000001,85.000001,85.000001,395.0,0.0,0.0,0.0,1.0,166.665,52.643,52.643,49.82,49.82,34.0,-45.395,52.91,10.730000000000004,-5.085000000000001,0.0,1782.534,-0.8399999999999999,100.0,27.4,28.161,40.504,41.844,0.0,0.0,100.0,0.0,0.0,0.0,0.0,3015.625,3199.7,4023.0,4144.5,305.9216666666667,304.65425,315.1095,314.63675,22.0135,20.6162,21.926,21.5812,314.999998,314.999998,324.999988,324.999988,99.5636,99.50963333333333,99.56632857142857,99.55515714285714,-0.33840000000000003,0.58125,0.6678,-0.4915999999999998,-0.054999999999999716,-0.06499999999999773,1.508,1.4835,38.584,29.8515,38.038,35.8825,58.982,36.308,59.411,55.778,55.975,35.1295,57.9245,53.8435,54.2325,34.407,57.7515,53.1045,0.37049999999999983,0.5095000000000001,-0.5807714285714285,-0.5902142857142857,0.0,212.32999999999998,212.365,209.16333333333333,209.16333333333333,0.0,0.0
19,0.0,0.0,0.0,1.0,1.0,0.0,0.0,1.0,0.0,100.0,1.0,1.1856,26.0,0.0,0.0,0.0,59.999996,0.0,26.0,26.0,26.0,26.0,0.08722222222222209,0.27970000000000006,0.032625,293.167,-3.909,-3.681,-1.7610999999999999,-1.5264444444444443,-212.06,215.97750000000002,190.596875,0.0,0.0,0.0,0.0,0.03856666666666653,-5.498166666666667,-5.498166666666667,-0.5869,0.8594999999999999,0.06262499999999993,-1.017,67.976,0.0939000000000001,-0.252975,-0.4679999999999991,100.0,1.0,1.0,209.57999999999998,0.0,0.0,0.0,0.0,0.0,0.0,0.0,8883.3,0.0,55.0,5.0,244.68666666666667,1.0,0.0,0.0,0.0,0.0,0.0,1.0,0.0,0.9570000000000007,0.9570000000000007,0.0,0.0,1.0,55.0,616.79921,10000.0,85.000001,85.000001,85.000001,85.000001,395.0,0.0,0.0,0.0,1.0,166.665,51.757999999999996,51.757999999999996,49.683,49.683,34.0,-49.9825,53.29666666666667,11.5,-5.1525,0.0,1782.48,-0.00999999999999801,100.0,27.991,28.602,40.311,41.706,0.0,0.0,100.0,0.0,0.0,0.0,0.0,3187.25,3255.7,4217.25,4317.8,305.2866666666667,304.34,314.719,314.27625,22.0242,20.622700000000002,21.9369,21.5916,314.999998,314.999998,324.999988,324.999988,99.56365714285714,99.50971666666666,99.56651428571429,99.55531428571429,-0.39139999999999997,0.5355000000000001,0.6705999999999999,-0.488,-0.061666666666667425,-0.07666666666666799,1.512,1.487,38.650999999999996,29.892,38.105999999999995,35.9475,58.980999999999995,36.3885,59.4655,55.8405,55.974000000000004,35.202,57.975,53.903999999999996,54.2295,34.474000000000004,57.7985,53.164,0.43400000000000016,0.4464999999999999,-0.5836,-0.5809142857142857,0.0,212.82,212.845,209.57999999999998,209.57999999999998,0.0,0.0
20,0.0,0.0,0.0,1.0,1.0,0.0,0.0,1.0,0.0,100.0,1.0,1.1856,26.0,0.0,0.0,0.0,59.999996,0.0,26.0,26.0,26.0,26.0,0.055777777777777926,0.2679,-0.028025,293.381,-3.941,-3.761,-1.7288000000000001,-1.548888888888889,-208.8,215.97,190.575875,0.0,0.0,0.0,0.0,0.04046666666666654,-5.498166666666667,-5.498166666666667,-0.5884,-0.9319999999999999,0.050249999999999906,-0.884,68.104,0.06610000000000005,-0.258125,0.14000000000000057,100.0,1.0,1.0,209.83666666666667,0.0,0.0,0.0,0.0,0.0,0.0,0.0,8894.3,0.0,55.0,5.0,245.15,0.0,0.0,0.0,0.0,0.0,0.0,0.0,0.0,1.004999999999999,1.004999999999999,0.0,0.0,0.0,55.0,616.79921,10000.0,85.000001,85.000001,85.000001,85.000001,395.0,0.0,0.0,0.0,1.0,333.33500000000004,52.979,52.979,48.676,48.676,34.0,-44.99,48.53333333333333,10.307500000000005,-6.905000000000001,0.0,1782.43,0.26000000000000156,100.0,27.58,28.273,41.103,42.014,0.0,0.0,100.0,0.0,0.0,0.0,0.0,2877.625,3039.1,4313.125,4331.8,306.2866666666667,305.05175,314.379,314.14975,22.0334,20.6282,21.9468,21.601,314.999998,314.999998,324.999988,324.999988,99.56368571428571,99.50978333333333,99.5667,99.55548571428571,-0.42459999999999987,0.49375000000000013,0.6314000000000002,-0.5229999999999999,-0.05333333333332746,-0.05333333333332746,1.4409999999999998,1.4335,38.709,29.926499999999997,38.168,36.0065,58.979,36.4565,59.5225,55.903,55.97,35.263,58.0285,53.9645,54.2245,34.531,57.848,53.2235,0.46450000000000014,0.4169999999999998,-0.5857857142857144,-0.5838285714285715,0.0,213.195,213.16,209.83666666666667,209.83666666666667,0.0,0.0
21,0.0,0.0,0.0,1.0,1.0,0.0,0.0,1.0,0.0,100.0,1.0,1.1856,26.0,0.0,0.0,0.0,59.999996,0.0,26.0,26.0,26.0,26.0,0.021666666666666723,0.26380000000000003,-0.0771,293.777,-3.8294,-3.839125,-1.7221000000000002,-1.639888888888889,-205.51999999999998,215.965,190.554375,0.0,0.0,0.0,0.0,0.04236666666666655,-5.498166666666667,-5.498166666666667,-0.6154000000000001,0.42300000000000004,0.009624999999999995,-1.5670000000000002,68.225,0.031100000000000128,-0.27025,0.6799999999999997,100.0,1.0,1.0,210.49666666666667,0.0,0.0,0.0,0.0,0.0,0.0,0.0,8922.2,0.0,55.0,5.0,245.58333333333334,1.0,0.0,0.0,0.0,0.0,0.0,0.0,0.0,1.0530000000000008,1.0530000000000008,0.0,0.0,1.0,55.0,616.79921,10000.0,85.000001,85.000001,85.000001,85.000001,395.0,0.0,0.0,0.0,1.0,166.665,52.2,52.2,50.491,50.491,34.0,-51.1725,49.053333333333335,7.397500000000001,-6.57,0.0,1782.384,0.40000000000000213,100.0,27.979,28.237000000000002,40.677,41.424,0.0,0.0,100.0,0.0,0.0,0.0,0.0,3195.125,3063.6,3945.625,3910.2,305.24266666666665,304.892,315.3735,315.2365,22.0429,20.6338,21.9564,21.6102,314.999998,314.999998,324.999988,324.999988,99.56375714285714,99.50983333333333,99.56684285714286,99.55562857142857,-0.44619999999999993,0.472,0.5962000000000001,-0.5597999999999999,-0.06499999999999773,-0.046666666666666856,1.553,1.585,38.768,29.9615,38.227999999999994,36.0635,58.982,36.516999999999996,59.5625,55.9535,55.973,35.317,58.066,54.0135,54.2255,34.581,57.8825,53.271,0.4710000000000001,0.4095,-0.5839714285714286,-0.5902142857142857,0.0,213.60500000000002,213.535,210.49666666666667,210.49666666666667,0.0,0.0
22,0.0,0.0,0.0,1.0,1.0,0.0,0.0,1.0,0.0,100.0,1.0,1.1856,26.0,0.0,0.0,0.0,59.999996,0.0,26.0,26.0,26.0,26.0,-0.022333333333333316,0.25229999999999997,0.038875,293.182,-3.7854,-3.8695,-1.6960000000000002,-1.7,-201.84,215.96,190.52925,0.0,0.0,0.0,0.0,0.044533333333333314,-5.498166666666667,-5.498166666666667,-0.5916,0.08650000000000002,-0.0068749999999999645,-0.616,68.368,-0.018299999999999983,-0.24632500000000002,1.1239999999999997,100.0,1.0,1.0,210.68666666666667,0.0,0.0,0.0,0.0,0.0,0.0,0.0,8930.3,0.0,55.0,5.0,246.10000000000002,0.0,0.0,0.0,0.0,0.0,0.0,0.0,0.0,1.1069999999999993,1.1069999999999993,0.0,0.0,0.0,55.0,616.79921,10000.0,85.000001,85.000001,85.000001,85.000001,395.0,0.0,0.0,0.0,1.0,166.665,52.307,52.307,49.149,49.149,34.0,-49.81,47.528333333333336,5.237500000000004,-10.1525,0.0,1782.33,0.06500000000000128,100.0,28.233,28.162,41.318,41.481,0.0,0.0,100.0,0.0,0.0,0.0,0.0,3120.75,2997.8,4310.0,4224.0,305.43233333333336,305.06775,314.43925,314.394,22.0536,20.64,21.9676,21.6206,314.999998,314.999998,324.999988,324.999988,99.5638,99.5099,99.56702857142857,99.55581428571429,-0.45240000000000014,0.44875,0.5330000000000001,-0.6262000000000001,-0.07000000000000028,-0.06333333333333258,1.4325,1.4575,38.835,30.0,38.297,36.129,58.988,36.5845,59.618,56.0215,55.977999999999994,35.378,58.118,54.0785,54.2285,34.6375,57.9305,53.3345,0.44499999999999984,0.4295,-0.5807,-0.5900857142857143,0.0,214.07999999999998,213.97,210.68666666666667,210.68666666666667,0.0,0.0
23,0.0,0.0,0.0,1.0,1.0,0.0,0.0,1.0,0.0,100.0,1.0,1.1856,26.0,0.0,0.0,0.0,59.999996,0.0,26.0,26.0,26.0,26.0,-0.06077777777777782,0.24580000000000002,5e-05,293.182,-3.8017000000000003,-3.8341250000000002,-1.6144,-1.724,-198.55,215.95499999999998,190.507375,0.0,0.0,0.0,0.0,0.046433333333333326,-5.498166666666667,-5.498166666666667,-0.6097,-0.38749999999999996,-0.020624999999999893,-1.076,68.492,-0.045399999999999996,-0.27465,1.0,100.0,1.0,1.0,211.13,0.0,0.0,0.0,0.0,0.0,0.0,0.0,8949.0,0.0,55.0,5.0,246.54666666666668,1.0,0.0,0.0,0.0,0.0,0.0,0.0,0.0,1.1550000000000011,1.1550000000000011,0.0,0.0,1.0,55.0,616.79921,10000.0,85.000001,85.000001,85.000001,85.000001,395.0,0.0,0.0,0.0,1.0,333.33500000000004,51.879999999999995,51.879999999999995,49.85,49.85,34.0,-55.615,47.28333333333333,5.302500000000002,-10.05,0.0,1782.281,-0.03500000000000014,100.0,28.428,28.119,41.596000000000004,41.581,0.0,0.0,100.0,0.0,0.0,0.0,0.0,3405.5,3007.0,4083.5,4016.1000000000004,304.72066666666666,305.13575,314.891,314.82975,22.0631,20.6455,21.9775,21.63,314.999998,314.999998,324.999988,324.999988,99.56385714285715,99.50995,99.56718571428571,99.55598571428571,-0.47840000000000016,0.4452499999999999,0.5187999999999999,-0.6424000000000001,-0.060000000000002274,-0.060000000000002274,1.444,1.4825,38.894,30.0345,38.358999999999995,36.187,58.995000000000005,36.6445,59.664500000000004,56.0835,55.983999999999995,35.432,58.161,54.138,54.2315,34.687,57.9705,53.3925,0.43800000000000017,0.4464999999999999,-0.5861142857142856,-0.5878,0.0,214.43,214.335,211.13,211.13,0.0,0.0
24,0.0,0.0,0.0,1.0,1.0,0.0,0.0,1.0,0.0,100.0,1.0,1.1856,26.0,0.0,0.0,0.0,59.999996,0.0,26.0,26.0,26.0,26.0,-0.0802222222222222,0.26980000000000004,-0.074825,293.533,-3.8081,-3.8635,-1.645,-1.6764444444444444,-195.05,215.945,190.483625,0.0,0.0,0.0,0.0,0.04846666666666655,-5.498166666666667,-5.498166666666667,-0.6128,-0.5295000000000001,-0.021500000000000075,1.0380000000000003,68.623,-0.0645,-0.257875,0.8840000000000003,100.0,1.0,1.0,211.49666666666667,0.0,0.0,0.0,0.0,0.0,0.0,0.0,8964.5,0.0,55.0,5.0,247.01666666666665,0.0,0.0,0.0,0.0,0.0,0.0,0.0,0.0,1.2059999999999995,1.2059999999999995,0.0,0.0,0.0,55.0,616.79921,10000.0,85.000001,85.000001,85.000001,85.000001,395.0,0.0,0.0,0.0,1.0,166.665,52.994,52.994,49.149,49.149,34.0,-47.4075,45.12833333333333,4.789999999999999,-11.0,0.0,1782.231,-0.33500000000000085,100.0,28.438,27.603,41.724000000000004,41.22,0.0,0.0,100.0,0.0,0.0,0.0,0.0,2955.625,2910.3,4316.375,4107.6,305.84433333333334,305.66225,314.2865,314.78975,22.0732,20.6512,21.9879,21.6397,314.999998,314.999998,324.999988,324.999988,99.56391428571429,99.51,99.56734285714286,99.55615714285715,-0.46899999999999986,0.4475,0.5112000000000001,-0.6444000000000001,-0.05666666666667197,-0.07000000000000028,1.4569999999999999,1.4855,38.957,30.0705,38.424,36.2485,59.001999999999995,36.704499999999996,59.712,56.147,55.989999999999995,35.4855,58.2055,54.199,54.235,34.7365,58.0115,53.451499999999996,0.42200000000000015,0.4634999999999998,-0.5805,-0.5811714285714285,0.0,214.835,214.755,211.49666666666667,211.49666666666667,0.0,0.0
25,0.0,0.0,0.0,1.0,1.0,0.0,0.0,1.0,0.0,100.0,1.0,1.1856,26.0,0.0,0.0,0.0,59.999996,0.0,26.0,26.0,26.0,26.0,-0.0835555555555555,0.2672000000000001,-0.065475,293.579,-3.7915,-3.866,-1.6632,-1.6768888888888889,-191.76,215.9375,190.459875,0.0,0.0,0.0,0.0,0.05036666666666656,-5.498166666666667,-5.498166666666667,-0.6483,-0.21399999999999997,-0.01650000000000018,0.08099999999999996,68.744,-0.0695,-0.26930000000000004,0.41600000000000037,100.0,1.0,1.0,212.01333333333332,0.0,0.0,0.0,0.0,0.0,0.0,0.0,8986.5,0.0,55.0,5.0,247.45333333333335,1.0,0.0,0.0,0.0,0.0,0.0,0.0,0.0,1.2540000000000013,1.2540000000000013,0.0,0.0,1.0,55.0,616.79921,10000.0,85.000001,85.000001,85.000001,85.000001,395.0,0.0,0.0,0.0,1.0,333.33500000000004,52.138999999999996,52.138999999999996,49.988,49.988,34.0,-51.042500000000004,50.77333333333333,3.7850000000000037,-10.440000000000001,0.0,1782.181,-0.3299999999999983,100.0,28.365000000000002,27.769,41.511,40.933,0.0,0.0,100.0,0.0,0.0,0.0,0.0,3150.625,3211.3,3928.0,3978.6000000000004,305.28833333333336,304.66325,315.31525,315.116,22.0825,20.6567,21.9976,21.6489,314.999998,314.999998,324.999988,324.999988,99.56397142857143,99.51005,99.5675,99.55632857142857,-0.4715999999999998,0.44475,0.5076,-0.6444000000000001,-0.06333333333333258,-0.07000000000000028,1.5234999999999999,1.568,39.016,30.1045,38.485,36.3055,59.006,36.7625,59.7535,56.205,55.994,35.5375,58.2445,54.254999999999995,54.237,34.785,58.0475,53.506,0.4115000000000002,0.4714999999999998,-0.5747,-0.5877571428571429,0.0,215.19,215.135,212.01333333333332,212.01333333333332,0.0,0.0
26,0.0,0.0,0.0,1.0,1.0,0.0,0.0,1.0,0.0,100.0,1.0,1.1856,26.0,0.0,0.0,0.0,59.999996,0.0,26.0,26.0,26.0,26.0,-0.06855555555555548,0.2701,0.07095,292.297,-3.8173,-3.9035,-1.6998000000000002,-1.6785555555555558,-188.25,215.925,190.434,0.0,0.0,0.0,0.0,0.05243333333333333,-5.498166666666667,-5.498166666666667,-0.6107,0.8665,-0.04700000000000015,-0.899,68.877,-0.057599999999999985,-0.24020000000000002,0.5579999999999998,100.0,1.0,1.0,212.18,0.0,0.0,0.0,0.0,0.0,0.0,0.0,8993.6,0.0,55.0,5.0,247.93,0.0,0.0,0.0,0.0,0.0,0.0,0.0,0.0,1.3049999999999997,1.3049999999999997,0.0,0.0,0.0,55.0,616.79921,10000.0,85.000001,85.000001,85.000001,85.000001,395.0,0.0,0.0,0.0,1.0,166.665,51.224000000000004,51.224000000000004,48.431,48.431,34.0,-54.7525,48.415,4.267499999999998,-12.162500000000001,0.0,1782.132,-0.370000000000001,100.0,29.173000000000002,28.624,41.8,41.253,0.0,0.0,100.0,0.0,0.0,0.0,0.0,3354.5,3043.7,4590.125,4389.1,304.7903333333333,304.89875,313.84475,314.074,22.0929,20.6628,22.0081,21.6588,314.999998,314.999998,324.999988,324.999988,99.56404285714285,99.51011666666666,99.56767142857143,99.5565,-0.4687999999999999,0.43900000000000006,0.5112000000000001,-0.647,-0.07833333333332604,-0.07000000000000028,1.4,1.432,39.081,30.1425,38.551,36.367,59.018,36.828,59.803,56.2705,56.004000000000005,35.5965,58.2905,54.318,54.245,34.8395,58.0905,53.567,0.41000000000000014,0.4664999999999999,-0.5877714285714285,-0.5866571428571428,0.0,215.65,215.60000000000002,212.18,212.18,0.0,0.0
27,0.0,0.0,0.0,1.0,1.0,0.0,0.0,1.0,0.0,100.0,1.0,1.1856,26.0,0.0,0.0,0.0,59.999996,0.0,26.0,26.0,26.0,26.0,-0.06177777777777782,0.25760000000000005,-0.0053750000000000004,292.618,-3.7934,-3.865125,-1.6961,-1.7447777777777778,-184.94,215.9125,190.411,0.0,0.0,0.0,0.0,0.054333333333333345,-5.498166666666667,-5.498166666666667,-0.6292,-1.0985,-0.038374999999999826,-0.53,68.999,-0.05279999999999996,-0.28445000000000004,0.3879999999999999,100.0,1.0,1.0,212.58666666666667,0.0,0.0,0.0,0.0,0.0,0.0,0.0,9010.7,0.0,55.0,5.0,248.37,1.0,0.0,0.0,0.0,0.0,0.0,0.0,0.0,1.352999999999998,1.352999999999998,0.0,0.0,1.0,55.0,616.79921,10000.0,85.000001,85.000001,85.000001,85.000001,395.0,0.0,0.0,0.0,1.0,333.33500000000004,51.743,51.743,48.66,48.66,34.0,-52.075,48.14666666666667,4.0075,-10.11,0.0,1782.083,-0.5649999999999977,100.0,28.814,28.372,42.54,41.955,0.0,0.0,100.0,0.0,0.0,0.0,0.0,3246.5,3030.9,4205.375,4139.8,305.10566666666665,305.075,314.63225,314.511,22.1024,20.6683,22.0181,21.6683,314.999998,314.999998,324.999988,324.999988,99.5641,99.51016666666666,99.56782857142858,99.55668571428572,-0.4495999999999998,0.4590000000000001,0.5132000000000001,-0.641,-0.05833333333333002,-0.06333333333333258,1.4285,1.458,39.14,30.177,38.613,36.4265,59.024,36.8865,59.8525,56.335499999999996,56.009,35.649,58.337,54.379999999999995,54.247,34.888,58.1335,53.6275,0.3915000000000002,0.48199999999999976,-0.5816714285714285,-0.5849571428571428,0.0,215.965,215.91,212.58666666666667,212.58666666666667,0.0,0.0
28,0.0,0.0,0.0,1.0,1.0,0.0,0.0,1.0,0.0,100.0,1.0,1.1856,26.0,0.0,0.0,0.0,59.999996,0.0,26.0,26.0,26.0,26.0,-0.06311111111111112,0.2642,-0.0546,293.091,-3.8196,-3.8520000000000003,-1.6449,-1.706888888888889,-181.42000000000002,215.8975,190.386,0.0,0.0,0.0,0.0,0.056400000000000006,-5.498166666666667,-5.498166666666667,-0.6412,0.599,-0.03887499999999999,0.772,69.124,-0.038799999999999946,-0.26577500000000004,0.13600000000000012,100.0,1.0,1.0,213.14333333333332,0.0,0.0,0.0,0.0,0.0,0.0,0.0,9034.4,0.0,55.0,5.0,248.82333333333332,0.0,0.0,0.0,0.0,0.0,0.0,0.0,0.0,1.404,1.404,0.0,0.0,0.0,55.0,616.79921,10000.0,85.000001,85.000001,85.000001,85.000001,395.0,0.0,0.0,0.0,1.0,333.33500000000004,51.819,51.819,49.667,49.667,34.0,-51.2375,49.48166666666667,5.602499999999999,-8.620000000000001,0.0,1782.031,-0.6499999999999986,100.0,28.959,28.188,41.851,41.338,0.0,0.0,100.0,0.0,0.0,0.0,0.0,3200.75,3098.7,4034.5,4079.5,305.1116666666667,305.036,315.04925,314.89575,22.1126,20.6743,22.0283,21.678,314.999998,314.999998,324.999988,324.999988,99.56415714285714,99.51023333333333,99.568,99.55685714285714,-0.4312,0.48350000000000004,0.5354000000000001,-0.6094000000000002,-0.06666666666666998,-0.05833333333333002,1.5215,1.5194999999999999,39.204,30.214,38.677,36.4875,59.031,36.955,59.897999999999996,56.399,56.015,35.71,58.3795,54.441,54.2505,34.9445,58.172,53.6865,0.3839999999999999,0.49449999999999994,-0.5797714285714285,-0.5834285714285714,0.0,216.375,216.345,213.14333333333332,213.14333333333332,0.0,0.0
29,0.0,0.0,0.0,1.0,1.0,0.0,0.0,1.0,0.0,100.0,1.0,1.1856,26.0,0.0,0.0,0.0,59.999996,0.0,26.0,26.0,26.0,26.0,-0.021333333333333315,0.2603,0.018725000000000002,292.618,-3.7807,-3.79325,-1.6868,-1.6762222222222223,-177.89,215.88,190.359625,0.0,0.0,0.0,0.0,0.05843333333333334,-5.498166666666667,-5.498166666666667,-0.6384000000000001,-0.7455,-0.025500000000000078,-0.379,69.256,-0.028200000000000003,-0.253875,-0.02799999999999958,100.0,1.0,1.0,213.32999999999998,0.0,0.0,0.0,0.0,0.0,0.0,0.0,9042.2,0.0,55.0,5.0,249.29666666666668,1.0,0.0,0.0,0.0,0.0,0.0,0.0,0.0,1.4549999999999983,1.4549999999999983,0.0,0.0,1.0,55.0,616.79921,10000.0,85.000001,85.000001,85.000001,85.000001,395.0,0.0,0.0,0.0,1.0,166.665,51.849000000000004,51.849000000000004,48.447,48.447,34.0,-51.365,51.18833333333333,6.615000000000002,-9.317499999999999,0.0,1781.982,-0.7699999999999996,100.0,28.407,28.174,42.058,41.744,0.0,0.0,100.0,0.0,0.0,0.0,0.0,3251.125,3183.7,4370.375,4279.8,305.1206666666667,304.70725,314.29675,314.28175,22.1225,20.6801,22.038899999999998,21.688,314.999998,314.999998,324.999988,324.999988,99.56421428571429,99.51028333333333,99.56817142857143,99.55702857142857,-0.4232,0.4922500000000001,0.5528,-0.601,-0.06499999999999773,-0.061666666666667425,1.4354999999999998,1.4255,39.266,30.250999999999998,38.742999999999995,36.55,59.032,37.015,59.946,56.460499999999996,56.016,35.763999999999996,58.4245,54.5,54.25,34.9945,58.214,53.744,0.3799999999999999,0.5009999999999999,-0.5841285714285714,-0.5862428571428571,0.0,216.76999999999998,216.715,213.32999999999998,213.32999999999998,0.0,0.0
30,0.0,0.0,0.0,1.0,1.0,0.0,0.0,1.0,0.0,100.0,1.0,1.1856,26.0,0.0,0.0,0.0,59.999996,0.0,26.0,26.0,26.0,26.0,-0.016111111111111076,0.2755000000000001,0.047025000000000004,292.145,-3.8358,-3.772125,-1.637,-1.7284444444444444,-174.56,215.865,190.33475,0.0,0.0,0.0,0.0,0.06036666666666657,-5.498166666666667,-5.498166666666667,-0.645,0.745,-0.025125000000000064,-0.829,69.374,-0.010499999999999954,-0.26595,-0.19599999999999973,100.0,1.0,1.0,213.79333333333335,0.0,0.0,0.0,0.0,0.0,0.0,0.0,9061.9,0.0,55.0,5.0,249.72,0.0,0.0,0.0,0.0,0.0,0.0,1.0,0.0,1.5030000000000001,1.5030000000000001,0.0,0.0,0.0,55.0,616.79921,10000.0,85.000001,85.000001,85.000001,85.000001,395.0,0.0,0.0,0.0,1.0,333.33500000000004,50.735,50.735,48.874,48.874,34.0,-55.5725,51.76,7.770000000000003,-7.772500000000001,0.0,1781.932,-0.754999999999999,100.0,29.131999999999998,29.019,41.858000000000004,41.846000000000004,0.0,0.0,100.0,0.0,0.0,0.0,0.0,3485.5,3182.5,4234.625,4282.4,304.5303333333333,304.45725,314.5945,314.22875,22.1322,20.686,22.0486,21.6973,314.999998,314.999998,324.999988,324.999988,99.56425714285714,99.51035,99.56832857142857,99.55718571428571,-0.41500000000000004,0.49524999999999997,0.5652000000000001,-0.5874000000000001,-0.07000000000000028,-0.060000000000002274,1.4594999999999998,1.455,39.326,30.2875,38.804,36.6085,59.039,37.082,59.9895,56.519,56.021,35.824,58.465,54.5565,54.2535,35.05,58.2515,53.798500000000004,0.3740000000000001,0.49549999999999983,-0.5743142857142857,-0.5849571428571428,0.0,217.14,217.135,213.79333333333335,213.79333333333335,0.0,0.0
31,0.0,0.0,0.0,1.0,1.0,0.0,0.0,1.0,0.0,100.0,1.0,1.1856,26.0,0.0,0.0,0.0,59.999996,0.0,26.0,26.0,26.0,26.0,0.019444444444444375,0.2630000000000001,0.041375,292.084,-3.8369,-3.850375,-1.725,-1.62,-171.01999999999998,215.8475,190.309,0.0,0.0,0.0,0.0,0.06243333333333334,-5.498166666666667,-5.498166666666667,-0.6223000000000001,-0.5425,-0.00812500000000016,0.776,69.503,0.0045999999999999375,-0.258875,-0.44200000000000017,100.0,1.0,1.0,214.04666666666668,0.0,0.0,0.0,0.0,0.0,0.0,0.0,9072.7,0.0,55.0,5.0,250.18666666666667,1.0,0.0,0.0,0.0,0.0,0.0,1.0,0.0,1.5539999999999985,1.5539999999999985,0.0,0.0,1.0,55.0,616.79921,10000.0,85.000001,85.000001,85.000001,85.000001,395.0,0.0,0.0,0.0,1.0,166.665,51.575,51.575,47.455,47.455,34.0,-45.9175,52.111666666666665,8.395000000000003,-8.34,0.0,1781.883,-0.754999999999999,100.0,29.084,28.867,42.524,42.47,0.0,0.0,100.0,0.0,0.0,0.0,0.0,2966.25,3197.2,4408.375,4339.7,305.8226666666667,304.66275,314.0995,314.162,22.1423,20.6921,22.0592,21.7075,314.999998,314.999998,324.999988,324.999988,99.56431428571429,99.51041666666667,99.56851428571429,99.55737142857143,-0.38859999999999983,0.5082500000000001,0.5912000000000002,-0.5654000000000001,-0.054999999999999716,-0.060000000000002274,1.4135,1.3940000000000001,39.388999999999996,30.325499999999998,38.870000000000005,36.672,59.041,37.1505,60.0435,56.585,56.022999999999996,35.8855,58.5155,54.62,54.253,35.107,58.298,53.8605,0.3740000000000001,0.49650000000000016,-0.5809571428571428,-0.5872142857142857,0.0,217.525,217.525,214.04666666666668,214.04666666666668,0.0,0.0
32,0.0,0.0,0.0,1.0,1.0,0.0,0.0,1.0,0.0,100.0,1.0,1.1856,26.0,0.0,0.0,0.0,59.999996,0.0,26.0,26.0,26.0,26.0,0.003555555555555534,0.25460000000000016,-0.062775,292.48,-3.8476,-3.84775,-1.7549000000000001,-1.6257777777777778,-167.26,215.82999999999998,190.282,0.0,0.0,0.0,0.0,0.06463333333333332,-5.498166666666667,-5.498166666666667,-0.6446000000000001,0.11449999999999994,-0.028875000000000206,-0.05599999999999994,69.633,0.021700000000000053,-0.27255,-0.4079999999999995,100.0,1.0,1.0,214.64,0.0,0.0,0.0,0.0,0.0,0.0,0.0,9097.8,0.0,55.0,5.0,250.65333333333334,0.0,0.0,0.0,0.0,0.0,0.0,1.0,0.0,1.6080000000000005,1.6080000000000005,0.0,0.0,0.0,55.0,616.79921,10000.0,85.000001,85.000001,85.000001,85.000001,395.0,0.0,0.0,0.0,1.0,166.665,51.3,51.3,48.766999999999996,48.766999999999996,34.0,-49.865,51.83166666666666,8.162500000000001,-6.460000000000001,0.0,1781.829,-0.6050000000000004,100.0,28.988,28.976,42.131,42.272,0.0,0.0,100.0,0.0,0.0,0.0,0.0,3184.75,3185.2,4153.5,4194.9,305.2033333333333,304.7305,314.88025,314.68125,22.1528,20.6987,22.0702,21.718,314.999998,314.999998,324.999988,324.999988,99.56437142857143,99.51048333333334,99.56868571428572,99.55755714285715,-0.38659999999999983,0.5097499999999999,0.6088,-0.5415999999999999,-0.05666666666667197,-0.07166666666666544,1.504,1.4849999999999999,39.455,30.366999999999997,38.939,36.7375,59.043,37.2255,60.0945,56.6485,56.024,35.9525,58.563,54.681,54.251999999999995,35.169,58.342,53.92,0.38149999999999995,0.48,-0.5826,-0.5812428571428572,0.0,217.91,217.925,214.64,214.64,0.0,0.0
33,0.0,0.0,0.0,1.0,1.0,0.0,0.0,1.0,0.0,100.0,1.0,1.1856,26.0,0.0,0.0,0.0,59.999996,0.0,26.0,26.0,26.0,26.0,0.034666666666666845,0.2551000000000001,-0.004525,292.526,-3.8534,-3.827875,-1.7080000000000002,-1.7093333333333334,-164.13,215.815,190.258625,0.0,0.0,0.0,0.0,0.06643333333333334,-5.498166666666667,-5.498166666666667,-0.6478,-0.29200000000000004,-0.03175000000000017,0.10000000000000009,69.74600000000001,0.02629999999999999,-0.2594,-0.10400000000000009,100.0,1.0,1.0,214.89,0.0,0.0,0.0,0.0,0.0,0.0,0.0,9108.4,0.0,55.0,5.0,251.06,1.0,0.0,0.0,0.0,0.0,0.0,1.0,0.0,1.6529999999999987,1.6529999999999987,0.0,0.0,1.0,55.0,616.79921,10000.0,85.000001,85.000001,85.000001,85.000001,395.0,0.0,0.0,0.0,1.0,166.665,51.834,51.834,48.522999999999996,48.522999999999996,34.0,-48.385,49.32666666666667,8.530000000000001,-6.775000000000002,0.0,1781.783,-0.7349999999999994,100.0,28.789,28.855,42.061,42.375,0.0,0.0,100.0,0.0,0.0,0.0,0.0,3132.5,3033.9,4280.125,4231.9,305.563,305.12075,314.5405,314.4645,22.1616,20.704,22.0794,21.7268,314.999998,314.999998,324.999988,324.999988,99.5644,99.51053333333333,99.56884285714285,99.5577,-0.3839999999999999,0.5217499999999999,0.5964,-0.5668,-0.05666666666667197,-0.06499999999999773,1.472,1.452,39.51,30.4,38.995999999999995,36.792500000000004,59.043,37.284,60.1385,56.702,56.024,36.004999999999995,58.6045,54.7325,54.2505,35.218,58.379999999999995,53.97,0.3799999999999999,0.49549999999999983,-0.5839142857142856,-0.5914571428571429,0.0,218.265,218.275,214.89,214.89,0.0,0.0
34,0.0,0.0,0.0,1.0,1.0,0.0,0.0,1.0,0.0,100.0,1.0,1.1856,26.0,0.0,0.0,0.0,59.999996,0.0,26.0,26.0,26.0,26.0,0.021666666666666723,0.26039999999999996,-0.0551,292.74,-3.8907,-3.7593750000000004,-1.7504,-1.663888888888889,-160.36,215.7975,190.22925,0.0,0.0,0.0,0.0,0.06863333333333332,-5.498166666666667,-5.498166666666667,-0.678,-0.8095000000000001,0.006750000000000034,-0.15500000000000003,69.878,0.028299999999999992,-0.268775,-0.25399999999999956,100.0,1.0,1.0,215.32333333333332,0.0,0.0,0.0,0.0,0.0,0.0,0.0,9126.8,0.0,55.0,5.0,251.53666666666666,0.0,0.0,0.0,0.0,0.0,0.0,1.0,0.0,1.7070000000000007,1.7070000000000007,0.0,0.0,0.0,55.0,616.79921,10000.0,85.000001,85.000001,85.000001,85.000001,395.0,0.0,0.0,0.0,1.0,166.665,51.879999999999995,51.879999999999995,49.376999999999995,49.376999999999995,34.0,-50.51,49.81666666666667,7.454999999999998,-6.484999999999999,0.0,1781.73,-0.8599999999999994,100.0,28.479,28.576999999999998,41.817,42.472,0.0,0.0,100.0,0.0,0.0,0.0,0.0,3249.625,3059.4,4090.0,4213.6,305.251,305.0835,315.021,314.4575,22.172,20.7103,22.0903,21.7374,314.999998,314.999998,324.999988,324.999988,99.56445714285714,99.51061666666666,99.56902857142857,99.55788571428572,-0.37959999999999994,0.5375000000000001,0.5964,-0.5502,-0.07833333333332604,-0.061666666666667425,1.4899999999999998,1.471,39.575,30.439500000000002,39.065,36.8585,59.042,37.3555,60.1885,56.7675,56.022999999999996,36.0695,58.6515,54.795500000000004,54.247,35.2775,58.423,54.031,0.36850000000000005,0.5089999999999999,-0.5803857142857143,-0.5841,0.0,218.67000000000002,218.655,215.32333333333332,215.32333333333332,0.0,0.0
35,0.0,0.0,0.0,1.0,1.0,0.0,0.0,1.0,0.0,100.0,1.0,1.1856,26.0,0.0,0.0,0.0,59.999996,0.0,26.0,26.0,26.0,26.0,0.07277777777777783,0.2612000000000001,-0.08555,292.847,-3.9256,-3.761625,-1.7368000000000001,-1.6477777777777778,-157.0,215.785,190.201375,0.0,0.0,0.0,0.0,0.0706,-5.498166666666667,-5.498166666666667,-0.7178,-0.5265,-0.000500000000000167,-0.8009999999999999,69.994,0.03550000000000009,-0.276075,-0.6120000000000001,100.0,1.0,1.0,215.73000000000002,0.0,0.0,0.0,0.0,0.0,0.0,0.0,9144.1,0.0,55.0,5.0,251.95666666666665,1.0,0.0,0.0,0.0,0.0,0.0,1.0,0.0,1.754999999999999,1.754999999999999,0.0,0.0,1.0,55.0,616.79921,10000.0,85.000001,85.000001,85.000001,85.000001,395.0,0.0,0.0,0.0,1.0,333.33500000000004,51.834,51.834,48.629999999999995,48.629999999999995,34.0,-48.5625,54.373333333333335,8.71,-5.425000000000001,0.0,1781.681,-0.6699999999999982,100.0,28.231,28.740000000000002,41.649,42.064,0.0,0.0,100.0,0.0,0.0,0.0,0.0,3128.875,3293.2,4126.25,4029.2,305.64166666666665,304.2985,314.80375,315.01425,22.1811,20.7162,22.1,21.7466,314.999998,314.999998,324.999988,324.999988,99.5645,99.51066666666667,99.5692,99.55805714285714,-0.3862000000000001,0.53525,0.615,-0.5329999999999999,-0.06833333333332803,-0.06666666666666998,1.5274999999999999,1.4935,39.632,30.476,39.125,36.9165,59.038,37.422,60.2335,56.820499999999996,56.018,36.129,58.693,54.847,54.241,35.333,58.461,54.0815,0.383,0.4979999999999998,-0.5777857142857143,-0.5869142857142857,0.0,219.01999999999998,219.035,215.73000000000002,215.73000000000002,0.0,0.0
36,0.0,0.0,0.0,1.0,1.0,0.0,0.0,1.0,0.0,100.0,1.0,1.1856,26.0,0.0,0.0,0.0,59.999996,0.0,26.0,26.0,26.0,26.0,0.037111111111111095,0.2642,-0.022600000000000002,292.16,-3.9279,-3.793875,-1.7371,-1.6514444444444443,-153.64,215.76999999999998,190.172,0.0,0.0,0.0,0.0,0.07253333333333334,-5.498166666666667,-5.498166666666667,-0.7013,0.5085,-0.03962500000000002,-1.818,70.112,0.0504,-0.24350000000000002,-0.3860000000000001,100.0,1.0,1.0,215.93666666666667,0.0,0.0,0.0,0.0,0.0,0.0,0.0,9152.8,0.0,55.0,5.0,252.38,0.0,0.0,0.0,0.0,0.0,0.0,1.0,0.0,1.8030000000000008,1.8030000000000008,0.0,0.0,0.0,55.0,616.79921,10000.0,85.000001,85.000001,85.000001,85.000001,395.0,0.0,0.0,0.0,1.0,333.33500000000004,51.468,51.468,48.325,48.325,34.0,-51.8525,50.95833333333333,10.245000000000005,-5.9725,0.0,1781.632,-0.34999999999999787,100.0,28.641,29.109,41.582,42.178,0.0,0.0,100.0,0.0,0.0,0.0,0.0,3278.125,3124.9,4497.625,4449.8,305.20633333333336,304.79425,314.14,313.942,22.1904,20.7222,22.1098,21.756,314.999998,314.999998,324.999988,324.999988,99.56455714285714,99.51075,99.56937142857143,99.55821428571429,-0.40579999999999994,0.5175000000000001,0.6242000000000001,-0.53,-0.05833333333333002,-0.061666666666667425,1.4365,1.4175,39.69,30.5135,39.186,36.975,59.039,37.4905,60.28,56.876,56.019,36.191,58.7365,54.9005,54.24,35.39,58.501,54.1335,0.40649999999999986,0.46450000000000014,-0.5826428571428571,-0.5807,0.0,219.425,219.435,215.93666666666667,215.93666666666667,0.0,0.0
