,ABS Active,ABS Enabled,AID Allow Tire Blankets,AID Auto Blip,AID Auto Clutch,AID Auto Shift,AID Fuel Rate,AID Ideal Line,AID Mech Damage,AID Stability,AID Tire Wear Rate,Air Density,Air Temp,Ballast,Best Lap Delta,Best Lap Time,Brake Bias,Brake Pos,Brake Temp FL,Brake Temp FR,Brake Temp RL,Brake Temp RR,CG Accel Lateral,CG Accel Longitudinal,CG Accel Vertical,CG Height,Camber FL,Camber FR,Camber RL,Camber RR,Car Coord X,Car Coord Y,Car Coord Z,Car Damage Front,Car Damage Left,Car Damage Rear,Car Damage Right,Car Pos Norm,Caster FL,Caster FR,Chassis Pitch Angle,Chassis Pitch Rate,Chassis Roll Angle,Chassis Roll Rate,Chassis Velocity X,Chassis Velocity Y,Chassis Velocity Z,Chassis Yaw Rate,Clutch Pos,DRS Active,DRS Available,Drive Train Speed,ERS Heat Charging,ERS Is Charging,ERS Max Energy,ERS Power Level,ERS Recovery Level,Engine Brake Setting,Engine Limiter,Engine RPM,Flags,Fuel Level,Gear,Ground Speed,HR Sample Clock,In Pit,KERS Charge,KERS Deployed Energy,KERS Input,KERS Max Energy,LR Sample Clock,Lap Invalidated,Lap Time,Lap Time2,Last Lap Time,Last Sector Time,MR Sample Clock,Max Fuel,Max Power,Max RPM,Max Sus Travel FL,Max Sus Travel FR,Max Sus Travel RL,Max Sus Travel RR,Max Torque,Max Turbo Boost,Num Tires Off Track,Penalties Enabled,Position,Raw Data Sample Rate,Ride Height FL,Ride Height FR,Ride Height RL,Ride Height RR,Road Temp,Self Align Torque FL,Self Align Torque FR,Self Align Torque RL,Self Align Torque RR,Session Lap Count,Session Time Left,Steering Angle,Surface Grip,Suspension Travel FL,Suspension Travel FR,Suspension Travel RL,Suspension Travel RR,TC Active,TC Enabled,Throttle Pos,Tire Dirt Level FL,Tire Dirt Level FR,Tire Dirt Level RL,Tire Dirt Level RR,Tire Load FL,Tire Load FR,Tire Load RL,Tire Load RR,Tire Loaded Radius FL,Tire Loaded Radius FR,Tire Loaded Radius RL,Tire Loaded Radius RR,Tire Pressure FL,Tire Pressure FR,Tire Pressure RL,Tire Pressure RR,Tire Radius FL,Tire Radius FR,Tire Radius RL,Tire Radius RR,Tire Rubber Grip FL,Tire Rubber Grip FR,Tire Rubber Grip RL,Tire Rubber Grip RR,Tire Slip Angle FL,Tire Slip Angle FR,Tire Slip Angle RL,Tire Slip Angle RR,Tire Slip Ratio FL,Tire Slip Ratio FR,Tire Slip Ratio RL,Tire Slip Ratio RR,Tire Temp Core FL,Tire Temp Core FR,Tire Temp Core RL,Tire Temp Core RR,Tire Temp Inner FL,Tire Temp Inner FR,Tire Temp Inner RL,Tire Temp Inner RR,Tire Temp Middle FL,Tire Temp Middle FR,Tire Temp Middle RL,Tire Temp Middle RR,Tire Temp Outer FL,Tire Temp Outer FR,Tire Temp Outer RL,Tire Temp Outer RR,Toe In FL,Toe In FR,Toe In RL,Toe In RR,Turbo Boost,Wheel Angular Speed FL,Wheel Angular Speed FR,Wheel Angular Speed RL,Wheel Angular Speed RR,Wind Direction,Wind Speed
0,0.0,0.0,0.0,1.0,1.0,0.0,0.0,1.0,0.0,100.0,1.0,1.1856,26.0,0.0,0.0,0.0,59.99999,0.0,26.0,26.0,26.0,26.0,-0.07375,0.30730000000000013,0.0916,294.571,-2.8284000000000002,-2.8040000000000003,-1.611,-1.676,-275.52,216.3075,190.98725,0.0,0.0,0.0,0.0,0.0016666666666665941,-5.498166666666667,-5.498166666666667,-0.5683,1.5053333333333332,-0.023499999999999854,-0.6540000000000001,65.465,-0.05989999999999995,-0.23722500000000002,0.8600000000000003,100.0,1.0,1.0,202.02666666666667,0.0,0.0,0.0,0.0,0.0,0.0,0.0,8563.2,0.0,55.0,5.0,235.64666666666668,0.0,0.0,0.0,0.0,0.0,0.0,0.0,0.0,0.006000000000000227,0.006000000000000227,0.0,0.0,0.0,55.0,616.79921,10000.0,85.0,85.0,85.0,85.0,395.0,0.0,0.0,0.0,1.0,20.0,52.628,52.628,50.583,50.583,34.0,-39.25,39.208,-5.833333333333329,-0.34750000000000014,0.0,1783.52,0.5850000000000009,100.0,27.818,27.036,39.425,39.092,0.0,0.0,100.0,0.0,0.0,0.0,0.0,2988.875,3357.0,4183.875,4022.9,305.773,304.141,314.64,314.84,21.8281,20.5019,21.720666666666666,21.3736,314.99999,314.99999,324.99998,324.99998,99.56228571428571,99.50733333333334,99.56165714285714,99.54935714285715,-0.35450000000000004,0.22225,0.3196666666666667,-0.4425,-0.045000000000001705,-0.09499999999999886,1.4886666666666666,1.5403333333333333,37.426,29.136666666666667,36.754000000000005,34.585,57.852000000000004,34.3825,57.9155,53.4555,55.602000000000004,33.576,56.5,51.6235,54.650999999999996,33.1575,56.376999999999995,50.923500000000004,0.31700000000000017,0.22566666666666624,-0.38211428571428574,-0.37782857142857146,0.0,205.15,205.07999999999998,202.02666666666667,202.02666666666667,0.0,0.0
1,0.0,0.0,0.0,1.0,1.0,0.0,0.0,1.0,0.0,100.0,1.0,1.1856,26.0,0.0,0.0,0.0,59.999996,0.0,26.0,26.0,26.0,26.0,-0.138,0.29720000000000013,0.20805,293.64,-2.7542,-2.911,-1.6226,-1.6674444444444443,-272.18,216.3025,190.967125,0.0,0.0,0.0,0.0,0.0036333333333333773,-5.498166666666667,-5.498166666666667,-0.5273,-0.8773333333333334,-0.07037499999999985,-1.1800000000000002,65.619,-0.06779999999999997,-0.22490000000000002,1.4539999999999997,100.0,1.0,1.0,202.19,0.0,0.0,0.0,0.0,0.0,0.0,0.0,8570.1,0.0,55.0,5.0,236.19666666666666,1.0,0.0,0.0,0.0,0.0,0.0,0.0,0.0,0.05699999999999861,0.05699999999999861,0.0,0.0,1.0,55.0,616.79921,10000.0,85.000001,85.000001,85.000001,85.000001,395.0,0.0,0.0,0.0,1.0,333.33500000000004,53.345,53.345,49.591,49.591,34.0,-41.995,30.666,-7.859999999999999,-1.6374999999999993,0.0,1783.466,0.7650000000000006,100.0,27.736,26.968,41.5,40.343,0.0,0.0,100.0,0.0,0.0,0.0,0.0,3186.0,2705.6,4333.375,4700.5,305.262,306.20925,314.224,313.154,21.8384,20.5069,21.73122222222222,21.3832,314.999998,314.999998,324.999988,324.999988,99.56232857142857,99.50736666666667,99.56181428571429,99.54952857142857,-0.366,0.20650000000000002,0.29633333333333334,-0.45933333333333337,-0.08166666666667055,-0.030000000000001137,1.377,1.4273333333333333,37.489999999999995,29.168333333333333,36.82,34.644999999999996,57.852000000000004,34.429,57.9685,53.527,55.602000000000004,33.619,56.55,51.692,54.649,33.198,56.4235,50.991,0.33266666666666644,0.21333333333333337,-0.3984714285714286,-0.37784285714285715,0.0,205.60000000000002,205.45,202.19,202.19,0.0,0.0
2,0.0,0.0,0.0,1.0,1.0,0.0,0.0,1.0,0.0,100.0,1.0,1.1856,26.0,0.0,0.0,0.0,59.999996,0.0,26.0,26.0,26.0,26.0,-0.16275,0.2802,-0.07675,294.296,-2.7154,-2.9376249999999997,-1.5846,-1.7253333333333334,-268.83,216.29500000000002,190.94825,0.0,0.0,0.0,0.0,0.005566666666666609,-5.498166666666667,-5.498166666666667,-0.5744,0.25266666666666665,-0.05774999999999997,2.801,65.759,-0.09239999999999993,-0.28245000000000003,1.9079999999999995,100.0,1.0,1.0,203.1,0.0,0.0,0.0,0.0,0.0,0.0,0.0,8608.7,0.0,55.0,5.0,236.70666666666668,0.0,0.0,0.0,0.0,0.0,0.0,0.0,0.0,0.10800000000000054,0.10800000000000054,0.0,0.0,0.0,55.0,616.79921,10000.0,85.000001,85.000001,85.000001,85.000001,395.0,0.0,0.0,0.0,1.0,333.33500000000004,52.277,52.277,51.453,51.453,34.0,-43.96,34.716,-8.056666666666672,-2.432500000000001,0.0,1783.416,0.4100000000000037,100.0,28.662,26.944,41.394999999999996,39.9,0.0,0.0,100.0,0.0,0.0,0.0,0.0,3319.625,2983.3,3746.875,3722.1,304.5656666666667,305.4075,315.6263333333333,315.717,21.849,20.5119,21.741333333333333,21.3923,314.999998,314.999998,324.999988,324.999988,99.56238571428571,99.50738333333334,99.56194285714285,99.54965714285714,-0.35275,0.21525,0.2535,-0.5018333333333334,-0.04833333333333201,-0.061666666666667425,1.5743333333333334,1.6323333333333334,37.556,29.199333333333335,36.884,34.702,57.858000000000004,34.47,58.0075,53.581,55.607,33.6565,56.5865,51.7435,54.653,33.234,56.457499999999996,51.041,0.30500000000000016,0.2363333333333335,-0.3865,-0.3791,0.0,206.035,205.88,203.10000000000002,203.1,0.0,0.0
3,0.0,0.0,0.0,1.0,1.0,0.0,0.0,1.0,0.0,100.0,1.0,1.1856,26.0,0.0,0.0,0.0,59.999996,0.0,26.0,26.0,26.0,26.0,-0.138375,0.3025,0.09205,294.113,-2.8467000000000002,-2.8352500000000003,-1.6101,-1.705,-265.67,216.285,190.929875,0.0,0.0,0.0,0.0,0.007399999999999962,-5.498166666666667,-5.498166666666667,-0.5327000000000001,0.24133333333333334,-0.017875000000000085,0.20999999999999996,65.902,-0.10439999999999994,-0.22590000000000002,1.0899999999999999,100.0,1.0,1.0,203.23333333333335,0.0,0.0,0.0,0.0,0.0,0.0,0.0,8614.3,0.0,55.0,5.0,237.21333333333334,1.0,0.0,0.0,0.0,0.0,0.0,0.0,0.0,0.1559999999999988,0.1559999999999988,0.0,0.0,1.0,55.0,616.79921,10000.0,85.000001,85.000001,85.000001,85.000001,395.0,0.0,0.0,0.0,1.0,333.33500000000004,53.543,53.543,49.393,49.393,34.0,-37.615,32.196,-9.306666666666672,-2.1999999999999993,0.0,1783.367,0.34499999999999886,100.0,28.114,26.908,41.301,40.038,0.0,0.0,100.0,0.0,0.0,0.0,0.0,2840.875,2873.0,4286.75,4274.1,306.1596666666667,305.7035,314.311,314.295,21.8587,20.5167,21.750888888888888,21.4011,314.999998,314.999998,324.999988,324.999988,99.56242857142857,99.5074,99.56208571428571,99.54982857142858,-0.36775,0.202,0.2668333333333333,-0.4826666666666666,-0.026666666666670835,-0.07000000000000028,1.4249999999999998,1.457,37.617000000000004,29.229666666666667,36.943,34.7565,57.858000000000004,34.516,58.05,53.647,55.605999999999995,33.698499999999996,56.626,51.807,54.65,33.274,56.494,51.103,0.29899999999999993,0.2506666666666666,-0.38302857142857144,-0.37814285714285717,0.0,206.48000000000002,206.39499999999998,203.23333333333335,203.23333333333335,0.0,0.0
4,0.0,0.0,0.0,1.0,1.0,0.0,0.0,1.0,0.0,100.0,1.0,1.1856,26.0,0.0,0.0,0.0,59.999996,0.0,26.0,26.0,26.0,26.0,-0.1395,0.2812000000000001,-0.023100000000000002,294.312,-2.7833,-2.881125,-1.6279,-1.7082222222222223,-262.3,216.2725,190.910125,0.0,0.0,0.0,0.0,0.009366666666666523,-5.498166666666667,-5.498166666666667,-0.5701,-0.6953333333333334,-0.08375000000000021,-1.5630000000000002,66.047,-0.0958,-0.26595,1.1639999999999997,100.0,1.0,1.0,203.82333333333332,0.0,0.0,0.0,0.0,0.0,0.0,0.0,8639.3,0.0,55.0,5.0,237.74333333333334,0.0,0.0,0.0,0.0,0.0,0.0,0.0,0.0,0.20700000000000074,0.20700000000000074,0.0,0.0,0.0,55.0,616.79921,10000.0,85.000001,85.000001,85.000001,85.000001,395.0,0.0,0.0,0.0,1.0,333.33500000000004,52.963,52.963,50.14,50.14,34.0,-44.595,32.718,-8.756666666666668,-1.8099999999999987,0.0,1783.318,0.46999999999999886,100.0,27.777,26.89,41.532,40.134,0.0,0.0,100.0,0.0,0.0,0.0,0.0,3306.625,2888.4,4073.5,3671.3,304.9456666666667,305.482,314.865,315.7035,21.8688,20.5218,21.761222222222223,21.4103,314.999998,314.999998,324.999988,324.999988,99.56247142857143,99.50743333333334,99.56221428571429,99.54997142857142,-0.38275000000000003,0.19275,0.26866666666666666,-0.4836666666666666,-0.046666666666666856,-0.07499999999999574,1.525,1.5763333333333334,37.68,29.261333333333333,37.007999999999996,34.814499999999995,57.857,34.558,58.092,53.704,55.605000000000004,33.737,56.6655,51.8615,54.647999999999996,33.3105,56.531,51.156,0.3163333333333336,0.2323333333333335,-0.3814714285714286,-0.3841714285714286,0.0,206.87,206.79500000000002,203.82333333333332,203.82333333333332,0.0,0.0
5,0.0,0.0,0.0,1.0,1.0,0.0,0.0,1.0,0.0,100.0,1.0,1.1856,26.0,0.0,0.0,0.0,59.999996,0.0,26.0,26.0,26.0,26.0,-0.136,0.2803,0.0027500000000000003,294.235,-2.7965,-2.90225,-1.6141,-1.6966666666666668,-258.73,216.2525,190.8885,0.0,0.0,0.0,0.0,0.011433333333333295,-5.498166666666667,-5.498166666666667,-0.5563,0.34800000000000003,-0.08612500000000001,-0.2829999999999999,66.201,-0.09929999999999994,-0.23750000000000002,1.2160000000000002,100.0,1.0,1.0,204.22,0.0,0.0,0.0,0.0,0.0,0.0,0.0,8656.1,0.0,55.0,5.0,238.29666666666668,1.0,0.0,0.0,0.0,0.0,0.0,0.0,0.0,0.26099999999999923,0.26099999999999923,0.0,0.0,1.0,55.0,616.79921,10000.0,85.000001,85.000001,85.000001,85.000001,395.0,0.0,0.0,0.0,1.0,166.665,53.421,53.421,50.079,50.079,34.0,-41.955,32.198,-9.70666666666667,-2.4499999999999993,0.0,1783.265,-0.0799999999999983,100.0,27.798000000000002,26.746,41.305,39.947,0.0,0.0,100.0,0.0,0.0,0.0,0.0,3211.625,2753.9,4248.75,4072.9,305.195,305.95975,314.52,314.73375,21.8798,20.5272,21.772,21.42,314.999998,314.999998,324.999988,324.999988,99.56251428571429,99.50745,99.56237142857142,99.55012857142857,-0.34299999999999997,0.233,0.258,-0.488,-0.05666666666667197,-0.04999999999999716,1.4596666666666667,1.5216666666666665,37.748999999999995,29.295333333333332,37.075,34.875,57.86,34.6055,58.1375,53.7675,55.608000000000004,33.7805,56.708,51.922,54.647999999999996,33.3515,56.570499999999996,51.215,0.2696666666666667,0.2783333333333333,-0.3861714285714286,-0.3759428571428572,0.0,207.41500000000002,207.305,204.22,204.22,0.0,0.0
6,0.0,0.0,0.0,1.0,1.0,0.0,0.0,1.0,0.0,100.0,1.0,1.1856,26.0,0.0,0.0,0.0,59.999996,0.0,26.0,26.0,26.0,26.0,-0.123375,0.27970000000000006,0.008675,294.098,-2.7606,-2.882375,-1.6566,-1.6942222222222223,-255.75,216.23250000000002,190.870375,0.0,0.0,0.0,0.0,0.013166666666666549,-5.498166666666667,-5.498166666666667,-0.554,0.08033333333333333,-0.06562499999999982,1.002,66.32900000000001,-0.09549999999999992,-0.24147500000000002,0.718,100.0,1.0,1.0,204.62,0.0,0.0,0.0,0.0,0.0,0.0,0.0,8673.1,0.0,55.0,5.0,238.75666666666666,0.0,0.0,0.0,0.0,0.0,0.0,0.0,0.0,0.30600000000000094,0.30600000000000094,0.0,0.0,0.0,55.0,616.79921,10000.0,85.000001,85.000001,85.000001,85.000001,395.0,0.0,0.0,0.0,1.0,166.665,53.085,53.085,49.973,49.973,34.0,-40.2075,35.57,-8.490000000000002,-1.4974999999999987,0.0,1783.22,-0.254999999999999,100.0,27.895,26.704,41.525,40.178,0.0,0.0,100.0,0.0,0.0,0.0,0.0,3115.5,3001.9,4071.375,4058.4,305.2493333333333,305.3265,314.8786666666667,314.848,21.8889,20.5318,21.781,21.4283,314.999998,314.999998,324.999988,324.999988,99.56254285714286,99.50748333333334,99.56248571428571,99.55025714285715,-0.3275,0.244,0.2818333333333333,-0.4693333333333334,-0.054999999999999716,-0.06833333333332803,1.4916666666666667,1.528,37.806,29.323666666666668,37.131,34.927,57.861000000000004,34.647,58.176,53.824,55.608000000000004,33.8185,56.744,51.976,54.647,33.388,56.604,51.268,0.2556666666666665,0.2879999999999998,-0.38565714285714287,-0.37991428571428576,0.0,207.775,207.71,204.62,204.62,0.0,0.0
7,0.0,0.0,0.0,1.0,1.0,0.0,0.0,1.0,0.0,100.0,1.0,1.1856,26.0,0.0,0.0,0.0,59.999996,0.0,26.0,26.0,26.0,26.0,-0.07825,0.2842,0.019625,293.854,-2.7386,-2.86375,-1.6193,-1.732,-252.37,216.21,190.85,0.0,0.0,0.0,0.0,0.015133333333333332,-5.498166666666667,-5.498166666666667,-0.5575,0.0016666666666666668,-0.05449999999999999,-0.19300000000000006,66.474,-0.07699999999999996,-0.2509,0.45399999999999974,100.0,1.0,1.0,205.04333333333335,0.0,0.0,0.0,0.0,0.0,0.0,0.0,8691.0,0.0,55.0,5.0,239.28,1.0,0.0,0.0,0.0,0.0,0.0,0.0,0.0,0.3569999999999993,0.3569999999999993,0.0,0.0,1.0,55.0,616.79921,10000.0,85.000001,85.000001,85.000001,85.000001,395.0,0.0,0.0,0.0,1.0,333.33500000000004,52.765,52.765,50.095,50.095,34.0,-41.735,35.616,-7.159999999999997,0.08500000000000085,0.0,1783.167,-0.5549999999999997,100.0,27.844,26.937,41.452,40.542,0.0,0.0,100.0,0.0,0.0,0.0,0.0,3291.625,2948.9,4087.25,4038.7,304.82933333333335,305.2565,314.856,314.74925,21.8993,20.537,21.791222222222224,21.4377,314.999998,314.999998,324.999988,324.999988,99.56258571428572,99.5075,99.56264285714286,99.55042857142857,-0.30574999999999997,0.259,0.2965,-0.4488333333333333,-0.054999999999999716,-0.05333333333332746,1.4696666666666665,1.5036666666666667,37.870000000000005,29.356,37.195,34.9855,57.86,34.695499999999996,58.22,53.8865,55.607,33.863,56.7845,52.036500000000004,54.644,33.43,56.6415,51.326499999999996,0.2293333333333334,0.31000000000000005,-0.3893714285714286,-0.37491428571428576,0.0,208.2,208.155,205.04333333333335,205.04333333333335,0.0,0.0
8,0.0,0.0,0.0,1.0,1.0,0.0,0.0,1.0,0.0,100.0,1.0,1.1856,26.0,0.0,0.0,0.0,59.999996,0.0,26.0,26.0,26.0,26.0,-0.042125,0.28770000000000007,0.034775,294.144,-2.8227,-2.854375,-1.6034000000000002,-1.6853333333333333,-248.97,216.1825,190.8295,0.0,0.0,0.0,0.0,0.017133333333333334,-5.498166666666667,-5.498166666666667,-0.5582,-0.584,-0.03362500000000024,0.798,66.619,-0.05509999999999993,-0.24097500000000002,-0.16999999999999993,100.0,1.0,1.0,205.42666666666668,0.0,0.0,0.0,0.0,0.0,0.0,0.0,8707.2,0.0,55.0,5.0,239.8,0.0,0.0,0.0,0.0,0.0,0.0,0.0,0.0,0.40800000000000125,0.40800000000000125,0.0,0.0,0.0,55.0,616.79921,10000.0,85.000001,85.000001,85.000001,85.000001,395.0,0.0,0.0,0.0,1.0,166.665,53.665,53.665,49.393,49.393,34.0,-35.9725,36.902,-4.990000000000002,1.3725000000000005,0.0,1783.118,-0.6499999999999986,100.0,27.502,26.731,41.541,40.595,0.0,0.0,100.0,0.0,0.0,0.0,0.0,2919.375,3002.7,4109.875,4163.7,305.965,305.33925,314.696,314.5125,21.9093,20.5422,21.801444444444446,21.4471,314.999998,314.999998,324.999988,324.999988,99.56262857142858,99.50753333333333,99.56278571428571,99.55057142857143,-0.27949999999999997,0.29225,0.3311666666666667,-0.4148333333333334,-0.046666666666666856,-0.05833333333333002,1.4729999999999999,1.4686666666666666,37.933,29.388666666666666,37.259,35.0445,57.854,34.7455,58.263999999999996,53.948,55.601,33.909,56.826,52.095,54.637,33.4735,56.68,51.384,0.21700000000000008,0.32633333333333336,-0.3822714285714286,-0.3796714285714286,0.0,208.625,208.62,205.42666666666668,205.42666666666668,0.0,0.0
9,0.0,0.0,0.0,1.0,1.0,0.0,0.0,1.0,0.0,100.0,1.0,1.1856,26.0,0.0,0.0,0.0,59.999996,0.0,26.0,26.0,26.0,26.0,-0.02025,0.2752000000000001,-0.0129,293.777,-2.7564,-2.850625,-1.6612,-1.6613333333333333,-245.57,216.155,190.808375,0.0,0.0,0.0,0.0,0.019100000000000006,-5.498166666666667,-5.498166666666667,-0.5619000000000001,0.7423333333333334,-0.034250000000000114,-0.3420000000000001,66.76,-0.02839999999999998,-0.240675,-0.14999999999999947,100.0,1.0,1.0,205.97,0.0,0.0,0.0,0.0,0.0,0.0,0.0,8730.3,0.0,55.0,5.0,240.30666666666667,1.0,0.0,0.0,0.0,0.0,0.0,0.0,0.0,0.45899999999999963,0.45899999999999963,0.0,0.0,1.0,55.0,616.79921,10000.0,85.000001,85.000001,85.000001,85.000001,395.0,0.0,0.0,0.0,1.0,166.665,52.429,52.429,50.4,50.4,34.0,-41.1325,37.37,-4.513333333333328,2.1075,0.0,1783.066,-0.6799999999999997,100.0,27.91,27.335,41.049,40.709,0.0,0.0,100.0,0.0,0.0,0.0,0.0,3343.0,2994.5,4055.75,4078.7,304.7196666666667,305.116,315.0346666666667,314.76025,21.9196,20.5476,21.811444444444444,21.4564,314.999998,314.999998,324.999988,324.999988,99.56265714285715,99.50758333333333,99.56292857142857,99.55071428571429,-0.26674999999999993,0.29675,0.3516666666666667,-0.39483333333333337,-0.06666666666666998,-0.06333333333333258,1.5313333333333334,1.5116666666666667,37.998000000000005,29.422333333333334,37.322,35.1025,57.851,34.7995,58.3065,54.0065,55.598,33.958,56.8655,52.1515,54.632,33.5205,56.716499999999996,51.439,0.21899999999999986,0.31966666666666654,-0.38235714285714284,-0.37988571428571427,0.0,209.085,209.09,205.97,205.97,0.0,0.0
10,0.0,0.0,0.0,1.0,1.0,0.0,0.0,1.0,0.0,100.0,1.0,1.1856,26.0,0.0,0.0,0.0,59.999996,0.0,26.0,26.0,26.0,26.0,0.0125,0.2872000000000001,0.05935,293.73199999999997,-2.8295,-2.834375,-1.643,-1.6385555555555558,-242.16,216.1275,190.78775,0.0,0.0,0.0,0.0,0.021066666666666567,-5.498166666666667,-5.498166666666667,-0.5434,-0.749,0.011500000000000066,1.751,66.906,-0.009699999999999931,-0.23522500000000002,-0.5279999999999996,100.0,1.0,1.0,206.22333333333333,0.0,0.0,0.0,0.0,0.0,0.0,0.0,8741.0,0.0,55.0,5.0,240.83333333333331,0.0,0.0,0.0,0.0,0.0,0.0,1.0,0.0,0.509999999999998,0.509999999999998,0.0,0.0,0.0,55.0,616.79921,10000.0,85.000001,85.000001,85.000001,85.000001,395.0,0.0,0.0,0.0,1.0,166.665,53.543,53.543,48.95,48.95,34.0,-33.125,37.976,-3.0700000000000003,3.369999999999999,0.0,1783.015,-0.9100000000000001,100.0,27.731,27.104,41.596000000000004,41.328,0.0,0.0,100.0,0.0,0.0,0.0,0.0,2815.0,2986.2,4211.375,4337.4,306.2676666666667,305.39775,314.46566666666666,314.13,21.9298,20.5529,21.82177777777778,21.4661,314.999998,314.999998,324.999988,324.999988,99.56268571428572,99.50761666666666,99.56308571428572,99.55088571428571,-0.23275,0.3385,0.3763333333333333,-0.3716666666666666,-0.045000000000001705,-0.054999999999999716,1.4373333333333334,1.4216666666666666,38.061,29.455666666666666,37.385999999999996,35.163,57.844,34.853,58.3545,54.07,55.59,34.007,56.9105,52.2125,54.624,33.567,56.757999999999996,51.4985,0.20066666666666677,0.34399999999999986,-0.38064285714285717,-0.3774428571428572,0.0,209.505,209.525,206.22333333333333,206.22333333333333,0.0,0.0
11,0.0,0.0,0.0,1.0,1.0,0.0,0.0,1.0,0.0,100.0,1.0,1.1856,26.0,0.0,0.0,0.0,59.999996,0.0,26.0,26.0,26.0,26.0,0.031625,0.2845,-0.070025,294.235,-2.8376,-2.7880000000000003,-1.6981000000000002,-1.627,-238.95,216.10250000000002,190.76825,0.0,0.0,0.0,0.0,0.022599999999999953,-5.498166666666667,-5.498166666666667,-0.5851000000000001,-0.16433333333333336,0.035499999999999865,0.278,67.035,0.01100000000000012,-0.263725,-0.7720000000000002,100.0,1.0,1.0,206.93,0.0,0.0,0.0,0.0,0.0,0.0,0.0,8770.9,0.0,55.0,5.0,241.3,1.0,0.0,0.0,0.0,0.0,0.0,1.0,0.0,0.5579999999999998,0.5579999999999998,0.0,0.0,1.0,55.0,616.79921,10000.0,85.000001,85.000001,85.000001,85.000001,395.0,0.0,0.0,0.0,1.0,166.665,52.811,52.811,50.583,50.583,34.0,-35.3475,40.986000000000004,-2.086666666666666,4.5075,0.0,1782.967,-0.8599999999999994,100.0,27.552,27.433,40.972,41.243,0.0,0.0,100.0,0.0,0.0,0.0,0.0,2998.625,3187.3,3679.375,3891.4,305.6963333333333,304.70325,315.902,315.2305,21.9392,20.558,21.831222222222223,21.474899999999998,314.999998,314.999998,324.999988,324.999988,99.56271428571428,99.50765,99.56322857142857,99.55101428571429,-0.21999999999999997,0.34525,0.3993333333333333,-0.33799999999999997,-0.04833333333333201,-0.06333333333333258,1.6023333333333334,1.577,38.120000000000005,29.487666666666666,37.445,35.218,57.834,34.9065,58.393,54.124,55.581,34.0565,56.9465,52.263999999999996,54.613,33.614,56.7915,51.5495,0.2023333333333337,0.34499999999999975,-0.38730000000000003,-0.3747857142857143,0.0,209.87,209.93,206.93,206.93,0.0,0.0
12,0.0,0.0,0.0,1.0,1.0,0.0,0.0,1.0,0.0,100.0,1.0,1.1856,26.0,0.0,0.0,0.0,59.999996,0.0,26.0,26.0,26.0,26.0,0.053,0.2925,0.022500000000000003,293.64,-2.8901,-2.814625,-1.6593,-1.6305555555555558,-235.73,216.0775,190.747375,0.0,0.0,0.0,0.0,0.025466666666666526,-5.498166666666667,-5.498166666666667,-0.5691,0.278,0.02124999999999999,0.721,67.17099999999999,0.027300000000000102,-0.23355,-0.726,100.0,1.0,1.0,207.10333333333335,0.0,0.0,0.0,0.0,0.0,0.0,0.0,8778.3,0.0,55.0,5.0,241.78666666666666,0.0,0.0,0.0,0.0,0.0,0.0,1.0,0.0,0.6059999999999981,0.6059999999999981,0.0,0.0,0.0,55.0,616.79921,10000.0,85.000001,85.000001,85.000001,85.000001,395.0,0.0,0.0,0.0,1.0,166.665,52.795,52.795,49.21,49.21,34.0,-35.745,41.752,-0.44666666666666544,5.67,0.0,1782.92,-0.8550000000000004,100.0,27.47,27.576999999999998,40.968,41.177,0.0,0.0,100.0,0.0,0.0,0.0,0.0,3029.375,3205.7,4179.5,4250.8,305.61066666666665,304.67875,314.6166666666667,314.3875,21.9486,20.563299999999998,21.840777777777777,21.4837,314.999998,314.999998,324.999988,324.999988,99.56274285714285,99.5077,99.56337142857143,99.55115714285714,-0.20775,0.35625,0.42383333333333334,-0.3295,-0.07000000000000028,-0.06666666666666998,1.476,1.4576666666666667,38.179,29.520333333333333,37.504999999999995,35.2735,57.824,34.962,58.437,54.178,55.571,34.107,56.987,52.3165,54.602000000000004,33.6625,56.829,51.6005,0.20466666666666677,0.33366666666666633,-0.38562857142857143,-0.3795857142857143,0.0,210.34,210.365,207.10333333333335,207.10333333333335,0.0,0.0
13,0.0,0.0,0.0,1.0,1.0,0.0,0.0,1.0,0.0,100.0,1.0,1.1856,26.0,0.0,0.0,0.0,59.999996,0.0,26.0,26.0,26.0,26.0,0.075,0.27980000000000005,0.03115,293.259,-2.8695,-2.802375,-1.7299,-1.6131111111111112,-232.3,216.0525,190.72575,0.0,0.0,0.0,0.0,0.026833333333333376,-5.498166666666667,-5.498166666666667,-0.5627,-0.07533333333333334,0.021874999999999867,-0.6540000000000001,67.312,0.03600000000000003,-0.242825,-0.766,100.0,1.0,1.0,207.49666666666667,0.0,0.0,0.0,0.0,0.0,0.0,0.0,8795.0,0.0,55.0,5.0,242.29333333333335,1.0,0.0,0.0,0.0,0.0,0.0,1.0,0.0,0.657,0.657,0.0,0.0,1.0,55.0,616.79921,10000.0,85.000001,85.000001,85.000001,85.000001,395.0,0.0,0.0,0.0,1.0,333.33500000000004,52.475,52.475,49.21,49.21,34.0,-36.4725,40.798,-1.7800000000000011,5.129999999999999,0.0,1782.868,-1.0749999999999993,100.0,27.653,27.931,41.101,41.797,0.0,0.0,100.0,0.0,0.0,0.0,0.0,3161.625,3090.7,4224.0,4290.9,305.37333333333333,304.838,314.5933333333333,314.181,21.9586,20.5689,21.851,21.4934,314.999998,314.999998,324.999988,324.999988,99.56275714285714,99.50773333333333,99.56352857142858,99.55131428571428,-0.1895,0.37175,0.4201666666666667,-0.33566666666666667,-0.05333333333332746,-0.04999999999999716,1.4463333333333335,1.4406666666666668,38.241,29.555333333333333,37.569,35.3335,57.814,35.022,58.4845,54.239,55.561,34.1625,57.0315,52.375,54.591,33.715,56.87,51.6575,0.18133333333333335,0.35266666666666646,-0.3830857142857143,-0.3860714285714286,0.0,210.755,210.8,207.49666666666667,207.49666666666667,0.0,0.0
14,0.0,0.0,0.0,1.0,1.0,0.0,0.0,1.0,0.0,100.0,1.0,1.1856,26.0,0.0,0.0,0.0,59.999996,0.0,26.0,26.0,26.0,26.0,0.08625000000000001,0.2764,-0.011925,293.533,-2.8653,-2.7535,-1.7033,-1.602,-228.86,216.0275,190.7045,0.0,0.0,0.0,0.0,0.028799999999999937,-5.498166666666667,-5.498166666666667,-0.5720000000000001,-0.11933333333333333,0.052000000000000046,1.419,67.451,0.04730000000000012,-0.25535,-1.0219999999999994,100.0,1.0,1.0,208.0,0.0,0.0,0.0,0.0,0.0,0.0,0.0,8816.4,0.0,55.0,5.0,242.79333333333335,0.0,0.0,0.0,0.0,0.0,0.0,1.0,0.0,0.7079999999999984,0.7079999999999984,0.0,0.0,0.0,55.0,616.79921,10000.0,85.000001,85.000001,85.000001,85.000001,395.0,0.0,0.0,0.0,1.0,333.33500000000004,52.628,52.628,49.438,49.438,34.0,-33.06,43.49,0.0833333333333286,6.7524999999999995,0.0,1782.816,-1.2349999999999994,100.0,27.706,27.808,41.156,41.849000000000004,0.0,0.0,100.0,0.0,0.0,0.0,0.0,2927.625,3259.0,3959.125,4224.7,305.869,304.5245,315.133,314.44575,21.9686,20.5744,21.86111111111111,21.5029,314.999998,314.999998,324.999988,324.999988,99.56278571428571,99.50778333333334,99.56367142857142,99.55145714285715,-0.17149999999999999,0.39825,0.4445,-0.3028333333333334,-0.05666666666667197,-0.061666666666667425,1.533,1.4786666666666668,38.304,29.590333333333334,37.632,35.393,57.802,35.082499999999996,58.5305,54.298,55.55,34.218,57.074,52.4315,54.579,33.7685,56.9095,51.713,0.17500000000000027,0.3683333333333336,-0.3895428571428572,-0.37252857142857143,0.0,211.175,211.22500000000002,208.0,208.0,0.0,0.0
15,0.0,0.0,0.0,1.0,1.0,0.0,0.0,1.0,0.0,100.0,1.0,1.1856,26.0,0.0,0.0,0.0,59.999996,0.0,26.0,26.0,26.0,26.0,0.111875,0.28570000000000007,0.010450000000000001,293.564,-2.8448,-2.704625,-1.7335,-1.555111111111111,-225.62,216.01,190.68425,0.0,0.0,0.0,0.0,0.03069999999999995,-5.498166666666667,-5.498166666666667,-0.5625,0.2723333333333333,0.08487500000000003,1.028,67.581,0.06059999999999999,-0.236275,-1.2719999999999994,100.0,1.0,1.0,208.39333333333332,0.0,0.0,0.0,0.0,0.0,0.0,0.0,8833.1,0.0,55.0,5.0,243.26333333333332,1.0,0.0,0.0,0.0,0.0,0.0,1.0,0.0,0.7560000000000002,0.7560000000000002,0.0,0.0,1.0,55.0,616.79921,10000.0,85.000001,85.000001,85.000001,85.000001,395.0,0.0,0.0,0.0,1.0,333.33500000000004,52.856,52.856,49.515,49.515,34.0,-30.5875,43.052,0.20666666666667055,7.2225,0.0,1782.767,-1.259999999999998,100.0,27.643,27.881,40.870000000000005,41.95,0.0,0.0,100.0,0.0,0.0,0.0,0.0,2785.75,3243.3,3935.25,4409.5,306.274,304.56175,315.232,314.0255,21.978,20.5797,21.870666666666665,21.5119,314.999998,314.999998,324.999988,324.999988,99.5628,99.50783333333334,99.56382857142857,99.5516,-0.15549999999999997,0.402,0.4546666666666667,-0.28916666666666657,-0.046666666666666856,-0.054999999999999716,1.5206666666666666,1.456,38.363,29.623333333333335,37.692,35.4495,57.789,35.1445,58.575,54.3565,55.537,34.2755,57.1155,52.4885,54.565,33.823,56.9475,51.7685,0.16533333333333333,0.3673333333333333,-0.38702857142857144,-0.3749,0.0,211.575,211.655,208.39333333333332,208.39333333333332,0.0,0.0
16,0.0,0.0,0.0,1.0,1.0,0.0,0.0,1.0,0.0,100.0,1.0,1.1856,26.0,0.0,0.0,0.0,59.999996,0.0,26.0,26.0,26.0,26.0,0.12875,0.2714000000000001,-0.05435,293.564,-2.9424,-2.707375,-1.7113,-1.554,-222.17000000000002,215.99,190.662125,0.0,0.0,0.0,0.0,0.03269999999999995,-5.498166666666667,-5.498166666666667,-0.5855,-0.7196666666666667,0.07237499999999986,-1.0990000000000002,67.72,0.07540000000000013,-0.25477500000000003,-1.306,100.0,1.0,1.0,208.82,0.0,0.0,0.0,0.0,0.0,0.0,0.0,8851.1,0.0,55.0,5.0,243.76666666666665,0.0,0.0,0.0,0.0,0.0,0.0,1.0,0.0,0.8069999999999986,0.8069999999999986,0.0,0.0,0.0,55.0,616.79921,10000.0,85.000001,85.000001,85.000001,85.000001,395.0,0.0,0.0,0.0,1.0,333.33500000000004,52.689,52.689,49.271,49.271,34.0,-34.2375,42.792,1.3033333333333275,6.852499999999999,0.0,1782.718,-1.0249999999999986,100.0,27.185,28.165,41.035,42.163,0.0,0.0,100.0,0.0,0.0,0.0,0.0,3010.625,3212.7,3955.75,4149.8,305.91366666666664,304.50825,315.224,314.567,21.9877,20.5854,21.88088888888889,21.5215,314.999998,314.999998,324.999988,324.999988,99.56281428571428,99.50788333333334,99.56398571428572,99.55174285714286,-0.17225000000000001,0.3985,0.4706666666666667,-0.2865,-0.041666666666671404,-0.05666666666667197,1.5246666666666666,1.4733333333333334,38.423,29.659,37.754999999999995,35.5095,57.772,35.204,58.621,54.41,55.521,34.33,57.158500000000004,52.54,54.548,33.875,56.987,51.8195,0.18266666666666653,0.35199999999999987,-0.3893857142857143,-0.3806857142857143,0.0,211.965,212.055,208.82,208.82,0.0,0.0
17,0.0,0.0,0.0,1.0,1.0,0.0,0.0,1.0,0.0,100.0,1.0,1.1856,26.0,0.0,0.0,0.0,59.999996,0.0,26.0,26.0,26.0,26.0,0.11750000000000001,0.2935000000000001,-0.017325,293.198,-2.8915,-2.69975,-1.7435,-1.5822222222222222,-218.71,215.975,190.639625,0.0,0.0,0.0,0.0,0.03469999999999995,-5.498166666666667,-5.498166666666667,-0.5738,0.5513333333333333,0.04837500000000006,0.683,67.858,0.08200000000000007,-0.233825,-1.1160000000000005,100.0,1.0,1.0,209.20666666666668,0.0,0.0,0.0,0.0,0.0,0.0,0.0,8867.5,0.0,55.0,5.0,244.26,1.0,0.0,0.0,0.0,0.0,0.0,1.0,0.0,0.8580000000000005,0.8580000000000005,0.0,0.0,1.0,55.0,616.79921,10000.0,85.000001,85.000001,85.000001,85.000001,395.0,0.0,0.0,0.0,1.0,333.33500000000004,52.46,52.46,49.132999999999996,49.132999999999996,34.0,-33.05,42.082,1.3866666666666703,8.254999999999999,0.0,1782.665,-1.0999999999999979,100.0,27.837,28.271,40.908,42.04,0.0,0.0,100.0,0.0,0.0,0.0,0.0,2995.375,3156.6,4226.625,4327.5,305.7366666666667,304.85025,314.6193333333333,314.2685,21.9976,20.5912,21.890888888888888,21.531,314.999998,314.999998,324.999988,324.999988,99.56284285714285,99.50793333333333,99.56414285714285,99.5519,-0.14274999999999993,0.41550000000000004,0.47850000000000004,-0.2763333333333333,-0.04833333333333201,-0.05666666666667197,1.5083333333333333,1.4636666666666667,38.485,29.695,37.818,35.569,57.76,35.2685,58.667,54.466499999999996,55.509,34.388999999999996,57.201,52.5945,54.535,33.9315,57.0265,51.873,0.17500000000000027,0.35466666666666624,-0.38492857142857145,-0.37788571428571427,0.0,212.44,212.51,209.20666666666668,209.20666666666668,0.0,0.0
18,0.0,0.0,0.0,1.0,1.0,0.0,0.0,1.0,0.0,100.0,1.0,1.1856,26.0,0.0,0.0,0.0,59.999996,0.0,26.0,26.0,26.0,26.0,0.111625,0.26970000000000005,-0.012750000000000001,293.198,-2.9265,-2.6710000000000003,-1.766,-1.5242222222222221,-215.45,215.965,190.6185,0.0,0.0,0.0,0.0,0.036599999999999966,-5.498166666666667,-5.498166666666667,-0.5856,-0.5406666666666666,0.076125,1.158,67.987,0.07720000000000016,-0.251475,-1.2320000000000002,100.0,1.0,1.0,209.61666666666667,0.0,0.0,0.0,0.0,0.0,0.0,0.0,8884.9,0.0,55.0,5.0,244.72666666666666,0.0,0.0,0.0,0.0,0.0,0.0,1.0,0.0,0.9059999999999988,0.9059999999999988,0.0,0.0,0.0,55.0,616.79921,10000.0,85.000001,85.000001,85.000001,85.000001,395.0,0.0,0.0,0.0,1.0,333.33500000000004,52.353,52.353,49.042,49.042,34.0,-32.6975,45.694,0.22333333333332916,6.904999999999999,0.0,1782.617,-1.4600000000000009,100.0,27.6,28.121000000000002,41.241,42.447,0.0,0.0,100.0,0.0,0.0,0.0,0.0,2980.25,3382.0,3993.625,4243.2,305.851,304.23225,315.11566666666664,314.42925,22.0068,20.5966,21.900555555555556,21.5401,314.999998,314.999998,324.999988,324.999988,99.56285714285714,99.50798333333333,99.5643,99.55204285714285,-0.134,0.42925,0.4635,-0.2808333333333334,-0.045000000000001705,-0.06333333333333258,1.518,1.4676666666666667,38.543,29.728666666666665,37.879000000000005,35.626,57.744,35.332499999999996,58.7155,54.5255,55.494,34.448,57.2465,52.6515,54.519,33.9875,57.0685,51.9285,0.15266666666666673,0.3783333333333334,-0.3773714285714286,-0.375,0.0,212.805,212.88,209.61666666666667,209.61666666666667,0.0,0.0
19,0.0,0.0,0.0,1.0,1.0,0.0,0.0,1.0,0.0,100.0,1.0,1.1856,26.0,0.0,0.0,0.0,59.999996,0.0,26.0,26.0,26.0,26.0,0.162875,0.28490000000000015,0.03315,292.679,-2.9008000000000003,-2.6574999999999998,-1.7789000000000001,-1.5084444444444445,-211.98000000000002,215.95749999999998,190.596,0.0,0.0,0.0,0.0,0.0386333333333333,-5.498166666666667,-5.498166666666667,-0.5745,0.8486666666666667,0.08274999999999988,-0.5310000000000001,68.123,0.08970000000000011,-0.23955,-1.6059999999999999,100.0,1.0,1.0,210.01333333333332,0.0,0.0,0.0,0.0,0.0,0.0,0.0,8901.7,0.0,55.0,5.0,245.21333333333334,1.0,0.0,0.0,0.0,0.0,0.0,1.0,0.0,0.9570000000000007,0.9570000000000007,0.0,0.0,1.0,55.0,616.79921,10000.0,85.000001,85.000001,85.000001,85.000001,395.0,0.0,0.0,0.0,1.0,166.665,51.650999999999996,51.650999999999996,48.859,48.859,34.0,-34.1525,45.362,0.9533333333333331,7.672499999999999,0.0,1782.569,-1.7650000000000006,100.0,27.963,28.792,40.918,42.542,0.0,0.0,100.0,0.0,0.0,0.0,0.0,3138.0,3315.5,4193.25,4404.8,305.431,304.1465,314.756,314.03875,22.0168,20.6025,21.910666666666668,21.5497,314.999998,314.999998,324.999988,324.999988,99.56287142857143,99.50803333333333,99.56444285714285,99.55217142857143,-0.126,0.434,0.4801666666666667,-0.2696666666666666,-0.07333333333333059,-0.041666666666671404,1.5176666666666667,1.4583333333333333,38.605000000000004,29.765666666666668,37.941,35.6855,57.730000000000004,35.397,58.757999999999996,54.579,55.480999999999995,34.507,57.286,52.7035,54.504,34.0445,57.1045,51.980000000000004,0.13566666666666638,0.3969999999999998,-0.38082857142857146,-0.38285714285714284,0.0,213.26999999999998,213.34,210.01333333333332,210.01333333333332,0.0,0.0
20,0.0,0.0,0.0,1.0,1.0,0.0,0.0,1.0,0.0,100.0,1.0,1.1856,26.0,0.0,0.0,0.0,59.999996,0.0,26.0,26.0,26.0,26.0,0.18987500000000002,0.28469999999999995,0.052425,292.999,-2.9562,-2.714,-1.7147999999999999,-1.6202222222222222,-208.5,215.95499999999998,190.573625,0.0,0.0,0.0,0.0,0.0406333333333333,-5.498166666666667,-5.498166666666667,-0.5792,-1.264,0.09725000000000006,0.64,68.261,0.10529999999999995,-0.25020000000000003,-2.014,100.0,1.0,1.0,210.33333333333331,0.0,0.0,0.0,0.0,0.0,0.0,0.0,8915.3,0.0,55.0,5.0,245.71333333333334,0.0,0.0,0.0,0.0,0.0,0.0,0.0,0.0,1.0079999999999991,1.0079999999999991,0.0,0.0,0.0,55.0,616.79921,10000.0,85.000001,85.000001,85.000001,85.000001,395.0,0.0,0.0,0.0,1.0,333.33500000000004,52.78,52.78,48.233000000000004,48.233000000000004,34.0,-29.4125,45.269999999999996,3.760000000000005,11.71,0.0,1782.516,-1.4499999999999993,100.0,27.448999999999998,28.371000000000002,41.506,42.967,0.0,0.0,100.0,0.0,0.0,0.0,0.0,2768.375,3291.7,4063.125,4387.8,306.538,304.44525,314.844,313.91375,22.0264,20.6083,21.921,21.5595,314.999998,314.999998,324.999988,324.999988,99.56288571428571,99.5081,99.56461428571428,99.55232857142857,-0.11224999999999996,0.44625000000000004,0.5166666666666666,-0.23649999999999993,-0.046666666666666856,-0.054999999999999716,1.4663333333333335,1.392,38.665,29.801666666666666,38.006,35.7465,57.709,35.463499999999996,58.8095,54.6385,55.46,34.5685,57.334,52.760999999999996,54.484,34.103,57.149,52.036,0.14733333333333354,0.3896666666666664,-0.38451428571428575,-0.37515714285714286,0.0,213.61,213.735,210.33333333333331,210.33333333333331,0.0,0.0
21,0.0,0.0,0.0,1.0,1.0,0.0,0.0,1.0,0.0,100.0,1.0,1.1856,26.0,0.0,0.0,0.0,59.999996,0.0,26.0,26.0,26.0,26.0,0.149625,0.2775000000000001,-0.059250000000000004,293.32,-2.8712,-2.76325,-1.7762,-1.585,-205.22,215.95499999999998,190.551875,0.0,0.0,0.0,0.0,0.04256666666666653,-5.498166666666667,-5.498166666666667,-0.6036,0.5446666666666666,0.07562500000000005,-0.06899999999999995,68.384,0.12309999999999999,-0.2549,-1.5219999999999994,100.0,1.0,1.0,210.95666666666668,0.0,0.0,0.0,0.0,0.0,0.0,0.0,8941.7,0.0,55.0,5.0,246.15666666666667,1.0,0.0,0.0,0.0,0.0,0.0,0.0,0.0,1.056000000000001,1.056000000000001,0.0,0.0,1.0,55.0,616.79921,10000.0,85.000001,85.000001,85.000001,85.000001,395.0,0.0,0.0,0.0,1.0,333.33500000000004,52.155,52.155,49.591,49.591,34.0,-33.285,43.988,3.153333333333336,10.4925,0.0,1782.468,-0.370000000000001,100.0,27.798000000000002,28.586,40.788,42.563,0.0,0.0,100.0,0.0,0.0,0.0,0.0,2939.125,3290.3,3918.625,4083.2,305.844,304.34625,315.3946666666667,314.8305,22.0355,20.6139,21.930222222222223,21.5684,314.999998,314.999998,324.999988,324.999988,99.5629,99.50815,99.56475714285715,99.55247142857142,-0.17099999999999993,0.38925,0.5258333333333334,-0.22599999999999998,-0.03333333333333144,-0.05333333333332746,1.5936666666666666,1.5253333333333334,38.722,29.836666666666666,38.064,35.8025,57.695,35.5265,58.85,54.6885,55.447,34.6265,57.3715,52.809,54.469,34.158500000000004,57.1835,52.0835,0.23266666666666636,0.30200000000000005,-0.38825714285714286,-0.3778714285714286,0.0,214.035,214.14,210.95666666666668,210.95666666666668,0.0,0.0
22,0.0,0.0,0.0,1.0,1.0,0.0,0.0,1.0,0.0,100.0,1.0,1.1856,26.0,0.0,0.0,0.0,59.999996,0.0,26.0,26.0,26.0,26.0,0.11987500000000001,0.2593000000000001,0.0238,292.877,-2.8494,-2.773375,-1.7576,-1.5854444444444444,-201.73000000000002,215.96,190.52825,0.0,0.0,0.0,0.0,0.04459999999999997,-5.498166666666667,-5.498166666666667,-0.5805,0.091,0.06674999999999986,-0.7650000000000001,68.522,0.10230000000000006,-0.23515,-0.20000000000000018,100.0,1.0,1.0,211.16,0.0,0.0,0.0,0.0,0.0,0.0,0.0,8950.3,0.0,55.0,5.0,246.65,0.0,0.0,0.0,0.0,0.0,0.0,0.0,0.0,1.1069999999999993,1.1069999999999993,0.0,0.0,0.0,55.0,616.79921,10000.0,85.000001,85.000001,85.000001,85.000001,395.0,0.0,0.0,0.0,1.0,333.33500000000004,52.353,52.353,48.462,48.462,34.0,-34.8,39.794,0.8100000000000023,7.842499999999999,0.0,1782.416,0.384999999999998,100.0,27.742,28.686,41.245000000000005,42.803,0.0,0.0,100.0,0.0,0.0,0.0,0.0,2950.5,3111.1,4227.625,4335.5,305.9576666666667,304.6905,314.62833333333333,314.15475,22.0453,20.6197,21.940555555555555,21.578,314.999998,314.999998,324.999988,324.999988,99.56292857142857,99.5082,99.56492857142857,99.55261428571428,-0.22399999999999998,0.32925,0.47150000000000003,-0.2855,-0.07166666666666544,-0.041666666666671404,1.4466666666666668,1.4296666666666666,38.783,29.873333333333335,38.128,35.863,57.683,35.5875,58.900999999999996,54.7465,55.435,34.6825,57.419,52.865,54.456,34.212,57.2275,52.138,0.28633333333333333,0.2426666666666666,-0.3873142857142858,-0.3805428571428572,0.0,214.54000000000002,214.525,211.16,211.16,0.0,0.0
23,0.0,0.0,0.0,1.0,1.0,0.0,0.0,1.0,0.0,100.0,1.0,1.1856,26.0,0.0,0.0,0.0,59.999996,0.0,26.0,26.0,26.0,26.0,0.042,0.25350000000000006,-0.0478,292.953,-2.8511,-2.754125,-1.782,-1.676,-198.03,215.97,190.5035,0.0,0.0,0.0,0.0,0.04673333333333329,-5.498166666666667,-5.498166666666667,-0.601,-0.098,0.03475000000000006,-1.2069999999999999,68.662,0.05030000000000001,-0.260675,0.79,100.0,1.0,1.0,211.73000000000002,0.0,0.0,0.0,0.0,0.0,0.0,0.0,8974.5,0.0,55.0,5.0,247.16,1.0,0.0,0.0,0.0,0.0,0.0,0.0,0.0,1.1610000000000014,1.1610000000000014,0.0,0.0,1.0,55.0,616.79921,10000.0,85.000001,85.000001,85.000001,85.000001,395.0,0.0,0.0,0.0,1.0,166.665,51.712,51.712,49.606,49.606,34.0,-40.815,38.397999999999996,-3.4266666666666694,4.955,0.0,1782.364,0.6099999999999994,100.0,28.201999999999998,28.549,41.532,42.754,0.0,0.0,100.0,0.0,0.0,0.0,0.0,3271.0,3117.1,3991.5,3920.8,305.01666666666665,304.75825,315.273,315.09225,22.0557,20.6259,21.951444444444444,21.5883,314.999998,314.999998,324.999988,324.999988,99.56295714285714,99.50823333333334,99.5651,99.55277142857143,-0.26674999999999993,0.29225,0.40166666666666667,-0.34466666666666657,-0.061666666666667425,-0.05333333333332746,1.4966666666666666,1.5183333333333335,38.848,29.912,38.196,35.9265,57.675,35.6485,58.95,54.8075,55.427,34.739,57.4645,52.9245,54.447,34.2655,57.2695,52.196,0.31499999999999995,0.2163333333333335,-0.3822857142857143,-0.3757857142857143,0.0,214.97,214.9,211.73000000000002,211.73000000000002,0.0,0.0
24,0.0,0.0,0.0,1.0,1.0,0.0,0.0,1.0,0.0,100.0,1.0,1.1856,26.0,0.0,0.0,0.0,59.999996,0.0,26.0,26.0,26.0,26.0,-0.03,0.2631000000000001,0.002925,293.152,-2.8504,-2.7908749999999998,-1.6806,-1.636111111111111,-194.73000000000002,215.97750000000002,190.480875,0.0,0.0,0.0,0.0,0.048666666666666525,-5.498166666666667,-5.498166666666667,-0.6044,-0.582,0.020750000000000046,-0.3880000000000001,68.78999999999999,-0.005499999999999949,-0.2446,1.21,100.0,1.0,1.0,211.99333333333334,0.0,0.0,0.0,0.0,0.0,0.0,0.0,8985.6,0.0,55.0,5.0,247.61666666666667,0.0,0.0,0.0,0.0,0.0,0.0,0.0,0.0,1.2089999999999996,1.2089999999999996,0.0,0.0,0.0,55.0,616.79921,10000.0,85.000001,85.000001,85.000001,85.000001,395.0,0.0,0.0,0.0,1.0,166.665,52.948,52.948,48.431,48.431,34.0,-37.3125,34.75,-5.61333333333333,1.3575,0.0,1782.316,0.5549999999999997,100.0,27.957,28.097,41.847,42.39,0.0,0.0,100.0,0.0,0.0,0.0,0.0,2963.875,2928.9,4340.125,4121.4,305.971,305.453,314.30733333333336,314.68825,22.0649,20.6311,21.961111111111112,21.5972,314.999998,314.999998,324.999988,324.999988,99.56298571428572,99.50826666666667,99.56524285714286,99.55292857142857,-0.29974999999999996,0.26025,0.3468333333333333,-0.4018333333333334,-0.05833333333333002,-0.03499999999999659,1.4396666666666667,1.4876666666666667,38.906,29.944666666666667,38.257,35.9825,57.669,35.6965,58.993,54.862,55.421,34.783,57.5045,52.9765,54.439,34.3075,57.3065,52.2475,0.3126666666666664,0.2233333333333336,-0.38584285714285715,-0.37410000000000004,0.0,215.38,215.285,211.99333333333334,211.99333333333334,0.0,0.0
25,0.0,0.0,0.0,1.0,1.0,0.0,0.0,1.0,0.0,100.0,1.0,1.1856,26.0,0.0,0.0,0.0,59.999996,0.0,26.0,26.0,26.0,26.0,-0.062625,0.26780000000000004,-0.045975,293.106,-2.8882,-2.777875,-1.6731,-1.6632222222222222,-191.42000000000002,215.985,190.457,0.0,0.0,0.0,0.0,0.05056666666666654,-5.498166666666667,-5.498166666666667,-0.6371,0.008,-0.0031249999999998224,-1.763,68.913,-0.048799999999999955,-0.255175,1.226,100.0,1.0,1.0,212.53333333333333,0.0,0.0,0.0,0.0,0.0,0.0,0.0,9008.5,0.0,55.0,5.0,248.06,1.0,0.0,0.0,0.0,0.0,0.0,0.0,0.0,1.256999999999998,1.256999999999998,0.0,0.0,1.0,55.0,616.79921,10000.0,85.000001,85.000001,85.000001,85.000001,395.0,0.0,0.0,0.0,1.0,333.33500000000004,51.926,51.926,49.347,49.347,34.0,-44.29,37.46,-6.82,-0.027499999999999858,0.0,1782.267,0.5249999999999986,100.0,28.056,28.145,41.789,41.922,0.0,0.0,100.0,0.0,0.0,0.0,0.0,3355.875,3189.4,4006.0,3943.0,304.95466666666664,304.606,315.168,315.12175,22.0741,20.636499999999998,21.970555555555556,21.6061,314.999998,314.999998,324.999988,324.999988,99.56302857142857,99.5083,99.56538571428571,99.55307142857143,-0.3315,0.23500000000000001,0.3125,-0.4328333333333334,-0.046666666666666856,-0.060000000000002274,1.509,1.56,38.963,29.978,38.316,36.038,57.665,35.7445,59.031,54.9155,55.418,34.827,57.54,53.028,54.434,34.35,57.339,52.2975,0.3033333333333337,0.2283333333333335,-0.38211428571428574,-0.37514285714285717,0.0,215.75,215.66,212.53333333333333,212.53333333333333,0.0,0.0
26,0.0,0.0,0.0,1.0,1.0,0.0,0.0,1.0,0.0,100.0,1.0,1.1856,26.0,0.0,0.0,0.0,59.999996,0.0,26.0,26.0,26.0,26.0,-0.116,0.27560000000000007,0.081425,291.946,-2.7932,-2.899,-1.6885,-1.6901111111111111,-187.89999999999998,215.99,190.43125,0.0,0.0,0.0,0.0,0.05263333333333331,-5.498166666666667,-5.498166666666667,-0.5937,0.7566666666666666,-0.053625000000000256,0.23199999999999998,69.048,-0.0776,-0.222775,1.29,100.0,1.0,1.0,212.67333333333335,0.0,0.0,0.0,0.0,0.0,0.0,0.0,9014.4,0.0,55.0,5.0,248.54333333333335,0.0,0.0,0.0,0.0,0.0,0.0,0.0,0.0,1.3079999999999998,1.3079999999999998,0.0,0.0,0.0,55.0,616.79921,10000.0,85.000001,85.000001,85.000001,85.000001,395.0,0.0,0.0,0.0,1.0,333.33500000000004,51.468,51.468,47.546,47.546,34.0,-42.2175,36.08,-9.60666666666667,-0.8850000000000016,0.0,1782.215,0.33500000000000085,100.0,29.301000000000002,28.381,42.682,41.912,0.0,0.0,100.0,0.0,0.0,0.0,0.0,3233.375,3053.9,4623.0,4447.9,304.9766666666667,305.07175,313.65166666666664,313.988,22.0843,20.6423,21.981,21.6157,314.999998,314.999998,324.999988,324.999988,99.56307142857143,99.50833333333334,99.56554285714286,99.55322857142858,-0.32575,0.224,0.297,-0.45433333333333337,-0.045000000000001705,-0.06333333333333258,1.3836666666666666,1.4346666666666668,39.027,30.014333333333333,38.381,36.098,57.669,35.795500000000004,59.077,54.977000000000004,55.421,34.874,57.583,53.0875,54.436,34.3945,57.379,52.355000000000004,0.29233333333333356,0.23166666666666647,-0.3825714285714286,-0.3761285714285714,0.0,216.22500000000002,216.11,212.67333333333335,212.67333333333335,0.0,0.0
27,0.0,0.0,0.0,1.0,1.0,0.0,0.0,1.0,0.0,100.0,1.0,1.1856,26.0,0.0,0.0,0.0,59.999996,0.0,26.0,26.0,26.0,26.0,-0.1225,0.2479,-0.010475,292.358,-2.7469,-2.880875,-1.6676000000000002,-1.7726666666666668,-184.59,215.9925,190.40825,0.0,0.0,0.0,0.0,0.05456666666666654,-5.498166666666667,-5.498166666666667,-0.6249,-1.0873333333333333,-0.06725000000000003,0.63,69.17099999999999,-0.09319999999999995,-0.27332500000000004,1.1220000000000008,100.0,1.0,1.0,213.16333333333333,0.0,0.0,0.0,0.0,0.0,0.0,0.0,9035.2,0.0,55.0,5.0,248.99,1.0,0.0,0.0,0.0,0.0,0.0,0.0,0.0,1.355999999999998,1.355999999999998,0.0,0.0,1.0,55.0,616.79921,10000.0,85.000001,85.000001,85.000001,85.000001,395.0,0.0,0.0,0.0,1.0,333.33500000000004,51.788,51.788,48.096000000000004,48.096000000000004,34.0,-41.5825,36.044,-9.119999999999997,-0.4574999999999996,0.0,1782.167,0.18500000000000227,100.0,29.097,28.027,43.511,42.346000000000004,0.0,0.0,100.0,0.0,0.0,0.0,0.0,3202.625,3090.7,4147.875,4036.6000000000004,305.06333333333333,305.08,314.697,314.8505,22.0936,20.6475,21.99088888888889,21.6248,314.999998,314.999998,324.999988,324.999988,99.56312857142858,99.50835,99.56568571428572,99.55338571428571,-0.32999999999999996,0.21875,0.2793333333333333,-0.46966666666666657,-0.030000000000001137,-0.06499999999999773,1.4369999999999998,1.4853333333333334,39.085,30.047,38.443,36.155,57.67,35.841499999999996,59.1225,55.04,55.421,34.916,57.626,53.147999999999996,54.434,34.4345,57.418,52.414,0.27600000000000025,0.2549999999999999,-0.3801285714285714,-0.3775,0.0,216.54000000000002,216.445,213.16333333333333,213.16333333333333,0.0,0.0
28,0.0,0.0,0.0,1.0,1.0,0.0,0.0,1.0,0.0,100.0,1.0,1.1856,26.0,0.0,0.0,0.0,59.999996,0.0,26.0,26.0,26.0,26.0,-0.107625,0.2573000000000001,-0.050825,292.648,-2.7772,-2.862875,-1.6157,-1.734,-181.06,215.9925,190.382875,0.0,0.0,0.0,0.0,0.056599999999999984,-5.498166666666667,-5.498166666666667,-0.6243000000000001,0.6663333333333333,-0.0714999999999999,-0.52,69.3,-0.09959999999999991,-0.24377500000000002,1.0820000000000007,100.0,1.0,1.0,213.65333333333334,0.0,0.0,0.0,0.0,0.0,0.0,0.0,9056.0,0.0,55.0,5.0,249.45333333333335,0.0,0.0,0.0,0.0,0.0,0.0,0.0,0.0,1.407,1.407,0.0,0.0,0.0,55.0,616.79921,10000.0,85.000001,85.000001,85.000001,85.000001,395.0,0.0,0.0,0.0,1.0,166.665,51.834,51.834,48.888999999999996,48.888999999999996,34.0,-43.9175,34.012,-8.736666666666672,-1.2875000000000014,0.0,1782.119,-0.004999999999999005,100.0,29.064,28.097,42.757,41.804,0.0,0.0,100.0,0.0,0.0,0.0,0.0,3343.875,2923.5,4187.5,4081.9,304.8553333333333,305.3915,314.79366666666664,314.8245,22.1037,20.6531,22.001,21.6342,314.999998,314.999998,324.999988,324.999988,99.56315714285714,99.50838333333333,99.56582857142857,99.55354285714286,-0.34099999999999997,0.21875,0.2715,-0.4753333333333334,-0.06833333333332803,-0.04999999999999716,1.4843333333333333,1.513,39.147999999999996,30.082,38.506,36.214,57.673,35.885999999999996,59.159,55.094,55.424,34.9565,57.6595,53.1995,54.435,34.473,57.449,52.464,0.27,0.26833333333333353,-0.38641428571428577,-0.37801428571428575,0.0,217.0,216.885,213.65333333333334,213.65333333333334,0.0,0.0
29,0.0,0.0,0.0,1.0,1.0,0.0,0.0,1.0,0.0,100.0,1.0,1.1856,26.0,0.0,0.0,0.0,59.999996,0.0,26.0,26.0,26.0,26.0,-0.112625,0.2551000000000001,0.013850000000000001,292.236,-2.7171000000000003,-2.919875,-1.6524,-1.712777777777778,-177.51999999999998,215.99,190.3565,0.0,0.0,0.0,0.0,0.058666666666666534,-5.498166666666667,-5.498166666666667,-0.6316,-0.7516666666666666,-0.06599999999999984,0.735,69.43299999999999,-0.09239999999999993,-0.2484,0.6600000000000001,100.0,1.0,1.0,213.90666666666667,0.0,0.0,0.0,0.0,0.0,0.0,0.0,9066.7,0.0,55.0,5.0,249.93333333333334,1.0,0.0,0.0,0.0,0.0,0.0,0.0,0.0,1.4579999999999984,1.4579999999999984,0.0,0.0,1.0,55.0,616.79921,10000.0,85.000001,85.000001,85.000001,85.000001,395.0,0.0,0.0,0.0,1.0,333.33500000000004,51.697,51.697,47.913,47.913,34.0,-42.45,37.442,-8.519999999999996,-0.8275000000000006,0.0,1782.066,-0.06499999999999773,100.0,28.92,27.862000000000002,43.266,42.007,0.0,0.0,100.0,0.0,0.0,0.0,0.0,3282.875,3126.9,4247.125,4215.5,304.8643333333333,304.82175,314.42466666666667,314.4845,22.1135,20.6587,22.011444444444443,21.6439,314.999998,314.999998,324.999988,324.999988,99.5632,99.5084,99.56598571428572,99.55371428571429,-0.3285,0.229,0.29,-0.46033333333333337,-0.03833333333332689,-0.05833333333333002,1.4306666666666668,1.4486666666666668,39.209,30.116666666666667,38.572,36.274,57.672,35.9325,59.2035,55.157,55.423,34.9995,57.701499999999996,53.26,54.432,34.5135,57.488,52.5225,0.2589999999999999,0.2753333333333332,-0.38081428571428577,-0.37465714285714286,0.0,217.35000000000002,217.26999999999998,213.90666666666667,213.90666666666667,0.0,0.0
30,0.0,0.0,0.0,1.0,1.0,0.0,0.0,1.0,0.0,100.0,1.0,1.1856,26.0,0.0,0.0,0.0,59.999996,0.0,26.0,26.0,26.0,26.0,-0.105125,0.26570000000000005,0.06535,291.84,-2.7731,-2.808125,-1.5944,-1.7681111111111112,-174.18,215.985,190.3315,0.0,0.0,0.0,0.0,0.06059999999999999,-5.498166666666667,-5.498166666666667,-0.6249,0.8363333333333334,-0.06762500000000005,0.841,69.554,-0.0797,-0.24652500000000002,0.6079999999999997,100.0,1.0,1.0,214.32333333333332,0.0,0.0,0.0,0.0,0.0,0.0,0.0,9084.4,0.0,55.0,5.0,250.36666666666667,0.0,0.0,0.0,0.0,0.0,0.0,1.0,0.0,1.5060000000000002,1.5060000000000002,0.0,0.0,0.0,55.0,616.79921,10000.0,85.000001,85.000001,85.000001,85.000001,395.0,0.0,0.0,0.0,1.0,333.33500000000004,50.919,50.919,48.278999999999996,48.278999999999996,34.0,-44.0375,36.598,-7.036666666666669,0.8425000000000011,0.0,1782.017,-0.15499999999999758,100.0,29.739,28.544,43.075,42.015,0.0,0.0,100.0,0.0,0.0,0.0,0.0,3404.0,3095.5,4295.5,4265.4,304.47333333333336,304.9795,314.4003333333333,314.3255,22.1231,20.6642,22.02111111111111,21.6529,314.999998,314.999998,324.999988,324.999988,99.56325714285714,99.50843333333333,99.56612857142858,99.55387142857143,-0.30699999999999994,0.244,0.3006666666666667,-0.4458333333333334,-0.04833333333333201,-0.03833333333332689,1.4156666666666666,1.4553333333333334,39.269999999999996,30.151,38.632,36.3305,57.677,35.9835,59.2445,55.216499999999996,55.427,35.0465,57.74,53.317,54.434,34.5585,57.522999999999996,52.578,0.24733333333333363,0.2776666666666663,-0.3813857142857143,-0.3719714285714286,0.0,217.76,217.69,214.32333333333332,214.32333333333332,0.0,0.0
31,0.0,0.0,0.0,1.0,1.0,0.0,0.0,1.0,0.0,100.0,1.0,1.1856,26.0,0.0,0.0,0.0,59.999996,0.0,26.0,26.0,26.0,26.0,-0.06225,0.2650000000000001,-0.01965,291.809,-2.8496,-2.7750000000000004,-1.6881,-1.7550000000000001,-170.63,215.97750000000002,190.30575,0.0,0.0,0.0,0.0,0.06266666666666654,-5.498166666666667,-5.498166666666667,-0.6139,-0.621,-0.05449999999999999,-0.702,69.685,-0.06659999999999999,-0.248925,0.3260000000000005,100.0,1.0,1.0,214.62333333333333,0.0,0.0,0.0,0.0,0.0,0.0,0.0,9097.1,0.0,55.0,5.0,250.84,1.0,0.0,0.0,0.0,0.0,0.0,1.0,0.0,1.5569999999999986,1.5569999999999986,0.0,0.0,1.0,55.0,616.79921,10000.0,85.000001,85.000001,85.000001,85.000001,395.0,0.0,0.0,0.0,1.0,333.33500000000004,51.62,51.62,46.936,46.936,34.0,-40.945,35.774,-7.939999999999998,0.9525000000000006,0.0,1781.967,-0.2049999999999983,100.0,29.211,28.755,43.616,42.79,0.0,0.0,100.0,0.0,0.0,0.0,0.0,3212.875,3048.9,4460.25,4239.2,305.36633333333333,305.16775,314.05733333333336,314.43775,22.133,20.6699,22.031666666666666,21.6627,314.999998,314.999998,324.999988,324.999988,99.56328571428571,99.50846666666666,99.56628571428571,99.55402857142857,-0.30374999999999996,0.24775,0.316,-0.4405,-0.060000000000002274,-0.041666666666671404,1.4163333333333332,1.427,39.331,30.186999999999998,38.698,36.391999999999996,57.675,36.031,59.289,55.2765,55.424,35.0895,57.7815,53.3745,54.431,34.5995,57.5615,52.6345,0.2400000000000002,0.29000000000000004,-0.3832857142857143,-0.37851428571428575,0.0,218.125,218.085,214.62333333333333,214.62333333333333,0.0,0.0
32,0.0,0.0,0.0,1.0,1.0,0.0,0.0,1.0,0.0,100.0,1.0,1.1856,26.0,0.0,0.0,0.0,59.999996,0.0,26.0,26.0,26.0,26.0,-0.08637500000000001,0.25550000000000006,-0.047625,292.023,-2.7804,-2.8218750000000004,-1.711,-1.666777777777778,-167.07,215.9675,190.280125,0.0,0.0,0.0,0.0,0.06473333333333331,-5.498166666666667,-5.498166666666667,-0.6334000000000001,0.20600000000000002,-0.07687500000000025,0.16000000000000003,69.811,-0.05049999999999999,-0.25735,0.2779999999999996,100.0,1.0,1.0,215.17666666666668,0.0,0.0,0.0,0.0,0.0,0.0,0.0,9120.5,0.0,55.0,5.0,251.29000000000002,0.0,0.0,0.0,0.0,0.0,0.0,1.0,0.0,1.6080000000000005,1.6080000000000005,0.0,0.0,0.0,55.0,616.79921,10000.0,85.000001,85.000001,85.000001,85.000001,395.0,0.0,0.0,0.0,1.0,166.665,51.208,51.208,48.065,48.065,34.0,-41.5825,37.92,-6.783333333333331,1.3249999999999993,0.0,1781.918,-0.19500000000000028,100.0,29.383,28.676000000000002,43.262,42.486000000000004,0.0,0.0,100.0,0.0,0.0,0.0,0.0,3290.375,3131.9,4215.75,4166.5,304.871,304.9175,314.71733333333333,314.747,22.1429,20.6758,22.041777777777778,21.6723,314.999998,314.999998,324.999988,324.999988,99.56332857142857,99.5085,99.56644285714286,99.55418571428571,-0.28800000000000003,0.26725,0.3308333333333333,-0.4105,-0.04833333333333201,-0.05833333333333002,1.4856666666666665,1.4903333333333333,39.393,30.223666666666666,38.760999999999996,36.451499999999996,57.673,36.083,59.329499999999996,55.334,55.423,35.138,57.8195,53.43,54.427,34.6455,57.596000000000004,52.688,0.24333333333333362,0.2793333333333332,-0.3891857142857143,-0.37605714285714287,0.0,218.51999999999998,218.49,215.17666666666668,215.17666666666668,0.0,0.0
33,0.0,0.0,0.0,1.0,1.0,0.0,0.0,1.0,0.0,100.0,1.0,1.1856,26.0,0.0,0.0,0.0,59.999996,0.0,26.0,26.0,26.0,26.0,-0.053125,0.24940000000000007,-0.03995,292.099,-2.7919,-2.8741250000000003,-1.6751,-1.6814444444444443,-163.72,215.95499999999998,190.255,0.0,0.0,0.0,0.0,0.06666666666666654,-5.498166666666667,-5.498166666666667,-0.6357,-0.3863333333333333,-0.06762500000000005,1.393,69.93299999999999,-0.043199999999999905,-0.24545,0.2999999999999998,100.0,1.0,1.0,215.43,0.0,0.0,0.0,0.0,0.0,0.0,0.0,9131.2,0.0,55.0,5.0,251.73333333333335,1.0,0.0,0.0,0.0,0.0,0.0,1.0,0.0,1.6559999999999988,1.6559999999999988,0.0,0.0,1.0,55.0,616.79921,10000.0,85.000001,85.000001,85.000001,85.000001,395.0,0.0,0.0,0.0,1.0,333.33500000000004,51.819,51.819,47.745,47.745,34.0,-38.8125,37.168,-5.93333333333333,1.379999999999999,0.0,1781.868,-0.379999999999999,100.0,29.201999999999998,28.415,43.269,42.56,0.0,0.0,100.0,0.0,0.0,0.0,0.0,3129.5,3031.5,4301.875,4310.1,305.398,305.23225,314.408,314.31675,22.1522,20.6811,22.051555555555556,21.6814,314.999998,314.999998,324.999988,324.999988,99.56337142857143,99.50853333333333,99.56658571428571,99.55434285714286,-0.276,0.27675,0.3395,-0.41466666666666663,-0.054999999999999716,-0.051666666666669414,1.434,1.4423333333333332,39.451,30.256666666666668,38.822,36.5085,57.67,36.1295,59.3705,55.3905,55.42,35.1805,57.858000000000004,53.484,54.423,34.6855,57.6315,52.7405,0.2370000000000001,0.2976666666666663,-0.3880857142857143,-0.37852857142857144,0.0,218.89499999999998,218.85000000000002,215.43,215.43,0.0,0.0
34,0.0,0.0,0.0,1.0,1.0,0.0,0.0,1.0,0.0,100.0,1.0,1.1856,26.0,0.0,0.0,0.0,59.999996,0.0,26.0,26.0,26.0,26.0,-0.037375,0.2559,-0.046650000000000004,292.587,-2.8119,-2.8531250000000004,-1.713,-1.6977777777777778,-159.94,215.9425,190.225625,0.0,0.0,0.0,0.0,0.06886666666666652,-5.498166666666667,-5.498166666666667,-0.6708000000000001,-0.7216666666666667,-0.031124999999999847,1.047,70.06700000000001,-0.03399999999999992,-0.25755,0.09600000000000009,100.0,1.0,1.0,215.91666666666669,0.0,0.0,0.0,0.0,0.0,0.0,0.0,9152.0,0.0,55.0,5.0,252.21666666666667,0.0,0.0,0.0,0.0,0.0,0.0,1.0,0.0,1.7100000000000009,1.7100000000000009,0.0,0.0,0.0,55.0,616.79921,10000.0,85.000001,85.000001,85.000001,85.000001,395.0,0.0,0.0,0.0,1.0,166.665,52.139,52.139,48.751999999999995,48.751999999999995,34.0,-37.6225,37.726,-5.143333333333331,2.3100000000000005,0.0,1781.815,-0.4299999999999997,100.0,28.817,28.076,42.864000000000004,42.587,0.0,0.0,100.0,0.0,0.0,0.0,0.0,3053.0,3046.5,4044.0,4169.8,305.45633333333336,305.16475,315.056,314.614,22.1625,20.687,22.062333333333335,21.6916,314.999998,314.999998,324.999988,324.999988,99.5634,99.50856666666667,99.56674285714286,99.55451428571429,-0.25925,0.29075,0.355,-0.402,-0.06833333333332803,-0.051666666666669414,1.4786666666666666,1.5030000000000001,39.516,30.294,38.89,36.5725,57.664,36.183,59.413,55.453,55.414,35.2295,57.8975,53.5445,54.415,34.7325,57.668,52.799,0.2323333333333335,0.29933333333333323,-0.39012857142857144,-0.3850714285714286,0.0,219.29000000000002,219.26,215.91666666666669,215.91666666666669,0.0,0.0
35,0.0,0.0,0.0,1.0,1.0,0.0,0.0,1.0,0.0,100.0,1.0,1.1856,26.0,0.0,0.0,0.0,59.999996,0.0,26.0,26.0,26.0,26.0,-0.021750000000000002,0.24940000000000007,-0.048350000000000004,292.526,-2.8699,-2.807125,-1.683,-1.709,-156.57,215.93,190.197375,0.0,0.0,0.0,0.0,0.0708333333333333,-5.498166666666667,-5.498166666666667,-0.7091000000000001,-0.445,-0.03849999999999998,0.07599999999999996,70.185,-0.02389999999999992,-0.259575,-0.05200000000000049,100.0,1.0,1.0,216.3466666666667,0.0,0.0,0.0,0.0,0.0,0.0,0.0,9170.2,0.0,55.0,5.0,252.64333333333335,1.0,0.0,0.0,0.0,0.0,0.0,1.0,0.0,1.7579999999999991,1.7579999999999991,0.0,0.0,1.0,55.0,616.79921,10000.0,85.000001,85.000001,85.000001,85.000001,395.0,0.0,0.0,0.0,1.0,333.33500000000004,51.605000000000004,51.605000000000004,48.325,48.325,34.0,-40.065,41.71,-4.18333333333333,3.3674999999999997,0.0,1781.765,-0.33999999999999986,100.0,28.575,28.372,42.602000000000004,42.228,0.0,0.0,100.0,0.0,0.0,0.0,0.0,3211.875,3355.3,4030.875,3969.4,305.278,304.286,315.006,315.09575,22.1715,20.6926,22.07188888888889,21.700499999999998,314.999998,314.999998,324.999988,324.999988,99.56342857142857,99.5086,99.56688571428572,99.55465714285714,-0.26749999999999996,0.29,0.364,-0.3833333333333333,-0.04833333333333201,-0.061666666666667425,1.4873333333333334,1.5016666666666667,39.572,30.328333333333333,38.949,36.6285,57.657,36.2335,59.451499999999996,55.504,55.406,35.2755,57.9335,53.5935,54.407,34.7765,57.7005,52.847,0.23666666666666636,0.2916666666666665,-0.3840428571428572,-0.3834714285714286,0.0,219.635,219.64,216.34666666666666,216.3466666666667,0.0,0.0
36,0.0,0.0,0.0,1.0,1.0,0.0,0.0,1.0,0.0,100.0,1.0,1.1856,26.0,0.0,0.0,0.0,59.999996,0.0,26.0,26.0,26.0,26.0,-0.0225,0.25360000000000005,0.05545,291.489,-2.7672,-2.766375,-1.6506,-1.7036666666666669,-152.99,215.91500000000002,190.16575,0.0,0.0,0.0,0.0,0.0729333333333333,-5.498166666666667,-5.498166666666667,-0.6886,0.245,-0.07900000000000018,-1.4130000000000003,70.315,-0.01429999999999998,-0.23065000000000002,0.14400000000000013,100.0,1.0,1.0,216.49666666666667,0.0,0.0,0.0,0.0,0.0,0.0,0.0,9176.4,0.0,55.0,5.0,253.10666666666668,0.0,0.0,0.0,0.0,0.0,0.0,1.0,0.0,1.809000000000001,1.809000000000001,0.0,0.0,0.0,55.0,616.79921,10000.0,85.000001,85.000001,85.000001,85.000001,395.0,0.0,0.0,0.0,1.0,166.665,51.193,51.193,47.501,47.501,34.0,-40.1925,38.22,-4.140000000000001,3.879999999999999,0.0,1781.717,-0.28500000000000014,100.0,29.062,28.899,42.722,42.671,0.0,0.0,100.0,0.0,0.0,0.0,0.0,3274.25,3114.2,4529.0,4525.1,304.833,304.84325,313.918,313.7325,22.1813,20.6986,22.08211111111111,21.7102,314.999998,314.999998,324.999988,324.999988,99.56347142857143,99.50865,99.56704285714285,99.55481428571429,-0.25349999999999995,0.28775,0.3666666666666667,-0.38416666666666666,-0.045000000000001705,-0.054999999999999716,1.3806666666666665,1.3873333333333333,39.632999999999996,30.366,39.013,36.689,57.653,36.289,59.4955,55.563,55.402,35.327,57.9745,53.6505,54.400999999999996,34.8255,57.7385,52.9025,0.2413333333333334,0.2873333333333332,-0.3822285714285714,-0.3724714285714286,0.0,220.07,220.065,216.49666666666667,216.49666666666667,0.0,0.0
