,ABS Active,ABS Enabled,AID Allow Tire Blankets,AID Auto Blip,AID Auto Clutch,AID Auto Shift,AID Fuel Rate,AID Ideal Line,AID Mech Damage,AID Stability,AID Tire Wear Rate,Air Density,Air Temp,Ballast,Best Lap Delta,Best Lap Time,Brake Bias,Brake Pos,Brake Temp FL,Brake Temp FR,Brake Temp RL,Brake Temp RR,CG Accel Lateral,CG Accel Longitudinal,CG Accel Vertical,CG Height,Camber FL,Camber FR,Camber RL,Camber RR,Car Coord X,Car Coord Y,Car Coord Z,Car Damage Front,Car Damage Left,Car Damage Rear,Car Damage Right,Car Pos Norm,Caster FL,Caster FR,Chassis Pitch Angle,Chassis Pitch Rate,Chassis Roll Angle,Chassis Roll Rate,Chassis Velocity X,Chassis Velocity Y,Chassis Velocity Z,Chassis Yaw Rate,Clutch Pos,DRS Active,DRS Available,Drive Train Speed,ERS Heat Charging,ERS Is Charging,ERS Max Energy,ERS Power Level,ERS Recovery Level,Engine Brake Setting,Engine Limiter,Engine RPM,Flags,Fuel Level,Gear,Ground Speed,HR Sample Clock,In Pit,KERS Charge,KERS Deployed Energy,KERS Input,KERS Max Energy,LR Sample Clock,Lap Invalidated,Lap Time,Lap Time2,Last Lap Time,Last Sector Time,MR Sample Clock,Max Fuel,Max Power,Max RPM,Max Sus Travel FL,Max Sus Travel FR,Max Sus Travel RL,Max Sus Travel RR,Max Torque,Max Turbo Boost,Num Tires Off Track,Penalties Enabled,Position,Raw Data Sample Rate,Ride Height FL,Ride Height FR,Ride Height RL,Ride Height RR,Road Temp,Self Align Torque FL,Self Align Torque FR,Self Align Torque RL,Self Align Torque RR,Session Lap Count,Session Time Left,Steering Angle,Surface Grip,Suspension Travel FL,Suspension Travel FR,Suspension Travel RL,Suspension Travel RR,TC Active,TC Enabled,Throttle Pos,Tire Dirt Level FL,Tire Dirt Level FR,Tire Dirt Level RL,Tire Dirt Level RR,Tire Load FL,Tire Load FR,Tire Load RL,Tire Load RR,Tire Loaded Radius FL,Tire Loaded Radius FR,Tire Loaded Radius RL,Tire Loaded Radius RR,Tire Pressure FL,Tire Pressure FR,Tire Pressure RL,Tire Pressure RR,Tire Radius FL,Tire Radius FR,Tire Radius RL,Tire Radius RR,Tire Rubber Grip FL,Tire Rubber Grip FR,Tire Rubber Grip RL,Tire Rubber Grip RR,Tire Slip Angle FL,Tire Slip Angle FR,Tire Slip Angle RL,Tire Slip Angle RR,Tire Slip Ratio FL,Tire Slip Ratio FR,Tire Slip Ratio RL,Tire Slip Ratio RR,Tire Temp Core FL,Tire Temp Core FR,Tire Temp Core RL,Tire Temp Core RR,Tire Temp Inner FL,Tire Temp Inner FR,Tire Temp Inner RL,Tire Temp Inner RR,Tire Temp Middle FL,Tire Temp Middle FR,Tire Temp Middle RL,Tire Temp Middle RR,Tire Temp Outer FL,Tire Temp Outer FR,Tire Temp Outer RL,Tire Temp Outer RR,Toe In FL,Toe In FR,Toe In RL,Toe In RR,Turbo Boost,Wheel Angular Speed FL,Wheel Angular Speed FR,Wheel Angular Speed RL,Wheel Angular Speed RR,Wind Direction,Wind Speed
0,0.0,0.0,0.0,1.0,1.0,0.0,0.0,1.0,0.0,100.0,1.0,1.1856,26.0,0.0,0.0,0.0,59.99999,0.0,26.0,26.0,26.0,26.0,-0.04455555555555557,0.29300000000000015,0.0587,294.006,-2.3287,-2.1959999999999997,-1.6279,-1.6415,-275.62,215.9,190.9875,0.0,0.0,0.0,0.0,0.0016333333333333332,-5.498166666666667,-5.498166666666667,-0.5647,2.1573333333333333,-0.014111111111111185,-0.907,65.52,-0.037700000000000004,-0.229525,0.5279999999999996,100.0,1.0,1.0,202.22,0.0,0.0,0.0,0.0,0.0,0.0,0.0,8571.3,0.0,55.0,5.0,235.84333333333333,0.0,0.0,0.0,0.0,0.0,0.0,0.0,0.0,0.0030000000000001137,0.0030000000000001137,0.0,0.0,0.0,55.0,616.79921,10000.0,85.0,85.0,85.0,85.0,395.0,0.0,0.0,0.0,1.0,20.0,51.865,51.865,49.789,49.789,34.0,-32.09,29.548333333333332,-16.71333333333333,11.61,0.0,1783.609,0.7899999999999991,100.0,27.39,27.073999999999998,39.617000000000004,39.405,0.0,0.0,100.0,0.0,0.0,0.0,0.0,3167.125,3710.6,4193.125,4058.5,305.129,302.76533333333333,314.667,314.7295,21.828,20.5012,21.7253,21.346,314.99999,314.99999,324.99998,324.99998,99.56211428571429,99.50676666666666,99.56211428571429,99.54724285714286,-0.1815,0.03825000000000012,0.1354000000000002,-0.21966666666666657,-0.03833333333332689,-0.04999999999999716,1.5070000000000001,1.5185,37.425,29.132666666666665,36.783,34.4125,57.217,34.167500000000004,58.057,52.5815,55.338,33.411500000000004,56.6355,50.809,54.754999999999995,33.0355,56.5125,50.13666666666667,0.15700000000000003,0.03600000000000003,-0.18128000000000002,-0.18116000000000002,0.0,205.305,205.26999999999998,202.22,202.22,0.0,0.0
1,0.0,0.0,0.0,1.0,1.0,0.0,0.0,1.0,0.0,100.0,1.0,1.1856,26.0,0.0,0.0,0.0,59.999996,0.0,26.0,26.0,26.0,26.0,-0.12888888888888894,0.31810000000000005,0.2505,293.381,-2.26925,-2.424625,-1.6468,-1.4765,-272.27,215.91750000000002,190.967625,0.0,0.0,0.0,0.0,0.0035666666666666668,-5.498166666666667,-5.498166666666667,-0.4979,-1.4263333333333335,-0.05466666666666642,-0.677,65.678,-0.0482,-0.203575,1.1879999999999997,100.0,1.0,1.0,202.24666666666667,0.0,0.0,0.0,0.0,0.0,0.0,0.0,8572.5,0.0,55.0,5.0,236.40666666666667,1.0,0.0,0.0,0.0,0.0,0.0,0.0,0.0,0.053999999999998494,0.053999999999998494,0.0,0.0,1.0,55.0,616.79921,10000.0,85.000001,85.000001,85.000001,85.000001,395.0,0.0,0.0,0.0,1.0,166.665,54.245,54.245,48.828,48.828,34.0,-29.7175,19.395,-20.86,9.682500000000001,0.0,1783.559,0.870000000000001,100.0,27.308,26.829,41.707,41.422,0.0,0.0,100.0,0.0,0.0,0.0,0.0,3006.875,2472.4,4561.625,4965.6,305.777,306.90866666666665,313.6275,312.347,21.8382,20.5061,21.736,21.3555,314.999998,314.999998,324.999988,324.999988,99.56212857142857,99.50676666666666,99.56225714285715,99.5474,-0.1884999999999999,0.02574999999999994,0.11420000000000008,-0.25283333333333335,-0.03166666666666629,-0.04333333333332945,1.317,1.3605,37.489000000000004,29.163333333333334,36.849999999999994,34.472,57.206,34.201,58.1065,52.6485,55.328,33.443,56.682,50.873,54.744,33.066,56.556,50.199333333333335,0.16949999999999998,0.030000000000000027,-0.18426,-0.1877,0.0,205.76,205.695,202.24666666666667,202.24666666666667,0.0,0.0
2,0.0,0.0,0.0,1.0,1.0,0.0,0.0,1.0,0.0,100.0,1.0,1.1856,26.0,0.0,0.0,0.0,59.999996,0.0,26.0,26.0,26.0,26.0,-0.15833333333333333,0.28710000000000013,-0.09680000000000001,294.571,-2.2247,-2.489625,-1.6086,-1.7326,-268.92,215.9325,190.948875,0.0,0.0,0.0,0.0,0.005533333333333334,-5.498166666666667,-5.498166666666667,-0.5782,0.43133333333333335,-0.03744444444444417,2.5250000000000004,65.815,-0.0654,-0.277475,1.548,100.0,1.0,1.0,203.46333333333334,0.0,0.0,0.0,0.0,0.0,0.0,0.0,8624.1,0.0,55.0,5.0,236.90666666666667,0.0,0.0,0.0,0.0,0.0,0.0,0.0,0.0,0.10500000000000043,0.10500000000000043,0.0,0.0,0.0,55.0,616.79921,10000.0,85.000001,85.000001,85.000001,85.000001,395.0,0.0,0.0,0.0,1.0,333.33500000000004,52.475,52.475,51.635999999999996,51.635999999999996,34.0,-34.125,24.881666666666668,-15.696666666666665,7.535,0.0,1783.505,0.9299999999999997,100.0,28.237000000000002,26.773,41.312,40.382,0.0,0.0,100.0,0.0,0.0,0.0,0.0,3316.375,3056.8,3603.375,3466.6,304.593,305.205,316.00075,316.41175,21.8486,20.5111,21.7461,21.3643,314.999998,314.999998,324.999988,324.999988,99.56215714285715,99.50678333333333,99.5624,99.54752857142857,-0.20700000000000007,0.01649999999999996,0.08479999999999999,-0.2803333333333333,-0.054999999999999716,-0.05833333333333002,1.6785,1.7375,37.554,29.194666666666667,36.913,34.5265,57.201,34.2355,58.143,52.6995,55.323,33.475,56.716,50.9225,54.738,33.0965,56.5875,50.24766666666667,0.1785000000000001,0.02200000000000002,-0.18411000000000002,-0.19077000000000002,0.0,206.21,206.095,203.46333333333334,203.46333333333334,0.0,0.0
3,0.0,0.0,0.0,1.0,1.0,0.0,0.0,1.0,0.0,100.0,1.0,1.1856,26.0,0.0,0.0,0.0,59.999996,0.0,26.0,26.0,26.0,26.0,-0.12677777777777777,0.3258000000000001,-0.03486666666666667,293.762,-2.25085,-2.4122500000000002,-1.5974,-1.6926,-265.56,215.945,190.92875,0.0,0.0,0.0,0.0,0.0074666666666666675,-5.498166666666667,-5.498166666666667,-0.5155000000000001,0.4813333333333334,-0.02344444444444438,-1.572,65.971,-0.0849,-0.20505,1.2700000000000005,100.0,1.0,1.0,203.41333333333333,0.0,0.0,0.0,0.0,0.0,0.0,0.0,8622.0,0.0,55.0,5.0,237.46333333333334,1.0,0.0,0.0,0.0,0.0,0.0,0.0,0.0,0.1559999999999988,0.1559999999999988,0.0,0.0,1.0,55.0,616.79921,10000.0,85.000001,85.000001,85.000001,85.000001,395.0,0.0,0.0,0.0,1.0,166.665,53.558,53.558,48.721000000000004,48.721000000000004,34.0,-31.145,20.993333333333332,-20.776666666666664,9.5425,0.0,1783.457,1.0150000000000006,100.0,27.745,27.02,41.532,40.72,0.0,0.0,100.0,0.0,0.0,0.0,0.0,3006.0,2760.5,4489.5,4221.9,305.803,305.83633333333336,313.89475,314.33675,21.8587,20.5163,21.7563,21.3734,314.999998,314.999998,324.999988,324.999988,99.56218571428572,99.50678333333333,99.56252857142857,99.54767142857143,-0.23225000000000007,-0.00649999999999995,0.08920000000000017,-0.2793333333333333,-0.041666666666671404,-0.03333333333333144,1.4375,1.4785,37.617000000000004,29.226666666666667,36.977000000000004,34.584,57.192,34.271,58.184,52.763,55.314,33.507999999999996,56.7545,50.983000000000004,54.727999999999994,33.1285,56.623,50.307,0.17900000000000005,0.02200000000000002,-0.19112,-0.18630000000000002,0.0,206.73000000000002,206.60000000000002,203.41333333333333,203.41333333333333,0.0,0.0
4,0.0,0.0,0.0,1.0,1.0,0.0,0.0,1.0,0.0,100.0,1.0,1.1856,26.0,0.0,0.0,0.0,59.999996,0.0,26.0,26.0,26.0,26.0,-0.14311111111111108,0.2762,-0.006233333333333334,294.022,-2.28015,-2.5012499999999998,-1.5418,-1.702,-262.39,215.9525,190.910375,0.0,0.0,0.0,0.0,0.009333333333333334,-5.498166666666667,-5.498166666666667,-0.5491,-0.8963333333333332,-0.07988888888888868,-1.5829999999999997,66.108,-0.0951,-0.24932500000000002,1.58,100.0,1.0,1.0,203.9766666666667,0.0,0.0,0.0,0.0,0.0,0.0,0.0,8645.9,0.0,55.0,5.0,237.96,0.0,0.0,0.0,0.0,0.0,0.0,0.0,0.0,0.20400000000000063,0.20400000000000063,0.0,0.0,0.0,55.0,616.79921,10000.0,85.000001,85.000001,85.000001,85.000001,395.0,0.0,0.0,0.0,1.0,333.33500000000004,53.284,53.284,49.423,49.423,34.0,-35.269999999999996,22.131666666666668,-19.453333333333333,7.342499999999999,0.0,1783.407,1.1050000000000004,100.0,27.515,26.672,42.133,40.82,0.0,0.0,100.0,0.0,0.0,0.0,0.0,3313.375,2832.6,4180.75,3738.5,304.941,305.661,314.662,315.48675,21.8683,20.521,21.7661,21.381999999999998,314.999998,314.999998,324.999988,324.999988,99.5622,99.50678333333333,99.56265714285715,99.5478,-0.23675000000000002,-0.01100000000000001,0.06340000000000012,-0.29799999999999993,-0.046666666666666856,-0.04833333333333201,1.513,1.5605,37.677,29.256,37.038,34.6375,57.185,34.3025,58.2245,52.819,55.307,33.5375,56.792500000000004,51.036500000000004,54.72,33.157,56.658500000000004,50.35933333333333,0.1885000000000001,0.024499999999999966,-0.18233000000000002,-0.19237,0.0,207.11,206.98000000000002,203.9766666666667,203.9766666666667,0.0,0.0
5,0.0,0.0,0.0,1.0,1.0,0.0,0.0,1.0,0.0,100.0,1.0,1.1856,26.0,0.0,0.0,0.0,59.999996,0.0,26.0,26.0,26.0,26.0,-0.15400000000000003,0.2974000000000001,-0.005966666666666667,294.128,-2.28975,-2.4735,-1.6096,-1.734,-258.81,215.95749999999998,190.889,0.0,0.0,0.0,0.0,0.0114,-5.498166666666667,-5.498166666666667,-0.5492,0.44666666666666666,-0.0855555555555556,-0.5350000000000001,66.263,-0.11120000000000001,-0.2293,1.6400000000000006,100.0,1.0,1.0,204.48000000000002,0.0,0.0,0.0,0.0,0.0,0.0,0.0,8667.2,0.0,55.0,5.0,238.51666666666665,1.0,0.0,0.0,0.0,0.0,0.0,0.0,0.0,0.2579999999999991,0.2579999999999991,0.0,0.0,1.0,55.0,616.79921,10000.0,85.000001,85.000001,85.000001,85.000001,395.0,0.0,0.0,0.0,1.0,166.665,53.467,53.467,49.82,49.82,34.0,-34.375,21.65,-20.943333333333335,7.695,0.0,1783.354,0.629999999999999,100.0,27.697,26.573999999999998,41.833,40.387,0.0,0.0,100.0,0.0,0.0,0.0,0.0,3255.75,2767.4,4174.75,3966.8,305.0535,305.8953333333333,314.713,315.00325,21.8792,20.5263,21.7769,21.3915,314.999998,314.999998,324.999988,324.999988,99.56222857142858,99.50678333333333,99.56281428571428,99.54795714285714,-0.22750000000000004,-0.0014999999999999458,0.053400000000000114,-0.3091666666666666,-0.06333333333333258,-0.051666666666669414,1.509,1.5685,37.745000000000005,29.28933333333333,37.105000000000004,34.6965,57.181,34.338499999999996,58.2665,52.879,55.303,33.571,56.8315,51.094,54.713,33.189,56.6945,50.415333333333336,0.15850000000000009,0.04699999999999993,-0.19525,-0.18336000000000002,0.0,207.63,207.485,204.48000000000002,204.48000000000002,0.0,0.0
6,0.0,0.0,0.0,1.0,1.0,0.0,0.0,1.0,0.0,100.0,1.0,1.1856,26.0,0.0,0.0,0.0,59.999996,0.0,26.0,26.0,26.0,26.0,-0.17299999999999993,0.2934000000000001,0.0053,293.854,-2.2351,-2.5311250000000003,-1.6385,-1.6977,-255.82999999999998,215.95749999999998,190.87075,0.0,0.0,0.0,0.0,0.013133333333333335,-5.498166666666667,-5.498166666666667,-0.5385,0.024666666666666615,-0.08266666666666644,0.7560000000000002,66.393,-0.1158,-0.21985000000000002,1.2300000000000004,100.0,1.0,1.0,204.79333333333335,0.0,0.0,0.0,0.0,0.0,0.0,0.0,8680.5,0.0,55.0,5.0,238.98666666666668,0.0,0.0,0.0,0.0,0.0,0.0,0.0,0.0,0.3030000000000008,0.3030000000000008,0.0,0.0,0.0,55.0,616.79921,10000.0,85.000001,85.000001,85.000001,85.000001,395.0,0.0,0.0,0.0,1.0,166.665,53.436,53.436,49.225,49.225,34.0,-32.4775,23.286666666666665,-21.773333333333333,7.567499999999999,0.0,1783.31,0.6449999999999996,100.0,27.837,26.413,42.199,40.56,0.0,0.0,100.0,0.0,0.0,0.0,0.0,3132.0,2873.6,4227.875,4077.5,305.2145,305.6893333333333,314.47825,314.7835,21.8882,20.5307,21.786,21.3995,314.999998,314.999998,324.999988,324.999988,99.56225714285715,99.50678333333333,99.56292857142857,99.54808571428572,-0.22049999999999992,0.008000000000000007,0.056400000000000006,-0.30733333333333335,-0.041666666666671404,-0.03166666666666629,1.47,1.524,37.801,29.316666666666666,37.162,34.747,57.176,34.368,58.303,52.933,55.297,33.598,56.8655,51.1455,54.707,33.2155,56.7265,50.465666666666664,0.14949999999999997,0.058499999999999996,-0.1849,-0.18718,0.0,207.995,207.885,204.79333333333335,204.79333333333335,0.0,0.0
7,0.0,0.0,0.0,1.0,1.0,0.0,0.0,1.0,0.0,100.0,1.0,1.1856,26.0,0.0,0.0,0.0,59.999996,0.0,26.0,26.0,26.0,26.0,-0.1273333333333333,0.2913000000000001,0.011366666666666667,293.762,-2.20285,-2.5237499999999997,-1.5944,-1.7450999999999999,-252.44,215.95499999999998,190.85025,0.0,0.0,0.0,0.0,0.0151,-5.498166666666667,-5.498166666666667,-0.5485,0.0010000000000000009,-0.07644444444444431,-0.34299999999999997,66.538,-0.1097,-0.23865,1.1000000000000005,100.0,1.0,1.0,205.2866666666667,0.0,0.0,0.0,0.0,0.0,0.0,0.0,8701.3,0.0,55.0,5.0,239.50666666666666,1.0,0.0,0.0,0.0,0.0,0.0,0.0,0.0,0.3539999999999992,0.3539999999999992,0.0,0.0,1.0,55.0,616.79921,10000.0,85.000001,85.000001,85.000001,85.000001,395.0,0.0,0.0,0.0,1.0,333.33500000000004,52.979,52.979,49.637,49.637,34.0,-33.2375,23.591666666666665,-20.506666666666664,8.39,0.0,1783.257,0.28999999999999915,100.0,27.934,26.732,42.144,40.793,0.0,0.0,100.0,0.0,0.0,0.0,0.0,3315.625,2857.3,4108.75,3938.5,304.824,305.5283333333333,314.8055,315.00375,21.8985,20.5357,21.7963,21.4087,314.999998,314.999998,324.999988,324.999988,99.56228571428571,99.50678333333333,99.56307142857143,99.54822857142857,-0.19825000000000004,0.015000000000000124,0.0524,-0.2995,-0.03499999999999659,-0.054999999999999716,1.494,1.523,37.866,29.348333333333336,37.227000000000004,34.804,57.171,34.4025,58.344,52.993,55.292,33.629999999999995,56.903999999999996,51.203,54.701,33.246,56.762,50.52166666666667,0.11850000000000005,0.07699999999999996,-0.18502000000000002,-0.19007000000000002,0.0,208.44,208.34,205.2866666666667,205.2866666666667,0.0,0.0
8,0.0,0.0,0.0,1.0,1.0,0.0,0.0,1.0,0.0,100.0,1.0,1.1856,26.0,0.0,0.0,0.0,59.999996,0.0,26.0,26.0,26.0,26.0,-0.10288888888888892,0.2812000000000001,-0.018033333333333335,293.915,-2.2878,-2.4555,-1.5754000000000001,-1.7345,-248.84,215.9475,190.828375,0.0,0.0,0.0,0.0,0.0172,-5.498166666666667,-5.498166666666667,-0.5518000000000001,-0.4666666666666668,-0.06277777777777782,-0.7669999999999999,66.693,-0.0926,-0.234875,0.6040000000000001,100.0,1.0,1.0,205.70666666666668,0.0,0.0,0.0,0.0,0.0,0.0,0.0,8719.1,0.0,55.0,5.0,240.06333333333333,0.0,0.0,0.0,0.0,0.0,0.0,0.0,0.0,0.40800000000000125,0.40800000000000125,0.0,0.0,0.0,55.0,616.79921,10000.0,85.000001,85.000001,85.000001,85.000001,395.0,0.0,0.0,0.0,1.0,166.665,53.497,53.497,49.179,49.179,34.0,-31.5825,23.645,-18.453333333333333,9.182500000000001,0.0,1783.205,0.21000000000000085,100.0,27.521,26.744,42.163,40.902,0.0,0.0,100.0,0.0,0.0,0.0,0.0,3152.0,2880.3,4126.875,3998.3,305.4405,305.53333333333336,314.75175,314.84275,21.9092,20.5411,21.8072,21.4184,314.999998,314.999998,324.999988,324.999988,99.56231428571428,99.5068,99.56321428571428,99.54838571428571,-0.19124999999999992,0.02774999999999994,0.08740000000000014,-0.2856666666666666,-0.051666666666669414,-0.054999999999999716,1.4835,1.5070000000000001,37.932,29.381666666666668,37.295,34.8645,57.161,34.439,58.3875,53.0565,55.283,33.664,56.9445,51.2635,54.69,33.278999999999996,56.7995,50.580666666666666,0.11250000000000004,0.08599999999999985,-0.19256,-0.19216000000000003,0.0,208.89499999999998,208.835,205.70666666666668,205.70666666666668,0.0,0.0
9,0.0,0.0,0.0,1.0,1.0,0.0,0.0,1.0,0.0,100.0,1.0,1.1856,26.0,0.0,0.0,0.0,59.999996,0.0,26.0,26.0,26.0,26.0,-0.07611111111111102,0.2852000000000001,-0.011166666666666668,293.655,-2.211,-2.461125,-1.6311,-1.6855,-245.64,215.9375,190.808625,0.0,0.0,0.0,0.0,0.019066666666666666,-5.498166666666667,-5.498166666666667,-0.5501,0.5993333333333333,-0.06588888888888889,-0.42300000000000004,66.827,-0.0775,-0.22825,0.516,100.0,1.0,1.0,206.18333333333334,0.0,0.0,0.0,0.0,0.0,0.0,0.0,8739.4,0.0,55.0,5.0,240.54666666666668,1.0,0.0,0.0,0.0,0.0,0.0,0.0,0.0,0.4559999999999995,0.4559999999999995,0.0,0.0,1.0,55.0,616.79921,10000.0,85.000001,85.000001,85.000001,85.000001,395.0,0.0,0.0,0.0,1.0,166.665,52.734,52.734,49.805,49.805,34.0,-32.31,24.968333333333334,-18.71,9.7225,0.0,1783.157,0.010000000000001563,100.0,27.987000000000002,26.994,41.887,40.857,0.0,0.0,100.0,0.0,0.0,0.0,0.0,3344.375,2909.2,4105.125,4044.7,304.7455,305.4173333333333,314.9085,314.81725,21.9188,20.546,21.8168,21.4269,314.999998,314.999998,324.999988,324.999988,99.56232857142857,99.5068,99.56334285714286,99.54852857142858,-0.16674999999999995,0.05325000000000002,0.09220000000000006,-0.26416666666666666,-0.07166666666666544,-0.05333333333332746,1.5125,1.533,37.992999999999995,29.412333333333336,37.355000000000004,34.9185,57.153999999999996,34.474000000000004,58.4245,53.111000000000004,55.275999999999996,33.6965,56.979,51.316,54.682,33.31,56.831,50.63166666666667,0.09499999999999997,0.10099999999999998,-0.18781,-0.19098,0.0,209.345,209.28,206.18333333333334,206.18333333333334,0.0,0.0
10,0.0,0.0,0.0,1.0,1.0,0.0,0.0,1.0,0.0,100.0,1.0,1.1856,26.0,0.0,0.0,0.0,59.999996,0.0,26.0,26.0,26.0,26.0,-0.05977777777777782,0.28570000000000007,-0.0119,293.579,-2.2779,-2.463375,-1.6015000000000001,-1.6641,-242.42000000000002,215.9275,190.789125,0.0,0.0,0.0,0.0,0.020933333333333335,-5.498166666666667,-5.498166666666667,-0.5369,-0.43900000000000006,-0.027666666666666728,0.26900000000000013,66.965,-0.059800000000000006,-0.22362500000000002,0.16999999999999993,100.0,1.0,1.0,206.44333333333333,0.0,0.0,0.0,0.0,0.0,0.0,0.0,8750.3,0.0,55.0,5.0,241.04333333333335,0.0,0.0,0.0,0.0,0.0,0.0,1.0,0.0,0.5040000000000013,0.5040000000000013,0.0,0.0,0.0,55.0,616.79921,10000.0,85.000001,85.000001,85.000001,85.000001,395.0,0.0,0.0,0.0,1.0,333.33500000000004,53.574,53.574,48.737,48.737,34.0,-28.8925,24.435,-18.026666666666664,10.7325,0.0,1783.106,-0.125,100.0,27.747,26.933,42.235,41.426,0.0,0.0,100.0,0.0,0.0,0.0,0.0,3035.25,2796.3,4290.875,4205.4,305.7145,305.791,314.36975,314.3695,21.9284,20.5507,21.8265,21.4357,314.999998,314.999998,324.999988,324.999988,99.56235714285714,99.5068,99.56348571428572,99.54867142857142,-0.1552499999999999,0.07000000000000006,0.11820000000000008,-0.2516666666666666,-0.07666666666666799,-0.036666666666668846,1.4555,1.4635,38.052,29.442,37.416,34.973,57.143,34.510999999999996,58.4675,53.1725,55.265,33.7305,57.019,51.375,54.67,33.343,56.8685,50.68933333333334,0.08899999999999997,0.11599999999999988,-0.18857000000000002,-0.19230000000000003,0.0,209.745,209.695,206.44333333333333,206.44333333333333,0.0,0.0
11,0.0,0.0,0.0,1.0,1.0,0.0,0.0,1.0,0.0,100.0,1.0,1.1856,26.0,0.0,0.0,0.0,59.999996,0.0,26.0,26.0,26.0,26.0,-0.02733333333333332,0.2881,-0.08373333333333334,293.991,-2.2921,-2.4195,-1.6583,-1.6345,-238.8,215.9125,190.767125,0.0,0.0,0.0,0.0,0.022600000000000002,-5.498166666666667,-5.498166666666667,-0.5698,-0.03200000000000003,-0.006888888888889166,-0.6629999999999998,67.113,-0.0347,-0.244475,-0.019999999999999574,100.0,1.0,1.0,207.15,0.0,0.0,0.0,0.0,0.0,0.0,0.0,8780.3,0.0,55.0,5.0,241.57999999999998,1.0,0.0,0.0,0.0,0.0,0.0,1.0,0.0,0.5579999999999998,0.5579999999999998,0.0,0.0,1.0,55.0,616.79921,10000.0,85.000001,85.000001,85.000001,85.000001,395.0,0.0,0.0,0.0,1.0,166.665,53.116,53.116,49.942,49.942,34.0,-29.515,26.805,-15.136666666666663,11.0775,0.0,1783.055,-0.26500000000000057,100.0,27.474,27.129,41.772,41.356,0.0,0.0,100.0,0.0,0.0,0.0,0.0,3169.875,2995.0,3838.125,3906.4,305.3395,305.171,315.53125,315.17975,21.9389,20.5563,21.8372,21.4454,314.999998,314.999998,324.999988,324.999988,99.56237142857142,99.50681666666667,99.56362857142857,99.54881428571429,-0.13074999999999992,0.08850000000000002,0.1382000000000001,-0.21583333333333332,-0.061666666666667425,-0.05666666666667197,1.58,1.58,38.117999999999995,29.476666666666667,37.483000000000004,35.034,57.129999999999995,34.55,58.5045,53.2295,55.253,33.766999999999996,57.0535,51.4295,54.657,33.3785,56.9,50.742666666666665,0.07699999999999996,0.11549999999999994,-0.18526,-0.1864,0.0,210.18,210.175,207.15,207.15,0.0,0.0
12,0.0,0.0,0.0,1.0,1.0,0.0,0.0,1.0,0.0,100.0,1.0,1.1856,26.0,0.0,0.0,0.0,59.999996,0.0,26.0,26.0,26.0,26.0,-0.029000000000000026,0.2772000000000001,0.017133333333333334,293.533,-2.3115,-2.432125,-1.6322,-1.6836,-235.78,215.9025,190.747625,0.0,0.0,0.0,0.0,0.025466666666666665,-5.498166666666667,-5.498166666666667,-0.5566,0.29400000000000004,-0.01100000000000012,0.7400000000000002,67.241,-0.018600000000000002,-0.21987500000000001,-0.13600000000000012,100.0,1.0,1.0,207.36333333333334,0.0,0.0,0.0,0.0,0.0,0.0,0.0,8789.4,0.0,55.0,5.0,242.03666666666666,0.0,0.0,0.0,0.0,0.0,0.0,1.0,0.0,0.602999999999998,0.602999999999998,0.0,0.0,0.0,55.0,616.79921,10000.0,85.000001,85.000001,85.000001,85.000001,395.0,0.0,0.0,0.0,1.0,333.33500000000004,53.024,53.024,48.903999999999996,48.903999999999996,34.0,-28.8575,28.233333333333334,-15.18,14.545,0.0,1783.007,-0.10999999999999943,100.0,27.551,27.11,41.793,41.259,0.0,0.0,100.0,0.0,0.0,0.0,0.0,3085.125,3120.9,4172.75,4198.7,305.3925,304.94933333333336,314.642,314.5045,21.9477,20.561,21.8462,21.4535,314.999998,314.999998,324.999988,324.999988,99.56238571428571,99.50683333333333,99.56375714285714,99.54892857142858,-0.12549999999999994,0.09424999999999994,0.16459999999999986,-0.1888333333333334,-0.036666666666668846,-0.05333333333332746,1.4849999999999999,1.488,38.173,29.506,37.539,35.0845,57.117999999999995,34.587,58.541,53.2805,55.241,33.801,57.0875,51.4785,54.644,33.411,56.9315,50.79066666666667,0.09299999999999997,0.10149999999999992,-0.18069000000000002,-0.18525000000000003,0.0,210.57,210.57999999999998,207.36333333333334,207.36333333333334,0.0,0.0
13,0.0,0.0,0.0,1.0,1.0,0.0,0.0,1.0,0.0,100.0,1.0,1.1856,26.0,0.0,0.0,0.0,59.999996,0.0,26.0,26.0,26.0,26.0,-0.0004444444444444695,0.28459999999999996,0.047433333333333334,293.137,-2.2809,-2.434,-1.6601,-1.6703000000000001,-232.15,215.8875,190.724625,0.0,0.0,0.0,0.0,0.0269,-5.498166666666667,-5.498166666666667,-0.5515,-0.15333333333333332,-0.01288888888888895,1.117,67.392,-0.0108,-0.22995000000000002,-0.10799999999999965,100.0,1.0,1.0,207.76,0.0,0.0,0.0,0.0,0.0,0.0,0.0,8806.1,0.0,55.0,5.0,242.58333333333334,1.0,0.0,0.0,0.0,0.0,0.0,1.0,0.0,0.657,0.657,0.0,0.0,1.0,55.0,616.79921,10000.0,85.000001,85.000001,85.000001,85.000001,395.0,0.0,0.0,0.0,1.0,166.665,52.689,52.689,48.766999999999996,48.766999999999996,34.0,-27.5075,29.26,-14.733333333333334,15.0825,0.0,1782.956,-0.23999999999999844,100.0,27.931,27.349,42.104,41.783,0.0,0.0,100.0,0.0,0.0,0.0,0.0,3104.0,3097.3,4157.875,4306.6,305.322,305.017,314.634,314.2365,21.9584,20.5666,21.8572,21.4634,314.999998,314.999998,324.999988,324.999988,99.5624,99.50685,99.5639,99.54908571428571,-0.09325000000000006,0.12650000000000006,0.17979999999999996,-0.1851666666666666,-0.041666666666671404,-0.05833333333333002,1.4715,1.4609999999999999,38.239999999999995,29.541333333333334,37.607,35.1465,57.102999999999994,34.631,58.585499999999996,53.344,55.227000000000004,33.8425,57.129,51.539500000000004,54.629000000000005,33.451,56.9695,50.85033333333333,0.07850000000000001,0.12349999999999994,-0.18863000000000002,-0.18572000000000002,0.0,211.035,211.04000000000002,207.76,207.76,0.0,0.0
14,0.0,0.0,0.0,1.0,1.0,0.0,0.0,1.0,0.0,100.0,1.0,1.1856,26.0,0.0,0.0,0.0,59.999996,0.0,26.0,26.0,26.0,26.0,-0.005666666666666598,0.274,-0.0106,293.289,-2.30945,-2.3741250000000003,-1.6658,-1.6549,-228.91,215.8725,190.704625,0.0,0.0,0.0,0.0,0.028800000000000003,-5.498166666666667,-5.498166666666667,-0.5623,-0.09499999999999997,0.012777777777777777,1.2000000000000002,67.524,-0.0027,-0.2421,-0.25399999999999956,100.0,1.0,1.0,208.25333333333333,0.0,0.0,0.0,0.0,0.0,0.0,0.0,8827.1,0.0,55.0,5.0,243.05666666666667,0.0,0.0,0.0,0.0,0.0,0.0,1.0,0.0,0.7049999999999983,0.7049999999999983,0.0,0.0,0.0,55.0,616.79921,10000.0,85.000001,85.000001,85.000001,85.000001,395.0,0.0,0.0,0.0,1.0,166.665,52.673,52.673,48.935,48.935,34.0,-26.9725,29.378333333333334,-13.549999999999997,14.94,0.0,1782.908,-0.259999999999998,100.0,27.895,27.497,42.063,41.931,0.0,0.0,100.0,0.0,0.0,0.0,0.0,3008.375,3191.3,3984.75,4176.8,305.6195,304.734,315.0825,314.54775,21.9677,20.5717,21.8668,21.4722,314.999998,314.999998,324.999988,324.999988,99.56241428571428,99.50685,99.56404285714285,99.54922857142857,-0.0987499999999999,0.11675000000000013,0.1876,-0.1728333333333334,-0.04833333333333201,-0.060000000000002274,1.5125,1.4935,38.298,29.573,37.667,35.201,57.089,34.6715,58.623,53.399,55.213,33.879999999999995,57.164,51.5925,54.614000000000004,33.487,57.0015,50.901666666666664,0.08050000000000002,0.11099999999999999,-0.18992,-0.18266000000000002,0.0,211.445,211.45,208.25333333333333,208.25333333333333,0.0,0.0
15,0.0,0.0,0.0,1.0,1.0,0.0,0.0,1.0,0.0,100.0,1.0,1.1856,26.0,0.0,0.0,0.0,59.999996,0.0,26.0,26.0,26.0,26.0,0.017555555555555546,0.28590000000000004,0.0081,293.198,-2.31395,-2.3365,-1.6868,-1.6002,-225.66,215.86,190.684125,0.0,0.0,0.0,0.0,0.03066666666666667,-5.498166666666667,-5.498166666666667,-0.5534,0.2683333333333333,0.03544444444444439,0.8180000000000005,67.656,0.0064,-0.22465000000000002,-0.3200000000000003,100.0,1.0,1.0,208.62666666666667,0.0,0.0,0.0,0.0,0.0,0.0,0.0,8842.9,0.0,55.0,5.0,243.53333333333336,1.0,0.0,0.0,0.0,0.0,0.0,1.0,0.0,0.7530000000000001,0.7530000000000001,0.0,0.0,1.0,55.0,616.79921,10000.0,85.000001,85.000001,85.000001,85.000001,395.0,0.0,0.0,0.0,1.0,166.665,52.811,52.811,48.859,48.859,34.0,-25.52,29.013333333333332,-13.689999999999998,15.585,0.0,1782.859,-0.23000000000000043,100.0,27.923000000000002,27.605,41.903,42.068,0.0,0.0,100.0,0.0,0.0,0.0,0.0,2919.75,3162.1,4017.5,4368.3,305.901,304.81733333333335,315.029,314.1125,21.9771,20.5767,21.8763,21.4809,314.999998,314.999998,324.999988,324.999988,99.56242857142857,99.50686666666667,99.56417142857143,99.54935714285715,-0.08424999999999994,0.12325000000000008,0.19320000000000004,-0.16166666666666663,-0.02499999999999858,-0.06833333333332803,1.502,1.4845000000000002,38.357,29.604666666666667,37.727000000000004,35.256,57.075,34.712,58.66,53.454,55.2,33.917500000000004,57.198499999999996,51.6455,54.599000000000004,33.5235,57.033,50.95366666666666,0.07400000000000007,0.11599999999999988,-0.18622000000000002,-0.17999,0.0,211.85000000000002,211.88,208.62666666666667,208.62666666666667,0.0,0.0
16,0.0,0.0,0.0,1.0,1.0,0.0,0.0,1.0,0.0,100.0,1.0,1.1856,26.0,0.0,0.0,0.0,59.999996,0.0,26.0,26.0,26.0,26.0,0.02155555555555555,0.26490000000000014,-0.017566666666666668,293.213,-2.3769,-2.342,-1.6621000000000001,-1.6594,-222.21,215.845,190.662125,0.0,0.0,0.0,0.0,0.03266666666666667,-5.498166666666667,-5.498166666666667,-0.5721,-0.6666666666666667,0.019777777777777894,-1.222,67.79599999999999,0.0123,-0.241375,-0.1979999999999995,100.0,1.0,1.0,209.06333333333333,0.0,0.0,0.0,0.0,0.0,0.0,0.0,8861.5,0.0,55.0,5.0,244.04000000000002,0.0,0.0,0.0,0.0,0.0,0.0,1.0,0.0,0.8039999999999985,0.8039999999999985,0.0,0.0,0.0,55.0,616.79921,10000.0,85.000001,85.000001,85.000001,85.000001,395.0,0.0,0.0,0.0,1.0,333.33500000000004,52.673,52.673,48.644999999999996,48.644999999999996,34.0,-28.71,28.796666666666667,-13.676666666666662,14.7975,0.0,1782.807,-0.11499999999999844,100.0,27.445,27.776,42.103,42.287,0.0,0.0,100.0,0.0,0.0,0.0,0.0,3163.0,3123.7,4040.375,4060.6000000000004,305.4655,304.779,315.021,314.70075,21.9868,20.5822,21.8866,21.4903,314.999998,314.999998,324.999988,324.999988,99.56244285714286,99.50688333333333,99.56432857142858,99.5495,-0.09725000000000006,0.12125000000000008,0.18799999999999994,-0.16916666666666658,-0.041666666666671404,-0.060000000000002274,1.502,1.495,38.417,29.638666666666666,37.791,35.314,57.057,34.7555,58.702,53.5115,55.182,33.958,57.2375,51.7005,54.581,33.563,57.0695,51.007666666666665,0.08499999999999996,0.10949999999999993,-0.18288000000000001,-0.18752000000000002,0.0,212.26999999999998,212.275,209.06333333333333,209.06333333333333,0.0,0.0
17,0.0,0.0,0.0,1.0,1.0,0.0,0.0,1.0,0.0,100.0,1.0,1.1856,26.0,0.0,0.0,0.0,59.999996,0.0,26.0,26.0,26.0,26.0,0.0024444444444444713,0.2841,-0.0146,292.923,-2.328,-2.33575,-1.6969,-1.6277,-218.75,215.83249999999998,190.639625,0.0,0.0,0.0,0.0,0.0347,-5.498166666666667,-5.498166666666667,-0.5617,0.42666666666666664,-0.004888888888888943,0.5970000000000004,67.935,0.0106,-0.2212,-0.11799999999999944,100.0,1.0,1.0,209.46,0.0,0.0,0.0,0.0,0.0,0.0,0.0,8878.3,0.0,55.0,5.0,244.53666666666666,1.0,0.0,0.0,0.0,0.0,0.0,1.0,0.0,0.8550000000000004,0.8550000000000004,0.0,0.0,1.0,55.0,616.79921,10000.0,85.000001,85.000001,85.000001,85.000001,395.0,0.0,0.0,0.0,1.0,166.665,52.521,52.521,48.507999999999996,48.507999999999996,34.0,-27.5275,28.55,-15.133333333333333,15.69,0.0,1782.758,-0.10500000000000043,100.0,28.088,27.805,42.041,42.101,0.0,0.0,100.0,0.0,0.0,0.0,0.0,3106.125,3093.2,4280.875,4271.7,305.395,305.0593333333333,314.477,314.38575,21.9967,20.587699999999998,21.8967,21.4995,314.999998,314.999998,324.999988,324.999988,99.56244285714286,99.5069,99.56445714285714,99.54964285714286,-0.08499999999999996,0.1312500000000001,0.18979999999999997,-0.15933333333333333,-0.04333333333332945,-0.054999999999999716,1.4815,1.4914999999999998,38.480000000000004,29.673000000000002,37.855000000000004,35.372,57.042,34.8,58.7415,53.5685,55.168,33.9995,57.274,51.7555,54.565,33.603,57.103,51.061,0.08699999999999997,0.10949999999999993,-0.17738,-0.18106000000000003,0.0,212.73000000000002,212.74,209.46,209.46,0.0,0.0
18,0.0,0.0,0.0,1.0,1.0,0.0,0.0,1.0,0.0,100.0,1.0,1.1856,26.0,0.0,0.0,0.0,59.999996,0.0,26.0,26.0,26.0,26.0,-0.008555555555555538,0.2812000000000001,-0.0059,292.847,-2.35085,-2.31775,-1.7040000000000002,-1.5791,-215.48000000000002,215.82,190.6185,0.0,0.0,0.0,0.0,0.0366,-5.498166666666667,-5.498166666666667,-0.5731,-0.5036666666666667,0.011222222222222022,1.0220000000000002,68.066,0.006900000000000001,-0.23767500000000003,-0.09999999999999964,100.0,1.0,1.0,209.85666666666668,0.0,0.0,0.0,0.0,0.0,0.0,0.0,8895.0,0.0,55.0,5.0,245.01,0.0,0.0,0.0,0.0,0.0,0.0,1.0,0.0,0.9029999999999987,0.9029999999999987,0.0,0.0,0.0,55.0,616.79921,10000.0,85.000001,85.000001,85.000001,85.000001,395.0,0.0,0.0,0.0,1.0,166.665,52.322,52.322,48.416,48.416,34.0,-28.225,30.315,-14.356666666666662,13.615,0.0,1782.71,-0.16499999999999915,100.0,27.922,27.681,42.364000000000004,42.389,0.0,0.0,100.0,0.0,0.0,0.0,0.0,3143.5,3284.6,4106.625,4210.6,305.3265,304.53333333333336,314.83625,314.50075,22.006,20.5927,21.9065,21.5084,314.999998,314.999998,324.999988,324.999988,99.56245714285714,99.50691666666667,99.56458571428571,99.54978571428572,-0.08874999999999988,0.13000000000000012,0.19240000000000013,-0.17799999999999994,-0.046666666666666856,-0.060000000000002274,1.4985,1.5015,38.537,29.704666666666668,37.915,35.4275,57.025999999999996,34.8405,58.781,53.624,55.153,34.037,57.311,51.8085,54.55,33.638999999999996,57.1365,51.11333333333333,0.08450000000000002,0.11099999999999999,-0.18787,-0.19313000000000002,0.0,213.11,213.095,209.85666666666668,209.85666666666668,0.0,0.0
19,0.0,0.0,0.0,1.0,1.0,0.0,0.0,1.0,0.0,100.0,1.0,1.1856,26.0,0.0,0.0,0.0,59.999996,0.0,26.0,26.0,26.0,26.0,0.006000000000000005,0.2832000000000001,0.056600000000000004,292.358,-2.273,-2.413875,-1.7191,-1.5675,-212.01,215.8075,190.595875,0.0,0.0,0.0,0.0,0.0386,-5.498166666666667,-5.498166666666667,-0.5638000000000001,0.7976666666666666,0.014777777777777779,-0.7410000000000001,68.20400000000001,0.0081,-0.22817500000000002,-0.09399999999999942,100.0,1.0,1.0,210.25,0.0,0.0,0.0,0.0,0.0,0.0,0.0,8911.8,0.0,55.0,5.0,245.50666666666666,1.0,0.0,0.0,0.0,0.0,0.0,1.0,0.0,0.9540000000000006,0.9540000000000006,0.0,0.0,1.0,55.0,616.79921,10000.0,85.000001,85.000001,85.000001,85.000001,395.0,0.0,0.0,0.0,1.0,166.665,51.727000000000004,51.727000000000004,48.157,48.157,34.0,-28.5,29.415,-16.156666666666666,14.365,0.0,1782.658,-0.10500000000000043,100.0,28.375,28.366,42.118,42.472,0.0,0.0,100.0,0.0,0.0,0.0,0.0,3216.125,3126.9,4306.875,4388.7,305.1205,304.5713333333333,314.47675,314.0495,22.016,20.5984,21.9166,21.5177,314.999998,314.999998,324.999988,324.999988,99.56247142857143,99.50693333333334,99.56474285714286,99.54992857142857,-0.09450000000000003,0.11299999999999999,0.17999999999999994,-0.17533333333333334,-0.06499999999999773,-0.03333333333333144,1.473,1.4745,38.599999999999994,29.739666666666665,37.979,35.4855,57.013,34.885999999999996,58.82,53.6815,55.14,34.079499999999996,57.347,51.8645,54.535,33.68,57.17,51.16766666666666,0.08150000000000013,0.10299999999999998,-0.1834,-0.19337000000000001,0.0,213.57999999999998,213.565,210.25,210.25,0.0,0.0
20,0.0,0.0,0.0,1.0,1.0,0.0,0.0,1.0,0.0,100.0,1.0,1.1856,26.0,0.0,0.0,0.0,59.999996,0.0,26.0,26.0,26.0,26.0,0.020777777777777784,0.2761,0.03596666666666667,292.725,-2.3608000000000002,-2.377,-1.6387,-1.691,-208.53,215.79500000000002,190.5735,0.0,0.0,0.0,0.0,0.040633333333333334,-5.498166666666667,-5.498166666666667,-0.5690000000000001,-1.1430000000000002,0.012333333333333307,0.4710000000000001,68.343,0.0086,-0.24052500000000002,-0.17799999999999905,100.0,1.0,1.0,210.60666666666668,0.0,0.0,0.0,0.0,0.0,0.0,0.0,8926.9,0.0,55.0,5.0,246.01,0.0,0.0,0.0,0.0,0.0,0.0,0.0,0.0,1.004999999999999,1.004999999999999,0.0,0.0,0.0,55.0,616.79921,10000.0,85.000001,85.000001,85.000001,85.000001,395.0,0.0,0.0,0.0,1.0,333.33500000000004,52.704,52.704,47.821,47.821,34.0,-26.634999999999998,28.85,-13.363333333333337,15.6825,0.0,1782.606,0.004999999999999005,100.0,27.993,27.826,42.774,42.763,0.0,0.0,100.0,0.0,0.0,0.0,0.0,2979.25,3128.5,4152.875,4238.4,305.86,304.9603333333333,314.625,314.28975,22.0256,20.6038,21.927,21.5272,314.999998,314.999998,324.999988,324.999988,99.56248571428571,99.50695,99.56488571428571,99.55007142857143,-0.09074999999999989,0.11975000000000002,0.19920000000000004,-0.17799999999999994,-0.03499999999999659,-0.06499999999999773,1.444,1.4409999999999998,38.66,29.773333333333333,38.044,35.545,56.994,34.928,58.8635,53.7415,55.122,34.1185,57.388,51.922,54.516999999999996,33.718,57.207499999999996,51.224000000000004,0.09149999999999991,0.09650000000000003,-0.19099000000000002,-0.19651000000000002,0.0,213.94,213.95499999999998,210.60666666666668,210.60666666666668,0.0,0.0
21,0.0,0.0,0.0,1.0,1.0,0.0,0.0,1.0,0.0,100.0,1.0,1.1856,26.0,0.0,0.0,0.0,59.999996,0.0,26.0,26.0,26.0,26.0,-0.006555555555555537,0.27100000000000013,-0.07113333333333334,293.076,-2.32575,-2.382375,-1.7055,-1.6515,-205.24,215.7825,190.551875,0.0,0.0,0.0,0.0,0.04253333333333333,-5.498166666666667,-5.498166666666667,-0.5906,0.3823333333333334,-0.004222222222222349,0.2990000000000004,68.468,0.006500000000000001,-0.240075,-0.05600000000000005,100.0,1.0,1.0,211.21666666666667,0.0,0.0,0.0,0.0,0.0,0.0,0.0,8952.8,0.0,55.0,5.0,246.45666666666665,1.0,0.0,0.0,0.0,0.0,0.0,0.0,0.0,1.0530000000000008,1.0530000000000008,0.0,0.0,1.0,55.0,616.79921,10000.0,85.000001,85.000001,85.000001,85.000001,395.0,0.0,0.0,0.0,1.0,333.33500000000004,52.353,52.353,48.981,48.981,34.0,-27.799999999999997,28.891666666666666,-14.0,14.3325,0.0,1782.558,-0.054999999999999716,100.0,28.233,27.914,42.2,42.313,0.0,0.0,100.0,0.0,0.0,0.0,0.0,3106.0,3138.8,4019.25,4019.6000000000004,305.409,304.9356666666667,315.13025,314.978,22.0349,20.609,21.9365,21.535800000000002,314.999998,314.999998,324.999988,324.999988,99.56248571428571,99.50695,99.56502857142857,99.55021428571429,-0.09199999999999986,0.11725000000000008,0.1896,-0.16866666666666663,-0.05333333333332746,-0.03833333333332689,1.553,1.5425,38.718,29.805999999999997,38.103,35.599000000000004,56.980999999999995,34.969,58.8975,53.792500000000004,55.108999999999995,34.157,57.4195,51.971000000000004,54.503,33.754999999999995,57.236,51.272,0.09400000000000008,0.09899999999999998,-0.18472000000000002,-0.18645,0.0,214.38,214.35500000000002,211.21666666666667,211.21666666666667,0.0,0.0
22,0.0,0.0,0.0,1.0,1.0,0.0,0.0,1.0,0.0,100.0,1.0,1.1856,26.0,0.0,0.0,0.0,59.999996,0.0,26.0,26.0,26.0,26.0,0.010444444444444478,0.27500000000000013,0.010466666666666668,292.633,-2.26545,-2.429125,-1.7031,-1.6352,-201.75,215.76999999999998,190.528125,0.0,0.0,0.0,0.0,0.04456666666666667,-5.498166666666667,-5.498166666666667,-0.5708,0.04499999999999993,0.00533333333333319,-0.4710000000000001,68.607,0.0002,-0.22030000000000002,0.05400000000000027,100.0,1.0,1.0,211.44,0.0,0.0,0.0,0.0,0.0,0.0,0.0,8962.2,0.0,55.0,5.0,246.95666666666665,0.0,0.0,0.0,0.0,0.0,0.0,0.0,0.0,1.1039999999999992,1.1039999999999992,0.0,0.0,0.0,55.0,616.79921,10000.0,85.000001,85.000001,85.000001,85.000001,395.0,0.0,0.0,0.0,1.0,333.33500000000004,52.536,52.536,47.913,47.913,34.0,-26.765,27.455,-16.589999999999996,14.275,0.0,1782.506,-0.16499999999999915,100.0,28.09,28.178,42.429,42.632,0.0,0.0,100.0,0.0,0.0,0.0,0.0,3035.5,2980.5,4292.75,4326.2,305.7075,305.128,314.47,314.16425,22.0447,20.6145,21.9468,21.5452,314.999998,314.999998,324.999988,324.999988,99.56251428571429,99.50696666666667,99.56515714285715,99.55035714285714,-0.10050000000000003,0.10275000000000012,0.16920000000000002,-0.1918333333333333,-0.03333333333333144,-0.06666666666666998,1.446,1.4529999999999998,38.778999999999996,29.840333333333334,38.168,35.6575,56.965,35.0125,58.939499999999995,53.8515,55.095,34.197,57.459,52.0275,54.486999999999995,33.7935,57.2725,51.327,0.08200000000000007,0.10349999999999993,-0.18275000000000002,-0.19565000000000002,0.0,214.79500000000002,214.81,211.44,211.44,0.0,0.0
23,0.0,0.0,0.0,1.0,1.0,0.0,0.0,1.0,0.0,100.0,1.0,1.1856,26.0,0.0,0.0,0.0,59.999996,0.0,26.0,26.0,26.0,26.0,0.009000000000000119,0.24520000000000008,-0.0167,292.618,-2.2903000000000002,-2.384125,-1.7545000000000002,-1.7016,-198.24,215.76,190.504625,0.0,0.0,0.0,0.0,0.0466,-5.498166666666667,-5.498166666666667,-0.5898,-0.19666666666666677,0.0038888888888888307,0.5680000000000005,68.741,0.0012000000000000001,-0.24605000000000002,-0.05999999999999961,100.0,1.0,1.0,211.98333333333335,0.0,0.0,0.0,0.0,0.0,0.0,0.0,8985.2,0.0,55.0,5.0,247.44,1.0,0.0,0.0,0.0,0.0,0.0,0.0,0.0,1.1550000000000011,1.1550000000000011,0.0,0.0,1.0,55.0,616.79921,10000.0,85.000001,85.000001,85.000001,85.000001,395.0,0.0,0.0,0.0,1.0,166.665,51.757999999999996,51.757999999999996,48.859,48.859,34.0,-28.8575,29.606666666666666,-15.11,15.2725,0.0,1782.458,-0.14999999999999858,100.0,28.486,28.103,42.568,42.746,0.0,0.0,100.0,0.0,0.0,0.0,0.0,3240.125,3182.4,4017.875,4006.5,304.9355,304.768,315.146,314.91925,22.0545,20.62,21.9571,21.5547,314.999998,314.999998,324.999988,324.999988,99.56252857142857,99.50698333333334,99.56531428571428,99.5505,-0.08874999999999988,0.12149999999999994,0.1834,-0.1658333333333334,-0.04333333333332945,-0.06333333333333258,1.5135,1.513,38.841,29.875333333333334,38.232,35.716499999999996,56.95,35.0565,58.9795,53.9095,55.08,34.238,57.496,52.0835,54.472,33.833,57.3065,51.382,0.08200000000000007,0.10599999999999987,-0.18545,-0.1847,0.0,215.2,215.195,211.98333333333335,211.98333333333335,0.0,0.0
24,0.0,0.0,0.0,1.0,1.0,0.0,0.0,1.0,0.0,100.0,1.0,1.1856,26.0,0.0,0.0,0.0,59.999996,0.0,26.0,26.0,26.0,26.0,-0.002777777777777768,0.2791000000000001,-0.0487,292.831,-2.31855,-2.391,-1.6766,-1.6377,-194.94,215.7475,190.482125,0.0,0.0,0.0,0.0,0.04853333333333333,-5.498166666666667,-5.498166666666667,-0.5952000000000001,-0.4910000000000001,0.017444444444444374,1.25,68.869,0.0046,-0.23600000000000002,-0.16199999999999992,100.0,1.0,1.0,212.26999999999998,0.0,0.0,0.0,0.0,0.0,0.0,0.0,8997.3,0.0,55.0,5.0,247.90333333333334,0.0,0.0,0.0,0.0,0.0,0.0,0.0,0.0,1.2029999999999994,1.2029999999999994,0.0,0.0,0.0,55.0,616.79921,10000.0,85.000001,85.000001,85.000001,85.000001,395.0,0.0,0.0,0.0,1.0,166.665,52.856,52.856,48.004,48.004,34.0,-25.625,28.026666666666667,-15.130000000000003,14.5925,0.0,1782.41,-0.16499999999999915,100.0,28.18,27.841,42.612,42.7,0.0,0.0,100.0,0.0,0.0,0.0,0.0,2913.5,3052.5,4221.5,4208.3,305.9515,305.203,314.5155,314.515,22.0637,20.6251,21.9668,21.5635,314.999998,314.999998,324.999988,324.999988,99.56252857142857,99.507,99.56545714285714,99.55064285714286,-0.08699999999999997,0.11650000000000005,0.18240000000000012,-0.1775,-0.05833333333333002,-0.05333333333332746,1.472,1.476,38.897999999999996,29.907,38.292,35.7715,56.935,35.0955,59.0175,53.963499999999996,55.065,34.2745,57.5315,52.1355,54.456,33.8685,57.338499999999996,51.43233333333333,0.08450000000000002,0.10399999999999987,-0.18299,-0.1892,0.0,215.60000000000002,215.595,212.26999999999998,212.26999999999998,0.0,0.0
25,0.0,0.0,0.0,1.0,1.0,0.0,0.0,1.0,0.0,100.0,1.0,1.1856,26.0,0.0,0.0,0.0,59.999996,0.0,26.0,26.0,26.0,26.0,0.019888888888888845,0.2561,-0.041100000000000005,292.694,-2.3897500000000003,-2.345625,-1.6918000000000002,-1.6427,-191.43,215.7375,190.45675,0.0,0.0,0.0,0.0,0.05056666666666667,-5.498166666666667,-5.498166666666667,-0.6224000000000001,0.0076666666666665995,0.01866666666666661,-1.069,69.002,0.0074,-0.23995000000000002,-0.13600000000000012,100.0,1.0,1.0,212.79666666666668,0.0,0.0,0.0,0.0,0.0,0.0,0.0,9019.7,0.0,55.0,5.0,248.38,1.0,0.0,0.0,0.0,0.0,0.0,0.0,0.0,1.2540000000000013,1.2540000000000013,0.0,0.0,1.0,55.0,616.79921,10000.0,85.000001,85.000001,85.000001,85.000001,395.0,0.0,0.0,0.0,1.0,166.665,51.819,51.819,48.691,48.691,34.0,-30.4625,30.14,-14.246666666666663,14.415,0.0,1782.358,-0.16499999999999915,100.0,27.993,28.235,42.274,42.599000000000004,0.0,0.0,100.0,0.0,0.0,0.0,0.0,3319.625,3251.8,3979.375,4065.7,305.026,304.40066666666667,315.22375,314.826,22.0733,20.6307,21.9769,21.5727,314.999998,314.999998,324.999988,324.999988,99.56254285714286,99.50701666666667,99.5656,99.55078571428571,-0.09549999999999992,0.11925000000000008,0.17959999999999998,-0.16999999999999993,-0.03333333333333144,-0.06333333333333258,1.5255,1.5234999999999999,38.958,29.942,38.356,35.829499999999996,56.918,35.14,59.055,54.0185,55.049,34.3155,57.566,52.1885,54.439,33.908,57.3705,51.48433333333333,0.08750000000000013,0.10749999999999993,-0.18236000000000002,-0.18633000000000002,0.0,215.995,216.01999999999998,212.79666666666668,212.79666666666668,0.0,0.0
26,0.0,0.0,0.0,1.0,1.0,0.0,0.0,1.0,0.0,100.0,1.0,1.1856,26.0,0.0,0.0,0.0,59.999996,0.0,26.0,26.0,26.0,26.0,0.0015555555555555323,0.27480000000000016,0.08873333333333334,291.611,-2.33675,-2.426375,-1.7388,-1.6360000000000001,-187.89999999999998,215.725,190.431,0.0,0.0,0.0,0.0,0.05263333333333334,-5.498166666666667,-5.498166666666667,-0.5855,0.5926666666666667,0.004222222222222127,0.7679999999999998,69.138,0.009600000000000001,-0.21405000000000002,-0.19599999999999973,100.0,1.0,1.0,212.95,0.0,0.0,0.0,0.0,0.0,0.0,0.0,9026.2,0.0,55.0,5.0,248.87,0.0,0.0,0.0,0.0,0.0,0.0,0.0,0.0,1.3049999999999997,1.3049999999999997,0.0,0.0,0.0,55.0,616.79921,10000.0,85.000001,85.000001,85.000001,85.000001,395.0,0.0,0.0,0.0,1.0,333.33500000000004,51.513999999999996,51.513999999999996,47.043,47.043,34.0,-27.595,29.915,-16.876666666666665,16.525,0.0,1782.306,-0.22499999999999787,100.0,28.965,28.665,42.835,42.9,0.0,0.0,100.0,0.0,0.0,0.0,0.0,3142.875,3147.9,4553.125,4563.1,305.247,304.7903333333333,313.81425,313.662,22.083199999999998,20.636499999999998,21.9873,21.5822,314.999998,314.999998,324.999988,324.999988,99.56255714285714,99.50703333333334,99.56574285714285,99.55092857142857,-0.07274999999999987,0.12624999999999997,0.19540000000000002,-0.17333333333333334,-0.054999999999999716,-0.046666666666666856,1.408,1.3995,39.019999999999996,29.978,38.42,35.888999999999996,56.903999999999996,35.186,59.0975,54.0775,55.036,34.359,57.606,52.2455,54.424,33.95,57.407,51.53966666666666,0.07650000000000001,0.10599999999999987,-0.18306000000000003,-0.19231,0.0,216.47500000000002,216.45,212.95,212.95,0.0,0.0
27,0.0,0.0,0.0,1.0,1.0,0.0,0.0,1.0,0.0,100.0,1.0,1.1856,26.0,0.0,0.0,0.0,59.999996,0.0,26.0,26.0,26.0,26.0,0.018888888888888955,0.26039999999999996,-0.0335,292.099,-2.3052,-2.384875,-1.7317,-1.705,-184.57999999999998,215.715,190.407875,0.0,0.0,0.0,0.0,0.054566666666666666,-5.498166666666667,-5.498166666666667,-0.6112000000000001,-1.024,0.0086666666666666,0.6970000000000001,69.262,0.01,-0.25925000000000004,-0.266,100.0,1.0,1.0,213.45666666666668,0.0,0.0,0.0,0.0,0.0,0.0,0.0,9047.7,0.0,55.0,5.0,249.32,1.0,0.0,0.0,0.0,0.0,0.0,0.0,0.0,1.352999999999998,1.352999999999998,0.0,0.0,1.0,55.0,616.79921,10000.0,85.000001,85.000001,85.000001,85.000001,395.0,0.0,0.0,0.0,1.0,333.33500000000004,51.865,51.865,47.409,47.409,34.0,-26.259999999999998,30.29,-14.479999999999997,15.92,0.0,1782.258,-0.25,100.0,28.649,28.548000000000002,43.429,43.475,0.0,0.0,100.0,0.0,0.0,0.0,0.0,3015.625,3215.7,4089.75,4103.7,305.6385,304.676,314.84375,314.67675,22.0922,20.6418,21.9971,21.5913,314.999998,314.999998,324.999988,324.999988,99.56255714285714,99.50705,99.56588571428571,99.55108571428572,-0.07874999999999988,0.1292500000000001,0.19799999999999995,-0.16533333333333333,-0.04333333333332945,-0.04833333333333201,1.48,1.474,39.076,30.011,38.482,35.945499999999996,56.888,35.228,59.1375,54.1335,55.019999999999996,34.3975,57.643,52.299,54.407,33.9875,57.441,51.592,0.07650000000000001,0.11250000000000004,-0.18549000000000002,-0.18948,0.0,216.785,216.79500000000002,213.45666666666668,213.45666666666668,0.0,0.0
28,0.0,0.0,0.0,1.0,1.0,0.0,0.0,1.0,0.0,100.0,1.0,1.1856,26.0,0.0,0.0,0.0,59.999996,0.0,26.0,26.0,26.0,26.0,0.018000000000000016,0.26380000000000003,-0.051800000000000006,292.313,-2.28925,-2.38025,-1.7227000000000001,-1.6803,-180.84,215.70499999999998,190.381,0.0,0.0,0.0,0.0,0.05673333333333334,-5.498166666666667,-5.498166666666667,-0.614,0.6996666666666667,-0.0031111111111110645,0.6600000000000001,69.4,0.0158,-0.22990000000000002,-0.29000000000000004,100.0,1.0,1.0,213.98333333333335,0.0,0.0,0.0,0.0,0.0,0.0,0.0,9069.9,0.0,55.0,5.0,249.81333333333333,0.0,0.0,0.0,0.0,0.0,0.0,0.0,0.0,1.407,1.407,0.0,0.0,0.0,55.0,616.79921,10000.0,85.000001,85.000001,85.000001,85.000001,395.0,0.0,0.0,0.0,1.0,166.665,51.865,51.865,48.126,48.126,34.0,-26.12,29.545,-14.32,16.1075,0.0,1782.205,-0.245000000000001,100.0,28.767,28.466,42.748000000000005,42.955,0.0,0.0,100.0,0.0,0.0,0.0,0.0,3048.875,3149.4,4148.625,4198.1,305.477,304.835,314.87775,314.58875,22.1025,20.6478,22.0077,21.6011,314.999998,314.999998,324.999988,324.999988,99.56257142857143,99.50706666666666,99.56604285714286,99.55122857142857,-0.06824999999999992,0.1280000000000001,0.19920000000000004,-0.16016666666666657,-0.04333333333332945,-0.06499999999999773,1.518,1.504,39.141,30.048333333333332,38.548,36.0065,56.870999999999995,35.2755,59.176,54.191,55.004000000000005,34.442,57.6785,52.3545,54.39,34.03,57.473,51.646,0.07200000000000006,0.11250000000000004,-0.18945,-0.19025,0.0,217.26,217.285,213.98333333333335,213.98333333333335,0.0,0.0
29,0.0,0.0,0.0,1.0,1.0,0.0,0.0,1.0,0.0,100.0,1.0,1.1856,26.0,0.0,0.0,0.0,59.999996,0.0,26.0,26.0,26.0,26.0,0.02866666666666684,0.2622,-0.009366666666666667,292.053,-2.27845,-2.4275,-1.6791,-1.6522999999999999,-177.5,215.695,190.356125,0.0,0.0,0.0,0.0,0.058666666666666666,-5.498166666666667,-5.498166666666667,-0.6191,-0.7016666666666669,0.0058888888888888324,0.9089999999999998,69.527,0.0176,-0.23235,-0.3420000000000005,100.0,1.0,1.0,214.21333333333334,0.0,0.0,0.0,0.0,0.0,0.0,0.0,9079.7,0.0,55.0,5.0,250.27333333333334,1.0,0.0,0.0,0.0,0.0,0.0,0.0,0.0,1.4549999999999983,1.4549999999999983,0.0,0.0,1.0,55.0,616.79921,10000.0,85.000001,85.000001,85.000001,85.000001,395.0,0.0,0.0,0.0,1.0,166.665,52.002,52.002,47.424,47.424,34.0,-26.1875,30.691666666666666,-13.806666666666665,16.3975,0.0,1782.157,-0.259999999999998,100.0,28.38,28.325,43.141,43.265,0.0,0.0,100.0,0.0,0.0,0.0,0.0,3060.25,3192.2,4158.5,4338.1,305.546,304.6623333333333,314.6475,314.17325,22.1114,20.653,22.0175,21.61,314.999998,314.999998,324.999988,324.999988,99.56258571428572,99.50708333333333,99.56617142857142,99.55137142857143,-0.07274999999999987,0.133,0.20279999999999987,-0.16316666666666657,-0.03999999999999915,-0.05333333333332746,1.444,1.4245,39.196,30.081333333333333,38.609,36.0625,56.854,35.317,59.216,54.246,54.986999999999995,34.4805,57.716,52.4075,54.373000000000005,34.067,57.5075,51.69766666666666,0.07000000000000006,0.11399999999999988,-0.18027,-0.18967,0.0,217.61,217.615,214.21333333333334,214.21333333333334,0.0,0.0
30,0.0,0.0,0.0,1.0,1.0,0.0,0.0,1.0,0.0,100.0,1.0,1.1856,26.0,0.0,0.0,0.0,59.999996,0.0,26.0,26.0,26.0,26.0,0.030666666666666842,0.2553000000000001,0.055200000000000006,291.55,-2.33205,-2.318375,-1.6495000000000002,-1.709,-174.16,215.6875,190.331125,0.0,0.0,0.0,0.0,0.0606,-5.498166666666667,-5.498166666666667,-0.6181,0.827,-0.00044444444444424747,0.4770000000000003,69.648,0.0212,-0.23472500000000002,-0.3099999999999996,100.0,1.0,1.0,214.67666666666668,0.0,0.0,0.0,0.0,0.0,0.0,0.0,9099.3,0.0,55.0,5.0,250.70666666666665,0.0,0.0,0.0,0.0,0.0,0.0,1.0,0.0,1.5030000000000001,1.5030000000000001,0.0,0.0,0.0,55.0,616.79921,10000.0,85.000001,85.000001,85.000001,85.000001,395.0,0.0,0.0,0.0,1.0,333.33500000000004,50.659,50.659,47.867,47.867,34.0,-29.295,30.671666666666667,-12.356666666666662,16.91,0.0,1782.108,-0.22499999999999787,100.0,29.242,29.055,42.958,43.292,0.0,0.0,100.0,0.0,0.0,0.0,0.0,3333.25,3297.1,4132.625,4194.9,304.6975,304.3016666666667,314.821,314.4865,22.1207,20.6586,22.0271,21.6189,314.999998,314.999998,324.999988,324.999988,99.56258571428572,99.5071,99.56631428571428,99.5515,-0.06774999999999998,0.12674999999999992,0.21620000000000017,-0.15666666666666662,-0.05333333333332746,-0.05666666666667197,1.473,1.4665,39.254000000000005,30.116,38.669,36.118,56.841,35.3625,59.251999999999995,54.299,54.974999999999994,34.5225,57.7495,52.4585,54.358999999999995,34.108000000000004,57.5375,51.74733333333333,0.06800000000000006,0.10250000000000004,-0.19055000000000002,-0.19062,0.0,218.03,218.035,214.67666666666668,214.67666666666668,0.0,0.0
31,0.0,0.0,0.0,1.0,1.0,0.0,0.0,1.0,0.0,100.0,1.0,1.1856,26.0,0.0,0.0,0.0,59.999996,0.0,26.0,26.0,26.0,26.0,0.02877777777777779,0.25750000000000006,0.021333333333333336,291.275,-2.3810000000000002,-2.2969999999999997,-1.6971,-1.6058,-170.61,215.6775,190.305375,0.0,0.0,0.0,0.0,0.06266666666666666,-5.498166666666667,-5.498166666666667,-0.6034,-0.5529999999999999,0.0038888888888888307,-0.8009999999999997,69.781,0.0233,-0.23777500000000001,-0.25399999999999956,100.0,1.0,1.0,214.94,0.0,0.0,0.0,0.0,0.0,0.0,0.0,9110.5,0.0,55.0,5.0,251.18666666666667,1.0,0.0,0.0,0.0,0.0,0.0,1.0,0.0,1.5539999999999985,1.5539999999999985,0.0,0.0,1.0,55.0,616.79921,10000.0,85.000001,85.000001,85.000001,85.000001,395.0,0.0,0.0,0.0,1.0,166.665,51.178,51.178,46.387,46.387,34.0,-28.4125,30.183333333333334,-15.469999999999999,15.24,0.0,1782.058,-0.28000000000000114,100.0,28.826,29.207,43.597,44.048,0.0,0.0,100.0,0.0,0.0,0.0,0.0,3236.125,3254.0,4370.75,4230.6,305.3,304.45933333333335,314.2205,314.31225,22.1303,20.6643,22.0376,21.6286,314.999998,314.999998,324.999988,324.999988,99.5626,99.50711666666666,99.56647142857143,99.55165714285714,-0.07000000000000006,0.13175000000000003,0.19440000000000013,-0.16433333333333333,-0.04999999999999716,-0.041666666666671404,1.4205,1.4144999999999999,39.314,30.152,38.735,36.1785,56.824,35.408,59.296,54.359,54.958,34.565,57.7905,52.516,54.342,34.149,57.5755,51.803666666666665,0.06950000000000012,0.10650000000000004,-0.18641000000000002,-0.18967,0.0,218.4,218.42000000000002,214.94,214.94,0.0,0.0
32,0.0,0.0,0.0,1.0,1.0,0.0,0.0,1.0,0.0,100.0,1.0,1.1856,26.0,0.0,0.0,0.0,59.999996,0.0,26.0,26.0,26.0,26.0,0.036555555555555674,0.26180000000000003,0.004966666666666667,291.55,-2.30265,-2.405875,-1.6803,-1.6657,-166.84,215.67000000000002,190.27825,0.0,0.0,0.0,0.0,0.06486666666666667,-5.498166666666667,-5.498166666666667,-0.6204000000000001,-0.17599999999999993,-0.01955555555555577,-0.9929999999999999,69.917,0.025,-0.244975,-0.30799999999999983,100.0,1.0,1.0,215.44666666666666,0.0,0.0,0.0,0.0,0.0,0.0,0.0,9132.0,0.0,55.0,5.0,251.67333333333335,0.0,0.0,0.0,0.0,0.0,0.0,1.0,0.0,1.6080000000000005,1.6080000000000005,0.0,0.0,0.0,55.0,616.79921,10000.0,85.000001,85.000001,85.000001,85.000001,395.0,0.0,0.0,0.0,1.0,166.665,51.391999999999996,51.391999999999996,47.211,47.211,34.0,-27.4725,29.29,-14.036666666666662,17.0275,0.0,1782.005,-0.259999999999998,100.0,28.851,29.19,43.408,43.887,0.0,0.0,100.0,0.0,0.0,0.0,0.0,3211.25,3080.7,4200.875,4340.7,305.2475,304.91066666666666,314.638,314.2075,22.1404,20.6704,22.0484,21.6386,314.999998,314.999998,324.999988,324.999988,99.5626,99.50713333333333,99.56662857142857,99.55181428571429,-0.0665,0.12949999999999995,0.20040000000000013,-0.15466666666666662,-0.046666666666666856,-0.03999999999999915,1.4695,1.4575,39.378,30.190333333333335,38.802,36.241,56.805,35.4565,59.3365,54.418,54.941,34.6105,57.8285,52.573,54.323,34.193,57.6095,51.85933333333333,0.06750000000000012,0.10949999999999993,-0.18196,-0.18885000000000002,0.0,218.82999999999998,218.835,215.44666666666666,215.44666666666666,0.0,0.0
33,0.0,0.0,0.0,1.0,1.0,0.0,0.0,1.0,0.0,100.0,1.0,1.1856,26.0,0.0,0.0,0.0,59.999996,0.0,26.0,26.0,26.0,26.0,0.03833333333333333,0.26639999999999997,-0.0523,291.779,-2.33885,-2.39625,-1.6923,-1.6993,-163.69,215.66500000000002,190.254625,0.0,0.0,0.0,0.0,0.06670000000000001,-5.498166666666667,-5.498166666666667,-0.6291,-0.27966666666666673,-0.012444444444444258,1.1399999999999997,70.031,0.023,-0.234625,-0.25200000000000067,100.0,1.0,1.0,215.79666666666668,0.0,0.0,0.0,0.0,0.0,0.0,0.0,9146.9,0.0,55.0,5.0,252.08666666666664,1.0,0.0,0.0,0.0,0.0,0.0,1.0,0.0,1.6529999999999987,1.6529999999999987,0.0,0.0,1.0,55.0,616.79921,10000.0,85.000001,85.000001,85.000001,85.000001,395.0,0.0,0.0,0.0,1.0,166.665,51.650999999999996,51.650999999999996,47.379,47.379,34.0,-26.2875,29.661666666666665,-13.793333333333337,17.32,0.0,1781.959,-0.3000000000000007,100.0,28.867,28.874,43.38,43.694,0.0,0.0,100.0,0.0,0.0,0.0,0.0,3090.125,3118.3,4157.75,4281.4,305.5145,304.9356666666667,314.73725,314.35525,22.1488,20.6754,22.0574,21.6469,314.999998,314.999998,324.999988,324.999988,99.56262857142858,99.50715,99.56675714285714,99.55194285714286,-0.05600000000000005,0.13549999999999995,0.20440000000000014,-0.15283333333333338,-0.03166666666666629,-0.060000000000002274,1.477,1.4769999999999999,39.43,30.221,38.859,36.293,56.79,35.495,59.371,54.467,54.926,34.6465,57.8605,52.6205,54.307,34.2275,57.638999999999996,51.905,0.05699999999999994,0.10949999999999993,-0.18669000000000002,-0.19107000000000002,0.0,219.175,219.19,215.79666666666668,215.79666666666668,0.0,0.0
34,0.0,0.0,0.0,1.0,1.0,0.0,0.0,1.0,0.0,100.0,1.0,1.1856,26.0,0.0,0.0,0.0,59.999996,0.0,26.0,26.0,26.0,26.0,0.04033333333333333,0.25150000000000006,-0.038200000000000005,292.023,-2.2818,-2.3911249999999997,-1.7586,-1.6573,-160.11,215.66,190.226625,0.0,0.0,0.0,0.0,0.06876666666666667,-5.498166666666667,-5.498166666666667,-0.6593,-0.849,0.014888888888888951,-0.24299999999999988,70.15899999999999,0.022500000000000003,-0.24152500000000002,-0.20199999999999996,100.0,1.0,1.0,216.19666666666666,0.0,0.0,0.0,0.0,0.0,0.0,0.0,9163.7,0.0,55.0,5.0,252.55,0.0,0.0,0.0,0.0,0.0,0.0,1.0,0.0,1.7040000000000006,1.7040000000000006,0.0,0.0,0.0,55.0,616.79921,10000.0,85.000001,85.000001,85.000001,85.000001,395.0,0.0,0.0,0.0,1.0,333.33500000000004,51.926,51.926,47.867,47.867,34.0,-26.7875,28.698333333333334,-14.553333333333335,15.51,0.0,1781.906,-0.28999999999999915,100.0,28.512999999999998,28.704,43.118,43.845,0.0,0.0,100.0,0.0,0.0,0.0,0.0,3165.0,3050.4,4126.125,4184.7,305.433,305.1263333333333,314.89775,314.4865,22.1583,20.6809,22.0675,21.6564,314.999998,314.999998,324.999988,324.999988,99.56262857142858,99.50716666666666,99.56691428571429,99.5521,-0.06699999999999995,0.13024999999999998,0.20500000000000007,-0.16666666666666663,-0.051666666666669414,-0.051666666666669414,1.4845,1.476,39.489000000000004,30.255666666666666,38.922,36.3525,56.769999999999996,35.541,59.4105,54.528,54.907,34.689,57.897,52.679,54.288,34.2685,57.672,51.962,0.06550000000000011,0.11450000000000005,-0.19125,-0.18600000000000003,0.0,219.565,219.57999999999998,216.19666666666666,216.19666666666666,0.0,0.0
35,0.0,0.0,0.0,1.0,1.0,0.0,0.0,1.0,0.0,100.0,1.0,1.1856,26.0,0.0,0.0,0.0,59.999996,0.0,26.0,26.0,26.0,26.0,0.02100000000000013,0.24639999999999995,-0.06506666666666666,292.023,-2.33675,-2.3348750000000003,-1.7275,-1.6221999999999999,-156.53,215.655,190.19675,0.0,0.0,0.0,0.0,0.07086666666666666,-5.498166666666667,-5.498166666666667,-0.6962,-0.27,-0.004999999999999893,-0.09099999999999975,70.286,0.026600000000000002,-0.248875,-0.36600000000000055,100.0,1.0,1.0,216.67000000000002,0.0,0.0,0.0,0.0,0.0,0.0,0.0,9183.9,0.0,55.0,5.0,253.00333333333333,1.0,0.0,0.0,0.0,0.0,0.0,1.0,0.0,1.754999999999999,1.754999999999999,0.0,0.0,1.0,55.0,616.79921,10000.0,85.000001,85.000001,85.000001,85.000001,395.0,0.0,0.0,0.0,1.0,166.665,51.468,51.468,47.455,47.455,34.0,-27.0225,31.921666666666667,-13.053333333333335,15.1275,0.0,1781.857,-0.09999999999999787,100.0,28.47,28.819,43.07,43.286,0.0,0.0,100.0,0.0,0.0,0.0,0.0,3095.0,3401.7,4013.0,4028.2,305.4715,304.0966666666667,315.0605,314.952,22.1676,20.6867,22.0776,21.6657,314.999998,314.999998,324.999988,324.999988,99.56264285714286,99.50718333333333,99.56705714285714,99.55224285714286,-0.07200000000000006,0.1292500000000001,0.2158,-0.14933333333333332,-0.045000000000001705,-0.046666666666666856,1.5095,1.509,39.548,30.292,38.985,36.411,56.751999999999995,35.584,59.446,54.577,54.89,34.7295,57.93,52.7265,54.269,34.308,57.702,52.00833333333333,0.08150000000000013,0.09749999999999992,-0.18918000000000001,-0.1937,0.0,219.97,219.97,216.67000000000002,216.67000000000002,0.0,0.0
36,0.0,0.0,0.0,1.0,1.0,0.0,0.0,1.0,0.0,100.0,1.0,1.1856,26.0,0.0,0.0,0.0,59.999996,0.0,26.0,26.0,26.0,26.0,0.027666666666666728,0.27270000000000016,0.056466666666666665,291.26,-2.25455,-2.379625,-1.6707,-1.6662,-153.15,215.65,190.16725,0.0,0.0,0.0,0.0,0.07283333333333335,-5.498166666666667,-5.498166666666667,-0.6766,0.22999999999999998,-0.04999999999999982,0.15300000000000047,70.40899999999999,0.025900000000000003,-0.21885000000000002,-0.12600000000000033,100.0,1.0,1.0,216.82999999999998,0.0,0.0,0.0,0.0,0.0,0.0,0.0,9190.7,0.0,55.0,5.0,253.44666666666666,0.0,0.0,0.0,0.0,0.0,0.0,1.0,0.0,1.8030000000000008,1.8030000000000008,0.0,0.0,0.0,55.0,616.79921,10000.0,85.000001,85.000001,85.000001,85.000001,395.0,0.0,0.0,0.0,1.0,333.33500000000004,51.239,51.239,46.997,46.997,34.0,-26.447499999999998,30.42,-13.843333333333334,18.045,0.0,1781.809,-0.030000000000001137,100.0,29.108,28.901,43.233000000000004,43.447,0.0,0.0,100.0,0.0,0.0,0.0,0.0,3116.25,3232.9,4394.125,4538.7,305.192,304.65366666666665,314.1705,313.75675,22.1767,20.6922,22.0873,21.6747,314.999998,314.999998,324.999988,324.999988,99.56264285714286,99.50721666666666,99.5672,99.55238571428572,-0.06374999999999997,0.12874999999999992,0.2158,-0.15549999999999997,-0.03499999999999659,-0.054999999999999716,1.413,1.4125,39.604,30.326333333333334,39.046,36.467,56.736999999999995,35.6275,59.484,54.6305,54.875,34.7695,57.965,52.7785,54.254000000000005,34.347,57.734,52.059,0.08699999999999997,0.08699999999999997,-0.18866000000000002,-0.19651000000000002,0.0,220.365,220.385,216.82999999999998,216.82999999999998,0.0,0.0
