,ABS Active,ABS Enabled,AID Allow Tire Blankets,AID Auto Blip,AID Auto Clutch,AID Auto Shift,AID Fuel Rate,AID Ideal Line,AID Mech Damage,AID Stability,AID Tire Wear Rate,Air Density,Air Temp,Ballast,Best Lap Delta,Best Lap Time,Brake Bias,Brake Pos,Brake Temp FL,Brake Temp FR,Brake Temp RL,Brake Temp RR,CG Accel Lateral,CG Accel Longitudinal,CG Accel Vertical,CG Height,Camber FL,Camber FR,Camber RL,Camber RR,Car Coord X,Car Coord Y,Car Coord Z,Car Damage Front,Car Damage Left,Car Damage Rear,Car Damage Right,Car Pos Norm,Caster FL,Caster FR,Chassis Pitch Angle,Chassis Pitch Rate,Chassis Roll Angle,Chassis Roll Rate,Chassis Velocity X,Chassis Velocity Y,Chassis Velocity Z,Chassis Yaw Rate,Clutch Pos,DRS Active,DRS Available,Drive Train Speed,ERS Heat Charging,ERS Is Charging,ERS Max Energy,ERS Power Level,ERS Recovery Level,Engine Brake Setting,Engine Limiter,Engine RPM,Flags,Fuel Level,Gear,Ground Speed,HR Sample Clock,In Pit,KERS Charge,KERS Deployed Energy,KERS Input,KERS Max Energy,LR Sample Clock,Lap Invalidated,Lap Time,Lap Time2,Last Lap Time,Last Sector Time,MR Sample Clock,Max Fuel,Max Power,Max RPM,Max Sus Travel FL,Max Sus Travel FR,Max Sus Travel RL,Max Sus Travel RR,Max Torque,Max Turbo Boost,Num Tires Off Track,Penalties Enabled,Position,Raw Data Sample Rate,Ride Height FL,Ride Height FR,Ride Height RL,Ride Height RR,Road Temp,Self Align Torque FL,Self Align Torque FR,Self Align Torque RL,Self Align Torque RR,Session Lap Count,Session Time Left,Steering Angle,Surface Grip,Suspension Travel FL,Suspension Travel FR,Suspension Travel RL,Suspension Travel RR,TC Active,TC Enabled,Throttle Pos,Tire Dirt Level FL,Tire Dirt Level FR,Tire Dirt Level RL,Tire Dirt Level RR,Tire Load FL,Tire Load FR,Tire Load RL,Tire Load RR,Tire Loaded Radius FL,Tire Loaded Radius FR,Tire Loaded Radius RL,Tire Loaded Radius RR,Tire Pressure FL,Tire Pressure FR,Tire Pressure RL,Tire Pressure RR,Tire Radius FL,Tire Radius FR,Tire Radius RL,Tire Radius RR,Tire Rubber Grip FL,Tire Rubber Grip FR,Tire Rubber Grip RL,Tire Rubber Grip RR,Tire Slip Angle FL,Tire Slip Angle FR,Tire Slip Angle RL,Tire Slip Angle RR,Tire Slip Ratio FL,Tire Slip Ratio FR,Tire Slip Ratio RL,Tire Slip Ratio RR,Tire Temp Core FL,Tire Temp Core FR,Tire Temp Core RL,Tire Temp Core RR,Tire Temp Inner FL,Tire Temp Inner FR,Tire Temp Inner RL,Tire Temp Inner RR,Tire Temp Middle FL,Tire Temp Middle FR,Tire Temp Middle RL,Tire Temp Middle RR,Tire Temp Outer FL,Tire Temp Outer FR,Tire Temp Outer RL,Tire Temp Outer RR,Toe In FL,Toe In FR,Toe In RL,Toe In RR,Turbo Boost,Wheel Angular Speed FL,Wheel Angular Speed FR,Wheel Angular Speed RL,Wheel Angular Speed RR,Wind Direction,Wind Speed
0,0.0,0.0,0.0,1.0,1.0,0.0,0.0,1.0,0.0,100.0,1.0,1.1856,26.0,0.0,0.0,0.0,59.99999,0.0,26.0,26.0,26.0,26.0,-0.0848888888888889,0.3044,0.08445,293.686,-2.29665,-2.0648,-1.1206,-1.1311,-275.55,215.91750000000002,190.98675,0.0,0.0,0.0,0.0,0.0016666666666665941,-5.498166666666667,-5.498166666666667,-0.5465,1.9135,-0.014666666666666828,-1.006,65.553,-0.035500000000000004,-0.21130000000000002,0.6820000000000004,100.0,1.0,1.0,202.36666666666667,0.0,0.0,0.0,0.0,0.0,0.0,0.0,8577.6,0.0,55.0,5.0,235.96,0.0,0.0,0.0,0.0,0.0,0.0,0.0,0.0,0.006000000000000227,0.006000000000000227,0.0,0.0,0.0,55.0,616.79921,10000.0,85.0,85.0,85.0,85.0,395.0,0.0,0.0,0.0,1.0,20.0,52.078,52.078,49.025999999999996,49.025999999999996,34.0,-15.599999999999998,9.05,-29.849999999999998,24.9075,0.0,1783.441,0.7050000000000001,100.0,27.48,27.019,40.525999999999996,40.2,0.0,0.0,100.0,0.0,0.0,0.0,0.0,3069.142857142857,3710.0,4141.111111111111,4058.1000000000004,305.447,302.885,314.7865,314.742,21.7886,20.5384,21.7985,21.3167,314.99999,314.99999,324.99998,324.99998,99.56004285714286,99.50873333333334,99.56704285714285,99.54524285714285,0.17300000000000004,-0.29466666666666663,-0.25049999999999994,0.16716666666666666,-0.046666666666666856,-0.02833333333332888,1.526,1.548,37.179,29.364666666666665,37.241,34.229,56.451,35.260999999999996,59.391999999999996,51.3765,54.619,34.438,58.325,49.982,54.056,34.042500000000004,58.6165,49.653666666666666,-0.1905,-0.29899999999999993,0.20493000000000003,0.20961000000000002,0.0,205.435,205.375,202.36666666666667,202.36666666666667,0.0,0.0
1,0.0,0.0,0.0,1.0,1.0,0.0,0.0,1.0,0.0,100.0,1.0,1.1856,26.0,0.0,0.0,0.0,59.999996,0.0,26.0,26.0,26.0,26.0,-0.10255555555555551,0.3083,0.252925,292.938,-2.22875,-2.3019,-1.13445,-0.9751,-272.2,215.92000000000002,190.96675,0.0,0.0,0.0,0.0,0.0036333333333333773,-5.498166666666667,-5.498166666666667,-0.4938,-1.275,-0.06477777777777805,-0.75,65.709,-0.0488,-0.18905,1.1479999999999997,100.0,1.0,1.0,202.43666666666667,0.0,0.0,0.0,0.0,0.0,0.0,0.0,8580.5,0.0,55.0,5.0,236.51666666666665,1.0,0.0,0.0,0.0,0.0,0.0,0.0,0.0,0.05699999999999861,0.05699999999999861,0.0,0.0,1.0,55.0,616.79921,10000.0,85.000001,85.000001,85.000001,85.000001,395.0,0.0,0.0,0.0,1.0,333.33500000000004,54.108,54.108,48.141,48.141,34.0,-15.282499999999999,6.908000000000001,-35.63333333333333,28.28,0.0,1783.388,0.7850000000000001,100.0,27.374,26.83,42.691,42.076,0.0,0.0,100.0,0.0,0.0,0.0,0.0,3067.4285714285716,2483.0,4510.555555555556,4951.700000000001,305.592,306.876,313.822,312.40425,21.7986,20.5436,21.8096,21.3259,314.999998,314.999998,324.999988,324.999988,99.56005714285715,99.50876666666667,99.56721428571429,99.54541428571429,0.16266666666666652,-0.31200000000000006,-0.2746666666666666,0.14466666666666667,-0.061666666666667425,-0.04999999999999716,1.3533333333333333,1.3975,37.241,29.397333333333336,37.31,34.287,56.441,35.31,59.441,51.448499999999996,54.61,34.4835,58.371,50.052,54.045,34.087,58.66,49.723,-0.18499999999999994,-0.30800000000000005,0.20681000000000002,0.21078000000000002,0.0,205.9,205.81,202.43666666666667,202.43666666666667,0.0,0.0
2,0.0,0.0,0.0,1.0,1.0,0.0,0.0,1.0,0.0,100.0,1.0,1.1856,26.0,0.0,0.0,0.0,59.999996,0.0,26.0,26.0,26.0,26.0,-0.137,0.2954000000000001,-0.0941,294.022,-2.19305,-2.3582,-1.1052,-1.2242,-268.85,215.9225,190.947875,0.0,0.0,0.0,0.0,0.005566666666666609,-5.498166666666667,-5.498166666666667,-0.5586,0.506,-0.03677777777777802,2.725,65.848,-0.0637,-0.25630000000000003,1.3639999999999999,100.0,1.0,1.0,203.58666666666667,0.0,0.0,0.0,0.0,0.0,0.0,0.0,8629.3,0.0,55.0,5.0,237.0233333333333,0.0,0.0,0.0,0.0,0.0,0.0,0.0,0.0,0.10800000000000054,0.10800000000000054,0.0,0.0,0.0,55.0,616.79921,10000.0,85.000001,85.000001,85.000001,85.000001,395.0,0.0,0.0,0.0,1.0,333.33500000000004,52.521,52.521,50.613,50.613,34.0,-17.2675,8.748000000000001,-27.016666666666666,20.0325,0.0,1783.338,0.9100000000000001,100.0,28.264,26.784,42.272999999999996,41.239000000000004,0.0,0.0,100.0,0.0,0.0,0.0,0.0,3279.4285714285716,3053.5,3627.4444444444443,3548.0,304.682,305.218,315.96775,316.19575,21.8089,20.5489,21.8201,21.3345,314.999998,314.999998,324.999988,324.999988,99.56007142857143,99.50881666666666,99.56734285714286,99.54552857142858,0.14466666666666672,-0.32366666666666677,-0.3055,0.1345,-0.04999999999999716,-0.05666666666667197,1.689,1.734,37.306,29.430666666666667,37.375,34.3405,56.435,35.3565,59.474000000000004,51.4975,54.604,34.5265,58.402,50.0995,54.038,34.1285,58.689,49.769666666666666,-0.17799999999999994,-0.31699999999999995,0.20544,0.21574000000000002,0.0,206.335,206.22,203.58666666666667,203.58666666666667,0.0,0.0
3,0.0,0.0,0.0,1.0,1.0,0.0,0.0,1.0,0.0,100.0,1.0,1.1856,26.0,0.0,0.0,0.0,59.999996,0.0,26.0,26.0,26.0,26.0,-0.12922222222222213,0.3075000000000001,0.102325,293.365,-2.215,-2.2853,-1.0914,-1.1856,-265.68,215.92000000000002,190.929125,0.0,0.0,0.0,0.0,0.007399999999999962,-5.498166666666667,-5.498166666666667,-0.5034000000000001,0.377,-0.02244444444444449,-0.551,65.994,-0.0771,-0.18962500000000002,1.2400000000000002,100.0,1.0,1.0,203.56,0.0,0.0,0.0,0.0,0.0,0.0,0.0,8628.2,0.0,55.0,5.0,237.54666666666668,1.0,0.0,0.0,0.0,0.0,0.0,0.0,0.0,0.1559999999999988,0.1559999999999988,0.0,0.0,1.0,55.0,616.79921,10000.0,85.000001,85.000001,85.000001,85.000001,395.0,0.0,0.0,0.0,1.0,333.33500000000004,53.558,53.558,47.943,47.943,34.0,-15.1025,6.849999999999998,-35.16,24.6325,0.0,1783.29,0.870000000000001,100.0,27.823,26.891,42.419,41.448,0.0,0.0,100.0,0.0,0.0,0.0,0.0,2946.142857142857,2879.9,4414.111111111111,4224.5,305.9085,305.66675,314.04475,314.395,21.8183,20.5541,21.83,21.3429,314.999998,314.999998,324.999988,324.999988,99.5601,99.50885,99.56748571428571,99.54565714285714,0.14900000000000002,-0.33833333333333315,-0.30299999999999994,0.1225,-0.02499999999999858,-0.046666666666666856,1.4576666666666667,1.508,37.364000000000004,29.463,37.438,34.3935,56.425,35.405,59.5115,51.558,54.594,34.5715,58.4375,50.158,54.027,34.172,58.722,49.828,-0.18399999999999994,-0.3215000000000001,0.20799,0.21097000000000002,0.0,206.79000000000002,206.70499999999998,203.56,203.56,0.0,0.0
4,0.0,0.0,0.0,1.0,1.0,0.0,0.0,1.0,0.0,100.0,1.0,1.1856,26.0,0.0,0.0,0.0,59.999996,0.0,26.0,26.0,26.0,26.0,-0.14811111111111108,0.28800000000000003,-0.0453,293.579,-2.2433,-2.3748,-1.0335,-1.1923,-262.11,215.91500000000002,190.908375,0.0,0.0,0.0,0.0,0.009499999999999953,-5.498166666666667,-5.498166666666667,-0.5382,-0.8015000000000001,-0.07699999999999996,0.151,66.149,-0.0915,-0.236275,1.4699999999999998,100.0,1.0,1.0,204.17666666666668,0.0,0.0,0.0,0.0,0.0,0.0,0.0,8654.3,0.0,55.0,5.0,238.11,0.0,0.0,0.0,0.0,0.0,0.0,0.0,0.0,0.21000000000000085,0.21000000000000085,0.0,0.0,0.0,55.0,616.79921,10000.0,85.000001,85.000001,85.000001,85.000001,395.0,0.0,0.0,0.0,1.0,166.665,53.177,53.177,48.721000000000004,48.721000000000004,34.0,-17.5425,7.985999999999997,-31.88,20.9875,0.0,1783.237,0.8350000000000009,100.0,27.733,26.567,42.991,41.525,0.0,0.0,100.0,0.0,0.0,0.0,0.0,3220.857142857143,2958.1,4126.777777777777,3755.1,305.0,305.4755,314.74975,315.498,21.8288,20.5597,21.8415,21.3524,314.999998,314.999998,324.999988,324.999988,99.56011428571429,99.50888333333333,99.56764285714286,99.54581428571429,0.14033333333333342,-0.33733333333333326,-0.3158333333333334,0.11716666666666667,-0.07666666666666799,-0.036666666666668846,1.5403333333333333,1.5924999999999998,37.43,29.497999999999998,37.509,34.452,56.413,35.457,59.5565,51.6205,54.582,34.62,58.480000000000004,50.2185,54.015,34.219,58.762,49.88766666666667,-0.18199999999999994,-0.31099999999999994,0.21205000000000002,0.21428000000000003,0.0,207.26,207.10500000000002,204.17666666666668,204.17666666666668,0.0,0.0
5,0.0,0.0,0.0,1.0,1.0,0.0,0.0,1.0,0.0,100.0,1.0,1.1856,26.0,0.0,0.0,0.0,59.999996,0.0,26.0,26.0,26.0,26.0,-0.15988888888888886,0.3062,-0.022600000000000002,293.747,-2.2627,-2.3371,-1.11115,-1.2166000000000001,-258.93,215.905,190.889375,0.0,0.0,0.0,0.0,0.011333333333333306,-5.498166666666667,-5.498166666666667,-0.5367000000000001,0.4475,-0.07488888888888878,0.797,66.287,-0.0998,-0.2165,1.2679999999999998,100.0,1.0,1.0,204.62333333333333,0.0,0.0,0.0,0.0,0.0,0.0,0.0,8673.2,0.0,55.0,5.0,238.60000000000002,1.0,0.0,0.0,0.0,0.0,0.0,0.0,0.0,0.2579999999999991,0.2579999999999991,0.0,0.0,1.0,55.0,616.79921,10000.0,85.000001,85.000001,85.000001,85.000001,395.0,0.0,0.0,0.0,1.0,333.33500000000004,53.436,53.436,49.132999999999996,49.132999999999996,34.0,-17.1725,7.4559999999999995,-33.056666666666665,22.11,0.0,1783.187,0.6349999999999998,100.0,27.796,26.468,42.611000000000004,41.106,0.0,0.0,100.0,0.0,0.0,0.0,0.0,3133.0,2893.1,4090.8888888888887,4006.8,305.22,305.67975,314.8935,314.9545,21.8383,20.5647,21.851399999999998,21.360599999999998,314.999998,314.999998,324.999988,324.999988,99.56012857142858,99.50893333333333,99.56778571428572,99.54594285714286,0.1416666666666666,-0.33666666666666667,-0.32799999999999996,0.10066666666666667,-0.03166666666666629,-0.05666666666667197,1.544,1.596,37.489999999999995,29.529333333333334,37.571,34.5035,56.405,35.5035,59.593,51.674,54.574,34.6635,58.5145,50.2705,54.006,34.260999999999996,58.794,49.939,-0.1995,-0.2925,0.21154,0.21132,0.0,207.675,207.595,204.62333333333333,204.62333333333333,0.0,0.0
6,0.0,0.0,0.0,1.0,1.0,0.0,0.0,1.0,0.0,100.0,1.0,1.1856,26.0,0.0,0.0,0.0,59.999996,0.0,26.0,26.0,26.0,26.0,-0.1443333333333333,0.3044,0.020300000000000002,293.51800000000003,-2.2165,-2.387,-1.13765,-1.1813,-255.55,215.89249999999998,190.86875,0.0,0.0,0.0,0.0,0.013299999999999979,-5.498166666666667,-5.498166666666667,-0.5257000000000001,-0.06550000000000011,-0.07844444444444454,-0.73,66.435,-0.0993,-0.206125,1.112000000000001,100.0,1.0,1.0,204.96,0.0,0.0,0.0,0.0,0.0,0.0,0.0,8687.5,0.0,55.0,5.0,239.13666666666666,0.0,0.0,0.0,0.0,0.0,0.0,0.0,0.0,0.30900000000000105,0.30900000000000105,0.0,0.0,0.0,55.0,616.79921,10000.0,85.000001,85.000001,85.000001,85.000001,395.0,0.0,0.0,0.0,1.0,166.665,53.589,53.589,48.507999999999996,48.507999999999996,34.0,-17.55,7.408000000000001,-35.20333333333333,21.825000000000003,0.0,1783.139,0.40500000000000114,100.0,27.544,26.578,42.796,41.439,0.0,0.0,100.0,0.0,0.0,0.0,0.0,3207.714285714286,2762.0,4295.777777777777,4038.2,305.1655,305.87,314.429,314.77975,21.848399999999998,20.57,21.862099999999998,21.3695,314.999998,314.999998,324.999988,324.999988,99.56014285714286,99.50895,99.56794285714285,99.54608571428571,0.1306666666666665,-0.34099999999999997,-0.32233333333333336,0.0965,-0.030000000000001137,-0.054999999999999716,1.5270000000000001,1.5665,37.552,29.562666666666665,37.638,34.5595,56.394999999999996,35.5525,59.635,51.735,54.565,34.709,58.554,50.329,53.995000000000005,34.305,58.831,49.997,-0.20650000000000002,-0.2825,0.21020000000000003,0.21226,0.0,208.135,208.04000000000002,204.96,204.96,0.0,0.0
7,0.0,0.0,0.0,1.0,1.0,0.0,0.0,1.0,0.0,100.0,1.0,1.1856,26.0,0.0,0.0,0.0,59.999996,0.0,26.0,26.0,26.0,26.0,-0.10366666666666657,0.274,0.004025,293.442,-2.18765,-2.3778,-1.09755,-1.2245,-252.36,215.8775,190.849375,0.0,0.0,0.0,0.0,0.01516666666666655,-5.498166666666667,-5.498166666666667,-0.5351,0.05899999999999994,-0.06499999999999995,-0.266,66.571,-0.0955,-0.22195,0.9400000000000004,100.0,1.0,1.0,205.45666666666668,0.0,0.0,0.0,0.0,0.0,0.0,0.0,8708.5,0.0,55.0,5.0,239.62666666666667,1.0,0.0,0.0,0.0,0.0,0.0,0.0,0.0,0.3569999999999993,0.3569999999999993,0.0,0.0,1.0,55.0,616.79921,10000.0,85.000001,85.000001,85.000001,85.000001,395.0,0.0,0.0,0.0,1.0,166.665,53.07,53.07,48.95,48.95,34.0,-15.945,8.61,-32.413333333333334,22.2675,0.0,1783.09,0.15000000000000036,100.0,27.829,26.832,42.821,41.602000000000004,0.0,0.0,100.0,0.0,0.0,0.0,0.0,3245.0,2857.3,4064.0,3938.4,304.9905,305.556,314.95475,315.0005,21.8579,20.5751,21.8722,21.3779,314.999998,314.999998,324.999988,324.999988,99.56015714285714,99.509,99.56808571428571,99.54621428571429,0.16300000000000026,-0.31899999999999995,-0.32099999999999995,0.106,-0.045000000000001705,-0.03499999999999659,1.5203333333333333,1.5644999999999998,37.611999999999995,29.594666666666665,37.701,34.612,56.388,35.599000000000004,59.6725,51.7915,54.558,34.751999999999995,58.5895,50.3835,53.986999999999995,34.3465,58.864,50.051,-0.235,-0.26049999999999995,0.21002,0.20705,0.0,208.555,208.46,205.45666666666668,205.45666666666668,0.0,0.0
8,0.0,0.0,0.0,1.0,1.0,0.0,0.0,1.0,0.0,100.0,1.0,1.1856,26.0,0.0,0.0,0.0,59.999996,0.0,26.0,26.0,26.0,26.0,-0.0875555555555555,0.3017000000000001,0.00215,293.488,-2.26395,-2.3174,-1.07725,-1.217,-248.96,215.85750000000002,190.82875,0.0,0.0,0.0,0.0,0.017133333333333334,-5.498166666666667,-5.498166666666667,-0.5372,-0.40400000000000014,-0.050666666666666416,0.7000000000000001,66.718,-0.0787,-0.21880000000000002,0.42799999999999994,100.0,1.0,1.0,205.83333333333331,0.0,0.0,0.0,0.0,0.0,0.0,0.0,8724.5,0.0,55.0,5.0,240.15333333333334,0.0,0.0,0.0,0.0,0.0,0.0,0.0,0.0,0.40800000000000125,0.40800000000000125,0.0,0.0,0.0,55.0,616.79921,10000.0,85.000001,85.000001,85.000001,85.000001,395.0,0.0,0.0,0.0,1.0,333.33500000000004,53.482,53.482,48.385999999999996,48.385999999999996,34.0,-14.46,9.565999999999999,-30.419999999999998,25.0975,0.0,1783.038,0.0600000000000005,100.0,27.593,26.685,42.932,41.637,0.0,0.0,100.0,0.0,0.0,0.0,0.0,3014.857142857143,2999.8,4064.5555555555557,4083.6000000000004,305.6075,305.36325,314.856,314.703,21.8677,20.5806,21.8828,21.3869,314.999998,314.999998,324.999988,324.999988,99.56018571428571,99.50903333333333,99.56822857142858,99.54635714285715,0.18466666666666676,-0.29400000000000004,-0.2818333333333334,0.14266666666666666,-0.05333333333332746,-0.046666666666666856,1.516,1.536,37.673,29.628666666666668,37.768,34.668,56.379000000000005,35.647,59.7125,51.852000000000004,54.549,34.7965,58.6275,50.442,53.977000000000004,34.3895,58.899,50.108666666666664,-0.248,-0.25550000000000006,0.20348000000000002,0.20956000000000002,0.0,208.97500000000002,208.935,205.83333333333331,205.83333333333331,0.0,0.0
9,0.0,0.0,0.0,1.0,1.0,0.0,0.0,1.0,0.0,100.0,1.0,1.1856,26.0,0.0,0.0,0.0,59.999996,0.0,26.0,26.0,26.0,26.0,-0.06188888888888888,0.28500000000000014,0.025925,293.259,-2.18535,-2.3219,-1.1307,-1.1679,-245.75,215.8375,190.809,0.0,0.0,0.0,0.0,0.018999999999999906,-5.498166666666667,-5.498166666666667,-0.5376000000000001,0.49949999999999994,-0.053888888888888875,0.928,66.852,-0.0649,-0.214475,0.21399999999999952,100.0,1.0,1.0,206.32,0.0,0.0,0.0,0.0,0.0,0.0,0.0,8745.2,0.0,55.0,5.0,240.63666666666666,1.0,0.0,0.0,0.0,0.0,0.0,0.0,0.0,0.4559999999999995,0.4559999999999995,0.0,0.0,1.0,55.0,616.79921,10000.0,85.000001,85.000001,85.000001,85.000001,395.0,0.0,0.0,0.0,1.0,333.33500000000004,52.75,52.75,49.010999999999996,49.010999999999996,34.0,-13.605,10.854,-29.97,25.447499999999998,0.0,1782.99,-0.16000000000000014,100.0,28.031,26.942,42.672,41.628,0.0,0.0,100.0,0.0,0.0,0.0,0.0,3210.857142857143,3032.3,4022.3333333333335,4104.3,304.9725,305.23225,315.044,314.723,21.8772,20.5858,21.8928,21.3953,314.999998,314.999998,324.999988,324.999988,99.5602,99.50906666666667,99.56837142857142,99.5465,0.20766666666666644,-0.27,-0.27116666666666667,0.162,-0.03499999999999659,-0.05833333333333002,1.548,1.5505,37.732,29.66133333333333,37.83,34.7205,56.373999999999995,35.693,59.748,51.9075,54.544,34.8395,58.6605,50.496,53.971000000000004,34.431,58.93,50.162,-0.25949999999999995,-0.23550000000000004,0.20489000000000002,0.21362,0.0,209.41,209.39,206.32,206.32,0.0,0.0
10,0.0,0.0,0.0,1.0,1.0,0.0,0.0,1.0,0.0,100.0,1.0,1.1856,26.0,0.0,0.0,0.0,59.999996,0.0,26.0,26.0,26.0,26.0,-0.04299999999999993,0.2824,-0.018775,293.198,-2.26035,-2.2853,-1.10465,-1.1442,-242.34,215.815,190.78825,0.0,0.0,0.0,0.0,0.020966666666666578,-5.498166666666667,-5.498166666666667,-0.5259,-0.47550000000000003,-0.020888888888888957,0.185,66.998,-0.041600000000000005,-0.211625,-0.05399999999999938,100.0,1.0,1.0,206.62333333333333,0.0,0.0,0.0,0.0,0.0,0.0,0.0,8758.0,0.0,55.0,5.0,241.16333333333336,0.0,0.0,0.0,0.0,0.0,0.0,1.0,0.0,0.5069999999999979,0.5069999999999979,0.0,0.0,0.0,55.0,616.79921,10000.0,85.000001,85.000001,85.000001,85.000001,395.0,0.0,0.0,0.0,1.0,333.33500000000004,53.452,53.452,48.126,48.126,34.0,-13.3325,10.055999999999997,-30.71,26.71,0.0,1782.939,-0.21999999999999886,100.0,27.686,27.056,42.846000000000004,42.269999999999996,0.0,0.0,100.0,0.0,0.0,0.0,0.0,3023.5714285714284,2866.2,4227.333333333333,4200.2,305.743,305.62025,314.5645,314.366,21.8871,20.5913,21.9035,21.4044,314.999998,314.999998,324.999988,324.999988,99.56022857142857,99.50908333333334,99.56851428571429,99.54664285714286,0.20699999999999985,-0.2663333333333333,-0.253,0.17016666666666666,-0.045000000000001705,-0.041666666666671404,1.504,1.476,37.794,29.695333333333334,37.897,34.778,56.367999999999995,35.739,59.7885,51.9705,54.538,34.8825,58.698499999999996,50.557,53.964,34.4725,58.9655,50.22233333333333,-0.26949999999999996,-0.22849999999999993,0.19895000000000002,0.21436000000000002,0.0,209.835,209.835,206.62333333333333,206.62333333333333,0.0,0.0
11,0.0,0.0,0.0,1.0,1.0,0.0,0.0,1.0,0.0,100.0,1.0,1.1856,26.0,0.0,0.0,0.0,59.999996,0.0,26.0,26.0,26.0,26.0,-0.01577777777777778,0.2784,-0.0562,293.564,-2.26785,-2.2807,-1.1586,-1.1176,-238.92000000000002,215.79000000000002,190.767375,0.0,0.0,0.0,0.0,0.022599999999999953,-5.498166666666667,-5.498166666666667,-0.5562,-0.05049999999999999,0.00533333333333319,0.672,67.138,-0.022000000000000002,-0.229325,-0.2320000000000002,100.0,1.0,1.0,207.2733333333333,0.0,0.0,0.0,0.0,0.0,0.0,0.0,8785.5,0.0,55.0,5.0,241.67000000000002,1.0,0.0,0.0,0.0,0.0,0.0,1.0,0.0,0.5579999999999998,0.5579999999999998,0.0,0.0,1.0,55.0,616.79921,10000.0,85.000001,85.000001,85.000001,85.000001,395.0,0.0,0.0,0.0,1.0,333.33500000000004,53.116,53.116,49.149,49.149,34.0,-11.979999999999997,12.531999999999996,-26.446666666666665,25.884999999999998,0.0,1782.888,-0.29999999999999893,100.0,27.549,27.086,42.498000000000005,42.139,0.0,0.0,100.0,0.0,0.0,0.0,0.0,3036.142857142857,3118.0,3817.0,3982.1000000000004,305.536,304.986,315.5745,315.02475,21.8969,20.5969,21.9141,21.4134,314.999998,314.999998,324.999988,324.999988,99.56025714285714,99.50911666666667,99.56865714285715,99.54678571428572,0.2416666666666667,-0.2336666666666667,-0.23116666666666663,0.20716666666666667,-0.03833333333332689,-0.051666666666669414,1.5876666666666668,1.601,37.855000000000004,29.730333333333334,37.963,34.834,56.361999999999995,35.786,59.8225,52.0305,54.532,34.9265,58.731,50.6155,53.956,34.515,58.995,50.28,-0.271,-0.2270000000000001,0.21236000000000002,0.21425000000000002,0.0,210.245,210.26999999999998,207.2733333333333,207.2733333333333,0.0,0.0
12,0.0,0.0,0.0,1.0,1.0,0.0,0.0,1.0,0.0,100.0,1.0,1.1856,26.0,0.0,0.0,0.0,59.999996,0.0,26.0,26.0,26.0,26.0,0.002666666666666595,0.2957000000000001,0.022025,293.091,-2.2907,-2.2802,-1.1335,-1.142,-235.69,215.76749999999998,190.74675,0.0,0.0,0.0,0.0,0.025466666666666526,-5.498166666666667,-5.498166666666667,-0.5432,0.34299999999999997,0.0012222222222222356,0.8170000000000001,67.275,-0.0074,-0.20570000000000002,-0.2839999999999998,100.0,1.0,1.0,207.51999999999998,0.0,0.0,0.0,0.0,0.0,0.0,0.0,8796.0,0.0,55.0,5.0,242.16,0.0,0.0,0.0,0.0,0.0,0.0,1.0,0.0,0.6059999999999981,0.6059999999999981,0.0,0.0,0.0,55.0,616.79921,10000.0,85.000001,85.000001,85.000001,85.000001,395.0,0.0,0.0,0.0,1.0,333.33500000000004,52.948,52.948,48.157,48.157,34.0,-11.7425,13.344000000000001,-27.833333333333336,28.7975,0.0,1782.841,-0.3550000000000004,100.0,27.556,27.28,42.477000000000004,42.141999999999996,0.0,0.0,100.0,0.0,0.0,0.0,0.0,3041.285714285714,3153.0,4144.555555555556,4228.4,305.512,304.8705,314.7455,314.43975,21.9061,20.6022,21.924,21.4219,314.999998,314.999998,324.999988,324.999988,99.56028571428571,99.50913333333334,99.5688,99.54691428571428,0.2520000000000002,-0.21999999999999997,-0.20499999999999996,0.213,-0.030000000000001137,-0.05666666666667197,1.5310000000000001,1.5255,37.913,29.764,38.025,34.887,56.357,35.83,59.8575,52.088,54.527,34.967,58.763999999999996,50.6715,53.95,34.555,59.0255,50.33533333333334,-0.268,-0.22249999999999992,0.20472,0.20416,0.0,210.685,210.715,207.51999999999998,207.51999999999998,0.0,0.0
13,0.0,0.0,0.0,1.0,1.0,0.0,0.0,1.0,0.0,100.0,1.0,1.1856,26.0,0.0,0.0,0.0,59.999996,0.0,26.0,26.0,26.0,26.0,0.02955555555555578,0.27990000000000004,0.02825,292.725,-2.2718,-2.2823,-1.16705,-1.1475,-232.26,215.7425,190.725,0.0,0.0,0.0,0.0,0.026833333333333376,-5.498166666666667,-5.498166666666667,-0.5381,-0.19700000000000006,-0.0003333333333332966,-0.361,67.418,0.0043,-0.21435,-0.3860000000000001,100.0,1.0,1.0,207.90333333333334,0.0,0.0,0.0,0.0,0.0,0.0,0.0,8812.2,0.0,55.0,5.0,242.67666666666668,1.0,0.0,0.0,0.0,0.0,0.0,1.0,0.0,0.657,0.657,0.0,0.0,1.0,55.0,616.79921,10000.0,85.000001,85.000001,85.000001,85.000001,395.0,0.0,0.0,0.0,1.0,333.33500000000004,52.704,52.704,48.019,48.019,34.0,-11.342500000000001,12.964000000000002,-28.86,29.7175,0.0,1782.789,-0.3849999999999998,100.0,27.679,27.639,42.685,42.782,0.0,0.0,100.0,0.0,0.0,0.0,0.0,3161.714285714286,3021.0,4195.777777777777,4244.3,305.321,305.09125,314.662,314.27975,21.9159,20.6079,21.9347,21.4311,314.999998,314.999998,324.999988,324.999988,99.56031428571428,99.50916666666667,99.56894285714286,99.54707142857143,0.2650000000000001,-0.21699999999999986,-0.20550000000000002,0.21983333333333335,-0.03999999999999915,-0.04999999999999716,1.494,1.4855,37.974000000000004,29.799666666666667,38.092,34.9445,56.354,35.876,59.896,52.152,54.524,35.01,58.7995,50.733000000000004,53.945,34.5965,59.0585,50.39633333333333,-0.2845,-0.21399999999999997,0.20335,0.2129,0.0,211.115,211.14,207.90333333333334,207.90333333333334,0.0,0.0
14,0.0,0.0,0.0,1.0,1.0,0.0,0.0,1.0,0.0,100.0,1.0,1.1856,26.0,0.0,0.0,0.0,59.999996,0.0,26.0,26.0,26.0,26.0,0.033333333333333215,0.26890000000000014,-0.014725,292.953,-2.29425,-2.2847,-1.1703999999999999,-1.1302,-228.82,215.72,190.703625,0.0,0.0,0.0,0.0,0.028833333333333377,-5.498166666666667,-5.498166666666667,-0.5503,-0.05249999999999999,0.027555555555555555,1.028,67.557,0.0152,-0.227275,-0.5,100.0,1.0,1.0,208.42333333333335,0.0,0.0,0.0,0.0,0.0,0.0,0.0,8834.3,0.0,55.0,5.0,243.18,0.0,0.0,0.0,0.0,0.0,0.0,1.0,0.0,0.7079999999999984,0.7079999999999984,0.0,0.0,0.0,55.0,616.79921,10000.0,85.000001,85.000001,85.000001,85.000001,395.0,0.0,0.0,0.0,1.0,333.33500000000004,52.734,52.734,48.325,48.325,34.0,-10.232500000000002,14.328000000000003,-25.72,29.03,0.0,1782.737,-0.40499999999999936,100.0,27.777,27.677,42.655,42.803,0.0,0.0,100.0,0.0,0.0,0.0,0.0,2970.4285714285716,3159.7,3941.6666666666665,4178.4,305.7245,304.778,315.2315,314.52925,21.9257,20.6137,21.9453,21.4402,314.999998,314.999998,324.999988,324.999988,99.56034285714286,99.5092,99.56908571428572,99.54721428571429,0.2786666666666666,-0.20233333333333325,-0.18633333333333335,0.229,-0.03833333333332689,-0.03499999999999659,1.5483333333333333,1.541,38.036,29.83566666666667,38.158,35.0015,56.349999999999994,35.922,59.931,52.2145,54.519999999999996,35.053,58.832499999999996,50.794,53.94,34.638,59.089,50.45633333333333,-0.28600000000000003,-0.21250000000000013,0.20953000000000002,0.20885,0.0,211.54500000000002,211.57,208.42333333333335,208.42333333333335,0.0,0.0
15,0.0,0.0,0.0,1.0,1.0,0.0,0.0,1.0,0.0,100.0,1.0,1.1856,26.0,0.0,0.0,0.0,59.999996,0.0,26.0,26.0,26.0,26.0,0.052444444444444294,0.2905,-0.033800000000000004,292.938,-2.29685,-2.2513,-1.1868,-1.1419,-225.37,215.6975,190.681875,0.0,0.0,0.0,0.0,0.03083333333333338,-5.498166666666667,-5.498166666666667,-0.5408000000000001,0.1745,0.03966666666666674,-0.998,67.69800000000001,0.0252,-0.21015,-0.4660000000000002,100.0,1.0,1.0,208.82666666666665,0.0,0.0,0.0,0.0,0.0,0.0,0.0,8851.5,0.0,55.0,5.0,243.68666666666667,1.0,0.0,0.0,0.0,0.0,0.0,1.0,0.0,0.7590000000000003,0.7590000000000003,0.0,0.0,1.0,55.0,616.79921,10000.0,85.000001,85.000001,85.000001,85.000001,395.0,0.0,0.0,0.0,1.0,166.665,52.902,52.902,48.157,48.157,34.0,-10.767499999999998,13.079999999999998,-27.236666666666665,30.080000000000002,0.0,1782.688,-0.3100000000000005,100.0,27.573,27.864,42.407,43.034,0.0,0.0,100.0,0.0,0.0,0.0,0.0,3000.142857142857,3010.1,4067.222222222222,4200.8,305.838,305.05925,315.01,314.354,21.9354,20.6195,21.9559,21.4493,314.999998,314.999998,324.999988,324.999988,99.56038571428572,99.50921666666666,99.56924285714285,99.54737142857142,0.26800000000000024,-0.20766666666666667,-0.19199999999999995,0.23683333333333334,-0.046666666666666856,-0.045000000000001705,1.522,1.5185,38.096000000000004,29.871666666666666,38.224000000000004,35.0585,56.347,35.968,59.9655,52.2775,54.516999999999996,35.096000000000004,58.865,50.855000000000004,53.935,34.6795,59.1185,50.51733333333333,-0.27649999999999997,-0.22199999999999998,0.21887,0.20240000000000002,0.0,211.99,212.015,208.82666666666665,208.82666666666665,0.0,0.0
16,0.0,0.0,0.0,1.0,1.0,0.0,0.0,1.0,0.0,100.0,1.0,1.1856,26.0,0.0,0.0,0.0,59.999996,0.0,26.0,26.0,26.0,26.0,0.043888888888888866,0.27049999999999996,-0.021650000000000003,292.831,-2.3518,-2.2053,-1.15975,-1.1441,-222.11,215.675,190.661125,0.0,0.0,0.0,0.0,0.03273333333333339,-5.498166666666667,-5.498166666666667,-0.5577,-0.516,0.02633333333333332,-1.154,67.831,0.0328,-0.225975,-0.3680000000000003,100.0,1.0,1.0,209.23000000000002,0.0,0.0,0.0,0.0,0.0,0.0,0.0,8868.5,0.0,55.0,5.0,244.16333333333336,0.0,0.0,0.0,0.0,0.0,0.0,1.0,0.0,0.8069999999999986,0.8069999999999986,0.0,0.0,0.0,55.0,616.79921,10000.0,85.000001,85.000001,85.000001,85.000001,395.0,0.0,0.0,0.0,1.0,333.33500000000004,52.597,52.597,48.004,48.004,34.0,-11.622500000000002,13.708000000000002,-26.196666666666665,29.0425,0.0,1782.64,-0.2599999999999998,100.0,27.369,27.898,42.677,43.098,0.0,0.0,100.0,0.0,0.0,0.0,0.0,3171.4285714285716,3145.2,4049.3333333333335,4035.4,305.3875,304.71475,315.033,314.7585,21.9444,20.6249,21.9659,21.4579,314.999998,314.999998,324.999988,324.999988,99.56041428571429,99.50925,99.56937142857143,99.54751428571429,0.27633333333333354,-0.19799999999999995,-0.18233333333333335,0.24483333333333335,-0.04999999999999716,-0.036666666666668846,1.5386666666666666,1.528,38.153,29.906,38.287,35.112,56.342,36.010999999999996,60.001,52.336,54.510999999999996,35.135999999999996,58.8985,50.912,53.929,34.719,59.149,50.57333333333334,-0.26849999999999996,-0.2270000000000001,0.20579000000000003,0.20851000000000003,0.0,212.37,212.41,209.23000000000002,209.23000000000002,0.0,0.0
17,0.0,0.0,0.0,1.0,1.0,0.0,0.0,1.0,0.0,100.0,1.0,1.1856,26.0,0.0,0.0,0.0,59.999996,0.0,26.0,26.0,26.0,26.0,0.03299999999999992,0.2836000000000001,0.021225,292.435,-2.31155,-2.1879,-1.20045,-1.1063,-218.65,215.655,190.63875,0.0,0.0,0.0,0.0,0.03476666666666661,-5.498166666666667,-5.498166666666667,-0.5489,0.28300000000000003,0.009444444444444366,0.648,67.97,0.031900000000000005,-0.209575,-0.3700000000000001,100.0,1.0,1.0,209.5966666666667,0.0,0.0,0.0,0.0,0.0,0.0,0.0,8884.1,0.0,55.0,5.0,244.66333333333336,1.0,0.0,0.0,0.0,0.0,0.0,1.0,0.0,0.8580000000000005,0.8580000000000005,0.0,0.0,1.0,55.0,616.79921,10000.0,85.000001,85.000001,85.000001,85.000001,395.0,0.0,0.0,0.0,1.0,333.33500000000004,52.383,52.383,47.607,47.607,34.0,-10.780000000000001,13.745999999999999,-28.433333333333334,31.3275,0.0,1782.587,-0.23000000000000043,100.0,27.928,27.866,42.699,42.995000000000005,0.0,0.0,100.0,0.0,0.0,0.0,0.0,3099.5714285714284,3199.2,4281.222222222223,4304.2,305.393,304.737,314.48975,314.27625,21.9542,20.6308,21.9765,21.467,314.999998,314.999998,324.999988,324.999988,99.56045714285715,99.50928333333333,99.56952857142858,99.54765714285715,0.28133333333333344,-0.19666666666666677,-0.17666666666666664,0.2555,-0.045000000000001705,-0.06833333333332803,1.5086666666666666,1.4925000000000002,38.214,29.942666666666668,38.352999999999994,35.169,56.34,36.058,60.036500000000004,52.3975,54.509,35.1795,58.9315,50.972,53.925,34.760999999999996,59.1795,50.632999999999996,-0.268,-0.22999999999999998,0.21251,0.21094000000000002,0.0,212.845,212.875,209.5966666666667,209.5966666666667,0.0,0.0
18,0.0,0.0,0.0,1.0,1.0,0.0,0.0,1.0,0.0,100.0,1.0,1.1856,26.0,0.0,0.0,0.0,59.999996,0.0,26.0,26.0,26.0,26.0,0.03022222222222215,0.27360000000000007,0.044075,292.328,-2.25265,-2.3053,-1.11175,-1.0616,-215.18,215.635,190.61625,0.0,0.0,0.0,0.0,0.036766666666666614,-5.498166666666667,-5.498166666666667,-0.5615,-0.379,0.0173333333333332,-0.5650000000000001,68.10900000000001,0.0287,-0.226575,-0.2679999999999998,100.0,1.0,1.0,210.0233333333333,0.0,0.0,0.0,0.0,0.0,0.0,0.0,8902.2,0.0,55.0,5.0,245.16333333333336,0.0,0.0,0.0,0.0,0.0,0.0,1.0,0.0,0.9089999999999989,0.9089999999999989,0.0,0.0,0.0,55.0,616.79921,10000.0,85.000001,85.000001,85.000001,85.000001,395.0,0.0,0.0,0.0,1.0,166.665,52.185,52.185,47.562,47.562,34.0,-11.247500000000002,14.325999999999997,-26.596666666666664,29.345,0.0,1782.539,-0.1999999999999993,100.0,27.728,28.08,42.859,43.343,0.0,0.0,100.0,0.0,0.0,0.0,0.0,3174.285714285714,3171.1,4136.444444444444,4238.5,305.2795,304.48625,314.774,314.32975,21.9639,20.6366,21.9872,21.4762,314.999998,314.999998,324.999988,324.999988,99.56048571428572,99.5093,99.56965714285714,99.5478,0.26400000000000023,-0.21166666666666667,-0.18566666666666665,0.23766666666666666,-0.05666666666667197,-0.026666666666670835,1.505,1.4939999999999998,38.274,29.978666666666665,38.42,35.2265,56.336,36.103,60.073,52.461,54.504999999999995,35.2225,58.966,51.033500000000004,53.919,34.8025,59.211,50.693666666666665,-0.269,-0.23449999999999993,0.20828000000000002,0.21324,0.0,213.26,213.26,210.0233333333333,210.0233333333333,0.0,0.0
19,0.0,0.0,0.0,1.0,1.0,0.0,0.0,1.0,0.0,100.0,1.0,1.1856,26.0,0.0,0.0,0.0,59.999996,0.0,26.0,26.0,26.0,26.0,0.04644444444444429,0.2913000000000001,0.057275,292.053,-2.2504,-2.2720000000000002,-1.1349,-1.1897,-211.91,215.6175,190.594875,0.0,0.0,0.0,0.0,0.038666666666666516,-5.498166666666667,-5.498166666666667,-0.5501,0.6599999999999999,0.021666666666666723,-0.801,68.239,0.0262,-0.21382500000000002,-0.22599999999999998,100.0,1.0,1.0,210.41,0.0,0.0,0.0,0.0,0.0,0.0,0.0,8918.6,0.0,55.0,5.0,245.63,1.0,0.0,0.0,0.0,0.0,0.0,1.0,0.0,0.9570000000000007,0.9570000000000007,0.0,0.0,1.0,55.0,616.79921,10000.0,85.000001,85.000001,85.000001,85.000001,395.0,0.0,0.0,0.0,1.0,166.665,51.971000000000004,51.971000000000004,47.607,47.607,34.0,-10.887500000000003,12.98,-27.736666666666665,32.265,0.0,1782.491,-0.16499999999999915,100.0,28.236,28.477,42.748000000000005,43.421,0.0,0.0,100.0,0.0,0.0,0.0,0.0,3154.285714285714,3072.1,4225.222222222223,4319.7,305.3165,304.798,314.6285,314.019,21.9731,20.6422,21.9971,21.4848,314.999998,314.999998,324.999988,324.999988,99.56051428571429,99.50931666666666,99.5698,99.54794285714286,0.2696666666666667,-0.22233333333333327,-0.18733333333333335,0.24016666666666667,-0.04333333333332945,-0.054999999999999716,1.4793333333333334,1.476,38.332,30.013666666666666,38.482,35.28,56.335,36.1485,60.105000000000004,52.5195,54.503,35.2645,58.996,51.0905,53.916,34.8435,59.239,50.75033333333333,-0.266,-0.23750000000000004,0.21146,0.21424,0.0,213.675,213.71,210.41,210.41,0.0,0.0
20,0.0,0.0,0.0,1.0,1.0,0.0,0.0,1.0,0.0,100.0,1.0,1.1856,26.0,0.0,0.0,0.0,59.999996,0.0,26.0,26.0,26.0,26.0,0.03577777777777791,0.2712000000000001,-0.006325,292.358,-2.3141,-2.2335,-1.13935,-1.1737,-208.43,215.6,190.572375,0.0,0.0,0.0,0.0,0.04069999999999996,-5.498166666666667,-5.498166666666667,-0.557,-0.9485000000000001,0.022555555555555662,0.463,68.377,0.0239,-0.22710000000000002,-0.19399999999999995,100.0,1.0,1.0,210.82666666666665,0.0,0.0,0.0,0.0,0.0,0.0,0.0,8936.1,0.0,55.0,5.0,246.13,0.0,0.0,0.0,0.0,0.0,0.0,0.0,0.0,1.0079999999999991,1.0079999999999991,0.0,0.0,0.0,55.0,616.79921,10000.0,85.000001,85.000001,85.000001,85.000001,395.0,0.0,0.0,0.0,1.0,333.33500000000004,52.505,52.505,47.302,47.302,34.0,-10.659999999999997,13.39,-26.72,30.1975,0.0,1782.439,-0.16000000000000014,100.0,27.956,27.981,43.435,43.727000000000004,0.0,0.0,100.0,0.0,0.0,0.0,0.0,2991.857142857143,3168.5,4069.1111111111113,4135.6,305.736,304.83525,314.88,314.545,21.982599999999998,20.648,22.0079,21.4941,314.999998,314.999998,324.999988,324.999988,99.56054285714286,99.50935,99.56995714285715,99.5481,0.2749999999999999,-0.21066666666666678,-0.18766666666666665,0.24016666666666667,-0.023333333333326323,-0.046666666666666856,1.4876666666666667,1.4985,38.391,30.049999999999997,38.549,35.338,56.329,36.1945,60.1435,52.5835,54.498000000000005,35.3075,59.032,51.1525,53.909,34.885,59.272,50.81166666666667,-0.265,-0.23649999999999993,0.21625000000000003,0.20974,0.0,214.04500000000002,214.085,210.82666666666665,210.82666666666665,0.0,0.0
21,0.0,0.0,0.0,1.0,1.0,0.0,0.0,1.0,0.0,100.0,1.0,1.1856,26.0,0.0,0.0,0.0,59.999996,0.0,26.0,26.0,26.0,26.0,0.019555555555555548,0.2753000000000001,-0.05085,292.557,-2.3075,-2.2411,-1.18265,-1.1335,-205.14,215.58249999999998,190.55075,0.0,0.0,0.0,0.0,0.04259999999999997,-5.498166666666667,-5.498166666666667,-0.5739000000000001,0.2015,0.0076666666666667105,0.542,68.503,0.0199,-0.22265000000000001,-0.2860000000000005,100.0,1.0,1.0,211.35000000000002,0.0,0.0,0.0,0.0,0.0,0.0,0.0,8958.3,0.0,55.0,5.0,246.58333333333334,1.0,0.0,0.0,0.0,0.0,0.0,0.0,0.0,1.056000000000001,1.056000000000001,0.0,0.0,1.0,55.0,616.79921,10000.0,85.000001,85.000001,85.000001,85.000001,395.0,0.0,0.0,0.0,1.0,333.33500000000004,52.322,52.322,48.004,48.004,34.0,-11.0225,14.046,-26.603333333333335,28.75,0.0,1782.391,-0.22499999999999964,100.0,28.1,27.953,42.981,43.271,0.0,0.0,100.0,0.0,0.0,0.0,0.0,3092.857142857143,3190.0,4035.6666666666665,4060.9,305.4225,304.79575,315.06725,314.8535,21.9917,20.6535,22.0177,21.5026,314.999998,314.999998,324.999988,324.999988,99.56058571428571,99.50938333333333,99.57008571428571,99.54824285714285,0.2749999999999999,-0.20066666666666677,-0.1878333333333334,0.2425,-0.045000000000001705,-0.045000000000001705,1.5656666666666665,1.5470000000000002,38.448,30.084666666666664,38.611000000000004,35.391,56.326,36.238,60.1745,52.638999999999996,54.495000000000005,35.3485,59.061,51.2065,53.905,34.9245,59.2985,50.865,-0.272,-0.22950000000000004,0.21062000000000003,0.20748000000000003,0.0,214.49,214.5,211.35000000000002,211.35000000000002,0.0,0.0
22,0.0,0.0,0.0,1.0,1.0,0.0,0.0,1.0,0.0,100.0,1.0,1.1856,26.0,0.0,0.0,0.0,59.999996,0.0,26.0,26.0,26.0,26.0,0.018000000000000016,0.28400000000000003,-0.009225,292.145,-2.3743,-2.1974,-1.20795,-1.1149,-201.64,215.5675,190.527,0.0,0.0,0.0,0.0,0.0446333333333333,-5.498166666666667,-5.498166666666667,-0.5581,-0.02300000000000013,0.017222222222222028,-0.52,68.642,0.0172,-0.20295000000000002,-0.18599999999999994,100.0,1.0,1.0,211.60333333333335,0.0,0.0,0.0,0.0,0.0,0.0,0.0,8969.1,0.0,55.0,5.0,247.07999999999998,0.0,0.0,0.0,0.0,0.0,0.0,0.0,0.0,1.1069999999999993,1.1069999999999993,0.0,0.0,0.0,55.0,616.79921,10000.0,85.000001,85.000001,85.000001,85.000001,395.0,0.0,0.0,0.0,1.0,333.33500000000004,52.49,52.49,47.104,47.104,34.0,-12.2725,12.219999999999999,-30.456666666666667,30.3675,0.0,1782.339,-0.28500000000000014,100.0,27.996,28.22,43.121,43.568,0.0,0.0,100.0,0.0,0.0,0.0,0.0,3093.4285714285716,3072.3,4309.222222222223,4357.0,305.673,305.01625,314.46675,314.0695,22.0013,20.6594,22.0284,21.5118,314.999998,314.999998,324.999988,324.999988,99.56061428571428,99.5094,99.57024285714286,99.54838571428571,0.2603333333333335,-0.21966666666666668,-0.20566666666666666,0.22333333333333336,-0.046666666666666856,-0.03999999999999915,1.4766666666666666,1.4834999999999998,38.507999999999996,30.121333333333332,38.678,35.448499999999996,56.323,36.2845,60.2115,52.701499999999996,54.491,35.3915,59.096000000000004,51.2675,53.9,34.966499999999996,59.3305,50.925333333333334,-0.265,-0.23249999999999993,0.21185,0.2119,0.0,214.92000000000002,214.93,211.60333333333335,211.60333333333335,0.0,0.0
23,0.0,0.0,0.0,1.0,1.0,0.0,0.0,1.0,0.0,100.0,1.0,1.1856,26.0,0.0,0.0,0.0,59.999996,0.0,26.0,26.0,26.0,26.0,0.006666666666666599,0.27100000000000013,0.001825,292.038,-2.2372,-2.2422,-1.25345,-1.0955,-198.14,215.55,190.5035,0.0,0.0,0.0,0.0,0.04666666666666652,-5.498166666666667,-5.498166666666667,-0.5755,-0.18799999999999994,0.012222222222222134,0.553,68.776,0.0199,-0.227775,-0.3380000000000001,100.0,1.0,1.0,212.10000000000002,0.0,0.0,0.0,0.0,0.0,0.0,0.0,8990.2,0.0,55.0,5.0,247.56666666666666,1.0,0.0,0.0,0.0,0.0,0.0,0.0,0.0,1.1580000000000013,1.1580000000000013,0.0,0.0,1.0,55.0,616.79921,10000.0,85.000001,85.000001,85.000001,85.000001,395.0,0.0,0.0,0.0,1.0,333.33500000000004,51.788,51.788,47.653,47.653,34.0,-10.695,13.636,-28.57,28.6575,0.0,1782.287,-0.2599999999999998,100.0,28.427,28.224,43.34,43.658,0.0,0.0,100.0,0.0,0.0,0.0,0.0,3168.4285714285716,3210.6,4130.0,4156.7,305.0875,304.689,314.88375,314.63975,22.011,20.665399999999998,22.0391,21.5211,314.999998,314.999998,324.999988,324.999988,99.56065714285714,99.50943333333333,99.5704,99.54854285714286,0.274,-0.21199999999999997,-0.19033333333333335,0.233,-0.02833333333332888,-0.06499999999999773,1.5313333333333334,1.5230000000000001,38.569,30.158666666666665,38.745000000000005,35.5065,56.32,36.335,60.2495,52.7675,54.488,35.4385,59.1315,51.3315,53.894999999999996,35.012,59.363,50.98866666666667,-0.271,-0.23199999999999998,0.20763,0.20309000000000002,0.0,215.285,215.345,212.10000000000002,212.10000000000002,0.0,0.0
24,0.0,0.0,0.0,1.0,1.0,0.0,0.0,1.0,0.0,100.0,1.0,1.1856,26.0,0.0,0.0,0.0,59.999996,0.0,26.0,26.0,26.0,26.0,0.036111111111111205,0.26280000000000014,-0.0471,292.435,-2.3423,-2.2422,-1.1448,-1.1456,-194.63,215.535,190.4795,0.0,0.0,0.0,0.0,0.048733333333333295,-5.498166666666667,-5.498166666666667,-0.5860000000000001,-0.4345000000000001,0.025555555555555554,-0.096,68.911,0.0253,-0.2222,-0.274,100.0,1.0,1.0,212.49,0.0,0.0,0.0,0.0,0.0,0.0,0.0,9006.6,0.0,55.0,5.0,248.05333333333334,0.0,0.0,0.0,0.0,0.0,0.0,0.0,0.0,1.2089999999999996,1.2089999999999996,0.0,0.0,0.0,55.0,616.79921,10000.0,85.000001,85.000001,85.000001,85.000001,395.0,0.0,0.0,0.0,1.0,166.665,52.75,52.75,47.409,47.409,34.0,-11.36,12.348000000000003,-27.453333333333333,29.802500000000002,0.0,1782.239,-0.1999999999999993,100.0,27.976,28.11,43.247,43.643,0.0,0.0,100.0,0.0,0.0,0.0,0.0,3005.285714285714,3017.6,4149.0,4146.6,305.8715,305.1545,314.78675,314.55725,22.0206,20.6712,22.0497,21.5303,314.999998,314.999998,324.999988,324.999988,99.56068571428571,99.50945,99.57052857142857,99.54868571428571,0.2653333333333334,-0.22166666666666668,-0.1925,0.23916666666666667,-0.03333333333333144,-0.041666666666671404,1.5186666666666666,1.5070000000000001,38.628,30.194666666666667,38.811,35.564,56.316,36.376999999999995,60.2825,52.825,54.483999999999995,35.478,59.1625,51.3875,53.89,35.0505,59.3915,51.044,-0.271,-0.23399999999999999,0.20642000000000002,0.21387,0.0,215.735,215.735,212.49,212.49,0.0,0.0
25,0.0,0.0,0.0,1.0,1.0,0.0,0.0,1.0,0.0,100.0,1.0,1.1856,26.0,0.0,0.0,0.0,59.999996,0.0,26.0,26.0,26.0,26.0,0.03666666666666685,0.2612000000000001,0.005325,292.053,-2.2737,-2.2386,-1.1935,-1.1236,-191.11,215.5225,190.454,0.0,0.0,0.0,0.0,0.050766666666666516,-5.498166666666667,-5.498166666666667,-0.6032000000000001,0.21650000000000003,0.027888888888888852,0.111,69.045,0.0244,-0.21905000000000002,-0.32399999999999984,100.0,1.0,1.0,212.95333333333332,0.0,0.0,0.0,0.0,0.0,0.0,0.0,9026.3,0.0,55.0,5.0,248.53333333333336,1.0,0.0,0.0,0.0,0.0,0.0,0.0,0.0,1.259999999999998,1.259999999999998,0.0,0.0,1.0,55.0,616.79921,10000.0,85.000001,85.000001,85.000001,85.000001,395.0,0.0,0.0,0.0,1.0,166.665,51.605,51.605,47.699,47.699,34.0,-10.517499999999998,14.8,-26.89,29.51,0.0,1782.187,-0.29499999999999993,100.0,28.181,28.269,43.068,43.400999999999996,0.0,0.0,100.0,0.0,0.0,0.0,0.0,3218.285714285714,3371.4,4048.222222222222,4158.0,305.0095,304.15375,315.08225,314.60975,22.0301,20.6772,22.060200000000002,21.5394,314.999998,314.999998,324.999988,324.999988,99.56072857142857,99.50948333333334,99.57068571428572,99.54884285714286,0.28833333333333355,-0.20500000000000007,-0.18699999999999994,0.24183333333333334,-0.045000000000001705,-0.03833333333332689,1.5383333333333333,1.536,38.688,30.232333333333333,38.876000000000005,35.621,56.312,36.4245,60.3155,52.8855,54.480000000000004,35.5225,59.1935,51.446,53.884,35.0935,59.4195,51.102000000000004,-0.281,-0.23249999999999993,0.21284000000000003,0.20923000000000003,0.0,216.155,216.16,212.95333333333332,212.95333333333332,0.0,0.0
26,0.0,0.0,0.0,1.0,1.0,0.0,0.0,1.0,0.0,100.0,1.0,1.1856,26.0,0.0,0.0,0.0,59.999996,0.0,26.0,26.0,26.0,26.0,0.042888888888888976,0.2775000000000001,0.088525,291.26,-2.29885,-2.3025,-1.1574,-1.1453,-187.79,215.51,190.429875,0.0,0.0,0.0,0.0,0.05269999999999997,-5.498166666666667,-5.498166666666667,-0.5733,0.34199999999999997,0.019333333333333202,0.9510000000000001,69.173,0.024,-0.2028,-0.3719999999999999,100.0,1.0,1.0,213.12666666666667,0.0,0.0,0.0,0.0,0.0,0.0,0.0,9033.7,0.0,55.0,5.0,248.99666666666667,0.0,0.0,0.0,0.0,0.0,0.0,0.0,0.0,1.3079999999999998,1.3079999999999998,0.0,0.0,0.0,55.0,616.79921,10000.0,85.000001,85.000001,85.000001,85.000001,395.0,0.0,0.0,0.0,1.0,333.33500000000004,51.605,51.605,46.432,46.432,34.0,-10.665,13.984000000000002,-29.71,33.58,0.0,1782.138,-0.3149999999999995,100.0,28.855,28.71,43.633,43.913,0.0,0.0,100.0,0.0,0.0,0.0,0.0,3136.714285714286,3129.3,4449.111111111111,4529.7,305.305,304.89425,314.02575,313.65975,22.0392,20.6829,22.0703,21.5482,314.999998,314.999998,324.999988,324.999988,99.56075714285714,99.5095,99.57082857142858,99.54898571428572,0.28400000000000025,-0.21033333333333326,-0.17933333333333334,0.2405,-0.030000000000001137,-0.05666666666667197,1.442,1.4249999999999998,38.745000000000005,30.268,38.939,35.6765,56.312,36.4705,60.3515,52.945499999999996,54.480000000000004,35.565,59.2275,51.5045,53.882999999999996,35.135,59.4505,51.159666666666666,-0.27949999999999997,-0.23249999999999993,0.20582000000000003,0.21092000000000002,0.0,216.575,216.61,213.12666666666667,213.12666666666667,0.0,0.0
27,0.0,0.0,0.0,1.0,1.0,0.0,0.0,1.0,0.0,100.0,1.0,1.1856,26.0,0.0,0.0,0.0,59.999996,0.0,26.0,26.0,26.0,26.0,0.045333333333333226,0.24270000000000014,-0.0592,291.779,-2.33995,-2.2464,-1.2129,-1.1331,-184.47,215.4975,190.40675,0.0,0.0,0.0,0.0,0.05463333333333331,-5.498166666666667,-5.498166666666667,-0.598,-0.903,0.023111111111111082,0.579,69.297,0.0263,-0.240625,-0.3959999999999999,100.0,1.0,1.0,213.65,0.0,0.0,0.0,0.0,0.0,0.0,0.0,9055.8,0.0,55.0,5.0,249.44333333333333,1.0,0.0,0.0,0.0,0.0,0.0,0.0,0.0,1.355999999999998,1.355999999999998,0.0,0.0,1.0,55.0,616.79921,10000.0,85.000001,85.000001,85.000001,85.000001,395.0,0.0,0.0,0.0,1.0,333.33500000000004,51.91,51.91,46.677,46.677,34.0,-10.787500000000001,14.241999999999997,-27.106666666666666,29.8225,0.0,1782.09,-0.3100000000000005,100.0,28.493,28.599,44.039,44.260000000000005,0.0,0.0,100.0,0.0,0.0,0.0,0.0,3024.714285714286,3233.9,4101.444444444444,4117.6,305.6955,304.6125,314.90025,314.74725,22.048099999999998,20.6885,22.0804,21.557,314.999998,314.999998,324.999988,324.999988,99.56078571428571,99.50953333333334,99.57097142857143,99.54912857142857,0.28033333333333355,-0.20333333333333314,-0.17466666666666664,0.25,-0.01999999999999602,-0.045000000000001705,1.5206666666666666,1.4979999999999998,38.801,30.303333333333335,39.003,35.7315,56.309,36.5145,60.3865,53.0045,54.476,35.6065,59.26,51.562,53.878,35.175,59.4805,51.21633333333333,-0.274,-0.22999999999999998,0.20034000000000002,0.20819000000000001,0.0,216.9,216.94,213.65,213.65,0.0,0.0
28,0.0,0.0,0.0,1.0,1.0,0.0,0.0,1.0,0.0,100.0,1.0,1.1856,26.0,0.0,0.0,0.0,59.999996,0.0,26.0,26.0,26.0,26.0,0.05044444444444429,0.25870000000000015,-0.051175000000000005,291.901,-2.27665,-2.2292,-1.22735,-1.1577,-180.93,215.485,190.381375,0.0,0.0,0.0,0.0,0.05666666666666653,-5.498166666666667,-5.498166666666667,-0.6008,0.6285000000000001,0.00922222222222202,-0.773,69.428,0.027800000000000002,-0.215425,-0.4059999999999997,100.0,1.0,1.0,214.13,0.0,0.0,0.0,0.0,0.0,0.0,0.0,9076.2,0.0,55.0,5.0,249.91,0.0,0.0,0.0,0.0,0.0,0.0,0.0,0.0,1.407,1.407,0.0,0.0,0.0,55.0,616.79921,10000.0,85.000001,85.000001,85.000001,85.000001,395.0,0.0,0.0,0.0,1.0,333.33500000000004,51.865,51.865,47.256,47.256,34.0,-10.339999999999996,13.329999999999998,-28.416666666666664,29.7975,0.0,1782.038,-0.3699999999999992,100.0,28.434,28.692,43.363,43.915,0.0,0.0,100.0,0.0,0.0,0.0,0.0,3135.857142857143,3108.6,4189.222222222223,4132.8,305.384,304.817,314.8595,314.67725,22.0577,20.6946,22.0908,21.5661,314.999998,314.999998,324.999988,324.999988,99.56082857142857,99.50956666666667,99.57111428571429,99.54927142857143,0.28500000000000014,-0.20799999999999996,-0.1888333333333334,0.243,-0.04833333333333201,-0.03166666666666629,1.5486666666666666,1.5430000000000001,38.861000000000004,30.341,39.068,35.7885,56.307,36.5615,60.418,53.0635,54.474999999999994,35.6505,59.29,51.6195,53.873999999999995,35.218,59.507,51.272999999999996,-0.28400000000000003,-0.22799999999999998,0.20987000000000003,0.20869000000000001,0.0,217.35000000000002,217.365,214.13,214.13,0.0,0.0
29,0.0,0.0,0.0,1.0,1.0,0.0,0.0,1.0,0.0,100.0,1.0,1.1856,26.0,0.0,0.0,0.0,59.999996,0.0,26.0,26.0,26.0,26.0,0.0584444444444443,0.2521,-0.03605,291.763,-2.3511,-2.154,-1.2111,-1.1351,-177.18,215.475,190.353375,0.0,0.0,0.0,0.0,0.05886666666666651,-5.498166666666667,-5.498166666666667,-0.6075,-0.7495,0.010000000000000009,-0.729,69.569,0.033100000000000004,-0.2169,-0.4500000000000002,100.0,1.0,1.0,214.42666666666668,0.0,0.0,0.0,0.0,0.0,0.0,0.0,9088.8,0.0,55.0,5.0,250.42333333333335,1.0,0.0,0.0,0.0,0.0,0.0,0.0,0.0,1.4609999999999985,1.4609999999999985,0.0,0.0,1.0,55.0,616.79921,10000.0,85.000001,85.000001,85.000001,85.000001,395.0,0.0,0.0,0.0,1.0,166.665,52.048,52.048,46.997,46.997,34.0,-11.6025,12.771999999999998,-28.166666666666664,30.895,0.0,1781.986,-0.35999999999999943,100.0,28.091,28.473,43.701,44.254000000000005,0.0,0.0,100.0,0.0,0.0,0.0,0.0,3261.714285714286,3169.6,4174.888888888889,4238.6,305.2965,304.86875,314.79475,314.3215,22.0677,20.7009,22.1021,21.5761,314.999998,314.999998,324.999988,324.999988,99.56085714285715,99.50958333333334,99.57128571428571,99.54944285714285,0.2829999999999999,-0.20666666666666678,-0.1831666666666666,0.24383333333333335,-0.046666666666666856,-0.02833333333332888,1.4883333333333333,1.475,38.923,30.380666666666666,39.138,35.8505,56.303,36.6095,60.457499999999996,53.129999999999995,54.47,35.695499999999996,59.327,51.684,53.867999999999995,35.260999999999996,59.541,51.337,-0.28600000000000003,-0.2270000000000001,0.21559,0.20645000000000002,0.0,217.76,217.775,214.42666666666668,214.42666666666668,0.0,0.0
30,0.0,0.0,0.0,1.0,1.0,0.0,0.0,1.0,0.0,100.0,1.0,1.1856,26.0,0.0,0.0,0.0,59.999996,0.0,26.0,26.0,26.0,26.0,0.047666666666666746,0.25470000000000015,0.03905,291.199,-2.31995,-2.1726,-1.2441,-1.0533,-174.04,215.4675,190.33,0.0,0.0,0.0,0.0,0.060666666666666536,-5.498166666666667,-5.498166666666667,-0.6044,0.895,0.013777777777777889,0.646,69.684,0.0383,-0.21725,-0.6079999999999997,100.0,1.0,1.0,214.85333333333335,0.0,0.0,0.0,0.0,0.0,0.0,0.0,9106.9,0.0,55.0,5.0,250.83333333333334,0.0,0.0,0.0,0.0,0.0,0.0,1.0,0.0,1.5060000000000002,1.5060000000000002,0.0,0.0,0.0,55.0,616.79921,10000.0,85.000001,85.000001,85.000001,85.000001,395.0,0.0,0.0,0.0,1.0,166.665,50.644,50.644,46.982,46.982,34.0,-10.795000000000002,14.064,-28.033333333333335,29.54,0.0,1781.941,-0.3200000000000003,100.0,29.113,29.121000000000002,43.581,44.095,0.0,0.0,100.0,0.0,0.0,0.0,0.0,3261.142857142857,3366.6,4201.777777777777,4213.6,304.8335,304.055,314.8295,314.66175,22.0764,20.7064,22.1114,21.5842,314.999998,314.999998,324.999988,324.999988,99.56088571428572,99.50961666666667,99.57141428571428,99.54957142857143,0.2966666666666664,-0.20633333333333326,-0.17366666666666664,0.25433333333333336,-0.04999999999999716,-0.03333333333333144,1.5346666666666666,1.509,38.977000000000004,30.415333333333333,39.196,35.9015,56.305,36.653999999999996,60.4865,53.184,54.471000000000004,35.737,59.354,51.736000000000004,53.867999999999995,35.3015,59.566,51.388333333333335,-0.28400000000000003,-0.2330000000000001,0.21321,0.2063,0.0,218.15,218.15,214.85333333333335,214.85333333333335,0.0,0.0
31,0.0,0.0,0.0,1.0,1.0,0.0,0.0,1.0,0.0,100.0,1.0,1.1856,26.0,0.0,0.0,0.0,59.999996,0.0,26.0,26.0,26.0,26.0,0.039111111111111097,0.24009999999999998,0.026500000000000003,290.817,-2.29265,-2.2035,-1.24565,-1.0859,-170.28,215.46,190.30275,0.0,0.0,0.0,0.0,0.06286666666666652,-5.498166666666667,-5.498166666666667,-0.5889,-0.4275,0.020444444444444265,0.624,69.82300000000001,0.0407,-0.22310000000000002,-0.4480000000000004,100.0,1.0,1.0,215.14666666666668,0.0,0.0,0.0,0.0,0.0,0.0,0.0,9119.3,0.0,55.0,5.0,251.34,1.0,0.0,0.0,0.0,0.0,0.0,1.0,0.0,1.5599999999999987,1.5599999999999987,0.0,0.0,1.0,55.0,616.79921,10000.0,85.000001,85.000001,85.000001,85.000001,395.0,0.0,0.0,0.0,1.0,166.665,50.980000000000004,50.980000000000004,45.7,45.7,34.0,-9.335,15.015999999999998,-28.53333333333333,32.375,0.0,1781.888,-0.3949999999999996,100.0,28.984,29.217,44.393,44.834,0.0,0.0,100.0,0.0,0.0,0.0,0.0,3059.4285714285716,3435.8,4216.222222222223,4327.1,305.451,304.0595,314.5525,314.1405,22.0865,20.713,22.1229,21.5943,314.999998,314.999998,324.999988,324.999988,99.56094285714286,99.50965,99.57157142857143,99.54974285714286,0.30500000000000016,-0.19866666666666677,-0.16766666666666663,0.2663333333333333,-0.013333333333328312,-0.05833333333333002,1.453,1.4255,39.041,30.456,39.268,35.9645,56.303,36.705,60.5275,53.253,54.469,35.785,59.3925,51.8035,53.864000000000004,35.348,59.601,51.45466666666667,-0.28400000000000003,-0.23399999999999999,0.20487000000000002,0.21969000000000002,0.0,218.535,218.595,215.14666666666668,215.14666666666668,0.0,0.0
32,0.0,0.0,0.0,1.0,1.0,0.0,0.0,1.0,0.0,100.0,1.0,1.1856,26.0,0.0,0.0,0.0,59.999996,0.0,26.0,26.0,26.0,26.0,0.06311111111111112,0.25340000000000007,-0.027700000000000002,291.29,-2.28655,-2.2592,-1.1874,-1.2122,-166.92000000000002,215.4525,190.278625,0.0,0.0,0.0,0.0,0.0648333333333333,-5.498166666666667,-5.498166666666667,-0.6068,-0.23199999999999998,0.0014444444444443594,0.326,69.944,0.0405,-0.23170000000000002,-0.556,100.0,1.0,1.0,215.61333333333334,0.0,0.0,0.0,0.0,0.0,0.0,0.0,9139.1,0.0,55.0,5.0,251.77333333333334,0.0,0.0,0.0,0.0,0.0,0.0,1.0,0.0,1.6080000000000005,1.6080000000000005,0.0,0.0,0.0,55.0,616.79921,10000.0,85.000001,85.000001,85.000001,85.000001,395.0,0.0,0.0,0.0,1.0,333.33500000000004,51.514,51.514,46.6,46.6,34.0,-9.182499999999997,14.815999999999999,-26.14,32.83,0.0,1781.838,-0.3849999999999998,100.0,28.838,29.047,44.178,44.676,0.0,0.0,100.0,0.0,0.0,0.0,0.0,3056.4285714285716,3200.5,4076.777777777778,4289.3,305.52,304.71,314.94,314.2525,22.095399999999998,20.7187,22.1328,21.6031,314.999998,314.999998,324.999988,324.999988,99.56097142857143,99.50966666666666,99.57171428571428,99.5499,0.30600000000000005,-0.19100000000000006,-0.16433333333333333,0.25316666666666665,-0.03499999999999659,-0.03833333333332689,1.5063333333333333,1.4874999999999998,39.096000000000004,30.491999999999997,39.33,36.019,56.302,36.749,60.559,53.3105,54.468,35.826,59.422,51.859,53.861000000000004,35.3875,59.6275,51.50966666666667,-0.29000000000000004,-0.22750000000000004,0.20679000000000003,0.20577,0.0,218.92000000000002,218.96,215.61333333333334,215.61333333333334,0.0,0.0
33,0.0,0.0,0.0,1.0,1.0,0.0,0.0,1.0,0.0,100.0,1.0,1.1856,26.0,0.0,0.0,0.0,59.999996,0.0,26.0,26.0,26.0,26.0,0.07000000000000006,0.25270000000000015,-0.033825,291.58,-2.30775,-2.2188,-1.20035,-1.1703999999999999,-163.35,215.4475,190.251875,0.0,0.0,0.0,0.0,0.06689999999999996,-5.498166666666667,-5.498166666666667,-0.6158,-0.2815000000000001,0.0031111111111110645,-0.14100000000000001,70.07300000000001,0.040100000000000004,-0.21457500000000002,-0.4379999999999997,100.0,1.0,1.0,216.03,0.0,0.0,0.0,0.0,0.0,0.0,0.0,9156.8,0.0,55.0,5.0,252.23666666666668,1.0,0.0,0.0,0.0,0.0,0.0,1.0,0.0,1.658999999999999,1.658999999999999,0.0,0.0,1.0,55.0,616.79921,10000.0,85.000001,85.000001,85.000001,85.000001,395.0,0.0,0.0,0.0,1.0,166.665,51.804,51.804,46.967,46.967,34.0,-10.744999999999997,13.55,-26.81,31.3325,0.0,1781.788,-0.375,100.0,28.482,28.896,43.881,44.536,0.0,0.0,100.0,0.0,0.0,0.0,0.0,3162.857142857143,3075.1,4089.3333333333335,4193.9,305.4205,305.008,314.97775,314.45875,22.1048,20.7247,22.1433,21.6123,314.999998,314.999998,324.999988,324.999988,99.561,99.50968333333333,99.57187142857143,99.55004285714286,0.28500000000000014,-0.19666666666666677,-0.1738333333333334,0.25316666666666665,-0.02499999999999858,-0.036666666666668846,1.5123333333333333,1.5065,39.155,30.529333333333334,39.396,36.077,56.299,36.794,60.592,53.371,54.465,35.8675,59.453,51.918,53.857,35.428,59.6555,51.56766666666667,-0.28400000000000003,-0.22550000000000003,0.2104,0.21323000000000003,0.0,219.325,219.345,216.03,216.03,0.0,0.0
34,0.0,0.0,0.0,1.0,1.0,0.0,0.0,1.0,0.0,100.0,1.0,1.1856,26.0,0.0,0.0,0.0,59.999996,0.0,26.0,26.0,26.0,26.0,0.05777777777777793,0.26150000000000007,-0.076575,291.779,-2.2645,-2.2513,-1.2329,-1.1106,-159.99,215.445,190.2255,0.0,0.0,0.0,0.0,0.06886666666666652,-5.498166666666667,-5.498166666666667,-0.6438,-0.9855,0.02388888888888885,-0.168,70.195,0.0413,-0.22312500000000002,-0.4560000000000004,100.0,1.0,1.0,216.36333333333334,0.0,0.0,0.0,0.0,0.0,0.0,0.0,9170.8,0.0,55.0,5.0,252.67666666666668,0.0,0.0,0.0,0.0,0.0,0.0,1.0,0.0,1.7070000000000007,1.7070000000000007,0.0,0.0,0.0,55.0,616.79921,10000.0,85.000001,85.000001,85.000001,85.000001,395.0,0.0,0.0,0.0,1.0,333.33500000000004,52.261,52.261,47.073,47.073,34.0,-9.594999999999999,13.591999999999999,-27.88,30.7075,0.0,1781.739,-0.3849999999999998,100.0,28.256,28.656,43.76,44.608000000000004,0.0,0.0,100.0,0.0,0.0,0.0,0.0,3075.0,3049.2,4139.333333333333,4217.6,305.6905,305.1695,314.89425,314.4365,22.113599999999998,20.7303,22.1532,21.6212,314.999998,314.999998,324.999988,324.999988,99.56104285714285,99.50971666666666,99.572,99.5502,0.29200000000000026,-0.19866666666666677,-0.17833333333333334,0.25283333333333335,-0.05333333333332746,-0.05333333333332746,1.5073333333333334,1.4925000000000002,39.21,30.564333333333334,39.458,36.132,56.296,36.8345,60.6235,53.4295,54.462,35.906,59.4825,51.975,53.852000000000004,35.4655,59.682,51.624,-0.2865,-0.22550000000000003,0.20712000000000003,0.21407,0.0,219.68,219.715,216.36333333333334,216.36333333333334,0.0,0.0
35,0.0,0.0,0.0,1.0,1.0,0.0,0.0,1.0,0.0,100.0,1.0,1.1856,26.0,0.0,0.0,0.0,59.999996,0.0,26.0,26.0,26.0,26.0,0.06633333333333336,0.27,-0.083375,291.672,-2.39145,-2.2301,-1.2257,-1.1713,-156.39999999999998,215.4425,190.195375,0.0,0.0,0.0,0.0,0.0709333333333334,-5.498166666666667,-5.498166666666667,-0.6809000000000001,-0.07699999999999996,0.00011111111111095084,-0.166,70.321,0.0425,-0.22917500000000002,-0.46199999999999974,100.0,1.0,1.0,216.84333333333333,0.0,0.0,0.0,0.0,0.0,0.0,0.0,9191.1,0.0,55.0,5.0,253.13333333333333,1.0,0.0,0.0,0.0,0.0,0.0,1.0,0.0,1.7579999999999991,1.7579999999999991,0.0,0.0,1.0,55.0,616.79921,10000.0,85.000001,85.000001,85.000001,85.000001,395.0,0.0,0.0,0.0,1.0,333.33500000000004,51.559,51.559,46.738,46.738,34.0,-10.719999999999999,15.437999999999999,-26.0,31.16,0.0,1781.687,-0.23499999999999943,100.0,28.311,28.901,43.593,44.025,0.0,0.0,100.0,0.0,0.0,0.0,0.0,3065.5714285714284,3416.6,4049.3333333333335,4110.0,305.5465,304.04825,315.01075,314.824,22.1229,20.7365,22.1636,21.6303,314.999998,314.999998,324.999988,324.999988,99.56108571428571,99.50975,99.57217142857142,99.55035714285714,0.29733333333333345,-0.19533333333333314,-0.15900000000000003,0.2723333333333333,-0.06333333333333258,-0.041666666666671404,1.558,1.5415,39.268,30.603,39.522999999999996,36.189499999999995,56.291,36.885,60.6575,53.4905,54.457,35.9535,59.513999999999996,52.0345,53.846000000000004,35.5115,59.710499999999996,51.68266666666666,-0.27549999999999997,-0.23849999999999993,0.20513,0.21843,0.0,220.095,220.115,216.84333333333336,216.84333333333333,0.0,0.0
36,0.0,0.0,0.0,1.0,1.0,0.0,0.0,1.0,0.0,100.0,1.0,1.1856,26.0,0.0,0.0,0.0,59.999996,0.0,26.0,26.0,26.0,26.0,0.06277777777777782,0.2591000000000001,0.000375,291.199,-2.2434,-2.2847,-1.2402,-1.185,-152.81,215.4425,190.16425,0.0,0.0,0.0,0.0,0.0730333333333334,-5.498166666666667,-5.498166666666667,-0.6628000000000001,-0.10299999999999998,-0.040999999999999925,-1.414,70.452,0.0359,-0.203775,-0.30600000000000005,100.0,1.0,1.0,217.01333333333332,0.0,0.0,0.0,0.0,0.0,0.0,0.0,9198.4,0.0,55.0,5.0,253.60000000000002,0.0,0.0,0.0,0.0,0.0,0.0,1.0,0.0,1.809000000000001,1.809000000000001,0.0,0.0,0.0,55.0,616.79921,10000.0,85.000001,85.000001,85.000001,85.000001,395.0,0.0,0.0,0.0,1.0,166.665,52.016999999999996,52.016999999999996,46.204,46.204,34.0,-9.174999999999997,12.846,-31.276666666666667,33.975,0.0,1781.639,-0.17499999999999893,100.0,28.696,29.005,43.782,44.512,0.0,0.0,100.0,0.0,0.0,0.0,0.0,2969.142857142857,2933.8,4521.444444444444,4452.9,305.817,305.1595,314.13325,313.84475,22.1323,20.7426,22.1742,21.6397,314.999998,314.999998,324.999988,324.999988,99.56111428571428,99.50976666666666,99.57231428571428,99.5505,0.29033333333333333,-0.21499999999999986,-0.17999999999999994,0.2475,-0.04833333333333201,-0.03999999999999915,1.453,1.4245,39.327,30.641666666666666,39.589,36.2485,56.29,36.9295,60.691,53.55,54.456,35.9945,59.545500000000004,52.0925,53.843,35.5515,59.739,51.739666666666665,-0.27349999999999997,-0.24,0.20605,0.21461000000000002,0.0,220.51,220.525,217.01333333333332,217.01333333333332,0.0,0.0
