,ABS Active,ABS Enabled,AID Allow Tire Blankets,AID Auto Blip,AID Auto Clutch,AID Auto Shift,AID Fuel Rate,AID Ideal Line,AID Mech Damage,AID Stability,AID Tire Wear Rate,Air Density,Air Temp,Ballast,Best Lap Delta,Best Lap Time,Brake Bias,Brake Pos,Brake Temp FL,Brake Temp FR,Brake Temp RL,Brake Temp RR,CG Accel Lateral,CG Accel Longitudinal,CG Accel Vertical,CG Height,Camber FL,Camber FR,Camber RL,Camber RR,Car Coord X,Car Coord Y,Car Coord Z,Car Damage Front,Car Damage Left,Car Damage Rear,Car Damage Right,Car Pos Norm,Caster FL,Caster FR,Chassis Pitch Angle,Chassis Pitch Rate,Chassis Roll Angle,Chassis Roll Rate,Chassis Velocity X,Chassis Velocity Y,Chassis Velocity Z,Chassis Yaw Rate,Clutch Pos,DRS Active,DRS Available,Drive Train Speed,ERS Heat Charging,ERS Is Charging,ERS Max Energy,ERS Power Level,ERS Recovery Level,Engine Brake Setting,Engine Limiter,Engine RPM,Flags,Fuel Level,Gear,Ground Speed,HR Sample Clock,In Pit,KERS Charge,KERS Deployed Energy,KERS Input,KERS Max Energy,LR Sample Clock,Lap Invalidated,Lap Time,Lap Time2,Last Lap Time,Last Sector Time,MR Sample Clock,Max Fuel,Max Power,Max RPM,Max Sus Travel FL,Max Sus Travel FR,Max Sus Travel RL,Max Sus Travel RR,Max Torque,Max Turbo Boost,Num Tires Off Track,Penalties Enabled,Position,Raw Data Sample Rate,Ride Height FL,Ride Height FR,Ride Height RL,Ride Height RR,Road Temp,Self Align Torque FL,Self Align Torque FR,Self Align Torque RL,Self Align Torque RR,Session Lap Count,Session Time Left,Steering Angle,Surface Grip,Suspension Travel FL,Suspension Travel FR,Suspension Travel RL,Suspension Travel RR,TC Active,TC Enabled,Throttle Pos,Tire Dirt Level FL,Tire Dirt Level FR,Tire Dirt Level RL,Tire Dirt Level RR,Tire Load FL,Tire Load FR,Tire Load RL,Tire Load RR,Tire Loaded Radius FL,Tire Loaded Radius FR,Tire Loaded Radius RL,Tire Loaded Radius RR,Tire Pressure FL,Tire Pressure FR,Tire Pressure RL,Tire Pressure RR,Tire Radius FL,Tire Radius FR,Tire Radius RL,Tire Radius RR,Tire Rubber Grip FL,Tire Rubber Grip FR,Tire Rubber Grip RL,Tire Rubber Grip RR,Tire Slip Angle FL,Tire Slip Angle FR,Tire Slip Angle RL,Tire Slip Angle RR,Tire Slip Ratio FL,Tire Slip Ratio FR,Tire Slip Ratio RL,Tire Slip Ratio RR,Tire Temp Core FL,Tire Temp Core FR,Tire Temp Core RL,Tire Temp Core RR,Tire Temp Inner FL,Tire Temp Inner FR,Tire Temp Inner RL,Tire Temp Inner RR,Tire Temp Middle FL,Tire Temp Middle FR,Tire Temp Middle RL,Tire Temp Middle RR,Tire Temp Outer FL,Tire Temp Outer FR,Tire Temp Outer RL,Tire Temp Outer RR,Toe In FL,Toe In FR,Toe In RL,Toe In RR,Turbo Boost,Wheel Angular Speed FL,Wheel Angular Speed FR,Wheel Angular Speed RL,Wheel Angular Speed RR,Wind Direction,Wind Speed
0,0.0,0.0,0.0,1.0,1.0,0.0,0.0,1.0,0.0,100.0,1.0,1.1856,26.0,0.0,0.0,0.0,59.99999,0.0,26.0,26.0,26.0,26.0,-0.11066666666666658,0.3004,0.22716666666666666,293.427,-1.3062,-1.0458,-0.6084,-0.6136999999999999,-275.44,215.85500000000002,190.986,0.0,0.0,0.0,0.0,0.0017333333333333645,-5.498166666666667,-5.498166666666667,-0.5444,2.0713333333333335,-0.020777777777778006,-2.061,65.467,-0.0291,-0.21050000000000002,0.9460000000000006,100.0,1.0,1.0,202.11666666666667,0.0,0.0,0.0,0.0,0.0,0.0,0.0,8567.0,0.0,55.0,5.0,235.65,0.0,0.0,0.0,0.0,0.0,0.0,0.0,0.0,0.006000000000000227,0.006000000000000227,0.0,0.0,0.0,55.0,616.79921,10000.0,85.0,85.0,85.0,85.0,395.0,0.0,0.0,0.0,1.0,20.0,51.697,51.697,48.644999999999996,48.644999999999996,34.0,2.4975000000000023,-15.893999999999998,-33.736666666666665,27.405,0.0,1783.568,1.120000000000001,100.0,27.256,27.341,40.579,40.284,0.0,0.0,100.0,0.0,0.0,0.0,0.0,3277.375,3725.3,4242.333333333333,4031.7,304.9483333333333,302.76866666666666,314.593,314.76175,21.8086,20.5693,21.8217,21.2967,314.99999,314.99999,324.99998,324.99998,99.56181428571429,99.51063333333333,99.56945714285715,99.54448571428571,0.32666666666666666,-0.4986666666666668,-0.4498333333333333,0.36,-0.05333333333332746,-0.04999999999999716,1.5306666666666666,1.548,37.304,29.558,37.385,34.1045,56.473,36.0665,59.8605,50.816,55.319,35.4125,59.191,49.7455,55.458,35.231,59.9125,49.7315,-0.3355,-0.5065,0.4086,0.39775714285714286,0.0,205.19,205.11,202.11666666666667,202.11666666666667,0.0,0.0
1,0.0,0.0,0.0,1.0,1.0,0.0,0.0,1.0,0.0,100.0,1.0,1.1856,26.0,0.0,0.0,0.0,59.999996,0.0,26.0,26.0,26.0,26.0,-0.10999999999999999,0.3147,0.05373333333333334,292.969,-1.21455,-1.2857,-0.626,-0.47,-272.09,215.8725,190.96625,0.0,0.0,0.0,0.0,0.003666666666666596,-5.498166666666667,-5.498166666666667,-0.4868,-1.7646666666666668,-0.05877777777777782,0.08999999999999986,65.624,-0.0522,-0.197825,0.9900000000000002,100.0,1.0,1.0,202.14,0.0,0.0,0.0,0.0,0.0,0.0,0.0,8568.0,0.0,55.0,5.0,236.21666666666667,1.0,0.0,0.0,0.0,0.0,0.0,0.0,0.0,0.05699999999999861,0.05699999999999861,0.0,0.0,1.0,55.0,616.79921,10000.0,85.000001,85.000001,85.000001,85.000001,395.0,0.0,0.0,0.0,1.0,166.665,54.352000000000004,54.352000000000004,48.126,48.126,34.0,2.5375000000000014,-8.222000000000001,-39.18,30.8075,0.0,1783.517,1.0500000000000007,100.0,27.467,26.696,42.661,42.516999999999996,0.0,0.0,100.0,0.0,0.0,0.0,0.0,2905.875,2460.8,4513.111111111111,4902.700000000001,305.9483333333333,306.9893333333333,313.7215,312.45625,21.8188,20.5747,21.833,21.306,314.999998,314.999998,324.999988,324.999988,99.56185714285715,99.5107,99.56962857142857,99.54464285714286,0.31466666666666665,-0.5076666666666667,-0.4721666666666667,0.3222857142857143,-0.026666666666670835,-0.03166666666666629,1.344,1.3855,37.367999999999995,29.5915,37.456,34.1625,56.471000000000004,36.118,59.911500000000004,50.888999999999996,55.317,35.462,59.24,49.8165,55.454,35.2805,59.96,49.803,-0.33599999999999997,-0.4970000000000001,0.4039857142857143,0.39852857142857145,0.0,205.60000000000002,205.47,202.14,202.14,0.0,0.0
2,0.0,0.0,0.0,1.0,1.0,0.0,0.0,1.0,0.0,100.0,1.0,1.1856,26.0,0.0,0.0,0.0,59.999996,0.0,26.0,26.0,26.0,26.0,-0.1286666666666666,0.30590000000000006,-0.10963333333333333,294.098,-1.20365,-1.3211,-0.6063000000000001,-0.6949,-268.55,215.8875,190.94625,0.0,0.0,0.0,0.0,0.005733333333333368,-5.498166666666667,-5.498166666666667,-0.5607,1.0113333333333334,-0.020222222222222364,2.3449999999999998,65.769,-0.05995,-0.25072500000000003,1.267999999999999,100.0,1.0,1.0,203.39,0.0,0.0,0.0,0.0,0.0,0.0,0.0,8620.9,0.0,55.0,5.0,236.73666666666668,0.0,0.0,0.0,0.0,0.0,0.0,0.0,0.0,0.11100000000000065,0.11100000000000065,0.0,0.0,0.0,55.0,616.79921,10000.0,85.000001,85.000001,85.000001,85.000001,395.0,0.0,0.0,0.0,1.0,166.665,52.505,52.505,50.812,50.812,34.0,1.6099999999999994,-11.840000000000003,-28.596666666666664,22.067500000000003,0.0,1783.463,1.3900000000000006,100.0,28.229,26.945,41.914,41.039,0.0,0.0,100.0,0.0,0.0,0.0,0.0,3218.875,3097.4,3584.4444444444443,3643.5,304.8693333333333,305.055,316.12375,315.95475,21.8299,20.5807,21.8443,21.3149,314.999998,314.999998,324.999988,324.999988,99.5619,99.51075,99.5698,99.5448,0.2876666666666665,-0.5409999999999999,-0.49783333333333335,0.31357142857142856,-0.041666666666671404,-0.07166666666666544,1.74,1.7894999999999999,37.437,29.628999999999998,37.527,34.2185,56.472,36.1795,59.95,50.9465,55.317,35.5205,59.2765,49.8735,55.453,35.338499999999996,59.9945,49.86,-0.3135,-0.5235000000000001,0.4065142857142858,0.3927,0.0,206.125,205.995,203.39,203.39,0.0,0.0
3,0.0,0.0,0.0,1.0,1.0,0.0,0.0,1.0,0.0,100.0,1.0,1.1856,26.0,0.0,0.0,0.0,59.999996,0.0,26.0,26.0,26.0,26.0,-0.1413333333333333,0.3106,-0.018366666666666667,293.335,-1.20195,-1.2648000000000001,-0.5765,-0.6817,-265.58,215.9,190.9285,0.0,0.0,0.0,0.0,0.0074666666666665105,-5.498166666666667,-5.498166666666667,-0.5013000000000001,0.4886666666666667,-0.028999999999999915,-1.775,65.907,-0.07405,-0.1882,1.4740000000000002,100.0,1.0,1.0,203.28333333333333,0.0,0.0,0.0,0.0,0.0,0.0,0.0,8616.4,0.0,55.0,5.0,237.23333333333335,1.0,0.0,0.0,0.0,0.0,0.0,0.0,0.0,0.1559999999999988,0.1559999999999988,0.0,0.0,1.0,55.0,616.79921,10000.0,85.000001,85.000001,85.000001,85.000001,395.0,0.0,0.0,0.0,1.0,333.33500000000004,53.558,53.558,47.882,47.882,34.0,1.2424999999999997,-11.332,-39.28666666666667,26.892500000000002,0.0,1783.417,1.3499999999999996,100.0,27.703,27.062,42.364000000000004,41.519,0.0,0.0,100.0,0.0,0.0,0.0,0.0,3037.75,2748.4,4518.555555555556,4187.3,305.7153333333333,305.90166666666664,313.86675,314.40025,21.8389,20.5857,21.854,21.3229,314.999998,314.999998,324.999988,324.999988,99.56191428571428,99.5108,99.56992857142858,99.54492857142857,0.28200000000000003,-0.552,-0.5045000000000001,0.30414285714285716,-0.03333333333333144,-0.041666666666671404,1.4776666666666667,1.5145,37.492999999999995,29.6605,37.587,34.268,56.468,36.232,59.9895,51.007,55.313,35.57,59.314499999999995,49.9325,55.447,35.388,60.0305,49.919,-0.3165,-0.5250000000000001,0.4032,0.39975714285714287,0.0,206.54000000000002,206.39,203.28333333333333,203.28333333333333,0.0,0.0
4,0.0,0.0,0.0,1.0,1.0,0.0,0.0,1.0,0.0,100.0,1.0,1.1856,26.0,0.0,0.0,0.0,59.999996,0.0,26.0,26.0,26.0,26.0,-0.14455555555555555,0.2855000000000001,-0.02926666666666667,293.579,-1.2292,-1.3594,-0.5247,-0.6860999999999999,-262.22,215.9075,190.909,0.0,0.0,0.0,0.0,0.009433333333333294,-5.498166666666667,-5.498166666666667,-0.5357000000000001,-0.8803333333333334,-0.07688888888888856,0.052000000000000046,66.05199999999999,-0.09385,-0.234825,1.6099999999999994,100.0,1.0,1.0,203.90333333333334,0.0,0.0,0.0,0.0,0.0,0.0,0.0,8642.7,0.0,55.0,5.0,237.75666666666666,0.0,0.0,0.0,0.0,0.0,0.0,0.0,0.0,0.20700000000000074,0.20700000000000074,0.0,0.0,0.0,55.0,616.79921,10000.0,85.000001,85.000001,85.000001,85.000001,395.0,0.0,0.0,0.0,1.0,166.665,53.223,53.223,48.66,48.66,34.0,1.0450000000000017,-10.896,-34.836666666666666,23.067500000000003,0.0,1783.367,1.245000000000001,100.0,27.721,26.55,43.121,41.574,0.0,0.0,100.0,0.0,0.0,0.0,0.0,3213.0,2947.6,4102.555555555556,3765.9,305.03566666666666,305.528,314.81625,315.45775,21.8491,20.5913,21.865,21.3318,314.999998,314.999998,324.999988,324.999988,99.56195714285714,99.51086666666667,99.5701,99.54508571428572,0.2823333333333333,-0.5426666666666666,-0.5201666666666667,0.29714285714285715,0.0,-0.08500000000000085,1.5350000000000001,1.6005,37.557,29.6955,37.656,34.323499999999996,56.464,36.289,60.0355,51.0695,55.309,35.6245,59.3585,49.994,55.442,35.4415,60.0725,49.9805,-0.31599999999999995,-0.5175000000000001,0.40891428571428573,0.4010571428571429,0.0,206.92000000000002,206.815,203.90333333333334,203.90333333333334,0.0,0.0
5,0.0,0.0,0.0,1.0,1.0,0.0,0.0,1.0,0.0,100.0,1.0,1.1856,26.0,0.0,0.0,0.0,59.999996,0.0,26.0,26.0,26.0,26.0,-0.15555555555555556,0.3022,-0.020200000000000003,293.686,-1.24845,-1.3232,-0.5705,-0.7131000000000001,-258.65,215.9125,190.887625,0.0,0.0,0.0,0.0,0.011499999999999955,-5.498166666666667,-5.498166666666667,-0.5342,0.4746666666666667,-0.0774444444444442,0.8120000000000003,66.206,-0.10830000000000001,-0.2122,1.370000000000001,100.0,1.0,1.0,204.38333333333333,0.0,0.0,0.0,0.0,0.0,0.0,0.0,8663.0,0.0,55.0,5.0,238.31,1.0,0.0,0.0,0.0,0.0,0.0,0.0,0.0,0.26099999999999923,0.26099999999999923,0.0,0.0,1.0,55.0,616.79921,10000.0,85.000001,85.000001,85.000001,85.000001,395.0,0.0,0.0,0.0,1.0,166.665,53.467,53.467,49.025999999999996,49.025999999999996,34.0,0.7225000000000037,-10.869999999999997,-35.54666666666667,24.365000000000002,0.0,1783.313,1.0050000000000008,100.0,27.835,26.484,42.74,41.137,0.0,0.0,100.0,0.0,0.0,0.0,0.0,3134.75,2869.2,4094.777777777778,4020.9,305.22433333333333,305.761,314.86775,314.91325,21.86,20.5972,21.8765,21.341,314.999998,314.999998,324.999988,324.999988,99.562,99.51093333333333,99.57027142857143,99.54522857142857,0.28033333333333355,-0.5423333333333333,-0.5296666666666666,0.2812857142857143,-0.02499999999999858,-0.04999999999999716,1.5713333333333335,1.6225,37.625,29.733,37.727999999999994,34.381,56.462,36.3495,60.08,51.132999999999996,55.307,35.682,59.400999999999996,50.0555,55.439,35.499,60.113,50.042500000000004,-0.3415,-0.49350000000000005,0.40551428571428577,0.3991571428571429,0.0,207.46,207.34,204.38333333333333,204.38333333333333,0.0,0.0
6,0.0,0.0,0.0,1.0,1.0,0.0,0.0,1.0,0.0,100.0,1.0,1.1856,26.0,0.0,0.0,0.0,59.999996,0.0,26.0,26.0,26.0,26.0,-0.1617777777777778,0.30300000000000016,0.024333333333333335,293.442,-1.1966,-1.3762,-0.62,-0.6806,-255.66,215.9125,190.869375,0.0,0.0,0.0,0.0,0.01323333333333332,-5.498166666666667,-5.498166666666667,-0.5243,-0.017666666666666667,-0.08477777777777806,-0.879,66.336,-0.1071,-0.2031,1.2520000000000007,100.0,1.0,1.0,204.69333333333333,0.0,0.0,0.0,0.0,0.0,0.0,0.0,8676.2,0.0,55.0,5.0,238.78,0.0,0.0,0.0,0.0,0.0,0.0,0.0,0.0,0.30600000000000094,0.30600000000000094,0.0,0.0,0.0,55.0,616.79921,10000.0,85.000001,85.000001,85.000001,85.000001,395.0,0.0,0.0,0.0,1.0,333.33500000000004,53.513,53.513,48.416,48.416,34.0,0.5075000000000003,-10.914000000000001,-38.60666666666667,24.07,0.0,1783.267,1.1449999999999996,100.0,27.644,26.598,42.939,41.461,0.0,0.0,100.0,0.0,0.0,0.0,0.0,3227.875,2747.8,4312.666666666667,4021.0,305.11066666666665,305.922,314.404,314.81575,21.869,20.6022,21.8862,21.3488,314.999998,314.999998,324.999988,324.999988,99.56202857142857,99.51098333333333,99.57041428571429,99.54535714285714,0.2646666666666664,-0.5660000000000001,-0.527,0.27671428571428575,-0.03999999999999915,-0.04833333333333201,1.5156666666666667,1.5590000000000002,37.681,29.7635,37.788,34.43,56.46,36.4005,60.1205,51.189,55.304,35.7305,59.44,50.1105,55.434,35.547,60.1495,50.097,-0.3315,-0.504,0.4008285714285714,0.3967428571428572,0.0,207.845,207.715,204.69333333333333,204.69333333333333,0.0,0.0
7,0.0,0.0,0.0,1.0,1.0,0.0,0.0,1.0,0.0,100.0,1.0,1.1856,26.0,0.0,0.0,0.0,59.999996,0.0,26.0,26.0,26.0,26.0,-0.1273333333333333,0.28690000000000015,0.007733333333333333,293.411,-1.1599,-1.3738000000000001,-0.5800000000000001,-0.7255,-252.28,215.91,190.848875,0.0,0.0,0.0,0.0,0.015199999999999991,-5.498166666666667,-5.498166666666667,-0.534,0.10133333333333333,-0.07111111111111157,1.1260000000000003,66.48,-0.10445,-0.220975,1.048,100.0,1.0,1.0,205.18666666666667,0.0,0.0,0.0,0.0,0.0,0.0,0.0,8697.1,0.0,55.0,5.0,239.3,1.0,0.0,0.0,0.0,0.0,0.0,0.0,0.0,0.3569999999999993,0.3569999999999993,0.0,0.0,1.0,55.0,616.79921,10000.0,85.000001,85.000001,85.000001,85.000001,395.0,0.0,0.0,0.0,1.0,166.665,53.055,53.055,48.874,48.874,34.0,2.8275000000000006,-10.084000000000003,-34.56333333333333,24.575000000000003,0.0,1783.217,0.6750000000000007,100.0,28.105,26.635,43.073,41.514,0.0,0.0,100.0,0.0,0.0,0.0,0.0,3154.0,2941.6,4027.4444444444443,3968.7,305.087,305.48566666666665,314.99025,314.9905,21.8793,20.6079,21.897100000000002,21.3577,314.999998,314.999998,324.999988,324.999988,99.56205714285714,99.51105,99.57058571428571,99.54551428571429,0.3033333333333337,-0.5256666666666667,-0.5166666666666666,0.2851428571428572,-0.03166666666666629,-0.04999999999999716,1.5523333333333333,1.58,37.745999999999995,29.799500000000002,37.857,34.486,56.459,36.4585,60.164500000000004,51.2515,55.303,35.786,59.482,50.1715,55.432,35.6015,60.189499999999995,50.158,-0.365,-0.4690000000000001,0.4043,0.39872857142857143,0.0,208.285,208.18,205.18666666666667,205.18666666666667,0.0,0.0
8,0.0,0.0,0.0,1.0,1.0,0.0,0.0,1.0,0.0,100.0,1.0,1.1856,26.0,0.0,0.0,0.0,59.999996,0.0,26.0,26.0,26.0,26.0,-0.1052222222222221,0.2895000000000001,-0.021066666666666668,293.472,-1.23935,-1.3088,-0.556,-0.7199,-248.88,215.905,190.82825,0.0,0.0,0.0,0.0,0.017166666666666552,-5.498166666666667,-5.498166666666667,-0.5365,-0.4403333333333333,-0.06533333333333369,-0.9430000000000001,66.625,-0.09065000000000001,-0.21657500000000002,0.718,100.0,1.0,1.0,205.57666666666665,0.0,0.0,0.0,0.0,0.0,0.0,0.0,8713.7,0.0,55.0,5.0,239.82333333333332,0.0,0.0,0.0,0.0,0.0,0.0,0.0,0.0,0.40800000000000125,0.40800000000000125,0.0,0.0,0.0,55.0,616.79921,10000.0,85.000001,85.000001,85.000001,85.000001,395.0,0.0,0.0,0.0,1.0,333.33500000000004,53.497,53.497,48.325,48.325,34.0,2.2325000000000017,-9.928000000000004,-34.6,25.15,0.0,1783.165,0.5350000000000001,100.0,27.562,26.777,43.064,41.734,0.0,0.0,100.0,0.0,0.0,0.0,0.0,3143.875,2867.7,4125.888888888889,3976.7,305.459,305.59833333333336,314.8,314.87575,21.8894,20.613599999999998,21.908,21.3667,314.999998,314.999998,324.999988,324.999988,99.5621,99.5111,99.57075714285715,99.54565714285714,0.30933333333333346,-0.5133333333333332,-0.5018333333333334,0.2927142857142857,-0.041666666666671404,-0.03499999999999659,1.5323333333333333,1.554,37.809,29.835,37.925,34.5415,56.456,36.515,60.2085,51.314499999999995,55.3,35.8395,59.524,50.233000000000004,55.427,35.655,60.2295,50.2195,-0.379,-0.4555,0.4085142857142858,0.3986,0.0,208.72,208.61,205.57666666666665,205.57666666666665,0.0,0.0
9,0.0,0.0,0.0,1.0,1.0,0.0,0.0,1.0,0.0,100.0,1.0,1.1856,26.0,0.0,0.0,0.0,59.999996,0.0,26.0,26.0,26.0,26.0,-0.08311111111111102,0.2885,-0.006533333333333333,293.182,-1.16275,-1.3165,-0.611,-0.6718999999999999,-245.68,215.8975,190.8085,0.0,0.0,0.0,0.0,0.019033333333333347,-5.498166666666667,-5.498166666666667,-0.5351,0.5686666666666667,-0.06866666666666665,-0.23499999999999988,66.759,-0.0767,-0.211075,0.4239999999999995,100.0,1.0,1.0,206.04666666666668,0.0,0.0,0.0,0.0,0.0,0.0,0.0,8733.6,0.0,55.0,5.0,240.30333333333334,1.0,0.0,0.0,0.0,0.0,0.0,0.0,0.0,0.4559999999999995,0.4559999999999995,0.0,0.0,1.0,55.0,616.79921,10000.0,85.000001,85.000001,85.000001,85.000001,395.0,0.0,0.0,0.0,1.0,333.33500000000004,52.75,52.75,48.95,48.95,34.0,4.410000000000004,-9.496000000000002,-34.24666666666667,25.759999999999998,0.0,1783.116,0.34500000000000064,100.0,28.001,26.996,42.834,41.687,0.0,0.0,100.0,0.0,0.0,0.0,0.0,3344.375,2904.4,4106.444444444444,4035.9,304.73333333333335,305.467,314.94175,314.81975,21.8991,20.6191,21.9182,21.375,314.999998,314.999998,324.999988,324.999988,99.56212857142857,99.51116666666667,99.5709,99.54578571428571,0.33066666666666666,-0.5006666666666668,-0.49033333333333334,0.31185714285714283,-0.03499999999999659,-0.036666666666668846,1.5686666666666667,1.5675,37.869,29.869,37.989000000000004,34.5935,56.458,36.569,60.2475,51.3725,55.301,35.891,59.561,50.29,55.428,35.706,60.2645,50.2765,-0.39849999999999997,-0.4435,0.4023285714285714,0.39094285714285715,0.0,209.14499999999998,209.07,206.04666666666668,206.04666666666668,0.0,0.0
10,0.0,0.0,0.0,1.0,1.0,0.0,0.0,1.0,0.0,100.0,1.0,1.1856,26.0,0.0,0.0,0.0,59.999996,0.0,26.0,26.0,26.0,26.0,-0.07322222222222219,0.2904,-0.038200000000000005,293.152,-1.2417500000000001,-1.2748,-0.5913,-0.6437999999999999,-242.07,215.885,190.786625,0.0,0.0,0.0,0.0,0.021133333333333337,-5.498166666666667,-5.498166666666667,-0.5246000000000001,-0.6486666666666666,-0.02666666666666684,0.07299999999999995,66.913,-0.05095,-0.21065,0.15399999999999991,100.0,1.0,1.0,206.37666666666667,0.0,0.0,0.0,0.0,0.0,0.0,0.0,8747.5,0.0,55.0,5.0,240.86,0.0,0.0,0.0,0.0,0.0,0.0,1.0,0.0,0.509999999999998,0.509999999999998,0.0,0.0,0.0,55.0,616.79921,10000.0,85.000001,85.000001,85.000001,85.000001,395.0,0.0,0.0,0.0,1.0,166.665,53.528,53.528,47.974000000000004,47.974000000000004,34.0,3.7424999999999997,-9.188000000000002,-34.15,28.2775,0.0,1783.064,0.3200000000000003,100.0,27.735,26.961,43.117000000000004,42.341,0.0,0.0,100.0,0.0,0.0,0.0,0.0,3009.5,2860.5,4219.555555555556,4160.5,305.79366666666664,305.65633333333335,314.59975,314.432,21.9098,20.6252,21.9299,21.3846,314.999998,314.999998,324.999988,324.999988,99.56218571428572,99.51121666666667,99.57107142857143,99.54595714285715,0.34466666666666645,-0.4883333333333333,-0.4628333333333333,0.343,-0.03333333333333144,-0.03833333333332689,1.5193333333333334,1.5095,37.936,29.9075,38.062,34.653999999999996,56.458,36.626999999999995,60.294,51.4435,55.301,35.9465,59.6055,50.359,55.426,35.760999999999996,60.3065,50.3455,-0.398,-0.44300000000000006,0.4041428571428572,0.39831428571428573,0.0,209.57,209.54500000000002,206.37666666666667,206.37666666666667,0.0,0.0
11,0.0,0.0,0.0,1.0,1.0,0.0,0.0,1.0,0.0,100.0,1.0,1.1856,26.0,0.0,0.0,0.0,59.999996,0.0,26.0,26.0,26.0,26.0,-0.03266666666666662,0.2836000000000001,-0.07906666666666666,293.51800000000003,-1.2417,-1.2739,-0.6391,-0.6216999999999999,-238.86,215.8725,190.766875,0.0,0.0,0.0,0.0,0.022599999999999953,-5.498166666666667,-5.498166666666667,-0.5555,-0.053,-0.010666666666666824,-0.5739999999999998,67.044,-0.0366,-0.22735000000000002,0.1479999999999997,100.0,1.0,1.0,207.01666666666665,0.0,0.0,0.0,0.0,0.0,0.0,0.0,8774.6,0.0,55.0,5.0,241.32999999999998,1.0,0.0,0.0,0.0,0.0,0.0,1.0,0.0,0.5579999999999998,0.5579999999999998,0.0,0.0,1.0,55.0,616.79921,10000.0,85.000001,85.000001,85.000001,85.000001,395.0,0.0,0.0,0.0,1.0,166.665,53.07,53.07,49.088,49.088,34.0,5.155000000000001,-8.018,-30.163333333333334,26.2175,0.0,1783.016,0.10999999999999943,100.0,27.537,27.148,42.674,42.172,0.0,0.0,100.0,0.0,0.0,0.0,0.0,3175.75,2994.8,3851.6666666666665,3892.0,305.313,305.20533333333333,315.53375,315.19775,21.9193,20.6307,21.9399,21.393,314.999998,314.999998,324.999988,324.999988,99.56222857142858,99.51126666666667,99.57121428571429,99.5461,0.3686666666666665,-0.44933333333333314,-0.452,0.36342857142857143,-0.07166666666666544,-0.015000000000000568,1.6186666666666665,1.616,37.995000000000005,29.942,38.125,34.7065,56.458,36.6795,60.3285,51.5025,55.301,35.9965,59.6385,50.417,55.425,35.8105,60.3375,50.4035,-0.41000000000000003,-0.4285000000000001,0.4066,0.3982857142857143,0.0,210.015,209.94,207.01666666666665,207.01666666666665,0.0,0.0
12,0.0,0.0,0.0,1.0,1.0,0.0,0.0,1.0,0.0,100.0,1.0,1.1856,26.0,0.0,0.0,0.0,59.999996,0.0,26.0,26.0,26.0,26.0,-0.02444444444444449,0.27970000000000006,0.0229,292.984,-1.2666,-1.2817,-0.6129,-0.6475,-235.64,215.86,190.74625,0.0,0.0,0.0,0.0,0.025466666666666526,-5.498166666666667,-5.498166666666667,-0.5417000000000001,0.29833333333333334,-0.01633333333333331,-0.7490000000000001,67.18,-0.0228,-0.203575,-0.002000000000000668,100.0,1.0,1.0,207.25,0.0,0.0,0.0,0.0,0.0,0.0,0.0,8784.6,0.0,55.0,5.0,241.81666666666666,0.0,0.0,0.0,0.0,0.0,0.0,1.0,0.0,0.6059999999999981,0.6059999999999981,0.0,0.0,0.0,55.0,616.79921,10000.0,85.000001,85.000001,85.000001,85.000001,395.0,0.0,0.0,0.0,1.0,333.33500000000004,52.902,52.902,47.989,47.989,34.0,5.967500000000001,-7.844000000000001,-33.20666666666666,29.7,0.0,1782.968,0.0649999999999995,100.0,27.525,27.382,42.671,42.237,0.0,0.0,100.0,0.0,0.0,0.0,0.0,3182.625,3022.8,4235.666666666667,4139.5,305.27366666666666,305.105,314.6135,314.56725,21.9287,20.6364,21.9501,21.4014,314.999998,314.999998,324.999988,324.999988,99.56225714285715,99.51131666666667,99.57137142857142,99.54624285714286,0.3903333333333334,-0.44500000000000006,-0.4375,0.37657142857142856,-0.045000000000001705,-0.00999999999999801,1.532,1.524,38.055,29.9775,38.188,34.759,56.46,36.7315,60.3665,51.5635,55.303,36.045500000000004,59.675,50.477000000000004,55.425,35.8595,60.3715,50.463499999999996,-0.42100000000000004,-0.4245000000000001,0.40818571428571426,0.3973857142857143,0.0,210.42000000000002,210.38,207.25,207.25,0.0,0.0
13,0.0,0.0,0.0,1.0,1.0,0.0,0.0,1.0,0.0,100.0,1.0,1.1856,26.0,0.0,0.0,0.0,59.999996,0.0,26.0,26.0,26.0,26.0,0.009888888888888836,0.2882,0.044166666666666674,292.679,-1.23335,-1.2879,-0.6445000000000001,-0.6555,-232.21,215.845,190.724625,0.0,0.0,0.0,0.0,0.026866666666666594,-5.498166666666667,-5.498166666666667,-0.5361,-0.128,-0.014666666666666828,1.229,67.322,-0.012150000000000001,-0.21175000000000002,-0.2579999999999991,100.0,1.0,1.0,207.63333333333333,0.0,0.0,0.0,0.0,0.0,0.0,0.0,8800.8,0.0,55.0,5.0,242.32999999999998,1.0,0.0,0.0,0.0,0.0,0.0,1.0,0.0,0.657,0.657,0.0,0.0,1.0,55.0,616.79921,10000.0,85.000001,85.000001,85.000001,85.000001,395.0,0.0,0.0,0.0,1.0,333.33500000000004,52.704,52.704,47.913,47.913,34.0,7.152500000000003,-6.475999999999999,-32.016666666666666,32.385000000000005,0.0,1782.916,0.02999999999999936,100.0,27.984,27.362000000000002,43.054,42.619,0.0,0.0,100.0,0.0,0.0,0.0,0.0,3090.125,3093.1,4149.555555555556,4291.5,305.357,305.0663333333333,314.69775,314.25425,21.9389,20.6424,21.961100000000002,21.4106,314.999998,314.999998,324.999988,324.999988,99.56231428571428,99.51138333333333,99.57152857142857,99.5464,0.41133333333333333,-0.41300000000000003,-0.41583333333333333,0.4002857142857143,-0.01999999999999602,-0.046666666666666856,1.5150000000000001,1.4985,38.117999999999995,30.015,38.257,34.816,56.464,36.786,60.4075,51.6315,55.306,36.098,59.714,50.5435,55.427,35.911500000000004,60.408500000000004,50.53,-0.42699999999999994,-0.4115,0.40891428571428573,0.39945714285714284,0.0,210.805,210.845,207.63333333333333,207.63333333333333,0.0,0.0
14,0.0,0.0,0.0,1.0,1.0,0.0,0.0,1.0,0.0,100.0,1.0,1.1856,26.0,0.0,0.0,0.0,59.999996,0.0,26.0,26.0,26.0,26.0,0.011555555555555541,0.2802,-0.013366666666666666,292.862,-1.2694,-1.2792,-0.6516000000000001,-0.6375,-228.76999999999998,215.83249999999998,190.70325,0.0,0.0,0.0,0.0,0.028866666666666596,-5.498166666666667,-5.498166666666667,-0.5473,-0.11866666666666667,0.011444444444444368,-0.33699999999999974,67.461,0.0028,-0.224175,-0.1899999999999995,100.0,1.0,1.0,208.15,0.0,0.0,0.0,0.0,0.0,0.0,0.0,8822.7,0.0,55.0,5.0,242.82999999999998,0.0,0.0,0.0,0.0,0.0,0.0,1.0,0.0,0.7079999999999984,0.7079999999999984,0.0,0.0,0.0,55.0,616.79921,10000.0,85.000001,85.000001,85.000001,85.000001,395.0,0.0,0.0,0.0,1.0,166.665,52.719,52.719,48.111,48.111,34.0,6.5075,-7.125999999999998,-29.99,30.745,0.0,1782.866,0.03500000000000014,100.0,27.701999999999998,27.695,42.879,42.889,0.0,0.0,100.0,0.0,0.0,0.0,0.0,3106.625,3049.6,4009.3333333333335,4105.4,305.51666666666665,304.95166666666665,315.13025,314.62625,21.9489,20.6484,21.971899999999998,21.4197,314.999998,314.999998,324.999988,324.999988,99.56235714285714,99.51143333333333,99.5717,99.54655714285714,0.40600000000000014,-0.42566666666666664,-0.4053333333333333,0.40785714285714286,-0.046666666666666856,-0.03333333333333144,1.5576666666666665,1.5465,38.181,30.052500000000002,38.324,34.873,56.468,36.8405,60.445499999999996,51.698,55.309,36.15,59.75,50.6085,55.428,35.963,60.442,50.5955,-0.4175,-0.42500000000000004,0.40454285714285715,0.40094285714285716,0.0,211.255,211.26999999999998,208.15,208.15,0.0,0.0
15,0.0,0.0,0.0,1.0,1.0,0.0,0.0,1.0,0.0,100.0,1.0,1.1856,26.0,0.0,0.0,0.0,59.999996,0.0,26.0,26.0,26.0,26.0,0.006555555555555648,0.27849999999999997,-0.029933333333333333,292.801,-1.2705,-1.2463,-0.6705,-0.6456999999999999,-225.53,215.8175,190.682875,0.0,0.0,0.0,0.0,0.03076666666666661,-5.498166666666667,-5.498166666666667,-0.5382,0.19733333333333336,0.030111111111110977,-0.8740000000000001,67.593,0.01225,-0.20772500000000002,-0.21200000000000063,100.0,1.0,1.0,208.51999999999998,0.0,0.0,0.0,0.0,0.0,0.0,0.0,8838.4,0.0,55.0,5.0,243.30666666666667,1.0,0.0,0.0,0.0,0.0,0.0,1.0,0.0,0.7560000000000002,0.7560000000000002,0.0,0.0,1.0,55.0,616.79921,10000.0,85.000001,85.000001,85.000001,85.000001,395.0,0.0,0.0,0.0,1.0,333.33500000000004,52.856,52.856,48.05,48.05,34.0,6.802500000000002,-7.171999999999997,-30.57333333333333,32.417500000000004,0.0,1782.817,0.04499999999999993,100.0,27.753,27.779,42.723,43.019999999999996,0.0,0.0,100.0,0.0,0.0,0.0,0.0,3006.5,3007.9,4055.1111111111113,4229.8,305.8136666666667,305.0656666666667,315.0465,314.26875,21.9584,20.6541,21.9821,21.4282,314.999998,314.999998,324.999988,324.999988,99.56241428571428,99.51148333333333,99.57184285714285,99.54671428571429,0.41833333333333345,-0.42199999999999993,-0.4021666666666667,0.4122857142857143,-0.04833333333333201,-0.03166666666666629,1.5350000000000001,1.5225,38.239999999999995,30.088,38.388,34.9265,56.471000000000004,36.8915,60.480000000000004,51.760999999999996,55.312,36.198499999999996,59.783,50.670500000000004,55.43,36.0115,60.4725,50.658,-0.4235,-0.42599999999999993,0.4076571428571429,0.39811428571428575,0.0,211.68,211.68,208.51999999999998,208.51999999999998,0.0,0.0
16,0.0,0.0,0.0,1.0,1.0,0.0,0.0,1.0,0.0,100.0,1.0,1.1856,26.0,0.0,0.0,0.0,59.999996,0.0,26.0,26.0,26.0,26.0,0.016111111111111187,0.28049999999999997,-0.017033333333333334,292.801,-1.31765,-1.209,-0.6371,-0.6520999999999999,-222.07999999999998,215.805,190.660875,0.0,0.0,0.0,0.0,0.03276666666666661,-5.498166666666667,-5.498166666666667,-0.5575,-0.5616666666666666,0.01288888888888895,0.10899999999999999,67.732,0.01755,-0.223275,-0.1299999999999999,100.0,1.0,1.0,208.96333333333334,0.0,0.0,0.0,0.0,0.0,0.0,0.0,8857.2,0.0,55.0,5.0,243.80666666666667,0.0,0.0,0.0,0.0,0.0,0.0,1.0,0.0,0.8069999999999986,0.8069999999999986,0.0,0.0,0.0,55.0,616.79921,10000.0,85.000001,85.000001,85.000001,85.000001,395.0,0.0,0.0,0.0,1.0,166.665,52.643,52.643,47.897,47.897,34.0,6.927500000000002,-7.402000000000001,-28.963333333333335,31.075,0.0,1782.767,0.03500000000000014,100.0,27.616,27.598,43.077,42.954,0.0,0.0,100.0,0.0,0.0,0.0,0.0,3112.0,3220.6,3986.1111111111113,4060.4,305.453,304.721,315.115,314.76375,21.9683,20.6602,21.993,21.4373,314.999998,314.999998,324.999988,324.999988,99.56245714285714,99.51151666666667,99.572,99.54687142857144,0.42500000000000027,-0.40900000000000003,-0.3878333333333333,0.4197142857142857,-0.01833333333333087,-0.054999999999999716,1.5383333333333333,1.5470000000000002,38.302,30.125999999999998,38.456,34.983000000000004,56.473,36.945499999999996,60.5195,51.8275,55.313,36.2505,59.820499999999996,50.7355,55.429,36.063,60.507999999999996,50.723,-0.4145,-0.4255,0.4090142857142858,0.3931428571428572,0.0,212.075,212.10000000000002,208.96333333333334,208.96333333333334,0.0,0.0
17,0.0,0.0,0.0,1.0,1.0,0.0,0.0,1.0,0.0,100.0,1.0,1.1856,26.0,0.0,0.0,0.0,59.999996,0.0,26.0,26.0,26.0,26.0,0.012111111111111184,0.29390000000000005,0.021133333333333334,292.435,-1.2864,-1.1832,-0.6821,-0.6108,-218.62,215.79250000000002,190.638375,0.0,0.0,0.0,0.0,0.03476666666666661,-5.498166666666667,-5.498166666666667,-0.5458000000000001,0.3403333333333333,-0.006444444444444475,-0.722,67.87100000000001,0.0146,-0.20342500000000002,-0.1559999999999997,100.0,1.0,1.0,209.31666666666666,0.0,0.0,0.0,0.0,0.0,0.0,0.0,8872.2,0.0,55.0,5.0,244.30666666666667,1.0,0.0,0.0,0.0,0.0,0.0,1.0,0.0,0.8580000000000005,0.8580000000000005,0.0,0.0,1.0,55.0,616.79921,10000.0,85.000001,85.000001,85.000001,85.000001,395.0,0.0,0.0,0.0,1.0,333.33500000000004,52.505,52.505,47.562,47.562,34.0,7.667500000000004,-7.2180000000000035,-33.17666666666666,31.677500000000002,0.0,1782.714,0.009999999999999787,100.0,27.889,27.899,42.849000000000004,43.0,0.0,0.0,100.0,0.0,0.0,0.0,0.0,3208.375,3026.8,4360.666666666667,4239.3,305.26166666666666,305.1243333333333,314.38825,314.358,21.9784,20.6663,22.0038,21.4464,314.999998,314.999998,324.999988,324.999988,99.56251428571429,99.51156666666667,99.57215714285714,99.54702857142857,0.42900000000000027,-0.40900000000000003,-0.3953333333333333,0.40785714285714286,-0.04833333333333201,-0.04333333333332945,1.5183333333333335,1.514,38.364999999999995,30.1645,38.524,35.04,56.479,37.0,60.557,51.8935,55.319,36.3025,59.856,50.8005,55.433,36.1145,60.541,50.788,-0.42799999999999994,-0.4205000000000001,0.4038,0.3985428571428572,0.0,212.54500000000002,212.555,209.31666666666666,209.31666666666666,0.0,0.0
18,0.0,0.0,0.0,1.0,1.0,0.0,0.0,1.0,0.0,100.0,1.0,1.1856,26.0,0.0,0.0,0.0,59.999996,0.0,26.0,26.0,26.0,26.0,-0.0021111111111110636,0.2774000000000001,0.014833333333333336,292.343,-1.31,-1.1642000000000001,-0.6900000000000001,-0.5615,-215.36,215.78,190.61725,0.0,0.0,0.0,0.0,0.036666666666666514,-5.498166666666667,-5.498166666666667,-0.5593,-0.454,0.00822222222222213,-0.528,68.001,0.0172,-0.22145,-0.09999999999999964,100.0,1.0,1.0,209.73000000000002,0.0,0.0,0.0,0.0,0.0,0.0,0.0,8889.7,0.0,55.0,5.0,244.77666666666664,0.0,0.0,0.0,0.0,0.0,0.0,1.0,0.0,0.9059999999999988,0.9059999999999988,0.0,0.0,0.0,55.0,616.79921,10000.0,85.000001,85.000001,85.000001,85.000001,395.0,0.0,0.0,0.0,1.0,166.665,52.2,52.2,47.531,47.531,34.0,7.020000000000003,-8.201999999999998,-32.00666666666667,30.445,0.0,1782.668,0.08999999999999986,100.0,27.793,27.886,43.133,43.291,0.0,0.0,100.0,0.0,0.0,0.0,0.0,3259.25,3216.7,4171.888888888889,4169.6,305.147,304.58233333333334,314.79275,314.50325,21.9877,20.6721,22.0141,21.455,314.999998,314.999998,324.999988,324.999988,99.56255714285714,99.51161666666667,99.5723,99.54718571428572,0.41800000000000015,-0.41466666666666674,-0.405,0.4095714285714286,-0.03833333333332689,-0.02833333333332888,1.54,1.5310000000000001,38.423,30.200499999999998,38.588,35.094,56.482,37.0505,60.5935,51.957,55.321,36.3505,59.891,50.863,55.434,36.1625,60.573499999999996,50.8505,-0.41000000000000003,-0.4315,0.40988571428571435,0.3988857142857143,0.0,212.93,212.905,209.73000000000002,209.73000000000002,0.0,0.0
19,0.0,0.0,0.0,1.0,1.0,0.0,0.0,1.0,0.0,100.0,1.0,1.1856,26.0,0.0,0.0,0.0,59.999996,0.0,26.0,26.0,26.0,26.0,0.018333333333333313,0.28780000000000006,0.0616,291.931,-1.2206000000000001,-1.2724,-0.6178,-0.5529,-211.89,215.76749999999998,190.594625,0.0,0.0,0.0,0.0,0.038666666666666516,-5.498166666666667,-5.498166666666667,-0.5473,0.7606666666666666,0.015222222222222026,0.8890000000000002,68.138,0.01745,-0.20997500000000002,-0.18799999999999972,100.0,1.0,1.0,210.11333333333334,0.0,0.0,0.0,0.0,0.0,0.0,0.0,8906.0,0.0,55.0,5.0,245.26666666666665,1.0,0.0,0.0,0.0,0.0,0.0,1.0,0.0,0.9570000000000007,0.9570000000000007,0.0,0.0,1.0,55.0,616.79921,10000.0,85.000001,85.000001,85.000001,85.000001,395.0,0.0,0.0,0.0,1.0,333.33500000000004,51.879999999999995,51.879999999999995,47.379,47.379,34.0,8.217500000000001,-7.015999999999998,-31.05666666666667,34.307500000000005,0.0,1782.616,0.120000000000001,100.0,28.543,28.234,43.115,43.204,0.0,0.0,100.0,0.0,0.0,0.0,0.0,3076.625,3168.8,4197.777777777777,4486.9,305.368,304.6673333333333,314.61875,313.854,21.997799999999998,20.6783,22.0248,21.4641,314.999998,314.999998,324.999988,324.999988,99.56262857142858,99.51166666666667,99.57245714285715,99.54734285714285,0.43166666666666664,-0.41566666666666663,-0.3936666666666667,0.4312857142857143,-0.023333333333326323,-0.03999999999999915,1.496,1.4935,38.486000000000004,30.2395,38.655,35.150999999999996,56.488,37.107,60.629999999999995,52.024,55.327,36.4045,59.9255,50.9285,55.438,36.216499999999996,60.606,50.9165,-0.42100000000000004,-0.4365000000000001,0.4138428571428572,0.40281428571428574,0.0,213.38,213.36,210.11333333333334,210.11333333333334,0.0,0.0
20,0.0,0.0,0.0,1.0,1.0,0.0,0.0,1.0,0.0,100.0,1.0,1.1856,26.0,0.0,0.0,0.0,59.999996,0.0,26.0,26.0,26.0,26.0,0.016666666666666607,0.25760000000000005,-0.008666666666666668,292.404,-1.315,-1.2296,-0.6221,-0.6776,-208.2,215.7525,190.571,0.0,0.0,0.0,0.0,0.04083333333333339,-5.498166666666667,-5.498166666666667,-0.5589000000000001,-1.0776666666666668,0.010999999999999899,0.33099999999999996,68.283,0.01485,-0.22695,0.002000000000000668,100.0,1.0,1.0,210.57333333333332,0.0,0.0,0.0,0.0,0.0,0.0,0.0,8925.4,0.0,55.0,5.0,245.79333333333335,0.0,0.0,0.0,0.0,0.0,0.0,0.0,0.0,1.0109999999999992,1.0109999999999992,0.0,0.0,0.0,55.0,616.79921,10000.0,85.000001,85.000001,85.000001,85.000001,395.0,0.0,0.0,0.0,1.0,166.665,52.597,52.597,47.333,47.333,34.0,7.002499999999998,-7.006,-29.693333333333335,32.215,0.0,1782.563,0.10500000000000043,100.0,27.967,27.851,43.646,43.611000000000004,0.0,0.0,100.0,0.0,0.0,0.0,0.0,3031.875,3145.6,4038.1111111111113,4111.4,305.68,304.933,314.96175,314.6255,22.0081,20.6848,22.0365,21.4739,314.999998,314.999998,324.999988,324.999988,99.56267142857143,99.51173333333334,99.57262857142857,99.54751428571429,0.43033333333333346,-0.40866666666666673,-0.3938333333333333,0.421,-0.02833333333332888,-0.03999999999999915,1.5136666666666665,1.5025,38.551,30.28,38.727999999999994,35.212,56.489999999999995,37.1635,60.6725,52.0965,55.328,36.459,59.966,51.0,55.437,36.2705,60.644,50.9875,-0.4135,-0.43399999999999994,0.4113428571428572,0.3976571428571429,0.0,213.785,213.775,210.57333333333332,210.57333333333332,0.0,0.0
21,0.0,0.0,0.0,1.0,1.0,0.0,0.0,1.0,0.0,100.0,1.0,1.1856,26.0,0.0,0.0,0.0,59.999996,0.0,26.0,26.0,26.0,26.0,0.009444444444444589,0.27390000000000003,-0.05723333333333334,292.603,-1.2843,-1.2327,-0.6902,-0.6335999999999999,-205.13,215.7425,190.550625,0.0,0.0,0.0,0.0,0.04259999999999997,-5.498166666666667,-5.498166666666667,-0.5732,0.3773333333333333,-0.006444444444444475,-0.7749999999999999,68.401,0.00895,-0.21955000000000002,-0.06799999999999962,100.0,1.0,1.0,211.07,0.0,0.0,0.0,0.0,0.0,0.0,0.0,8946.5,0.0,55.0,5.0,246.21333333333334,1.0,0.0,0.0,0.0,0.0,0.0,0.0,0.0,1.056000000000001,1.056000000000001,0.0,0.0,1.0,55.0,616.79921,10000.0,85.000001,85.000001,85.000001,85.000001,395.0,0.0,0.0,0.0,1.0,333.33500000000004,52.383,52.383,48.019,48.019,34.0,7.3700000000000045,-7.466000000000001,-31.2,29.5625,0.0,1782.518,0.02999999999999936,100.0,28.029,28.027,43.058,43.213,0.0,0.0,100.0,0.0,0.0,0.0,0.0,3208.875,3055.9,4087.8888888888887,4003.6000000000004,305.2606666666667,305.04633333333334,315.04175,314.9505,22.0169,20.6903,22.0459,21.4818,314.999998,314.999998,324.999988,324.999988,99.56271428571428,99.51176666666667,99.57277142857143,99.54765714285715,0.42200000000000015,-0.42366666666666664,-0.40900000000000003,0.4065714285714286,-0.046666666666666856,-0.026666666666670835,1.579,1.5725,38.605999999999995,30.314,38.787,35.2615,56.494,37.212,60.703,52.1515,55.332,36.5055,59.995,51.054,55.44,36.3165,60.670500000000004,51.042,-0.42200000000000004,-0.42999999999999994,0.4086714285714286,0.39584285714285716,0.0,214.185,214.16,211.07,211.07,0.0,0.0
22,0.0,0.0,0.0,1.0,1.0,0.0,0.0,1.0,0.0,100.0,1.0,1.1856,26.0,0.0,0.0,0.0,59.999996,0.0,26.0,26.0,26.0,26.0,0.007444444444444587,0.2744,-0.0053,292.252,-1.2185,-1.2837,-0.6866,-0.6185,-201.63,215.73000000000002,190.526875,0.0,0.0,0.0,0.0,0.0446333333333333,-5.498166666666667,-5.498166666666667,-0.5558000000000001,-0.049666666666666665,0.008000000000000007,1.0700000000000003,68.538,0.01,-0.20142500000000002,-0.16199999999999992,100.0,1.0,1.0,211.31,0.0,0.0,0.0,0.0,0.0,0.0,0.0,8956.6,0.0,55.0,5.0,246.71,0.0,0.0,0.0,0.0,0.0,0.0,0.0,0.0,1.1069999999999993,1.1069999999999993,0.0,0.0,0.0,55.0,616.79921,10000.0,85.000001,85.000001,85.000001,85.000001,395.0,0.0,0.0,0.0,1.0,333.33500000000004,52.689,52.689,47.058,47.058,34.0,7.092500000000001,-6.629999999999999,-32.07666666666667,33.46,0.0,1782.465,0.0600000000000005,100.0,28.203,27.979,43.439,43.377,0.0,0.0,100.0,0.0,0.0,0.0,0.0,2883.375,3067.4,4217.333333333333,4394.5,305.971,305.101,314.60975,314.06,22.0268,20.6965,22.0568,21.4911,314.999998,314.999998,324.999988,324.999988,99.56277142857142,99.51183333333333,99.57292857142858,99.54781428571428,0.41900000000000004,-0.4159999999999999,-0.393,0.4132857142857143,-0.03166666666666629,-0.04999999999999716,1.5056666666666667,1.5030000000000001,38.667,30.353,38.855000000000004,35.3195,56.498000000000005,37.266999999999996,60.7425,52.2195,55.336,36.5575,60.033,51.1205,55.442,36.3685,60.706,51.1085,-0.41500000000000004,-0.4225000000000001,0.40844285714285716,0.39885714285714285,0.0,214.60500000000002,214.63,211.31,211.31,0.0,0.0
23,0.0,0.0,0.0,1.0,1.0,0.0,0.0,1.0,0.0,100.0,1.0,1.1856,26.0,0.0,0.0,0.0,59.999996,0.0,26.0,26.0,26.0,26.0,0.017555555555555546,0.24650000000000016,-0.06796666666666666,292.145,-1.2492,-1.2313,-0.7375,-0.5965,-198.13,215.72,190.5035,0.0,0.0,0.0,0.0,0.04666666666666652,-5.498166666666667,-5.498166666666667,-0.5744,-0.09733333333333333,0.0022222222222221255,-0.46799999999999997,68.672,0.011850000000000001,-0.227025,-0.07200000000000006,100.0,1.0,1.0,211.8466666666667,0.0,0.0,0.0,0.0,0.0,0.0,0.0,8979.4,0.0,55.0,5.0,247.19,1.0,0.0,0.0,0.0,0.0,0.0,0.0,0.0,1.1580000000000013,1.1580000000000013,0.0,0.0,1.0,55.0,616.79921,10000.0,85.000001,85.000001,85.000001,85.000001,395.0,0.0,0.0,0.0,1.0,166.665,51.788,51.788,47.913,47.913,34.0,7.972500000000004,-7.658000000000001,-31.883333333333333,29.85,0.0,1782.416,0.0649999999999995,100.0,28.38,28.277,43.407,43.635,0.0,0.0,100.0,0.0,0.0,0.0,0.0,3303.875,3077.0,4079.0,4036.6000000000004,304.894,304.93966666666665,315.072,314.88925,22.0367,20.7027,22.0677,21.5003,314.999998,314.999998,324.999988,324.999988,99.56281428571428,99.51188333333333,99.5731,99.54797142857143,0.4206666666666665,-0.42566666666666664,-0.4103333333333333,0.4142857142857143,-0.045000000000001705,-0.04333333333332945,1.5603333333333333,1.5445,38.729,30.392,38.923,35.376999999999995,56.504000000000005,37.322,60.7805,52.286,55.341,36.6105,60.0685,51.186,55.445,36.421,60.7395,51.174,-0.4235,-0.4355,0.41152857142857147,0.4025571428571429,0.0,215.0,214.995,211.8466666666667,211.8466666666667,0.0,0.0
24,0.0,0.0,0.0,1.0,1.0,0.0,0.0,1.0,0.0,100.0,1.0,1.1856,26.0,0.0,0.0,0.0,59.999996,0.0,26.0,26.0,26.0,26.0,0.0007777777777777661,0.27100000000000013,-0.046233333333333335,292.404,-1.2804,-1.2353,-0.6614,-0.6203,-194.84,215.70749999999998,190.480875,0.0,0.0,0.0,0.0,0.04859999999999998,-5.498166666666667,-5.498166666666667,-0.5809000000000001,-0.4463333333333333,0.016555555555555657,-0.16900000000000004,68.799,0.015600000000000001,-0.21735000000000002,-0.10999999999999943,100.0,1.0,1.0,212.13,0.0,0.0,0.0,0.0,0.0,0.0,0.0,8991.3,0.0,55.0,5.0,247.65,0.0,0.0,0.0,0.0,0.0,0.0,0.0,0.0,1.2059999999999995,1.2059999999999995,0.0,0.0,0.0,55.0,616.79921,10000.0,85.000001,85.000001,85.000001,85.000001,395.0,0.0,0.0,0.0,1.0,333.33500000000004,52.887,52.887,47.195,47.195,34.0,6.352499999999999,-7.039999999999999,-32.230000000000004,31.1575,0.0,1782.367,0.09500000000000064,100.0,28.06,28.006999999999998,43.402,43.605000000000004,0.0,0.0,100.0,0.0,0.0,0.0,0.0,2968.875,2967.3,4264.333333333333,4159.5,305.925,305.329,314.54875,314.5485,22.0458,20.7084,22.0779,21.5089,314.999998,314.999998,324.999988,324.999988,99.56287142857143,99.51193333333333,99.57324285714286,99.54812857142858,0.4119999999999999,-0.41999999999999993,-0.39616666666666667,0.4072857142857143,-0.03333333333333144,-0.02833333333332888,1.5136666666666665,1.5105,38.787,30.427999999999997,38.986999999999995,35.431,56.506,37.3725,60.816,52.3485,55.343,36.658500000000004,60.1025,51.247,55.446,36.4685,60.771,51.235,-0.41600000000000004,-0.43300000000000005,0.40585714285714286,0.39802857142857145,0.0,215.39499999999998,215.38,212.13,212.13,0.0,0.0
25,0.0,0.0,0.0,1.0,1.0,0.0,0.0,1.0,0.0,100.0,1.0,1.1856,26.0,0.0,0.0,0.0,59.999996,0.0,26.0,26.0,26.0,26.0,0.0032222222222222374,0.2659,-0.03453333333333333,292.191,-1.3361,-1.2073,-0.6705,-0.6305000000000001,-191.32,215.6975,190.4555,0.0,0.0,0.0,0.0,0.05063333333333331,-5.498166666666667,-5.498166666666667,-0.6068,0.09466666666666668,0.015333333333333199,0.04400000000000004,68.931,0.013000000000000001,-0.22010000000000002,-0.05600000000000005,100.0,1.0,1.0,212.66,0.0,0.0,0.0,0.0,0.0,0.0,0.0,9013.8,0.0,55.0,5.0,248.12666666666667,1.0,0.0,0.0,0.0,0.0,0.0,0.0,0.0,1.256999999999998,1.256999999999998,0.0,0.0,1.0,55.0,616.79921,10000.0,85.000001,85.000001,85.000001,85.000001,395.0,0.0,0.0,0.0,1.0,333.33500000000004,51.727000000000004,51.727000000000004,47.867,47.867,34.0,7.482500000000002,-7.421999999999997,-29.19,30.517500000000002,0.0,1782.315,-0.03500000000000014,100.0,28.214,28.143,43.252,43.348,0.0,0.0,100.0,0.0,0.0,0.0,0.0,3257.75,3346.8,3959.4444444444443,4080.6000000000004,305.03,304.298,315.27225,314.7835,22.0556,20.7147,22.0887,21.518,314.999998,314.999998,324.999988,324.999988,99.56292857142857,99.51198333333333,99.5734,99.5483,0.43199999999999994,-0.4016666666666666,-0.3928333333333333,0.41300000000000003,-0.03833333333332689,-0.03833333333332689,1.5683333333333334,1.5755,38.847,30.467,39.054,35.4875,56.51,37.4275,60.853,52.4125,55.346000000000004,36.7115,60.1355,51.31,55.447,36.5245,60.8015,51.3015,-0.4225,-0.4255,0.40261428571428576,0.39191428571428577,0.0,215.805,215.79500000000002,212.66,212.66,0.0,0.0
26,0.0,0.0,0.0,1.0,1.0,0.0,0.0,1.0,0.0,100.0,1.0,1.1856,26.0,0.0,0.0,0.0,59.999996,0.0,26.0,26.0,26.0,26.0,0.011888888888888838,0.27700000000000014,0.07493333333333334,291.138,-1.29805,-1.2701,-0.7260000000000001,-0.6197999999999999,-187.8,215.6875,190.429875,0.0,0.0,0.0,0.0,0.05266666666666653,-5.498166666666667,-5.498166666666667,-0.5699000000000001,0.514,0.0040000000000000036,-0.593,69.06700000000001,0.013850000000000001,-0.19817500000000002,-0.22200000000000042,100.0,1.0,1.0,212.80666666666667,0.0,0.0,0.0,0.0,0.0,0.0,0.0,9020.1,0.0,55.0,5.0,248.61333333333334,0.0,0.0,0.0,0.0,0.0,0.0,0.0,0.0,1.3079999999999998,1.3079999999999998,0.0,0.0,0.0,55.0,616.79921,10000.0,85.000001,85.000001,85.000001,85.000001,395.0,0.0,0.0,0.0,1.0,333.33500000000004,51.528999999999996,51.528999999999996,46.126999999999995,46.126999999999995,34.0,7.899999999999999,-6.874000000000002,-36.91666666666667,35.16,0.0,1782.265,-0.07499999999999929,100.0,28.819,28.849,43.739000000000004,43.915,0.0,0.0,100.0,0.0,0.0,0.0,0.0,3237.25,3023.7,4605.777777777777,4527.8,305.1446666666667,305.0226666666667,313.80175,313.67925,22.0656,20.7212,22.0996,21.5274,314.999998,314.999998,324.999988,324.999988,99.56298571428572,99.51203333333333,99.57357142857143,99.54845714285715,0.43400000000000016,-0.4193333333333331,-0.4013333333333333,0.4125714285714286,-0.046666666666666856,-0.023333333333326323,1.4476666666666667,1.433,38.91,30.5075,39.123000000000005,35.546,56.518,37.4845,60.8915,52.4805,55.352999999999994,36.766,60.1745,51.377,55.453,36.5755,60.8375,51.365,-0.4425,-0.4235,0.4087857142857143,0.3986714285714286,0.0,216.255,216.255,212.80666666666667,212.80666666666667,0.0,0.0
27,0.0,0.0,0.0,1.0,1.0,0.0,0.0,1.0,0.0,100.0,1.0,1.1856,26.0,0.0,0.0,0.0,59.999996,0.0,26.0,26.0,26.0,26.0,0.028888888888888964,0.24180000000000001,-0.0378,291.748,-1.26355,-1.2384,-0.6644,-0.6895,-184.49,215.6775,190.406875,0.0,0.0,0.0,0.0,0.05459999999999998,-5.498166666666667,-5.498166666666667,-0.5959,-0.9716666666666667,0.003555555555555534,-0.8289999999999997,69.19,0.018250000000000002,-0.239625,-0.1899999999999995,100.0,1.0,1.0,213.35000000000002,0.0,0.0,0.0,0.0,0.0,0.0,0.0,9043.1,0.0,55.0,5.0,249.05666666666667,1.0,0.0,0.0,0.0,0.0,0.0,0.0,0.0,1.355999999999998,1.355999999999998,0.0,0.0,1.0,55.0,616.79921,10000.0,85.000001,85.000001,85.000001,85.000001,395.0,0.0,0.0,0.0,1.0,333.33500000000004,51.987,51.987,46.57,46.57,34.0,7.527500000000003,-6.9680000000000035,-31.3,31.685,0.0,1782.216,-0.0600000000000005,100.0,28.413,28.679000000000002,44.25,44.356,0.0,0.0,100.0,0.0,0.0,0.0,0.0,3115.25,3089.4,4139.555555555556,3997.4,305.536,304.909,314.84625,314.847,22.0748,20.7271,22.11,21.5362,314.999998,314.999998,324.999988,324.999988,99.56304285714286,99.51208333333334,99.57372857142857,99.54861428571428,0.42600000000000016,-0.41133333333333333,-0.39916666666666667,0.426,-0.04333333333332945,-0.03166666666666629,1.5156666666666667,1.496,38.968,30.5445,39.188,35.601,56.521,37.536,60.9285,52.545,55.355999999999995,36.815,60.2095,51.44,55.454,36.6245,60.8705,51.428,-0.4265,-0.42199999999999993,0.41140000000000004,0.4019142857142858,0.0,216.585,216.585,213.35000000000002,213.35000000000002,0.0,0.0
28,0.0,0.0,0.0,1.0,1.0,0.0,0.0,1.0,0.0,100.0,1.0,1.1856,26.0,0.0,0.0,0.0,59.999996,0.0,26.0,26.0,26.0,26.0,0.02544444444444438,0.27490000000000014,-0.049300000000000004,291.931,-1.24395,-1.2335,-0.7072,-0.6644,-180.95,215.66750000000002,190.3815,0.0,0.0,0.0,0.0,0.05666666666666653,-5.498166666666667,-5.498166666666667,-0.5993,0.6693333333333333,-0.0014444444444445814,0.7640000000000002,69.32,0.0205,-0.21265,-0.2839999999999998,100.0,1.0,1.0,213.83333333333331,0.0,0.0,0.0,0.0,0.0,0.0,0.0,9063.6,0.0,55.0,5.0,249.52333333333334,0.0,0.0,0.0,0.0,0.0,0.0,0.0,0.0,1.407,1.407,0.0,0.0,0.0,55.0,616.79921,10000.0,85.000001,85.000001,85.000001,85.000001,395.0,0.0,0.0,0.0,1.0,166.665,51.879999999999995,51.879999999999995,47.409,47.409,34.0,8.620000000000005,-7.036000000000001,-30.313333333333336,32.5075,0.0,1782.167,-0.07499999999999929,100.0,28.686,28.39,43.625,43.775,0.0,0.0,100.0,0.0,0.0,0.0,0.0,3063.0,3185.7,4098.222222222223,4162.8,305.421,304.79333333333335,315.0485,314.6525,22.084699999999998,20.7335,22.1207,21.5453,314.999998,314.999998,324.999988,324.999988,99.5631,99.51213333333334,99.57388571428571,99.54877142857143,0.44633333333333347,-0.4076666666666666,-0.3831666666666667,0.42957142857142855,-0.041666666666671404,-0.045000000000001705,1.5713333333333335,1.562,39.03,30.584,39.254000000000005,35.658,56.528,37.591499999999996,60.9615,52.608000000000004,55.361999999999995,36.868,60.241,51.502,55.458,36.677,60.899,51.49,-0.43599999999999994,-0.42500000000000004,0.4041571428571429,0.40281428571428574,0.0,217.01,217.04500000000002,213.83333333333331,213.83333333333331,0.0,0.0
29,0.0,0.0,0.0,1.0,1.0,0.0,0.0,1.0,0.0,100.0,1.0,1.1856,26.0,0.0,0.0,0.0,59.999996,0.0,26.0,26.0,26.0,26.0,0.03388888888888886,0.25239999999999996,0.010566666666666667,291.718,-1.235,-1.278,-0.6619,-0.6354,-177.42000000000002,215.6575,190.355125,0.0,0.0,0.0,0.0,0.058733333333333304,-5.498166666666667,-5.498166666666667,-0.6032000000000001,-0.6986666666666667,0.0,-0.7519999999999998,69.45400000000001,0.023950000000000003,-0.212875,-0.23799999999999955,100.0,1.0,1.0,214.06666666666666,0.0,0.0,0.0,0.0,0.0,0.0,0.0,9073.6,0.0,55.0,5.0,250.00666666666666,1.0,0.0,0.0,0.0,0.0,0.0,0.0,0.0,1.4579999999999984,1.4579999999999984,0.0,0.0,1.0,55.0,616.79921,10000.0,85.000001,85.000001,85.000001,85.000001,395.0,0.0,0.0,0.0,1.0,333.33500000000004,52.17,52.17,46.661,46.661,34.0,8.302500000000002,-6.390000000000001,-31.62666666666667,33.042500000000004,0.0,1782.114,-0.11500000000000021,100.0,28.172,28.445999999999998,43.937,44.193,0.0,0.0,100.0,0.0,0.0,0.0,0.0,3153.75,3047.2,4209.777777777777,4249.6,305.4583333333333,304.97133333333335,314.6655,314.28275,22.0944,20.7397,22.1317,21.5546,314.999998,314.999998,324.999988,324.999988,99.56314285714285,99.51218333333334,99.57404285714286,99.54894285714286,0.43400000000000016,-0.40900000000000003,-0.3913333333333333,0.4197142857142857,-0.03166666666666629,-0.03499999999999659,1.498,1.4845,39.09,30.6235,39.323,35.716499999999996,56.531,37.6445,61.001,52.676,55.364999999999995,36.919,60.278999999999996,51.569,55.459,36.7275,60.9345,51.5565,-0.4335,-0.4179999999999999,0.4049142857142857,0.4022857142857143,0.0,217.4,217.405,214.06666666666666,214.06666666666666,0.0,0.0
30,0.0,0.0,0.0,1.0,1.0,0.0,0.0,1.0,0.0,100.0,1.0,1.1856,26.0,0.0,0.0,0.0,59.999996,0.0,26.0,26.0,26.0,26.0,0.031777777777777905,0.26150000000000007,0.011733333333333333,291.214,-1.2495,-1.1675,-0.6351,-0.6913,-174.07999999999998,215.65,190.330125,0.0,0.0,0.0,0.0,0.060666666666666536,-5.498166666666667,-5.498166666666667,-0.6017,0.8676666666666667,-0.001777777777777878,-0.6099999999999999,69.574,0.02485,-0.21532500000000002,-0.2939999999999996,100.0,1.0,1.0,214.55,0.0,0.0,0.0,0.0,0.0,0.0,0.0,9094.0,0.0,55.0,5.0,250.44,0.0,0.0,0.0,0.0,0.0,0.0,1.0,0.0,1.5060000000000002,1.5060000000000002,0.0,0.0,0.0,55.0,616.79921,10000.0,85.000001,85.000001,85.000001,85.000001,395.0,0.0,0.0,0.0,1.0,166.665,50.766,50.766,47.073,47.073,34.0,9.285000000000004,-7.9140000000000015,-30.516666666666666,32.3,0.0,1782.068,-0.10500000000000043,100.0,29.078,29.185000000000002,43.746,44.158,0.0,0.0,100.0,0.0,0.0,0.0,0.0,3360.25,3188.0,4152.444444444444,4104.6,304.67266666666666,304.504,314.86925,314.6265,22.1039,20.746,22.1418,21.563299999999998,314.999998,314.999998,324.999988,324.999988,99.5632,99.51223333333333,99.5742,99.5491,0.44233333333333347,-0.4093333333333333,-0.3906666666666667,0.4188571428571428,-0.05833333333333002,-0.03499999999999659,1.5186666666666666,1.5115,39.149,30.6625,39.385999999999996,35.771,56.54,37.6995,61.034,52.738,55.373000000000005,36.9715,60.31,51.6295,55.465,36.7795,60.963,51.6175,-0.4355,-0.4225000000000001,0.40977142857142856,0.39302857142857145,0.0,217.815,217.82999999999998,214.55,214.55,0.0,0.0
31,0.0,0.0,0.0,1.0,1.0,0.0,0.0,1.0,0.0,100.0,1.0,1.1856,26.0,0.0,0.0,0.0,59.999996,0.0,26.0,26.0,26.0,26.0,0.020888888888888957,0.2538,0.03213333333333333,290.909,-1.33475,-1.2019,-0.6791,-0.6895,-170.32,215.64249999999998,190.303,0.0,0.0,0.0,0.0,0.0628333333333333,-5.498166666666667,-5.498166666666667,-0.5888,-0.4536666666666667,0.0007777777777777661,-0.8170000000000002,69.713,0.03155,-0.2204,-0.2239999999999993,100.0,1.0,1.0,214.84333333333333,0.0,0.0,0.0,0.0,0.0,0.0,0.0,9106.5,0.0,55.0,5.0,250.94333333333333,1.0,0.0,0.0,0.0,0.0,0.0,1.0,0.0,1.5599999999999987,1.5599999999999987,0.0,0.0,1.0,55.0,616.79921,10000.0,85.000001,85.000001,85.000001,85.000001,395.0,0.0,0.0,0.0,1.0,166.665,51.071,51.071,45.715,45.715,34.0,8.25,-7.206000000000003,-32.06333333333333,33.807500000000005,0.0,1782.014,-0.09999999999999964,100.0,28.771,29.209,44.487,44.83,0.0,0.0,100.0,0.0,0.0,0.0,0.0,3278.625,3288.2,4286.0,4197.6,305.15133333333335,304.3713333333333,314.48175,314.50975,22.1143,20.7528,22.1535,21.5734,314.999998,314.999998,324.999988,324.999988,99.56325714285714,99.51228333333333,99.57437142857142,99.54927142857143,0.44733333333333336,-0.3979999999999999,-0.38,0.43157142857142855,-0.046666666666666856,-0.030000000000001137,1.4833333333333334,1.4755,39.215,30.7055,39.459,35.8335,56.546,37.7585,61.077,52.812,55.378,37.028,60.351,51.702,55.469,36.836,61.001,51.69,-0.43799999999999994,-0.42199999999999993,0.4075142857142858,0.4063857142857143,0.0,218.21,218.23000000000002,214.84333333333333,214.84333333333333,0.0,0.0
32,0.0,0.0,0.0,1.0,1.0,0.0,0.0,1.0,0.0,100.0,1.0,1.1856,26.0,0.0,0.0,0.0,59.999996,0.0,26.0,26.0,26.0,26.0,0.05044444444444429,0.2659,-0.0151,291.26,-1.25365,-1.2642,-0.6629,-0.7218,-166.76,215.635,190.277375,0.0,0.0,0.0,0.0,0.06489999999999996,-5.498166666666667,-5.498166666666667,-0.604,-0.145,-0.01722222222222225,0.38900000000000023,69.84100000000001,0.02895,-0.225025,-0.36599999999999966,100.0,1.0,1.0,215.3,0.0,0.0,0.0,0.0,0.0,0.0,0.0,9125.7,0.0,55.0,5.0,251.40333333333334,0.0,0.0,0.0,0.0,0.0,0.0,1.0,0.0,1.6110000000000007,1.6110000000000007,0.0,0.0,0.0,55.0,616.79921,10000.0,85.000001,85.000001,85.000001,85.000001,395.0,0.0,0.0,0.0,1.0,166.665,51.605000000000004,51.605000000000004,46.509,46.509,34.0,9.0475,-5.958000000000002,-29.853333333333335,35.870000000000005,0.0,1781.963,-0.15499999999999936,100.0,28.871,28.886,44.321,44.554,0.0,0.0,100.0,0.0,0.0,0.0,0.0,3068.875,3175.6,4123.777777777777,4341.6,305.4506666666667,304.80833333333334,314.824,314.121,22.1241,20.7593,22.1643,21.5827,314.999998,314.999998,324.999988,324.999988,99.56332857142857,99.51235,99.57452857142857,99.54944285714285,0.4573333333333336,-0.3919999999999999,-0.37183333333333335,0.43657142857142855,-0.03499999999999659,-0.054999999999999716,1.5256666666666665,1.5025,39.275999999999996,30.7455,39.527,35.8915,56.552,37.8135,61.112,52.878,55.384,37.081,60.384,51.766999999999996,55.473,36.888,61.0315,51.7545,-0.43799999999999994,-0.4159999999999999,0.40752857142857146,0.39640000000000003,0.0,218.60500000000002,218.64499999999998,215.3,215.3,0.0,0.0
33,0.0,0.0,0.0,1.0,1.0,0.0,0.0,1.0,0.0,100.0,1.0,1.1856,26.0,0.0,0.0,0.0,59.999996,0.0,26.0,26.0,26.0,26.0,0.037555555555555786,0.2450000000000001,-0.04463333333333333,291.489,-1.29885,-1.2458,-0.6749,-0.6802999999999999,-163.61,215.63,190.25375,0.0,0.0,0.0,0.0,0.06673333333333331,-5.498166666666667,-5.498166666666667,-0.6132000000000001,-0.3036666666666667,-0.014444444444444482,-0.1389999999999998,69.95400000000001,0.03015,-0.21525,-0.29799999999999915,100.0,1.0,1.0,215.65666666666667,0.0,0.0,0.0,0.0,0.0,0.0,0.0,9140.9,0.0,55.0,5.0,251.81,1.0,0.0,0.0,0.0,0.0,0.0,1.0,0.0,1.6559999999999988,1.6559999999999988,0.0,0.0,1.0,55.0,616.79921,10000.0,85.000001,85.000001,85.000001,85.000001,395.0,0.0,0.0,0.0,1.0,333.33500000000004,51.849000000000004,51.849000000000004,46.707,46.707,34.0,7.832500000000003,-6.5219999999999985,-31.003333333333334,33.425,0.0,1781.917,-0.07499999999999929,100.0,28.558,28.797,44.132,44.522000000000006,0.0,0.0,100.0,0.0,0.0,0.0,0.0,3187.125,3043.7,4168.111111111111,4203.9,305.38166666666666,305.0613333333333,314.8165,314.465,22.1328,20.7649,22.1738,21.5908,314.999998,314.999998,324.999988,324.999988,99.56337142857143,99.51238333333333,99.57467142857143,99.54958571428571,0.43599999999999994,-0.4056666666666666,-0.3851666666666667,0.42742857142857144,-0.045000000000001705,-0.02833333333332888,1.5116666666666667,1.5105,39.33,30.7805,39.586,35.943,56.556,37.86,61.1435,52.9355,55.388,37.125,60.414,51.823499999999996,55.474999999999994,36.9325,61.059,51.811,-0.4325,-0.4195,0.4146571428571429,0.3988285714285714,0.0,218.965,218.985,215.65666666666667,215.65666666666667,0.0,0.0
34,0.0,0.0,0.0,1.0,1.0,0.0,0.0,1.0,0.0,100.0,1.0,1.1856,26.0,0.0,0.0,0.0,59.999996,0.0,26.0,26.0,26.0,26.0,0.03577777777777791,0.2593000000000001,-0.0674,291.748,-1.23225,-1.2528000000000001,-0.7382000000000001,-0.6461,-160.04,215.625,190.225875,0.0,0.0,0.0,0.0,0.0688333333333333,-5.498166666666667,-5.498166666666667,-0.6395000000000001,-0.7656666666666666,0.010555555555555651,1.0120000000000005,70.083,0.0335,-0.21937500000000001,-0.33399999999999963,100.0,1.0,1.0,216.05,0.0,0.0,0.0,0.0,0.0,0.0,0.0,9157.6,0.0,55.0,5.0,252.26999999999998,0.0,0.0,0.0,0.0,0.0,0.0,1.0,0.0,1.7070000000000007,1.7070000000000007,0.0,0.0,0.0,55.0,616.79921,10000.0,85.000001,85.000001,85.000001,85.000001,395.0,0.0,0.0,0.0,1.0,333.33500000000004,52.231,52.231,47.104,47.104,34.0,8.3825,-5.9559999999999995,-30.47,33.432500000000005,0.0,1781.866,-0.009999999999999787,100.0,28.492,28.355,44.041,44.461,0.0,0.0,100.0,0.0,0.0,0.0,0.0,3028.375,3113.0,4089.4444444444443,4208.5,305.65066666666667,305.11533333333335,314.992,314.474,22.1424,20.7711,22.1846,21.6002,314.999998,314.999998,324.999988,324.999988,99.56342857142857,99.51245,99.57484285714285,99.54975714285715,0.44166666666666643,-0.393,-0.3725,0.438,-0.02499999999999858,-0.04333333333332945,1.5306666666666666,1.5230000000000001,39.39,30.819499999999998,39.653999999999996,36.001,56.56,37.911500000000004,61.178,53.0025,55.391,37.1745,60.4465,51.888999999999996,55.477000000000004,36.9815,61.089,51.8765,-0.42499999999999993,-0.4195,0.40561428571428576,0.39412857142857144,0.0,219.325,219.36,216.05,216.05,0.0,0.0
35,0.0,0.0,0.0,1.0,1.0,0.0,0.0,1.0,0.0,100.0,1.0,1.1856,26.0,0.0,0.0,0.0,59.999996,0.0,26.0,26.0,26.0,26.0,0.019333333333333425,0.24330000000000007,-0.09313333333333335,291.748,-1.28505,-1.1978,-0.7028,-0.6103,-156.25,215.62,190.194,0.0,0.0,0.0,0.0,0.07103333333333339,-5.498166666666667,-5.498166666666667,-0.6798000000000001,-0.14833333333333334,-0.01288888888888895,-0.2639999999999998,70.21600000000001,0.032150000000000005,-0.22485000000000002,-0.14999999999999947,100.0,1.0,1.0,216.55,0.0,0.0,0.0,0.0,0.0,0.0,0.0,9178.7,0.0,55.0,5.0,252.75333333333333,1.0,0.0,0.0,0.0,0.0,0.0,1.0,0.0,1.7609999999999992,1.7609999999999992,0.0,0.0,1.0,55.0,616.79921,10000.0,85.000001,85.000001,85.000001,85.000001,395.0,0.0,0.0,0.0,1.0,166.665,51.635999999999996,51.635999999999996,46.814,46.814,34.0,8.597500000000004,-6.9460000000000015,-29.31,30.62,0.0,1781.813,-0.019999999999999574,100.0,28.343,28.711,43.833,43.939,0.0,0.0,100.0,0.0,0.0,0.0,0.0,3078.75,3396.8,3993.1111111111113,4016.5,305.5063333333333,304.147,315.16975,314.9695,22.1526,20.778,22.1959,21.6098,314.999998,314.999998,324.999988,324.999988,99.56348571428572,99.5125,99.575,99.54992857142857,0.4546666666666668,-0.3873333333333333,-0.3761666666666667,0.43028571428571427,-0.04333333333332945,-0.046666666666666856,1.5526666666666666,1.554,39.454,30.863,39.724000000000004,36.0615,56.563,37.97,61.213499999999996,53.068,55.393,37.2305,60.4805,51.954,55.477000000000004,37.037,61.12,51.941,-0.42899999999999994,-0.42500000000000004,0.40662857142857145,0.39058571428571426,0.0,219.78,219.76,216.55,216.55,0.0,0.0
