,ABS Active,ABS Enabled,AID Allow Tire Blankets,AID Auto Blip,AID Auto Clutch,AID Auto Shift,AID Fuel Rate,AID Ideal Line,AID Mech Damage,AID Stability,AID Tire Wear Rate,Air Density,Air Temp,Ballast,Best Lap Delta,Best Lap Time,Brake Bias,Brake Pos,Brake Temp FL,Brake Temp FR,Brake Temp RL,Brake Temp RR,CG Accel Lateral,CG Accel Longitudinal,CG Accel Vertical,CG Height,Camber FL,Camber FR,Camber RL,Camber RR,Car Coord X,Car Coord Y,Car Coord Z,Car Damage Front,Car Damage Left,Car Damage Rear,Car Damage Right,Car Pos Norm,Caster FL,Caster FR,Chassis Pitch Angle,Chassis Pitch Rate,Chassis Roll Angle,Chassis Roll Rate,Chassis Velocity X,Chassis Velocity Y,Chassis Velocity Z,Chassis Yaw Rate,Clutch Pos,DRS Active,DRS Available,Drive Train Speed,ERS Heat Charging,ERS Is Charging,ERS Max Energy,ERS Power Level,ERS Recovery Level,Engine Brake Setting,Engine Limiter,Engine RPM,Flags,Fuel Level,Gear,Ground Speed,HR Sample Clock,In Pit,KERS Charge,KERS Deployed Energy,KERS Input,KERS Max Energy,LR Sample Clock,Lap Invalidated,Lap Time,Lap Time2,Last Lap Time,Last Sector Time,MR Sample Clock,Max Fuel,Max Power,Max RPM,Max Sus Travel FL,Max Sus Travel FR,Max Sus Travel RL,Max Sus Travel RR,Max Torque,Max Turbo Boost,Num Tires Off Track,Penalties Enabled,Position,Raw Data Sample Rate,Ride Height FL,Ride Height FR,Ride Height RL,Ride Height RR,Road Temp,Self Align Torque FL,Self Align Torque FR,Self Align Torque RL,Self Align Torque RR,Session Lap Count,Session Time Left,Steering Angle,Surface Grip,Suspension Travel FL,Suspension Travel FR,Suspension Travel RL,Suspension Travel RR,TC Active,TC Enabled,Throttle Pos,Tire Dirt Level FL,Tire Dirt Level FR,Tire Dirt Level RL,Tire Dirt Level RR,Tire Load FL,Tire Load FR,Tire Load RL,Tire Load RR,Tire Loaded Radius FL,Tire Loaded Radius FR,Tire Loaded Radius RL,Tire Loaded Radius RR,Tire Pressure FL,Tire Pressure FR,Tire Pressure RL,Tire Pressure RR,Tire Radius FL,Tire Radius FR,Tire Radius RL,Tire Radius RR,Tire Rubber Grip FL,Tire Rubber Grip FR,Tire Rubber Grip RL,Tire Rubber Grip RR,Tire Slip Angle FL,Tire Slip Angle FR,Tire Slip Angle RL,Tire Slip Angle RR,Tire Slip Ratio FL,Tire Slip Ratio FR,Tire Slip Ratio RL,Tire Slip Ratio RR,Tire Temp Core FL,Tire Temp Core FR,Tire Temp Core RL,Tire Temp Core RR,Tire Temp Inner FL,Tire Temp Inner FR,Tire Temp Inner RL,Tire Temp Inner RR,Tire Temp Middle FL,Tire Temp Middle FR,Tire Temp Middle RL,Tire Temp Middle RR,Tire Temp Outer FL,Tire Temp Outer FR,Tire Temp Outer RL,Tire Temp Outer RR,Toe In FL,Toe In FR,Toe In RL,Toe In RR,Turbo Boost,Wheel Angular Speed FL,Wheel Angular Speed FR,Wheel Angular Speed RL,Wheel Angular Speed RR,Wind Direction,Wind Speed
0,0.0,0.0,0.0,1.0,1.0,0.0,0.0,1.0,0.0,100.0,1.0,1.1856,26.0,0.0,0.0,0.0,59.99999,0.0,26.0,26.0,26.0,26.0,-0.09977777777777785,-0.35019999999999996,0.09267500000000001,293.762,-0.28075,-0.1948,0.4058999999999999,0.3753,-275.73,216.26999999999998,190.987625,0.0,0.0,0.0,0.0,0.0015666666666666051,-5.498166666666667,-5.498166666666667,-0.6108,-0.11933333333333333,-0.0058888888888888324,-1.027,65.291,-0.0047999999999999154,-0.2755,1.1420000000000003,100.0,1.0,1.0,204.49333333333334,0.0,0.0,0.0,0.0,0.0,0.0,0.0,8667.7,0.0,55.0,5.0,235.09,0.0,0.0,0.0,0.0,0.0,0.0,0.0,0.0,0.0030000000000001137,0.0030000000000001137,0.0,0.0,0.0,55.0,616.79921,10000.0,85.0,85.0,85.0,85.0,395.0,0.0,0.0,0.0,1.0,20.0,50.613,50.613,50.995,50.995,34.0,23.552500000000002,-36.782,-27.8425,23.8525,0.0,1783.445,1.63,100.0,27.841,27.467,40.225,40.385,0.0,0.0,0.0,0.0,0.0,0.0,0.0,3552.222222222222,3855.5,3673.0,3552.5,304.134,302.563,315.97625,315.963,21.812444444444445,20.6048,21.852,21.286,314.99999,314.99999,324.99998,324.99998,99.56198571428571,99.51303333333334,99.57178571428571,99.54402857142857,0.4933333333333332,-0.6963333333333332,-0.6299999999999999,0.5589999999999999,-0.005000000000002558,-0.045000000000001705,-0.03733333333333322,0.01750000000000007,37.328,29.7805,37.575,34.038,55.869,37.025999999999996,59.8695,49.987,55.439,36.583,60.043,49.5375,56.304,36.666,61.6365,50.1355,-0.469,-0.726,0.6069,0.5860857142857143,0.0,204.65,204.57,204.49333333333334,204.49333333333334,0.0,0.0
1,0.0,0.0,0.0,1.0,1.0,0.0,0.0,1.0,0.0,100.0,1.0,1.1856,26.0,0.0,0.0,0.0,59.999996,0.0,26.0,26.0,26.0,26.0,-0.08266666666666656,0.3158000000000001,0.030925,292.74,-0.1956,-0.2979,0.39859999999999995,0.3839,-272.39,216.2625,190.967375,0.0,0.0,0.0,0.0,0.0034999999999999476,-5.498166666666667,-5.498166666666667,-0.5032,1.055,-0.04977777777777792,0.137,65.439,-0.042300000000000004,-0.2078,1.2420000000000009,100.0,1.0,1.0,201.68666666666667,0.0,0.0,0.0,0.0,0.0,0.0,0.0,8548.8,0.0,55.0,5.0,235.55,1.0,0.0,0.0,0.0,0.0,0.0,0.0,0.0,0.053999999999998494,0.053999999999998494,0.0,0.0,1.0,55.0,616.79921,10000.0,85.000001,85.000001,85.000001,85.000001,395.0,0.0,0.0,0.0,1.0,333.33500000000004,52.963,52.963,48.187,48.187,34.0,19.805,-22.618000000000002,-34.7,28.835,0.0,1783.394,1.295,100.0,28.674,28.035,42.153999999999996,41.184,0.0,0.0,100.0,0.0,0.0,0.0,0.0,2912.1111111111113,2597.4,4544.222222222223,4882.3,305.7903333333333,306.53933333333333,313.7605,312.721,21.823,20.6112,21.8633,21.2949,314.999998,314.999998,324.999988,324.999988,99.56204285714286,99.51311666666666,99.57195714285714,99.5442,0.4956666666666667,-0.702,-0.6758,0.5324000000000002,-0.036666666666668846,-0.05250000000000199,1.4023333333333334,1.4314999999999998,37.394,29.82,37.646,34.093,55.882,37.093,59.9185,50.058,55.452,36.6485,60.091,49.6085,56.315,36.733000000000004,61.6835,50.2085,-0.49549999999999994,-0.7015,0.6212,0.5982285714285713,0.0,205.10500000000002,204.99,201.68666666666667,201.68666666666667,0.0,0.0
2,0.0,0.0,0.0,1.0,1.0,0.0,0.0,1.0,0.0,100.0,1.0,1.1856,26.0,0.0,0.0,0.0,59.999996,0.0,26.0,26.0,26.0,26.0,-0.11588888888888893,0.2704,-0.058925000000000005,293.716,-0.17085,-0.32580000000000003,0.4246,0.3214,-269.05,216.255,190.949,0.0,0.0,0.0,0.0,0.005433333333333401,-5.498166666666667,-5.498166666666667,-0.5578000000000001,-0.89,-0.03744444444444417,2.0,65.57900000000001,-0.05389999999999995,-0.265025,1.0279999999999996,100.0,1.0,1.0,202.63,0.0,0.0,0.0,0.0,0.0,0.0,0.0,8588.8,0.0,55.0,5.0,236.05666666666667,0.0,0.0,0.0,0.0,0.0,0.0,0.0,0.0,0.10500000000000043,0.10500000000000043,0.0,0.0,0.0,55.0,616.79921,10000.0,85.000001,85.000001,85.000001,85.000001,395.0,0.0,0.0,0.0,1.0,333.33500000000004,52.17,52.17,50.369,50.369,34.0,20.265,-27.340000000000003,-26.814999999999998,19.67,0.0,1783.344,1.7600000000000002,100.0,28.598,27.433,42.480000000000004,41.56,0.0,0.0,100.0,0.0,0.0,0.0,0.0,3307.777777777778,2914.8,3688.777777777778,3587.7,304.77566666666667,305.662,315.7885,315.971,21.833333333333332,20.6169,21.8745,21.3037,314.999998,314.999998,324.999988,324.999988,99.5621,99.51318333333333,99.57211428571429,99.54434285714285,0.43533333333333335,-0.7563333333333333,-0.6994,0.5294000000000001,-0.04999999999999716,-0.04124999999999801,1.6333333333333333,1.6755,37.458,29.8555,37.716,34.147999999999996,55.888,37.1485,59.962,50.1205,55.457,36.7025,60.1335,49.6715,56.32,36.7875,61.725,50.272999999999996,-0.46599999999999997,-0.7295,0.6198571428571429,0.6048428571428571,0.0,205.465,205.345,202.63,202.63,0.0,0.0
3,0.0,0.0,0.0,1.0,1.0,0.0,0.0,1.0,0.0,100.0,1.0,1.1856,26.0,0.0,0.0,0.0,59.999996,0.0,26.0,26.0,26.0,26.0,-0.13744444444444448,0.30000000000000004,-0.004725,293.304,-0.2866,-0.22110000000000002,0.4139999999999999,0.3388,-265.9,216.245,190.930375,0.0,0.0,0.0,0.0,0.0072666666666665325,-5.498166666666667,-5.498166666666667,-0.5316000000000001,0.911,-0.007111111111111068,-0.914,65.72,-0.06119999999999992,-0.21962500000000001,1.468,100.0,1.0,1.0,202.82,0.0,0.0,0.0,0.0,0.0,0.0,0.0,8596.8,0.0,55.0,5.0,236.56,1.0,0.0,0.0,0.0,0.0,0.0,0.0,0.0,0.1529999999999987,0.1529999999999987,0.0,0.0,1.0,55.0,616.79921,10000.0,85.000001,85.000001,85.000001,85.000001,395.0,0.0,0.0,0.0,1.0,166.665,52.673,52.673,48.644999999999996,48.644999999999996,34.0,17.715000000000003,-27.153999999999996,-32.9325,22.8275,0.0,1783.297,1.605,100.0,28.443,27.825,41.955,41.25,0.0,0.0,100.0,0.0,0.0,0.0,0.0,2978.222222222222,2849.2,4313.888888888889,4104.2,305.728,305.60833333333335,314.41,314.66875,21.843,20.622700000000002,21.8848,21.3119,314.999998,314.999998,324.999988,324.999988,99.56214285714286,99.51326666666667,99.57228571428571,99.5445,0.45500000000000007,-0.7366666666666668,-0.6992,0.5186,-0.03333333333333144,-0.04999999999999716,1.5123333333333333,1.5594999999999999,37.519,29.892,37.78,34.199,55.894,37.213,60.001999999999995,50.184,55.463,36.7655,60.1725,49.735,56.324,36.852000000000004,61.763,50.338499999999996,-0.46799999999999997,-0.7225,0.6161857142857142,0.6040571428571428,0.0,205.95,205.79000000000002,202.82,202.82,0.0,0.0
4,0.0,0.0,0.0,1.0,1.0,0.0,0.0,1.0,0.0,100.0,1.0,1.1856,26.0,0.0,0.0,0.0,59.999996,0.0,26.0,26.0,26.0,26.0,-0.13477777777777777,0.27990000000000004,-0.007325000000000001,293.396,-0.21655000000000002,-0.2792,0.3931,0.3306,-262.35,216.23000000000002,190.9095,0.0,0.0,0.0,0.0,0.009333333333333305,-5.498166666666667,-5.498166666666667,-0.5518000000000001,-0.686,-0.07299999999999995,-1.556,65.874,-0.08389999999999997,-0.24780000000000002,1.4220000000000006,100.0,1.0,1.0,203.32333333333332,0.0,0.0,0.0,0.0,0.0,0.0,0.0,8618.1,0.0,55.0,5.0,237.12,0.0,0.0,0.0,0.0,0.0,0.0,0.0,0.0,0.20700000000000074,0.20700000000000074,0.0,0.0,0.0,55.0,616.79921,10000.0,85.000001,85.000001,85.000001,85.000001,395.0,0.0,0.0,0.0,1.0,166.665,52.582,52.582,48.737,48.737,34.0,20.2675,-26.566000000000003,-32.51,19.2725,0.0,1783.243,1.1350000000000002,100.0,28.198999999999998,27.444,42.691,41.459,0.0,0.0,100.0,0.0,0.0,0.0,0.0,3239.6666666666665,2895.5,4145.0,3734.4,305.124,305.5083333333333,314.7375,315.49975,21.853666666666665,20.6291,21.8967,21.3212,314.999998,314.999998,324.999988,324.999988,99.5622,99.51336666666667,99.57247142857143,99.54465714285715,0.45933333333333337,-0.7193333333333332,-0.7170000000000001,0.4930000000000001,-0.05666666666667197,-0.0762500000000017,1.537,1.6004999999999998,37.586,29.932000000000002,37.855000000000004,34.2575,55.897999999999996,37.28,60.055,50.2555,55.467,36.831,60.225,49.807,56.326,36.9185,61.814499999999995,50.412,-0.49449999999999994,-0.6880000000000001,0.6164428571428571,0.5950285714285715,0.0,206.38,206.245,203.32333333333332,203.32333333333332,0.0,0.0
5,0.0,0.0,0.0,1.0,1.0,0.0,0.0,1.0,0.0,100.0,1.0,1.1856,26.0,0.0,0.0,0.0,59.999996,0.0,26.0,26.0,26.0,26.0,-0.12622222222222212,0.30100000000000016,-0.03255,293.655,-0.23415000000000002,-0.3029,0.4093,0.3436,-259.18,216.215,190.890625,0.0,0.0,0.0,0.0,0.011199999999999988,-5.498166666666667,-5.498166666666667,-0.5465,0.42833333333333334,-0.07688888888888856,-0.218,66.009,-0.0897,-0.22892500000000002,0.9320000000000004,100.0,1.0,1.0,203.75666666666666,0.0,0.0,0.0,0.0,0.0,0.0,0.0,8636.5,0.0,55.0,5.0,237.60333333333335,1.0,0.0,0.0,0.0,0.0,0.0,0.0,0.0,0.254999999999999,0.254999999999999,0.0,0.0,1.0,55.0,616.79921,10000.0,85.000001,85.000001,85.000001,85.000001,395.0,0.0,0.0,0.0,1.0,333.33500000000004,53.131,53.131,49.271,49.271,34.0,19.362500000000004,-25.346000000000004,-31.98,20.377499999999998,0.0,1783.193,0.95,100.0,28.092,27.171,42.402,41.149,0.0,0.0,100.0,0.0,0.0,0.0,0.0,3169.222222222222,2764.2,4112.333333333333,3979.9,305.29833333333335,305.97133333333335,314.9105,314.941,21.863444444444443,20.6348,21.9071,21.3294,314.999998,314.999998,324.999988,324.999988,99.56225714285715,99.51343333333334,99.57265714285714,99.54481428571428,0.45333333333333337,-0.7326666666666668,-0.7224000000000002,0.4890000000000001,-0.04333333333332945,-0.03125,1.5666666666666667,1.6084999999999998,37.647,29.9675,37.919,34.3085,55.907,37.344,60.1015,50.32,55.474999999999994,36.8935,60.2705,49.871,56.334,36.982,61.8585,50.478,-0.5155000000000001,-0.6695,0.6190714285714285,0.5928,0.0,206.815,206.71,203.75666666666666,203.75666666666666,0.0,0.0
6,0.0,0.0,0.0,1.0,1.0,0.0,0.0,1.0,0.0,100.0,1.0,1.1856,26.0,0.0,0.0,0.0,59.999996,0.0,26.0,26.0,26.0,26.0,-0.11411111111111105,0.2956000000000001,-0.00915,293.533,-0.19740000000000002,-0.28600000000000003,0.37349999999999994,0.3012,-256.01,216.195,190.871375,0.0,0.0,0.0,0.0,0.013033333333333341,-5.498166666666667,-5.498166666666667,-0.5375,0.14966666666666667,-0.06522222222222229,-0.616,66.145,-0.07609999999999995,-0.22110000000000002,0.7379999999999995,100.0,1.0,1.0,204.15333333333334,0.0,0.0,0.0,0.0,0.0,0.0,0.0,8653.3,0.0,55.0,5.0,238.09333333333333,0.0,0.0,0.0,0.0,0.0,0.0,0.0,0.0,0.3030000000000008,0.3030000000000008,0.0,0.0,0.0,55.0,616.79921,10000.0,85.000001,85.000001,85.000001,85.000001,395.0,0.0,0.0,0.0,1.0,333.33500000000004,52.994,52.994,48.996,48.996,34.0,20.525,-26.534,-31.66,22.005000000000003,0.0,1783.147,0.99,100.0,27.823,27.06,42.461,41.368,0.0,0.0,100.0,0.0,0.0,0.0,0.0,3227.0,2879.6,4126.555555555556,3937.7,305.138,305.55133333333333,314.87275,314.99525,21.87311111111111,20.6405,21.9176,21.337699999999998,314.999998,314.999998,324.999988,324.999988,99.56231428571428,99.5135,99.57281428571429,99.54495714285714,0.46199999999999997,-0.7243333333333333,-0.7005999999999999,0.5118,-0.046666666666666856,-0.05250000000000199,1.5476666666666667,1.5554999999999999,37.707,30.003,37.985,34.3605,55.914,37.4,60.143,50.3805,55.480999999999995,36.948,60.311,49.9315,56.339,37.038,61.8985,50.539500000000004,-0.513,-0.67,0.6136428571428572,0.6014285714285714,0.0,207.215,207.13,204.15333333333334,204.15333333333334,0.0,0.0
7,0.0,0.0,0.0,1.0,1.0,0.0,0.0,1.0,0.0,100.0,1.0,1.1856,26.0,0.0,0.0,0.0,59.999996,0.0,26.0,26.0,26.0,26.0,-0.0802222222222222,0.27849999999999997,0.0442,293.243,-0.16605,-0.2811,0.41089999999999993,0.3548,-252.63,216.1725,190.851,0.0,0.0,0.0,0.0,0.014999999999999902,-5.498166666666667,-5.498166666666667,-0.5396000000000001,-0.06466666666666668,-0.04999999999999982,1.16,66.289,-0.060799999999999965,-0.228825,0.3960000000000008,100.0,1.0,1.0,204.54333333333335,0.0,0.0,0.0,0.0,0.0,0.0,0.0,8669.8,0.0,55.0,5.0,238.61,1.0,0.0,0.0,0.0,0.0,0.0,0.0,0.0,0.3539999999999992,0.3539999999999992,0.0,0.0,1.0,55.0,616.79921,10000.0,85.000001,85.000001,85.000001,85.000001,395.0,0.0,0.0,0.0,1.0,166.665,52.689,52.689,48.981,48.981,34.0,22.612500000000004,-26.873999999999995,-29.65,23.59,0.0,1783.097,0.6500000000000001,100.0,28.026,26.87,42.662,41.563,0.0,0.0,100.0,0.0,0.0,0.0,0.0,3218.0,3064.2,4050.3333333333335,4104.9,304.916,305.176,314.92675,314.68175,21.883444444444443,20.6466,21.9287,21.3466,314.999998,314.999998,324.999988,324.999988,99.56237142857142,99.51358333333333,99.57298571428572,99.54511428571429,0.4976666666666667,-0.6853333333333331,-0.6772,0.5362,-0.02833333333332888,-0.060000000000002274,1.5270000000000001,1.5379999999999998,37.771,30.041,38.054,34.416,55.922,37.463,60.189499999999995,50.4495,55.489999999999995,37.0095,60.357,50.0005,56.345,37.1005,61.943,50.6105,-0.5415,-0.6525,0.6202285714285714,0.5990857142857142,0.0,207.64,207.57999999999998,204.54333333333335,204.54333333333335,0.0,0.0
8,0.0,0.0,0.0,1.0,1.0,0.0,0.0,1.0,0.0,100.0,1.0,1.1856,26.0,0.0,0.0,0.0,59.999996,0.0,26.0,26.0,26.0,26.0,-0.07199999999999995,0.2994000000000001,-0.032725000000000004,293.51800000000003,-0.23905,-0.2675,0.4327,0.3679,-249.25,216.1475,190.830625,0.0,0.0,0.0,0.0,0.016966666666666574,-5.498166666666667,-5.498166666666667,-0.5384,-0.3656666666666667,-0.03955555555555579,-0.633,66.43299999999999,-0.043300000000000005,-0.2185,0.2160000000000002,100.0,1.0,1.0,204.92333333333335,0.0,0.0,0.0,0.0,0.0,0.0,0.0,8686.0,0.0,55.0,5.0,239.12666666666667,0.0,0.0,0.0,0.0,0.0,0.0,0.0,0.0,0.40500000000000114,0.40500000000000114,0.0,0.0,0.0,55.0,616.79921,10000.0,85.000001,85.000001,85.000001,85.000001,395.0,0.0,0.0,0.0,1.0,333.33500000000004,53.635,53.635,48.233000000000004,48.233000000000004,34.0,20.612500000000004,-24.506000000000007,-30.5775,24.435,0.0,1783.044,0.385,100.0,27.541,26.985,42.562,41.74,0.0,0.0,100.0,0.0,0.0,0.0,0.0,2966.222222222222,2867.7,4245.222222222223,4112.2,305.9,305.61033333333336,314.53725,314.5975,21.893555555555555,20.6527,21.939799999999998,21.3555,314.999998,314.999998,324.999988,324.999988,99.56242857142857,99.51366666666667,99.57317142857143,99.54528571428571,0.5213333333333332,-0.6646666666666667,-0.6692,0.5529999999999999,-0.045000000000001705,-0.04375000000000284,1.526,1.5244999999999997,37.834,30.0795,38.123999999999995,34.4715,55.93,37.525,60.2345,50.518,55.497,37.07,60.400999999999996,50.0695,56.351,37.161500000000004,61.986,50.6815,-0.563,-0.6235,0.6199714285714286,0.6011285714285715,0.0,208.075,208.01999999999998,204.92333333333335,204.92333333333335,0.0,0.0
9,0.0,0.0,0.0,1.0,1.0,0.0,0.0,1.0,0.0,100.0,1.0,1.1856,26.0,0.0,0.0,0.0,59.999996,0.0,26.0,26.0,26.0,26.0,-0.02111111111111108,0.28570000000000007,0.0351,293.289,-0.23345000000000002,-0.2846,0.37749999999999995,0.36460000000000004,-245.86,216.12,190.809625,0.0,0.0,0.0,0.0,0.018933333333333358,-5.498166666666667,-5.498166666666667,-0.5456,0.6506666666666666,-0.03866666666666685,1.039,66.57300000000001,-0.03149999999999997,-0.21980000000000002,-0.0860000000000003,100.0,1.0,1.0,205.49,0.0,0.0,0.0,0.0,0.0,0.0,0.0,8709.9,0.0,55.0,5.0,239.63333333333333,1.0,0.0,0.0,0.0,0.0,0.0,0.0,0.0,0.4559999999999995,0.4559999999999995,0.0,0.0,1.0,55.0,616.79921,10000.0,85.000001,85.000001,85.000001,85.000001,395.0,0.0,0.0,0.0,1.0,166.665,52.46,52.46,49.393,49.393,34.0,25.0625,-24.926000000000002,-27.2575,24.927500000000002,0.0,1782.995,0.09000000000000008,100.0,28.009,27.163,42.321,41.61,0.0,0.0,100.0,0.0,0.0,0.0,0.0,3289.1111111111113,3085.7,3962.8888888888887,4056.4,304.791,305.06666666666666,315.22825,314.83125,21.903777777777776,20.659,21.9508,21.3643,314.999998,314.999998,324.999988,324.999988,99.56248571428571,99.51373333333333,99.57334285714286,99.54544285714286,0.5569999999999999,-0.6266666666666667,-0.6394,0.5752000000000002,-0.041666666666671404,-0.03249999999999886,1.574,1.5630000000000002,37.897999999999996,30.118499999999997,38.192,34.5265,55.943,37.5875,60.2765,50.586,55.509,37.131,60.442,50.138,56.361999999999995,37.2235,62.0255,50.7515,-0.586,-0.602,0.6126142857142858,0.6009142857142857,0.0,208.51,208.48000000000002,205.49,205.49,0.0,0.0
10,0.0,0.0,0.0,1.0,1.0,0.0,0.0,1.0,0.0,100.0,1.0,1.1856,26.0,0.0,0.0,0.0,59.999996,0.0,26.0,26.0,26.0,26.0,-0.010777777777777775,0.2795000000000001,0.048875,293.106,-0.2122,-0.2619,0.33719999999999994,0.38620000000000004,-242.66,216.095,190.790125,0.0,0.0,0.0,0.0,0.02079999999999993,-5.498166666666667,-5.498166666666667,-0.5201,-0.3223333333333333,0.0029999999999998916,1.597,66.709,-0.006199999999999983,-0.20747500000000002,-0.5020000000000007,100.0,1.0,1.0,205.69666666666666,0.0,0.0,0.0,0.0,0.0,0.0,0.0,8718.7,0.0,55.0,5.0,240.12,0.0,0.0,0.0,0.0,0.0,0.0,1.0,0.0,0.5040000000000013,0.5040000000000013,0.0,0.0,0.0,55.0,616.79921,10000.0,85.000001,85.000001,85.000001,85.000001,395.0,0.0,0.0,0.0,1.0,166.665,53.482,53.482,47.882,47.882,34.0,21.7275,-23.29,-29.95,28.68,0.0,1782.946,0.06499999999999995,100.0,27.83,27.143,42.662,42.296,0.0,0.0,100.0,0.0,0.0,0.0,0.0,2830.777777777778,2955.3,4295.555555555556,4339.1,306.12766666666664,305.51666666666665,314.36825,314.07925,21.913333333333334,20.6648,21.9613,21.372799999999998,314.999998,314.999998,324.999988,324.999988,99.56255714285714,99.5138,99.5735,99.54561428571428,0.5696666666666668,-0.6116666666666668,-0.6155999999999999,0.6028,-0.036666666666668846,-0.05250000000000199,1.469,1.4609999999999999,37.958,30.155,38.257999999999996,34.58,55.954,37.6435,60.3195,50.6565,55.519999999999996,37.186,60.484,50.2085,56.370999999999995,37.2795,62.0665,50.823499999999996,-0.59,-0.593,0.6160714285714286,0.5962714285714286,0.0,208.905,208.93,205.69666666666666,205.69666666666666,0.0,0.0
11,0.0,0.0,0.0,1.0,1.0,0.0,0.0,1.0,0.0,100.0,1.0,1.1856,26.0,0.0,0.0,0.0,59.999996,0.0,26.0,26.0,26.0,26.0,0.02588888888888885,0.2619,-0.092475,293.716,-0.25425000000000003,-0.2466,0.38349999999999995,0.3914,-239.25,216.065,190.769625,0.0,0.0,0.0,0.0,0.022599999999999953,-5.498166666666667,-5.498166666666667,-0.5636,-0.3473333333333333,0.020000000000000018,-0.53,66.845,0.014700000000000157,-0.24152500000000002,-0.3799999999999999,100.0,1.0,1.0,206.41333333333333,0.0,0.0,0.0,0.0,0.0,0.0,0.0,8749.2,0.0,55.0,5.0,240.61666666666667,1.0,0.0,0.0,0.0,0.0,0.0,1.0,0.0,0.5549999999999997,0.5549999999999997,0.0,0.0,1.0,55.0,616.79921,10000.0,85.000001,85.000001,85.000001,85.000001,395.0,0.0,0.0,0.0,1.0,333.33500000000004,52.963,52.963,49.515,49.515,34.0,24.5775,-23.693999999999996,-23.072499999999998,24.5425,0.0,1782.894,-0.18999999999999995,100.0,27.442,27.42,42.257,42.303,0.0,0.0,100.0,0.0,0.0,0.0,0.0,3103.777777777778,3050.5,3696.8888888888887,3813.7,305.52433333333335,305.0203333333333,315.88225,315.34775,21.923222222222222,20.6711,21.9723,21.3817,314.999998,314.999998,324.999988,324.999988,99.56262857142858,99.51388333333334,99.57367142857143,99.54578571428571,0.5953333333333333,-0.5893333333333333,-0.6004,0.6166,-0.051666666666669414,-0.05375000000000085,1.6393333333333335,1.6185,38.019999999999996,30.194499999999998,38.327,34.635999999999996,55.964,37.703,60.358000000000004,50.727000000000004,55.528999999999996,37.244,60.522,50.278999999999996,56.379999999999995,37.339,62.103,50.896,-0.607,-0.5805,0.6199428571428571,0.6018857142857142,0.0,209.32,209.32999999999998,206.41333333333333,206.41333333333333,0.0,0.0
12,0.0,0.0,0.0,1.0,1.0,0.0,0.0,1.0,0.0,100.0,1.0,1.1856,26.0,0.0,0.0,0.0,59.999996,0.0,26.0,26.0,26.0,26.0,0.028000000000000025,0.2864,0.023725,293.182,-0.31275000000000003,-0.2378,0.37949999999999995,0.36910000000000004,-236.04,216.04000000000002,190.749,0.0,0.0,0.0,0.0,0.025466666666666526,-5.498166666666667,-5.498166666666667,-0.5495,0.30333333333333334,0.011222222222222022,-0.8220000000000001,66.98,0.027800000000000047,-0.2079,-0.5060000000000002,100.0,1.0,1.0,206.62,0.0,0.0,0.0,0.0,0.0,0.0,0.0,8757.9,0.0,55.0,5.0,241.09666666666666,0.0,0.0,0.0,0.0,0.0,0.0,1.0,0.0,0.602999999999998,0.602999999999998,0.0,0.0,0.0,55.0,616.79921,10000.0,85.000001,85.000001,85.000001,85.000001,395.0,0.0,0.0,0.0,1.0,333.33500000000004,53.009,53.009,48.248,48.248,34.0,25.207499999999996,-23.21,-27.095,28.325,0.0,1782.846,-0.38,100.0,27.316,27.586,42.062,42.21,0.0,0.0,100.0,0.0,0.0,0.0,0.0,3109.777777777778,3069.2,4224.666666666667,4151.2,305.5613333333333,304.98,314.6565,314.519,21.932666666666666,20.6772,21.982599999999998,21.3901,314.999998,314.999998,324.999988,324.999988,99.5627,99.51393333333333,99.57382857142858,99.54594285714286,0.625,-0.571,-0.5914000000000001,0.6237999999999999,-0.06499999999999773,-0.04625000000000057,1.5376666666666665,1.5065,38.079,30.2325,38.391999999999996,34.688,55.976,37.7585,60.396,50.794,55.541,37.298500000000004,60.5585,50.346000000000004,56.39,37.394,62.1385,50.9655,-0.6205,-0.5700000000000001,0.6255428571428572,0.5958,0.0,209.745,209.79500000000002,206.62,206.62,0.0,0.0
13,0.0,0.0,0.0,1.0,1.0,0.0,0.0,1.0,0.0,100.0,1.0,1.1856,26.0,0.0,0.0,0.0,59.999996,0.0,26.0,26.0,26.0,26.0,0.06944444444444442,0.28580000000000005,0.037950000000000005,292.74,-0.28845000000000004,-0.23090000000000002,0.30579999999999996,0.3798,-232.42000000000002,216.0125,190.726,0.0,0.0,0.0,0.0,0.026733333333333387,-5.498166666666667,-5.498166666666667,-0.5423,-0.06933333333333333,0.016666666666666607,-0.395,67.128,0.03610000000000002,-0.21782500000000002,-0.806,100.0,1.0,1.0,207.01999999999998,0.0,0.0,0.0,0.0,0.0,0.0,0.0,8774.8,0.0,55.0,5.0,241.63333333333333,1.0,0.0,0.0,0.0,0.0,0.0,1.0,0.0,0.657,0.657,0.0,0.0,1.0,55.0,616.79921,10000.0,85.000001,85.000001,85.000001,85.000001,395.0,0.0,0.0,0.0,1.0,166.665,52.582,52.582,48.157,48.157,34.0,27.272500000000008,-21.951999999999998,-27.740000000000002,30.315,0.0,1782.793,-0.5800000000000001,100.0,27.635,27.849,42.313,42.782,0.0,0.0,100.0,0.0,0.0,0.0,0.0,3158.6666666666665,3075.8,4218.0,4265.7,305.3693333333333,304.941,314.66375,314.20575,21.943444444444445,20.6841,21.9944,21.3997,314.999998,314.999998,324.999988,324.999988,99.56278571428571,99.51401666666666,99.57401428571428,99.54612857142857,0.6580000000000001,-0.5356666666666667,-0.5820000000000001,0.6434000000000002,-0.046666666666666856,-0.048749999999998295,1.5066666666666668,1.476,38.146,30.2755,38.465,34.7485,55.994,37.820499999999996,60.44,50.8745,55.558,37.3595,60.602000000000004,50.427,56.405,37.4565,62.18,51.048500000000004,-0.651,-0.545,0.6196857142857142,0.6053,0.0,210.18,210.24,207.01999999999998,207.01999999999998,0.0,0.0
14,0.0,0.0,0.0,1.0,1.0,0.0,0.0,1.0,0.0,100.0,1.0,1.1856,26.0,0.0,0.0,0.0,59.999996,0.0,26.0,26.0,26.0,26.0,0.06977777777777794,0.2754000000000001,-0.014400000000000001,292.999,-0.2893,-0.17300000000000001,0.29779999999999995,0.40940000000000004,-229.2,215.99,190.706125,0.0,0.0,0.0,0.0,0.0286333333333334,-5.498166666666667,-5.498166666666667,-0.5514,-0.187,0.044777777777777805,-0.067,67.258,0.05469999999999997,-0.23095000000000002,-1.0380000000000003,100.0,1.0,1.0,207.49333333333334,0.0,0.0,0.0,0.0,0.0,0.0,0.0,8794.9,0.0,55.0,5.0,242.10000000000002,0.0,0.0,0.0,0.0,0.0,0.0,1.0,0.0,0.7049999999999983,0.7049999999999983,0.0,0.0,0.0,55.0,616.79921,10000.0,85.000001,85.000001,85.000001,85.000001,395.0,0.0,0.0,0.0,1.0,333.33500000000004,52.719,52.719,48.431,48.431,34.0,26.235,-22.564,-25.009999999999998,28.8525,0.0,1782.744,-0.6699999999999999,100.0,27.541,27.907,42.263,42.963,0.0,0.0,100.0,0.0,0.0,0.0,0.0,3042.777777777778,3123.6,4016.6666666666665,4135.4,305.7133333333333,304.82533333333333,315.14275,314.54775,21.95277777777778,20.6902,22.0048,21.4083,314.999998,314.999998,324.999988,324.999988,99.56285714285714,99.51408333333333,99.57417142857143,99.5463,0.6616666666666668,-0.5286666666666666,-0.5591999999999999,0.6485999999999998,-0.054999999999999716,-0.04124999999999801,1.5463333333333333,1.517,38.205,30.313499999999998,38.53,34.802,56.009,37.8745,60.4765,50.945499999999996,55.573,37.4125,60.6375,50.4985,56.419,37.5105,62.214,51.1215,-0.6499999999999999,-0.539,0.6166428571428572,0.5939857142857142,0.0,210.57,210.655,207.49333333333334,207.49333333333334,0.0,0.0
15,0.0,0.0,0.0,1.0,1.0,0.0,0.0,1.0,0.0,100.0,1.0,1.1856,26.0,0.0,0.0,0.0,59.999996,0.0,26.0,26.0,26.0,26.0,0.09277777777777785,0.2775000000000001,0.006900000000000001,293.03,-0.26185,-0.1323,0.29989999999999994,0.46900000000000003,-225.76,215.9675,190.684625,0.0,0.0,0.0,0.0,0.03059999999999996,-5.498166666666667,-5.498166666666667,-0.5438000000000001,0.2986666666666667,0.07855555555555571,1.102,67.396,0.0746,-0.21315,-1.2000000000000002,100.0,1.0,1.0,207.91666666666669,0.0,0.0,0.0,0.0,0.0,0.0,0.0,8812.9,0.0,55.0,5.0,242.59666666666666,1.0,0.0,0.0,0.0,0.0,0.0,1.0,0.0,0.7560000000000002,0.7560000000000002,0.0,0.0,1.0,55.0,616.79921,10000.0,85.000001,85.000001,85.000001,85.000001,395.0,0.0,0.0,0.0,1.0,166.665,52.856,52.856,48.462,48.462,34.0,24.905,-22.461999999999996,-23.0075,31.7025,0.0,1782.695,-0.71,100.0,27.688,27.833,42.097,42.94,0.0,0.0,100.0,0.0,0.0,0.0,0.0,2793.6666666666665,3222.8,3924.5555555555557,4359.1,306.23966666666666,304.67966666666666,315.3175,314.11125,21.962777777777777,20.6967,22.0158,21.4174,314.999998,314.999998,324.999988,324.999988,99.56292857142857,99.51413333333333,99.57432857142857,99.54647142857142,0.6806666666666668,-0.5013333333333332,-0.532,0.687,-0.04333333333332945,-0.04625000000000057,1.5590000000000002,1.525,38.268,30.3545,38.599000000000004,34.8585,56.025999999999996,37.9315,60.513,51.021,55.588,37.4685,60.6725,50.5745,56.433,37.567499999999995,62.2475,51.2,-0.6515,-0.5365,0.6208714285714285,0.5976571428571429,0.0,210.995,211.10000000000002,207.91666666666669,207.91666666666669,0.0,0.0
16,0.0,0.0,0.0,1.0,1.0,0.0,0.0,1.0,0.0,100.0,1.0,1.1856,26.0,0.0,0.0,0.0,59.999996,0.0,26.0,26.0,26.0,26.0,0.12522222222222212,0.268,-0.01205,293.045,-0.30765000000000003,-0.1739,0.36619999999999997,0.46330000000000005,-222.51999999999998,215.95,190.663875,0.0,0.0,0.0,0.0,0.03249999999999997,-5.498166666666667,-5.498166666666667,-0.5608000000000001,-0.7983333333333333,0.06144444444444441,0.191,67.526,0.08590000000000009,-0.224675,-1.048,100.0,1.0,1.0,208.2866666666667,0.0,0.0,0.0,0.0,0.0,0.0,0.0,8828.5,0.0,55.0,5.0,243.06666666666666,0.0,0.0,0.0,0.0,0.0,0.0,1.0,0.0,0.8039999999999985,0.8039999999999985,0.0,0.0,0.0,55.0,616.79921,10000.0,85.000001,85.000001,85.000001,85.000001,395.0,0.0,0.0,0.0,1.0,333.33500000000004,52.917,52.917,48.019,48.019,34.0,26.292500000000004,-21.101999999999997,-21.5825,30.302500000000002,0.0,1782.645,-0.855,100.0,27.314,27.873,42.400999999999996,43.093,0.0,0.0,100.0,0.0,0.0,0.0,0.0,2887.1111111111113,3245.7,3953.0,4137.3,306.1093333333333,304.612,315.18975,314.60825,21.972,20.7029,22.0262,21.4259,314.999998,314.999998,324.999988,324.999988,99.56301428571429,99.5142,99.57448571428571,99.54665714285714,0.7093333333333334,-0.47499999999999987,-0.514,0.6945999999999999,-0.05333333333332746,-0.04375000000000284,1.5453333333333332,1.516,38.325,30.393,38.664,34.912,56.038,37.984,60.55,51.093,55.599999999999994,37.5195,60.7085,50.6465,56.443,37.62,62.282,51.274,-0.6575,-0.533,0.6151,0.5991,0.0,211.38,211.46,208.2866666666667,208.2866666666667,0.0,0.0
17,0.0,0.0,0.0,1.0,1.0,0.0,0.0,1.0,0.0,100.0,1.0,1.1856,26.0,0.0,0.0,0.0,59.999996,0.0,26.0,26.0,26.0,26.0,0.13200000000000012,0.2795000000000001,-0.035125,292.877,-0.3206,-0.1177,0.2875,0.42400000000000004,-219.07999999999998,215.9325,190.6415,0.0,0.0,0.0,0.0,0.034499999999999975,-5.498166666666667,-5.498166666666667,-0.555,0.534,0.04699999999999993,-0.503,67.662,0.08660000000000001,-0.2109,-1.2400000000000002,100.0,1.0,1.0,208.72333333333333,0.0,0.0,0.0,0.0,0.0,0.0,0.0,8847.0,0.0,55.0,5.0,243.55333333333334,1.0,0.0,0.0,0.0,0.0,0.0,1.0,0.0,0.8550000000000004,0.8550000000000004,0.0,0.0,1.0,55.0,616.79921,10000.0,85.000001,85.000001,85.000001,85.000001,395.0,0.0,0.0,0.0,1.0,333.33500000000004,52.658,52.658,48.309,48.309,34.0,27.802499999999995,-20.560000000000002,-23.5075,31.2575,0.0,1782.595,-0.98,100.0,27.593,28.298000000000002,41.991,43.102000000000004,0.0,0.0,100.0,0.0,0.0,0.0,0.0,3056.777777777778,3067.8,4141.888888888889,4189.2,305.73333333333335,305.04466666666667,314.9195,314.447,21.982,20.7095,22.0371,21.435,314.999998,314.999998,324.999988,324.999988,99.5631,99.51426666666667,99.57465714285715,99.54682857142858,0.7090000000000001,-0.47899999999999987,-0.5112000000000001,0.6925999999999999,-0.045000000000001705,-0.038750000000000284,1.57,1.5164999999999997,38.388,30.4345,38.732,34.9685,56.058,38.0405,60.585,51.167500000000004,55.619,37.5755,60.7425,50.7215,56.461,37.677,62.314499999999995,51.3515,-0.673,-0.5175,0.6102714285714286,0.6000857142857142,0.0,211.82999999999998,211.93,208.72333333333333,208.72333333333333,0.0,0.0
18,0.0,0.0,0.0,1.0,1.0,0.0,0.0,1.0,0.0,100.0,1.0,1.1856,26.0,0.0,0.0,0.0,59.999996,0.0,26.0,26.0,26.0,26.0,0.12822222222222224,0.2641,-0.06465,292.877,-0.3531,-0.09570000000000001,0.2704,0.5017,-215.82999999999998,215.92000000000002,190.6205,0.0,0.0,0.0,0.0,0.03639999999999999,-5.498166666666667,-5.498166666666667,-0.5601,-0.5750000000000001,0.06911111111111112,-0.231,67.78999999999999,0.09489999999999998,-0.222175,-1.266,100.0,1.0,1.0,209.10666666666668,0.0,0.0,0.0,0.0,0.0,0.0,0.0,8863.2,0.0,55.0,5.0,244.01999999999998,0.0,0.0,0.0,0.0,0.0,0.0,1.0,0.0,0.9029999999999987,0.9029999999999987,0.0,0.0,0.0,55.0,616.79921,10000.0,85.000001,85.000001,85.000001,85.000001,395.0,0.0,0.0,0.0,1.0,333.33500000000004,52.795,52.795,48.096000000000004,48.096000000000004,34.0,27.400000000000006,-21.112000000000002,-23.0525,30.0075,0.0,1782.546,-1.1400000000000001,100.0,27.304,28.145,42.316,43.572,0.0,0.0,100.0,0.0,0.0,0.0,0.0,3014.8888888888887,3181.2,4020.4444444444443,4138.1,305.9243333333333,304.76233333333334,315.1715,314.607,21.991222222222223,20.7157,22.0476,21.4437,314.999998,314.999998,324.999988,324.999988,99.56318571428571,99.51431666666667,99.57481428571428,99.54701428571428,0.7203333333333333,-0.4676666666666667,-0.5126,0.6998,-0.05333333333332746,-0.03999999999999915,1.56,1.5295,38.445,30.4735,38.797,35.022999999999996,56.073,38.092,60.6215,51.2425,55.634,37.6255,60.778,50.7965,56.474000000000004,37.728,62.348,51.4285,-0.6819999999999999,-0.51,0.6162,0.5977285714285714,0.0,212.2,212.305,209.10666666666668,209.10666666666668,0.0,0.0
19,0.0,0.0,0.0,1.0,1.0,0.0,0.0,1.0,0.0,100.0,1.0,1.1856,26.0,0.0,0.0,0.0,59.999996,0.0,26.0,26.0,26.0,26.0,0.14733333333333332,0.27990000000000004,0.009125000000000001,292.328,-0.32145,-0.08410000000000001,0.2551,0.5218,-212.36,215.91,190.598,0.0,0.0,0.0,0.0,0.03839999999999999,-5.498166666666667,-5.498166666666667,-0.5578000000000001,0.7943333333333333,0.08477777777777784,1.193,67.925,0.1059000000000001,-0.21625,-1.7400000000000002,100.0,1.0,1.0,209.54666666666668,0.0,0.0,0.0,0.0,0.0,0.0,0.0,8882.0,0.0,55.0,5.0,244.5,1.0,0.0,0.0,0.0,0.0,0.0,1.0,0.0,0.9540000000000006,0.9540000000000006,0.0,0.0,1.0,55.0,616.79921,10000.0,85.000001,85.000001,85.000001,85.000001,395.0,0.0,0.0,0.0,1.0,166.665,51.757999999999996,51.757999999999996,48.111,48.111,34.0,29.72500000000001,-21.398000000000003,-22.2475,32.485,0.0,1782.497,-1.445,100.0,27.985,28.534,42.094,43.441,0.0,0.0,100.0,0.0,0.0,0.0,0.0,3047.1111111111113,3400.8,4047.3333333333335,4336.1,305.51933333333335,304.12733333333335,315.1165,314.2465,22.001333333333335,20.7225,22.0585,21.4528,314.999998,314.999998,324.999988,324.999988,99.56325714285714,99.51436666666666,99.57497142857143,99.5472,0.7546666666666668,-0.43533333333333313,-0.49019999999999997,0.7218,-0.046666666666666856,-0.05375000000000085,1.5833333333333335,1.5114999999999998,38.507999999999996,30.516,38.864999999999995,35.08,56.095,38.1485,60.6555,51.3185,55.655,37.681,60.811,50.8735,56.494,37.785,62.379,51.5075,-0.7075,-0.4845,0.6181,0.6034714285714285,0.0,212.635,212.785,209.54666666666668,209.54666666666668,0.0,0.0
20,0.0,0.0,0.0,1.0,1.0,0.0,0.0,1.0,0.0,100.0,1.0,1.1856,26.0,0.0,0.0,0.0,59.999996,0.0,26.0,26.0,26.0,26.0,0.1784444444444444,0.27059999999999995,-0.048225000000000004,292.404,-0.38085,-0.1317,0.31579999999999997,0.5237,-208.89999999999998,215.905,190.575625,0.0,0.0,0.0,0.0,0.04043333333333332,-5.498166666666667,-5.498166666666667,-0.552,-0.8983333333333334,0.09499999999999997,-0.723,68.063,0.12139999999999995,-0.219475,-1.7720000000000002,100.0,1.0,1.0,209.78333333333333,0.0,0.0,0.0,0.0,0.0,0.0,0.0,8891.9,0.0,55.0,5.0,244.99666666666667,0.0,0.0,0.0,0.0,0.0,0.0,0.0,0.0,1.004999999999999,1.004999999999999,0.0,0.0,0.0,55.0,616.79921,10000.0,85.000001,85.000001,85.000001,85.000001,395.0,0.0,0.0,0.0,1.0,333.33500000000004,52.933,52.933,46.86,46.86,34.0,26.715000000000003,-17.678000000000004,-21.9725,34.644999999999996,0.0,1782.444,-1.915,100.0,27.354,28.582,42.539,44.137,0.0,0.0,100.0,0.0,0.0,0.0,0.0,2755.5555555555557,3142.0,4231.666666666667,4418.4,306.62666666666667,304.7463333333333,314.57975,313.861,22.011,20.7292,22.0696,21.4621,314.999998,314.999998,324.999988,324.999988,99.56335714285714,99.51443333333333,99.57512857142856,99.5474,0.7886666666666668,-0.3996666666666666,-0.4707999999999999,0.7370000000000001,-0.046666666666666856,-0.03125,1.4996666666666667,1.4354999999999998,38.569,30.557499999999997,38.935,35.1385,56.111999999999995,38.201,60.6945,51.400999999999996,55.671,37.733000000000004,60.8485,50.9565,56.507999999999996,37.838,62.415,51.593,-0.7384999999999999,-0.458,0.6101714285714286,0.6031714285714286,0.0,213.0,213.175,209.78333333333333,209.78333333333333,0.0,0.0
21,0.0,0.0,0.0,1.0,1.0,0.0,0.0,1.0,0.0,100.0,1.0,1.1856,26.0,0.0,0.0,0.0,59.999996,0.0,26.0,26.0,26.0,26.0,0.21977777777777785,0.26470000000000016,-0.05965,292.801,-0.29415,-0.1864,0.24749999999999994,0.4545,-205.42000000000002,215.905,190.55275,0.0,0.0,0.0,0.0,0.04243333333333332,-5.498166666666667,-5.498166666666667,-0.5834,0.4423333333333333,0.0868888888888888,0.619,68.19200000000001,0.13490000000000002,-0.232025,-2.3560000000000003,100.0,1.0,1.0,210.47333333333333,0.0,0.0,0.0,0.0,0.0,0.0,0.0,8921.1,0.0,55.0,5.0,245.46666666666667,1.0,0.0,0.0,0.0,0.0,0.0,0.0,0.0,1.056000000000001,1.056000000000001,0.0,0.0,1.0,55.0,616.79921,10000.0,85.000001,85.000001,85.000001,85.000001,395.0,0.0,0.0,0.0,1.0,166.665,52.216,52.216,48.569,48.569,34.0,29.86,-17.802,-18.685,33.0975,0.0,1782.395,-1.8,100.0,27.698,28.606,41.982,43.730000000000004,0.0,0.0,100.0,0.0,0.0,0.0,0.0,2908.6666666666665,3314.9,3834.4444444444443,4077.3,305.91766666666666,304.34133333333335,315.64875,314.80975,22.020777777777777,20.736,22.0803,21.4712,314.999998,314.999998,324.999988,324.999988,99.56344285714286,99.51448333333333,99.5753,99.54757142857143,0.7976666666666667,-0.3926666666666667,-0.4465999999999999,0.7695999999999998,-0.045000000000001705,-0.042499999999996874,1.6463333333333334,1.564,38.629999999999995,30.6,39.001999999999995,35.195,56.134,38.253,60.7245,51.4765,55.692,37.7845,60.878,51.0325,56.528,37.8905,62.442499999999995,51.6715,-0.739,-0.451,0.6173,0.6004285714285714,0.0,213.405,213.615,210.47333333333333,210.47333333333333,0.0,0.0
22,0.0,0.0,0.0,1.0,1.0,0.0,0.0,1.0,0.0,100.0,1.0,1.1856,26.0,0.0,0.0,0.0,59.999996,0.0,26.0,26.0,26.0,26.0,0.20611111111111113,0.26770000000000005,0.037275,292.175,-0.29405000000000003,-0.1729,0.2994,0.42200000000000004,-202.14999999999998,215.91,190.5305,0.0,0.0,0.0,0.0,0.044333333333333336,-5.498166666666667,-5.498166666666667,-0.5609000000000001,0.192,0.10055555555555551,1.039,68.321,0.15990000000000015,-0.21085,-1.742,100.0,1.0,1.0,210.63333333333333,0.0,0.0,0.0,0.0,0.0,0.0,0.0,8927.9,0.0,55.0,5.0,245.93,0.0,0.0,0.0,0.0,0.0,0.0,0.0,0.0,1.1039999999999992,1.1039999999999992,0.0,0.0,0.0,55.0,616.79921,10000.0,85.000001,85.000001,85.000001,85.000001,395.0,0.0,0.0,0.0,1.0,333.33500000000004,52.139,52.139,47.409,47.409,34.0,26.840000000000003,-21.67,-19.335,37.44,0.0,1782.346,-0.39,100.0,27.733,28.756,42.253,44.010000000000005,0.0,0.0,100.0,0.0,0.0,0.0,0.0,2852.4444444444443,3356.7,4076.4444444444443,4410.9,306.07666666666665,304.19666666666666,314.91475,313.95275,22.03011111111111,20.7424,22.0907,21.48,314.999998,314.999998,324.999988,324.999988,99.56352857142858,99.51453333333333,99.57545714285715,99.54775714285714,0.726,-0.4666666666666668,-0.4344000000000001,0.768,-0.03166666666666629,-0.04749999999999943,1.5190000000000001,1.4505,38.688,30.6405,39.067,35.25,56.152,38.305,60.7585,51.554,55.71,37.835499999999996,60.911,51.1105,56.544,37.942499999999995,62.4735,51.7515,-0.636,-0.5645,0.6164857142857143,0.5937,0.0,213.84,214.0,210.63333333333333,210.63333333333333,0.0,0.0
23,0.0,0.0,0.0,1.0,1.0,0.0,0.0,1.0,0.0,100.0,1.0,1.1856,26.0,0.0,0.0,0.0,59.999996,0.0,26.0,26.0,26.0,26.0,0.1581111111111111,0.2582,-0.00315,292.282,-0.315,-0.138,0.3399,0.3861,-198.66,215.92000000000002,190.507125,0.0,0.0,0.0,0.0,0.046366666666666556,-5.498166666666667,-5.498166666666667,-0.5785,-0.4216666666666667,0.07266666666666666,-1.223,68.453,0.13929999999999998,-0.23672500000000002,-0.3020000000000005,100.0,1.0,1.0,211.09333333333333,0.0,0.0,0.0,0.0,0.0,0.0,0.0,8947.5,0.0,55.0,5.0,246.40666666666667,1.0,0.0,0.0,0.0,0.0,0.0,0.0,0.0,1.1550000000000011,1.1550000000000011,0.0,0.0,1.0,55.0,616.79921,10000.0,85.000001,85.000001,85.000001,85.000001,395.0,0.0,0.0,0.0,1.0,333.33500000000004,51.941,51.941,48.065,48.065,34.0,27.765,-23.373999999999995,-20.7,32.4275,0.0,1782.293,0.605,100.0,27.695,28.8,42.421,44.254000000000005,0.0,0.0,100.0,0.0,0.0,0.0,0.0,3210.1111111111113,3171.3,4011.222222222222,4076.0,305.3186666666667,304.6476666666667,315.12025,314.6165,22.03988888888889,20.7492,22.1018,21.4893,314.999998,314.999998,324.999988,324.999988,99.56361428571428,99.5146,99.57561428571428,99.54795714285714,0.6653333333333333,-0.5286666666666666,-0.4805999999999999,0.7250000000000001,-0.06499999999999773,-0.026249999999997442,1.5233333333333334,1.524,38.748999999999995,30.682499999999997,39.135999999999996,35.308,56.168,38.3635,60.794,51.635,55.724000000000004,37.893,60.945,51.192,56.557,38.0015,62.506,51.835499999999996,-0.5529999999999999,-0.6395000000000001,0.6097142857142857,0.5964142857142858,0.0,214.305,214.3,211.09333333333333,211.09333333333333,0.0,0.0
24,0.0,0.0,0.0,1.0,1.0,0.0,0.0,1.0,0.0,100.0,1.0,1.1856,26.0,0.0,0.0,0.0,59.999996,0.0,26.0,26.0,26.0,26.0,0.06188888888888888,0.2611000000000001,-0.011025,292.603,-0.30385,-0.1811,0.31799999999999995,0.4282,-195.37,215.93,190.484875,0.0,0.0,0.0,0.0,0.04830000000000001,-5.498166666666667,-5.498166666666667,-0.5794,-0.25533333333333336,0.060555555555555696,-0.728,68.578,0.09109999999999996,-0.21825,0.4800000000000004,100.0,1.0,1.0,211.45666666666668,0.0,0.0,0.0,0.0,0.0,0.0,0.0,8962.9,0.0,55.0,5.0,246.85333333333335,0.0,0.0,0.0,0.0,0.0,0.0,0.0,0.0,1.2029999999999994,1.2029999999999994,0.0,0.0,0.0,55.0,616.79921,10000.0,85.000001,85.000001,85.000001,85.000001,395.0,0.0,0.0,0.0,1.0,166.665,52.887,52.887,47.562,47.562,34.0,22.972500000000004,-23.666000000000004,-26.46,29.2425,0.0,1782.247,1.125,100.0,27.732,28.419,42.481,43.924,0.0,0.0,100.0,0.0,0.0,0.0,0.0,2918.222222222222,2965.8,4329.111111111111,4110.8,306.0763333333333,305.31266666666664,314.4995,314.6685,22.04911111111111,20.7555,22.112099999999998,21.4979,314.999998,314.999998,324.999988,324.999988,99.56368571428571,99.51466666666667,99.57577142857143,99.54812857142858,0.6076666666666668,-0.593,-0.5442,0.667,-0.05666666666667197,-0.03750000000000142,1.488,1.5244999999999997,38.807,30.7215,39.201,35.362,56.181,38.419,60.828,51.705,55.736999999999995,37.9475,60.978,51.2625,56.568,38.057,62.537,51.908,-0.517,-0.6855,0.6163857142857143,0.6006714285714285,0.0,214.715,214.685,211.45666666666668,211.45666666666668,0.0,0.0
25,0.0,0.0,0.0,1.0,1.0,0.0,0.0,1.0,0.0,100.0,1.0,1.1856,26.0,0.0,0.0,0.0,59.999996,0.0,26.0,26.0,26.0,26.0,-0.01488888888888884,0.25540000000000007,-0.07455,292.633,-0.2596,-0.2092,0.3307,0.3925,-191.87,215.945,190.45975,0.0,0.0,0.0,0.0,0.05033333333333334,-5.498166666666667,-5.498166666666667,-0.6158,-0.29,0.03066666666666662,-0.538,68.709,0.02950000000000008,-0.232775,1.1960000000000006,100.0,1.0,1.0,211.98666666666668,0.0,0.0,0.0,0.0,0.0,0.0,0.0,8985.3,0.0,55.0,5.0,247.32666666666665,1.0,0.0,0.0,0.0,0.0,0.0,0.0,0.0,1.2540000000000013,1.2540000000000013,0.0,0.0,1.0,55.0,616.79921,10000.0,85.000001,85.000001,85.000001,85.000001,395.0,0.0,0.0,0.0,1.0,333.33500000000004,52.139,52.139,48.187,48.187,34.0,23.18,-27.686000000000007,-26.2325,25.27,0.0,1782.194,1.3250000000000002,100.0,27.918,28.18,42.745000000000005,43.338,0.0,0.0,100.0,0.0,0.0,0.0,0.0,3094.3333333333335,3277.1,3955.6666666666665,3933.3,305.442,304.49733333333336,315.2855,315.1625,22.058888888888887,20.7621,22.1231,21.506999999999998,314.999998,314.999998,324.999988,324.999988,99.56375714285714,99.51473333333334,99.57594285714286,99.54831428571428,0.5586666666666669,-0.631,-0.6024,0.6114000000000002,-0.04333333333332945,-0.048749999999998295,1.5510000000000002,1.5964999999999998,38.867999999999995,30.762999999999998,39.269,35.4185,56.189,38.481,60.8665,51.7745,55.745000000000005,38.0085,61.015,51.332499999999996,56.574,38.119,62.5725,51.9795,-0.49049999999999994,-0.7030000000000001,0.6122,0.6033714285714286,0.0,215.13,215.03,211.98666666666668,211.98666666666668,0.0,0.0
26,0.0,0.0,0.0,1.0,1.0,0.0,0.0,1.0,0.0,100.0,1.0,1.1856,26.0,0.0,0.0,0.0,59.999996,0.0,26.0,26.0,26.0,26.0,-0.0792222222222222,0.2704,0.0645,291.504,-0.24000000000000002,-0.22130000000000002,0.31779999999999997,0.3688,-188.36,215.95749999999998,190.434,0.0,0.0,0.0,0.0,0.05236666666666656,-5.498166666666667,-5.498166666666667,-0.5790000000000001,0.9696666666666667,-0.025555555555555554,-1.414,68.842,-0.03049999999999997,-0.20072500000000001,1.4420000000000002,100.0,1.0,1.0,212.18666666666667,0.0,0.0,0.0,0.0,0.0,0.0,0.0,8993.9,0.0,55.0,5.0,247.80666666666667,0.0,0.0,0.0,0.0,0.0,0.0,0.0,0.0,1.3049999999999997,1.3049999999999997,0.0,0.0,0.0,55.0,616.79921,10000.0,85.000001,85.000001,85.000001,85.000001,395.0,0.0,0.0,0.0,1.0,333.33500000000004,51.346000000000004,51.346000000000004,46.844,46.844,34.0,22.545,-28.83,-35.082499999999996,25.5125,0.0,1782.145,1.4300000000000002,100.0,28.929000000000002,28.733,43.297,43.321,0.0,0.0,100.0,0.0,0.0,0.0,0.0,3297.777777777778,3108.8,4547.444444444444,4289.5,304.91333333333336,304.8383333333333,314.01275,314.27225,22.069222222222223,20.7688,22.1342,21.5162,314.999998,314.999998,324.999988,324.999988,99.56382857142857,99.51481666666666,99.57612857142857,99.54848571428572,0.5016666666666667,-0.7013333333333331,-0.6665999999999999,0.5464000000000002,-0.046666666666666856,-0.04375000000000284,1.4443333333333332,1.48,38.932,30.805,39.339,35.476,56.204,38.5495,60.911,51.8435,55.759,38.0755,61.059,51.4015,56.586,38.1875,62.615,52.0505,-0.492,-0.716,0.6151142857142857,0.5988857142857142,0.0,215.625,215.47,212.18666666666667,212.18666666666667,0.0,0.0
27,0.0,0.0,0.0,1.0,1.0,0.0,0.0,1.0,0.0,100.0,1.0,1.1856,26.0,0.0,0.0,0.0,59.999996,0.0,26.0,26.0,26.0,26.0,-0.11655555555555552,0.25060000000000016,0.02475,291.611,-0.24500000000000002,-0.2604,0.35109999999999997,0.3277,-185.05,215.97,190.410875,0.0,0.0,0.0,0.0,0.054266666666666574,-5.498166666666667,-5.498166666666667,-0.5935,-1.119,-0.05366666666666653,-1.11,68.96600000000001,-0.06269999999999998,-0.23855,1.3900000000000006,100.0,1.0,1.0,212.55666666666667,0.0,0.0,0.0,0.0,0.0,0.0,0.0,9009.5,0.0,55.0,5.0,248.25333333333333,1.0,0.0,0.0,0.0,0.0,0.0,0.0,0.0,1.352999999999998,1.352999999999998,0.0,0.0,1.0,55.0,616.79921,10000.0,85.000001,85.000001,85.000001,85.000001,395.0,0.0,0.0,0.0,1.0,333.33500000000004,51.804,51.804,46.799,46.799,34.0,20.825000000000003,-27.948,-34.015,22.947499999999998,0.0,1782.096,1.5150000000000001,100.0,28.766,28.35,44.464,43.765,0.0,0.0,100.0,0.0,0.0,0.0,0.0,3340.777777777778,2968.8,4293.222222222223,4123.1,304.8913333333333,305.3666666666667,314.48,314.586,22.078666666666667,20.7749,22.1449,21.525,314.999998,314.999998,324.999988,324.999988,99.56388571428572,99.5149,99.57631428571429,99.54865714285714,0.46033333333333326,-0.732,-0.6975999999999998,0.5078,-0.04999999999999716,-0.03499999999999659,1.4513333333333334,1.5044999999999997,38.992000000000004,30.843,39.406,35.531,56.211,38.611000000000004,60.959,51.91,55.765,38.1355,61.1065,51.4685,56.592,38.2485,62.661,52.1185,-0.477,-0.7125,0.6158285714285714,0.5931857142857142,0.0,215.95,215.79500000000002,212.55666666666667,212.55666666666667,0.0,0.0
28,0.0,0.0,0.0,1.0,1.0,0.0,0.0,1.0,0.0,100.0,1.0,1.1856,26.0,0.0,0.0,0.0,59.999996,0.0,26.0,26.0,26.0,26.0,-0.133,0.2631000000000001,-0.075,292.038,-0.20635,-0.2762,0.41269999999999996,0.29400000000000004,-181.53,215.97750000000002,190.38575,0.0,0.0,0.0,0.0,0.056333333333333346,-5.498166666666667,-5.498166666666667,-0.6083000000000001,0.5633333333333334,-0.06800000000000006,0.553,69.093,-0.08629999999999993,-0.226525,1.3500000000000005,100.0,1.0,1.0,213.13333333333333,0.0,0.0,0.0,0.0,0.0,0.0,0.0,9033.9,0.0,55.0,5.0,248.70666666666665,0.0,0.0,0.0,0.0,0.0,0.0,0.0,0.0,1.404,1.404,0.0,0.0,0.0,55.0,616.79921,10000.0,85.000001,85.000001,85.000001,85.000001,395.0,0.0,0.0,0.0,1.0,166.665,51.772999999999996,51.772999999999996,47.684,47.684,34.0,20.155,-29.272,-31.8575,22.055,0.0,1782.047,1.6,100.0,29.21,28.085,44.061,42.978,0.0,0.0,100.0,0.0,0.0,0.0,0.0,3254.0,3025.7,4115.0,4010.9,304.9436666666667,305.298,314.897,315.00275,22.08888888888889,20.7814,22.1559,21.534,314.999998,314.999998,324.999988,324.999988,99.56394285714286,99.515,99.57648571428571,99.54881428571429,0.44633333333333325,-0.7596666666666667,-0.7125999999999999,0.504,-0.03999999999999915,-0.04999999999999716,1.5333333333333334,1.5835,39.055,30.884,39.474000000000004,35.587,56.219,38.679,61.0015,51.972,55.774,38.202,61.147999999999996,51.5305,56.599000000000004,38.316,62.701,52.182,-0.47450000000000003,-0.7275,0.6100714285714286,0.6016428571428571,0.0,216.375,216.21,213.13333333333333,213.13333333333333,0.0,0.0
29,0.0,0.0,0.0,1.0,1.0,0.0,0.0,1.0,0.0,100.0,1.0,1.1856,26.0,0.0,0.0,0.0,59.999996,0.0,26.0,26.0,26.0,26.0,-0.16555555555555557,0.24940000000000007,0.018825,291.672,-0.21625,-0.2454,0.3797999999999999,0.3083,-178.01,215.985,190.3595,0.0,0.0,0.0,0.0,0.05836666666666657,-5.498166666666667,-5.498166666666667,-0.6051000000000001,-0.7363333333333334,-0.07900000000000018,-0.982,69.225,-0.09559999999999991,-0.213975,1.354,100.0,1.0,1.0,213.33333333333331,0.0,0.0,0.0,0.0,0.0,0.0,0.0,9042.4,0.0,55.0,5.0,249.18666666666667,1.0,0.0,0.0,0.0,0.0,0.0,0.0,0.0,1.4549999999999983,1.4549999999999983,0.0,0.0,1.0,55.0,616.79921,10000.0,85.000001,85.000001,85.000001,85.000001,395.0,0.0,0.0,0.0,1.0,333.33500000000004,51.956,51.956,46.646,46.646,34.0,20.3525,-29.78,-36.5275,22.2875,0.0,1781.994,1.52,100.0,28.714,27.876,44.432,43.187,0.0,0.0,100.0,0.0,0.0,0.0,0.0,3408.6666666666665,3026.2,4452.333333333333,4151.6,304.78333333333336,305.25866666666667,314.1595,314.54125,22.09888888888889,20.7878,22.1671,21.5432,314.999998,314.999998,324.999988,324.999988,99.564,99.51508333333334,99.57668571428572,99.54898571428572,0.43533333333333335,-0.7653333333333332,-0.7252000000000001,0.4858,-0.045000000000001705,-0.03499999999999659,1.4436666666666667,1.496,39.117999999999995,30.924,39.544,35.644999999999996,56.224000000000004,38.745,61.0515,52.0385,55.778,38.2665,61.1975,51.597,56.602000000000004,38.3815,62.749,52.25,-0.48250000000000004,-0.7185,0.6136714285714285,0.5994428571428572,0.0,216.75,216.595,213.33333333333331,213.33333333333331,0.0,0.0
30,0.0,0.0,0.0,1.0,1.0,0.0,0.0,1.0,0.0,100.0,1.0,1.1856,26.0,0.0,0.0,0.0,59.999996,0.0,26.0,26.0,26.0,26.0,-0.15900000000000003,0.27700000000000014,0.048075,291.275,-0.19460000000000002,-0.2298,0.3792,0.3579,-174.68,215.985,190.334625,0.0,0.0,0.0,0.0,0.06029999999999991,-5.498166666666667,-5.498166666666667,-0.6117,0.8126666666666666,-0.0858888888888889,-0.803,69.344,-0.09959999999999991,-0.22435000000000002,1.2240000000000002,100.0,1.0,1.0,213.79000000000002,0.0,0.0,0.0,0.0,0.0,0.0,0.0,9061.8,0.0,55.0,5.0,249.61333333333334,0.0,0.0,0.0,0.0,0.0,0.0,1.0,0.0,1.5030000000000001,1.5030000000000001,0.0,0.0,0.0,55.0,616.79921,10000.0,85.000001,85.000001,85.000001,85.000001,395.0,0.0,0.0,0.0,1.0,333.33500000000004,50.919,50.919,46.936,46.936,34.0,21.685000000000002,-30.442,-35.595,21.7925,0.0,1781.947,1.3850000000000002,100.0,29.579,28.605,44.329,43.016999999999996,0.0,0.0,100.0,0.0,0.0,0.0,0.0,3537.777777777778,3032.5,4399.333333333333,4214.5,304.37766666666664,304.9936666666667,314.36275,314.51525,22.108666666666664,20.7941,22.1775,21.5518,314.999998,314.999998,324.999988,324.999988,99.56405714285714,99.51518333333334,99.57687142857142,99.54914285714285,0.43833333333333324,-0.7676666666666667,-0.7255999999999998,0.4870000000000001,-0.0799999999999983,-0.03999999999999915,1.506,1.5339999999999998,39.179,30.963,39.61,35.699,56.233999999999995,38.8125,61.0945,52.0985,55.788,38.332499999999996,61.2395,51.657,56.61,38.448499999999996,62.79,52.3115,-0.497,-0.7125,0.6144000000000001,0.6044428571428571,0.0,217.175,217.0,213.79000000000002,213.79000000000002,0.0,0.0
31,0.0,0.0,0.0,1.0,1.0,0.0,0.0,1.0,0.0,100.0,1.0,1.1856,26.0,0.0,0.0,0.0,59.999996,0.0,26.0,26.0,26.0,26.0,-0.14088888888888884,0.2510000000000001,0.038775000000000004,291.153,-0.18025000000000002,-0.3254,0.3665999999999999,0.35000000000000003,-171.14,215.985,190.308875,0.0,0.0,0.0,0.0,0.06236666666666657,-5.498166666666667,-5.498166666666667,-0.5886,-0.4846666666666667,-0.07933333333333348,0.312,69.474,-0.0938,-0.218125,0.968,100.0,1.0,1.0,214.06333333333333,0.0,0.0,0.0,0.0,0.0,0.0,0.0,9073.3,0.0,55.0,5.0,250.07999999999998,1.0,0.0,0.0,0.0,0.0,0.0,1.0,0.0,1.5539999999999985,1.5539999999999985,0.0,0.0,1.0,55.0,616.79921,10000.0,85.000001,85.000001,85.000001,85.000001,395.0,0.0,0.0,0.0,1.0,166.665,51.544,51.544,45.67,45.67,34.0,20.17,-29.5,-36.1075,23.255000000000003,0.0,1781.897,1.2400000000000002,100.0,29.533,28.399,45.133,43.581,0.0,0.0,100.0,0.0,0.0,0.0,0.0,3133.777777777778,3124.1,4466.666666666667,4220.9,305.30333333333334,305.0903333333333,314.023,314.3905,22.11877777777778,20.8007,22.1889,21.5612,314.999998,314.999998,324.999988,324.999988,99.56412857142857,99.51526666666666,99.57707142857143,99.54931428571429,0.45999999999999996,-0.7503333333333333,-0.7055999999999998,0.5047999999999999,-0.013333333333328312,-0.04749999999999943,1.4246666666666667,1.4605000000000001,39.242000000000004,31.0045,39.68,35.7575,56.242000000000004,38.8815,61.1465,52.167,55.796,38.4,61.2905,51.726,56.617000000000004,38.516999999999996,62.84,52.3815,-0.5055000000000001,-0.7035,0.6137428571428571,0.5968571428571428,0.0,217.5,217.4,214.06333333333333,214.06333333333333,0.0,0.0
32,0.0,0.0,0.0,1.0,1.0,0.0,0.0,1.0,0.0,100.0,1.0,1.1856,26.0,0.0,0.0,0.0,59.999996,0.0,26.0,26.0,26.0,26.0,-0.1253333333333334,0.2499,-0.07237500000000001,291.672,-0.19375,-0.2711,0.3484999999999999,0.2374,-167.38,215.97750000000002,190.281875,0.0,0.0,0.0,0.0,0.06456666666666655,-5.498166666666667,-5.498166666666667,-0.6126,0.11566666666666667,-0.10899999999999999,0.278,69.606,-0.08879999999999999,-0.233775,0.8739999999999997,100.0,1.0,1.0,214.68333333333334,0.0,0.0,0.0,0.0,0.0,0.0,0.0,9099.6,0.0,55.0,5.0,250.55666666666667,0.0,0.0,0.0,0.0,0.0,0.0,1.0,0.0,1.6080000000000005,1.6080000000000005,0.0,0.0,0.0,55.0,616.79921,10000.0,85.000001,85.000001,85.000001,85.000001,395.0,0.0,0.0,0.0,1.0,166.665,51.361000000000004,51.361000000000004,47.165,47.165,34.0,22.207500000000003,-28.311999999999998,-32.6375,22.36,0.0,1781.842,0.9650000000000001,100.0,29.511,28.432000000000002,44.757,43.278,0.0,0.0,100.0,0.0,0.0,0.0,0.0,3330.6666666666665,3042.8,4155.555555555556,3908.1000000000004,304.7456666666667,305.26666666666665,314.9255,315.187,22.129444444444445,20.8078,22.2006,21.5709,314.999998,314.999998,324.999988,324.999988,99.56418571428571,99.51536666666667,99.57727142857142,99.54948571428571,0.4756666666666667,-0.726,-0.7067999999999999,0.5072000000000001,-0.051666666666669414,-0.04124999999999801,1.5373333333333332,1.581,39.309,31.0485,39.754000000000005,35.8185,56.251999999999995,38.9535,61.1945,52.234,55.805,38.4705,61.338,51.793,56.623999999999995,38.588499999999996,62.8855,52.45,-0.5245,-0.677,0.6196857142857142,0.6002,0.0,217.92000000000002,217.81,214.68333333333334,214.68333333333334,0.0,0.0
33,0.0,0.0,0.0,1.0,1.0,0.0,0.0,1.0,0.0,100.0,1.0,1.1856,26.0,0.0,0.0,0.0,59.999996,0.0,26.0,26.0,26.0,26.0,-0.11166666666666658,0.25870000000000015,-0.017375,291.58,-0.15025,-0.2954,0.37729999999999997,0.3256,-164.25,215.97,190.2585,0.0,0.0,0.0,0.0,0.06636666666666657,-5.498166666666667,-5.498166666666667,-0.6119,-0.24633333333333335,-0.09655555555555573,0.137,69.719,-0.07699999999999996,-0.216975,0.5339999999999998,100.0,1.0,1.0,214.9,0.0,0.0,0.0,0.0,0.0,0.0,0.0,9108.8,0.0,55.0,5.0,250.96333333333334,1.0,0.0,0.0,0.0,0.0,0.0,1.0,0.0,1.6529999999999987,1.6529999999999987,0.0,0.0,1.0,55.0,616.79921,10000.0,85.000001,85.000001,85.000001,85.000001,395.0,0.0,0.0,0.0,1.0,333.33500000000004,51.879999999999995,51.879999999999995,46.783,46.783,34.0,21.314999999999998,-26.991999999999997,-33.8025,24.315,0.0,1781.795,0.95,100.0,29.195,28.307000000000002,44.622,43.41,0.0,0.0,100.0,0.0,0.0,0.0,0.0,3241.6666666666665,2915.7,4319.555555555556,4195.5,305.1073333333333,305.535,314.49475,314.49525,22.138333333333335,20.8135,22.2104,21.5791,314.999998,314.999998,324.999988,324.999988,99.56424285714286,99.51545,99.57744285714286,99.54964285714286,0.4633333333333334,-0.728,-0.7004000000000001,0.5246,-0.04833333333333201,-0.06374999999999886,1.484,1.4994999999999998,39.364999999999995,31.0845,39.815,35.8695,56.26,39.0095,61.238,52.292500000000004,55.813,38.528999999999996,61.381,51.856,56.631,38.647999999999996,62.9245,52.513999999999996,-0.5275,-0.6715,0.6207857142857143,0.6026428571428571,0.0,218.265,218.185,214.9,214.9,0.0,0.0
34,0.0,0.0,0.0,1.0,1.0,0.0,0.0,1.0,0.0,100.0,1.0,1.1856,26.0,0.0,0.0,0.0,59.999996,0.0,26.0,26.0,26.0,26.0,-0.07844444444444443,0.25,-0.08325,291.992,-0.25525000000000003,-0.2747,0.35039999999999993,0.3181,-160.69,215.96,190.231,0.0,0.0,0.0,0.0,0.06843333333333335,-5.498166666666667,-5.498166666666667,-0.6402,-0.7143333333333334,-0.06722222222222207,1.058,69.846,-0.05899999999999994,-0.22715000000000002,0.4320000000000004,100.0,1.0,1.0,215.31333333333333,0.0,0.0,0.0,0.0,0.0,0.0,0.0,9126.3,0.0,55.0,5.0,251.42000000000002,0.0,0.0,0.0,0.0,0.0,0.0,1.0,0.0,1.7040000000000006,1.7040000000000006,0.0,0.0,0.0,55.0,616.79921,10000.0,85.000001,85.000001,85.000001,85.000001,395.0,0.0,0.0,0.0,1.0,333.33500000000004,52.246,52.246,47.653,47.653,34.0,21.302500000000002,-26.338,-30.665,25.1475,0.0,1781.744,0.9000000000000001,100.0,29.001,27.929000000000002,44.449,43.437,0.0,0.0,100.0,0.0,0.0,0.0,0.0,3193.3333333333335,2929.0,4077.1111111111113,4194.9,305.23633333333333,305.681,315.067,314.5335,22.148333333333333,20.8201,22.2214,21.5885,314.999998,314.999998,324.999988,324.999988,99.56431428571429,99.51553333333334,99.57762857142858,99.54981428571429,0.4950000000000001,-0.7073333333333331,-0.6767999999999998,0.5414000000000001,-0.041666666666671404,-0.058749999999996305,1.5086666666666666,1.5234999999999999,39.427,31.125500000000002,39.884,35.928,56.268,39.073,61.278,52.36,55.82,38.5875,61.420500000000004,51.9195,56.637,38.707,62.9655,52.5785,-0.5295,-0.6655,0.6156285714285714,0.6024,0.0,218.625,218.565,215.31333333333333,215.31333333333333,0.0,0.0
35,0.0,0.0,0.0,1.0,1.0,0.0,0.0,1.0,0.0,100.0,1.0,1.1856,26.0,0.0,0.0,0.0,59.999996,0.0,26.0,26.0,26.0,26.0,-0.09566666666666657,0.25680000000000014,-0.13735,292.099,-0.27375,-0.2313,0.31489999999999996,0.3311,-157.12,215.945,190.2015,0.0,0.0,0.0,0.0,0.07053333333333334,-5.498166666666667,-5.498166666666667,-0.6844,-0.6143333333333334,-0.06466666666666665,-0.918,69.971,-0.045599999999999974,-0.233325,0.6299999999999999,100.0,1.0,1.0,215.76666666666665,0.0,0.0,0.0,0.0,0.0,0.0,0.0,9145.5,0.0,55.0,5.0,251.87,1.0,0.0,0.0,0.0,0.0,0.0,1.0,0.0,1.754999999999999,1.754999999999999,0.0,0.0,1.0,55.0,616.79921,10000.0,85.000001,85.000001,85.000001,85.000001,395.0,0.0,0.0,0.0,1.0,333.33500000000004,52.139,52.139,46.89,46.89,34.0,21.597500000000004,-28.160000000000004,-31.9075,23.427500000000002,0.0,1781.694,0.685,100.0,28.611,28.162,44.084,43.152,0.0,0.0,100.0,0.0,0.0,0.0,0.0,3153.6666666666665,3150.0,4219.888888888889,3932.5,305.55,304.819,314.72475,315.19675,22.15811111111111,20.8267,22.2324,21.5976,314.999998,314.999998,324.999988,324.999988,99.56437142857143,99.51561666666667,99.57781428571428,99.54998571428571,0.518,-0.6766666666666667,-0.669,0.5518000000000001,-0.03833333333332689,-0.038750000000000284,1.5476666666666667,1.565,39.488,31.1665,39.952,35.985,56.274,39.1365,61.3185,52.424,55.826,38.6495,61.46,51.9835,56.641,38.769999999999996,63.0035,52.6445,-0.538,-0.653,0.6180142857142857,0.6009285714285715,0.0,219.01,218.935,215.76666666666665,215.76666666666665,0.0,0.0
36,0.0,0.0,0.0,1.0,1.0,0.0,0.0,1.0,0.0,100.0,1.0,1.1856,26.0,0.0,0.0,0.0,59.999996,0.0,26.0,26.0,26.0,26.0,-0.055777777777777815,0.26350000000000007,0.007125,291.26,-0.2725,-0.21180000000000002,0.34929999999999994,0.3285,-153.55,215.93,190.170125,0.0,0.0,0.0,0.0,0.0726,-5.498166666666667,-5.498166666666667,-0.6698000000000001,0.49133333333333334,-0.09844444444444456,0.211,70.09700000000001,-0.04530000000000001,-0.2021,0.2999999999999998,100.0,1.0,1.0,215.97333333333333,0.0,0.0,0.0,0.0,0.0,0.0,0.0,9154.3,0.0,55.0,5.0,252.32333333333332,0.0,0.0,0.0,0.0,0.0,0.0,1.0,0.0,1.806000000000001,1.806000000000001,0.0,0.0,0.0,55.0,616.79921,10000.0,85.000001,85.000001,85.000001,85.000001,395.0,0.0,0.0,0.0,1.0,166.665,51.575,51.575,46.57,46.57,34.0,23.865000000000002,-26.886000000000003,-33.375,27.675,0.0,1781.645,0.41999999999999993,100.0,29.237000000000002,28.505,44.128,43.152,0.0,0.0,100.0,0.0,0.0,0.0,0.0,3253.0,3129.6,4485.333333333333,4474.8,305.08366666666666,305.10066666666665,314.13925,313.91075,22.168222222222223,20.8336,22.2434,21.6069,314.999998,314.999998,324.999988,324.999988,99.56444285714285,99.51571666666666,99.578,99.55015714285715,0.5466666666666669,-0.6516666666666666,-0.6519999999999999,0.5508,-0.03833333333332689,-0.05375000000000085,1.4456666666666667,1.4809999999999999,39.551,31.21,40.021,36.043,56.287,39.203,61.361,52.4905,55.839,38.7145,61.501999999999995,52.0505,56.652,38.8365,63.0435,52.7125,-0.5700000000000001,-0.6315000000000001,0.6168857142857143,0.5958714285714286,0.0,219.45,219.39499999999998,215.97333333333336,215.97333333333333,0.0,0.0
