,ABS Active,ABS Enabled,AID Allow Tire Blankets,AID Auto Blip,AID Auto Clutch,AID Auto Shift,AID Fuel Rate,AID Ideal Line,AID Mech Damage,AID Stability,AID Tire Wear Rate,Air Density,Air Temp,Ballast,Best Lap Delta,Best Lap Time,Brake Bias,Brake Pos,Brake Temp FL,Brake Temp FR,Brake Temp RL,Brake Temp RR,CG Accel Lateral,CG Accel Longitudinal,CG Accel Vertical,CG Height,Camber FL,Camber FR,Camber RL,Camber RR,Car Coord X,Car Coord Y,Car Coord Z,Car Damage Front,Car Damage Left,Car Damage Rear,Car Damage Right,Car Pos Norm,Caster FL,Caster FR,Chassis Pitch Angle,Chassis Pitch Rate,Chassis Roll Angle,Chassis Roll Rate,Chassis Velocity X,Chassis Velocity Y,Chassis Velocity Z,Chassis Yaw Rate,Clutch Pos,DRS Active,DRS Available,Drive Train Speed,ERS Heat Charging,ERS Is Charging,ERS Max Energy,ERS Power Level,ERS Recovery Level,Engine Brake Setting,Engine Limiter,Engine RPM,Flags,Fuel Level,Gear,Ground Speed,HR Sample Clock,In Pit,KERS Charge,KERS Deployed Energy,KERS Input,KERS Max Energy,LR Sample Clock,Lap Invalidated,Lap Time,Lap Time2,Last Lap Time,Last Sector Time,MR Sample Clock,Max Fuel,Max Power,Max RPM,Max Sus Travel FL,Max Sus Travel FR,Max Sus Travel RL,Max Sus Travel RR,Max Torque,Max Turbo Boost,Num Tires Off Track,Penalties Enabled,Position,Raw Data Sample Rate,Ride Height FL,Ride Height FR,Ride Height RL,Ride Height RR,Road Temp,Self Align Torque FL,Self Align Torque FR,Self Align Torque RL,Self Align Torque RR,Session Lap Count,Session Time Left,Steering Angle,Surface Grip,Suspension Travel FL,Suspension Travel FR,Suspension Travel RL,Suspension Travel RR,TC Active,TC Enabled,Throttle Pos,Tire Dirt Level FL,Tire Dirt Level FR,Tire Dirt Level RL,Tire Dirt Level RR,Tire Load FL,Tire Load FR,Tire Load RL,Tire Load RR,Tire Loaded Radius FL,Tire Loaded Radius FR,Tire Loaded Radius RL,Tire Loaded Radius RR,Tire Pressure FL,Tire Pressure FR,Tire Pressure RL,Tire Pressure RR,Tire Radius FL,Tire Radius FR,Tire Radius RL,Tire Radius RR,Tire Rubber Grip FL,Tire Rubber Grip FR,Tire Rubber Grip RL,Tire Rubber Grip RR,Tire Slip Angle FL,Tire Slip Angle FR,Tire Slip Angle RL,Tire Slip Angle RR,Tire Slip Ratio FL,Tire Slip Ratio FR,Tire Slip Ratio RL,Tire Slip Ratio RR,Tire Temp Core FL,Tire Temp Core FR,Tire Temp Core RL,Tire Temp Core RR,Tire Temp Inner FL,Tire Temp Inner FR,Tire Temp Inner RL,Tire Temp Inner RR,Tire Temp Middle FL,Tire Temp Middle FR,Tire Temp Middle RL,Tire Temp Middle RR,Tire Temp Outer FL,Tire Temp Outer FR,Tire Temp Outer RL,Tire Temp Outer RR,Toe In FL,Toe In FR,Toe In RL,Toe In RR,Turbo Boost,Wheel Angular Speed FL,Wheel Angular Speed FR,Wheel Angular Speed RL,Wheel Angular Speed RR,Wind Direction,Wind Speed
0,0.0,1.0,0.0,1.0,1.0,0.0,0.0,1.0,0.0,100.0,1.0,1.1856,26.0,0.0,0.0,0.0,59.99999,0.0,26.0,26.0,26.0,26.0,-0.03922222222222216,0.30610000000000004,0.17376666666666668,293.991,-2.75,-2.627111111111111,-0.1469,-0.09720000000000001,-275.71,215.615,190.98825,0.0,0.0,0.0,0.0,0.0015666666666666667,-5.498166666666667,-5.498166666666667,-0.5763,1.5026666666666668,-0.0024444444444444713,-0.839,65.568,-0.028200000000000003,-0.23800000000000002,0.08800000000000008,100.0,1.0,1.0,202.36333333333334,0.0,0.0,0.0,0.0,0.0,0.0,0.0,8577.4,0.0,55.0,5.0,236.01666666666665,0.0,0.0,0.0,0.0,0.0,0.0,0.0,0.0,0.0030000000000001137,0.0030000000000001137,0.0,0.0,0.0,55.0,616.79921,10000.0,85.0,85.0,85.0,85.0,395.0,0.0,0.0,0.0,1.0,20.0,51.376,51.376,50.034,50.034,34.0,-29.2625,31.968333333333334,-9.673333333333332,5.7375,0.0,1783.266,0.3949999999999996,100.0,27.025,26.936,39.397999999999996,39.202,0.0,1.0,100.0,0.0,0.0,0.0,0.0,3344.714285714286,4210.6,4062.25,4063.1000000000004,304.714,301.82666666666665,315.0,314.68075,21.7643,20.51,21.7618,21.2938,314.99999,314.99999,324.99998,324.99998,99.55828571428572,99.50708333333333,99.56597142857143,99.54482857142857,0.017749999999999932,-0.07924999999999993,-0.1383333333333333,0.07933333333333326,-0.04833333333333201,-0.06666666666666998,1.5156666666666667,1.5226666666666668,37.027,29.187666666666665,37.010999999999996,34.086,56.07,34.374,58.231,50.798500000000004,54.018,33.5665,57.9925,49.9895,53.209,33.1465,59.107,50.251,-0.05349999999999988,-0.09100000000000019,0.10695,0.11389,0.0,205.45499999999998,205.435,202.36333333333334,202.36333333333334,0.0,0.0
1,0.0,1.0,0.0,1.0,1.0,0.0,0.0,1.0,0.0,100.0,1.0,1.1856,26.0,0.0,0.0,0.0,59.999996,0.0,26.0,26.0,26.0,26.0,-0.0932222222222222,0.33640000000000003,0.11960000000000001,293.06,-2.6523,-2.703555555555556,-0.1342,0.0374,-272.37,215.6175,190.96825,0.0,0.0,0.0,0.0,0.0035333333333333336,-5.498166666666667,-5.498166666666667,-0.4934,-1.1376666666666668,-0.05088888888888876,-0.1160000000000001,65.727,-0.0267,-0.19817500000000002,0.7379999999999995,100.0,1.0,1.0,202.29000000000002,0.0,0.0,0.0,0.0,0.0,0.0,0.0,8574.3,0.0,55.0,5.0,236.58666666666667,1.0,0.0,0.0,0.0,0.0,0.0,0.0,0.0,0.053999999999998494,0.053999999999998494,0.0,0.0,1.0,55.0,616.79921,10000.0,85.000001,85.000001,85.000001,85.000001,395.0,0.0,0.0,0.0,1.0,333.33500000000004,54.275999999999996,54.275999999999996,48.492,48.492,34.0,-23.4025,16.89333333333333,-12.806666666666672,3.96,0.0,1783.216,0.4349999999999987,100.0,27.46,27.069,41.259,41.516999999999996,0.0,1.0,100.0,0.0,0.0,0.0,0.0,2847.5714285714284,2459.7,4802.25,5338.5,306.0945,306.9513333333333,313.016,311.30825,21.7741,20.5151,21.7728,21.3031,314.999998,314.999998,324.999988,324.999988,99.5583,99.5071,99.56611428571429,99.54498571428572,0.02300000000000013,-0.10899999999999999,-0.14700000000000002,0.05966666666666676,-0.03166666666666629,-0.05666666666667197,1.252,1.303,37.088,29.21933333333333,37.08,34.1445,56.054,34.413,58.2745,50.864,54.001999999999995,33.6025,58.0345,50.0545,53.193,33.181,59.1475,50.317,-0.038999999999999924,-0.1160000000000001,0.10452,0.112045,0.0,205.925,205.85500000000002,202.29000000000002,202.29000000000002,0.0,0.0
2,0.0,1.0,0.0,1.0,1.0,0.0,0.0,1.0,0.0,100.0,1.0,1.1856,26.0,0.0,0.0,0.0,59.999996,0.0,26.0,26.0,26.0,26.0,-0.07933333333333337,0.2815000000000001,-0.1039,294.556,-2.64,-2.6575555555555557,-0.12035000000000001,-0.1014,-269.01,215.6175,190.9495,0.0,0.0,0.0,0.0,0.0054666666666666665,-5.498166666666667,-5.498166666666667,-0.5919,0.41000000000000003,-0.010777777777777775,1.6290000000000004,65.862,-0.0422,-0.291875,1.0779999999999994,100.0,1.0,1.0,203.65666666666667,0.0,0.0,0.0,0.0,0.0,0.0,0.0,8632.3,0.0,55.0,5.0,237.07666666666665,0.0,0.0,0.0,0.0,0.0,0.0,0.0,0.0,0.10500000000000043,0.10500000000000043,0.0,0.0,0.0,55.0,616.79921,10000.0,85.000001,85.000001,85.000001,85.000001,395.0,0.0,0.0,0.0,1.0,166.665,52.139,52.139,51.819,51.819,34.0,-28.802500000000002,21.52,-9.63666666666667,2.79,0.0,1783.166,0.4499999999999993,100.0,27.957,27.344,40.868,40.669,0.0,1.0,100.0,0.0,0.0,0.0,0.0,3360.0,3088.5,3495.875,3374.0,304.5905,304.79133333333334,316.3175,316.5015,21.7841,20.5202,21.7832,21.311700000000002,314.999998,314.999998,324.999988,324.999988,99.5583,99.50711666666666,99.56625714285714,99.54511428571429,0.010250000000000092,-0.11599999999999999,-0.1858333333333334,0.040000000000000036,-0.05833333333333002,-0.046666666666666856,1.697,1.7496666666666667,37.150999999999996,29.251333333333335,37.144999999999996,34.198,56.041,34.4525,58.3065,50.912,53.989000000000004,33.638999999999996,58.065,50.1025,53.179,33.216,59.176,50.366,-0.04400000000000004,-0.10999999999999988,0.10527500000000001,0.10944000000000001,0.0,206.35000000000002,206.25,203.65666666666667,203.65666666666667,0.0,0.0
3,0.0,1.0,0.0,1.0,1.0,0.0,0.0,1.0,0.0,100.0,1.0,1.1856,26.0,0.0,0.0,0.0,59.999996,0.0,26.0,26.0,26.0,26.0,-0.08177777777777784,0.3085,-0.025266666666666666,293.701,-2.6599,-2.687222222222222,-0.10450000000000001,-0.0741,-265.85,215.6175,190.93025,0.0,0.0,0.0,0.0,0.0073,-5.498166666666667,-5.498166666666667,-0.5191,0.722,-0.0032222222222220154,-2.2640000000000002,66.012,-0.0526,-0.20752500000000002,0.7800000000000002,100.0,1.0,1.0,203.48666666666668,0.0,0.0,0.0,0.0,0.0,0.0,0.0,8625.1,0.0,55.0,5.0,237.61,1.0,0.0,0.0,0.0,0.0,0.0,0.0,0.0,0.1529999999999987,0.1529999999999987,0.0,0.0,1.0,55.0,616.79921,10000.0,85.000001,85.000001,85.000001,85.000001,395.0,0.0,0.0,0.0,1.0,333.33500000000004,53.421,53.421,48.721000000000004,48.721000000000004,34.0,-24.544999999999998,19.663333333333334,-12.130000000000003,4.53,0.0,1783.116,0.6500000000000021,100.0,27.661,27.439,40.927,40.957,0.0,1.0,100.0,0.0,0.0,0.0,0.0,2904.4285714285716,2846.1,4529.0,4278.9,306.091,305.5586666666667,313.8325,314.0775,21.7932,20.525199999999998,21.7931,21.3202,314.999998,314.999998,324.999988,324.999988,99.55831428571429,99.50713333333333,99.56638571428572,99.54524285714285,0.00374999999999992,-0.12,-0.16366666666666663,0.05699999999999994,-0.03499999999999659,-0.04333333333332945,1.413,1.445,37.208,29.282666666666664,37.207,34.2515,56.022999999999996,34.4955,58.343,50.974000000000004,53.972,33.6785,58.0995,50.164,53.162,33.254,59.209,50.4285,-0.03349999999999986,-0.11299999999999999,0.10321500000000002,0.11134000000000001,0.0,206.82,206.745,203.48666666666668,203.48666666666668,0.0,0.0
4,0.0,1.0,0.0,1.0,1.0,0.0,0.0,1.0,0.0,100.0,1.0,1.1856,26.0,0.0,0.0,0.0,59.999996,0.0,26.0,26.0,26.0,26.0,-0.10211111111111104,0.28710000000000013,-0.028233333333333333,294.022,-2.6572,-2.7590000000000003,-0.0529,-0.1831,-262.47,215.6125,190.910875,0.0,0.0,0.0,0.0,0.009266666666666668,-5.498166666666667,-5.498166666666667,-0.5469,-0.9,-0.046555555555555905,0.33899999999999997,66.157,-0.0656,-0.253425,1.2020000000000008,100.0,1.0,1.0,204.10666666666668,0.0,0.0,0.0,0.0,0.0,0.0,0.0,8651.3,0.0,55.0,5.0,238.13666666666666,0.0,0.0,0.0,0.0,0.0,0.0,0.0,0.0,0.20400000000000063,0.20400000000000063,0.0,0.0,0.0,55.0,616.79921,10000.0,85.000001,85.000001,85.000001,85.000001,395.0,0.0,0.0,0.0,1.0,333.33500000000004,53.223,53.223,49.713,49.713,34.0,-27.255,20.53333333333333,-10.20666666666667,4.59,0.0,1783.066,0.5800000000000018,100.0,27.681,26.817,41.815,40.971000000000004,0.0,1.0,100.0,0.0,0.0,0.0,0.0,3106.142857142857,2963.1,4070.75,3912.0,305.305,305.4596666666667,314.858,315.10225,21.803,20.5303,21.804,21.3292,314.999998,314.999998,324.999988,324.999988,99.55831428571429,99.50713333333333,99.56652857142858,99.54538571428571,-0.007750000000000035,-0.13024999999999998,-0.17099999999999993,0.040000000000000036,-0.04833333333333201,-0.060000000000002274,1.508,1.5303333333333333,37.269,29.314333333333334,37.275,34.3075,56.007999999999996,34.533500000000004,58.3795,51.0275,53.958,33.713499999999996,58.135,50.217,53.147,33.287,59.243,50.4825,-0.026499999999999968,-0.11750000000000016,0.09744000000000001,0.10980000000000001,0.0,207.25,207.155,204.10666666666668,204.10666666666668,0.0,0.0
5,0.0,1.0,0.0,1.0,1.0,0.0,0.0,1.0,0.0,100.0,1.0,1.1856,26.0,0.0,0.0,0.0,59.999996,0.0,26.0,26.0,26.0,26.0,-0.0982222222222221,0.29069999999999996,-0.04323333333333333,294.342,-2.6678,-2.7183333333333333,-0.1024,-0.1819,-259.1,215.60750000000002,190.891,0.0,0.0,0.0,0.0,0.011233333333333333,-5.498166666666667,-5.498166666666667,-0.5577,0.47500000000000003,-0.04588888888888887,-0.524,66.303,-0.0848,-0.244975,1.178,100.0,1.0,1.0,204.66,0.0,0.0,0.0,0.0,0.0,0.0,0.0,8674.7,0.0,55.0,5.0,238.66,1.0,0.0,0.0,0.0,0.0,0.0,0.0,0.0,0.254999999999999,0.254999999999999,0.0,0.0,1.0,55.0,616.79921,10000.0,85.000001,85.000001,85.000001,85.000001,395.0,0.0,0.0,0.0,1.0,166.665,53.284,53.284,50.354,50.354,34.0,-28.0675,19.73,-12.47333333333333,2.9899999999999998,0.0,1783.016,0.3249999999999993,100.0,27.555,26.9,41.373,40.491,0.0,1.0,100.0,0.0,0.0,0.0,0.0,3186.4285714285716,2857.4,3968.0,3884.2,305.174,305.58733333333333,315.2135,315.198,21.8129,20.5355,21.8145,21.338,314.999998,314.999998,324.999988,324.999988,99.55831428571429,99.50715,99.56667142857142,99.54551428571429,-0.008499999999999952,-0.12575000000000003,-0.20966666666666656,0.010833333333333472,-0.05833333333333002,-0.02833333333332888,1.5573333333333332,1.5886666666666667,37.331,29.346666666666664,37.34,34.3625,55.992999999999995,34.574,58.4135,51.081,53.944,33.751,58.168,50.2705,53.132,33.323499999999996,59.2745,50.536500000000004,-0.050999999999999934,-0.09549999999999992,0.10849500000000001,0.11167,0.0,207.72500000000002,207.61,204.66,204.66,0.0,0.0
6,0.0,1.0,0.0,1.0,1.0,0.0,0.0,1.0,0.0,100.0,1.0,1.1856,26.0,0.0,0.0,0.0,59.999996,0.0,26.0,26.0,26.0,26.0,-0.11477777777777776,0.29800000000000004,0.02,294.098,-2.6541,-2.7854444444444444,-0.1032,-0.15510000000000002,-255.91,215.60000000000002,190.871625,0.0,0.0,0.0,0.0,0.0131,-5.498166666666667,-5.498166666666667,-0.5422,-0.12233333333333334,-0.058222222222222175,-0.831,66.443,-0.0862,-0.22162500000000002,0.8860000000000001,100.0,1.0,1.0,204.90333333333334,0.0,0.0,0.0,0.0,0.0,0.0,0.0,8685.1,0.0,55.0,5.0,239.16666666666669,0.0,0.0,0.0,0.0,0.0,0.0,0.0,0.0,0.3030000000000008,0.3030000000000008,0.0,0.0,0.0,55.0,616.79921,10000.0,85.000001,85.000001,85.000001,85.000001,395.0,0.0,0.0,0.0,1.0,333.33500000000004,53.726,53.726,49.454,49.454,34.0,-28.145,19.048333333333332,-13.630000000000003,3.3225,0.0,1782.966,0.17999999999999972,100.0,27.275,26.576999999999998,41.522,40.593,0.0,1.0,100.0,0.0,0.0,0.0,0.0,3189.285714285714,2780.4,4326.625,4070.1000000000004,305.257,305.8233333333333,314.2935,314.6895,21.8221,20.5402,21.8245,21.3464,314.999998,314.999998,324.999988,324.999988,99.55831428571429,99.50716666666666,99.5668,99.54564285714285,-0.015499999999999958,-0.14249999999999996,-0.20166666666666666,0.01966666666666672,-0.060000000000002274,-0.045000000000001705,1.4673333333333334,1.5,37.388,29.376333333333335,37.403,34.415,55.977999999999994,34.6115,58.4495,51.135,53.929,33.7855,58.2025,50.3245,53.116,33.356,59.307,50.591,-0.056499999999999995,-0.09350000000000014,0.11116000000000001,0.110655,0.0,208.16500000000002,208.065,204.90333333333334,204.90333333333334,0.0,0.0
7,0.0,1.0,0.0,1.0,1.0,0.0,0.0,1.0,0.0,100.0,1.0,1.1856,26.0,0.0,0.0,0.0,59.999996,0.0,26.0,26.0,26.0,26.0,-0.08466666666666656,0.28780000000000006,-0.005733333333333334,294.037,-2.6159,-2.7825555555555557,-0.15330000000000002,-0.2034,-252.52,215.5875,190.851,0.0,0.0,0.0,0.0,0.015066666666666666,-5.498166666666667,-5.498166666666667,-0.5523,0.06733333333333333,-0.045444444444444176,1.0620000000000003,66.588,-0.08360000000000001,-0.2389,0.6299999999999999,100.0,1.0,1.0,205.43,0.0,0.0,0.0,0.0,0.0,0.0,0.0,8707.4,0.0,55.0,5.0,239.68666666666667,1.0,0.0,0.0,0.0,0.0,0.0,0.0,0.0,0.3539999999999992,0.3539999999999992,0.0,0.0,1.0,55.0,616.79921,10000.0,85.000001,85.000001,85.000001,85.000001,395.0,0.0,0.0,0.0,1.0,333.33500000000004,53.207,53.207,49.881,49.881,34.0,-25.72,22.049999999999997,-12.509999999999998,4.605,0.0,1782.916,-0.15500000000000114,100.0,27.793,26.735,41.675,40.638,0.0,1.0,100.0,0.0,0.0,0.0,0.0,3103.0,2966.0,4063.125,4001.6000000000004,305.2785,305.387,314.92375,314.90925,21.832,20.5454,21.8352,21.3554,314.999998,314.999998,324.999988,324.999988,99.55832857142858,99.50718333333333,99.56694285714286,99.54577142857143,0.02124999999999999,-0.10024999999999995,-0.1871666666666666,0.032666666666666844,-0.03499999999999659,-0.03833333333332689,1.502,1.5313333333333332,37.45,29.409,37.47,34.471000000000004,55.964,34.6525,58.486,51.192,53.915,33.823,58.2375,50.3805,53.102000000000004,33.391999999999996,59.3405,50.647999999999996,-0.08599999999999985,-0.06199999999999983,0.10266000000000002,0.11807500000000001,0.0,208.59,208.51999999999998,205.43,205.43,0.0,0.0
8,0.0,1.0,0.0,1.0,1.0,0.0,0.0,1.0,0.0,100.0,1.0,1.1856,26.0,0.0,0.0,0.0,59.999996,0.0,26.0,26.0,26.0,26.0,-0.06599999999999995,0.29280000000000017,-0.0173,294.052,-2.6928,-2.7134444444444443,-0.1322,-0.19410000000000002,-248.92000000000002,215.5725,190.829,0.0,0.0,0.0,0.0,0.017166666666666667,-5.498166666666667,-5.498166666666667,-0.5558000000000001,-0.16766666666666666,-0.034222222222222154,0.42300000000000004,66.742,-0.0665,-0.24035,0.2079999999999993,100.0,1.0,1.0,205.89,0.0,0.0,0.0,0.0,0.0,0.0,0.0,8726.9,0.0,55.0,5.0,240.24333333333334,0.0,0.0,0.0,0.0,0.0,0.0,0.0,0.0,0.40800000000000125,0.40800000000000125,0.0,0.0,0.0,55.0,616.79921,10000.0,85.000001,85.000001,85.000001,85.000001,395.0,0.0,0.0,0.0,1.0,166.665,53.329,53.329,49.53,49.53,34.0,-24.9725,22.6,-10.57333333333333,5.405,0.0,1782.863,-0.23499999999999943,100.0,27.551,26.887,41.71,40.809,0.0,1.0,100.0,0.0,0.0,0.0,0.0,3023.5714285714284,3046.8,4026.5,4022.1000000000004,305.605,305.1786666666667,315.0065,314.85425,21.8423,20.551,21.8465,21.3649,314.999998,314.999998,324.999988,324.999988,99.55832857142858,99.50718333333333,99.56708571428571,99.54592857142858,0.03475000000000006,-0.08824999999999994,-0.15949999999999998,0.0491666666666668,-0.041666666666671404,-0.054999999999999716,1.5123333333333333,1.5236666666666667,37.513999999999996,29.443666666666665,37.54,34.531,55.947,34.6945,58.524,51.2525,53.899,33.8615,58.274,50.4405,53.085,33.429,59.3755,50.709,-0.09050000000000002,-0.053999999999999826,0.103785,0.10887000000000001,0.0,209.04000000000002,209.01999999999998,205.89,205.89,0.0,0.0
9,0.0,1.0,0.0,1.0,1.0,0.0,0.0,1.0,0.0,100.0,1.0,1.1856,26.0,0.0,0.0,0.0,59.999996,0.0,26.0,26.0,26.0,26.0,-0.04688888888888887,0.2862,0.014666666666666666,293.747,-2.6186,-2.724555555555556,-0.13405,-0.1495,-245.71,215.5575,190.80925,0.0,0.0,0.0,0.0,0.019033333333333336,-5.498166666666667,-5.498166666666667,-0.5529000000000001,0.2796666666666667,-0.04066666666666663,0.7709999999999999,66.878,-0.0489,-0.23367500000000002,-0.04999999999999982,100.0,1.0,1.0,206.29000000000002,0.0,0.0,0.0,0.0,0.0,0.0,0.0,8743.9,0.0,55.0,5.0,240.73333333333335,1.0,0.0,0.0,0.0,0.0,0.0,0.0,0.0,0.4559999999999995,0.4559999999999995,0.0,0.0,1.0,55.0,616.79921,10000.0,85.000001,85.000001,85.000001,85.000001,395.0,0.0,0.0,0.0,1.0,166.665,52.902,52.902,49.698,49.698,34.0,-24.61,23.548333333333332,-9.39,6.0525,0.0,1782.815,-0.3550000000000004,100.0,27.83,27.012999999999998,41.649,40.862,0.0,1.0,100.0,0.0,0.0,0.0,0.0,3135.0,3059.1,4063.25,4150.3,305.2155,305.13933333333335,314.95225,314.58625,21.8515,20.5559,21.8564,21.3734,314.999998,314.999998,324.999988,324.999988,99.55832857142858,99.5072,99.56721428571429,99.54605714285714,0.05425000000000013,-0.07025000000000003,-0.13516666666666666,0.06833333333333336,-0.04999999999999716,-0.046666666666666856,1.5026666666666668,1.4926666666666668,37.572,29.474666666666664,37.602999999999994,34.584,55.934,34.7315,58.5575,51.3055,53.887,33.8955,58.306,50.4935,53.072,33.4615,59.4055,50.7625,-0.10499999999999998,-0.04300000000000015,0.098955,0.10508,0.0,209.47,209.45,206.29000000000002,206.29000000000002,0.0,0.0
10,0.0,1.0,0.0,1.0,1.0,0.0,0.0,1.0,0.0,100.0,1.0,1.1856,26.0,0.0,0.0,0.0,59.999996,0.0,26.0,26.0,26.0,26.0,-0.02488888888888885,0.29800000000000004,0.014666666666666666,293.671,-2.6728,-2.703444444444444,-0.09625,-0.13490000000000002,-242.5,215.54250000000002,190.78975,0.0,0.0,0.0,0.0,0.020900000000000002,-5.498166666666667,-5.498166666666667,-0.5463,-0.22566666666666665,-0.015222222222222026,1.6719999999999997,67.015,-0.029,-0.23240000000000002,-0.2160000000000002,100.0,1.0,1.0,206.62333333333333,0.0,0.0,0.0,0.0,0.0,0.0,0.0,8758.0,0.0,55.0,5.0,241.22666666666666,0.0,0.0,0.0,0.0,0.0,0.0,1.0,0.0,0.5040000000000013,0.5040000000000013,0.0,0.0,0.0,55.0,616.79921,10000.0,85.000001,85.000001,85.000001,85.000001,395.0,0.0,0.0,0.0,1.0,333.33500000000004,53.238,53.238,49.271,49.271,34.0,-23.1475,23.27166666666667,-8.686666666666667,7.1225000000000005,0.0,1782.767,-0.379999999999999,100.0,27.79,26.981,41.795,41.205,0.0,1.0,100.0,0.0,0.0,0.0,0.0,2977.142857142857,3021.5,4119.5,4277.9,305.681,305.299,314.7475,314.27425,21.860599999999998,20.5609,21.8665,21.381999999999998,314.999998,314.999998,324.999988,324.999988,99.55834285714286,99.50721666666666,99.56735714285715,99.54618571428571,0.06675000000000009,-0.06299999999999994,-0.1286666666666666,0.08616666666666672,-0.03499999999999659,-0.05833333333333002,1.4823333333333333,1.4666666666666668,37.629000000000005,29.505333333333333,37.665,34.6375,55.921,34.7675,58.591499999999996,51.3605,53.875,33.929,58.339,50.548,53.059,33.493,59.437,50.818,-0.11050000000000004,-0.045500000000000096,0.10554500000000001,0.108215,0.0,209.87,209.88,206.62333333333333,206.62333333333333,0.0,0.0
11,0.0,1.0,0.0,1.0,1.0,0.0,0.0,1.0,0.0,100.0,1.0,1.1856,26.0,0.0,0.0,0.0,59.999996,0.0,26.0,26.0,26.0,26.0,0.002555555555555644,0.28500000000000014,-0.0546,293.991,-2.6946,-2.6862222222222223,-0.15645,-0.1037,-239.07999999999998,215.5275,190.76875,0.0,0.0,0.0,0.0,0.022600000000000002,-5.498166666666667,-5.498166666666667,-0.5693,-0.2886666666666667,0.010888888888888948,-0.3660000000000001,67.157,-0.0119,-0.247125,-0.3039999999999994,100.0,1.0,1.0,207.18666666666667,0.0,0.0,0.0,0.0,0.0,0.0,0.0,8781.8,0.0,55.0,5.0,241.73666666666668,1.0,0.0,0.0,0.0,0.0,0.0,1.0,0.0,0.5549999999999997,0.5549999999999997,0.0,0.0,1.0,55.0,616.79921,10000.0,85.000001,85.000001,85.000001,85.000001,395.0,0.0,0.0,0.0,1.0,333.33500000000004,53.162,53.162,49.866,49.866,34.0,-24.375,23.813333333333333,-8.42666666666667,6.665,0.0,1782.715,-0.379999999999999,100.0,27.289,27.195,41.425,41.348,0.0,1.0,100.0,0.0,0.0,0.0,0.0,3113.142857142857,3034.0,3916.25,4033.4,305.4895,305.0613333333333,315.332,314.81275,21.8702,20.5662,21.877,21.3911,314.999998,314.999998,324.999988,324.999988,99.55835714285715,99.50721666666666,99.56748571428571,99.54632857142857,0.06550000000000011,-0.054749999999999965,-0.12,0.09566666666666679,-0.05666666666667197,-0.04999999999999716,1.5476666666666667,1.5276666666666667,37.689,29.538666666666664,37.730999999999995,34.694,55.907,34.8055,58.6245,51.417500000000004,53.861000000000004,33.964,58.3705,50.605000000000004,53.044,33.527,59.467,50.876,-0.10349999999999993,-0.04300000000000015,0.10871000000000001,0.10419,0.0,210.3,210.31,207.18666666666667,207.18666666666667,0.0,0.0
12,0.0,1.0,0.0,1.0,1.0,0.0,0.0,1.0,0.0,100.0,1.0,1.1856,26.0,0.0,0.0,0.0,59.999996,0.0,26.0,26.0,26.0,26.0,0.012111111111111184,0.2956000000000001,0.0064,293.64,-2.7236,-2.678777777777778,-0.13605,-0.1223,-235.85,215.51,190.74825,0.0,0.0,0.0,0.0,0.025466666666666665,-5.498166666666667,-5.498166666666667,-0.5615,0.39566666666666667,0.011333333333333195,-0.6040000000000001,67.292,0.0035,-0.22767500000000002,-0.3360000000000003,100.0,1.0,1.0,207.52666666666667,0.0,0.0,0.0,0.0,0.0,0.0,0.0,8796.2,0.0,55.0,5.0,242.22,0.0,0.0,0.0,0.0,0.0,0.0,1.0,0.0,0.602999999999998,0.602999999999998,0.0,0.0,0.0,55.0,616.79921,10000.0,85.000001,85.000001,85.000001,85.000001,395.0,0.0,0.0,0.0,1.0,333.33500000000004,52.933,52.933,49.271,49.271,34.0,-25.1225,23.501666666666665,-7.903333333333329,8.2875,0.0,1782.667,0.10999999999999943,100.0,27.391,27.494,41.269,41.343,0.0,1.0,100.0,0.0,0.0,0.0,0.0,3119.0,3070.5,4152.25,4170.1,305.4505,304.93,314.791,314.5005,21.8792,20.5713,21.8869,21.3996,314.999998,314.999998,324.999988,324.999988,99.55835714285715,99.50723333333333,99.56761428571428,99.54645714285714,0.05600000000000005,-0.0695,-0.10399999999999998,0.11433333333333318,-0.046666666666666856,-0.04833333333333201,1.5016666666666667,1.5030000000000001,37.745000000000005,29.570666666666668,37.793,34.747,55.894999999999996,34.842,58.656,51.471000000000004,53.849999999999994,33.9975,58.400999999999996,50.658500000000004,53.032,33.559,59.4955,50.93,-0.0814999999999999,-0.0714999999999999,0.10974500000000001,0.110295,0.0,210.72500000000002,210.765,207.52666666666667,207.52666666666667,0.0,0.0
13,0.0,1.0,0.0,1.0,1.0,0.0,0.0,1.0,0.0,100.0,1.0,1.1856,26.0,0.0,0.0,0.0,59.999996,0.0,26.0,26.0,26.0,26.0,0.03744444444444439,0.29100000000000015,0.011566666666666668,293.32,-2.6971,-2.688777777777778,-0.16715000000000002,-0.131,-232.21,215.4925,190.72525,0.0,0.0,0.0,0.0,0.02686666666666667,-5.498166666666667,-5.498166666666667,-0.5571,-0.29333333333333333,0.01011111111111096,-0.45500000000000007,67.444,0.010100000000000001,-0.23722500000000002,-0.37600000000000033,100.0,1.0,1.0,207.91333333333333,0.0,0.0,0.0,0.0,0.0,0.0,0.0,8812.7,0.0,55.0,5.0,242.76999999999998,1.0,0.0,0.0,0.0,0.0,0.0,1.0,0.0,0.657,0.657,0.0,0.0,1.0,55.0,616.79921,10000.0,85.000001,85.000001,85.000001,85.000001,395.0,0.0,0.0,0.0,1.0,166.665,52.765,52.765,49.042,49.042,34.0,-22.93,25.055,-8.153333333333329,8.75,0.0,1782.614,-0.5150000000000006,100.0,27.598,27.658,41.609,41.825,0.0,1.0,100.0,0.0,0.0,0.0,0.0,3124.5714285714284,3041.5,4157.5,4256.6,305.4415,305.0133333333333,314.738,314.2335,21.8893,20.5771,21.8982,21.4093,314.999998,314.999998,324.999988,324.999988,99.55837142857143,99.50723333333333,99.56777142857143,99.54661428571428,0.10250000000000004,-0.027249999999999996,-0.09899999999999998,0.11499999999999999,-0.060000000000002274,-0.04333333333332945,1.4693333333333334,1.457,37.808,29.606666666666666,37.864000000000004,34.8085,55.882999999999996,34.8825,58.694,51.534,53.838,34.035,58.4375,50.721000000000004,53.019,33.595,59.53,50.994,-0.11999999999999988,-0.03200000000000003,0.10976500000000002,0.10573,0.0,211.195,211.2,207.91333333333333,207.91333333333333,0.0,0.0
14,0.0,1.0,0.0,1.0,1.0,0.0,0.0,1.0,0.0,100.0,1.0,1.1856,26.0,0.0,0.0,0.0,59.999996,0.0,26.0,26.0,26.0,26.0,0.048222222222222166,0.2742,-0.024133333333333336,293.549,-2.7133,-2.6973333333333334,-0.16155,-0.1218,-228.97,215.47750000000002,190.705125,0.0,0.0,0.0,0.0,0.02876666666666667,-5.498166666666667,-5.498166666666667,-0.5694,-0.04766666666666666,0.025666666666666726,-0.3809999999999998,67.575,0.018000000000000002,-0.248475,-0.43599999999999994,100.0,1.0,1.0,208.42000000000002,0.0,0.0,0.0,0.0,0.0,0.0,0.0,8834.2,0.0,55.0,5.0,243.24333333333334,0.0,0.0,0.0,0.0,0.0,0.0,1.0,0.0,0.7049999999999983,0.7049999999999983,0.0,0.0,0.0,55.0,616.79921,10000.0,85.000001,85.000001,85.000001,85.000001,395.0,0.0,0.0,0.0,1.0,166.665,52.75,52.75,49.408,49.408,34.0,-22.7625,25.053333333333335,-7.196666666666665,8.6575,0.0,1782.566,-0.5399999999999991,100.0,27.589,27.81,41.478,41.853,0.0,1.0,100.0,0.0,0.0,0.0,0.0,3087.0,3043.0,3998.375,4099.3,305.556,304.9603333333333,315.14025,314.65125,21.8984,20.5822,21.9081,21.4179,314.999998,314.999998,324.999988,324.999988,99.55838571428572,99.50723333333333,99.5679,99.54674285714286,0.10250000000000004,-0.03125,-0.09099999999999997,0.12383333333333324,-0.04999999999999716,-0.05333333333332746,1.5156666666666667,1.4936666666666667,37.864999999999995,29.639,37.926,34.862,55.872,34.9185,58.7255,51.588499999999996,53.827,34.068,58.467,50.775,53.007,33.6265,59.5575,51.049,-0.11499999999999999,-0.03699999999999992,0.10949500000000001,0.10822000000000001,0.0,211.59,211.625,208.42000000000002,208.42000000000002,0.0,0.0
15,0.0,1.0,0.0,1.0,1.0,0.0,0.0,1.0,0.0,100.0,1.0,1.1856,26.0,0.0,0.0,0.0,59.999996,0.0,26.0,26.0,26.0,26.0,0.06077777777777782,0.2774000000000001,-0.013866666666666666,293.442,-2.7052,-2.673,-0.1719,-0.1386,-225.72,215.465,190.684625,0.0,0.0,0.0,0.0,0.030633333333333332,-5.498166666666667,-5.498166666666667,-0.5614,0.22066666666666665,0.03555555555555556,-0.7850000000000001,67.708,0.0264,-0.23417500000000002,-0.4820000000000002,100.0,1.0,1.0,208.78,0.0,0.0,0.0,0.0,0.0,0.0,0.0,8849.5,0.0,55.0,5.0,243.72,1.0,0.0,0.0,0.0,0.0,0.0,1.0,0.0,0.7530000000000001,0.7530000000000001,0.0,0.0,1.0,55.0,616.79921,10000.0,85.000001,85.000001,85.000001,85.000001,395.0,0.0,0.0,0.0,1.0,333.33500000000004,52.765,52.765,49.164,49.164,34.0,-22.1725,24.831666666666667,-6.833333333333329,10.1075,0.0,1782.516,-0.39000000000000057,100.0,27.578,27.894,41.367000000000004,41.949,0.0,1.0,100.0,0.0,0.0,0.0,0.0,3055.142857142857,3019.9,4097.5,4171.0,305.6545,305.0126666666667,314.9195,314.43125,21.9074,20.5874,21.918,21.4265,314.999998,314.999998,324.999988,324.999988,99.5584,99.50723333333333,99.56802857142857,99.54687142857144,0.1080000000000001,-0.02674999999999994,-0.07733333333333337,0.14083333333333337,-0.04999999999999716,-0.04833333333333201,1.4873333333333334,1.4776666666666667,37.921,29.671333333333333,37.988,34.9155,55.861000000000004,34.954499999999996,58.7565,51.6435,53.816,34.1015,58.497,50.83,52.995999999999995,33.658500000000004,59.585499999999996,51.1045,-0.11050000000000004,-0.04400000000000004,0.106325,0.11191500000000001,0.0,212.01999999999998,212.055,208.78,208.78,0.0,0.0
16,0.0,1.0,0.0,1.0,1.0,0.0,0.0,1.0,0.0,100.0,1.0,1.1856,26.0,0.0,0.0,0.0,59.999996,0.0,26.0,26.0,26.0,26.0,0.04411111111111121,0.2711000000000001,0.0027333333333333333,293.289,-2.7648,-2.623333333333333,-0.15030000000000002,-0.136,-222.26999999999998,215.4525,190.662625,0.0,0.0,0.0,0.0,0.03266666666666667,-5.498166666666667,-5.498166666666667,-0.5726,-0.431,0.03066666666666662,0.246,67.848,0.026500000000000003,-0.2464,-0.35599999999999987,100.0,1.0,1.0,209.2,0.0,0.0,0.0,0.0,0.0,0.0,0.0,8867.3,0.0,55.0,5.0,244.22666666666666,0.0,0.0,0.0,0.0,0.0,0.0,1.0,0.0,0.8039999999999985,0.8039999999999985,0.0,0.0,0.0,55.0,616.79921,10000.0,85.000001,85.000001,85.000001,85.000001,395.0,0.0,0.0,0.0,1.0,166.665,52.49,52.49,48.92,48.92,34.0,-22.7725,26.981666666666666,-6.073333333333331,9.7475,0.0,1782.467,-0.3999999999999986,100.0,27.566,27.809,41.673,42.021,0.0,1.0,100.0,0.0,0.0,0.0,0.0,3069.714285714286,3253.8,4030.125,4122.5,305.493,304.53133333333335,314.988,314.6065,21.9168,20.5929,21.9287,21.4357,314.999998,314.999998,324.999988,324.999988,99.55841428571429,99.50723333333333,99.56817142857143,99.54701428571428,0.11325000000000007,-0.01100000000000001,-0.0708333333333333,0.13800000000000012,-0.04333333333332945,-0.04999999999999716,1.482,1.4736666666666667,37.980000000000004,29.705666666666666,38.054,34.973,55.847,34.9925,58.791,51.702,53.804,34.137,58.53,50.8885,52.982,33.692499999999995,59.617,51.164,-0.10450000000000004,-0.04700000000000015,0.11096500000000001,0.10253500000000002,0.0,212.41500000000002,212.45,209.2,209.2,0.0,0.0
17,0.0,1.0,0.0,1.0,1.0,0.0,0.0,1.0,0.0,100.0,1.0,1.1856,26.0,0.0,0.0,0.0,59.999996,0.0,26.0,26.0,26.0,26.0,0.028888888888888964,0.2802,0.034633333333333335,292.938,-2.6362,-2.603888888888889,-0.19045,-0.0999,-218.8,215.44,190.64025,0.0,0.0,0.0,0.0,0.03466666666666667,-5.498166666666667,-5.498166666666667,-0.5689000000000001,0.223,0.006333333333333302,-1.012,67.988,0.025400000000000002,-0.2373,-0.2699999999999996,100.0,1.0,1.0,209.57333333333332,0.0,0.0,0.0,0.0,0.0,0.0,0.0,8883.1,0.0,55.0,5.0,244.73000000000002,1.0,0.0,0.0,0.0,0.0,0.0,1.0,0.0,0.8550000000000004,0.8550000000000004,0.0,0.0,1.0,55.0,616.79921,10000.0,85.000001,85.000001,85.000001,85.000001,395.0,0.0,0.0,0.0,1.0,333.33500000000004,52.261,52.261,48.599000000000004,48.599000000000004,34.0,-22.98,25.18,-7.576666666666668,8.9925,0.0,1782.414,-0.28999999999999915,100.0,27.777,28.101,41.592,42.092,0.0,1.0,100.0,0.0,0.0,0.0,0.0,3179.285714285714,3132.5,4332.875,4216.4,305.195,304.72066666666666,314.429,314.399,21.9264,20.5985,21.9392,21.4448,314.999998,314.999998,324.999988,324.999988,99.55842857142858,99.50725,99.56831428571428,99.54717142857143,0.10149999999999992,-0.02749999999999997,-0.07699999999999996,0.12966666666666682,-0.045000000000001705,-0.046666666666666856,1.478,1.4693333333333334,38.04,29.740666666666666,38.120000000000005,35.03,55.836,35.034,58.826499999999996,51.7625,53.792,34.175,58.564,50.949,52.969,33.729,59.649,51.2255,-0.10199999999999987,-0.04999999999999982,0.09829500000000001,0.11041000000000001,0.0,212.9,212.89499999999998,209.57333333333332,209.57333333333332,0.0,0.0
18,0.0,1.0,0.0,1.0,1.0,0.0,0.0,1.0,0.0,100.0,1.0,1.1856,26.0,0.0,0.0,0.0,59.999996,0.0,26.0,26.0,26.0,26.0,0.04155555555555557,0.2744,0.03866666666666667,292.953,-2.6541,-2.733888888888889,-0.09355000000000001,-0.1652,-215.32999999999998,215.4275,190.617875,0.0,0.0,0.0,0.0,0.03666666666666667,-5.498166666666667,-5.498166666666667,-0.5798,-0.3293333333333333,0.011555555555555541,0.7930000000000001,68.127,0.0184,-0.2489,-0.22200000000000042,100.0,1.0,1.0,210.0,0.0,0.0,0.0,0.0,0.0,0.0,0.0,8901.1,0.0,55.0,5.0,245.23000000000002,0.0,0.0,0.0,0.0,0.0,0.0,1.0,0.0,0.9059999999999988,0.9059999999999988,0.0,0.0,0.0,55.0,616.79921,10000.0,85.000001,85.000001,85.000001,85.000001,395.0,0.0,0.0,0.0,1.0,166.665,52.338,52.338,48.766999999999996,48.766999999999996,34.0,-22.134999999999998,26.788333333333334,-5.899999999999999,10.4775,0.0,1782.365,-0.29499999999999815,100.0,27.913,27.927,41.882,42.191,0.0,1.0,100.0,0.0,0.0,0.0,0.0,3051.285714285714,3195.1,4060.125,4271.4,305.4765,304.59233333333333,314.8815,314.195,21.9359,20.604,21.9499,21.4541,314.999998,314.999998,324.999988,324.999988,99.55842857142858,99.50725,99.56845714285714,99.5473,0.10275000000000012,-0.02949999999999997,-0.08133333333333337,0.1343333333333332,-0.026666666666670835,-0.05333333333332746,1.476,1.4493333333333334,38.099000000000004,29.775,38.187,35.088,55.824,35.0695,58.859,51.817499999999995,53.781,34.208,58.595,51.004,52.957,33.760999999999996,59.678,51.2815,-0.09850000000000003,-0.05549999999999988,0.11175500000000001,0.109215,0.0,213.29500000000002,213.31,210.0,210.0,0.0,0.0
19,0.0,1.0,0.0,1.0,1.0,0.0,0.0,1.0,0.0,100.0,1.0,1.1856,26.0,0.0,0.0,0.0,59.999996,0.0,26.0,26.0,26.0,26.0,0.04211111111111121,0.27059999999999995,0.0539,292.679,-2.6505,-2.705888888888889,-0.11725000000000001,-0.18780000000000002,-212.06,215.41750000000002,190.596375,0.0,0.0,0.0,0.0,0.03856666666666667,-5.498166666666667,-5.498166666666667,-0.5707,0.6036666666666667,0.016000000000000014,0.6870000000000003,68.257,0.0145,-0.237925,-0.23599999999999977,100.0,1.0,1.0,210.40333333333334,0.0,0.0,0.0,0.0,0.0,0.0,0.0,8918.2,0.0,55.0,5.0,245.69666666666666,1.0,0.0,0.0,0.0,0.0,0.0,1.0,0.0,0.9540000000000006,0.9540000000000006,0.0,0.0,1.0,55.0,616.79921,10000.0,85.000001,85.000001,85.000001,85.000001,395.0,0.0,0.0,0.0,1.0,333.33500000000004,51.926,51.926,48.721000000000004,48.721000000000004,34.0,-22.25,25.916666666666664,-6.856666666666669,10.885,0.0,1782.316,-0.26500000000000057,100.0,28.453,28.302,41.848,42.247,0.0,1.0,100.0,0.0,0.0,0.0,0.0,3061.5714285714284,3158.8,4138.625,4316.1,305.4065,304.7056666666667,314.75075,314.126,21.9449,20.6093,21.9598,21.462699999999998,314.999998,314.999998,324.999988,324.999988,99.55844285714285,99.50725,99.56858571428572,99.54742857142857,0.10250000000000004,-0.036250000000000004,-0.08950000000000002,0.1333333333333333,-0.030000000000001137,-0.06333333333333258,1.4553333333333334,1.4516666666666669,38.156,29.808,38.248999999999995,35.141999999999996,55.814,35.1075,58.888999999999996,51.872,53.771,34.243,58.6245,51.058,52.946,33.7945,59.7055,51.3365,-0.10499999999999998,-0.05500000000000016,0.10953,0.10879000000000001,0.0,213.735,213.74,210.40333333333334,210.40333333333334,0.0,0.0
20,0.0,1.0,0.0,1.0,1.0,0.0,0.0,1.0,0.0,100.0,1.0,1.1856,26.0,0.0,0.0,0.0,59.999996,0.0,26.0,26.0,26.0,26.0,0.03433333333333333,0.25470000000000015,-0.009266666666666668,292.847,-2.7249,-2.639666666666667,-0.12735000000000002,-0.17270000000000002,-208.57,215.41,190.573875,0.0,0.0,0.0,0.0,0.040600000000000004,-5.498166666666667,-5.498166666666667,-0.5733,-0.775,0.014333333333333309,-0.8839999999999999,68.395,0.013600000000000001,-0.248175,-0.1120000000000001,100.0,1.0,1.0,210.8,0.0,0.0,0.0,0.0,0.0,0.0,0.0,8935.1,0.0,55.0,5.0,246.19666666666666,0.0,0.0,0.0,0.0,0.0,0.0,0.0,0.0,1.004999999999999,1.004999999999999,0.0,0.0,0.0,55.0,616.79921,10000.0,85.000001,85.000001,85.000001,85.000001,395.0,0.0,0.0,0.0,1.0,333.33500000000004,52.429,52.429,48.309,48.309,34.0,-23.6425,23.975,-7.593333333333327,9.4975,0.0,1782.264,-0.23000000000000043,100.0,27.894,28.206,42.305,42.736000000000004,0.0,1.0,100.0,0.0,0.0,0.0,0.0,3120.0,3046.5,4160.75,4082.4,305.506,305.01733333333334,314.728,314.59125,21.9543,20.6148,21.9705,21.4721,314.999998,314.999998,324.999988,324.999988,99.55845714285714,99.50726666666667,99.56872857142857,99.54757142857143,0.09075000000000011,-0.044749999999999956,-0.09899999999999998,0.12416666666666676,-0.04333333333332945,-0.03333333333333144,1.4526666666666668,1.451,38.214,29.842333333333336,38.316,35.2005,55.801,35.1455,58.9255,51.931,53.759,34.2785,58.659,51.1165,52.933,33.8285,59.7385,51.396,-0.09650000000000003,-0.06050000000000022,0.11151000000000001,0.106755,0.0,214.125,214.10500000000002,210.8,210.8,0.0,0.0
21,0.0,1.0,0.0,1.0,1.0,0.0,0.0,1.0,0.0,100.0,1.0,1.1856,26.0,0.0,0.0,0.0,59.999996,0.0,26.0,26.0,26.0,26.0,0.033222222222222264,0.26570000000000005,-0.045200000000000004,293.076,-2.7245,-2.654111111111111,-0.16005,-0.1124,-205.29,215.4,190.552375,0.0,0.0,0.0,0.0,0.04253333333333333,-5.498166666666667,-5.498166666666667,-0.5929,0.012333333333333335,0.005222222222222239,-0.625,68.522,0.0119,-0.24805000000000002,-0.11399999999999988,100.0,1.0,1.0,211.31666666666666,0.0,0.0,0.0,0.0,0.0,0.0,0.0,8957.0,0.0,55.0,5.0,246.65,1.0,0.0,0.0,0.0,0.0,0.0,0.0,0.0,1.0530000000000008,1.0530000000000008,0.0,0.0,1.0,55.0,616.79921,10000.0,85.000001,85.000001,85.000001,85.000001,395.0,0.0,0.0,0.0,1.0,333.33500000000004,52.292,52.292,49.025999999999996,49.025999999999996,34.0,-24.665,24.708333333333332,-7.873333333333328,8.365,0.0,1782.216,-0.26500000000000057,100.0,27.939,28.066,41.958,42.321,0.0,1.0,100.0,0.0,0.0,0.0,0.0,3214.142857142857,3095.8,4058.75,4027.5,305.223,304.902,315.0375,314.8845,21.9632,20.62,21.9804,21.4806,314.999998,314.999998,324.999988,324.999988,99.55847142857142,99.50726666666667,99.56885714285714,99.54771428571429,0.08650000000000002,-0.03974999999999995,-0.10116666666666663,0.12483333333333335,-0.05333333333332746,-0.036666666666668846,1.5116666666666667,1.5146666666666668,38.269999999999996,29.875,38.376999999999995,35.254,55.789,35.182,58.955,51.9825,53.747,34.312,58.6875,51.1685,52.921,33.8605,59.7645,51.448499999999996,-0.09650000000000003,-0.05500000000000016,0.11051000000000001,0.10927,0.0,214.54500000000002,214.525,211.31666666666666,211.31666666666666,0.0,0.0
22,0.0,1.0,0.0,1.0,1.0,0.0,0.0,1.0,0.0,100.0,1.0,1.1856,26.0,0.0,0.0,0.0,59.999996,0.0,26.0,26.0,26.0,26.0,0.006444444444444475,0.2855000000000001,0.02686666666666667,292.572,-2.7686,-2.618333333333333,-0.16720000000000002,-0.11120000000000001,-201.57999999999998,215.39249999999998,190.527125,0.0,0.0,0.0,0.0,0.044666666666666674,-5.498166666666667,-5.498166666666667,-0.5767,0.017333333333333333,0.01288888888888895,-0.6509999999999998,68.668,0.0102,-0.224,-0.1479999999999997,100.0,1.0,1.0,211.59333333333333,0.0,0.0,0.0,0.0,0.0,0.0,0.0,8968.7,0.0,55.0,5.0,247.17666666666668,0.0,0.0,0.0,0.0,0.0,0.0,0.0,0.0,1.1069999999999993,1.1069999999999993,0.0,0.0,0.0,55.0,616.79921,10000.0,85.000001,85.000001,85.000001,85.000001,395.0,0.0,0.0,0.0,1.0,166.665,52.277,52.277,48.126,48.126,34.0,-24.53,24.39333333333333,-8.96,8.1625,0.0,1782.164,-0.35999999999999943,100.0,27.972,28.182000000000002,42.093,42.471000000000004,0.0,1.0,100.0,0.0,0.0,0.0,0.0,3196.857142857143,3102.6,4328.5,4382.9,305.351,304.87766666666664,314.376,313.99325,21.9731,20.6259,21.9916,21.4904,314.999998,314.999998,324.999988,324.999988,99.55848571428571,99.50728333333333,99.56901428571429,99.54787142857143,0.09349999999999992,-0.04149999999999998,-0.10499999999999998,0.10499999999999998,-0.051666666666669414,-0.03166666666666629,1.4416666666666667,1.442,38.332,29.912,38.448,35.315,55.777,35.2235,58.9915,52.044,53.735,34.35,58.7225,51.2295,52.907,33.897,59.7975,51.5105,-0.10799999999999987,-0.05250000000000021,0.11384000000000001,0.10392000000000001,0.0,214.99,214.99,211.59333333333333,211.59333333333333,0.0,0.0
23,0.0,1.0,0.0,1.0,1.0,0.0,0.0,1.0,0.0,100.0,1.0,1.1856,26.0,0.0,0.0,0.0,59.999996,0.0,26.0,26.0,26.0,26.0,0.011666666666666714,0.26670000000000016,-0.014266666666666667,292.542,-2.6669,-2.679777777777778,-0.22905,-0.08940000000000001,-198.28,215.3825,190.505,0.0,0.0,0.0,0.0,0.0466,-5.498166666666667,-5.498166666666667,-0.5917,-0.25033333333333335,0.00922222222222202,-0.6669999999999998,68.795,0.0143,-0.24802500000000002,-0.2239999999999993,100.0,1.0,1.0,212.05,0.0,0.0,0.0,0.0,0.0,0.0,0.0,8988.0,0.0,55.0,5.0,247.63333333333333,1.0,0.0,0.0,0.0,0.0,0.0,0.0,0.0,1.1550000000000011,1.1550000000000011,0.0,0.0,1.0,55.0,616.79921,10000.0,85.000001,85.000001,85.000001,85.000001,395.0,0.0,0.0,0.0,1.0,166.665,51.88,51.88,48.507999999999996,48.507999999999996,34.0,-24.349999999999998,24.961666666666666,-9.079999999999998,7.9399999999999995,0.0,1782.116,-0.28999999999999915,100.0,28.25,28.319,42.263,42.641,0.0,1.0,100.0,0.0,0.0,0.0,0.0,3249.0,3082.5,4243.75,4166.5,304.994,304.85633333333334,314.6405,314.534,21.982,20.6312,22.0017,21.499200000000002,314.999998,314.999998,324.999988,324.999988,99.5585,99.50728333333333,99.56914285714285,99.548,0.09175,-0.039000000000000035,-0.09566666666666657,0.11616666666666675,-0.03166666666666629,-0.04833333333333201,1.4766666666666666,1.48,38.388,29.945,38.51,35.37,55.766,35.2605,59.0235,52.0985,53.724999999999994,34.3845,58.753,51.284,52.896,33.93,59.826499999999996,51.5655,-0.10699999999999998,-0.05699999999999994,0.11149500000000001,0.09746500000000001,0.0,215.36,215.37,212.05,212.05,0.0,0.0
24,0.0,1.0,0.0,1.0,1.0,0.0,0.0,1.0,0.0,100.0,1.0,1.1856,26.0,0.0,0.0,0.0,59.999996,0.0,26.0,26.0,26.0,26.0,0.035222222222222266,0.28259999999999996,-0.0189,292.923,-2.6927,-2.658333333333333,-0.1405,-0.13970000000000002,-194.98000000000002,215.3775,190.4825,0.0,0.0,0.0,0.0,0.0485,-5.498166666666667,-5.498166666666667,-0.6044,-0.34,0.019333333333333202,-0.20299999999999985,68.922,0.019200000000000002,-0.24625000000000002,-0.23599999999999977,100.0,1.0,1.0,212.44333333333333,0.0,0.0,0.0,0.0,0.0,0.0,0.0,9004.7,0.0,55.0,5.0,248.09333333333336,0.0,0.0,0.0,0.0,0.0,0.0,0.0,0.0,1.2029999999999994,1.2029999999999994,0.0,0.0,0.0,55.0,616.79921,10000.0,85.000001,85.000001,85.000001,85.000001,395.0,0.0,0.0,0.0,1.0,166.665,52.628,52.628,48.447,48.447,34.0,-22.732499999999998,23.763333333333332,-7.479999999999997,9.39,0.0,1782.068,-0.2749999999999986,100.0,28.037,28.092,42.183,42.569,0.0,1.0,100.0,0.0,0.0,0.0,0.0,3045.142857142857,3012.9,4194.5,4130.3,305.689,305.13866666666667,314.6655,314.5885,21.9908,20.6364,22.0116,21.5078,314.999998,314.999998,324.999988,324.999988,99.55851428571428,99.50728333333333,99.56928571428571,99.54812857142858,0.09125000000000005,-0.04625000000000001,-0.09316666666666662,0.12983333333333325,-0.04833333333333201,-0.060000000000002274,1.4966666666666666,1.474,38.443,29.977333333333334,38.572,35.424,55.754999999999995,35.296,59.0545,52.1515,53.714,34.417,58.783,51.337,52.884,33.9615,59.854,51.6195,-0.10549999999999993,-0.06099999999999994,0.10750000000000001,0.10967,0.0,215.76,215.78,212.44333333333333,212.44333333333333,0.0,0.0
25,0.0,1.0,0.0,1.0,1.0,0.0,0.0,1.0,0.0,100.0,1.0,1.1856,26.0,0.0,0.0,0.0,59.999996,0.0,26.0,26.0,26.0,26.0,0.027666666666666728,0.26849999999999996,-0.009566666666666668,292.679,-2.7525,-2.638777777777778,-0.18475,-0.1322,-191.45999999999998,215.37,190.457125,0.0,0.0,0.0,0.0,0.05056666666666667,-5.498166666666667,-5.498166666666667,-0.6207,0.06633333333333333,0.029888888888888854,0.2589999999999999,69.056,0.0182,-0.24150000000000002,-0.26399999999999935,100.0,1.0,1.0,212.89666666666668,0.0,0.0,0.0,0.0,0.0,0.0,0.0,9024.0,0.0,55.0,5.0,248.57333333333332,1.0,0.0,0.0,0.0,0.0,0.0,0.0,0.0,1.2540000000000013,1.2540000000000013,0.0,0.0,1.0,55.0,616.79921,10000.0,85.000001,85.000001,85.000001,85.000001,395.0,0.0,0.0,0.0,1.0,333.33500000000004,51.743,51.743,48.766999999999996,48.766999999999996,34.0,-24.2975,27.526666666666664,-7.0,9.735,0.0,1782.016,-0.35999999999999943,100.0,28.093,28.162,42.045,42.326,0.0,1.0,100.0,0.0,0.0,0.0,0.0,3228.4285714285716,3356.6,4025.375,4187.4,305.0835,304.2296666666667,315.099,314.51925,22.0001,20.6421,22.022100000000002,21.517,314.999998,314.999998,324.999988,324.999988,99.55852857142857,99.5073,99.56941428571429,99.54828571428571,0.10699999999999998,-0.02474999999999994,-0.07983333333333331,0.13600000000000012,-0.04333333333332945,-0.060000000000002274,1.514,1.485,38.501000000000005,30.012666666666668,38.638,35.4815,55.742000000000004,35.335499999999996,59.086,52.207499999999996,53.702,34.4535,58.813,51.3925,52.870999999999995,33.9965,59.8825,51.676,-0.10699999999999998,-0.05500000000000016,0.10416,0.112445,0.0,216.185,216.185,212.89666666666668,212.89666666666668,0.0,0.0
26,0.0,1.0,0.0,1.0,1.0,0.0,0.0,1.0,0.0,100.0,1.0,1.1856,26.0,0.0,0.0,0.0,59.999996,0.0,26.0,26.0,26.0,26.0,0.036555555555555674,0.27270000000000016,0.057100000000000005,291.855,-2.714,-2.646333333333333,-0.14665,-0.1383,-187.94,215.3625,190.4315,0.0,0.0,0.0,0.0,0.0526,-5.498166666666667,-5.498166666666667,-0.5933,0.3273333333333333,0.013222222222222024,-0.7119999999999997,69.19200000000001,0.018000000000000002,-0.22595,-0.26200000000000045,100.0,1.0,1.0,213.12,0.0,0.0,0.0,0.0,0.0,0.0,0.0,9033.3,0.0,55.0,5.0,249.06333333333333,0.0,0.0,0.0,0.0,0.0,0.0,0.0,0.0,1.3049999999999997,1.3049999999999997,0.0,0.0,0.0,55.0,616.79921,10000.0,85.000001,85.000001,85.000001,85.000001,395.0,0.0,0.0,0.0,1.0,333.33500000000004,51.59,51.59,47.607,47.607,34.0,-24.175,24.37166666666667,-8.313333333333333,9.775,0.0,1781.964,-0.3949999999999996,100.0,28.695,28.797,42.474000000000004,42.894999999999996,0.0,1.0,100.0,0.0,0.0,0.0,0.0,3267.714285714286,3065.5,4478.875,4469.2,305.0905,305.0133333333333,313.996,313.751,22.0096,20.6478,22.0327,21.5264,314.999998,314.999998,324.999988,324.999988,99.55854285714285,99.5073,99.56957142857142,99.54842857142857,0.10575000000000001,-0.03974999999999995,-0.09299999999999997,0.11883333333333335,-0.03166666666666629,-0.041666666666671404,1.405,1.3840000000000001,38.56,30.048666666666666,38.705,35.54,55.733000000000004,35.376,59.1215,52.2665,53.693,34.491,58.847,51.451499999999996,52.861000000000004,34.032,59.914,51.736000000000004,-0.11599999999999988,-0.05600000000000005,0.10577,0.10689000000000001,0.0,216.615,216.625,213.12,213.12,0.0,0.0
27,0.0,1.0,0.0,1.0,1.0,0.0,0.0,1.0,0.0,100.0,1.0,1.1856,26.0,0.0,0.0,0.0,59.999996,0.0,26.0,26.0,26.0,26.0,0.04688888888888898,0.2518,-0.047900000000000005,292.343,-2.7608,-2.658888888888889,-0.2058,-0.11950000000000001,-184.61,215.35750000000002,190.408375,0.0,0.0,0.0,0.0,0.054533333333333336,-5.498166666666667,-5.498166666666667,-0.6157,-0.8043333333333333,0.023111111111111082,-0.42700000000000005,69.316,0.0184,-0.26175000000000004,-0.26399999999999935,100.0,1.0,1.0,213.62666666666667,0.0,0.0,0.0,0.0,0.0,0.0,0.0,9054.8,0.0,55.0,5.0,249.51333333333332,1.0,0.0,0.0,0.0,0.0,0.0,0.0,0.0,1.352999999999998,1.352999999999998,0.0,0.0,1.0,55.0,616.79921,10000.0,85.000001,85.000001,85.000001,85.000001,395.0,0.0,0.0,0.0,1.0,333.33500000000004,51.88,51.88,47.775,47.775,34.0,-23.3875,25.275,-8.229999999999997,8.71,0.0,1781.916,-0.40500000000000114,100.0,28.37,28.726,42.848,43.178,0.0,1.0,100.0,0.0,0.0,0.0,0.0,3133.0,3133.5,4165.125,4103.1,305.527,304.7183333333333,314.7935,314.717,22.0184,20.6531,22.0428,21.5353,314.999998,314.999998,324.999988,324.999988,99.55854285714285,99.5073,99.56971428571428,99.54855714285715,0.10624999999999996,-0.03849999999999998,-0.08999999999999997,0.1246666666666667,-0.054999999999999716,-0.030000000000001137,1.4776666666666667,1.4746666666666668,38.614999999999995,30.082,38.768,35.5955,55.722,35.4125,59.1545,52.321,53.682,34.525,58.8785,51.506,52.849000000000004,34.0645,59.944,51.791,-0.11799999999999988,-0.047499999999999876,0.10867,0.10594500000000001,0.0,216.965,216.965,213.62666666666667,213.62666666666667,0.0,0.0
28,0.0,1.0,0.0,1.0,1.0,0.0,0.0,1.0,0.0,100.0,1.0,1.1856,26.0,0.0,0.0,0.0,59.999996,0.0,26.0,26.0,26.0,26.0,0.05044444444444429,0.2682,-0.05073333333333333,292.45,-2.6913,-2.646888888888889,-0.21845,-0.1472,-180.86,215.35500000000002,190.3815,0.0,0.0,0.0,0.0,0.05673333333333334,-5.498166666666667,-5.498166666666667,-0.6189,0.5583333333333333,0.009444444444444366,-1.008,69.455,0.0222,-0.23705,-0.36600000000000055,100.0,1.0,1.0,214.10333333333335,0.0,0.0,0.0,0.0,0.0,0.0,0.0,9075.0,0.0,55.0,5.0,250.01,0.0,0.0,0.0,0.0,0.0,0.0,0.0,0.0,1.407,1.407,0.0,0.0,0.0,55.0,616.79921,10000.0,85.000001,85.000001,85.000001,85.000001,395.0,0.0,0.0,0.0,1.0,166.665,51.91,51.91,48.111,48.111,34.0,-22.765,25.369999999999997,-8.486666666666672,9.850000000000001,0.0,1781.864,-0.4299999999999997,100.0,28.412,28.713,42.308,42.809,0.0,1.0,100.0,0.0,0.0,0.0,0.0,3118.714285714286,3092.7,4251.0,4154.9,305.4435,304.8163333333333,314.69225,314.6015,22.0283,20.6592,22.0539,21.545,314.999998,314.999998,324.999988,324.999988,99.55857142857143,99.50731666666667,99.56985714285715,99.54871428571428,0.10624999999999996,-0.025499999999999967,-0.08899999999999997,0.13549999999999995,-0.054999999999999716,-0.05833333333333002,1.512,1.487,38.677,30.119999999999997,38.837,35.656,55.71,35.454499999999996,59.1865,52.3795,53.671,34.5635,58.909,51.564,52.837,34.102000000000004,59.972,51.85,-0.11399999999999988,-0.04249999999999998,0.104525,0.108045,0.0,217.435,217.45,214.10333333333335,214.10333333333335,0.0,0.0
29,0.0,1.0,0.0,1.0,1.0,0.0,0.0,1.0,0.0,100.0,1.0,1.1856,26.0,0.0,0.0,0.0,59.999996,0.0,26.0,26.0,26.0,26.0,0.045333333333333226,0.258,-0.017266666666666666,292.374,-2.7621,-2.706666666666667,-0.16255,-0.13140000000000002,-177.53,215.35000000000002,190.356625,0.0,0.0,0.0,0.0,0.058666666666666666,-5.498166666666667,-5.498166666666667,-0.6238,-0.7216666666666667,0.004999999999999893,-0.8220000000000001,69.581,0.0239,-0.23815,-0.3720000000000008,100.0,1.0,1.0,214.36333333333334,0.0,0.0,0.0,0.0,0.0,0.0,0.0,9086.1,0.0,55.0,5.0,250.46666666666667,1.0,0.0,0.0,0.0,0.0,0.0,0.0,0.0,1.4549999999999983,1.4549999999999983,0.0,0.0,1.0,55.0,616.79921,10000.0,85.000001,85.000001,85.000001,85.000001,395.0,0.0,0.0,0.0,1.0,333.33500000000004,52.277,52.277,47.867,47.867,34.0,-23.59,24.84166666666667,-8.11333333333333,9.4025,0.0,1781.815,-0.46499999999999986,100.0,28.098,28.509,42.682,43.1,0.0,1.0,100.0,0.0,0.0,0.0,0.0,3189.285714285714,3005.8,4212.5,4280.8,305.525,305.08566666666667,314.629,314.2005,22.037,20.6645,22.0639,21.5539,314.999998,314.999998,324.999988,324.999988,99.55857142857143,99.50731666666667,99.56998571428572,99.54885714285714,0.10875000000000012,-0.031000000000000028,-0.09650000000000003,0.12383333333333324,-0.045000000000001705,-0.02833333333332888,1.45,1.4336666666666669,38.730999999999995,30.153,38.9,35.7115,55.698,35.49,59.2195,52.4345,53.66,34.5965,58.941,51.619,52.824,34.132999999999996,60.001999999999995,51.9055,-0.11949999999999994,-0.040000000000000036,0.11472,0.1018,0.0,217.785,217.79000000000002,214.36333333333334,214.36333333333334,0.0,0.0
30,0.0,1.0,0.0,1.0,1.0,0.0,0.0,1.0,0.0,100.0,1.0,1.1856,26.0,0.0,0.0,0.0,59.999996,0.0,26.0,26.0,26.0,26.0,0.06966666666666677,0.26070000000000015,-0.0012000000000000001,291.702,-2.7340999999999998,-2.638111111111111,-0.23425,-0.048400000000000006,-174.18,215.35000000000002,190.331625,0.0,0.0,0.0,0.0,0.0606,-5.498166666666667,-5.498166666666667,-0.6273000000000001,0.8,0.009333333333333194,-0.2610000000000001,69.702,0.029,-0.24272500000000002,-0.44399999999999995,100.0,1.0,1.0,214.85333333333335,0.0,0.0,0.0,0.0,0.0,0.0,0.0,9106.8,0.0,55.0,5.0,250.90333333333334,0.0,0.0,0.0,0.0,0.0,0.0,1.0,0.0,1.5030000000000001,1.5030000000000001,0.0,0.0,0.0,55.0,616.79921,10000.0,85.000001,85.000001,85.000001,85.000001,395.0,0.0,0.0,0.0,1.0,333.33500000000004,50.4,50.4,48.126,48.126,34.0,-25.165,27.651666666666664,-8.233333333333327,8.7275,0.0,1781.766,-0.4349999999999987,100.0,29.086,29.185000000000002,42.485,43.016999999999996,0.0,1.0,100.0,0.0,0.0,0.0,0.0,3402.142857142857,3349.1,4206.625,4175.2,304.5275,303.91633333333334,314.84475,314.69225,22.046,20.67,22.0738,21.5626,314.999998,314.999998,324.999988,324.999988,99.5586,99.50731666666667,99.57012857142857,99.54898571428572,0.11824999999999997,-0.030000000000000027,-0.08233333333333337,0.14166666666666683,-0.05666666666667197,-0.03833333333332689,1.4976666666666667,1.4826666666666668,38.787,30.187666666666665,38.961,35.766,55.691,35.5285,59.249,52.487,53.653,34.6325,58.969,51.6715,52.816,34.167500000000004,60.028,51.9585,-0.11949999999999994,-0.04999999999999982,0.11076000000000001,0.11547500000000001,0.0,218.185,218.20499999999998,214.85333333333335,214.85333333333335,0.0,0.0
31,0.0,1.0,0.0,1.0,1.0,0.0,0.0,1.0,0.0,100.0,1.0,1.1856,26.0,0.0,0.0,0.0,59.999996,0.0,26.0,26.0,26.0,26.0,0.03766666666666674,0.25360000000000005,0.07606666666666667,291.183,-2.777,-2.6165555555555557,-0.2399,-0.1206,-170.63,215.3475,190.30575,0.0,0.0,0.0,0.0,0.06266666666666666,-5.498166666666667,-5.498166666666667,-0.6061000000000001,-0.354,0.02444444444444427,0.8639999999999999,69.836,0.0325,-0.243625,-0.47799999999999976,100.0,1.0,1.0,215.04333333333335,0.0,0.0,0.0,0.0,0.0,0.0,0.0,9114.9,0.0,55.0,5.0,251.38333333333333,1.0,0.0,0.0,0.0,0.0,0.0,1.0,0.0,1.5539999999999985,1.5539999999999985,0.0,0.0,1.0,55.0,616.79921,10000.0,85.000001,85.000001,85.000001,85.000001,395.0,0.0,0.0,0.0,1.0,166.665,50.980000000000004,50.980000000000004,46.57,46.57,34.0,-22.82,27.946666666666665,-8.339999999999996,10.83,0.0,1781.717,-0.46000000000000085,100.0,29.101,29.192,43.32,43.708,0.0,1.0,100.0,0.0,0.0,0.0,0.0,3120.142857142857,3411.0,4342.375,4490.7,305.403,304.135,314.2185,313.69975,22.0553,20.6759,22.084600000000002,21.5722,314.999998,314.999998,324.999988,324.999988,99.55861428571428,99.50731666666667,99.57027142857143,99.54914285714285,0.125,-0.020749999999999935,-0.0728333333333333,0.13916666666666666,-0.03499999999999659,-0.03166666666666629,1.3873333333333333,1.3800000000000001,38.846000000000004,30.224333333333334,39.028999999999996,35.826,55.681,35.569,59.2855,52.548,53.643,34.6695,59.004,51.7325,52.805,34.2035,60.061,52.019999999999996,-0.11799999999999988,-0.0535000000000001,0.11314500000000001,0.10094500000000001,0.0,218.575,218.59,215.04333333333335,215.04333333333335,0.0,0.0
32,0.0,1.0,0.0,1.0,1.0,0.0,0.0,1.0,0.0,100.0,1.0,1.1856,26.0,0.0,0.0,0.0,59.999996,0.0,26.0,26.0,26.0,26.0,0.05488888888888899,0.2481,-0.05363333333333334,291.946,-2.7016999999999998,-2.677777777777778,-0.17825000000000002,-0.20220000000000002,-166.85,215.3475,190.27875,0.0,0.0,0.0,0.0,0.06486666666666667,-5.498166666666667,-5.498166666666667,-0.6271,-0.2646666666666667,0.0016666666666667052,0.29400000000000004,69.971,0.0341,-0.256925,-0.4739999999999993,100.0,1.0,1.0,215.63666666666666,0.0,0.0,0.0,0.0,0.0,0.0,0.0,9140.0,0.0,55.0,5.0,251.87,0.0,0.0,0.0,0.0,0.0,0.0,1.0,0.0,1.6080000000000005,1.6080000000000005,0.0,0.0,0.0,55.0,616.79921,10000.0,85.000001,85.000001,85.000001,85.000001,395.0,0.0,0.0,0.0,1.0,166.665,51.528999999999996,51.528999999999996,47.76,47.76,34.0,-21.5275,26.693333333333335,-6.413333333333327,11.6475,0.0,1781.663,-0.47499999999999787,100.0,28.876,29.018,43.105000000000004,43.582,0.0,1.0,100.0,0.0,0.0,0.0,0.0,3044.5714285714284,3197.7,4038.5,4235.8,305.549,304.709,315.016,314.3895,22.0651,20.682,22.0957,21.5821,314.999998,314.999998,324.999988,324.999988,99.55862857142857,99.50731666666667,99.57042857142856,99.5493,0.12624999999999997,-0.01849999999999996,-0.06899999999999995,0.14716666666666667,-0.03333333333333144,-0.046666666666666856,1.471,1.458,38.907,30.262666666666668,39.098,35.888,55.67,35.611,59.319,52.6075,53.632,34.7085,59.036,51.7915,52.793,34.2405,60.0905,52.0805,-0.11949999999999994,-0.052000000000000046,0.11147000000000001,0.1023,0.0,218.995,219.015,215.63666666666666,215.63666666666666,0.0,0.0
33,0.0,1.0,0.0,1.0,1.0,0.0,0.0,1.0,0.0,100.0,1.0,1.1856,26.0,0.0,0.0,0.0,59.999996,0.0,26.0,26.0,26.0,26.0,0.057333333333333236,0.2541,-0.05486666666666667,292.145,-2.7374,-2.685666666666667,-0.18535000000000001,-0.1656,-163.7,215.35000000000002,190.25525,0.0,0.0,0.0,0.0,0.06670000000000001,-5.498166666666667,-5.498166666666667,-0.6342,-0.20500000000000002,-0.00044444444444424747,-0.22599999999999998,70.08500000000001,0.0334,-0.240175,-0.387999999999999,100.0,1.0,1.0,215.98333333333335,0.0,0.0,0.0,0.0,0.0,0.0,0.0,9154.7,0.0,55.0,5.0,252.28,1.0,0.0,0.0,0.0,0.0,0.0,1.0,0.0,1.6529999999999987,1.6529999999999987,0.0,0.0,1.0,55.0,616.79921,10000.0,85.000001,85.000001,85.000001,85.000001,395.0,0.0,0.0,0.0,1.0,166.665,51.819,51.819,47.974000000000004,47.974000000000004,34.0,-23.085,25.345,-7.5,10.4275,0.0,1781.618,-0.5,100.0,28.568,28.894,42.849000000000004,43.419,0.0,1.0,100.0,0.0,0.0,0.0,0.0,3172.285714285714,3038.4,4145.5,4191.3,305.4045,305.03833333333336,314.85575,314.5045,22.0733,20.687,22.105,21.5903,314.999998,314.999998,324.999988,324.999988,99.55864285714286,99.50733333333334,99.57055714285714,99.54942857142858,0.11675000000000013,-0.02100000000000002,-0.08316666666666661,0.13816666666666677,-0.05333333333332746,-0.03166666666666629,1.473,1.4663333333333333,38.958,30.293666666666667,39.156,35.939,55.661,35.644,59.347,52.6565,53.623000000000005,34.739,59.063,51.8405,52.783,34.2695,60.1155,52.1295,-0.12199999999999989,-0.04349999999999987,0.11372000000000002,0.10326500000000001,0.0,219.36,219.37,215.98333333333335,215.98333333333335,0.0,0.0
34,0.0,1.0,0.0,1.0,1.0,0.0,0.0,1.0,0.0,100.0,1.0,1.1856,26.0,0.0,0.0,0.0,59.999996,0.0,26.0,26.0,26.0,26.0,0.05044444444444429,0.2594000000000001,-0.08866666666666667,292.419,-2.6685,-2.6767777777777777,-0.21610000000000001,-0.10540000000000001,-160.12,215.35250000000002,190.22725,0.0,0.0,0.0,0.0,0.06876666666666667,-5.498166666666667,-5.498166666666667,-0.6635,-0.887,0.01966666666666672,0.8919999999999999,70.215,0.0364,-0.245125,-0.524,100.0,1.0,1.0,216.33333333333331,0.0,0.0,0.0,0.0,0.0,0.0,0.0,9169.6,0.0,55.0,5.0,252.74666666666667,0.0,0.0,0.0,0.0,0.0,0.0,1.0,0.0,1.7040000000000006,1.7040000000000006,0.0,0.0,0.0,55.0,616.79921,10000.0,85.000001,85.000001,85.000001,85.000001,395.0,0.0,0.0,0.0,1.0,333.33500000000004,52.429,52.429,48.141,48.141,34.0,-20.455,25.619999999999997,-6.376666666666665,10.342500000000001,0.0,1781.565,-0.4800000000000004,100.0,28.369,28.425,42.796,43.382,0.0,1.0,100.0,0.0,0.0,0.0,0.0,2966.714285714286,3076.8,4112.625,4270.6,305.8415,305.199,314.89475,314.36075,22.0824,20.6926,22.1155,21.5996,314.999998,314.999998,324.999988,324.999988,99.55865714285714,99.50733333333334,99.57071428571429,99.54957142857143,0.1280000000000001,-0.012249999999999983,-0.056333333333333346,0.14866666666666672,-0.01999999999999602,-0.046666666666666856,1.4816666666666667,1.4546666666666668,39.015,30.328666666666663,39.222,35.998,55.647999999999996,35.6825,59.3805,52.717,53.611000000000004,34.7745,59.095,51.900999999999996,52.769,34.304,60.144999999999996,52.191,-0.11850000000000005,-0.045500000000000096,0.10028500000000001,0.104705,0.0,219.71,219.75,216.33333333333334,216.33333333333331,0.0,0.0
35,0.0,1.0,0.0,1.0,1.0,0.0,0.0,1.0,0.0,100.0,1.0,1.1856,26.0,0.0,0.0,0.0,59.999996,0.0,26.0,26.0,26.0,26.0,0.06622222222222218,0.25690000000000013,-0.06496666666666667,292.297,-2.8092,-2.6446666666666667,-0.13225,-0.16110000000000002,-156.54,215.35750000000002,190.19725,0.0,0.0,0.0,0.0,0.07086666666666666,-5.498166666666667,-5.498166666666667,-0.6971,-0.05,0.0031111111111110645,-1.279,70.34100000000001,0.0378,-0.248475,-0.38200000000000056,100.0,1.0,1.0,216.83333333333331,0.0,0.0,0.0,0.0,0.0,0.0,0.0,9190.8,0.0,55.0,5.0,253.20333333333335,1.0,0.0,0.0,0.0,0.0,0.0,1.0,0.0,1.754999999999999,1.754999999999999,0.0,0.0,1.0,55.0,616.79921,10000.0,85.000001,85.000001,85.000001,85.000001,395.0,0.0,0.0,0.0,1.0,166.665,51.605,51.605,47.897,47.897,34.0,-24.25,27.346666666666664,-6.126666666666665,10.435,0.0,1781.516,-0.3049999999999997,100.0,28.135,28.943,42.462,42.973,0.0,1.0,100.0,0.0,0.0,0.0,0.0,3184.285714285714,3300.0,4115.125,4056.8,305.347,304.2303333333333,314.99325,314.91575,22.0914,20.6985,22.1259,21.6088,314.999998,314.999998,324.999988,324.999988,99.55867142857143,99.50733333333334,99.57084285714286,99.54971428571429,0.10925000000000007,-0.02400000000000002,-0.0751666666666666,0.14850000000000008,-0.04833333333333201,-0.051666666666669414,1.5223333333333335,1.496,39.071,30.365333333333332,39.287,36.055,55.635999999999996,35.72,59.408500000000004,52.7665,53.599000000000004,34.8095,59.122,51.9505,52.757,34.3375,60.1695,52.241,-0.10650000000000004,-0.05500000000000016,0.11221,0.10873000000000001,0.0,220.13,220.16500000000002,216.83333333333334,216.83333333333331,0.0,0.0
