,ABS Active,ABS Enabled,AID Allow Tire Blankets,AID Auto Blip,AID Auto Clutch,AID Auto Shift,AID Fuel Rate,AID Ideal Line,AID Mech Damage,AID Stability,AID Tire Wear Rate,Air Density,Air Temp,Ballast,Best Lap Delta,Best Lap Time,Brake Bias,Brake Pos,Brake Temp FL,Brake Temp FR,Brake Temp RL,Brake Temp RR,CG Accel Lateral,CG Accel Longitudinal,CG Accel Vertical,CG Height,Camber FL,Camber FR,Camber RL,Camber RR,Car Coord X,Car Coord Y,Car Coord Z,Car Damage Front,Car Damage Left,Car Damage Rear,Car Damage Right,Car Pos Norm,Caster FL,Caster FR,Chassis Pitch Angle,Chassis Pitch Rate,Chassis Roll Angle,Chassis Roll Rate,Chassis Velocity X,Chassis Velocity Y,Chassis Velocity Z,Chassis Yaw Rate,Clutch Pos,DRS Active,DRS Available,Drive Train Speed,ERS Heat Charging,ERS Is Charging,ERS Max Energy,ERS Power Level,ERS Recovery Level,Engine Brake Setting,Engine Limiter,Engine RPM,Flags,Fuel Level,Gear,Ground Speed,HR Sample Clock,In Pit,KERS Charge,KERS Deployed Energy,KERS Input,KERS Max Energy,LR Sample Clock,Lap Invalidated,Lap Time,Lap Time2,Last Lap Time,Last Sector Time,MR Sample Clock,Max Fuel,Max Power,Max RPM,Max Sus Travel FL,Max Sus Travel FR,Max Sus Travel RL,Max Sus Travel RR,Max Torque,Max Turbo Boost,Num Tires Off Track,Penalties Enabled,Position,Raw Data Sample Rate,Ride Height FL,Ride Height FR,Ride Height RL,Ride Height RR,Road Temp,Self Align Torque FL,Self Align Torque FR,Self Align Torque RL,Self Align Torque RR,Session Lap Count,Session Time Left,Steering Angle,Surface Grip,Suspension Travel FL,Suspension Travel FR,Suspension Travel RL,Suspension Travel RR,TC Active,TC Enabled,Throttle Pos,Tire Dirt Level FL,Tire Dirt Level FR,Tire Dirt Level RL,Tire Dirt Level RR,Tire Load FL,Tire Load FR,Tire Load RL,Tire Load RR,Tire Loaded Radius FL,Tire Loaded Radius FR,Tire Loaded Radius RL,Tire Loaded Radius RR,Tire Pressure FL,Tire Pressure FR,Tire Pressure RL,Tire Pressure RR,Tire Radius FL,Tire Radius FR,Tire Radius RL,Tire Radius RR,Tire Rubber Grip FL,Tire Rubber Grip FR,Tire Rubber Grip RL,Tire Rubber Grip RR,Tire Slip Angle FL,Tire Slip Angle FR,Tire Slip Angle RL,Tire Slip Angle RR,Tire Slip Ratio FL,Tire Slip Ratio FR,Tire Slip Ratio RL,Tire Slip Ratio RR,Tire Temp Core FL,Tire Temp Core FR,Tire Temp Core RL,Tire Temp Core RR,Tire Temp Inner FL,Tire Temp Inner FR,Tire Temp Inner RL,Tire Temp Inner RR,Tire Temp Middle FL,Tire Temp Middle FR,Tire Temp Middle RL,Tire Temp Middle RR,Tire Temp Outer FL,Tire Temp Outer FR,Tire Temp Outer RL,Tire Temp Outer RR,Toe In FL,Toe In FR,Toe In RL,Toe In RR,Turbo Boost,Wheel Angular Speed FL,Wheel Angular Speed FR,Wheel Angular Speed RL,Wheel Angular Speed RR,Wind Direction,Wind Speed
0,0.0,1.0,0.0,1.0,1.0,0.0,0.0,1.0,0.0,100.0,1.0,1.1856,26.0,0.0,0.0,0.0,59.99999,0.0,26.0,26.0,26.0,26.0,-0.1273333333333333,0.29980000000000007,-0.001,294.998,-2.691,-2.6863333333333332,0.92905,0.8405,-275.75,216.28750000000002,190.989,0.0,0.0,0.0,0.0,0.0015666666666666051,-5.498166666666667,-5.498166666666667,-0.5807,1.29,-0.035777777777777686,-1.053,65.547,-0.0728,-0.24932500000000002,1.3640000000000008,100.0,1.0,1.0,202.30333333333334,0.0,0.0,0.0,0.0,0.0,0.0,0.0,8574.8,0.0,55.0,5.0,235.94,0.0,0.0,0.0,0.0,0.0,0.0,0.0,0.0,0.0030000000000001137,0.0030000000000001137,0.0,0.0,0.0,55.0,616.79921,10000.0,85.0,85.0,85.0,85.0,395.0,0.0,0.0,0.0,1.0,20.0,52.826,52.826,51.391999999999996,51.391999999999996,34.0,-28.2075,21.332,2.512500000000003,-11.184999999999999,0.0,1782.763,0.9250000000000007,100.0,27.663,26.8,39.06,38.552,0.0,1.0,100.0,0.0,0.0,0.0,0.0,3060.857142857143,3254.1,4160.5,3963.4,305.554,304.41025,314.787,314.92625,21.7782,20.5125,21.805799999999998,21.3274,314.99999,314.99999,324.99998,324.99998,99.55887142857142,99.50718333333333,99.56887142857143,99.54661428571428,-0.0402499999999999,-0.1519999999999999,-0.198,0.009500000000000064,-0.06666666666666998,-0.06666666666666998,1.5050000000000001,1.5670000000000002,37.114000000000004,29.203333333333333,37.286,34.296,56.241,34.4735,58.3735,50.903,54.186,33.632,58.9685,50.6915,53.382999999999996,33.1815,60.9535,51.5785,-0.0044999999999999485,-0.1419999999999999,0.10641,0.10701000000000001,0.0,205.445,205.335,202.30333333333334,202.30333333333334,0.0,0.0
1,0.0,1.0,0.0,1.0,1.0,0.0,0.0,1.0,0.0,100.0,1.0,1.1856,26.0,0.0,0.0,0.0,59.999996,0.0,26.0,26.0,26.0,26.0,-0.19255555555555548,0.32530000000000014,0.04675,293.945,-2.6257,-2.788222222222222,0.91815,0.8551,-272.41,216.28750000000002,190.968625,0.0,0.0,0.0,0.0,0.0034999999999999476,-5.498166666666667,-5.498166666666667,-0.5275000000000001,-0.39749999999999996,-0.07433333333333358,-0.09200000000000008,65.70400000000001,-0.09280000000000001,-0.22942500000000002,1.7360000000000007,100.0,1.0,1.0,202.42666666666668,0.0,0.0,0.0,0.0,0.0,0.0,0.0,8580.1,0.0,55.0,5.0,236.50333333333333,1.0,0.0,0.0,0.0,0.0,0.0,0.0,0.0,0.053999999999998494,0.053999999999998494,0.0,0.0,1.0,55.0,616.79921,10000.0,85.000001,85.000001,85.000001,85.000001,395.0,0.0,0.0,0.0,1.0,333.33500000000004,53.497,53.497,50.003,50.003,34.0,-28.215,16.855999999999998,0.855000000000004,-15.785,0.0,1782.713,0.8599999999999994,100.0,27.858,26.875,40.9,39.538,0.0,1.0,100.0,0.0,0.0,0.0,0.0,3086.714285714286,2654.5,4474.875,4724.7,305.3015,306.38675,313.88375,313.11875,21.7881,20.5176,21.817,21.3367,314.999998,314.999998,324.999988,324.999988,99.55888571428571,99.50721666666666,99.56901428571429,99.54674285714286,-0.04125000000000001,-0.17066666666666674,-0.2255,-0.011833333333333362,-0.03166666666666629,-0.03833333333332689,1.347,1.415,37.176,29.235333333333333,37.355999999999995,34.354,56.227000000000004,34.513,58.4105,50.957,54.173,33.6685,59.0055,50.7465,53.37,33.216499999999996,60.99,51.635999999999996,-0.0040000000000000036,-0.14550000000000018,0.10594,0.11540500000000001,0.0,205.88,205.745,202.42666666666668,202.42666666666668,0.0,0.0
2,0.0,1.0,0.0,1.0,1.0,0.0,0.0,1.0,0.0,100.0,1.0,1.1856,26.0,0.0,0.0,0.0,59.999996,0.0,26.0,26.0,26.0,26.0,-0.16700000000000004,0.2932000000000001,-0.039575,294.693,-2.5815,-2.816777777777778,0.95105,0.7951,-269.05,216.285,190.95,0.0,0.0,0.0,0.0,0.005433333333333401,-5.498166666666667,-5.498166666666667,-0.5854,-0.05899999999999994,-0.0694444444444442,1.7289999999999999,65.846,-0.11130000000000001,-0.296775,2.0039999999999996,100.0,1.0,1.0,203.39,0.0,0.0,0.0,0.0,0.0,0.0,0.0,8621.0,0.0,55.0,5.0,237.01666666666665,0.0,0.0,0.0,0.0,0.0,0.0,0.0,0.0,0.10500000000000043,0.10500000000000043,0.0,0.0,0.0,55.0,616.79921,10000.0,85.000001,85.000001,85.000001,85.000001,395.0,0.0,0.0,0.0,1.0,166.665,52.368,52.368,52.109,52.109,34.0,-32.08,18.554000000000002,-0.15749999999999886,-11.817499999999999,0.0,1782.664,0.7800000000000011,100.0,28.438,26.89,40.935,39.39,0.0,1.0,100.0,0.0,0.0,0.0,0.0,3456.4285714285716,2884.5,3759.25,3596.4,304.3005,305.61575,315.63575,315.986,21.7984,20.5225,21.8279,21.3457,314.999998,314.999998,324.999988,324.999988,99.55888571428571,99.50723333333333,99.56914285714285,99.54688571428571,-0.05174999999999996,-0.17866666666666675,-0.2505,-0.048666666666666636,-0.046666666666666856,-0.045000000000001705,1.5946666666666667,1.661,37.239999999999995,29.266,37.424,34.4105,56.217,34.5535,58.442499999999995,51.007,54.163,33.7055,59.037,50.798,53.359,33.251999999999995,61.0205,51.689499999999995,-0.01949999999999985,-0.13249999999999984,0.10094500000000001,0.106935,0.0,206.34,206.155,203.39,203.39,0.0,0.0
3,0.0,1.0,0.0,1.0,1.0,0.0,0.0,1.0,0.0,100.0,1.0,1.1856,26.0,0.0,0.0,0.0,59.999996,0.0,26.0,26.0,26.0,26.0,-0.1721111111111111,0.3138000000000001,-0.0483,294.373,-2.7045,-2.713111111111111,0.9314,0.8143,-265.89,216.2775,190.931375,0.0,0.0,0.0,0.0,0.007299999999999973,-5.498166666666667,-5.498166666666667,-0.5414,0.7235,-0.03177777777777768,-0.8080000000000003,65.99000000000001,-0.12300000000000001,-0.23517500000000002,1.468,100.0,1.0,1.0,203.50333333333333,0.0,0.0,0.0,0.0,0.0,0.0,0.0,8625.8,0.0,55.0,5.0,237.53333333333333,1.0,0.0,0.0,0.0,0.0,0.0,0.0,0.0,0.1529999999999987,0.1529999999999987,0.0,0.0,1.0,55.0,616.79921,10000.0,85.000001,85.000001,85.000001,85.000001,395.0,0.0,0.0,0.0,1.0,166.665,53.513,53.513,49.927,49.927,34.0,-27.0825,16.805999999999997,-0.027499999999996305,-14.43,0.0,1782.616,0.5450000000000017,100.0,28.153,27.026,40.729,39.434,0.0,1.0,100.0,0.0,0.0,0.0,0.0,2908.5714285714284,2736.3,4404.625,4191.3,305.925,305.92625,314.15225,314.4415,21.8077,20.5274,21.838,21.3542,314.999998,314.999998,324.999988,324.999988,99.5589,99.50725,99.56928571428571,99.54701428571428,-0.047250000000000014,-0.17700000000000005,-0.24266666666666667,-0.03966666666666663,-0.03999999999999915,-0.02833333333332888,1.464,1.5115000000000003,37.298,29.296,37.488,34.463499999999996,56.203,34.594,58.473,51.059,54.15,33.743,59.067,50.8505,53.345,33.2875,61.05,51.7445,-0.03600000000000003,-0.1160000000000001,0.10915000000000001,0.104715,0.0,206.79500000000002,206.67000000000002,203.50333333333333,203.50333333333333,0.0,0.0
4,0.0,1.0,0.0,1.0,1.0,0.0,0.0,1.0,0.0,100.0,1.0,1.1856,26.0,0.0,0.0,0.0,59.999996,0.0,26.0,26.0,26.0,26.0,-0.15888888888888886,0.27680000000000016,-0.021050000000000003,294.495,-2.6455,-2.7583333333333333,0.9057999999999999,0.8121,-262.52,216.26749999999998,190.911625,0.0,0.0,0.0,0.0,0.009233333333333316,-5.498166666666667,-5.498166666666667,-0.5754,-0.9415,-0.08833333333333337,-0.40500000000000025,66.137,-0.1216,-0.27335000000000004,1.3820000000000014,100.0,1.0,1.0,204.07333333333332,0.0,0.0,0.0,0.0,0.0,0.0,0.0,8649.9,0.0,55.0,5.0,238.06666666666666,0.0,0.0,0.0,0.0,0.0,0.0,0.0,0.0,0.20400000000000063,0.20400000000000063,0.0,0.0,0.0,55.0,616.79921,10000.0,85.000001,85.000001,85.000001,85.000001,395.0,0.0,0.0,0.0,1.0,333.33500000000004,53.024,53.024,50.43,50.43,34.0,-29.552500000000002,19.48,0.46999999999999886,-11.2425,0.0,1782.563,0.5150000000000006,100.0,27.931,26.663,41.328,39.602000000000004,0.0,1.0,100.0,0.0,0.0,0.0,0.0,3222.4285714285716,2973.0,4082.5,3712.9,305.0615,305.41575,314.79925,315.592,21.8174,20.5324,21.849,21.3633,314.999998,314.999998,324.999988,324.999988,99.5589,99.50726666666667,99.56941428571429,99.54715714285715,-0.03925000000000001,-0.15799999999999992,-0.22733333333333336,-0.017000000000000015,-0.03999999999999915,-0.061666666666667425,1.4903333333333333,1.5625,37.358999999999995,29.327666666666666,37.556,34.5205,56.187,34.635999999999996,58.509,51.1115,54.134,33.7815,59.1025,50.903999999999996,53.328,33.3245,61.0845,51.8,-0.03299999999999992,-0.11149999999999993,0.108715,0.11309500000000001,0.0,207.19,207.065,204.07333333333332,204.07333333333332,0.0,0.0
5,0.0,1.0,0.0,1.0,1.0,0.0,0.0,1.0,0.0,100.0,1.0,1.1856,26.0,0.0,0.0,0.0,59.999996,0.0,26.0,26.0,26.0,26.0,-0.15455555555555556,0.2942,-0.025575,294.54,-2.6565,-2.7777777777777777,0.92265,0.8244,-259.14,216.2525,190.89125,0.0,0.0,0.0,0.0,0.011199999999999988,-5.498166666666667,-5.498166666666667,-0.5678000000000001,0.46399999999999997,-0.09588888888888869,-0.43999999999999995,66.285,-0.1241,-0.250925,1.2699999999999996,100.0,1.0,1.0,204.49666666666667,0.0,0.0,0.0,0.0,0.0,0.0,0.0,8667.8,0.0,55.0,5.0,238.59333333333333,1.0,0.0,0.0,0.0,0.0,0.0,0.0,0.0,0.254999999999999,0.254999999999999,0.0,0.0,1.0,55.0,616.79921,10000.0,85.000001,85.000001,85.000001,85.000001,395.0,0.0,0.0,0.0,1.0,166.665,53.375,53.375,50.69,50.69,34.0,-28.9175,18.104,-0.07750000000000057,-13.355,0.0,1782.514,0.120000000000001,100.0,27.945,26.782,40.961,39.38,0.0,1.0,100.0,0.0,0.0,0.0,0.0,3219.285714285714,2725.4,4209.375,4021.2,305.144,306.04575,314.667,314.85025,21.8274,20.5375,21.8598,21.3722,314.999998,314.999998,324.999988,324.999988,99.5589,99.50728333333333,99.56957142857142,99.54728571428572,-0.02499999999999991,-0.15266666666666673,-0.24116666666666667,-0.03083333333333338,-0.03333333333333144,-0.030000000000001137,1.5053333333333332,1.5325000000000002,37.421,29.359666666666666,37.623999999999995,34.576499999999996,56.174,34.6775,58.542,51.162,54.122,33.8195,59.135,50.9555,53.315,33.361,61.116,51.8535,-0.07200000000000006,-0.08250000000000002,0.10349000000000001,0.116445,0.0,207.66500000000002,207.575,204.49666666666667,204.49666666666667,0.0,0.0
6,0.0,1.0,0.0,1.0,1.0,0.0,0.0,1.0,0.0,100.0,1.0,1.1856,26.0,0.0,0.0,0.0,59.999996,0.0,26.0,26.0,26.0,26.0,-0.1296666666666666,0.2932000000000001,-0.011375,294.312,-2.6209,-2.756111111111111,0.8797,0.7851,-255.96,216.23250000000002,190.871875,0.0,0.0,0.0,0.0,0.01306666666666656,-5.498166666666667,-5.498166666666667,-0.5627,0.02749999999999997,-0.07855555555555549,-0.3620000000000001,66.423,-0.11420000000000001,-0.252125,0.886000000000001,100.0,1.0,1.0,204.89666666666668,0.0,0.0,0.0,0.0,0.0,0.0,0.0,8684.8,0.0,55.0,5.0,239.0966666666667,0.0,0.0,0.0,0.0,0.0,0.0,0.0,0.0,0.3030000000000008,0.3030000000000008,0.0,0.0,0.0,55.0,616.79921,10000.0,85.000001,85.000001,85.000001,85.000001,395.0,0.0,0.0,0.0,1.0,166.665,53.024,53.024,50.43,50.43,34.0,-28.8375,20.086,0.28000000000000114,-12.080000000000002,0.0,1782.465,-0.07499999999999929,100.0,27.857,26.844,41.138,39.749,0.0,1.0,100.0,0.0,0.0,0.0,0.0,3265.5714285714284,2874.9,4144.75,3960.5,304.999,305.53425,314.797,314.95025,21.8368,20.5423,21.8701,21.3809,314.999998,314.999998,324.999988,324.999988,99.55891428571428,99.5073,99.5697,99.54741428571428,-0.018999999999999906,-0.1286666666666667,-0.22383333333333336,-0.020333333333333314,-0.054999999999999716,-0.054999999999999716,1.4916666666666667,1.5155000000000003,37.480000000000004,29.389666666666663,37.688,34.6305,56.16,34.7155,58.574,51.213,54.108999999999995,33.8545,59.1665,51.0075,53.301,33.3945,61.147,51.907,-0.07600000000000007,-0.05799999999999983,0.10955000000000001,0.10773500000000001,0.0,208.085,208.01,204.89666666666668,204.89666666666668,0.0,0.0
7,0.0,1.0,0.0,1.0,1.0,0.0,0.0,1.0,0.0,100.0,1.0,1.1856,26.0,0.0,0.0,0.0,59.999996,0.0,26.0,26.0,26.0,26.0,-0.09033333333333338,0.28869999999999996,0.0196,294.067,-2.6014,-2.7395555555555555,0.9149,0.7887,-252.36,216.21,190.85025,0.0,0.0,0.0,0.0,0.015133333333333332,-5.498166666666667,-5.498166666666667,-0.5665,-0.009000000000000119,-0.06099999999999994,-0.17500000000000027,66.578,-0.0879,-0.26195,0.4120000000000008,100.0,1.0,1.0,205.35666666666668,0.0,0.0,0.0,0.0,0.0,0.0,0.0,8704.3,0.0,55.0,5.0,239.65333333333334,1.0,0.0,0.0,0.0,0.0,0.0,0.0,0.0,0.3569999999999993,0.3569999999999993,0.0,0.0,1.0,55.0,616.79921,10000.0,85.000001,85.000001,85.000001,85.000001,395.0,0.0,0.0,0.0,1.0,166.665,52.658,52.658,50.507,50.507,34.0,-27.65,21.573999999999998,2.397500000000001,-10.41,0.0,1782.412,-0.3299999999999983,100.0,27.959,26.967,41.147999999999996,40.022,0.0,1.0,100.0,0.0,0.0,0.0,0.0,3306.857142857143,2943.7,4092.25,4038.6000000000004,304.7615,305.28025,314.88025,314.72775,21.8473,20.5478,21.8817,21.3906,314.999998,314.999998,324.999988,324.999988,99.55891428571428,99.50731666666667,99.56985714285715,99.54755714285714,0.01650000000000018,-0.10299999999999998,-0.19566666666666666,0.01766666666666672,-0.05333333333332746,-0.03166666666666629,1.4976666666666667,1.4905,37.545,29.423666666666666,37.76,34.691,56.144999999999996,34.7575,58.609,51.269999999999996,54.094,33.8935,59.201,51.0655,53.286,33.4315,61.1805,51.9675,-0.10149999999999992,-0.044500000000000206,0.11125000000000002,0.113445,0.0,208.55,208.485,205.35666666666668,205.35666666666668,0.0,0.0
8,0.0,1.0,0.0,1.0,1.0,0.0,0.0,1.0,0.0,100.0,1.0,1.1856,26.0,0.0,0.0,0.0,59.999996,0.0,26.0,26.0,26.0,26.0,-0.057222222222222174,0.29000000000000004,-0.030525,294.327,-2.6753,-2.723777777777778,0.93055,0.8611,-249.16,216.185,190.830875,0.0,0.0,0.0,0.0,0.016999999999999904,-5.498166666666667,-5.498166666666667,-0.5655,-0.4215,-0.04222222222222216,-0.3570000000000002,66.71600000000001,-0.0637,-0.250625,0.006000000000000227,100.0,1.0,1.0,205.71333333333334,0.0,0.0,0.0,0.0,0.0,0.0,0.0,8719.5,0.0,55.0,5.0,240.14666666666668,0.0,0.0,0.0,0.0,0.0,0.0,0.0,0.0,0.40500000000000114,0.40500000000000114,0.0,0.0,0.0,55.0,616.79921,10000.0,85.000001,85.000001,85.000001,85.000001,395.0,0.0,0.0,0.0,1.0,166.665,53.635,53.635,49.728,49.728,34.0,-24.2775,21.46,4.662500000000001,-10.3975,0.0,1782.364,-0.4349999999999987,100.0,27.53,26.898,41.08,40.125,0.0,1.0,100.0,0.0,0.0,0.0,0.0,2977.142857142857,2882.5,4240.5,4144.8,305.852,305.531,314.492,314.491,21.8564,20.5527,21.8919,21.3992,314.999998,314.999998,324.999988,324.999988,99.55892857142857,99.50731666666667,99.56998571428572,99.54768571428572,0.03400000000000025,-0.08766666666666678,-0.164,0.043333333333333224,-0.04333333333332945,-0.03833333333332689,1.4613333333333334,1.4655,37.602999999999994,29.454,37.824,34.745,56.129000000000005,34.7935,58.6395,51.32,54.079,33.9265,59.231,51.1165,53.269999999999996,33.463499999999996,61.2095,52.021,-0.10749999999999993,-0.03949999999999987,0.10823500000000001,0.10522000000000001,0.0,208.945,208.935,205.71333333333334,205.71333333333334,0.0,0.0
9,0.0,1.0,0.0,1.0,1.0,0.0,0.0,1.0,0.0,100.0,1.0,1.1856,26.0,0.0,0.0,0.0,59.999996,0.0,26.0,26.0,26.0,26.0,-0.03988888888888886,0.28269999999999995,0.0344,294.022,-2.6753,-2.727444444444444,0.87115,0.8618,-245.76,216.16,190.80975,0.0,0.0,0.0,0.0,0.018999999999999906,-5.498166666666667,-5.498166666666667,-0.5732,0.667,-0.038000000000000256,0.879,66.858,-0.0363,-0.2526,-0.20399999999999974,100.0,1.0,1.0,206.28333333333333,0.0,0.0,0.0,0.0,0.0,0.0,0.0,8743.5,0.0,55.0,5.0,240.66,1.0,0.0,0.0,0.0,0.0,0.0,0.0,0.0,0.4559999999999995,0.4559999999999995,0.0,0.0,1.0,55.0,616.79921,10000.0,85.000001,85.000001,85.000001,85.000001,395.0,0.0,0.0,0.0,1.0,166.665,52.338,52.338,50.888,50.888,34.0,-25.997500000000002,24.564,5.18,-8.2925,0.0,1782.312,-0.509999999999998,100.0,28.081,27.204,40.777,40.095,0.0,1.0,100.0,0.0,0.0,0.0,0.0,3300.4285714285716,3095.2,3976.25,4093.8,304.7425,304.9875,315.182,314.75425,21.8663,20.558,21.9026,21.4083,314.999998,314.999998,324.999988,324.999988,99.55892857142857,99.50733333333334,99.57012857142857,99.54781428571428,0.06850000000000023,-0.055333333333333234,-0.1315,0.0758333333333332,-0.03833333333332689,-0.051666666666669414,1.5330000000000001,1.524,37.664,29.487666666666666,37.891,34.802,56.116,34.833,58.669,51.372,54.066,33.963,59.26,51.17,53.256,33.4985,61.237,52.076499999999996,-0.12149999999999994,-0.035499999999999865,0.11015000000000001,0.106065,0.0,209.4,209.41500000000002,206.28333333333333,206.28333333333333,0.0,0.0
10,0.0,1.0,0.0,1.0,1.0,0.0,0.0,1.0,0.0,100.0,1.0,1.1856,26.0,0.0,0.0,0.0,59.999996,0.0,26.0,26.0,26.0,26.0,0.0015555555555555323,0.28500000000000014,0.053925,293.793,-2.6536,-2.706666666666667,0.833,0.8818,-242.55,216.1325,190.790125,0.0,0.0,0.0,0.0,0.02086666666666659,-5.498166666666667,-5.498166666666667,-0.5487000000000001,-0.3985000000000001,0.0032222222222222374,1.822,66.998,-0.013300000000000001,-0.24152500000000002,-0.4320000000000004,100.0,1.0,1.0,206.48666666666668,0.0,0.0,0.0,0.0,0.0,0.0,0.0,8752.2,0.0,55.0,5.0,241.16333333333336,0.0,0.0,0.0,0.0,0.0,0.0,1.0,0.0,0.5040000000000013,0.5040000000000013,0.0,0.0,0.0,55.0,616.79921,10000.0,85.000001,85.000001,85.000001,85.000001,395.0,0.0,0.0,0.0,1.0,166.665,53.329,53.329,49.271,49.271,34.0,-21.415,23.458,6.712499999999999,-8.145,0.0,1782.265,-0.384999999999998,100.0,27.943,27.212,41.185,40.822,0.0,1.0,100.0,0.0,0.0,0.0,0.0,2838.857142857143,2969.4,4328.625,4367.5,306.0945,305.43775,314.261,314.033,21.8754,20.563,21.9129,21.4172,314.999998,314.999998,324.999988,324.999988,99.55894285714285,99.50735,99.57025714285714,99.54795714285714,0.0754999999999999,-0.04800000000000004,-0.10733333333333334,0.09749999999999992,-0.03999999999999915,-0.06499999999999773,1.4376666666666669,1.4104999999999999,37.722,29.518666666666668,37.956,34.8575,56.104,34.868,58.701,51.4255,54.055,33.9955,59.2915,51.2245,53.244,33.5295,61.2675,52.132999999999996,-0.10899999999999999,-0.0405000000000002,0.112585,0.10923000000000001,0.0,209.815,209.845,206.48666666666668,206.48666666666668,0.0,0.0
11,0.0,1.0,0.0,1.0,1.0,0.0,0.0,1.0,0.0,100.0,1.0,1.1856,26.0,0.0,0.0,0.0,59.999996,0.0,26.0,26.0,26.0,26.0,0.023333333333333428,0.27659999999999996,-0.10032500000000001,294.388,-2.7029,-2.658666666666667,0.8725,0.8916,-239.13,216.10500000000002,190.7695,0.0,0.0,0.0,0.0,0.022599999999999953,-5.498166666666667,-5.498166666666667,-0.5940000000000001,-0.3055000000000001,0.025111111111111084,-0.758,67.137,0.0086,-0.277825,-0.3799999999999999,100.0,1.0,1.0,207.23000000000002,0.0,0.0,0.0,0.0,0.0,0.0,0.0,8783.8,0.0,55.0,5.0,241.66666666666666,1.0,0.0,0.0,0.0,0.0,0.0,1.0,0.0,0.5549999999999997,0.5549999999999997,0.0,0.0,1.0,55.0,616.79921,10000.0,85.000001,85.000001,85.000001,85.000001,395.0,0.0,0.0,0.0,1.0,166.665,52.734,52.734,51.01,51.01,34.0,-23.83,24.366,6.262500000000003,-5.859999999999999,0.0,1782.214,-0.23000000000000043,100.0,27.582,27.606,40.705,40.852000000000004,0.0,1.0,100.0,0.0,0.0,0.0,0.0,3110.0,3088.0,3692.5,3849.9,305.491,304.8495,315.8815,315.2705,21.884999999999998,20.5684,21.9236,21.4264,314.999998,314.999998,324.999988,324.999988,99.55894285714285,99.50735,99.57038571428572,99.5481,0.07975000000000021,-0.048666666666666636,-0.1,0.1186666666666667,-0.04999999999999716,-0.041666666666671404,1.5843333333333334,1.581,37.781,29.552666666666667,38.022,34.915,56.088,34.9065,58.729,51.4785,54.04,34.031,59.3185,51.2785,53.228,33.5635,61.2935,52.189499999999995,-0.09799999999999986,-0.05650000000000022,0.11084500000000001,0.10998500000000001,0.0,210.22,210.235,207.23000000000002,207.23000000000002,0.0,0.0
12,0.0,1.0,0.0,1.0,1.0,0.0,0.0,1.0,0.0,100.0,1.0,1.1856,26.0,0.0,0.0,0.0,59.999996,0.0,26.0,26.0,26.0,26.0,0.013555555555555543,0.2983,0.01225,293.777,-2.745,-2.692,0.8808,0.8852,-235.7,216.07999999999998,190.747375,0.0,0.0,0.0,0.0,0.025466666666666526,-5.498166666666667,-5.498166666666667,-0.5774,0.30699999999999994,0.007555555555555538,0.6600000000000001,67.283,0.0125,-0.243625,-0.12399999999999967,100.0,1.0,1.0,207.44666666666666,0.0,0.0,0.0,0.0,0.0,0.0,0.0,8792.9,0.0,55.0,5.0,242.19,0.0,0.0,0.0,0.0,0.0,0.0,1.0,0.0,0.6059999999999981,0.6059999999999981,0.0,0.0,0.0,55.0,616.79921,10000.0,85.000001,85.000001,85.000001,85.000001,395.0,0.0,0.0,0.0,1.0,166.665,52.719,52.719,49.606,49.606,34.0,-23.4275,25.93,8.68,-6.6899999999999995,0.0,1782.163,-0.29499999999999815,100.0,27.64,27.575,40.72,40.663,0.0,1.0,100.0,0.0,0.0,0.0,0.0,3059.714285714286,3186.1,4216.75,4238.9,305.496,304.74825,314.564,314.396,21.8945,20.5739,21.9343,21.4355,314.999998,314.999998,324.999988,324.999988,99.55895714285714,99.50735,99.57052857142857,99.54822857142857,0.09200000000000008,-0.03433333333333333,-0.08266666666666668,0.11683333333333334,-0.03833333333332689,-0.036666666666668846,1.4593333333333334,1.4705,37.841,29.587,38.09,34.972,56.074,34.945499999999996,58.76,51.5315,54.025999999999996,34.067,59.349000000000004,51.333,53.213,33.598,61.3225,52.246,-0.09499999999999997,-0.058499999999999996,0.11002,0.10576,0.0,210.71,210.7,207.44666666666666,207.44666666666666,0.0,0.0
13,0.0,1.0,0.0,1.0,1.0,0.0,0.0,1.0,0.0,100.0,1.0,1.1856,26.0,0.0,0.0,0.0,59.999996,0.0,26.0,26.0,26.0,26.0,0.007555555555555538,0.28690000000000015,0.03715,293.427,-2.7231,-2.6882222222222225,0.8471,0.8961,-232.26,216.0525,190.72575,0.0,0.0,0.0,0.0,0.026833333333333376,-5.498166666666667,-5.498166666666667,-0.5710000000000001,-0.10749999999999993,0.0003333333333332966,-0.8620000000000001,67.426,0.013000000000000001,-0.253825,-0.1459999999999999,100.0,1.0,1.0,207.83666666666667,0.0,0.0,0.0,0.0,0.0,0.0,0.0,8809.4,0.0,55.0,5.0,242.70333333333335,1.0,0.0,0.0,0.0,0.0,0.0,1.0,0.0,0.657,0.657,0.0,0.0,1.0,55.0,616.79921,10000.0,85.000001,85.000001,85.000001,85.000001,395.0,0.0,0.0,0.0,1.0,166.665,52.399,52.399,49.591,49.591,34.0,-24.6175,24.668,6.922499999999999,-7.524999999999999,0.0,1782.112,-0.3200000000000003,100.0,27.843,27.89,40.888,41.207,0.0,1.0,100.0,0.0,0.0,0.0,0.0,3208.4285714285716,3046.3,4267.875,4265.7,305.213,304.984,314.49525,314.22,21.9042,20.5794,21.9452,21.4449,314.999998,314.999998,324.999988,324.999988,99.55897142857143,99.50736666666667,99.57067142857143,99.54837142857143,0.08599999999999985,-0.03833333333333311,-0.10516666666666667,0.10783333333333323,-0.04333333333332945,-0.041666666666671404,1.4486666666666668,1.4365,37.900999999999996,29.621333333333332,38.158,35.031,56.062,34.9835,58.7915,51.5875,54.015,34.1025,59.379999999999995,51.3905,53.201,33.632,61.3525,52.3055,-0.09799999999999986,-0.04999999999999982,0.11227500000000001,0.09984000000000001,0.0,211.14,211.14,207.83666666666667,207.83666666666667,0.0,0.0
14,0.0,1.0,0.0,1.0,1.0,0.0,0.0,1.0,0.0,100.0,1.0,1.1856,26.0,0.0,0.0,0.0,59.999996,0.0,26.0,26.0,26.0,26.0,0.02499999999999991,0.2782,-0.00525,293.716,-2.7121,-2.6405555555555558,0.8149,0.9014,-229.01999999999998,216.0275,190.70575,0.0,0.0,0.0,0.0,0.02873333333333339,-5.498166666666667,-5.498166666666667,-0.5814,-0.16949999999999998,0.020999999999999908,-0.016999999999999904,67.55799999999999,0.0143,-0.267075,-0.13999999999999968,100.0,1.0,1.0,208.32999999999998,0.0,0.0,0.0,0.0,0.0,0.0,0.0,8830.4,0.0,55.0,5.0,243.18,0.0,0.0,0.0,0.0,0.0,0.0,1.0,0.0,0.7049999999999983,0.7049999999999983,0.0,0.0,0.0,55.0,616.79921,10000.0,85.000001,85.000001,85.000001,85.000001,395.0,0.0,0.0,0.0,1.0,166.665,52.551,52.551,49.911,49.911,34.0,-23.3775,24.886,6.3075000000000045,-6.3225,0.0,1782.063,-0.3249999999999993,100.0,27.818,27.857,40.93,41.266999999999996,0.0,1.0,100.0,0.0,0.0,0.0,0.0,3109.142857142857,3100.8,4077.5,4122.0,305.495,304.8535,314.97325,314.60725,21.9132,20.5845,21.9554,21.4537,314.999998,314.999998,324.999988,324.999988,99.55898571428571,99.50736666666667,99.5708,99.54851428571429,0.09250000000000025,-0.03400000000000003,-0.1,0.12366666666666681,-0.046666666666666856,-0.051666666666669414,1.497,1.4935,37.958,29.653333333333336,38.221000000000004,35.085499999999996,56.051,35.019,58.820499999999996,51.638,54.004000000000005,34.135,59.408,51.442,53.189,33.6635,61.379,52.3595,-0.10549999999999993,-0.04850000000000021,0.10753000000000001,0.11678500000000001,0.0,211.555,211.56,208.32999999999998,208.32999999999998,0.0,0.0
15,0.0,1.0,0.0,1.0,1.0,0.0,0.0,1.0,0.0,100.0,1.0,1.1856,26.0,0.0,0.0,0.0,59.999996,0.0,26.0,26.0,26.0,26.0,0.02111111111111108,0.28190000000000004,-0.037375,293.73199999999997,-2.682,-2.599,0.8190999999999999,0.9417,-225.78,216.0025,190.685375,0.0,0.0,0.0,0.0,0.03059999999999996,-5.498166666666667,-5.498166666666667,-0.5724,0.32099999999999995,0.048222222222222166,-0.395,67.69,0.017,-0.24902500000000002,-0.22200000000000042,100.0,1.0,1.0,208.7266666666667,0.0,0.0,0.0,0.0,0.0,0.0,0.0,8847.2,0.0,55.0,5.0,243.65666666666667,1.0,0.0,0.0,0.0,0.0,0.0,1.0,0.0,0.7530000000000001,0.7530000000000001,0.0,0.0,1.0,55.0,616.79921,10000.0,85.000001,85.000001,85.000001,85.000001,395.0,0.0,0.0,0.0,1.0,166.665,52.719,52.719,49.957,49.957,34.0,-21.775,24.186,6.82,-7.350000000000001,0.0,1782.015,-0.3249999999999993,100.0,27.843,27.899,40.732,41.269999999999996,0.0,1.0,100.0,0.0,0.0,0.0,0.0,2969.142857142857,3068.0,4048.25,4291.2,305.854,304.937,315.0575,314.2175,21.9223,20.5897,21.9655,21.4624,314.999998,314.999998,324.999988,324.999988,99.55898571428571,99.50736666666667,99.57092857142857,99.54864285714285,0.09699999999999998,-0.03533333333333322,-0.09116666666666667,0.12233333333333318,-0.046666666666666856,-0.051666666666669414,1.4896666666666667,1.4780000000000002,38.013999999999996,29.685333333333332,38.284,35.14,56.039,35.055,58.8475,51.6895,53.992000000000004,34.1685,59.4345,51.4945,53.177,33.695499999999996,61.403999999999996,52.414500000000004,-0.10399999999999987,-0.051000000000000156,0.11156,0.10974,0.0,211.98000000000002,211.98000000000002,208.7266666666667,208.7266666666667,0.0,0.0
16,0.0,1.0,0.0,1.0,1.0,0.0,0.0,1.0,0.0,100.0,1.0,1.1856,26.0,0.0,0.0,0.0,59.999996,0.0,26.0,26.0,26.0,26.0,0.016888888888888953,0.2693000000000001,-0.020975,293.762,-2.7632,-2.648777777777778,0.8551,0.9345,-222.32,215.97750000000002,190.663375,0.0,0.0,0.0,0.0,0.03259999999999996,-5.498166666666667,-5.498166666666667,-0.5938,-0.7555000000000001,0.026111111111110974,0.14100000000000001,67.831,0.0176,-0.26265,-0.20199999999999996,100.0,1.0,1.0,209.14333333333332,0.0,0.0,0.0,0.0,0.0,0.0,0.0,8864.8,0.0,55.0,5.0,244.16666666666666,0.0,0.0,0.0,0.0,0.0,0.0,1.0,0.0,0.8039999999999985,0.8039999999999985,0.0,0.0,0.0,55.0,616.79921,10000.0,85.000001,85.000001,85.000001,85.000001,395.0,0.0,0.0,0.0,1.0,333.33500000000004,52.719,52.719,49.591,49.591,34.0,-22.96,25.692,7.747500000000002,-6.995000000000001,0.0,1781.962,-0.23499999999999943,100.0,27.603,27.749,41.157,41.257,0.0,1.0,100.0,0.0,0.0,0.0,0.0,3010.0,3208.8,3997.875,4140.9,305.7535,304.68575,315.09575,314.62175,21.9316,20.5952,21.976399999999998,21.4717,314.999998,314.999998,324.999988,324.999988,99.559,99.50736666666667,99.57107142857143,99.54878571428571,0.09375,-0.03600000000000003,-0.08233333333333333,0.1206666666666667,-0.045000000000001705,-0.06333333333333258,1.4906666666666668,1.499,38.073,29.72,38.352000000000004,35.198,56.022999999999996,35.0955,58.8805,51.746,53.976,34.206,59.467,51.553,53.16,33.7315,61.4355,52.475,-0.09499999999999997,-0.05900000000000016,0.10919500000000001,0.10228000000000001,0.0,212.37,212.38,209.14333333333332,209.14333333333332,0.0,0.0
17,0.0,1.0,0.0,1.0,1.0,0.0,0.0,1.0,0.0,100.0,1.0,1.1856,26.0,0.0,0.0,0.0,59.999996,0.0,26.0,26.0,26.0,26.0,0.016222222222222138,0.28049999999999997,-0.0016250000000000001,293.472,-2.7195,-2.6085555555555557,0.82395,0.9055,-218.86,215.9525,190.64075,0.0,0.0,0.0,0.0,0.034633333333333294,-5.498166666666667,-5.498166666666667,-0.5824,0.5365,-0.0018888888888888289,-0.8240000000000003,67.971,0.0146,-0.24325000000000002,-0.04999999999999982,100.0,1.0,1.0,209.56,0.0,0.0,0.0,0.0,0.0,0.0,0.0,8882.4,0.0,55.0,5.0,244.66333333333336,1.0,0.0,0.0,0.0,0.0,0.0,1.0,0.0,0.8550000000000004,0.8550000000000004,0.0,0.0,1.0,55.0,616.79921,10000.0,85.000001,85.000001,85.000001,85.000001,395.0,0.0,0.0,0.0,1.0,166.665,52.444,52.444,49.637,49.637,34.0,-24.035,23.09,7.109999999999999,-6.955,0.0,1781.914,-0.254999999999999,100.0,28.029,28.136,40.897999999999996,41.248000000000005,0.0,1.0,100.0,0.0,0.0,0.0,0.0,3189.5714285714284,2976.9,4307.625,4190.6,305.3165,305.27125,314.536,314.52125,21.9413,20.6008,21.987099999999998,21.4809,314.999998,314.999998,324.999988,324.999988,99.55901428571428,99.50738333333334,99.57121428571429,99.54892857142858,0.09375,-0.04299999999999993,-0.09616666666666668,0.11583333333333323,-0.045000000000001705,-0.05333333333332746,1.479,1.4769999999999999,38.132999999999996,29.754666666666665,38.419,35.256,56.012,35.1325,58.908,51.796,53.967,34.24,59.4935,51.604,53.149,33.7645,61.460499999999996,52.528,-0.10450000000000004,-0.06099999999999994,0.11551000000000002,0.10404000000000001,0.0,212.85000000000002,212.84,209.56,209.56,0.0,0.0
18,0.0,1.0,0.0,1.0,1.0,0.0,0.0,1.0,0.0,100.0,1.0,1.1856,26.0,0.0,0.0,0.0,59.999996,0.0,26.0,26.0,26.0,26.0,0.0013333333333334085,0.2781,-0.002975,293.289,-2.7431,-2.5906666666666665,0.81115,0.955,-215.39,215.9275,190.61825,0.0,0.0,0.0,0.0,0.036633333333333296,-5.498166666666667,-5.498166666666667,-0.5928,-0.5265,0.020000000000000018,1.013,68.11,0.0109,-0.262575,-0.13200000000000056,100.0,1.0,1.0,209.9766666666667,0.0,0.0,0.0,0.0,0.0,0.0,0.0,8900.1,0.0,55.0,5.0,245.17000000000002,0.0,0.0,0.0,0.0,0.0,0.0,1.0,0.0,0.9059999999999988,0.9059999999999988,0.0,0.0,0.0,55.0,616.79921,10000.0,85.000001,85.000001,85.000001,85.000001,395.0,0.0,0.0,0.0,1.0,166.665,52.155,52.155,49.347,49.347,34.0,-23.565,26.39,6.902500000000003,-7.710000000000001,0.0,1781.862,-0.3150000000000013,100.0,28.047,27.871,41.403,41.528999999999996,0.0,1.0,100.0,0.0,0.0,0.0,0.0,3118.0,3305.8,4092.25,4207.0,305.4,304.46925,314.91025,314.4985,21.9508,20.6063,21.998,21.4904,314.999998,314.999998,324.999988,324.999988,99.55902857142857,99.50738333333334,99.57134285714285,99.54907142857142,0.0990000000000002,-0.026000000000000023,-0.08983333333333333,0.11633333333333318,-0.030000000000001137,-0.051666666666669414,1.4776666666666667,1.484,38.193,29.789,38.486999999999995,35.315,55.998999999999995,35.17,58.939499999999995,51.851,53.954,34.275,59.525,51.6605,53.135,33.798,61.4905,52.587,-0.09850000000000003,-0.052000000000000046,0.109615,0.10348500000000001,0.0,213.245,213.235,209.9766666666667,209.9766666666667,0.0,0.0
19,0.0,1.0,0.0,1.0,1.0,0.0,0.0,1.0,0.0,100.0,1.0,1.1856,26.0,0.0,0.0,0.0,59.999996,0.0,26.0,26.0,26.0,26.0,-0.00722222222222213,0.2876000000000001,0.029775000000000003,292.908,-2.707,-2.586222222222222,0.8049999999999999,0.9648,-212.12,215.905,190.597,0.0,0.0,0.0,0.0,0.03853333333333331,-5.498166666666667,-5.498166666666667,-0.5851000000000001,0.869,0.021333333333333204,0.6869999999999998,68.239,0.0149,-0.25220000000000004,-0.18599999999999994,100.0,1.0,1.0,210.38,0.0,0.0,0.0,0.0,0.0,0.0,0.0,8917.3,0.0,55.0,5.0,245.63333333333333,1.0,0.0,0.0,0.0,0.0,0.0,1.0,0.0,0.9540000000000006,0.9540000000000006,0.0,0.0,1.0,55.0,616.79921,10000.0,85.000001,85.000001,85.000001,85.000001,395.0,0.0,0.0,0.0,1.0,166.665,51.528999999999996,51.528999999999996,49.347,49.347,34.0,-23.822499999999998,25.884,7.585000000000001,-7.550000000000001,0.0,1781.814,-0.254999999999999,100.0,28.596,28.326999999999998,41.161,41.421,0.0,1.0,100.0,0.0,0.0,0.0,0.0,3174.0,3299.2,4213.375,4359.6,305.117,304.38425,314.68775,314.19925,21.9599,20.6116,22.0081,21.4991,314.999998,314.999998,324.999988,324.999988,99.55904285714286,99.5074,99.57148571428571,99.5492,0.09975000000000023,-0.038000000000000034,-0.08,0.12683333333333335,-0.041666666666671404,-0.04999999999999716,1.4966666666666668,1.4769999999999999,38.25,29.822666666666667,38.55,35.3695,55.989999999999995,35.2085,58.966499999999996,51.9015,53.945,34.3105,59.551,51.712,53.125,33.832,61.5155,52.6405,-0.10149999999999992,-0.06700000000000017,0.11093000000000001,0.10863500000000001,0.0,213.69,213.685,210.38,210.38,0.0,0.0
20,0.0,1.0,0.0,1.0,1.0,0.0,0.0,1.0,0.0,100.0,1.0,1.1856,26.0,0.0,0.0,0.0,59.999996,0.0,26.0,26.0,26.0,26.0,0.004222222222222127,0.28300000000000014,-0.0325,293.198,-2.7561,-2.646888888888889,0.8779,0.8438,-208.63,215.8825,190.57475,0.0,0.0,0.0,0.0,0.04056666666666653,-5.498166666666667,-5.498166666666667,-0.5857,-1.0535,0.01866666666666661,-0.8740000000000001,68.38,0.0146,-0.26080000000000003,-0.16000000000000014,100.0,1.0,1.0,210.67666666666668,0.0,0.0,0.0,0.0,0.0,0.0,0.0,8929.8,0.0,55.0,5.0,246.14,0.0,0.0,0.0,0.0,0.0,0.0,0.0,0.0,1.004999999999999,1.004999999999999,0.0,0.0,0.0,55.0,616.79921,10000.0,85.000001,85.000001,85.000001,85.000001,395.0,0.0,0.0,0.0,1.0,333.33500000000004,52.734,52.734,48.629999999999995,48.629999999999995,34.0,-22.665,24.009999999999998,8.0475,-6.7325,0.0,1781.763,-0.2699999999999996,100.0,27.894,28.122,41.649,41.9,0.0,1.0,100.0,0.0,0.0,0.0,0.0,2976.4285714285716,3028.2,4268.0,4271.8,305.964,305.07975,314.47075,314.105,21.9692,20.6171,22.0191,21.5086,314.999998,314.999998,324.999988,324.999988,99.55905714285714,99.5074,99.57162857142858,99.54934285714286,0.08950000000000014,-0.040999999999999925,-0.09516666666666668,0.10833333333333317,-0.03499999999999659,-0.03499999999999659,1.4353333333333333,1.4260000000000002,38.308,29.857,38.619,35.429,55.974999999999994,35.246,59.0,51.957,53.93,34.345,59.584,51.769,53.109,33.8655,61.547,52.7005,-0.10099999999999998,-0.0535000000000001,0.10942,0.10389500000000002,0.0,214.07,214.055,210.67666666666668,210.67666666666668,0.0,0.0
21,0.0,1.0,0.0,1.0,1.0,0.0,0.0,1.0,0.0,100.0,1.0,1.1856,26.0,0.0,0.0,0.0,59.999996,0.0,26.0,26.0,26.0,26.0,0.03600000000000003,0.27680000000000016,-0.07412500000000001,293.594,-2.6659,-2.709,0.81475,0.8825,-205.35,215.86,190.553,0.0,0.0,0.0,0.0,0.04249999999999998,-5.498166666666667,-5.498166666666667,-0.6117,0.4155,-0.0012222222222222356,-0.9300000000000002,68.505,0.012100000000000001,-0.26532500000000003,-0.09200000000000053,100.0,1.0,1.0,211.32666666666665,0.0,0.0,0.0,0.0,0.0,0.0,0.0,8957.3,0.0,55.0,5.0,246.59,1.0,0.0,0.0,0.0,0.0,0.0,0.0,0.0,1.0530000000000008,1.0530000000000008,0.0,0.0,1.0,55.0,616.79921,10000.0,85.000001,85.000001,85.000001,85.000001,395.0,0.0,0.0,0.0,1.0,333.33500000000004,52.2,52.2,50.064,50.064,34.0,-23.56,24.966,6.800000000000004,-6.1775,0.0,1781.715,-0.2699999999999996,100.0,28.112000000000002,28.215,41.072,41.417,0.0,1.0,100.0,0.0,0.0,0.0,0.0,3179.142857142857,3035.7,4015.5,3976.3,305.2705,304.99575,315.21975,315.037,21.9782,20.6224,22.029,21.5173,314.999998,314.999998,324.999988,324.999988,99.55905714285714,99.5074,99.57175714285714,99.54947142857142,0.09375,-0.03433333333333333,-0.08766666666666667,0.11533333333333329,-0.04999999999999716,-0.04833333333333201,1.547,1.5425,38.364000000000004,29.89,38.681,35.483000000000004,55.963,35.283,59.024,52.0045,53.919,34.3795,59.6075,51.818,53.097,33.897999999999996,61.569,52.751,-0.10499999999999998,-0.058499999999999996,0.10209000000000001,0.103855,0.0,214.5,214.48000000000002,211.32666666666665,211.32666666666665,0.0,0.0
22,0.0,1.0,0.0,1.0,1.0,0.0,0.0,1.0,0.0,100.0,1.0,1.1856,26.0,0.0,0.0,0.0,59.999996,0.0,26.0,26.0,26.0,26.0,0.016444444444444484,0.274,0.005125,293.03,-2.6497,-2.7092222222222224,0.81645,0.8946,-201.85,215.8375,190.52925,0.0,0.0,0.0,0.0,0.044533333333333314,-5.498166666666667,-5.498166666666667,-0.5897,0.10549999999999993,0.013222222222222024,1.228,68.644,0.0082,-0.24382500000000001,-0.14399999999999924,100.0,1.0,1.0,211.53,0.0,0.0,0.0,0.0,0.0,0.0,0.0,8966.0,0.0,55.0,5.0,247.09,0.0,0.0,0.0,0.0,0.0,0.0,0.0,0.0,1.1039999999999992,1.1039999999999992,0.0,0.0,0.0,55.0,616.79921,10000.0,85.000001,85.000001,85.000001,85.000001,395.0,0.0,0.0,0.0,1.0,333.33500000000004,52.261,52.261,48.859,48.859,34.0,-21.165,25.562,6.780000000000001,-6.84,0.0,1781.663,-0.4299999999999997,100.0,28.382,28.207,41.561,41.605000000000004,0.0,1.0,100.0,0.0,0.0,0.0,0.0,2933.4285714285716,3132.1,4217.125,4400.5,305.7815,304.83575,314.6055,314.071,21.9877,20.628,22.0399,21.526699999999998,314.999998,314.999998,324.999988,324.999988,99.55907142857143,99.5074,99.5719,99.54962857142857,0.10349999999999993,-0.03833333333333311,-0.09833333333333333,0.12216666666666676,-0.03999999999999915,-0.05833333333333002,1.4423333333333332,1.4420000000000002,38.423,29.924999999999997,38.748999999999995,35.542,55.951,35.3215,59.056,52.0595,53.908,34.415,59.638999999999996,51.874,53.085,33.9325,61.5995,52.8095,-0.10949999999999993,-0.051000000000000156,0.11202000000000001,0.112015,0.0,214.93,214.925,211.53,211.53,0.0,0.0
23,0.0,1.0,0.0,1.0,1.0,0.0,0.0,1.0,0.0,100.0,1.0,1.1856,26.0,0.0,0.0,0.0,59.999996,0.0,26.0,26.0,26.0,26.0,0.013777777777777889,0.2610000000000001,-0.016325,293.06,-2.6823,-2.658555555555556,0.7637499999999999,0.9201,-198.14,215.8125,190.504375,0.0,0.0,0.0,0.0,0.04666666666666652,-5.498166666666667,-5.498166666666667,-0.6097,-0.14200000000000013,0.011777777777777887,0.5840000000000001,68.786,0.010400000000000001,-0.27082500000000004,-0.266,100.0,1.0,1.0,212.09333333333333,0.0,0.0,0.0,0.0,0.0,0.0,0.0,8989.9,0.0,55.0,5.0,247.60666666666668,1.0,0.0,0.0,0.0,0.0,0.0,0.0,0.0,1.1580000000000013,1.1580000000000013,0.0,0.0,1.0,55.0,616.79921,10000.0,85.000001,85.000001,85.000001,85.000001,395.0,0.0,0.0,0.0,1.0,166.665,51.605,51.605,49.82,49.82,34.0,-23.49,26.25,5.93,-6.700000000000001,0.0,1781.611,-0.3949999999999996,100.0,28.592,28.306,41.594,41.878,0.0,1.0,100.0,0.0,0.0,0.0,0.0,3212.285714285714,3203.5,3993.25,4059.7,304.994,304.70375,315.25025,314.8995,21.997799999999998,20.634,22.0514,21.5367,314.999998,314.999998,324.999988,324.999988,99.55908571428571,99.50741666666667,99.57205714285715,99.54977142857143,0.10999999999999988,-0.024666666666666615,-0.09033333333333333,0.11883333333333335,-0.060000000000002274,-0.041666666666671404,1.5106666666666668,1.5085000000000002,38.486000000000004,29.962333333333333,38.821,35.6045,55.939,35.3625,59.0875,52.117,53.896,34.4535,59.6695,51.933,53.072,33.969,61.628,52.871,-0.11450000000000005,-0.04499999999999993,0.11040000000000001,0.10362500000000001,0.0,215.35000000000002,215.335,212.09333333333333,212.09333333333333,0.0,0.0
24,0.0,1.0,0.0,1.0,1.0,0.0,0.0,1.0,0.0,100.0,1.0,1.1856,26.0,0.0,0.0,0.0,59.999996,0.0,26.0,26.0,26.0,26.0,0.024555555555555664,0.27370000000000005,-0.042800000000000005,293.274,-2.7105,-2.665111111111111,0.8419,0.8929,-194.82999999999998,215.79250000000002,190.48175,0.0,0.0,0.0,0.0,0.04859999999999998,-5.498166666666667,-5.498166666666667,-0.6145,-0.573,0.024222222222222145,1.164,68.91499999999999,0.0199,-0.25775000000000003,-0.3379999999999992,100.0,1.0,1.0,212.38,0.0,0.0,0.0,0.0,0.0,0.0,0.0,9002.1,0.0,55.0,5.0,248.06666666666666,0.0,0.0,0.0,0.0,0.0,0.0,0.0,0.0,1.2059999999999995,1.2059999999999995,0.0,0.0,0.0,55.0,616.79921,10000.0,85.000001,85.000001,85.000001,85.000001,395.0,0.0,0.0,0.0,1.0,166.665,52.719,52.719,48.888999999999996,48.888999999999996,34.0,-21.1875,24.614,8.042500000000004,-6.08,0.0,1781.563,-0.34999999999999787,100.0,28.236,28.038,41.625,41.817,0.0,1.0,100.0,0.0,0.0,0.0,0.0,2885.857142857143,3065.2,4230.375,4221.6,306.04,305.1695,314.54375,314.467,22.0066,20.6391,22.0615,21.5455,314.999998,314.999998,324.999988,324.999988,99.5591,99.50741666666667,99.57218571428571,99.5499,0.1030000000000002,-0.03299999999999992,-0.084,0.129,-0.030000000000001137,-0.054999999999999716,1.463,1.4565000000000001,38.541,29.994666666666667,38.884,35.6595,55.927,35.3975,59.1155,52.167,53.884,34.4855,59.6975,51.9845,53.059,34.0,61.6545,52.924,-0.10749999999999993,-0.053999999999999826,0.11434000000000001,0.10966500000000001,0.0,215.73000000000002,215.755,212.38,212.38,0.0,0.0
25,0.0,1.0,0.0,1.0,1.0,0.0,0.0,1.0,0.0,100.0,1.0,1.1856,26.0,0.0,0.0,0.0,59.999996,0.0,26.0,26.0,26.0,26.0,0.03966666666666674,0.26270000000000016,-0.0391,293.091,-2.779,-2.6189999999999998,0.82605,0.8916999999999999,-191.32,215.76999999999998,190.456375,0.0,0.0,0.0,0.0,0.05063333333333331,-5.498166666666667,-5.498166666666667,-0.6433,0.05699999999999994,0.025777777777777677,-1.0949999999999998,69.048,0.0223,-0.2637,-0.2679999999999998,100.0,1.0,1.0,212.92000000000002,0.0,0.0,0.0,0.0,0.0,0.0,0.0,9024.9,0.0,55.0,5.0,248.54666666666668,1.0,0.0,0.0,0.0,0.0,0.0,0.0,0.0,1.256999999999998,1.256999999999998,0.0,0.0,1.0,55.0,616.79921,10000.0,85.000001,85.000001,85.000001,85.000001,395.0,0.0,0.0,0.0,1.0,166.665,51.575,51.575,49.683,49.683,34.0,-25.59,26.762,7.332500000000003,-6.005000000000001,0.0,1781.512,-0.3999999999999986,100.0,28.073,28.445999999999998,41.221000000000004,41.67,0.0,1.0,100.0,0.0,0.0,0.0,0.0,3334.5714285714284,3296.5,3970.25,4075.1000000000004,304.962,304.26025,315.28225,314.763,22.0158,20.6448,22.0721,21.5548,314.999998,314.999998,324.999988,324.999988,99.55911428571429,99.50743333333334,99.57232857142857,99.55004285714286,0.10000000000000009,-0.02933333333333321,-0.08016666666666668,0.125,-0.045000000000001705,-0.05833333333333002,1.5123333333333333,1.5150000000000001,38.599000000000004,30.03,38.951,35.7175,55.913,35.4365,59.1425,52.219,53.870999999999995,34.5215,59.7235,52.0375,53.045,34.035,61.6795,52.979,-0.10650000000000004,-0.05549999999999988,0.10978500000000001,0.10362,0.0,216.15,216.16500000000002,212.92000000000002,212.92000000000002,0.0,0.0
26,0.0,1.0,0.0,1.0,1.0,0.0,0.0,1.0,0.0,100.0,1.0,1.1856,26.0,0.0,0.0,0.0,59.999996,0.0,26.0,26.0,26.0,26.0,0.034777777777777796,0.2671000000000001,0.08285000000000001,292.038,-2.7342,-2.692222222222222,0.7761,0.9007000000000001,-188.0,215.75,190.432125,0.0,0.0,0.0,0.0,0.05256666666666654,-5.498166666666667,-5.498166666666667,-0.6063000000000001,0.685,0.01200000000000001,-0.7130000000000001,69.17699999999999,0.024,-0.2398,-0.26399999999999935,100.0,1.0,1.0,213.06666666666666,0.0,0.0,0.0,0.0,0.0,0.0,0.0,9031.1,0.0,55.0,5.0,249.01,0.0,0.0,0.0,0.0,0.0,0.0,0.0,0.0,1.3049999999999997,1.3049999999999997,0.0,0.0,0.0,55.0,616.79921,10000.0,85.000001,85.000001,85.000001,85.000001,395.0,0.0,0.0,0.0,1.0,166.665,51.254,51.254,48.019,48.019,34.0,-24.085,25.612000000000002,8.189999999999998,-6.925000000000001,0.0,1781.463,-0.4549999999999983,100.0,28.89,29.097,41.656,42.107,0.0,1.0,100.0,0.0,0.0,0.0,0.0,3237.714285714286,3093.3,4596.875,4516.6,305.1225,304.757,313.8275,313.6905,22.0248,20.6503,22.0824,21.5638,314.999998,314.999998,324.999988,324.999988,99.55912857142857,99.50743333333334,99.57245714285715,99.55018571428572,0.1080000000000001,-0.03133333333333321,-0.07816666666666668,0.12783333333333324,-0.046666666666666856,-0.03999999999999915,1.383,1.3719999999999999,38.655,30.064666666666668,39.015,35.7735,55.905,35.475,59.1725,52.271,53.863,34.557,59.753,52.091,53.036,34.069,61.707499999999996,53.0345,-0.119,-0.05049999999999999,0.105385,0.11211000000000002,0.0,216.59,216.57999999999998,213.06666666666666,213.06666666666666,0.0,0.0
27,0.0,1.0,0.0,1.0,1.0,0.0,0.0,1.0,0.0,100.0,1.0,1.1856,26.0,0.0,0.0,0.0,59.999996,0.0,26.0,26.0,26.0,26.0,0.041444444444444395,0.2530000000000001,-0.030075,292.542,-2.7047,-2.655111111111111,0.78235,0.8326,-184.67000000000002,215.73250000000002,190.409,0.0,0.0,0.0,0.0,0.05449999999999999,-5.498166666666667,-5.498166666666667,-0.63,-1.041,0.017555555555555546,-0.7709999999999999,69.30199999999999,0.0213,-0.283725,-0.3379999999999992,100.0,1.0,1.0,213.54666666666668,0.0,0.0,0.0,0.0,0.0,0.0,0.0,9051.5,0.0,55.0,5.0,249.46,1.0,0.0,0.0,0.0,0.0,0.0,0.0,0.0,1.352999999999998,1.352999999999998,0.0,0.0,1.0,55.0,616.79921,10000.0,85.000001,85.000001,85.000001,85.000001,395.0,0.0,0.0,0.0,1.0,166.665,51.727,51.727,48.400999999999996,48.400999999999996,34.0,-22.2725,26.024,6.532499999999999,-4.745000000000001,0.0,1781.415,-0.5350000000000001,100.0,28.489,28.907,42.238,42.696,0.0,1.0,100.0,0.0,0.0,0.0,0.0,3116.0,3133.8,4154.25,4090.6000000000004,305.514,304.7345,314.7965,314.61425,22.0335,20.6557,22.0927,21.5729,314.999998,314.999998,324.999988,324.999988,99.55914285714286,99.50743333333334,99.5726,99.55032857142857,0.11850000000000005,-0.019333333333333202,-0.0915,0.13383333333333325,-0.05333333333332746,-0.03499999999999659,1.446,1.4425,38.71,30.098,39.079,35.8305,55.894,35.510999999999996,59.2025,52.323499999999996,53.852000000000004,34.5905,59.7825,52.1445,53.024,34.101,61.7355,53.0905,-0.12450000000000006,-0.035499999999999865,0.11096,0.11454,0.0,216.91500000000002,216.92000000000002,213.54666666666668,213.54666666666668,0.0,0.0
28,0.0,1.0,0.0,1.0,1.0,0.0,0.0,1.0,0.0,100.0,1.0,1.1856,26.0,0.0,0.0,0.0,59.999996,0.0,26.0,26.0,26.0,26.0,0.03533333333333322,0.27,-0.05795,292.847,-2.682,-2.6581111111111113,0.79315,0.8646,-181.14,215.7125,190.38375,0.0,0.0,0.0,0.0,0.05656666666666654,-5.498166666666667,-5.498166666666667,-0.6364000000000001,0.6675,0.00922222222222202,0.649,69.432,0.0297,-0.259,-0.556,100.0,1.0,1.0,214.07666666666665,0.0,0.0,0.0,0.0,0.0,0.0,0.0,9073.9,0.0,55.0,5.0,249.92666666666668,0.0,0.0,0.0,0.0,0.0,0.0,0.0,0.0,1.404,1.404,0.0,0.0,0.0,55.0,616.79921,10000.0,85.000001,85.000001,85.000001,85.000001,395.0,0.0,0.0,0.0,1.0,333.33500000000004,51.650999999999996,51.650999999999996,49.423,49.423,34.0,-21.7275,26.674,7.862500000000004,-4.8575,0.0,1781.363,-0.4450000000000003,100.0,28.728,28.63,41.613,42.056,0.0,1.0,100.0,0.0,0.0,0.0,0.0,3097.5714285714284,3200.7,4034.875,4163.7,305.337,304.695,315.1665,314.64825,22.0429,20.6614,22.1032,21.5821,314.999998,314.999998,324.999988,324.999988,99.55915714285715,99.50743333333334,99.57274285714286,99.55047142857143,0.12849999999999984,-0.014999999999999902,-0.06416666666666668,0.14050000000000007,-0.051666666666669414,-0.03833333333332689,1.5203333333333333,1.496,38.768,30.134,39.144999999999996,35.888,55.884,35.55,59.2285,52.3745,53.842,34.6265,59.8075,52.1965,53.013,34.1355,61.7585,53.1445,-0.12199999999999989,-0.04249999999999998,0.106895,0.10085000000000001,0.0,217.37,217.375,214.07666666666665,214.07666666666665,0.0,0.0
29,0.0,1.0,0.0,1.0,1.0,0.0,0.0,1.0,0.0,100.0,1.0,1.1856,26.0,0.0,0.0,0.0,59.999996,0.0,26.0,26.0,26.0,26.0,0.04777777777777792,0.2551000000000001,-0.006425,292.618,-2.6756,-2.6981111111111113,0.83595,0.8857,-177.38,215.695,190.35575,0.0,0.0,0.0,0.0,0.058733333333333304,-5.498166666666667,-5.498166666666667,-0.6403,-0.7370000000000001,0.016999999999999904,0.8279999999999998,69.575,0.0356,-0.258375,-0.5139999999999993,100.0,1.0,1.0,214.33333333333331,0.0,0.0,0.0,0.0,0.0,0.0,0.0,9084.9,0.0,55.0,5.0,250.44333333333333,1.0,0.0,0.0,0.0,0.0,0.0,0.0,0.0,1.4579999999999984,1.4579999999999984,0.0,0.0,1.0,55.0,616.79921,10000.0,85.000001,85.000001,85.000001,85.000001,395.0,0.0,0.0,0.0,1.0,166.665,51.956,51.956,48.553,48.553,34.0,-21.2025,27.422,8.985,-5.2925,0.0,1781.311,-0.46499999999999986,100.0,28.363,28.487000000000002,42.002,42.34,0.0,1.0,100.0,0.0,0.0,0.0,0.0,3035.0,3206.6,4128.5,4354.1,305.604,304.6285,314.767,314.125,22.0527,20.6674,22.1147,21.5922,314.999998,314.999998,324.999988,324.999988,99.55917142857143,99.50745,99.5729,99.55061428571429,0.12550000000000017,-0.008999999999999897,-0.06283333333333334,0.14450000000000007,-0.030000000000001137,-0.05333333333332746,1.4426666666666668,1.42,38.829,30.171333333333333,39.217,35.951499999999996,55.870000000000005,35.5895,59.2615,52.4325,53.829,34.6635,59.84,52.2565,52.998000000000005,34.171,61.789500000000004,53.2065,-0.11850000000000005,-0.04200000000000026,0.1097,0.10247500000000001,0.0,217.75,217.785,214.33333333333331,214.33333333333331,0.0,0.0
30,0.0,1.0,0.0,1.0,1.0,0.0,0.0,1.0,0.0,100.0,1.0,1.1856,26.0,0.0,0.0,0.0,59.999996,0.0,26.0,26.0,26.0,26.0,0.058222222222222175,0.2692000000000001,0.051750000000000004,292.099,-2.6874000000000002,-2.5875555555555554,0.8648,0.8311999999999999,-174.04,215.68,190.33075,0.0,0.0,0.0,0.0,0.060666666666666536,-5.498166666666667,-5.498166666666667,-0.6384000000000001,0.856,0.012777777777777777,0.6920000000000002,69.696,0.0385,-0.25985,-0.4820000000000002,100.0,1.0,1.0,214.81,0.0,0.0,0.0,0.0,0.0,0.0,0.0,9105.0,0.0,55.0,5.0,250.88,0.0,0.0,0.0,0.0,0.0,0.0,1.0,0.0,1.5060000000000002,1.5060000000000002,0.0,0.0,0.0,55.0,616.79921,10000.0,85.000001,85.000001,85.000001,85.000001,395.0,0.0,0.0,0.0,1.0,166.665,50.568,50.568,48.95,48.95,34.0,-22.919999999999998,27.428,9.3125,-3.6050000000000004,0.0,1781.262,-0.4549999999999983,100.0,29.278,29.272,41.747,42.325,0.0,1.0,100.0,0.0,0.0,0.0,0.0,3260.4285714285716,3310.6,4128.75,4189.5,304.8175,304.268,314.86425,314.49925,22.0617,20.6731,22.1248,21.6011,314.999998,314.999998,324.999988,324.999988,99.5592,99.50745,99.57304285714285,99.55075714285714,0.13350000000000017,-0.009666666666666712,-0.0635,0.15466666666666673,-0.036666666666668846,-0.060000000000002274,1.4626666666666668,1.4535,38.885999999999996,30.206666666666663,39.28,36.007,55.863,35.6285,59.287,52.4825,53.822,34.6995,59.865,52.3075,52.989999999999995,34.206,61.813,53.2595,-0.119,-0.05049999999999999,0.10906,0.11189500000000001,0.0,218.16500000000002,218.2,214.81,214.81,0.0,0.0
31,0.0,1.0,0.0,1.0,1.0,0.0,0.0,1.0,0.0,100.0,1.0,1.1856,26.0,0.0,0.0,0.0,59.999996,0.0,26.0,26.0,26.0,26.0,0.052000000000000046,0.25860000000000016,0.048925,291.779,-2.7751,-2.618444444444444,0.8170999999999999,0.933,-170.69,215.66500000000002,190.3065,0.0,0.0,0.0,0.0,0.06263333333333332,-5.498166666666667,-5.498166666666667,-0.6243000000000001,-0.5145,0.020777777777777784,0.6269999999999998,69.822,0.039900000000000005,-0.26425000000000004,-0.5439999999999996,100.0,1.0,1.0,215.02666666666667,0.0,0.0,0.0,0.0,0.0,0.0,0.0,9114.3,0.0,55.0,5.0,251.33333333333334,1.0,0.0,0.0,0.0,0.0,0.0,1.0,0.0,1.5539999999999985,1.5539999999999985,0.0,0.0,1.0,55.0,616.79921,10000.0,85.000001,85.000001,85.000001,85.000001,395.0,0.0,0.0,0.0,1.0,333.33500000000004,51.086,51.086,47.379,47.379,34.0,-22.12,28.278,9.550000000000004,-5.1850000000000005,0.0,1781.212,-0.48499999999999943,100.0,29.003,29.274,42.493,43.002,0.0,1.0,100.0,0.0,0.0,0.0,0.0,3088.5714285714284,3382.3,4325.125,4346.1,305.541,304.258,314.27975,314.097,22.0705,20.6786,22.1351,21.6102,314.999998,314.999998,324.999988,324.999988,99.5592,99.50745,99.57317142857143,99.5509,0.13350000000000017,-0.006999999999999895,-0.058166666666666665,0.15916666666666668,-0.03833333333332689,-0.046666666666666856,1.4126666666666667,1.3855,38.94,30.241,39.344,36.064,55.852999999999994,35.666,59.318,52.536,53.812,34.734,59.894999999999996,52.3625,52.979,34.239,61.841499999999996,53.317,-0.123,-0.04899999999999993,0.109975,0.10451500000000001,0.0,218.54000000000002,218.555,215.02666666666667,215.02666666666667,0.0,0.0
32,0.0,1.0,0.0,1.0,1.0,0.0,0.0,1.0,0.0,100.0,1.0,1.1856,26.0,0.0,0.0,0.0,59.999996,0.0,26.0,26.0,26.0,26.0,0.056777777777777816,0.2793000000000001,-0.015025,292.145,-2.6977,-2.6718888888888888,0.768,0.8747,-167.13,215.6525,190.281,0.0,0.0,0.0,0.0,0.06469999999999998,-5.498166666666667,-5.498166666666667,-0.6401,-0.07899999999999996,-0.007222222222222019,-1.0149999999999997,69.95,0.043500000000000004,-0.270625,-0.4939999999999998,100.0,1.0,1.0,215.54000000000002,0.0,0.0,0.0,0.0,0.0,0.0,0.0,9136.0,0.0,55.0,5.0,251.79333333333335,0.0,0.0,0.0,0.0,0.0,0.0,1.0,0.0,1.6050000000000004,1.6050000000000004,0.0,0.0,0.0,55.0,616.79921,10000.0,85.000001,85.000001,85.000001,85.000001,395.0,0.0,0.0,0.0,1.0,166.665,51.315,51.315,48.294,48.294,34.0,-22.3925,26.412,8.335,-4.734999999999999,0.0,1781.163,-0.47499999999999787,100.0,28.773,29.302,42.177,42.864000000000004,0.0,1.0,100.0,0.0,0.0,0.0,0.0,3214.5714285714284,3124.8,4274.125,4287.6,305.1995,304.771,314.6335,314.3425,22.0798,20.6844,22.1458,21.6197,314.999998,314.999998,324.999988,324.999988,99.55922857142858,99.50745,99.57331428571429,99.55104285714286,0.13350000000000017,-0.01200000000000001,-0.06,0.14850000000000008,-0.045000000000001705,-0.05333333333332746,1.4803333333333333,1.4700000000000002,38.998999999999995,30.27766666666667,39.411,36.123,55.842,35.7055,59.346000000000004,52.588499999999996,53.802,34.771,59.9225,52.4165,52.968,34.274,61.867,53.373,-0.12149999999999994,-0.04349999999999987,0.10975000000000001,0.10581000000000002,0.0,218.94,218.96,215.54000000000002,215.54000000000002,0.0,0.0
33,0.0,1.0,0.0,1.0,1.0,0.0,0.0,1.0,0.0,100.0,1.0,1.1856,26.0,0.0,0.0,0.0,59.999996,0.0,26.0,26.0,26.0,26.0,0.05800000000000005,0.2529000000000001,-0.06535,292.404,-2.7376,-2.6656666666666666,0.8202499999999999,0.843,-163.56,215.64,190.25425,0.0,0.0,0.0,0.0,0.06676666666666653,-5.498166666666667,-5.498166666666667,-0.6492,-0.31200000000000006,0.002555555555555644,1.226,70.08,0.042100000000000005,-0.258825,-0.492,100.0,1.0,1.0,215.92333333333335,0.0,0.0,0.0,0.0,0.0,0.0,0.0,9152.2,0.0,55.0,5.0,252.26,1.0,0.0,0.0,0.0,0.0,0.0,1.0,0.0,1.6559999999999988,1.6559999999999988,0.0,0.0,1.0,55.0,616.79921,10000.0,85.000001,85.000001,85.000001,85.000001,395.0,0.0,0.0,0.0,1.0,166.665,51.697,51.697,48.569,48.569,34.0,-21.6375,26.637999999999998,8.370000000000005,-4.280000000000001,0.0,1781.113,-0.509999999999998,100.0,28.740000000000002,28.91,42.136,42.688,0.0,1.0,100.0,0.0,0.0,0.0,0.0,3062.4285714285716,3155.8,4116.625,4304.3,305.5725,304.84075,314.8425,314.292,22.089,20.6901,22.1565,21.6292,314.999998,314.999998,324.999988,324.999988,99.55924285714286,99.50745,99.57345714285714,99.5512,0.133,-0.007333333333333192,-0.06816666666666667,0.14850000000000008,-0.05333333333332746,-0.04999999999999716,1.465,1.4465,39.056,30.313000000000002,39.477999999999994,36.182,55.831,35.742,59.374,52.641,53.792,34.805,59.95,52.4705,52.956,34.307,61.893,53.429,-0.12149999999999994,-0.039000000000000146,0.1154,0.10472500000000001,0.0,219.345,219.35000000000002,215.92333333333335,215.92333333333335,0.0,0.0
34,0.0,1.0,0.0,1.0,1.0,0.0,0.0,1.0,0.0,100.0,1.0,1.1856,26.0,0.0,0.0,0.0,59.999996,0.0,26.0,26.0,26.0,26.0,0.056222222222222173,0.2549000000000001,-0.052325,292.648,-2.6738,-2.663222222222222,0.76065,0.878,-160.19,215.63,190.227875,0.0,0.0,0.0,0.0,0.06873333333333331,-5.498166666666667,-5.498166666666667,-0.6749,-0.7495,0.024222222222222145,0.8140000000000001,70.201,0.046400000000000004,-0.26475,-0.5539999999999994,100.0,1.0,1.0,216.29333333333335,0.0,0.0,0.0,0.0,0.0,0.0,0.0,9167.8,0.0,55.0,5.0,252.7,0.0,0.0,0.0,0.0,0.0,0.0,1.0,0.0,1.7040000000000006,1.7040000000000006,0.0,0.0,0.0,55.0,616.79921,10000.0,85.000001,85.000001,85.000001,85.000001,395.0,0.0,0.0,0.0,1.0,166.665,52.032,52.032,48.981,48.981,34.0,-20.585,26.212,7.890000000000001,-4.432500000000001,0.0,1781.064,-0.4499999999999993,100.0,28.516,28.589,41.953,42.734,0.0,1.0,100.0,0.0,0.0,0.0,0.0,3027.0,3096.1,4100.5,4264.1,305.644,304.943,314.95675,314.36225,22.0976,20.6954,22.1665,21.6381,314.999998,314.999998,324.999988,324.999988,99.55925714285715,99.50746666666667,99.5736,99.55132857142857,0.1382500000000002,-0.005666666666666709,-0.059833333333333336,0.15416666666666679,-0.05833333333333002,-0.041666666666671404,1.4683333333333333,1.4625,39.11,30.346333333333334,39.54,36.2385,55.82,35.7765,59.3995,52.692,53.781,34.8365,59.9745,52.5225,52.944,34.3375,61.916,53.483000000000004,-0.11599999999999988,-0.04249999999999998,0.10971500000000001,0.10644,0.0,219.695,219.715,216.29333333333335,216.29333333333335,0.0,0.0
35,0.0,1.0,0.0,1.0,1.0,0.0,0.0,1.0,0.0,100.0,1.0,1.1856,26.0,0.0,0.0,0.0,59.999996,0.0,26.0,26.0,26.0,26.0,0.0802222222222222,0.2491000000000001,-0.040575,292.664,-2.7401,-2.600888888888889,0.78575,0.9211,-156.61,215.62,190.198,0.0,0.0,0.0,0.0,0.0708333333333333,-5.498166666666667,-5.498166666666667,-0.7154,-0.3275000000000001,0.008333333333333304,-1.0570000000000004,70.328,0.049100000000000005,-0.2718,-0.4500000000000002,100.0,1.0,1.0,216.76333333333332,0.0,0.0,0.0,0.0,0.0,0.0,0.0,9187.9,0.0,55.0,5.0,253.15666666666667,1.0,0.0,0.0,0.0,0.0,0.0,1.0,0.0,1.754999999999999,1.754999999999999,0.0,0.0,1.0,55.0,616.79921,10000.0,85.000001,85.000001,85.000001,85.000001,395.0,0.0,0.0,0.0,1.0,333.33500000000004,51.544,51.544,48.584,48.584,34.0,-22.8475,27.726,8.017499999999998,-4.99,0.0,1781.012,-0.3150000000000013,100.0,28.171,28.98,41.713,42.326,0.0,1.0,100.0,0.0,0.0,0.0,0.0,3153.5714285714284,3346.1,4078.25,4037.8,305.439,304.109,314.982,314.88875,22.1066,20.7013,22.1771,21.6474,314.999998,314.999998,324.999988,324.999988,99.55927142857144,99.50746666666667,99.57374285714286,99.55148571428572,0.1200000000000001,-0.015333333333333199,-0.06266666666666666,0.15016666666666678,-0.05333333333332746,-0.046666666666666856,1.5023333333333333,1.4945,39.166,30.383,39.607,36.2965,55.807,35.815,59.4265,52.7415,53.768,34.8725,60.001,52.573499999999996,52.93,34.372,61.9405,53.536,-0.10399999999999987,-0.05750000000000011,0.113445,0.099695,0.0,220.085,220.13,216.76333333333332,216.76333333333332,0.0,0.0
36,0.0,1.0,0.0,1.0,1.0,0.0,0.0,1.0,0.0,100.0,1.0,1.1856,26.0,0.0,0.0,0.0,59.999996,0.0,26.0,26.0,26.0,26.0,0.07188888888888889,0.25460000000000016,0.061525,291.992,-2.6599,-2.7030000000000003,0.84275,0.8759,-153.02,215.6125,190.16675,0.0,0.0,0.0,0.0,0.07289999999999996,-5.498166666666667,-5.498166666666667,-0.6967,0.16600000000000004,-0.03400000000000025,0.17300000000000004,70.459,0.0417,-0.24415,-0.2779999999999996,100.0,1.0,1.0,216.95666666666668,0.0,0.0,0.0,0.0,0.0,0.0,0.0,9196.0,0.0,55.0,5.0,253.62333333333333,0.0,0.0,0.0,0.0,0.0,0.0,1.0,0.0,1.806000000000001,1.806000000000001,0.0,0.0,0.0,55.0,616.79921,10000.0,85.000001,85.000001,85.000001,85.000001,395.0,0.0,0.0,0.0,1.0,166.665,51.453,51.453,48.141,48.141,34.0,-20.849999999999998,27.342,10.112500000000004,-4.885,0.0,1780.963,-0.28999999999999915,100.0,28.916,28.98,41.931,42.489000000000004,0.0,1.0,100.0,0.0,0.0,0.0,0.0,3004.857142857143,3188.6,4373.375,4565.4,305.48,304.65275,314.25975,313.678,22.1159,20.7072,22.1878,21.657,314.999998,314.999998,324.999988,324.999988,99.55928571428572,99.50746666666667,99.57388571428571,99.55162857142857,0.13100000000000023,-0.009333333333333194,-0.057666666666666665,0.15316666666666667,-0.03166666666666629,-0.051666666666669414,1.4026666666666667,1.3935,39.224000000000004,30.42,39.674,36.3565,55.797,35.855000000000004,59.455,52.796,53.757999999999996,34.9095,60.028999999999996,52.6295,52.919,34.4075,61.967,53.594,-0.10450000000000004,-0.05900000000000016,0.10676000000000001,0.10892,0.0,220.535,220.54500000000002,216.95666666666665,216.95666666666668,0.0,0.0
