,ABS Active,ABS Enabled,AID Allow Tire Blankets,AID Auto Blip,AID Auto Clutch,AID Auto Shift,AID Fuel Rate,AID Ideal Line,AID Mech Damage,AID Stability,AID Tire Wear Rate,Air Density,Air Temp,Ballast,Best Lap Delta,Best Lap Time,Brake Bias,Brake Pos,Brake Temp FL,Brake Temp FR,Brake Temp RL,Brake Temp RR,CG Accel Lateral,CG Accel Longitudinal,CG Accel Vertical,CG Height,Camber FL,Camber FR,Camber RL,Camber RR,Car Coord X,Car Coord Y,Car Coord Z,Car Damage Front,Car Damage Left,Car Damage Rear,Car Damage Right,Car Pos Norm,Caster FL,Caster FR,Chassis Pitch Angle,Chassis Pitch Rate,Chassis Roll Angle,Chassis Roll Rate,Chassis Velocity X,Chassis Velocity Y,Chassis Velocity Z,Chassis Yaw Rate,Clutch Pos,DRS Active,DRS Available,Drive Train Speed,ERS Heat Charging,ERS Is Charging,ERS Max Energy,ERS Power Level,ERS Recovery Level,Engine Brake Setting,Engine Limiter,Engine RPM,Flags,Fuel Level,Gear,Ground Speed,HR Sample Clock,In Pit,KERS Charge,KERS Deployed Energy,KERS Input,KERS Max Energy,LR Sample Clock,Lap Invalidated,Lap Time,Lap Time2,Last Lap Time,Last Sector Time,MR Sample Clock,Max Fuel,Max Power,Max RPM,Max Sus Travel FL,Max Sus Travel FR,Max Sus Travel RL,Max Sus Travel RR,Max Torque,Max Turbo Boost,Num Tires Off Track,Penalties Enabled,Position,Raw Data Sample Rate,Ride Height FL,Ride Height FR,Ride Height RL,Ride Height RR,Road Temp,Self Align Torque FL,Self Align Torque FR,Self Align Torque RL,Self Align Torque RR,Session Lap Count,Session Time Left,Steering Angle,Surface Grip,Suspension Travel FL,Suspension Travel FR,Suspension Travel RL,Suspension Travel RR,TC Active,TC Enabled,Throttle Pos,Tire Dirt Level FL,Tire Dirt Level FR,Tire Dirt Level RL,Tire Dirt Level RR,Tire Load FL,Tire Load FR,Tire Load RL,Tire Load RR,Tire Loaded Radius FL,Tire Loaded Radius FR,Tire Loaded Radius RL,Tire Loaded Radius RR,Tire Pressure FL,Tire Pressure FR,Tire Pressure RL,Tire Pressure RR,Tire Radius FL,Tire Radius FR,Tire Radius RL,Tire Radius RR,Tire Rubber Grip FL,Tire Rubber Grip FR,Tire Rubber Grip RL,Tire Rubber Grip RR,Tire Slip Angle FL,Tire Slip Angle FR,Tire Slip Angle RL,Tire Slip Angle RR,Tire Slip Ratio FL,Tire Slip Ratio FR,Tire Slip Ratio RL,Tire Slip Ratio RR,Tire Temp Core FL,Tire Temp Core FR,Tire Temp Core RL,Tire Temp Core RR,Tire Temp Inner FL,Tire Temp Inner FR,Tire Temp Inner RL,Tire Temp Inner RR,Tire Temp Middle FL,Tire Temp Middle FR,Tire Temp Middle RL,Tire Temp Middle RR,Tire Temp Outer FL,Tire Temp Outer FR,Tire Temp Outer RL,Tire Temp Outer RR,Toe In FL,Toe In FR,Toe In RL,Toe In RR,Turbo Boost,Wheel Angular Speed FL,Wheel Angular Speed FR,Wheel Angular Speed RL,Wheel Angular Speed RR,Wind Direction,Wind Speed
0,0.0,1.0,0.0,1.0,1.0,0.0,0.0,1.0,0.0,100.0,1.0,1.1856,26.0,0.0,0.0,0.0,59.99999,0.0,26.0,26.0,26.0,26.0,-0.06266666666666665,0.3066,0.06586666666666667,293.579,-2.7267,-2.652333333333333,-3.13675,-3.1638888888888888,-275.67,216.28750000000002,190.987125,0.0,0.0,0.0,0.0,0.0015999999999999348,-5.498166666666667,-5.498166666666667,-0.5294,1.1453333333333333,0.0003333333333332966,-0.487,65.42099999999999,-0.0315,-0.191775,1.0700000000000003,100.0,1.0,1.0,202.16,0.0,0.0,0.0,0.0,0.0,0.0,0.0,8568.8,0.0,55.0,5.0,235.48333333333335,0.0,0.0,0.0,0.0,0.0,0.0,0.0,0.0,0.0030000000000001137,0.0030000000000001137,0.0,0.0,0.0,55.0,616.79921,10000.0,85.0,85.0,85.0,85.0,395.0,0.0,0.0,0.0,1.0,20.0,52.933,52.933,48.676,48.676,34.0,-25.09,24.041666666666664,-48.06666666666666,44.6875,0.0,1783.685,0.8000000000000007,100.0,27.464,26.887,41.507,41.554,0.0,1.0,100.0,0.0,0.0,0.0,0.0,2930.142857142857,3386.8,4057.125,4012.7,305.9435,304.082,314.95775,314.82225,21.755222222222223,20.5105,21.7567,21.2823,314.99999,314.99999,324.99998,324.99998,99.55771428571428,99.50716666666666,99.56475714285715,99.54422857142858,0.012333333333333307,-0.10766666666666658,-0.157,0.085,-0.06499999999999773,-0.05666666666667197,1.649,1.6710000000000003,36.97,29.1905,36.979,34.013999999999996,55.876000000000005,34.4235,60.218,52.178,53.834,33.638999999999996,57.591,49.6375,53.028999999999996,33.246,56.2875,48.144666666666666,-0.010999999999999899,-0.13350000000000017,0.09775,0.11557,0.0,205.035,204.94,202.16,202.16,0.0,0.0
1,0.0,1.0,0.0,1.0,1.0,0.0,0.0,1.0,0.0,100.0,1.0,1.1856,26.0,0.0,0.0,0.0,59.999996,0.0,26.0,26.0,26.0,26.0,-0.09211111111111103,0.3237000000000001,0.14313333333333333,292.511,-2.6363,-2.766222222222222,-3.1368,-3.163777777777778,-272.33,216.285,190.96675,0.0,0.0,0.0,0.0,0.0035333333333333883,-5.498166666666667,-5.498166666666667,-0.4822,-0.58,-0.05677777777777804,-0.714,65.574,-0.0476,-0.17275000000000001,1.4220000000000006,100.0,1.0,1.0,202.3,0.0,0.0,0.0,0.0,0.0,0.0,0.0,8574.7,0.0,55.0,5.0,236.0366666666667,1.0,0.0,0.0,0.0,0.0,0.0,0.0,0.0,0.053999999999998494,0.053999999999998494,0.0,0.0,1.0,55.0,616.79921,10000.0,85.000001,85.000001,85.000001,85.000001,395.0,0.0,0.0,0.0,1.0,333.33500000000004,53.467,53.467,47.379,47.379,34.0,-27.674999999999997,18.314999999999998,-54.156666666666666,52.1825,0.0,1783.634,0.9400000000000013,100.0,27.561,27.045,43.602000000000004,42.625,0.0,1.0,100.0,0.0,0.0,0.0,0.0,3158.714285714286,2690.4,4327.0,4649.8,305.2795,306.27225,314.237,313.2585,21.765,20.5156,21.7675,21.2913,314.999998,314.999998,324.999988,324.999988,99.55772857142857,99.5072,99.56491428571428,99.54438571428571,-0.014666666666666606,-0.1336666666666666,-0.17866666666666667,0.043333333333333335,-0.08166666666667055,-0.036666666666668846,1.4886666666666666,1.5594999999999999,37.031,29.2225,37.047,34.070499999999996,55.861000000000004,34.464,60.2685,52.2495,53.819,33.6765,57.637,49.703,53.013999999999996,33.2815,56.3285,48.20633333333333,0.0009999999999998899,-0.1419999999999999,0.09989,0.10775000000000001,0.0,205.5,205.35500000000002,202.3,202.3,0.0,0.0
2,0.0,1.0,0.0,1.0,1.0,0.0,0.0,1.0,0.0,100.0,1.0,1.1856,26.0,0.0,0.0,0.0,59.999996,0.0,26.0,26.0,26.0,26.0,-0.1454444444444445,0.28790000000000004,-0.08563333333333334,293.091,-2.6,-2.795111111111111,-3.1002,-3.222666666666667,-268.98,216.275,190.948,0.0,0.0,0.0,0.0,0.005499999999999949,-5.498166666666667,-5.498166666666667,-0.5316000000000001,0.053,-0.04844444444444429,2.494,65.71600000000001,-0.06860000000000001,-0.23367500000000002,1.5139999999999993,100.0,1.0,1.0,203.21333333333334,0.0,0.0,0.0,0.0,0.0,0.0,0.0,8613.5,0.0,55.0,5.0,236.54666666666668,0.0,0.0,0.0,0.0,0.0,0.0,0.0,0.0,0.10500000000000043,0.10500000000000043,0.0,0.0,0.0,55.0,616.79921,10000.0,85.000001,85.000001,85.000001,85.000001,395.0,0.0,0.0,0.0,1.0,333.33500000000004,52.368,52.368,49.088,49.088,34.0,-29.372500000000002,19.968333333333334,-45.599999999999994,37.735,0.0,1783.583,0.7800000000000011,100.0,28.437,27.035,43.612,42.407,0.0,1.0,100.0,0.0,0.0,0.0,0.0,3314.285714285714,2949.0,3770.25,3687.2,304.5685,305.50125,315.57825,315.76075,21.775111111111112,20.5205,21.778,21.3,314.999998,314.999998,324.999988,324.999988,99.55772857142857,99.50721666666666,99.56505714285714,99.54452857142857,-0.01633333333333331,-0.14933333333333332,-0.21716666666666667,0.01933333333333333,-0.051666666666669414,-0.03333333333333144,1.6973333333333334,1.7595,37.094,29.2535,37.111999999999995,34.125,55.849000000000004,34.503,60.312,52.3135,53.808,33.7125,57.676,49.7625,53.001999999999995,33.316,56.363,48.262,-0.01849999999999996,-0.14000000000000012,0.10304500000000001,0.10529500000000001,0.0,205.9,205.765,203.21333333333334,203.21333333333334,0.0,0.0
3,0.0,1.0,0.0,1.0,1.0,0.0,0.0,1.0,0.0,100.0,1.0,1.1856,26.0,0.0,0.0,0.0,59.999996,0.0,26.0,26.0,26.0,26.0,-0.13255555555555554,0.31190000000000007,-0.0304,292.877,-2.732,-2.6863333333333332,-3.1274,-3.2026666666666666,-265.63,216.265,190.928375,0.0,0.0,0.0,0.0,0.007433333333333292,-5.498166666666667,-5.498166666666667,-0.4917,0.4426666666666667,-0.008888888888888946,-1.0230000000000001,65.868,-0.08660000000000001,-0.181475,1.2599999999999998,100.0,1.0,1.0,203.36333333333334,0.0,0.0,0.0,0.0,0.0,0.0,0.0,8619.8,0.0,55.0,5.0,237.09333333333333,1.0,0.0,0.0,0.0,0.0,0.0,0.0,0.0,0.1559999999999988,0.1559999999999988,0.0,0.0,1.0,55.0,616.79921,10000.0,85.000001,85.000001,85.000001,85.000001,395.0,0.0,0.0,0.0,1.0,166.665,53.543,53.543,47.104,47.104,34.0,-25.825,17.81,-54.68333333333334,44.965,0.0,1783.533,0.629999999999999,100.0,27.934,27.154,43.423,42.588,0.0,1.0,100.0,0.0,0.0,0.0,0.0,2856.142857142857,2791.5,4330.0,4196.7,306.116,305.751,314.30775,314.3835,21.784777777777776,20.5257,21.7884,21.3089,314.999998,314.999998,324.999988,324.999988,99.55772857142857,99.50723333333333,99.56521428571429,99.54467142857143,-0.02400000000000002,-0.15600000000000003,-0.2125,0.015666666666666666,-0.041666666666671404,-0.03166666666666629,1.5823333333333334,1.6219999999999999,37.155,29.286,37.177,34.1805,55.834,34.546,60.356,52.382999999999996,53.793,33.7515,57.716,49.826499999999996,52.986000000000004,33.3535,56.3985,48.32233333333333,-0.02949999999999986,-0.121,0.100665,0.10687,0.0,206.39,206.275,203.36333333333334,203.36333333333334,0.0,0.0
4,0.0,1.0,0.0,1.0,1.0,0.0,0.0,1.0,0.0,100.0,1.0,1.1856,26.0,0.0,0.0,0.0,59.999996,0.0,26.0,26.0,26.0,26.0,-0.1386666666666666,0.27470000000000017,-0.027700000000000002,293.091,-2.6631,-2.740666666666667,-3.1425,-3.2110000000000003,-262.46,216.2525,190.909875,0.0,0.0,0.0,0.0,0.009266666666666534,-5.498166666666667,-5.498166666666667,-0.5247,-0.7506666666666666,-0.0774444444444442,-1.847,66.004,-0.0873,-0.214425,1.1420000000000012,100.0,1.0,1.0,203.93,0.0,0.0,0.0,0.0,0.0,0.0,0.0,8643.8,0.0,55.0,5.0,237.58333333333331,0.0,0.0,0.0,0.0,0.0,0.0,0.0,0.0,0.20400000000000063,0.20400000000000063,0.0,0.0,0.0,55.0,616.79921,10000.0,85.000001,85.000001,85.000001,85.000001,395.0,0.0,0.0,0.0,1.0,333.33500000000004,53.131,53.131,47.699,47.699,34.0,-29.0775,19.145,-51.50333333333333,38.667500000000004,0.0,1783.483,0.6050000000000004,100.0,27.698,26.878,43.795,42.564,0.0,1.0,100.0,0.0,0.0,0.0,0.0,3234.4285714285716,2873.3,4117.875,3673.2,305.1315,305.53,314.7715,315.65575,21.793777777777777,20.5305,21.7984,21.3172,314.999998,314.999998,324.999988,324.999988,99.55772857142857,99.50723333333333,99.56535714285714,99.54481428571428,-0.025333333333333208,-0.1486666666666666,-0.21383333333333335,0.03216666666666666,-0.036666666666668846,-0.041666666666671404,1.6203333333333334,1.6799999999999997,37.211,29.316,37.239999999999995,34.2325,55.817,34.585,60.4005,52.4445,53.778,33.7875,57.756,49.8835,52.97,33.3875,56.434,48.37533333333333,-0.03200000000000003,-0.11350000000000016,0.09879500000000001,0.11647,0.0,206.745,206.66500000000002,203.93,203.93,0.0,0.0
5,0.0,1.0,0.0,1.0,1.0,0.0,0.0,1.0,0.0,100.0,1.0,1.1856,26.0,0.0,0.0,0.0,59.999996,0.0,26.0,26.0,26.0,26.0,-0.13111111111111107,0.2954000000000001,-0.016566666666666667,293.121,-2.6689,-2.7684444444444445,-3.1204,-3.2008888888888887,-259.09,216.23250000000002,190.8895,0.0,0.0,0.0,0.0,0.011233333333333317,-5.498166666666667,-5.498166666666667,-0.5181,0.4383333333333333,-0.08099999999999996,1.22,66.15,-0.08660000000000001,-0.19355,0.9979999999999993,100.0,1.0,1.0,204.32999999999998,0.0,0.0,0.0,0.0,0.0,0.0,0.0,8660.9,0.0,55.0,5.0,238.11,1.0,0.0,0.0,0.0,0.0,0.0,0.0,0.0,0.254999999999999,0.254999999999999,0.0,0.0,1.0,55.0,616.79921,10000.0,85.000001,85.000001,85.000001,85.000001,395.0,0.0,0.0,0.0,1.0,333.33500000000004,53.452,53.452,48.004,48.004,34.0,-27.23,19.490000000000002,-50.93,43.1,0.0,1783.433,0.3949999999999996,100.0,27.943,26.632,43.653999999999996,42.129,0.0,1.0,100.0,0.0,0.0,0.0,0.0,3084.0,2841.6,4120.125,4074.6000000000004,305.3655,305.85625,314.79225,314.77725,21.803666666666665,20.5356,21.808799999999998,21.3258,314.999998,314.999998,324.999988,324.999988,99.55772857142857,99.50726666666667,99.56551428571429,99.54495714285714,-0.010000000000000009,-0.1336666666666666,-0.20533333333333334,0.017333333333333333,-0.04333333333332945,-0.07166666666666544,1.6263333333333334,1.6500000000000004,37.272999999999996,29.3475,37.305,34.286500000000004,55.804,34.6255,60.445499999999996,52.5085,53.765,33.825,57.797,49.942499999999995,52.957,33.423,56.4705,48.43033333333334,-0.047499999999999876,-0.10199999999999987,0.10011,0.10017000000000001,0.0,207.26,207.17000000000002,204.32999999999998,204.32999999999998,0.0,0.0
6,0.0,1.0,0.0,1.0,1.0,0.0,0.0,1.0,0.0,100.0,1.0,1.1856,26.0,0.0,0.0,0.0,59.999996,0.0,26.0,26.0,26.0,26.0,-0.10866666666666658,0.2922,-0.012733333333333333,292.923,-2.643,-2.793,-3.1677,-3.1934444444444443,-255.71,216.2125,190.869,0.0,0.0,0.0,0.0,0.01319999999999999,-5.498166666666667,-5.498166666666667,-0.5124000000000001,0.115,-0.06266666666666643,-0.544,66.29599999999999,-0.0825,-0.19325,0.8260000000000005,100.0,1.0,1.0,204.7733333333333,0.0,0.0,0.0,0.0,0.0,0.0,0.0,8679.6,0.0,55.0,5.0,238.63666666666666,0.0,0.0,0.0,0.0,0.0,0.0,0.0,0.0,0.30600000000000094,0.30600000000000094,0.0,0.0,0.0,55.0,616.79921,10000.0,85.000001,85.000001,85.000001,85.000001,395.0,0.0,0.0,0.0,1.0,166.665,53.192,53.192,47.714,47.714,34.0,-27.7275,20.38,-51.25,42.572500000000005,0.0,1783.383,0.019999999999999574,100.0,27.628,26.882,43.693,42.6,0.0,1.0,100.0,0.0,0.0,0.0,0.0,3198.142857142857,2866.4,4112.875,3987.4,305.1595,305.49675,314.86025,314.90575,21.813444444444443,20.5408,21.8193,21.3348,314.999998,314.999998,324.999988,324.999988,99.55774285714286,99.50726666666667,99.56565714285715,99.5451,-0.003666666666666707,-0.129,-0.20983333333333334,0.029166666666666667,-0.045000000000001705,-0.041666666666671404,1.6373333333333333,1.6485000000000003,37.334,29.38,37.370999999999995,34.3425,55.79,34.666,60.491,52.576499999999996,53.751999999999995,33.862,57.8375,50.0055,52.942,33.4585,56.507,48.489333333333335,-0.07000000000000006,-0.07850000000000001,0.09556,0.11093000000000001,0.0,207.69,207.60500000000002,204.7733333333333,204.7733333333333,0.0,0.0
7,0.0,1.0,0.0,1.0,1.0,0.0,0.0,1.0,0.0,100.0,1.0,1.1856,26.0,0.0,0.0,0.0,59.999996,0.0,26.0,26.0,26.0,26.0,-0.08511111111111103,0.2936000000000001,0.0201,292.633,-2.6142,-2.728888888888889,-3.12815,-3.181,-252.53,216.19,190.84975,0.0,0.0,0.0,0.0,0.015066666666666562,-5.498166666666667,-5.498166666666667,-0.5153,-0.048,-0.0515555555555558,-0.263,66.43299999999999,-0.0738,-0.20117500000000002,0.5079999999999991,100.0,1.0,1.0,205.15333333333334,0.0,0.0,0.0,0.0,0.0,0.0,0.0,8695.7,0.0,55.0,5.0,239.13,1.0,0.0,0.0,0.0,0.0,0.0,0.0,0.0,0.3539999999999992,0.3539999999999992,0.0,0.0,1.0,55.0,616.79921,10000.0,85.000001,85.000001,85.000001,85.000001,395.0,0.0,0.0,0.0,1.0,333.33500000000004,52.826,52.826,47.791,47.791,34.0,-27.252499999999998,21.651666666666667,-50.626666666666665,43.885000000000005,0.0,1783.333,-0.259999999999998,100.0,27.763,26.909,43.759,42.882,0.0,1.0,100.0,0.0,0.0,0.0,0.0,3299.142857142857,2957.6,4092.875,4058.0,304.816,305.28875,314.8535,314.7155,21.822666666666667,20.5456,21.8292,21.3432,314.999998,314.999998,324.999988,324.999988,99.55774285714286,99.5073,99.5658,99.54524285714285,0.02499999999999991,-0.10033333333333339,-0.20233333333333334,0.037333333333333336,-0.04999999999999716,-0.045000000000001705,1.6099999999999999,1.6180000000000003,37.391999999999996,29.41,37.432,34.394999999999996,55.777,34.7035,60.533500000000004,52.641,53.739000000000004,33.8965,57.876,50.064499999999995,52.929,33.4915,56.5405,48.544666666666664,-0.09450000000000003,-0.05549999999999988,0.10669000000000001,0.107355,0.0,208.095,208.04000000000002,205.15333333333334,205.15333333333334,0.0,0.0
8,0.0,1.0,0.0,1.0,1.0,0.0,0.0,1.0,0.0,100.0,1.0,1.1856,26.0,0.0,0.0,0.0,59.999996,0.0,26.0,26.0,26.0,26.0,-0.05555555555555547,0.29370000000000007,0.0413,292.892,-2.6928,-2.722,-3.10705,-3.1684444444444444,-249.14,216.16500000000002,190.82925,0.0,0.0,0.0,0.0,0.017033333333333345,-5.498166666666667,-5.498166666666667,-0.516,-0.5463333333333333,-0.035555555555555785,0.73,66.578,-0.0534,-0.19195,-0.10999999999999943,100.0,1.0,1.0,205.54333333333335,0.0,0.0,0.0,0.0,0.0,0.0,0.0,8712.2,0.0,55.0,5.0,239.65333333333334,0.0,0.0,0.0,0.0,0.0,0.0,0.0,0.0,0.40500000000000114,0.40500000000000114,0.0,0.0,0.0,55.0,616.79921,10000.0,85.000001,85.000001,85.000001,85.000001,395.0,0.0,0.0,0.0,1.0,333.33500000000004,53.696,53.696,47.058,47.058,34.0,-23.1775,22.52,-49.626666666666665,46.5725,0.0,1783.283,-0.3999999999999986,100.0,27.507,26.721,43.858000000000004,42.899,0.0,1.0,100.0,0.0,0.0,0.0,0.0,2914.714285714286,2988.2,4140.875,4157.2,305.952,305.387,314.6325,314.50975,21.83222222222222,20.5508,21.8396,21.3521,314.999998,314.999998,324.999988,324.999988,99.55775714285714,99.5073,99.56595714285714,99.54538571428571,0.052999999999999936,-0.07866666666666666,-0.15716666666666665,0.07033333333333333,-0.046666666666666856,-0.04833333333333201,1.608,1.5910000000000002,37.452,29.4425,37.498000000000005,34.4505,55.760999999999996,34.7415,60.578,52.708,53.724000000000004,33.9315,57.9165,50.1265,52.913,33.525,56.576499999999996,48.602666666666664,-0.10999999999999988,-0.046499999999999986,0.10913500000000001,0.100555,0.0,208.515,208.515,205.54333333333335,205.54333333333335,0.0,0.0
9,0.0,1.0,0.0,1.0,1.0,0.0,0.0,1.0,0.0,100.0,1.0,1.1856,26.0,0.0,0.0,0.0,59.999996,0.0,26.0,26.0,26.0,26.0,-0.03066666666666662,0.2936000000000001,0.024966666666666668,292.648,-2.6831,-2.725,-3.1654,-3.1704444444444446,-245.94,216.14,190.809375,0.0,0.0,0.0,0.0,0.018899999999999917,-5.498166666666667,-5.498166666666667,-0.5223,0.5953333333333334,-0.03544444444444439,0.879,66.711,-0.0297,-0.195525,-0.1979999999999995,100.0,1.0,1.0,206.09333333333333,0.0,0.0,0.0,0.0,0.0,0.0,0.0,8735.5,0.0,55.0,5.0,240.13,1.0,0.0,0.0,0.0,0.0,0.0,0.0,0.0,0.4529999999999994,0.4529999999999994,0.0,0.0,1.0,55.0,616.79921,10000.0,85.000001,85.000001,85.000001,85.000001,395.0,0.0,0.0,0.0,1.0,333.33500000000004,52.475,52.475,48.172,48.172,34.0,-26.025,24.633333333333333,-45.70666666666666,45.365,0.0,1783.234,-0.5,100.0,27.918,27.126,43.491,42.891999999999996,0.0,1.0,100.0,0.0,0.0,0.0,0.0,3281.142857142857,3102.0,3947.0,4046.7,304.7975,304.96625,315.2315,314.8495,21.841444444444445,20.5559,21.8494,21.360500000000002,314.999998,314.999998,324.999988,324.999988,99.55775714285714,99.50731666666667,99.5661,99.54554285714286,0.06533333333333369,-0.05466666666666664,-0.131,0.09316666666666668,-0.036666666666668846,-0.05666666666667197,1.6746666666666665,1.6734999999999998,37.509,29.4745,37.559,34.503,55.748999999999995,34.781,60.6195,52.7735,53.712,33.9675,57.954,50.187,52.9,33.5595,56.6095,48.659333333333336,-0.10949999999999993,-0.03699999999999992,0.101495,0.108725,0.0,208.935,208.96,206.09333333333333,206.09333333333333,0.0,0.0
10,0.0,1.0,0.0,1.0,1.0,0.0,0.0,1.0,0.0,100.0,1.0,1.1856,26.0,0.0,0.0,0.0,59.999996,0.0,26.0,26.0,26.0,26.0,0.0018888888888888289,0.2957000000000001,-0.0055000000000000005,292.465,-2.6621,-2.706666666666667,-3.14695,-3.1485555555555558,-242.53,216.1125,190.78875,0.0,0.0,0.0,0.0,0.02086666666666659,-5.498166666666667,-5.498166666666667,-0.498,-0.3313333333333333,0.006333333333333302,0.289,66.857,-0.0074,-0.18365,-0.484,100.0,1.0,1.0,206.31333333333333,0.0,0.0,0.0,0.0,0.0,0.0,0.0,8744.9,0.0,55.0,5.0,240.65666666666667,0.0,0.0,0.0,0.0,0.0,0.0,1.0,0.0,0.5040000000000013,0.5040000000000013,0.0,0.0,0.0,55.0,616.79921,10000.0,85.000001,85.000001,85.000001,85.000001,395.0,0.0,0.0,0.0,1.0,166.665,53.528,53.528,46.616,46.616,34.0,-21.3675,22.506666666666668,-51.056666666666665,49.8525,0.0,1783.186,-0.5749999999999993,100.0,27.631,27.286,43.772,43.727000000000004,0.0,1.0,100.0,0.0,0.0,0.0,0.0,2890.714285714286,2851.9,4319.875,4258.4,306.073,305.59875,314.29575,314.189,21.851111111111113,20.5612,21.86,21.3696,314.999998,314.999998,324.999988,324.999988,99.55775714285714,99.50731666666667,99.56624285714285,99.54568571428571,0.0853333333333337,-0.050999999999999934,-0.11900000000000001,0.10816666666666667,-0.03833333333332689,-0.04333333333332945,1.577,1.5440000000000005,37.569,29.506999999999998,37.625,34.56,55.738,34.816,60.6635,52.841,53.702,33.9995,57.9935,50.249,52.888999999999996,33.59,56.644,48.717666666666666,-0.12149999999999994,-0.027000000000000135,0.10525000000000001,0.10647000000000001,0.0,209.365,209.39,206.31333333333333,206.31333333333333,0.0,0.0
11,0.0,1.0,0.0,1.0,1.0,0.0,0.0,1.0,0.0,100.0,1.0,1.1856,26.0,0.0,0.0,0.0,59.999996,0.0,26.0,26.0,26.0,26.0,0.03255555555555567,0.27170000000000005,-0.06823333333333334,293.03,-2.7067,-2.688888888888889,-3.20175,-3.1373333333333333,-239.12,216.085,190.768125,0.0,0.0,0.0,0.0,0.022599999999999953,-5.498166666666667,-5.498166666666667,-0.5415,-0.2886666666666667,0.030999999999999917,0.40700000000000003,66.995,0.0126,-0.21407500000000002,-0.6260000000000003,100.0,1.0,1.0,207.06,0.0,0.0,0.0,0.0,0.0,0.0,0.0,8776.6,0.0,55.0,5.0,241.15666666666667,1.0,0.0,0.0,0.0,0.0,0.0,1.0,0.0,0.5549999999999997,0.5549999999999997,0.0,0.0,1.0,55.0,616.79921,10000.0,85.000001,85.000001,85.000001,85.000001,395.0,0.0,0.0,0.0,1.0,333.33500000000004,52.948,52.948,48.278999999999996,48.278999999999996,34.0,-21.9275,26.378333333333334,-40.55,44.5125,0.0,1783.132,-0.5599999999999987,100.0,27.474,27.324,43.393,43.59,0.0,1.0,100.0,0.0,0.0,0.0,0.0,2992.857142857143,3171.3,3675.25,3868.9,305.683,304.7665,315.91475,315.2435,21.860444444444443,20.5666,21.8703,21.3786,314.999998,314.999998,324.999988,324.999988,99.55778571428571,99.50731666666667,99.5664,99.54584285714286,0.10533333333333372,-0.02066666666666661,-0.0905,0.14216666666666666,-0.051666666666669414,-0.05666666666667197,1.7153333333333334,1.6864999999999997,37.628,29.541,37.689,34.616,55.723,34.8555,60.704499999999996,52.911,53.688,34.036500000000004,58.0305,50.314,52.873999999999995,33.625,56.6765,48.778666666666666,-0.11799999999999988,-0.026499999999999968,0.10489000000000001,0.09988000000000001,0.0,209.785,209.82,207.06,207.06,0.0,0.0
12,0.0,1.0,0.0,1.0,1.0,0.0,0.0,1.0,0.0,100.0,1.0,1.1856,26.0,0.0,0.0,0.0,59.999996,0.0,26.0,26.0,26.0,26.0,0.05133333333333323,0.2893000000000001,0.0346,292.419,-2.7652,-2.6790000000000003,-3.1696,-3.1366666666666667,-235.7,216.0575,190.746125,0.0,0.0,0.0,0.0,0.025466666666666526,-5.498166666666667,-5.498166666666667,-0.5259,0.27466666666666667,0.017222222222222028,-0.936,67.14,0.032100000000000004,-0.182925,-0.694,100.0,1.0,1.0,207.26333333333332,0.0,0.0,0.0,0.0,0.0,0.0,0.0,8785.2,0.0,55.0,5.0,241.67333333333335,0.0,0.0,0.0,0.0,0.0,0.0,1.0,0.0,0.6059999999999981,0.6059999999999981,0.0,0.0,0.0,55.0,616.79921,10000.0,85.000001,85.000001,85.000001,85.000001,395.0,0.0,0.0,0.0,1.0,166.665,52.887,52.887,46.906,46.906,34.0,-23.6725,25.363333333333333,-47.656666666666666,50.025,0.0,1783.084,-0.384999999999998,100.0,27.236,27.658,43.251,43.591,0.0,1.0,100.0,0.0,0.0,0.0,0.0,3126.5714285714284,3093.7,4232.875,4169.1,305.4745,304.848,314.598,314.4605,21.87,20.572,21.8807,21.3875,314.999998,314.999998,324.999988,324.999988,99.5578,99.50731666666667,99.56654285714286,99.54598571428572,0.0990000000000002,-0.030000000000000027,-0.07216666666666667,0.15466666666666665,-0.03833333333332689,-0.051666666666669414,1.612,1.5810000000000004,37.687,29.575499999999998,37.754000000000005,34.672,55.712,34.891,60.7455,52.9745,53.677,34.069,58.067499999999995,50.373,52.861999999999995,33.6565,56.709,48.834,-0.10949999999999993,-0.04499999999999993,0.10704500000000002,0.10454500000000001,0.0,210.26,210.3,207.26333333333332,207.26333333333332,0.0,0.0
13,0.0,1.0,0.0,1.0,1.0,0.0,0.0,1.0,0.0,100.0,1.0,1.1856,26.0,0.0,0.0,0.0,59.999996,0.0,26.0,26.0,26.0,26.0,0.07444444444444431,0.27880000000000016,0.03183333333333333,292.053,-2.7377,-2.675222222222222,-3.23425,-3.1226666666666665,-232.47,216.035,190.725625,0.0,0.0,0.0,0.0,0.026699999999999946,-5.498166666666667,-5.498166666666667,-0.5194,-0.04933333333333334,0.018888888888888955,-0.468,67.273,0.0403,-0.190725,-0.7679999999999998,100.0,1.0,1.0,207.63333333333333,0.0,0.0,0.0,0.0,0.0,0.0,0.0,8800.8,0.0,55.0,5.0,242.15333333333334,1.0,0.0,0.0,0.0,0.0,0.0,1.0,0.0,0.6539999999999999,0.6539999999999999,0.0,0.0,1.0,55.0,616.79921,10000.0,85.000001,85.000001,85.000001,85.000001,395.0,0.0,0.0,0.0,1.0,166.665,52.567,52.567,46.875,46.875,34.0,-21.775,26.805,-48.41,51.4525,0.0,1783.036,-0.8200000000000003,100.0,27.587,27.849,43.516,44.076,0.0,1.0,100.0,0.0,0.0,0.0,0.0,3153.857142857143,3074.2,4213.75,4270.8,305.3605,304.901,314.636,314.1935,21.879,20.5772,21.8906,21.3961,314.999998,314.999998,324.999988,324.999988,99.55781428571429,99.50731666666667,99.56668571428571,99.54611428571428,0.14233333333333364,0.010666666666666602,-0.07566666666666667,0.1555,-0.060000000000002274,-0.04333333333332945,1.5923333333333334,1.5774999999999997,37.744,29.6075,37.816,34.726,55.704,34.927,60.786500000000004,53.0415,53.668,34.1025,58.104,50.435,52.852000000000004,33.6885,56.7415,48.891999999999996,-0.14300000000000002,-0.01100000000000012,0.10776500000000001,0.10446000000000001,0.0,210.64,210.7,207.63333333333333,207.63333333333333,0.0,0.0
14,0.0,1.0,0.0,1.0,1.0,0.0,0.0,1.0,0.0,100.0,1.0,1.1856,26.0,0.0,0.0,0.0,59.999996,0.0,26.0,26.0,26.0,26.0,0.09266666666666667,0.2763,-0.008,292.267,-2.7345,-2.6234444444444445,-3.2429,-3.1277777777777778,-229.04,216.0125,190.704375,0.0,0.0,0.0,0.0,0.028699999999999948,-5.498166666666667,-5.498166666666667,-0.5287000000000001,-0.12466666666666668,0.05033333333333312,1.3760000000000001,67.412,0.0541,-0.20435,-1.0499999999999998,100.0,1.0,1.0,208.14333333333332,0.0,0.0,0.0,0.0,0.0,0.0,0.0,8822.4,0.0,55.0,5.0,242.65666666666667,0.0,0.0,0.0,0.0,0.0,0.0,1.0,0.0,0.7049999999999983,0.7049999999999983,0.0,0.0,0.0,55.0,616.79921,10000.0,85.000001,85.000001,85.000001,85.000001,395.0,0.0,0.0,0.0,1.0,333.33500000000004,52.704,52.704,47.104,47.104,34.0,-19.515,28.490000000000002,-43.82333333333333,51.2275,0.0,1782.983,-0.9149999999999991,100.0,27.671,27.749,43.594,44.202,0.0,1.0,100.0,0.0,0.0,0.0,0.0,2932.285714285714,3245.8,3968.375,4208.9,305.8255,304.57225,315.16,314.443,21.888444444444445,20.5827,21.901,21.4053,314.999998,314.999998,324.999988,324.999988,99.55782857142857,99.50733333333334,99.56682857142857,99.54628571428572,0.15833333333333366,0.026999999999999913,-0.04816666666666666,0.181,-0.051666666666669414,-0.045000000000001705,1.65,1.6065000000000005,37.803,29.642,37.881,34.783,55.694,34.965,60.828,53.111000000000004,53.659,34.137,58.1415,50.4995,52.842,33.7215,56.774,48.952333333333335,-0.1479999999999999,-0.010499999999999954,0.110255,0.09995000000000001,0.0,211.07999999999998,211.11,208.14333333333332,208.14333333333332,0.0,0.0
15,0.0,1.0,0.0,1.0,1.0,0.0,0.0,1.0,0.0,100.0,1.0,1.1856,26.0,0.0,0.0,0.0,59.999996,0.0,26.0,26.0,26.0,26.0,0.12566666666666682,0.2704,-0.055,292.313,-2.7159,-2.570333333333333,-3.241,-3.066,-225.6,215.99,190.682875,0.0,0.0,0.0,0.0,0.03069999999999995,-5.498166666666667,-5.498166666666667,-0.5199,0.24866666666666667,0.0815555555555556,-0.271,67.55199999999999,0.0682,-0.18675,-1.1479999999999997,100.0,1.0,1.0,208.56333333333333,0.0,0.0,0.0,0.0,0.0,0.0,0.0,8840.2,0.0,55.0,5.0,243.15666666666667,1.0,0.0,0.0,0.0,0.0,0.0,1.0,0.0,0.7560000000000002,0.7560000000000002,0.0,0.0,1.0,55.0,616.79921,10000.0,85.000001,85.000001,85.000001,85.000001,395.0,0.0,0.0,0.0,1.0,166.665,52.902,52.902,47.134,47.134,34.0,-18.6575,27.088333333333335,-43.68666666666667,53.365,0.0,1782.933,-0.9400000000000013,100.0,27.493,27.98,43.241,44.387,0.0,1.0,100.0,0.0,0.0,0.0,0.0,2852.5714285714284,3136.6,3965.75,4333.0,306.199,304.71575,315.229,314.0835,21.89788888888889,20.5883,21.9114,21.4144,314.999998,314.999998,324.999988,324.999988,99.55784285714286,99.50733333333334,99.56698571428572,99.54642857142858,0.15733333333333333,0.02499999999999991,-0.045,0.195,-0.04999999999999716,-0.046666666666666856,1.6203333333333334,1.5745000000000005,37.861999999999995,29.677,37.946,34.84,55.686,35.0035,60.868,53.1805,53.650999999999996,34.173,58.177,50.564,52.832,33.756,56.805,49.013333333333335,-0.14549999999999996,-0.00749999999999984,0.11078500000000001,0.098735,0.0,211.515,211.57999999999998,208.56333333333333,208.56333333333333,0.0,0.0
16,0.0,1.0,0.0,1.0,1.0,0.0,0.0,1.0,0.0,100.0,1.0,1.1856,26.0,0.0,0.0,0.0,59.999996,0.0,26.0,26.0,26.0,26.0,0.13666666666666671,0.2612000000000001,-0.05313333333333334,292.358,-2.8055,-2.6114444444444445,-3.2123,-3.0693333333333332,-222.35,215.9725,190.662125,0.0,0.0,0.0,0.0,0.03259999999999996,-5.498166666666667,-5.498166666666667,-0.5404,-0.718,0.0654444444444442,-1.0210000000000001,67.68299999999999,0.0847,-0.20120000000000002,-1.2599999999999998,100.0,1.0,1.0,208.96333333333334,0.0,0.0,0.0,0.0,0.0,0.0,0.0,8857.2,0.0,55.0,5.0,243.63,0.0,0.0,0.0,0.0,0.0,0.0,1.0,0.0,0.8039999999999985,0.8039999999999985,0.0,0.0,0.0,55.0,616.79921,10000.0,85.000001,85.000001,85.000001,85.000001,395.0,0.0,0.0,0.0,1.0,333.33500000000004,52.856,52.856,46.844,46.844,34.0,-20.04,27.986666666666665,-42.59,51.0075,0.0,1782.884,-0.7949999999999982,100.0,27.156,28.054000000000002,43.513,44.475,0.0,1.0,100.0,0.0,0.0,0.0,0.0,2983.5714285714284,3168.3,3971.25,4112.0,305.9615,304.6175,315.206,314.62525,21.906444444444446,20.5936,21.9212,21.423000000000002,314.999998,314.999998,324.999988,324.999988,99.55785714285715,99.50735,99.56712857142857,99.54657142857143,0.1636666666666664,0.030000000000000027,-0.027,0.2215,-0.03999999999999915,-0.04333333333332945,1.6520000000000001,1.5934999999999997,37.915,29.71,38.007999999999996,34.8935,55.674,35.041,60.908500000000004,53.2455,53.638999999999996,34.207,58.213499999999996,50.624,52.82,33.789,56.837,49.06966666666666,-0.14100000000000001,-0.016999999999999904,0.11083000000000001,0.114875,0.0,211.875,211.95499999999998,208.96333333333334,208.96333333333334,0.0,0.0
17,0.0,1.0,0.0,1.0,1.0,0.0,0.0,1.0,0.0,100.0,1.0,1.1856,26.0,0.0,0.0,0.0,59.999996,0.0,26.0,26.0,26.0,26.0,0.11222222222222222,0.2755000000000001,-0.036533333333333334,292.053,-2.7636,-2.5676666666666668,-3.25305,-3.0891111111111114,-218.89,215.95749999999998,190.6395,0.0,0.0,0.0,0.0,0.034599999999999964,-5.498166666666667,-5.498166666666667,-0.5316000000000001,0.5670000000000001,0.04899999999999993,0.74,67.821,0.09000000000000001,-0.184225,-1.1959999999999997,100.0,1.0,1.0,209.37,0.0,0.0,0.0,0.0,0.0,0.0,0.0,8874.4,0.0,55.0,5.0,244.12666666666667,1.0,0.0,0.0,0.0,0.0,0.0,1.0,0.0,0.8550000000000004,0.8550000000000004,0.0,0.0,1.0,55.0,616.79921,10000.0,85.000001,85.000001,85.000001,85.000001,395.0,0.0,0.0,0.0,1.0,166.665,52.536,52.536,46.906,46.906,34.0,-18.8075,27.738333333333333,-45.123333333333335,53.1825,0.0,1782.834,-0.8550000000000004,100.0,27.798000000000002,28.228,43.336,44.341,0.0,1.0,100.0,0.0,0.0,0.0,0.0,2964.714285714286,3147.7,4148.25,4278.6,305.7995,304.88275,314.82975,314.327,21.915888888888887,20.5993,21.9315,21.4321,314.999998,314.999998,324.999988,324.999988,99.55788571428572,99.50735,99.56727142857143,99.54672857142857,0.18599999999999994,0.044666666666666854,-0.021166666666666667,0.2145,-0.041666666666671404,-0.06499999999999773,1.6333333333333333,1.5964999999999998,37.974000000000004,29.7455,38.072,34.9505,55.667,35.082,60.948,53.314499999999995,53.632,34.245,58.249,50.688,52.812,33.8255,56.868,49.129666666666665,-0.14849999999999985,-0.0129999999999999,0.11439,0.095765,0.0,212.35000000000002,212.435,209.37,209.37,0.0,0.0
18,0.0,1.0,0.0,1.0,1.0,0.0,0.0,1.0,0.0,100.0,1.0,1.1856,26.0,0.0,0.0,0.0,59.999996,0.0,26.0,26.0,26.0,26.0,0.11766666666666681,0.2713000000000001,-0.019666666666666666,292.038,-2.7971,-2.5404444444444443,-3.27015,-3.0343333333333335,-215.64,215.9475,190.6185,0.0,0.0,0.0,0.0,0.03649999999999998,-5.498166666666667,-5.498166666666667,-0.539,-0.548,0.07433333333333314,1.199,67.951,0.09050000000000001,-0.197575,-1.2560000000000002,100.0,1.0,1.0,209.76999999999998,0.0,0.0,0.0,0.0,0.0,0.0,0.0,8891.3,0.0,55.0,5.0,244.59333333333336,0.0,0.0,0.0,0.0,0.0,0.0,1.0,0.0,0.9029999999999987,0.9029999999999987,0.0,0.0,0.0,55.0,616.79921,10000.0,85.000001,85.000001,85.000001,85.000001,395.0,0.0,0.0,0.0,1.0,333.33500000000004,52.567,52.567,46.722,46.722,34.0,-18.56,30.186666666666667,-42.93,51.6175,0.0,1782.785,-1.1499999999999986,100.0,27.51,28.024,43.678,44.832,0.0,1.0,100.0,0.0,0.0,0.0,0.0,2946.285714285714,3335.4,3977.625,4198.2,305.929,304.4015,315.17375,314.50275,21.924555555555557,20.6045,21.9414,21.4408,314.999998,314.999998,324.999988,324.999988,99.5579,99.50735,99.56741428571429,99.54688571428571,0.19399999999999995,0.06600000000000006,-0.015,0.2175,-0.02499999999999858,-0.05333333333332746,1.6346666666666665,1.5970000000000004,38.028999999999996,29.7785,38.134,35.004999999999995,55.659,35.1195,60.9885,53.3815,53.625,34.28,58.2855,50.7505,52.803,33.8585,56.8995,49.18833333333333,-0.16149999999999998,0.007500000000000062,0.107465,0.10821000000000001,0.0,212.715,212.805,209.76999999999998,209.76999999999998,0.0,0.0
19,0.0,1.0,0.0,1.0,1.0,0.0,0.0,1.0,0.0,100.0,1.0,1.1856,26.0,0.0,0.0,0.0,59.999996,0.0,26.0,26.0,26.0,26.0,0.13788888888888895,0.29080000000000017,0.04876666666666667,291.428,-2.7211,-2.5243333333333333,-3.2862,-3.015888888888889,-211.95999999999998,215.94,190.594625,0.0,0.0,0.0,0.0,0.0386333333333333,-5.498166666666667,-5.498166666666667,-0.5299,0.842,0.08566666666666678,0.771,68.095,0.0978,-0.186925,-1.4500000000000002,100.0,1.0,1.0,210.17333333333335,0.0,0.0,0.0,0.0,0.0,0.0,0.0,8908.5,0.0,55.0,5.0,245.11333333333334,1.0,0.0,0.0,0.0,0.0,0.0,1.0,0.0,0.9570000000000007,0.9570000000000007,0.0,0.0,1.0,55.0,616.79921,10000.0,85.000001,85.000001,85.000001,85.000001,395.0,0.0,0.0,0.0,1.0,166.665,51.772999999999996,51.772999999999996,46.463,46.463,34.0,-18.8175,30.31,-44.42666666666666,55.9775,0.0,1782.732,-0.8049999999999997,100.0,28.005,28.593,43.397999999999996,44.797,0.0,1.0,100.0,0.0,0.0,0.0,0.0,2995.714285714286,3404.5,4143.75,4476.7,305.5855,304.041,314.829,313.88275,21.934555555555555,20.6107,21.9524,21.450499999999998,314.999998,314.999998,324.999988,324.999988,99.55792857142858,99.50736666666667,99.56757142857143,99.54704285714286,0.18500000000000005,0.050999999999999934,0.002,0.22783333333333336,-0.030000000000001137,-0.07000000000000028,1.6423333333333334,1.5875000000000004,38.091,29.817,38.202,35.066,55.653,35.1655,61.03,53.456,53.617999999999995,34.3225,58.3225,50.8195,52.795,33.8995,56.932,49.25333333333333,-0.14649999999999985,-0.010000000000000231,0.10983000000000001,0.10355500000000001,0.0,213.19,213.31,210.17333333333335,210.17333333333335,0.0,0.0
20,0.0,1.0,0.0,1.0,1.0,0.0,0.0,1.0,0.0,100.0,1.0,1.1856,26.0,0.0,0.0,0.0,59.999996,0.0,26.0,26.0,26.0,26.0,0.10466666666666669,0.2855000000000001,0.0375,291.763,-2.8124,-2.5984444444444446,-3.20005,-3.037333333333333,-208.69,215.935,190.573625,0.0,0.0,0.0,0.0,0.04053333333333331,-5.498166666666667,-5.498166666666667,-0.5321,-1.1136666666666668,0.07111111111111112,0.113,68.226,0.1066,-0.195725,-0.9820000000000002,100.0,1.0,1.0,210.46,0.0,0.0,0.0,0.0,0.0,0.0,0.0,8920.7,0.0,55.0,5.0,245.58666666666664,0.0,0.0,0.0,0.0,0.0,0.0,0.0,0.0,1.004999999999999,1.004999999999999,0.0,0.0,0.0,55.0,616.79921,10000.0,85.000001,85.000001,85.000001,85.000001,395.0,0.0,0.0,0.0,1.0,333.33500000000004,52.948,52.948,45.760999999999996,45.760999999999996,34.0,-19.905,26.78,-44.35333333333333,56.29,0.0,1782.683,0.05000000000000071,100.0,27.448,28.179000000000002,44.095,45.146,0.0,1.0,100.0,0.0,0.0,0.0,0.0,2809.0,3208.1,4150.625,4416.2,306.371,304.707,314.64275,313.93925,21.94311111111111,20.616,21.9623,21.4593,314.999998,314.999998,324.999988,324.999988,99.55794285714286,99.50736666666667,99.56772857142857,99.5472,0.137,0.0006666666666665932,0.0021666666666666666,0.23666666666666666,-0.041666666666671404,-0.05333333333332746,1.5703333333333334,1.5285000000000002,38.144,29.85,38.265,35.121,55.641,35.202,61.072,53.524,53.607,34.356,58.3605,50.8825,52.783,33.9315,56.965,49.312666666666665,-0.0774999999999999,-0.07750000000000012,0.11276000000000001,0.10821000000000001,0.0,213.57,213.635,210.46,210.46,0.0,0.0
21,0.0,1.0,0.0,1.0,1.0,0.0,0.0,1.0,0.0,100.0,1.0,1.1856,26.0,0.0,0.0,0.0,59.999996,0.0,26.0,26.0,26.0,26.0,0.055333333333333234,0.27490000000000014,-0.07516666666666667,292.175,-2.7048,-2.6737777777777776,-3.24455,-3.1285555555555558,-205.41,215.9325,190.552125,0.0,0.0,0.0,0.0,0.04243333333333332,-5.498166666666667,-5.498166666666667,-0.5599000000000001,0.4256666666666667,0.03255555555555567,-0.13,68.349,0.08800000000000001,-0.20555,-0.047999999999999154,100.0,1.0,1.0,211.13666666666666,0.0,0.0,0.0,0.0,0.0,0.0,0.0,8949.3,0.0,55.0,5.0,246.03,1.0,0.0,0.0,0.0,0.0,0.0,0.0,0.0,1.0530000000000008,1.0530000000000008,0.0,0.0,1.0,55.0,616.79921,10000.0,85.000001,85.000001,85.000001,85.000001,395.0,0.0,0.0,0.0,1.0,333.33500000000004,52.292,52.292,47.394,47.394,34.0,-22.3675,25.905,-42.406666666666666,47.722500000000004,0.0,1782.635,0.6449999999999996,100.0,27.936,28.212,43.56,44.549,0.0,1.0,100.0,0.0,0.0,0.0,0.0,3027.857142857143,3176.7,3930.375,3966.5,305.5395,304.71525,315.376,315.07125,21.951888888888888,20.6214,21.972,21.4678,314.999998,314.999998,324.999988,324.999988,99.55795714285715,99.50736666666667,99.56785714285714,99.54734285714285,0.10400000000000009,-0.03200000000000003,-0.035833333333333335,0.19666666666666666,-0.03833333333332689,-0.054999999999999716,1.687,1.6894999999999998,38.199,29.883499999999998,38.325,35.1735,55.631,35.239,61.107,53.585499999999996,53.597,34.39,58.391999999999996,50.9395,52.772,33.9645,56.992,49.366,-0.034499999999999975,-0.1280000000000001,0.10576500000000001,0.10576500000000001,0.0,214.005,214.015,211.13666666666666,211.13666666666666,0.0,0.0
22,0.0,1.0,0.0,1.0,1.0,0.0,0.0,1.0,0.0,100.0,1.0,1.1856,26.0,0.0,0.0,0.0,59.999996,0.0,26.0,26.0,26.0,26.0,0.03733333333333322,0.2679,0.03306666666666667,291.611,-2.6728,-2.6901111111111113,-3.2252,-3.183888888888889,-201.92000000000002,215.9325,190.52825,0.0,0.0,0.0,0.0,0.04446666666666654,-5.498166666666667,-5.498166666666667,-0.5381,0.16,0.020333333333333314,-0.784,68.488,0.047400000000000005,-0.18195,0.7439999999999998,100.0,1.0,1.0,211.32333333333332,0.0,0.0,0.0,0.0,0.0,0.0,0.0,8957.2,0.0,55.0,5.0,246.53,0.0,0.0,0.0,0.0,0.0,0.0,0.0,0.0,1.1039999999999992,1.1039999999999992,0.0,0.0,0.0,55.0,616.79921,10000.0,85.000001,85.000001,85.000001,85.000001,395.0,0.0,0.0,0.0,1.0,166.665,52.292,52.292,46.188,46.188,34.0,-24.0675,23.436666666666667,-49.66666666666667,50.595,0.0,1782.586,0.745000000000001,100.0,27.984,28.326999999999998,44.041,44.71,0.0,1.0,100.0,0.0,0.0,0.0,0.0,3070.4285714285716,3046.3,4265.125,4210.5,305.547,304.891,314.564,314.36625,21.961333333333332,20.627,21.982599999999998,21.477,314.999998,314.999998,324.999988,324.999988,99.55797142857143,99.50738333333334,99.56801428571428,99.5475,0.062333333333333574,-0.07233333333333336,-0.08616666666666667,0.1395,-0.05833333333333002,-0.041666666666671404,1.5603333333333333,1.5845000000000002,38.257999999999996,29.9185,38.391,35.231,55.617999999999995,35.2785,61.150999999999996,53.6545,53.585,34.427,58.432,51.003,52.757999999999996,33.9995,57.027,49.426,-0.01550000000000007,-0.1339999999999999,0.102485,0.10625000000000001,0.0,214.47,214.42000000000002,211.32333333333332,211.32333333333332,0.0,0.0
23,0.0,1.0,0.0,1.0,1.0,0.0,0.0,1.0,0.0,100.0,1.0,1.1856,26.0,0.0,0.0,0.0,59.999996,0.0,26.0,26.0,26.0,26.0,-0.028888888888888853,0.25160000000000005,-0.0022,291.534,-2.675,-2.670888888888889,-3.13225,-3.218888888888889,-198.43,215.9325,190.504875,0.0,0.0,0.0,0.0,0.046499999999999986,-5.498166666666667,-5.498166666666667,-0.5556,-0.3766666666666667,-0.0025555555555558662,0.14,68.622,0.0008,-0.20785,1.0500000000000007,100.0,1.0,1.0,211.81,0.0,0.0,0.0,0.0,0.0,0.0,0.0,8977.9,0.0,55.0,5.0,247.01333333333332,1.0,0.0,0.0,0.0,0.0,0.0,0.0,0.0,1.1550000000000011,1.1550000000000011,0.0,0.0,1.0,55.0,616.79921,10000.0,85.000001,85.000001,85.000001,85.000001,395.0,0.0,0.0,0.0,1.0,333.33500000000004,51.788,51.788,46.921,46.921,34.0,-26.88,23.105,-46.54666666666667,46.6425,0.0,1782.533,0.6950000000000003,100.0,28.468,28.083,44.571,44.739000000000004,0.0,1.0,100.0,0.0,0.0,0.0,0.0,3302.0,3147.3,3982.25,4017.0,304.834,304.883,315.076,314.84675,21.970666666666666,20.6326,21.9932,21.4862,314.999998,314.999998,324.999988,324.999988,99.55797142857143,99.5074,99.56815714285715,99.54764285714286,0.048666666666666636,-0.08866666666666656,-0.12483333333333334,0.10416666666666667,-0.05666666666667197,-0.05666666666667197,1.5796666666666668,1.6094999999999997,38.317,29.9535,38.457,35.2885,55.604,35.3195,61.194,53.7225,53.572,34.4645,58.47,51.0665,52.744,34.0355,57.0605,49.48533333333333,-0.020999999999999908,-0.137,0.10481000000000001,0.104635,0.0,214.875,214.78,211.81,211.81,0.0,0.0
24,0.0,1.0,0.0,1.0,1.0,0.0,0.0,1.0,0.0,100.0,1.0,1.1856,26.0,0.0,0.0,0.0,59.999996,0.0,26.0,26.0,26.0,26.0,-0.08177777777777784,0.26970000000000005,-0.0198,291.885,-2.6844,-2.695222222222222,-3.1639,-3.1725555555555554,-194.92000000000002,215.9325,190.481,0.0,0.0,0.0,0.0,0.04853333333333332,-5.498166666666667,-5.498166666666667,-0.5591,-0.4786666666666667,-0.011333333333333417,-0.342,68.757,-0.034300000000000004,-0.193225,1.0359999999999996,100.0,1.0,1.0,212.16666666666669,0.0,0.0,0.0,0.0,0.0,0.0,0.0,8993.0,0.0,55.0,5.0,247.49666666666667,0.0,0.0,0.0,0.0,0.0,0.0,0.0,0.0,1.2059999999999995,1.2059999999999995,0.0,0.0,0.0,55.0,616.79921,10000.0,85.000001,85.000001,85.000001,85.000001,395.0,0.0,0.0,0.0,1.0,166.665,52.994,52.994,46.082,46.082,34.0,-25.310000000000002,19.956666666666667,-53.99,45.4025,0.0,1782.484,0.5500000000000007,100.0,28.205,27.826999999999998,44.624,44.486000000000004,0.0,1.0,100.0,0.0,0.0,0.0,0.0,3008.285714285714,2861.2,4356.25,4068.2,305.7895,305.65325,314.2885,314.7765,21.98,20.637999999999998,22.0037,21.4952,314.999998,314.999998,324.999988,324.999988,99.55798571428572,99.5074,99.56832857142857,99.5478,0.01866666666666683,-0.11566666666666658,-0.17133333333333334,0.06933333333333333,-0.046666666666666856,-0.04833333333333201,1.5750000000000002,1.6005000000000003,38.375,29.987000000000002,38.522999999999996,35.345,55.589,35.359,61.2375,53.788,53.557,34.501,58.5095,51.127,52.729,34.070499999999996,57.095,49.541666666666664,-0.03299999999999992,-0.12150000000000016,0.10658000000000001,0.10626000000000001,0.0,215.3,215.20499999999998,212.16666666666669,212.16666666666669,0.0,0.0
25,0.0,1.0,0.0,1.0,1.0,0.0,0.0,1.0,0.0,100.0,1.0,1.1856,26.0,0.0,0.0,0.0,59.999996,0.0,26.0,26.0,26.0,26.0,-0.07499999999999996,0.2634000000000001,-0.054,291.916,-2.735,-2.671444444444444,-3.1656,-3.1893333333333334,-191.62,215.93,190.45725,0.0,0.0,0.0,0.0,0.05046666666666655,-5.498166666666667,-5.498166666666667,-0.5927,-0.13166666666666665,-0.023111111111111082,-1.318,68.88,-0.055,-0.20295000000000002,1.0660000000000007,100.0,1.0,1.0,212.7,0.0,0.0,0.0,0.0,0.0,0.0,0.0,9015.6,0.0,55.0,5.0,247.94,1.0,0.0,0.0,0.0,0.0,0.0,0.0,0.0,1.2540000000000013,1.2540000000000013,0.0,0.0,1.0,55.0,616.79921,10000.0,85.000001,85.000001,85.000001,85.000001,395.0,0.0,0.0,0.0,1.0,333.33500000000004,52.094,52.094,46.936,46.936,34.0,-29.4225,21.30833333333333,-48.586666666666666,42.28,0.0,1782.435,0.490000000000002,100.0,28.161,27.914,44.519,44.049,0.0,1.0,100.0,0.0,0.0,0.0,0.0,3337.5714285714284,3124.6,3992.5,3929.2,304.987,304.8365,315.21025,315.14825,21.988777777777777,20.6431,22.0135,21.5037,314.999998,314.999998,324.999988,324.999988,99.55798571428572,99.50741666666667,99.56847142857143,99.54794285714286,0.00533333333333319,-0.129,-0.18466666666666667,0.048,-0.046666666666666856,-0.03499999999999659,1.6346666666666665,1.6900000000000004,38.43,30.0195,38.584,35.397999999999996,55.574,35.399,61.2755,53.847,53.542,34.5375,58.544,51.1815,52.714,34.1055,57.1255,49.593,-0.04149999999999987,-0.11549999999999994,0.10253000000000001,0.103885,0.0,215.67000000000002,215.57,212.7,212.7,0.0,0.0
26,0.0,1.0,0.0,1.0,1.0,0.0,0.0,1.0,0.0,100.0,1.0,1.1856,26.0,0.0,0.0,0.0,59.999996,0.0,26.0,26.0,26.0,26.0,-0.10566666666666658,0.2774000000000001,0.06430000000000001,290.665,-2.6666,-2.7654444444444444,-3.19995,-3.195888888888889,-187.89999999999998,215.925,190.43,0.0,0.0,0.0,0.0,0.05263333333333331,-5.498166666666667,-5.498166666666667,-0.5507000000000001,0.6990000000000001,-0.056222222222222396,-0.898,69.024,-0.06760000000000001,-0.17222500000000002,0.9299999999999997,100.0,1.0,1.0,212.85666666666668,0.0,0.0,0.0,0.0,0.0,0.0,0.0,9022.2,0.0,55.0,5.0,248.45666666666665,0.0,0.0,0.0,0.0,0.0,0.0,0.0,0.0,1.3079999999999998,1.3079999999999998,0.0,0.0,0.0,55.0,616.79921,10000.0,85.000001,85.000001,85.000001,85.000001,395.0,0.0,0.0,0.0,1.0,166.665,51.528999999999996,51.528999999999996,45.197,45.197,34.0,-28.4175,20.748333333333335,-60.01,48.59,0.0,1782.382,0.23499999999999943,100.0,29.103,28.45,45.115,44.337,0.0,1.0,100.0,0.0,0.0,0.0,0.0,3337.285714285714,2946.7,4643.125,4383.9,304.8105,305.22475,313.694,313.9995,21.999111111111112,20.6491,22.0247,21.5134,314.999998,314.999998,324.999988,324.999988,99.558,99.50743333333334,99.56864285714286,99.54811428571429,0.019000000000000128,-0.1326666666666666,-0.193,0.02866666666666667,-0.03833333333332689,-0.03333333333333144,1.5103333333333333,1.5410000000000004,38.494,30.057000000000002,38.655,35.4585,55.562,35.446,61.325,53.918,53.531,34.581,58.588499999999996,51.2475,52.701,34.147,57.164500000000004,49.654333333333334,-0.0685,-0.09949999999999992,0.10073000000000001,0.10162,0.0,216.14,216.075,212.85666666666668,212.85666666666668,0.0,0.0
27,0.0,1.0,0.0,1.0,1.0,0.0,0.0,1.0,0.0,100.0,1.0,1.1856,26.0,0.0,0.0,0.0,59.999996,0.0,26.0,26.0,26.0,26.0,-0.08777777777777784,0.24970000000000003,0.013466666666666667,291.092,-2.6330999999999998,-2.7324444444444445,-3.1888,-3.264222222222222,-184.79,215.91750000000002,190.408375,0.0,0.0,0.0,0.0,0.054433333333333334,-5.498166666666667,-5.498166666666667,-0.5765,-1.187,-0.04811111111111144,0.972,69.14,-0.064,-0.22087500000000002,0.5839999999999996,100.0,1.0,1.0,213.2866666666667,0.0,0.0,0.0,0.0,0.0,0.0,0.0,9040.4,0.0,55.0,5.0,248.88,1.0,0.0,0.0,0.0,0.0,0.0,0.0,0.0,1.352999999999998,1.352999999999998,0.0,0.0,1.0,55.0,616.79921,10000.0,85.000001,85.000001,85.000001,85.000001,395.0,0.0,0.0,0.0,1.0,166.665,51.849000000000004,51.849000000000004,45.731,45.731,34.0,-26.1375,22.041666666666668,-52.656666666666666,46.5775,0.0,1782.337,0.19500000000000028,100.0,28.977,28.068,45.650999999999996,44.766,0.0,1.0,100.0,0.0,0.0,0.0,0.0,3149.4285714285716,3117.1,4190.125,4110.4,305.188,305.0045,314.60325,314.6195,22.007333333333335,20.6539,22.0343,21.5216,314.999998,314.999998,324.999988,324.999988,99.558,99.50745,99.56878571428571,99.54824285714285,0.02733333333333343,-0.12066666666666659,-0.183,0.051666666666666666,-0.04999999999999716,-0.036666666666668846,1.545,1.5680000000000005,38.546,30.087,38.714,35.51,55.548,35.4825,61.367,53.978,53.518,34.6145,58.626999999999995,51.3025,52.687,34.179,57.198499999999996,49.705666666666666,-0.06899999999999995,-0.09699999999999998,0.10986000000000001,0.10248,0.0,216.435,216.38,213.2866666666667,213.2866666666667,0.0,0.0
28,0.0,1.0,0.0,1.0,1.0,0.0,0.0,1.0,0.0,100.0,1.0,1.1856,26.0,0.0,0.0,0.0,59.999996,0.0,26.0,26.0,26.0,26.0,-0.06833333333333336,0.268,-0.05396666666666666,291.55,-2.6744,-2.705,-3.1464,-3.2168888888888887,-181.26,215.9075,190.38325,0.0,0.0,0.0,0.0,0.056499999999999995,-5.498166666666667,-5.498166666666667,-0.5886,0.662,-0.047111111111111104,-0.537,69.268,-0.057300000000000004,-0.2021,0.5660000000000007,100.0,1.0,1.0,213.87,0.0,0.0,0.0,0.0,0.0,0.0,0.0,9065.1,0.0,55.0,5.0,249.33666666666664,0.0,0.0,0.0,0.0,0.0,0.0,0.0,0.0,1.404,1.404,0.0,0.0,0.0,55.0,616.79921,10000.0,85.000001,85.000001,85.000001,85.000001,395.0,0.0,0.0,0.0,1.0,333.33500000000004,51.834,51.834,46.844,46.844,34.0,-28.072499999999998,21.23166666666667,-49.36666666666667,43.8125,0.0,1782.284,0.10500000000000043,100.0,28.839,28.259999999999998,44.777,44.247,0.0,1.0,100.0,0.0,0.0,0.0,0.0,3308.142857142857,2984.3,4053.5,4018.9,304.934,305.194,315.0655,314.94225,22.01688888888889,20.6595,22.0446,21.5306,314.999998,314.999998,324.999988,324.999988,99.558,99.50746666666667,99.56892857142857,99.5484,0.02066666666666661,-0.1133333333333334,-0.18583333333333335,0.0455,-0.051666666666669414,-0.026666666666670835,1.638,1.6589999999999998,38.605000000000004,30.122,38.778999999999996,35.566,55.535,35.525,61.406,54.04,53.504999999999995,34.6535,58.662,51.3595,52.674,34.216,57.229,49.759,-0.07299999999999995,-0.08749999999999991,0.10323500000000001,0.10061500000000001,0.0,216.88,216.825,213.87,213.87,0.0,0.0
29,0.0,1.0,0.0,1.0,1.0,0.0,0.0,1.0,0.0,100.0,1.0,1.1856,26.0,0.0,0.0,0.0,59.999996,0.0,26.0,26.0,26.0,26.0,-0.07799999999999996,0.2682,0.0092,291.046,-2.6145,-2.7634444444444446,-3.1457,-3.1985555555555556,-177.72,215.89499999999998,190.356875,0.0,0.0,0.0,0.0,0.058533333333333326,-5.498166666666667,-5.498166666666667,-0.5856,-0.7136666666666667,-0.04222222222222216,0.912,69.403,-0.047,-0.190975,0.27800000000000047,100.0,1.0,1.0,214.04666666666668,0.0,0.0,0.0,0.0,0.0,0.0,0.0,9072.6,0.0,55.0,5.0,249.82333333333332,1.0,0.0,0.0,0.0,0.0,0.0,0.0,0.0,1.4549999999999983,1.4549999999999983,0.0,0.0,1.0,55.0,616.79921,10000.0,85.000001,85.000001,85.000001,85.000001,395.0,0.0,0.0,0.0,1.0,166.665,51.879999999999995,51.879999999999995,45.486,45.486,34.0,-25.2325,24.073333333333334,-52.980000000000004,49.1025,0.0,1782.234,-0.00999999999999801,100.0,28.648,27.914,45.275,44.482,0.0,1.0,100.0,0.0,0.0,0.0,0.0,3168.857142857143,3169.0,4300.0,4275.6,305.1415,304.7155,314.2995,314.3135,22.02611111111111,20.665,22.0552,21.5399,314.999998,314.999998,324.999988,324.999988,99.558,99.50748333333334,99.56908571428572,99.54855714285715,0.04800000000000004,-0.09366666666666656,-0.15733333333333335,0.07683333333333334,-0.060000000000002274,-0.03166666666666629,1.5396666666666667,1.5600000000000005,38.663,30.156,38.845,35.624,55.519,35.565,61.4525,54.107,53.491,34.6905,58.704,51.422,52.658,34.2515,57.266,49.817,-0.08000000000000007,-0.0794999999999999,0.099775,0.10854000000000001,0.0,217.28,217.20499999999998,214.04666666666668,214.04666666666668,0.0,0.0
30,0.0,1.0,0.0,1.0,1.0,0.0,0.0,1.0,0.0,100.0,1.0,1.1856,26.0,0.0,0.0,0.0,59.999996,0.0,26.0,26.0,26.0,26.0,-0.056777777777777816,0.2679,0.05433333333333334,290.604,-2.6745,-2.643222222222222,-3.1254,-3.2488888888888887,-174.39,215.8825,190.331875,0.0,0.0,0.0,0.0,0.06046666666666656,-5.498166666666667,-5.498166666666667,-0.5904,0.7116666666666667,-0.03933333333333344,0.635,69.523,-0.0369,-0.200525,0.21000000000000085,100.0,1.0,1.0,214.50333333333333,0.0,0.0,0.0,0.0,0.0,0.0,0.0,9092.0,0.0,55.0,5.0,250.25666666666666,0.0,0.0,0.0,0.0,0.0,0.0,1.0,0.0,1.5030000000000001,1.5030000000000001,0.0,0.0,0.0,55.0,616.79921,10000.0,85.000001,85.000001,85.000001,85.000001,395.0,0.0,0.0,0.0,1.0,333.33500000000004,50.781,50.781,46.051,46.051,34.0,-27.125,23.581666666666667,-50.46666666666667,49.7125,0.0,1782.185,-0.14499999999999957,100.0,29.421,28.726,45.085,44.557,0.0,1.0,100.0,0.0,0.0,0.0,0.0,3381.285714285714,3201.9,4205.5,4252.5,304.506,304.58475,314.64125,314.2915,22.03511111111111,20.6705,22.0651,21.5485,314.999998,314.999998,324.999988,324.999988,99.55801428571428,99.50748333333334,99.56924285714285,99.5487,0.06300000000000017,-0.08666666666666656,-0.14566666666666667,0.08283333333333333,-0.03999999999999915,-0.05666666666667197,1.5623333333333334,1.5694999999999997,38.719,30.1905,38.907,35.678,55.51,35.606,61.491,54.1685,53.480999999999995,34.7285,58.739,51.4785,52.647999999999996,34.2875,57.2965,49.87,-0.09450000000000003,-0.07250000000000023,0.10772000000000001,0.10744500000000001,0.0,217.66500000000002,217.64499999999998,214.50333333333333,214.50333333333333,0.0,0.0
31,0.0,1.0,0.0,1.0,1.0,0.0,0.0,1.0,0.0,100.0,1.0,1.1856,26.0,0.0,0.0,0.0,59.999996,0.0,26.0,26.0,26.0,26.0,-0.04122222222222216,0.24180000000000001,0.0106,290.558,-2.7488,-2.711777777777778,-3.2165,-3.1374444444444443,-170.84,215.8675,190.306125,0.0,0.0,0.0,0.0,0.06253333333333333,-5.498166666666667,-5.498166666666667,-0.5711,-0.531,-0.027222222222222037,-0.781,69.655,-0.0236,-0.1978,0.009999999999999787,100.0,1.0,1.0,214.76999999999998,0.0,0.0,0.0,0.0,0.0,0.0,0.0,9103.4,0.0,55.0,5.0,250.73333333333335,1.0,0.0,0.0,0.0,0.0,0.0,1.0,0.0,1.5539999999999985,1.5539999999999985,0.0,0.0,1.0,55.0,616.79921,10000.0,85.000001,85.000001,85.000001,85.000001,395.0,0.0,0.0,0.0,1.0,333.33500000000004,51.62,51.62,44.571,44.571,34.0,-25.0875,23.01833333333333,-55.89,48.6225,0.0,1782.133,-0.23499999999999943,100.0,29.028,28.934,45.515,45.326,0.0,1.0,100.0,0.0,0.0,0.0,0.0,3144.285714285714,3034.6,4509.75,4201.1,305.551,304.973,313.9635,314.3615,22.044333333333334,20.676099999999998,22.0758,21.5579,314.999998,314.999998,324.999988,324.999988,99.55802857142857,99.5075,99.5694,99.54885714285714,0.06533333333333369,-0.08433333333333337,-0.137,0.0905,-0.036666666666668846,-0.02499999999999858,1.504,1.5065,38.777,30.226,38.974000000000004,35.737,55.497,35.647,61.5375,54.237,53.469,34.7665,58.781,51.542500000000004,52.635,34.324,57.3335,49.92966666666666,-0.10199999999999987,-0.0674999999999999,0.10338000000000001,0.108685,0.0,218.04500000000002,218.01999999999998,214.76999999999998,214.76999999999998,0.0,0.0
32,0.0,1.0,0.0,1.0,1.0,0.0,0.0,1.0,0.0,100.0,1.0,1.1856,26.0,0.0,0.0,0.0,59.999996,0.0,26.0,26.0,26.0,26.0,-0.0431111111111111,0.25660000000000016,-0.06416666666666666,290.97,-2.6849,-2.7190000000000003,-3.2432,-3.143,-167.28,215.85250000000002,190.280625,0.0,0.0,0.0,0.0,0.06459999999999999,-5.498166666666667,-5.498166666666667,-0.5954,0.036000000000000004,-0.046111111111111214,0.061,69.781,-0.013000000000000001,-0.2156,-0.09999999999999964,100.0,1.0,1.0,215.36666666666667,0.0,0.0,0.0,0.0,0.0,0.0,0.0,9128.6,0.0,55.0,5.0,251.18333333333334,0.0,0.0,0.0,0.0,0.0,0.0,1.0,0.0,1.6050000000000004,1.6050000000000004,0.0,0.0,0.0,55.0,616.79921,10000.0,85.000001,85.000001,85.000001,85.000001,395.0,0.0,0.0,0.0,1.0,333.33500000000004,51.269999999999996,51.269999999999996,46.004999999999995,46.004999999999995,34.0,-24.669999999999998,25.03,-49.20666666666666,46.847500000000004,0.0,1782.083,-0.28999999999999915,100.0,29.106,28.856,45.164,44.964,0.0,1.0,100.0,0.0,0.0,0.0,0.0,3224.142857142857,3170.7,4138.625,4115.1,305.0405,304.7815,314.91175,314.8195,22.053666666666665,20.6819,22.0863,21.5671,314.999998,314.999998,324.999988,324.999988,99.55802857142857,99.5075,99.56955714285715,99.54901428571429,0.08566666666666656,-0.06066666666666665,-0.12483333333333334,0.1075,-0.04999999999999716,-0.041666666666671404,1.6280000000000001,1.6290000000000004,38.835,30.262,39.039,35.7945,55.486000000000004,35.689,61.5775,54.302,53.458,34.8045,58.817,51.602000000000004,52.623000000000005,34.3605,57.365,49.98533333333333,-0.10499999999999998,-0.06300000000000017,0.10577,0.097485,0.0,218.435,218.42000000000002,215.36666666666667,215.36666666666667,0.0,0.0
33,0.0,1.0,0.0,1.0,1.0,0.0,0.0,1.0,0.0,100.0,1.0,1.1856,26.0,0.0,0.0,0.0,59.999996,0.0,26.0,26.0,26.0,26.0,-0.004555555555555535,0.26570000000000005,-0.06296666666666667,291.077,-2.693,-2.7137777777777776,-3.2019,-3.2244444444444444,-163.93,215.8375,190.25575,0.0,0.0,0.0,0.0,0.06656666666666655,-5.498166666666667,-5.498166666666667,-0.5961000000000001,-0.21666666666666667,-0.0425555555555559,1.26,69.903,-0.0018000000000000002,-0.19595,-0.16799999999999926,100.0,1.0,1.0,215.64,0.0,0.0,0.0,0.0,0.0,0.0,0.0,9140.2,0.0,55.0,5.0,251.62333333333333,1.0,0.0,0.0,0.0,0.0,0.0,1.0,0.0,1.6529999999999987,1.6529999999999987,0.0,0.0,1.0,55.0,616.79921,10000.0,85.000001,85.000001,85.000001,85.000001,395.0,0.0,0.0,0.0,1.0,166.665,51.956,51.956,45.715,45.715,34.0,-23.08,24.32,-50.68666666666667,50.585,0.0,1782.037,-0.3299999999999983,100.0,28.889,28.517,45.121,44.952,0.0,1.0,100.0,0.0,0.0,0.0,0.0,3068.0,3066.0,4245.25,4262.1,305.5525,305.111,314.57175,314.38875,22.062333333333335,20.6871,22.0962,21.5758,314.999998,314.999998,324.999988,324.999988,99.55804285714285,99.50751666666666,99.56971428571428,99.54915714285714,0.09100000000000019,-0.05366666666666664,-0.11966666666666667,0.115,-0.045000000000001705,-0.041666666666671404,1.5753333333333335,1.5819999999999999,38.89,30.2945,39.101,35.849000000000004,55.474999999999994,35.724000000000004,61.617,54.3635,53.448,34.8375,58.853,51.6595,52.611000000000004,34.3915,57.396,50.038666666666664,-0.10799999999999987,-0.05600000000000005,0.10612500000000001,0.102385,0.0,218.81,218.79500000000002,215.64,215.64,0.0,0.0
34,0.0,1.0,0.0,1.0,1.0,0.0,0.0,1.0,0.0,100.0,1.0,1.1856,26.0,0.0,0.0,0.0,59.999996,0.0,26.0,26.0,26.0,26.0,0.009222222222222243,0.2579,-0.08086666666666667,291.275,-2.7659,-2.6611111111111114,-3.24105,-3.1805555555555554,-160.36,215.8225,190.227875,0.0,0.0,0.0,0.0,0.06863333333333332,-5.498166666666667,-5.498166666666667,-0.6232,-0.8116666666666666,-0.0076666666666667105,-0.214,70.031,0.0056,-0.203125,-0.09399999999999942,100.0,1.0,1.0,216.04666666666668,0.0,0.0,0.0,0.0,0.0,0.0,0.0,9157.4,0.0,55.0,5.0,252.08666666666664,0.0,0.0,0.0,0.0,0.0,0.0,1.0,0.0,1.7040000000000006,1.7040000000000006,0.0,0.0,0.0,55.0,616.79921,10000.0,85.000001,85.000001,85.000001,85.000001,395.0,0.0,0.0,0.0,1.0,166.665,52.078,52.078,46.509,46.509,34.0,-25.2625,23.703333333333333,-48.586666666666666,49.2825,0.0,1781.986,-0.33500000000000085,100.0,28.399,28.29,44.841,45.152,0.0,1.0,100.0,0.0,0.0,0.0,0.0,3259.4285714285716,3018.0,4106.5,4195.0,305.1945,305.18025,314.9915,314.428,22.071444444444445,20.6927,22.1066,21.5851,314.999998,314.999998,324.999988,324.999988,99.55805714285714,99.50751666666666,99.56985714285715,99.54931428571429,0.08999999999999986,-0.04899999999999993,-0.11583333333333333,0.113,-0.03166666666666629,-0.045000000000001705,1.5966666666666667,1.5970000000000004,38.947,30.3295,39.166,35.907,55.462,35.760999999999996,61.6565,54.4305,53.436,34.8715,58.888,51.7215,52.599000000000004,34.4245,57.4265,50.096666666666664,-0.11149999999999993,-0.05250000000000021,0.101555,0.10543500000000001,0.0,219.175,219.18,216.04666666666668,216.04666666666668,0.0,0.0
35,0.0,1.0,0.0,1.0,1.0,0.0,0.0,1.0,0.0,100.0,1.0,1.1856,26.0,0.0,0.0,0.0,59.999996,0.0,26.0,26.0,26.0,26.0,0.011111111111111072,0.24860000000000015,-0.0393,291.412,-2.7108,-2.6366666666666667,-3.2215,-3.1382222222222222,-156.57999999999998,215.805,190.196375,0.0,0.0,0.0,0.0,0.0708333333333333,-5.498166666666667,-5.498166666666667,-0.6664,-0.311,-0.022222222222222143,-1.156,70.164,0.0154,-0.209875,-0.33000000000000007,100.0,1.0,1.0,216.56,0.0,0.0,0.0,0.0,0.0,0.0,0.0,9179.2,0.0,55.0,5.0,252.56666666666666,1.0,0.0,0.0,0.0,0.0,0.0,1.0,0.0,1.7579999999999991,1.7579999999999991,0.0,0.0,1.0,55.0,616.79921,10000.0,85.000001,85.000001,85.000001,85.000001,395.0,0.0,0.0,0.0,1.0,166.665,51.757999999999996,51.757999999999996,46.112,46.112,34.0,-24.0125,26.255,-46.376666666666665,45.665,0.0,1781.932,-0.25,100.0,28.136,28.569,44.65,44.676,0.0,1.0,100.0,0.0,0.0,0.0,0.0,3213.5714285714284,3272.6,4034.75,3926.9,305.2355,304.3485,315.078,315.1525,22.081,20.6988,22.1175,21.5948,314.999998,314.999998,324.999988,324.999988,99.55807142857142,99.50753333333333,99.57002857142857,99.54948571428571,0.09966666666666635,-0.04066666666666663,-0.093,0.1365,-0.04833333333333201,-0.046666666666666856,1.6423333333333334,1.6245000000000003,39.006,30.3675,39.235,35.9675,55.448,35.8025,61.6975,54.497,53.422,34.9095,58.925,51.783,52.584,34.460499999999996,57.4585,50.153999999999996,-0.10099999999999998,-0.058499999999999996,0.10160000000000001,0.10734500000000001,0.0,219.59,219.585,216.56,216.56,0.0,0.0
