,ABS Active,ABS Enabled,AID Allow Tire Blankets,AID Auto Blip,AID Auto Clutch,AID Auto Shift,AID Fuel Rate,AID Ideal Line,AID Mech Damage,AID Stability,AID Tire Wear Rate,Air Density,Air Temp,Ballast,Best Lap Delta,Best Lap Time,Brake Bias,Brake Pos,Brake Temp FL,Brake Temp FR,Brake Temp RL,Brake Temp RR,CG Accel Lateral,CG Accel Longitudinal,CG Accel Vertical,CG Height,Camber FL,Camber FR,Camber RL,Camber RR,Car Coord X,Car Coord Y,Car Coord Z,Car Damage Front,Car Damage Left,Car Damage Rear,Car Damage Right,Car Pos Norm,Caster FL,Caster FR,Chassis Pitch Angle,Chassis Pitch Rate,Chassis Roll Angle,Chassis Roll Rate,Chassis Velocity X,Chassis Velocity Y,Chassis Velocity Z,Chassis Yaw Rate,Clutch Pos,DRS Active,DRS Available,Drive Train Speed,ERS Heat Charging,ERS Is Charging,ERS Max Energy,ERS Power Level,ERS Recovery Level,Engine Brake Setting,Engine Limiter,Engine RPM,Flags,Fuel Level,Gear,Ground Speed,HR Sample Clock,In Pit,KERS Charge,KERS Deployed Energy,KERS Input,KERS Max Energy,LR Sample Clock,Lap Invalidated,Lap Time,Lap Time2,Last Lap Time,Last Sector Time,MR Sample Clock,Max Fuel,Max Power,Max RPM,Max Sus Travel FL,Max Sus Travel FR,Max Sus Travel RL,Max Sus Travel RR,Max Torque,Max Turbo Boost,Num Tires Off Track,Penalties Enabled,Position,Raw Data Sample Rate,Ride Height FL,Ride Height FR,Ride Height RL,Ride Height RR,Road Temp,Self Align Torque FL,Self Align Torque FR,Self Align Torque RL,Self Align Torque RR,Session Lap Count,Session Time Left,Steering Angle,Surface Grip,Suspension Travel FL,Suspension Travel FR,Suspension Travel RL,Suspension Travel RR,TC Active,TC Enabled,Throttle Pos,Tire Dirt Level FL,Tire Dirt Level FR,Tire Dirt Level RL,Tire Dirt Level RR,Tire Load FL,Tire Load FR,Tire Load RL,Tire Load RR,Tire Loaded Radius FL,Tire Loaded Radius FR,Tire Loaded Radius RL,Tire Loaded Radius RR,Tire Pressure FL,Tire Pressure FR,Tire Pressure RL,Tire Pressure RR,Tire Radius FL,Tire Radius FR,Tire Radius RL,Tire Radius RR,Tire Rubber Grip FL,Tire Rubber Grip FR,Tire Rubber Grip RL,Tire Rubber Grip RR,Tire Slip Angle FL,Tire Slip Angle FR,Tire Slip Angle RL,Tire Slip Angle RR,Tire Slip Ratio FL,Tire Slip Ratio FR,Tire Slip Ratio RL,Tire Slip Ratio RR,Tire Temp Core FL,Tire Temp Core FR,Tire Temp Core RL,Tire Temp Core RR,Tire Temp Inner FL,Tire Temp Inner FR,Tire Temp Inner RL,Tire Temp Inner RR,Tire Temp Middle FL,Tire Temp Middle FR,Tire Temp Middle RL,Tire Temp Middle RR,Tire Temp Outer FL,Tire Temp Outer FR,Tire Temp Outer RL,Tire Temp Outer RR,Toe In FL,Toe In FR,Toe In RL,Toe In RR,Turbo Boost,Wheel Angular Speed FL,Wheel Angular Speed FR,Wheel Angular Speed RL,Wheel Angular Speed RR,Wind Direction,Wind Speed
0,0.0,1.0,0.0,1.0,1.0,0.0,0.0,1.0,0.0,100.0,1.0,1.1856,26.0,0.0,0.0,0.0,59.99999,0.0,26.0,26.0,26.0,26.0,0.018625000000000114,0.3033000000000001,0.174075,292.572,-4.8735,-4.5584444444444445,-1.5550000000000002,-1.508888888888889,-275.41,215.435,190.985625,0.0,0.0,0.0,0.0,0.0017333333333333645,-5.498166666666667,-5.498166666666667,-0.5574,3.1405,-0.003750000000000142,-0.32600000000000007,65.422,-0.03759999999999997,-0.23055,-0.35599999999999987,100.0,1.0,1.0,201.97,0.0,0.0,0.0,0.0,0.0,0.0,0.0,8560.7,0.0,55.0,5.0,235.48666666666668,0.0,0.0,0.0,0.0,0.0,0.0,0.0,0.0,0.006000000000000227,0.006000000000000227,0.0,0.0,0.0,55.0,616.79921,10000.0,85.0,85.0,85.0,85.0,395.0,0.0,0.0,0.0,1.0,20.0,49.957,49.957,47.989,47.989,34.0,-45.1125,54.62833333333333,-30.4875,27.4575,0.0,1783.084,-0.054999999999999716,100.0,28.044,28.4,40.403999999999996,39.968,0.0,1.0,100.0,0.0,0.0,0.0,0.0,3259.25,4152.1,4206.714285714285,4236.6,304.7076666666667,301.15366666666665,314.611,314.3375,21.717111111111112,20.5289,21.7519,21.2739,314.99999,314.99999,324.99998,324.99998,99.55502857142856,99.50753333333333,99.56465714285714,99.54374285714286,0.02574999999999994,-0.06974999999999998,-0.13449999999999995,0.08683333333333332,-0.036666666666668846,-0.06857142857142406,1.514,1.504,36.732,29.305666666666667,36.949,33.962,56.268,34.945,58.8615,51.037,52.903999999999996,33.7215,57.516,49.46,50.716499999999996,32.8925,57.5035,48.931666666666665,-0.08933333333333326,-0.07299999999999995,0.11097000000000001,0.10667000000000001,0.0,204.995,204.99,201.97,201.97,0.0,0.0
1,0.0,1.0,0.0,1.0,1.0,0.0,0.0,1.0,0.0,100.0,1.0,1.1856,26.0,0.0,0.0,0.0,59.999996,0.0,26.0,26.0,26.0,26.0,-0.07637499999999997,0.3135000000000001,0.20727500000000001,292.252,-4.7924,-4.8004444444444445,-1.6054,-1.4477777777777778,-272.07,215.4425,190.966125,0.0,0.0,0.0,0.0,0.0036999999999999256,-5.498166666666667,-5.498166666666667,-0.4801,-2.682,-0.04587500000000011,-0.8170000000000002,65.581,-0.015100000000000002,-0.19410000000000002,0.3960000000000008,100.0,1.0,1.0,201.89666666666668,0.0,0.0,0.0,0.0,0.0,0.0,0.0,8557.7,0.0,55.0,5.0,236.06333333333333,1.0,0.0,0.0,0.0,0.0,0.0,0.0,0.0,0.05699999999999861,0.05699999999999861,0.0,0.0,1.0,55.0,616.79921,10000.0,85.000001,85.000001,85.000001,85.000001,395.0,0.0,0.0,0.0,1.0,333.33500000000004,54.306,54.306,47.318,47.318,34.0,-36.3025,29.47,-36.432500000000005,33.575,0.0,1783.031,0.3249999999999993,100.0,27.587,27.126,42.758,43.853,0.0,1.0,100.0,0.0,0.0,0.0,0.0,2789.625,2446.6,4688.285714285715,4966.200000000001,306.395,307.06766666666664,313.22366666666665,311.629,21.726333333333333,20.5337,21.7629,21.2833,314.999998,314.999998,324.999988,324.999988,99.55502857142856,99.50753333333333,99.56481428571429,99.5439,0.03825000000000012,-0.08999999999999997,-0.1233333333333334,0.07633333333333336,-0.04333333333332945,-0.02571428571428669,1.2730000000000001,1.302,36.79,29.33566666666667,37.018,34.0205,56.251000000000005,34.981,58.911500000000004,51.1105,52.888999999999996,33.753,57.563,49.53,50.701,32.921,57.547,49.00033333333333,-0.05433333333333312,-0.10050000000000026,0.101375,0.11339,0.0,205.39,205.35000000000002,201.89666666666668,201.89666666666668,0.0,0.0
2,0.0,1.0,0.0,1.0,1.0,0.0,0.0,1.0,0.0,100.0,1.0,1.1856,26.0,0.0,0.0,0.0,59.999996,0.0,26.0,26.0,26.0,26.0,-0.07499999999999996,0.2894000000000001,0.042100000000000005,293.915,-4.7683,-4.747111111111111,-1.5729000000000002,-1.5007777777777778,-268.53,215.45,190.946,0.0,0.0,0.0,0.0,0.005766666666666587,-5.498166666666667,-5.498166666666667,-0.5790000000000001,1.35,-0.0009999999999998899,2.183,65.72200000000001,-0.022599999999999953,-0.26182500000000003,0.8600000000000003,100.0,1.0,1.0,203.3466666666667,0.0,0.0,0.0,0.0,0.0,0.0,0.0,8619.1,0.0,55.0,5.0,236.57,0.0,0.0,0.0,0.0,0.0,0.0,0.0,0.0,0.11100000000000065,0.11100000000000065,0.0,0.0,0.0,55.0,616.79921,10000.0,85.000001,85.000001,85.000001,85.000001,395.0,0.0,0.0,0.0,1.0,166.665,51.834,51.834,50.842,50.842,34.0,-45.16,40.29333333333334,-25.32,19.4075,0.0,1782.978,0.26500000000000057,100.0,28.293,27.591,41.557,41.275,0.0,1.0,100.0,0.0,0.0,0.0,0.0,3317.75,3188.8,3546.4285714285716,3481.1,304.67533333333336,304.601,316.2316666666667,316.2935,21.736666666666665,20.5393,21.773600000000002,21.292,314.999998,314.999998,324.999988,324.999988,99.55504285714285,99.50755,99.56494285714285,99.54402857142857,0.02400000000000002,-0.08524999999999994,-0.16549999999999998,0.062000000000000055,-0.07333333333333059,-0.06714285714285495,1.7573333333333334,1.8175,36.854,29.370333333333335,37.085,34.075,56.242000000000004,35.025,58.947,51.162,52.879999999999995,33.7915,57.5955,49.579499999999996,50.6915,32.956,57.577,49.049,-0.05899999999999994,-0.10099999999999998,0.10288000000000001,0.10391,0.0,205.92000000000002,205.845,203.3466666666667,203.34666666666666,0.0,0.0
3,0.0,1.0,0.0,1.0,1.0,0.0,0.0,1.0,0.0,100.0,1.0,1.1856,26.0,0.0,0.0,0.0,59.999996,0.0,26.0,26.0,26.0,26.0,-0.060124999999999984,0.29269999999999996,0.03615,292.908,-4.7855,-4.776666666666667,-1.5534,-1.4797777777777779,-265.57,215.45499999999998,190.927875,0.0,0.0,0.0,0.0,0.0074666666666665105,-5.498166666666667,-5.498166666666667,-0.49910000000000004,0.47750000000000004,0.008750000000000036,-2.064,65.863,-0.03609999999999991,-0.187025,0.4920000000000009,100.0,1.0,1.0,203.05333333333334,0.0,0.0,0.0,0.0,0.0,0.0,0.0,8606.6,0.0,55.0,5.0,237.07333333333332,1.0,0.0,0.0,0.0,0.0,0.0,0.0,0.0,0.1559999999999988,0.1559999999999988,0.0,0.0,1.0,55.0,616.79921,10000.0,85.000001,85.000001,85.000001,85.000001,395.0,0.0,0.0,0.0,1.0,166.665,53.253,53.253,47.379,47.379,34.0,-37.8875,35.395,-35.099999999999994,27.815,0.0,1782.933,0.5300000000000011,100.0,27.84,27.655,42.066,42.125,0.0,1.0,100.0,0.0,0.0,0.0,0.0,2843.125,2867.0,4557.285714285715,4406.3,306.25266666666664,305.52166666666665,313.734,313.7505,21.744888888888887,20.5439,21.782899999999998,21.3,314.999998,314.999998,324.999988,324.999988,99.55504285714285,99.50756666666666,99.56508571428571,99.54417142857143,0.008499999999999952,-0.10324999999999995,-0.15233333333333332,0.07033333333333336,-0.01833333333333087,-0.058571428571426054,1.426,1.4645000000000001,36.906,29.39966666666667,37.143,34.125,56.227000000000004,35.0625,58.984,51.225,52.867000000000004,33.8245,57.629999999999995,49.64,50.6785,32.9855,57.6085,49.108000000000004,-0.03833333333333311,-0.11500000000000021,0.11053500000000001,0.103885,0.0,206.335,206.305,203.05333333333334,203.05333333333334,0.0,0.0
4,0.0,1.0,0.0,1.0,1.0,0.0,0.0,1.0,0.0,100.0,1.0,1.1856,26.0,0.0,0.0,0.0,59.999996,0.0,26.0,26.0,26.0,26.0,-0.09399999999999997,0.2885,-0.0717,293.411,-4.7651,-4.847222222222222,-1.4886,-1.597777777777778,-262.2,215.46,190.908625,0.0,0.0,0.0,0.0,0.009433333333333294,-5.498166666666667,-5.498166666666667,-0.5375,-0.8425,-0.04562500000000025,0.31200000000000006,66.007,-0.03869999999999996,-0.2421,1.0239999999999991,100.0,1.0,1.0,203.76666666666665,0.0,0.0,0.0,0.0,0.0,0.0,0.0,8636.9,0.0,55.0,5.0,237.5966666666667,0.0,0.0,0.0,0.0,0.0,0.0,0.0,0.0,0.20700000000000074,0.20700000000000074,0.0,0.0,0.0,55.0,616.79921,10000.0,85.000001,85.000001,85.000001,85.000001,395.0,0.0,0.0,0.0,1.0,333.33500000000004,52.902,52.902,48.874,48.874,34.0,-42.945,36.345,-28.974999999999998,23.9225,0.0,1782.881,0.6550000000000011,100.0,27.88,27.149,42.816,42.104,0.0,1.0,100.0,0.0,0.0,0.0,0.0,3137.0,2945.6,4004.1428571428573,3809.7,305.193,305.49966666666666,315.0323333333333,315.35325,21.754333333333335,20.549,21.793599999999998,21.308799999999998,314.999998,314.999998,324.999988,324.999988,99.55504285714285,99.50758333333333,99.56521428571429,99.5443,0.004750000000000032,-0.10975000000000001,-0.15983333333333338,0.0641666666666667,-0.04833333333333201,-0.07000000000000028,1.5693333333333332,1.5965,36.965,29.431333333333335,37.21,34.1805,56.214,35.103,59.027,51.2855,52.854,33.86,57.67,49.698,50.6655,33.018,57.6455,49.165,-0.02400000000000002,-0.12850000000000028,0.10473500000000001,0.103535,0.0,206.73000000000002,206.67000000000002,203.76666666666665,203.76666666666665,0.0,0.0
5,0.0,1.0,0.0,1.0,1.0,0.0,0.0,1.0,0.0,100.0,1.0,1.1856,26.0,0.0,0.0,0.0,59.999996,0.0,26.0,26.0,26.0,26.0,-0.09550000000000003,0.3026,-0.0352,293.686,-4.7440999999999995,-4.825666666666667,-1.5417,-1.573777777777778,-258.64,215.46,190.887625,0.0,0.0,0.0,0.0,0.011499999999999955,-5.498166666666667,-5.498166666666667,-0.5366000000000001,0.6599999999999999,-0.02737500000000015,0.7,66.16,-0.06169999999999998,-0.21855000000000002,0.9879999999999995,100.0,1.0,1.0,204.28,0.0,0.0,0.0,0.0,0.0,0.0,0.0,8658.6,0.0,55.0,5.0,238.14666666666668,1.0,0.0,0.0,0.0,0.0,0.0,0.0,0.0,0.26099999999999923,0.26099999999999923,0.0,0.0,1.0,55.0,616.79921,10000.0,85.000001,85.000001,85.000001,85.000001,395.0,0.0,0.0,0.0,1.0,166.665,53.314,53.314,49.088,49.088,34.0,-40.1575,36.725,-30.2425,23.9575,0.0,1782.828,0.1750000000000007,100.0,27.76,27.012999999999998,42.382,41.513,0.0,1.0,100.0,0.0,0.0,0.0,0.0,2967.625,2947.4,3942.285714285714,4049.5,305.65566666666666,305.44433333333336,315.23633333333333,314.83925,21.764444444444443,20.5545,21.8045,21.318,314.999998,314.999998,324.999988,324.999988,99.55505714285714,99.50758333333333,99.56537142857142,99.54444285714285,0.008000000000000007,-0.09675,-0.18599999999999994,0.03833333333333333,-0.045000000000001705,-0.08142857142857451,1.5766666666666667,1.619,37.028,29.465666666666664,37.278,34.2375,56.201,35.1465,59.067,51.3485,52.842,33.8985,57.707,49.757999999999996,50.6535,33.0525,57.6795,49.22366666666667,-0.04933333333333323,-0.09250000000000025,0.10701000000000001,0.10535000000000001,0.0,207.28,207.185,204.28,204.28,0.0,0.0
6,0.0,1.0,0.0,1.0,1.0,0.0,0.0,1.0,0.0,100.0,1.0,1.1856,26.0,0.0,0.0,0.0,59.999996,0.0,26.0,26.0,26.0,26.0,-0.10150000000000003,0.2905,0.0407,293.442,-4.7772,-4.874555555555556,-1.4897,-1.5894444444444444,-255.66,215.46,190.869375,0.0,0.0,0.0,0.0,0.01323333333333332,-5.498166666666667,-5.498166666666667,-0.5296000000000001,-0.36549999999999994,-0.050875000000000004,-1.0310000000000001,66.292,-0.06479999999999997,-0.20720000000000002,0.8979999999999997,100.0,1.0,1.0,204.51999999999998,0.0,0.0,0.0,0.0,0.0,0.0,0.0,8668.9,0.0,55.0,5.0,238.62,0.0,0.0,0.0,0.0,0.0,0.0,0.0,0.0,0.30600000000000094,0.30600000000000094,0.0,0.0,0.0,55.0,616.79921,10000.0,85.000001,85.000001,85.000001,85.000001,395.0,0.0,0.0,0.0,1.0,166.665,53.452,53.452,48.599000000000004,48.599000000000004,34.0,-44.1225,34.39666666666667,-33.275,24.0,0.0,1782.783,0.21499999999999986,100.0,27.407,26.829,42.557,41.831,0.0,1.0,100.0,0.0,0.0,0.0,0.0,3221.0,2776.0,4242.571428571428,4024.1000000000004,305.175,305.8636666666667,314.49966666666666,314.759,21.772777777777776,20.5589,21.8138,21.3258,314.999998,314.999998,324.999988,324.999988,99.55505714285714,99.5076,99.5655,99.54457142857143,-0.00275000000000003,-0.10824999999999996,-0.19666666666666666,0.02983333333333338,-0.05833333333333002,-0.04571428571428271,1.502,1.5425,37.08,29.493333333333332,37.336,34.286500000000004,56.188,35.1815,59.1035,51.4045,52.831,33.929,57.7415,49.812,50.6415,33.08,57.7115,49.27633333333333,-0.058666666666666645,-0.08550000000000013,0.10619500000000001,0.104275,0.0,207.65,207.57,204.51999999999998,204.51999999999998,0.0,0.0
7,0.0,1.0,0.0,1.0,1.0,0.0,0.0,1.0,0.0,100.0,1.0,1.1856,26.0,0.0,0.0,0.0,59.999996,0.0,26.0,26.0,26.0,26.0,-0.09250000000000003,0.28590000000000004,-0.018075,293.457,-4.7726,-4.875111111111111,-1.5397,-1.610111111111111,-252.27,215.45749999999998,190.848875,0.0,0.0,0.0,0.0,0.015199999999999991,-5.498166666666667,-5.498166666666667,-0.5351,0.13849999999999996,-0.03925000000000001,1.27,66.435,-0.07150000000000001,-0.21745,0.6679999999999993,100.0,1.0,1.0,205.04666666666668,0.0,0.0,0.0,0.0,0.0,0.0,0.0,8691.2,0.0,55.0,5.0,239.13666666666666,1.0,0.0,0.0,0.0,0.0,0.0,0.0,0.0,0.3569999999999993,0.3569999999999993,0.0,0.0,1.0,55.0,616.79921,10000.0,85.000001,85.000001,85.000001,85.000001,395.0,0.0,0.0,0.0,1.0,333.33500000000004,53.207,53.207,48.706,48.706,34.0,-41.3525,37.58166666666666,-32.2325,24.425,0.0,1782.731,-0.1999999999999993,100.0,27.847,26.844,42.682,41.649,0.0,1.0,100.0,0.0,0.0,0.0,0.0,3075.0,2955.3,4110.857142857143,3988.1000000000004,305.364,305.458,314.7936666666667,314.94725,21.782333333333334,20.5642,21.8243,21.334600000000002,314.999998,314.999998,324.999988,324.999988,99.55505714285714,99.5076,99.56564285714286,99.54471428571429,0.028000000000000025,-0.07899999999999996,-0.1905,0.04150000000000009,-0.02499999999999858,-0.06714285714285495,1.5473333333333334,1.5635,37.138999999999996,29.526,37.402,34.341499999999996,56.177,35.2225,59.144,51.4655,52.821,33.965,57.778999999999996,49.87,50.631,33.1125,57.746,49.333,-0.08833333333333315,-0.05600000000000005,0.10799500000000001,0.10500000000000001,0.0,208.09,208.04000000000002,205.04666666666668,205.04666666666668,0.0,0.0
8,0.0,1.0,0.0,1.0,1.0,0.0,0.0,1.0,0.0,100.0,1.0,1.1856,26.0,0.0,0.0,0.0,59.999996,0.0,26.0,26.0,26.0,26.0,-0.05149999999999999,0.28100000000000014,-0.021075,293.549,-4.7903,-4.807,-1.5524,-1.602888888888889,-248.88,215.45,190.828375,0.0,0.0,0.0,0.0,0.017166666666666552,-5.498166666666667,-5.498166666666667,-0.5379,-0.10450000000000004,-0.03362500000000024,-1.113,66.58,-0.06269999999999998,-0.220975,0.2920000000000007,100.0,1.0,1.0,205.49,0.0,0.0,0.0,0.0,0.0,0.0,0.0,8710.0,0.0,55.0,5.0,239.66,0.0,0.0,0.0,0.0,0.0,0.0,0.0,0.0,0.40800000000000125,0.40800000000000125,0.0,0.0,0.0,55.0,616.79921,10000.0,85.000001,85.000001,85.000001,85.000001,395.0,0.0,0.0,0.0,1.0,333.33500000000004,53.345,53.345,48.538,48.538,34.0,-41.8425,37.376666666666665,-31.572499999999998,24.317500000000003,0.0,1782.679,-0.3149999999999977,100.0,27.33,27.076999999999998,42.557,41.879,0.0,1.0,100.0,0.0,0.0,0.0,0.0,3136.875,2937.4,4085.285714285714,3925.0,305.43266666666665,305.326,314.923,315.01475,21.791666666666668,20.5694,21.8348,21.3435,314.999998,314.999998,324.999988,324.999988,99.55505714285714,99.50761666666666,99.56578571428571,99.54485714285714,0.029749999999999943,-0.07624999999999993,-0.18099999999999994,0.04866666666666686,-0.06666666666666998,-0.07000000000000028,1.5523333333333333,1.5645,37.198,29.558999999999997,37.468,34.397,56.163,35.263,59.184,51.528,52.809,34.0005,57.816,49.93,50.6185,33.1445,57.78,49.391666666666666,-0.10333333333333328,-0.04200000000000026,0.110975,0.10183500000000001,0.0,208.51999999999998,208.51,205.49,205.49,0.0,0.0
9,0.0,1.0,0.0,1.0,1.0,0.0,0.0,1.0,0.0,100.0,1.0,1.1856,26.0,0.0,0.0,0.0,59.999996,0.0,26.0,26.0,26.0,26.0,-0.03149999999999997,0.2834000000000001,-0.00775,293.381,-4.769,-4.823555555555556,-1.538,-1.5631111111111111,-245.68,215.445,190.80875,0.0,0.0,0.0,0.0,0.019033333333333347,-5.498166666666667,-5.498166666666667,-0.5342,0.21250000000000002,-0.04337500000000016,-0.7000000000000002,66.715,-0.04849999999999999,-0.21285,0.19600000000000062,100.0,1.0,1.0,205.88666666666666,0.0,0.0,0.0,0.0,0.0,0.0,0.0,8726.7,0.0,55.0,5.0,240.14333333333332,1.0,0.0,0.0,0.0,0.0,0.0,0.0,0.0,0.4559999999999995,0.4559999999999995,0.0,0.0,1.0,55.0,616.79921,10000.0,85.000001,85.000001,85.000001,85.000001,395.0,0.0,0.0,0.0,1.0,333.33500000000004,53.116,53.116,48.751999999999995,48.751999999999995,34.0,-42.545,37.92,-30.5125,25.895,0.0,1782.633,-0.47499999999999787,100.0,27.484,27.018,42.446,41.887,0.0,1.0,100.0,0.0,0.0,0.0,0.0,3207.0,2946.4,4112.857142857143,4054.5,305.16433333333333,305.31733333333335,314.884,314.73175,21.800555555555555,20.5744,21.8447,21.3519,314.999998,314.999998,324.999988,324.999988,99.55507142857142,99.50761666666666,99.56592857142857,99.54498571428572,0.042750000000000066,-0.0645,-0.15883333333333338,0.07066666666666666,-0.051666666666669414,-0.0628571428571405,1.5486666666666666,1.548,37.254000000000005,29.589666666666666,37.528999999999996,34.449,56.153,35.3005,59.221000000000004,51.586,52.799,34.033,57.851,49.9855,50.608000000000004,33.174,57.812,49.446,-0.10999999999999988,-0.03750000000000009,0.10010500000000001,0.1067,0.0,208.95,208.925,205.88666666666666,205.88666666666666,0.0,0.0
10,0.0,1.0,0.0,1.0,1.0,0.0,0.0,1.0,0.0,100.0,1.0,1.1856,26.0,0.0,0.0,0.0,59.999996,0.0,26.0,26.0,26.0,26.0,-0.024374999999999925,0.2832000000000001,0.008275000000000001,293.335,-4.7749,-4.807,-1.5513,-1.547111111111111,-242.26999999999998,215.4375,190.788,0.0,0.0,0.0,0.0,0.02103333333333335,-5.498166666666667,-5.498166666666667,-0.5296000000000001,-0.21999999999999997,-0.016249999999999876,1.514,66.85900000000001,-0.0371999999999999,-0.21065,-0.1039999999999992,100.0,1.0,1.0,206.24666666666667,0.0,0.0,0.0,0.0,0.0,0.0,0.0,8742.1,0.0,55.0,5.0,240.66333333333333,0.0,0.0,0.0,0.0,0.0,0.0,1.0,0.0,0.5069999999999979,0.5069999999999979,0.0,0.0,0.0,55.0,616.79921,10000.0,85.000001,85.000001,85.000001,85.000001,395.0,0.0,0.0,0.0,1.0,333.33500000000004,53.452,53.452,48.507999999999996,48.507999999999996,34.0,-38.36,39.47833333333333,-29.62,27.65,0.0,1782.582,-0.634999999999998,100.0,27.552,26.788,42.644,42.07,0.0,1.0,100.0,0.0,0.0,0.0,0.0,2978.375,3027.1,4079.4285714285716,4253.0,305.66,305.2783333333333,314.8466666666667,314.3275,21.81,20.5796,21.8552,21.3608,314.999998,314.999998,324.999988,324.999988,99.55508571428571,99.50763333333333,99.56605714285715,99.54512857142858,0.07800000000000007,-0.035499999999999976,-0.13716666666666666,0.07766666666666677,-0.051666666666669414,-0.05142857142857338,1.5196666666666667,1.5085000000000002,37.312,29.622333333333334,37.595,34.504999999999995,56.141999999999996,35.338499999999996,59.2615,51.649,52.789,34.0665,57.8885,50.046,50.598,33.204,57.8465,49.504999999999995,-0.1279999999999999,-0.02450000000000019,0.10050500000000001,0.10277000000000001,0.0,209.38,209.365,206.24666666666667,206.24666666666667,0.0,0.0
11,0.0,1.0,0.0,1.0,1.0,0.0,0.0,1.0,0.0,100.0,1.0,1.1856,26.0,0.0,0.0,0.0,59.999996,0.0,26.0,26.0,26.0,26.0,0.00649999999999995,0.28859999999999997,-0.048775,293.564,-4.7881,-4.796444444444444,-1.5619,-1.5203333333333333,-238.86,215.43,190.767,0.0,0.0,0.0,0.0,0.022599999999999953,-5.498166666666667,-5.498166666666667,-0.5504,-0.26449999999999996,0.005749999999999922,-0.44200000000000017,67.001,-0.018899999999999917,-0.222675,-0.29799999999999915,100.0,1.0,1.0,206.78,0.0,0.0,0.0,0.0,0.0,0.0,0.0,8764.7,0.0,55.0,5.0,241.17333333333335,1.0,0.0,0.0,0.0,0.0,0.0,1.0,0.0,0.5579999999999998,0.5579999999999998,0.0,0.0,1.0,55.0,616.79921,10000.0,85.000001,85.000001,85.000001,85.000001,395.0,0.0,0.0,0.0,1.0,166.665,53.345,53.345,48.935,48.935,34.0,-40.43,39.69,-27.7925,26.675,0.0,1782.531,-1.0350000000000001,100.0,27.135,27.017,42.339,42.199,0.0,1.0,100.0,0.0,0.0,0.0,0.0,3107.5,3027.5,3931.285714285714,4049.9,305.4843333333333,305.08666666666664,315.2943333333333,314.75975,21.819333333333333,20.5849,21.8655,21.3697,314.999998,314.999998,324.999988,324.999988,99.55508571428571,99.50765,99.5662,99.54527142857143,0.06350000000000011,-0.040000000000000036,-0.13049999999999995,0.09933333333333327,-0.060000000000002274,-0.04285714285714448,1.5736666666666665,1.5655000000000001,37.370999999999995,29.655666666666665,37.66,34.5605,56.129999999999995,35.3765,59.2985,51.711,52.778,34.1,57.923,50.1055,50.5865,33.2345,57.8785,49.56333333333333,-0.127,-0.01750000000000007,0.105925,0.10271500000000001,0.0,209.79000000000002,209.785,206.78,206.78,0.0,0.0
12,0.0,1.0,0.0,1.0,1.0,0.0,0.0,1.0,0.0,100.0,1.0,1.1856,26.0,0.0,0.0,0.0,59.999996,0.0,26.0,26.0,26.0,26.0,-0.009499999999999953,0.2872000000000001,0.017650000000000002,293.167,-4.8206,-4.783111111111111,-1.5605,-1.5373333333333332,-235.44,215.42000000000002,190.74525,0.0,0.0,0.0,0.0,0.025466666666666526,-5.498166666666667,-5.498166666666667,-0.5407000000000001,0.37649999999999995,0.011874999999999858,0.623,67.143,0.00029999999999996696,-0.20450000000000002,-0.3719999999999999,100.0,1.0,1.0,207.14,0.0,0.0,0.0,0.0,0.0,0.0,0.0,8779.9,0.0,55.0,5.0,241.68666666666667,0.0,0.0,0.0,0.0,0.0,0.0,1.0,0.0,0.6089999999999982,0.6089999999999982,0.0,0.0,0.0,55.0,616.79921,10000.0,85.000001,85.000001,85.000001,85.000001,395.0,0.0,0.0,0.0,1.0,166.665,53.04,53.04,48.294,48.294,34.0,-40.1525,40.41166666666667,-27.5425,30.427500000000002,0.0,1782.481,0.3949999999999996,100.0,27.46,27.25,42.333,42.158,0.0,1.0,100.0,0.0,0.0,0.0,0.0,2989.125,3172.6,4086.0,4276.0,305.643,304.78766666666667,314.875,314.29475,21.828555555555557,20.5903,21.8759,21.3786,314.999998,314.999998,324.999988,324.999988,99.5551,99.50765,99.56634285714286,99.54541428571429,0.03225000000000011,-0.07524999999999993,-0.09516666666666662,0.13000000000000012,-0.04999999999999716,-0.060000000000002274,1.5376666666666665,1.521,37.429,29.689333333333334,37.724000000000004,34.6165,56.120000000000005,35.417,59.3365,51.7735,52.769,34.1355,57.958,50.1655,50.576499999999996,33.2665,57.9105,49.622,-0.04933333333333323,-0.09650000000000025,0.10562,0.11066000000000001,0.0,210.235,210.255,207.14,207.14,0.0,0.0
13,0.0,1.0,0.0,1.0,1.0,0.0,0.0,1.0,0.0,100.0,1.0,1.1856,26.0,0.0,0.0,0.0,59.999996,0.0,26.0,26.0,26.0,26.0,0.033625000000000016,0.2763,0.00795,292.938,-4.7939,-4.795222222222222,-1.557,-1.545,-232.01,215.4125,190.723625,0.0,0.0,0.0,0.0,0.026999999999999913,-5.498166666666667,-5.498166666666667,-0.5397000000000001,-0.3025,0.0068749999999999645,-0.5180000000000002,67.285,0.0020000000000000018,-0.21645,-0.2679999999999998,100.0,1.0,1.0,207.53,0.0,0.0,0.0,0.0,0.0,0.0,0.0,8796.5,0.0,55.0,5.0,242.19666666666666,1.0,0.0,0.0,0.0,0.0,0.0,1.0,0.0,0.6600000000000001,0.6600000000000001,0.0,0.0,1.0,55.0,616.79921,10000.0,85.000001,85.000001,85.000001,85.000001,395.0,0.0,0.0,0.0,1.0,166.665,52.933,52.933,48.203,48.203,34.0,-39.31,40.46,-28.7975,29.63,0.0,1782.429,-0.629999999999999,100.0,27.464,27.504,42.553,42.706,0.0,1.0,100.0,0.0,0.0,0.0,0.0,3111.375,3022.5,4116.0,4225.0,305.46666666666664,305.0846666666667,314.837,314.30225,21.837888888888887,20.5957,21.8864,21.3877,314.999998,314.999998,324.999988,324.999988,99.55511428571428,99.50765,99.5665,99.54555714285715,0.10200000000000009,-0.013000000000000012,-0.11483333333333334,0.11699999999999999,-0.041666666666671404,-0.05571428571428072,1.5176666666666665,1.51,37.486999999999995,29.723333333333336,37.79,34.673,56.111000000000004,35.4565,59.3765,51.838,52.76,34.17,57.995,50.227000000000004,50.567,33.2975,57.9445,49.68233333333333,-0.1323333333333332,-0.021500000000000075,0.1135,0.11335500000000001,0.0,210.68,210.69,207.53,207.53,0.0,0.0
14,0.0,1.0,0.0,1.0,1.0,0.0,0.0,1.0,0.0,100.0,1.0,1.1856,26.0,0.0,0.0,0.0,59.999996,0.0,26.0,26.0,26.0,26.0,0.04849999999999999,0.2783,-0.038525000000000004,293.182,-4.8073,-4.807666666666667,-1.5682,-1.539111111111111,-228.78,215.4075,190.7035,0.0,0.0,0.0,0.0,0.028866666666666596,-5.498166666666667,-5.498166666666667,-0.5504,-0.030999999999999917,0.020624999999999893,-0.43000000000000016,67.416,0.009300000000000086,-0.223675,-0.3899999999999997,100.0,1.0,1.0,208.02666666666667,0.0,0.0,0.0,0.0,0.0,0.0,0.0,8817.5,0.0,55.0,5.0,242.66666666666666,0.0,0.0,0.0,0.0,0.0,0.0,1.0,0.0,0.7079999999999984,0.7079999999999984,0.0,0.0,0.0,55.0,616.79921,10000.0,85.000001,85.000001,85.000001,85.000001,395.0,0.0,0.0,0.0,1.0,166.665,52.979,52.979,48.553,48.553,34.0,-39.0875,40.26,-27.16,28.845,0.0,1782.382,-0.6550000000000011,100.0,27.463,27.631,42.439,42.721000000000004,0.0,1.0,100.0,0.0,0.0,0.0,0.0,3078.75,2996.8,3989.5714285714284,4086.7,305.566,305.123,315.163,314.6745,21.846666666666668,20.6008,21.8962,21.3961,314.999998,314.999998,324.999988,324.999988,99.55512857142857,99.50765,99.56662857142857,99.54568571428571,0.09699999999999998,-0.01100000000000001,-0.10366666666666657,0.1293333333333333,-0.06333333333333258,-0.058571428571426054,1.553,1.5415,37.541,29.755333333333333,37.851,34.726,56.102000000000004,35.493,59.411500000000004,51.8965,52.751999999999995,34.2025,58.0275,50.283,50.5585,33.326499999999996,57.974000000000004,49.73733333333333,-0.1303333333333332,-0.021500000000000075,0.10740500000000001,0.10571000000000001,0.0,211.07999999999998,211.10000000000002,208.02666666666667,208.02666666666667,0.0,0.0
15,0.0,1.0,0.0,1.0,1.0,0.0,0.0,1.0,0.0,100.0,1.0,1.1856,26.0,0.0,0.0,0.0,59.999996,0.0,26.0,26.0,26.0,26.0,0.05249999999999999,0.27900000000000014,-0.025925,293.076,-4.799,-4.7844444444444445,-1.5783,-1.5581111111111112,-225.54,215.4,190.683,0.0,0.0,0.0,0.0,0.03073333333333339,-5.498166666666667,-5.498166666666667,-0.5429,0.20599999999999996,0.028249999999999886,-0.8080000000000003,67.547,0.018399999999999972,-0.21125000000000002,-0.4220000000000006,100.0,1.0,1.0,208.39,0.0,0.0,0.0,0.0,0.0,0.0,0.0,8832.8,0.0,55.0,5.0,243.14333333333335,1.0,0.0,0.0,0.0,0.0,0.0,1.0,0.0,0.7560000000000002,0.7560000000000002,0.0,0.0,1.0,55.0,616.79921,10000.0,85.000001,85.000001,85.000001,85.000001,395.0,0.0,0.0,0.0,1.0,166.665,53.009,53.009,48.325,48.325,34.0,-38.5975,39.58833333333333,-27.4275,29.565,0.0,1782.334,-0.5,100.0,27.464,27.729,42.361000000000004,42.807,0.0,1.0,100.0,0.0,0.0,0.0,0.0,3055.5,2978.8,4086.8571428571427,4123.3,305.634,305.16066666666666,314.94233333333335,314.546,21.855333333333334,20.606,21.906,21.4046,314.999998,314.999998,324.999988,324.999988,99.55514285714285,99.50766666666667,99.56677142857143,99.54582857142857,0.10050000000000003,-0.021499999999999964,-0.08950000000000002,0.13000000000000012,-0.07666666666666799,-0.048571428571428044,1.5386666666666666,1.5274999999999999,37.596000000000004,29.787333333333336,37.912,34.778999999999996,56.093,35.53,59.4465,51.9565,52.744,34.235,58.0605,50.3405,50.55,33.356,58.004,49.79366666666667,-0.119,-0.0365000000000002,0.10812000000000001,0.10367000000000001,0.0,211.515,211.51,208.39,208.39,0.0,0.0
16,0.0,1.0,0.0,1.0,1.0,0.0,0.0,1.0,0.0,100.0,1.0,1.1856,26.0,0.0,0.0,0.0,59.999996,0.0,26.0,26.0,26.0,26.0,0.02400000000000002,0.26070000000000015,-0.0031750000000000003,292.862,-4.8554,-4.731777777777777,-1.5543,-1.5553333333333332,-222.09,215.39499999999998,190.661125,0.0,0.0,0.0,0.0,0.03276666666666661,-5.498166666666667,-5.498166666666667,-0.5535,-0.33150000000000013,0.023374999999999924,0.33000000000000007,67.687,0.021300000000000097,-0.223925,-0.32200000000000006,100.0,1.0,1.0,208.80333333333334,0.0,0.0,0.0,0.0,0.0,0.0,0.0,8850.4,0.0,55.0,5.0,243.64666666666665,0.0,0.0,0.0,0.0,0.0,0.0,1.0,0.0,0.8069999999999986,0.8069999999999986,0.0,0.0,0.0,55.0,616.79921,10000.0,85.000001,85.000001,85.000001,85.000001,395.0,0.0,0.0,0.0,1.0,333.33500000000004,52.582,52.582,48.08,48.08,34.0,-39.8025,43.181666666666665,-26.2825,29.2475,0.0,1782.282,-0.41499999999999915,100.0,27.524,27.658,42.650999999999996,42.883,0.0,1.0,100.0,0.0,0.0,0.0,0.0,3098.125,3232.5,4013.8571428571427,4063.9,305.42566666666664,304.60266666666666,315.026,314.7515,21.864444444444445,20.6115,21.9165,21.4137,314.999998,314.999998,324.999988,324.999988,99.55514285714285,99.50766666666667,99.56691428571429,99.54597142857143,0.09899999999999998,-0.00824999999999998,-0.08250000000000002,0.13666666666666671,-0.04999999999999716,-0.07285714285713851,1.54,1.5375,37.653,29.822,37.977999999999994,34.835499999999996,56.083,35.5695,59.485,52.0195,52.733999999999995,34.269999999999996,58.0965,50.4015,50.539500000000004,33.388,58.037,49.853,-0.10699999999999998,-0.046499999999999986,0.10491,0.10459500000000001,0.0,211.925,211.935,208.80333333333334,208.80333333333334,0.0,0.0
17,0.0,1.0,0.0,1.0,1.0,0.0,0.0,1.0,0.0,100.0,1.0,1.1856,26.0,0.0,0.0,0.0,59.999996,0.0,26.0,26.0,26.0,26.0,0.04237500000000005,0.28310000000000013,0.038825,292.603,-4.7305,-4.814777777777778,-1.5034,-1.5170000000000001,-218.63,215.39,190.638875,0.0,0.0,0.0,0.0,0.03476666666666661,-5.498166666666667,-5.498166666666667,-0.5503,0.16049999999999998,-0.0009999999999998899,-1.104,67.826,0.01869999999999994,-0.21552500000000002,-0.15200000000000014,100.0,1.0,1.0,209.18,0.0,0.0,0.0,0.0,0.0,0.0,0.0,8866.4,0.0,55.0,5.0,244.14333333333335,1.0,0.0,0.0,0.0,0.0,0.0,1.0,0.0,0.8580000000000005,0.8580000000000005,0.0,0.0,1.0,55.0,616.79921,10000.0,85.000001,85.000001,85.000001,85.000001,395.0,0.0,0.0,0.0,1.0,333.33500000000004,52.521,52.521,47.714,47.714,34.0,-39.535,40.915,-28.0825,29.6925,0.0,1782.23,-0.3099999999999987,100.0,27.663,27.937,42.598,42.976,0.0,1.0,100.0,0.0,0.0,0.0,0.0,3121.25,3049.9,4228.142857142857,4205.6,305.3736666666667,304.8396666666667,314.59133333333335,314.407,21.873666666666665,20.6171,21.9269,21.4227,314.999998,314.999998,324.999988,324.999988,99.55515714285714,99.50768333333333,99.56704285714285,99.54611428571428,0.09299999999999997,-0.027000000000000024,-0.09716666666666662,0.12949999999999995,-0.054999999999999716,-0.0714285714285694,1.5066666666666668,1.509,37.711,29.856666666666666,38.043,34.8915,56.073,35.61,59.522999999999996,52.082,52.725,34.3055,58.1315,50.4615,50.53,33.42,58.069,49.912,-0.10266666666666668,-0.05149999999999988,0.11085500000000001,0.10701000000000001,0.0,212.36,212.375,209.18,209.18,0.0,0.0
18,0.0,1.0,0.0,1.0,1.0,0.0,0.0,1.0,0.0,100.0,1.0,1.1856,26.0,0.0,0.0,0.0,59.999996,0.0,26.0,26.0,26.0,26.0,0.03499999999999992,0.27880000000000016,0.0466,292.557,-4.7466,-4.8469999999999995,-1.5324,-1.5883333333333334,-215.38,215.3875,190.61775,0.0,0.0,0.0,0.0,0.036666666666666514,-5.498166666666667,-5.498166666666667,-0.5606,-0.3474999999999999,-0.0027500000000002522,-0.673,67.956,0.013000000000000123,-0.22490000000000002,-0.05200000000000049,100.0,1.0,1.0,209.56666666666666,0.0,0.0,0.0,0.0,0.0,0.0,0.0,8882.8,0.0,55.0,5.0,244.61666666666667,0.0,0.0,0.0,0.0,0.0,0.0,1.0,0.0,0.9059999999999988,0.9059999999999988,0.0,0.0,0.0,55.0,616.79921,10000.0,85.000001,85.000001,85.000001,85.000001,395.0,0.0,0.0,0.0,1.0,333.33500000000004,52.504999999999995,52.504999999999995,47.897,47.897,34.0,-40.2925,41.13166666666667,-28.365,29.7075,0.0,1782.182,-0.34499999999999886,100.0,27.678,27.872,42.792,43.124,0.0,1.0,100.0,0.0,0.0,0.0,0.0,3165.625,3062.9,4130.142857142857,4170.1,305.289,304.863,314.783,314.35625,21.882333333333335,20.6222,21.9367,21.4312,314.999998,314.999998,324.999988,324.999988,99.55517142857143,99.50768333333333,99.56718571428571,99.54625714285714,0.09000000000000008,-0.02849999999999997,-0.10716666666666663,0.11233333333333317,-0.041666666666671404,-0.06714285714285495,1.4873333333333334,1.5035,37.765,29.888666666666666,38.105000000000004,34.945,56.064,35.646,59.559,52.1415,52.717,34.337,58.1655,50.5185,50.5205,33.448499999999996,58.0995,49.967666666666666,-0.10533333333333328,-0.052000000000000046,0.10806500000000001,0.10051,0.0,212.745,212.75,209.56666666666666,209.56666666666666,0.0,0.0
19,0.0,1.0,0.0,1.0,1.0,0.0,0.0,1.0,0.0,100.0,1.0,1.1856,26.0,0.0,0.0,0.0,59.999996,0.0,26.0,26.0,26.0,26.0,0.024375000000000036,0.2733000000000001,0.029575,292.358,-4.7459,-4.811222222222222,-1.5321,-1.605222222222222,-211.91,215.3825,190.595,0.0,0.0,0.0,0.0,0.038666666666666516,-5.498166666666667,-5.498166666666667,-0.5515,0.55,0.010750000000000037,0.8559999999999999,68.092,0.008399999999999963,-0.215225,-0.10999999999999943,100.0,1.0,1.0,210.00666666666666,0.0,0.0,0.0,0.0,0.0,0.0,0.0,8901.4,0.0,55.0,5.0,245.10666666666668,1.0,0.0,0.0,0.0,0.0,0.0,1.0,0.0,0.9570000000000007,0.9570000000000007,0.0,0.0,1.0,55.0,616.79921,10000.0,85.000001,85.000001,85.000001,85.000001,395.0,0.0,0.0,0.0,1.0,333.33500000000004,52.155,52.155,47.867,47.867,34.0,-38.6925,41.59,-27.8625,30.945,0.0,1782.131,-0.29499999999999815,100.0,28.389,28.133,42.873000000000005,43.097,0.0,1.0,100.0,0.0,0.0,0.0,0.0,3028.375,3111.4,4094.4285714285716,4249.7,305.4936666666667,304.884,314.8503333333333,314.2865,21.891666666666666,20.6278,21.9471,21.4403,314.999998,314.999998,324.999988,324.999988,99.55518571428571,99.50768333333333,99.56732857142858,99.5464,0.08899999999999997,-0.021749999999999936,-0.10350000000000004,0.12033333333333318,-0.05333333333332746,-0.06428571428571672,1.4986666666666668,1.4955,37.823,29.923666666666666,38.17,35.0015,56.055,35.687,59.596000000000004,52.204,52.709,34.373,58.1995,50.5785,50.512,33.481,58.1305,50.02633333333333,-0.09833333333333316,-0.051000000000000156,0.10858000000000001,0.10529500000000001,0.0,213.21,213.2,210.00666666666666,210.00666666666666,0.0,0.0
20,0.0,1.0,0.0,1.0,1.0,0.0,0.0,1.0,0.0,100.0,1.0,1.1856,26.0,0.0,0.0,0.0,59.999996,0.0,26.0,26.0,26.0,26.0,0.028000000000000025,0.2752000000000001,-0.027450000000000002,292.511,-4.8054,-4.747111111111111,-1.6069,-1.590111111111111,-208.43,215.38,190.572625,0.0,0.0,0.0,0.0,0.04069999999999996,-5.498166666666667,-5.498166666666667,-0.5573,-0.7155,0.007874999999999854,-0.8900000000000001,68.229,0.006800000000000139,-0.22725,-0.0039999999999995595,100.0,1.0,1.0,210.42000000000002,0.0,0.0,0.0,0.0,0.0,0.0,0.0,8918.9,0.0,55.0,5.0,245.60000000000002,0.0,0.0,0.0,0.0,0.0,0.0,0.0,0.0,1.0079999999999991,1.0079999999999991,0.0,0.0,0.0,55.0,616.79921,10000.0,85.000001,85.000001,85.000001,85.000001,395.0,0.0,0.0,0.0,1.0,333.33500000000004,52.551,52.551,47.546,47.546,34.0,-40.39,39.72666666666667,-29.6125,28.185,0.0,1782.079,-0.259999999999998,100.0,27.82,28.024,43.236000000000004,43.551,0.0,1.0,100.0,0.0,0.0,0.0,0.0,3120.5,3039.2,4162.0,3996.1000000000004,305.486,305.04333333333335,314.825,314.81225,21.900777777777776,20.6332,21.9577,21.4494,314.999998,314.999998,324.999988,324.999988,99.55518571428571,99.50768333333333,99.56748571428571,99.54655714285714,0.07450000000000001,-0.03749999999999998,-0.1113333333333334,0.11283333333333334,-0.05666666666667197,-0.06428571428571672,1.5166666666666666,1.52,37.879999999999995,29.957666666666668,38.236000000000004,35.059,56.043,35.7285,59.638,52.2715,52.698,34.4095,58.2385,50.643,50.5005,33.513999999999996,58.1665,50.089666666666666,-0.09499999999999997,-0.05600000000000005,0.11201000000000001,0.10339000000000001,0.0,213.60000000000002,213.595,210.42000000000002,210.42000000000002,0.0,0.0
21,0.0,1.0,0.0,1.0,1.0,0.0,0.0,1.0,0.0,100.0,1.0,1.1856,26.0,0.0,0.0,0.0,59.999996,0.0,26.0,26.0,26.0,26.0,0.018750000000000044,0.2694000000000001,-0.043500000000000004,292.664,-4.8178,-4.7636666666666665,-1.5653000000000001,-1.5310000000000001,-205.14999999999998,215.3775,190.551,0.0,0.0,0.0,0.0,0.04259999999999997,-5.498166666666667,-5.498166666666667,-0.5737,0.0625,-0.002375000000000238,-0.7200000000000002,68.356,0.0045999999999999375,-0.22365000000000002,0.07200000000000095,100.0,1.0,1.0,210.89666666666668,0.0,0.0,0.0,0.0,0.0,0.0,0.0,8939.1,0.0,55.0,5.0,246.05333333333334,1.0,0.0,0.0,0.0,0.0,0.0,0.0,0.0,1.056000000000001,1.056000000000001,0.0,0.0,1.0,55.0,616.79921,10000.0,85.000001,85.000001,85.000001,85.000001,395.0,0.0,0.0,0.0,1.0,333.33500000000004,52.414,52.414,48.111,48.111,34.0,-41.725,40.48166666666667,-28.0,27.03,0.0,1782.031,-0.3099999999999987,100.0,27.843,27.885,42.92,43.13,0.0,1.0,100.0,0.0,0.0,0.0,0.0,3218.25,3083.1,4061.1428571428573,4019.9,305.18766666666664,304.9433333333333,315.03066666666666,314.893,21.909333333333333,20.6384,21.9674,21.4578,314.999998,314.999998,324.999988,324.999988,99.5552,99.50768333333333,99.56761428571428,99.54668571428572,0.08224999999999993,-0.03574999999999995,-0.10949999999999993,0.1080000000000001,-0.041666666666671404,-0.05285714285714249,1.553,1.557,37.934,29.990333333333332,38.296,35.1115,56.034,35.7635,59.6695,52.3245,52.69,34.4405,58.268,50.694,50.4915,33.542,58.193,50.13933333333333,-0.10233333333333317,-0.05600000000000005,0.10103500000000001,0.10151500000000001,0.0,213.995,213.97500000000002,210.89666666666668,210.89666666666668,0.0,0.0
22,0.0,1.0,0.0,1.0,1.0,0.0,0.0,1.0,0.0,100.0,1.0,1.1856,26.0,0.0,0.0,0.0,59.999996,0.0,26.0,26.0,26.0,26.0,0.010874999999999968,0.27249999999999996,0.03345,292.13,-4.8575,-4.766111111111111,-1.5691000000000002,-1.5312222222222223,-201.45999999999998,215.375,190.525875,0.0,0.0,0.0,0.0,0.0447333333333334,-5.498166666666667,-5.498166666666667,-0.5596,-0.0535000000000001,0.003249999999999975,-0.6440000000000001,68.502,-0.0008999999999999009,-0.20367500000000002,-0.02200000000000024,100.0,1.0,1.0,211.17000000000002,0.0,0.0,0.0,0.0,0.0,0.0,0.0,8950.8,0.0,55.0,5.0,246.57666666666665,0.0,0.0,0.0,0.0,0.0,0.0,0.0,0.0,1.1099999999999994,1.1099999999999994,0.0,0.0,0.0,55.0,616.79921,10000.0,85.000001,85.000001,85.000001,85.000001,395.0,0.0,0.0,0.0,1.0,166.665,52.322,52.322,47.256,47.256,34.0,-41.9,40.876666666666665,-30.97,29.8125,0.0,1781.98,-0.4499999999999993,100.0,27.929,27.992,43.117000000000004,43.281,0.0,1.0,100.0,0.0,0.0,0.0,0.0,3229.125,3096.2,4328.857142857143,4332.3,305.224,304.9033333333333,314.414,314.0485,21.91911111111111,20.6443,21.9785,21.4675,314.999998,314.999998,324.999988,324.999988,99.55522857142857,99.5077,99.56777142857143,99.54684285714286,0.08600000000000008,-0.030000000000000027,-0.11616666666666664,0.10433333333333339,-0.05666666666667197,-0.034285714285715585,1.48,1.4865,37.994,30.026666666666664,38.366,35.1715,56.024,35.8055,59.710499999999996,52.391,52.68,34.4775,58.306,50.757999999999996,50.4815,33.5755,58.228,50.202,-0.11633333333333318,-0.04300000000000015,0.10477500000000001,0.10408500000000001,0.0,214.45499999999998,214.44,211.17000000000002,211.17000000000002,0.0,0.0
23,0.0,1.0,0.0,1.0,1.0,0.0,0.0,1.0,0.0,100.0,1.0,1.1856,26.0,0.0,0.0,0.0,59.999996,0.0,26.0,26.0,26.0,26.0,-0.009624999999999995,0.26649999999999996,0.0162,292.114,-4.7529,-4.794333333333333,-1.6325,-1.5085555555555556,-197.95999999999998,215.3725,190.502375,0.0,0.0,0.0,0.0,0.04676666666666651,-5.498166666666667,-5.498166666666667,-0.5748,-0.24849999999999994,0.003874999999999851,0.796,68.636,0.0043999999999999595,-0.22695,-0.1639999999999997,100.0,1.0,1.0,211.63333333333333,0.0,0.0,0.0,0.0,0.0,0.0,0.0,8970.4,0.0,55.0,5.0,247.06,1.0,0.0,0.0,0.0,0.0,0.0,0.0,0.0,1.1610000000000014,1.1610000000000014,0.0,0.0,1.0,55.0,616.79921,10000.0,85.000001,85.000001,85.000001,85.000001,395.0,0.0,0.0,0.0,1.0,166.665,52.124,52.124,47.44,47.44,34.0,-39.805,41.443333333333335,-30.035,29.427500000000002,0.0,1781.929,-0.39000000000000057,100.0,28.375,28.003,43.383,43.376,0.0,1.0,100.0,0.0,0.0,0.0,0.0,3114.5,3137.5,4226.0,4236.4,305.24833333333333,304.882,314.603,314.42,21.928333333333335,20.6499,21.989,21.4766,314.999998,314.999998,324.999988,324.999988,99.55522857142857,99.5077,99.56791428571428,99.54698571428571,0.09650000000000003,-0.03149999999999997,-0.09983333333333333,0.1226666666666667,-0.041666666666671404,-0.0628571428571405,1.5176666666666665,1.5070000000000001,38.052,30.061666666666667,38.432,35.229,56.015,35.8455,59.749,52.4535,52.672,34.513,58.342,50.818,50.472,33.6075,58.2605,50.260666666666665,-0.11633333333333318,-0.052999999999999936,0.10229,0.10945,0.0,214.85000000000002,214.85500000000002,211.63333333333333,211.63333333333333,0.0,0.0
24,0.0,1.0,0.0,1.0,1.0,0.0,0.0,1.0,0.0,100.0,1.0,1.1856,26.0,0.0,0.0,0.0,59.999996,0.0,26.0,26.0,26.0,26.0,0.025500000000000078,0.262,-0.03305,292.526,-4.8052,-4.771333333333333,-1.5453000000000001,-1.5583333333333333,-194.87,215.3725,190.48125,0.0,0.0,0.0,0.0,0.048566666666666536,-5.498166666666667,-5.498166666666667,-0.5862,-0.35050000000000003,0.011125000000000052,-0.21300000000000008,68.754,0.0042999999999999705,-0.22287500000000002,-0.0860000000000003,100.0,1.0,1.0,212.01999999999998,0.0,0.0,0.0,0.0,0.0,0.0,0.0,8986.8,0.0,55.0,5.0,247.48666666666668,0.0,0.0,0.0,0.0,0.0,0.0,0.0,0.0,1.2059999999999995,1.2059999999999995,0.0,0.0,0.0,55.0,616.79921,10000.0,85.000001,85.000001,85.000001,85.000001,395.0,0.0,0.0,0.0,1.0,333.33500000000004,52.765,52.765,47.562,47.562,34.0,-38.9,39.27333333333333,-29.1375,28.3525,0.0,1781.881,-0.4499999999999993,100.0,27.978,27.938,43.228,43.42,0.0,1.0,100.0,0.0,0.0,0.0,0.0,3051.125,2989.8,4169.571428571428,4099.5,305.6836666666667,305.22566666666665,314.7196666666667,314.65825,21.936333333333334,20.6547,21.9982,21.4846,314.999998,314.999998,324.999988,324.999988,99.55524285714286,99.5077,99.56804285714286,99.54711428571429,0.09000000000000008,-0.03125,-0.11416666666666664,0.10899999999999999,-0.05666666666667197,-0.06142857142857139,1.5123333333333333,1.5135,38.102000000000004,30.091666666666665,38.489000000000004,35.278999999999996,56.006,35.8795,59.7815,52.5075,52.664,34.542500000000004,58.372,50.87,50.463499999999996,33.634,58.288,50.31133333333334,-0.11099999999999999,-0.044500000000000206,0.10994000000000001,0.10498,0.0,215.22500000000002,215.22500000000002,212.01999999999998,212.01999999999998,0.0,0.0
25,0.0,1.0,0.0,1.0,1.0,0.0,0.0,1.0,0.0,100.0,1.0,1.1856,26.0,0.0,0.0,0.0,59.999996,0.0,26.0,26.0,26.0,26.0,0.040000000000000036,0.25480000000000014,-0.011925,292.175,-4.782,-4.762666666666667,-1.5873,-1.5525555555555557,-191.14999999999998,215.37,190.454375,0.0,0.0,0.0,0.0,0.0507333333333333,-5.498166666666667,-5.498166666666667,-0.6014,0.21450000000000002,0.018124999999999947,-0.891,68.894,0.005700000000000038,-0.218225,-0.16999999999999993,100.0,1.0,1.0,212.49666666666667,0.0,0.0,0.0,0.0,0.0,0.0,0.0,9007.0,0.0,55.0,5.0,247.99,1.0,0.0,0.0,0.0,0.0,0.0,0.0,0.0,1.259999999999998,1.259999999999998,0.0,0.0,1.0,55.0,616.79921,10000.0,85.000001,85.000001,85.000001,85.000001,395.0,0.0,0.0,0.0,1.0,166.665,51.788,51.788,47.699,47.699,34.0,-42.15,43.56166666666667,-28.1875,29.150000000000002,0.0,1781.83,-0.41499999999999915,100.0,28.002,28.233,43.013999999999996,43.269,0.0,1.0,100.0,0.0,0.0,0.0,0.0,3272.5,3243.1,4097.857142857143,4108.5,304.973,304.39233333333334,314.98466666666667,314.64925,21.945888888888888,20.6606,22.0092,21.4942,314.999998,314.999998,324.999988,324.999988,99.55525714285714,99.50771666666667,99.5682,99.54727142857143,0.09149999999999991,-0.020499999999999963,-0.10066666666666657,0.12683333333333335,-0.054999999999999716,-0.04142857142857537,1.5396666666666667,1.537,38.162,30.128999999999998,38.557,35.338499999999996,55.995000000000005,35.922,59.819,52.572,52.653,34.58,58.407,50.9315,50.4525,33.668,58.3195,50.37166666666667,-0.11799999999999988,-0.039000000000000146,0.10128500000000001,0.11641000000000001,0.0,215.67000000000002,215.66,212.49666666666667,212.49666666666667,0.0,0.0
26,0.0,1.0,0.0,1.0,1.0,0.0,0.0,1.0,0.0,100.0,1.0,1.1856,26.0,0.0,0.0,0.0,59.999996,0.0,26.0,26.0,26.0,26.0,0.007624999999999993,0.2650000000000001,0.06165,291.428,-4.8048,-4.760777777777777,-1.5510000000000002,-1.5578888888888889,-187.63,215.3675,190.429,0.0,0.0,0.0,0.0,0.05276666666666652,-5.498166666666667,-5.498166666666667,-0.5734,0.18199999999999994,0.008874999999999966,0.8959999999999999,69.03,0.008299999999999974,-0.2034,-0.19399999999999995,100.0,1.0,1.0,212.71666666666667,0.0,0.0,0.0,0.0,0.0,0.0,0.0,9016.3,0.0,55.0,5.0,248.48000000000002,0.0,0.0,0.0,0.0,0.0,0.0,0.0,0.0,1.311,1.311,0.0,0.0,0.0,55.0,616.79921,10000.0,85.000001,85.000001,85.000001,85.000001,395.0,0.0,0.0,0.0,1.0,166.665,51.682,51.682,46.646,46.646,34.0,-39.9125,42.230000000000004,-30.81,32.8625,0.0,1781.778,-0.4549999999999983,100.0,28.781,28.411,43.649,43.714,0.0,1.0,100.0,0.0,0.0,0.0,0.0,3114.875,3183.8,4392.142857142857,4463.3,305.20933333333335,304.841,314.141,313.8055,21.955111111111112,20.6663,22.0197,21.5034,314.999998,314.999998,324.999988,324.999988,99.55527142857143,99.50771666666667,99.56835714285714,99.54742857142857,0.10650000000000004,-0.01649999999999996,-0.10116666666666663,0.12850000000000006,-0.04833333333333201,-0.06142857142857139,1.437,1.4315,38.22,30.164666666666665,38.623000000000005,35.3965,55.988,35.963499999999996,59.859,52.6365,52.647,34.6165,58.444,50.9935,50.445,33.701,58.3535,50.43233333333333,-0.12033333333333318,-0.0405000000000002,0.10802500000000001,0.10800000000000001,0.0,216.10000000000002,216.09,212.71666666666667,212.71666666666667,0.0,0.0
27,0.0,1.0,0.0,1.0,1.0,0.0,0.0,1.0,0.0,100.0,1.0,1.1856,26.0,0.0,0.0,0.0,59.999996,0.0,26.0,26.0,26.0,26.0,0.004625000000000101,0.2510000000000001,-0.043525,291.901,-4.8486,-4.775,-1.6108,-1.5405555555555557,-184.32,215.3675,190.405875,0.0,0.0,0.0,0.0,0.05469999999999997,-5.498166666666667,-5.498166666666667,-0.5996,-0.7995000000000001,0.015625,0.8380000000000001,69.152,0.010900000000000132,-0.24027500000000002,-0.2860000000000005,100.0,1.0,1.0,213.24,0.0,0.0,0.0,0.0,0.0,0.0,0.0,9038.5,0.0,55.0,5.0,248.92333333333335,1.0,0.0,0.0,0.0,0.0,0.0,0.0,0.0,1.3589999999999982,1.3589999999999982,0.0,0.0,1.0,55.0,616.79921,10000.0,85.000001,85.000001,85.000001,85.000001,395.0,0.0,0.0,0.0,1.0,166.665,51.971000000000004,51.971000000000004,46.936,46.936,34.0,-39.185,42.873333333333335,-28.035,29.405,0.0,1781.731,-0.46999999999999886,100.0,28.46,28.395,44.001,43.937,0.0,1.0,100.0,0.0,0.0,0.0,0.0,3064.5,3206.3,4022.0,4140.1,305.52233333333334,304.69866666666667,314.97133333333335,314.64875,21.96366666666667,20.6716,22.0297,21.5121,314.999998,314.999998,324.999988,324.999988,99.55527142857143,99.50773333333333,99.56848571428571,99.54755714285714,0.10475000000000012,-0.014499999999999957,-0.09716666666666662,0.1293333333333333,-0.03833333333332689,-0.05285714285714249,1.524,1.5095,38.272999999999996,30.197666666666667,38.685,35.4505,55.979,36.001,59.8955,52.695,52.638,34.6495,58.4785,51.05,50.436,33.7305,58.3845,50.48733333333333,-0.11799999999999988,-0.040999999999999925,0.10739000000000001,0.10490000000000001,0.0,216.42000000000002,216.435,213.24,213.24,0.0,0.0
28,0.0,1.0,0.0,1.0,1.0,0.0,0.0,1.0,0.0,100.0,1.0,1.1856,26.0,0.0,0.0,0.0,59.999996,0.0,26.0,26.0,26.0,26.0,0.011249999999999982,0.27480000000000016,-0.040600000000000004,292.053,-4.7793,-4.761777777777778,-1.6242,-1.567,-181.0,215.3675,190.382,0.0,0.0,0.0,0.0,0.05663333333333331,-5.498166666666667,-5.498166666666667,-0.6016,0.544,0.004999999999999893,0.34399999999999986,69.275,0.011500000000000066,-0.216625,-0.274,100.0,1.0,1.0,213.66333333333333,0.0,0.0,0.0,0.0,0.0,0.0,0.0,9056.4,0.0,55.0,5.0,249.36,0.0,0.0,0.0,0.0,0.0,0.0,0.0,0.0,1.407,1.407,0.0,0.0,0.0,55.0,616.79921,10000.0,85.000001,85.000001,85.000001,85.000001,395.0,0.0,0.0,0.0,1.0,166.665,51.987,51.987,47.379,47.379,34.0,-38.33,42.586666666666666,-28.4425,29.92,0.0,1781.683,-0.509999999999998,100.0,28.52,28.364,43.413,43.573,0.0,1.0,100.0,0.0,0.0,0.0,0.0,3048.875,3197.1,4136.571428571428,4158.0,305.4843333333333,304.72066666666666,314.91433333333333,314.64075,21.97222222222222,20.677,22.0393,21.5206,314.999998,314.999998,324.999988,324.999988,99.5553,99.50773333333333,99.56862857142858,99.5477,0.1160000000000001,-0.017249999999999988,-0.09199999999999997,0.13316666666666666,-0.051666666666669414,-0.06714285714285495,1.5686666666666667,1.548,38.326,30.231333333333332,38.745999999999995,35.5035,55.971000000000004,36.039,59.9275,52.7515,52.631,34.683,58.507999999999996,51.1045,50.4275,33.760999999999996,58.411,50.540333333333336,-0.12399999999999989,-0.04499999999999993,0.10264000000000001,0.10200500000000001,0.0,216.86,216.85000000000002,213.66333333333333,213.66333333333333,0.0,0.0
29,0.0,1.0,0.0,1.0,1.0,0.0,0.0,1.0,0.0,100.0,1.0,1.1856,26.0,0.0,0.0,0.0,59.999996,0.0,26.0,26.0,26.0,26.0,0.04774999999999996,0.256,-0.020050000000000002,291.962,-4.8516,-4.82,-1.5998999999999999,-1.5501111111111112,-177.45999999999998,215.3675,190.355625,0.0,0.0,0.0,0.0,0.058699999999999974,-5.498166666666667,-5.498166666666667,-0.6059,-0.7295,-0.0036249999999999893,-0.7930000000000001,69.408,0.012499999999999956,-0.2157,-0.2320000000000002,100.0,1.0,1.0,213.93333333333334,0.0,0.0,0.0,0.0,0.0,0.0,0.0,9067.9,0.0,55.0,5.0,249.84333333333336,1.0,0.0,0.0,0.0,0.0,0.0,0.0,0.0,1.4579999999999984,1.4579999999999984,0.0,0.0,1.0,55.0,616.79921,10000.0,85.000001,85.000001,85.000001,85.000001,395.0,0.0,0.0,0.0,1.0,166.665,52.382999999999996,52.382999999999996,47.058,47.058,34.0,-40.9725,39.73,-29.322499999999998,30.2925,0.0,1781.631,-0.5700000000000003,100.0,28.039,28.326,43.695,43.937,0.0,1.0,100.0,0.0,0.0,0.0,0.0,3213.625,2972.5,4211.0,4237.5,305.429,305.20366666666666,314.68233333333336,314.30075,21.98111111111111,20.6825,22.0499,21.5298,314.999998,314.999998,324.999988,324.999988,99.5553,99.50773333333333,99.56877142857142,99.54785714285714,0.09749999999999992,-0.02200000000000002,-0.09499999999999997,0.12149999999999994,-0.061666666666667425,-0.05714285714285694,1.484,1.476,38.382,30.266,38.812,35.5615,55.961,36.0775,59.967,52.8145,52.622,34.717,58.5445,51.165,50.417500000000004,33.792,58.4445,50.599333333333334,-0.125,-0.03100000000000014,0.10500000000000001,0.10398,0.0,217.24,217.245,213.93333333333334,213.93333333333334,0.0,0.0
30,0.0,1.0,0.0,1.0,1.0,0.0,0.0,1.0,0.0,100.0,1.0,1.1856,26.0,0.0,0.0,0.0,59.999996,0.0,26.0,26.0,26.0,26.0,0.04699999999999993,0.25,0.0011250000000000001,291.26,-4.8259,-4.749444444444444,-1.6374,-1.466888888888889,-174.12,215.37,190.33075,0.0,0.0,0.0,0.0,0.06063333333333332,-5.498166666666667,-5.498166666666667,-0.6076,0.866,0.0007500000000000284,-0.3460000000000001,69.528,0.015600000000000058,-0.218375,-0.31599999999999984,100.0,1.0,1.0,214.41,0.0,0.0,0.0,0.0,0.0,0.0,0.0,9088.1,0.0,55.0,5.0,250.27666666666664,0.0,0.0,0.0,0.0,0.0,0.0,1.0,0.0,1.5060000000000002,1.5060000000000002,0.0,0.0,0.0,55.0,616.79921,10000.0,85.000001,85.000001,85.000001,85.000001,395.0,0.0,0.0,0.0,1.0,333.33500000000004,50.598,50.598,47.15,47.15,34.0,-43.3075,44.35166666666667,-29.58,28.5575,0.0,1781.583,-0.5850000000000009,100.0,29.032,29.049,43.49,43.842,0.0,1.0,100.0,0.0,0.0,0.0,0.0,3379.125,3290.0,4225.0,4173.9,304.5686666666667,304.111,314.79266666666666,314.686,21.98988888888889,20.6881,22.0596,21.5384,314.999998,314.999998,324.999988,324.999988,99.55531428571429,99.50773333333333,99.56891428571429,99.54798571428572,0.11875000000000013,-0.025499999999999967,-0.09599999999999997,0.12983333333333325,-0.04833333333333201,-0.0714285714285694,1.5406666666666666,1.51,38.437,30.300666666666665,38.873000000000005,35.615,55.956,36.1175,60.0,52.872,52.617000000000004,34.7525,58.575,51.22,50.4125,33.823499999999996,58.472,50.653,-0.14100000000000001,-0.04400000000000004,0.105885,0.11158000000000001,0.0,217.63,217.64499999999998,214.41,214.41,0.0,0.0
31,0.0,1.0,0.0,1.0,1.0,0.0,0.0,1.0,0.0,100.0,1.0,1.1856,26.0,0.0,0.0,0.0,59.999996,0.0,26.0,26.0,26.0,26.0,0.038999999999999924,0.25439999999999996,0.062,290.833,-4.8009,-4.796222222222222,-1.6444,-1.5426666666666669,-170.37,215.3725,190.303375,0.0,0.0,0.0,0.0,0.0628333333333333,-5.498166666666667,-5.498166666666667,-0.5889,-0.4079999999999999,0.012375000000000025,-0.73,69.669,0.02180000000000004,-0.2232,-0.4079999999999995,100.0,1.0,1.0,214.66333333333333,0.0,0.0,0.0,0.0,0.0,0.0,0.0,9098.7,0.0,55.0,5.0,250.78333333333336,1.0,0.0,0.0,0.0,0.0,0.0,1.0,0.0,1.5599999999999987,1.5599999999999987,0.0,0.0,1.0,55.0,616.79921,10000.0,85.000001,85.000001,85.000001,85.000001,395.0,0.0,0.0,0.0,1.0,166.665,51.041,51.041,45.731,45.731,34.0,-40.145,44.355000000000004,-30.9925,31.400000000000002,0.0,1781.53,-0.5649999999999977,100.0,28.841,29.228,44.286,44.687,0.0,1.0,100.0,0.0,0.0,0.0,0.0,3178.125,3263.8,4320.571428571428,4309.3,305.24766666666665,304.255,314.3636666666667,314.0585,21.999444444444443,20.6942,22.0709,21.5484,314.999998,314.999998,324.999988,324.999988,99.55534285714286,99.50775,99.56907142857143,99.54814285714286,0.11499999999999999,-0.01849999999999996,-0.09099999999999997,0.12683333333333335,-0.03833333333332689,-0.0628571428571405,1.435,1.4325,38.497,30.33866666666667,38.943,35.6775,55.948,36.161500000000004,60.043,52.9415,52.61,34.791,58.6155,51.286500000000004,50.403999999999996,33.8585,58.509,50.718,-0.131,-0.0405000000000002,0.105785,0.10037000000000001,0.0,218.03,218.055,214.66333333333333,214.66333333333333,0.0,0.0
32,0.0,1.0,0.0,1.0,1.0,0.0,0.0,1.0,0.0,100.0,1.0,1.1856,26.0,0.0,0.0,0.0,59.999996,0.0,26.0,26.0,26.0,26.0,0.05212499999999998,0.24770000000000003,-0.015625,291.428,-4.8015,-4.781000000000001,-1.5865,-1.6204444444444444,-167.01999999999998,215.375,190.2795,0.0,0.0,0.0,0.0,0.06476666666666653,-5.498166666666667,-5.498166666666667,-0.6076,-0.3175000000000001,-0.006750000000000256,-1.105,69.788,0.027900000000000036,-0.2341,-0.3360000000000003,100.0,1.0,1.0,215.16333333333333,0.0,0.0,0.0,0.0,0.0,0.0,0.0,9120.0,0.0,55.0,5.0,251.21,0.0,0.0,0.0,0.0,0.0,0.0,1.0,0.0,1.6080000000000005,1.6080000000000005,0.0,0.0,0.0,55.0,616.79921,10000.0,85.000001,85.000001,85.000001,85.000001,395.0,0.0,0.0,0.0,1.0,166.665,51.605000000000004,51.605000000000004,46.738,46.738,34.0,-39.9,41.196666666666665,-27.9575,31.9175,0.0,1781.481,-0.495000000000001,100.0,28.675,29.056,44.106,44.552,0.0,1.0,100.0,0.0,0.0,0.0,0.0,3162.0,3081.9,4107.714285714285,4194.2,305.3623333333333,304.90366666666665,314.903,314.39875,22.00788888888889,20.6996,22.0807,21.557,314.999998,314.999998,324.999988,324.999988,99.55535714285715,99.50775,99.5692,99.5483,0.11125000000000007,-0.020499999999999963,-0.08983333333333332,0.14250000000000007,-0.06499999999999773,-0.06857142857142406,1.5073333333333334,1.499,38.55,30.372666666666667,39.004,35.7315,55.94,36.2,60.076499999999996,52.999,52.602999999999994,34.8245,58.6465,51.342,50.3955,33.888999999999996,58.536500000000004,50.772333333333336,-0.121,-0.047499999999999876,0.10433500000000001,0.11069500000000002,0.0,218.42000000000002,218.44,215.16333333333333,215.16333333333333,0.0,0.0
33,0.0,1.0,0.0,1.0,1.0,0.0,0.0,1.0,0.0,100.0,1.0,1.1856,26.0,0.0,0.0,0.0,59.999996,0.0,26.0,26.0,26.0,26.0,0.04849999999999999,0.25760000000000005,-0.049325,291.702,-4.8265,-4.7957777777777775,-1.5910000000000002,-1.5874444444444444,-163.67000000000002,215.38,190.2545,0.0,0.0,0.0,0.0,0.06669999999999998,-5.498166666666667,-5.498166666666667,-0.6153000000000001,-0.19500000000000006,-0.009875000000000078,-0.30600000000000005,69.90899999999999,0.0233000000000001,-0.21682500000000002,-0.20199999999999996,100.0,1.0,1.0,215.5366666666667,0.0,0.0,0.0,0.0,0.0,0.0,0.0,9135.8,0.0,55.0,5.0,251.64666666666665,1.0,0.0,0.0,0.0,0.0,0.0,1.0,0.0,1.6559999999999988,1.6559999999999988,0.0,0.0,1.0,55.0,616.79921,10000.0,85.000001,85.000001,85.000001,85.000001,395.0,0.0,0.0,0.0,1.0,333.33500000000004,51.941,51.941,47.028,47.028,34.0,-40.315,40.57,-28.5125,30.4075,0.0,1781.432,-0.620000000000001,100.0,28.489,28.71,43.86,44.257999999999996,0.0,1.0,100.0,0.0,0.0,0.0,0.0,3183.0,3011.7,4146.571428571428,4170.5,305.35433333333333,305.12666666666667,314.84933333333333,314.54375,22.016333333333332,20.7049,22.0904,21.5656,314.999998,314.999998,324.999988,324.999988,99.55537142857143,99.50775,99.56935714285714,99.54842857142857,0.10949999999999993,-0.008749999999999925,-0.09450000000000003,0.1293333333333333,-0.05833333333333002,-0.06571428571428584,1.5143333333333335,1.5135,38.602000000000004,30.405666666666665,39.065,35.785,55.932,36.236,60.11,53.056,52.595,34.8565,58.6775,51.3965,50.3875,33.918,58.565,50.82533333333333,-0.1273333333333333,-0.034499999999999975,0.10350500000000001,0.10989000000000002,0.0,218.8,218.79000000000002,215.5366666666667,215.5366666666667,0.0,0.0
34,0.0,1.0,0.0,1.0,1.0,0.0,0.0,1.0,0.0,100.0,1.0,1.1856,26.0,0.0,0.0,0.0,59.999996,0.0,26.0,26.0,26.0,26.0,0.03287499999999999,0.23809999999999998,-0.088925,292.007,-4.7605,-4.789444444444444,-1.6219000000000001,-1.5270000000000001,-160.1,215.385,190.226625,0.0,0.0,0.0,0.0,0.06879999999999997,-5.498166666666667,-5.498166666666667,-0.6417,-0.873,0.012124999999999941,0.9079999999999999,70.037,0.02100000000000013,-0.22080000000000002,-0.35999999999999943,100.0,1.0,1.0,215.9,0.0,0.0,0.0,0.0,0.0,0.0,0.0,9151.2,0.0,55.0,5.0,252.10666666666668,0.0,0.0,0.0,0.0,0.0,0.0,1.0,0.0,1.7070000000000007,1.7070000000000007,0.0,0.0,0.0,55.0,616.79921,10000.0,85.000001,85.000001,85.000001,85.000001,395.0,0.0,0.0,0.0,1.0,166.665,52.536,52.536,47.226,47.226,34.0,-36.6475,41.096666666666664,-28.0,30.7425,0.0,1781.382,-0.6550000000000011,100.0,28.294,28.221,43.812,44.217,0.0,1.0,100.0,0.0,0.0,0.0,0.0,2977.125,3061.4,4100.714285714285,4241.2,305.79133333333334,305.256,314.9186666666667,314.43025,22.025222222222222,20.7104,22.1008,21.5748,314.999998,314.999998,324.999988,324.999988,99.55538571428572,99.50775,99.5695,99.54858571428572,0.12775000000000003,0.005249999999999977,-0.08333333333333337,0.14100000000000001,-0.036666666666668846,-0.06714285714285495,1.5236666666666667,1.5055,38.657,30.440333333333335,39.129999999999995,35.8425,55.923,36.2735,60.1455,53.118,52.587,34.8895,58.710499999999996,51.456,50.378,33.9475,58.5945,50.88333333333333,-0.1363333333333332,-0.033500000000000085,0.10349000000000001,0.10469,0.0,219.16,219.185,215.9,215.9,0.0,0.0
35,0.0,1.0,0.0,1.0,1.0,0.0,0.0,1.0,0.0,100.0,1.0,1.1856,26.0,0.0,0.0,0.0,59.999996,0.0,26.0,26.0,26.0,26.0,0.056624999999999925,0.25890000000000013,-0.060575000000000004,291.855,-4.9026,-4.7555555555555555,-1.5373999999999999,-1.5804444444444443,-156.51999999999998,215.39249999999998,190.196625,0.0,0.0,0.0,0.0,0.07086666666666652,-5.498166666666667,-5.498166666666667,-0.6781,-0.08350000000000013,-0.0045000000000001705,-1.251,70.163,0.025900000000000034,-0.22425,-0.4299999999999997,100.0,1.0,1.0,216.38,0.0,0.0,0.0,0.0,0.0,0.0,0.0,9171.5,0.0,55.0,5.0,252.56,1.0,0.0,0.0,0.0,0.0,0.0,1.0,0.0,1.7579999999999991,1.7579999999999991,0.0,0.0,1.0,55.0,616.79921,10000.0,85.000001,85.000001,85.000001,85.000001,395.0,0.0,0.0,0.0,1.0,333.33500000000004,51.788,51.788,46.921,46.921,34.0,-41.1675,44.16166666666667,-26.78,29.52,0.0,1781.33,-0.3550000000000004,100.0,28.042,28.755,43.507,43.824,0.0,1.0,100.0,0.0,0.0,0.0,0.0,3175.375,3283.9,4115.285714285715,4048.2,305.35766666666666,304.28766666666667,314.987,314.92475,22.034,20.7163,22.111,21.5839,314.999998,314.999998,324.999988,324.999988,99.5554,99.50776666666667,99.56964285714285,99.54874285714286,0.09699999999999998,-0.02124999999999999,-0.08533333333333337,0.13949999999999996,-0.046666666666666856,-0.0628571428571405,1.561,1.54,38.712,30.476666666666667,39.194,35.899,55.912,36.314499999999995,60.18,53.1755,52.577,34.9255,58.7425,51.5115,50.3675,33.9805,58.623,50.937666666666665,-0.10799999999999987,-0.05400000000000027,0.108255,0.10698500000000001,0.0,219.565,219.585,216.38,216.38,0.0,0.0
