,ABS Active,ABS Enabled,AID Allow Tire Blankets,AID Auto Blip,AID Auto Clutch,AID Auto Shift,AID Fuel Rate,AID Ideal Line,AID Mech Damage,AID Stability,AID Tire Wear Rate,Air Density,Air Temp,Ballast,Best Lap Delta,Best Lap Time,Brake Bias,Brake Pos,Brake Temp FL,Brake Temp FR,Brake Temp RL,Brake Temp RR,CG Accel Lateral,CG Accel Longitudinal,CG Accel Vertical,CG Height,Camber FL,Camber FR,Camber RL,Camber RR,Car Coord X,Car Coord Y,Car Coord Z,Car Damage Front,Car Damage Left,Car Damage Rear,Car Damage Right,Car Pos Norm,Caster FL,Caster FR,Chassis Pitch Angle,Chassis Pitch Rate,Chassis Roll Angle,Chassis Roll Rate,Chassis Velocity X,Chassis Velocity Y,Chassis Velocity Z,Chassis Yaw Rate,Clutch Pos,DRS Active,DRS Available,Drive Train Speed,ERS Heat Charging,ERS Is Charging,ERS Max Energy,ERS Power Level,ERS Recovery Level,Engine Brake Setting,Engine Limiter,Engine RPM,Flags,Fuel Level,Gear,Ground Speed,HR Sample Clock,In Pit,KERS Charge,KERS Deployed Energy,KERS Input,KERS Max Energy,LR Sample Clock,Lap Invalidated,Lap Time,Lap Time2,Last Lap Time,Last Sector Time,MR Sample Clock,Max Fuel,Max Power,Max RPM,Max Sus Travel FL,Max Sus Travel FR,Max Sus Travel RL,Max Sus Travel RR,Max Torque,Max Turbo Boost,Num Tires Off Track,Penalties Enabled,Position,Raw Data Sample Rate,Ride Height FL,Ride Height FR,Ride Height RL,Ride Height RR,Road Temp,Self Align Torque FL,Self Align Torque FR,Self Align Torque RL,Self Align Torque RR,Session Lap Count,Session Time Left,Steering Angle,Surface Grip,Suspension Travel FL,Suspension Travel FR,Suspension Travel RL,Suspension Travel RR,TC Active,TC Enabled,Throttle Pos,Tire Dirt Level FL,Tire Dirt Level FR,Tire Dirt Level RL,Tire Dirt Level RR,Tire Load FL,Tire Load FR,Tire Load RL,Tire Load RR,Tire Loaded Radius FL,Tire Loaded Radius FR,Tire Loaded Radius RL,Tire Loaded Radius RR,Tire Pressure FL,Tire Pressure FR,Tire Pressure RL,Tire Pressure RR,Tire Radius FL,Tire Radius FR,Tire Radius RL,Tire Radius RR,Tire Rubber Grip FL,Tire Rubber Grip FR,Tire Rubber Grip RL,Tire Rubber Grip RR,Tire Slip Angle FL,Tire Slip Angle FR,Tire Slip Angle RL,Tire Slip Angle RR,Tire Slip Ratio FL,Tire Slip Ratio FR,Tire Slip Ratio RL,Tire Slip Ratio RR,Tire Temp Core FL,Tire Temp Core FR,Tire Temp Core RL,Tire Temp Core RR,Tire Temp Inner FL,Tire Temp Inner FR,Tire Temp Inner RL,Tire Temp Inner RR,Tire Temp Middle FL,Tire Temp Middle FR,Tire Temp Middle RL,Tire Temp Middle RR,Tire Temp Outer FL,Tire Temp Outer FR,Tire Temp Outer RL,Tire Temp Outer RR,Toe In FL,Toe In FR,Toe In RL,Toe In RR,Turbo Boost,Wheel Angular Speed FL,Wheel Angular Speed FR,Wheel Angular Speed RL,Wheel Angular Speed RR,Wind Direction,Wind Speed
0,0.0,1.0,0.0,1.0,1.0,0.0,0.0,1.0,0.0,100.0,1.0,1.1856,26.0,0.0,0.0,0.0,59.99999,0.0,26.0,26.0,26.0,26.0,-0.05944444444444441,0.29510000000000014,0.19425,293.32,-1.8925,-1.7236,-1.5556999999999999,-1.5114,-275.74,215.5525,190.987875,0.0,0.0,0.0,0.0,0.0015666666666666051,-5.498166666666667,-5.498166666666667,-0.5621,1.7913333333333332,-0.002888888888889163,-0.835,65.495,-0.0337,-0.2222,0.2599999999999998,100.0,1.0,1.0,202.21333333333334,0.0,0.0,0.0,0.0,0.0,0.0,0.0,8571.1,0.0,55.0,5.0,235.75333333333333,0.0,0.0,0.0,0.0,0.0,0.0,0.0,0.0,0.0030000000000001137,0.0030000000000001137,0.0,0.0,0.0,55.0,616.79921,10000.0,85.0,85.0,85.0,85.0,395.0,0.0,0.0,0.0,1.0,20.0,51.147,51.147,49.010999999999996,49.010999999999996,34.0,-20.43,18.198,-30.273333333333333,25.16,0.0,1783.524,0.29499999999999993,100.0,27.286,27.137999999999998,40.326,40.164,0.0,1.0,100.0,0.0,0.0,0.0,0.0,3354.5,4193.8,4109.0,4082.8,304.673,301.8765,314.88075,314.63775,21.8193,20.5166,21.7348,21.2839,314.99999,314.99999,324.99998,324.99998,99.56171428571429,99.50733333333334,99.56371428571428,99.54401428571428,0.022666666666666835,-0.10233333333333317,-0.15183333333333338,0.06716666666666682,-0.07166666666666544,-0.051666666666669414,1.5543333333333333,1.5585,37.370999999999995,29.228666666666665,36.843,34.0245,56.652,34.457499999999996,58.574,51.257,55.143,33.791,57.221000000000004,49.632999999999996,54.926,33.5225,57.19,49.06366666666666,-0.05799999999999994,-0.10200000000000009,0.10915000000000001,0.10449000000000001,0.0,205.26,205.22500000000002,202.21333333333334,202.21333333333334,0.0,0.0
1,0.0,1.0,0.0,1.0,1.0,0.0,0.0,1.0,0.0,100.0,1.0,1.1856,26.0,0.0,0.0,0.0,59.999996,0.0,26.0,26.0,26.0,26.0,-0.06722222222222218,0.3326,0.21395,292.45,-1.74545,-1.8106,-1.59175,-1.3874,-272.2,215.565,190.966875,0.0,0.0,0.0,0.0,0.0035999999999999366,-5.498166666666667,-5.498166666666667,-0.47790000000000005,-1.8896666666666668,-0.05544444444444441,-0.389,65.664,-0.0329,-0.184875,0.612000000000001,100.0,1.0,1.0,202.14,0.0,0.0,0.0,0.0,0.0,0.0,0.0,8568.0,0.0,55.0,5.0,236.35666666666668,1.0,0.0,0.0,0.0,0.0,0.0,0.0,0.0,0.05699999999999861,0.05699999999999861,0.0,0.0,1.0,55.0,616.79921,10000.0,85.000001,85.000001,85.000001,85.000001,395.0,0.0,0.0,0.0,1.0,166.665,54.352000000000004,54.352000000000004,47.47,47.47,34.0,-15.592500000000001,10.004000000000001,-38.36,31.84,0.0,1783.473,0.48499999999999943,100.0,27.49,26.969,42.543,43.133,0.0,1.0,100.0,0.0,0.0,0.0,0.0,2864.75,2437.0,4739.0,5185.0,306.175,307.062,313.12625,311.586,21.8299,20.522,21.7464,21.2938,314.999998,314.999998,324.999988,324.999988,99.56172857142857,99.50736666666667,99.56388571428572,99.54418571428572,0.023666666666666725,-0.11499999999999999,-0.15400000000000003,0.05499999999999994,-0.05666666666667197,-0.021666666666668277,1.3063333333333333,1.3365,37.437,29.262333333333334,36.915,34.086,56.632,34.4965,58.626999999999995,51.332,55.123000000000005,33.828,57.2705,49.705,54.905,33.559,57.236,49.134,-0.03949999999999998,-0.11149999999999993,0.10430500000000001,0.10562500000000001,0.0,205.72500000000002,205.64,202.14,202.14,0.0,0.0
2,0.0,1.0,0.0,1.0,1.0,0.0,0.0,1.0,0.0,100.0,1.0,1.1856,26.0,0.0,0.0,0.0,59.999996,0.0,26.0,26.0,26.0,26.0,-0.07966666666666666,0.2794000000000001,-0.1042,293.976,-1.7365,-1.7601,-1.5649000000000002,-1.5168,-269.05,215.575,190.949125,0.0,0.0,0.0,0.0,0.005433333333333401,-5.498166666666667,-5.498166666666667,-0.5750000000000001,0.41533333333333333,-0.0058888888888888324,1.6150000000000002,65.78999999999999,-0.0351,-0.27265,0.9120000000000008,100.0,1.0,1.0,203.52666666666667,0.0,0.0,0.0,0.0,0.0,0.0,0.0,8626.8,0.0,55.0,5.0,236.81666666666666,0.0,0.0,0.0,0.0,0.0,0.0,0.0,0.0,0.10500000000000043,0.10500000000000043,0.0,0.0,0.0,55.0,616.79921,10000.0,85.000001,85.000001,85.000001,85.000001,395.0,0.0,0.0,0.0,1.0,333.33500000000004,52.016999999999996,52.016999999999996,50.812,50.812,34.0,-20.39,11.834,-24.746666666666663,18.265,0.0,1783.422,0.7000000000000011,100.0,28.029,27.345,41.870000000000005,41.663,0.0,1.0,100.0,0.0,0.0,0.0,0.0,3385.875,3120.3,3492.0,3350.8,304.53366666666665,304.689,316.32,316.565,21.8396,20.5269,21.756,21.3016,314.999998,314.999998,324.999988,324.999988,99.56174285714286,99.50736666666667,99.56401428571428,99.54431428571428,-0.004999999999999893,-0.1393333333333333,-0.1658333333333334,0.04833333333333334,-0.04999999999999716,-0.05833333333333002,1.7753333333333334,1.803,37.498000000000005,29.292666666666666,36.974999999999994,34.135,56.616,34.536500000000004,58.6625,51.3815,55.108000000000004,33.8655,57.3035,49.7525,54.888999999999996,33.596000000000004,57.2665,49.181,-0.024499999999999966,-0.1280000000000001,0.10434500000000001,0.106685,0.0,206.13,206.04500000000002,203.52666666666667,203.52666666666667,0.0,0.0
3,0.0,1.0,0.0,1.0,1.0,0.0,0.0,1.0,0.0,100.0,1.0,1.1856,26.0,0.0,0.0,0.0,59.999996,0.0,26.0,26.0,26.0,26.0,-0.09033333333333338,0.3135000000000001,0.164775,293.076,-1.75275,-1.7923,-1.5134,-1.4923,-265.69,215.585,190.92875,0.0,0.0,0.0,0.0,0.007399999999999962,-5.498166666666667,-5.498166666666667,-0.5004000000000001,0.435,-0.002666666666666817,-1.383,65.94800000000001,-0.0495,-0.18407500000000002,0.8540000000000001,100.0,1.0,1.0,203.35333333333332,0.0,0.0,0.0,0.0,0.0,0.0,0.0,8619.4,0.0,55.0,5.0,237.38333333333333,1.0,0.0,0.0,0.0,0.0,0.0,0.0,0.0,0.1559999999999988,0.1559999999999988,0.0,0.0,1.0,55.0,616.79921,10000.0,85.000001,85.000001,85.000001,85.000001,395.0,0.0,0.0,0.0,1.0,166.665,53.391,53.391,47.592,47.592,34.0,-16.5625,11.394000000000002,-34.53666666666666,26.5225,0.0,1783.374,0.7349999999999994,100.0,27.794,27.314,42.146,41.939,0.0,1.0,100.0,0.0,0.0,0.0,0.0,2889.5,2926.6,4502.25,4332.9,306.1256666666667,305.50125,313.82,314.004,21.8496,20.5322,21.7664,21.3106,314.999998,314.999998,324.999988,324.999988,99.56174285714286,99.5074,99.56415714285714,99.54445714285714,0.005666666666666931,-0.1343333333333332,-0.16183333333333338,0.05600000000000005,-0.06666666666666998,-0.04833333333333201,1.4333333333333333,1.473,37.56,29.326333333333334,37.04,34.191,56.596000000000004,34.576,58.702,51.445499999999996,55.089,33.903,57.34,49.814,54.869,33.6325,57.3005,49.24133333333333,-0.019000000000000017,-0.13200000000000012,0.10164500000000001,0.10312500000000001,0.0,206.65,206.57,203.35333333333335,203.35333333333332,0.0,0.0
4,0.0,1.0,0.0,1.0,1.0,0.0,0.0,1.0,0.0,100.0,1.0,1.1856,26.0,0.0,0.0,0.0,59.999996,0.0,26.0,26.0,26.0,26.0,-0.09011111111111103,0.3003,0.00265,293.427,-1.75345,-1.8603,-1.4597,-1.6019,-262.32,215.59,190.909375,0.0,0.0,0.0,0.0,0.009366666666666523,-5.498166666666667,-5.498166666666667,-0.5323,-0.8623333333333334,-0.05522222222222206,-0.8069999999999999,66.094,-0.0625,-0.23550000000000001,1.266,100.0,1.0,1.0,203.99666666666667,0.0,0.0,0.0,0.0,0.0,0.0,0.0,8646.6,0.0,55.0,5.0,237.90666666666667,0.0,0.0,0.0,0.0,0.0,0.0,0.0,0.0,0.20700000000000074,0.20700000000000074,0.0,0.0,0.0,55.0,616.79921,10000.0,85.000001,85.000001,85.000001,85.000001,395.0,0.0,0.0,0.0,1.0,166.665,53.101,53.101,48.721000000000004,48.721000000000004,34.0,-19.8425,10.918000000000003,-31.316666666666663,22.445,0.0,1783.322,0.7550000000000008,100.0,27.665,27.047,42.815,42.04,0.0,1.0,100.0,0.0,0.0,0.0,0.0,3242.5,2848.9,4111.375,3818.5,305.095,305.6465,314.81425,315.2875,21.8597,20.5373,21.777,21.319499999999998,314.999998,314.999998,324.999988,324.999988,99.56174285714286,99.5074,99.5643,99.5446,-0.013333333333333197,-0.15333333333333332,-0.1951666666666666,0.028999999999999915,-0.03999999999999915,-0.03833333333332689,1.5506666666666666,1.5935000000000001,37.623000000000005,29.358333333333334,37.105999999999995,34.2465,56.578,34.615,58.746,51.506,55.071,33.939499999999995,57.3815,49.872,54.849999999999994,33.6685,57.3395,49.298,-0.019499999999999962,-0.13349999999999995,0.10146500000000001,0.10390500000000001,0.0,207.06,206.95,203.99666666666667,203.99666666666667,0.0,0.0
5,0.0,1.0,0.0,1.0,1.0,0.0,0.0,1.0,0.0,100.0,1.0,1.1856,26.0,0.0,0.0,0.0,59.999996,0.0,26.0,26.0,26.0,26.0,-0.11722222222222212,0.2894000000000001,-0.041775,293.762,-1.76645,-1.8189000000000002,-1.51485,-1.5949,-258.95,215.595,190.889625,0.0,0.0,0.0,0.0,0.011333333333333306,-5.498166666666667,-5.498166666666667,-0.5385,0.5670000000000001,-0.0427777777777778,0.6819999999999999,66.238,-0.0811,-0.2228,1.154,100.0,1.0,1.0,204.55,0.0,0.0,0.0,0.0,0.0,0.0,0.0,8670.1,0.0,55.0,5.0,238.43,1.0,0.0,0.0,0.0,0.0,0.0,0.0,0.0,0.2579999999999991,0.2579999999999991,0.0,0.0,1.0,55.0,616.79921,10000.0,85.000001,85.000001,85.000001,85.000001,395.0,0.0,0.0,0.0,1.0,166.665,53.299,53.299,49.271,49.271,34.0,-18.662499999999998,11.671999999999997,-30.793333333333337,22.83,0.0,1783.27,0.4900000000000002,100.0,27.784,26.751,42.459,41.397999999999996,0.0,1.0,100.0,0.0,0.0,0.0,0.0,3053.0,2960.5,3933.75,3956.9,305.422,305.4385,315.24625,315.063,21.869799999999998,20.5425,21.7873,21.3281,314.999998,314.999998,324.999988,324.999988,99.56175714285715,99.50741666666667,99.56444285714285,99.54472857142858,-0.008999999999999897,-0.137,-0.20699999999999996,0.023500000000000076,-0.061666666666667425,-0.06333333333333258,1.5826666666666667,1.625,37.686,29.391,37.171,34.301,56.561,34.6555,58.7855,51.5645,55.054,33.9775,57.418,49.928,54.832,33.706,57.373,49.352666666666664,-0.03400000000000003,-0.10899999999999999,0.10516500000000001,0.10872000000000001,0.0,207.54500000000002,207.45499999999998,204.55,204.55,0.0,0.0
6,0.0,1.0,0.0,1.0,1.0,0.0,0.0,1.0,0.0,100.0,1.0,1.1856,26.0,0.0,0.0,0.0,59.999996,0.0,26.0,26.0,26.0,26.0,-0.1273333333333333,0.29110000000000014,0.029875000000000002,293.564,-1.74885,-1.8902,-1.5082499999999999,-1.5746,-255.96,215.595,190.871375,0.0,0.0,0.0,0.0,0.01306666666666656,-5.498166666666667,-5.498166666666667,-0.5251,-0.13066666666666665,-0.06333333333333346,-1.0579999999999998,66.37100000000001,-0.0844,-0.20097500000000001,1.0039999999999996,100.0,1.0,1.0,204.76,0.0,0.0,0.0,0.0,0.0,0.0,0.0,8679.0,0.0,55.0,5.0,238.90666666666667,0.0,0.0,0.0,0.0,0.0,0.0,0.0,0.0,0.3030000000000008,0.3030000000000008,0.0,0.0,0.0,55.0,616.79921,10000.0,85.000001,85.000001,85.000001,85.000001,395.0,0.0,0.0,0.0,1.0,333.33500000000004,53.696,53.696,48.431,48.431,34.0,-20.645,10.398,-34.71666666666667,23.215,0.0,1783.224,0.5850000000000009,100.0,27.368,26.615000000000002,42.606,41.599000000000004,0.0,1.0,100.0,0.0,0.0,0.0,0.0,3203.375,2749.2,4329.125,4031.3,305.246,305.93375,314.28125,314.784,21.8787,20.547,21.796599999999998,21.336,314.999998,314.999998,324.999988,324.999988,99.56175714285715,99.50743333333334,99.56457142857143,99.54485714285714,-0.03833333333333311,-0.16233333333333322,-0.2041666666666666,0.017833333333333368,-0.05333333333332746,-0.03499999999999659,1.5116666666666667,1.537,37.742000000000004,29.419,37.229,34.35,56.543,34.692,58.826,51.623,55.037,34.012,57.456,49.984,54.814,33.7395,57.408,49.407666666666664,-0.02200000000000002,-0.11549999999999994,0.10812500000000001,0.10747500000000001,0.0,207.93,207.87,204.76,204.76,0.0,0.0
7,0.0,1.0,0.0,1.0,1.0,0.0,0.0,1.0,0.0,100.0,1.0,1.1856,26.0,0.0,0.0,0.0,59.999996,0.0,26.0,26.0,26.0,26.0,-0.09399999999999997,0.29200000000000004,-0.00315,293.457,-1.70885,-1.8897,-1.5091,-1.6214,-252.57,215.5925,190.85075,0.0,0.0,0.0,0.0,0.015033333333333343,-5.498166666666667,-5.498166666666667,-0.5341,0.095,-0.05222222222222239,1.146,66.516,-0.08600000000000001,-0.21777500000000002,0.7939999999999996,100.0,1.0,1.0,205.29000000000002,0.0,0.0,0.0,0.0,0.0,0.0,0.0,8701.5,0.0,55.0,5.0,239.43,1.0,0.0,0.0,0.0,0.0,0.0,0.0,0.0,0.3539999999999992,0.3539999999999992,0.0,0.0,1.0,55.0,616.79921,10000.0,85.000001,85.000001,85.000001,85.000001,395.0,0.0,0.0,0.0,1.0,333.33500000000004,53.162,53.162,48.813,48.813,34.0,-17.595,13.349999999999998,-31.740000000000002,23.53,0.0,1783.174,0.07000000000000028,100.0,27.905,26.706,42.793,41.578,0.0,1.0,100.0,0.0,0.0,0.0,0.0,3117.125,2955.9,4050.375,3999.8,305.25266666666664,305.422,314.89675,314.912,21.8889,20.5523,21.8071,21.3448,314.999998,314.999998,324.999988,324.999988,99.56175714285715,99.50745,99.56471428571429,99.54498571428572,0.011333333333333417,-0.11399999999999988,-0.19899999999999995,0.01883333333333348,-0.045000000000001705,-0.04833333333333201,1.5433333333333334,1.561,37.805,29.451666666666668,37.294,34.4055,56.528,34.7295,58.865,51.68,55.022,34.0475,57.4925,50.039,54.798,33.7745,57.442,49.461333333333336,-0.06399999999999995,-0.08050000000000002,0.09585,0.105395,0.0,208.37,208.315,205.29000000000002,205.29000000000002,0.0,0.0
8,0.0,1.0,0.0,1.0,1.0,0.0,0.0,1.0,0.0,100.0,1.0,1.1856,26.0,0.0,0.0,0.0,59.999996,0.0,26.0,26.0,26.0,26.0,-0.07288888888888889,0.2843,-0.014425,293.549,-1.7873999999999999,-1.8215,-1.5380500000000001,-1.6145,-248.98,215.59,190.828875,0.0,0.0,0.0,0.0,0.017133333333333334,-5.498166666666667,-5.498166666666667,-0.5374,-0.19033333333333335,-0.04066666666666663,0.3599999999999999,66.67,-0.0738,-0.22015,0.42799999999999994,100.0,1.0,1.0,205.74666666666667,0.0,0.0,0.0,0.0,0.0,0.0,0.0,8720.8,0.0,55.0,5.0,239.98333333333335,0.0,0.0,0.0,0.0,0.0,0.0,0.0,0.0,0.40800000000000125,0.40800000000000125,0.0,0.0,0.0,55.0,616.79921,10000.0,85.000001,85.000001,85.000001,85.000001,395.0,0.0,0.0,0.0,1.0,166.665,53.391,53.391,48.569,48.569,34.0,-17.46,13.02,-30.653333333333336,25.4175,0.0,1783.12,0.025000000000000355,100.0,27.566,26.796,42.783,41.707,0.0,1.0,100.0,0.0,0.0,0.0,0.0,3017.75,3021.6,4013.375,4017.8,305.5946666666667,305.259,315.02475,314.85725,21.8994,20.5578,21.8181,21.3543,314.999998,314.999998,324.999988,324.999988,99.56175714285715,99.50746666666667,99.56487142857142,99.54512857142858,0.016000000000000014,-0.11399999999999988,-0.17633333333333334,0.05449999999999999,-0.021666666666668277,-0.05333333333332746,1.5363333333333333,1.5605,37.870999999999995,29.486333333333334,37.363,34.4645,56.507999999999996,34.7715,58.909,51.7455,55.003,34.087,57.533500000000004,50.1015,54.778,33.813,57.480000000000004,49.522999999999996,-0.06899999999999995,-0.07450000000000001,0.10587,0.11447500000000001,0.0,208.82,208.81,205.74666666666667,205.74666666666667,0.0,0.0
9,0.0,1.0,0.0,1.0,1.0,0.0,0.0,1.0,0.0,100.0,1.0,1.1856,26.0,0.0,0.0,0.0,59.999996,0.0,26.0,26.0,26.0,26.0,-0.0504444444444444,0.29069999999999996,-0.00835,293.304,-1.7124,-1.8325,-1.5401,-1.5708,-245.97,215.58249999999998,190.8105,0.0,0.0,0.0,0.0,0.018866666666666587,-5.498166666666667,-5.498166666666667,-0.5351,0.2683333333333333,-0.05288888888888854,-0.5640000000000001,66.798,-0.060700000000000004,-0.21305000000000002,0.22200000000000042,100.0,1.0,1.0,206.13,0.0,0.0,0.0,0.0,0.0,0.0,0.0,8737.1,0.0,55.0,5.0,240.44333333333333,1.0,0.0,0.0,0.0,0.0,0.0,0.0,0.0,0.4529999999999994,0.4529999999999994,0.0,0.0,1.0,55.0,616.79921,10000.0,85.000001,85.000001,85.000001,85.000001,395.0,0.0,0.0,0.0,1.0,166.665,53.009,53.009,48.766999999999996,48.766999999999996,34.0,-17.7775,13.116,-31.049999999999997,24.4775,0.0,1783.076,-0.129999999999999,100.0,27.692,27.007,42.639,41.81,0.0,1.0,100.0,0.0,0.0,0.0,0.0,3254.75,2918.6,4097.875,4044.2,305.052,305.40325,314.88,314.7725,21.9083,20.5625,21.8273,21.362099999999998,314.999998,314.999998,324.999988,324.999988,99.56175714285715,99.50748333333334,99.565,99.54527142857143,0.023333333333333428,-0.10499999999999998,-0.17049999999999998,0.04366666666666674,-0.026666666666670835,-0.030000000000001137,1.5446666666666666,1.5635,37.927,29.515666666666668,37.421,34.513,56.492999999999995,34.8055,58.9445,51.799,54.989000000000004,34.119,57.567,50.1525,54.763,33.8445,57.5105,49.573,-0.08299999999999996,-0.0625,0.10287500000000001,0.10094,0.0,209.22500000000002,209.195,206.13,206.13,0.0,0.0
10,0.0,1.0,0.0,1.0,1.0,0.0,0.0,1.0,0.0,100.0,1.0,1.1856,26.0,0.0,0.0,0.0,59.999996,0.0,26.0,26.0,26.0,26.0,-0.034222222222222154,0.28990000000000005,0.015175000000000001,293.198,-1.7689,-1.8124,-1.5016500000000002,-1.5552000000000001,-242.56,215.575,190.789625,0.0,0.0,0.0,0.0,0.02086666666666659,-5.498166666666667,-5.498166666666667,-0.5267000000000001,-0.24166666666666667,-0.022777777777777786,1.721,66.943,-0.0429,-0.20895,-0.040000000000000036,100.0,1.0,1.0,206.48666666666668,0.0,0.0,0.0,0.0,0.0,0.0,0.0,8752.3,0.0,55.0,5.0,240.96666666666667,0.0,0.0,0.0,0.0,0.0,0.0,1.0,0.0,0.5040000000000013,0.5040000000000013,0.0,0.0,0.0,55.0,616.79921,10000.0,85.000001,85.000001,85.000001,85.000001,395.0,0.0,0.0,0.0,1.0,333.33500000000004,53.375,53.375,48.294,48.294,34.0,-15.802499999999998,13.988,-30.159999999999997,27.755000000000003,0.0,1783.023,-0.1899999999999995,100.0,27.802,26.85,42.886,42.101,0.0,1.0,100.0,0.0,0.0,0.0,0.0,2983.625,2988.8,4118.625,4263.0,305.685,305.41025,314.735,314.3075,21.9183,20.5678,21.8378,21.3711,314.999998,314.999998,324.999988,324.999988,99.56177142857143,99.5075,99.56514285714286,99.54541428571429,0.04499999999999993,-0.08566666666666678,-0.15200000000000002,0.07666666666666666,-0.036666666666668846,-0.05333333333332746,1.4953333333333334,1.5185,37.989999999999995,29.548333333333332,37.486000000000004,34.5695,56.474999999999994,34.843,58.9865,51.862,54.972,34.1545,57.606,50.213,54.745000000000005,33.879,57.5465,49.632,-0.08850000000000002,-0.05800000000000005,0.10716,0.10727,0.0,209.655,209.66,206.48666666666668,206.48666666666668,0.0,0.0
11,0.0,1.0,0.0,1.0,1.0,0.0,0.0,1.0,0.0,100.0,1.0,1.1856,26.0,0.0,0.0,0.0,59.999996,0.0,26.0,26.0,26.0,26.0,-0.024555555555555553,0.28290000000000015,-0.0357,293.503,-1.77905,-1.8018,-1.5588000000000002,-1.526,-238.94,215.5675,190.7675,0.0,0.0,0.0,0.0,0.022599999999999953,-5.498166666666667,-5.498166666666667,-0.5507000000000001,-0.16933333333333334,0.001777777777777878,0.778,67.094,-0.0274,-0.22387500000000002,-0.13399999999999945,100.0,1.0,1.0,207.07666666666665,0.0,0.0,0.0,0.0,0.0,0.0,0.0,8777.2,0.0,55.0,5.0,241.50666666666666,1.0,0.0,0.0,0.0,0.0,0.0,1.0,0.0,0.5579999999999998,0.5579999999999998,0.0,0.0,1.0,55.0,616.79921,10000.0,85.000001,85.000001,85.000001,85.000001,395.0,0.0,0.0,0.0,1.0,166.665,53.223,53.223,48.888999999999996,48.888999999999996,34.0,-15.752499999999998,15.144000000000002,-27.32333333333333,25.9725,0.0,1782.971,-0.2699999999999996,100.0,27.481,26.948999999999998,42.574,42.18,0.0,1.0,100.0,0.0,0.0,0.0,0.0,3029.625,3100.9,3889.125,4053.2,305.56933333333336,305.035,315.34925,314.83,21.9288,20.5734,21.8488,21.3806,314.999998,314.999998,324.999988,324.999988,99.56177142857143,99.5075,99.56528571428571,99.54555714285715,0.05433333333333357,-0.07200000000000006,-0.12983333333333336,0.08699999999999997,-0.03833333333332689,-0.04833333333333201,1.5956666666666668,1.5875,38.055,29.584,37.555,34.629,56.457,34.8835,59.0265,51.927,54.954,34.192,57.6435,50.2755,54.726,33.9165,57.581,49.693333333333335,-0.08650000000000002,-0.05449999999999999,0.098625,0.10424000000000001,0.0,210.115,210.115,207.07666666666665,207.07666666666665,0.0,0.0
12,0.0,1.0,0.0,1.0,1.0,0.0,0.0,1.0,0.0,100.0,1.0,1.1856,26.0,0.0,0.0,0.0,59.999996,0.0,26.0,26.0,26.0,26.0,-0.011222222222222134,0.28710000000000013,0.00425,293.091,-1.80575,-1.7978,-1.5382500000000001,-1.5470000000000002,-235.72,215.5575,190.746875,0.0,0.0,0.0,0.0,0.025466666666666526,-5.498166666666667,-5.498166666666667,-0.542,0.3776666666666667,0.0018888888888888289,0.7800000000000002,67.229,-0.0152,-0.20525000000000002,-0.16999999999999993,100.0,1.0,1.0,207.41333333333333,0.0,0.0,0.0,0.0,0.0,0.0,0.0,8791.5,0.0,55.0,5.0,241.99333333333334,0.0,0.0,0.0,0.0,0.0,0.0,1.0,0.0,0.6059999999999981,0.6059999999999981,0.0,0.0,0.0,55.0,616.79921,10000.0,85.000001,85.000001,85.000001,85.000001,395.0,0.0,0.0,0.0,1.0,166.665,52.963,52.963,48.218,48.218,34.0,-15.344999999999999,16.004,-28.880000000000003,28.65,0.0,1782.923,-0.34999999999999964,100.0,27.603,27.241,42.495000000000005,42.163,0.0,1.0,100.0,0.0,0.0,0.0,0.0,3033.5,3142.4,4109.625,4214.6,305.54533333333336,304.8885,314.80875,314.457,21.9381,20.5786,21.8585,21.389,314.999998,314.999998,324.999988,324.999988,99.56178571428572,99.5075,99.56542857142857,99.54568571428571,0.06966666666666654,-0.05800000000000005,-0.12383333333333335,0.10433333333333339,-0.051666666666669414,-0.05333333333332746,1.5413333333333332,1.5305,38.113,29.616,37.616,34.6815,56.442,34.919,59.0635,51.9845,54.939,34.226,57.6775,50.331,54.71,33.9495,57.6125,49.74766666666667,-0.09299999999999997,-0.050999999999999934,0.11471,0.10963500000000001,0.0,210.565,210.57,207.41333333333333,207.41333333333333,0.0,0.0
13,0.0,1.0,0.0,1.0,1.0,0.0,0.0,1.0,0.0,100.0,1.0,1.1856,26.0,0.0,0.0,0.0,59.999996,0.0,26.0,26.0,26.0,26.0,0.020777777777777784,0.2904,0.0304,292.816,-1.7763,-1.8111000000000002,-1.56515,-1.5554000000000001,-232.49,215.55,190.7265,0.0,0.0,0.0,0.0,0.026699999999999946,-5.498166666666667,-5.498166666666667,-0.5367000000000001,-0.191,-0.001777777777777878,1.2469999999999999,67.364,-0.007500000000000001,-0.21195,-0.39200000000000035,100.0,1.0,1.0,207.75,0.0,0.0,0.0,0.0,0.0,0.0,0.0,8805.8,0.0,55.0,5.0,242.48000000000002,1.0,0.0,0.0,0.0,0.0,0.0,1.0,0.0,0.6539999999999999,0.6539999999999999,0.0,0.0,1.0,55.0,616.79921,10000.0,85.000001,85.000001,85.000001,85.000001,395.0,0.0,0.0,0.0,1.0,166.665,52.841,52.841,48.019,48.019,34.0,-13.41,17.148,-28.943333333333335,30.1275,0.0,1782.875,-0.28500000000000014,100.0,27.812,27.329,42.8,42.552,0.0,1.0,100.0,0.0,0.0,0.0,0.0,3058.125,3098.3,4146.0,4295.1,305.46133333333336,305.034,314.66475,314.23675,21.947400000000002,20.5837,21.8684,21.3976,314.999998,314.999998,324.999988,324.999988,99.56178571428572,99.50751666666666,99.56555714285714,99.54582857142857,0.10833333333333339,-0.02966666666666673,-0.10783333333333334,0.11333333333333329,-0.026666666666670835,-0.07000000000000028,1.5156666666666667,1.4915,38.171,29.648,37.678,34.735,56.427,34.954,59.1025,52.0445,54.925,34.259,57.714,50.3885,54.695,33.982,57.646,49.804,-0.119,-0.033500000000000085,0.10408,0.09937000000000001,0.0,210.93,210.97,207.75,207.75,0.0,0.0
14,0.0,1.0,0.0,1.0,1.0,0.0,0.0,1.0,0.0,100.0,1.0,1.1856,26.0,0.0,0.0,0.0,59.999996,0.0,26.0,26.0,26.0,26.0,0.036111111111111205,0.29259999999999997,-0.017650000000000002,293.03,-1.80335,-1.8103,-1.5664500000000001,-1.5441,-229.05,215.54250000000002,190.705125,0.0,0.0,0.0,0.0,0.028699999999999948,-5.498166666666667,-5.498166666666667,-0.5498000000000001,-0.069,0.016111111111110965,-0.35599999999999987,67.504,0.0066,-0.226275,-0.3460000000000001,100.0,1.0,1.0,208.2866666666667,0.0,0.0,0.0,0.0,0.0,0.0,0.0,8828.5,0.0,55.0,5.0,242.98666666666668,0.0,0.0,0.0,0.0,0.0,0.0,1.0,0.0,0.7049999999999983,0.7049999999999983,0.0,0.0,0.0,55.0,616.79921,10000.0,85.000001,85.000001,85.000001,85.000001,395.0,0.0,0.0,0.0,1.0,333.33500000000004,52.795,52.795,48.37,48.37,34.0,-14.89,15.668,-27.229999999999997,28.425,0.0,1782.822,-0.28999999999999915,100.0,27.613,27.687,42.607,42.754,0.0,1.0,100.0,0.0,0.0,0.0,0.0,3106.5,3023.6,3997.5,4082.5,305.51433333333335,305.02575,315.1275,314.6845,21.9573,20.589199999999998,21.8788,21.4067,314.999998,314.999998,324.999988,324.999988,99.5618,99.50753333333333,99.56571428571428,99.54598571428572,0.08499999999999996,-0.05666666666666664,-0.10416666666666663,0.12033333333333318,-0.04833333333333201,-0.05666666666667197,1.553,1.5455,38.233000000000004,29.682333333333332,37.742000000000004,34.7915,56.411,34.994,59.143,52.1105,54.91,34.2965,57.751999999999995,50.452,54.678,34.019,57.6805,49.866,-0.10099999999999998,-0.050000000000000044,0.10653000000000001,0.103345,0.0,211.375,211.41,208.2866666666667,208.2866666666667,0.0,0.0
15,0.0,1.0,0.0,1.0,1.0,0.0,0.0,1.0,0.0,100.0,1.0,1.1856,26.0,0.0,0.0,0.0,59.999996,0.0,26.0,26.0,26.0,26.0,0.042333333333333334,0.28680000000000017,-0.029400000000000003,293.015,-1.7995999999999999,-1.782,-1.57775,-1.5586,-225.4,215.5325,190.682125,0.0,0.0,0.0,0.0,0.03083333333333338,-5.498166666666667,-5.498166666666667,-0.5409,0.16066666666666665,0.02822222222222215,-0.859,67.653,0.0148,-0.20895,-0.28000000000000025,100.0,1.0,1.0,208.7,0.0,0.0,0.0,0.0,0.0,0.0,0.0,8846.0,0.0,55.0,5.0,243.52333333333334,1.0,0.0,0.0,0.0,0.0,0.0,1.0,0.0,0.7590000000000003,0.7590000000000003,0.0,0.0,1.0,55.0,616.79921,10000.0,85.000001,85.000001,85.000001,85.000001,395.0,0.0,0.0,0.0,1.0,111.11,53.009,53.009,48.248,48.248,34.0,-14.5075,15.349999999999998,-27.89666666666666,29.56,0.0,1782.771,-0.1899999999999995,100.0,27.537,27.726,42.431,42.877,0.0,1.0,100.0,0.0,0.0,0.0,0.0,3044.625,2975.0,4092.25,4143.1,305.7183333333333,305.16825,314.921,314.494,21.9676,20.595,21.8897,21.4163,314.999998,314.999998,324.999988,324.999988,99.56181428571429,99.50753333333333,99.56585714285714,99.54611428571428,0.08499999999999996,-0.05133333333333323,-0.09783333333333333,0.12650000000000006,-0.03166666666666629,-0.03499999999999659,1.5366666666666666,1.5325,38.298,29.719,37.811,34.8515,56.396,35.031,59.181,52.173500000000004,54.894999999999996,34.332,57.7875,50.5125,54.662,34.0535,57.713,49.925333333333334,-0.08850000000000002,-0.05899999999999994,0.10821000000000001,0.10974500000000001,0.0,211.845,211.89,208.7,208.7,0.0,0.0
16,0.0,1.0,0.0,1.0,1.0,0.0,0.0,1.0,0.0,100.0,1.0,1.1856,26.0,0.0,0.0,0.0,59.999996,0.0,26.0,26.0,26.0,26.0,0.02488888888888896,0.28170000000000006,-0.011525,292.831,-1.8599,-1.7288000000000001,-1.55505,-1.5561,-222.15,215.525,190.661375,0.0,0.0,0.0,0.0,0.03273333333333339,-5.498166666666667,-5.498166666666667,-0.5551,-0.437,0.019333333333333202,-1.1709999999999998,67.785,0.013900000000000001,-0.22425,-0.11599999999999966,100.0,1.0,1.0,209.0966666666667,0.0,0.0,0.0,0.0,0.0,0.0,0.0,8862.9,0.0,55.0,5.0,244.0,0.0,0.0,0.0,0.0,0.0,0.0,1.0,0.0,0.8069999999999986,0.8069999999999986,0.0,0.0,0.0,55.0,616.79921,10000.0,85.000001,85.000001,85.000001,85.000001,395.0,0.0,0.0,0.0,1.0,166.665,52.597,52.597,47.989,47.989,34.0,-15.809999999999999,15.858,-27.583333333333336,28.455000000000002,0.0,1782.722,-0.22499999999999964,100.0,27.419,27.811,42.687,42.994,0.0,1.0,100.0,0.0,0.0,0.0,0.0,3190.375,3133.1,4069.0,4029.0,305.329,304.73325,314.95925,314.761,21.9767,20.6003,21.8996,21.4248,314.999998,314.999998,324.999988,324.999988,99.56182857142858,99.50753333333333,99.56598571428572,99.54625714285714,0.08700000000000019,-0.04833333333333312,-0.10083333333333333,0.12416666666666676,-0.07000000000000028,-0.03499999999999659,1.5363333333333333,1.529,38.355000000000004,29.751666666666665,37.872,34.905,56.379999999999995,35.0665,59.2185,52.2325,54.879999999999995,34.365,57.8225,50.569,54.646,34.086,57.7455,49.981,-0.08799999999999997,-0.05899999999999994,0.11043000000000001,0.10257000000000001,0.0,212.26999999999998,212.25,209.0966666666667,209.0966666666667,0.0,0.0
17,0.0,1.0,0.0,1.0,1.0,0.0,0.0,1.0,0.0,100.0,1.0,1.1856,26.0,0.0,0.0,0.0,59.999996,0.0,26.0,26.0,26.0,26.0,0.00911111111111107,0.2884,0.021650000000000003,292.435,-1.71885,-1.7213,-1.59275,-1.5236,-218.69,215.51999999999998,190.639,0.0,0.0,0.0,0.0,0.034733333333333394,-5.498166666666667,-5.498166666666667,-0.5494,0.20366666666666666,-0.004999999999999893,0.516,67.925,0.0134,-0.21250000000000002,-0.2400000000000002,100.0,1.0,1.0,209.46666666666667,0.0,0.0,0.0,0.0,0.0,0.0,0.0,8878.6,0.0,55.0,5.0,244.50333333333333,1.0,0.0,0.0,0.0,0.0,0.0,1.0,0.0,0.8580000000000005,0.8580000000000005,0.0,0.0,1.0,55.0,616.79921,10000.0,85.000001,85.000001,85.000001,85.000001,395.0,0.0,0.0,0.0,1.0,166.665,52.353,52.353,47.607,47.607,34.0,-13.947499999999998,16.166,-29.509999999999998,30.2,0.0,1782.669,-0.1349999999999998,100.0,28.0,27.78,42.808,42.884,0.0,1.0,100.0,0.0,0.0,0.0,0.0,3104.0,3180.9,4295.625,4264.1,305.27566666666667,304.77,314.416,314.35525,21.9865,20.6059,21.91,21.4339,314.999998,314.999998,324.999988,324.999988,99.56184285714286,99.50755,99.56614285714285,99.54641428571429,0.09066666666666645,-0.043333333333333224,-0.08999999999999997,0.1286666666666667,-0.04333333333332945,-0.05833333333333002,1.5150000000000001,1.4905,38.416,29.786666666666665,37.937,34.9615,56.366,35.1045,59.2575,52.294,54.864999999999995,34.400999999999996,57.8585,50.628,54.629999999999995,34.1215,57.7785,50.039,-0.08699999999999997,-0.0645,0.10840000000000001,0.096155,0.0,212.7,212.72500000000002,209.46666666666667,209.46666666666667,0.0,0.0
18,0.0,1.0,0.0,1.0,1.0,0.0,0.0,1.0,0.0,100.0,1.0,1.1856,26.0,0.0,0.0,0.0,59.999996,0.0,26.0,26.0,26.0,26.0,0.004666666666666597,0.2864,0.023625,292.374,-1.75235,-1.7043,-1.59345,-1.4809,-215.63,215.515,190.61925,0.0,0.0,0.0,0.0,0.03649999999999998,-5.498166666666667,-5.498166666666667,-0.5595,-0.3973333333333333,0.0020000000000000018,-0.3739999999999999,68.048,0.0123,-0.222,-0.0860000000000003,100.0,1.0,1.0,209.82999999999998,0.0,0.0,0.0,0.0,0.0,0.0,0.0,8893.9,0.0,55.0,5.0,244.94666666666666,0.0,0.0,0.0,0.0,0.0,0.0,1.0,0.0,0.9029999999999987,0.9029999999999987,0.0,0.0,0.0,55.0,616.79921,10000.0,85.000001,85.000001,85.000001,85.000001,395.0,0.0,0.0,0.0,1.0,166.665,52.277,52.277,47.592,47.592,34.0,-15.2775,15.39,-29.82666666666666,28.2925,0.0,1782.626,-0.09999999999999964,100.0,27.757,27.838,42.883,43.129,0.0,1.0,100.0,0.0,0.0,0.0,0.0,3210.625,3204.0,4230.5,4221.2,305.17633333333333,304.59475,314.60775,314.36375,21.9951,20.6107,21.9192,21.4419,314.999998,314.999998,324.999988,324.999988,99.56184285714286,99.50755,99.56625714285714,99.54652857142857,0.07900000000000018,-0.06033333333333313,-0.10716666666666663,0.11050000000000004,-0.036666666666668846,-0.05333333333332746,1.5186666666666666,1.5185,38.47,29.817,37.995000000000005,35.012,56.351,35.1365,59.292500000000004,52.349000000000004,54.852000000000004,34.4315,57.8915,50.681,54.616,34.1515,57.809,50.091,-0.08699999999999997,-0.07299999999999995,0.10930000000000001,0.10176500000000001,0.0,213.065,213.075,209.82999999999998,209.82999999999998,0.0,0.0
19,0.0,1.0,0.0,1.0,1.0,0.0,0.0,1.0,0.0,100.0,1.0,1.1856,26.0,0.0,0.0,0.0,59.999996,0.0,26.0,26.0,26.0,26.0,0.031444444444444386,0.2835000000000001,0.0419,292.145,-1.7521499999999999,-1.8054999999999999,-1.52705,-1.6047,-211.95,215.5075,190.595125,0.0,0.0,0.0,0.0,0.0386333333333333,-5.498166666666667,-5.498166666666667,-0.5502,0.6216666666666666,0.009333333333333194,-0.849,68.194,0.0067,-0.2139,0.002000000000000668,100.0,1.0,1.0,210.2866666666667,0.0,0.0,0.0,0.0,0.0,0.0,0.0,8913.3,0.0,55.0,5.0,245.47333333333336,1.0,0.0,0.0,0.0,0.0,0.0,1.0,0.0,0.9570000000000007,0.9570000000000007,0.0,0.0,1.0,55.0,616.79921,10000.0,85.000001,85.000001,85.000001,85.000001,395.0,0.0,0.0,0.0,1.0,166.665,51.987,51.987,47.653,47.653,34.0,-15.1125,15.234000000000002,-28.613333333333337,31.2,0.0,1782.573,-0.054999999999999716,100.0,28.308,28.378,42.855000000000004,43.294,0.0,1.0,100.0,0.0,0.0,0.0,0.0,3173.875,3035.4,4207.5,4268.8,305.27366666666666,304.90775,314.64625,314.1435,22.0056,20.6167,21.9301,21.4516,314.999998,314.999998,324.999988,324.999988,99.56185714285715,99.50756666666666,99.56642857142857,99.54668571428572,0.07833333333333359,-0.06833333333333313,-0.10299999999999998,0.11983333333333324,-0.04999999999999716,-0.041666666666671404,1.4943333333333333,1.4929999999999999,38.535,29.854666666666667,38.063,35.0725,56.337,35.1785,59.332499999999996,52.415,54.837,34.471000000000004,57.9285,50.7445,54.599999999999994,34.1905,57.8425,50.153,-0.08050000000000002,-0.07950000000000013,0.10192000000000001,0.10549000000000001,0.0,213.555,213.54500000000002,210.2866666666667,210.2866666666667,0.0,0.0
20,0.0,1.0,0.0,1.0,1.0,0.0,0.0,1.0,0.0,100.0,1.0,1.1856,26.0,0.0,0.0,0.0,59.999996,0.0,26.0,26.0,26.0,26.0,0.01200000000000001,0.2612000000000001,-0.0018000000000000002,292.282,-1.84545,-1.759,-1.5324,-1.5907,-208.67000000000002,215.5025,190.574,0.0,0.0,0.0,0.0,0.04053333333333331,-5.498166666666667,-5.498166666666667,-0.5532,-0.8546666666666667,0.007555555555555538,-1.04,68.325,0.0017000000000000001,-0.2242,0.0779999999999994,100.0,1.0,1.0,210.64666666666668,0.0,0.0,0.0,0.0,0.0,0.0,0.0,8928.5,0.0,55.0,5.0,245.94333333333333,0.0,0.0,0.0,0.0,0.0,0.0,0.0,0.0,1.004999999999999,1.004999999999999,0.0,0.0,0.0,55.0,616.79921,10000.0,85.000001,85.000001,85.000001,85.000001,395.0,0.0,0.0,0.0,1.0,333.33500000000004,52.521,52.521,47.18,47.18,34.0,-16.2475,14.735999999999997,-29.47,29.0825,0.0,1782.523,-0.08499999999999908,100.0,27.881,28.088,43.458,43.699,0.0,1.0,100.0,0.0,0.0,0.0,0.0,3141.5,3017.0,4183.5,4116.0,305.50966666666665,305.098,314.65475,314.4875,22.0146,20.6219,21.9401,21.4603,314.999998,314.999998,324.999988,324.999988,99.56187142857142,99.50756666666666,99.56655714285715,99.54682857142858,0.06866666666666665,-0.06499999999999995,-0.11883333333333335,0.1060000000000001,-0.04333333333332945,-0.036666666666668846,1.4776666666666667,1.4825,38.591,29.887,38.125,35.126999999999995,56.321,35.214,59.371,52.475,54.822,34.5045,57.9645,50.8025,54.584,34.2235,57.876,50.209666666666664,-0.07650000000000001,-0.06950000000000012,0.10479500000000001,0.112375,0.0,213.93,213.91500000000002,210.64666666666668,210.64666666666668,0.0,0.0
21,0.0,1.0,0.0,1.0,1.0,0.0,0.0,1.0,0.0,100.0,1.0,1.1856,26.0,0.0,0.0,0.0,59.999996,0.0,26.0,26.0,26.0,26.0,0.013777777777777889,0.26550000000000007,-0.04995,292.618,-1.8151,-1.7674,-1.57715,-1.5471,-205.39,215.4975,190.5525,0.0,0.0,0.0,0.0,0.04246666666666654,-5.498166666666667,-5.498166666666667,-0.5732,0.07333333333333333,-0.005555555555555536,-0.7229999999999999,68.451,-0.0045000000000000005,-0.22407500000000002,0.020000000000000462,100.0,1.0,1.0,211.2,0.0,0.0,0.0,0.0,0.0,0.0,0.0,8952.0,0.0,55.0,5.0,246.39666666666665,1.0,0.0,0.0,0.0,0.0,0.0,0.0,0.0,1.0530000000000008,1.0530000000000008,0.0,0.0,1.0,55.0,616.79921,10000.0,85.000001,85.000001,85.000001,85.000001,395.0,0.0,0.0,0.0,1.0,333.33500000000004,52.399,52.399,48.004,48.004,34.0,-16.169999999999998,15.145999999999997,-28.6,27.14,0.0,1782.475,-0.17499999999999893,100.0,27.963,27.949,43.096000000000004,43.253,0.0,1.0,100.0,0.0,0.0,0.0,0.0,3226.625,3048.0,4059.75,3989.1000000000004,305.212,305.05875,315.0245,314.9635,22.0238,20.6272,21.9497,21.4688,314.999998,314.999998,324.999988,324.999988,99.56187142857142,99.50758333333333,99.56668571428571,99.54697142857142,0.07500000000000018,-0.06066666666666665,-0.11883333333333335,0.1116666666666668,-0.041666666666671404,-0.03499999999999659,1.556,1.5685,38.649,29.92,38.186,35.1795,56.306,35.2495,59.405,52.5305,54.808,34.538,57.9965,50.856,54.568,34.2565,57.905,50.262,-0.08850000000000002,-0.062000000000000055,0.10247,0.112155,0.0,214.325,214.31,211.2,211.2,0.0,0.0
22,0.0,1.0,0.0,1.0,1.0,0.0,0.0,1.0,0.0,100.0,1.0,1.1856,26.0,0.0,0.0,0.0,59.999996,0.0,26.0,26.0,26.0,26.0,0.0040000000000000036,0.28200000000000003,-0.0049250000000000006,292.297,-1.8678,-1.7365,-1.5949,-1.5344,-201.89999999999998,215.4925,190.528875,0.0,0.0,0.0,0.0,0.044499999999999984,-5.498166666666667,-5.498166666666667,-0.5569000000000001,0.061,0.004222222222222127,0.9790000000000001,68.59,-0.0064,-0.199725,-0.10200000000000031,100.0,1.0,1.0,211.46666666666667,0.0,0.0,0.0,0.0,0.0,0.0,0.0,8963.3,0.0,55.0,5.0,246.89333333333335,0.0,0.0,0.0,0.0,0.0,0.0,0.0,0.0,1.1039999999999992,1.1039999999999992,0.0,0.0,0.0,55.0,616.79921,10000.0,85.000001,85.000001,85.000001,85.000001,395.0,0.0,0.0,0.0,1.0,333.33500000000004,52.658,52.658,47.18,47.18,34.0,-15.149999999999999,15.334,-30.5,30.3875,0.0,1782.423,-0.2400000000000002,100.0,28.139,27.853,43.274,43.201,0.0,1.0,100.0,0.0,0.0,0.0,0.0,3013.0,3108.3,4248.25,4370.8,305.767,305.0805,314.49975,314.11775,22.0335,20.6328,21.9601,21.477899999999998,314.999998,314.999998,324.999988,324.999988,99.56188571428571,99.50758333333333,99.56684285714286,99.54711428571429,0.08300000000000018,-0.05433333333333312,-0.11249999999999993,0.11299999999999999,-0.03833333333332689,-0.03499999999999659,1.5006666666666666,1.5,38.709,29.954666666666668,38.251000000000005,35.237,56.291,35.288,59.445,52.5925,54.793,34.5745,58.033500000000004,50.9155,54.552,34.292,57.939,50.32066666666667,-0.09550000000000003,-0.05699999999999994,0.10673,0.10982000000000001,0.0,214.765,214.765,211.46666666666667,211.46666666666667,0.0,0.0
23,0.0,1.0,0.0,1.0,1.0,0.0,0.0,1.0,0.0,100.0,1.0,1.1856,26.0,0.0,0.0,0.0,59.999996,0.0,26.0,26.0,26.0,26.0,-0.007444444444444476,0.26370000000000005,0.0056,292.084,-1.74025,-1.7986,-1.6456,-1.5133,-198.19,215.4875,190.503875,0.0,0.0,0.0,0.0,0.046633333333333304,-5.498166666666667,-5.498166666666667,-0.5736,-0.22633333333333336,0.000888888888888939,0.7010000000000001,68.732,0.0013000000000000002,-0.22475,-0.20999999999999996,100.0,1.0,1.0,211.96333333333334,0.0,0.0,0.0,0.0,0.0,0.0,0.0,8984.4,0.0,55.0,5.0,247.41,1.0,0.0,0.0,0.0,0.0,0.0,0.0,0.0,1.1580000000000013,1.1580000000000013,0.0,0.0,1.0,55.0,616.79921,10000.0,85.000001,85.000001,85.000001,85.000001,395.0,0.0,0.0,0.0,1.0,166.665,51.926,51.926,47.623,47.623,34.0,-14.942499999999999,16.432,-29.796666666666667,28.97,0.0,1782.371,-0.14000000000000057,100.0,28.408,27.994,43.416,43.446,0.0,1.0,100.0,0.0,0.0,0.0,0.0,3192.625,3168.7,4169.875,4162.5,305.0283333333333,304.76825,314.74925,314.612,22.0438,20.6388,21.9712,21.4876,314.999998,314.999998,324.999988,324.999988,99.5619,99.50758333333333,99.567,99.54725714285715,0.08466666666666667,-0.05366666666666675,-0.10199999999999998,0.1266666666666667,-0.036666666666668846,-0.051666666666669414,1.5223333333333335,1.5274999999999999,38.774,29.992333333333335,38.32,35.298,56.275,35.3285,59.4865,52.658500000000004,54.778,34.613,58.0725,50.979,54.536,34.329499999999996,57.9745,50.382666666666665,-0.08999999999999997,-0.06750000000000012,0.10482500000000002,0.11273500000000002,0.0,215.18,215.2,211.96333333333334,211.96333333333334,0.0,0.0
24,0.0,1.0,0.0,1.0,1.0,0.0,0.0,1.0,0.0,100.0,1.0,1.1856,26.0,0.0,0.0,0.0,59.999996,0.0,26.0,26.0,26.0,26.0,0.008333333333333304,0.2794000000000001,-0.0291,292.419,-1.78905,-1.7738,-1.54665,-1.5376,-195.09,215.48250000000002,190.48275,0.0,0.0,0.0,0.0,0.04843333333333333,-5.498166666666667,-5.498166666666667,-0.5828,-0.2956666666666667,0.012222222222222134,-0.21799999999999997,68.852,0.0059,-0.22085000000000002,-0.137999999999999,100.0,1.0,1.0,212.31,0.0,0.0,0.0,0.0,0.0,0.0,0.0,8999.0,0.0,55.0,5.0,247.84,0.0,0.0,0.0,0.0,0.0,0.0,0.0,0.0,1.2029999999999994,1.2029999999999994,0.0,0.0,0.0,55.0,616.79921,10000.0,85.000001,85.000001,85.000001,85.000001,395.0,0.0,0.0,0.0,1.0,166.665,52.75,52.75,47.363,47.363,34.0,-15.0425,14.771999999999998,-29.07333333333333,28.665,0.0,1782.326,-0.125,100.0,28.048000000000002,27.961,43.268,43.503,0.0,1.0,100.0,0.0,0.0,0.0,0.0,3061.0,2973.2,4250.625,4139.0,305.663,305.26425,314.50025,314.5905,22.0523,20.6436,21.9804,21.4957,314.999998,314.999998,324.999988,324.999988,99.5619,99.5076,99.56712857142857,99.5474,0.07399999999999984,-0.06166666666666676,-0.09966666666666657,0.11549999999999994,-0.04333333333332945,-0.026666666666670835,1.5156666666666667,1.5230000000000001,38.827,30.022666666666666,38.376999999999995,35.348,56.260999999999996,35.361,59.5205,52.7125,54.763999999999996,34.6435,58.1035,51.031,54.521,34.36,58.003,50.43333333333334,-0.09050000000000002,-0.0645,0.10208,0.10540500000000001,0.0,215.535,215.56,212.31,212.31,0.0,0.0
25,0.0,1.0,0.0,1.0,1.0,0.0,0.0,1.0,0.0,100.0,1.0,1.1856,26.0,0.0,0.0,0.0,59.999996,0.0,26.0,26.0,26.0,26.0,0.007222222222222241,0.26490000000000014,-0.032525,292.282,-1.8469,-1.7505000000000002,-1.5694,-1.5402,-191.57999999999998,215.48000000000002,190.4575,0.0,0.0,0.0,0.0,0.05049999999999999,-5.498166666666667,-5.498166666666667,-0.6026,-0.05566666666666666,0.020444444444444265,0.2589999999999999,68.986,0.006,-0.218975,-0.1120000000000001,100.0,1.0,1.0,212.78333333333333,0.0,0.0,0.0,0.0,0.0,0.0,0.0,9019.2,0.0,55.0,5.0,248.32,1.0,0.0,0.0,0.0,0.0,0.0,0.0,0.0,1.2540000000000013,1.2540000000000013,0.0,0.0,1.0,55.0,616.79921,10000.0,85.000001,85.000001,85.000001,85.000001,395.0,0.0,0.0,0.0,1.0,333.33500000000004,51.956,51.956,47.791,47.791,34.0,-15.8525,16.887999999999998,-26.906666666666666,29.235,0.0,1782.274,-0.1850000000000005,100.0,28.043,27.983,43.143,43.245000000000005,0.0,1.0,100.0,0.0,0.0,0.0,0.0,3213.125,3318.8,3988.875,4145.9,305.164,304.37125,315.1475,314.643,22.061799999999998,20.6493,21.9907,21.5048,314.999998,314.999998,324.999988,324.999988,99.56191428571428,99.5076,99.56727142857143,99.54754285714286,0.08866666666666667,-0.05133333333333323,-0.09633333333333338,0.12783333333333324,-0.041666666666671404,-0.04833333333333201,1.5503333333333333,1.537,38.885999999999996,30.058,38.442,35.405,56.244,35.3995,59.557,52.7725,54.748000000000005,34.6795,58.138,51.089,54.504000000000005,34.3955,58.034,50.49,-0.09199999999999997,-0.0645,0.10129,0.107965,0.0,215.97500000000002,215.95499999999998,212.78333333333333,212.78333333333333,0.0,0.0
26,0.0,1.0,0.0,1.0,1.0,0.0,0.0,1.0,0.0,100.0,1.0,1.1856,26.0,0.0,0.0,0.0,59.999996,0.0,26.0,26.0,26.0,26.0,0.016111111111111187,0.2895000000000001,0.066875,291.29,-1.7783,-1.8265,-1.5508000000000002,-1.5426,-188.06,215.475,190.431875,0.0,0.0,0.0,0.0,0.05253333333333332,-5.498166666666667,-5.498166666666667,-0.5743,0.5116666666666667,0.004666666666666597,-0.7329999999999999,69.122,0.0057,-0.20097500000000001,-0.14200000000000035,100.0,1.0,1.0,212.99,0.0,0.0,0.0,0.0,0.0,0.0,0.0,9027.9,0.0,55.0,5.0,248.81,0.0,0.0,0.0,0.0,0.0,0.0,0.0,0.0,1.3049999999999997,1.3049999999999997,0.0,0.0,0.0,55.0,616.79921,10000.0,85.000001,85.000001,85.000001,85.000001,395.0,0.0,0.0,0.0,1.0,333.33500000000004,51.62,51.62,46.463,46.463,34.0,-15.3325,15.824000000000002,-32.17333333333333,31.755,0.0,1782.222,-0.23499999999999943,100.0,28.740000000000002,28.739,43.528,43.748000000000005,0.0,1.0,100.0,0.0,0.0,0.0,0.0,3252.125,3020.3,4523.0,4472.0,305.0953333333333,305.0045,313.87625,313.76825,22.0716,20.6551,22.0012,21.5141,314.999998,314.999998,324.999988,324.999988,99.56192857142857,99.50761666666666,99.56741428571429,99.5477,0.08800000000000008,-0.057333333333333236,-0.10766666666666658,0.1120000000000001,-0.05833333333333002,-0.046666666666666856,1.444,1.4405000000000001,38.948,30.09433333333333,38.507,35.463,56.232,35.439,59.597,52.836,54.736000000000004,34.717,58.175,51.1495,54.489999999999995,34.432,58.068,50.54966666666667,-0.10050000000000003,-0.05750000000000011,0.10443500000000001,0.10570500000000001,0.0,216.43,216.42000000000002,212.99,212.99,0.0,0.0
27,0.0,1.0,0.0,1.0,1.0,0.0,0.0,1.0,0.0,100.0,1.0,1.1856,26.0,0.0,0.0,0.0,59.999996,0.0,26.0,26.0,26.0,26.0,0.035666666666666735,0.2583,-0.0236,291.779,-1.80015,-1.7645,-1.6085,-1.6184,-184.74,215.4725,190.40875,0.0,0.0,0.0,0.0,0.05446666666666655,-5.498166666666667,-5.498166666666667,-0.5936,-0.8903333333333334,0.009777777777777885,-0.71,69.24600000000001,0.008700000000000001,-0.23705,-0.16999999999999993,100.0,1.0,1.0,213.48666666666668,0.0,0.0,0.0,0.0,0.0,0.0,0.0,9048.9,0.0,55.0,5.0,249.26,1.0,0.0,0.0,0.0,0.0,0.0,0.0,0.0,1.352999999999998,1.352999999999998,0.0,0.0,1.0,55.0,616.79921,10000.0,85.000001,85.000001,85.000001,85.000001,395.0,0.0,0.0,0.0,1.0,166.665,52.002,52.002,46.631,46.631,34.0,-14.432500000000001,15.411999999999999,-29.656666666666666,29.3975,0.0,1782.176,-0.21499999999999986,100.0,28.396,28.634,44.038,44.203,0.0,1.0,100.0,0.0,0.0,0.0,0.0,3109.25,3095.7,4179.375,4044.7,305.5473333333333,304.86,314.751,314.7225,22.0806,20.6604,22.0111,21.5229,314.999998,314.999998,324.999988,324.999988,99.56194285714285,99.50761666666666,99.56755714285714,99.54784285714285,0.0950000000000002,-0.06166666666666676,-0.10549999999999993,0.11883333333333335,-0.03499999999999659,-0.04333333333332945,1.4936666666666667,1.4965,39.004000000000005,30.127666666666666,38.57,35.518,56.217,35.475,59.6355,52.8955,54.722,34.751,58.211,51.2065,54.474999999999994,34.4655,58.101,50.605333333333334,-0.10399999999999998,-0.06750000000000012,0.10715000000000001,0.10384,0.0,216.76,216.76,213.48666666666668,213.48666666666668,0.0,0.0
28,0.0,1.0,0.0,1.0,1.0,0.0,0.0,1.0,0.0,100.0,1.0,1.1856,26.0,0.0,0.0,0.0,59.999996,0.0,26.0,26.0,26.0,26.0,0.01766666666666672,0.2682,-0.050075,292.007,-1.7796,-1.7601,-1.62415,-1.5689000000000002,-181.2,215.4675,190.383375,0.0,0.0,0.0,0.0,0.056533333333333324,-5.498166666666667,-5.498166666666667,-0.6025,0.5663333333333334,0.0029999999999998916,0.5150000000000001,69.376,0.008700000000000001,-0.218425,-0.22999999999999954,100.0,1.0,1.0,214.00666666666666,0.0,0.0,0.0,0.0,0.0,0.0,0.0,9070.9,0.0,55.0,5.0,249.72666666666666,0.0,0.0,0.0,0.0,0.0,0.0,0.0,0.0,1.404,1.404,0.0,0.0,0.0,55.0,616.79921,10000.0,85.000001,85.000001,85.000001,85.000001,395.0,0.0,0.0,0.0,1.0,166.665,51.865,51.865,47.531,47.531,34.0,-13.7075,16.742,-27.89666666666666,29.21,0.0,1782.125,-0.3149999999999995,100.0,28.627,28.39,43.497,43.685,0.0,1.0,100.0,0.0,0.0,0.0,0.0,3087.5,3194.8,4055.0,4122.4,305.40133333333335,304.72925,315.0765,314.71075,22.0902,20.6662,22.0213,21.5319,314.999998,314.999998,324.999988,324.999988,99.56195714285714,99.50763333333333,99.5677,99.54798571428572,0.10666666666666647,-0.04166666666666674,-0.09333333333333338,0.1253333333333333,-0.036666666666668846,-0.05666666666667197,1.5583333333333333,1.5615,39.064,30.163666666666664,38.632999999999996,35.5745,56.203,35.5135,59.67,52.954,54.708,34.7875,58.243,51.2635,54.46,34.5015,58.129999999999995,50.660666666666664,-0.10949999999999993,-0.062000000000000055,0.10737500000000001,0.10661500000000002,0.0,217.195,217.20499999999998,214.00666666666666,214.00666666666666,0.0,0.0
29,0.0,1.0,0.0,1.0,1.0,0.0,0.0,1.0,0.0,100.0,1.0,1.1856,26.0,0.0,0.0,0.0,59.999996,0.0,26.0,26.0,26.0,26.0,0.036555555555555674,0.26580000000000004,0.007050000000000001,291.794,-1.76485,-1.8147000000000002,-1.5713,-1.5495,-177.66,215.465,190.357,0.0,0.0,0.0,0.0,0.058566666666666545,-5.498166666666667,-5.498166666666667,-0.6023000000000001,-0.6553333333333334,-0.0009999999999998899,-0.812,69.512,0.0105,-0.2126,-0.266,100.0,1.0,1.0,214.2266666666667,0.0,0.0,0.0,0.0,0.0,0.0,0.0,9080.3,0.0,55.0,5.0,250.21666666666667,1.0,0.0,0.0,0.0,0.0,0.0,0.0,0.0,1.4549999999999983,1.4549999999999983,0.0,0.0,1.0,55.0,616.79921,10000.0,85.000001,85.000001,85.000001,85.000001,395.0,0.0,0.0,0.0,1.0,333.33500000000004,52.307,52.307,46.661,46.661,34.0,-14.059999999999999,15.902000000000001,-29.799999999999997,30.4875,0.0,1782.073,-0.3249999999999993,100.0,28.099,28.381,43.763,44.044,0.0,1.0,100.0,0.0,0.0,0.0,0.0,3131.5,3033.0,4261.0,4271.5,305.53133333333335,304.99825,314.4945,314.2185,22.0997,20.6718,22.0318,21.5412,314.999998,314.999998,324.999988,324.999988,99.56197142857143,99.50763333333333,99.56785714285714,99.54812857142858,0.09699999999999998,-0.05466666666666664,-0.10183333333333333,0.11883333333333335,-0.03166666666666629,-0.03833333333332689,1.4803333333333333,1.468,39.123000000000005,30.198999999999998,38.699,35.632999999999996,56.188,35.5505,59.710499999999996,53.016999999999996,54.693,34.8225,58.281,51.324,54.444,34.5355,58.164500000000004,50.71966666666667,-0.10499999999999998,-0.06099999999999994,0.10619,0.10725000000000001,0.0,217.575,217.585,214.2266666666667,214.2266666666667,0.0,0.0
30,0.0,1.0,0.0,1.0,1.0,0.0,0.0,1.0,0.0,100.0,1.0,1.1856,26.0,0.0,0.0,0.0,59.999996,0.0,26.0,26.0,26.0,26.0,0.05566666666666675,0.25560000000000005,0.0063750000000000005,291.229,-1.78075,-1.7026,-1.5447000000000002,-1.6044,-174.32,215.465,190.332125,0.0,0.0,0.0,0.0,0.06053333333333333,-5.498166666666667,-5.498166666666667,-0.6081,0.6893333333333334,-0.0013333333333331865,-0.44500000000000006,69.632,0.014100000000000001,-0.22055000000000002,-0.32399999999999984,100.0,1.0,1.0,214.73666666666668,0.0,0.0,0.0,0.0,0.0,0.0,0.0,9101.9,0.0,55.0,5.0,250.65333333333334,0.0,0.0,0.0,0.0,0.0,0.0,1.0,0.0,1.5030000000000001,1.5030000000000001,0.0,0.0,0.0,55.0,616.79921,10000.0,85.000001,85.000001,85.000001,85.000001,395.0,0.0,0.0,0.0,1.0,333.33500000000004,50.522,50.522,47.302,47.302,34.0,-15.614999999999998,16.526,-27.310000000000002,29.9375,0.0,1782.024,-0.28999999999999915,100.0,28.994,29.04,43.544,43.987,0.0,1.0,100.0,0.0,0.0,0.0,0.0,3425.125,3298.9,4092.75,4079.4,304.47066666666666,304.0585,314.9725,314.68375,22.1089,20.6774,22.0415,21.5499,314.999998,314.999998,324.999988,324.999988,99.56198571428571,99.50765,99.568,99.54828571428571,0.1030000000000002,-0.052000000000000046,-0.09383333333333332,0.12916666666666687,-0.04999999999999716,-0.03833333333332689,1.5293333333333334,1.5065,39.18,30.234,38.76,35.687,56.176,35.591,59.747,53.0775,54.682,34.861000000000004,58.314499999999995,51.382,54.431,34.573,58.195,50.776666666666664,-0.11049999999999993,-0.056499999999999995,0.10533500000000001,0.11324500000000001,0.0,217.985,218.005,214.73666666666668,214.73666666666668,0.0,0.0
31,0.0,1.0,0.0,1.0,1.0,0.0,0.0,1.0,0.0,100.0,1.0,1.1856,26.0,0.0,0.0,0.0,59.999996,0.0,26.0,26.0,26.0,26.0,0.013555555555555543,0.2563,0.06705,290.771,-1.8674,-1.7296,-1.6431499999999999,-1.4976,-170.76,215.4625,190.306125,0.0,0.0,0.0,0.0,0.06259999999999999,-5.498166666666667,-5.498166666666667,-0.5867,-0.36033333333333334,0.01288888888888895,0.823,69.767,0.017,-0.2175,-0.29799999999999915,100.0,1.0,1.0,214.92333333333335,0.0,0.0,0.0,0.0,0.0,0.0,0.0,9109.8,0.0,55.0,5.0,251.13333333333333,1.0,0.0,0.0,0.0,0.0,0.0,1.0,0.0,1.5539999999999985,1.5539999999999985,0.0,0.0,1.0,55.0,616.79921,10000.0,85.000001,85.000001,85.000001,85.000001,395.0,0.0,0.0,0.0,1.0,333.33500000000004,51.208,51.208,45.578,45.578,34.0,-14.442499999999999,17.226,-31.376666666666665,32.535,0.0,1781.974,-0.3650000000000002,100.0,29.017,29.047,44.425,44.641999999999996,0.0,1.0,100.0,0.0,0.0,0.0,0.0,3113.25,3341.0,4343.875,4465.3,305.4526666666667,304.38325,314.2055,313.7785,22.1184,20.6833,22.0521,21.5594,314.999998,314.999998,324.999988,324.999988,99.562,99.50765,99.56814285714286,99.54842857142857,0.1113333333333335,-0.04200000000000004,-0.09166666666666656,0.13650000000000007,-0.03166666666666629,-0.030000000000001137,1.428,1.4255,39.239999999999995,30.270666666666664,38.826,35.746,56.164,35.628,59.786500000000004,53.138999999999996,54.669,34.896,58.3515,51.4415,54.418,34.6075,58.229,50.834666666666664,-0.10749999999999993,-0.058499999999999996,0.109795,0.10510000000000001,0.0,218.385,218.39499999999998,214.92333333333335,214.92333333333335,0.0,0.0
32,0.0,1.0,0.0,1.0,1.0,0.0,0.0,1.0,0.0,100.0,1.0,1.1856,26.0,0.0,0.0,0.0,59.999996,0.0,26.0,26.0,26.0,26.0,0.04066666666666685,0.264,-0.022425,291.26,-1.7943,-1.7864,-1.5826,-1.554,-167.2,215.4625,190.28075,0.0,0.0,0.0,0.0,0.06466666666666654,-5.498166666666667,-5.498166666666667,-0.6052000000000001,-0.24866666666666667,-0.012222222222222356,-0.996,69.894,0.0207,-0.23087500000000002,-0.3620000000000001,100.0,1.0,1.0,215.46333333333334,0.0,0.0,0.0,0.0,0.0,0.0,0.0,9132.7,0.0,55.0,5.0,251.59333333333336,0.0,0.0,0.0,0.0,0.0,0.0,1.0,0.0,1.6050000000000004,1.6050000000000004,0.0,0.0,0.0,55.0,616.79921,10000.0,85.000001,85.000001,85.000001,85.000001,395.0,0.0,0.0,0.0,1.0,166.665,51.498,51.498,46.448,46.448,34.0,-14.05,16.414,-28.836666666666666,31.087500000000002,0.0,1781.924,-0.3249999999999993,100.0,28.777,29.081,44.19,44.565,0.0,1.0,100.0,0.0,0.0,0.0,0.0,3200.125,3081.7,4200.0,4271.8,305.279,304.8965,314.6525,314.3445,22.1279,20.6891,22.0625,21.5686,314.999998,314.999998,324.999988,324.999988,99.56201428571428,99.50766666666667,99.56828571428571,99.54857142857144,0.1120000000000001,-0.04299999999999993,-0.09250000000000003,0.135,-0.041666666666671404,-0.041666666666671404,1.5093333333333332,1.505,39.299,30.307000000000002,38.891,35.804,56.15,35.6665,59.823499999999996,53.2,54.656,34.9325,58.385999999999996,51.4995,54.403,34.6435,58.26,50.891666666666666,-0.11299999999999999,-0.05600000000000005,0.10867,0.10569500000000001,0.0,218.78,218.785,215.46333333333334,215.46333333333334,0.0,0.0
33,0.0,1.0,0.0,1.0,1.0,0.0,0.0,1.0,0.0,100.0,1.0,1.1856,26.0,0.0,0.0,0.0,59.999996,0.0,26.0,26.0,26.0,26.0,0.04888888888888898,0.26880000000000015,-0.05915,291.534,-1.8254,-1.7947000000000002,-1.5899,-1.5911,-163.85,215.465,190.25575,0.0,0.0,0.0,0.0,0.06659999999999999,-5.498166666666667,-5.498166666666667,-0.6139,-0.196,-0.01288888888888895,-0.22899999999999987,70.016,0.023100000000000002,-0.21657500000000002,-0.32399999999999984,100.0,1.0,1.0,215.85000000000002,0.0,0.0,0.0,0.0,0.0,0.0,0.0,9149.1,0.0,55.0,5.0,252.03333333333336,1.0,0.0,0.0,0.0,0.0,0.0,1.0,0.0,1.6529999999999987,1.6529999999999987,0.0,0.0,1.0,55.0,616.79921,10000.0,85.000001,85.000001,85.000001,85.000001,395.0,0.0,0.0,0.0,1.0,333.33500000000004,51.819,51.819,46.753,46.753,34.0,-14.6175,16.195999999999998,-28.426666666666662,30.465,0.0,1781.875,-0.3100000000000005,100.0,28.655,28.835,44.047,44.423,0.0,1.0,100.0,0.0,0.0,0.0,0.0,3160.25,3031.1,4161.5,4175.6,305.45433333333335,305.0585,314.79725,314.5375,22.1368,20.6945,22.0722,21.5773,314.999998,314.999998,324.999988,324.999988,99.56202857142857,99.50766666666667,99.56844285714286,99.54871428571428,0.10199999999999987,-0.04266666666666663,-0.09116666666666662,0.1283333333333332,-0.04999999999999716,-0.04833333333333201,1.5206666666666666,1.5105,39.355000000000004,30.340666666666664,38.951,35.858000000000004,56.137,35.701,59.858000000000004,53.256,54.643,34.965,58.418,51.554,54.388999999999996,34.6755,58.289,50.94466666666666,-0.10549999999999993,-0.05800000000000005,0.111185,0.10296000000000001,0.0,219.155,219.155,215.85000000000002,215.85000000000002,0.0,0.0
34,0.0,1.0,0.0,1.0,1.0,0.0,0.0,1.0,0.0,100.0,1.0,1.1856,26.0,0.0,0.0,0.0,59.999996,0.0,26.0,26.0,26.0,26.0,0.032777777777777795,0.24850000000000017,-0.074075,291.733,-1.7605,-1.7767,-1.6234000000000002,-1.5737999999999999,-160.26999999999998,215.465,190.22775,0.0,0.0,0.0,0.0,0.06869999999999998,-5.498166666666667,-5.498166666666667,-0.6388,-0.794,0.011555555555555541,0.9460000000000002,70.146,0.024800000000000003,-0.21915,-0.3420000000000005,100.0,1.0,1.0,216.22,0.0,0.0,0.0,0.0,0.0,0.0,0.0,9164.8,0.0,55.0,5.0,252.49666666666667,0.0,0.0,0.0,0.0,0.0,0.0,1.0,0.0,1.7040000000000006,1.7040000000000006,0.0,0.0,0.0,55.0,616.79921,10000.0,85.000001,85.000001,85.000001,85.000001,395.0,0.0,0.0,0.0,1.0,333.33500000000004,52.261,52.261,46.997,46.997,34.0,-12.7275,16.212,-28.066666666666663,31.0975,0.0,1781.825,-0.28500000000000014,100.0,28.525,28.451999999999998,43.995000000000005,44.447,0.0,1.0,100.0,0.0,0.0,0.0,0.0,2998.125,3025.9,4114.375,4223.6,305.754,305.17575,314.88175,314.44,22.1461,20.7001,22.0825,21.5866,314.999998,314.999998,324.999988,324.999988,99.56202857142857,99.50768333333333,99.56858571428572,99.54887142857143,0.11299999999999999,-0.03600000000000003,-0.08216666666666661,0.13683333333333336,-0.030000000000001137,-0.06333333333333258,1.5226666666666666,1.5030000000000001,39.413,30.375666666666667,39.016,35.916,56.122,35.7365,59.894,53.318,54.628,34.9985,58.452,51.6135,54.373000000000005,34.7085,58.3195,51.00266666666667,-0.10499999999999998,-0.05699999999999994,0.10298500000000001,0.10399000000000001,0.0,219.51999999999998,219.55,216.22,216.22,0.0,0.0
35,0.0,1.0,0.0,1.0,1.0,0.0,0.0,1.0,0.0,100.0,1.0,1.1856,26.0,0.0,0.0,0.0,59.999996,0.0,26.0,26.0,26.0,26.0,0.053888888888888875,0.24760000000000004,-0.053700000000000005,291.687,-1.8271,-1.7153,-1.5401,-1.5836999999999999,-156.69,215.47,190.197875,0.0,0.0,0.0,0.0,0.07076666666666653,-5.498166666666667,-5.498166666666667,-0.6787000000000001,-0.219,-0.004666666666666597,-1.291,70.272,0.025,-0.2275,-0.20399999999999974,100.0,1.0,1.0,216.69666666666666,0.0,0.0,0.0,0.0,0.0,0.0,0.0,9185.0,0.0,55.0,5.0,252.95333333333335,1.0,0.0,0.0,0.0,0.0,0.0,1.0,0.0,1.754999999999999,1.754999999999999,0.0,0.0,1.0,55.0,616.79921,10000.0,85.000001,85.000001,85.000001,85.000001,395.0,0.0,0.0,0.0,1.0,333.33500000000004,51.62,51.62,46.692,46.692,34.0,-14.462499999999999,16.83,-27.07,29.7375,0.0,1781.772,-0.19500000000000028,100.0,28.217,28.881,43.702,44.047,0.0,1.0,100.0,0.0,0.0,0.0,0.0,3184.25,3299.8,4127.75,4027.1000000000004,305.366,304.24975,314.935,314.9795,22.1554,20.706,22.0928,21.5957,314.999998,314.999998,324.999988,324.999988,99.56205714285714,99.50768333333333,99.56872857142857,99.54901428571429,0.10866666666666669,-0.046333333333333115,-0.08750000000000002,0.14666666666666672,-0.054999999999999716,-0.03833333333332689,1.5556666666666668,1.538,39.471000000000004,30.412333333333336,39.08,35.973,56.105000000000004,35.775,59.9295,53.3755,54.613,35.035,58.4845,51.669,54.355999999999995,34.7445,58.349000000000004,51.057,-0.09799999999999998,-0.06899999999999995,0.110505,0.10688,0.0,219.945,219.95,216.69666666666666,216.69666666666666,0.0,0.0
36,0.0,1.0,0.0,1.0,1.0,0.0,0.0,1.0,0.0,100.0,1.0,1.1856,26.0,0.0,0.0,0.0,59.999996,0.0,26.0,26.0,26.0,26.0,0.04322222222222227,0.258,0.055775000000000005,291.046,-1.73815,-1.8252000000000002,-1.64415,-1.5619,-153.1,215.4725,190.166625,0.0,0.0,0.0,0.0,0.07286666666666652,-5.498166666666667,-5.498166666666667,-0.6617000000000001,0.121,-0.04844444444444429,0.27300000000000013,70.403,0.019,-0.2029,-0.21399999999999952,100.0,1.0,1.0,216.89666666666668,0.0,0.0,0.0,0.0,0.0,0.0,0.0,9193.4,0.0,55.0,5.0,253.42333333333335,0.0,0.0,0.0,0.0,0.0,0.0,1.0,0.0,1.806000000000001,1.806000000000001,0.0,0.0,0.0,55.0,616.79921,10000.0,85.000001,85.000001,85.000001,85.000001,395.0,0.0,0.0,0.0,1.0,166.665,51.59,51.59,46.31,46.31,34.0,-12.93,17.074,-31.18,34.042500000000004,0.0,1781.724,-0.15499999999999936,100.0,29.017,28.796,44.01,44.239000000000004,0.0,1.0,100.0,0.0,0.0,0.0,0.0,3043.625,3132.0,4368.875,4514.0,305.45166666666665,304.8545,314.246,313.78625,22.1649,20.7119,22.1032,21.605,314.999998,314.999998,324.999988,324.999988,99.56207142857143,99.50768333333333,99.56887142857143,99.54917142857143,0.1113333333333335,-0.04200000000000004,-0.08716666666666661,0.14149999999999996,-0.036666666666668846,-0.04333333333332945,1.4453333333333334,1.438,39.531,30.448999999999998,39.144999999999996,36.0315,56.092,35.814,59.967,53.4375,54.599999999999994,35.072,58.519999999999996,51.729,54.342,34.7805,58.381,51.11566666666667,-0.09250000000000003,-0.0665,0.1053,0.10856500000000001,0.0,220.36,220.365,216.89666666666665,216.89666666666668,0.0,0.0
