,ABS Active,ABS Enabled,AID Allow Tire Blankets,AID Auto Blip,AID Auto Clutch,AID Auto Shift,AID Fuel Rate,AID Ideal Line,AID Mech Damage,AID Stability,AID Tire Wear Rate,Air Density,Air Temp,Ballast,Best Lap Delta,Best Lap Time,Brake Bias,Brake Pos,Brake Temp FL,Brake Temp FR,Brake Temp RL,Brake Temp RR,CG Accel Lateral,CG Accel Longitudinal,CG Accel Vertical,CG Height,Camber FL,Camber FR,Camber RL,Camber RR,Car Coord X,Car Coord Y,Car Coord Z,Car Damage Front,Car Damage Left,Car Damage Rear,Car Damage Right,Car Pos Norm,Caster FL,Caster FR,Chassis Pitch Angle,Chassis Pitch Rate,Chassis Roll Angle,Chassis Roll Rate,Chassis Velocity X,Chassis Velocity Y,Chassis Velocity Z,Chassis Yaw Rate,Clutch Pos,DRS Active,DRS Available,Drive Train Speed,ERS Heat Charging,ERS Is Charging,ERS Max Energy,ERS Power Level,ERS Recovery Level,Engine Brake Setting,Engine Limiter,Engine RPM,Flags,Fuel Level,Gear,Ground Speed,HR Sample Clock,In Pit,KERS Charge,KERS Deployed Energy,KERS Input,KERS Max Energy,LR Sample Clock,Lap Invalidated,Lap Time,Lap Time2,Last Lap Time,Last Sector Time,MR Sample Clock,Max Fuel,Max Power,Max RPM,Max Sus Travel FL,Max Sus Travel FR,Max Sus Travel RL,Max Sus Travel RR,Max Torque,Max Turbo Boost,Num Tires Off Track,Penalties Enabled,Position,Raw Data Sample Rate,Ride Height FL,Ride Height FR,Ride Height RL,Ride Height RR,Road Temp,Self Align Torque FL,Self Align Torque FR,Self Align Torque RL,Self Align Torque RR,Session Lap Count,Session Time Left,Steering Angle,Surface Grip,Suspension Travel FL,Suspension Travel FR,Suspension Travel RL,Suspension Travel RR,TC Active,TC Enabled,Throttle Pos,Tire Dirt Level FL,Tire Dirt Level FR,Tire Dirt Level RL,Tire Dirt Level RR,Tire Load FL,Tire Load FR,Tire Load RL,Tire Load RR,Tire Loaded Radius FL,Tire Loaded Radius FR,Tire Loaded Radius RL,Tire Loaded Radius RR,Tire Pressure FL,Tire Pressure FR,Tire Pressure RL,Tire Pressure RR,Tire Radius FL,Tire Radius FR,Tire Radius RL,Tire Radius RR,Tire Rubber Grip FL,Tire Rubber Grip FR,Tire Rubber Grip RL,Tire Rubber Grip RR,Tire Slip Angle FL,Tire Slip Angle FR,Tire Slip Angle RL,Tire Slip Angle RR,Tire Slip Ratio FL,Tire Slip Ratio FR,Tire Slip Ratio RL,Tire Slip Ratio RR,Tire Temp Core FL,Tire Temp Core FR,Tire Temp Core RL,Tire Temp Core RR,Tire Temp Inner FL,Tire Temp Inner FR,Tire Temp Inner RL,Tire Temp Inner RR,Tire Temp Middle FL,Tire Temp Middle FR,Tire Temp Middle RL,Tire Temp Middle RR,Tire Temp Outer FL,Tire Temp Outer FR,Tire Temp Outer RL,Tire Temp Outer RR,Toe In FL,Toe In FR,Toe In RL,Toe In RR,Turbo Boost,Wheel Angular Speed FL,Wheel Angular Speed FR,Wheel Angular Speed RL,Wheel Angular Speed RR,Wind Direction,Wind Speed
0,0.0,1.0,0.0,1.0,1.0,0.0,0.0,1.0,0.0,100.0,1.0,1.1856,26.0,0.0,0.0,0.0,59.99999,0.0,26.0,26.0,26.0,26.0,-0.04325000000000001,-0.36449999999999994,-0.011225,294.006,-2.8114,-2.758,-1.5185000000000002,-1.5518750000000001,-275.52,216.305,190.986625,0.0,0.0,0.0,0.0,0.0016666666666666668,-5.498166666666667,-5.498166666666667,-0.5684,0.19033333333333335,-0.004125000000000156,-0.587,65.209,-0.05389999999999995,-0.228475,0.7200000000000006,100.0,1.0,1.0,198.23666666666668,0.0,0.0,0.0,0.0,0.0,0.0,0.0,9720.6,0.0,55.0,0.0,234.79333333333335,0.0,0.0,0.0,0.0,0.0,0.0,0.0,0.0,0.006000000000000227,0.006000000000000227,0.0,0.0,0.0,55.0,616.79921,10000.0,85.0,85.0,85.0,85.0,395.0,0.0,0.0,0.0,1.0,20.0,52.032,52.032,50.018,50.018,34.0,-58.775000000000006,67.205,-32.446666666666665,25.8375,0.0,1783.433,-0.125,100.0,27.341,26.668,40.542,40.559,0.0,1.0,0.0,0.0,0.0,0.0,0.0,3230.666666666667,3696.2,3879.714285714286,3742.1000000000004,305.1155,303.087,315.40066666666667,315.479,22.024625,20.5577,21.7286,21.2761,314.99999,314.99999,324.99998,324.99998,99.5752,99.51221666666666,99.56331428571428,99.5438,-0.9852000000000001,0.9736,-0.15833333333333335,0.04616666666666667,0.006666666666667709,-0.047142857142851824,-0.01633333333333331,0.014499999999999957,38.653999999999996,29.485500000000002,36.804,33.976,63.18,36.670500000000004,58.45,51.1335,60.561,35.649,57.1035,49.5205,59.402,35.1095,57.074,48.958,0.9516666666666667,0.9736666666666665,0.09122000000000001,0.10034000000000001,0.0,204.37,204.29500000000002,198.23666666666668,198.235,0.0,0.0
1,0.0,1.0,0.0,1.0,1.0,0.0,0.0,1.0,0.0,100.0,1.0,1.1856,26.0,0.0,0.0,0.0,59.999996,0.0,26.0,26.0,26.0,26.0,-0.11024999999999996,0.27760000000000007,0.186175,292.908,-2.7181,-2.84925,-1.5173,-1.5395,-272.2,216.3,190.9665,0.0,0.0,0.0,0.0,0.003633333333333334,-5.498166666666667,-5.498166666666667,-0.5355,0.34566666666666657,-0.05525000000000002,-1.443,65.2,-0.040999999999999925,-0.23965,1.0700000000000003,100.0,1.0,1.0,201.05,0.0,0.0,0.0,0.0,0.0,0.0,0.0,8521.7,0.0,55.0,5.0,234.69333333333333,1.0,0.0,0.0,0.0,0.0,0.0,0.0,0.0,0.05699999999999861,0.05699999999999861,0.0,0.0,1.0,55.0,616.79921,10000.0,85.000001,85.000001,85.000001,85.000001,395.0,0.0,0.0,0.0,1.0,333.33500000000004,52.277,52.277,49.132999999999996,49.132999999999996,34.0,-60.167500000000004,49.153333333333336,-33.35333333333334,28.7525,0.0,1783.38,0.7199999999999989,100.0,28.456,27.719,41.747,41.11,0.0,1.0,100.0,0.0,0.0,0.0,0.0,3271.666666666667,2852.2,4331.428571428572,4589.4,304.9985,305.60975,314.29266666666666,313.421,22.036625,20.5639,21.739,21.2849,314.999998,314.999998,324.999988,324.999988,99.57532857142857,99.51233333333333,99.56341428571429,99.54388571428571,-1.0348,0.9086000000000001,-0.169,0.04933333333333334,-0.0833333333333286,-0.06571428571428584,1.419,1.457,38.729,29.5245,36.869,34.031,63.215,36.7625,58.4685,51.1685,60.594,35.734,57.1205,49.5545,59.43,35.19,57.089,48.99133333333333,1.0133333333333336,0.9033333333333333,0.108105,0.104385,0.0,204.255,204.15,201.05,201.05,0.0,0.0
2,0.0,1.0,0.0,1.0,1.0,0.0,0.0,1.0,0.0,100.0,1.0,1.1856,26.0,0.0,0.0,0.0,59.999996,0.0,26.0,26.0,26.0,26.0,-0.16012499999999996,0.27970000000000006,-0.143125,293.991,-2.6898,-2.8912500000000003,-1.4827000000000001,-1.606,-268.87,216.29250000000002,190.94825,0.0,0.0,0.0,0.0,0.005566666666666667,-5.498166666666667,-5.498166666666667,-0.5476,0.22166666666666657,-0.048875000000000224,2.5810000000000004,65.337,-0.05599999999999994,-0.25930000000000003,1.9179999999999993,100.0,1.0,1.0,201.87,0.0,0.0,0.0,0.0,0.0,0.0,0.0,8556.6,0.0,55.0,5.0,235.18666666666667,0.0,0.0,0.0,0.0,0.0,0.0,0.0,0.0,0.10800000000000054,0.10800000000000054,0.0,0.0,0.0,55.0,616.79921,10000.0,85.000001,85.000001,85.000001,85.000001,395.0,0.0,0.0,0.0,1.0,166.665,52.78,52.78,50.446,50.446,34.0,-58.197500000000005,48.086666666666666,-29.703333333333333,20.8575,0.0,1783.331,0.36999999999999744,100.0,28.55,27.142,42.114000000000004,40.935,0.0,1.0,100.0,0.0,0.0,0.0,0.0,3179.333333333333,2791.7,3805.714285714286,3736.7,305.081,305.999,315.45233333333334,315.61925,22.048625,20.569499999999998,21.7494,21.2936,314.999998,314.999998,324.999988,324.999988,99.57545714285715,99.51241666666667,99.56355714285715,99.54401428571428,-1.0068,0.9436,-0.2175,0.0155,-0.07666666666666799,-0.10000000000000142,1.6019999999999999,1.6755,38.804,29.5595,36.934,34.085,63.248000000000005,36.8405,58.5105,51.227000000000004,60.623999999999995,35.805,57.1595,49.6105,59.457,35.257999999999996,57.125,49.04633333333334,0.9873333333333334,0.935,0.10747000000000001,0.10944000000000001,0.0,204.69,204.55,201.87,201.8725,0.0,0.0
3,0.0,1.0,0.0,1.0,1.0,0.0,0.0,1.0,0.0,100.0,1.0,1.1856,26.0,0.0,0.0,0.0,59.999996,0.0,26.0,26.0,26.0,26.0,-0.11099999999999999,0.31479999999999997,0.043575,293.823,-2.8311,-2.77775,-1.5164,-1.573125,-265.73,216.2825,190.929875,0.0,0.0,0.0,0.0,0.007366666666666667,-5.498166666666667,-5.498166666666667,-0.5239,0.08933333333333338,0.004249999999999865,0.2869999999999999,65.473,-0.0847,-0.20850000000000002,1.0760000000000005,100.0,1.0,1.0,202.07,0.0,0.0,0.0,0.0,0.0,0.0,0.0,8565.0,0.0,55.0,5.0,235.67333333333335,1.0,0.0,0.0,0.0,0.0,0.0,0.0,0.0,0.1559999999999988,0.1559999999999988,0.0,0.0,1.0,55.0,616.79921,10000.0,85.000001,85.000001,85.000001,85.000001,395.0,0.0,0.0,0.0,1.0,166.665,53.513,53.513,48.888999999999996,48.888999999999996,34.0,-51.04,49.65166666666667,-32.84,23.675,0.0,1783.283,0.03999999999999915,100.0,27.912,27.102,41.925,41.005,0.0,1.0,100.0,0.0,0.0,0.0,0.0,2836.0,2890.8,4126.714285714285,4168.0,306.264,305.65475,314.7303333333333,314.516,22.059375,20.5749,21.759,21.3018,314.999998,314.999998,324.999988,324.999988,99.57557142857142,99.51251666666667,99.56368571428571,99.54415714285715,-1.0171999999999999,0.9328,-0.20583333333333334,0.013333333333333334,-0.046666666666666856,-0.07857142857142918,1.5386666666666666,1.574,38.870999999999995,29.593,36.994,34.135999999999996,63.269,36.917500000000004,58.5475,51.286,60.643,35.876,57.194,49.667500000000004,59.474000000000004,35.3255,57.157,49.102333333333334,0.9649999999999999,0.9626666666666663,0.10202000000000001,0.111015,0.0,205.07,204.99,202.07,202.07,0.0,0.0
4,0.0,1.0,0.0,1.0,1.0,0.0,0.0,1.0,0.0,100.0,1.0,1.1856,26.0,0.0,0.0,0.0,59.999996,0.0,26.0,26.0,26.0,26.0,-0.13312499999999994,0.2724,0.020775000000000002,293.73199999999997,-2.7661,-2.8206249999999997,-1.5337,-1.5805,-262.39,216.26749999999998,190.91,0.0,0.0,0.0,0.0,0.009333333333333334,-5.498166666666667,-5.498166666666667,-0.5534,-0.4853333333333334,-0.06687500000000002,-2.075,65.613,-0.07479999999999998,-0.243375,0.8940000000000001,100.0,1.0,1.0,202.57,0.0,0.0,0.0,0.0,0.0,0.0,0.0,8586.2,0.0,55.0,5.0,236.18,0.0,0.0,0.0,0.0,0.0,0.0,0.0,0.0,0.20700000000000074,0.20700000000000074,0.0,0.0,0.0,55.0,616.79921,10000.0,85.000001,85.000001,85.000001,85.000001,395.0,0.0,0.0,0.0,1.0,333.33500000000004,52.856,52.856,49.088,49.088,34.0,-60.7425,50.406666666666666,-32.35333333333334,21.62,0.0,1783.231,0.46999999999999886,100.0,27.736,27.137,42.225,41.203,0.0,1.0,100.0,0.0,0.0,0.0,0.0,3297.333333333333,2914.9,4117.571428571428,3710.0,305.0655,305.40225,314.783,315.56025,22.070875,20.5808,21.7694,21.3106,314.999998,314.999998,324.999988,324.999988,99.57568571428571,99.51263333333333,99.56382857142857,99.54428571428572,-1.0502,0.9106000000000001,-0.19666666666666666,0.034333333333333334,-0.07333333333333059,-0.07000000000000028,1.5713333333333332,1.599,38.943,29.63,37.059,34.191,63.294,37.0005,58.59,51.347,60.666,35.952,57.234,49.7255,59.494,35.397999999999996,57.1945,49.159,0.9950000000000001,0.9359999999999999,0.11061000000000001,0.11012500000000001,0.0,205.47,205.405,202.57,202.57,0.0,0.0
5,0.0,1.0,0.0,1.0,1.0,0.0,0.0,1.0,0.0,100.0,1.0,1.1856,26.0,0.0,0.0,0.0,59.999996,0.0,26.0,26.0,26.0,26.0,-0.14100000000000001,0.2811000000000001,-0.026025,293.9,-2.7598000000000003,-2.86475,-1.5031,-1.585,-259.04,216.25,190.89,0.0,0.0,0.0,0.0,0.011266666666666668,-5.498166666666667,-5.498166666666667,-0.5396000000000001,0.3963333333333333,-0.08137499999999998,1.0270000000000001,65.752,-0.07579999999999998,-0.2215,1.2919999999999998,100.0,1.0,1.0,202.97,0.0,0.0,0.0,0.0,0.0,0.0,0.0,8603.1,0.0,55.0,5.0,236.68,1.0,0.0,0.0,0.0,0.0,0.0,0.0,0.0,0.2579999999999991,0.2579999999999991,0.0,0.0,1.0,55.0,616.79921,10000.0,85.000001,85.000001,85.000001,85.000001,395.0,0.0,0.0,0.0,1.0,333.33500000000004,53.574,53.574,49.301,49.301,34.0,-55.7575,47.965,-32.51,23.145,0.0,1783.179,0.0,100.0,27.96,26.67,42.278,40.879,0.0,1.0,100.0,0.0,0.0,0.0,0.0,3072.0,2791.0,4137.142857142857,4040.0,305.5135,306.01925,314.728,314.85,22.082625,20.5865,21.7797,21.3192,314.999998,314.999998,324.999988,324.999988,99.57581428571429,99.51273333333333,99.56397142857143,99.54442857142857,-1.0024,0.9442,-0.199,0.018000000000000002,-0.060000000000002274,-0.060000000000002274,1.5183333333333333,1.588,39.016999999999996,29.666,37.123000000000005,34.245,63.326,37.0815,58.632,51.4055,60.696,36.0265,57.2735,49.7815,59.519,35.4685,57.231,49.214,0.9670000000000001,0.9616666666666664,0.105425,0.10973500000000001,0.0,205.95499999999998,205.835,202.97,202.97,0.0,0.0
6,0.0,1.0,0.0,1.0,1.0,0.0,0.0,1.0,0.0,100.0,1.0,1.1856,26.0,0.0,0.0,0.0,59.999996,0.0,26.0,26.0,26.0,26.0,-0.105375,0.30269999999999997,-0.019100000000000002,293.839,-2.7371,-2.8922499999999998,-1.5509000000000002,-1.57325,-255.68,216.22750000000002,190.86975,0.0,0.0,0.0,0.0,0.013233333333333335,-5.498166666666667,-5.498166666666667,-0.5359,0.15000000000000002,-0.06075000000000008,-0.5089999999999999,65.891,-0.08499999999999996,-0.21915,0.9820000000000011,100.0,1.0,1.0,203.41333333333333,0.0,0.0,0.0,0.0,0.0,0.0,0.0,8621.9,0.0,55.0,5.0,237.18,0.0,0.0,0.0,0.0,0.0,0.0,0.0,0.0,0.30900000000000105,0.30900000000000105,0.0,0.0,0.0,55.0,616.79921,10000.0,85.000001,85.000001,85.000001,85.000001,395.0,0.0,0.0,0.0,1.0,166.665,53.375,53.375,49.225,49.225,34.0,-57.5275,50.43666666666667,-32.86666666666666,21.8975,0.0,1783.13,-0.6599999999999966,100.0,27.552,26.749,42.254,41.178,0.0,1.0,100.0,0.0,0.0,0.0,0.0,3181.666666666667,2860.1,4060.285714285714,3953.4,305.323,305.53875,314.97866666666664,314.99375,22.094375,20.5923,21.7901,21.328,314.999998,314.999998,324.999988,324.999988,99.57592857142858,99.51283333333333,99.56411428571428,99.54455714285714,-0.9936,0.9614,-0.21466666666666667,0.007833333333333333,-0.0799999999999983,-0.08571428571428186,1.559,1.604,39.089,29.701999999999998,37.188,34.3,63.354,37.165,58.6735,51.4675,60.721000000000004,36.1025,57.312,49.841,59.541,35.541,57.2665,49.272,0.927,1.0096666666666665,0.11006,0.10908500000000002,0.0,206.375,206.275,203.41333333333333,203.4125,0.0,0.0
7,0.0,1.0,0.0,1.0,1.0,0.0,0.0,1.0,0.0,100.0,1.0,1.1856,26.0,0.0,0.0,0.0,59.999996,0.0,26.0,26.0,26.0,26.0,-0.09799999999999998,0.27500000000000013,0.024425000000000002,293.564,-2.705,-2.8355,-1.5058,-1.56575,-252.51,216.20499999999998,190.850625,0.0,0.0,0.0,0.0,0.015066666666666666,-5.498166666666667,-5.498166666666667,-0.5362,-0.01100000000000012,-0.0558749999999999,-0.403,66.022,-0.07350000000000001,-0.22310000000000002,0.5540000000000003,100.0,1.0,1.0,203.75333333333333,0.0,0.0,0.0,0.0,0.0,0.0,0.0,8636.4,0.0,55.0,5.0,237.65333333333334,1.0,0.0,0.0,0.0,0.0,0.0,0.0,0.0,0.3569999999999993,0.3569999999999993,0.0,0.0,1.0,55.0,616.79921,10000.0,85.000001,85.000001,85.000001,85.000001,395.0,0.0,0.0,0.0,1.0,166.665,53.101,53.101,49.225,49.225,34.0,-59.5075,51.736666666666665,-32.013333333333335,23.4975,0.0,1783.082,-0.9050000000000011,100.0,27.592,26.679000000000002,42.278999999999996,41.394,0.0,1.0,100.0,0.0,0.0,0.0,0.0,3302.166666666667,2922.3,4104.142857142857,4033.6000000000004,304.9185,305.42225,314.82,314.7735,22.105249999999998,20.5978,21.7999,21.3364,314.999998,314.999998,324.999988,324.999988,99.57604285714285,99.51293333333334,99.56424285714286,99.5447,-0.9595999999999998,0.9886,-0.19633333333333336,0.026333333333333334,-0.086666666666666,-0.06285714285714761,1.5363333333333333,1.552,39.158,29.7365,37.248999999999995,34.352000000000004,63.378,37.245,58.7125,51.525999999999996,60.742999999999995,36.1765,57.3485,49.897,59.561,35.611,57.3005,49.327,0.891,1.0363333333333333,0.10588,0.10346000000000001,0.0,206.76999999999998,206.685,203.75333333333333,203.755,0.0,0.0
8,0.0,1.0,0.0,1.0,1.0,0.0,0.0,1.0,0.0,100.0,1.0,1.1856,26.0,0.0,0.0,0.0,59.999996,0.0,26.0,26.0,26.0,26.0,-0.04662500000000003,0.28790000000000004,0.0405,293.823,-2.773,-2.82575,-1.4884000000000002,-1.549,-249.14,216.18,190.830125,0.0,0.0,0.0,0.0,0.017033333333333334,-5.498166666666667,-5.498166666666667,-0.5378000000000001,-0.5680000000000001,-0.03437499999999982,1.009,66.161,-0.054400000000000004,-0.2157,-0.1479999999999997,100.0,1.0,1.0,204.12666666666667,0.0,0.0,0.0,0.0,0.0,0.0,0.0,8652.1,0.0,55.0,5.0,238.15333333333334,0.0,0.0,0.0,0.0,0.0,0.0,0.0,0.0,0.40800000000000125,0.40800000000000125,0.0,0.0,0.0,55.0,616.79921,10000.0,85.000001,85.000001,85.000001,85.000001,395.0,0.0,0.0,0.0,1.0,333.33500000000004,53.955,53.955,48.507999999999996,48.507999999999996,34.0,-51.0225,52.769999999999996,-29.7,26.2725,0.0,1783.031,-1.0750000000000028,100.0,27.317,26.478,42.397999999999996,41.4,0.0,1.0,100.0,0.0,0.0,0.0,0.0,2902.666666666667,2978.3,4116.285714285715,4152.7,306.0705,305.445,314.67566666666664,314.5225,22.11675,20.6037,21.810200000000002,21.3452,314.999998,314.999998,324.999988,324.999988,99.57615714285714,99.51305,99.5644,99.54484285714285,-0.9341999999999999,1.0174,-0.1495,0.066,-0.07166666666666544,-0.08857142857142719,1.541,1.522,39.230000000000004,29.773,37.314,34.4075,63.399,37.3315,58.754,51.5875,60.762,36.2555,57.387,49.956,59.577,35.687,57.336,49.38466666666667,0.8770000000000002,1.0566666666666666,0.10065,0.106645,0.0,207.16,207.135,204.12666666666667,204.125,0.0,0.0
9,0.0,1.0,0.0,1.0,1.0,0.0,0.0,1.0,0.0,100.0,1.0,1.1856,26.0,0.0,0.0,0.0,59.999996,0.0,26.0,26.0,26.0,26.0,-0.04062500000000002,0.2711000000000001,0.030075,293.579,-2.7784,-2.820125,-1.5528000000000002,-1.547625,-245.96,216.1525,190.8105,0.0,0.0,0.0,0.0,0.018866666666666667,-5.498166666666667,-5.498166666666667,-0.5468000000000001,0.595,-0.030124999999999957,0.665,66.288,-0.027599999999999958,-0.21980000000000002,-0.24799999999999933,100.0,1.0,1.0,204.66333333333333,0.0,0.0,0.0,0.0,0.0,0.0,0.0,8674.9,0.0,55.0,5.0,238.60666666666668,1.0,0.0,0.0,0.0,0.0,0.0,0.0,0.0,0.4559999999999995,0.4559999999999995,0.0,0.0,1.0,55.0,616.79921,10000.0,85.000001,85.000001,85.000001,85.000001,395.0,0.0,0.0,0.0,1.0,166.665,52.734,52.734,49.652,49.652,34.0,-58.332499999999996,55.721666666666664,-27.656666666666666,26.565,0.0,1782.983,-1.0499999999999972,100.0,27.731,26.973,41.977000000000004,41.437,0.0,1.0,100.0,0.0,0.0,0.0,0.0,3261.666666666667,3095.1,3908.142857142857,4039.4,304.978,305.00925,315.321,314.86275,22.12775,20.6094,21.8198,21.3535,314.999998,314.999998,324.999988,324.999988,99.57625714285714,99.51316666666666,99.56452857142857,99.54497142857143,-0.9132,1.037,-0.13583333333333333,0.0955,-0.06666666666666998,-0.08285714285714363,1.5936666666666666,1.5845,39.298,29.808500000000002,37.373999999999995,34.459,63.421,37.4185,58.789500000000004,51.644,60.782,36.335499999999996,57.42,50.0105,59.594,35.763,57.3665,49.438,0.8743333333333334,1.052,0.11223500000000002,0.10447000000000001,0.0,207.55,207.54000000000002,204.66333333333333,204.66250000000002,0.0,0.0
10,0.0,1.0,0.0,1.0,1.0,0.0,0.0,1.0,0.0,100.0,1.0,1.1856,26.0,0.0,0.0,0.0,59.999996,0.0,26.0,26.0,26.0,26.0,0.010499999999999954,0.2795000000000001,0.052575000000000004,293.396,-2.7491,-2.8112500000000002,-1.5257,-1.5326250000000001,-242.38,216.1225,190.78875,0.0,0.0,0.0,0.0,0.020966666666666668,-5.498166666666667,-5.498166666666667,-0.5212,-0.5473333333333332,0.0058749999999998526,1.92,66.436,-0.006799999999999917,-0.20802500000000002,-0.41799999999999926,100.0,1.0,1.0,204.89,0.0,0.0,0.0,0.0,0.0,0.0,0.0,8684.5,0.0,55.0,5.0,239.14,0.0,0.0,0.0,0.0,0.0,0.0,1.0,0.0,0.509999999999998,0.509999999999998,0.0,0.0,0.0,55.0,616.79921,10000.0,85.000001,85.000001,85.000001,85.000001,395.0,0.0,0.0,0.0,1.0,166.665,53.833,53.833,48.111,48.111,34.0,-48.16,52.79833333333333,-28.82,29.5975,0.0,1782.929,-1.3900000000000006,100.0,27.588,26.873,42.498000000000005,42.179,0.0,1.0,100.0,0.0,0.0,0.0,0.0,2807.0,2944.3,4208.0,4278.6,306.298,305.55025,314.46133333333336,314.2325,22.14,20.6157,21.8309,21.363,314.999998,314.999998,324.999988,324.999988,99.57638571428572,99.51328333333333,99.56467142857143,99.54511428571429,-0.8734000000000002,1.0722,-0.10416666666666667,0.11166666666666668,-0.06833333333332803,-0.0799999999999983,1.4976666666666667,1.49,39.375,29.8485,37.443,34.519,63.441,37.515,58.8345,51.7125,60.801,36.424,57.462,50.076,59.61,35.847,57.4055,49.50233333333333,0.8540000000000001,1.076,0.10243500000000001,0.10721000000000001,0.0,208.01999999999998,207.995,204.89,204.89,0.0,0.0
11,0.0,1.0,0.0,1.0,1.0,0.0,0.0,1.0,0.0,100.0,1.0,1.1856,26.0,0.0,0.0,0.0,59.999996,0.0,26.0,26.0,26.0,26.0,0.03600000000000003,0.25890000000000013,-0.059625000000000004,293.915,-2.8055,-2.7815000000000003,-1.5537,-1.511875,-239.19,216.0975,190.769375,0.0,0.0,0.0,0.0,0.022600000000000002,-5.498166666666667,-5.498166666666667,-0.5631,-0.3400000000000001,0.04149999999999987,0.577,66.559,0.010499999999999954,-0.23950000000000002,-0.8140000000000001,100.0,1.0,1.0,205.58666666666667,0.0,0.0,0.0,0.0,0.0,0.0,0.0,8714.0,0.0,55.0,5.0,239.58666666666667,1.0,0.0,0.0,0.0,0.0,0.0,1.0,0.0,0.5579999999999998,0.5579999999999998,0.0,0.0,1.0,55.0,616.79921,10000.0,85.000001,85.000001,85.000001,85.000001,395.0,0.0,0.0,0.0,1.0,333.33500000000004,53.177,53.177,49.713,49.713,34.0,-51.625,57.913333333333334,-22.58,27.165,0.0,1782.879,-1.3100000000000023,100.0,27.308,27.172,41.953,42.186,0.0,1.0,100.0,0.0,0.0,0.0,0.0,2963.666666666667,3179.8,3605.285714285714,3879.7,305.879,304.76475,316.036,315.2115,22.15075,20.6216,21.8404,21.3714,314.999998,314.999998,324.999988,324.999988,99.57647142857142,99.5134,99.56481428571429,99.54524285714285,-0.8844000000000001,1.0746,-0.08166666666666668,0.14633333333333334,-0.07166666666666544,-0.09714285714284898,1.6480000000000001,1.6179999999999999,39.442,29.8845,37.503,34.571,63.455,37.6045,58.868,51.769999999999996,60.813,36.5065,57.493,50.131,59.619,35.9255,57.4335,49.556333333333335,0.8620000000000001,1.0703333333333336,0.09910500000000001,0.11264500000000001,0.0,208.35000000000002,208.38,205.58666666666667,205.585,0.0,0.0
12,0.0,1.0,0.0,1.0,1.0,0.0,0.0,1.0,0.0,100.0,1.0,1.1856,26.0,0.0,0.0,0.0,59.999996,0.0,26.0,26.0,26.0,26.0,0.04475000000000007,0.27690000000000015,0.004725,293.396,-2.8576,-2.7807500000000003,-1.5497,-1.5150000000000001,-235.99,216.0725,190.748875,0.0,0.0,0.0,0.0,0.025466666666666665,-5.498166666666667,-5.498166666666667,-0.5487000000000001,0.31166666666666665,0.024249999999999883,0.45100000000000007,66.689,0.03320000000000012,-0.2071,-0.9260000000000002,100.0,1.0,1.0,205.76333333333332,0.0,0.0,0.0,0.0,0.0,0.0,0.0,8721.6,0.0,55.0,5.0,240.05333333333334,0.0,0.0,0.0,0.0,0.0,0.0,1.0,0.0,0.6059999999999981,0.6059999999999981,0.0,0.0,0.0,55.0,616.79921,10000.0,85.000001,85.000001,85.000001,85.000001,395.0,0.0,0.0,0.0,1.0,333.33500000000004,53.207,53.207,48.416,48.416,34.0,-52.4275,57.73833333333334,-25.913333333333334,30.927500000000002,0.0,1782.832,-1.0249999999999986,100.0,27.171,27.303,41.833,42.078,0.0,1.0,100.0,0.0,0.0,0.0,0.0,2992.333333333333,3172.1,4131.428571428572,4190.9,305.8085,304.8165,314.74966666666666,314.49,22.1615,20.6275,21.85,21.3797,314.999998,314.999998,324.999988,324.999988,99.57657142857143,99.51353333333333,99.56494285714285,99.54538571428571,-0.883,1.0776,-0.06066666666666667,0.15983333333333336,-0.051666666666669414,-0.08571428571428186,1.55,1.5225,39.509,29.9215,37.563,34.623,63.469,37.6965,58.903999999999996,51.828,60.826,36.591,57.527,50.187,59.629000000000005,36.0065,57.465,49.611333333333334,0.8836666666666666,1.0556666666666663,0.10963,0.10310000000000001,0.0,208.78,208.81,205.76333333333332,205.765,0.0,0.0
13,0.0,1.0,0.0,1.0,1.0,0.0,0.0,1.0,0.0,100.0,1.0,1.1856,26.0,0.0,0.0,0.0,59.999996,0.0,26.0,26.0,26.0,26.0,0.07200000000000006,0.26460000000000017,0.026325,293.045,-2.8351,-2.7746250000000003,-1.6197000000000001,-1.502375,-232.57999999999998,216.0475,190.72725,0.0,0.0,0.0,0.0,0.026633333333333332,-5.498166666666667,-5.498166666666667,-0.5404,-0.02866666666666684,0.02200000000000002,-0.5720000000000001,66.825,0.04400000000000004,-0.213375,-0.6239999999999997,100.0,1.0,1.0,206.13,0.0,0.0,0.0,0.0,0.0,0.0,0.0,8737.2,0.0,55.0,5.0,240.54333333333335,1.0,0.0,0.0,0.0,0.0,0.0,1.0,0.0,0.657,0.657,0.0,0.0,1.0,55.0,616.79921,10000.0,85.000001,85.000001,85.000001,85.000001,395.0,0.0,0.0,0.0,1.0,333.33500000000004,52.917,52.917,48.416,48.416,34.0,-54.0775,56.075,-27.743333333333336,31.41,0.0,1782.781,-1.4649999999999963,100.0,27.354,27.63,41.969,42.617000000000004,0.0,1.0,100.0,0.0,0.0,0.0,0.0,3132.666666666667,3052.7,4185.714285714285,4245.7,305.541,304.99175,314.6963333333333,314.25375,22.173000000000002,20.6338,21.8604,21.3888,314.999998,314.999998,324.999988,324.999988,99.57667142857143,99.51366666666667,99.56508571428571,99.54552857142858,-0.8468,1.1048,-0.06833333333333333,0.1565,-0.05833333333333002,-0.07714285714285296,1.521,1.487,39.581,29.9615,37.628,34.6795,63.485,37.795,58.9445,51.8925,60.84,36.6815,57.564499999999995,50.249,59.641,36.0925,57.499,49.672333333333334,0.8526666666666665,1.0823333333333336,0.10594500000000001,0.10558500000000001,0.0,209.195,209.21,206.13,206.1325,0.0,0.0
14,0.0,1.0,0.0,1.0,1.0,0.0,0.0,1.0,0.0,100.0,1.0,1.1856,26.0,0.0,0.0,0.0,59.999996,0.0,26.0,26.0,26.0,26.0,0.08062499999999995,0.27380000000000004,-0.01405,293.259,-2.8218,-2.726,-1.6227,-1.509125,-229.17000000000002,216.0225,190.70625,0.0,0.0,0.0,0.0,0.028633333333333334,-5.498166666666667,-5.498166666666667,-0.5508000000000001,-0.17166666666666686,0.04987499999999989,1.439,66.958,0.04740000000000011,-0.22840000000000002,-0.8520000000000003,100.0,1.0,1.0,206.61333333333334,0.0,0.0,0.0,0.0,0.0,0.0,0.0,8757.6,0.0,55.0,5.0,241.01999999999998,0.0,0.0,0.0,0.0,0.0,0.0,1.0,0.0,0.7079999999999984,0.7079999999999984,0.0,0.0,0.0,55.0,616.79921,10000.0,85.000001,85.000001,85.000001,85.000001,395.0,0.0,0.0,0.0,1.0,333.33500000000004,52.979,52.979,48.66,48.66,34.0,-49.8,59.056666666666665,-25.133333333333333,31.2225,0.0,1782.73,-1.7550000000000026,100.0,27.486,27.486,42.047,42.685,0.0,1.0,100.0,0.0,0.0,0.0,0.0,2924.0,3213.3,3942.857142857143,4177.2,305.961,304.70875,315.2056666666667,314.519,22.184375,20.6401,21.8707,21.3978,314.999998,314.999998,324.999988,324.999988,99.57677142857143,99.5138,99.56522857142858,99.54567142857142,-0.8174000000000001,1.1234000000000002,-0.0555,0.17116666666666666,-0.06499999999999773,-0.09142857142856542,1.568,1.548,39.652,30.000500000000002,37.692,34.736,63.498999999999995,37.894999999999996,58.9825,51.956,60.852999999999994,36.772999999999996,57.5995,50.3105,59.65,36.18,57.5315,49.73233333333333,0.8300000000000001,1.0903333333333336,0.10749,0.10914000000000001,0.0,209.60500000000002,209.63,206.61333333333334,206.6125,0.0,0.0
15,0.0,1.0,0.0,1.0,1.0,0.0,0.0,1.0,0.0,100.0,1.0,1.1856,26.0,0.0,0.0,0.0,59.999996,0.0,26.0,26.0,26.0,26.0,0.09987499999999994,0.28300000000000014,-0.00135,293.259,-2.7974,-2.685125,-1.6215000000000002,-1.449625,-225.96,216.0025,190.686,0.0,0.0,0.0,0.0,0.030500000000000003,-5.498166666666667,-5.498166666666667,-0.5438000000000001,0.3753333333333334,0.080125,1.395,67.083,0.05800000000000005,-0.2126,-1.1279999999999992,100.0,1.0,1.0,206.99333333333334,0.0,0.0,0.0,0.0,0.0,0.0,0.0,8773.7,0.0,55.0,5.0,241.47333333333336,1.0,0.0,0.0,0.0,0.0,0.0,1.0,0.0,0.7560000000000002,0.7560000000000002,0.0,0.0,1.0,55.0,616.79921,10000.0,85.000001,85.000001,85.000001,85.000001,395.0,0.0,0.0,0.0,1.0,166.665,53.055,53.055,48.751999999999995,48.751999999999995,34.0,-47.675,58.935,-24.169999999999998,32.115,0.0,1782.683,-1.8500000000000014,100.0,27.547,27.59,41.844,42.752,0.0,1.0,100.0,0.0,0.0,0.0,0.0,2827.833333333333,3200.6,3913.142857142857,4316.7,306.198,304.7315,315.29,314.221,22.195125,20.6461,21.8803,21.4062,314.999998,314.999998,324.999988,324.999988,99.57687142857142,99.51391666666666,99.56535714285714,99.54581428571429,-0.8014000000000001,1.139,-0.0415,0.18016666666666667,-0.045000000000001705,-0.10142857142857054,1.5766666666666667,1.5385,39.72,30.038,37.751999999999995,34.789,63.510999999999996,37.9905,59.016999999999996,52.0155,60.863,36.861,57.6315,50.3675,59.659,36.2645,57.5605,49.788666666666664,0.815,1.1033333333333335,0.10734500000000001,0.1087,0.0,209.995,210.04000000000002,206.99333333333334,206.9925,0.0,0.0
16,0.0,1.0,0.0,1.0,1.0,0.0,0.0,1.0,0.0,100.0,1.0,1.1856,26.0,0.0,0.0,0.0,59.999996,0.0,26.0,26.0,26.0,26.0,0.14600000000000013,0.258,-0.053575000000000005,293.32,-2.8663,-2.703875,-1.5719,-1.44125,-222.53,215.985,190.66425,0.0,0.0,0.0,0.0,0.0325,-5.498166666666667,-5.498166666666667,-0.5594,-0.73,0.07687500000000003,-0.7150000000000001,67.217,0.07299999999999995,-0.22335000000000002,-1.4779999999999998,100.0,1.0,1.0,207.38333333333333,0.0,0.0,0.0,0.0,0.0,0.0,0.0,8790.3,0.0,55.0,5.0,241.95333333333335,0.0,0.0,0.0,0.0,0.0,0.0,1.0,0.0,0.8069999999999986,0.8069999999999986,0.0,0.0,0.0,55.0,616.79921,10000.0,85.000001,85.000001,85.000001,85.000001,395.0,0.0,0.0,0.0,1.0,333.33500000000004,53.207,53.207,48.218,48.218,34.0,-49.0275,58.48166666666667,-22.833333333333336,31.6125,0.0,1782.631,-1.5499999999999972,100.0,26.933,27.848,42.024,43.053,0.0,1.0,100.0,0.0,0.0,0.0,0.0,2897.833333333333,3163.8,3930.4285714285716,4122.7,306.2665,304.663,315.25333333333333,314.5955,22.20625,20.6525,21.8906,21.4153,314.999998,314.999998,324.999988,324.999988,99.57695714285714,99.51406666666666,99.5655,99.54595714285715,-0.827,1.1218,-0.025166666666666667,0.202,-0.036666666666668846,-0.07857142857142918,1.5763333333333334,1.5165,39.789,30.0785,37.816,34.8455,63.516,38.093,59.0565,52.079499999999996,60.867999999999995,36.9555,57.668,50.429,59.661,36.3545,57.594,49.849000000000004,0.839,1.0863333333333336,0.10830500000000001,0.10419,0.0,210.34,210.425,207.38333333333333,207.385,0.0,0.0
17,0.0,1.0,0.0,1.0,1.0,0.0,0.0,1.0,0.0,100.0,1.0,1.1856,26.0,0.0,0.0,0.0,59.999996,0.0,26.0,26.0,26.0,26.0,0.11687500000000006,0.26750000000000007,-0.040400000000000005,293.091,-2.8609,-2.66625,-1.6341,-1.495625,-219.1,215.97,190.641875,0.0,0.0,0.0,0.0,0.0345,-5.498166666666667,-5.498166666666667,-0.5539000000000001,0.6233333333333333,0.050875000000000004,0.347,67.34700000000001,0.08630000000000004,-0.20905,-1.1639999999999997,100.0,1.0,1.0,207.80666666666667,0.0,0.0,0.0,0.0,0.0,0.0,0.0,8808.2,0.0,55.0,5.0,242.42333333333335,1.0,0.0,0.0,0.0,0.0,0.0,1.0,0.0,0.8580000000000005,0.8580000000000005,0.0,0.0,1.0,55.0,616.79921,10000.0,85.000001,85.000001,85.000001,85.000001,395.0,0.0,0.0,0.0,1.0,333.33500000000004,52.933,52.933,48.538,48.538,34.0,-50.0275,56.78666666666666,-23.253333333333334,33.82,0.0,1782.58,-1.4750000000000014,100.0,27.55,28.015,41.774,42.949,0.0,1.0,100.0,0.0,0.0,0.0,0.0,2943.666666666667,3109.4,4085.1428571428573,4196.4,305.982,305.0505,314.953,314.49575,22.217624999999998,20.6591,21.9007,21.4243,314.999998,314.999998,324.999988,324.999988,99.57705714285714,99.51421666666667,99.56564285714286,99.5461,-0.8097999999999999,1.1368,0.0025,0.22166666666666665,-0.06333333333333258,-0.08714285714285097,1.58,1.5325,39.86,30.119500000000002,37.879999999999995,34.9015,63.528999999999996,38.198,59.092,52.1425,60.879999999999995,37.0525,57.701,50.4895,59.67,36.447,57.624,49.90866666666666,0.847,1.0733333333333333,0.09757,0.11128,0.0,210.815,210.875,207.80666666666667,207.8075,0.0,0.0
18,0.0,1.0,0.0,1.0,1.0,0.0,0.0,1.0,0.0,100.0,1.0,1.1856,26.0,0.0,0.0,0.0,59.999996,0.0,26.0,26.0,26.0,26.0,0.13237500000000013,0.2630000000000001,-0.055525000000000005,293.121,-2.8846,-2.6483749999999997,-1.6469,-1.42,-215.86,215.95749999999998,190.621,0.0,0.0,0.0,0.0,0.03636666666666667,-5.498166666666667,-5.498166666666667,-0.5583,-0.6153333333333333,0.07087500000000002,1.346,67.47200000000001,0.07920000000000016,-0.22012500000000002,-1.0599999999999996,100.0,1.0,1.0,208.16333333333333,0.0,0.0,0.0,0.0,0.0,0.0,0.0,8823.3,0.0,55.0,5.0,242.87333333333333,0.0,0.0,0.0,0.0,0.0,0.0,1.0,0.0,0.9059999999999988,0.9059999999999988,0.0,0.0,0.0,55.0,616.79921,10000.0,85.000001,85.000001,85.000001,85.000001,395.0,0.0,0.0,0.0,1.0,333.33500000000004,53.085,53.085,48.309,48.309,34.0,-48.69,59.52333333333334,-23.433333333333334,31.605,0.0,1782.532,-1.9099999999999966,100.0,27.297,27.77,42.228,43.363,0.0,1.0,100.0,0.0,0.0,0.0,0.0,2902.5,3234.3,3945.142857142857,4143.7,306.1735,304.76875,315.236,314.65625,22.22825,20.6652,21.9105,21.4329,314.999998,314.999998,324.999988,324.999988,99.57714285714286,99.51435,99.56577142857142,99.54624285714286,-0.7835999999999999,1.1634000000000002,-0.015666666666666666,0.20816666666666667,-0.061666666666667425,-0.08142857142856741,1.5796666666666668,1.5305,39.926,30.1575,37.941,34.9555,63.538,38.2935,59.1295,52.2035,60.887,37.1405,57.736,50.548500000000004,59.675,36.531,57.656,49.96666666666667,0.8143333333333334,1.1096666666666666,0.10445000000000002,0.10683500000000001,0.0,211.18,211.20499999999998,208.16333333333333,208.16500000000002,0.0,0.0
19,0.0,1.0,0.0,1.0,1.0,0.0,0.0,1.0,0.0,100.0,1.0,1.1856,26.0,0.0,0.0,0.0,59.999996,0.0,26.0,26.0,26.0,26.0,0.1528750000000001,0.2623,-0.016425000000000002,292.648,-2.865,-2.62775,-1.6684,-1.3956250000000001,-212.42000000000002,215.95,190.598625,0.0,0.0,0.0,0.0,0.03836666666666667,-5.498166666666667,-5.498166666666667,-0.557,0.7866666666666666,0.08424999999999994,-0.43799999999999994,67.601,0.08370000000000011,-0.2141,-1.4500000000000002,100.0,1.0,1.0,208.61,0.0,0.0,0.0,0.0,0.0,0.0,0.0,8842.3,0.0,55.0,5.0,243.33666666666664,1.0,0.0,0.0,0.0,0.0,0.0,1.0,0.0,0.9570000000000007,0.9570000000000007,0.0,0.0,1.0,55.0,616.79921,10000.0,85.000001,85.000001,85.000001,85.000001,395.0,0.0,0.0,0.0,1.0,333.33500000000004,52.094,52.094,48.416,48.416,34.0,-52.7175,61.39666666666666,-24.136666666666663,31.822499999999998,0.0,1782.481,-2.325000000000003,100.0,27.628,28.413,41.777,43.34,0.0,1.0,100.0,0.0,0.0,0.0,0.0,3136.5,3272.0,4034.285714285714,4237.4,305.525,304.33275,315.15,314.43275,22.239625,20.6719,21.9206,21.4419,314.999998,314.999998,324.999988,324.999988,99.57724285714286,99.5145,99.56591428571429,99.5464,-0.7654000000000001,1.1792,-0.015166666666666667,0.20316666666666666,-0.06833333333332803,-0.07428571428571473,1.597,1.545,39.997,30.1995,38.004000000000005,35.012,63.548,38.403,59.164500000000004,52.2665,60.897,37.2415,57.7685,50.6095,59.682,36.6275,57.6855,50.026666666666664,0.7783333333333333,1.1413333333333333,0.104815,0.102595,0.0,211.59,211.65,208.61,208.6125,0.0,0.0
20,0.0,1.0,0.0,1.0,1.0,0.0,0.0,1.0,0.0,100.0,1.0,1.1856,26.0,0.0,0.0,0.0,59.999996,0.0,26.0,26.0,26.0,26.0,0.18825000000000003,0.26670000000000016,0.035675,292.725,-2.9157,-2.691,-1.6517000000000002,-1.39775,-208.97,215.945,190.576375,0.0,0.0,0.0,0.0,0.04036666666666667,-5.498166666666667,-5.498166666666667,-0.5502,-1.0116666666666667,0.0951249999999999,0.887,67.735,0.09540000000000015,-0.21455000000000002,-2.0839999999999996,100.0,1.0,1.0,208.82333333333332,0.0,0.0,0.0,0.0,0.0,0.0,0.0,8851.3,0.0,55.0,5.0,243.82,0.0,0.0,0.0,0.0,0.0,0.0,0.0,0.0,1.0079999999999991,1.0079999999999991,0.0,0.0,0.0,55.0,616.79921,10000.0,85.000001,85.000001,85.000001,85.000001,395.0,0.0,0.0,0.0,1.0,333.33500000000004,53.299,53.299,47.104,47.104,34.0,-43.875,60.25666666666666,-24.063333333333333,35.885,0.0,1782.43,-2.6400000000000006,100.0,27.185,28.091,42.4,43.771,0.0,1.0,100.0,0.0,0.0,0.0,0.0,2697.0,3221.2,4157.142857142857,4433.0,306.8,304.69275,314.65866666666665,313.9105,22.250625,20.6785,21.931,21.4512,314.999998,314.999998,324.999988,324.999988,99.57731428571428,99.51465,99.56605714285715,99.54654285714285,-0.7384000000000002,1.2064000000000001,0.0085,0.23366666666666666,-0.05333333333332746,-0.08285714285714363,1.518,1.439,40.066,30.241,38.069,35.07,63.551,38.5105,59.2055,52.3335,60.899,37.34,57.8065,50.674,59.681,36.722,57.72,50.09,0.7563333333333335,1.169,0.10983000000000001,0.09947,0.0,211.95,212.04500000000002,208.82333333333332,208.8225,0.0,0.0
21,0.0,1.0,0.0,1.0,1.0,0.0,0.0,1.0,0.0,100.0,1.0,1.1856,26.0,0.0,0.0,0.0,59.999996,0.0,26.0,26.0,26.0,26.0,0.19799999999999995,0.262,-0.0568,293.045,-2.8421000000000003,-2.728625,-1.6808,-1.459375,-205.70999999999998,215.9475,190.555,0.0,0.0,0.0,0.0,0.04226666666666667,-5.498166666666667,-5.498166666666667,-0.5849,0.30766666666666664,0.09262499999999996,0.29899999999999993,67.852,0.1200000000000001,-0.23470000000000002,-2.33,100.0,1.0,1.0,209.49333333333334,0.0,0.0,0.0,0.0,0.0,0.0,0.0,8879.7,0.0,55.0,5.0,244.24333333333334,1.0,0.0,0.0,0.0,0.0,0.0,0.0,0.0,1.056000000000001,1.056000000000001,0.0,0.0,1.0,55.0,616.79921,10000.0,85.000001,85.000001,85.000001,85.000001,395.0,0.0,0.0,0.0,1.0,166.665,52.322,52.322,49.010999999999996,49.010999999999996,34.0,-48.6475,63.245000000000005,-19.556666666666665,33.685,0.0,1782.383,-2.4649999999999963,100.0,27.489,28.407,41.737,43.579,0.0,1.0,100.0,0.0,0.0,0.0,0.0,2942.666666666667,3335.6,3710.0,4029.2,305.9085,304.24275,315.89733333333334,314.90575,22.261125,20.6849,21.9404,21.459600000000002,314.999998,314.999998,324.999988,324.999988,99.5774,99.5148,99.5662,99.54668571428572,-0.7327999999999999,1.2098,0.0325,0.2685,-0.05666666666667197,-0.1071428571428541,1.67,1.591,40.132,30.281,38.128,35.1225,63.556,38.616,59.2365,52.3915,60.902,37.4375,57.835,50.730000000000004,59.683,36.815,57.746,50.144999999999996,0.7706666666666666,1.1516666666666664,0.11493500000000001,0.106965,0.0,212.315,212.45499999999998,209.49333333333334,209.4925,0.0,0.0
22,0.0,1.0,0.0,1.0,1.0,0.0,0.0,1.0,0.0,100.0,1.0,1.1856,26.0,0.0,0.0,0.0,59.999996,0.0,26.0,26.0,26.0,26.0,0.22012500000000013,0.25560000000000005,0.055650000000000005,292.328,-2.8362,-2.721625,-1.6196000000000002,-1.4993750000000001,-202.25,215.9525,190.531375,0.0,0.0,0.0,0.0,0.0443,-5.498166666666667,-5.498166666666667,-0.5602,0.17466666666666664,0.09624999999999995,-0.32600000000000007,67.98400000000001,0.13929999999999998,-0.20845,-1.6079999999999997,100.0,1.0,1.0,209.63,0.0,0.0,0.0,0.0,0.0,0.0,0.0,8885.5,0.0,55.0,5.0,244.71666666666667,0.0,0.0,0.0,0.0,0.0,0.0,0.0,0.0,1.1069999999999993,1.1069999999999993,0.0,0.0,0.0,55.0,616.79921,10000.0,85.000001,85.000001,85.000001,85.000001,395.0,0.0,0.0,0.0,1.0,166.665,52.292,52.292,47.546,47.546,34.0,-50.78,60.965,-22.29,37.4675,0.0,1782.332,-0.8599999999999994,100.0,27.407,28.637999999999998,41.946,43.927,0.0,1.0,100.0,0.0,0.0,0.0,0.0,2991.5,3259.8,4156.142857142857,4338.7,305.9155,304.2955,314.7513333333333,314.0335,22.27225,20.6917,21.9507,21.4688,314.999998,314.999998,324.999988,324.999988,99.5775,99.51495,99.56634285714286,99.54682857142858,-0.8108,1.1272,0.03066666666666667,0.253,-0.06333333333333258,-0.06285714285714761,1.5196666666666667,1.4655,40.202,30.3235,38.192,35.18,63.563,38.7245,59.275999999999996,52.458,60.909,37.5375,57.872,50.794,59.687,36.9105,57.778999999999996,50.20766666666667,0.875,1.0466666666666664,0.10783500000000001,0.10636500000000002,0.0,212.75,212.84,209.63,209.63,0.0,0.0
23,0.0,1.0,0.0,1.0,1.0,0.0,0.0,1.0,0.0,100.0,1.0,1.1856,26.0,0.0,0.0,0.0,59.999996,0.0,26.0,26.0,26.0,26.0,0.1336250000000001,0.25260000000000016,0.023100000000000002,292.343,-2.8528000000000002,-2.7075,-1.5903,-1.5255,-198.78,215.965,190.508125,0.0,0.0,0.0,0.0,0.0463,-5.498166666666667,-5.498166666666667,-0.5769000000000001,-0.532,0.08424999999999994,-0.014000000000000012,68.112,0.12830000000000008,-0.234825,-0.6760000000000002,100.0,1.0,1.0,210.06,0.0,0.0,0.0,0.0,0.0,0.0,0.0,8903.7,0.0,55.0,5.0,245.18,1.0,0.0,0.0,0.0,0.0,0.0,0.0,0.0,1.1580000000000013,1.1580000000000013,0.0,0.0,1.0,55.0,616.79921,10000.0,85.000001,85.000001,85.000001,85.000001,395.0,0.0,0.0,0.0,1.0,166.665,52.124,52.124,47.974000000000004,47.974000000000004,34.0,-53.9375,59.73833333333334,-21.130000000000003,35.6325,0.0,1782.281,0.23000000000000398,100.0,27.669,28.526,42.36,44.104,0.0,1.0,100.0,0.0,0.0,0.0,0.0,3075.166666666667,3276.7,3948.4285714285716,4200.1,305.646,304.442,315.1256666666667,314.36225,22.283375,20.6986,21.9609,21.478,314.999998,314.999998,324.999988,324.999988,99.57758571428572,99.51508333333334,99.56648571428572,99.54698571428571,-0.8812,1.0602,0.021333333333333333,0.24016666666666667,-0.04333333333332945,-0.08714285714285097,1.5323333333333333,1.492,40.271,30.366,38.256,35.2375,63.574,38.8275,59.314,52.524,60.919,37.6325,57.907,50.858000000000004,59.694,37.0015,57.811,50.27066666666666,0.9683333333333337,0.9463333333333335,0.10735000000000001,0.105145,0.0,213.14,213.195,210.06,210.06,0.0,0.0
24,0.0,1.0,0.0,1.0,1.0,0.0,0.0,1.0,0.0,100.0,1.0,1.1856,26.0,0.0,0.0,0.0,59.999996,0.0,26.0,26.0,26.0,26.0,0.062000000000000055,0.26460000000000017,0.001975,292.77,-2.8388,-2.734375,-1.5976000000000001,-1.498625,-195.3,215.97750000000002,190.4845,0.0,0.0,0.0,0.0,0.04833333333333333,-5.498166666666667,-5.498166666666667,-0.5782,-0.29200000000000004,0.054624999999999924,-0.7549999999999999,68.24000000000001,0.08210000000000006,-0.216125,0.6940000000000008,100.0,1.0,1.0,210.45333333333332,0.0,0.0,0.0,0.0,0.0,0.0,0.0,8920.4,0.0,55.0,5.0,245.63666666666666,0.0,0.0,0.0,0.0,0.0,0.0,0.0,0.0,1.2089999999999996,1.2089999999999996,0.0,0.0,0.0,55.0,616.79921,10000.0,85.000001,85.000001,85.000001,85.000001,395.0,0.0,0.0,0.0,1.0,166.665,53.131,53.131,47.668,47.668,34.0,-51.435,51.626666666666665,-27.849999999999998,30.21,0.0,1782.23,0.7899999999999991,100.0,27.618,28.21,42.335,43.751,0.0,1.0,100.0,0.0,0.0,0.0,0.0,2917.0,2922.0,4339.428571428572,4076.5,306.174,305.442,314.4123333333333,314.74925,22.2945,20.7052,21.9712,21.487000000000002,314.999998,314.999998,324.999988,324.999988,99.5777,99.51521666666666,99.56662857142857,99.54712857142857,-0.9404000000000001,0.9954,-0.05416666666666667,0.16866666666666666,-0.07000000000000028,-0.06142857142857139,1.5206666666666666,1.538,40.341,30.407,38.32,35.294,63.592,38.920500000000004,59.351,52.585499999999996,60.935,37.718,57.9415,50.917500000000004,59.707,37.0835,57.842,50.329,1.0220000000000002,0.9013333333333335,0.10557000000000001,0.10572500000000001,0.0,213.625,213.54000000000002,210.45333333333332,210.45499999999998,0.0,0.0
25,0.0,1.0,0.0,1.0,1.0,0.0,0.0,1.0,0.0,100.0,1.0,1.1856,26.0,0.0,0.0,0.0,59.999996,0.0,26.0,26.0,26.0,26.0,0.002375000000000016,0.24270000000000014,-0.0383,292.831,-2.813,-2.7465,-1.5809,-1.537375,-192.01999999999998,215.9925,190.461125,0.0,0.0,0.0,0.0,0.05023333333333333,-5.498166666666667,-5.498166666666667,-0.6154000000000001,-0.3596666666666668,0.03600000000000003,-1.486,68.35900000000001,0.02090000000000014,-0.2323,1.2120000000000015,100.0,1.0,1.0,210.95333333333332,0.0,0.0,0.0,0.0,0.0,0.0,0.0,8941.5,0.0,55.0,5.0,246.06666666666666,1.0,0.0,0.0,0.0,0.0,0.0,0.0,0.0,1.256999999999998,1.256999999999998,0.0,0.0,1.0,55.0,616.79921,10000.0,85.000001,85.000001,85.000001,85.000001,395.0,0.0,0.0,0.0,1.0,166.665,52.338,52.338,48.37,48.37,34.0,-57.78,56.36,-27.316666666666663,26.09,0.0,1782.182,1.0050000000000026,100.0,27.591,28.114,42.496,43.236000000000004,0.0,1.0,100.0,0.0,0.0,0.0,0.0,3182.666666666667,3182.6,3923.4285714285716,3900.6000000000004,305.4345,304.5965,315.337,315.1835,22.305,20.7114,21.9808,21.4954,314.999998,314.999998,324.999988,324.999988,99.57781428571428,99.51533333333333,99.56677142857143,99.54727142857143,-0.9982,0.9446,-0.11433333333333333,0.1105,-0.08500000000000085,-0.06285714285714761,1.5543333333333333,1.607,40.406,30.445999999999998,38.379999999999995,35.346000000000004,63.61,39.0045,59.3855,52.641,60.951,37.795500000000004,57.9735,50.9705,59.72,37.1575,57.8715,50.38133333333333,1.0416666666666665,0.8803333333333336,0.10564000000000001,0.10958000000000001,0.0,213.98000000000002,213.87,210.95333333333332,210.9525,0.0,0.0
26,0.0,1.0,0.0,1.0,1.0,0.0,0.0,1.0,0.0,100.0,1.0,1.1856,26.0,0.0,0.0,0.0,59.999996,0.0,26.0,26.0,26.0,26.0,-0.108375,0.24950000000000006,0.08745,291.733,-2.768,-2.7796250000000002,-1.5079,-1.601875,-188.53,216.0075,190.435375,0.0,0.0,0.0,0.0,0.05226666666666666,-5.498166666666667,-5.498166666666667,-0.5803,0.992,-0.03175000000000017,-0.30299999999999994,68.487,-0.036799999999999944,-0.2,1.8100000000000005,100.0,1.0,1.0,211.15,0.0,0.0,0.0,0.0,0.0,0.0,0.0,8949.9,0.0,55.0,5.0,246.52666666666664,0.0,0.0,0.0,0.0,0.0,0.0,0.0,0.0,1.3079999999999998,1.3079999999999998,0.0,0.0,0.0,55.0,616.79921,10000.0,85.000001,85.000001,85.000001,85.000001,395.0,0.0,0.0,0.0,1.0,166.665,51.528999999999996,51.528999999999996,47.18,47.18,34.0,-60.17,55.12166666666667,-34.05,27.155,0.0,1782.131,0.9650000000000034,100.0,28.959,28.311,43.175,42.987,0.0,1.0,100.0,0.0,0.0,0.0,0.0,3246.333333333333,3162.6,4405.0,4277.0,304.997,304.83075,314.1116666666667,314.3095,22.3165,20.7182,21.9912,21.5044,314.999998,314.999998,324.999988,324.999988,99.57795714285714,99.51545,99.56691428571429,99.54741428571428,-1.0206,0.9168,-0.16883333333333334,0.049,-0.06833333333332803,-0.06714285714285495,1.434,1.506,40.477999999999994,30.488500000000002,38.445,35.4025,63.641999999999996,39.0945,59.4255,52.701499999999996,60.980999999999995,37.8785,58.010999999999996,51.028999999999996,59.745999999999995,37.2365,57.906,50.438,1.033,0.8823333333333334,0.10399000000000001,0.10519500000000001,0.0,214.46,214.31,211.15,211.15,0.0,0.0
27,0.0,1.0,0.0,1.0,1.0,0.0,0.0,1.0,0.0,100.0,1.0,1.1856,26.0,0.0,0.0,0.0,59.999996,0.0,26.0,26.0,26.0,26.0,-0.14900000000000002,0.24580000000000002,0.0291,291.855,-2.7652,-2.826125,-1.5575,-1.60625,-185.04,216.01999999999998,190.411,0.0,0.0,0.0,0.0,0.0543,-5.498166666666667,-5.498166666666667,-0.5931000000000001,-1.1413333333333333,-0.06762500000000005,-0.9889999999999999,68.614,-0.08429999999999993,-0.23670000000000002,1.9079999999999995,100.0,1.0,1.0,211.53,0.0,0.0,0.0,0.0,0.0,0.0,0.0,8966.0,0.0,55.0,5.0,246.98666666666668,1.0,0.0,0.0,0.0,0.0,0.0,0.0,0.0,1.3589999999999982,1.3589999999999982,0.0,0.0,1.0,55.0,616.79921,10000.0,85.000001,85.000001,85.000001,85.000001,395.0,0.0,0.0,0.0,1.0,166.665,52.078,52.078,47.028,47.028,34.0,-62.175,50.406666666666666,-36.596666666666664,23.0625,0.0,1782.08,0.5549999999999997,100.0,28.698,28.009999999999998,44.371,43.448,0.0,1.0,100.0,0.0,0.0,0.0,0.0,3360.5,2929.2,4271.142857142857,4078.7,304.9295,305.48125,314.47,314.69825,22.327875,20.7246,22.0018,21.5135,314.999998,314.999998,324.999988,324.999988,99.57808571428572,99.51555,99.56705714285714,99.54755714285714,-1.0417999999999998,0.8937999999999999,-0.231,-0.0028333333333333335,-0.0799999999999983,-0.06428571428571672,1.455,1.5135,40.549,30.529,38.510999999999996,35.4595,63.673,39.175,59.471000000000004,52.7635,61.009,37.952,58.0535,51.088499999999996,59.769999999999996,37.3065,57.945,50.49633333333333,1.0073333333333334,0.9146666666666663,0.11002500000000001,0.10361000000000001,0.0,214.8,214.63,211.53,211.53,0.0,0.0
28,0.0,1.0,0.0,1.0,1.0,0.0,0.0,1.0,0.0,100.0,1.0,1.1856,26.0,0.0,0.0,0.0,59.999996,0.0,26.0,26.0,26.0,26.0,-0.14874999999999994,0.25550000000000006,-0.03185,292.297,-2.7283,-2.865875,-1.4932,-1.623875,-181.74,216.0275,190.3875,0.0,0.0,0.0,0.0,0.0562,-5.498166666666667,-5.498166666666667,-0.6085,0.567,-0.08662500000000017,-0.8400000000000001,68.729,-0.1147999999999999,-0.227075,1.8559999999999999,100.0,1.0,1.0,212.07,0.0,0.0,0.0,0.0,0.0,0.0,0.0,8988.9,0.0,55.0,5.0,247.4,0.0,0.0,0.0,0.0,0.0,0.0,0.0,0.0,1.407,1.407,0.0,0.0,0.0,55.0,616.79921,10000.0,85.000001,85.000001,85.000001,85.000001,395.0,0.0,0.0,0.0,1.0,166.665,52.078,52.078,47.867000000000004,47.867000000000004,34.0,-62.7475,49.39666666666667,-35.126666666666665,21.0575,0.0,1782.032,0.25500000000000256,100.0,28.967,27.869,43.862,42.717,0.0,1.0,100.0,0.0,0.0,0.0,0.0,3382.666666666667,2861.9,4183.571428571428,3920.6000000000004,304.845,305.56625,314.71933333333334,315.20625,22.33875,20.7307,22.011400000000002,21.5218,314.999998,314.999998,324.999988,324.999988,99.57821428571428,99.51565,99.5672,99.5477,-1.0462,0.889,-0.24666666666666667,-0.017166666666666667,-0.06333333333333258,-0.07714285714285296,1.54,1.6145,40.617000000000004,30.567,38.571,35.5115,63.706,39.2515,59.506,52.816,61.039,38.0225,58.0865,51.1385,59.797,37.373,57.9755,50.545,0.9783333333333335,0.9356666666666666,0.10788,0.11205000000000001,0.0,215.18,215.03,212.07,212.07,0.0,0.0
29,0.0,1.0,0.0,1.0,1.0,0.0,0.0,1.0,0.0,100.0,1.0,1.1856,26.0,0.0,0.0,0.0,59.999996,0.0,26.0,26.0,26.0,26.0,-0.180875,0.24870000000000014,-0.0061,292.084,-2.7165,-2.803,-1.5291000000000001,-1.621,-178.23000000000002,216.03,190.3615,0.0,0.0,0.0,0.0,0.05823333333333334,-5.498166666666667,-5.498166666666667,-0.6018,-0.7863333333333333,-0.08762500000000006,0.7450000000000001,68.858,-0.12569999999999992,-0.208325,1.2840000000000007,100.0,1.0,1.0,212.25333333333333,0.0,0.0,0.0,0.0,0.0,0.0,0.0,8996.6,0.0,55.0,5.0,247.86333333333334,1.0,0.0,0.0,0.0,0.0,0.0,0.0,0.0,1.4579999999999984,1.4579999999999984,0.0,0.0,1.0,55.0,616.79921,10000.0,85.000001,85.000001,85.000001,85.000001,395.0,0.0,0.0,0.0,1.0,166.665,52.536,52.536,46.997,46.997,34.0,-59.9875,51.71333333333333,-37.516666666666666,23.1775,0.0,1781.981,0.05000000000000426,100.0,28.73,27.298000000000002,44.381,42.725,0.0,1.0,100.0,0.0,0.0,0.0,0.0,3265.0,3022.3,4349.428571428572,4183.1,305.158,305.4655,314.257,314.532,22.350125,20.737099999999998,22.0219,21.5309,314.999998,314.999998,324.999988,324.999988,99.57834285714286,99.51576666666666,99.56735714285715,99.54784285714285,-1.034,0.9097999999999999,-0.2405,-0.0165,-0.061666666666667425,-0.057142857142849834,1.463,1.512,40.688,30.607,38.637,35.568,63.735,39.329,59.5505,52.8765,61.067,38.0935,58.128,51.1965,59.821,37.441,58.013999999999996,50.601333333333336,0.9566666666666666,0.9626666666666663,0.10708000000000001,0.10952,0.0,215.54000000000002,215.41,212.25333333333333,212.2525,0.0,0.0
30,0.0,1.0,0.0,1.0,1.0,0.0,0.0,1.0,0.0,100.0,1.0,1.1856,26.0,0.0,0.0,0.0,59.999996,0.0,26.0,26.0,26.0,26.0,-0.18774999999999997,0.2550000000000001,0.011250000000000001,291.595,-2.6239,-2.7977499999999997,-1.5344,-1.567125,-174.93,216.03,190.33675,0.0,0.0,0.0,0.0,0.06016666666666667,-5.498166666666667,-5.498166666666667,-0.6134000000000001,0.8213333333333334,-0.08987500000000015,0.47699999999999987,68.97200000000001,-0.11609999999999998,-0.2238,1.120000000000001,100.0,1.0,1.0,212.74,0.0,0.0,0.0,0.0,0.0,0.0,0.0,9017.2,0.0,55.0,5.0,248.27333333333334,0.0,0.0,0.0,0.0,0.0,0.0,1.0,0.0,1.5060000000000002,1.5060000000000002,0.0,0.0,0.0,55.0,616.79921,10000.0,85.000001,85.000001,85.000001,85.000001,395.0,0.0,0.0,0.0,1.0,166.665,51.086,51.086,47.333,47.333,34.0,-63.305,54.78,-35.79,22.2375,0.0,1781.933,-0.06499999999999773,100.0,29.551000000000002,28.14,44.191,42.635,0.0,1.0,100.0,0.0,0.0,0.0,0.0,3419.0,3133.2,4260.714285714285,4135.4,304.481,304.789,314.5973333333333,314.765,22.361125,20.7434,22.0316,21.5393,314.999998,314.999998,324.999988,324.999988,99.57848571428572,99.51586666666667,99.5675,99.54798571428572,-1.016,0.9057999999999999,-0.23366666666666666,-0.008,-0.07666666666666799,-0.07857142857142918,1.5286666666666666,1.568,40.757,30.6465,38.698,35.621,63.771,39.408500000000004,59.5875,52.931,61.1,38.167,58.163,51.2485,59.851,37.5105,58.046,50.65233333333333,0.9486666666666665,0.9586666666666663,0.10618000000000001,0.10846000000000001,0.0,215.91,215.8,212.74,212.74,0.0,0.0
31,0.0,1.0,0.0,1.0,1.0,0.0,0.0,1.0,0.0,100.0,1.0,1.1856,26.0,0.0,0.0,0.0,59.999996,0.0,26.0,26.0,26.0,26.0,-0.11662499999999998,0.2371000000000001,0.005775000000000001,291.428,-2.7133000000000003,-2.8765,-1.5492000000000001,-1.568875,-171.39999999999998,216.025,190.311,0.0,0.0,0.0,0.0,0.062200000000000005,-5.498166666666667,-5.498166666666667,-0.5860000000000001,-0.32699999999999996,-0.08137499999999998,-0.772,69.098,-0.10419999999999996,-0.2134,0.8120000000000012,100.0,1.0,1.0,212.93333333333334,0.0,0.0,0.0,0.0,0.0,0.0,0.0,9025.4,0.0,55.0,5.0,248.73000000000002,1.0,0.0,0.0,0.0,0.0,0.0,1.0,0.0,1.5569999999999986,1.5569999999999986,0.0,0.0,1.0,55.0,616.79921,10000.0,85.000001,85.000001,85.000001,85.000001,395.0,0.0,0.0,0.0,1.0,333.33500000000004,51.879999999999995,51.879999999999995,46.097,46.097,34.0,-58.175,51.78333333333333,-38.43666666666667,23.9275,0.0,1781.88,-0.3100000000000023,100.0,29.286,28.289,44.735,43.412,0.0,1.0,100.0,0.0,0.0,0.0,0.0,3205.5,2966.6,4508.0,4207.1,305.373,305.3735,314.0586666666667,314.3065,22.37275,20.75,22.0422,21.5486,314.999998,314.999998,324.999988,324.999988,99.57862857142857,99.51598333333334,99.56767142857143,99.54814285714286,-1.0082,0.9218,-0.2245,0.0015,-0.06333333333333258,-0.0714285714285694,1.4393333333333334,1.469,40.829,30.6875,38.763999999999996,35.6785,63.804,39.4965,59.635,52.997,61.131,38.2475,58.207499999999996,51.312,59.878,37.587,58.087,50.714,0.9293333333333336,0.9813333333333336,0.10916500000000001,0.10443500000000001,0.0,216.28,216.2,212.93333333333334,212.9325,0.0,0.0
32,0.0,1.0,0.0,1.0,1.0,0.0,0.0,1.0,0.0,100.0,1.0,1.1856,26.0,0.0,0.0,0.0,59.999996,0.0,26.0,26.0,26.0,26.0,-0.12849999999999995,0.2459,-0.05485,291.809,-2.7356,-2.8355,-1.5163,-1.6736250000000001,-167.88,216.01749999999998,190.28575,0.0,0.0,0.0,0.0,0.06426666666666667,-5.498166666666667,-5.498166666666667,-0.613,-0.08066666666666666,-0.09624999999999995,-0.03200000000000003,69.218,-0.0827,-0.23597500000000002,0.5739999999999998,100.0,1.0,1.0,213.51666666666665,0.0,0.0,0.0,0.0,0.0,0.0,0.0,9050.1,0.0,55.0,5.0,249.16333333333336,0.0,0.0,0.0,0.0,0.0,0.0,1.0,0.0,1.6080000000000005,1.6080000000000005,0.0,0.0,0.0,55.0,616.79921,10000.0,85.000001,85.000001,85.000001,85.000001,395.0,0.0,0.0,0.0,1.0,166.665,51.559,51.559,47.348,47.348,34.0,-60.35,54.06333333333333,-30.926666666666666,25.095,0.0,1781.831,-0.23499999999999943,100.0,29.262,28.287,44.562,43.233000000000004,0.0,1.0,100.0,0.0,0.0,0.0,0.0,3288.5,3082.0,4004.285714285714,4057.6000000000004,304.9695,305.1235,315.11833333333334,314.9025,22.384125,20.7568,22.052599999999998,21.5576,314.999998,314.999998,324.999988,324.999988,99.57875714285714,99.51608333333333,99.5678,99.54827142857143,-0.9985999999999999,0.9410000000000001,-0.19016666666666665,0.02816666666666667,-0.06333333333333258,-0.08714285714285097,1.5553333333333332,1.574,40.900999999999996,30.7295,38.829,35.735,63.832,39.577,59.671,53.0515,61.157,38.3215,58.2415,51.364,59.900999999999996,37.658,58.1185,50.76466666666666,0.94,0.9743333333333335,0.106075,0.09867000000000001,0.0,216.63,216.57,213.51666666666665,213.515,0.0,0.0
33,0.0,1.0,0.0,1.0,1.0,0.0,0.0,1.0,0.0,100.0,1.0,1.1856,26.0,0.0,0.0,0.0,59.999996,0.0,26.0,26.0,26.0,26.0,-0.11299999999999999,0.24370000000000003,-0.0415,291.733,-2.6725,-2.861375,-1.5503,-1.6243750000000001,-164.55,216.0075,190.261,0.0,0.0,0.0,0.0,0.06620000000000001,-5.498166666666667,-5.498166666666667,-0.6093000000000001,-0.06833333333333336,-0.10212500000000002,1.2000000000000002,69.33500000000001,-0.07019999999999993,-0.21495,0.8060000000000009,100.0,1.0,1.0,213.76999999999998,0.0,0.0,0.0,0.0,0.0,0.0,0.0,9060.9,0.0,55.0,5.0,249.57999999999998,1.0,0.0,0.0,0.0,0.0,0.0,1.0,0.0,1.6559999999999988,1.6559999999999988,0.0,0.0,1.0,55.0,616.79921,10000.0,85.000001,85.000001,85.000001,85.000001,395.0,0.0,0.0,0.0,1.0,166.665,51.956,51.956,47.073,47.073,34.0,-57.9975,51.605000000000004,-34.32666666666667,26.4825,0.0,1781.782,-0.48499999999999943,100.0,29.293,28.05,44.456,43.222,0.0,1.0,100.0,0.0,0.0,0.0,0.0,3206.0,2935.0,4285.428571428572,4168.2,305.1165,305.5895,314.47133333333335,314.57925,22.394875,20.7629,22.0623,21.5662,314.999998,314.999998,324.999988,324.999988,99.57887142857143,99.5162,99.56794285714285,99.54841428571429,-0.9618,0.9738,-0.18883333333333335,0.04666666666666666,-0.0833333333333286,-0.057142857142849834,1.4806666666666666,1.5230000000000001,40.968,30.768,38.888999999999996,35.7885,63.86,39.6545,59.7085,53.107,61.182,38.3925,58.2765,51.417500000000004,59.923,37.725,58.1505,50.81633333333333,0.9186666666666667,1.0016666666666665,0.108005,0.11696500000000001,0.0,217.025,216.92000000000002,213.76999999999998,213.76999999999998,0.0,0.0
34,0.0,1.0,0.0,1.0,1.0,0.0,0.0,1.0,0.0,100.0,1.0,1.1856,26.0,0.0,0.0,0.0,59.999996,0.0,26.0,26.0,26.0,26.0,-0.06312499999999999,0.23819999999999997,-0.09630000000000001,292.16,-2.7955,-2.8821250000000003,-1.5287000000000002,-1.596125,-161.01,215.995,190.23375,0.0,0.0,0.0,0.0,0.06826666666666667,-5.498166666666667,-5.498166666666667,-0.6374000000000001,-0.808,-0.0625,0.1030000000000002,69.458,-0.06519999999999992,-0.227075,0.5079999999999991,100.0,1.0,1.0,214.15333333333334,0.0,0.0,0.0,0.0,0.0,0.0,0.0,9077.2,0.0,55.0,5.0,250.02333333333334,0.0,0.0,0.0,0.0,0.0,0.0,1.0,0.0,1.7070000000000007,1.7070000000000007,0.0,0.0,0.0,55.0,616.79921,10000.0,85.000001,85.000001,85.000001,85.000001,395.0,0.0,0.0,0.0,1.0,333.33500000000004,52.49,52.49,47.607,47.607,34.0,-56.8275,49.86,-31.296666666666663,25.427500000000002,0.0,1781.73,-0.8350000000000009,100.0,28.788,27.98,44.239000000000004,43.422,0.0,1.0,100.0,0.0,0.0,0.0,0.0,3187.666666666667,2809.0,4045.285714285714,4147.3,305.5205,305.73875,315.031,314.572,22.40625,20.7694,22.0726,21.5753,314.999998,314.999998,324.999988,324.999988,99.579,99.51631666666667,99.5681,99.54857142857144,-0.9490000000000001,0.9804,-0.1815,0.036166666666666666,-0.060000000000002274,-0.08142857142856741,1.5056666666666667,1.5310000000000001,41.039,30.808999999999997,38.954,35.8455,63.882999999999996,39.7385,59.747,53.1665,61.204,38.47,58.3125,51.475,59.941,37.798500000000004,58.1835,50.87233333333333,0.8893333333333335,1.0243333333333333,0.10501,0.10658500000000001,0.0,217.36,217.31,214.15333333333334,214.1525,0.0,0.0
35,0.0,1.0,0.0,1.0,1.0,0.0,0.0,1.0,0.0,100.0,1.0,1.1856,26.0,0.0,0.0,0.0,59.999996,0.0,26.0,26.0,26.0,26.0,-0.04849999999999999,0.23460000000000014,-0.056900000000000006,292.465,-2.8224,-2.779125,-1.6084,-1.583375,-157.47,215.98000000000002,190.204625,0.0,0.0,0.0,0.0,0.07033333333333334,-5.498166666666667,-5.498166666666667,-0.6815,-0.8406666666666667,-0.05287500000000023,0.05799999999999983,69.578,-0.048899999999999944,-0.23172500000000001,-0.05799999999999894,100.0,1.0,1.0,214.63333333333333,0.0,0.0,0.0,0.0,0.0,0.0,0.0,9097.5,0.0,55.0,5.0,250.45666666666665,1.0,0.0,0.0,0.0,0.0,0.0,1.0,0.0,1.7579999999999991,1.7579999999999991,0.0,0.0,1.0,55.0,616.79921,10000.0,85.000001,85.000001,85.000001,85.000001,395.0,0.0,0.0,0.0,1.0,166.665,52.49,52.49,47.44,47.44,34.0,-53.715,57.19833333333334,-30.513333333333335,25.2775,0.0,1781.681,-0.7550000000000026,100.0,28.492,27.788,43.794,43.101,0.0,1.0,100.0,0.0,0.0,0.0,0.0,3021.333333333333,3201.3,4094.5714285714284,3878.8,305.853,304.81375,315.0203333333333,315.3415,22.417375,20.7761,22.0828,21.5843,314.999998,314.999998,324.999988,324.999988,99.57911428571428,99.51643333333334,99.56824285714286,99.5487,-0.9392,0.9998,-0.14416666666666667,0.08283333333333333,-0.07499999999999574,-0.08285714285714363,1.5683333333333334,1.5655000000000001,41.108999999999995,30.8505,39.016999999999996,35.902,63.903,39.8255,59.7825,53.224000000000004,61.222,38.5495,58.3455,51.53,59.956,37.8745,58.213499999999996,50.926,0.8956666666666666,1.02,0.103775,0.10894000000000001,0.0,217.71,217.68,214.63333333333333,214.6325,0.0,0.0
36,0.0,1.0,0.0,1.0,1.0,0.0,0.0,1.0,0.0,100.0,1.0,1.1856,26.0,0.0,0.0,0.0,59.999996,0.0,26.0,26.0,26.0,26.0,-0.01837500000000003,0.25260000000000016,-0.007925,291.656,-2.7332,-2.8363750000000003,-1.5916000000000001,-1.569375,-153.92,215.9625,190.1735,0.0,0.0,0.0,0.0,0.07236666666666666,-5.498166666666667,-5.498166666666667,-0.6732,0.7203333333333333,-0.07862500000000017,-1.545,69.701,-0.023699999999999943,-0.20497500000000002,-0.0039999999999995595,100.0,1.0,1.0,214.86,0.0,0.0,0.0,0.0,0.0,0.0,0.0,9107.1,0.0,55.0,5.0,250.89666666666665,0.0,0.0,0.0,0.0,0.0,0.0,1.0,0.0,1.809000000000001,1.809000000000001,0.0,0.0,0.0,55.0,616.79921,10000.0,85.000001,85.000001,85.000001,85.000001,395.0,0.0,0.0,0.0,1.0,166.665,51.757999999999996,51.757999999999996,46.982,46.982,34.0,-56.29,54.185,-32.08,29.677500000000002,0.0,1781.63,-0.4750000000000014,100.0,28.874,28.701,43.556,43.127,0.0,1.0,100.0,0.0,0.0,0.0,0.0,3147.0,3002.7,4336.857142857143,4346.8,305.4495,304.96225,314.543,314.14675,22.42875,20.7831,22.093,21.5933,314.999998,314.999998,324.999988,324.999988,99.57924285714286,99.51656666666666,99.5684,99.54885714285714,-0.9487999999999999,0.9816,-0.13333333333333336,0.0915,-0.07166666666666544,-0.06285714285714761,1.4986666666666668,1.4969999999999999,41.18,30.8945,39.081,35.9585,63.927,39.919,59.82,53.282,61.244,38.635999999999996,58.3805,51.585499999999996,59.975,37.9565,58.2455,50.980333333333334,0.9159999999999999,0.996,0.10873500000000001,0.10433,0.0,218.13,218.10500000000002,214.86,214.85750000000002,0.0,0.0
