,ABS Active,ABS Enabled,AID Allow Tire Blankets,AID Auto Blip,AID Auto Clutch,AID Auto Shift,AID Fuel Rate,AID Ideal Line,AID Mech Damage,AID Stability,AID Tire Wear Rate,Air Density,Air Temp,Ballast,Best Lap Delta,Best Lap Time,Brake Bias,Brake Pos,Brake Temp FL,Brake Temp FR,Brake Temp RL,Brake Temp RR,CG Accel Lateral,CG Accel Longitudinal,CG Accel Vertical,CG Height,Camber FL,Camber FR,Camber RL,Camber RR,Car Coord X,Car Coord Y,Car Coord Z,Car Damage Front,Car Damage Left,Car Damage Rear,Car Damage Right,Car Pos Norm,Caster FL,Caster FR,Chassis Pitch Angle,Chassis Pitch Rate,Chassis Roll Angle,Chassis Roll Rate,Chassis Velocity X,Chassis Velocity Y,Chassis Velocity Z,Chassis Yaw Rate,Clutch Pos,DRS Active,DRS Available,Drive Train Speed,ERS Heat Charging,ERS Is Charging,ERS Max Energy,ERS Power Level,ERS Recovery Level,Engine Brake Setting,Engine Limiter,Engine RPM,Flags,Fuel Level,Gear,Ground Speed,HR Sample Clock,In Pit,KERS Charge,KERS Deployed Energy,KERS Input,KERS Max Energy,LR Sample Clock,Lap Invalidated,Lap Time,Lap Time2,Last Lap Time,Last Sector Time,MR Sample Clock,Max Fuel,Max Power,Max RPM,Max Sus Travel FL,Max Sus Travel FR,Max Sus Travel RL,Max Sus Travel RR,Max Torque,Max Turbo Boost,Num Tires Off Track,Penalties Enabled,Position,Raw Data Sample Rate,Ride Height FL,Ride Height FR,Ride Height RL,Ride Height RR,Road Temp,Self Align Torque FL,Self Align Torque FR,Self Align Torque RL,Self Align Torque RR,Session Lap Count,Session Time Left,Steering Angle,Surface Grip,Suspension Travel FL,Suspension Travel FR,Suspension Travel RL,Suspension Travel RR,TC Active,TC Enabled,Throttle Pos,Tire Dirt Level FL,Tire Dirt Level FR,Tire Dirt Level RL,Tire Dirt Level RR,Tire Load FL,Tire Load FR,Tire Load RL,Tire Load RR,Tire Loaded Radius FL,Tire Loaded Radius FR,Tire Loaded Radius RL,Tire Loaded Radius RR,Tire Pressure FL,Tire Pressure FR,Tire Pressure RL,Tire Pressure RR,Tire Radius FL,Tire Radius FR,Tire Radius RL,Tire Radius RR,Tire Rubber Grip FL,Tire Rubber Grip FR,Tire Rubber Grip RL,Tire Rubber Grip RR,Tire Slip Angle FL,Tire Slip Angle FR,Tire Slip Angle RL,Tire Slip Angle RR,Tire Slip Ratio FL,Tire Slip Ratio FR,Tire Slip Ratio RL,Tire Slip Ratio RR,Tire Temp Core FL,Tire Temp Core FR,Tire Temp Core RL,Tire Temp Core RR,Tire Temp Inner FL,Tire Temp Inner FR,Tire Temp Inner RL,Tire Temp Inner RR,Tire Temp Middle FL,Tire Temp Middle FR,Tire Temp Middle RL,Tire Temp Middle RR,Tire Temp Outer FL,Tire Temp Outer FR,Tire Temp Outer RL,Tire Temp Outer RR,Toe In FL,Toe In FR,Toe In RL,Toe In RR,Turbo Boost,Wheel Angular Speed FL,Wheel Angular Speed FR,Wheel Angular Speed RL,Wheel Angular Speed RR,Wind Direction,Wind Speed
0,0.0,1.0,0.0,1.0,1.0,0.0,0.0,1.0,0.0,100.0,1.0,1.1856,26.0,0.0,0.0,0.0,59.99999,0.0,26.0,26.0,26.0,26.0,-0.08833333333333337,-0.35009999999999997,-0.011166666666666668,293.884,-2.779,-2.7515,-1.5057,-1.5663333333333334,-275.54,216.3075,190.986625,0.0,0.0,0.0,0.0,0.0016666666666665941,-5.498166666666667,-5.498166666666667,-0.5923,-0.009000000000000001,-0.01849999999999996,-0.433,65.231,-0.07,-0.254825,0.944,100.0,1.0,1.0,198.31,0.0,0.0,0.0,0.0,0.0,0.0,0.0,9512.0,0.0,55.0,0.0,234.87,0.0,0.0,0.0,0.0,0.0,0.0,0.0,0.0,0.006000000000000227,0.006000000000000227,0.0,0.0,0.0,55.0,616.79921,10000.0,85.0,85.0,85.0,85.0,395.0,0.0,0.0,0.0,1.0,20.0,51.208,51.208,50.507,50.507,34.0,-60.44,64.336,-32.1375,24.045,0.0,1783.444,0.125,100.0,27.647,26.948,40.573,40.244,0.0,1.0,0.0,0.0,0.0,0.0,0.0,3440.833333333333,3790.8,3756.25,3612.8,304.3975,302.75,315.72,315.81325,21.938111111111112,20.5465,21.7669,21.2714,314.99999,314.99999,324.99998,324.99998,99.56992857142858,99.51106666666666,99.56564285714286,99.54372857142857,-0.845,0.7695,-0.18066666666666667,0.02833333333333332,0.0033333333333303017,-0.03166666666666629,-0.0365000000000002,0.02200000000000002,38.113,29.4155,37.043,33.946,61.117999999999995,36.102000000000004,59.173,51.025,58.695,35.1755,57.833,49.4655,57.671,34.7085,57.838499999999996,48.955333333333336,0.7986666666666666,0.7766666666666664,0.0961,0.09644000000000001,0.0,204.435,204.345,198.34666666666666,198.27333333333334,0.0,0.0
1,0.0,1.0,0.0,1.0,1.0,0.0,0.0,1.0,0.0,100.0,1.0,1.1856,26.0,0.0,0.0,0.0,59.999996,0.0,26.0,26.0,26.0,26.0,-0.13477777777777777,0.3065,0.2162,292.755,-2.688,-2.848,-1.5078,-1.5538888888888889,-272.21,216.305,190.966375,0.0,0.0,0.0,0.0,0.0035999999999999366,-5.498166666666667,-5.498166666666667,-0.5144000000000001,0.6176666666666666,-0.06725000000000003,-0.899,65.32,-0.06570000000000001,-0.21755000000000002,1.3399999999999999,100.0,1.0,1.0,201.36,0.0,0.0,0.0,0.0,0.0,0.0,0.0,8535.0,0.0,55.0,5.0,235.12,1.0,0.0,0.0,0.0,0.0,0.0,0.0,0.0,0.05699999999999861,0.05699999999999861,0.0,0.0,1.0,55.0,616.79921,10000.0,85.000001,85.000001,85.000001,85.000001,395.0,0.0,0.0,0.0,1.0,333.33500000000004,52.765,52.765,48.462,48.462,34.0,-54.1775,42.288,-36.9125,29.3,0.0,1783.391,0.6400000000000006,100.0,28.544,27.736,42.09,41.06,0.0,1.0,100.0,0.0,0.0,0.0,0.0,3139.0,2672.8,4518.5,4809.5,305.3405,306.25733333333335,313.78266666666667,312.88025,21.949666666666666,20.5524,21.7776,21.2802,314.999998,314.999998,324.999988,324.999988,99.57004285714285,99.51116666666667,99.56577142857142,99.54385714285715,-0.8639999999999999,0.726,-0.19783333333333333,0.026999999999999913,-0.061666666666667425,-0.046666666666666856,1.382,1.443,38.185,29.4525,37.11,34.0015,61.147999999999996,36.181,59.2065,51.0785,58.723,35.2485,57.8645,49.516999999999996,57.696,34.778,57.867,49.00566666666667,0.8290000000000002,0.7363333333333335,0.11224500000000001,0.109405,0.0,204.68,204.575,201.36,201.36,0.0,0.0
2,0.0,1.0,0.0,1.0,1.0,0.0,0.0,1.0,0.0,100.0,1.0,1.1856,26.0,0.0,0.0,0.0,59.999996,0.0,26.0,26.0,26.0,26.0,-0.1433333333333333,0.2681,0.0071666666666666675,293.854,-2.6715,-2.877125,-1.4824,-1.610111111111111,-268.68,216.2975,190.947,0.0,0.0,0.0,0.0,0.005666666666666598,-5.498166666666667,-5.498166666666667,-0.5545,-0.3303333333333333,-0.05224999999999991,2.015,65.465,-0.0766,-0.260525,1.88,100.0,1.0,1.0,202.30333333333334,0.0,0.0,0.0,0.0,0.0,0.0,0.0,8574.8,0.0,55.0,5.0,235.64666666666668,0.0,0.0,0.0,0.0,0.0,0.0,0.0,0.0,0.11100000000000065,0.11100000000000065,0.0,0.0,0.0,55.0,616.79921,10000.0,85.000001,85.000001,85.000001,85.000001,395.0,0.0,0.0,0.0,1.0,166.665,52.382999999999996,52.382999999999996,50.476,50.476,34.0,-58.2425,46.358,-29.22,19.495,0.0,1783.338,0.39000000000000057,100.0,28.5,27.201999999999998,42.427,41.069,0.0,1.0,100.0,0.0,0.0,0.0,0.0,3354.666666666667,2878.7,3685.0,3675.2,304.7225,305.71633333333335,315.79466666666667,315.74825,21.961666666666666,20.558,21.7888,21.2894,314.999998,314.999998,324.999988,324.999988,99.57015714285714,99.51123333333334,99.56591428571429,99.54398571428571,-0.8559999999999999,0.743,-0.23583333333333334,-0.004833333333333356,-0.11833333333333229,-0.06833333333332803,1.6195,1.71,38.260999999999996,29.487499999999997,37.18,34.059,61.176,36.251,59.2485,51.141,58.748000000000005,35.312,57.9035,49.576499999999996,57.718,34.838499999999996,57.9035,49.064,0.8133333333333335,0.7593333333333336,0.107325,0.10566500000000001,0.0,205.11,204.935,202.30333333333334,202.30333333333334,0.0,0.0
3,0.0,1.0,0.0,1.0,1.0,0.0,0.0,1.0,0.0,100.0,1.0,1.1856,26.0,0.0,0.0,0.0,59.999996,0.0,26.0,26.0,26.0,26.0,-0.1276666666666666,0.2922,0.08406666666666666,293.61,-2.8062,-2.7672499999999998,-1.5110000000000001,-1.580888888888889,-265.73,216.28750000000002,190.92975,0.0,0.0,0.0,0.0,0.0073666666666665215,-5.498166666666667,-5.498166666666667,-0.5255000000000001,0.4703333333333333,-0.003249999999999975,0.445,65.594,-0.0945,-0.21300000000000002,1.0820000000000007,100.0,1.0,1.0,202.44666666666666,0.0,0.0,0.0,0.0,0.0,0.0,0.0,8581.0,0.0,55.0,5.0,236.11,1.0,0.0,0.0,0.0,0.0,0.0,0.0,0.0,0.1559999999999988,0.1559999999999988,0.0,0.0,1.0,55.0,616.79921,10000.0,85.000001,85.000001,85.000001,85.000001,395.0,0.0,0.0,0.0,1.0,166.665,53.253,53.253,48.691,48.691,34.0,-49.04,47.096000000000004,-34.0625,23.965,0.0,1783.294,0.10999999999999943,100.0,28.178,27.171,42.094,40.969,0.0,1.0,100.0,0.0,0.0,0.0,0.0,2865.666666666667,2936.2,4173.75,4214.6,306.103,305.50933333333336,314.631,314.417,21.971555555555554,20.563,21.798000000000002,21.2971,314.999998,314.999998,324.999988,324.999988,99.57024285714286,99.51131666666667,99.56604285714286,99.54412857142857,-0.85175,0.746,-0.22066666666666665,0.009666666666666712,-0.0799999999999983,-0.07666666666666799,1.5225,1.553,38.322,29.519,37.236999999999995,34.107,61.195,36.3165,59.2815,51.1965,58.766,35.3725,57.9345,49.629999999999995,57.733000000000004,34.896,57.9315,49.11633333333333,0.794,0.7823333333333333,0.10963500000000001,0.112295,0.0,205.515,205.405,202.44666666666666,202.44666666666666,0.0,0.0
4,0.0,1.0,0.0,1.0,1.0,0.0,0.0,1.0,0.0,100.0,1.0,1.1856,26.0,0.0,0.0,0.0,59.999996,0.0,26.0,26.0,26.0,26.0,-0.13722222222222213,0.27070000000000016,-0.017266666666666666,293.73199999999997,-2.7427,-2.8131250000000003,-1.5259,-1.5894444444444444,-262.38,216.2725,190.91,0.0,0.0,0.0,0.0,0.009333333333333305,-5.498166666666667,-5.498166666666667,-0.5483,-0.6126666666666667,-0.07487500000000002,-2.025,65.736,-0.08020000000000001,-0.24102500000000002,0.8500000000000005,100.0,1.0,1.0,202.93333333333334,0.0,0.0,0.0,0.0,0.0,0.0,0.0,8601.6,0.0,55.0,5.0,236.62333333333333,0.0,0.0,0.0,0.0,0.0,0.0,0.0,0.0,0.20700000000000074,0.20700000000000074,0.0,0.0,0.0,55.0,616.79921,10000.0,85.000001,85.000001,85.000001,85.000001,395.0,0.0,0.0,0.0,1.0,333.33500000000004,53.024,53.024,48.981,48.981,34.0,-56.5925,45.828,-32.3525,21.3625,0.0,1783.241,0.5499999999999972,100.0,27.802,27.05,42.451,41.253,0.0,1.0,100.0,0.0,0.0,0.0,0.0,3243.666666666667,2865.8,4127.25,3709.2,305.1795,305.56233333333336,314.7606666666667,315.55325,21.982555555555557,20.5687,21.8086,21.3059,314.999998,314.999998,324.999988,324.999988,99.57034285714286,99.51138333333333,99.56618571428571,99.54427142857143,-0.88575,0.7185,-0.1965,0.025666666666666726,-0.04833333333333201,-0.05833333333333002,1.573,1.5915,38.391,29.554499999999997,37.304,34.162,61.214,36.3885,59.323,51.257999999999996,58.783,35.4385,57.973,49.6885,57.748000000000005,34.959,57.9675,49.17366666666666,0.8260000000000001,0.7533333333333334,0.11042,0.10298500000000001,0.0,205.845,205.79000000000002,202.93333333333334,202.93333333333334,0.0,0.0
5,0.0,1.0,0.0,1.0,1.0,0.0,0.0,1.0,0.0,100.0,1.0,1.1856,26.0,0.0,0.0,0.0,59.999996,0.0,26.0,26.0,26.0,26.0,-0.12422222222222212,0.28390000000000004,-0.012266666666666667,293.808,-2.7454,-2.847375,-1.5041,-1.5874444444444444,-258.82,216.255,190.888625,0.0,0.0,0.0,0.0,0.011399999999999966,-5.498166666666667,-5.498166666666667,-0.5397000000000001,0.339,-0.08587500000000015,-0.11900000000000001,65.885,-0.0772,-0.21910000000000002,1.3120000000000003,100.0,1.0,1.0,203.37,0.0,0.0,0.0,0.0,0.0,0.0,0.0,8620.2,0.0,55.0,5.0,237.15666666666667,1.0,0.0,0.0,0.0,0.0,0.0,0.0,0.0,0.26099999999999923,0.26099999999999923,0.0,0.0,1.0,55.0,616.79921,10000.0,85.000001,85.000001,85.000001,85.000001,395.0,0.0,0.0,0.0,1.0,166.665,53.497,53.497,49.21,49.21,34.0,-55.1125,44.412,-34.0175,22.6525,0.0,1783.189,0.134999999999998,100.0,27.802,26.715,42.324,40.976,0.0,1.0,100.0,0.0,0.0,0.0,0.0,3195.833333333333,2748.9,4192.875,3996.9,305.2765,305.99533333333335,314.674,314.88775,21.994555555555557,20.5746,21.8197,21.315,314.999998,314.999998,324.999988,324.999988,99.57045714285714,99.51148333333333,99.56634285714286,99.5444,-0.85375,0.75725,-0.2215,0.012833333333333474,-0.07499999999999574,-0.07000000000000028,1.535,1.597,38.466,29.5915,37.373000000000005,34.2185,61.242999999999995,36.4645,59.365,51.32,58.809,35.5075,58.0125,49.748,57.769999999999996,35.0245,58.0035,49.23133333333333,0.8013333333333335,0.7833333333333332,0.11225500000000001,0.11213500000000001,0.0,206.39,206.275,203.37,203.37,0.0,0.0
6,0.0,1.0,0.0,1.0,1.0,0.0,0.0,1.0,0.0,100.0,1.0,1.1856,26.0,0.0,0.0,0.0,59.999996,0.0,26.0,26.0,26.0,26.0,-0.10855555555555552,0.2764,-0.010700000000000001,293.762,-2.7201,-2.8748750000000003,-1.5507,-1.5742222222222222,-255.66,216.235,190.8695,0.0,0.0,0.0,0.0,0.01323333333333332,-5.498166666666667,-5.498166666666667,-0.5342,0.14066666666666666,-0.06174999999999997,-0.484,66.018,-0.0825,-0.217725,0.9500000000000002,100.0,1.0,1.0,203.7866666666667,0.0,0.0,0.0,0.0,0.0,0.0,0.0,8637.7,0.0,55.0,5.0,237.63333333333333,0.0,0.0,0.0,0.0,0.0,0.0,0.0,0.0,0.30900000000000105,0.30900000000000105,0.0,0.0,0.0,55.0,616.79921,10000.0,85.000001,85.000001,85.000001,85.000001,395.0,0.0,0.0,0.0,1.0,166.665,53.345,53.345,49.103,49.103,34.0,-54.457499999999996,47.294,-32.94,22.175,0.0,1783.141,-0.4499999999999993,100.0,27.56,26.756,42.33,41.224000000000004,0.0,1.0,100.0,0.0,0.0,0.0,0.0,3184.0,2860.4,4094.125,3978.3,305.2845,305.5303333333333,314.91066666666666,314.9255,22.005111111111113,20.58,21.8297,21.3233,314.999998,314.999998,324.999988,324.999988,99.57055714285714,99.51156666666667,99.56647142857143,99.54454285714286,-0.8345,0.778,-0.20683333333333334,0.007833333333333359,-0.06499999999999773,-0.060000000000002274,1.5365,1.5750000000000002,38.532,29.624499999999998,37.435,34.2705,61.263999999999996,36.5345,59.402,51.3795,58.829,35.572,58.047,49.804,57.787,35.085499999999996,58.035,49.28633333333333,0.7680000000000002,0.8220000000000001,0.09947,0.10526500000000001,0.0,206.76999999999998,206.68,203.7866666666667,203.7866666666667,0.0,0.0
7,0.0,1.0,0.0,1.0,1.0,0.0,0.0,1.0,0.0,100.0,1.0,1.1856,26.0,0.0,0.0,0.0,59.999996,0.0,26.0,26.0,26.0,26.0,-0.09344444444444444,0.28070000000000017,0.017766666666666667,293.533,-2.6908000000000003,-2.81675,-1.5070000000000001,-1.5658888888888889,-252.49,216.2125,190.850375,0.0,0.0,0.0,0.0,0.015066666666666562,-5.498166666666667,-5.498166666666667,-0.5361,-0.033,-0.05437499999999984,-0.343,66.15,-0.0722,-0.224,0.5979999999999999,100.0,1.0,1.0,204.14333333333332,0.0,0.0,0.0,0.0,0.0,0.0,0.0,8652.9,0.0,55.0,5.0,238.11333333333334,1.0,0.0,0.0,0.0,0.0,0.0,0.0,0.0,0.3569999999999993,0.3569999999999993,0.0,0.0,1.0,55.0,616.79921,10000.0,85.000001,85.000001,85.000001,85.000001,395.0,0.0,0.0,0.0,1.0,166.665,53.07,53.07,49.21,49.21,34.0,-56.07,48.916,-31.77,23.595,0.0,1783.093,-0.7249999999999979,100.0,27.587,26.678,42.342,41.444,0.0,1.0,100.0,0.0,0.0,0.0,0.0,3297.5,2937.2,4087.75,4035.4,304.895,305.36833333333334,314.8736666666667,314.766,22.015666666666668,20.5853,21.8396,21.3316,314.999998,314.999998,324.999988,324.999988,99.57064285714286,99.51165,99.56661428571428,99.54467142857143,-0.8034999999999999,0.80725,-0.1935,0.028166666666666673,-0.054999999999999716,-0.06833333333332803,1.532,1.5545,38.598,29.658,37.497,34.3225,61.284,36.606,59.439,51.4385,58.847,35.6375,58.0815,49.8605,57.802,35.147999999999996,58.067,49.34166666666667,0.7343333333333337,0.847,0.101495,0.10583000000000001,0.0,207.155,207.10000000000002,204.14333333333332,204.14333333333332,0.0,0.0
8,0.0,1.0,0.0,1.0,1.0,0.0,0.0,1.0,0.0,100.0,1.0,1.1856,26.0,0.0,0.0,0.0,59.999996,0.0,26.0,26.0,26.0,26.0,-0.040000000000000036,0.2845,0.03926666666666667,293.747,-2.7702,-2.808625,-1.49,-1.5492222222222223,-249.11,216.185,190.829875,0.0,0.0,0.0,0.0,0.017033333333333345,-5.498166666666667,-5.498166666666667,-0.5377000000000001,-0.5663333333333334,-0.03487499999999999,0.9380000000000001,66.291,-0.0546,-0.2156,-0.11799999999999944,100.0,1.0,1.0,204.51666666666665,0.0,0.0,0.0,0.0,0.0,0.0,0.0,8668.8,0.0,55.0,5.0,238.61666666666667,0.0,0.0,0.0,0.0,0.0,0.0,0.0,0.0,0.40800000000000125,0.40800000000000125,0.0,0.0,0.0,55.0,616.79921,10000.0,85.000001,85.000001,85.000001,85.000001,395.0,0.0,0.0,0.0,1.0,333.33500000000004,53.879,53.879,48.431,48.431,34.0,-48.3475,49.762,-30.085,26.075000000000003,0.0,1783.041,-0.9049999999999976,100.0,27.348,26.533,42.494,41.491,0.0,1.0,100.0,0.0,0.0,0.0,0.0,2914.833333333333,2983.8,4120.375,4148.5,306.016,305.42133333333334,314.68333333333334,314.53,22.026666666666667,20.591,21.8501,21.3404,314.999998,314.999998,324.999988,324.999988,99.57074285714286,99.51173333333334,99.56674285714286,99.54481428571428,-0.7755000000000001,0.83175,-0.15383333333333335,0.06266666666666687,-0.060000000000002274,-0.06333333333333258,1.5195,1.524,38.667,29.694,37.563,34.3775,61.3,36.683,59.4785,51.5,58.861000000000004,35.708,58.1175,49.9195,57.814,35.2155,58.1005,49.399,0.7173333333333334,0.8643333333333336,0.10505,0.099205,0.0,207.575,207.535,204.51666666666665,204.51666666666665,0.0,0.0
9,0.0,1.0,0.0,1.0,1.0,0.0,0.0,1.0,0.0,100.0,1.0,1.1856,26.0,0.0,0.0,0.0,59.999996,0.0,26.0,26.0,26.0,26.0,-0.042888888888888865,0.26849999999999996,0.03256666666666667,293.503,-2.7617000000000003,-2.807,-1.5503,-1.5515555555555558,-245.92000000000002,216.16,190.81025,0.0,0.0,0.0,0.0,0.018899999999999917,-5.498166666666667,-5.498166666666667,-0.5457000000000001,0.615,-0.03299999999999992,0.68,66.418,-0.029300000000000003,-0.2187,-0.1639999999999997,100.0,1.0,1.0,205.05666666666667,0.0,0.0,0.0,0.0,0.0,0.0,0.0,8691.6,0.0,55.0,5.0,239.07666666666665,1.0,0.0,0.0,0.0,0.0,0.0,0.0,0.0,0.4559999999999995,0.4559999999999995,0.0,0.0,1.0,55.0,616.79921,10000.0,85.000001,85.000001,85.000001,85.000001,395.0,0.0,0.0,0.0,1.0,166.665,52.704,52.704,49.576,49.576,34.0,-54.917500000000004,52.174,-27.6125,27.075,0.0,1782.994,-0.9100000000000001,100.0,27.767,26.992,42.104,41.488,0.0,1.0,100.0,0.0,0.0,0.0,0.0,3272.0,3086.5,3918.5,4047.7,304.908,305.03133333333335,315.313,314.83975,22.037222222222223,20.5966,21.8598,21.3487,314.999998,314.999998,324.999988,324.999988,99.57082857142858,99.51183333333333,99.56688571428572,99.54494285714286,-0.7517499999999999,0.842,-0.13333333333333336,0.10349999999999993,-0.06833333333332803,-0.0833333333333286,1.5895,1.583,38.732,29.729,37.623999999999995,34.4295,61.318,36.7605,59.5115,51.557,58.878,35.778999999999996,58.1485,49.974000000000004,57.827,35.283,58.1285,49.452333333333335,0.7116666666666664,0.8569999999999998,0.11100000000000002,0.11496,0.0,207.99,207.98000000000002,205.05666666666667,205.05666666666667,0.0,0.0
10,0.0,1.0,0.0,1.0,1.0,0.0,0.0,1.0,0.0,100.0,1.0,1.1856,26.0,0.0,0.0,0.0,59.999996,0.0,26.0,26.0,26.0,26.0,0.001000000000000112,0.27649999999999997,0.05203333333333334,293.35,-2.7347,-2.795,-1.5266000000000002,-1.5335555555555558,-242.32999999999998,216.13,190.788375,0.0,0.0,0.0,0.0,0.020966666666666578,-5.498166666666667,-5.498166666666667,-0.5208,-0.5953333333333334,0.005249999999999977,1.8880000000000001,66.568,-0.0082,-0.208125,-0.4679999999999991,100.0,1.0,1.0,205.29333333333335,0.0,0.0,0.0,0.0,0.0,0.0,0.0,8701.6,0.0,55.0,5.0,239.61666666666667,0.0,0.0,0.0,0.0,0.0,0.0,1.0,0.0,0.509999999999998,0.509999999999998,0.0,0.0,0.0,55.0,616.79921,10000.0,85.000001,85.000001,85.000001,85.000001,395.0,0.0,0.0,0.0,1.0,166.665,53.772,53.772,48.019,48.019,34.0,-45.15,50.08,-29.5125,29.3575,0.0,1782.939,-1.254999999999999,100.0,27.611,26.897,42.609,42.246,0.0,1.0,100.0,0.0,0.0,0.0,0.0,2805.666666666667,2950.6,4210.25,4285.5,306.2745,305.52633333333335,314.46866666666665,314.2095,22.049,20.6028,21.8711,21.3583,314.999998,314.999998,324.999988,324.999988,99.57092857142857,99.51193333333333,99.56702857142857,99.54508571428572,-0.7197499999999999,0.8885000000000001,-0.11583333333333333,0.10516666666666685,-0.05666666666667197,-0.05833333333333002,1.4935,1.482,38.806,29.7675,37.694,34.489,61.334,36.8465,59.5545,51.626,58.891999999999996,35.858000000000004,58.1885,50.04,57.839,35.358000000000004,58.165,49.516999999999996,0.6933333333333334,0.895,0.10586500000000001,0.098415,0.0,208.425,208.425,205.29333333333335,205.29333333333335,0.0,0.0
11,0.0,1.0,0.0,1.0,1.0,0.0,0.0,1.0,0.0,100.0,1.0,1.1856,26.0,0.0,0.0,0.0,59.999996,0.0,26.0,26.0,26.0,26.0,0.06633333333333336,0.26380000000000003,-0.10350000000000001,293.884,-2.7929,-2.734125,-1.5922,-1.5116666666666667,-238.94,216.10250000000002,190.76775,0.0,0.0,0.0,0.0,0.022599999999999953,-5.498166666666667,-5.498166666666667,-0.5633,-0.13533333333333333,0.038249999999999895,-0.626,66.701,0.013800000000000002,-0.23735,-0.7879999999999994,100.0,1.0,1.0,206.0233333333333,0.0,0.0,0.0,0.0,0.0,0.0,0.0,8732.6,0.0,55.0,5.0,240.09666666666666,1.0,0.0,0.0,0.0,0.0,0.0,1.0,0.0,0.5609999999999999,0.5609999999999999,0.0,0.0,1.0,55.0,616.79921,10000.0,85.000001,85.000001,85.000001,85.000001,395.0,0.0,0.0,0.0,1.0,166.665,53.116,53.116,49.683,49.683,34.0,-49.7125,53.164,-23.56,26.572499999999998,0.0,1782.888,-1.1499999999999986,100.0,27.207,27.368,41.913,42.261,0.0,1.0,100.0,0.0,0.0,0.0,0.0,3056.333333333333,3088.1,3660.125,3847.7,305.7175,304.8616666666667,315.996,315.26375,22.05988888888889,20.6088,21.8814,21.3671,314.999998,314.999998,324.999988,324.999988,99.57101428571428,99.51203333333333,99.56717142857143,99.54522857142857,-0.7197499999999999,0.8855000000000001,-0.08700000000000001,0.1383333333333332,-0.06666666666666998,-0.06666666666666998,1.659,1.617,38.873999999999995,29.805,37.759,34.5445,61.344,36.9325,59.5875,51.687,58.900999999999996,35.9365,58.219,50.0985,57.846000000000004,35.433,58.192499999999995,49.574333333333335,0.6970000000000001,0.8866666666666663,0.10039500000000001,0.10838500000000001,0.0,208.815,208.845,206.0233333333333,206.0233333333333,0.0,0.0
12,0.0,1.0,0.0,1.0,1.0,0.0,0.0,1.0,0.0,100.0,1.0,1.1856,26.0,0.0,0.0,0.0,59.999996,0.0,26.0,26.0,26.0,26.0,0.05233333333333334,0.2774000000000001,0.003933333333333334,293.35,-2.842,-2.7645,-1.5516,-1.5175555555555558,-235.93,216.07999999999998,190.748375,0.0,0.0,0.0,0.0,0.025466666666666526,-5.498166666666667,-5.498166666666667,-0.548,0.30733333333333335,0.023374999999999924,0.517,66.824,0.034,-0.20605,-0.8700000000000001,100.0,1.0,1.0,206.17000000000002,0.0,0.0,0.0,0.0,0.0,0.0,0.0,8738.8,0.0,55.0,5.0,240.54000000000002,0.0,0.0,0.0,0.0,0.0,0.0,1.0,0.0,0.6059999999999981,0.6059999999999981,0.0,0.0,0.0,55.0,616.79921,10000.0,85.000001,85.000001,85.000001,85.000001,395.0,0.0,0.0,0.0,1.0,333.33500000000004,53.177,53.177,48.325,48.325,34.0,-49.1475,54.782,-25.8075,31.435,0.0,1782.842,-0.9149999999999991,100.0,27.18,27.298000000000002,41.894999999999996,42.113,0.0,1.0,100.0,0.0,0.0,0.0,0.0,2999.166666666667,3181.6,4141.0,4200.0,305.7545,304.777,314.7416666666667,314.46675,22.069444444444443,20.6142,21.8905,21.3749,314.999998,314.999998,324.999988,324.999988,99.57108571428572,99.51213333333334,99.5673,99.54535714285714,-0.71675,0.892,-0.05633333333333334,0.1661666666666668,-0.07499999999999574,-0.07000000000000028,1.5474999999999999,1.5095,38.934,29.8385,37.816,34.593,61.352999999999994,37.01,59.6205,51.742,58.909,36.007999999999996,58.2495,50.1515,57.851,35.501,58.2205,49.626,0.7189999999999999,0.8666666666666663,0.10785000000000002,0.108575,0.0,209.22,209.255,206.17000000000002,206.17000000000002,0.0,0.0
13,0.0,1.0,0.0,1.0,1.0,0.0,0.0,1.0,0.0,100.0,1.0,1.1856,26.0,0.0,0.0,0.0,59.999996,0.0,26.0,26.0,26.0,26.0,0.07511111111111113,0.27900000000000014,0.0347,292.953,-2.8211,-2.756125,-1.6198000000000001,-1.501888888888889,-232.51999999999998,216.055,190.72675,0.0,0.0,0.0,0.0,0.026699999999999946,-5.498166666666667,-5.498166666666667,-0.5401,-0.046,0.02287499999999998,-0.609,66.961,0.0426,-0.21357500000000001,-0.6459999999999999,100.0,1.0,1.0,206.53333333333333,0.0,0.0,0.0,0.0,0.0,0.0,0.0,8754.2,0.0,55.0,5.0,241.03333333333336,1.0,0.0,0.0,0.0,0.0,0.0,1.0,0.0,0.657,0.657,0.0,0.0,1.0,55.0,616.79921,10000.0,85.000001,85.000001,85.000001,85.000001,395.0,0.0,0.0,0.0,1.0,333.33500000000004,52.841,52.841,48.325,48.325,34.0,-50.49,53.25,-27.75,31.0975,0.0,1782.791,-1.3350000000000009,100.0,27.389,27.678,42.057,42.716,0.0,1.0,100.0,0.0,0.0,0.0,0.0,3134.5,3063.1,4195.75,4253.5,305.502,304.95233333333334,314.68833333333333,314.2305,22.080444444444446,20.6203,21.901,21.3839,314.999998,314.999998,324.999988,324.999988,99.57117142857143,99.51225,99.56744285714285,99.5455,-0.68275,0.913,-0.06583333333333333,0.15083333333333337,-0.07833333333332604,-0.06833333333332803,1.509,1.5035,39.003,29.877,37.882,34.6495,61.364999999999995,37.099000000000004,59.658500000000004,51.807,58.919,36.0895,58.285,50.214,57.858999999999995,35.579,58.2525,49.687333333333335,0.6856666666666666,0.8943333333333334,0.11012500000000001,0.10643000000000001,0.0,209.65,209.655,206.53333333333333,206.53333333333333,0.0,0.0
14,0.0,1.0,0.0,1.0,1.0,0.0,0.0,1.0,0.0,100.0,1.0,1.1856,26.0,0.0,0.0,0.0,59.999996,0.0,26.0,26.0,26.0,26.0,0.08244444444444432,0.2679,-0.016933333333333335,293.182,-2.8088,-2.7085,-1.6246,-1.4934444444444444,-229.1,216.03,190.705625,0.0,0.0,0.0,0.0,0.028666666666666507,-5.498166666666667,-5.498166666666667,-0.5506,-0.15866666666666665,0.050249999999999906,1.436,67.095,0.048,-0.22862500000000002,-0.9080000000000004,100.0,1.0,1.0,207.0233333333333,0.0,0.0,0.0,0.0,0.0,0.0,0.0,8775.0,0.0,55.0,5.0,241.51666666666665,0.0,0.0,0.0,0.0,0.0,0.0,1.0,0.0,0.7079999999999984,0.7079999999999984,0.0,0.0,0.0,55.0,616.79921,10000.0,85.000001,85.000001,85.000001,85.000001,395.0,0.0,0.0,0.0,1.0,333.33500000000004,52.917,52.917,48.569,48.569,34.0,-46.545,56.3,-24.68,31.2975,0.0,1782.74,-1.5899999999999999,100.0,27.506,27.562,42.138,42.786,0.0,1.0,100.0,0.0,0.0,0.0,0.0,2930.166666666667,3222.7,3952.5,4179.8,305.9065,304.66966666666667,315.1976666666667,314.511,22.091333333333335,20.6264,21.9115,21.3929,314.999998,314.999998,324.999988,324.999988,99.57125714285715,99.51236666666667,99.56758571428571,99.54565714285714,-0.65825,0.94175,-0.044333333333333336,0.17466666666666675,-0.07000000000000028,-0.09833333333332916,1.57,1.53,39.071,29.915,37.947,34.706,61.373999999999995,37.189,59.6945,51.871,58.927,36.1725,58.318,50.275,57.864000000000004,35.6575,58.2825,49.74733333333333,0.6696666666666666,0.9133333333333336,0.10194500000000001,0.10636500000000002,0.0,210.055,210.075,207.0233333333333,207.0233333333333,0.0,0.0
15,0.0,1.0,0.0,1.0,1.0,0.0,0.0,1.0,0.0,100.0,1.0,1.1856,26.0,0.0,0.0,0.0,59.999996,0.0,26.0,26.0,26.0,26.0,0.10755555555555563,0.27049999999999996,-0.00030000000000000003,293.198,-2.787,-2.6637500000000003,-1.6246,-1.4485555555555556,-225.88,216.01,190.6855,0.0,0.0,0.0,0.0,0.0305333333333333,-5.498166666666667,-5.498166666666667,-0.5431,0.3486666666666667,0.08287500000000003,1.331,67.22200000000001,0.0584,-0.212125,-1.1819999999999995,100.0,1.0,1.0,207.41,0.0,0.0,0.0,0.0,0.0,0.0,0.0,8791.4,0.0,55.0,5.0,241.97333333333336,1.0,0.0,0.0,0.0,0.0,0.0,1.0,0.0,0.7560000000000002,0.7560000000000002,0.0,0.0,1.0,55.0,616.79921,10000.0,85.000001,85.000001,85.000001,85.000001,395.0,0.0,0.0,0.0,1.0,333.33500000000004,53.04,53.04,48.676,48.676,34.0,-43.9725,56.278,-23.8375,32.7425,0.0,1782.692,-1.6649999999999991,100.0,27.516,27.619,41.888999999999996,42.808,0.0,1.0,100.0,0.0,0.0,0.0,0.0,2811.0,3210.6,3911.0,4336.3,306.22,304.69166666666666,315.31233333333336,314.167,22.101555555555557,20.6323,21.9212,21.4014,314.999998,314.999998,324.999988,324.999988,99.57131428571428,99.51246666666667,99.56771428571429,99.54578571428571,-0.6415,0.96275,-0.034,0.18766666666666687,-0.061666666666667425,-0.07333333333333059,1.572,1.526,39.135,29.951999999999998,38.007,34.759,61.381,37.2755,59.727000000000004,51.931,58.934,36.251999999999995,58.348,50.333,57.867999999999995,35.7335,58.3095,49.803666666666665,0.6603333333333334,0.9246666666666665,0.10626500000000001,0.10730500000000001,0.0,210.445,210.485,207.41,207.41,0.0,0.0
16,0.0,1.0,0.0,1.0,1.0,0.0,0.0,1.0,0.0,100.0,1.0,1.1856,26.0,0.0,0.0,0.0,59.999996,0.0,26.0,26.0,26.0,26.0,0.12844444444444436,0.26290000000000013,-0.014733333333333334,293.213,-2.8879,-2.69175,-1.6015000000000001,-1.4444444444444444,-222.24,215.99,190.66225,0.0,0.0,0.0,0.0,0.03266666666666651,-5.498166666666667,-5.498166666666667,-0.5627,-0.749,0.0754999999999999,0.17,67.36500000000001,0.0791,-0.22490000000000002,-1.5499999999999998,100.0,1.0,1.0,207.85000000000002,0.0,0.0,0.0,0.0,0.0,0.0,0.0,8809.9,0.0,55.0,5.0,242.48666666666668,0.0,0.0,0.0,0.0,0.0,0.0,1.0,0.0,0.8099999999999987,0.8099999999999987,0.0,0.0,0.0,55.0,616.79921,10000.0,85.000001,85.000001,85.000001,85.000001,395.0,0.0,0.0,0.0,1.0,166.665,53.07,53.07,48.325,48.325,34.0,-46.125,57.54,-22.1875,32.6275,0.0,1782.64,-1.3249999999999993,100.0,27.069,27.757,42.112,43.04,0.0,1.0,100.0,0.0,0.0,0.0,0.0,2900.833333333333,3280.3,3885.25,4157.4,306.165,304.47066666666666,315.36533333333335,314.55575,22.11277777777778,20.6389,21.9322,21.411,314.999998,314.999998,324.999988,324.999988,99.5714,99.5126,99.56785714285714,99.54594285714286,-0.6652499999999999,0.9450000000000001,-0.011333333333333334,0.21599999999999997,-0.05666666666667197,-0.0799999999999983,1.5925,1.512,39.205,29.993499999999997,38.076,34.8185,61.384,37.3735,59.766,51.9985,58.935,36.342,58.384,50.3975,57.867999999999995,35.8195,58.3425,49.867666666666665,0.6843333333333335,0.9039999999999999,0.10903000000000002,0.10867,0.0,210.835,210.91,207.85000000000002,207.85000000000002,0.0,0.0
17,0.0,1.0,0.0,1.0,1.0,0.0,0.0,1.0,0.0,100.0,1.0,1.1856,26.0,0.0,0.0,0.0,59.999996,0.0,26.0,26.0,26.0,26.0,0.13111111111111118,0.2741,-0.0022,292.953,-2.8492,-2.64575,-1.6353,-1.4701111111111111,-218.8,215.97750000000002,190.639875,0.0,0.0,0.0,0.0,0.03466666666666651,-5.498166666666667,-5.498166666666667,-0.5525,0.521,0.04812499999999997,-0.8190000000000001,67.498,0.0912,-0.206875,-1.0419999999999998,100.0,1.0,1.0,208.2266666666667,0.0,0.0,0.0,0.0,0.0,0.0,0.0,8826.0,0.0,55.0,5.0,242.96333333333334,1.0,0.0,0.0,0.0,0.0,0.0,1.0,0.0,0.8610000000000007,0.8610000000000007,0.0,0.0,1.0,55.0,616.79921,10000.0,85.000001,85.000001,85.000001,85.000001,395.0,0.0,0.0,0.0,1.0,166.665,52.795,52.795,48.309,48.309,34.0,-48.79,52.942,-25.285,33.375,0.0,1782.588,-1.2850000000000001,100.0,27.413,28.155,41.748,43.047,0.0,1.0,100.0,0.0,0.0,0.0,0.0,3076.333333333333,3047.4,4233.375,4220.8,305.7285,305.056,314.69966666666664,314.41025,22.12377777777778,20.6453,21.9425,21.4199,314.999998,314.999998,324.999988,324.999988,99.57148571428571,99.51271666666666,99.56801428571428,99.54608571428571,-0.6555,0.9450000000000001,-0.015166666666666667,0.21233333333333326,-0.07333333333333059,-0.05833333333333002,1.548,1.5145,39.272999999999996,30.0335,38.141,34.8745,61.391999999999996,37.468,59.8005,52.062,58.943,36.429,58.416,50.4585,57.873000000000005,35.9025,58.371,49.92733333333334,0.6853333333333333,0.891,0.10740000000000001,0.10731,0.0,211.31,211.35000000000002,208.2266666666667,208.2266666666667,0.0,0.0
18,0.0,1.0,0.0,1.0,1.0,0.0,0.0,1.0,0.0,100.0,1.0,1.1856,26.0,0.0,0.0,0.0,59.999996,0.0,26.0,26.0,26.0,26.0,0.13811111111111107,0.26280000000000014,-0.06330000000000001,292.938,-2.8774,-2.620625,-1.6531,-1.414111111111111,-215.56,215.965,190.618875,0.0,0.0,0.0,0.0,0.03653333333333331,-5.498166666666667,-5.498166666666667,-0.5618000000000001,-0.558,0.07337499999999997,-0.039,67.623,0.0847,-0.222925,-1.1019999999999994,100.0,1.0,1.0,208.61666666666667,0.0,0.0,0.0,0.0,0.0,0.0,0.0,8842.5,0.0,55.0,5.0,243.41666666666666,0.0,0.0,0.0,0.0,0.0,0.0,1.0,0.0,0.9089999999999989,0.9089999999999989,0.0,0.0,0.0,55.0,616.79921,10000.0,85.000001,85.000001,85.000001,85.000001,395.0,0.0,0.0,0.0,1.0,166.665,52.75,52.75,48.187,48.187,34.0,-47.66,57.08,-24.58,30.8325,0.0,1782.54,-1.8049999999999997,100.0,27.2,27.987000000000002,42.153999999999996,43.442,0.0,1.0,100.0,0.0,0.0,0.0,0.0,3041.833333333333,3238.5,4000.125,4137.9,305.874,304.5303333333333,315.181,314.58625,22.13388888888889,20.6512,21.9524,21.4285,314.999998,314.999998,324.999988,324.999988,99.57154285714286,99.51283333333333,99.56814285714286,99.54622857142857,-0.6327499999999999,0.9712500000000001,-0.029333333333333333,0.19416666666666682,-0.05666666666667197,-0.06666666666666998,1.569,1.5425,39.337,30.0705,38.202,34.928,61.396,37.5555,59.835499999999996,52.1235,58.946,36.5095,58.448499999999996,50.5175,57.873999999999995,35.9795,58.4005,49.98533333333333,0.6563333333333334,0.9273333333333333,0.11048000000000001,0.10523,0.0,211.66500000000002,211.685,208.61666666666667,208.61666666666667,0.0,0.0
19,0.0,1.0,0.0,1.0,1.0,0.0,0.0,1.0,0.0,100.0,1.0,1.1856,26.0,0.0,0.0,0.0,59.999996,0.0,26.0,26.0,26.0,26.0,0.1691111111111112,0.27480000000000016,-0.0006000000000000001,292.542,-2.8501000000000003,-2.6094999999999997,-1.6682000000000001,-1.397,-212.31,215.95749999999998,190.59775,0.0,0.0,0.0,0.0,0.03843333333333332,-5.498166666666667,-5.498166666666667,-0.5559000000000001,0.8163333333333334,0.08450000000000002,-0.40700000000000003,67.74600000000001,0.0898,-0.21345,-1.428,100.0,1.0,1.0,209.03,0.0,0.0,0.0,0.0,0.0,0.0,0.0,8860.1,0.0,55.0,5.0,243.86,1.0,0.0,0.0,0.0,0.0,0.0,1.0,0.0,0.9570000000000007,0.9570000000000007,0.0,0.0,1.0,55.0,616.79921,10000.0,85.000001,85.000001,85.000001,85.000001,395.0,0.0,0.0,0.0,1.0,166.665,52.063,52.063,48.278999999999996,48.278999999999996,34.0,-48.88,58.536,-24.155,32.9975,0.0,1782.493,-2.094999999999999,100.0,27.656,28.475,41.832,43.399,0.0,1.0,100.0,0.0,0.0,0.0,0.0,3131.333333333333,3281.2,4083.25,4274.0,305.5,304.293,315.05033333333336,314.333,22.144111111111112,20.6574,21.9621,21.437,314.999998,314.999998,324.999988,324.999988,99.57162857142858,99.51295,99.56827142857144,99.54635714285715,-0.609,0.989,-0.0075,0.21700000000000008,-0.06833333333332803,-0.0799999999999983,1.582,1.5234999999999999,39.400999999999996,30.109,38.263,34.9815,61.403,37.649,59.8665,52.1835,58.951,36.5955,58.477000000000004,50.5755,57.876999999999995,36.062,58.426,50.04233333333333,0.6256666666666666,0.9459999999999997,0.10218,0.10948500000000001,0.0,212.065,212.13,209.03,209.03,0.0,0.0
20,0.0,1.0,0.0,1.0,1.0,0.0,0.0,1.0,0.0,100.0,1.0,1.1856,26.0,0.0,0.0,0.0,59.999996,0.0,26.0,26.0,26.0,26.0,0.18166666666666687,0.2714000000000001,0.035300000000000005,292.603,-2.9032999999999998,-2.66875,-1.655,-1.3975555555555557,-208.85,215.9525,190.5755,0.0,0.0,0.0,0.0,0.04043333333333332,-5.498166666666667,-5.498166666666667,-0.5514,-1.0516666666666667,0.09650000000000003,0.777,67.881,0.1028,-0.21657500000000002,-2.03,100.0,1.0,1.0,209.26,0.0,0.0,0.0,0.0,0.0,0.0,0.0,8869.8,0.0,55.0,5.0,244.34333333333336,0.0,0.0,0.0,0.0,0.0,0.0,0.0,0.0,1.0079999999999991,1.0079999999999991,0.0,0.0,0.0,55.0,616.79921,10000.0,85.000001,85.000001,85.000001,85.000001,395.0,0.0,0.0,0.0,1.0,166.665,53.192,53.192,47.028,47.028,34.0,-41.3225,57.494,-23.5225,36.1,0.0,1782.442,-1.9199999999999982,100.0,27.255,28.162,42.548,43.918,0.0,1.0,100.0,0.0,0.0,0.0,0.0,2704.5,3240.4,4144.5,4438.6,306.7445,304.62233333333336,314.711,313.8865,22.154666666666667,20.6638,21.9726,21.4462,314.999998,314.999998,324.999988,324.999988,99.57168571428572,99.51306666666666,99.56841428571428,99.54651428571428,-0.605,0.9955,0.017166666666666667,0.23733333333333317,-0.04833333333333201,-0.07499999999999574,1.525,1.447,39.467,30.149,38.329,35.039,61.400999999999996,37.7455,59.9055,52.2505,58.95,36.685,58.5135,50.64,57.873000000000005,36.147,58.4585,50.105666666666664,0.6336666666666666,0.9470000000000001,0.10876500000000001,0.10551500000000001,0.0,212.425,212.51999999999998,209.26,209.26,0.0,0.0
21,0.0,1.0,0.0,1.0,1.0,0.0,0.0,1.0,0.0,100.0,1.0,1.1856,26.0,0.0,0.0,0.0,59.999996,0.0,26.0,26.0,26.0,26.0,0.17766666666666686,0.24940000000000007,-0.07703333333333334,292.969,-2.8266999999999998,-2.7110000000000003,-1.6687,-1.4713333333333334,-205.39,215.95499999999998,190.55275,0.0,0.0,0.0,0.0,0.04246666666666654,-5.498166666666667,-5.498166666666667,-0.5814,0.48333333333333334,0.07600000000000007,-1.231,68.007,0.1222,-0.228325,-1.452,100.0,1.0,1.0,209.94333333333333,0.0,0.0,0.0,0.0,0.0,0.0,0.0,8898.7,0.0,55.0,5.0,244.79666666666668,1.0,0.0,0.0,0.0,0.0,0.0,0.0,0.0,1.059000000000001,1.059000000000001,0.0,0.0,1.0,55.0,616.79921,10000.0,85.000001,85.000001,85.000001,85.000001,395.0,0.0,0.0,0.0,1.0,166.665,52.414,52.414,48.721000000000004,48.721000000000004,34.0,-48.4675,55.816,-21.03,32.8525,0.0,1782.391,-0.46499999999999986,100.0,27.423000000000002,28.526,41.782,43.623000000000005,0.0,1.0,100.0,0.0,0.0,0.0,0.0,3031.833333333333,3173.5,3875.75,4010.1000000000004,305.7915,304.55333333333334,315.5523333333333,314.92725,22.165333333333333,20.6704,21.9828,21.4552,314.999998,314.999998,324.999988,324.999988,99.57175714285714,99.5132,99.56857142857143,99.54665714285714,-0.67225,0.927,0.02333333333333333,0.2486666666666668,-0.06499999999999773,-0.086666666666666,1.6265,1.5735000000000001,39.534,30.189999999999998,38.391999999999996,35.095,61.407,37.8425,59.9365,52.3125,58.954,36.774,58.542,50.6995,57.875,36.2325,58.484,50.164,0.7363333333333335,0.8426666666666662,0.10784500000000001,0.10760000000000002,0.0,212.85500000000002,212.94,209.94333333333333,209.94333333333333,0.0,0.0
22,0.0,1.0,0.0,1.0,1.0,0.0,0.0,1.0,0.0,100.0,1.0,1.1856,26.0,0.0,0.0,0.0,59.999996,0.0,26.0,26.0,26.0,26.0,0.11811111111111106,0.2582,0.02706666666666667,292.358,-2.7923,-2.7315,-1.6455000000000002,-1.5267777777777778,-201.92000000000002,215.96,190.529,0.0,0.0,0.0,0.0,0.04446666666666654,-5.498166666666667,-5.498166666666667,-0.5587,0.13233333333333336,0.06800000000000006,0.912,68.141,0.10590000000000001,-0.2079,-0.3540000000000001,100.0,1.0,1.0,210.11,0.0,0.0,0.0,0.0,0.0,0.0,0.0,8905.8,0.0,55.0,5.0,245.28333333333336,0.0,0.0,0.0,0.0,0.0,0.0,0.0,0.0,1.1099999999999994,1.1099999999999994,0.0,0.0,0.0,55.0,616.79921,10000.0,85.000001,85.000001,85.000001,85.000001,395.0,0.0,0.0,0.0,1.0,166.665,52.414,52.414,47.501000000000005,47.501000000000005,34.0,-46.7725,55.676,-24.28,35.269999999999996,0.0,1782.34,0.134999999999998,100.0,27.781,28.366,42.438,43.731,0.0,1.0,100.0,0.0,0.0,0.0,0.0,2870.0,3224.6,4123.75,4324.2,306.043,304.5316666666667,314.817,314.1615,22.176111111111112,20.6769,21.9933,21.4644,314.999998,314.999998,324.999988,324.999988,99.57184285714285,99.51331666666667,99.56871428571428,99.54682857142858,-0.714,0.8795000000000001,-0.002,0.20983333333333332,-0.061666666666667425,-0.06333333333333258,1.512,1.4745,39.601,30.2305,38.458,35.152,61.416,37.9335,59.975,52.378,58.962,36.8575,58.577,50.7625,57.881,36.312,58.516,50.22566666666667,0.7906666666666666,0.7826666666666666,0.10258500000000001,0.09963000000000001,0.0,213.29500000000002,213.305,210.11,210.11,0.0,0.0
23,0.0,1.0,0.0,1.0,1.0,0.0,0.0,1.0,0.0,100.0,1.0,1.1856,26.0,0.0,0.0,0.0,59.999996,0.0,26.0,26.0,26.0,26.0,0.04888888888888898,0.24160000000000004,-0.023933333333333334,292.404,-2.8071,-2.6985,-1.5551,-1.561777777777778,-198.44,215.9675,190.50575,0.0,0.0,0.0,0.0,0.046499999999999986,-5.498166666666667,-5.498166666666667,-0.5773,-0.3303333333333333,0.04125000000000001,-1.363,68.27,0.06470000000000001,-0.23397500000000002,0.5860000000000003,100.0,1.0,1.0,210.59,0.0,0.0,0.0,0.0,0.0,0.0,0.0,8926.1,0.0,55.0,5.0,245.74666666666667,1.0,0.0,0.0,0.0,0.0,0.0,0.0,0.0,1.1610000000000014,1.1610000000000014,0.0,0.0,1.0,55.0,616.79921,10000.0,85.000001,85.000001,85.000001,85.000001,395.0,0.0,0.0,0.0,1.0,166.665,52.016999999999996,52.016999999999996,48.325,48.325,34.0,-55.4775,52.244,-25.3425,29.885,0.0,1782.288,0.5300000000000011,100.0,27.877,28.407,42.646,43.89,0.0,1.0,100.0,0.0,0.0,0.0,0.0,3296.5,3103.2,3975.0,3995.0,305.1015,304.82866666666666,315.17633333333333,314.82525,22.186888888888888,20.6834,22.0038,21.4735,314.999998,314.999998,324.999988,324.999988,99.57194285714286,99.51341666666667,99.56884285714285,99.54697142857142,-0.7677499999999999,0.8260000000000001,-0.068,0.15666666666666673,-0.07333333333333059,-0.06833333333332803,1.5145,1.538,39.668,30.271,38.524,35.2095,61.429,38.019999999999996,60.010999999999996,52.442,58.974000000000004,36.9375,58.6105,50.8245,57.89,36.3885,58.546,50.286,0.8253333333333335,0.7490000000000001,0.107175,0.10701500000000001,0.0,213.7,213.655,210.59,210.59,0.0,0.0
24,0.0,1.0,0.0,1.0,1.0,0.0,0.0,1.0,0.0,100.0,1.0,1.1856,26.0,0.0,0.0,0.0,59.999996,0.0,26.0,26.0,26.0,26.0,-0.025000000000000022,0.26370000000000005,-0.10003333333333334,292.679,-2.779,-2.7597500000000004,-1.5685,-1.5307777777777778,-195.36,215.975,190.484875,0.0,0.0,0.0,0.0,0.04830000000000001,-5.498166666666667,-5.498166666666667,-0.5773,-0.30833333333333335,0.02124999999999999,0.484,68.385,0.0172,-0.21732500000000002,1.0600000000000005,100.0,1.0,1.0,210.88333333333333,0.0,0.0,0.0,0.0,0.0,0.0,0.0,8938.6,0.0,55.0,5.0,246.16,0.0,0.0,0.0,0.0,0.0,0.0,0.0,0.0,1.2059999999999995,1.2059999999999995,0.0,0.0,0.0,55.0,616.79921,10000.0,85.000001,85.000001,85.000001,85.000001,395.0,0.0,0.0,0.0,1.0,333.33500000000004,53.055,53.055,47.623000000000005,47.623000000000005,34.0,-48.6525,48.418,-30.1025,27.6625,0.0,1782.241,0.5399999999999991,100.0,28.048000000000002,27.901,42.879,43.459,0.0,1.0,100.0,0.0,0.0,0.0,0.0,2899.166666666667,2936.4,4313.75,4081.7,306.012,305.525,314.40366666666665,314.7865,22.196444444444445,20.6889,22.012999999999998,21.4814,314.999998,314.999998,324.999988,324.999988,99.57202857142858,99.51351666666666,99.56897142857143,99.5471,-0.7887500000000001,0.8055,-0.10250000000000001,0.11066666666666669,-0.05333333333332746,-0.06833333333332803,1.4955,1.5474999999999999,39.727999999999994,30.305500000000002,38.581,35.259,61.444,38.09,60.042500000000004,52.496,58.986999999999995,37.001999999999995,58.64,50.876,57.9,36.45,58.5725,50.336333333333336,0.831,0.7426666666666666,0.09774000000000001,0.10288000000000001,0.0,214.095,214.0,210.88333333333333,210.88333333333333,0.0,0.0
25,0.0,1.0,0.0,1.0,1.0,0.0,0.0,1.0,0.0,100.0,1.0,1.1856,26.0,0.0,0.0,0.0,59.999996,0.0,26.0,26.0,26.0,26.0,-0.037666666666666626,0.23740000000000006,-0.03456666666666667,292.74,-2.7615,-2.7635,-1.574,-1.563777777777778,-191.87,215.98250000000002,190.459875,0.0,0.0,0.0,0.0,0.05033333333333334,-5.498166666666667,-5.498166666666667,-0.616,-0.259,0.0058749999999998526,-1.363,68.512,-0.029900000000000003,-0.23135,1.12,100.0,1.0,1.0,211.42666666666668,0.0,0.0,0.0,0.0,0.0,0.0,0.0,8961.5,0.0,55.0,5.0,246.61666666666667,1.0,0.0,0.0,0.0,0.0,0.0,0.0,0.0,1.256999999999998,1.256999999999998,0.0,0.0,1.0,55.0,616.79921,10000.0,85.000001,85.000001,85.000001,85.000001,395.0,0.0,0.0,0.0,1.0,333.33500000000004,52.246,52.246,48.294,48.294,34.0,-55.6225,52.088,-29.572499999999998,24.39,0.0,1782.19,0.5249999999999986,100.0,27.889,27.998,42.903999999999996,43.016,0.0,1.0,100.0,0.0,0.0,0.0,0.0,3228.833333333333,3146.3,3945.25,3888.1000000000004,305.2565,304.709,315.32733333333334,315.21975,22.20711111111111,20.6952,22.0234,21.4904,314.999998,314.999998,324.999988,324.999988,99.57212857142858,99.51361666666666,99.56912857142858,99.54724285714286,-0.8385,0.7655000000000001,-0.16133333333333336,0.06899999999999995,-0.06499999999999773,-0.07833333333332604,1.5665,1.595,39.794,30.345,38.646,35.314499999999995,61.462,38.173,60.08,52.5575,59.003,37.078,58.6745,50.935,57.913,36.5225,58.604,50.394333333333336,0.8256666666666668,0.7493333333333334,0.107675,0.10861000000000001,0.0,214.49,214.37,211.42666666666668,211.42666666666668,0.0,0.0
26,0.0,1.0,0.0,1.0,1.0,0.0,0.0,1.0,0.0,100.0,1.0,1.1856,26.0,0.0,0.0,0.0,59.999996,0.0,26.0,26.0,26.0,26.0,-0.10099999999999998,0.2652000000000001,0.055466666666666664,291.55,-2.7535,-2.8385,-1.5843,-1.574111111111111,-188.17000000000002,215.9875,190.43275,0.0,0.0,0.0,0.0,0.05246666666666655,-5.498166666666667,-5.498166666666667,-0.5750000000000001,0.891,-0.051750000000000185,-1.429,68.65,-0.059500000000000004,-0.19762500000000002,1.4160000000000004,100.0,1.0,1.0,211.60333333333335,0.0,0.0,0.0,0.0,0.0,0.0,0.0,8969.1,0.0,55.0,5.0,247.11333333333334,0.0,0.0,0.0,0.0,0.0,0.0,0.0,0.0,1.311,1.311,0.0,0.0,0.0,55.0,616.79921,10000.0,85.000001,85.000001,85.000001,85.000001,395.0,0.0,0.0,0.0,1.0,166.665,51.559,51.559,46.753,46.753,34.0,-57.9875,49.092,-37.9275,25.79,0.0,1782.139,0.4399999999999977,100.0,28.977,28.439,43.516999999999996,43.028999999999996,0.0,1.0,100.0,0.0,0.0,0.0,0.0,3338.5,2984.9,4593.5,4295.4,304.8955,305.0966666666667,313.841,314.238,22.218888888888888,20.7022,22.0346,21.4999,314.999998,314.999998,324.999988,324.999988,99.57224285714285,99.51371666666667,99.56928571428571,99.5474,-0.84175,0.7405,-0.19,0.028000000000000025,-0.06499999999999773,-0.07333333333333059,1.44,1.494,39.867999999999995,30.3885,38.716,35.3745,61.489999999999995,38.2525,60.12,52.6185,59.028999999999996,37.150999999999996,58.712,50.9935,57.936,36.592,58.638,50.45133333333334,0.8163333333333336,0.7479999999999998,0.103105,0.10728000000000001,0.0,214.96,214.845,211.60333333333335,211.60333333333335,0.0,0.0
27,0.0,1.0,0.0,1.0,1.0,0.0,0.0,1.0,0.0,100.0,1.0,1.1856,26.0,0.0,0.0,0.0,59.999996,0.0,26.0,26.0,26.0,26.0,-0.1336666666666666,0.25839999999999996,0.002033333333333333,291.779,-2.7483,-2.81475,-1.5641,-1.6031111111111112,-185.07999999999998,215.99,190.411125,0.0,0.0,0.0,0.0,0.054266666666666574,-5.498166666666667,-5.498166666666667,-0.5913,-1.125,-0.06099999999999994,0.771,68.763,-0.0776,-0.236275,1.2199999999999998,100.0,1.0,1.0,211.96,0.0,0.0,0.0,0.0,0.0,0.0,0.0,8984.2,0.0,55.0,5.0,247.52333333333334,1.0,0.0,0.0,0.0,0.0,0.0,0.0,0.0,1.355999999999998,1.355999999999998,0.0,0.0,1.0,55.0,616.79921,10000.0,85.000001,85.000001,85.000001,85.000001,395.0,0.0,0.0,0.0,1.0,333.33500000000004,52.016999999999996,52.016999999999996,46.89,46.89,34.0,-56.245000000000005,49.704,-34.0125,25.689999999999998,0.0,1782.091,0.17999999999999972,100.0,28.887999999999998,27.868,44.598,43.402,0.0,1.0,100.0,0.0,0.0,0.0,0.0,3238.5,3058.5,4201.375,4196.4,305.0725,305.258,314.568,314.47575,22.228555555555555,20.7077,22.0441,21.5081,314.999998,314.999998,324.999988,324.999988,99.57232857142857,99.51378333333334,99.56941428571429,99.54752857142857,-0.8414999999999999,0.75325,-0.19016666666666665,0.032666666666666844,-0.04333333333332945,-0.07166666666666544,1.463,1.514,39.928,30.423000000000002,38.775999999999996,35.4255,61.51,38.317,60.158,52.674,59.047,37.210499999999996,58.7475,51.0465,57.951,36.647999999999996,58.670500000000004,50.503,0.7956666666666665,0.7683333333333335,0.09956500000000001,0.11357500000000001,0.0,215.23000000000002,215.14,211.96,211.96,0.0,0.0
28,0.0,1.0,0.0,1.0,1.0,0.0,0.0,1.0,0.0,100.0,1.0,1.1856,26.0,0.0,0.0,0.0,59.999996,0.0,26.0,26.0,26.0,26.0,-0.14411111111111108,0.25870000000000015,-0.06273333333333334,292.267,-2.7247,-2.81475,-1.5091,-1.6225555555555558,-181.36,215.99,190.384625,0.0,0.0,0.0,0.0,0.056433333333333335,-5.498166666666667,-5.498166666666667,-0.605,0.591,-0.06687500000000002,0.712,68.894,-0.09140000000000001,-0.22135000000000002,1.0839999999999996,100.0,1.0,1.0,212.54666666666668,0.0,0.0,0.0,0.0,0.0,0.0,0.0,9009.1,0.0,55.0,5.0,247.99333333333334,0.0,0.0,0.0,0.0,0.0,0.0,0.0,0.0,1.4100000000000001,1.4100000000000001,0.0,0.0,0.0,55.0,616.79921,10000.0,85.000001,85.000001,85.000001,85.000001,395.0,0.0,0.0,0.0,1.0,166.665,52.078,52.078,47.928,47.928,34.0,-55.79,49.314,-32.1775,23.5925,0.0,1782.04,-0.11499999999999844,100.0,28.997,27.796,43.866,42.785,0.0,1.0,100.0,0.0,0.0,0.0,0.0,3234.0,3018.9,4075.25,4041.5,305.064,305.3106666666667,314.95433333333335,314.92275,22.240222222222222,20.7144,22.055,21.5175,314.999998,314.999998,324.999988,324.999988,99.57245714285715,99.51388333333334,99.56957142857142,99.54767142857143,-0.82575,0.76175,-0.20233333333333334,0.015333333333333421,-0.06666666666666998,-0.0799999999999983,1.5385,1.585,40.001000000000005,30.465,38.844,35.484,61.537,38.3965,60.1945,52.7345,59.072,37.283,58.7815,51.1045,57.973,36.7175,58.701499999999996,50.559,0.7726666666666664,0.8006666666666664,0.10444500000000001,0.10371000000000001,0.0,215.685,215.57999999999998,212.54666666666668,212.54666666666668,0.0,0.0
29,0.0,1.0,0.0,1.0,1.0,0.0,0.0,1.0,0.0,100.0,1.0,1.1856,26.0,0.0,0.0,0.0,59.999996,0.0,26.0,26.0,26.0,26.0,-0.11511111111111105,0.25890000000000013,0.024766666666666666,291.87,-2.7461,-2.771125,-1.5517,-1.5995555555555556,-177.84,215.9875,190.3585,0.0,0.0,0.0,0.0,0.058466666666666556,-5.498166666666667,-5.498166666666667,-0.6052000000000001,-0.76,-0.06687500000000002,-0.704,69.024,-0.08600000000000001,-0.21375000000000002,0.7320000000000002,100.0,1.0,1.0,212.75333333333333,0.0,0.0,0.0,0.0,0.0,0.0,0.0,9017.8,0.0,55.0,5.0,248.46,1.0,0.0,0.0,0.0,0.0,0.0,0.0,0.0,1.4609999999999985,1.4609999999999985,0.0,0.0,1.0,55.0,616.79921,10000.0,85.000001,85.000001,85.000001,85.000001,395.0,0.0,0.0,0.0,1.0,166.665,52.124,52.124,46.86,46.86,34.0,-58.86,50.452,-35.745,25.025,0.0,1781.988,-0.21499999999999986,100.0,28.457,27.674,44.171,43.077,0.0,1.0,100.0,0.0,0.0,0.0,0.0,3403.5,3078.5,4385.375,4160.9,304.858,305.05766666666665,314.2776666666667,314.50675,22.25111111111111,20.7206,22.0656,21.5266,314.999998,314.999998,324.999988,324.999988,99.57255714285715,99.51398333333333,99.56972857142857,99.54782857142857,-0.83925,0.76275,-0.19783333333333333,0.023500000000000076,-0.046666666666666856,-0.060000000000002274,1.4775,1.4975,40.069,30.503999999999998,38.91,35.541,61.558,38.4695,60.2355,52.795500000000004,59.092,37.3505,58.82,51.163,57.989000000000004,36.7815,58.7365,50.616,0.7696666666666667,0.8096666666666663,0.10366500000000001,0.108105,0.0,216.03,215.97,212.75333333333333,212.75333333333333,0.0,0.0
30,0.0,1.0,0.0,1.0,1.0,0.0,0.0,1.0,0.0,100.0,1.0,1.1856,26.0,0.0,0.0,0.0,59.999996,0.0,26.0,26.0,26.0,26.0,-0.11688888888888893,0.2551000000000001,0.016766666666666666,291.489,-2.7246,-2.755125,-1.5579,-1.546888888888889,-174.73000000000002,215.98250000000002,190.33525,0.0,0.0,0.0,0.0,0.06026666666666658,-5.498166666666667,-5.498166666666667,-0.6112000000000001,0.788,-0.06475000000000009,0.626,69.132,-0.07300000000000001,-0.2222,0.5499999999999998,100.0,1.0,1.0,213.18666666666667,0.0,0.0,0.0,0.0,0.0,0.0,0.0,9036.2,0.0,55.0,5.0,248.85000000000002,0.0,0.0,0.0,0.0,0.0,0.0,1.0,0.0,1.5060000000000002,1.5060000000000002,0.0,0.0,0.0,55.0,616.79921,10000.0,85.000001,85.000001,85.000001,85.000001,395.0,0.0,0.0,0.0,1.0,166.665,51.147,51.147,47.119,47.119,34.0,-58.24,52.582,-34.3125,26.0425,0.0,1781.944,-0.3049999999999997,100.0,29.429000000000002,28.336,44.045,42.947,0.0,1.0,100.0,0.0,0.0,0.0,0.0,3382.333333333333,3168.7,4291.875,4252.6,304.7425,304.687,314.52733333333333,314.46625,22.26088888888889,20.726399999999998,22.0748,21.5345,314.999998,314.999998,324.999988,324.999988,99.57265714285714,99.51406666666666,99.56985714285715,99.54795714285714,-0.8140000000000001,0.7735,-0.1905,0.05033333333333334,-0.06499999999999773,-0.07333333333333059,1.514,1.533,40.131,30.54,38.968,35.591,61.583,38.54,60.266999999999996,52.8475,59.114000000000004,37.4155,58.8495,51.2125,58.009,36.843,58.763,50.66433333333333,0.7530000000000001,0.8026666666666666,0.11315000000000001,0.11560000000000001,0.0,216.42000000000002,216.335,213.18666666666667,213.18666666666667,0.0,0.0
31,0.0,1.0,0.0,1.0,1.0,0.0,0.0,1.0,0.0,100.0,1.0,1.1856,26.0,0.0,0.0,0.0,59.999996,0.0,26.0,26.0,26.0,26.0,-0.07044444444444442,0.25,-0.02846666666666667,291.245,-2.7278000000000002,-2.8286249999999997,-1.5804,-1.545777777777778,-171.2,215.975,190.309375,0.0,0.0,0.0,0.0,0.06233333333333335,-5.498166666666667,-5.498166666666667,-0.5872,-0.3943333333333333,-0.05237500000000006,-0.714,69.26,-0.0601,-0.214875,0.2999999999999998,100.0,1.0,1.0,213.43,0.0,0.0,0.0,0.0,0.0,0.0,0.0,9046.5,0.0,55.0,5.0,249.31333333333333,1.0,0.0,0.0,0.0,0.0,0.0,1.0,0.0,1.5569999999999986,1.5569999999999986,0.0,0.0,1.0,55.0,616.79921,10000.0,85.000001,85.000001,85.000001,85.000001,395.0,0.0,0.0,0.0,1.0,333.33500000000004,51.727000000000004,51.727000000000004,45.775999999999996,45.775999999999996,34.0,-53.265,50.968,-36.0125,26.450000000000003,0.0,1781.891,-0.4250000000000007,100.0,29.145,28.592,44.620000000000005,43.832,0.0,1.0,100.0,0.0,0.0,0.0,0.0,3163.166666666667,3056.2,4482.375,4204.6,305.47,305.073,314.0203333333333,314.31225,22.27188888888889,20.7329,22.0855,21.5438,314.999998,314.999998,324.999988,324.999988,99.57277142857143,99.51416666666667,99.57001428571428,99.5481,-0.798,0.7877500000000001,-0.17350000000000002,0.05233333333333334,-0.051666666666669414,-0.05833333333333002,1.444,1.4455,40.199,30.5805,39.034,35.649,61.605000000000004,38.6185,60.3085,52.9105,59.134,37.4875,58.888,51.272999999999996,58.025999999999996,36.911500000000004,58.7985,50.723333333333336,0.7463333333333337,0.8206666666666664,0.10953,0.11220000000000001,0.0,216.775,216.72,213.43,213.43,0.0,0.0
32,0.0,1.0,0.0,1.0,1.0,0.0,0.0,1.0,0.0,100.0,1.0,1.1856,26.0,0.0,0.0,0.0,59.999996,0.0,26.0,26.0,26.0,26.0,-0.042888888888888865,0.24570000000000003,-0.06293333333333334,291.733,-2.7568,-2.76025,-1.6082,-1.6492222222222221,-167.45999999999998,215.965,190.2825,0.0,0.0,0.0,0.0,0.0645,-5.498166666666667,-5.498166666666667,-0.6121,0.06,-0.07337499999999997,-1.195,69.389,-0.041600000000000005,-0.232575,0.3460000000000001,100.0,1.0,1.0,214.04000000000002,0.0,0.0,0.0,0.0,0.0,0.0,0.0,9072.4,0.0,55.0,5.0,249.77333333333334,0.0,0.0,0.0,0.0,0.0,0.0,1.0,0.0,1.6110000000000007,1.6110000000000007,0.0,0.0,0.0,55.0,616.79921,10000.0,85.000001,85.000001,85.000001,85.000001,395.0,0.0,0.0,0.0,1.0,166.665,51.422,51.422,47.256,47.256,34.0,-57.4975,50.254000000000005,-31.432499999999997,26.1475,0.0,1781.838,-0.3200000000000003,100.0,29.021,28.698,44.271,43.641,0.0,1.0,100.0,0.0,0.0,0.0,0.0,3367.0,3030.6,4109.625,3926.3,304.8825,305.097,315.04533333333336,315.07775,22.283444444444445,20.7399,22.0966,21.5534,314.999998,314.999998,324.999988,324.999988,99.57287142857143,99.51426666666667,99.57017142857143,99.54825714285714,-0.7987500000000001,0.7855,-0.16066666666666665,0.07150000000000012,-0.0799999999999983,-0.060000000000002274,1.559,1.562,40.271,30.624000000000002,39.104,35.709,61.626000000000005,38.7035,60.3455,52.973,59.153999999999996,37.5655,58.9225,51.333,58.042,36.986000000000004,58.83,50.781333333333336,0.7546666666666666,0.8043333333333336,0.10674000000000002,0.110085,0.0,217.185,217.125,214.04000000000002,214.04000000000002,0.0,0.0
33,0.0,1.0,0.0,1.0,1.0,0.0,0.0,1.0,0.0,100.0,1.0,1.1856,26.0,0.0,0.0,0.0,59.999996,0.0,26.0,26.0,26.0,26.0,-0.06344444444444441,0.24870000000000014,-0.046,291.672,-2.684,-2.814625,-1.5602,-1.577777777777778,-164.34,215.95499999999998,190.25925,0.0,0.0,0.0,0.0,0.06633333333333336,-5.498166666666667,-5.498166666666667,-0.6105,-0.138,-0.074125,1.2730000000000001,69.5,-0.0354,-0.2169,0.4500000000000002,100.0,1.0,1.0,214.25666666666666,0.0,0.0,0.0,0.0,0.0,0.0,0.0,9081.5,0.0,55.0,5.0,250.17333333333335,1.0,0.0,0.0,0.0,0.0,0.0,1.0,0.0,1.6559999999999988,1.6559999999999988,0.0,0.0,1.0,55.0,616.79921,10000.0,85.000001,85.000001,85.000001,85.000001,395.0,0.0,0.0,0.0,1.0,166.665,51.956,51.956,46.844,46.844,34.0,-51.8775,50.19,-32.317499999999995,27.755,0.0,1781.793,-0.5599999999999987,100.0,29.139,28.28,44.308,43.594,0.0,1.0,100.0,0.0,0.0,0.0,0.0,3108.5,2998.7,4279.875,4215.2,305.3815,305.366,314.4923333333333,314.50775,22.293,20.7455,22.1058,21.5614,314.999998,314.999998,324.999988,324.999988,99.57297142857144,99.51435,99.5703,99.54838571428571,-0.76125,0.82025,-0.14983333333333335,0.07616666666666672,-0.06333333333333258,-0.06499999999999773,1.4949999999999999,1.512,40.331,30.6595,39.162,35.759,61.644,38.771,60.3785,53.025999999999996,59.17,37.6275,58.9535,51.384,58.056,37.045,58.858000000000004,50.831,0.7450000000000001,0.8276666666666666,0.10749500000000001,0.10845500000000001,0.0,217.515,217.45499999999998,214.25666666666666,214.25666666666666,0.0,0.0
34,0.0,1.0,0.0,1.0,1.0,0.0,0.0,1.0,0.0,100.0,1.0,1.1856,26.0,0.0,0.0,0.0,59.999996,0.0,26.0,26.0,26.0,26.0,-0.03966666666666663,0.24180000000000001,-0.12976666666666667,292.145,-2.8059000000000003,-2.7775,-1.5998,-1.5731111111111111,-160.79,215.9425,190.232,0.0,0.0,0.0,0.0,0.0683999999999999,-5.498166666666667,-5.498166666666667,-0.6392,-0.8206666666666667,-0.036125000000000185,0.081,69.623,-0.0324,-0.226325,0.19200000000000017,100.0,1.0,1.0,214.67000000000002,0.0,0.0,0.0,0.0,0.0,0.0,0.0,9099.1,0.0,55.0,5.0,250.62,0.0,0.0,0.0,0.0,0.0,0.0,1.0,0.0,1.7070000000000007,1.7070000000000007,0.0,0.0,0.0,55.0,616.79921,10000.0,85.000001,85.000001,85.000001,85.000001,395.0,0.0,0.0,0.0,1.0,333.33500000000004,52.414,52.414,47.775,47.775,34.0,-52.9125,48.856,-30.5475,27.1675,0.0,1781.74,-0.759999999999998,100.0,28.629,28.079,43.995000000000005,43.743,0.0,1.0,100.0,0.0,0.0,0.0,0.0,3165.5,2918.5,4020.875,4164.9,305.526,305.5423333333333,315.202,314.531,22.30377777777778,20.7519,22.1163,21.5706,314.999998,314.999998,324.999988,324.999988,99.57307142857142,99.51445,99.57044285714285,99.54854285714286,-0.7677499999999999,0.834,-0.15683333333333335,0.0728333333333333,-0.06666666666666998,-0.04999999999999716,1.5265,1.5305,40.397999999999996,30.698999999999998,39.227000000000004,35.816,61.659,38.8495,60.4135,53.0865,59.184,37.6995,58.986,51.442,58.067,37.113,58.887,50.88733333333333,0.7269999999999999,0.8506666666666662,0.11054000000000001,0.108505,0.0,217.875,217.82999999999998,214.67000000000002,214.67000000000002,0.0,0.0
35,0.0,1.0,0.0,1.0,1.0,0.0,0.0,1.0,0.0,100.0,1.0,1.1856,26.0,0.0,0.0,0.0,59.999996,0.0,26.0,26.0,26.0,26.0,-0.02444444444444449,0.24970000000000003,-0.05486666666666667,292.252,-2.8286,-2.736375,-1.6276000000000002,-1.5653333333333332,-157.23000000000002,215.9275,190.202625,0.0,0.0,0.0,0.0,0.07046666666666657,-5.498166666666667,-5.498166666666667,-0.6828000000000001,-0.75,-0.03299999999999992,0.011,69.745,-0.0193,-0.23125,-0.2779999999999996,100.0,1.0,1.0,215.10333333333335,0.0,0.0,0.0,0.0,0.0,0.0,0.0,9117.5,0.0,55.0,5.0,251.06,1.0,0.0,0.0,0.0,0.0,0.0,1.0,0.0,1.7579999999999991,1.7579999999999991,0.0,0.0,1.0,55.0,616.79921,10000.0,85.000001,85.000001,85.000001,85.000001,395.0,0.0,0.0,0.0,1.0,166.665,52.322,52.322,47.058,47.058,34.0,-49.905,55.482,-30.1175,26.5575,0.0,1781.692,-0.634999999999998,100.0,28.366,28.056,43.681,43.346000000000004,0.0,1.0,100.0,0.0,0.0,0.0,0.0,2999.833333333333,3275.2,4172.5,3943.8,305.8735,304.5586666666667,314.8426666666667,315.17925,22.314333333333334,20.7584,22.1266,21.5796,314.999998,314.999998,324.999988,324.999988,99.57317142857143,99.51455,99.5706,99.54868571428571,-0.7565,0.83525,-0.117,0.10283333333333333,-0.05666666666667197,-0.0833333333333286,1.5665,1.5605,40.465,30.740000000000002,39.291,35.8725,61.671,38.9305,60.447,53.1445,59.195,37.7735,59.016999999999996,51.497,58.075,37.184,58.915,50.94133333333333,0.7330000000000001,0.8359999999999999,0.10515000000000001,0.10790000000000001,0.0,218.22500000000002,218.235,215.10333333333335,215.10333333333335,0.0,0.0
36,0.0,1.0,0.0,1.0,1.0,0.0,0.0,1.0,0.0,100.0,1.0,1.1856,26.0,0.0,0.0,0.0,59.999996,0.0,26.0,26.0,26.0,26.0,-0.01200000000000001,0.26160000000000005,0.013900000000000001,291.55,-2.8339,-2.8066250000000004,-1.6041,-1.5594444444444444,-153.88,215.91500000000002,190.17325,0.0,0.0,0.0,0.0,0.07239999999999991,-5.498166666666667,-5.498166666666667,-0.671,0.6923333333333334,-0.061875000000000124,-0.159,69.862,0.0014,-0.203275,-0.17799999999999905,100.0,1.0,1.0,215.32999999999998,0.0,0.0,0.0,0.0,0.0,0.0,0.0,9127.1,0.0,55.0,5.0,251.47666666666666,0.0,0.0,0.0,0.0,0.0,0.0,1.0,0.0,1.806000000000001,1.806000000000001,0.0,0.0,0.0,55.0,616.79921,10000.0,85.000001,85.000001,85.000001,85.000001,395.0,0.0,0.0,0.0,1.0,166.665,51.788,51.788,46.829,46.829,34.0,-51.905,52.858000000000004,-30.2575,32.385000000000005,0.0,1781.644,-0.3249999999999993,100.0,28.897,28.66,43.608000000000004,43.285,0.0,1.0,100.0,0.0,0.0,0.0,0.0,3105.0,3109.5,4318.25,4451.9,305.6185,304.81466666666665,314.53366666666665,313.96925,22.324555555555555,20.7648,22.136400000000002,21.5881,314.999998,314.999998,324.999988,324.999988,99.57325714285714,99.51466666666667,99.57074285714286,99.54881428571429,-0.7589999999999999,0.82075,-0.09766666666666668,0.12749999999999995,-0.06333333333333258,-0.06833333333332803,1.503,1.479,40.528,30.78,39.352000000000004,35.926,61.689,39.0115,60.4795,53.2,59.211,37.848,59.0475,51.5505,58.088,37.254999999999995,58.942,50.99333333333333,0.7553333333333336,0.8069999999999999,0.10833000000000001,0.10437500000000001,0.0,218.65,218.63,215.32999999999998,215.32999999999998,0.0,0.0
