,ABS Active,ABS Enabled,AID Allow Tire Blankets,AID Auto Blip,AID Auto Clutch,AID Auto Shift,AID Fuel Rate,AID Ideal Line,AID Mech Damage,AID Stability,AID Tire Wear Rate,Air Density,Air Temp,Ballast,Best Lap Delta,Best Lap Time,Brake Bias,Brake Pos,Brake Temp FL,Brake Temp FR,Brake Temp RL,Brake Temp RR,CG Accel Lateral,CG Accel Longitudinal,CG Accel Vertical,CG Height,Camber FL,Camber FR,Camber RL,Camber RR,Car Coord X,Car Coord Y,Car Coord Z,Car Damage Front,Car Damage Left,Car Damage Rear,Car Damage Right,Car Pos Norm,Caster FL,Caster FR,Chassis Pitch Angle,Chassis Pitch Rate,Chassis Roll Angle,Chassis Roll Rate,Chassis Velocity X,Chassis Velocity Y,Chassis Velocity Z,Chassis Yaw Rate,Clutch Pos,DRS Active,DRS Available,Drive Train Speed,ERS Heat Charging,ERS Is Charging,ERS Max Energy,ERS Power Level,ERS Recovery Level,Engine Brake Setting,Engine Limiter,Engine RPM,Flags,Fuel Level,Gear,Ground Speed,HR Sample Clock,In Pit,KERS Charge,KERS Deployed Energy,KERS Input,KERS Max Energy,LR Sample Clock,Lap Invalidated,Lap Time,Lap Time2,Last Lap Time,Last Sector Time,MR Sample Clock,Max Fuel,Max Power,Max RPM,Max Sus Travel FL,Max Sus Travel FR,Max Sus Travel RL,Max Sus Travel RR,Max Torque,Max Turbo Boost,Num Tires Off Track,Penalties Enabled,Position,Raw Data Sample Rate,Ride Height FL,Ride Height FR,Ride Height RL,Ride Height RR,Road Temp,Self Align Torque FL,Self Align Torque FR,Self Align Torque RL,Self Align Torque RR,Session Lap Count,Session Time Left,Steering Angle,Surface Grip,Suspension Travel FL,Suspension Travel FR,Suspension Travel RL,Suspension Travel RR,TC Active,TC Enabled,Throttle Pos,Tire Dirt Level FL,Tire Dirt Level FR,Tire Dirt Level RL,Tire Dirt Level RR,Tire Load FL,Tire Load FR,Tire Load RL,Tire Load RR,Tire Loaded Radius FL,Tire Loaded Radius FR,Tire Loaded Radius RL,Tire Loaded Radius RR,Tire Pressure FL,Tire Pressure FR,Tire Pressure RL,Tire Pressure RR,Tire Radius FL,Tire Radius FR,Tire Radius RL,Tire Radius RR,Tire Rubber Grip FL,Tire Rubber Grip FR,Tire Rubber Grip RL,Tire Rubber Grip RR,Tire Slip Angle FL,Tire Slip Angle FR,Tire Slip Angle RL,Tire Slip Angle RR,Tire Slip Ratio FL,Tire Slip Ratio FR,Tire Slip Ratio RL,Tire Slip Ratio RR,Tire Temp Core FL,Tire Temp Core FR,Tire Temp Core RL,Tire Temp Core RR,Tire Temp Inner FL,Tire Temp Inner FR,Tire Temp Inner RL,Tire Temp Inner RR,Tire Temp Middle FL,Tire Temp Middle FR,Tire Temp Middle RL,Tire Temp Middle RR,Tire Temp Outer FL,Tire Temp Outer FR,Tire Temp Outer RL,Tire Temp Outer RR,Toe In FL,Toe In FR,Toe In RL,Toe In RR,Turbo Boost,Wheel Angular Speed FL,Wheel Angular Speed FR,Wheel Angular Speed RL,Wheel Angular Speed RR,Wind Direction,Wind Speed
0,0.0,1.0,0.0,1.0,1.0,0.0,0.0,1.0,0.0,100.0,1.0,1.1856,26.0,0.0,0.0,0.0,59.99999,0.0,26.0,26.0,26.0,26.0,-0.07287500000000002,-0.3569,0.06316666666666666,293.625,-2.7716000000000003,-2.5372500000000002,-1.5073,-1.532125,-275.64,216.04000000000002,190.987125,0.0,0.0,0.0,0.0,0.0016,-5.498166666666667,-5.498166666666667,-0.6088,0.15566666666666665,-0.009714285714285786,-0.3620000000000001,65.259,-0.052999999999999936,-0.26675,0.5820000000000007,100.0,1.0,1.0,204.43333333333334,0.0,0.0,0.0,0.0,0.0,0.0,0.0,8665.2,0.0,55.0,5.0,234.97333333333333,0.0,0.0,0.0,0.0,0.0,0.0,0.0,0.0,0.0030000000000001137,0.0030000000000001137,0.0,0.0,0.0,55.0,616.79921,10000.0,85.0,85.0,85.0,85.0,395.0,0.0,0.0,0.0,1.0,20.0,50.323,50.323,50.659,50.659,34.0,-60.5625,61.602000000000004,-30.833333333333336,23.965,0.0,1783.122,0.26000000000000156,100.0,27.524,27.326999999999998,40.289,40.102000000000004,0.0,1.0,0.0,0.0,0.0,0.0,0.0,3672.0,4006.3,3682.285714285714,3584.3,303.7095,301.942,315.917,315.9035,21.908428571428573,20.5278,21.747285714285713,21.27177777777778,314.99999,314.99999,324.99998,324.99998,99.56772857142857,99.50975,99.56437142857143,99.54365714285714,-0.6744999999999999,0.59425,-0.16999999999999993,0.04079999999999995,-0.0033333333333303017,-0.041666666666671404,-0.01750000000000007,0.0,37.927,29.299,36.92,33.949,60.085,35.516999999999996,58.7725,51.0155,57.726,34.635,57.4285,49.441,56.736000000000004,34.1885,57.414,48.914500000000004,0.6315,0.6003333333333334,0.10011,0.09692,0.0,204.505,204.45,204.43333333333334,204.43333333333334,0.0,0.0
1,0.0,1.0,0.0,1.0,1.0,0.0,0.0,1.0,0.0,100.0,1.0,1.1856,26.0,0.0,0.0,0.0,59.999996,0.0,26.0,26.0,26.0,26.0,-0.14037500000000003,0.3055000000000001,0.23133333333333336,292.679,-2.7110000000000003,-2.8366249999999997,-1.5264,-1.355375,-272.31,216.06,190.967,0.0,0.0,0.0,0.0,0.0035666666666666668,-5.498166666666667,-5.498166666666667,-0.49770000000000003,0.4926666666666667,-0.04371428571428604,-0.8289999999999997,65.407,-0.050799999999999956,-0.20255,1.138,100.0,1.0,1.0,201.53,0.0,0.0,0.0,0.0,0.0,0.0,0.0,8542.2,0.0,55.0,5.0,235.43333333333334,1.0,0.0,0.0,0.0,0.0,0.0,0.0,0.0,0.053999999999998494,0.053999999999998494,0.0,0.0,1.0,55.0,616.79921,10000.0,85.000001,85.000001,85.000001,85.000001,395.0,0.0,0.0,0.0,1.0,166.665,53.36,53.36,48.05,48.05,34.0,-46.705,35.922,-38.0,28.0225,0.0,1783.074,0.6449999999999996,100.0,28.329,27.926000000000002,41.926,41.613,0.0,1.0,100.0,0.0,0.0,0.0,0.0,2938.833333333333,2510.1,4681.285714285715,5005.200000000001,305.9,306.83133333333336,313.3673333333333,312.28475,21.91957142857143,20.5335,21.758,21.28077777777778,314.999998,314.999998,324.999988,324.999988,99.56782857142858,99.50983333333333,99.56451428571428,99.5438,-0.68875,0.5575000000000001,-0.17979999999999996,0.03359999999999985,-0.02833333333332888,-0.060000000000002274,1.3355000000000001,1.3715000000000002,37.997,29.334,36.986999999999995,34.004999999999995,60.105999999999995,35.586,58.8185,51.083,57.744,34.698,57.4715,49.5055,56.751999999999995,34.249,57.454499999999996,48.9775,0.6635,0.5609999999999999,0.10929000000000001,0.10729000000000001,0.0,204.935,204.87,201.53,201.53,0.0,0.0
2,0.0,1.0,0.0,1.0,1.0,0.0,0.0,1.0,0.0,100.0,1.0,1.1856,26.0,0.0,0.0,0.0,59.999996,0.0,26.0,26.0,26.0,26.0,-0.150625,0.27570000000000006,-0.17733333333333334,293.961,-2.6679,-2.83225,-1.5047000000000001,-1.63175,-268.77,216.0775,190.9475,0.0,0.0,0.0,0.0,0.0056,-5.498166666666667,-5.498166666666667,-0.5647,-0.21766666666666667,-0.039000000000000146,2.4880000000000004,65.55199999999999,-0.06789999999999996,-0.267675,1.7840000000000007,100.0,1.0,1.0,202.66,0.0,0.0,0.0,0.0,0.0,0.0,0.0,8590.0,0.0,55.0,5.0,235.95666666666668,0.0,0.0,0.0,0.0,0.0,0.0,0.0,0.0,0.10800000000000054,0.10800000000000054,0.0,0.0,0.0,55.0,616.79921,10000.0,85.000001,85.000001,85.000001,85.000001,395.0,0.0,0.0,0.0,1.0,166.665,52.246,52.246,50.812,50.812,34.0,-53.587500000000006,42.856,-27.57333333333333,19.33,0.0,1783.02,0.6600000000000001,100.0,28.571,27.296,42.22,41.207,0.0,1.0,100.0,0.0,0.0,0.0,0.0,3287.166666666667,2936.7,3587.5714285714284,3525.0,304.7475,305.55833333333334,316.01666666666665,316.18375,21.93114285714286,20.539,21.769,21.28988888888889,314.999998,314.999998,324.999988,324.999988,99.56791428571428,99.50988333333333,99.56467142857143,99.54394285714285,-0.7,0.55,-0.21979999999999988,0.013400000000000079,-0.054999999999999716,-0.07833333333332604,1.693,1.7585000000000002,38.07,29.369,37.056,34.062,60.123999999999995,35.647,58.861,51.143,57.76,34.754999999999995,57.510999999999996,49.563,56.765,34.3025,57.491,49.034,0.6665000000000001,0.5583333333333336,0.10664000000000001,0.10410000000000001,0.0,205.34,205.215,202.66,202.66,0.0,0.0
3,0.0,1.0,0.0,1.0,1.0,0.0,0.0,1.0,0.0,100.0,1.0,1.1856,26.0,0.0,0.0,0.0,59.999996,0.0,26.0,26.0,26.0,26.0,-0.14087499999999997,0.29069999999999996,0.0907,293.365,-2.7853,-2.747375,-1.5051,-1.574375,-265.62,216.0875,190.92875,0.0,0.0,0.0,0.0,0.0074333333333333335,-5.498166666666667,-5.498166666666667,-0.5213,0.7436666666666667,-0.008285714285714452,0.01100000000000012,65.69200000000001,-0.09339999999999993,-0.20777500000000002,1.282,100.0,1.0,1.0,202.69666666666666,0.0,0.0,0.0,0.0,0.0,0.0,0.0,8591.6,0.0,55.0,5.0,236.46,1.0,0.0,0.0,0.0,0.0,0.0,0.0,0.0,0.1559999999999988,0.1559999999999988,0.0,0.0,1.0,55.0,616.79921,10000.0,85.000001,85.000001,85.000001,85.000001,395.0,0.0,0.0,0.0,1.0,166.665,53.04,53.04,48.477000000000004,48.477000000000004,34.0,-48.057500000000005,42.284,-34.92666666666666,24.2625,0.0,1782.972,0.6850000000000023,100.0,28.201999999999998,27.251,42.042,41.1,0.0,1.0,100.0,0.0,0.0,0.0,0.0,2948.0,2944.2,4307.857142857143,4232.7,305.8065,305.45733333333334,314.29066666666665,314.3815,21.94142857142857,20.5443,21.778714285714287,21.298111111111112,314.999998,314.999998,324.999988,324.999988,99.568,99.50995,99.5648,99.54407142857143,-0.7190000000000001,0.53325,-0.2118,0.013000000000000123,-0.06666666666666998,-0.07833333333332604,1.5070000000000001,1.5255,38.134,29.402,37.117000000000004,34.113,60.138999999999996,35.709,58.897999999999996,51.203,57.774,34.811,57.545500000000004,49.6205,56.775999999999996,34.3565,57.522999999999996,49.0905,0.665,0.5626666666666664,0.10765000000000001,0.10398500000000001,0.0,205.84,205.72500000000002,202.69666666666666,202.69666666666666,0.0,0.0
4,0.0,1.0,0.0,1.0,1.0,0.0,0.0,1.0,0.0,100.0,1.0,1.1856,26.0,0.0,0.0,0.0,59.999996,0.0,26.0,26.0,26.0,26.0,-0.16999999999999993,0.2956000000000001,-0.012666666666666668,293.594,-2.7199,-2.849125,-1.4340000000000002,-1.596125,-262.46,216.0975,190.910375,0.0,0.0,0.0,0.0,0.009266666666666668,-5.498166666666667,-5.498166666666667,-0.54,-0.9400000000000001,-0.07928571428571418,-0.8029999999999999,65.827,-0.09329999999999994,-0.2386,1.3740000000000006,100.0,1.0,1.0,203.17000000000002,0.0,0.0,0.0,0.0,0.0,0.0,0.0,8611.6,0.0,55.0,5.0,236.94666666666666,0.0,0.0,0.0,0.0,0.0,0.0,0.0,0.0,0.20400000000000063,0.20400000000000063,0.0,0.0,0.0,55.0,616.79921,10000.0,85.000001,85.000001,85.000001,85.000001,395.0,0.0,0.0,0.0,1.0,166.665,53.162,53.162,48.629999999999995,48.629999999999995,34.0,-52.4075,41.91,-33.166666666666664,21.26,0.0,1782.924,1.0549999999999997,100.0,27.903,26.753,42.762,41.374,0.0,1.0,100.0,0.0,0.0,0.0,0.0,3177.833333333333,2921.8,4213.428571428572,3757.3,305.2495,305.58733333333333,314.51033333333334,315.4415,21.951571428571427,20.5494,21.788714285714285,21.306444444444445,314.999998,314.999998,324.999988,324.999988,99.56807142857143,99.51,99.56492857142857,99.54421428571429,-0.744,0.5162500000000001,-0.21639999999999993,0.015000000000000124,-0.06333333333333258,-0.06833333333332803,1.534,1.5965000000000003,38.197,29.433,37.18,34.165,60.153,35.765,58.939499999999995,51.2615,57.786,34.863,57.5845,49.6765,56.787,34.4055,57.559,49.144999999999996,0.6989999999999998,0.5409999999999999,0.10804000000000001,0.10473,0.0,206.185,206.09,203.17000000000002,203.17000000000002,0.0,0.0
5,0.0,1.0,0.0,1.0,1.0,0.0,0.0,1.0,0.0,100.0,1.0,1.1856,26.0,0.0,0.0,0.0,59.999996,0.0,26.0,26.0,26.0,26.0,-0.16799999999999993,0.3105,-0.020566666666666667,293.915,-2.7229,-2.83125,-1.4946000000000002,-1.63725,-259.1,216.10250000000002,190.8905,0.0,0.0,0.0,0.0,0.011233333333333333,-5.498166666666667,-5.498166666666667,-0.5428000000000001,0.374,-0.0952857142857142,-0.32200000000000006,65.968,-0.10499999999999998,-0.222525,1.8840000000000003,100.0,1.0,1.0,203.67333333333335,0.0,0.0,0.0,0.0,0.0,0.0,0.0,8633.0,0.0,55.0,5.0,237.45666666666668,1.0,0.0,0.0,0.0,0.0,0.0,0.0,0.0,0.254999999999999,0.254999999999999,0.0,0.0,1.0,55.0,616.79921,10000.0,85.000001,85.000001,85.000001,85.000001,395.0,0.0,0.0,0.0,1.0,333.33500000000004,53.482,53.482,49.454,49.454,34.0,-53.41,38.934,-34.14,21.0325,0.0,1782.87,0.5300000000000011,100.0,27.848,26.632,42.477000000000004,40.874,0.0,1.0,100.0,0.0,0.0,0.0,0.0,3244.666666666667,2720.0,4114.0,3907.1,305.119,306.082,314.86633333333333,315.12575,21.96257142857143,20.5547,21.799142857142858,21.315,314.999998,314.999998,324.999988,324.999988,99.56815714285715,99.51005,99.56508571428571,99.54434285714285,-0.73725,0.52475,-0.24660000000000004,-0.01759999999999995,-0.10833333333332718,-0.04333333333332945,1.571,1.6404999999999998,38.266,29.467,37.245000000000005,34.219,60.175,35.824,58.9805,51.3185,57.807,34.917,57.6225,49.731,56.804,34.457,57.5945,49.198499999999996,0.6745000000000001,0.5636666666666663,0.102385,0.11554500000000001,0.0,206.685,206.505,203.67333333333335,203.67333333333335,0.0,0.0
6,0.0,1.0,0.0,1.0,1.0,0.0,0.0,1.0,0.0,100.0,1.0,1.1856,26.0,0.0,0.0,0.0,59.999996,0.0,26.0,26.0,26.0,26.0,-0.16600000000000004,0.29679999999999995,0.0033,293.701,-2.6836,-2.877625,-1.5273,-1.59,-255.93,216.10250000000002,190.871125,0.0,0.0,0.0,0.0,0.013066666666666666,-5.498166666666667,-5.498166666666667,-0.5306000000000001,0.17766666666666667,-0.08685714285714274,-0.7770000000000001,66.102,-0.12309999999999999,-0.21005000000000001,1.6620000000000008,100.0,1.0,1.0,204.01999999999998,0.0,0.0,0.0,0.0,0.0,0.0,0.0,8647.7,0.0,55.0,5.0,237.94,0.0,0.0,0.0,0.0,0.0,0.0,0.0,0.0,0.3030000000000008,0.3030000000000008,0.0,0.0,0.0,55.0,616.79921,10000.0,85.000001,85.000001,85.000001,85.000001,395.0,0.0,0.0,0.0,1.0,333.33500000000004,53.421,53.421,48.935,48.935,34.0,-53.0925,40.974000000000004,-36.32666666666667,20.2525,0.0,1782.8220000000001,0.379999999999999,100.0,27.67,26.532,42.556,41.019999999999996,0.0,1.0,100.0,0.0,0.0,0.0,0.0,3255.333333333333,2799.5,4214.714285714285,3975.1000000000004,305.0945,305.739,314.61566666666664,314.936,21.973,20.5599,21.809,21.32322222222222,314.999998,314.999998,324.999988,324.999988,99.56825714285715,99.51011666666666,99.56521428571429,99.54448571428571,-0.72475,0.5350000000000001,-0.2567999999999999,-0.033399999999999985,-0.06666666666666998,-0.07666666666666799,1.5295,1.5819999999999999,38.331,29.499,37.306,34.269999999999996,60.193,35.881,59.019999999999996,51.3775,57.823,34.969,57.6595,49.7875,56.818,34.5065,57.629,49.2535,0.6465000000000001,0.5920000000000001,0.10623,0.10718000000000001,0.0,207.095,206.94,204.01999999999998,204.01999999999998,0.0,0.0
7,0.0,1.0,0.0,1.0,1.0,0.0,0.0,1.0,0.0,100.0,1.0,1.1856,26.0,0.0,0.0,0.0,59.999996,0.0,26.0,26.0,26.0,26.0,-0.14387499999999998,0.27049999999999996,0.027600000000000003,293.457,-2.6402,-2.8865,-1.4805000000000001,-1.6460000000000001,-252.36,216.0975,190.8495,0.0,0.0,0.0,0.0,0.015166666666666667,-5.498166666666667,-5.498166666666667,-0.5371,-0.023,-0.08700000000000019,-0.4089999999999998,66.252,-0.12,-0.22625,1.2859999999999996,100.0,1.0,1.0,204.48000000000002,0.0,0.0,0.0,0.0,0.0,0.0,0.0,8667.1,0.0,55.0,5.0,238.48000000000002,1.0,0.0,0.0,0.0,0.0,0.0,0.0,0.0,0.3569999999999993,0.3569999999999993,0.0,0.0,1.0,55.0,616.79921,10000.0,85.000001,85.000001,85.000001,85.000001,395.0,0.0,0.0,0.0,1.0,166.665,52.979,52.979,49.088,49.088,34.0,-54.055,42.368,-34.276666666666664,21.2,0.0,1782.77,-0.07499999999999929,100.0,27.942,26.601,42.788,41.278,0.0,1.0,100.0,0.0,0.0,0.0,0.0,3340.0,2844.0,4113.142857142857,3912.0,304.736,305.57666666666665,314.806,315.035,21.984571428571428,20.5656,21.82014285714286,21.332555555555555,314.999998,314.999998,324.999988,324.999988,99.56834285714285,99.51018333333333,99.56537142857142,99.54462857142858,-0.6975,0.55725,-0.24619999999999997,-0.0232,-0.06333333333333258,-0.06333333333333258,1.5255,1.5750000000000002,38.403999999999996,29.535,37.376000000000005,34.329,60.214,35.946,59.065,51.4435,57.842,35.028,57.701499999999996,49.8505,56.834,34.563,57.668,49.315,0.6120000000000001,0.6236666666666664,0.10187500000000001,0.11017,0.0,207.525,207.42000000000002,204.48000000000002,204.48000000000002,0.0,0.0
8,0.0,1.0,0.0,1.0,1.0,0.0,0.0,1.0,0.0,100.0,1.0,1.1856,26.0,0.0,0.0,0.0,59.999996,0.0,26.0,26.0,26.0,26.0,-0.11612500000000003,0.2793000000000001,0.03246666666666667,293.64,-2.7188,-2.8225,-1.4618,-1.635,-248.98,216.09,190.829,0.0,0.0,0.0,0.0,0.017133333333333334,-5.498166666666667,-5.498166666666667,-0.538,-0.535,-0.06800000000000006,0.8090000000000002,66.394,-0.1066999999999999,-0.2172,0.6100000000000003,100.0,1.0,1.0,204.85000000000002,0.0,0.0,0.0,0.0,0.0,0.0,0.0,8682.9,0.0,55.0,5.0,238.99,0.0,0.0,0.0,0.0,0.0,0.0,0.0,0.0,0.40800000000000125,0.40800000000000125,0.0,0.0,0.0,55.0,616.79921,10000.0,85.000001,85.000001,85.000001,85.000001,395.0,0.0,0.0,0.0,1.0,166.665,53.711,53.711,48.431,48.431,34.0,-47.6875,43.452,-32.70666666666666,24.0125,0.0,1782.718,-0.21499999999999986,100.0,27.701999999999998,26.419,42.99,41.294,0.0,1.0,100.0,0.0,0.0,0.0,0.0,2996.5,2935.8,4105.428571428572,4094.0,305.7495,305.5826666666667,314.723,314.646,21.995428571428572,20.5711,21.830714285714286,21.341333333333335,314.999998,314.999998,324.999988,324.999988,99.56842857142857,99.51023333333333,99.56551428571429,99.54477142857142,-0.6824999999999999,0.577,-0.2156,0.008199999999999985,-0.051666666666669414,-0.0799999999999983,1.5070000000000001,1.528,38.471000000000004,29.569,37.442,34.384,60.229,36.007999999999996,59.107,51.5045,57.855000000000004,35.085,57.741,49.908500000000004,56.845,34.617,57.704499999999996,49.372,0.601,0.6379999999999999,0.10719000000000001,0.10472000000000001,0.0,207.935,207.875,204.85000000000002,204.85,0.0,0.0
9,0.0,1.0,0.0,1.0,1.0,0.0,0.0,1.0,0.0,100.0,1.0,1.1856,26.0,0.0,0.0,0.0,59.999996,0.0,26.0,26.0,26.0,26.0,-0.10587499999999994,0.28080000000000016,-0.0161,293.396,-2.707,-2.834625,-1.5177,-1.597625,-245.99,216.07999999999998,190.8105,0.0,0.0,0.0,0.0,0.018866666666666667,-5.498166666666667,-5.498166666666667,-0.5434,0.5303333333333334,-0.07500000000000018,-0.6180000000000003,66.515,-0.0867,-0.21860000000000002,0.652000000000001,100.0,1.0,1.0,205.33666666666667,0.0,0.0,0.0,0.0,0.0,0.0,0.0,8703.5,0.0,55.0,5.0,239.42666666666668,1.0,0.0,0.0,0.0,0.0,0.0,0.0,0.0,0.4529999999999994,0.4529999999999994,0.0,0.0,1.0,55.0,616.79921,10000.0,85.000001,85.000001,85.000001,85.000001,395.0,0.0,0.0,0.0,1.0,333.33500000000004,52.673,52.673,49.376999999999995,49.376999999999995,34.0,-55.2175,43.802,-31.873333333333335,23.0475,0.0,1782.672,-0.3099999999999987,100.0,27.937,26.87,42.561,41.342,0.0,1.0,100.0,0.0,0.0,0.0,0.0,3438.333333333333,2909.8,4031.5714285714284,3949.1,304.5505,305.407,315.06333333333333,315.01725,22.005142857142857,20.5761,21.83985714285714,21.34911111111111,314.999998,314.999998,324.999988,324.999988,99.56851428571429,99.5103,99.56565714285715,99.5449,-0.6664999999999999,0.5835000000000001,-0.20920000000000005,0.02400000000000002,-0.046666666666666856,-0.07666666666666799,1.57,1.5885000000000002,38.532,29.6,37.498999999999995,34.432,60.245000000000005,36.07,59.1435,51.561,57.870000000000005,35.141999999999996,57.775,49.9625,56.858000000000004,34.6715,57.7355,49.4245,0.585,0.6433333333333335,0.10869000000000001,0.11194000000000001,0.0,208.315,208.26999999999998,205.33666666666667,205.33666666666667,0.0,0.0
10,0.0,1.0,0.0,1.0,1.0,0.0,0.0,1.0,0.0,100.0,1.0,1.1856,26.0,0.0,0.0,0.0,59.999996,0.0,26.0,26.0,26.0,26.0,-0.08699999999999997,0.28869999999999996,0.04273333333333333,293.213,-2.6695,-2.831875,-1.4861,-1.582625,-242.59,216.0675,190.789875,0.0,0.0,0.0,0.0,0.020833333333333336,-5.498166666666667,-5.498166666666667,-0.5192,-0.3773333333333333,-0.040000000000000036,1.9100000000000001,66.658,-0.06799999999999995,-0.205775,0.26200000000000045,100.0,1.0,1.0,205.57,0.0,0.0,0.0,0.0,0.0,0.0,0.0,8713.4,0.0,55.0,5.0,239.94,0.0,0.0,0.0,0.0,0.0,0.0,1.0,0.0,0.5040000000000013,0.5040000000000013,0.0,0.0,0.0,55.0,616.79921,10000.0,85.000001,85.000001,85.000001,85.000001,395.0,0.0,0.0,0.0,1.0,333.33500000000004,53.65,53.65,47.958,47.958,34.0,-44.955,43.39,-32.946666666666665,26.7275,0.0,1782.622,-0.6050000000000004,100.0,28.015,26.665,43.072,41.863,0.0,1.0,100.0,0.0,0.0,0.0,0.0,2916.5,2862.3,4287.571428571428,4255.3,305.902,305.79566666666665,314.28,314.2955,22.016,20.5816,21.850428571428573,21.35811111111111,314.999998,314.999998,324.999988,324.999988,99.56858571428572,99.51036666666667,99.5658,99.54502857142857,-0.6299999999999999,0.6267500000000001,-0.17820000000000003,0.04859999999999998,-0.05833333333333002,-0.08166666666667055,1.49,1.484,38.599999999999994,29.634999999999998,37.565,34.488,60.257999999999996,36.132,59.1845,51.6215,57.882,35.199,57.813,50.0205,56.867000000000004,34.725,57.771,49.481,0.5714999999999999,0.669,0.10935500000000001,0.10866,0.0,208.75,208.71,205.57,205.57,0.0,0.0
11,0.0,1.0,0.0,1.0,1.0,0.0,0.0,1.0,0.0,100.0,1.0,1.1856,26.0,0.0,0.0,0.0,59.999996,0.0,26.0,26.0,26.0,26.0,-0.01474999999999993,0.268,-0.10126666666666667,293.762,-2.732,-2.79125,-1.5554000000000001,-1.559625,-239.19,216.0525,190.76925,0.0,0.0,0.0,0.0,0.022600000000000002,-5.498166666666667,-5.498166666666667,-0.5608000000000001,-0.3076666666666667,-0.004428571428571448,-0.4189999999999996,66.793,-0.04599999999999993,-0.2371,-0.05600000000000005,100.0,1.0,1.0,206.28,0.0,0.0,0.0,0.0,0.0,0.0,0.0,8743.4,0.0,55.0,5.0,240.42666666666668,1.0,0.0,0.0,0.0,0.0,0.0,1.0,0.0,0.5549999999999997,0.5549999999999997,0.0,0.0,1.0,55.0,616.79921,10000.0,85.000001,85.000001,85.000001,85.000001,395.0,0.0,0.0,0.0,1.0,333.33500000000004,53.085,53.085,49.483999999999995,49.483999999999995,34.0,-48.769999999999996,46.168,-26.4,23.9475,0.0,1782.57,-0.5799999999999983,100.0,27.581,27.085,42.525999999999996,41.972,0.0,1.0,100.0,0.0,0.0,0.0,0.0,3133.166666666667,3001.4,3720.0,3821.7,305.467,305.14666666666665,315.8233333333333,315.32,22.026714285714284,20.5873,21.860857142857142,21.366888888888887,314.999998,314.999998,324.999988,324.999988,99.56865714285715,99.51045,99.56592857142857,99.54517142857142,-0.63225,0.6260000000000001,-0.14759999999999995,0.07240000000000002,-0.060000000000002274,-0.08500000000000085,1.6325,1.601,38.667,29.669999999999998,37.629999999999995,34.543,60.266999999999996,36.201,59.221000000000004,51.682,57.89,35.262,57.847,50.0785,56.873000000000005,34.785,57.8025,49.5375,0.5720000000000001,0.665,0.10155,0.11059500000000001,0.0,209.135,209.12,206.28,206.28,0.0,0.0
12,0.0,1.0,0.0,1.0,1.0,0.0,0.0,1.0,0.0,100.0,1.0,1.1856,26.0,0.0,0.0,0.0,59.999996,0.0,26.0,26.0,26.0,26.0,-0.017249999999999988,0.27760000000000007,0.025266666666666666,293.259,-2.7894,-2.7828749999999998,-1.5178,-1.57975,-235.98,216.0375,190.748625,0.0,0.0,0.0,0.0,0.025466666666666665,-5.498166666666667,-5.498166666666667,-0.5478000000000001,0.2806666666666667,-0.01842857142857124,-1.005,66.926,-0.025399999999999978,-0.206325,-0.10799999999999965,100.0,1.0,1.0,206.47,0.0,0.0,0.0,0.0,0.0,0.0,0.0,8751.5,0.0,55.0,5.0,240.90333333333334,0.0,0.0,0.0,0.0,0.0,0.0,1.0,0.0,0.602999999999998,0.602999999999998,0.0,0.0,0.0,55.0,616.79921,10000.0,85.000001,85.000001,85.000001,85.000001,395.0,0.0,0.0,0.0,1.0,166.665,53.085,53.085,48.248000000000005,48.248000000000005,34.0,-49.7675,46.456,-30.183333333333337,27.1475,0.0,1782.524,-0.4800000000000004,100.0,27.404,27.255,42.299,41.922,0.0,1.0,100.0,0.0,0.0,0.0,0.0,3188.166666666667,3003.6,4248.714285714285,4096.9,305.3665,305.15233333333333,314.55266666666665,314.644,22.036857142857144,20.5927,21.870571428571427,21.37522222222222,314.999998,314.999998,324.999988,324.999988,99.56872857142857,99.51051666666666,99.56607142857143,99.5453,-0.6247499999999999,0.6387499999999999,-0.132,0.08240000000000003,-0.086666666666666,-0.06499999999999773,1.526,1.5245000000000002,38.730000000000004,29.704,37.691,34.595,60.275999999999996,36.268,59.2575,51.7395,57.897999999999996,35.324,57.8815,50.1335,56.878,34.8445,57.8335,49.591499999999996,0.5855000000000001,0.657,0.1052,0.10529000000000001,0.0,209.575,209.56,206.47,206.47,0.0,0.0
13,0.0,1.0,0.0,1.0,1.0,0.0,0.0,1.0,0.0,100.0,1.0,1.1856,26.0,0.0,0.0,0.0,59.999996,0.0,26.0,26.0,26.0,26.0,-0.023749999999999938,0.2792000000000001,0.052066666666666664,292.862,-2.7563,-2.78575,-1.5817,-1.572625,-232.56,216.01999999999998,190.727,0.0,0.0,0.0,0.0,0.02666666666666667,-5.498166666666667,-5.498166666666667,-0.54,-0.017333333333333333,-0.01842857142857124,1.0179999999999998,67.064,-0.013899999999999912,-0.2134,-0.02200000000000024,100.0,1.0,1.0,206.8466666666667,0.0,0.0,0.0,0.0,0.0,0.0,0.0,8767.5,0.0,55.0,5.0,241.40333333333334,1.0,0.0,0.0,0.0,0.0,0.0,1.0,0.0,0.6539999999999999,0.6539999999999999,0.0,0.0,1.0,55.0,616.79921,10000.0,85.000001,85.000001,85.000001,85.000001,395.0,0.0,0.0,0.0,1.0,166.665,52.765,52.765,48.233000000000004,48.233000000000004,34.0,-47.8575,48.396,-29.976666666666667,29.6725,0.0,1782.472,-0.6849999999999987,100.0,27.924,27.277,42.677,42.251,0.0,1.0,100.0,0.0,0.0,0.0,0.0,3125.5,3082.6,4189.714285714285,4278.6,305.327,305.08366666666666,314.60566666666665,314.27,22.047571428571427,20.5985,21.881,21.38422222222222,314.999998,314.999998,324.999988,324.999988,99.5688,99.51058333333333,99.56621428571428,99.54544285714286,-0.5805,0.6775,-0.11720000000000008,0.10379999999999989,-0.054999999999999716,-0.07000000000000028,1.513,1.5055,38.798,29.741,37.756,34.652,60.286,36.341,59.298,51.8035,57.907,35.391,57.919,50.1945,56.885,34.908,57.868,49.6515,0.56,0.6753333333333336,0.10350000000000001,0.109975,0.0,209.99,209.97,206.8466666666667,206.8466666666667,0.0,0.0
14,0.0,1.0,0.0,1.0,1.0,0.0,0.0,1.0,0.0,100.0,1.0,1.1856,26.0,0.0,0.0,0.0,59.999996,0.0,26.0,26.0,26.0,26.0,0.011249999999999982,0.26280000000000014,-0.011233333333333333,293.076,-2.7571,-2.72675,-1.589,-1.547,-229.14,216.0025,190.70575,0.0,0.0,0.0,0.0,0.02866666666666667,-5.498166666666667,-5.498166666666667,-0.5499,-0.21233333333333335,0.006571428571428672,-0.05799999999999983,67.2,-0.008499999999999952,-0.22815000000000002,-0.0860000000000003,100.0,1.0,1.0,207.34,0.0,0.0,0.0,0.0,0.0,0.0,0.0,8788.3,0.0,55.0,5.0,241.89333333333335,0.0,0.0,0.0,0.0,0.0,0.0,1.0,0.0,0.7049999999999983,0.7049999999999983,0.0,0.0,0.0,55.0,616.79921,10000.0,85.000001,85.000001,85.000001,85.000001,395.0,0.0,0.0,0.0,1.0,166.665,52.856,52.856,48.462,48.462,34.0,-47.385,47.822,-29.25,27.615000000000002,0.0,1782.422,-0.7850000000000001,100.0,27.711,27.492,42.58,42.537,0.0,1.0,100.0,0.0,0.0,0.0,0.0,3121.833333333333,3045.4,4053.5714285714284,4094.8,305.518,305.04466666666667,315.0083333333333,314.64225,22.05842857142857,20.6043,21.89142857142857,21.39322222222222,314.999998,314.999998,324.999988,324.999988,99.56887142857143,99.51066666666667,99.56635714285714,99.5456,-0.5814999999999999,0.67875,-0.12879999999999991,0.10159999999999991,-0.054999999999999716,-0.0799999999999983,1.5455,1.5434999999999999,38.864999999999995,29.777,37.822,34.708,60.295,36.414,59.3365,51.866,57.914,35.458,57.954499999999996,50.254999999999995,56.891,34.972,57.900999999999996,49.710499999999996,0.5529999999999999,0.6806666666666663,0.11026000000000001,0.10737000000000001,0.0,210.4,210.4,207.34,207.34,0.0,0.0
15,0.0,1.0,0.0,1.0,1.0,0.0,0.0,1.0,0.0,100.0,1.0,1.1856,26.0,0.0,0.0,0.0,59.999996,0.0,26.0,26.0,26.0,26.0,0.009749999999999925,0.2753000000000001,0.0097,293.076,-2.7264,-2.688625,-1.5871000000000002,-1.4893750000000001,-225.71,215.985,190.68425,0.0,0.0,0.0,0.0,0.030633333333333332,-5.498166666666667,-5.498166666666667,-0.5423,0.2986666666666667,0.037142857142857144,1.0750000000000002,67.336,-9.999999999998899e-05,-0.21080000000000002,-0.2839999999999998,100.0,1.0,1.0,207.74666666666667,0.0,0.0,0.0,0.0,0.0,0.0,0.0,8805.7,0.0,55.0,5.0,242.38333333333333,1.0,0.0,0.0,0.0,0.0,0.0,1.0,0.0,0.7560000000000002,0.7560000000000002,0.0,0.0,1.0,55.0,616.79921,10000.0,85.000001,85.000001,85.000001,85.000001,395.0,0.0,0.0,0.0,1.0,166.665,52.963,52.963,48.477000000000004,48.477000000000004,34.0,-43.2525,49.022000000000006,-27.186666666666667,29.5025,0.0,1782.37,-0.7650000000000006,100.0,27.901,27.439,42.437,42.519999999999996,0.0,1.0,100.0,0.0,0.0,0.0,0.0,2880.5,3134.8,3973.285714285714,4312.7,306.014,304.9293333333333,315.153,314.2215,22.069142857142857,20.6102,21.901714285714284,21.40222222222222,314.999998,314.999998,324.999988,324.999988,99.56894285714286,99.51075,99.5665,99.54574285714286,-0.5722499999999999,0.6845000000000001,-0.10020000000000007,0.12020000000000008,-0.04833333333333201,-0.07833333333332604,1.55,1.5265,38.932,29.813,37.885999999999996,34.763999999999996,60.302,36.489000000000004,59.373,51.929,57.921,35.525999999999996,57.9885,50.315,56.894999999999996,35.0375,57.932,49.7695,0.5590000000000002,0.6753333333333336,0.101415,0.109825,0.0,210.82999999999998,210.82999999999998,207.74666666666667,207.74666666666667,0.0,0.0
16,0.0,1.0,0.0,1.0,1.0,0.0,0.0,1.0,0.0,100.0,1.0,1.1856,26.0,0.0,0.0,0.0,59.999996,0.0,26.0,26.0,26.0,26.0,0.011125000000000052,0.26639999999999997,-0.011366666666666667,293.121,-2.7814,-2.721625,-1.5277,-1.489125,-222.47,215.97,190.663625,0.0,0.0,0.0,0.0,0.03253333333333333,-5.498166666666667,-5.498166666666667,-0.5595,-0.7506666666666666,0.026999999999999913,0.22599999999999998,67.465,0.011200000000000099,-0.223675,-0.49600000000000044,100.0,1.0,1.0,208.13333333333333,0.0,0.0,0.0,0.0,0.0,0.0,0.0,8822.0,0.0,55.0,5.0,242.84666666666666,0.0,0.0,0.0,0.0,0.0,0.0,1.0,0.0,0.8039999999999985,0.8039999999999985,0.0,0.0,0.0,55.0,616.79921,10000.0,85.000001,85.000001,85.000001,85.000001,395.0,0.0,0.0,0.0,1.0,166.665,53.024,53.024,48.065,48.065,34.0,-44.9,49.572,-26.203333333333333,28.697499999999998,0.0,1782.324,-0.5249999999999986,100.0,27.479,27.488,42.753,42.658,0.0,1.0,100.0,0.0,0.0,0.0,0.0,2954.166666666667,3176.0,3953.1428571428573,4123.5,305.93,304.80066666666664,315.147,314.64175,22.079,20.6157,21.911571428571428,21.410666666666668,314.999998,314.999998,324.999988,324.999988,99.56901428571429,99.51083333333334,99.56662857142857,99.54587142857143,-0.5867499999999999,0.66825,-0.09679999999999989,0.13400000000000012,-0.054999999999999716,-0.0799999999999983,1.536,1.533,38.994,29.848,37.947,34.817,60.305,36.559,59.41,51.9875,57.923,35.591,58.0235,50.3715,56.894999999999996,35.099000000000004,57.963499999999996,49.8245,0.577,0.6549999999999998,0.110335,0.105605,0.0,211.18,211.20499999999998,208.13333333333333,208.13333333333333,0.0,0.0
17,0.0,1.0,0.0,1.0,1.0,0.0,0.0,1.0,0.0,100.0,1.0,1.1856,26.0,0.0,0.0,0.0,59.999996,0.0,26.0,26.0,26.0,26.0,0.010375000000000023,0.2772000000000001,-0.020933333333333335,292.938,-2.778,-2.6814999999999998,-1.5911000000000002,-1.5435,-219.03,215.9525,190.64125,0.0,0.0,0.0,0.0,0.03453333333333333,-5.498166666666667,-5.498166666666667,-0.5528000000000001,0.5143333333333334,-0.006428571428571228,-0.9249999999999998,67.599,0.01770000000000005,-0.20795000000000002,-0.02799999999999958,100.0,1.0,1.0,208.55,0.0,0.0,0.0,0.0,0.0,0.0,0.0,8839.7,0.0,55.0,5.0,243.32666666666665,1.0,0.0,0.0,0.0,0.0,0.0,1.0,0.0,0.8550000000000004,0.8550000000000004,0.0,0.0,1.0,55.0,616.79921,10000.0,85.000001,85.000001,85.000001,85.000001,395.0,0.0,0.0,0.0,1.0,333.33500000000004,52.78,52.78,48.325,48.325,34.0,-48.445,45.466,-29.14666666666666,28.6375,0.0,1782.27,-0.46499999999999986,100.0,27.831,27.843,42.384,42.628,0.0,1.0,100.0,0.0,0.0,0.0,0.0,3177.5,2941.0,4229.285714285715,4104.3,305.4165,305.41633333333334,314.66366666666664,314.649,22.089714285714287,20.6218,21.921857142857142,21.419555555555554,314.999998,314.999998,324.999988,324.999988,99.56908571428572,99.51091666666667,99.56677142857143,99.54601428571429,-0.5827499999999999,0.6725000000000001,-0.09799999999999998,0.1200000000000001,-0.06499999999999773,-0.06666666666666998,1.54,1.5285000000000002,39.061,29.886,38.010999999999996,34.872,60.314,36.635,59.4465,52.049,57.931,35.661,58.057,50.4305,56.900999999999996,35.1655,57.9945,49.882,0.5800000000000001,0.6466666666666665,0.10930000000000001,0.10331000000000001,0.0,211.655,211.655,208.55,208.55,0.0,0.0
18,0.0,1.0,0.0,1.0,1.0,0.0,0.0,1.0,0.0,100.0,1.0,1.1856,26.0,0.0,0.0,0.0,59.999996,0.0,26.0,26.0,26.0,26.0,0.01937499999999992,0.26970000000000005,-0.05643333333333334,292.923,-2.8058,-2.662,-1.6008,-1.467625,-215.78,215.9375,190.62025,0.0,0.0,0.0,0.0,0.03643333333333333,-5.498166666666667,-5.498166666666667,-0.5588000000000001,-0.5573333333333333,0.012428571428571233,-0.09199999999999964,67.726,0.010399999999999965,-0.22035000000000002,0.036000000000000476,100.0,1.0,1.0,208.93333333333334,0.0,0.0,0.0,0.0,0.0,0.0,0.0,8856.0,0.0,55.0,5.0,243.78666666666666,0.0,0.0,0.0,0.0,0.0,0.0,1.0,0.0,0.9029999999999987,0.9029999999999987,0.0,0.0,0.0,55.0,616.79921,10000.0,85.000001,85.000001,85.000001,85.000001,395.0,0.0,0.0,0.0,1.0,166.665,52.872,52.872,48.126000000000005,48.126000000000005,34.0,-47.535,47.806,-28.589999999999996,26.84,0.0,1782.224,-0.6149999999999984,100.0,27.609,27.611,42.82,42.976,0.0,1.0,100.0,0.0,0.0,0.0,0.0,3141.833333333333,3077.1,4074.285714285714,4070.2,305.577,305.05833333333334,314.992,314.76325,22.099714285714285,20.627299999999998,21.931714285714285,21.42811111111111,314.999998,314.999998,324.999988,324.999988,99.56914285714285,99.511,99.56691428571429,99.54614285714285,-0.57175,0.677,-0.10939999999999994,0.1117999999999999,-0.061666666666667425,-0.06666666666666998,1.5474999999999999,1.536,39.123000000000005,29.921,38.073,34.926,60.32,36.703,59.484,52.109,57.936,35.724000000000004,58.092,50.488,56.903999999999996,35.226,58.0265,49.9385,0.5619999999999998,0.6626666666666665,0.10634,0.10333,0.0,212.01999999999998,211.995,208.93333333333334,208.93333333333334,0.0,0.0
19,0.0,1.0,0.0,1.0,1.0,0.0,0.0,1.0,0.0,100.0,1.0,1.1856,26.0,0.0,0.0,0.0,59.999996,0.0,26.0,26.0,26.0,26.0,-0.01112499999999994,0.2733000000000001,0.015600000000000001,292.404,-2.7712,-2.6550000000000002,-1.6151,-1.4541250000000001,-212.32,215.9225,190.59775,0.0,0.0,0.0,0.0,0.03843333333333333,-5.498166666666667,-5.498166666666667,-0.5547000000000001,0.834,0.022428571428571242,0.7770000000000001,67.858,0.009000000000000119,-0.21245,-0.07200000000000006,100.0,1.0,1.0,209.35666666666668,0.0,0.0,0.0,0.0,0.0,0.0,0.0,8873.9,0.0,55.0,5.0,244.26333333333332,1.0,0.0,0.0,0.0,0.0,0.0,1.0,0.0,0.9540000000000006,0.9540000000000006,0.0,0.0,1.0,55.0,616.79921,10000.0,85.000001,85.000001,85.000001,85.000001,395.0,0.0,0.0,0.0,1.0,166.665,51.926,51.926,48.096000000000004,48.096000000000004,34.0,-48.557500000000005,51.222,-28.516666666666666,28.8925,0.0,1782.174,-0.5549999999999997,100.0,28.305,27.969,42.65,42.856,0.0,1.0,100.0,0.0,0.0,0.0,0.0,3166.666666666667,3270.2,4122.857142857143,4264.4,305.202,304.5006666666667,314.8913333333333,314.418,22.11057142857143,20.633499999999998,21.942,21.43711111111111,314.999998,314.999998,324.999988,324.999988,99.56922857142857,99.51108333333333,99.56705714285714,99.5463,-0.573,0.67825,-0.09699999999999998,0.12940000000000018,-0.03333333333333144,-0.0933333333333266,1.5545,1.5590000000000002,39.191,29.959,38.137,34.982,60.329,36.781,59.519999999999996,52.171,57.944,35.795,58.1255,50.5475,56.909,35.294,58.0565,49.997,0.573,0.6586666666666665,0.106035,0.11287000000000001,0.0,212.46,212.45,209.35666666666668,209.35666666666668,0.0,0.0
20,0.0,1.0,0.0,1.0,1.0,0.0,0.0,1.0,0.0,100.0,1.0,1.1856,26.0,0.0,0.0,0.0,59.999996,0.0,26.0,26.0,26.0,26.0,0.006250000000000089,0.26639999999999997,-0.03506666666666667,292.465,-2.8204000000000002,-2.7182500000000003,-1.5392000000000001,-1.46575,-208.86,215.9075,190.575375,0.0,0.0,0.0,0.0,0.040433333333333335,-5.498166666666667,-5.498166666666667,-0.5495,-0.9156666666666666,0.01671428571428568,-0.8380000000000001,67.995,0.009600000000000053,-0.21635000000000001,-0.22799999999999976,100.0,1.0,1.0,209.5966666666667,0.0,0.0,0.0,0.0,0.0,0.0,0.0,8884.0,0.0,55.0,5.0,244.75333333333333,0.0,0.0,0.0,0.0,0.0,0.0,0.0,0.0,1.004999999999999,1.004999999999999,0.0,0.0,0.0,55.0,616.79921,10000.0,85.000001,85.000001,85.000001,85.000001,395.0,0.0,0.0,0.0,1.0,166.665,53.101,53.101,46.875,46.875,34.0,-44.7525,46.32,-30.03,29.8575,0.0,1782.122,-0.48999999999999844,100.0,27.683,27.901,43.235,43.432,0.0,1.0,100.0,0.0,0.0,0.0,0.0,2946.0,2978.0,4315.428571428572,4304.7,306.0955,305.24133333333333,314.324,314.13925,22.121,20.639499999999998,21.952571428571428,21.446333333333335,314.999998,314.999998,324.999988,324.999988,99.56928571428571,99.51116666666667,99.5672,99.54644285714286,-0.5902499999999999,0.66475,-0.1067999999999999,0.12540000000000018,-0.03999999999999915,-0.06666666666666998,1.484,1.4585,39.256,29.997,38.203,35.04,60.333,36.855000000000004,59.5615,52.236,57.947,35.863,58.164,50.61,56.911,35.3585,58.092,50.058,0.5765000000000002,0.6579999999999999,0.10877500000000001,0.10413000000000001,0.0,212.845,212.845,209.5966666666667,209.5966666666667,0.0,0.0
21,0.0,1.0,0.0,1.0,1.0,0.0,0.0,1.0,0.0,100.0,1.0,1.1856,26.0,0.0,0.0,0.0,59.999996,0.0,26.0,26.0,26.0,26.0,0.02462500000000012,0.26370000000000005,-0.07606666666666667,292.908,-2.7295,-2.7735000000000003,-1.6058000000000001,-1.538125,-205.59,215.89249999999998,190.554,0.0,0.0,0.0,0.0,0.042333333333333334,-5.498166666666667,-5.498166666666667,-0.5801000000000001,0.3456666666666667,0.00014285714285700024,-0.9710000000000001,68.11500000000001,0.011600000000000055,-0.22990000000000002,-0.03000000000000025,100.0,1.0,1.0,210.26,0.0,0.0,0.0,0.0,0.0,0.0,0.0,8912.2,0.0,55.0,5.0,245.19,1.0,0.0,0.0,0.0,0.0,0.0,0.0,0.0,1.0530000000000008,1.0530000000000008,0.0,0.0,1.0,55.0,616.79921,10000.0,85.000001,85.000001,85.000001,85.000001,395.0,0.0,0.0,0.0,1.0,166.665,52.399,52.399,48.691,48.691,34.0,-48.6975,47.84,-26.57,26.8575,0.0,1782.074,-0.4250000000000007,100.0,27.943,27.992,42.694,43.028999999999996,0.0,1.0,100.0,0.0,0.0,0.0,0.0,3191.166666666667,3038.5,3920.0,3911.5,305.2805,304.99,315.424,315.16525,22.131,20.6452,21.962142857142858,21.454666666666668,314.999998,314.999998,324.999988,324.999988,99.56935714285714,99.51123333333334,99.56734285714286,99.54658571428571,-0.5834999999999999,0.66425,-0.10020000000000007,0.125,-0.07666666666666799,-0.061666666666667425,1.6155,1.6019999999999999,39.318,30.033,38.263,35.092,60.34,36.926,59.593,52.2915,57.954,35.929,58.1935,50.663,56.915,35.421,58.119,50.11,0.5815000000000001,0.6446666666666663,0.10240500000000001,0.10442000000000001,0.0,213.245,213.22,210.26,210.26,0.0,0.0
22,0.0,1.0,0.0,1.0,1.0,0.0,0.0,1.0,0.0,100.0,1.0,1.1856,26.0,0.0,0.0,0.0,59.999996,0.0,26.0,26.0,26.0,26.0,0.01462500000000011,0.2612000000000001,0.020966666666666668,292.313,-2.7044,-2.787875,-1.5435,-1.583,-202.11,215.8775,190.530375,0.0,0.0,0.0,0.0,0.04436666666666667,-5.498166666666667,-5.498166666666667,-0.5572,0.18766666666666665,0.005285714285714116,1.279,68.25,0.009300000000000086,-0.2048,-0.016000000000000014,100.0,1.0,1.0,210.45,0.0,0.0,0.0,0.0,0.0,0.0,0.0,8920.2,0.0,55.0,5.0,245.67333333333335,0.0,0.0,0.0,0.0,0.0,0.0,0.0,0.0,1.1039999999999992,1.1039999999999992,0.0,0.0,0.0,55.0,616.79921,10000.0,85.000001,85.000001,85.000001,85.000001,395.0,0.0,0.0,0.0,1.0,333.33500000000004,52.399,52.399,47.424,47.424,34.0,-45.49,49.924,-28.64666666666666,30.9375,0.0,1782.022,-0.5150000000000006,100.0,28.218,27.889,43.134,43.108000000000004,0.0,1.0,100.0,0.0,0.0,0.0,0.0,2999.333333333333,3157.4,4160.285714285715,4293.1,305.6235,304.8136666666667,314.659,314.2465,22.141571428571428,20.6513,21.972571428571428,21.46377777777778,314.999998,314.999998,324.999988,324.999988,99.56942857142857,99.51131666666667,99.56748571428571,99.54672857142857,-0.575,0.6757500000000001,-0.10260000000000002,0.11940000000000017,-0.05666666666667197,-0.060000000000002274,1.484,1.483,39.385,30.070999999999998,38.329,35.149,60.348,37.001,59.632999999999996,52.354,57.961,35.997,58.2305,50.7235,56.92,35.4865,58.153,50.169,0.5765000000000002,0.6563333333333334,0.110475,0.10540000000000001,0.0,213.66500000000002,213.64,210.45,210.45,0.0,0.0
23,0.0,1.0,0.0,1.0,1.0,0.0,0.0,1.0,0.0,100.0,1.0,1.1856,26.0,0.0,0.0,0.0,59.999996,0.0,26.0,26.0,26.0,26.0,0.019625000000000004,0.2499,-0.025,292.374,-2.7495000000000003,-2.7262500000000003,-1.5306000000000002,-1.589,-198.63,215.8625,190.507,0.0,0.0,0.0,0.0,0.046400000000000004,-5.498166666666667,-5.498166666666667,-0.5752,-0.446,0.007857142857142785,-0.7489999999999997,68.381,0.007000000000000117,-0.23145000000000002,0.03200000000000092,100.0,1.0,1.0,210.91,0.0,0.0,0.0,0.0,0.0,0.0,0.0,8939.7,0.0,55.0,5.0,246.14666666666665,1.0,0.0,0.0,0.0,0.0,0.0,0.0,0.0,1.1550000000000011,1.1550000000000011,0.0,0.0,1.0,55.0,616.79921,10000.0,85.000001,85.000001,85.000001,85.000001,395.0,0.0,0.0,0.0,1.0,333.33500000000004,52.124,52.124,48.111000000000004,48.111000000000004,34.0,-50.917500000000004,48.128,-27.386666666666663,28.7375,0.0,1781.972,-0.5449999999999982,100.0,28.04,28.11,43.141999999999996,43.476,0.0,1.0,100.0,0.0,0.0,0.0,0.0,3321.166666666667,3065.5,3992.4285714285716,4047.7,305.018,304.95866666666666,315.109,314.68125,22.152142857142856,20.6574,21.983,21.473,314.999998,314.999998,324.999988,324.999988,99.5695,99.5114,99.56762857142857,99.54687142857144,-0.585,0.6685000000000001,-0.11199999999999999,0.11540000000000017,-0.060000000000002274,-0.06499999999999773,1.5135,1.5260000000000002,39.451,30.109,38.394,35.206,60.355000000000004,37.076,59.671,52.417500000000004,57.967,36.066,58.266,50.7845,56.924,35.5525,58.185,50.2285,0.5705,0.6579999999999999,0.11009500000000001,0.10805500000000001,0.0,214.055,214.035,210.91,210.91,0.0,0.0
24,0.0,1.0,0.0,1.0,1.0,0.0,0.0,1.0,0.0,100.0,1.0,1.1856,26.0,0.0,0.0,0.0,59.999996,0.0,26.0,26.0,26.0,26.0,0.001875000000000071,0.26639999999999997,-0.051133333333333336,292.694,-2.7521,-2.75575,-1.5644,-1.5325,-195.34,215.85,190.48475,0.0,0.0,0.0,0.0,0.0483,-5.498166666666667,-5.498166666666667,-0.5785,-0.2856666666666667,0.012285714285714233,-0.29800000000000004,68.504,0.005900000000000016,-0.216675,-0.02200000000000024,100.0,1.0,1.0,211.26,0.0,0.0,0.0,0.0,0.0,0.0,0.0,8954.6,0.0,55.0,5.0,246.58666666666664,0.0,0.0,0.0,0.0,0.0,0.0,0.0,0.0,1.2029999999999994,1.2029999999999994,0.0,0.0,0.0,55.0,616.79921,10000.0,85.000001,85.000001,85.000001,85.000001,395.0,0.0,0.0,0.0,1.0,166.665,53.04,53.04,47.653,47.653,34.0,-44.96,45.174,-30.67,28.27,0.0,1781.924,-0.6449999999999996,100.0,27.977,27.852,42.992000000000004,43.295,0.0,1.0,100.0,0.0,0.0,0.0,0.0,2990.0,2890.7,4304.142857142857,4104.0,305.883,305.51666666666665,314.503,314.67225,22.162,20.6631,21.992714285714285,21.481444444444445,314.999998,314.999998,324.999988,324.999988,99.56957142857142,99.51148333333333,99.56775714285715,99.54701428571428,-0.5725,0.6755,-0.11939999999999995,0.11519999999999997,-0.05666666666667197,-0.07666666666666799,1.518,1.5245000000000002,39.513,30.144,38.455,35.259,60.361000000000004,37.144999999999996,59.7055,52.4755,57.972,36.129999999999995,58.2985,50.84,56.927,35.613,58.2145,50.283,0.5609999999999999,0.6703333333333332,0.11353,0.107645,0.0,214.445,214.43,211.26,211.26,0.0,0.0
25,0.0,1.0,0.0,1.0,1.0,0.0,0.0,1.0,0.0,100.0,1.0,1.1856,26.0,0.0,0.0,0.0,59.999996,0.0,26.0,26.0,26.0,26.0,0.01012499999999994,0.24029999999999996,-0.0616,292.74,-2.8335,-2.744375,-1.5855000000000001,-1.5326250000000001,-191.85,215.835,190.45975,0.0,0.0,0.0,0.0,0.050333333333333334,-5.498166666666667,-5.498166666666667,-0.612,-0.224,0.023285714285714132,0.31400000000000006,68.633,0.008599999999999941,-0.22675,-0.30799999999999983,100.0,1.0,1.0,211.77666666666667,0.0,0.0,0.0,0.0,0.0,0.0,0.0,8976.4,0.0,55.0,5.0,247.05333333333334,1.0,0.0,0.0,0.0,0.0,0.0,0.0,0.0,1.2540000000000013,1.2540000000000013,0.0,0.0,1.0,55.0,616.79921,10000.0,85.000001,85.000001,85.000001,85.000001,395.0,0.0,0.0,0.0,1.0,333.33500000000004,52.382999999999996,52.382999999999996,48.157,48.157,34.0,-47.55,51.647999999999996,-26.35,28.1675,0.0,1781.872,-0.5999999999999979,100.0,27.909,27.874,42.911,43.035,0.0,1.0,100.0,0.0,0.0,0.0,0.0,3102.166666666667,3259.5,3898.4285714285716,4025.5,305.5985,304.51733333333334,315.3813333333333,314.93775,22.172428571428572,20.6692,22.003,21.490444444444446,314.999998,314.999998,324.999988,324.999988,99.56964285714285,99.51156666666667,99.56791428571428,99.54715714285715,-0.58175,0.67825,-0.09839999999999993,0.13140000000000018,-0.03333333333333144,-0.07333333333333059,1.579,1.5675,39.577,30.182000000000002,38.519,35.316,60.364999999999995,37.219,59.7415,52.535,57.976,36.198,58.3315,50.8975,56.928,35.6785,58.2445,50.339,0.5699999999999998,0.6653333333333333,0.10526,0.10498,0.0,214.815,214.805,211.77666666666667,211.77666666666667,0.0,0.0
26,0.0,1.0,0.0,1.0,1.0,0.0,0.0,1.0,0.0,100.0,1.0,1.1856,26.0,0.0,0.0,0.0,59.999996,0.0,26.0,26.0,26.0,26.0,0.016874999999999973,0.26639999999999997,0.06596666666666666,291.519,-2.7904,-2.771375,-1.6317000000000002,-1.52475,-188.34,215.82,190.434,0.0,0.0,0.0,0.0,0.052366666666666666,-5.498166666666667,-5.498166666666667,-0.5773,0.8603333333333334,0.0022857142857142243,-0.9420000000000002,68.765,0.01419999999999999,-0.199025,-0.08999999999999986,100.0,1.0,1.0,211.95666666666668,0.0,0.0,0.0,0.0,0.0,0.0,0.0,8984.1,0.0,55.0,5.0,247.52666666666664,0.0,0.0,0.0,0.0,0.0,0.0,0.0,0.0,1.3049999999999997,1.3049999999999997,0.0,0.0,0.0,55.0,616.79921,10000.0,85.000001,85.000001,85.000001,85.000001,395.0,0.0,0.0,0.0,1.0,333.33500000000004,51.453,51.453,46.814,46.814,34.0,-49.88,49.588,-32.85333333333334,31.185000000000002,0.0,1781.82,-0.6099999999999994,100.0,28.686,28.761,43.066,43.425,0.0,1.0,100.0,0.0,0.0,0.0,0.0,3253.333333333333,3117.6,4502.142857142857,4399.8,305.133,304.66133333333335,314.063,313.9715,22.183142857142858,20.6756,22.01342857142857,21.499666666666666,314.999998,314.999998,324.999988,324.999988,99.56971428571428,99.51165,99.56805714285714,99.54731428571428,-0.57375,0.66675,-0.10599999999999998,0.121,-0.061666666666667425,-0.05833333333333002,1.466,1.472,39.644999999999996,30.222,38.584,35.373000000000005,60.376000000000005,37.299,59.78,52.598,57.985,36.271,58.3675,50.957499999999996,56.935,35.748,58.277,50.397999999999996,0.5645000000000002,0.6513333333333335,0.11227000000000001,0.10883000000000001,0.0,215.28,215.25,211.95666666666668,211.95666666666668,0.0,0.0
27,0.0,1.0,0.0,1.0,1.0,0.0,0.0,1.0,0.0,100.0,1.0,1.1856,26.0,0.0,0.0,0.0,59.999996,0.0,26.0,26.0,26.0,26.0,0.027249999999999996,0.25770000000000004,0.0027,291.718,-2.7565,-2.7375,-1.6251,-1.599375,-185.04,215.8075,190.410875,0.0,0.0,0.0,0.0,0.0543,-5.498166666666667,-5.498166666666667,-0.5927,-1.0686666666666669,0.004285714285714226,-0.7649999999999997,68.887,0.014100000000000001,-0.23885,-0.15200000000000014,100.0,1.0,1.0,212.34333333333333,0.0,0.0,0.0,0.0,0.0,0.0,0.0,9000.5,0.0,55.0,5.0,247.97,1.0,0.0,0.0,0.0,0.0,0.0,0.0,0.0,1.352999999999998,1.352999999999998,0.0,0.0,1.0,55.0,616.79921,10000.0,85.000001,85.000001,85.000001,85.000001,395.0,0.0,0.0,0.0,1.0,333.33500000000004,51.926,51.926,46.799,46.799,34.0,-47.55,48.76,-30.303333333333335,29.975,0.0,1781.772,-0.6600000000000001,100.0,28.39,28.549,43.900999999999996,44.128,0.0,1.0,100.0,0.0,0.0,0.0,0.0,3153.0,3081.5,4194.285714285715,4163.6,305.4335,304.91366666666664,314.66766666666666,314.3785,22.193,20.6814,22.02357142857143,21.508444444444443,314.999998,314.999998,324.999988,324.999988,99.56978571428571,99.51173333333334,99.5682,99.54744285714285,-0.562,0.6812500000000001,-0.10739999999999994,0.11359999999999992,-0.05666666666667197,-0.06333333333333258,1.4729999999999999,1.492,39.706,30.259,38.647,35.428,60.381,37.369,59.8185,52.659,57.989000000000004,36.336,58.4035,51.0165,56.937,35.81,58.31,50.4555,0.5529999999999999,0.6640000000000001,0.109795,0.10475500000000001,0.0,215.585,215.59,212.34333333333333,212.34333333333333,0.0,0.0
28,0.0,1.0,0.0,1.0,1.0,0.0,0.0,1.0,0.0,100.0,1.0,1.1856,26.0,0.0,0.0,0.0,59.999996,0.0,26.0,26.0,26.0,26.0,0.00825000000000009,0.2579,-0.0632,292.221,-2.7668,-2.73725,-1.5693000000000001,-1.563625,-181.51999999999998,215.79500000000002,190.385875,0.0,0.0,0.0,0.0,0.05633333333333334,-5.498166666666667,-5.498166666666667,-0.608,0.526,-0.0004285714285714448,0.6690000000000005,69.012,0.016599999999999948,-0.226325,-0.2239999999999993,100.0,1.0,1.0,212.91666666666669,0.0,0.0,0.0,0.0,0.0,0.0,0.0,9024.8,0.0,55.0,5.0,248.41666666666666,0.0,0.0,0.0,0.0,0.0,0.0,0.0,0.0,1.404,1.404,0.0,0.0,0.0,55.0,616.79921,10000.0,85.000001,85.000001,85.000001,85.000001,395.0,0.0,0.0,0.0,1.0,333.33500000000004,51.926,51.926,47.928,47.928,34.0,-47.457499999999996,50.366,-26.339999999999996,28.685000000000002,0.0,1781.722,-0.6849999999999987,100.0,28.581,28.333,43.286,43.483000000000004,0.0,1.0,100.0,0.0,0.0,0.0,0.0,3129.833333333333,3173.7,3970.1428571428573,4073.1000000000004,305.3625,304.79833333333335,315.20633333333336,314.839,22.20357142857143,20.6876,22.033714285714286,21.517333333333333,314.999998,314.999998,324.999988,324.999988,99.56985714285715,99.51181666666666,99.56834285714285,99.54758571428572,-0.5582499999999999,0.6935,-0.08939999999999992,0.12680000000000002,-0.07333333333333059,-0.08166666666667055,1.5685,1.5779999999999998,39.772,30.298000000000002,38.711,35.483999999999995,60.388,37.446,59.852000000000004,52.718,57.995999999999995,36.407,58.4345,51.073,56.941,35.8775,58.3375,50.5105,0.5585,0.6673333333333336,0.10157500000000001,0.09870500000000001,0.0,216.03,216.025,212.91666666666669,212.91666666666669,0.0,0.0
29,0.0,1.0,0.0,1.0,1.0,0.0,0.0,1.0,0.0,100.0,1.0,1.1856,26.0,0.0,0.0,0.0,59.999996,0.0,26.0,26.0,26.0,26.0,0.022750000000000048,0.2558,0.014933333333333335,291.824,-2.7274000000000003,-2.7803750000000003,-1.5695000000000001,-1.549,-177.79,215.78,190.358125,0.0,0.0,0.0,0.0,0.0585,-5.498166666666667,-5.498166666666667,-0.605,-0.6950000000000001,0.005714285714285783,0.9290000000000003,69.151,0.019100000000000117,-0.21535,-0.37600000000000033,100.0,1.0,1.0,213.12666666666667,0.0,0.0,0.0,0.0,0.0,0.0,0.0,9033.6,0.0,55.0,5.0,248.91666666666666,1.0,0.0,0.0,0.0,0.0,0.0,0.0,0.0,1.4579999999999984,1.4579999999999984,0.0,0.0,1.0,55.0,616.79921,10000.0,85.000001,85.000001,85.000001,85.000001,395.0,0.0,0.0,0.0,1.0,166.665,52.109,52.109,46.738,46.738,34.0,-45.9925,51.617999999999995,-28.42,31.7075,0.0,1781.67,-0.7049999999999983,100.0,28.234,28.16,43.631,43.736000000000004,0.0,1.0,100.0,0.0,0.0,0.0,0.0,3061.166666666667,3227.1,4224.571428571428,4320.0,305.5545,304.53333333333336,314.51533333333333,314.19425,22.21457142857143,20.6942,22.044857142857143,21.52711111111111,314.999998,314.999998,324.999988,324.999988,99.56992857142858,99.51191666666666,99.5685,99.54775714285714,-0.5565,0.6835,-0.08120000000000005,0.13680000000000003,-0.03333333333333144,-0.07833333333332604,1.4889999999999999,1.4705,39.841,30.339,38.78,35.545,60.391,37.525999999999996,59.8935,52.785,57.998999999999995,36.481,58.473,51.137,56.942,35.9475,58.373,50.573,0.5605000000000002,0.6673333333333336,0.1029,0.10230500000000001,0.0,216.41,216.41,213.12666666666667,213.12666666666667,0.0,0.0
30,0.0,1.0,0.0,1.0,1.0,0.0,0.0,1.0,0.0,100.0,1.0,1.1856,26.0,0.0,0.0,0.0,59.999996,0.0,26.0,26.0,26.0,26.0,0.025249999999999995,0.25470000000000015,0.06373333333333334,291.321,-2.7795,-2.6648750000000003,-1.5464,-1.5975000000000001,-174.47,215.76999999999998,190.33325,0.0,0.0,0.0,0.0,0.06043333333333334,-5.498166666666667,-5.498166666666667,-0.6095,0.74,0.0028571428571428914,0.31400000000000006,69.268,0.022199999999999998,-0.222275,-0.3379999999999992,100.0,1.0,1.0,213.57999999999998,0.0,0.0,0.0,0.0,0.0,0.0,0.0,9052.9,0.0,55.0,5.0,249.34,0.0,0.0,0.0,0.0,0.0,0.0,1.0,0.0,1.5060000000000002,1.5060000000000002,0.0,0.0,0.0,55.0,616.79921,10000.0,85.000001,85.000001,85.000001,85.000001,395.0,0.0,0.0,0.0,1.0,166.665,50.858000000000004,50.858000000000004,47.256,47.256,34.0,-51.1325,52.403999999999996,-27.21666666666666,31.810000000000002,0.0,1781.622,-0.7149999999999999,100.0,28.987000000000002,28.96,43.449,43.771,0.0,1.0,100.0,0.0,0.0,0.0,0.0,3350.5,3290.1,4126.285714285715,4275.6,304.796,304.28066666666666,314.84233333333333,314.24825,22.22457142857143,20.7003,22.05457142857143,21.535777777777778,314.999998,314.999998,324.999988,324.999988,99.57,99.512,99.56864285714286,99.54788571428571,-0.5529999999999999,0.6865000000000001,-0.08320000000000005,0.13459999999999983,-0.05666666666667197,-0.07499999999999574,1.5075,1.5060000000000002,39.903999999999996,30.377,38.841,35.598,60.400999999999996,37.602000000000004,59.9265,52.8425,58.007,36.551,58.5035,51.192499999999995,56.948,36.0145,58.4005,50.6275,0.5545,0.6646666666666663,0.10496000000000001,0.10132500000000001,0.0,216.81,216.825,213.57999999999998,213.57999999999998,0.0,0.0
31,0.0,1.0,0.0,1.0,1.0,0.0,0.0,1.0,0.0,100.0,1.0,1.1856,26.0,0.0,0.0,0.0,59.999996,0.0,26.0,26.0,26.0,26.0,0.02187500000000009,0.25450000000000017,0.03443333333333333,291.138,-2.7712,-2.7555,-1.6285,-1.4973750000000001,-171.14,215.76,190.309,0.0,0.0,0.0,0.0,0.06236666666666667,-5.498166666666667,-5.498166666666667,-0.5868,-0.4043333333333333,0.006999999999999895,0.5650000000000004,69.389,0.0233000000000001,-0.21477500000000002,-0.39399999999999924,100.0,1.0,1.0,213.80333333333334,0.0,0.0,0.0,0.0,0.0,0.0,0.0,9062.3,0.0,55.0,5.0,249.77666666666664,1.0,0.0,0.0,0.0,0.0,0.0,1.0,0.0,1.5539999999999985,1.5539999999999985,0.0,0.0,1.0,55.0,616.79921,10000.0,85.000001,85.000001,85.000001,85.000001,395.0,0.0,0.0,0.0,1.0,333.33500000000004,51.743,51.743,45.67,45.67,34.0,-44.165,51.552,-31.323333333333334,31.9025,0.0,1781.5720000000001,-0.7199999999999989,100.0,28.871,28.874,44.153,44.485,0.0,1.0,100.0,0.0,0.0,0.0,0.0,2955.666666666667,3244.5,4419.285714285715,4351.6,305.8755,304.68266666666665,314.074,314.03025,22.234428571428573,20.7063,22.06457142857143,21.544555555555554,314.999998,314.999998,324.999988,324.999988,99.57007142857142,99.51208333333334,99.56878571428571,99.54802857142857,-0.54725,0.6930000000000001,-0.08499999999999996,0.1422000000000001,-0.04999999999999716,-0.06499999999999773,1.4375,1.4220000000000002,39.965,30.414,38.903,35.653999999999996,60.406,37.676,59.9645,52.903999999999996,58.010999999999996,36.618,58.539,51.2515,56.95,36.079,58.433,50.685,0.556,0.6636666666666664,0.11372000000000002,0.10251,0.0,217.17000000000002,217.18,213.80333333333334,213.80333333333334,0.0,0.0
32,0.0,1.0,0.0,1.0,1.0,0.0,0.0,1.0,0.0,100.0,1.0,1.1856,26.0,0.0,0.0,0.0,59.999996,0.0,26.0,26.0,26.0,26.0,0.01287499999999997,0.2518,-0.07496666666666667,291.58,-2.7825,-2.7515,-1.6591,-1.5033750000000001,-167.39,215.7475,190.282125,0.0,0.0,0.0,0.0,0.06453333333333335,-5.498166666666667,-5.498166666666667,-0.6077,-0.006333333333333333,-0.013428571428571345,0.04999999999999982,69.52,0.029900000000000038,-0.22975,-0.40200000000000014,100.0,1.0,1.0,214.38666666666666,0.0,0.0,0.0,0.0,0.0,0.0,0.0,9087.1,0.0,55.0,5.0,250.24333333333334,0.0,0.0,0.0,0.0,0.0,0.0,1.0,0.0,1.6080000000000005,1.6080000000000005,0.0,0.0,0.0,55.0,616.79921,10000.0,85.000001,85.000001,85.000001,85.000001,395.0,0.0,0.0,0.0,1.0,166.665,51.528999999999996,51.528999999999996,46.936,46.936,34.0,-47.345,50.794,-27.756666666666668,30.490000000000002,0.0,1781.52,-0.6149999999999984,100.0,28.778,28.892,43.887,44.230000000000004,0.0,1.0,100.0,0.0,0.0,0.0,0.0,3134.5,3192.6,4120.857142857143,4182.1,305.393,304.722,314.9463333333333,314.6405,22.245571428571427,20.7131,22.07542857142857,21.554222222222222,314.999998,314.999998,324.999988,324.999988,99.57014285714286,99.51218333333334,99.56892857142857,99.54818571428571,-0.55,0.69,-0.07020000000000004,0.15700000000000003,-0.051666666666669414,-0.06833333333332803,1.5535,1.536,40.035,30.457,38.972,35.714,60.412,37.759,60.0025,52.9675,58.016,36.695,58.5745,51.313,56.952,36.152,58.465,50.745,0.5594999999999999,0.6619999999999999,0.103095,0.10895500000000001,0.0,217.575,217.57999999999998,214.38666666666666,214.38666666666666,0.0,0.0
33,0.0,1.0,0.0,1.0,1.0,0.0,0.0,1.0,0.0,100.0,1.0,1.1856,26.0,0.0,0.0,0.0,59.999996,0.0,26.0,26.0,26.0,26.0,0.029875000000000096,0.24850000000000017,-0.08186666666666667,291.687,-2.7774,-2.755375,-1.6072000000000002,-1.59275,-164.05,215.74,190.25725,0.0,0.0,0.0,0.0,0.0665,-5.498166666666667,-5.498166666666667,-0.6138,-0.259,-0.019428571428571573,1.0060000000000002,69.638,0.028299999999999992,-0.217725,-0.16000000000000014,100.0,1.0,1.0,214.68333333333334,0.0,0.0,0.0,0.0,0.0,0.0,0.0,9099.7,0.0,55.0,5.0,250.67333333333335,1.0,0.0,0.0,0.0,0.0,0.0,1.0,0.0,1.6559999999999988,1.6559999999999988,0.0,0.0,1.0,55.0,616.79921,10000.0,85.000001,85.000001,85.000001,85.000001,395.0,0.0,0.0,0.0,1.0,166.665,52.016999999999996,52.016999999999996,46.783,46.783,34.0,-45.6075,49.168,-28.263333333333335,31.535,0.0,1781.47,-0.7049999999999983,100.0,28.645,28.645,43.848,44.147000000000006,0.0,1.0,100.0,0.0,0.0,0.0,0.0,3045.833333333333,3091.6,4207.571428571428,4230.4,305.6915,305.02133333333336,314.6666666666667,314.4535,22.255285714285716,20.719,22.085285714285714,21.56288888888889,314.999998,314.999998,324.999988,324.999988,99.5702,99.51226666666666,99.56907142857143,99.54832857142857,-0.5474999999999999,0.69825,-0.07520000000000004,0.14040000000000008,-0.036666666666668846,-0.06666666666666998,1.517,1.5045000000000002,40.096000000000004,30.494,39.033,35.768,60.416,37.829,60.037,53.0255,58.019999999999996,36.759,58.6065,51.368,56.954,36.213499999999996,58.4935,50.799,0.5569999999999999,0.6646666666666663,0.10241000000000001,0.108685,0.0,217.93,217.93,214.68333333333334,214.68333333333334,0.0,0.0
34,0.0,1.0,0.0,1.0,1.0,0.0,0.0,1.0,0.0,100.0,1.0,1.1856,26.0,0.0,0.0,0.0,59.999996,0.0,26.0,26.0,26.0,26.0,0.0068749999999999645,0.25,-0.09280000000000001,291.946,-2.8083,-2.6807499999999997,-1.6391,-1.553125,-160.70999999999998,215.73250000000002,190.23125,0.0,0.0,0.0,0.0,0.06843333333333335,-5.498166666666667,-5.498166666666667,-0.6374000000000001,-0.6906666666666667,0.010428571428571232,0.9470000000000001,69.756,0.02300000000000013,-0.22145,-0.17799999999999905,100.0,1.0,1.0,215.05666666666667,0.0,0.0,0.0,0.0,0.0,0.0,0.0,9115.5,0.0,55.0,5.0,251.09666666666666,0.0,0.0,0.0,0.0,0.0,0.0,1.0,0.0,1.7040000000000006,1.7040000000000006,0.0,0.0,0.0,55.0,616.79921,10000.0,85.000001,85.000001,85.000001,85.000001,395.0,0.0,0.0,0.0,1.0,333.33500000000004,52.277,52.277,47.592,47.592,34.0,-46.245000000000005,48.11,-27.939999999999998,30.8375,0.0,1781.422,-0.8049999999999997,100.0,28.419,28.374,43.686,44.182,0.0,1.0,100.0,0.0,0.0,0.0,0.0,3075.0,3058.8,4022.4285714285716,4270.4,305.624,305.2133333333333,315.1483333333333,314.31025,22.265,20.724899999999998,22.095,21.571555555555555,314.999998,314.999998,324.999988,324.999988,99.57027142857143,99.51233333333333,99.56921428571428,99.54847142857143,-0.5462499999999999,0.7037500000000001,-0.09199999999999997,0.13040000000000007,-0.046666666666666856,-0.06833333333332803,1.5305,1.513,40.156,30.53,39.093,35.822,60.42,37.897999999999996,60.0695,53.0835,58.022999999999996,36.823,58.6365,51.4245,56.955,36.2745,58.521,50.8535,0.5489999999999999,0.6743333333333332,0.11044500000000002,0.10266000000000002,0.0,218.285,218.28,215.05666666666667,215.05666666666667,0.0,0.0
35,0.0,1.0,0.0,1.0,1.0,0.0,0.0,1.0,0.0,100.0,1.0,1.1856,26.0,0.0,0.0,0.0,59.999996,0.0,26.0,26.0,26.0,26.0,0.0318750000000001,0.25150000000000006,-0.0611,291.977,-2.8429,-2.684,-1.6256000000000002,-1.575125,-156.94,215.7225,190.2,0.0,0.0,0.0,0.0,0.07063333333333334,-5.498166666666667,-5.498166666666667,-0.683,-0.5706666666666667,0.00042857142857122277,-0.041999999999999815,69.887,0.025700000000000056,-0.232625,-0.532,100.0,1.0,1.0,215.5233333333333,0.0,0.0,0.0,0.0,0.0,0.0,0.0,9135.3,0.0,55.0,5.0,251.56666666666666,1.0,0.0,0.0,0.0,0.0,0.0,1.0,0.0,1.7579999999999991,1.7579999999999991,0.0,0.0,1.0,55.0,616.79921,10000.0,85.000001,85.000001,85.000001,85.000001,395.0,0.0,0.0,0.0,1.0,166.665,51.926,51.926,46.921,46.921,34.0,-46.9525,53.668000000000006,-27.406666666666666,29.5,0.0,1781.368,-0.5799999999999983,100.0,28.189,28.479,43.509,43.766999999999996,0.0,1.0,100.0,0.0,0.0,0.0,0.0,3091.5,3375.2,4074.4285714285716,4019.6000000000004,305.6785,304.214,314.8996666666667,315.003,22.275714285714287,20.7317,22.105714285714285,21.581111111111113,314.999998,314.999998,324.999988,324.999988,99.57034285714286,99.51243333333333,99.56937142857143,99.54862857142857,-0.5642499999999999,0.68825,-0.07539999999999991,0.14500000000000002,-0.04833333333333201,-0.08500000000000085,1.5594999999999999,1.5310000000000001,40.224000000000004,30.573,39.161,35.882,60.421,37.980000000000004,60.106,53.1455,58.024,36.897999999999996,58.670500000000004,51.484,56.954,36.346000000000004,58.551,50.911500000000004,0.5655000000000001,0.6606666666666663,0.11011000000000001,0.1063,0.0,218.68,218.7,215.5233333333333,215.5233333333333,0.0,0.0
