,ABS Active,ABS Enabled,AID Allow Tire Blankets,AID Auto Blip,AID Auto Clutch,AID Auto Shift,AID Fuel Rate,AID Ideal Line,AID Mech Damage,AID Stability,AID Tire Wear Rate,Air Density,Air Temp,Ballast,Best Lap Delta,Best Lap Time,Brake Bias,Brake Pos,Brake Temp FL,Brake Temp FR,Brake Temp RL,Brake Temp RR,CG Accel Lateral,CG Accel Longitudinal,CG Accel Vertical,CG Height,Camber FL,Camber FR,Camber RL,Camber RR,Car Coord X,Car Coord Y,Car Coord Z,Car Damage Front,Car Damage Left,Car Damage Rear,Car Damage Right,Car Pos Norm,Caster FL,Caster FR,Chassis Pitch Angle,Chassis Pitch Rate,Chassis Roll Angle,Chassis Roll Rate,Chassis Velocity X,Chassis Velocity Y,Chassis Velocity Z,Chassis Yaw Rate,Clutch Pos,DRS Active,DRS Available,Drive Train Speed,ERS Heat Charging,ERS Is Charging,ERS Max Energy,ERS Power Level,ERS Recovery Level,Engine Brake Setting,Engine Limiter,Engine RPM,Flags,Fuel Level,Gear,Ground Speed,HR Sample Clock,In Pit,KERS Charge,KERS Deployed Energy,KERS Input,KERS Max Energy,LR Sample Clock,Lap Invalidated,Lap Time,Lap Time2,Last Lap Time,Last Sector Time,MR Sample Clock,Max Fuel,Max Power,Max RPM,Max Sus Travel FL,Max Sus Travel FR,Max Sus Travel RL,Max Sus Travel RR,Max Torque,Max Turbo Boost,Num Tires Off Track,Penalties Enabled,Position,Raw Data Sample Rate,Ride Height FL,Ride Height FR,Ride Height RL,Ride Height RR,Road Temp,Self Align Torque FL,Self Align Torque FR,Self Align Torque RL,Self Align Torque RR,Session Lap Count,Session Time Left,Steering Angle,Surface Grip,Suspension Travel FL,Suspension Travel FR,Suspension Travel RL,Suspension Travel RR,TC Active,TC Enabled,Throttle Pos,Tire Dirt Level FL,Tire Dirt Level FR,Tire Dirt Level RL,Tire Dirt Level RR,Tire Load FL,Tire Load FR,Tire Load RL,Tire Load RR,Tire Loaded Radius FL,Tire Loaded Radius FR,Tire Loaded Radius RL,Tire Loaded Radius RR,Tire Pressure FL,Tire Pressure FR,Tire Pressure RL,Tire Pressure RR,Tire Radius FL,Tire Radius FR,Tire Radius RL,Tire Radius RR,Tire Rubber Grip FL,Tire Rubber Grip FR,Tire Rubber Grip RL,Tire Rubber Grip RR,Tire Slip Angle FL,Tire Slip Angle FR,Tire Slip Angle RL,Tire Slip Angle RR,Tire Slip Ratio FL,Tire Slip Ratio FR,Tire Slip Ratio RL,Tire Slip Ratio RR,Tire Temp Core FL,Tire Temp Core FR,Tire Temp Core RL,Tire Temp Core RR,Tire Temp Inner FL,Tire Temp Inner FR,Tire Temp Inner RL,Tire Temp Inner RR,Tire Temp Middle FL,Tire Temp Middle FR,Tire Temp Middle RL,Tire Temp Middle RR,Tire Temp Outer FL,Tire Temp Outer FR,Tire Temp Outer RL,Tire Temp Outer RR,Toe In FL,Toe In FR,Toe In RL,Toe In RR,Turbo Boost,Wheel Angular Speed FL,Wheel Angular Speed FR,Wheel Angular Speed RL,Wheel Angular Speed RR,Wind Direction,Wind Speed
0,0.0,1.0,0.0,1.0,1.0,0.0,0.0,1.0,0.0,100.0,1.0,1.1856,26.0,0.0,0.0,0.0,59.99999,0.0,26.0,26.0,26.0,26.0,-0.09975,0.29980000000000007,0.033266666666666674,293.961,-2.7272,-2.70425,-1.4961,-1.569625,-275.73,216.29000000000002,190.98775,0.0,0.0,0.0,0.0,0.0015666666666666667,-5.498166666666667,-5.498166666666667,-0.5557,1.802,-0.02677777777777779,-1.27,65.354,-0.0678,-0.2215,1.1639999999999997,100.0,1.0,1.0,201.7866666666667,0.0,0.0,0.0,0.0,0.0,0.0,0.0,8553.1,0.0,55.0,5.0,235.24666666666667,0.0,0.0,0.0,0.0,0.0,0.0,0.0,0.0,0.0030000000000001137,0.0030000000000001137,0.0,0.0,0.0,55.0,616.79921,10000.0,85.0,85.0,85.0,85.0,395.0,0.0,0.0,0.0,1.0,20.0,52.551,52.551,49.728,49.728,34.0,-39.975,36.69,-32.269999999999996,22.9825,0.0,1783.55,0.7600000000000016,100.0,27.897,27.136,40.44,40.162,0.0,1.0,100.0,0.0,0.0,0.0,0.0,3056.5,3279.4,4201.125,4002.8,305.5965,304.26933333333335,314.675,314.814,21.846222222222224,20.5038,21.7293,21.2755,314.99999,314.99999,324.99998,324.99998,99.56332857142857,99.5074,99.56361428571428,99.54378571428572,-0.3672500000000001,0.1995,-0.1901666666666666,0.023500000000000076,-0.060000000000002274,-0.054999999999999716,1.5394999999999999,1.6095000000000002,37.539,29.1485,36.808,33.9715,58.157,34.435,58.547,51.1345,55.931,33.6185,57.199,49.518,55.016999999999996,33.1915,57.1725,48.952333333333335,0.32650000000000023,0.20999999999999996,0.10491,0.10735000000000001,0.0,204.82,204.72,201.7866666666667,201.7866666666667,0.0,0.0
1,0.0,1.0,0.0,1.0,1.0,0.0,0.0,1.0,0.0,100.0,1.0,1.1856,26.0,0.0,0.0,0.0,59.999996,0.0,26.0,26.0,26.0,26.0,-0.15849999999999997,0.31410000000000005,0.007333333333333333,293.137,-2.6616,-2.81575,-1.50905,-1.562875,-272.39,216.29000000000002,190.96775,0.0,0.0,0.0,0.0,0.0035,-5.498166666666667,-5.498166666666667,-0.4973,-0.49049999999999994,-0.07222222222222241,-0.21499999999999986,65.508,-0.0697,-0.19565000000000002,1.4779999999999998,100.0,1.0,1.0,201.95333333333332,0.0,0.0,0.0,0.0,0.0,0.0,0.0,8560.1,0.0,55.0,5.0,235.79666666666668,1.0,0.0,0.0,0.0,0.0,0.0,0.0,0.0,0.053999999999998494,0.053999999999998494,0.0,0.0,1.0,55.0,616.79921,10000.0,85.000001,85.000001,85.000001,85.000001,395.0,0.0,0.0,0.0,1.0,333.33500000000004,53.604,53.604,48.400999999999996,48.400999999999996,34.0,-39.815,28.366,-35.06666666666666,27.845,0.0,1783.497,0.9600000000000009,100.0,27.853,26.936,42.795,41.266999999999996,0.0,1.0,100.0,0.0,0.0,0.0,0.0,3056.125,2621.5,4336.375,4681.5,305.4365,306.50533333333334,314.198,313.18925,21.856555555555556,20.5088,21.74,21.2845,314.999998,314.999998,324.999988,324.999988,99.56338571428572,99.50743333333334,99.56375714285714,99.54392857142857,-0.3659999999999999,0.18825000000000003,-0.19966666666666666,0.018000000000000016,-0.03499999999999659,-0.01999999999999602,1.418,1.4705,37.602999999999994,29.18,36.875,34.028,58.157,34.478,58.5955,51.2005,55.93,33.658,57.244,49.5815,55.015,33.2295,57.215,49.01433333333333,0.3450000000000002,0.19799999999999995,0.10335000000000001,0.10171500000000001,0.0,205.235,205.135,201.95333333333332,201.95333333333332,0.0,0.0
2,0.0,1.0,0.0,1.0,1.0,0.0,0.0,1.0,0.0,100.0,1.0,1.1856,26.0,0.0,0.0,0.0,59.999996,0.0,26.0,26.0,26.0,26.0,-0.17562500000000003,0.27770000000000006,-0.0845,293.777,-2.6126,-2.8455000000000004,-1.472,-1.619,-268.85,216.2825,190.947875,0.0,0.0,0.0,0.0,0.005566666666666667,-5.498166666666667,-5.498166666666667,-0.5534,0.235,-0.06277777777777782,2.7039999999999997,65.657,-0.0898,-0.2565,1.8940000000000001,100.0,1.0,1.0,202.9,0.0,0.0,0.0,0.0,0.0,0.0,0.0,8600.1,0.0,55.0,5.0,236.33333333333331,0.0,0.0,0.0,0.0,0.0,0.0,0.0,0.0,0.10800000000000054,0.10800000000000054,0.0,0.0,0.0,55.0,616.79921,10000.0,85.000001,85.000001,85.000001,85.000001,395.0,0.0,0.0,0.0,1.0,166.665,52.382999999999996,52.382999999999996,50.385,50.385,34.0,-43.8275,33.098,-29.886666666666663,19.0575,0.0,1783.445,0.5,100.0,28.594,26.841,42.556,40.969,0.0,1.0,100.0,0.0,0.0,0.0,0.0,3327.0,2952.0,3737.0,3683.0,304.5565,305.5056666666667,315.66066666666666,315.78175,21.86788888888889,20.514,21.751,21.2937,314.999998,314.999998,324.999988,324.999988,99.56342857142857,99.50745,99.56391428571429,99.54407142857143,-0.36824999999999997,0.19850000000000012,-0.24416666666666664,-0.015666666666666607,-0.07000000000000028,-0.05833333333333002,1.633,1.7255,37.674,29.2125,36.943,34.085499999999996,58.163,34.522,58.6375,51.2625,55.936,33.698499999999996,57.283500000000004,49.641,55.018,33.268,57.2515,49.07266666666666,0.3195000000000001,0.22250000000000014,0.104635,0.10569500000000001,0.0,205.745,205.55,202.9,202.9,0.0,0.0
3,0.0,1.0,0.0,1.0,1.0,0.0,0.0,1.0,0.0,100.0,1.0,1.1856,26.0,0.0,0.0,0.0,59.999996,0.0,26.0,26.0,26.0,26.0,-0.14400000000000002,0.31910000000000016,0.09626666666666667,293.51800000000003,-2.7457000000000003,-2.736625,-1.5011,-1.597,-265.69,216.275,190.929375,0.0,0.0,0.0,0.0,0.0074,-5.498166666666667,-5.498166666666667,-0.5106,0.2825,-0.01866666666666683,0.28000000000000025,65.799,-0.1057,-0.199875,1.2079999999999993,100.0,1.0,1.0,203.00666666666666,0.0,0.0,0.0,0.0,0.0,0.0,0.0,8604.7,0.0,55.0,5.0,236.8466666666667,1.0,0.0,0.0,0.0,0.0,0.0,0.0,0.0,0.1559999999999988,0.1559999999999988,0.0,0.0,1.0,55.0,616.79921,10000.0,85.000001,85.000001,85.000001,85.000001,395.0,0.0,0.0,0.0,1.0,166.665,53.604,53.604,48.233000000000004,48.233000000000004,34.0,-37.11,31.4,-35.56666666666666,24.322499999999998,0.0,1783.396,0.46999999999999886,100.0,28.044,26.813,42.451,41.118,0.0,1.0,100.0,0.0,0.0,0.0,0.0,2848.5,2876.0,4291.125,4274.3,306.1355,305.69466666666665,314.29966666666667,314.25325,21.877555555555556,20.5189,21.7607,21.302,314.999998,314.999998,324.999988,324.999988,99.56347142857143,99.50746666666667,99.56404285714285,99.5442,-0.367,0.19724999999999993,-0.22550000000000003,0.0030000000000001137,-0.045000000000001705,-0.060000000000002274,1.4849999999999999,1.537,37.735,29.243000000000002,37.004000000000005,34.1375,58.162,34.564499999999995,58.676,51.323499999999996,55.935,33.7375,57.32,49.699,55.016,33.305,57.285,49.129666666666665,0.30100000000000016,0.24049999999999994,0.10577,0.11216000000000001,0.0,206.16500000000002,206.06,203.00666666666666,203.00666666666666,0.0,0.0
4,0.0,1.0,0.0,1.0,1.0,0.0,0.0,1.0,0.0,100.0,1.0,1.1856,26.0,0.0,0.0,0.0,59.999996,0.0,26.0,26.0,26.0,26.0,-0.17112499999999997,0.2803,-0.0229,293.747,-2.6846,-2.78275,-1.52175,-1.600375,-262.53,216.2625,190.910875,0.0,0.0,0.0,0.0,0.009233333333333333,-5.498166666666667,-5.498166666666667,-0.5457000000000001,-0.9450000000000001,-0.0813333333333337,-0.73,65.935,-0.095,-0.239325,1.0339999999999998,100.0,1.0,1.0,203.55666666666667,0.0,0.0,0.0,0.0,0.0,0.0,0.0,8628.0,0.0,55.0,5.0,237.34,0.0,0.0,0.0,0.0,0.0,0.0,0.0,0.0,0.20400000000000063,0.20400000000000063,0.0,0.0,0.0,55.0,616.79921,10000.0,85.000001,85.000001,85.000001,85.000001,395.0,0.0,0.0,0.0,1.0,166.665,53.146,53.146,48.874,48.874,34.0,-42.1325,32.65,-32.7,20.8925,0.0,1783.349,0.625,100.0,27.83,26.65,42.814,41.307,0.0,1.0,100.0,0.0,0.0,0.0,0.0,3191.75,2966.2,4054.375,3675.2,305.197,305.42766666666665,314.84,315.66325,21.88722222222222,20.523699999999998,21.7706,21.310299999999998,314.999998,314.999998,324.999988,324.999988,99.56351428571429,99.50748333333334,99.56417142857143,99.54432857142857,-0.37724999999999986,0.1905000000000001,-0.21599999999999997,0.018333333333333313,-0.07166666666666544,-0.06833333333332803,1.5655,1.5939999999999999,37.795,29.273,37.066,34.189,58.16,34.6055,58.7175,51.379999999999995,55.932,33.775,57.3585,49.7535,55.012,33.341,57.321,49.183,0.3174999999999999,0.22250000000000014,0.112765,0.10528000000000001,0.0,206.53,206.45499999999998,203.55666666666667,203.55666666666667,0.0,0.0
5,0.0,1.0,0.0,1.0,1.0,0.0,0.0,1.0,0.0,100.0,1.0,1.1856,26.0,0.0,0.0,0.0,59.999996,0.0,26.0,26.0,26.0,26.0,-0.13312499999999994,0.2974000000000001,-0.031733333333333336,293.793,-2.6958,-2.8036250000000003,-1.50035,-1.59075,-259.17,216.245,190.890625,0.0,0.0,0.0,0.0,0.0112,-5.498166666666667,-5.498166666666667,-0.5375,0.45799999999999996,-0.08988888888888891,-0.20700000000000007,66.081,-0.093,-0.215375,1.2420000000000009,100.0,1.0,1.0,203.96666666666667,0.0,0.0,0.0,0.0,0.0,0.0,0.0,8645.4,0.0,55.0,5.0,237.86,1.0,0.0,0.0,0.0,0.0,0.0,0.0,0.0,0.254999999999999,0.254999999999999,0.0,0.0,1.0,55.0,616.79921,10000.0,85.000001,85.000001,85.000001,85.000001,395.0,0.0,0.0,0.0,1.0,333.33500000000004,53.513,53.513,49.179,49.179,34.0,-41.43,30.43,-33.849999999999994,21.485,0.0,1783.296,0.3100000000000023,100.0,27.814,26.687,42.448,40.974000000000004,0.0,1.0,100.0,0.0,0.0,0.0,0.0,3186.5,2723.2,4177.125,4009.7,305.2635,306.05833333333334,314.708,314.86075,21.897666666666666,20.5288,21.781,21.3189,314.999998,314.999998,324.999988,324.999988,99.56355714285715,99.5075,99.56432857142858,99.54447142857143,-0.35949999999999993,0.20875,-0.22350000000000003,-0.01200000000000001,-0.060000000000002274,-0.030000000000001137,1.5414999999999999,1.6065,37.861000000000004,29.304499999999997,37.131,34.243,58.163,34.6495,58.759,51.4385,55.935,33.8155,57.3975,49.809,55.013,33.3795,57.357,49.23733333333333,0.29200000000000026,0.2509999999999999,0.11000000000000001,0.10166000000000001,0.0,207.04000000000002,206.925,203.96666666666667,203.96666666666667,0.0,0.0
6,0.0,1.0,0.0,1.0,1.0,0.0,0.0,1.0,0.0,100.0,1.0,1.1856,26.0,0.0,0.0,0.0,59.999996,0.0,26.0,26.0,26.0,26.0,-0.12,0.27580000000000005,-0.023200000000000002,293.549,-2.6679,-2.77825,-1.54995,-1.6243750000000001,-255.99,216.225,190.87125,0.0,0.0,0.0,0.0,0.013033333333333334,-5.498166666666667,-5.498166666666667,-0.5322,0.04499999999999993,-0.06833333333333336,-0.45999999999999996,66.217,-0.091,-0.215875,0.9060000000000006,100.0,1.0,1.0,204.38,0.0,0.0,0.0,0.0,0.0,0.0,0.0,8663.0,0.0,55.0,5.0,238.35333333333335,0.0,0.0,0.0,0.0,0.0,0.0,0.0,0.0,0.3030000000000008,0.3030000000000008,0.0,0.0,0.0,55.0,616.79921,10000.0,85.000001,85.000001,85.000001,85.000001,395.0,0.0,0.0,0.0,1.0,333.33500000000004,53.192,53.192,48.903999999999996,48.903999999999996,34.0,-41.2525,32.98,-33.74666666666667,22.425,0.0,1783.248,-0.15500000000000114,100.0,27.655,26.769,42.609,41.397,0.0,1.0,100.0,0.0,0.0,0.0,0.0,3235.25,2883.6,4096.25,3952.9,305.1185,305.5013333333333,314.88366666666667,314.94525,21.907444444444444,20.5336,21.7908,21.3273,314.999998,314.999998,324.999988,324.999988,99.5636,99.50753333333333,99.56445714285714,99.5446,-0.33824999999999994,0.22475,-0.22233333333333338,0.0011666666666667602,-0.07666666666666799,-0.060000000000002274,1.5285,1.5635,37.922,29.335,37.192,34.295500000000004,58.163,34.692499999999995,58.7985,51.4975,55.934,33.855000000000004,57.434,49.866,55.010999999999996,33.417,57.3915,49.293,0.26449999999999996,0.2789999999999999,0.11028,0.10219500000000001,0.0,207.44,207.35500000000002,204.38,204.38,0.0,0.0
7,0.0,1.0,0.0,1.0,1.0,0.0,0.0,1.0,0.0,100.0,1.0,1.1856,26.0,0.0,0.0,0.0,59.999996,0.0,26.0,26.0,26.0,26.0,-0.08762499999999995,0.27859999999999996,0.021266666666666666,293.259,-2.638,-2.7664999999999997,-1.5095,-1.6265,-252.41,216.2,190.849625,0.0,0.0,0.0,0.0,0.015133333333333335,-5.498166666666667,-5.498166666666667,-0.5346000000000001,0.01749999999999996,-0.05677777777777804,-0.18300000000000005,66.37,-0.0718,-0.22385000000000002,0.4900000000000002,100.0,1.0,1.0,204.81666666666666,0.0,0.0,0.0,0.0,0.0,0.0,0.0,8681.5,0.0,55.0,5.0,238.90333333333334,1.0,0.0,0.0,0.0,0.0,0.0,0.0,0.0,0.3569999999999993,0.3569999999999993,0.0,0.0,1.0,55.0,616.79921,10000.0,85.000001,85.000001,85.000001,85.000001,395.0,0.0,0.0,0.0,1.0,166.665,52.841,52.841,48.903999999999996,48.903999999999996,34.0,-41.1325,35.054,-31.773333333333333,24.64,0.0,1783.196,-0.379999999999999,100.0,27.797,26.842,42.673,41.717,0.0,1.0,100.0,0.0,0.0,0.0,0.0,3301.375,2953.5,4087.375,4015.2,304.8355,305.293,314.86033333333336,314.769,21.918555555555557,20.5391,21.8018,21.3367,314.999998,314.999998,324.999988,324.999988,99.56364285714285,99.50756666666666,99.56461428571428,99.54475714285714,-0.3085,0.2630000000000001,-0.19299999999999995,0.03299999999999992,-0.06333333333333258,-0.07833333333332604,1.5314999999999999,1.5385,37.991,29.369,37.262,34.3545,58.162,34.743,58.8425,51.5635,55.933,33.900999999999996,57.4755,49.929,55.007999999999996,33.4615,57.4295,49.35466666666667,0.24449999999999994,0.30500000000000016,0.10775000000000001,0.11038,0.0,207.885,207.85000000000002,204.81666666666666,204.81666666666666,0.0,0.0
8,0.0,1.0,0.0,1.0,1.0,0.0,0.0,1.0,0.0,100.0,1.0,1.1856,26.0,0.0,0.0,0.0,59.999996,0.0,26.0,26.0,26.0,26.0,-0.04049999999999998,0.3006,0.04156666666666667,293.533,-2.7245,-2.75575,-1.4966,-1.5765,-249.01999999999998,216.175,190.829125,0.0,0.0,0.0,0.0,0.0171,-5.498166666666667,-5.498166666666667,-0.5352,-0.6154999999999999,-0.033333333333333215,0.8239999999999998,66.515,-0.0536,-0.21352500000000002,-0.10400000000000009,100.0,1.0,1.0,205.19666666666666,0.0,0.0,0.0,0.0,0.0,0.0,0.0,8697.5,0.0,55.0,5.0,239.42333333333335,0.0,0.0,0.0,0.0,0.0,0.0,0.0,0.0,0.40800000000000125,0.40800000000000125,0.0,0.0,0.0,55.0,616.79921,10000.0,85.000001,85.000001,85.000001,85.000001,395.0,0.0,0.0,0.0,1.0,166.665,53.741,53.741,48.187,48.187,34.0,-35.1725,35.92,-29.9,27.0925,0.0,1783.144,-0.5500000000000007,100.0,27.488,26.661,42.768,41.796,0.0,1.0,100.0,0.0,0.0,0.0,0.0,2902.25,2997.0,4108.625,4155.3,306.0325,305.361,314.7006666666667,314.4865,21.928666666666665,20.5442,21.8123,21.3456,314.999998,314.999998,324.999988,324.999988,99.56368571428571,99.50758333333333,99.56475714285715,99.54488571428571,-0.28325,0.28400000000000003,-0.15133333333333332,0.07266666666666666,-0.04999999999999716,-0.06499999999999773,1.5275,1.5185,38.054,29.4015,37.327,34.41,58.155,34.792,58.884,51.6255,55.926,33.9465,57.513999999999996,49.9885,55.0,33.5045,57.465,49.413,0.2290000000000001,0.3195000000000001,0.10540500000000001,0.10907000000000001,0.0,208.305,208.29500000000002,205.19666666666666,205.19666666666666,0.0,0.0
9,0.0,1.0,0.0,1.0,1.0,0.0,0.0,1.0,0.0,100.0,1.0,1.1856,26.0,0.0,0.0,0.0,59.999996,0.0,26.0,26.0,26.0,26.0,-0.04412499999999997,0.2944,0.0345,293.213,-2.7096,-2.75775,-1.55155,-1.556375,-245.82999999999998,216.15,190.809375,0.0,0.0,0.0,0.0,0.018966666666666666,-5.498166666666667,-5.498166666666667,-0.5428000000000001,0.634,-0.03588888888888908,0.698,66.647,-0.028300000000000002,-0.216375,-0.1899999999999995,100.0,1.0,1.0,205.73000000000002,0.0,0.0,0.0,0.0,0.0,0.0,0.0,8720.2,0.0,55.0,5.0,239.9,1.0,0.0,0.0,0.0,0.0,0.0,0.0,0.0,0.4559999999999995,0.4559999999999995,0.0,0.0,1.0,55.0,616.79921,10000.0,85.000001,85.000001,85.000001,85.000001,395.0,0.0,0.0,0.0,1.0,166.665,52.475,52.475,49.271,49.271,34.0,-40.225,38.124,-28.143333333333334,26.2075,0.0,1783.097,-0.6400000000000006,100.0,27.934,27.128,42.351,41.768,0.0,1.0,100.0,0.0,0.0,0.0,0.0,3297.75,3089.7,3960.125,4060.3,304.787,305.001,315.193,314.811,21.938444444444443,20.5493,21.8219,21.3539,314.999998,314.999998,324.999988,324.999988,99.56371428571428,99.50763333333333,99.5649,99.54502857142857,-0.266,0.30800000000000005,-0.13616666666666666,0.08250000000000002,-0.04333333333332945,-0.046666666666666856,1.5855,1.5785,38.114999999999995,29.433500000000002,37.387,34.462,58.150999999999996,34.842,58.9195,51.6825,55.922,33.9925,57.547,50.043,54.995000000000005,33.5485,57.4955,49.46633333333333,0.22550000000000026,0.3205,0.109225,0.10145000000000001,0.0,208.71,208.72500000000002,205.73000000000002,205.73000000000002,0.0,0.0
10,0.0,1.0,0.0,1.0,1.0,0.0,0.0,1.0,0.0,100.0,1.0,1.1856,26.0,0.0,0.0,0.0,59.999996,0.0,26.0,26.0,26.0,26.0,-0.00275000000000003,0.2955000000000001,0.05346666666666666,293.03,-2.6795999999999998,-2.7435,-1.5848499999999999,-1.539875,-242.62,216.1225,190.789875,0.0,0.0,0.0,0.0,0.020800000000000003,-5.498166666666667,-5.498166666666667,-0.5169,-0.31699999999999995,0.0023333333333332984,1.9100000000000001,66.78399999999999,-0.009000000000000001,-0.2036,-0.45399999999999974,100.0,1.0,1.0,205.93333333333334,0.0,0.0,0.0,0.0,0.0,0.0,0.0,8728.7,0.0,55.0,5.0,240.39333333333332,0.0,0.0,0.0,0.0,0.0,0.0,1.0,0.0,0.5040000000000013,0.5040000000000013,0.0,0.0,0.0,55.0,616.79921,10000.0,85.000001,85.000001,85.000001,85.000001,395.0,0.0,0.0,0.0,1.0,333.33500000000004,53.497,53.497,47.729,47.729,34.0,-32.6825,36.668,-30.373333333333335,30.15,0.0,1783.047,-0.8200000000000003,100.0,27.846,27.069,42.788,42.442,0.0,1.0,100.0,0.0,0.0,0.0,0.0,2835.875,2958.1,4298.375,4336.9,306.123,305.46633333333335,314.3023333333333,314.08975,21.948,20.5543,21.8319,21.3625,314.999998,314.999998,324.999988,324.999988,99.56374285714286,99.50766666666667,99.56502857142857,99.54515714285715,-0.23649999999999993,0.3285,-0.10416666666666663,0.10850000000000004,-0.060000000000002274,-0.07166666666666544,1.4935,1.463,38.175,29.4645,37.449,34.5155,58.144999999999996,34.8915,58.9595,51.744,55.916,34.038,57.584,50.102000000000004,54.986999999999995,33.592,57.53,49.524,0.20900000000000007,0.3374999999999999,0.100635,0.10535000000000001,0.0,209.15,209.16,205.93333333333334,205.93333333333334,0.0,0.0
11,0.0,1.0,0.0,1.0,1.0,0.0,0.0,1.0,0.0,100.0,1.0,1.1856,26.0,0.0,0.0,0.0,59.999996,0.0,26.0,26.0,26.0,26.0,0.052875000000000005,0.25970000000000004,-0.10543333333333334,293.594,-2.7431,-2.714625,-1.55495,-1.5186250000000001,-239.21,216.095,190.76925,0.0,0.0,0.0,0.0,0.022600000000000002,-5.498166666666667,-5.498166666666667,-0.5614,-0.379,0.03488888888888897,-0.554,66.92099999999999,0.0092,-0.23945000000000002,-0.6559999999999997,100.0,1.0,1.0,206.66,0.0,0.0,0.0,0.0,0.0,0.0,0.0,8759.6,0.0,55.0,5.0,240.89,1.0,0.0,0.0,0.0,0.0,0.0,1.0,0.0,0.5549999999999997,0.5549999999999997,0.0,0.0,1.0,55.0,616.79921,10000.0,85.000001,85.000001,85.000001,85.000001,395.0,0.0,0.0,0.0,1.0,333.33500000000004,52.917,52.917,49.362,49.362,34.0,-35.6625,39.082,-23.726666666666663,26.355,0.0,1782.996,-0.7899999999999991,100.0,27.404,27.486,42.271,42.527,0.0,1.0,100.0,0.0,0.0,0.0,0.0,3066.5,3093.8,3661.625,3859.8,305.642,304.83233333333334,315.92333333333335,315.22075,21.958,20.5597,21.8421,21.3714,314.999998,314.999998,324.999988,324.999988,99.56377142857143,99.5077,99.56515714285715,99.5453,-0.22950000000000004,0.33575,-0.09683333333333333,0.13000000000000012,-0.05666666666667197,-0.05666666666667197,1.6315,1.624,38.238,29.4985,37.513,34.5715,58.132999999999996,34.947,58.9955,51.8055,55.905,34.089,57.6175,50.161,54.975,33.641,57.5605,49.58233333333334,0.20150000000000023,0.3380000000000001,0.11087000000000001,0.10168500000000001,0.0,209.54000000000002,209.57,206.66,206.66,0.0,0.0
12,0.0,1.0,0.0,1.0,1.0,0.0,0.0,1.0,0.0,100.0,1.0,1.1856,26.0,0.0,0.0,0.0,59.999996,0.0,26.0,26.0,26.0,26.0,0.05049999999999999,0.2813000000000001,0.024433333333333335,293.106,-2.7925,-2.7115,-1.5479,-1.524125,-236.0,216.07,190.748625,0.0,0.0,0.0,0.0,0.025466666666666665,-5.498166666666667,-5.498166666666667,-0.5485,0.31199999999999994,0.015666666666666718,-0.966,67.056,0.030000000000000002,-0.20735,-0.7379999999999995,100.0,1.0,1.0,206.87666666666667,0.0,0.0,0.0,0.0,0.0,0.0,0.0,8768.7,0.0,55.0,5.0,241.37333333333333,0.0,0.0,0.0,0.0,0.0,0.0,1.0,0.0,0.602999999999998,0.602999999999998,0.0,0.0,0.0,55.0,616.79921,10000.0,85.000001,85.000001,85.000001,85.000001,395.0,0.0,0.0,0.0,1.0,333.33500000000004,52.948,52.948,48.111,48.111,34.0,-36.6075,38.772,-27.206666666666663,30.2875,0.0,1782.95,-0.5999999999999979,100.0,27.267,27.637,42.061,42.411,0.0,1.0,100.0,0.0,0.0,0.0,0.0,3122.625,3077.6,4224.25,4133.2,305.541,304.899,314.60566666666665,314.55975,21.967555555555556,20.5649,21.8518,21.3798,314.999998,314.999998,324.999988,324.999988,99.5638,99.50775,99.5653,99.54544285714286,-0.22724999999999995,0.3347500000000001,-0.07366666666666666,0.15050000000000008,-0.05333333333332746,-0.045000000000001705,1.545,1.4969999999999999,38.297,29.531,37.574,34.6235,58.122,35.0015,59.032,51.8635,55.894,34.1395,57.652,50.217,54.963,33.689,57.592,49.637,0.22100000000000009,0.3195000000000001,0.106175,0.10414000000000001,0.0,209.97500000000002,210.01,206.87666666666667,206.87666666666667,0.0,0.0
13,0.0,1.0,0.0,1.0,1.0,0.0,0.0,1.0,0.0,100.0,1.0,1.1856,26.0,0.0,0.0,0.0,59.999996,0.0,26.0,26.0,26.0,26.0,0.060124999999999984,0.28780000000000006,0.051666666666666666,292.709,-2.7664,-2.710875,-1.6200999999999999,-1.505875,-232.57999999999998,216.04500000000002,190.726875,0.0,0.0,0.0,0.0,0.02666666666666667,-5.498166666666667,-5.498166666666667,-0.5393,0.007000000000000006,0.023777777777777898,1.089,67.197,0.0397,-0.213375,-0.8099999999999996,100.0,1.0,1.0,207.24,0.0,0.0,0.0,0.0,0.0,0.0,0.0,8784.1,0.0,55.0,5.0,241.88333333333333,1.0,0.0,0.0,0.0,0.0,0.0,1.0,0.0,0.6539999999999999,0.6539999999999999,0.0,0.0,1.0,55.0,616.79921,10000.0,85.000001,85.000001,85.000001,85.000001,395.0,0.0,0.0,0.0,1.0,333.33500000000004,52.628,52.628,48.065,48.065,34.0,-34.1975,41.342,-26.883333333333333,32.495000000000005,0.0,1782.898,-1.009999999999998,100.0,27.749,27.68,42.417,42.783,0.0,1.0,100.0,0.0,0.0,0.0,0.0,3039.0,3175.2,4141.0,4354.5,305.5635,304.769,314.72,314.07925,21.977666666666668,20.5705,21.8623,21.3889,314.999998,314.999998,324.999988,324.999988,99.56381428571429,99.50778333333334,99.56544285714286,99.54557142857144,-0.1844999999999999,0.3800000000000001,-0.05699999999999994,0.15999999999999992,-0.05333333333332746,-0.061666666666667425,1.5265,1.483,38.36,29.5655,37.638999999999996,34.6805,58.111000000000004,35.061,59.0725,51.9285,55.884,34.194,57.689,50.2795,54.952,33.741,57.626,49.69833333333334,0.18950000000000022,0.3494999999999999,0.107105,0.10698500000000001,0.0,210.4,210.445,207.24,207.24,0.0,0.0
14,0.0,1.0,0.0,1.0,1.0,0.0,0.0,1.0,0.0,100.0,1.0,1.1856,26.0,0.0,0.0,0.0,59.999996,0.0,26.0,26.0,26.0,26.0,0.09787499999999993,0.26670000000000016,-0.009033333333333332,292.938,-2.7681,-2.651375,-1.6273,-1.513125,-229.14,216.0225,190.70575,0.0,0.0,0.0,0.0,0.028633333333333334,-5.498166666666667,-5.498166666666667,-0.5484,-0.1995,0.047222222222222054,-0.052000000000000046,67.336,0.050100000000000006,-0.2278,-0.8860000000000001,100.0,1.0,1.0,207.75333333333333,0.0,0.0,0.0,0.0,0.0,0.0,0.0,8805.9,0.0,55.0,5.0,242.38,0.0,0.0,0.0,0.0,0.0,0.0,1.0,0.0,0.7049999999999983,0.7049999999999983,0.0,0.0,0.0,55.0,616.79921,10000.0,85.000001,85.000001,85.000001,85.000001,395.0,0.0,0.0,0.0,1.0,333.33500000000004,52.765,52.765,48.309,48.309,34.0,-34.067499999999995,40.582,-25.706666666666663,30.997500000000002,0.0,1782.846,-1.1400000000000006,100.0,27.48,27.849,42.3,43.107,0.0,1.0,100.0,0.0,0.0,0.0,0.0,3049.625,3128.4,4022.5,4147.2,305.7085,304.76033333333334,315.0763333333333,314.512,21.98777777777778,20.576,21.8726,21.398,314.999998,314.999998,324.999988,324.999988,99.56384285714286,99.50783333333334,99.56558571428572,99.54572857142857,-0.18500000000000005,0.3820000000000001,-0.05466666666666664,0.16599999999999993,-0.060000000000002274,-0.04999999999999716,1.5665,1.5145,38.423,29.6,37.704,34.7375,58.099000000000004,35.1205,59.1105,51.9925,55.872,34.249,57.7245,50.341,54.938,33.794,57.658500000000004,49.75866666666667,0.18100000000000005,0.36149999999999993,0.10251,0.10379000000000001,0.0,210.82,210.86,207.75333333333333,207.75333333333333,0.0,0.0
15,0.0,1.0,0.0,1.0,1.0,0.0,0.0,1.0,0.0,100.0,1.0,1.1856,26.0,0.0,0.0,0.0,59.999996,0.0,26.0,26.0,26.0,26.0,0.11462499999999998,0.2794000000000001,-0.039433333333333334,292.984,-2.7425,-2.605875,-1.6285,-1.452125,-225.91,216.0025,190.6855,0.0,0.0,0.0,0.0,0.030533333333333332,-5.498166666666667,-5.498166666666667,-0.5416000000000001,0.32699999999999996,0.08011111111111102,0.03200000000000003,67.46600000000001,0.0609,-0.212675,-1.096,100.0,1.0,1.0,208.15333333333334,0.0,0.0,0.0,0.0,0.0,0.0,0.0,8822.8,0.0,55.0,5.0,242.85000000000002,1.0,0.0,0.0,0.0,0.0,0.0,1.0,0.0,0.7530000000000001,0.7530000000000001,0.0,0.0,1.0,55.0,616.79921,10000.0,85.000001,85.000001,85.000001,85.000001,395.0,0.0,0.0,0.0,1.0,333.33500000000004,52.856,52.856,48.431,48.431,34.0,-31.5675,40.378,-24.933333333333334,32.08,0.0,1782.799,-1.2149999999999999,100.0,27.531,27.91,42.05,43.137,0.0,1.0,100.0,0.0,0.0,0.0,0.0,2909.75,3115.5,3971.375,4285.7,306.0525,304.78266666666667,315.206,314.2135,21.997222222222224,20.5813,21.8823,21.4066,314.999998,314.999998,324.999988,324.999988,99.56385714285715,99.50788333333334,99.56571428571428,99.54587142857143,-0.16674999999999995,0.38975000000000004,-0.04683333333333339,0.18100000000000005,-0.06333333333333258,-0.05833333333333002,1.566,1.529,38.482,29.633499999999998,37.763999999999996,34.791,58.086,35.1785,59.144999999999996,52.053,55.858999999999995,34.302,57.7565,50.399,54.925,33.845,57.6875,49.815666666666665,0.17300000000000004,0.3660000000000001,0.10965000000000001,0.11256000000000001,0.0,211.23000000000002,211.29500000000002,208.15333333333334,208.15333333333334,0.0,0.0
16,0.0,1.0,0.0,1.0,1.0,0.0,0.0,1.0,0.0,100.0,1.0,1.1856,26.0,0.0,0.0,0.0,59.999996,0.0,26.0,26.0,26.0,26.0,0.133,0.25870000000000015,-0.0594,292.969,-2.8385,-2.63825,-1.6003500000000002,-1.45125,-222.26,215.98250000000002,190.662125,0.0,0.0,0.0,0.0,0.03266666666666667,-5.498166666666667,-5.498166666666667,-0.5617,-0.7190000000000001,0.06911111111111112,-1.047,67.613,0.07590000000000001,-0.225575,-1.3039999999999994,100.0,1.0,1.0,208.59,0.0,0.0,0.0,0.0,0.0,0.0,0.0,8841.4,0.0,55.0,5.0,243.38,0.0,0.0,0.0,0.0,0.0,0.0,1.0,0.0,0.8069999999999986,0.8069999999999986,0.0,0.0,0.0,55.0,616.79921,10000.0,85.000001,85.000001,85.000001,85.000001,395.0,0.0,0.0,0.0,1.0,166.665,52.841,52.841,48.035,48.035,34.0,-33.445,41.63,-23.663333333333334,32.0375,0.0,1782.746,-1.0300000000000011,100.0,27.152,28.073999999999998,42.293,43.321,0.0,1.0,100.0,0.0,0.0,0.0,0.0,2988.875,3176.5,3957.375,4125.4,305.9815,304.59133333333335,315.22866666666664,314.587,22.007444444444445,20.5873,21.8933,21.4162,314.999998,314.999998,324.999988,324.999988,99.56388571428572,99.50793333333333,99.56587142857143,99.54601428571429,-0.1795,0.39274999999999993,-0.030333333333333323,0.20716666666666672,-0.05666666666667197,-0.04999999999999716,1.564,1.516,38.546,29.671,37.833,34.851,58.066,35.2445,59.186,52.1205,55.84,34.363,57.795,50.4645,54.905,33.903,57.7225,49.879999999999995,0.1915,0.35250000000000004,0.11228500000000001,0.11267,0.0,211.64,211.73000000000002,208.59,208.59,0.0,0.0
17,0.0,1.0,0.0,1.0,1.0,0.0,0.0,1.0,0.0,100.0,1.0,1.1856,26.0,0.0,0.0,0.0,59.999996,0.0,26.0,26.0,26.0,26.0,0.11387499999999995,0.2822,-0.03166666666666667,292.648,-2.7931,-2.59925,-1.63595,-1.473625,-218.81,215.9675,190.639625,0.0,0.0,0.0,0.0,0.03466666666666667,-5.498166666666667,-5.498166666666667,-0.5517000000000001,0.5635,0.04888888888888898,0.6800000000000002,67.75,0.0824,-0.2078,-1.12,100.0,1.0,1.0,208.98000000000002,0.0,0.0,0.0,0.0,0.0,0.0,0.0,8857.9,0.0,55.0,5.0,243.87333333333333,1.0,0.0,0.0,0.0,0.0,0.0,1.0,0.0,0.8580000000000005,0.8580000000000005,0.0,0.0,1.0,55.0,616.79921,10000.0,85.000001,85.000001,85.000001,85.000001,395.0,0.0,0.0,0.0,1.0,166.665,52.536,52.536,48.019,48.019,34.0,-32.585,41.153999999999996,-25.11,34.2875,0.0,1782.694,-1.1449999999999996,100.0,27.808,28.224,42.147999999999996,43.2,0.0,1.0,100.0,0.0,0.0,0.0,0.0,2980.875,3146.5,4183.5,4308.0,305.789,304.872,314.73066666666665,314.273,22.017444444444443,20.5931,21.9036,21.4252,314.999998,314.999998,324.999988,324.999988,99.5639,99.50798333333333,99.56601428571429,99.54617142857143,-0.15599999999999992,0.41100000000000003,-0.017833333333333368,0.2148333333333332,-0.046666666666666856,-0.061666666666667425,1.56,1.5110000000000001,38.608999999999995,29.707,37.897,34.9075,58.053,35.3085,59.223,52.184,55.827,34.422,57.8285,50.5255,54.891,33.96,57.753,49.94,0.18550000000000022,0.35199999999999987,0.107325,0.107895,0.0,212.11,212.19,208.98000000000002,208.98000000000002,0.0,0.0
18,0.0,1.0,0.0,1.0,1.0,0.0,0.0,1.0,0.0,100.0,1.0,1.1856,26.0,0.0,0.0,0.0,59.999996,0.0,26.0,26.0,26.0,26.0,0.11662499999999998,0.26280000000000014,-0.03266666666666667,292.648,-2.8273,-2.57425,-1.6547,-1.4195,-215.55,215.95749999999998,190.618625,0.0,0.0,0.0,0.0,0.03656666666666667,-5.498166666666667,-5.498166666666667,-0.5602,-0.5350000000000001,0.07433333333333314,1.2080000000000002,67.879,0.0804,-0.222775,-1.2279999999999998,100.0,1.0,1.0,209.39666666666668,0.0,0.0,0.0,0.0,0.0,0.0,0.0,8875.6,0.0,55.0,5.0,244.33666666666664,0.0,0.0,0.0,0.0,0.0,0.0,1.0,0.0,0.9059999999999988,0.9059999999999988,0.0,0.0,0.0,55.0,616.79921,10000.0,85.000001,85.000001,85.000001,85.000001,395.0,0.0,0.0,0.0,1.0,166.665,52.551,52.551,47.882,47.882,34.0,-31.91,44.456,-23.803333333333335,32.3125,0.0,1782.646,-1.4450000000000003,100.0,27.511,28.011,42.489000000000004,43.614000000000004,0.0,1.0,100.0,0.0,0.0,0.0,0.0,2960.625,3350.2,3975.375,4210.4,305.9185,304.3453333333333,315.166,314.46425,22.026666666666667,20.5985,21.9134,21.4339,314.999998,314.999998,324.999988,324.999988,99.56391428571429,99.50803333333333,99.56614285714285,99.54631428571429,-0.13975000000000004,0.42900000000000005,-0.015000000000000013,0.20833333333333326,-0.03833333333332689,-0.06833333333332803,1.56,1.52,38.667,29.740499999999997,37.959,34.9615,58.037,35.3675,59.26,52.2455,55.812,34.477000000000004,57.863,50.5845,54.875,34.012,57.7845,49.998,0.16349999999999998,0.3759999999999999,0.10329,0.105855,0.0,212.47,212.565,209.39666666666668,209.39666666666668,0.0,0.0
19,0.0,1.0,0.0,1.0,1.0,0.0,0.0,1.0,0.0,100.0,1.0,1.1856,26.0,0.0,0.0,0.0,59.999996,0.0,26.0,26.0,26.0,26.0,0.1332500000000001,0.28200000000000003,0.012,292.236,-2.7996,-2.5633749999999997,-1.6707,-1.4016250000000001,-212.29,215.95,190.597375,0.0,0.0,0.0,0.0,0.03843333333333333,-5.498166666666667,-5.498166666666667,-0.5543,0.832,0.08599999999999985,1.013,68.006,0.0883,-0.21295,-1.5899999999999999,100.0,1.0,1.0,209.80666666666667,0.0,0.0,0.0,0.0,0.0,0.0,0.0,8892.9,0.0,55.0,5.0,244.79333333333335,1.0,0.0,0.0,0.0,0.0,0.0,1.0,0.0,0.9540000000000006,0.9540000000000006,0.0,0.0,1.0,55.0,616.79921,10000.0,85.000001,85.000001,85.000001,85.000001,395.0,0.0,0.0,0.0,1.0,166.665,51.788,51.788,47.928,47.928,34.0,-32.06,45.846000000000004,-23.77,34.32,0.0,1782.599,-1.7100000000000009,100.0,27.981,28.499,42.182,43.588,0.0,1.0,100.0,0.0,0.0,0.0,0.0,3043.625,3393.2,4060.125,4348.4,305.545,304.0926666666667,315.035,314.21075,22.03611111111111,20.604,21.923000000000002,21.4424,314.999998,314.999998,324.999988,324.999988,99.56392857142858,99.50808333333333,99.56628571428571,99.54644285714286,-0.11524999999999985,0.44500000000000006,-0.002666666666666595,0.2290000000000001,-0.05833333333333002,-0.05833333333333002,1.599,1.5205,38.724999999999994,29.775,38.019,35.015,58.022,35.4315,59.2935,52.3055,55.798,34.5355,57.894,50.6425,54.86,34.0685,57.8125,50.05533333333334,0.1379999999999999,0.395,0.10372,0.111255,0.0,212.89499999999998,212.985,209.80666666666667,209.80666666666667,0.0,0.0
20,0.0,1.0,0.0,1.0,1.0,0.0,0.0,1.0,0.0,100.0,1.0,1.1856,26.0,0.0,0.0,0.0,59.999996,0.0,26.0,26.0,26.0,26.0,0.15874999999999995,0.29170000000000007,-0.05393333333333334,292.358,-2.8616,-2.609125,-1.6574,-1.402875,-208.82,215.945,190.575,0.0,0.0,0.0,0.0,0.04046666666666667,-5.498166666666667,-5.498166666666667,-0.5501,-0.9430000000000001,0.09244444444444433,-0.79,68.146,0.1048,-0.217225,-1.726,100.0,1.0,1.0,210.04666666666668,0.0,0.0,0.0,0.0,0.0,0.0,0.0,8903.1,0.0,55.0,5.0,245.29666666666668,0.0,0.0,0.0,0.0,0.0,0.0,0.0,0.0,1.004999999999999,1.004999999999999,0.0,0.0,0.0,55.0,616.79921,10000.0,85.000001,85.000001,85.000001,85.000001,395.0,0.0,0.0,0.0,1.0,166.665,52.963,52.963,46.753,46.753,34.0,-29.88,41.038,-24.763333333333335,35.56,0.0,1782.547,-1.0549999999999997,100.0,27.355,28.506999999999998,42.657,44.256,0.0,1.0,100.0,0.0,0.0,0.0,0.0,2762.375,3133.0,4245.5,4394.9,306.6215,304.727,314.54266666666666,313.9165,22.045666666666666,20.6098,21.9335,21.4517,314.999998,314.999998,324.999988,324.999988,99.56394285714286,99.50813333333333,99.56642857142857,99.5466,-0.15249999999999986,0.3992500000000001,0.006333333333333302,0.23216666666666685,-0.05666666666667197,-0.04333333333332945,1.5235,1.454,38.786,29.811500000000002,38.085,35.073499999999996,58.001000000000005,35.496,59.3345,52.373,55.778,34.5955,57.9325,50.707499999999996,54.84,34.126,57.8475,50.119,0.18000000000000016,0.3500000000000001,0.103495,0.1052,0.0,213.265,213.375,210.04666666666668,210.04666666666668,0.0,0.0
21,0.0,1.0,0.0,1.0,1.0,0.0,0.0,1.0,0.0,100.0,1.0,1.1856,26.0,0.0,0.0,0.0,59.999996,0.0,26.0,26.0,26.0,26.0,0.14237499999999992,0.26770000000000005,-0.0737,292.694,-2.7652,-2.6721250000000003,-1.65965,-1.487875,-205.55,215.945,190.5535,0.0,0.0,0.0,0.0,0.04236666666666667,-5.498166666666667,-5.498166666666667,-0.5820000000000001,0.40149999999999997,0.061555555555555586,-1.365,68.267,0.1116,-0.23170000000000002,-0.9379999999999997,100.0,1.0,1.0,210.73000000000002,0.0,0.0,0.0,0.0,0.0,0.0,0.0,8932.0,0.0,55.0,5.0,245.73333333333335,1.0,0.0,0.0,0.0,0.0,0.0,0.0,0.0,1.0530000000000008,1.0530000000000008,0.0,0.0,1.0,55.0,616.79921,10000.0,85.000001,85.000001,85.000001,85.000001,395.0,0.0,0.0,0.0,1.0,166.665,52.109,52.109,48.553,48.553,34.0,-35.2325,40.996,-22.269999999999996,31.435,0.0,1782.5,0.07499999999999929,100.0,27.665,28.593,42.136,43.802,0.0,1.0,100.0,0.0,0.0,0.0,0.0,3105.625,3179.5,3887.625,3967.0,305.5155,304.5063333333333,315.5063333333333,315.03375,22.055,20.6154,21.9431,21.4602,314.999998,314.999998,324.999988,324.999988,99.56397142857143,99.5082,99.56655714285715,99.54674285714286,-0.1944999999999999,0.359,-0.0033333333333332993,0.22399999999999998,-0.06333333333333258,-0.07833333333332604,1.6325,1.5859999999999999,38.843,29.846,38.144,35.1265,57.988,35.5555,59.366,52.4305,55.765,34.6505,57.9615,50.763,54.826,34.179,57.8735,50.17333333333333,0.25649999999999995,0.27249999999999996,0.10563000000000002,0.101165,0.0,213.70499999999998,213.78,210.73000000000002,210.73000000000002,0.0,0.0
22,0.0,1.0,0.0,1.0,1.0,0.0,0.0,1.0,0.0,100.0,1.0,1.1856,26.0,0.0,0.0,0.0,59.999996,0.0,26.0,26.0,26.0,26.0,0.09000000000000008,0.2562,0.0317,292.099,-2.7285,-2.69625,-1.5825,-1.5462500000000001,-202.06,215.95,190.52975,0.0,0.0,0.0,0.0,0.0444,-5.498166666666667,-5.498166666666667,-0.5569000000000001,0.1845,0.05188888888888887,0.9700000000000002,68.405,0.0857,-0.207175,0.07000000000000028,100.0,1.0,1.0,210.89666666666668,0.0,0.0,0.0,0.0,0.0,0.0,0.0,8939.1,0.0,55.0,5.0,246.23333333333335,0.0,0.0,0.0,0.0,0.0,0.0,0.0,0.0,1.1039999999999992,1.1039999999999992,0.0,0.0,0.0,55.0,616.79921,10000.0,85.000001,85.000001,85.000001,85.000001,395.0,0.0,0.0,0.0,1.0,166.665,52.155,52.155,47.211,47.211,34.0,-34.2175,40.378,-25.04,34.42,0.0,1782.449,0.4299999999999997,100.0,28.023,28.373,42.78,43.781,0.0,1.0,100.0,0.0,0.0,0.0,0.0,2933.25,3228.0,4152.875,4337.3,305.7965,304.484,314.6653333333333,314.13075,22.064888888888888,20.6212,21.9535,21.4694,314.999998,314.999998,324.999988,324.999988,99.564,99.50823333333334,99.56671428571428,99.54688571428571,-0.22724999999999995,0.32099999999999995,-0.026499999999999968,0.18633333333333324,-0.04999999999999716,-0.04833333333333201,1.4945,1.4765000000000001,38.905,29.8825,38.21,35.1835,57.977000000000004,35.6145,59.4065,52.495,55.754999999999995,34.705,57.999,50.825,54.814,34.231,57.908,50.23433333333333,0.30100000000000016,0.23599999999999977,0.10405,0.10380500000000001,0.0,214.17000000000002,214.16500000000002,210.89666666666668,210.89666666666668,0.0,0.0
23,0.0,1.0,0.0,1.0,1.0,0.0,0.0,1.0,0.0,100.0,1.0,1.1856,26.0,0.0,0.0,0.0,59.999996,0.0,26.0,26.0,26.0,26.0,0.03212499999999996,0.25429999999999997,-0.002666666666666667,292.236,-2.7441,-2.667125,-1.5456500000000002,-1.57775,-198.57,215.95499999999998,190.5065,0.0,0.0,0.0,0.0,0.04643333333333333,-5.498166666666667,-5.498166666666667,-0.5750000000000001,-0.39949999999999997,0.026666666666666616,-1.37,68.538,0.037200000000000004,-0.23275,0.8020000000000005,100.0,1.0,1.0,211.37666666666667,0.0,0.0,0.0,0.0,0.0,0.0,0.0,8959.5,0.0,55.0,5.0,246.71333333333334,1.0,0.0,0.0,0.0,0.0,0.0,0.0,0.0,1.1550000000000011,1.1550000000000011,0.0,0.0,1.0,55.0,616.79921,10000.0,85.000001,85.000001,85.000001,85.000001,395.0,0.0,0.0,0.0,1.0,333.33500000000004,51.956,51.956,48.004,48.004,34.0,-40.66,36.988,-26.796666666666663,29.5225,0.0,1782.397,0.5500000000000007,100.0,27.981,28.368000000000002,42.972,43.906,0.0,1.0,100.0,0.0,0.0,0.0,0.0,3314.0,3084.3,4036.875,4034.0,305.0075,304.87233333333336,315.0083333333333,314.718,22.074666666666666,20.6269,21.964,21.4786,314.999998,314.999998,324.999988,324.999988,99.56401428571428,99.50826666666667,99.56685714285715,99.54704285714286,-0.27449999999999997,0.2845,-0.08833333333333337,0.1373333333333333,-0.04833333333333201,-0.051666666666669414,1.4955,1.5310000000000001,38.967,29.9185,38.275,35.241,57.968,35.670500000000004,59.445,52.559,55.747,34.7565,58.035,50.8865,54.805,34.2805,57.9405,50.294666666666664,0.31300000000000017,0.2214999999999998,0.102175,0.1125,0.0,214.57999999999998,214.525,211.37666666666667,211.37666666666667,0.0,0.0
24,0.0,1.0,0.0,1.0,1.0,0.0,0.0,1.0,0.0,100.0,1.0,1.1856,26.0,0.0,0.0,0.0,59.999996,0.0,26.0,26.0,26.0,26.0,-0.03400000000000003,0.26560000000000006,-0.0112,292.542,-2.7218999999999998,-2.722,-1.56135,-1.542,-195.28,215.96,190.484125,0.0,0.0,0.0,0.0,0.04833333333333333,-5.498166666666667,-5.498166666666667,-0.5754,-0.2855000000000001,0.007333333333333192,-0.615,68.664,-0.0064,-0.213175,1.0300000000000002,100.0,1.0,1.0,211.7266666666667,0.0,0.0,0.0,0.0,0.0,0.0,0.0,8974.3,0.0,55.0,5.0,247.16333333333336,0.0,0.0,0.0,0.0,0.0,0.0,0.0,0.0,1.2029999999999994,1.2029999999999994,0.0,0.0,0.0,55.0,616.79921,10000.0,85.000001,85.000001,85.000001,85.000001,395.0,0.0,0.0,0.0,1.0,166.665,53.04,53.04,47.363,47.363,34.0,-37.0,33.22,-33.31,26.58,0.0,1782.35,0.46999999999999886,100.0,27.997,27.921,43.075,43.507,0.0,1.0,100.0,0.0,0.0,0.0,0.0,3009.125,2854.3,4411.875,4069.3,305.811,305.6286666666667,314.2343333333333,314.76975,22.084111111111113,20.6322,21.9738,21.487000000000002,314.999998,314.999998,324.999988,324.999988,99.56405714285714,99.5083,99.567,99.54718571428572,-0.29475000000000007,0.2557499999999999,-0.14949999999999997,0.08650000000000002,-0.041666666666671404,-0.03833333333332689,1.496,1.5394999999999999,39.025,29.951,38.336,35.294,57.963,35.718,59.4815,52.6155,55.741,34.8,58.0685,50.941,54.798,34.3225,57.9715,50.348333333333336,0.30699999999999994,0.23050000000000015,0.11078,0.10923000000000001,0.0,214.99,214.9,211.7266666666667,211.7266666666667,0.0,0.0
25,0.0,1.0,0.0,1.0,1.0,0.0,0.0,1.0,0.0,100.0,1.0,1.1856,26.0,0.0,0.0,0.0,59.999996,0.0,26.0,26.0,26.0,26.0,-0.0675,0.26070000000000015,-0.0805,292.618,-2.6986,-2.729625,-1.56705,-1.5595,-191.76999999999998,215.9625,190.459,0.0,0.0,0.0,0.0,0.05036666666666667,-5.498166666666667,-5.498166666666667,-0.612,-0.21700000000000008,-0.0005555555555556424,-0.11299999999999999,68.795,-0.0441,-0.227225,1.0379999999999994,100.0,1.0,1.0,212.2733333333333,0.0,0.0,0.0,0.0,0.0,0.0,0.0,8997.5,0.0,55.0,5.0,247.63666666666666,1.0,0.0,0.0,0.0,0.0,0.0,0.0,0.0,1.2540000000000013,1.2540000000000013,0.0,0.0,1.0,55.0,616.79921,10000.0,85.000001,85.000001,85.000001,85.000001,395.0,0.0,0.0,0.0,1.0,333.33500000000004,52.246,52.246,48.065,48.065,34.0,-39.5675,37.868,-29.34,24.7025,0.0,1782.298,0.4350000000000023,100.0,28.104,27.793,43.225,43.037,0.0,1.0,100.0,0.0,0.0,0.0,0.0,3137.625,3223.7,3932.25,3949.9,305.315,304.6143333333333,315.295,315.12625,22.093888888888888,20.6378,21.984099999999998,21.496,314.999998,314.999998,324.999988,324.999988,99.5641,99.50833333333334,99.56714285714285,99.54731428571428,-0.31325000000000003,0.24950000000000006,-0.15816666666666657,0.06833333333333336,-0.06499999999999773,-0.060000000000002274,1.5565,1.5945,39.087,29.986,38.400999999999996,35.35,57.957,35.7675,59.519,52.674,55.736000000000004,34.846000000000004,58.1035,50.9975,54.791,34.366,58.0035,50.403,0.3014999999999999,0.23399999999999999,0.10203000000000001,0.11331500000000001,0.0,215.4,215.29500000000002,212.2733333333333,212.2733333333333,0.0,0.0
26,0.0,1.0,0.0,1.0,1.0,0.0,0.0,1.0,0.0,100.0,1.0,1.1856,26.0,0.0,0.0,0.0,59.999996,0.0,26.0,26.0,26.0,26.0,-0.10475000000000001,0.27280000000000015,0.05996666666666667,291.397,-2.7083,-2.7305,-1.5859,-1.5738750000000001,-188.26,215.965,190.433125,0.0,0.0,0.0,0.0,0.05243333333333334,-5.498166666666667,-5.498166666666667,-0.5746,0.8574999999999999,-0.05011111111111122,-1.376,68.93,-0.06430000000000001,-0.19642500000000002,1.1179999999999994,100.0,1.0,1.0,212.44,0.0,0.0,0.0,0.0,0.0,0.0,0.0,9004.5,0.0,55.0,5.0,248.12,0.0,0.0,0.0,0.0,0.0,0.0,0.0,0.0,1.3049999999999997,1.3049999999999997,0.0,0.0,0.0,55.0,616.79921,10000.0,85.000001,85.000001,85.000001,85.000001,395.0,0.0,0.0,0.0,1.0,333.33500000000004,51.376,51.376,46.57,46.57,34.0,-43.16,35.188,-37.46,25.995,0.0,1782.246,0.33000000000000185,100.0,29.051000000000002,28.506999999999998,43.677,43.166,0.0,1.0,100.0,0.0,0.0,0.0,0.0,3355.125,3061.3,4582.75,4320.7,304.801,304.93966666666665,313.855,314.17575,22.10411111111111,20.6436,21.9946,21.5051,314.999998,314.999998,324.999988,324.999988,99.56414285714285,99.50836666666666,99.56728571428572,99.54747142857143,-0.32824999999999993,0.22625000000000006,-0.18466666666666665,0.027666666666666728,-0.05333333333332746,-0.05666666666667197,1.4505,1.4875,39.150999999999996,30.0225,38.467,35.407,57.959,35.8185,59.5605,52.735,55.736999999999995,34.893,58.143,51.056,54.79,34.411,58.039500000000004,50.46033333333334,0.2829999999999999,0.24049999999999994,0.10242000000000001,0.10482500000000002,0.0,215.86,215.755,212.44,212.44,0.0,0.0
27,0.0,1.0,0.0,1.0,1.0,0.0,0.0,1.0,0.0,100.0,1.0,1.1856,26.0,0.0,0.0,0.0,59.999996,0.0,26.0,26.0,26.0,26.0,-0.10099999999999998,0.26439999999999997,-0.0009333333333333334,291.55,-2.6578,-2.771125,-1.5681,-1.65875,-184.95,215.965,190.41,0.0,0.0,0.0,0.0,0.05433333333333334,-5.498166666666667,-5.498166666666667,-0.5931000000000001,-1.0990000000000002,-0.05988888888888866,-0.673,69.054,-0.07150000000000001,-0.23900000000000002,0.9699999999999998,100.0,1.0,1.0,212.85666666666668,0.0,0.0,0.0,0.0,0.0,0.0,0.0,9022.2,0.0,55.0,5.0,248.57,1.0,0.0,0.0,0.0,0.0,0.0,0.0,0.0,1.352999999999998,1.352999999999998,0.0,0.0,1.0,55.0,616.79921,10000.0,85.000001,85.000001,85.000001,85.000001,395.0,0.0,0.0,0.0,1.0,333.33500000000004,51.788,51.788,46.707,46.707,34.0,-42.4225,33.89,-34.57333333333333,25.177500000000002,0.0,1782.199,0.16000000000000014,100.0,28.889,28.227,44.663,43.743,0.0,1.0,100.0,0.0,0.0,0.0,0.0,3312.375,2974.4,4259.25,4093.6000000000004,304.903,305.25466666666665,314.505,314.56675,22.113555555555557,20.6488,22.0047,21.5138,314.999998,314.999998,324.999988,324.999988,99.56417142857143,99.50838333333333,99.56742857142856,99.5476,-0.33525000000000005,0.21550000000000002,-0.1921666666666666,0.018000000000000016,-0.051666666666669414,-0.07000000000000028,1.4645,1.4969999999999999,39.209,30.055,38.53,35.4615,57.958,35.8625,59.6025,52.794,55.736000000000004,34.9335,58.182,51.1125,54.787,34.4495,58.0755,50.51566666666667,0.28149999999999986,0.2469999999999999,0.10411000000000001,0.09947,0.0,216.17000000000002,216.10500000000002,212.85666666666668,212.85666666666668,0.0,0.0
28,0.0,1.0,0.0,1.0,1.0,0.0,0.0,1.0,0.0,100.0,1.0,1.1856,26.0,0.0,0.0,0.0,59.999996,0.0,26.0,26.0,26.0,26.0,-0.109375,0.2734000000000001,-0.05856666666666666,291.992,-2.6831,-2.7563750000000002,-1.5204,-1.62,-181.42000000000002,215.9625,190.384875,0.0,0.0,0.0,0.0,0.056400000000000006,-5.498166666666667,-5.498166666666667,-0.6047,0.5994999999999999,-0.0602222222222224,0.7629999999999999,69.182,-0.0731,-0.2228,0.7860000000000005,100.0,1.0,1.0,213.41333333333333,0.0,0.0,0.0,0.0,0.0,0.0,0.0,9045.8,0.0,55.0,5.0,249.02666666666664,0.0,0.0,0.0,0.0,0.0,0.0,0.0,0.0,1.404,1.404,0.0,0.0,0.0,55.0,616.79921,10000.0,85.000001,85.000001,85.000001,85.000001,395.0,0.0,0.0,0.0,1.0,333.33500000000004,51.849000000000004,51.849000000000004,47.623,47.623,34.0,-41.0525,35.204,-31.25,25.125,0.0,1782.147,0.03999999999999915,100.0,29.132,28.027,44.08,43.103,0.0,1.0,100.0,0.0,0.0,0.0,0.0,3233.875,3047.2,4076.625,4061.8,305.0155,305.185,314.937,314.875,22.123666666666665,20.6545,22.015,21.5228,314.999998,314.999998,324.999988,324.999988,99.56422857142857,99.50841666666666,99.56758571428571,99.54775714285714,-0.31674999999999986,0.23675000000000002,-0.1808333333333334,0.04249999999999998,-0.05333333333332746,-0.06333333333333258,1.543,1.5765,39.272999999999996,30.0905,38.594,35.5175,57.958,35.9105,59.638999999999996,52.851,55.736000000000004,34.9775,58.216,51.167500000000004,54.786,34.492,58.1065,50.569,0.2709999999999999,0.26350000000000007,0.10529500000000001,0.11271500000000001,0.0,216.60000000000002,216.54000000000002,213.41333333333333,213.41333333333333,0.0,0.0
29,0.0,1.0,0.0,1.0,1.0,0.0,0.0,1.0,0.0,100.0,1.0,1.1856,26.0,0.0,0.0,0.0,59.999996,0.0,26.0,26.0,26.0,26.0,-0.09524999999999995,0.2650000000000001,0.008933333333333333,291.565,-2.634,-2.808,-1.55765,-1.59625,-177.68,215.95749999999998,190.357,0.0,0.0,0.0,0.0,0.05856666666666666,-5.498166666666667,-5.498166666666667,-0.6046,-0.7415,-0.052777777777778034,0.851,69.322,-0.06670000000000001,-0.215425,0.46799999999999997,100.0,1.0,1.0,213.66,0.0,0.0,0.0,0.0,0.0,0.0,0.0,9056.2,0.0,55.0,5.0,249.53333333333336,1.0,0.0,0.0,0.0,0.0,0.0,0.0,0.0,1.4579999999999984,1.4579999999999984,0.0,0.0,1.0,55.0,616.79921,10000.0,85.000001,85.000001,85.000001,85.000001,395.0,0.0,0.0,0.0,1.0,166.665,51.819,51.819,46.524,46.524,34.0,-40.3,37.480000000000004,-33.489999999999995,27.2175,0.0,1782.095,-0.07000000000000028,100.0,28.759,27.843,44.463,43.377,0.0,1.0,100.0,0.0,0.0,0.0,0.0,3229.125,3165.8,4263.25,4249.7,305.024,304.72066666666666,314.38366666666667,314.352,22.13411111111111,20.6603,22.0262,21.5325,314.999998,314.999998,324.999988,324.999988,99.56427142857143,99.50845,99.56774285714286,99.54791428571428,-0.30774999999999997,0.23950000000000005,-0.17016666666666658,0.05266666666666686,-0.045000000000001705,-0.051666666666669414,1.4665,1.4795,39.338,30.127000000000002,38.663,35.578,57.955,35.960499999999996,59.6835,52.9165,55.732,35.024,58.2575,51.230000000000004,54.78,34.536,58.144999999999996,50.629999999999995,0.2589999999999999,0.26750000000000007,0.10256000000000001,0.10876000000000001,0.0,216.99,216.95499999999998,213.66,213.66,0.0,0.0
30,0.0,1.0,0.0,1.0,1.0,0.0,0.0,1.0,0.0,100.0,1.0,1.1856,26.0,0.0,0.0,0.0,59.999996,0.0,26.0,26.0,26.0,26.0,-0.08624999999999994,0.2583,0.051666666666666666,291.183,-2.6899,-2.691125,-1.49945,-1.649,-174.35,215.95,190.33225,0.0,0.0,0.0,0.0,0.060500000000000005,-5.498166666666667,-5.498166666666667,-0.6054,0.7845,-0.05366666666666653,0.6600000000000001,69.443,-0.0555,-0.21857500000000002,0.41600000000000037,100.0,1.0,1.0,214.08666666666667,0.0,0.0,0.0,0.0,0.0,0.0,0.0,9074.4,0.0,55.0,5.0,249.96666666666667,0.0,0.0,0.0,0.0,0.0,0.0,1.0,0.0,1.5060000000000002,1.5060000000000002,0.0,0.0,0.0,55.0,616.79921,10000.0,85.000001,85.000001,85.000001,85.000001,395.0,0.0,0.0,0.0,1.0,166.665,50.934,50.934,46.982,46.982,34.0,-42.3975,36.66,-31.896666666666665,29.052500000000002,0.0,1782.046,-0.14000000000000057,100.0,29.522,28.567,44.19,43.341,0.0,1.0,100.0,0.0,0.0,0.0,0.0,3383.875,3126.9,4266.625,4285.7,304.5415,304.83433333333335,314.48133333333334,314.208,22.143666666666668,20.6659,22.035899999999998,21.5411,314.999998,314.999998,324.999988,324.999988,99.56431428571429,99.50848333333333,99.56788571428571,99.54805714285715,-0.28974999999999995,0.2562500000000001,-0.16083333333333338,0.06699999999999995,-0.054999999999999716,-0.061666666666667425,1.4965,1.502,39.397999999999996,30.1615,38.724000000000004,35.632,57.956,36.0095,59.719,52.9725,55.733000000000004,35.069,58.291,51.284,54.78,34.579,58.1755,50.68266666666666,0.24750000000000005,0.274,0.10655,0.11118000000000001,0.0,217.41,217.37,214.08666666666667,214.08666666666667,0.0,0.0
31,0.0,1.0,0.0,1.0,1.0,0.0,0.0,1.0,0.0,100.0,1.0,1.1856,26.0,0.0,0.0,0.0,59.999996,0.0,26.0,26.0,26.0,26.0,-0.06362499999999993,0.2502,0.0517,291.122,-2.6919,-2.7655000000000003,-1.59035,-1.539375,-171.01999999999998,215.94,190.307875,0.0,0.0,0.0,0.0,0.06243333333333334,-5.498166666666667,-5.498166666666667,-0.5875,-0.5585,-0.04022222222222238,0.5739999999999998,69.566,-0.0458,-0.21602500000000002,0.1460000000000008,100.0,1.0,1.0,214.35333333333335,0.0,0.0,0.0,0.0,0.0,0.0,0.0,9085.7,0.0,55.0,5.0,250.41333333333336,1.0,0.0,0.0,0.0,0.0,0.0,1.0,0.0,1.5539999999999985,1.5539999999999985,0.0,0.0,1.0,55.0,616.79921,10000.0,85.000001,85.000001,85.000001,85.000001,395.0,0.0,0.0,0.0,1.0,333.33500000000004,51.59,51.59,45.547,45.547,34.0,-36.915,37.474000000000004,-34.28,27.634999999999998,0.0,1781.998,-0.23999999999999844,100.0,29.244,28.605,44.809,44.048,0.0,1.0,100.0,0.0,0.0,0.0,0.0,3042.5,3145.4,4412.25,4250.6,305.604,304.81166666666667,314.09366666666665,314.30875,22.153,20.6713,22.0459,21.5499,314.999998,314.999998,324.999988,324.999988,99.56434285714286,99.50851666666667,99.56802857142857,99.54818571428571,-0.27549999999999986,0.2577499999999999,-0.14916666666666656,0.07133333333333325,-0.051666666666669414,-0.045000000000001705,1.4395,1.443,39.456,30.1955,38.787,35.687,57.952,36.058,59.7595,53.032,55.729,35.1135,58.329,51.341499999999996,54.775,34.6215,58.210499999999996,50.73866666666667,0.2360000000000002,0.2799999999999998,0.10357000000000001,0.10732000000000001,0.0,217.765,217.71,214.35333333333335,214.35333333333335,0.0,0.0
32,0.0,1.0,0.0,1.0,1.0,0.0,0.0,1.0,0.0,100.0,1.0,1.1856,26.0,0.0,0.0,0.0,59.999996,0.0,26.0,26.0,26.0,26.0,-0.05725000000000002,0.2533000000000001,-0.06866666666666667,291.428,-2.6952,-2.770625,-1.61365,-1.5495,-167.26,215.93,190.280875,0.0,0.0,0.0,0.0,0.06463333333333333,-5.498166666666667,-5.498166666666667,-0.6098,0.17149999999999999,-0.06566666666666654,0.09200000000000008,69.699,-0.033800000000000004,-0.22917500000000002,0.1739999999999995,100.0,1.0,1.0,214.95,0.0,0.0,0.0,0.0,0.0,0.0,0.0,9111.0,0.0,55.0,5.0,250.89,0.0,0.0,0.0,0.0,0.0,0.0,1.0,0.0,1.6080000000000005,1.6080000000000005,0.0,0.0,0.0,55.0,616.79921,10000.0,85.000001,85.000001,85.000001,85.000001,395.0,0.0,0.0,0.0,1.0,166.665,51.269999999999996,51.269999999999996,46.86,46.86,34.0,-39.7,38.12,-30.573333333333334,26.7275,0.0,1781.945,-0.245000000000001,100.0,29.249,28.708,44.422,43.846000000000004,0.0,1.0,100.0,0.0,0.0,0.0,0.0,3262.125,3140.2,4172.0,4113.3,304.9695,304.8786666666667,314.8283333333333,314.84275,22.163444444444444,20.6775,22.0569,21.5596,314.999998,314.999998,324.999988,324.999988,99.56437142857143,99.50855,99.56818571428572,99.54834285714286,-0.26649999999999996,0.2802500000000001,-0.12949999999999995,0.08533333333333326,-0.04833333333333201,-0.05666666666667197,1.5594999999999999,1.562,39.522,30.234,38.855999999999995,35.7475,57.948,36.1135,59.799,53.0945,55.724999999999994,35.165,58.3655,51.400999999999996,54.769,34.670500000000004,58.244,50.797,0.23850000000000016,0.28249999999999975,0.10133500000000001,0.10553000000000001,0.0,218.16,218.14499999999998,214.95,214.95,0.0,0.0
33,0.0,1.0,0.0,1.0,1.0,0.0,0.0,1.0,0.0,100.0,1.0,1.1856,26.0,0.0,0.0,0.0,59.999996,0.0,26.0,26.0,26.0,26.0,-0.027874999999999983,0.2573000000000001,-0.017766666666666667,291.473,-2.6566,-2.746,-1.57315,-1.571,-164.12,215.92000000000002,190.2575,0.0,0.0,0.0,0.0,0.06646666666666666,-5.498166666666667,-5.498166666666667,-0.61,-0.27049999999999996,-0.06411111111111145,0.015000000000000124,69.814,-0.026000000000000002,-0.2156,0.21999999999999975,100.0,1.0,1.0,215.18,0.0,0.0,0.0,0.0,0.0,0.0,0.0,9120.7,0.0,55.0,5.0,251.30333333333334,1.0,0.0,0.0,0.0,0.0,0.0,1.0,0.0,1.6529999999999987,1.6529999999999987,0.0,0.0,1.0,55.0,616.79921,10000.0,85.000001,85.000001,85.000001,85.000001,395.0,0.0,0.0,0.0,1.0,166.665,51.894999999999996,51.894999999999996,46.539,46.539,34.0,-38.0375,35.84,-32.88666666666666,28.3125,0.0,1781.9,-0.375,100.0,28.947,28.529,44.353,43.974000000000004,0.0,1.0,100.0,0.0,0.0,0.0,0.0,3169.875,2969.3,4329.75,4218.2,305.346,305.3,314.413,314.42825,22.17211111111111,20.6824,22.0661,21.5677,314.999998,314.999998,324.999988,324.999988,99.5644,99.50856666666667,99.56831428571428,99.54847142857143,-0.2702499999999999,0.28325,-0.15016666666666656,0.08516666666666683,-0.030000000000001137,-0.051666666666669414,1.4909999999999999,1.5025,39.576,30.2655,38.913,35.798,57.943,36.1575,59.8335,53.147999999999996,55.72,35.2055,58.397999999999996,51.4525,54.763,34.709,58.2735,50.84733333333333,0.2360000000000002,0.30100000000000016,0.10398,0.111295,0.0,218.51,218.47500000000002,215.18,215.18,0.0,0.0
34,0.0,1.0,0.0,1.0,1.0,0.0,0.0,1.0,0.0,100.0,1.0,1.1856,26.0,0.0,0.0,0.0,59.999996,0.0,26.0,26.0,26.0,26.0,-0.029124999999999956,0.24950000000000006,-0.061900000000000004,291.885,-2.7698,-2.7186250000000003,-1.61015,-1.5871250000000001,-160.55,215.9075,190.229875,0.0,0.0,0.0,0.0,0.06853333333333333,-5.498166666666667,-5.498166666666667,-0.639,-0.7384999999999999,-0.02588888888888885,1.096,69.94,-0.0189,-0.224975,0.0420000000000007,100.0,1.0,1.0,215.62,0.0,0.0,0.0,0.0,0.0,0.0,0.0,9139.4,0.0,55.0,5.0,251.75666666666666,0.0,0.0,0.0,0.0,0.0,0.0,1.0,0.0,1.7040000000000006,1.7040000000000006,0.0,0.0,0.0,55.0,616.79921,10000.0,85.000001,85.000001,85.000001,85.000001,395.0,0.0,0.0,0.0,1.0,333.33500000000004,52.216,52.216,47.546,47.546,34.0,-38.0875,36.458,-29.073333333333334,28.975,0.0,1781.847,-0.3949999999999996,100.0,28.718,28.099,44.162,43.955,0.0,1.0,100.0,0.0,0.0,0.0,0.0,3145.625,3030.5,4030.25,4225.5,305.399,305.30833333333334,315.122,314.42125,22.18188888888889,20.6881,22.0764,21.576999999999998,314.999998,314.999998,324.999988,324.999988,99.56444285714285,99.50861666666667,99.56847142857143,99.54862857142857,-0.25525,0.29275000000000007,-0.1213333333333334,0.09499999999999997,-0.04333333333332945,-0.04999999999999716,1.5285,1.5335,39.637,30.301000000000002,38.977999999999994,35.856,57.936,36.2085,59.87,53.209,55.713,35.251999999999995,58.432,51.510999999999996,54.754000000000005,34.754,58.3045,50.904333333333334,0.22849999999999993,0.29700000000000015,0.101065,0.102235,0.0,218.885,218.865,215.62,215.62,0.0,0.0
35,0.0,1.0,0.0,1.0,1.0,0.0,0.0,1.0,0.0,100.0,1.0,1.1856,26.0,0.0,0.0,0.0,59.999996,0.0,26.0,26.0,26.0,26.0,-0.018625000000000003,0.2410000000000001,-0.0437,291.931,-2.7805,-2.6805000000000003,-1.5832000000000002,-1.594,-156.76999999999998,215.89249999999998,190.1985,0.0,0.0,0.0,0.0,0.07073333333333334,-5.498166666666667,-5.498166666666667,-0.684,-0.583,-0.029888888888888854,-0.03699999999999992,70.07300000000001,-0.0063,-0.23042500000000002,-0.20399999999999974,100.0,1.0,1.0,216.09333333333333,0.0,0.0,0.0,0.0,0.0,0.0,0.0,9159.4,0.0,55.0,5.0,252.23666666666668,1.0,0.0,0.0,0.0,0.0,0.0,1.0,0.0,1.7579999999999991,1.7579999999999991,0.0,0.0,1.0,55.0,616.79921,10000.0,85.000001,85.000001,85.000001,85.000001,395.0,0.0,0.0,0.0,1.0,166.665,51.849000000000004,51.849000000000004,46.967,46.967,34.0,-38.34,40.796,-28.31,28.0075,0.0,1781.795,-0.25,100.0,28.435,28.303,43.841,43.557,0.0,1.0,100.0,0.0,0.0,0.0,0.0,3152.125,3336.0,4052.125,3976.1000000000004,305.4835,304.324,314.94966666666664,315.0245,22.192,20.6943,22.0873,21.5866,314.999998,314.999998,324.999988,324.999988,99.56448571428571,99.50865,99.56862857142858,99.54878571428571,-0.2629999999999999,0.29899999999999993,-0.10749999999999993,0.11516666666666686,-0.05666666666667197,-0.04999999999999716,1.548,1.5345,39.7,30.3395,39.045,35.916,57.925,36.2645,59.9075,53.2695,55.703,35.304,58.467,51.5695,54.742999999999995,34.8035,58.336,50.96133333333333,0.2450000000000001,0.29049999999999976,0.107965,0.10593000000000001,0.0,219.29500000000002,219.285,216.09333333333336,216.09333333333333,0.0,0.0
36,0.0,1.0,0.0,1.0,1.0,0.0,0.0,1.0,0.0,100.0,1.0,1.1856,26.0,0.0,0.0,0.0,59.999996,0.0,26.0,26.0,26.0,26.0,-0.01387499999999997,0.26170000000000004,-0.0171,291.183,-2.7902,-2.65075,-1.6066,-1.56525,-153.62,215.88,190.17075,0.0,0.0,0.0,0.0,0.07256666666666667,-5.498166666666667,-5.498166666666667,-0.6662,0.501,-0.06588888888888889,-1.5979999999999999,70.186,0.0025,-0.199575,0.04999999999999982,100.0,1.0,1.0,216.26999999999998,0.0,0.0,0.0,0.0,0.0,0.0,0.0,9166.9,0.0,55.0,5.0,252.64333333333335,0.0,0.0,0.0,0.0,0.0,0.0,1.0,0.0,1.8030000000000008,1.8030000000000008,0.0,0.0,0.0,55.0,616.79921,10000.0,85.000001,85.000001,85.000001,85.000001,395.0,0.0,0.0,0.0,1.0,333.33500000000004,51.559,51.559,46.432,46.432,34.0,-40.3425,36.868,-32.92666666666666,31.645,0.0,1781.747,-0.17999999999999972,100.0,28.812,28.88,43.752,43.733000000000004,0.0,1.0,100.0,0.0,0.0,0.0,0.0,3301.375,3081.4,4504.5,4429.9,305.155,304.97333333333336,314.11833333333334,313.92025,22.200666666666667,20.6996,22.0964,21.5947,314.999998,314.999998,324.999988,324.999988,99.56451428571428,99.50868333333334,99.56875714285714,99.54892857142858,-0.26325,0.28774999999999995,-0.11349999999999993,0.11216666666666675,-0.036666666666668846,-0.06833333333332803,1.4585,1.4665,39.754000000000005,30.372500000000002,39.102000000000004,35.966499999999996,57.92,36.317499999999995,59.943,53.326499999999996,55.698,35.353,58.5,51.6245,54.736000000000004,34.8505,58.366,51.01466666666667,0.24800000000000022,0.274,0.11148000000000001,0.11143000000000002,0.0,219.685,219.675,216.26999999999998,216.26999999999998,0.0,0.0
