,ABS Active,ABS Enabled,AID Allow Tire Blankets,AID Auto Blip,AID Auto Clutch,AID Auto Shift,AID Fuel Rate,AID Ideal Line,AID Mech Damage,AID Stability,AID Tire Wear Rate,Air Density,Air Temp,Ballast,Best Lap Delta,Best Lap Time,Brake Bias,Brake Pos,Brake Temp FL,Brake Temp FR,Brake Temp RL,Brake Temp RR,CG Accel Lateral,CG Accel Longitudinal,CG Accel Vertical,CG Height,Camber FL,Camber FR,Camber RL,Camber RR,Car Coord X,Car Coord Y,Car Coord Z,Car Damage Front,Car Damage Left,Car Damage Rear,Car Damage Right,Car Pos Norm,Caster FL,Caster FR,Chassis Pitch Angle,Chassis Pitch Rate,Chassis Roll Angle,Chassis Roll Rate,Chassis Velocity X,Chassis Velocity Y,Chassis Velocity Z,Chassis Yaw Rate,Clutch Pos,DRS Active,DRS Available,Drive Train Speed,ERS Heat Charging,ERS Is Charging,ERS Max Energy,ERS Power Level,ERS Recovery Level,Engine Brake Setting,Engine Limiter,Engine RPM,Flags,Fuel Level,Gear,Ground Speed,HR Sample Clock,In Pit,KERS Charge,KERS Deployed Energy,KERS Input,KERS Max Energy,LR Sample Clock,Lap Invalidated,Lap Time,Lap Time2,Last Lap Time,Last Sector Time,MR Sample Clock,Max Fuel,Max Power,Max RPM,Max Sus Travel FL,Max Sus Travel FR,Max Sus Travel RL,Max Sus Travel RR,Max Torque,Max Turbo Boost,Num Tires Off Track,Penalties Enabled,Position,Raw Data Sample Rate,Ride Height FL,Ride Height FR,Ride Height RL,Ride Height RR,Road Temp,Self Align Torque FL,Self Align Torque FR,Self Align Torque RL,Self Align Torque RR,Session Lap Count,Session Time Left,Steering Angle,Surface Grip,Suspension Travel FL,Suspension Travel FR,Suspension Travel RL,Suspension Travel RR,TC Active,TC Enabled,Throttle Pos,Tire Dirt Level FL,Tire Dirt Level FR,Tire Dirt Level RL,Tire Dirt Level RR,Tire Load FL,Tire Load FR,Tire Load RL,Tire Load RR,Tire Loaded Radius FL,Tire Loaded Radius FR,Tire Loaded Radius RL,Tire Loaded Radius RR,Tire Pressure FL,Tire Pressure FR,Tire Pressure RL,Tire Pressure RR,Tire Radius FL,Tire Radius FR,Tire Radius RL,Tire Radius RR,Tire Rubber Grip FL,Tire Rubber Grip FR,Tire Rubber Grip RL,Tire Rubber Grip RR,Tire Slip Angle FL,Tire Slip Angle FR,Tire Slip Angle RL,Tire Slip Angle RR,Tire Slip Ratio FL,Tire Slip Ratio FR,Tire Slip Ratio RL,Tire Slip Ratio RR,Tire Temp Core FL,Tire Temp Core FR,Tire Temp Core RL,Tire Temp Core RR,Tire Temp Inner FL,Tire Temp Inner FR,Tire Temp Inner RL,Tire Temp Inner RR,Tire Temp Middle FL,Tire Temp Middle FR,Tire Temp Middle RL,Tire Temp Middle RR,Tire Temp Outer FL,Tire Temp Outer FR,Tire Temp Outer RL,Tire Temp Outer RR,Toe In FL,Toe In FR,Toe In RL,Toe In RR,Turbo Boost,Wheel Angular Speed FL,Wheel Angular Speed FR,Wheel Angular Speed RL,Wheel Angular Speed RR,Wind Direction,Wind Speed
0,0.0,1.0,0.0,1.0,1.0,0.0,0.0,1.0,0.0,100.0,1.0,1.1856,26.0,0.0,0.0,0.0,59.99999,0.0,26.0,26.0,26.0,26.0,-0.11688888888888893,0.3069000000000002,0.04996666666666667,294.006,-2.6545,-2.4177,-1.50765,-1.5408,-275.78,216.1325,190.98825,0.0,0.0,0.0,0.0,0.0015333333333333334,-5.498166666666667,-5.498166666666667,-0.5542,1.0333333333333332,-0.01766666666666694,-1.181,65.565,-0.03699999999999992,-0.2162,1.120000000000001,100.0,1.0,1.0,202.44666666666666,0.0,0.0,0.0,0.0,0.0,0.0,0.0,8581.0,0.0,55.0,5.0,236.00333333333333,0.0,0.0,0.0,0.0,0.0,0.0,0.0,0.0,0.0030000000000001137,0.0030000000000001137,0.0,0.0,0.0,55.0,616.79921,10000.0,85.0,85.0,85.0,85.0,395.0,0.0,0.0,0.0,1.0,20.0,52.582,52.582,49.744,49.744,34.0,3.5150000000000006,-16.792,-29.49,23.35,0.0,1783.619,1.3850000000000016,100.0,27.374,26.864,40.638999999999996,40.403999999999996,0.0,1.0,100.0,0.0,0.0,0.0,0.0,3130.4285714285716,3424.4,4054.375,3942.5,305.3705,303.87766666666664,315.01325,314.954,21.7417,20.6229,21.7349,21.2778,314.99999,314.99999,324.99998,324.99998,99.55828571428572,99.51418333333334,99.564,99.54394285714285,0.6413333333333333,-0.859,-0.15883333333333338,0.045500000000000096,-0.04833333333333201,-0.041666666666671404,1.5563333333333333,1.593,36.885,29.893,36.843,33.986,56.476,38.1275,58.6915,51.2365,54.384,36.987,57.338499999999996,49.609,53.537,36.38966666666666,57.3125,49.035666666666664,-0.6604999999999999,-0.871,0.09642,0.10576,0.0,205.465,205.345,202.44666666666666,202.44666666666666,0.0,0.0
1,0.0,1.0,0.0,1.0,1.0,0.0,0.0,1.0,0.0,100.0,1.0,1.1856,26.0,0.0,0.0,0.0,59.999996,0.0,26.0,26.0,26.0,26.0,-0.11344444444444446,0.3326,0.22876666666666667,293.06,-2.5772,-2.7461,-1.51025,-1.3777,-272.23,216.1375,190.966875,0.0,0.0,0.0,0.0,0.0036000000000000003,-5.498166666666667,-5.498166666666667,-0.49450000000000005,-0.8286666666666667,-0.06655555555555548,-0.34399999999999986,65.729,-0.06529999999999991,-0.193975,1.2919999999999998,100.0,1.0,1.0,202.54333333333335,0.0,0.0,0.0,0.0,0.0,0.0,0.0,8585.0,0.0,55.0,5.0,236.59333333333333,1.0,0.0,0.0,0.0,0.0,0.0,0.0,0.0,0.05699999999999861,0.05699999999999861,0.0,0.0,1.0,55.0,616.79921,10000.0,85.000001,85.000001,85.000001,85.000001,395.0,0.0,0.0,0.0,1.0,166.665,53.772,53.772,48.248,48.248,34.0,4.105000000000004,-10.128,-36.44,25.86,0.0,1783.565,1.3049999999999997,100.0,27.58,26.915,42.512,41.566,0.0,1.0,100.0,0.0,0.0,0.0,0.0,3106.142857142857,2613.7,4487.375,4785.8,305.4225,306.58433333333335,313.805,312.9055,21.7524,20.6294,21.7464,21.2873,314.999998,314.999998,324.999988,324.999988,99.55837142857143,99.5143,99.56415714285714,99.5441,0.6380000000000001,-0.8723333333333332,-0.1935,0.022166666666666668,-0.051666666666669414,-0.054999999999999716,1.3826666666666667,1.436,36.952,29.933500000000002,36.915,34.046,56.5,38.207,58.7415,51.307,54.405,37.0605,57.3855,49.6765,53.556,36.46033333333334,57.357,49.10166666666667,-0.6735,-0.8620000000000001,0.10676500000000001,0.10454000000000001,0.0,205.97,205.815,202.54333333333335,202.54333333333335,0.0,0.0
2,0.0,1.0,0.0,1.0,1.0,0.0,0.0,1.0,0.0,100.0,1.0,1.1856,26.0,0.0,0.0,0.0,59.999996,0.0,26.0,26.0,26.0,26.0,-0.12888888888888894,0.2623,-0.0741,293.961,-2.5464,-2.7132,-1.49845,-1.6394000000000002,-269.07,216.14,190.94925,0.0,0.0,0.0,0.0,0.005433333333333333,-5.498166666666667,-5.498166666666667,-0.5582,-0.15133333333333335,-0.05077777777777781,1.4500000000000002,65.86,-0.07539999999999991,-0.26430000000000003,1.4540000000000006,100.0,1.0,1.0,203.56,0.0,0.0,0.0,0.0,0.0,0.0,0.0,8628.2,0.0,55.0,5.0,237.06666666666666,0.0,0.0,0.0,0.0,0.0,0.0,0.0,0.0,0.10500000000000043,0.10500000000000043,0.0,0.0,0.0,55.0,616.79921,10000.0,85.000001,85.000001,85.000001,85.000001,395.0,0.0,0.0,0.0,1.0,333.33500000000004,52.444,52.444,50.583,50.583,34.0,2.8774999999999977,-13.348000000000006,-28.646666666666665,19.12,0.0,1783.516,1.615000000000002,100.0,28.189,26.975,42.355000000000004,41.26,0.0,1.0,100.0,0.0,0.0,0.0,0.0,3419.857142857143,2907.5,3690.25,3519.2,304.407,305.584,315.77025,316.166,21.7621,20.635,21.7562,21.2955,314.999998,314.999998,324.999988,324.999988,99.55842857142858,99.51438333333333,99.5643,99.54422857142858,0.5976666666666668,-0.9136666666666666,-0.22033333333333338,0.0044999999999999485,-0.05666666666667197,-0.04333333333332945,1.6553333333333333,1.7326666666666668,37.013,29.969,36.976,34.097,56.522,38.277,58.778,51.361000000000004,54.426,37.1255,57.4195,49.728,53.574,36.522,57.388,49.15266666666667,-0.6505000000000001,-0.887,0.10256000000000001,0.10564000000000001,0.0,206.375,206.21,203.56,203.56,0.0,0.0
3,0.0,1.0,0.0,1.0,1.0,0.0,0.0,1.0,0.0,100.0,1.0,1.1856,26.0,0.0,0.0,0.0,59.999996,0.0,26.0,26.0,26.0,26.0,-0.17088888888888887,0.2896000000000001,-0.03403333333333333,293.51800000000003,-2.5698,-2.6313,-1.4896,-1.5872000000000002,-265.91,216.1375,190.930625,0.0,0.0,0.0,0.0,0.007266666666666668,-5.498166666666667,-5.498166666666667,-0.5113,0.85,-0.027666666666666728,-1.275,66.003,-0.09179999999999999,-0.198625,1.6959999999999997,100.0,1.0,1.0,203.65,0.0,0.0,0.0,0.0,0.0,0.0,0.0,8632.0,0.0,55.0,5.0,237.57999999999998,1.0,0.0,0.0,0.0,0.0,0.0,0.0,0.0,0.1529999999999987,0.1529999999999987,0.0,0.0,1.0,55.0,616.79921,10000.0,85.000001,85.000001,85.000001,85.000001,395.0,0.0,0.0,0.0,1.0,333.33500000000004,53.467,53.467,48.309,48.309,34.0,2.407499999999999,-13.189999999999998,-36.71666666666667,22.634999999999998,0.0,1783.468,1.5399999999999991,100.0,27.917,27.088,42.169,41.150999999999996,0.0,1.0,100.0,0.0,0.0,0.0,0.0,2998.714285714286,2756.7,4424.625,4136.4,305.77,305.8806666666667,314.07325,314.561,21.7715,20.6409,21.7659,21.3038,314.999998,314.999998,324.999988,324.999988,99.5585,99.51448333333333,99.56442857142856,99.54437142857142,0.6013333333333333,-0.9096666666666666,-0.22666666666666657,-0.008499999999999952,-0.054999999999999716,-0.045000000000001705,1.4723333333333333,1.5423333333333333,37.072,30.005499999999998,37.037,34.1485,56.539,38.352000000000004,58.816,51.420500000000004,54.442,37.1945,57.455,49.785,53.587,36.58833333333333,57.421,49.208666666666666,-0.6485000000000001,-0.8885000000000001,0.10755,0.105075,0.0,206.875,206.68,203.65,203.65,0.0,0.0
4,0.0,1.0,0.0,1.0,1.0,0.0,0.0,1.0,0.0,100.0,1.0,1.1856,26.0,0.0,0.0,0.0,59.999996,0.0,26.0,26.0,26.0,26.0,-0.1641111111111111,0.2803,0.014700000000000001,293.61,-2.5888,-2.7307,-1.5143499999999999,-1.6072000000000002,-262.34,216.1325,190.90975,0.0,0.0,0.0,0.0,0.009366666666666667,-5.498166666666667,-5.498166666666667,-0.5409,-0.8423333333333334,-0.09322222222222232,-1.564,66.15899999999999,-0.10839999999999994,-0.235325,1.7140000000000004,100.0,1.0,1.0,204.21,0.0,0.0,0.0,0.0,0.0,0.0,0.0,8655.7,0.0,55.0,5.0,238.14333333333332,0.0,0.0,0.0,0.0,0.0,0.0,0.0,0.0,0.20700000000000074,0.20700000000000074,0.0,0.0,0.0,55.0,616.79921,10000.0,85.000001,85.000001,85.000001,85.000001,395.0,0.0,0.0,0.0,1.0,166.665,53.146,53.146,48.66,48.66,34.0,2.3200000000000003,-12.884,-35.38666666666666,19.7925,0.0,1783.414,1.4050000000000011,100.0,27.636,26.728,42.925,41.318,0.0,1.0,100.0,0.0,0.0,0.0,0.0,3340.4285714285716,2851.1,4170.75,3705.9,304.8315,305.658,314.61325,315.5585,21.7821,20.6473,21.7772,21.3132,314.999998,314.999998,324.999988,324.999988,99.55857142857143,99.5146,99.56458571428571,99.54451428571429,0.5976666666666668,-0.911,-0.2476666666666666,-0.011499999999999955,-0.060000000000002274,0.021666666666668277,1.532,1.608,37.138,30.046,37.108000000000004,34.207499999999996,56.557,38.432,58.863,51.485,54.458,37.268,57.4995,49.847,53.601,36.659,57.4625,49.269,-0.6575,-0.8674999999999999,0.11080000000000001,0.10646000000000001,0.0,207.29000000000002,207.06,204.21,204.21,0.0,0.0
5,0.0,1.0,0.0,1.0,1.0,0.0,0.0,1.0,0.0,100.0,1.0,1.1856,26.0,0.0,0.0,0.0,59.999996,0.0,26.0,26.0,26.0,26.0,-0.17533333333333334,0.30820000000000003,-0.027200000000000002,293.716,-2.6028000000000002,-2.7006,-1.49565,-1.6402999999999999,-259.16,216.125,190.890625,0.0,0.0,0.0,0.0,0.0112,-5.498166666666667,-5.498166666666667,-0.5391,0.399,-0.09811111111111126,-0.5369999999999999,66.29599999999999,-0.1149,-0.21825,1.5099999999999998,100.0,1.0,1.0,204.64333333333332,0.0,0.0,0.0,0.0,0.0,0.0,0.0,8674.1,0.0,55.0,5.0,238.63333333333333,1.0,0.0,0.0,0.0,0.0,0.0,0.0,0.0,0.254999999999999,0.254999999999999,0.0,0.0,1.0,55.0,616.79921,10000.0,85.000001,85.000001,85.000001,85.000001,395.0,0.0,0.0,0.0,1.0,333.33500000000004,53.406,53.406,49.164,49.164,34.0,1.302500000000002,-13.058,-34.95,20.86,0.0,1783.366,1.2149999999999999,100.0,27.874,26.648,42.643,40.985,0.0,1.0,100.0,0.0,0.0,0.0,0.0,3242.0,2741.8,4160.0,3977.6000000000004,305.0665,306.03133333333335,314.7555,314.93875,21.7917,20.6531,21.787,21.3213,314.999998,314.999998,324.999988,324.999988,99.55865714285714,99.51468333333334,99.56471428571429,99.54464285714286,0.581,-0.9259999999999999,-0.2513333333333334,-0.03266666666666662,-0.03833333333332689,-0.054999999999999716,1.5483333333333333,1.6183333333333334,37.198,30.082,37.169,34.2585,56.577,38.5045,58.902,51.54,54.476,37.335,57.536,49.8995,53.617999999999995,36.72266666666667,57.4965,49.32033333333334,-0.6664999999999999,-0.863,0.10800000000000001,0.10254,0.0,207.75,207.565,204.64333333333332,204.64333333333332,0.0,0.0
6,0.0,1.0,0.0,1.0,1.0,0.0,0.0,1.0,0.0,100.0,1.0,1.1856,26.0,0.0,0.0,0.0,59.999996,0.0,26.0,26.0,26.0,26.0,-0.17155555555555557,0.2892000000000001,-0.0002,293.51800000000003,-2.5564999999999998,-2.721,-1.5279,-1.5975000000000001,-255.98,216.1125,190.87125,0.0,0.0,0.0,0.0,0.013066666666666666,-5.498166666666667,-5.498166666666667,-0.5298,0.12933333333333336,-0.09255555555555572,-0.6019999999999999,66.43299999999999,-0.11439999999999995,-0.21095,1.3760000000000012,100.0,1.0,1.0,205.01999999999998,0.0,0.0,0.0,0.0,0.0,0.0,0.0,8690.0,0.0,55.0,5.0,239.13,0.0,0.0,0.0,0.0,0.0,0.0,0.0,0.0,0.3030000000000008,0.3030000000000008,0.0,0.0,0.0,55.0,616.79921,10000.0,85.000001,85.000001,85.000001,85.000001,395.0,0.0,0.0,0.0,1.0,333.33500000000004,53.268,53.268,48.752,48.752,34.0,2.3674999999999997,-13.006000000000007,-35.986666666666665,20.8075,0.0,1783.318,1.1950000000000003,100.0,27.785,26.65,42.812,41.209,0.0,1.0,100.0,0.0,0.0,0.0,0.0,3272.4285714285716,2821.3,4211.875,3961.5,304.967,305.748,314.61125,314.9775,21.8013,20.6589,21.797,21.3297,314.999998,314.999998,324.999988,324.999988,99.55871428571429,99.51478333333333,99.56485714285714,99.54477142857142,0.5926666666666667,-0.9163333333333332,-0.2486666666666666,-0.023333333333333317,-0.041666666666671404,-0.03999999999999915,1.5133333333333332,1.5710000000000002,37.257999999999996,30.118000000000002,37.230999999999995,34.3105,56.596000000000004,38.576499999999996,58.943,51.598,54.494,37.4015,57.574,49.9555,53.632999999999996,36.78633333333333,57.5315,49.375,-0.6739999999999999,-0.859,0.11013500000000001,0.111475,0.0,208.15,207.995,205.01999999999998,205.01999999999998,0.0,0.0
7,0.0,1.0,0.0,1.0,1.0,0.0,0.0,1.0,0.0,100.0,1.0,1.1856,26.0,0.0,0.0,0.0,59.999996,0.0,26.0,26.0,26.0,26.0,-0.13811111111111107,0.29370000000000007,0.04406666666666667,293.274,-2.5219,-2.6825,-1.48605,-1.6441,-252.57999999999998,216.0925,190.85075,0.0,0.0,0.0,0.0,0.015033333333333334,-5.498166666666667,-5.498166666666667,-0.5356000000000001,-0.06166666666666667,-0.07933333333333348,1.073,66.57900000000001,-0.1066999999999999,-0.22337500000000002,1.0999999999999996,100.0,1.0,1.0,205.44333333333333,0.0,0.0,0.0,0.0,0.0,0.0,0.0,8708.1,0.0,55.0,5.0,239.65666666666667,1.0,0.0,0.0,0.0,0.0,0.0,0.0,0.0,0.3539999999999992,0.3539999999999992,0.0,0.0,1.0,55.0,616.79921,10000.0,85.000001,85.000001,85.000001,85.000001,395.0,0.0,0.0,0.0,1.0,166.665,52.856,52.856,48.874,48.874,34.0,4.270000000000003,-13.149999999999999,-32.836666666666666,23.3075,0.0,1783.269,0.8550000000000004,100.0,28.091,26.563,42.988,41.349000000000004,0.0,1.0,100.0,0.0,0.0,0.0,0.0,3252.285714285714,3012.6,4082.25,4045.7,304.791,305.342,314.802,314.77175,21.8114,20.6651,21.8075,21.3386,314.999998,314.999998,324.999988,324.999988,99.55878571428572,99.51488333333333,99.565,99.54491428571428,0.6240000000000001,-0.8879999999999999,-0.21833333333333338,0.001000000000000112,-0.04833333333333201,-0.05666666666667197,1.5176666666666667,1.5566666666666666,37.321,30.1565,37.297,34.3665,56.617999999999995,38.653,58.9855,51.6605,54.513,37.472,57.6135,50.0145,53.65,36.85333333333333,57.5685,49.433,-0.7035,-0.8400000000000001,0.10015,0.11250500000000001,0.0,208.585,208.45,205.44333333333333,205.44333333333333,0.0,0.0
8,0.0,1.0,0.0,1.0,1.0,0.0,0.0,1.0,0.0,100.0,1.0,1.1856,26.0,0.0,0.0,0.0,59.999996,0.0,26.0,26.0,26.0,26.0,-0.129,0.28780000000000006,-0.016633333333333337,293.488,-2.6059,-2.6894,-1.4673500000000002,-1.6326,-249.18,216.0725,190.830125,0.0,0.0,0.0,0.0,0.017,-5.498166666666667,-5.498166666666667,-0.5358,-0.42433333333333334,-0.06733333333333347,-0.6459999999999999,66.725,-0.09549999999999992,-0.21552500000000002,0.7839999999999998,100.0,1.0,1.0,205.82999999999998,0.0,0.0,0.0,0.0,0.0,0.0,0.0,8724.4,0.0,55.0,5.0,240.18,0.0,0.0,0.0,0.0,0.0,0.0,0.0,0.0,0.40500000000000114,0.40500000000000114,0.0,0.0,0.0,55.0,616.79921,10000.0,85.000001,85.000001,85.000001,85.000001,395.0,0.0,0.0,0.0,1.0,333.33500000000004,53.665,53.665,48.203,48.203,34.0,3.8599999999999994,-11.571999999999996,-33.526666666666664,24.17,0.0,1783.217,0.5249999999999986,100.0,27.564,26.704,42.897999999999996,41.528,0.0,1.0,100.0,0.0,0.0,0.0,0.0,3079.285714285714,2843.2,4243.0,4080.0,305.5605,305.69933333333336,314.459,314.596,21.8214,20.6713,21.818,21.3475,314.999998,314.999998,324.999988,324.999988,99.55887142857142,99.51498333333333,99.56514285714286,99.54505714285715,0.6396666666666668,-0.867,-0.20599999999999996,0.011500000000000066,-0.03833333333332689,-0.03333333333333144,1.5003333333333333,1.5233333333333334,37.384,30.1955,37.363,34.422,56.638,38.728,59.0275,51.7215,54.532,37.5405,57.653,50.073,53.666,36.919333333333334,57.605000000000004,49.49033333333333,-0.7170000000000001,-0.8045,0.09791000000000001,0.11064,0.0,209.025,208.91500000000002,205.82999999999998,205.82999999999998,0.0,0.0
9,0.0,1.0,0.0,1.0,1.0,0.0,0.0,1.0,0.0,100.0,1.0,1.1856,26.0,0.0,0.0,0.0,59.999996,0.0,26.0,26.0,26.0,26.0,-0.0812222222222222,0.2883,-0.021033333333333334,293.228,-2.59,-2.6998,-1.5215,-1.5948,-245.98,216.05,190.81025,0.0,0.0,0.0,0.0,0.018866666666666667,-5.498166666666667,-5.498166666666667,-0.5428000000000001,0.5133333333333334,-0.0725555555555557,-0.391,66.858,-0.08379999999999999,-0.21875,0.49600000000000044,100.0,1.0,1.0,206.36666666666667,0.0,0.0,0.0,0.0,0.0,0.0,0.0,8747.1,0.0,55.0,5.0,240.66,1.0,0.0,0.0,0.0,0.0,0.0,0.0,0.0,0.4529999999999994,0.4529999999999994,0.0,0.0,1.0,55.0,616.79921,10000.0,85.000001,85.000001,85.000001,85.000001,395.0,0.0,0.0,0.0,1.0,166.665,52.521,52.521,49.21,49.21,34.0,6.167500000000004,-10.571999999999996,-31.736666666666665,22.927500000000002,0.0,1783.169,0.21999999999999886,100.0,28.017,27.059,42.676,41.503,0.0,1.0,100.0,0.0,0.0,0.0,0.0,3434.142857142857,2926.6,4047.75,3982.9,304.4835,305.40066666666667,315.01275,314.936,21.831,20.6772,21.8278,21.3558,314.999998,314.999998,324.999988,324.999988,99.55895714285714,99.51508333333334,99.56528571428571,99.54518571428571,0.6716666666666669,-0.8323333333333331,-0.2001666666666666,0.017000000000000126,-0.07333333333333059,-0.04333333333332945,1.5513333333333332,1.5819999999999999,37.444,30.2325,37.424,34.474000000000004,56.662,38.7995,59.064499999999995,51.778,54.553,37.607,57.6875,50.1275,53.686,36.98266666666667,57.637,49.54333333333334,-0.7495,-0.7805,0.10853000000000002,0.10642000000000001,0.0,209.445,209.35500000000002,206.36666666666667,206.36666666666667,0.0,0.0
10,0.0,1.0,0.0,1.0,1.0,0.0,0.0,1.0,0.0,100.0,1.0,1.1856,26.0,0.0,0.0,0.0,59.999996,0.0,26.0,26.0,26.0,26.0,-0.06466666666666665,0.27849999999999997,0.04316666666666667,293.06,-2.5591,-2.6826,-1.49935,-1.5742,-242.57,216.0225,190.7895,0.0,0.0,0.0,0.0,0.020833333333333336,-5.498166666666667,-5.498166666666667,-0.5203,-0.404,-0.029666666666666952,1.7890000000000001,67.004,-0.05499999999999994,-0.207175,-0.10799999999999965,100.0,1.0,1.0,206.62,0.0,0.0,0.0,0.0,0.0,0.0,0.0,8757.8,0.0,55.0,5.0,241.18333333333334,0.0,0.0,0.0,0.0,0.0,0.0,1.0,0.0,0.5040000000000013,0.5040000000000013,0.0,0.0,0.0,55.0,616.79921,10000.0,85.000001,85.000001,85.000001,85.000001,395.0,0.0,0.0,0.0,1.0,166.665,53.452,53.452,47.791,47.791,34.0,6.3700000000000045,-9.893999999999998,-32.166666666666664,27.515,0.0,1783.118,0.19000000000000128,100.0,28.025,26.913,43.124,42.096000000000004,0.0,1.0,100.0,0.0,0.0,0.0,0.0,2898.714285714286,2913.9,4264.0,4293.1,305.8955,305.66633333333334,314.33575,314.1985,21.8411,20.6835,21.8384,21.3649,314.999998,314.999998,324.999988,324.999988,99.55904285714286,99.51516666666667,99.56542857142857,99.54532857142857,0.6950000000000001,-0.8156666666666668,-0.16349999999999998,0.05866666666666687,-0.00999999999999801,-0.041666666666671404,1.4826666666666666,1.471,37.507,30.272,37.489999999999995,34.531,56.687,38.8725,59.1075,51.842,54.576,37.674,57.728,50.189,53.706,37.047,57.6745,49.60366666666667,-0.754,-0.7765,0.11553500000000001,0.10395000000000001,0.0,209.825,209.835,206.62,206.62,0.0,0.0
11,0.0,1.0,0.0,1.0,1.0,0.0,0.0,1.0,0.0,100.0,1.0,1.1856,26.0,0.0,0.0,0.0,59.999996,0.0,26.0,26.0,26.0,26.0,-0.021222222222222142,0.27449999999999997,-0.09196666666666667,293.564,-2.6095,-2.6573,-1.5561500000000001,-1.5626,-239.14,215.995,190.76875,0.0,0.0,0.0,0.0,0.022600000000000002,-5.498166666666667,-5.498166666666667,-0.5595,-0.2586666666666667,-0.006666666666666821,-0.5249999999999999,67.143,-0.027899999999999925,-0.23615,-0.006000000000000227,100.0,1.0,1.0,207.32333333333332,0.0,0.0,0.0,0.0,0.0,0.0,0.0,8787.7,0.0,55.0,5.0,241.68666666666667,1.0,0.0,0.0,0.0,0.0,0.0,1.0,0.0,0.5549999999999997,0.5549999999999997,0.0,0.0,1.0,55.0,616.79921,10000.0,85.000001,85.000001,85.000001,85.000001,395.0,0.0,0.0,0.0,1.0,166.665,52.948,52.948,49.254999999999995,49.254999999999995,34.0,7.252499999999998,-9.531999999999996,-26.689999999999998,24.5825,0.0,1783.067,0.06500000000000128,100.0,27.602,27.27,42.64,42.176,0.0,1.0,100.0,0.0,0.0,0.0,0.0,3168.714285714286,3005.7,3776.5,3837.0,305.3075,305.17,315.6805,315.284,21.8511,20.69,21.8488,21.3739,314.999998,314.999998,324.999988,324.999988,99.55911428571429,99.51526666666666,99.56557142857143,99.54547142857143,0.712,-0.7893333333333332,-0.14149999999999996,0.08433333333333337,-0.046666666666666856,-0.05333333333332746,1.6173333333333333,1.6213333333333333,37.569,30.311999999999998,37.555,34.5865,56.71,38.946,59.1445,51.9025,54.597,37.7425,57.7625,50.247,53.725,37.11233333333333,57.706,49.660333333333334,-0.7555000000000001,-0.7670000000000001,0.10713500000000001,0.10717000000000002,0.0,210.26999999999998,210.26,207.32333333333332,207.32333333333332,0.0,0.0
12,0.0,1.0,0.0,1.0,1.0,0.0,0.0,1.0,0.0,100.0,1.0,1.1856,26.0,0.0,0.0,0.0,59.999996,0.0,26.0,26.0,26.0,26.0,-0.009444444444444478,0.2945,0.0213,292.999,-2.6654,-2.6522,-1.5278,-1.5787,-235.72,215.965,190.74675,0.0,0.0,0.0,0.0,0.025466666666666665,-5.498166666666667,-5.498166666666667,-0.5448000000000001,0.2966666666666667,-0.011222222222222022,0.77,67.287,-0.01649999999999996,-0.2063,-0.0860000000000003,100.0,1.0,1.0,207.56,0.0,0.0,0.0,0.0,0.0,0.0,0.0,8797.7,0.0,55.0,5.0,242.20666666666665,0.0,0.0,0.0,0.0,0.0,0.0,1.0,0.0,0.6059999999999981,0.6059999999999981,0.0,0.0,0.0,55.0,616.79921,10000.0,85.000001,85.000001,85.000001,85.000001,395.0,0.0,0.0,0.0,1.0,166.665,52.872,52.872,48.065,48.065,34.0,8.280000000000001,-8.625999999999998,-28.983333333333334,29.295,0.0,1783.016,-0.15499999999999936,100.0,27.641,27.296,42.596000000000004,42.053,0.0,1.0,100.0,0.0,0.0,0.0,0.0,3093.5714285714284,3144.6,4182.5,4211.9,305.3735,304.9313333333333,314.6225,314.43925,21.8611,20.6965,21.8592,21.3828,314.999998,314.999998,324.999988,324.999988,99.55921428571429,99.51535,99.56571428571428,99.54561428571428,0.7510000000000001,-0.7573333333333332,-0.1163333333333334,0.10683333333333334,-0.045000000000001705,-0.04333333333332945,1.539,1.5150000000000001,37.632,30.353,37.620000000000005,34.6425,56.735,39.019999999999996,59.1845,51.964,54.620999999999995,37.8105,57.7995,50.306,53.745000000000005,37.17733333333334,57.74,49.718333333333334,-0.778,-0.754,0.10828000000000002,0.10432500000000001,0.0,210.73000000000002,210.71,207.56,207.56,0.0,0.0
13,0.0,1.0,0.0,1.0,1.0,0.0,0.0,1.0,0.0,100.0,1.0,1.1856,26.0,0.0,0.0,0.0,59.999996,0.0,26.0,26.0,26.0,26.0,0.006666666666666599,0.2795000000000001,0.03386666666666667,292.618,-2.6137,-2.6408,-1.56345,-1.5674000000000001,-232.28,215.935,190.725,0.0,0.0,0.0,0.0,0.026833333333333334,-5.498166666666667,-5.498166666666667,-0.5387000000000001,-0.126,-0.010777777777777775,-0.5449999999999999,67.429,-0.005699999999999927,-0.214475,-0.30600000000000005,100.0,1.0,1.0,207.95,0.0,0.0,0.0,0.0,0.0,0.0,0.0,8814.2,0.0,55.0,5.0,242.71666666666667,1.0,0.0,0.0,0.0,0.0,0.0,1.0,0.0,0.657,0.657,0.0,0.0,1.0,55.0,616.79921,10000.0,85.000001,85.000001,85.000001,85.000001,395.0,0.0,0.0,0.0,1.0,166.665,52.551,52.551,47.958,47.958,34.0,9.447499999999998,-8.288000000000004,-30.456666666666663,29.495,0.0,1782.965,-0.28500000000000014,100.0,27.849,27.698,42.759,42.725,0.0,1.0,100.0,0.0,0.0,0.0,0.0,3195.285714285714,3018.3,4230.625,4240.0,305.198,305.136,314.55425,314.26375,21.8712,20.7031,21.869799999999998,21.3919,314.999998,314.999998,324.999988,324.999988,99.55931428571428,99.51545,99.56587142857143,99.54575714285714,0.7596666666666667,-0.754,-0.12366666666666659,0.10416666666666674,-0.03166666666666629,-0.02499999999999858,1.4876666666666667,1.4889999999999999,37.695,30.394,37.686,34.6995,56.763999999999996,39.0925,59.2245,52.0285,54.647,37.8775,57.837,50.368,53.769,37.242,57.7745,49.778999999999996,-0.7949999999999999,-0.7430000000000001,0.11189,0.10637,0.0,211.14499999999998,211.155,207.95,207.95,0.0,0.0
14,0.0,1.0,0.0,1.0,1.0,0.0,0.0,1.0,0.0,100.0,1.0,1.1856,26.0,0.0,0.0,0.0,59.999996,0.0,26.0,26.0,26.0,26.0,0.016888888888888953,0.27770000000000006,-0.0064333333333333334,292.816,-2.636,-2.5855,-1.569,-1.5396,-228.84,215.9075,190.70375,0.0,0.0,0.0,0.0,0.028833333333333332,-5.498166666666667,-5.498166666666667,-0.5502,-0.10200000000000001,0.01922222222222203,1.2530000000000001,67.569,0.011700000000000044,-0.22840000000000002,-0.4660000000000002,100.0,1.0,1.0,208.45666666666668,0.0,0.0,0.0,0.0,0.0,0.0,0.0,8835.7,0.0,55.0,5.0,243.22,0.0,0.0,0.0,0.0,0.0,0.0,1.0,0.0,0.7079999999999984,0.7079999999999984,0.0,0.0,0.0,55.0,616.79921,10000.0,85.000001,85.000001,85.000001,85.000001,395.0,0.0,0.0,0.0,1.0,166.665,52.567,52.567,48.157,48.157,34.0,9.335,-8.872,-26.366666666666667,29.817500000000003,0.0,1782.914,-0.2649999999999988,100.0,27.933,27.685000000000002,42.775999999999996,42.786,0.0,1.0,100.0,0.0,0.0,0.0,0.0,2983.857142857143,3216.1,3975.625,4180.6,305.663,304.7153333333333,315.10875,314.513,21.8812,20.7097,21.8802,21.401,314.999998,314.999998,324.999988,324.999988,99.5594,99.51553333333334,99.56601428571429,99.5459,0.7773333333333332,-0.7426666666666668,-0.08816666666666662,0.1343333333333332,-0.03333333333333144,-0.04333333333332945,1.5596666666666668,1.5416666666666665,37.757,30.435499999999998,37.751000000000005,34.7565,56.792,39.165,59.263,52.091,54.672,37.9445,57.873,50.428,53.792,37.306,57.8075,49.838,-0.7869999999999999,-0.7515000000000001,0.10527500000000001,0.111725,0.0,211.55,211.60500000000002,208.45666666666668,208.45666666666668,0.0,0.0
15,0.0,1.0,0.0,1.0,1.0,0.0,0.0,1.0,0.0,100.0,1.0,1.1856,26.0,0.0,0.0,0.0,59.999996,0.0,26.0,26.0,26.0,26.0,0.03155555555555578,0.2883,0.016933333333333335,292.77,-2.6466000000000003,-2.6018,-1.59555,-1.4836,-225.59,215.88,190.68325,0.0,0.0,0.0,0.0,0.0307,-5.498166666666667,-5.498166666666667,-0.5406000000000001,0.281,0.04688888888888898,0.7090000000000001,67.701,0.02190000000000003,-0.20965,-0.46200000000000063,100.0,1.0,1.0,208.82666666666665,0.0,0.0,0.0,0.0,0.0,0.0,0.0,8851.4,0.0,55.0,5.0,243.69333333333333,1.0,0.0,0.0,0.0,0.0,0.0,1.0,0.0,0.7560000000000002,0.7560000000000002,0.0,0.0,1.0,55.0,616.79921,10000.0,85.000001,85.000001,85.000001,85.000001,395.0,0.0,0.0,0.0,1.0,166.665,52.765,52.765,48.096000000000004,48.096000000000004,34.0,9.219999999999999,-8.006,-26.35333333333333,31.265,0.0,1782.866,-0.28500000000000014,100.0,27.916,27.789,42.589,42.933,0.0,1.0,100.0,0.0,0.0,0.0,0.0,2867.285714285714,3163.6,3980.75,4386.2,306.036,304.7846666666667,315.13175,314.03225,21.8906,20.7159,21.8899,21.4096,314.999998,314.999998,324.999988,324.999988,99.55948571428571,99.51561666666667,99.56614285714285,99.54604285714285,0.7876666666666667,-0.7296666666666667,-0.07916666666666661,0.14250000000000007,-0.021666666666668277,-0.03999999999999915,1.5393333333333334,1.5293333333333334,37.816,30.4745,37.812,34.81,56.818,39.233000000000004,59.298,52.150999999999996,54.697,38.007999999999996,57.905,50.4855,53.813,37.36666666666667,57.8365,49.894333333333336,-0.788,-0.7515000000000001,0.10144500000000001,0.10433,0.0,211.98000000000002,212.015,208.82666666666665,208.82666666666665,0.0,0.0
16,0.0,1.0,0.0,1.0,1.0,0.0,0.0,1.0,0.0,100.0,1.0,1.1856,26.0,0.0,0.0,0.0,59.999996,0.0,26.0,26.0,26.0,26.0,0.04044444444444428,0.2733000000000001,-0.020066666666666667,292.786,-2.7002,-2.5639000000000003,-1.5639500000000002,-1.5525,-222.34,215.85250000000002,190.6625,0.0,0.0,0.0,0.0,0.032600000000000004,-5.498166666666667,-5.498166666666667,-0.5581,-0.6653333333333333,0.026222222222222147,0.17799999999999994,67.832,0.028000000000000025,-0.224525,-0.41000000000000014,100.0,1.0,1.0,209.23333333333335,0.0,0.0,0.0,0.0,0.0,0.0,0.0,8868.7,0.0,55.0,5.0,244.17000000000002,0.0,0.0,0.0,0.0,0.0,0.0,1.0,0.0,0.8039999999999985,0.8039999999999985,0.0,0.0,0.0,55.0,616.79921,10000.0,85.000001,85.000001,85.000001,85.000001,395.0,0.0,0.0,0.0,1.0,166.665,52.704,52.704,47.791,47.791,34.0,9.685000000000002,-7.667999999999999,-26.17,30.387500000000003,0.0,1782.818,-0.33000000000000007,100.0,27.59,27.752,42.911,43.03,0.0,1.0,100.0,0.0,0.0,0.0,0.0,3023.285714285714,3226.9,4004.25,4130.3,305.6775,304.7153333333333,315.04825,314.56,21.8998,20.7222,21.8998,21.4181,314.999998,314.999998,324.999988,324.999988,99.55957142857143,99.51571666666666,99.56627142857143,99.54617142857143,0.798,-0.7106666666666668,-0.07850000000000001,0.14683333333333337,-0.026666666666670835,-0.041666666666671404,1.5283333333333333,1.5253333333333334,37.873999999999995,30.5135,37.873999999999995,34.863,56.842,39.3005,59.335499999999996,52.2095,54.718,38.07,57.94,50.542,53.832,37.42633333333333,57.869,49.949666666666666,-0.7949999999999999,-0.7430000000000001,0.11207,0.10263000000000001,0.0,212.345,212.39499999999998,209.23333333333335,209.23333333333335,0.0,0.0
17,0.0,1.0,0.0,1.0,1.0,0.0,0.0,1.0,0.0,100.0,1.0,1.1856,26.0,0.0,0.0,0.0,59.999996,0.0,26.0,26.0,26.0,26.0,0.02677777777777779,0.28080000000000016,0.0128,292.526,-2.6684,-2.5367,-1.60675,-1.5070999999999999,-218.88,215.825,190.64,0.0,0.0,0.0,0.0,0.034633333333333335,-5.498166666666667,-5.498166666666667,-0.5504,0.425,0.007222222222222241,-0.692,67.971,0.030200000000000005,-0.207575,-0.44399999999999995,100.0,1.0,1.0,209.64666666666668,0.0,0.0,0.0,0.0,0.0,0.0,0.0,8886.1,0.0,55.0,5.0,244.66666666666666,1.0,0.0,0.0,0.0,0.0,0.0,1.0,0.0,0.8550000000000004,0.8550000000000004,0.0,0.0,1.0,55.0,616.79921,10000.0,85.000001,85.000001,85.000001,85.000001,395.0,0.0,0.0,0.0,1.0,333.33500000000004,52.429,52.429,47.836,47.836,34.0,9.887500000000003,-8.074000000000005,-28.419999999999998,29.9375,0.0,1782.765,-0.24499999999999922,100.0,27.87,28.131,42.594,43.044,0.0,1.0,100.0,0.0,0.0,0.0,0.0,3173.285714285714,3044.9,4265.125,4207.7,305.3475,305.103,314.5955,314.44325,21.9098,20.729,21.9102,21.4271,314.999998,314.999998,324.999988,324.999988,99.55967142857143,99.5158,99.56642857142857,99.54632857142857,0.7843333333333333,-0.7243333333333333,-0.07450000000000001,0.13800000000000012,-0.041666666666671404,-0.03166666666666629,1.5283333333333333,1.513,37.936,30.555999999999997,37.939,34.9195,56.872,39.373,59.373,52.271,54.745999999999995,38.1375,57.9745,50.601,53.857,37.491,57.9005,50.007666666666665,-0.7905,-0.7424999999999999,0.09596,0.103025,0.0,212.81,212.845,209.64666666666668,209.64666666666668,0.0,0.0
18,0.0,1.0,0.0,1.0,1.0,0.0,0.0,1.0,0.0,100.0,1.0,1.1856,26.0,0.0,0.0,0.0,59.999996,0.0,26.0,26.0,26.0,26.0,0.027888888888888852,0.27900000000000014,-0.007033333333333333,292.45,-2.6938,-2.5156,-1.61455,-1.463,-215.61,215.8025,190.618875,0.0,0.0,0.0,0.0,0.036533333333333334,-5.498166666666667,-5.498166666666667,-0.5591,-0.49133333333333334,0.02200000000000002,-0.47,68.101,0.03530000000000011,-0.2209,-0.36599999999999966,100.0,1.0,1.0,210.03333333333333,0.0,0.0,0.0,0.0,0.0,0.0,0.0,8902.5,0.0,55.0,5.0,245.13666666666666,0.0,0.0,0.0,0.0,0.0,0.0,1.0,0.0,0.9029999999999987,0.9029999999999987,0.0,0.0,0.0,55.0,616.79921,10000.0,85.000001,85.000001,85.000001,85.000001,395.0,0.0,0.0,0.0,1.0,333.33500000000004,52.338,52.338,47.653,47.653,34.0,9.545000000000002,-8.800000000000004,-27.79,29.1825,0.0,1782.718,-0.17499999999999893,100.0,27.682,28.012,42.916,43.403999999999996,0.0,1.0,100.0,0.0,0.0,0.0,0.0,3198.714285714286,3198.5,4140.75,4159.2,305.3245,304.68233333333336,314.8325,314.52775,21.9191,20.7353,21.920099999999998,21.4358,314.999998,314.999998,324.999988,324.999988,99.55977142857142,99.51588333333333,99.56655714285715,99.54645714285714,0.7803333333333333,-0.726,-0.07966666666666666,0.14349999999999996,-0.021666666666668277,-0.01833333333333087,1.5506666666666666,1.5306666666666666,37.994,30.5955,38.001000000000005,34.9735,56.897999999999996,39.44,59.41,52.331,54.769999999999996,38.1995,58.0095,50.659,53.878,37.550666666666665,57.9325,50.06466666666667,-0.7805,-0.756,0.10849500000000001,0.10263000000000001,0.0,213.185,213.22500000000002,210.03333333333333,210.03333333333333,0.0,0.0
19,0.0,1.0,0.0,1.0,1.0,0.0,0.0,1.0,0.0,100.0,1.0,1.1856,26.0,0.0,0.0,0.0,59.999996,0.0,26.0,26.0,26.0,26.0,0.030333333333333323,0.2834000000000001,0.047,291.901,-2.6029999999999998,-2.6242,-1.6246,-1.4508,-212.13,215.7775,190.59625,0.0,0.0,0.0,0.0,0.038533333333333336,-5.498166666666667,-5.498166666666667,-0.5511,0.8256666666666667,0.02933333333333321,0.8239999999999998,68.238,0.03760000000000008,-0.2127,-0.4399999999999995,100.0,1.0,1.0,210.43666666666667,0.0,0.0,0.0,0.0,0.0,0.0,0.0,8919.6,0.0,55.0,5.0,245.62666666666667,1.0,0.0,0.0,0.0,0.0,0.0,1.0,0.0,0.9540000000000006,0.9540000000000006,0.0,0.0,1.0,55.0,616.79921,10000.0,85.000001,85.000001,85.000001,85.000001,395.0,0.0,0.0,0.0,1.0,333.33500000000004,51.636,51.636,47.394,47.394,34.0,10.68,-7.802,-28.316666666666663,31.53,0.0,1782.666,-0.1349999999999998,100.0,28.459,28.39,42.872,43.324,0.0,1.0,100.0,0.0,0.0,0.0,0.0,3100.5714285714284,3276.8,4226.625,4416.2,305.256,304.325,314.6105,314.0305,21.9292,20.7422,21.9305,21.4449,314.999998,314.999998,324.999988,324.999988,99.55987142857143,99.51596666666667,99.5667,99.54661428571428,0.7903333333333333,-0.7216666666666667,-0.07033333333333336,0.15083333333333337,-0.045000000000001705,-0.04999999999999716,1.5156666666666667,1.508,38.057,30.6385,38.065,35.0305,56.93,39.515,59.447,52.3935,54.799,38.269,58.0435,50.719,53.903999999999996,37.617333333333335,57.963499999999996,50.123666666666665,-0.7809999999999999,-0.7610000000000001,0.10952500000000001,0.10151,0.0,213.67000000000002,213.70499999999998,210.43666666666667,210.43666666666667,0.0,0.0
20,0.0,1.0,0.0,1.0,1.0,0.0,0.0,1.0,0.0,100.0,1.0,1.1856,26.0,0.0,0.0,0.0,59.999996,0.0,26.0,26.0,26.0,26.0,0.042333333333333334,0.2611000000000001,-0.020433333333333335,292.206,-2.7034000000000002,-2.574,-1.5519500000000002,-1.5734,-208.64999999999998,215.7525,190.573875,0.0,0.0,0.0,0.0,0.04056666666666667,-5.498166666666667,-5.498166666666667,-0.5531,-1.029,0.024666666666666615,-1.154,68.377,0.03500000000000014,-0.22312500000000002,-0.18799999999999972,100.0,1.0,1.0,210.7733333333333,0.0,0.0,0.0,0.0,0.0,0.0,0.0,8933.8,0.0,55.0,5.0,246.13,0.0,0.0,0.0,0.0,0.0,0.0,0.0,0.0,1.004999999999999,1.004999999999999,0.0,0.0,0.0,55.0,616.79921,10000.0,85.000001,85.000001,85.000001,85.000001,395.0,0.0,0.0,0.0,1.0,333.33500000000004,52.658,52.658,46.921,46.921,34.0,9.115000000000002,-7.670000000000002,-28.366666666666664,31.310000000000002,0.0,1782.615,-0.15000000000000036,100.0,27.817,28.242,43.387,43.874,0.0,1.0,100.0,0.0,0.0,0.0,0.0,3015.857142857143,3051.1,4213.5,4213.0,305.858,305.049,314.57575,314.22525,21.9389,20.7489,21.9411,21.4542,314.999998,314.999998,324.999988,324.999988,99.55995714285714,99.51606666666666,99.56684285714286,99.54675714285715,0.7873333333333332,-0.7223333333333333,-0.08799999999999997,0.1363333333333332,-0.03999999999999915,-0.02499999999999858,1.4783333333333335,1.475,38.117999999999995,30.680500000000002,38.132,35.088499999999996,56.956,39.591,59.49,52.462,54.823,38.339,58.084,50.785,53.925,37.684666666666665,58.0005,50.18833333333333,-0.784,-0.7575000000000001,0.10380500000000001,0.10440500000000001,0.0,214.055,214.06,210.7733333333333,210.7733333333333,0.0,0.0
21,0.0,1.0,0.0,1.0,1.0,0.0,0.0,1.0,0.0,100.0,1.0,1.1856,26.0,0.0,0.0,0.0,59.999996,0.0,26.0,26.0,26.0,26.0,0.05011111111111122,0.2774000000000001,-0.06903333333333334,292.618,-2.6654999999999998,-2.5848,-1.6171,-1.5356,-205.36,215.73250000000002,190.55225,0.0,0.0,0.0,0.0,0.04246666666666667,-5.498166666666667,-5.498166666666667,-0.5765,0.2763333333333333,0.008111111111110958,-0.681,68.501,0.025000000000000133,-0.22490000000000002,-0.2579999999999991,100.0,1.0,1.0,211.38333333333333,0.0,0.0,0.0,0.0,0.0,0.0,0.0,8959.7,0.0,55.0,5.0,246.57666666666665,1.0,0.0,0.0,0.0,0.0,0.0,0.0,0.0,1.0530000000000008,1.0530000000000008,0.0,0.0,1.0,55.0,616.79921,10000.0,85.000001,85.000001,85.000001,85.000001,395.0,0.0,0.0,0.0,1.0,333.33500000000004,52.322,52.322,48.172,48.172,34.0,10.305,-7.756,-27.243333333333332,28.07,0.0,1782.568,-0.23499999999999943,100.0,28.006,28.246000000000002,42.855000000000004,43.357,0.0,1.0,100.0,0.0,0.0,0.0,0.0,3169.857142857143,3070.7,4028.625,3996.9,305.362,305.0403333333333,315.14225,314.9595,21.9482,20.7553,21.9508,21.4626,314.999998,314.999998,324.999988,324.999988,99.56005714285715,99.51615,99.56697142857143,99.54688571428571,0.7929999999999999,-0.7256666666666667,-0.08916666666666662,0.13566666666666682,-0.051666666666669414,-0.041666666666671404,1.578,1.5996666666666668,38.176,30.7205,38.192,35.1415,56.983000000000004,39.655,59.5205,52.513999999999996,54.847,38.3985,58.112,50.835,53.947,37.74166666666667,58.025999999999996,50.23733333333333,-0.7905,-0.748,0.10629000000000001,0.10877500000000001,0.0,214.47,214.48000000000002,211.38333333333333,211.38333333333333,0.0,0.0
22,0.0,1.0,0.0,1.0,1.0,0.0,0.0,1.0,0.0,100.0,1.0,1.1856,26.0,0.0,0.0,0.0,59.999996,0.0,26.0,26.0,26.0,26.0,0.03488888888888897,0.27970000000000006,-0.0018000000000000002,292.175,-2.5987999999999998,-2.6351,-1.6141,-1.5192,-201.87,215.71,190.5285,0.0,0.0,0.0,0.0,0.044500000000000005,-5.498166666666667,-5.498166666666667,-0.5574,0.09233333333333334,0.02211111111111097,1.1190000000000002,68.639,0.024900000000000144,-0.20395000000000002,-0.35799999999999965,100.0,1.0,1.0,211.61333333333334,0.0,0.0,0.0,0.0,0.0,0.0,0.0,8969.5,0.0,55.0,5.0,247.07333333333332,0.0,0.0,0.0,0.0,0.0,0.0,0.0,0.0,1.1039999999999992,1.1039999999999992,0.0,0.0,0.0,55.0,616.79921,10000.0,85.000001,85.000001,85.000001,85.000001,395.0,0.0,0.0,0.0,1.0,333.33500000000004,52.46,52.46,47.073,47.073,34.0,9.920000000000002,-7.725999999999999,-28.623333333333335,32.135000000000005,0.0,1782.517,-0.19500000000000028,100.0,28.201999999999998,28.21,43.189,43.466,0.0,1.0,100.0,0.0,0.0,0.0,0.0,2886.857142857143,3133.4,4212.0,4389.4,305.9195,304.89666666666665,314.5885,314.06925,21.9581,20.7621,21.9613,21.4718,314.999998,314.999998,324.999988,324.999988,99.56014285714286,99.51623333333333,99.56712857142857,99.54704285714286,0.7916666666666667,-0.7323333333333333,-0.07850000000000001,0.14500000000000002,-0.03166666666666629,-0.04999999999999716,1.5066666666666666,1.4886666666666666,38.238,30.7635,38.257999999999996,35.199,57.012,39.7275,59.56,52.5775,54.873999999999995,38.466,58.149,50.8965,53.971000000000004,37.806333333333335,58.0595,50.297333333333334,-0.7885,-0.7535000000000001,0.10524000000000001,0.102525,0.0,214.89,214.91500000000002,211.61333333333334,211.61333333333334,0.0,0.0
23,0.0,1.0,0.0,1.0,1.0,0.0,0.0,1.0,0.0,100.0,1.0,1.1856,26.0,0.0,0.0,0.0,59.999996,0.0,26.0,26.0,26.0,26.0,0.05511111111111111,0.25680000000000014,-0.0603,292.145,-2.6318,-2.5848,-1.6619000000000002,-1.5841,-198.36,215.6875,190.505,0.0,0.0,0.0,0.0,0.046533333333333336,-5.498166666666667,-5.498166666666667,-0.5748,-0.20833333333333334,0.014666666666666606,-0.7,68.773,0.02410000000000001,-0.228725,-0.2779999999999996,100.0,1.0,1.0,212.13333333333333,0.0,0.0,0.0,0.0,0.0,0.0,0.0,8991.5,0.0,55.0,5.0,247.55666666666667,1.0,0.0,0.0,0.0,0.0,0.0,0.0,0.0,1.1550000000000011,1.1550000000000011,0.0,0.0,1.0,55.0,616.79921,10000.0,85.000001,85.000001,85.000001,85.000001,395.0,0.0,0.0,0.0,1.0,333.33500000000004,51.758,51.758,47.974000000000004,47.974000000000004,34.0,11.015,-7.874000000000002,-28.023333333333333,28.62,0.0,1782.465,-0.22499999999999964,100.0,28.206,28.436,43.218,43.782,0.0,1.0,100.0,0.0,0.0,0.0,0.0,3341.4285714285716,3105.1,4049.25,3980.2,304.8715,304.87233333333336,315.12775,314.88575,21.968,20.769,21.9717,21.4811,314.999998,314.999998,324.999988,324.999988,99.56024285714285,99.51633333333334,99.56727142857143,99.54718571428572,0.7870000000000001,-0.7256666666666667,-0.08783333333333332,0.12850000000000006,-0.03999999999999915,-0.03499999999999659,1.5503333333333333,1.5423333333333333,38.3,30.8065,38.323,35.2565,57.041,39.801,59.598,52.6405,54.900999999999996,38.534,58.184,50.957,53.995000000000005,37.87166666666667,58.091499999999996,50.35666666666667,-0.79,-0.746,0.10714000000000001,0.098155,0.0,215.275,215.3,212.13333333333333,212.13333333333333,0.0,0.0
24,0.0,1.0,0.0,1.0,1.0,0.0,0.0,1.0,0.0,100.0,1.0,1.1856,26.0,0.0,0.0,0.0,59.999996,0.0,26.0,26.0,26.0,26.0,0.019777777777777894,0.27560000000000007,-0.024733333333333336,292.389,-2.6615,-2.591,-1.5843500000000001,-1.5221,-195.06,215.67000000000002,190.4825,0.0,0.0,0.0,0.0,0.04846666666666667,-5.498166666666667,-5.498166666666667,-0.5809000000000001,-0.3993333333333333,0.028444444444444272,-0.11699999999999999,68.901,0.03049999999999997,-0.21907500000000002,-0.33399999999999963,100.0,1.0,1.0,212.44,0.0,0.0,0.0,0.0,0.0,0.0,0.0,9004.5,0.0,55.0,5.0,248.01333333333332,0.0,0.0,0.0,0.0,0.0,0.0,0.0,0.0,1.2029999999999994,1.2029999999999994,0.0,0.0,0.0,55.0,616.79921,10000.0,85.000001,85.000001,85.000001,85.000001,395.0,0.0,0.0,0.0,1.0,333.33500000000004,52.795,52.795,47.226,47.226,34.0,9.395000000000003,-8.112000000000002,-28.976666666666663,29.9925,0.0,1782.418,-0.1349999999999998,100.0,27.955,28.154,43.15,43.715,0.0,1.0,100.0,0.0,0.0,0.0,0.0,2988.4285714285716,2996.5,4277.5,4165.1,305.8585,305.26166666666666,314.46625,314.527,21.9773,20.7754,21.9815,21.4897,314.999998,314.999998,324.999988,324.999988,99.56034285714286,99.51641666666667,99.56741428571429,99.54732857142857,0.786,-0.7406666666666668,-0.08466666666666656,0.13866666666666672,-0.045000000000001705,-0.036666666666668846,1.5173333333333332,1.4916666666666667,38.358000000000004,30.8465,38.384,35.3105,57.067,39.8675,59.634,52.699,54.924,38.5955,58.2175,51.013,54.016,37.93066666666667,58.122,50.41166666666666,-0.7815000000000001,-0.7615000000000001,0.101775,0.10576,0.0,215.675,215.71,212.44,212.44,0.0,0.0
25,0.0,1.0,0.0,1.0,1.0,0.0,0.0,1.0,0.0,100.0,1.0,1.1856,26.0,0.0,0.0,0.0,59.999996,0.0,26.0,26.0,26.0,26.0,0.029444444444444384,0.26690000000000014,-0.043300000000000005,292.282,-2.7227,-2.5591,-1.5976,-1.5292,-191.54,215.65,190.45725,0.0,0.0,0.0,0.0,0.0505,-5.498166666666667,-5.498166666666667,-0.6071000000000001,-0.042666666666666665,0.03122222222222204,0.07299999999999995,69.033,0.026499999999999968,-0.22275,-0.23599999999999977,100.0,1.0,1.0,212.94666666666666,0.0,0.0,0.0,0.0,0.0,0.0,0.0,9026.1,0.0,55.0,5.0,248.49,1.0,0.0,0.0,0.0,0.0,0.0,0.0,0.0,1.2540000000000013,1.2540000000000013,0.0,0.0,1.0,55.0,616.79921,10000.0,85.000001,85.000001,85.000001,85.000001,395.0,0.0,0.0,0.0,1.0,333.33500000000004,51.865,51.865,47.836,47.836,34.0,10.232500000000002,-8.286000000000001,-25.833333333333336,29.740000000000002,0.0,1782.367,-0.3049999999999997,100.0,28.0,28.212,43.032,43.409,0.0,1.0,100.0,0.0,0.0,0.0,0.0,3197.5714285714284,3361.6,3951.625,4121.8,305.192,304.292,315.251,314.70075,21.987,20.7823,21.9918,21.4988,314.999998,314.999998,324.999988,324.999988,99.56044285714286,99.51651666666666,99.56755714285714,99.54747142857143,0.8006666666666669,-0.7143333333333333,-0.07483333333333331,0.14616666666666678,-0.030000000000001137,-0.04833333333333201,1.5666666666666667,1.5553333333333335,38.419,30.889499999999998,38.449,35.3675,57.093,39.941,59.6695,52.759,54.948,38.6635,58.2505,51.071,54.037,37.995666666666665,58.152,50.468666666666664,-0.7914999999999999,-0.7495,0.10744000000000001,0.110765,0.0,216.09,216.10500000000002,212.94666666666666,212.94666666666666,0.0,0.0
26,0.0,1.0,0.0,1.0,1.0,0.0,0.0,1.0,0.0,100.0,1.0,1.1856,26.0,0.0,0.0,0.0,59.999996,0.0,26.0,26.0,26.0,26.0,0.03577777777777791,0.2812000000000001,0.07773333333333333,291.214,-2.6282,-2.6263,-1.64885,-1.5176,-188.01999999999998,215.6325,190.4315,0.0,0.0,0.0,0.0,0.052566666666666664,-5.498166666666667,-5.498166666666667,-0.5714,0.629,0.01911111111111108,-0.712,69.169,0.02410000000000001,-0.1991,-0.3899999999999997,100.0,1.0,1.0,213.12,0.0,0.0,0.0,0.0,0.0,0.0,0.0,9033.4,0.0,55.0,5.0,248.98000000000002,0.0,0.0,0.0,0.0,0.0,0.0,0.0,0.0,1.3049999999999997,1.3049999999999997,0.0,0.0,0.0,55.0,616.79921,10000.0,85.000001,85.000001,85.000001,85.000001,395.0,0.0,0.0,0.0,1.0,333.33500000000004,51.498,51.498,46.31,46.31,34.0,10.96,-7.564,-32.43666666666667,32.6575,0.0,1782.315,-0.34999999999999964,100.0,28.703,28.951,43.378,43.897,0.0,1.0,100.0,0.0,0.0,0.0,0.0,3222.285714285714,3084.0,4580.375,4500.0,305.154,304.84866666666665,313.826,313.70425,21.997,20.7894,22.002299999999998,21.508,314.999998,314.999998,324.999988,324.999988,99.56055714285715,99.51661666666666,99.56771428571429,99.54764285714286,0.794,-0.728,-0.08083333333333331,0.13050000000000006,-0.04999999999999716,-0.026666666666670835,1.4583333333333335,1.4426666666666668,38.480999999999995,30.933999999999997,38.513999999999996,35.4255,57.128,40.0205,59.712,52.827,54.980000000000004,38.7375,58.29,51.1365,54.066,38.06666666666666,58.188,50.532666666666664,-0.8025,-0.7424999999999999,0.1019,0.10021500000000001,0.0,216.555,216.56,213.12,213.12,0.0,0.0
27,0.0,1.0,0.0,1.0,1.0,0.0,0.0,1.0,0.0,100.0,1.0,1.1856,26.0,0.0,0.0,0.0,59.999996,0.0,26.0,26.0,26.0,26.0,0.04166666666666674,0.24460000000000015,-0.024033333333333337,291.702,-2.645,-2.5891,-1.5893000000000002,-1.5897000000000001,-184.69,215.615,190.408375,0.0,0.0,0.0,0.0,0.0545,-5.498166666666667,-5.498166666666667,-0.5946,-1.0030000000000001,0.01766666666666672,-0.823,69.292,0.029100000000000126,-0.23902500000000002,-0.37399999999999967,100.0,1.0,1.0,213.62,0.0,0.0,0.0,0.0,0.0,0.0,0.0,9054.5,0.0,55.0,5.0,249.42666666666668,1.0,0.0,0.0,0.0,0.0,0.0,0.0,0.0,1.352999999999998,1.352999999999998,0.0,0.0,1.0,55.0,616.79921,10000.0,85.000001,85.000001,85.000001,85.000001,395.0,0.0,0.0,0.0,1.0,333.33500000000004,51.926,51.926,46.585,46.585,34.0,10.3275,-7.969999999999999,-28.49,30.455,0.0,1782.268,-0.29999999999999893,100.0,28.338,28.794,43.978,44.428,0.0,1.0,100.0,0.0,0.0,0.0,0.0,3097.857142857143,3124.0,4161.0,4066.0,305.561,304.8263333333333,314.74925,314.6585,22.0062,20.7959,22.0123,21.5169,314.999998,314.999998,324.999988,324.999988,99.56064285714285,99.5167,99.56784285714286,99.54777142857142,0.7949999999999999,-0.7273333333333332,-0.09033333333333338,0.14183333333333326,-0.03499999999999659,-0.02499999999999858,1.4969999999999999,1.474,38.539,30.9745,38.577,35.4805,57.153,40.085,59.747,52.882999999999996,55.003,38.797,58.323,51.1905,54.085,38.123666666666665,58.218,50.58533333333334,-0.796,-0.748,0.107685,0.11136000000000001,0.0,216.86,216.89499999999998,213.62,213.62,0.0,0.0
28,0.0,1.0,0.0,1.0,1.0,0.0,0.0,1.0,0.0,100.0,1.0,1.1856,26.0,0.0,0.0,0.0,59.999996,0.0,26.0,26.0,26.0,26.0,0.053888888888888875,0.2639,-0.0565,291.946,-2.6252,-2.5860000000000003,-1.6339000000000001,-1.5629,-181.16,215.6,190.383,0.0,0.0,0.0,0.0,0.05653333333333334,-5.498166666666667,-5.498166666666667,-0.6035,0.6276666666666666,0.01200000000000001,0.605,69.42099999999999,0.030299999999999994,-0.21907500000000002,-0.4720000000000004,100.0,1.0,1.0,214.14666666666668,0.0,0.0,0.0,0.0,0.0,0.0,0.0,9076.9,0.0,55.0,5.0,249.89,0.0,0.0,0.0,0.0,0.0,0.0,0.0,0.0,1.404,1.404,0.0,0.0,0.0,55.0,616.79921,10000.0,85.000001,85.000001,85.000001,85.000001,395.0,0.0,0.0,0.0,1.0,333.33500000000004,51.758,51.758,47.607,47.607,34.0,11.175000000000004,-7.601999999999997,-26.763333333333335,30.4525,0.0,1782.216,-0.34499999999999886,100.0,28.639,28.572,43.386,43.842,0.0,1.0,100.0,0.0,0.0,0.0,0.0,3070.142857142857,3224.5,4029.5,4142.5,305.4145,304.6956666666667,315.15,314.66225,22.016,20.803,22.0225,21.5259,314.999998,314.999998,324.999988,324.999988,99.56074285714286,99.51678333333334,99.568,99.54791428571428,0.81,-0.7133333333333332,-0.07233333333333336,0.14783333333333326,-0.03333333333333144,-0.04333333333332945,1.5543333333333333,1.5566666666666666,38.599999999999994,31.0185,38.641,35.537,57.184,40.158500000000004,59.781,52.942499999999995,55.031,38.865,58.3545,51.2475,54.11,38.189,58.2465,50.641,-0.804,-0.744,0.1068,0.10769000000000001,0.0,217.3,217.34,214.14666666666668,214.14666666666668,0.0,0.0
29,0.0,1.0,0.0,1.0,1.0,0.0,0.0,1.0,0.0,100.0,1.0,1.1856,26.0,0.0,0.0,0.0,59.999996,0.0,26.0,26.0,26.0,26.0,0.06777777777777794,0.2512000000000001,-0.007733333333333333,291.748,-2.6084,-2.6416,-1.58,-1.5389,-177.39999999999998,215.58249999999998,190.355,0.0,0.0,0.0,0.0,0.05873333333333334,-5.498166666666667,-5.498166666666667,-0.6055,-0.7063333333333334,0.011777777777777887,0.7640000000000002,69.563,0.03530000000000011,-0.21545,-0.5120000000000005,100.0,1.0,1.0,214.4,0.0,0.0,0.0,0.0,0.0,0.0,0.0,9087.6,0.0,55.0,5.0,250.4,1.0,0.0,0.0,0.0,0.0,0.0,0.0,0.0,1.4579999999999984,1.4579999999999984,0.0,0.0,1.0,55.0,616.79921,10000.0,85.000001,85.000001,85.000001,85.000001,395.0,0.0,0.0,0.0,1.0,166.665,52.155,52.155,46.783,46.783,34.0,10.990000000000002,-6.881999999999998,-27.186666666666667,32.8675,0.0,1782.164,-0.375,100.0,28.283,28.413,43.811,44.113,0.0,1.0,100.0,0.0,0.0,0.0,0.0,3018.0,3167.9,4129.5,4332.6,305.6505,304.8276666666667,314.73525,314.15425,22.0263,20.8103,22.0336,21.535800000000002,314.999998,314.999998,324.999988,324.999988,99.56084285714286,99.51688333333334,99.56815714285715,99.54808571428572,0.808,-0.7126666666666668,-0.06999999999999995,0.15866666666666673,-0.011666666666670267,-0.06333333333333258,1.4953333333333334,1.4733333333333334,38.664,31.064,38.71,35.599000000000004,57.212,40.234,59.823499999999996,53.0095,55.057,38.935,58.394,51.312,54.132999999999996,38.256,58.2825,50.70433333333334,-0.7969999999999999,-0.7444999999999999,0.10919000000000001,0.108645,0.0,217.695,217.765,214.4,214.4,0.0,0.0
30,0.0,1.0,0.0,1.0,1.0,0.0,0.0,1.0,0.0,100.0,1.0,1.1856,26.0,0.0,0.0,0.0,59.999996,0.0,26.0,26.0,26.0,26.0,0.0644444444444443,0.2553000000000001,0.044666666666666674,291.183,-2.6250999999999998,-2.5265,-1.64675,-1.5943,-174.06,215.57,190.330125,0.0,0.0,0.0,0.0,0.06066666666666667,-5.498166666666667,-5.498166666666667,-0.6045,0.8743333333333334,0.011444444444444368,0.718,69.68299999999999,0.03649999999999998,-0.2177,-0.5360000000000005,100.0,1.0,1.0,214.87333333333333,0.0,0.0,0.0,0.0,0.0,0.0,0.0,9107.7,0.0,55.0,5.0,250.83333333333334,0.0,0.0,0.0,0.0,0.0,0.0,1.0,0.0,1.5060000000000002,1.5060000000000002,0.0,0.0,0.0,55.0,616.79921,10000.0,85.000001,85.000001,85.000001,85.000001,395.0,0.0,0.0,0.0,1.0,166.665,50.613,50.613,47.089,47.089,34.0,12.097500000000004,-8.821999999999996,-28.006666666666664,31.6175,0.0,1782.115,-0.33000000000000007,100.0,29.194,29.194,43.58,44.120000000000005,0.0,1.0,100.0,0.0,0.0,0.0,0.0,3254.0,3349.4,4180.25,4144.9,304.819,304.19233333333335,314.86,314.58925,22.035800000000002,20.8171,22.0433,21.5445,314.999998,314.999998,324.999988,324.999988,99.56094285714286,99.51698333333333,99.56828571428571,99.54821428571428,0.8123333333333334,-0.7176666666666667,-0.06833333333333336,0.15533333333333332,-0.03999999999999915,-0.046666666666666856,1.5226666666666666,1.5063333333333333,38.724000000000004,31.107,38.771,35.653,57.245000000000005,40.3065,59.857,53.067,55.087,39.0025,58.425,51.3675,54.161,38.32066666666667,58.3105,50.75833333333333,-0.802,-0.7525,0.10658000000000001,0.10773500000000001,0.0,218.10000000000002,218.175,214.87333333333333,214.87333333333333,0.0,0.0
31,0.0,1.0,0.0,1.0,1.0,0.0,0.0,1.0,0.0,100.0,1.0,1.1856,26.0,0.0,0.0,0.0,59.999996,0.0,26.0,26.0,26.0,26.0,0.04644444444444429,0.24930000000000008,0.05396666666666666,290.802,-2.7138,-2.5549,-1.6038999999999999,-1.4887000000000001,-170.70999999999998,215.56,190.30575,0.0,0.0,0.0,0.0,0.0626,-5.498166666666667,-5.498166666666667,-0.5875,-0.403,0.01966666666666672,0.5880000000000001,69.80799999999999,0.04069999999999996,-0.21987500000000001,-0.49600000000000044,100.0,1.0,1.0,215.07,0.0,0.0,0.0,0.0,0.0,0.0,0.0,9116.1,0.0,55.0,5.0,251.28333333333336,1.0,0.0,0.0,0.0,0.0,0.0,1.0,0.0,1.5539999999999985,1.5539999999999985,0.0,0.0,1.0,55.0,616.79921,10000.0,85.000001,85.000001,85.000001,85.000001,395.0,0.0,0.0,0.0,1.0,333.33500000000004,51.193,51.193,45.563,45.563,34.0,10.642499999999998,-8.0,-28.823333333333334,32.6575,0.0,1782.067,-0.34999999999999964,100.0,28.939,29.2,44.355000000000004,44.826,0.0,1.0,100.0,0.0,0.0,0.0,0.0,3089.5714285714284,3370.4,4313.5,4390.6,305.5115,304.3503333333333,314.279,313.95875,22.045,20.8238,22.0533,21.5535,314.999998,314.999998,324.999988,324.999988,99.56104285714285,99.51706666666666,99.56844285714286,99.54835714285714,0.8173333333333332,-0.7073333333333331,-0.06133333333333335,0.15333333333333332,-0.0049999999999954525,-0.046666666666666856,1.4333333333333333,1.4296666666666666,38.781,31.149,38.833,35.709,57.274,40.377,59.8955,53.129,55.114000000000004,39.067499999999995,58.461,51.427,54.184,38.38333333333333,58.3435,50.817,-0.8014999999999999,-0.7455,0.10806,0.10548,0.0,218.45499999999998,218.535,215.07,215.07,0.0,0.0
32,0.0,1.0,0.0,1.0,1.0,0.0,0.0,1.0,0.0,100.0,1.0,1.1856,26.0,0.0,0.0,0.0,59.999996,0.0,26.0,26.0,26.0,26.0,0.0625555555555557,0.26859999999999995,-0.029233333333333333,291.245,-2.6335,-2.6204,-1.5873,-1.5517,-166.94,215.5475,190.27875,0.0,0.0,0.0,0.0,0.0648,-5.498166666666667,-5.498166666666667,-0.6051000000000001,-0.21033333333333334,-0.004999999999999893,0.4039999999999999,69.943,0.03810000000000002,-0.229725,-0.5300000000000002,100.0,1.0,1.0,215.60000000000002,0.0,0.0,0.0,0.0,0.0,0.0,0.0,9138.5,0.0,55.0,5.0,251.76999999999998,0.0,0.0,0.0,0.0,0.0,0.0,1.0,0.0,1.6080000000000005,1.6080000000000005,0.0,0.0,0.0,55.0,616.79921,10000.0,85.000001,85.000001,85.000001,85.000001,395.0,0.0,0.0,0.0,1.0,166.665,51.544,51.544,46.509,46.509,34.0,11.350000000000001,-6.875999999999998,-26.623333333333335,33.3975,0.0,1782.014,-0.4350000000000005,100.0,28.861,29.033,44.195,44.647999999999996,0.0,1.0,100.0,0.0,0.0,0.0,0.0,3061.285714285714,3195.8,4114.875,4370.3,305.49,304.77166666666665,314.8025,314.15875,22.0554,20.8313,22.0644,21.563299999999998,314.999998,314.999998,324.999988,324.999988,99.56115714285714,99.51716666666667,99.56858571428572,99.54852857142858,0.8173333333333332,-0.7063333333333333,-0.06133333333333335,0.16316666666666668,-0.021666666666668277,-0.051666666666669414,1.5123333333333333,1.4986666666666668,38.846000000000004,31.195999999999998,38.902,35.7705,57.306,40.455,59.9345,53.194,55.143,39.1395,58.497,51.4895,54.21,38.452333333333335,58.3755,50.878,-0.8034999999999999,-0.7464999999999999,0.105565,0.10897000000000001,0.0,218.88,218.94,215.60000000000002,215.60000000000002,0.0,0.0
33,0.0,1.0,0.0,1.0,1.0,0.0,0.0,1.0,0.0,100.0,1.0,1.1856,26.0,0.0,0.0,0.0,59.999996,0.0,26.0,26.0,26.0,26.0,0.05655555555555569,0.2704,-0.05216666666666667,291.519,-2.675,-2.6053,-1.599,-1.5822,-163.79,215.54000000000002,190.25525,0.0,0.0,0.0,0.0,0.06663333333333334,-5.498166666666667,-5.498166666666667,-0.6143000000000001,-0.25133333333333335,-0.003666666666666707,-0.19700000000000006,70.056,0.03930000000000011,-0.21705000000000002,-0.5259999999999998,100.0,1.0,1.0,215.96666666666667,0.0,0.0,0.0,0.0,0.0,0.0,0.0,9154.1,0.0,55.0,5.0,252.17666666666668,1.0,0.0,0.0,0.0,0.0,0.0,1.0,0.0,1.6529999999999987,1.6529999999999987,0.0,0.0,1.0,55.0,616.79921,10000.0,85.000001,85.000001,85.000001,85.000001,395.0,0.0,0.0,0.0,1.0,166.665,51.819,51.819,46.738,46.738,34.0,10.600000000000001,-7.366,-27.5,31.405,0.0,1781.969,-0.375,100.0,28.572,28.948999999999998,43.955,44.533,0.0,1.0,100.0,0.0,0.0,0.0,0.0,3134.0,3067.7,4150.75,4203.9,305.5135,305.01,314.8255,314.45875,22.0641,20.8375,22.0735,21.5714,314.999998,314.999998,324.999988,324.999988,99.56124285714286,99.51725,99.56871428571428,99.54865714285714,0.8049999999999999,-0.7206666666666668,-0.0728333333333333,0.14400000000000013,-0.041666666666671404,-0.036666666666668846,1.5226666666666666,1.508,38.9,31.2345,38.959,35.8215,57.332,40.516999999999996,59.966,53.2475,55.167,39.197,58.5265,51.541,54.232,38.507666666666665,58.4025,50.928,-0.8,-0.7455,0.10549000000000001,0.10369500000000001,0.0,219.245,219.275,215.96666666666667,215.96666666666667,0.0,0.0
34,0.0,1.0,0.0,1.0,1.0,0.0,0.0,1.0,0.0,100.0,1.0,1.1856,26.0,0.0,0.0,0.0,59.999996,0.0,26.0,26.0,26.0,26.0,0.06222222222222218,0.2499,-0.0693,291.718,-2.6079,-2.6017,-1.63215,-1.5499,-160.20999999999998,215.5325,190.22725,0.0,0.0,0.0,0.0,0.06873333333333334,-5.498166666666667,-5.498166666666667,-0.6404000000000001,-0.7976666666666666,0.02011111111111097,0.9449999999999998,70.185,0.04459999999999997,-0.221675,-0.5739999999999998,100.0,1.0,1.0,216.3466666666667,0.0,0.0,0.0,0.0,0.0,0.0,0.0,9170.1,0.0,55.0,5.0,252.64,0.0,0.0,0.0,0.0,0.0,0.0,1.0,0.0,1.7040000000000006,1.7040000000000006,0.0,0.0,0.0,55.0,616.79921,10000.0,85.000001,85.000001,85.000001,85.000001,395.0,0.0,0.0,0.0,1.0,333.33500000000004,52.185,52.185,47.058,47.058,34.0,10.985,-7.2180000000000035,-27.36,32.225,0.0,1781.917,-0.3100000000000005,100.0,28.462,28.568,43.86,44.513000000000005,0.0,1.0,100.0,0.0,0.0,0.0,0.0,2999.0,3060.2,4102.125,4242.7,305.7215,305.127,314.91,314.39175,22.0738,20.8444,22.0838,21.5807,314.999998,314.999998,324.999988,324.999988,99.56134285714286,99.51735,99.56887142857143,99.54881428571429,0.8096666666666668,-0.7176666666666667,-0.0675,0.16083333333333338,-0.02499999999999858,-0.046666666666666856,1.5173333333333332,1.4936666666666667,38.961,31.2775,39.024,35.8795,57.36,40.5865,60.0015,53.3095,55.193,39.2615,58.5595,51.6005,54.254,38.56933333333333,58.432,50.986666666666665,-0.798,-0.7525,0.10531000000000001,0.10398500000000001,0.0,219.62,219.675,216.3466666666667,216.3466666666667,0.0,0.0
35,0.0,1.0,0.0,1.0,1.0,0.0,0.0,1.0,0.0,100.0,1.0,1.1856,26.0,0.0,0.0,0.0,59.999996,0.0,26.0,26.0,26.0,26.0,0.06355555555555559,0.25060000000000016,-0.07623333333333335,291.672,-2.6646,-2.5482,-1.62975,-1.5106000000000002,-156.42000000000002,215.525,190.1955,0.0,0.0,0.0,0.0,0.07093333333333333,-5.498166666666667,-5.498166666666667,-0.6805,-0.15366666666666667,0.001777777777777878,-0.14700000000000002,70.318,0.046599999999999975,-0.22875,-0.3779999999999992,100.0,1.0,1.0,216.83333333333331,0.0,0.0,0.0,0.0,0.0,0.0,0.0,9190.8,0.0,55.0,5.0,253.12333333333333,1.0,0.0,0.0,0.0,0.0,0.0,1.0,0.0,1.7579999999999991,1.7579999999999991,0.0,0.0,1.0,55.0,616.79921,10000.0,85.000001,85.000001,85.000001,85.000001,395.0,0.0,0.0,0.0,1.0,166.665,51.575,51.575,46.722,46.722,34.0,10.759999999999998,-8.270000000000003,-26.006666666666668,30.145,0.0,1781.864,-0.24499999999999922,100.0,28.31,28.903,43.69,44.037,0.0,1.0,100.0,0.0,0.0,0.0,0.0,3055.142857142857,3418.2,4016.75,4068.7,305.5465,304.11,315.05725,314.82675,22.084,20.852,22.0947,21.5904,314.999998,314.999998,324.999988,324.999988,99.56145714285714,99.51743333333333,99.56902857142857,99.54897142857143,0.8109999999999999,-0.7076666666666667,-0.0548333333333334,0.16433333333333322,-0.03499999999999659,-0.05833333333333002,1.5383333333333333,1.525,39.025,31.325,39.092,35.94,57.388,40.664,60.0385,53.371,55.218,39.334,58.594,51.66,54.277,38.638666666666666,58.463,51.044666666666664,-0.7894999999999999,-0.752,0.10501500000000001,0.10924500000000001,0.0,220.055,220.095,216.83333333333331,216.83333333333331,0.0,0.0
