,ABS Active,ABS Enabled,AID Allow Tire Blankets,AID Auto Blip,AID Auto Clutch,AID Auto Shift,AID Fuel Rate,AID Ideal Line,AID Mech Damage,AID Stability,AID Tire Wear Rate,Air Density,Air Temp,Ballast,Best Lap Delta,Best Lap Time,Brake Bias,Brake Pos,Brake Temp FL,Brake Temp FR,Brake Temp RL,Brake Temp RR,CG Accel Lateral,CG Accel Longitudinal,CG Accel Vertical,CG Height,Camber FL,Camber FR,Camber RL,Camber RR,Car Coord X,Car Coord Y,Car Coord Z,Car Damage Front,Car Damage Left,Car Damage Rear,Car Damage Right,Car Pos Norm,Caster FL,Caster FR,Chassis Pitch Angle,Chassis Pitch Rate,Chassis Roll Angle,Chassis Roll Rate,Chassis Velocity X,Chassis Velocity Y,Chassis Velocity Z,Chassis Yaw Rate,Clutch Pos,DRS Active,DRS Available,Drive Train Speed,ERS Heat Charging,ERS Is Charging,ERS Max Energy,ERS Power Level,ERS Recovery Level,Engine Brake Setting,Engine Limiter,Engine RPM,Flags,Fuel Level,Gear,Ground Speed,HR Sample Clock,In Pit,KERS Charge,KERS Deployed Energy,KERS Input,KERS Max Energy,LR Sample Clock,Lap Invalidated,Lap Time,Lap Time2,Last Lap Time,Last Sector Time,MR Sample Clock,Max Fuel,Max Power,Max RPM,Max Sus Travel FL,Max Sus Travel FR,Max Sus Travel RL,Max Sus Travel RR,Max Torque,Max Turbo Boost,Num Tires Off Track,Penalties Enabled,Position,Raw Data Sample Rate,Ride Height FL,Ride Height FR,Ride Height RL,Ride Height RR,Road Temp,Self Align Torque FL,Self Align Torque FR,Self Align Torque RL,Self Align Torque RR,Session Lap Count,Session Time Left,Steering Angle,Surface Grip,Suspension Travel FL,Suspension Travel FR,Suspension Travel RL,Suspension Travel RR,TC Active,TC Enabled,Throttle Pos,Tire Dirt Level FL,Tire Dirt Level FR,Tire Dirt Level RL,Tire Dirt Level RR,Tire Load FL,Tire Load FR,Tire Load RL,Tire Load RR,Tire Loaded Radius FL,Tire Loaded Radius FR,Tire Loaded Radius RL,Tire Loaded Radius RR,Tire Pressure FL,Tire Pressure FR,Tire Pressure RL,Tire Pressure RR,Tire Radius FL,Tire Radius FR,Tire Radius RL,Tire Radius RR,Tire Rubber Grip FL,Tire Rubber Grip FR,Tire Rubber Grip RL,Tire Rubber Grip RR,Tire Slip Angle FL,Tire Slip Angle FR,Tire Slip Angle RL,Tire Slip Angle RR,Tire Slip Ratio FL,Tire Slip Ratio FR,Tire Slip Ratio RL,Tire Slip Ratio RR,Tire Temp Core FL,Tire Temp Core FR,Tire Temp Core RL,Tire Temp Core RR,Tire Temp Inner FL,Tire Temp Inner FR,Tire Temp Inner RL,Tire Temp Inner RR,Tire Temp Middle FL,Tire Temp Middle FR,Tire Temp Middle RL,Tire Temp Middle RR,Tire Temp Outer FL,Tire Temp Outer FR,Tire Temp Outer RL,Tire Temp Outer RR,Toe In FL,Toe In FR,Toe In RL,Toe In RR,Turbo Boost,Wheel Angular Speed FL,Wheel Angular Speed FR,Wheel Angular Speed RL,Wheel Angular Speed RR,Wind Direction,Wind Speed
0,0.0,1.0,0.0,1.0,1.0,0.0,0.0,1.0,0.0,100.0,1.0,1.1856,26.0,0.0,0.0,0.0,59.99999,0.0,26.0,26.0,26.0,26.0,-0.024125,0.2862,0.13346666666666668,292.664,-2.7847,-2.614,-1.55165,-1.4974,-275.76,215.3975,190.987375,0.0,0.0,0.0,0.0,0.0015333333333333334,-5.498166666666667,-5.498166666666667,-0.5658000000000001,2.7395,0.0031111111111110645,0.3540000000000001,65.376,-0.0386,-0.22560000000000002,-0.08399999999999963,100.0,1.0,1.0,201.96333333333334,0.0,0.0,0.0,0.0,0.0,0.0,0.0,8560.4,0.0,55.0,5.0,235.32333333333332,0.0,0.0,0.0,0.0,0.0,0.0,0.0,0.0,0.0030000000000001137,0.0030000000000001137,0.0,0.0,0.0,55.0,616.79921,10000.0,85.0,85.0,85.0,85.0,395.0,0.0,0.0,0.0,1.0,20.0,50.339,50.339,48.553,48.553,34.0,-29.4,32.566,-42.4125,40.5625,0.0,1783.582,-0.019999999999999574,100.0,27.922,27.717,40.79,40.447,0.0,1.0,100.0,0.0,0.0,0.0,0.0,3375.142857142857,4267.7,4088.222222222222,4190.0,304.39,301.578,314.93125,314.4745,21.7633,20.5135,21.7961,21.262,314.99999,314.99999,324.99998,324.99998,99.55838571428572,99.50723333333333,99.56838571428571,99.54335714285715,0.03600000000000003,-0.07624999999999993,-0.4275,0.3758333333333333,-0.036666666666668846,-0.034285714285715585,1.625,1.6146666666666667,37.021,29.209666666666664,37.226,33.8875,56.11,34.482,60.265,50.924,54.039,33.665,58.86,49.3365,53.214,33.24,58.8345,48.791,-0.08549999999999991,-0.07650000000000023,0.39175714285714286,0.40142857142857147,0.0,204.86,204.85000000000002,201.96333333333334,201.96333333333334,0.0,0.0
1,0.0,1.0,0.0,1.0,1.0,0.0,0.0,1.0,0.0,100.0,1.0,1.1856,26.0,0.0,0.0,0.0,59.999996,0.0,26.0,26.0,26.0,26.0,-0.040375,0.3174000000000001,0.16720000000000002,291.87,-2.6336,-2.6982857142857144,-1.5977999999999999,-1.5206000000000002,-272.42,215.4075,190.967625,0.0,0.0,0.0,0.0,0.0035,-5.498166666666667,-5.498166666666667,-0.4539,-1.491,-0.047222222222222054,-0.08699999999999974,65.535,-0.024200000000000003,-0.153175,0.4479999999999995,100.0,1.0,1.0,201.79333333333335,0.0,0.0,0.0,0.0,0.0,0.0,0.0,8553.3,0.0,55.0,5.0,235.89333333333332,1.0,0.0,0.0,0.0,0.0,0.0,0.0,0.0,0.053999999999998494,0.053999999999998494,0.0,0.0,1.0,55.0,616.79921,10000.0,85.000001,85.000001,85.000001,85.000001,395.0,0.0,0.0,0.0,1.0,166.665,54.367,54.367,46.143,46.143,34.0,-21.87,16.298,-55.0275,59.415,0.0,1783.532,0.3249999999999993,100.0,27.683,27.37,43.36,43.586,0.0,1.0,100.0,0.0,0.0,0.0,0.0,2750.714285714286,2375.9,4849.111111111111,5571.4,306.563,307.26775,312.84275,311.114,21.7729,20.5186,21.8075,21.2713,314.999998,314.999998,324.999988,324.999988,99.5584,99.50725,99.56855714285714,99.54352857142857,0.02925000000000022,-0.10375000000000001,-0.41966666666666663,0.3731666666666667,-0.01666666666666572,-0.03857142857143003,1.3316666666666668,1.3556666666666666,37.081,29.241,37.297,33.945499999999996,56.092,34.5195,60.320499999999996,51.0045,54.022,33.6995,58.912,49.4135,53.196,33.2735,58.882999999999996,48.86633333333333,-0.047499999999999876,-0.09750000000000014,0.39074285714285717,0.40285714285714286,0.0,205.3,205.275,201.79333333333335,201.79333333333335,0.0,0.0
2,0.0,1.0,0.0,1.0,1.0,0.0,0.0,1.0,0.0,100.0,1.0,1.1856,26.0,0.0,0.0,0.0,59.999996,0.0,26.0,26.0,26.0,26.0,-0.07025,0.29690000000000016,0.025633333333333334,293.365,-2.6578,-2.6592857142857143,-1.5046,-1.5155,-269.08,215.4125,190.948875,0.0,0.0,0.0,0.0,0.005433333333333333,-5.498166666666667,-5.498166666666667,-0.5769000000000001,0.3225,-0.014333333333333087,2.029,65.666,-0.0239,-0.265575,0.6660000000000004,100.0,1.0,1.0,203.31666666666666,0.0,0.0,0.0,0.0,0.0,0.0,0.0,8617.9,0.0,55.0,5.0,236.37,0.0,0.0,0.0,0.0,0.0,0.0,0.0,0.0,0.10500000000000043,0.10500000000000043,0.0,0.0,0.0,55.0,616.79921,10000.0,85.000001,85.000001,85.000001,85.000001,395.0,0.0,0.0,0.0,1.0,333.33500000000004,51.468,51.468,50.11,50.11,34.0,-29.3825,23.33,-34.035,29.2725,0.0,1783.48,0.45500000000000185,100.0,28.244,27.490000000000002,42.564,42.458,0.0,1.0,100.0,0.0,0.0,0.0,0.0,3447.5714285714284,3304.5,3501.222222222222,3296.5,304.313,304.22325,316.38375,316.7215,21.782899999999998,20.523699999999998,21.8181,21.2796,314.999998,314.999998,324.999988,324.999988,99.5584,99.50726666666667,99.56871428571428,99.54367142857143,0.020750000000000046,-0.11299999999999999,-0.4461666666666666,0.3781666666666667,-0.061666666666667425,-0.07285714285714562,1.8696666666666668,1.8796666666666666,37.143,29.273333333333333,37.363,33.9975,56.079,34.559,60.3585,51.0625,54.009,33.7355,58.947,49.469,53.182,33.308,58.9155,48.92066666666666,-0.046499999999999986,-0.11249999999999982,0.3952,0.4067857142857143,0.0,205.72500000000002,205.685,203.31666666666666,203.31666666666666,0.0,0.0
3,0.0,1.0,0.0,1.0,1.0,0.0,0.0,1.0,0.0,100.0,1.0,1.1856,26.0,0.0,0.0,0.0,59.999996,0.0,26.0,26.0,26.0,26.0,-0.065625,0.29710000000000014,0.03783333333333333,292.496,-2.6898,-2.673714285714286,-1.554,-1.4713,-265.72,215.41750000000002,190.928375,0.0,0.0,0.0,0.0,0.007366666666666667,-5.498166666666667,-5.498166666666667,-0.4864,0.6739999999999999,0.01288888888888895,-2.053,65.82300000000001,-0.042100000000000005,-0.17125,0.7439999999999998,100.0,1.0,1.0,203.03,0.0,0.0,0.0,0.0,0.0,0.0,0.0,8605.8,0.0,55.0,5.0,236.93333333333334,1.0,0.0,0.0,0.0,0.0,0.0,0.0,0.0,0.1559999999999988,0.1559999999999988,0.0,0.0,1.0,55.0,616.79921,10000.0,85.000001,85.000001,85.000001,85.000001,395.0,0.0,0.0,0.0,1.0,166.665,53.299,53.299,46.677,46.677,34.0,-23.16,19.802,-50.730000000000004,43.8775,0.0,1783.43,0.4499999999999993,100.0,27.878,27.711,42.741,42.859,0.0,1.0,100.0,0.0,0.0,0.0,0.0,2806.4285714285716,2865.6,4554.222222222223,4460.9,306.3765,305.50875,313.76525,313.61375,21.7925,20.5291,21.8288,21.2886,314.999998,314.999998,324.999988,324.999988,99.55841428571429,99.50728333333333,99.56887142857143,99.54384285714286,0.021749999999999936,-0.11749999999999994,-0.44966666666666666,0.36283333333333334,-0.03499999999999659,-0.03857142857143003,1.4533333333333334,1.498,37.203,29.306666666666665,37.43,34.0535,56.061,34.6015,60.4035,51.1385,53.992999999999995,33.775,58.989,49.542,53.165,33.3455,58.954,48.992333333333335,-0.04400000000000004,-0.11549999999999994,0.3962428571428572,0.40245714285714285,0.0,206.255,206.175,203.03,203.03,0.0,0.0
4,0.0,1.0,0.0,1.0,1.0,0.0,0.0,1.0,0.0,100.0,1.0,1.1856,26.0,0.0,0.0,0.0,59.999996,0.0,26.0,26.0,26.0,26.0,-0.073125,0.28900000000000015,0.017033333333333334,293.015,-2.6737,-2.749285714285714,-1.4877,-1.5883,-262.56,215.42000000000002,190.910375,0.0,0.0,0.0,0.0,0.009233333333333333,-5.498166666666667,-5.498166666666667,-0.5204,-1.0215,-0.045111111111111324,-0.8380000000000001,65.958,-0.0472,-0.22290000000000001,0.9260000000000002,100.0,1.0,1.0,203.69333333333333,0.0,0.0,0.0,0.0,0.0,0.0,0.0,8633.7,0.0,55.0,5.0,237.42000000000002,0.0,0.0,0.0,0.0,0.0,0.0,0.0,0.0,0.20400000000000063,0.20400000000000063,0.0,0.0,0.0,55.0,616.79921,10000.0,85.000001,85.000001,85.000001,85.000001,395.0,0.0,0.0,0.0,1.0,333.33500000000004,52.948,52.948,48.141,48.141,34.0,-27.6175,19.8,-42.5225,35.7375,0.0,1783.382,0.5749999999999993,100.0,27.767,27.28,43.513,42.95,0.0,1.0,100.0,0.0,0.0,0.0,0.0,3213.142857142857,2844.2,4037.1111111111113,3799.5,305.18,305.68525,315.0185,315.324,21.8017,20.5339,21.839199999999998,21.2969,314.999998,314.999998,324.999988,324.999988,99.55841428571429,99.5073,99.56902857142857,99.54397142857142,0.00649999999999995,-0.12649999999999995,-0.46099999999999997,0.3451666666666667,-0.041666666666671404,-0.06428571428571672,1.6300000000000001,1.6666666666666665,37.260999999999996,29.336666666666666,37.495000000000005,34.106,56.046,34.638,60.448499999999996,51.203,53.977999999999994,33.809,59.031,49.6035,53.15,33.378,58.9935,49.05266666666667,-0.03749999999999987,-0.11750000000000016,0.3938285714285714,0.4029714285714286,0.0,206.615,206.55,203.69333333333333,203.69333333333333,0.0,0.0
5,0.0,1.0,0.0,1.0,1.0,0.0,0.0,1.0,0.0,100.0,1.0,1.1856,26.0,0.0,0.0,0.0,59.999996,0.0,26.0,26.0,26.0,26.0,-0.07925,0.2957000000000001,-0.04966666666666667,293.335,-2.6498,-2.721714285714286,-1.5413999999999999,-1.5683,-258.99,215.42000000000002,190.8895,0.0,0.0,0.0,0.0,0.011300000000000001,-5.498166666666667,-5.498166666666667,-0.5278,0.6145,-0.027222222222222037,-0.24599999999999955,66.11,-0.0645,-0.21030000000000001,0.9900000000000002,100.0,1.0,1.0,204.25666666666666,0.0,0.0,0.0,0.0,0.0,0.0,0.0,8657.7,0.0,55.0,5.0,237.96666666666667,1.0,0.0,0.0,0.0,0.0,0.0,0.0,0.0,0.2579999999999991,0.2579999999999991,0.0,0.0,1.0,55.0,616.79921,10000.0,85.000001,85.000001,85.000001,85.000001,395.0,0.0,0.0,0.0,1.0,166.665,53.192,53.192,48.492,48.492,34.0,-26.3775,20.018,-42.7,35.962500000000006,0.0,1783.328,0.28999999999999915,100.0,27.681,27.208,43.039,42.304,0.0,1.0,100.0,0.0,0.0,0.0,0.0,3086.142857142857,2882.2,3932.1111111111113,3942.9,305.4755,305.47725,315.313,315.05325,21.8122,20.5394,21.8505,21.3061,314.999998,314.999998,324.999988,324.999988,99.55841428571429,99.50731666666667,99.56918571428571,99.54414285714286,0.003750000000000142,-0.12549999999999994,-0.48849999999999993,0.3226666666666667,-0.04833333333333201,-0.04999999999999716,1.6453333333333333,1.687,37.326,29.371333333333332,37.566,34.163,56.03,34.681,60.4935,51.272,53.963,33.8485,59.073,49.6695,53.134,33.416,59.032,49.117333333333335,-0.05249999999999999,-0.09850000000000003,0.39875714285714287,0.4059142857142857,0.0,207.135,207.04500000000002,204.25666666666666,204.25666666666666,0.0,0.0
6,0.0,1.0,0.0,1.0,1.0,0.0,0.0,1.0,0.0,100.0,1.0,1.1856,26.0,0.0,0.0,0.0,59.999996,0.0,26.0,26.0,26.0,26.0,-0.10162500000000001,0.2933000000000001,-0.008833333333333334,293.091,-2.6799,-2.7712857142857144,-1.4885000000000002,-1.5539,-256.02,215.42000000000002,190.87125,0.0,0.0,0.0,0.0,0.013033333333333334,-5.498166666666667,-5.498166666666667,-0.5165000000000001,-0.25449999999999995,-0.04366666666666674,0.2519999999999998,66.241,-0.0718,-0.1912,0.822000000000001,100.0,1.0,1.0,204.46333333333334,0.0,0.0,0.0,0.0,0.0,0.0,0.0,8666.5,0.0,55.0,5.0,238.43666666666667,0.0,0.0,0.0,0.0,0.0,0.0,0.0,0.0,0.3030000000000008,0.3030000000000008,0.0,0.0,0.0,55.0,616.79921,10000.0,85.000001,85.000001,85.000001,85.000001,395.0,0.0,0.0,0.0,1.0,166.665,53.513,53.513,47.852000000000004,47.852000000000004,34.0,-26.7425,19.84,-45.27,38.447500000000005,0.0,1783.283,0.3949999999999996,100.0,27.574,26.778,43.335,42.45,0.0,1.0,100.0,0.0,0.0,0.0,0.0,3075.857142857143,2864.3,4181.555555555556,4093.5,305.4525,305.74425,314.59225,314.683,21.8207,20.5439,21.8601,21.3139,314.999998,314.999998,324.999988,324.999988,99.55841428571429,99.50731666666667,99.56934285714286,99.54427142857143,0.000500000000000167,-0.13124999999999998,-0.46966666666666657,0.3343333333333333,-0.06666666666666998,-0.03999999999999915,1.5793333333333333,1.6023333333333334,37.379000000000005,29.39933333333333,37.626000000000005,34.212,56.015,34.7155,60.5345,51.334,53.948,33.879999999999995,59.111,49.729,53.119,33.446,59.067499999999995,49.175666666666665,-0.046499999999999986,-0.10999999999999988,0.39365714285714287,0.4092,0.0,207.51999999999998,207.43,204.46333333333334,204.46333333333334,0.0,0.0
7,0.0,1.0,0.0,1.0,1.0,0.0,0.0,1.0,0.0,100.0,1.0,1.1856,26.0,0.0,0.0,0.0,59.999996,0.0,26.0,26.0,26.0,26.0,-0.059000000000000004,0.2836000000000001,0.0038666666666666667,293.015,-2.6216,-2.7727142857142857,-1.5368,-1.606,-252.63,215.41750000000002,190.850625,0.0,0.0,0.0,0.0,0.015000000000000001,-5.498166666666667,-5.498166666666667,-0.5235000000000001,0.16649999999999998,-0.04355555555555579,-0.28000000000000025,66.383,-0.077,-0.20455,0.718,100.0,1.0,1.0,204.98000000000002,0.0,0.0,0.0,0.0,0.0,0.0,0.0,8688.4,0.0,55.0,5.0,238.95,1.0,0.0,0.0,0.0,0.0,0.0,0.0,0.0,0.3539999999999992,0.3539999999999992,0.0,0.0,1.0,55.0,616.79921,10000.0,85.000001,85.000001,85.000001,85.000001,395.0,0.0,0.0,0.0,1.0,333.33500000000004,53.101,53.101,47.989,47.989,34.0,-26.0225,21.235999999999997,-45.68,36.5125,0.0,1783.231,-0.16000000000000014,100.0,27.741,27.084,43.327,42.518,0.0,1.0,100.0,0.0,0.0,0.0,0.0,3190.857142857143,2860.6,4156.0,3932.1000000000004,305.2,305.53675,314.7795,315.0095,21.8306,20.5491,21.871,21.3227,314.999998,314.999998,324.999988,324.999988,99.55841428571429,99.50733333333334,99.5695,99.54442857142857,0.02950000000000008,-0.10099999999999998,-0.4846666666666666,0.3176666666666667,-0.045000000000001705,-0.04571428571428271,1.61,1.6263333333333334,37.441,29.432000000000002,37.694,34.266999999999996,56.001000000000005,34.756,60.58,51.400999999999996,53.935,33.917500000000004,59.153999999999996,49.793,53.105000000000004,33.482,59.107,49.23833333333333,-0.09299999999999997,-0.05699999999999994,0.39044285714285715,0.40790000000000004,0.0,207.965,207.905,204.98000000000002,204.98000000000002,0.0,0.0
8,0.0,1.0,0.0,1.0,1.0,0.0,0.0,1.0,0.0,100.0,1.0,1.1856,26.0,0.0,0.0,0.0,59.999996,0.0,26.0,26.0,26.0,26.0,-0.041125,0.2793000000000001,-0.03596666666666667,293.121,-2.675,-2.702857142857143,-1.5542500000000001,-1.5948,-249.04,215.41,190.828875,0.0,0.0,0.0,0.0,0.017066666666666667,-5.498166666666667,-5.498166666666667,-0.524,-0.08750000000000013,-0.028777777777778013,-1.109,66.535,-0.0698,-0.20597500000000002,0.29600000000000026,100.0,1.0,1.0,205.46666666666667,0.0,0.0,0.0,0.0,0.0,0.0,0.0,8708.9,0.0,55.0,5.0,239.5,0.0,0.0,0.0,0.0,0.0,0.0,0.0,0.0,0.40800000000000125,0.40800000000000125,0.0,0.0,0.0,55.0,616.79921,10000.0,85.000001,85.000001,85.000001,85.000001,395.0,0.0,0.0,0.0,1.0,166.665,53.314,53.314,47.76,47.76,34.0,-25.4425,21.644,-43.99,37.7525,0.0,1783.178,-0.254999999999999,100.0,27.382,27.151,43.36,42.713,0.0,1.0,100.0,0.0,0.0,0.0,0.0,3098.285714285714,2940.0,4064.0,3934.0,305.527,305.313,314.9845,314.985,21.8409,20.5547,21.8825,21.3322,314.999998,314.999998,324.999988,324.999988,99.55842857142858,99.50735,99.56967142857143,99.5446,0.03224999999999989,-0.09275,-0.46566666666666656,0.34600000000000003,-0.051666666666669414,-0.03142857142857025,1.5976666666666668,1.6073333333333335,37.506,29.466666666666665,37.765,34.326,55.983999999999995,34.798,60.6275,51.4745,53.919,33.956,59.198499999999996,49.8635,53.088,33.5185,59.147999999999996,49.30733333333333,-0.09549999999999992,-0.0495000000000001,0.3866857142857143,0.40988571428571435,0.0,208.405,208.37,205.46666666666667,205.46666666666667,0.0,0.0
9,0.0,1.0,0.0,1.0,1.0,0.0,0.0,1.0,0.0,100.0,1.0,1.1856,26.0,0.0,0.0,0.0,59.999996,0.0,26.0,26.0,26.0,26.0,-0.03,0.2893000000000001,-0.007533333333333333,292.984,-2.6713,-2.7244285714285716,-1.5357,-1.5571000000000002,-245.85,215.405,190.809375,0.0,0.0,0.0,0.0,0.018933333333333337,-5.498166666666667,-5.498166666666667,-0.5208,0.17599999999999993,-0.042888888888888754,-0.7930000000000001,66.67,-0.0563,-0.197475,0.1460000000000008,100.0,1.0,1.0,205.84333333333333,0.0,0.0,0.0,0.0,0.0,0.0,0.0,8725.0,0.0,55.0,5.0,239.98333333333335,1.0,0.0,0.0,0.0,0.0,0.0,0.0,0.0,0.4559999999999995,0.4559999999999995,0.0,0.0,1.0,55.0,616.79921,10000.0,85.000001,85.000001,85.000001,85.000001,395.0,0.0,0.0,0.0,1.0,166.665,53.101,53.101,48.019,48.019,34.0,-26.2775,22.282,-43.8925,39.019999999999996,0.0,1783.13,-0.3550000000000004,100.0,27.494,27.03,43.248000000000005,42.69,0.0,1.0,100.0,0.0,0.0,0.0,0.0,3208.5714285714284,2938.7,4095.6666666666665,4040.6000000000004,305.182,305.335,314.931,314.763,21.8501,20.5597,21.8926,21.3405,314.999998,314.999998,324.999988,324.999988,99.55842857142858,99.50735,99.56982857142857,99.54474285714285,0.03725000000000023,-0.08024999999999993,-0.45866666666666667,0.3575,-0.03333333333333144,-0.04999999999999716,1.5933333333333333,1.6036666666666668,37.563,29.497666666666667,37.829,34.3785,55.971000000000004,34.8345,60.669,51.539,53.906,33.9895,59.237,49.9255,53.075,33.551,59.184,49.367666666666665,-0.09999999999999987,-0.04349999999999987,0.38841428571428577,0.41052857142857146,0.0,208.815,208.815,205.84333333333333,205.84333333333333,0.0,0.0
10,0.0,1.0,0.0,1.0,1.0,0.0,0.0,1.0,0.0,100.0,1.0,1.1856,26.0,0.0,0.0,0.0,59.999996,0.0,26.0,26.0,26.0,26.0,-0.01925,0.28790000000000004,0.0031000000000000003,292.923,-2.6749,-2.7051428571428575,-1.5483500000000001,-1.5448000000000002,-242.64,215.3975,190.789875,0.0,0.0,0.0,0.0,0.020800000000000003,-5.498166666666667,-5.498166666666667,-0.516,-0.1905000000000001,-0.020999999999999908,0.10400000000000009,66.805,-0.0414,-0.19495,-0.06400000000000006,100.0,1.0,1.0,206.19,0.0,0.0,0.0,0.0,0.0,0.0,0.0,8739.7,0.0,55.0,5.0,240.46666666666667,0.0,0.0,0.0,0.0,0.0,0.0,1.0,0.0,0.5040000000000013,0.5040000000000013,0.0,0.0,0.0,55.0,616.79921,10000.0,85.000001,85.000001,85.000001,85.000001,395.0,0.0,0.0,0.0,1.0,166.665,53.391,53.391,47.775,47.775,34.0,-24.4675,21.786,-44.12,40.4675,0.0,1783.083,-0.495000000000001,100.0,27.458,26.968,43.324,42.903,0.0,1.0,100.0,0.0,0.0,0.0,0.0,3107.285714285714,2906.1,4151.666666666667,4159.6,305.48,305.4645,314.7715,314.466,21.8592,20.5646,21.9028,21.3489,314.999998,314.999998,324.999988,324.999988,99.55842857142858,99.50736666666667,99.56998571428572,99.54488571428571,0.058499999999999996,-0.08074999999999999,-0.4388333333333334,0.358,-0.05333333333332746,-0.04142857142856826,1.5713333333333332,1.5713333333333335,37.620000000000005,29.528666666666666,37.893,34.431,55.958,34.8695,60.711,51.6055,53.894,34.022,59.2765,49.9885,53.061,33.582,59.2205,49.42966666666666,-0.11650000000000005,-0.046499999999999986,0.3910571428571429,0.39958571428571427,0.0,209.25,209.21,206.19,206.19,0.0,0.0
11,0.0,1.0,0.0,1.0,1.0,0.0,0.0,1.0,0.0,100.0,1.0,1.1856,26.0,0.0,0.0,0.0,59.999996,0.0,26.0,26.0,26.0,26.0,-0.00725,0.26870000000000016,-0.0315,293.182,-2.7004,-2.6992857142857143,-1.55655,-1.5173,-239.23,215.39,190.768875,0.0,0.0,0.0,0.0,0.022600000000000002,-5.498166666666667,-5.498166666666667,-0.5363,-0.3065,0.0086666666666666,1.0380000000000003,66.945,-0.024200000000000003,-0.20800000000000002,-0.32399999999999984,100.0,1.0,1.0,206.71666666666667,0.0,0.0,0.0,0.0,0.0,0.0,0.0,8761.9,0.0,55.0,5.0,240.97333333333336,1.0,0.0,0.0,0.0,0.0,0.0,1.0,0.0,0.5549999999999997,0.5549999999999997,0.0,0.0,1.0,55.0,616.79921,10000.0,85.000001,85.000001,85.000001,85.000001,395.0,0.0,0.0,0.0,1.0,166.665,53.391,53.391,48.203,48.203,34.0,-23.405,24.532,-39.4475,40.815,0.0,1783.032,-0.4499999999999993,100.0,27.337,26.872,43.219,42.886,0.0,1.0,100.0,0.0,0.0,0.0,0.0,2995.0,3100.4,3889.1111111111113,4082.1000000000004,305.655,305.044,315.35675,314.746,21.8688,20.5699,21.9136,21.3579,314.999998,314.999998,324.999988,324.999988,99.55844285714285,99.50736666666667,99.57014285714286,99.54504285714286,0.06950000000000012,-0.04949999999999999,-0.4085,0.40116666666666667,-0.02833333333332888,-0.05857142857143316,1.621,1.601,37.68,29.561666666666667,37.96,34.487,55.943,34.9075,60.7525,51.6755,53.879999999999995,34.057,59.315,50.056,53.047,33.6155,59.2555,49.495666666666665,-0.10650000000000004,-0.0365000000000002,0.3875,0.40735714285714286,0.0,209.63,209.655,206.71666666666667,206.71666666666667,0.0,0.0
12,0.0,1.0,0.0,1.0,1.0,0.0,0.0,1.0,0.0,100.0,1.0,1.1856,26.0,0.0,0.0,0.0,59.999996,0.0,26.0,26.0,26.0,26.0,0.02125,0.29059999999999997,0.007766666666666667,292.862,-2.7029,-2.6845714285714286,-1.5564,-1.5301,-235.82,215.38,190.74725,0.0,0.0,0.0,0.0,0.025466666666666665,-5.498166666666667,-5.498166666666667,-0.5299,0.391,0.010777777777777775,-0.6289999999999996,67.087,-0.0074,-0.1908,-0.34999999999999964,100.0,1.0,1.0,207.09333333333333,0.0,0.0,0.0,0.0,0.0,0.0,0.0,8777.9,0.0,55.0,5.0,241.48333333333335,0.0,0.0,0.0,0.0,0.0,0.0,1.0,0.0,0.6059999999999981,0.6059999999999981,0.0,0.0,0.0,55.0,616.79921,10000.0,85.000001,85.000001,85.000001,85.000001,395.0,0.0,0.0,0.0,1.0,166.665,53.07,53.07,47.714,47.714,34.0,-24.08,24.323999999999998,-42.13,41.847500000000004,0.0,1782.98,-0.48499999999999943,100.0,27.297,27.359,42.931,42.979,0.0,1.0,100.0,0.0,0.0,0.0,0.0,3104.857142857143,3061.4,4124.444444444444,4141.4,305.4935,304.95825,314.876,314.555,21.8785,20.5753,21.9243,21.3668,314.999998,314.999998,324.999988,324.999988,99.55845714285714,99.50738333333334,99.5703,99.5452,0.07299999999999995,-0.04874999999999996,-0.40549999999999997,0.402,-0.051666666666669414,-0.06857142857143117,1.6096666666666668,1.5956666666666668,37.739999999999995,29.595666666666666,38.027,34.542500000000004,55.93,34.945499999999996,60.7935,51.7455,53.867999999999995,34.092,59.353,50.123,53.033,33.649,59.2905,49.56133333333334,-0.10749999999999993,-0.03600000000000003,0.39562857142857144,0.40404285714285715,0.0,210.10500000000002,210.135,207.09333333333333,207.09333333333333,0.0,0.0
13,0.0,1.0,0.0,1.0,1.0,0.0,0.0,1.0,0.0,100.0,1.0,1.1856,26.0,0.0,0.0,0.0,59.999996,0.0,26.0,26.0,26.0,26.0,0.048875,0.3024,0.019933333333333334,292.587,-2.6913,-2.6965714285714286,-1.5544,-1.5374,-232.59,215.3725,190.726875,0.0,0.0,0.0,0.0,0.026633333333333332,-5.498166666666667,-5.498166666666667,-0.5242,-0.21300000000000008,0.007777777777777883,-0.3849999999999998,67.22,0.00030000000000000003,-0.196575,-0.3799999999999999,100.0,1.0,1.0,207.42333333333335,0.0,0.0,0.0,0.0,0.0,0.0,0.0,8791.9,0.0,55.0,5.0,241.96333333333334,1.0,0.0,0.0,0.0,0.0,0.0,1.0,0.0,0.6539999999999999,0.6539999999999999,0.0,0.0,1.0,55.0,616.79921,10000.0,85.000001,85.000001,85.000001,85.000001,395.0,0.0,0.0,0.0,1.0,166.665,52.979,52.979,47.409,47.409,34.0,-22.4375,25.14,-42.6425,43.3025,0.0,1782.933,-0.41000000000000014,100.0,27.456,27.462,43.264,43.383,0.0,1.0,100.0,0.0,0.0,0.0,0.0,3118.285714285714,3004.7,4174.222222222223,4207.7,305.455,305.134,314.717,314.35,21.8875,20.5804,21.9346,21.3754,314.999998,314.999998,324.999988,324.999988,99.55845714285714,99.50738333333334,99.57044285714285,99.54535714285714,0.11149999999999993,-0.017749999999999932,-0.39583333333333337,0.40700000000000003,-0.051666666666669414,-0.034285714285715585,1.5706666666666669,1.5606666666666666,37.797,29.627666666666666,38.091,34.596000000000004,55.919,34.9815,60.8345,51.814,53.855999999999995,34.125,59.3915,50.1885,53.021,33.681,59.3255,49.62566666666667,-0.131,-0.019000000000000128,0.3880571428571429,0.40251428571428577,0.0,210.5,210.5,207.42333333333335,207.42333333333335,0.0,0.0
14,0.0,1.0,0.0,1.0,1.0,0.0,0.0,1.0,0.0,100.0,1.0,1.1856,26.0,0.0,0.0,0.0,59.999996,0.0,26.0,26.0,26.0,26.0,0.037625,0.2735000000000001,-0.024900000000000002,292.755,-2.683,-2.710714285714286,-1.5630000000000002,-1.5351000000000001,-229.16,215.3675,190.705625,0.0,0.0,0.0,0.0,0.028633333333333334,-5.498166666666667,-5.498166666666667,-0.5375,-0.04800000000000004,0.023111111111111082,0.9859999999999998,67.358,0.0089,-0.210125,-0.4560000000000004,100.0,1.0,1.0,207.94666666666666,0.0,0.0,0.0,0.0,0.0,0.0,0.0,8814.1,0.0,55.0,5.0,242.46,0.0,0.0,0.0,0.0,0.0,0.0,1.0,0.0,0.7049999999999983,0.7049999999999983,0.0,0.0,0.0,55.0,616.79921,10000.0,85.000001,85.000001,85.000001,85.000001,395.0,0.0,0.0,0.0,1.0,166.665,52.917,52.917,47.806,47.806,34.0,-21.875,25.712,-39.0,42.792500000000004,0.0,1782.881,-0.48999999999999844,100.0,27.633,27.494,43.269999999999996,43.354,0.0,1.0,100.0,0.0,0.0,0.0,0.0,2987.4285714285716,3111.7,3945.4444444444443,4111.0,305.6605,304.94325,315.22575,314.676,21.897100000000002,20.5859,21.9453,21.3844,314.999998,314.999998,324.999988,324.999988,99.55848571428571,99.5074,99.57061428571429,99.54551428571429,0.10199999999999987,-0.028000000000000025,-0.3776666666666666,0.4336666666666667,-0.054999999999999716,-0.06285714285714761,1.6136666666666668,1.6036666666666668,37.857,29.661666666666665,38.158,34.6525,55.906,35.0195,60.875,51.8855,53.844,34.16,59.429,50.257,53.007999999999996,33.7145,59.36,49.69266666666667,-0.11349999999999993,-0.04150000000000009,0.39108571428571426,0.4027428571428572,0.0,210.94,210.95,207.94666666666666,207.94666666666666,0.0,0.0
15,0.0,1.0,0.0,1.0,1.0,0.0,0.0,1.0,0.0,100.0,1.0,1.1856,26.0,0.0,0.0,0.0,59.999996,0.0,26.0,26.0,26.0,26.0,0.036875,0.28,0.0014333333333333336,292.618,-2.6713,-2.688285714285714,-1.55035,-1.5538,-225.92000000000002,215.36,190.685125,0.0,0.0,0.0,0.0,0.030533333333333332,-5.498166666666667,-5.498166666666667,-0.5317000000000001,0.26449999999999996,0.03022222222222215,0.7649999999999997,67.489,0.0137,-0.198375,-0.4059999999999997,100.0,1.0,1.0,208.30666666666667,0.0,0.0,0.0,0.0,0.0,0.0,0.0,8829.3,0.0,55.0,5.0,242.93333333333334,1.0,0.0,0.0,0.0,0.0,0.0,1.0,0.0,0.7530000000000001,0.7530000000000001,0.0,0.0,1.0,55.0,616.79921,10000.0,85.000001,85.000001,85.000001,85.000001,395.0,0.0,0.0,0.0,1.0,333.33500000000004,52.856,52.856,47.592,47.592,34.0,-21.7675,25.71,-39.9225,44.0475,0.0,1782.832,-0.41000000000000014,100.0,27.685,27.587,43.19,43.428,0.0,1.0,100.0,0.0,0.0,0.0,0.0,2966.714285714286,3111.5,4027.3333333333335,4179.5,305.7135,304.9195,315.0355,314.4865,21.906,20.591,21.9555,21.3929,314.999998,314.999998,324.999988,324.999988,99.55848571428571,99.5074,99.57075714285715,99.54567142857142,0.09825000000000017,-0.024249999999999994,-0.37716666666666665,0.433,-0.03166666666666629,-0.05142857142856627,1.5913333333333333,1.5779999999999998,37.913,29.694,38.222,34.7055,55.894999999999996,35.055,60.9125,51.9535,53.833,34.193,59.464,50.322,52.995999999999995,33.746,59.391999999999996,49.75666666666667,-0.10450000000000004,-0.04600000000000026,0.39834285714285717,0.4017428571428572,0.0,211.325,211.365,208.30666666666667,208.30666666666667,0.0,0.0
16,0.0,1.0,0.0,1.0,1.0,0.0,0.0,1.0,0.0,100.0,1.0,1.1856,26.0,0.0,0.0,0.0,59.999996,0.0,26.0,26.0,26.0,26.0,0.050125,0.26470000000000016,0.0037,292.465,-2.7407,-2.6305714285714283,-1.5306000000000002,-1.5519,-222.48,215.35500000000002,190.663125,0.0,0.0,0.0,0.0,0.03253333333333333,-5.498166666666667,-5.498166666666667,-0.5391,-0.389,0.021444444444444377,-1.0299999999999998,67.628,0.0183,-0.205875,-0.2699999999999996,100.0,1.0,1.0,208.70333333333332,0.0,0.0,0.0,0.0,0.0,0.0,0.0,8846.1,0.0,55.0,5.0,243.43333333333334,0.0,0.0,0.0,0.0,0.0,0.0,1.0,0.0,0.8039999999999985,0.8039999999999985,0.0,0.0,0.0,55.0,616.79921,10000.0,85.000001,85.000001,85.000001,85.000001,395.0,0.0,0.0,0.0,1.0,333.33500000000004,52.689,52.689,47.272,47.272,34.0,-23.8725,25.044,-40.4325,42.755,0.0,1782.78,-0.3049999999999997,100.0,27.332,27.767,43.332,43.712,0.0,1.0,100.0,0.0,0.0,0.0,0.0,3167.0,3114.9,4106.0,4050.8,305.3685,304.78875,314.891,314.69275,21.915399999999998,20.5965,21.9663,21.402,314.999998,314.999998,324.999988,324.999988,99.5585,99.5074,99.57092857142857,99.54584285714286,0.09750000000000014,-0.03225,-0.373,0.4331666666666667,-0.041666666666671404,-0.04285714285714448,1.5816666666666668,1.5550000000000002,37.971000000000004,29.72833333333333,38.29,34.7625,55.881,35.095,60.957,52.0295,53.82,34.230000000000004,59.504999999999995,50.3955,52.982,33.7815,59.43,49.82833333333333,-0.10349999999999993,-0.05250000000000021,0.3839,0.4089714285714286,0.0,211.755,211.76,208.70333333333332,208.70333333333332,0.0,0.0
17,0.0,1.0,0.0,1.0,1.0,0.0,0.0,1.0,0.0,100.0,1.0,1.1856,26.0,0.0,0.0,0.0,59.999996,0.0,26.0,26.0,26.0,26.0,0.01575,0.27680000000000016,0.0233,292.191,-2.6649,-2.6164285714285715,-1.57695,-1.5117,-219.03,215.35,190.641,0.0,0.0,0.0,0.0,0.03453333333333333,-5.498166666666667,-5.498166666666667,-0.5383,0.13049999999999995,0.0021111111111109526,0.34499999999999975,67.766,0.0177,-0.20122500000000001,-0.24799999999999933,100.0,1.0,1.0,209.11,0.0,0.0,0.0,0.0,0.0,0.0,0.0,8863.4,0.0,55.0,5.0,243.92666666666668,1.0,0.0,0.0,0.0,0.0,0.0,1.0,0.0,0.8550000000000004,0.8550000000000004,0.0,0.0,1.0,55.0,616.79921,10000.0,85.000001,85.000001,85.000001,85.000001,395.0,0.0,0.0,0.0,1.0,166.665,52.414,52.414,47.058,47.058,34.0,-22.572499999999998,25.884,-42.3125,44.085,0.0,1782.732,-0.23499999999999943,100.0,27.803,27.738,43.434,43.582,0.0,1.0,100.0,0.0,0.0,0.0,0.0,3085.0,3221.5,4191.0,4212.7,305.316,304.64225,314.668,314.43925,21.9249,20.6021,21.9771,21.411,314.999998,314.999998,324.999988,324.999988,99.55851428571428,99.5074,99.57107142857143,99.546,0.1030000000000002,-0.02749999999999997,-0.37683333333333335,0.4355,-0.04833333333333201,-0.021428571428565135,1.5713333333333332,1.5706666666666667,38.031,29.762999999999998,38.357,34.8185,55.870000000000005,35.1315,60.995,52.0965,53.809,34.263999999999996,59.5405,50.4595,52.97,33.8135,59.462,49.891333333333336,-0.09250000000000003,-0.05549999999999988,0.3962714285714286,0.4005571428571429,0.0,212.2,212.19,209.11,209.11,0.0,0.0
18,0.0,1.0,0.0,1.0,1.0,0.0,0.0,1.0,0.0,100.0,1.0,1.1856,26.0,0.0,0.0,0.0,59.999996,0.0,26.0,26.0,26.0,26.0,0.01925,0.2803,0.03066666666666667,292.13,-2.6524,-2.7502857142857144,-1.5252,-1.4803000000000002,-215.76999999999998,215.3475,190.619875,0.0,0.0,0.0,0.0,0.03643333333333333,-5.498166666666667,-5.498166666666667,-0.5459,-0.3295000000000001,-0.0011111111111112848,0.9969999999999999,67.895,0.015000000000000001,-0.20650000000000002,-0.19399999999999995,100.0,1.0,1.0,209.47,0.0,0.0,0.0,0.0,0.0,0.0,0.0,8878.7,0.0,55.0,5.0,244.39333333333335,0.0,0.0,0.0,0.0,0.0,0.0,1.0,0.0,0.9029999999999987,0.9029999999999987,0.0,0.0,0.0,55.0,616.79921,10000.0,85.000001,85.000001,85.000001,85.000001,395.0,0.0,0.0,0.0,1.0,166.665,52.46,52.46,46.967,46.967,34.0,-22.715,26.932000000000002,-41.1725,44.205,0.0,1782.683,-0.1999999999999993,100.0,27.798000000000002,27.614,43.629,43.678,0.0,1.0,100.0,0.0,0.0,0.0,0.0,3070.142857142857,3204.1,4117.111111111111,4282.3,305.415,304.561,314.73875,314.2795,21.933799999999998,20.6072,21.9873,21.4195,314.999998,314.999998,324.999988,324.999988,99.55852857142857,99.50741666666667,99.57124285714286,99.54615714285714,0.09275000000000011,-0.03200000000000003,-0.37883333333333336,0.4261666666666667,-0.03999999999999915,-0.06285714285714761,1.556,1.56,38.086,29.795,38.421,34.872,55.857,35.1665,61.0345,52.1635,53.797,34.296,59.5775,50.524,52.957,33.8445,59.496,49.95466666666667,-0.09050000000000002,-0.05149999999999988,0.3909714285714286,0.39801428571428576,0.0,212.57,212.595,209.47,209.47,0.0,0.0
19,0.0,1.0,0.0,1.0,1.0,0.0,0.0,1.0,0.0,100.0,1.0,1.1856,26.0,0.0,0.0,0.0,59.999996,0.0,26.0,26.0,26.0,26.0,0.04625,0.27259999999999995,0.051500000000000004,291.855,-2.6391,-2.705714285714286,-1.5308000000000002,-1.5999,-212.3,215.3425,190.597125,0.0,0.0,0.0,0.0,0.03843333333333333,-5.498166666666667,-5.498166666666667,-0.5411,0.5705,0.00955555555555554,-0.694,68.031,0.0092,-0.20172500000000002,0.002000000000000668,100.0,1.0,1.0,209.90333333333334,0.0,0.0,0.0,0.0,0.0,0.0,0.0,8897.0,0.0,55.0,5.0,244.88333333333333,1.0,0.0,0.0,0.0,0.0,0.0,1.0,0.0,0.9540000000000006,0.9540000000000006,0.0,0.0,1.0,55.0,616.79921,10000.0,85.000001,85.000001,85.000001,85.000001,395.0,0.0,0.0,0.0,1.0,333.33500000000004,52.002,52.002,47.119,47.119,34.0,-23.73,24.369999999999997,-41.99,44.79,0.0,1782.632,-0.16000000000000014,100.0,28.184,28.295,43.466,43.916,0.0,1.0,100.0,0.0,0.0,0.0,0.0,3176.4285714285716,3072.6,4163.666666666667,4239.2,305.238,304.79575,314.77575,314.212,21.9434,20.6128,21.998,21.4286,314.999998,314.999998,324.999988,324.999988,99.55854285714285,99.50741666666667,99.5714,99.54631428571429,0.08424999999999994,-0.05899999999999994,-0.39016666666666666,0.4101666666666667,-0.060000000000002274,-0.03999999999999915,1.564,1.5576666666666665,38.146,29.83,38.488,34.929,55.846000000000004,35.206,61.074,52.2345,53.786,34.332499999999996,59.6145,50.5925,52.945,33.8795,59.5295,50.02133333333333,-0.09299999999999997,-0.06950000000000012,0.39194285714285715,0.40092857142857147,0.0,213.05,213.03,209.90333333333334,209.90333333333334,0.0,0.0
20,0.0,1.0,0.0,1.0,1.0,0.0,0.0,1.0,0.0,100.0,1.0,1.1856,26.0,0.0,0.0,0.0,59.999996,0.0,26.0,26.0,26.0,26.0,0.018875,0.2603,0.0044,292.007,-2.7037,-2.6631428571428573,-1.5157500000000002,-1.5851000000000002,-208.82999999999998,215.34,190.57475,0.0,0.0,0.0,0.0,0.04046666666666667,-5.498166666666667,-5.498166666666667,-0.5391,-0.7055,0.012333333333333307,0.625,68.167,0.0013000000000000002,-0.207425,-0.0039999999999995595,100.0,1.0,1.0,210.28,0.0,0.0,0.0,0.0,0.0,0.0,0.0,8913.0,0.0,55.0,5.0,245.37666666666667,0.0,0.0,0.0,0.0,0.0,0.0,0.0,0.0,1.004999999999999,1.004999999999999,0.0,0.0,0.0,55.0,616.79921,10000.0,85.000001,85.000001,85.000001,85.000001,395.0,0.0,0.0,0.0,1.0,333.33500000000004,52.597,52.597,46.661,46.661,34.0,-22.5975,24.72,-41.4475,43.965,0.0,1782.58,-0.2049999999999983,100.0,27.977,27.872,44.105000000000004,44.234,0.0,1.0,100.0,0.0,0.0,0.0,0.0,2999.142857142857,3116.8,4101.333333333333,4174.0,305.6725,304.9705,314.7995,314.43375,21.9527,20.6183,22.009,21.4378,314.999998,314.999998,324.999988,324.999988,99.55854285714285,99.50743333333334,99.57155714285715,99.54648571428571,0.09125000000000005,-0.042749999999999955,-0.3883333333333333,0.41383333333333333,-0.04999999999999716,-0.06142857142857139,1.526,1.5366666666666666,38.205,29.864333333333335,38.556,34.9865,55.832,35.244,61.1175,52.308,53.772999999999996,34.368,59.655,50.6625,52.931,33.9135,59.5665,50.09,-0.09349999999999992,-0.06099999999999994,0.3829714285714286,0.40394285714285716,0.0,213.43,213.44,210.28,210.28,0.0,0.0
21,0.0,1.0,0.0,1.0,1.0,0.0,0.0,1.0,0.0,100.0,1.0,1.1856,26.0,0.0,0.0,0.0,59.999996,0.0,26.0,26.0,26.0,26.0,-0.009000000000000001,0.26049999999999995,-0.06713333333333334,292.343,-2.7149,-2.636714285714286,-1.56175,-1.542,-205.55,215.3375,190.553375,0.0,0.0,0.0,0.0,0.04236666666666667,-5.498166666666667,-5.498166666666667,-0.5603,-0.10099999999999998,0.0006666666666665932,0.4930000000000003,68.292,-0.0018000000000000002,-0.21027500000000002,-0.04999999999999982,100.0,1.0,1.0,210.82,0.0,0.0,0.0,0.0,0.0,0.0,0.0,8935.8,0.0,55.0,5.0,245.82333333333332,1.0,0.0,0.0,0.0,0.0,0.0,0.0,0.0,1.0530000000000008,1.0530000000000008,0.0,0.0,1.0,55.0,616.79921,10000.0,85.000001,85.000001,85.000001,85.000001,395.0,0.0,0.0,0.0,1.0,333.33500000000004,52.536,52.536,47.44,47.44,34.0,-23.955,24.637999999999998,-40.0575,40.7525,0.0,1782.532,-0.21999999999999886,100.0,27.967,27.731,43.809,43.894999999999996,0.0,1.0,100.0,0.0,0.0,0.0,0.0,3106.285714285714,3131.9,3993.777777777778,4003.4,305.3745,304.9775,315.15425,314.95575,21.9616,20.6235,22.019,21.4463,314.999998,314.999998,324.999988,324.999988,99.55855714285714,99.50743333333334,99.5717,99.54664285714286,0.08349999999999991,-0.04049999999999998,-0.391,0.41633333333333333,-0.045000000000001705,-0.0357142857142847,1.6223333333333332,1.6173333333333333,38.26,29.89666666666667,38.619,35.039,55.82,35.28,61.153999999999996,52.372,53.762,34.400999999999996,59.689,50.724000000000004,52.919,33.945499999999996,59.5975,50.15,-0.09450000000000003,-0.06050000000000022,0.39002857142857145,0.40641428571428573,0.0,213.82,213.8,210.82,210.82,0.0,0.0
22,0.0,1.0,0.0,1.0,1.0,0.0,0.0,1.0,0.0,100.0,1.0,1.1856,26.0,0.0,0.0,0.0,59.999996,0.0,26.0,26.0,26.0,26.0,0.00075,0.2692000000000001,0.005866666666666667,291.901,-2.7585,-2.6691428571428575,-1.5918999999999999,-1.5253,-201.86,215.3375,190.52825,0.0,0.0,0.0,0.0,0.044500000000000005,-5.498166666666667,-5.498166666666667,-0.5453,0.08999999999999997,0.007222222222222241,1.045,68.437,-0.0051,-0.1847,-0.12799999999999923,100.0,1.0,1.0,211.10000000000002,0.0,0.0,0.0,0.0,0.0,0.0,0.0,8947.8,0.0,55.0,5.0,246.34333333333336,0.0,0.0,0.0,0.0,0.0,0.0,0.0,0.0,1.1069999999999993,1.1069999999999993,0.0,0.0,0.0,55.0,616.79921,10000.0,85.000001,85.000001,85.000001,85.000001,395.0,0.0,0.0,0.0,1.0,166.665,52.551,52.551,46.57,46.57,34.0,-23.78,24.915999999999997,-44.1425,45.415,0.0,1782.48,-0.3200000000000003,100.0,28.045,27.773,43.919,43.872,0.0,1.0,100.0,0.0,0.0,0.0,0.0,3063.857142857143,3160.1,4251.333333333333,4375.9,305.563,304.907,314.5225,314.09475,21.9716,20.6293,22.0305,21.4559,314.999998,314.999998,324.999988,324.999988,99.55857142857143,99.50743333333334,99.57188571428571,99.54681428571429,0.08625000000000016,-0.04674999999999996,-0.39216666666666666,0.41250000000000003,-0.03999999999999915,-0.04999999999999716,1.5476666666666667,1.5353333333333334,38.323,29.933333333333334,38.691,35.0995,55.807,35.321,61.198499999999996,52.4465,53.748999999999995,34.439,59.7305,50.795500000000004,52.905,33.9815,59.6355,50.220333333333336,-0.10349999999999993,-0.0535000000000001,0.3886714285714286,0.41007142857142853,0.0,214.285,214.29000000000002,211.10000000000002,211.10000000000002,0.0,0.0
23,0.0,1.0,0.0,1.0,1.0,0.0,0.0,1.0,0.0,100.0,1.0,1.1856,26.0,0.0,0.0,0.0,59.999996,0.0,26.0,26.0,26.0,26.0,0.0015,0.27659999999999996,-0.011600000000000001,291.733,-2.6584,-2.6891428571428575,-1.6305,-1.5369000000000002,-198.37,215.335,190.50475,0.0,0.0,0.0,0.0,0.046533333333333336,-5.498166666666667,-5.498166666666667,-0.5586,-0.21799999999999997,0.0015555555555555323,-0.7880000000000003,68.57,-0.0029000000000000002,-0.20715,-0.09600000000000009,100.0,1.0,1.0,211.55,0.0,0.0,0.0,0.0,0.0,0.0,0.0,8966.8,0.0,55.0,5.0,246.82666666666665,1.0,0.0,0.0,0.0,0.0,0.0,0.0,0.0,1.1580000000000013,1.1580000000000013,0.0,0.0,1.0,55.0,616.79921,10000.0,85.000001,85.000001,85.000001,85.000001,395.0,0.0,0.0,0.0,1.0,166.665,52.063,52.063,46.829,46.829,34.0,-24.919999999999998,24.195999999999998,-44.2225,42.4825,0.0,1782.428,-0.3000000000000007,100.0,28.145,28.113,44.062,44.224000000000004,0.0,1.0,100.0,0.0,0.0,0.0,0.0,3262.142857142857,3054.5,4229.0,4143.6,304.9775,304.9465,314.69625,314.57425,21.981099999999998,20.634900000000002,22.0414,21.4651,314.999998,314.999998,324.999988,324.999988,99.55857142857143,99.50745,99.57204285714286,99.54698571428571,0.0794999999999999,-0.05349999999999999,-0.4,0.4088333333333333,-0.04333333333332945,-0.060000000000002274,1.5843333333333334,1.5723333333333334,38.382,29.968333333333334,38.759,35.157,55.795,35.3605,61.2405,52.5185,53.736999999999995,34.475,59.7695,50.8645,52.891999999999996,34.0165,59.671,50.28766666666667,-0.09899999999999998,-0.05500000000000016,0.3891857142857143,0.4092714285714286,0.0,214.675,214.68,211.55,211.55,0.0,0.0
24,0.0,1.0,0.0,1.0,1.0,0.0,0.0,1.0,0.0,100.0,1.0,1.1856,26.0,0.0,0.0,0.0,59.999996,0.0,26.0,26.0,26.0,26.0,0.015,0.26849999999999996,-0.0109,292.084,-2.6841,-2.6705714285714284,-1.54265,-1.5544,-195.07,215.33249999999998,190.48225,0.0,0.0,0.0,0.0,0.04846666666666667,-5.498166666666667,-5.498166666666667,-0.5707,-0.32400000000000007,0.010666666666666602,-0.22100000000000009,68.695,0.0001,-0.20600000000000002,-0.13999999999999968,100.0,1.0,1.0,211.94333333333333,0.0,0.0,0.0,0.0,0.0,0.0,0.0,8983.5,0.0,55.0,5.0,247.27666666666664,0.0,0.0,0.0,0.0,0.0,0.0,0.0,0.0,1.2059999999999995,1.2059999999999995,0.0,0.0,0.0,55.0,616.79921,10000.0,85.000001,85.000001,85.000001,85.000001,395.0,0.0,0.0,0.0,1.0,166.665,52.765,52.765,46.753,46.753,34.0,-23.205,23.274,-43.105,41.8625,0.0,1782.381,-0.3249999999999993,100.0,27.962,27.912,44.031,44.213,0.0,1.0,100.0,0.0,0.0,0.0,0.0,3060.714285714286,2980.2,4191.0,4102.5,305.6415,305.244,314.69075,314.6445,21.9899,20.6401,22.0515,21.4737,314.999998,314.999998,324.999988,324.999988,99.5586,99.50745,99.5722,99.54712857142857,0.08150000000000013,-0.053749999999999964,-0.403,0.3985,-0.05666666666667197,-0.054285714285711606,1.5676666666666668,1.5583333333333333,38.437,30.000333333333334,38.822,35.210499999999996,55.783,35.3955,61.278999999999996,52.584,53.726,34.5075,59.8055,50.9275,52.879999999999995,34.0475,59.704,50.349333333333334,-0.10599999999999987,-0.052999999999999936,0.3969857142857143,0.40011428571428576,0.0,215.075,215.07,211.94333333333333,211.94333333333333,0.0,0.0
25,0.0,1.0,0.0,1.0,1.0,0.0,0.0,1.0,0.0,100.0,1.0,1.1856,26.0,0.0,0.0,0.0,59.999996,0.0,26.0,26.0,26.0,26.0,0.0265,0.26439999999999997,-0.03276666666666667,292.007,-2.7500999999999998,-2.649714285714286,-1.58775,-1.5283,-191.76999999999998,215.33249999999998,190.458625,0.0,0.0,0.0,0.0,0.05036666666666667,-5.498166666666667,-5.498166666666667,-0.5874,-0.07850000000000001,0.019333333333333202,-0.8389999999999995,68.819,0.004,-0.202025,-0.16999999999999993,100.0,1.0,1.0,212.38,0.0,0.0,0.0,0.0,0.0,0.0,0.0,9002.0,0.0,55.0,5.0,247.72333333333336,1.0,0.0,0.0,0.0,0.0,0.0,0.0,0.0,1.2540000000000013,1.2540000000000013,0.0,0.0,1.0,55.0,616.79921,10000.0,85.000001,85.000001,85.000001,85.000001,395.0,0.0,0.0,0.0,1.0,333.33500000000004,52.155,52.155,47.104,47.104,34.0,-25.5275,25.366,-41.11,41.472500000000004,0.0,1782.331,-0.3049999999999997,100.0,27.781,28.025,43.833,44.038,0.0,1.0,100.0,0.0,0.0,0.0,0.0,3277.4285714285716,3199.8,4035.3333333333335,4090.1000000000004,305.1135,304.57925,315.13975,314.712,21.9987,20.6453,22.0616,21.4822,314.999998,314.999998,324.999988,324.999988,99.5586,99.50745,99.57235714285714,99.54728571428572,0.08400000000000007,-0.04674999999999996,-0.3956666666666666,0.406,-0.05666666666667197,-0.034285714285715585,1.5933333333333333,1.5953333333333335,38.492000000000004,30.03333333333333,38.885,35.263999999999996,55.769999999999996,35.432,61.3155,52.6485,53.713,34.541,59.8395,50.9895,52.867000000000004,34.079499999999996,59.735,50.41,-0.09899999999999998,-0.05250000000000021,0.39074285714285717,0.40368571428571426,0.0,215.45,215.45,212.38,212.38,0.0,0.0
26,0.0,1.0,0.0,1.0,1.0,0.0,0.0,1.0,0.0,100.0,1.0,1.1856,26.0,0.0,0.0,0.0,59.999996,0.0,26.0,26.0,26.0,26.0,0.021500000000000002,0.2801,0.055466666666666664,291.153,-2.711,-2.7284285714285716,-1.5509,-1.5472000000000001,-188.05,215.32999999999998,190.431625,0.0,0.0,0.0,0.0,0.05253333333333334,-5.498166666666667,-5.498166666666667,-0.5613,0.355,0.00922222222222202,-0.6550000000000002,68.961,0.003,-0.185375,-0.13200000000000056,100.0,1.0,1.0,212.61,0.0,0.0,0.0,0.0,0.0,0.0,0.0,9011.8,0.0,55.0,5.0,248.23333333333335,0.0,0.0,0.0,0.0,0.0,0.0,0.0,0.0,1.3079999999999998,1.3079999999999998,0.0,0.0,0.0,55.0,616.79921,10000.0,85.000001,85.000001,85.000001,85.000001,395.0,0.0,0.0,0.0,1.0,166.665,51.849000000000004,51.849000000000004,46.036,46.036,34.0,-24.5775,24.162,-46.72,46.7275,0.0,1782.278,-0.375,100.0,28.536,28.556,44.161,44.445,0.0,1.0,100.0,0.0,0.0,0.0,0.0,3248.142857142857,2993.1,4450.777777777777,4430.0,305.15,305.10625,314.082,313.837,22.0088,20.6514,22.0731,21.492,314.999998,314.999998,324.999988,324.999988,99.55861428571428,99.50746666666667,99.57252857142858,99.54747142857143,0.09224999999999994,-0.04999999999999993,-0.39849999999999997,0.4101666666666667,-0.03166666666666629,-0.05142857142856627,1.496,1.5156666666666667,38.555,30.070999999999998,38.957,35.3255,55.759,35.4745,61.36,52.7255,53.703,34.5805,59.881,51.063,52.855000000000004,34.117,59.772999999999996,50.48233333333333,-0.10899999999999999,-0.04850000000000021,0.3981,0.4074714285714286,0.0,215.91500000000002,215.91500000000002,212.61,212.61,0.0,0.0
27,0.0,1.0,0.0,1.0,1.0,0.0,0.0,1.0,0.0,100.0,1.0,1.1856,26.0,0.0,0.0,0.0,59.999996,0.0,26.0,26.0,26.0,26.0,0.025375,0.2491000000000001,-0.03226666666666667,291.504,-2.7007,-2.665714285714286,-1.60755,-1.6098000000000001,-184.95,215.32999999999998,190.41,0.0,0.0,0.0,0.0,0.05433333333333334,-5.498166666666667,-5.498166666666667,-0.5790000000000001,-0.7945,0.017888888888888843,0.7839999999999998,69.077,0.0058000000000000005,-0.218175,-0.2999999999999998,100.0,1.0,1.0,213.07666666666665,0.0,0.0,0.0,0.0,0.0,0.0,0.0,9031.6,0.0,55.0,5.0,248.65,1.0,0.0,0.0,0.0,0.0,0.0,0.0,0.0,1.352999999999998,1.352999999999998,0.0,0.0,1.0,55.0,616.79921,10000.0,85.000001,85.000001,85.000001,85.000001,395.0,0.0,0.0,0.0,1.0,166.665,52.063,52.063,46.082,46.082,34.0,-22.125,25.622,-42.5,43.475,0.0,1782.234,-0.34499999999999886,100.0,28.45,28.372,44.718,44.745000000000005,0.0,1.0,100.0,0.0,0.0,0.0,0.0,2983.4285714285716,3207.0,4106.888888888889,4096.7,305.6955,304.6875,314.881,314.66925,22.017,20.6563,22.0827,21.5003,314.999998,314.999998,324.999988,324.999988,99.55862857142857,99.50748333333334,99.57267142857143,99.54761428571429,0.10000000000000009,-0.04225000000000001,-0.3923333333333333,0.42183333333333334,-0.03833333333332689,-0.04571428571428271,1.5543333333333333,1.5566666666666666,38.605999999999995,30.102,39.016999999999996,35.376999999999995,55.748000000000005,35.5085,61.397999999999996,52.789500000000004,53.693,34.6125,59.9165,51.1245,52.844,34.1475,59.8055,50.542,-0.10499999999999998,-0.05549999999999988,0.4022428571428572,0.40261428571428576,0.0,216.22,216.22,213.07666666666665,213.07666666666665,0.0,0.0
28,0.0,1.0,0.0,1.0,1.0,0.0,0.0,1.0,0.0,100.0,1.0,1.1856,26.0,0.0,0.0,0.0,59.999996,0.0,26.0,26.0,26.0,26.0,0.0455,0.25750000000000006,-0.06916666666666667,291.687,-2.6848,-2.6550000000000002,-1.6250499999999999,-1.5608,-181.42000000000002,215.32999999999998,190.38475,0.0,0.0,0.0,0.0,0.056400000000000006,-5.498166666666667,-5.498166666666667,-0.5901000000000001,0.4525,0.003666666666666707,-1.0030000000000001,69.205,0.0106,-0.205125,-0.24799999999999933,100.0,1.0,1.0,213.58666666666667,0.0,0.0,0.0,0.0,0.0,0.0,0.0,9053.2,0.0,55.0,5.0,249.11,0.0,0.0,0.0,0.0,0.0,0.0,0.0,0.0,1.404,1.404,0.0,0.0,0.0,55.0,616.79921,10000.0,85.000001,85.000001,85.000001,85.000001,395.0,0.0,0.0,0.0,1.0,333.33500000000004,51.941,51.941,46.875,46.875,34.0,-23.3775,24.758,-41.475,42.165,0.0,1782.181,-0.379999999999999,100.0,28.358,28.503,44.144,44.42,0.0,1.0,100.0,0.0,0.0,0.0,0.0,3192.0,3089.6,4073.5555555555557,4069.9,305.2445,304.8615,315.10025,314.765,22.0263,20.662,22.0934,21.5094,314.999998,314.999998,324.999988,324.999988,99.55864285714286,99.50748333333334,99.57284285714286,99.54778571428571,0.10475000000000012,-0.04025000000000001,-0.38683333333333336,0.4196666666666667,-0.04999999999999716,-0.04142857142856826,1.6086666666666667,1.6,38.665,30.137666666666668,39.083,35.4335,55.736999999999995,35.548,61.4355,52.8575,53.682,34.6485,59.951,51.1895,52.832,34.1825,59.8365,50.606,-0.11099999999999999,-0.052999999999999936,0.3976428571428572,0.40161428571428576,0.0,216.64499999999998,216.66,213.58666666666667,213.58666666666667,0.0,0.0
29,0.0,1.0,0.0,1.0,1.0,0.0,0.0,1.0,0.0,100.0,1.0,1.1856,26.0,0.0,0.0,0.0,59.999996,0.0,26.0,26.0,26.0,26.0,0.038625,0.24090000000000011,-0.014566666666666667,291.58,-2.6639,-2.7175714285714285,-1.5659,-1.5436,-177.68,215.33249999999998,190.357,0.0,0.0,0.0,0.0,0.05856666666666666,-5.498166666666667,-5.498166666666667,-0.5895,-0.6545000000000001,-0.0016666666666669272,-0.7539999999999996,69.345,0.0115,-0.196725,-0.27200000000000024,100.0,1.0,1.0,213.83666666666667,0.0,0.0,0.0,0.0,0.0,0.0,0.0,9063.8,0.0,55.0,5.0,249.61666666666667,1.0,0.0,0.0,0.0,0.0,0.0,0.0,0.0,1.4579999999999984,1.4579999999999984,0.0,0.0,1.0,55.0,616.79921,10000.0,85.000001,85.000001,85.000001,85.000001,395.0,0.0,0.0,0.0,1.0,166.665,52.521,52.521,46.112,46.112,34.0,-22.6475,24.392,-43.6675,44.7075,0.0,1782.128,-0.4549999999999983,100.0,27.969,28.275,44.443,44.673,0.0,1.0,100.0,0.0,0.0,0.0,0.0,3087.142857142857,2989.1,4219.777777777777,4252.6,305.6185,305.14525,314.6245,314.257,22.0361,20.6679,22.1049,21.519199999999998,314.999998,314.999998,324.999988,324.999988,99.55865714285714,99.50748333333334,99.57301428571428,99.54797142857143,0.09474999999999989,-0.04049999999999998,-0.394,0.41583333333333333,-0.04999999999999716,-0.0357142857142847,1.524,1.521,38.724999999999994,30.174333333333333,39.155,35.495,55.723,35.5875,61.4805,52.9335,53.668,34.685,59.9935,51.2625,52.818,34.2175,59.875,50.67733333333334,-0.10899999999999999,-0.04300000000000015,0.3966857142857143,0.40225714285714287,0.0,217.075,217.07999999999998,213.83666666666667,213.83666666666667,0.0,0.0
30,0.0,1.0,0.0,1.0,1.0,0.0,0.0,1.0,0.0,100.0,1.0,1.1856,26.0,0.0,0.0,0.0,59.999996,0.0,26.0,26.0,26.0,26.0,0.04575,0.24550000000000005,0.0373,291.016,-2.7591,-2.7271428571428573,-1.5432000000000001,-1.5962,-174.56,215.33249999999998,190.333625,0.0,0.0,0.0,0.0,0.0604,-5.498166666666667,-5.498166666666667,-0.5977,0.501,0.004555555555555646,0.766,69.457,0.0108,-0.2043,-0.28799999999999937,100.0,1.0,1.0,214.31666666666666,0.0,0.0,0.0,0.0,0.0,0.0,0.0,9084.1,0.0,55.0,5.0,250.01999999999998,0.0,0.0,0.0,0.0,0.0,0.0,1.0,0.0,1.5030000000000001,1.5030000000000001,0.0,0.0,0.0,55.0,616.79921,10000.0,85.000001,85.000001,85.000001,85.000001,395.0,0.0,0.0,0.0,1.0,333.33500000000004,50.705,50.705,46.89,46.89,34.0,-25.9775,29.132,-39.2225,43.9925,0.0,1782.082,-0.46000000000000085,100.0,28.896,28.649,44.305,44.606,0.0,1.0,100.0,0.0,0.0,0.0,0.0,3440.4285714285716,3448.4,3984.0,4122.1,304.4635,304.0055,315.19475,314.646,22.0444,20.6731,22.1143,21.5274,314.999998,314.999998,324.999988,324.999988,99.55867142857143,99.5075,99.57315714285714,99.54811428571429,0.11249999999999982,-0.027000000000000024,-0.3733333333333334,0.434,-0.03999999999999915,-0.06857142857143117,1.588,1.5776666666666666,38.778,30.206666666666663,39.214,35.546,55.716,35.6235,61.5135,52.995,53.661,34.718,60.024,51.322,52.809,34.249,59.903,50.73533333333333,-0.12199999999999989,-0.04700000000000015,0.3874428571428572,0.4080142857142858,0.0,217.42000000000002,217.45,214.31666666666666,214.31666666666666,0.0,0.0
31,0.0,1.0,0.0,1.0,1.0,0.0,0.0,1.0,0.0,100.0,1.0,1.1856,26.0,0.0,0.0,0.0,59.999996,0.0,26.0,26.0,26.0,26.0,0.051875000000000004,0.25950000000000006,0.0682,290.375,-2.7752,-2.6228571428571428,-1.5483,-1.5357,-171.01,215.335,190.307625,0.0,0.0,0.0,0.0,0.06243333333333334,-5.498166666666667,-5.498166666666667,-0.5702,-0.1835,0.014333333333333309,-0.6079999999999997,69.59,0.0129,-0.19485000000000002,-0.29600000000000026,100.0,1.0,1.0,214.45,0.0,0.0,0.0,0.0,0.0,0.0,0.0,9089.8,0.0,55.0,5.0,250.49666666666667,1.0,0.0,0.0,0.0,0.0,0.0,1.0,0.0,1.5539999999999985,1.5539999999999985,0.0,0.0,1.0,55.0,616.79921,10000.0,85.000001,85.000001,85.000001,85.000001,395.0,0.0,0.0,0.0,1.0,166.665,51.407,51.407,44.785,44.785,34.0,-23.9925,25.537999999999997,-47.205,48.49,0.0,1782.032,-0.5150000000000006,100.0,28.779,29.101,44.949,45.345,0.0,1.0,100.0,0.0,0.0,0.0,0.0,3191.857142857143,3196.8,4550.333333333333,4530.8,305.3875,304.63825,313.93725,313.49725,22.0538,20.6789,22.1253,21.5368,314.999998,314.999998,324.999988,324.999988,99.55867142857143,99.5075,99.57332857142858,99.54828571428571,0.1067499999999999,-0.035499999999999976,-0.38349999999999995,0.41283333333333333,-0.030000000000001137,-0.03857142857143003,1.4716666666666667,1.4763333333333333,38.836,30.243000000000002,39.283,35.605000000000004,55.705,35.663,61.5575,53.07,53.650999999999996,34.754999999999995,60.0655,51.3935,52.798,34.2845,59.9405,50.80533333333334,-0.123,-0.04249999999999998,0.3884428571428572,0.3991714285714286,0.0,217.82,217.85000000000002,214.45,214.45,0.0,0.0
32,0.0,1.0,0.0,1.0,1.0,0.0,0.0,1.0,0.0,100.0,1.0,1.1856,26.0,0.0,0.0,0.0,59.999996,0.0,26.0,26.0,26.0,26.0,0.048625,0.26150000000000007,-0.021333333333333336,291.046,-2.7004,-2.684,-1.5817,-1.5430000000000001,-167.25,215.34,190.280875,0.0,0.0,0.0,0.0,0.06463333333333333,-5.498166666666667,-5.498166666666667,-0.5946,-0.38650000000000007,-0.007777777777777661,-1.049,69.723,0.0184,-0.22080000000000002,-0.4139999999999997,100.0,1.0,1.0,215.05666666666667,0.0,0.0,0.0,0.0,0.0,0.0,0.0,9115.5,0.0,55.0,5.0,250.97666666666666,0.0,0.0,0.0,0.0,0.0,0.0,1.0,0.0,1.6080000000000005,1.6080000000000005,0.0,0.0,0.0,55.0,616.79921,10000.0,85.000001,85.000001,85.000001,85.000001,395.0,0.0,0.0,0.0,1.0,166.665,51.605000000000004,51.605000000000004,45.99,45.99,34.0,-23.09,25.266,-41.45,44.58,0.0,1781.978,-0.4800000000000004,100.0,28.674,29.008,44.863,45.171,0.0,1.0,100.0,0.0,0.0,0.0,0.0,3180.142857142857,3074.1,4118.888888888889,4235.8,305.32,304.9225,314.8745,314.41375,22.0635,20.685,22.1367,21.5467,314.999998,314.999998,324.999988,324.999988,99.5587,99.5075,99.5735,99.54845714285715,0.11149999999999993,-0.030749999999999944,-0.374,0.42783333333333334,-0.045000000000001705,-0.0357142857142847,1.572,1.5603333333333333,38.897,30.281,39.355000000000004,35.667,55.694,35.704499999999996,61.599000000000004,53.144999999999996,53.64,34.7935,60.104,51.4655,52.786,34.321,59.9755,50.87533333333333,-0.125,-0.045500000000000096,0.39107142857142857,0.40745714285714285,0.0,218.23000000000002,218.235,215.05666666666667,215.05666666666667,0.0,0.0
33,0.0,1.0,0.0,1.0,1.0,0.0,0.0,1.0,0.0,100.0,1.0,1.1856,26.0,0.0,0.0,0.0,59.999996,0.0,26.0,26.0,26.0,26.0,0.036375,0.24520000000000008,-0.0731,291.351,-2.7235,-2.697714285714286,-1.58515,-1.5835000000000001,-164.11,215.345,190.257625,0.0,0.0,0.0,0.0,0.06646666666666666,-5.498166666666667,-5.498166666666667,-0.6031000000000001,-0.13200000000000012,-0.009111111111111292,0.8780000000000001,69.83500000000001,0.021400000000000002,-0.20405,-0.4479999999999995,100.0,1.0,1.0,215.43,0.0,0.0,0.0,0.0,0.0,0.0,0.0,9131.3,0.0,55.0,5.0,251.38,1.0,0.0,0.0,0.0,0.0,0.0,1.0,0.0,1.6529999999999987,1.6529999999999987,0.0,0.0,1.0,55.0,616.79921,10000.0,85.000001,85.000001,85.000001,85.000001,395.0,0.0,0.0,0.0,1.0,333.33500000000004,51.941,51.941,46.265,46.265,34.0,-22.2525,25.59,-40.8425,44.75,0.0,1781.932,-0.46000000000000085,100.0,28.683,28.691,44.699,44.873000000000005,0.0,1.0,100.0,0.0,0.0,0.0,0.0,3055.857142857143,3093.8,4087.6666666666665,4164.5,305.5875,305.0085,314.95825,314.60675,22.0716,20.6899,22.1462,21.5548,314.999998,314.999998,324.999988,324.999988,99.55871428571429,99.5075,99.57364285714286,99.54861428571428,0.11450000000000005,-0.026000000000000023,-0.3696666666666666,0.4431666666666667,-0.045000000000001705,-0.05142857142856627,1.585,1.5713333333333335,38.948,30.311999999999998,39.414,35.7175,55.684,35.7375,61.6325,53.2055,53.631,34.823499999999996,60.135,51.5235,52.775999999999996,34.35,60.0035,50.932,-0.11850000000000005,-0.04349999999999987,0.3929714285714286,0.40472857142857144,0.0,218.575,218.60000000000002,215.43,215.43,0.0,0.0
34,0.0,1.0,0.0,1.0,1.0,0.0,0.0,1.0,0.0,100.0,1.0,1.1856,26.0,0.0,0.0,0.0,59.999996,0.0,26.0,26.0,26.0,26.0,0.058625000000000003,0.25680000000000014,-0.041100000000000005,291.428,-2.6727,-2.6705714285714284,-1.6409,-1.5619,-160.55,215.35,190.22975,0.0,0.0,0.0,0.0,0.06853333333333333,-5.498166666666667,-5.498166666666667,-0.6249,-0.8475000000000001,0.01444444444444426,-0.274,69.963,0.0222,-0.203375,-0.29600000000000026,100.0,1.0,1.0,215.7733333333333,0.0,0.0,0.0,0.0,0.0,0.0,0.0,9145.8,0.0,55.0,5.0,251.84,0.0,0.0,0.0,0.0,0.0,0.0,1.0,0.0,1.7040000000000006,1.7040000000000006,0.0,0.0,0.0,55.0,616.79921,10000.0,85.000001,85.000001,85.000001,85.000001,395.0,0.0,0.0,0.0,1.0,166.665,52.231,52.231,46.402,46.402,34.0,-21.84,24.404,-42.3375,44.6425,0.0,1781.882,-0.46999999999999886,100.0,28.262,28.559,44.506,45.077,0.0,1.0,100.0,0.0,0.0,0.0,0.0,3079.0,2990.6,4145.555555555556,4190.5,305.5685,305.141,314.9055,314.43375,22.0807,20.6955,22.1569,21.5641,314.999998,314.999998,324.999988,324.999988,99.55872857142857,99.5075,99.57381428571429,99.54878571428571,0.11649999999999983,-0.03125,-0.3733333333333334,0.4301666666666667,-0.04333333333332945,-0.054285714285711606,1.566,1.5466666666666666,39.004999999999995,30.346666666666664,39.480999999999995,35.775999999999996,55.672,35.772999999999996,61.670500000000004,53.2765,53.619,34.857,60.17,51.592,52.763,34.382,60.035,50.999,-0.119,-0.04899999999999993,0.3908714285714286,0.40672857142857144,0.0,218.965,218.98000000000002,215.7733333333333,215.7733333333333,0.0,0.0
35,0.0,1.0,0.0,1.0,1.0,0.0,0.0,1.0,0.0,100.0,1.0,1.1856,26.0,0.0,0.0,0.0,59.999996,0.0,26.0,26.0,26.0,26.0,0.047,0.24260000000000015,-0.062266666666666665,291.534,-2.8025,-2.6511428571428572,-1.5362,-1.5728,-156.76,215.35750000000002,190.198375,0.0,0.0,0.0,0.0,0.07073333333333334,-5.498166666666667,-5.498166666666667,-0.6663,-0.08699999999999997,-0.0016666666666669272,-1.3199999999999998,70.095,0.0241,-0.21455000000000002,-0.34999999999999964,100.0,1.0,1.0,216.29333333333335,0.0,0.0,0.0,0.0,0.0,0.0,0.0,9167.8,0.0,55.0,5.0,252.31666666666666,1.0,0.0,0.0,0.0,0.0,0.0,1.0,0.0,1.7579999999999991,1.7579999999999991,0.0,0.0,1.0,55.0,616.79921,10000.0,85.000001,85.000001,85.000001,85.000001,395.0,0.0,0.0,0.0,1.0,166.665,51.727000000000004,51.727000000000004,46.341,46.341,34.0,-24.3475,26.637999999999998,-39.5675,41.8125,0.0,1781.828,-0.3299999999999983,100.0,28.071,28.818,44.223,44.601,0.0,1.0,100.0,0.0,0.0,0.0,0.0,3192.714285714286,3265.5,4076.4444444444443,3974.5,305.3005,304.337,315.0955,315.10975,22.0903,20.7016,22.1682,21.5738,314.999998,314.999998,324.999988,324.999988,99.55874285714286,99.50751666666666,99.57398571428571,99.54897142857143,0.10775000000000023,-0.03400000000000003,-0.36749999999999994,0.44,-0.04833333333333201,-0.04142857142856826,1.6276666666666668,1.5976666666666666,39.064,30.384999999999998,39.551,35.8365,55.658,35.814499999999995,61.709,53.348,53.605999999999995,34.894999999999996,60.206,51.6605,52.748999999999995,34.4185,60.067499999999995,51.066,-0.10699999999999998,-0.05600000000000005,0.3870714285714286,0.40521428571428575,0.0,219.385,219.39,216.29333333333335,216.29333333333335,0.0,0.0
