,ABS Active,ABS Enabled,AID Allow Tire Blankets,AID Auto Blip,AID Auto Clutch,AID Auto Shift,AID Fuel Rate,AID Ideal Line,AID Mech Damage,AID Stability,AID Tire Wear Rate,Air Density,Air Temp,Ballast,Best Lap Delta,Best Lap Time,Brake Bias,Brake Pos,Brake Temp FL,Brake Temp FR,Brake Temp RL,Brake Temp RR,CG Accel Lateral,CG Accel Longitudinal,CG Accel Vertical,CG Height,Camber FL,Camber FR,Camber RL,Camber RR,Car Coord X,Car Coord Y,Car Coord Z,Car Damage Front,Car Damage Left,Car Damage Rear,Car Damage Right,Car Pos Norm,Caster FL,Caster FR,Chassis Pitch Angle,Chassis Pitch Rate,Chassis Roll Angle,Chassis Roll Rate,Chassis Velocity X,Chassis Velocity Y,Chassis Velocity Z,Chassis Yaw Rate,Clutch Pos,DRS Active,DRS Available,Drive Train Speed,ERS Heat Charging,ERS Is Charging,ERS Max Energy,ERS Power Level,ERS Recovery Level,Engine Brake Setting,Engine Limiter,Engine RPM,Flags,Fuel Level,Gear,Ground Speed,HR Sample Clock,In Pit,KERS Charge,KERS Deployed Energy,KERS Input,KERS Max Energy,LR Sample Clock,Lap Invalidated,Lap Time,Lap Time2,Last Lap Time,Last Sector Time,MR Sample Clock,Max Fuel,Max Power,Max RPM,Max Sus Travel FL,Max Sus Travel FR,Max Sus Travel RL,Max Sus Travel RR,Max Torque,Max Turbo Boost,Num Tires Off Track,Penalties Enabled,Position,Raw Data Sample Rate,Ride Height FL,Ride Height FR,Ride Height RL,Ride Height RR,Road Temp,Self Align Torque FL,Self Align Torque FR,Self Align Torque RL,Self Align Torque RR,Session Lap Count,Session Time Left,Steering Angle,Surface Grip,Suspension Travel FL,Suspension Travel FR,Suspension Travel RL,Suspension Travel RR,TC Active,TC Enabled,Throttle Pos,Tire Dirt Level FL,Tire Dirt Level FR,Tire Dirt Level RL,Tire Dirt Level RR,Tire Load FL,Tire Load FR,Tire Load RL,Tire Load RR,Tire Loaded Radius FL,Tire Loaded Radius FR,Tire Loaded Radius RL,Tire Loaded Radius RR,Tire Pressure FL,Tire Pressure FR,Tire Pressure RL,Tire Pressure RR,Tire Radius FL,Tire Radius FR,Tire Radius RL,Tire Radius RR,Tire Rubber Grip FL,Tire Rubber Grip FR,Tire Rubber Grip RL,Tire Rubber Grip RR,Tire Slip Angle FL,Tire Slip Angle FR,Tire Slip Angle RL,Tire Slip Angle RR,Tire Slip Ratio FL,Tire Slip Ratio FR,Tire Slip Ratio RL,Tire Slip Ratio RR,Tire Temp Core FL,Tire Temp Core FR,Tire Temp Core RL,Tire Temp Core RR,Tire Temp Inner FL,Tire Temp Inner FR,Tire Temp Inner RL,Tire Temp Inner RR,Tire Temp Middle FL,Tire Temp Middle FR,Tire Temp Middle RL,Tire Temp Middle RR,Tire Temp Outer FL,Tire Temp Outer FR,Tire Temp Outer RL,Tire Temp Outer RR,Toe In FL,Toe In FR,Toe In RL,Toe In RR,Turbo Boost,Wheel Angular Speed FL,Wheel Angular Speed FR,Wheel Angular Speed RL,Wheel Angular Speed RR,Wind Direction,Wind Speed
0,0.0,0.0,0.0,1.0,1.0,0.0,0.0,1.0,0.0,0.0,1.0,1.1856,26.0,0.0,0.0,0.0,59.99999,0.0,26.0,26.0,26.0,26.0,-0.03822222222222216,0.31889999999999996,0.21527500000000002,293.152,-2.7881,-2.62325,-1.55495,-1.5122,-275.62,215.565,190.987125,0.0,0.0,0.0,0.0,0.0016333333333333332,-5.498166666666667,-5.498166666666667,-0.5581,2.058,-0.007000000000000117,-1.141,65.512,-0.0285,-0.221675,0.12600000000000033,100.0,1.0,1.0,202.24666666666667,0.0,0.0,0.0,0.0,0.0,0.0,0.0,8572.5,0.0,55.0,5.0,235.81666666666666,0.0,0.0,0.0,0.0,0.0,0.0,0.0,0.0,0.0030000000000001137,0.0030000000000001137,0.0,0.0,0.0,55.0,616.79921,10000.0,85.0,85.0,85.0,85.0,395.0,0.0,0.0,0.0,1.0,20.0,50.888,50.888,48.614,48.614,34.0,-29.557499999999997,32.212,-29.826666666666668,25.96,0.0,1783.402,0.21000000000000085,100.0,27.337,27.365000000000002,40.343,40.146,0.0,0.0,100.0,0.0,0.0,0.0,0.0,3343.714285714286,4277.0,4160.0,4097.3,304.687,301.5246666666667,314.7735,314.6065,21.7807,20.5129,21.7606,21.306,314.99999,314.99999,324.99998,324.99998,99.55921428571429,99.50716666666666,99.56478571428572,99.54491428571428,0.02024999999999988,-0.08574999999999999,-0.13416666666666666,0.07850000000000001,-0.05833333333333002,-0.05833333333333002,1.5525,1.537,37.129000000000005,29.205666666666666,37.004000000000005,34.1625,56.397999999999996,34.4925,58.9285,51.5185,54.303,33.6535,57.5595,49.882999999999996,53.465,33.2055,57.522999999999996,49.311,-0.06349999999999989,-0.09350000000000014,0.09732,0.10833000000000001,0.0,205.305,205.26999999999998,202.24666666666667,202.24666666666667,0.0,0.0
1,0.0,0.0,0.0,1.0,1.0,0.0,0.0,1.0,0.0,0.0,1.0,1.1856,26.0,0.0,0.0,0.0,59.999996,0.0,26.0,26.0,26.0,26.0,-0.06388888888888888,0.3348,0.16087500000000002,292.404,-2.6509,-2.7047499999999998,-1.5982,-1.3779,-272.28,215.565,190.967125,0.0,0.0,0.0,0.0,0.0035666666666666668,-5.498166666666667,-5.498166666666667,-0.47540000000000004,-1.6705,-0.048555555555555685,-0.06999999999999984,65.67099999999999,-0.024900000000000002,-0.179975,0.6620000000000008,100.0,1.0,1.0,202.17333333333335,0.0,0.0,0.0,0.0,0.0,0.0,0.0,8569.3,0.0,55.0,5.0,236.38333333333333,1.0,0.0,0.0,0.0,0.0,0.0,0.0,0.0,0.053999999999998494,0.053999999999998494,0.0,0.0,1.0,55.0,616.79921,10000.0,85.000001,85.000001,85.000001,85.000001,395.0,0.0,0.0,0.0,1.0,166.665,54.306,54.306,47.363,47.363,34.0,-22.505,16.857999999999997,-38.18666666666667,33.644999999999996,0.0,1783.351,0.40000000000000213,100.0,27.54,27.099,42.484,42.903,0.0,0.0,100.0,0.0,0.0,0.0,0.0,2807.4285714285716,2445.9,4757.25,5310.4,306.2815,307.03066666666666,313.095,311.2955,21.790399999999998,20.5179,21.7716,21.3153,314.999998,314.999998,324.999988,324.999988,99.55922857142858,99.50718333333333,99.56492857142857,99.54507142857143,0.034250000000000114,-0.10575000000000001,-0.14649999999999996,0.06816666666666671,-0.03999999999999915,-0.03166666666666629,1.305,1.32,37.19,29.236666666666665,37.072,34.2205,56.379999999999995,34.528999999999996,58.977000000000004,51.588499999999996,54.286,33.6875,57.605000000000004,49.9505,53.447,33.2385,57.566,49.376999999999995,-0.04149999999999987,-0.11050000000000004,0.10938,0.11878500000000002,0.0,205.72,205.675,202.17333333333335,202.17333333333335,0.0,0.0
2,0.0,0.0,0.0,1.0,1.0,0.0,0.0,1.0,0.0,0.0,1.0,1.1856,26.0,0.0,0.0,0.0,59.999996,0.0,26.0,26.0,26.0,26.0,-0.07555555555555549,0.27780000000000005,-0.09720000000000001,293.915,-2.6385,-2.652625,-1.5686499999999999,-1.5133,-268.92,215.565,190.948375,0.0,0.0,0.0,0.0,0.005533333333333334,-5.498166666666667,-5.498166666666667,-0.5764,0.635,-0.0021111111111111747,1.593,65.805,-0.031,-0.2731,0.8960000000000008,100.0,1.0,1.0,203.58333333333331,0.0,0.0,0.0,0.0,0.0,0.0,0.0,8629.2,0.0,55.0,5.0,236.87,0.0,0.0,0.0,0.0,0.0,0.0,0.0,0.0,0.10500000000000043,0.10500000000000043,0.0,0.0,0.0,55.0,616.79921,10000.0,85.000001,85.000001,85.000001,85.000001,395.0,0.0,0.0,0.0,1.0,333.33500000000004,51.894999999999996,51.894999999999996,50.842,50.842,34.0,-28.872500000000002,21.588,-25.13,18.85,0.0,1783.299,0.5,100.0,28.15,27.551000000000002,41.784,41.641999999999996,0.0,0.0,100.0,0.0,0.0,0.0,0.0,3375.4285714285716,3118.6,3502.625,3370.6,304.548,304.68766666666664,316.31875,316.53325,21.8005,20.523,21.7818,21.3237,314.999998,314.999998,324.999988,324.999988,99.55922857142858,99.50718333333333,99.56508571428571,99.5452,0.012249999999999872,-0.11924999999999997,-0.1708333333333334,0.06133333333333324,-0.05666666666667197,-0.06499999999999773,1.756,1.8054999999999999,37.253,29.269,37.135999999999996,34.2735,56.364999999999995,34.572,59.0135,51.6415,54.272,33.7265,57.638999999999996,50.001,53.432,33.275999999999996,57.597,49.427,-0.03949999999999987,-0.11750000000000016,0.10386500000000001,0.107965,0.0,206.195,206.11,203.58333333333331,203.58333333333331,0.0,0.0
3,0.0,0.0,0.0,1.0,1.0,0.0,0.0,1.0,0.0,0.0,1.0,1.1856,26.0,0.0,0.0,0.0,59.999996,0.0,26.0,26.0,26.0,26.0,-0.08066666666666666,0.2833000000000001,-0.028450000000000003,293.06,-2.6637,-2.679625,-1.5491000000000001,-1.4809,-265.76,215.565,190.929125,0.0,0.0,0.0,0.0,0.007366666666666667,-5.498166666666667,-5.498166666666667,-0.502,0.6895,0.005222222222222239,-2.232,65.95400000000001,-0.043300000000000005,-0.18882500000000002,0.7479999999999993,100.0,1.0,1.0,203.36,0.0,0.0,0.0,0.0,0.0,0.0,0.0,8619.7,0.0,55.0,5.0,237.40333333333334,1.0,0.0,0.0,0.0,0.0,0.0,0.0,0.0,0.1529999999999987,0.1529999999999987,0.0,0.0,1.0,55.0,616.79921,10000.0,85.000001,85.000001,85.000001,85.000001,395.0,0.0,0.0,0.0,1.0,333.33500000000004,53.314,53.314,47.592,47.592,34.0,-24.1425,19.555999999999997,-35.28,26.6575,0.0,1783.251,0.5949999999999989,100.0,27.775,27.572,41.966,42.055,0.0,0.0,100.0,0.0,0.0,0.0,0.0,2870.142857142857,2860.5,4531.125,4324.5,306.1855,305.5156666666667,313.81975,313.95825,21.8097,20.5281,21.7916,21.3322,314.999998,314.999998,324.999988,324.999988,99.55922857142858,99.5072,99.5652,99.54532857142857,0.006750000000000256,-0.124,-0.16233333333333333,0.05950000000000011,-0.04833333333333201,-0.030000000000001137,1.4375,1.4535,37.311,29.300333333333334,37.197,34.326499999999996,56.349000000000004,34.609,59.05,51.701499999999996,54.256,33.760999999999996,57.6725,50.0585,53.416,33.309,57.628,49.483666666666664,-0.03349999999999986,-0.12150000000000016,0.1121,0.103535,0.0,206.685,206.59,203.36,203.36,0.0,0.0
4,0.0,0.0,0.0,1.0,1.0,0.0,0.0,1.0,0.0,0.0,1.0,1.1856,26.0,0.0,0.0,0.0,59.999996,0.0,26.0,26.0,26.0,26.0,-0.08877777777777784,0.2924,0.004775000000000001,293.427,-2.6558,-2.747875,-1.4849,-1.5974,-262.19,215.56,190.908625,0.0,0.0,0.0,0.0,0.009433333333333334,-5.498166666666667,-5.498166666666667,-0.534,-0.847,-0.05133333333333345,-0.7509999999999999,66.108,-0.0506,-0.23665,1.1660000000000004,100.0,1.0,1.0,204.05333333333334,0.0,0.0,0.0,0.0,0.0,0.0,0.0,8649.0,0.0,55.0,5.0,237.96,0.0,0.0,0.0,0.0,0.0,0.0,0.0,0.0,0.20700000000000074,0.20700000000000074,0.0,0.0,0.0,55.0,616.79921,10000.0,85.000001,85.000001,85.000001,85.000001,395.0,0.0,0.0,0.0,1.0,166.665,53.055,53.055,48.737,48.737,34.0,-28.21,19.554000000000002,-30.64333333333333,23.1575,0.0,1783.198,0.629999999999999,100.0,27.652,27.116,42.769999999999996,42.088,0.0,0.0,100.0,0.0,0.0,0.0,0.0,3228.714285714286,2858.6,4097.125,3812.9,305.125,305.63033333333334,314.85875,315.31675,21.8201,20.5334,21.8029,21.3416,314.999998,314.999998,324.999988,324.999988,99.55922857142858,99.50721666666666,99.56535714285714,99.54548571428572,-0.006750000000000034,-0.13549999999999995,-0.17766666666666664,0.04616666666666669,-0.036666666666668846,-0.036666666666668846,1.554,1.5945,37.376000000000005,29.334,37.268,34.3855,56.33,34.650999999999996,59.095,51.765,54.239000000000004,33.8,57.715,50.1195,53.397999999999996,33.3465,57.667500000000004,49.543,-0.020000000000000018,-0.13249999999999984,0.10644,0.10968000000000001,0.0,207.07999999999998,206.99,204.05333333333334,204.05333333333334,0.0,0.0
5,0.0,0.0,0.0,1.0,1.0,0.0,0.0,1.0,0.0,0.0,1.0,1.1856,26.0,0.0,0.0,0.0,59.999996,0.0,26.0,26.0,26.0,26.0,-0.08999999999999997,0.30879999999999996,-0.047,293.73199999999997,-2.6755,-2.705375,-1.5357500000000002,-1.5886,-259.02,215.555,190.89,0.0,0.0,0.0,0.0,0.011300000000000001,-5.498166666666667,-5.498166666666667,-0.5406000000000001,0.5265,-0.03733333333333322,-0.4630000000000001,66.244,-0.06910000000000001,-0.22565000000000002,1.1660000000000004,100.0,1.0,1.0,204.56,0.0,0.0,0.0,0.0,0.0,0.0,0.0,8670.5,0.0,55.0,5.0,238.45333333333332,1.0,0.0,0.0,0.0,0.0,0.0,0.0,0.0,0.254999999999999,0.254999999999999,0.0,0.0,1.0,55.0,616.79921,10000.0,85.000001,85.000001,85.000001,85.000001,395.0,0.0,0.0,0.0,1.0,166.665,53.192,53.192,49.301,49.301,34.0,-27.4825,20.004,-30.576666666666668,22.84,0.0,1783.15,0.23000000000000043,100.0,27.618,27.017,42.345,41.538,0.0,0.0,100.0,0.0,0.0,0.0,0.0,3154.714285714286,2886.8,3941.875,3915.3,305.2845,305.4836666666667,315.2765,315.12375,21.8295,20.5383,21.8126,21.3498,314.999998,314.999998,324.999988,324.999988,99.55924285714286,99.50723333333333,99.56548571428571,99.54561428571428,-0.0009999999999998899,-0.12224999999999997,-0.19633333333333336,0.030333333333333323,-0.0899999999999963,-0.061666666666667425,1.58,1.629,37.434,29.364333333333335,37.329,34.4365,56.316,34.689499999999995,59.1305,51.819,54.224999999999994,33.835499999999996,57.748,50.1715,53.382999999999996,33.379999999999995,57.6975,49.594,-0.044499999999999984,-0.09750000000000014,0.101915,0.11615500000000001,0.0,207.575,207.47500000000002,204.56,204.56,0.0,0.0
6,0.0,0.0,0.0,1.0,1.0,0.0,0.0,1.0,0.0,0.0,1.0,1.1856,26.0,0.0,0.0,0.0,59.999996,0.0,26.0,26.0,26.0,26.0,-0.09877777777777785,0.30879999999999996,0.023975,293.503,-2.6555,-2.7803750000000003,-1.5178500000000001,-1.5662,-255.82999999999998,215.54500000000002,190.8705,0.0,0.0,0.0,0.0,0.013133333333333335,-5.498166666666667,-5.498166666666667,-0.5257000000000001,-0.16549999999999998,-0.05655555555555569,-1.045,66.386,-0.07400000000000001,-0.203875,0.8399999999999999,100.0,1.0,1.0,204.79666666666668,0.0,0.0,0.0,0.0,0.0,0.0,0.0,8680.5,0.0,55.0,5.0,238.96,0.0,0.0,0.0,0.0,0.0,0.0,0.0,0.0,0.3030000000000008,0.3030000000000008,0.0,0.0,0.0,55.0,616.79921,10000.0,85.000001,85.000001,85.000001,85.000001,395.0,0.0,0.0,0.0,1.0,166.665,53.665,53.665,48.477000000000004,48.477000000000004,34.0,-27.6875,19.374000000000002,-33.8,23.93,0.0,1783.102,0.33000000000000185,100.0,27.337,26.672,42.575,41.706,0.0,0.0,100.0,0.0,0.0,0.0,0.0,3180.714285714286,2768.3,4297.125,4055.7,305.261,305.84233333333333,314.372,314.7225,21.8387,20.5431,21.822499999999998,21.3582,314.999998,314.999998,324.999988,324.999988,99.55924285714286,99.50723333333333,99.56562857142858,99.54574285714286,-0.00550000000000006,-0.13024999999999998,-0.1895,0.02933333333333321,-0.054999999999999716,-0.036666666666668846,1.506,1.524,37.492000000000004,29.394333333333336,37.39,34.489,56.299,34.7265,59.17,51.876999999999995,54.21,33.869,57.7845,50.2275,53.367000000000004,33.4125,57.7315,49.648666666666664,-0.04800000000000004,-0.09250000000000025,0.10355500000000001,0.10858500000000001,0.0,207.965,207.875,204.79666666666668,204.79666666666668,0.0,0.0
7,0.0,0.0,0.0,1.0,1.0,0.0,0.0,1.0,0.0,0.0,1.0,1.1856,26.0,0.0,0.0,0.0,59.999996,0.0,26.0,26.0,26.0,26.0,-0.09077777777777785,0.27859999999999996,-0.014575000000000001,293.51800000000003,-2.6179,-2.780875,-1.5688,-1.6123,-252.44,215.535,190.85,0.0,0.0,0.0,0.0,0.0151,-5.498166666666667,-5.498166666666667,-0.5333,0.10449999999999993,-0.0425555555555559,1.1630000000000003,66.53,-0.0742,-0.2162,0.5760000000000005,100.0,1.0,1.0,205.33666666666667,0.0,0.0,0.0,0.0,0.0,0.0,0.0,8703.4,0.0,55.0,5.0,239.4766666666667,1.0,0.0,0.0,0.0,0.0,0.0,0.0,0.0,0.3539999999999992,0.3539999999999992,0.0,0.0,1.0,55.0,616.79921,10000.0,85.000001,85.000001,85.000001,85.000001,395.0,0.0,0.0,0.0,1.0,166.665,53.284,53.284,48.782,48.782,34.0,-25.28,22.148,-32.373333333333335,24.415,0.0,1783.051,-0.11499999999999844,100.0,27.785,26.733,42.692,41.658,0.0,0.0,100.0,0.0,0.0,0.0,0.0,3068.857142857143,2953.4,4073.875,3993.3,305.3895,305.43666666666667,314.895,314.94175,21.8486,20.5483,21.8329,21.3671,314.999998,314.999998,324.999988,324.999988,99.55925714285715,99.50725,99.56577142857142,99.54588571428572,0.02450000000000019,-0.09450000000000003,-0.1921666666666666,0.03966666666666674,-0.04833333333333201,-0.061666666666667425,1.538,1.5614999999999999,37.554,29.427,37.456,34.5445,56.284,34.7665,59.21,51.937,54.195,33.906,57.822,50.2845,53.352000000000004,33.448,57.766,49.70466666666667,-0.08199999999999985,-0.06150000000000011,0.11078,0.10317000000000001,0.0,208.41,208.35000000000002,205.33666666666667,205.33666666666667,0.0,0.0
8,0.0,0.0,0.0,1.0,1.0,0.0,0.0,1.0,0.0,0.0,1.0,1.1856,26.0,0.0,0.0,0.0,59.999996,0.0,26.0,26.0,26.0,26.0,-0.04733333333333334,0.28580000000000005,-0.031225000000000003,293.549,-2.7028,-2.706875,-1.5483,-1.6026,-249.05,215.5225,190.829375,0.0,0.0,0.0,0.0,0.017066666666666667,-5.498166666666667,-5.498166666666667,-0.5365,-0.16349999999999998,-0.03311111111111131,-0.996,66.674,-0.059800000000000006,-0.2184,0.3279999999999994,100.0,1.0,1.0,205.76333333333332,0.0,0.0,0.0,0.0,0.0,0.0,0.0,8721.5,0.0,55.0,5.0,240.0,0.0,0.0,0.0,0.0,0.0,0.0,0.0,0.0,0.40500000000000114,0.40500000000000114,0.0,0.0,0.0,55.0,616.79921,10000.0,85.000001,85.000001,85.000001,85.000001,395.0,0.0,0.0,0.0,1.0,333.33500000000004,53.375,53.375,48.553,48.553,34.0,-26.1725,21.490000000000002,-31.043333333333333,24.4625,0.0,1782.999,-0.16999999999999815,100.0,27.295,26.987000000000002,42.595,41.937,0.0,0.0,100.0,0.0,0.0,0.0,0.0,3117.5714285714284,2945.0,4063.125,3955.4,305.4725,305.305,314.9785,314.9485,21.8584,20.5536,21.8434,21.3761,314.999998,314.999998,324.999988,324.999988,99.55925714285715,99.50726666666667,99.56591428571429,99.54602857142856,0.025250000000000217,-0.09775,-0.17516666666666658,0.04683333333333328,-0.054999999999999716,-0.05833333333333002,1.5455,1.5635,37.614999999999995,29.459666666666664,37.521,34.6005,56.268,34.806,59.2495,51.9985,54.179,33.942499999999995,57.859,50.3435,53.336,33.483000000000004,57.8,49.76233333333333,-0.08549999999999991,-0.05449999999999999,0.10829000000000001,0.10641500000000001,0.0,208.845,208.805,205.76333333333332,205.76333333333332,0.0,0.0
9,0.0,0.0,0.0,1.0,1.0,0.0,0.0,1.0,0.0,0.0,1.0,1.1856,26.0,0.0,0.0,0.0,59.999996,0.0,26.0,26.0,26.0,26.0,-0.03266666666666662,0.28370000000000006,-0.003575,293.289,-2.6257,-2.721625,-1.55105,-1.5585,-245.84,215.5075,190.809625,0.0,0.0,0.0,0.0,0.018933333333333337,-5.498166666666667,-5.498166666666667,-0.5334,0.2005,-0.03977777777777769,-0.597,66.811,-0.0475,-0.211425,0.08200000000000074,100.0,1.0,1.0,206.16666666666669,0.0,0.0,0.0,0.0,0.0,0.0,0.0,8738.6,0.0,55.0,5.0,240.48666666666668,1.0,0.0,0.0,0.0,0.0,0.0,0.0,0.0,0.4529999999999994,0.4529999999999994,0.0,0.0,1.0,55.0,616.79921,10000.0,85.000001,85.000001,85.000001,85.000001,395.0,0.0,0.0,0.0,1.0,166.665,53.04,53.04,48.676,48.676,34.0,-25.41,22.618,-30.599999999999998,25.84,0.0,1782.953,-0.34999999999999787,100.0,27.538,27.082,42.533,41.995000000000005,0.0,0.0,100.0,0.0,0.0,0.0,0.0,3216.714285714286,2956.5,4094.75,4076.7,305.1585,305.28066666666666,314.8945,314.6955,21.8676,20.5585,21.8532,21.3845,314.999998,314.999998,324.999988,324.999988,99.55925714285715,99.50728333333333,99.56604285714286,99.54615714285714,0.04925000000000024,-0.07499999999999996,-0.15883333333333338,0.06699999999999995,-0.041666666666671404,-0.051666666666669414,1.5455,1.5434999999999999,37.673,29.490666666666666,37.582,34.653,56.254000000000005,34.8425,59.286500000000004,52.055,54.166,33.9765,57.8935,50.3975,53.322,33.5155,57.8315,49.815333333333335,-0.10549999999999993,-0.047499999999999876,0.108355,0.11089500000000001,0.0,209.25,209.24,206.16666666666669,206.16666666666669,0.0,0.0
10,0.0,0.0,0.0,1.0,1.0,0.0,0.0,1.0,0.0,0.0,1.0,1.1856,26.0,0.0,0.0,0.0,59.999996,0.0,26.0,26.0,26.0,26.0,-0.009333333333333305,0.2882,0.00045000000000000004,293.213,-2.6856,-2.6946250000000003,-1.5145,-1.5416,-242.23,215.49,190.787625,0.0,0.0,0.0,0.0,0.021033333333333334,-5.498166666666667,-5.498166666666667,-0.53,-0.3480000000000001,-0.013111111111111295,-0.08499999999999996,66.964,-0.028,-0.21345,-0.13600000000000012,100.0,1.0,1.0,206.56,0.0,0.0,0.0,0.0,0.0,0.0,0.0,8755.3,0.0,55.0,5.0,241.04000000000002,0.0,0.0,0.0,0.0,0.0,0.0,1.0,0.0,0.5069999999999979,0.5069999999999979,0.0,0.0,0.0,55.0,616.79921,10000.0,85.000001,85.000001,85.000001,85.000001,395.0,0.0,0.0,0.0,1.0,166.665,53.314,53.314,48.37,48.37,34.0,-24.4675,22.276,-29.96,27.712500000000002,0.0,1782.898,-0.41000000000000014,100.0,27.464,27.094,42.633,42.353,0.0,0.0,100.0,0.0,0.0,0.0,0.0,3087.714285714286,2942.2,4138.875,4187.4,305.5625,305.34766666666667,314.7945,314.38275,21.878,20.5641,21.8643,21.394,314.999998,314.999998,324.999988,324.999988,99.55927142857144,99.5073,99.5662,99.54631428571429,0.05575000000000019,-0.07399999999999995,-0.1456666666666666,0.08699999999999997,-0.06833333333332803,-0.045000000000001705,1.5175,1.5105,37.736999999999995,29.525666666666666,37.652,34.713,56.239000000000004,34.8825,59.329,52.121,54.152,34.0135,57.933,50.461,53.306,33.551,57.868,49.87733333333333,-0.10799999999999987,-0.04400000000000004,0.110515,0.11000000000000001,0.0,209.72,209.715,206.56,206.56,0.0,0.0
11,0.0,0.0,0.0,1.0,1.0,0.0,0.0,1.0,0.0,0.0,1.0,1.1856,26.0,0.0,0.0,0.0,59.999996,0.0,26.0,26.0,26.0,26.0,-0.005111111111111066,0.28070000000000017,-0.035425000000000005,293.503,-2.6895,-2.692875,-1.5687,-1.5163,-238.81,215.475,190.766625,0.0,0.0,0.0,0.0,0.022600000000000002,-5.498166666666667,-5.498166666666667,-0.5513,-0.16399999999999992,0.013333333333333197,0.8839999999999999,67.105,-0.0131,-0.2237,-0.35799999999999965,100.0,1.0,1.0,207.11,0.0,0.0,0.0,0.0,0.0,0.0,0.0,8778.6,0.0,55.0,5.0,241.55,1.0,0.0,0.0,0.0,0.0,0.0,1.0,0.0,0.5579999999999998,0.5579999999999998,0.0,0.0,1.0,55.0,616.79921,10000.0,85.000001,85.000001,85.000001,85.000001,395.0,0.0,0.0,0.0,1.0,166.665,53.223,53.223,48.888999999999996,48.888999999999996,34.0,-22.884999999999998,25.214,-26.713333333333335,27.53,0.0,1782.848,-0.5249999999999986,100.0,27.369,27.026,42.399,42.274,0.0,0.0,100.0,0.0,0.0,0.0,0.0,2999.5714285714284,3137.2,3885.75,4095.1000000000004,305.645,304.912,315.364,314.738,21.8876,20.5694,21.8747,21.403,314.999998,314.999998,324.999988,324.999988,99.55928571428572,99.5073,99.56634285714286,99.54644285714286,0.08124999999999982,-0.04049999999999998,-0.11399999999999999,0.1120000000000001,-0.041666666666671404,-0.051666666666669414,1.5865,1.5655,37.798,29.558999999999997,37.717,34.769,56.224000000000004,34.920500000000004,59.3655,52.1815,54.138,34.048,57.967,50.5195,53.291,33.584,57.899,49.934666666666665,-0.10749999999999993,-0.03299999999999992,0.10361500000000001,0.108145,0.0,210.135,210.155,207.11,207.11,0.0,0.0
12,0.0,0.0,0.0,1.0,1.0,0.0,0.0,1.0,0.0,0.0,1.0,1.1856,26.0,0.0,0.0,0.0,59.999996,0.0,26.0,26.0,26.0,26.0,0.02444444444444427,0.29259999999999997,0.0094,293.137,-2.7259,-2.6805000000000003,-1.55205,-1.5336,-235.79,215.46,190.747375,0.0,0.0,0.0,0.0,0.025466666666666665,-5.498166666666667,-5.498166666666667,-0.5424,0.378,0.013222222222222024,-0.7039999999999997,67.231,0.0002,-0.20545000000000002,-0.3420000000000005,100.0,1.0,1.0,207.42666666666668,0.0,0.0,0.0,0.0,0.0,0.0,0.0,8792.0,0.0,55.0,5.0,242.00333333333333,0.0,0.0,0.0,0.0,0.0,0.0,1.0,0.0,0.602999999999998,0.602999999999998,0.0,0.0,0.0,55.0,616.79921,10000.0,85.000001,85.000001,85.000001,85.000001,395.0,0.0,0.0,0.0,1.0,333.33500000000004,52.994,52.994,48.309,48.309,34.0,-23.765,24.822,-28.73,28.8425,0.0,1782.802,-0.509999999999998,100.0,27.347,27.464,42.221000000000004,42.367000000000004,0.0,0.0,100.0,0.0,0.0,0.0,0.0,3107.285714285714,3068.5,4145.5,4169.0,305.5,304.9343333333333,314.8085,314.50275,21.8962,20.5742,21.8838,21.410899999999998,314.999998,314.999998,324.999988,324.999988,99.55928571428572,99.5073,99.56647142857143,99.54657142857143,0.08574999999999999,-0.037250000000000005,-0.11266666666666658,0.1166666666666667,-0.054999999999999716,-0.045000000000001705,1.537,1.5275,37.851,29.589,37.774,34.8185,56.212,34.954,59.3985,52.235,54.126000000000005,34.079,57.9975,50.571,53.278999999999996,33.614,57.9275,49.985,-0.10999999999999988,-0.03949999999999987,0.10856,0.106965,0.0,210.56,210.55,207.42666666666668,207.42666666666668,0.0,0.0
13,0.0,0.0,0.0,1.0,1.0,0.0,0.0,1.0,0.0,0.0,1.0,1.1856,26.0,0.0,0.0,0.0,59.999996,0.0,26.0,26.0,26.0,26.0,0.03977777777777791,0.27790000000000004,0.02305,292.847,-2.6922,-2.6946250000000003,-1.57985,-1.5415,-232.36,215.445,190.72575,0.0,0.0,0.0,0.0,0.0268,-5.498166666666667,-5.498166666666667,-0.5387000000000001,-0.23550000000000004,0.01288888888888895,1.1189999999999998,67.374,0.0112,-0.21475,-0.54,100.0,1.0,1.0,207.78333333333333,0.0,0.0,0.0,0.0,0.0,0.0,0.0,8807.1,0.0,55.0,5.0,242.51999999999998,1.0,0.0,0.0,0.0,0.0,0.0,1.0,0.0,0.6539999999999999,0.6539999999999999,0.0,0.0,1.0,55.0,616.79921,10000.0,85.000001,85.000001,85.000001,85.000001,395.0,0.0,0.0,0.0,1.0,333.33500000000004,52.826,52.826,48.096000000000004,48.096000000000004,34.0,-21.7125,26.384,-27.816666666666666,30.9575,0.0,1782.75,-0.46000000000000085,100.0,27.714,27.447,42.683,42.696,0.0,0.0,100.0,0.0,0.0,0.0,0.0,3015.857142857143,3135.9,4090.875,4303.9,305.583,304.911,314.81675,314.221,21.9058,20.5797,21.8944,21.420099999999998,314.999998,314.999998,324.999988,324.999988,99.5593,99.5073,99.56661428571428,99.54672857142857,0.11324999999999985,-0.012249999999999983,-0.09133333333333338,0.13149999999999995,-0.051666666666669414,-0.041666666666671404,1.514,1.4989999999999999,37.911,29.622999999999998,37.84,34.8755,56.199,34.992,59.4385,52.298500000000004,54.114000000000004,34.114,58.035,50.6315,53.266,33.6475,57.9615,50.044666666666664,-0.11749999999999994,-0.03000000000000025,0.10775000000000001,0.10369500000000001,0.0,210.98000000000002,210.985,207.78333333333333,207.78333333333333,0.0,0.0
14,0.0,0.0,0.0,1.0,1.0,0.0,0.0,1.0,0.0,0.0,1.0,1.1856,26.0,0.0,0.0,0.0,59.999996,0.0,26.0,26.0,26.0,26.0,0.054444444444444295,0.28280000000000016,-0.035525,293.076,-2.7127,-2.700625,-1.57355,-1.5352000000000001,-228.92000000000002,215.43,190.704375,0.0,0.0,0.0,0.0,0.028800000000000003,-5.498166666666667,-5.498166666666667,-0.5503,-0.01750000000000007,0.02444444444444427,-0.395,67.514,0.0217,-0.225225,-0.4679999999999991,100.0,1.0,1.0,208.31666666666666,0.0,0.0,0.0,0.0,0.0,0.0,0.0,8829.7,0.0,55.0,5.0,243.01999999999998,0.0,0.0,0.0,0.0,0.0,0.0,1.0,0.0,0.7049999999999983,0.7049999999999983,0.0,0.0,0.0,55.0,616.79921,10000.0,85.000001,85.000001,85.000001,85.000001,395.0,0.0,0.0,0.0,1.0,333.33500000000004,52.856,52.856,48.447,48.447,34.0,-22.4625,24.908,-26.29,28.9525,0.0,1782.699,-0.5,100.0,27.519,27.740000000000002,42.469,42.845,0.0,0.0,100.0,0.0,0.0,0.0,0.0,3082.857142857143,3018.6,3992.125,4088.6000000000004,305.5745,305.0403333333333,315.15725,314.68375,21.915399999999998,20.5852,21.9048,21.4291,314.999998,314.999998,324.999988,324.999988,99.55931428571428,99.50731666666667,99.56674285714286,99.54687142857144,0.10850000000000026,-0.02949999999999997,-0.08466666666666656,0.1333333333333333,-0.041666666666671404,-0.041666666666671404,1.5594999999999999,1.555,37.971000000000004,29.657333333333334,37.905,34.932,56.187,35.0295,59.4755,52.36,54.102000000000004,34.149,58.0695,50.6905,53.253,33.681,57.9925,50.102666666666664,-0.11949999999999994,-0.0365000000000002,0.10401,0.106825,0.0,211.405,211.41500000000002,208.31666666666666,208.31666666666666,0.0,0.0
15,0.0,0.0,0.0,1.0,1.0,0.0,0.0,1.0,0.0,0.0,1.0,1.1856,26.0,0.0,0.0,0.0,59.999996,0.0,26.0,26.0,26.0,26.0,0.060111111111111004,0.2874000000000001,-0.020050000000000002,292.984,-2.7073,-2.674625,-1.5846,-1.5514000000000001,-225.67000000000002,215.41750000000002,190.683875,0.0,0.0,0.0,0.0,0.03066666666666667,-5.498166666666667,-5.498166666666667,-0.5433,0.18799999999999994,0.03555555555555556,-0.8119999999999998,67.646,0.0286,-0.212425,-0.5060000000000002,100.0,1.0,1.0,208.68333333333334,0.0,0.0,0.0,0.0,0.0,0.0,0.0,8845.3,0.0,55.0,5.0,243.5,1.0,0.0,0.0,0.0,0.0,0.0,1.0,0.0,0.7530000000000001,0.7530000000000001,0.0,0.0,1.0,55.0,616.79921,10000.0,85.000001,85.000001,85.000001,85.000001,395.0,0.0,0.0,0.0,1.0,166.665,52.902,52.902,48.263999999999996,48.263999999999996,34.0,-22.1125,24.823999999999998,-27.38,30.3175,0.0,1782.652,-0.40500000000000114,100.0,27.484,27.818,42.324,42.922,0.0,0.0,100.0,0.0,0.0,0.0,0.0,3050.285714285714,3010.6,4083.5,4147.8,305.6735,305.0473333333333,314.95175,314.49425,21.9244,20.5903,21.9146,21.4377,314.999998,314.999998,324.999988,324.999988,99.55932857142857,99.50731666666667,99.56688571428572,99.547,0.10899999999999999,-0.02474999999999994,-0.08766666666666656,0.14083333333333337,-0.045000000000001705,-0.051666666666669414,1.54,1.5145,38.028,29.689666666666668,37.966,34.9855,56.175,35.065,59.51,52.4185,54.091,34.182,58.1015,50.747,53.241,33.7125,58.022,50.158,-0.11149999999999993,-0.038000000000000256,0.11520500000000002,0.10459,0.0,211.82,211.85000000000002,208.68333333333334,208.68333333333334,0.0,0.0
16,0.0,0.0,0.0,1.0,1.0,0.0,0.0,1.0,0.0,0.0,1.0,1.1856,26.0,0.0,0.0,0.0,59.999996,0.0,26.0,26.0,26.0,26.0,0.0367777777777778,0.27090000000000014,-0.0007,292.786,-2.7617,-2.625375,-1.5603500000000001,-1.5507,-222.22,215.405,190.661875,0.0,0.0,0.0,0.0,0.03266666666666667,-5.498166666666667,-5.498166666666667,-0.5537000000000001,-0.36549999999999994,0.028000000000000025,0.258,67.786,0.033800000000000004,-0.22412500000000002,-0.39399999999999924,100.0,1.0,1.0,209.09333333333333,0.0,0.0,0.0,0.0,0.0,0.0,0.0,8862.7,0.0,55.0,5.0,244.00333333333333,0.0,0.0,0.0,0.0,0.0,0.0,1.0,0.0,0.8039999999999985,0.8039999999999985,0.0,0.0,0.0,55.0,616.79921,10000.0,85.000001,85.000001,85.000001,85.000001,395.0,0.0,0.0,0.0,1.0,166.665,52.521,52.521,47.974000000000004,47.974000000000004,34.0,-23.1175,26.566,-25.666666666666664,30.0825,0.0,1782.601,-0.3150000000000013,100.0,27.556,27.757,42.677,43.002,0.0,0.0,100.0,0.0,0.0,0.0,0.0,3079.4285714285716,3246.4,4023.75,4094.6000000000004,305.466,304.55033333333336,315.00525,314.68475,21.9339,20.5959,21.9251,21.4468,314.999998,314.999998,324.999988,324.999988,99.55932857142857,99.50731666666667,99.56702857142857,99.54715714285715,0.10650000000000004,-0.01924999999999999,-0.0668333333333333,0.1483333333333332,-0.03166666666666629,-0.04833333333333201,1.5354999999999999,1.5275,38.087,29.724333333333334,38.032,35.042500000000004,56.161,35.103,59.5485,52.4805,54.078,34.2175,58.137,50.807,53.227000000000004,33.7465,58.055,50.21666666666667,-0.09450000000000003,-0.0535000000000001,0.10532000000000001,0.098095,0.0,212.235,212.25,209.09333333333333,209.09333333333333,0.0,0.0
17,0.0,0.0,0.0,1.0,1.0,0.0,0.0,1.0,0.0,0.0,1.0,1.1856,26.0,0.0,0.0,0.0,59.999996,0.0,26.0,26.0,26.0,26.0,0.04422222222222216,0.2856000000000001,0.03565,292.496,-2.637,-2.602875,-1.5083,-1.5122,-218.76,215.39499999999998,190.639625,0.0,0.0,0.0,0.0,0.0347,-5.498166666666667,-5.498166666666667,-0.551,0.1815,0.004888888888888943,-0.9529999999999998,67.926,0.0302,-0.21682500000000002,-0.242,100.0,1.0,1.0,209.4766666666667,0.0,0.0,0.0,0.0,0.0,0.0,0.0,8878.9,0.0,55.0,5.0,244.50333333333333,1.0,0.0,0.0,0.0,0.0,0.0,1.0,0.0,0.8550000000000004,0.8550000000000004,0.0,0.0,1.0,55.0,616.79921,10000.0,85.000001,85.000001,85.000001,85.000001,395.0,0.0,0.0,0.0,1.0,166.665,52.353,52.353,47.638,47.638,34.0,-22.715,25.026,-27.313333333333336,30.6675,0.0,1782.55,-0.23000000000000043,100.0,27.736,28.031,42.586,43.056,0.0,0.0,100.0,0.0,0.0,0.0,0.0,3130.714285714286,3136.0,4241.5,4214.7,305.352,304.70933333333335,314.555,314.401,21.9435,20.6015,21.9355,21.4559,314.999998,314.999998,324.999988,324.999988,99.55934285714285,99.50731666666667,99.56717142857143,99.5473,0.09850000000000003,-0.03200000000000003,-0.08016666666666661,0.14749999999999996,-0.03833333333332689,-0.04833333333333201,1.517,1.505,38.147,29.759333333333334,38.097,35.0995,56.149,35.141999999999996,59.586,52.542,54.066,34.253,58.172,50.866,53.214,33.781,58.0865,50.27466666666667,-0.09250000000000003,-0.05900000000000016,0.10304,0.11606000000000001,0.0,212.695,212.69,209.4766666666667,209.4766666666667,0.0,0.0
18,0.0,0.0,0.0,1.0,1.0,0.0,0.0,1.0,0.0,0.0,1.0,1.1856,26.0,0.0,0.0,0.0,59.999996,0.0,26.0,26.0,26.0,26.0,0.04322222222222227,0.26760000000000006,0.019625,292.557,-2.6515,-2.73875,-1.5404,-1.5816,-215.29,215.385,190.617125,0.0,0.0,0.0,0.0,0.0367,-5.498166666666667,-5.498166666666667,-0.5615,-0.32699999999999996,0.00822222222222213,0.7429999999999999,68.064,0.021,-0.225725,-0.22799999999999976,100.0,1.0,1.0,209.91,0.0,0.0,0.0,0.0,0.0,0.0,0.0,8897.3,0.0,55.0,5.0,245.00333333333333,0.0,0.0,0.0,0.0,0.0,0.0,1.0,0.0,0.9059999999999988,0.9059999999999988,0.0,0.0,0.0,55.0,616.79921,10000.0,85.000001,85.000001,85.000001,85.000001,395.0,0.0,0.0,0.0,1.0,166.665,52.49,52.49,47.943,47.943,34.0,-22.1225,26.55,-26.75,31.07,0.0,1782.499,-0.28999999999999915,100.0,27.845,27.821,42.851,43.171,0.0,0.0,100.0,0.0,0.0,0.0,0.0,3041.857142857143,3166.7,4029.75,4212.1,305.511,304.7033333333333,314.9595,314.3495,21.953,20.6069,21.945999999999998,21.465,314.999998,314.999998,324.999988,324.999988,99.55935714285714,99.50731666666667,99.56732857142858,99.54744285714285,0.10075000000000012,-0.029000000000000026,-0.08866666666666656,0.13450000000000006,-0.03999999999999915,-0.060000000000002274,1.4994999999999998,1.4965,38.206,29.793333333333333,38.162,35.1565,56.135999999999996,35.179,59.6235,52.604,54.053,34.2875,58.207,50.926,53.2,33.814,58.1185,50.333333333333336,-0.09450000000000003,-0.052999999999999936,0.10896000000000002,0.10226,0.0,213.11,213.12,209.91,209.91,0.0,0.0
19,0.0,0.0,0.0,1.0,1.0,0.0,0.0,1.0,0.0,0.0,1.0,1.1856,26.0,0.0,0.0,0.0,59.999996,0.0,26.0,26.0,26.0,26.0,0.03966666666666674,0.27700000000000014,0.044500000000000005,292.267,-2.6397,-2.705875,-1.5362,-1.6042,-212.01999999999998,215.375,190.595625,0.0,0.0,0.0,0.0,0.0386,-5.498166666666667,-5.498166666666667,-0.5515,0.5780000000000001,0.014777777777777779,0.8280000000000003,68.194,0.019,-0.2147,-0.2079999999999993,100.0,1.0,1.0,210.3,0.0,0.0,0.0,0.0,0.0,0.0,0.0,8913.9,0.0,55.0,5.0,245.47,1.0,0.0,0.0,0.0,0.0,0.0,1.0,0.0,0.9540000000000006,0.9540000000000006,0.0,0.0,1.0,55.0,616.79921,10000.0,85.000001,85.000001,85.000001,85.000001,395.0,0.0,0.0,0.0,1.0,166.665,52.109,52.109,47.806,47.806,34.0,-22.4375,25.564,-27.373333333333335,32.3625,0.0,1782.452,-0.19500000000000028,100.0,28.351,28.189,42.835,43.209,0.0,0.0,100.0,0.0,0.0,0.0,0.0,3047.0,3137.5,4117.5,4282.3,305.457,304.786,314.7985,314.2195,21.9621,20.6123,21.9558,21.4736,314.999998,314.999998,324.999988,324.999988,99.55937142857142,99.50733333333334,99.56745714285714,99.54757142857143,0.09299999999999997,-0.03925000000000001,-0.08899999999999997,0.14200000000000013,-0.041666666666671404,-0.061666666666667425,1.494,1.4955,38.263,29.826666666666668,38.224000000000004,35.21,56.125,35.216499999999996,59.658,52.661500000000004,54.043,34.322,58.239,50.981,53.189,33.847,58.147999999999996,50.38766666666667,-0.09199999999999986,-0.06899999999999995,0.10859500000000001,0.10398500000000001,0.0,213.53,213.54000000000002,210.3,210.3,0.0,0.0
20,0.0,0.0,0.0,1.0,1.0,0.0,0.0,1.0,0.0,0.0,1.0,1.1856,26.0,0.0,0.0,0.0,59.999996,0.0,26.0,26.0,26.0,26.0,0.023555555555555552,0.2599,-0.03175,292.48,-2.7084,-2.64575,-1.613,-1.5846,-208.32999999999998,215.3675,190.572,0.0,0.0,0.0,0.0,0.04073333333333334,-5.498166666666667,-5.498166666666667,-0.5571,-0.706,0.01588888888888884,0.548,68.339,0.015600000000000001,-0.227075,-0.137999999999999,100.0,1.0,1.0,210.75333333333333,0.0,0.0,0.0,0.0,0.0,0.0,0.0,8933.1,0.0,55.0,5.0,245.99333333333334,0.0,0.0,0.0,0.0,0.0,0.0,0.0,0.0,1.0079999999999991,1.0079999999999991,0.0,0.0,0.0,55.0,616.79921,10000.0,85.000001,85.000001,85.000001,85.000001,395.0,0.0,0.0,0.0,1.0,166.665,52.551,52.551,47.501,47.501,34.0,-22.27,25.247999999999998,-28.426666666666666,29.315,0.0,1782.398,-0.21499999999999986,100.0,27.951999999999998,27.916,43.33,43.554,0.0,0.0,100.0,0.0,0.0,0.0,0.0,3006.714285714286,3161.5,4057.75,4068.9,305.662,304.85333333333335,314.92675,314.75925,21.9721,20.6181,21.9669,21.4834,314.999998,314.999998,324.999988,324.999988,99.55938571428571,99.50733333333334,99.56761428571428,99.54774285714285,0.10150000000000015,-0.035250000000000004,-0.10016666666666663,0.12716666666666687,-0.041666666666671404,-0.054999999999999716,1.522,1.5155,38.325,29.863,38.293,35.2715,56.11,35.257,59.6995,52.728,54.028,34.3595,58.278,51.045,53.174,33.882999999999996,58.1835,50.45,-0.09399999999999986,-0.05500000000000016,0.114765,0.09991000000000001,0.0,213.95,213.94,210.75333333333333,210.75333333333333,0.0,0.0
21,0.0,0.0,0.0,1.0,1.0,0.0,0.0,1.0,0.0,0.0,1.0,1.1856,26.0,0.0,0.0,0.0,59.999996,0.0,26.0,26.0,26.0,26.0,0.031888888888888856,0.27970000000000006,-0.047575,292.633,-2.7260999999999997,-2.655875,-1.57115,-1.5261,-205.26,215.36,190.55175,0.0,0.0,0.0,0.0,0.04253333333333333,-5.498166666666667,-5.498166666666667,-0.5736,0.010000000000000009,0.0040000000000000036,-0.5840000000000001,68.458,0.014,-0.22415000000000002,-0.09799999999999898,100.0,1.0,1.0,211.20666666666668,0.0,0.0,0.0,0.0,0.0,0.0,0.0,8952.2,0.0,55.0,5.0,246.42333333333335,1.0,0.0,0.0,0.0,0.0,0.0,0.0,0.0,1.0530000000000008,1.0530000000000008,0.0,0.0,1.0,55.0,616.79921,10000.0,85.000001,85.000001,85.000001,85.000001,395.0,0.0,0.0,0.0,1.0,333.33500000000004,52.399,52.399,48.096000000000004,48.096000000000004,34.0,-24.46,25.04,-27.476666666666663,27.7625,0.0,1782.351,-0.25,100.0,27.833,27.924,42.914,43.272999999999996,0.0,0.0,100.0,0.0,0.0,0.0,0.0,3214.285714285714,3098.2,4051.0,4016.8,305.2275,304.8906666666667,315.055,314.91725,21.9804,20.623,21.9761,21.4914,314.999998,314.999998,324.999988,324.999988,99.5594,99.50735,99.56774285714286,99.54787142857143,0.09175000000000022,-0.03300000000000003,-0.10050000000000003,0.12416666666666676,-0.054999999999999716,-0.04833333333333201,1.57,1.552,38.378,29.893666666666668,38.349999999999994,35.3215,56.099000000000004,35.2905,59.731,52.7795,54.016999999999996,34.3905,58.307,51.095,53.162,33.913,58.2095,50.498666666666665,-0.10349999999999993,-0.053999999999999826,0.10498500000000001,0.10384,0.0,214.325,214.335,211.20666666666668,211.20666666666668,0.0,0.0
22,0.0,0.0,0.0,1.0,1.0,0.0,0.0,1.0,0.0,0.0,1.0,1.1856,26.0,0.0,0.0,0.0,59.999996,0.0,26.0,26.0,26.0,26.0,0.011111111111111072,0.2861,0.017475,292.175,-2.7656,-2.65875,-1.6051000000000002,-1.524,-201.76,215.35250000000002,190.528,0.0,0.0,0.0,0.0,0.04456666666666667,-5.498166666666667,-5.498166666666667,-0.5582,0.06799999999999995,0.01588888888888884,1.0629999999999997,68.596,0.0123,-0.20035,-0.2560000000000002,100.0,1.0,1.0,211.47333333333333,0.0,0.0,0.0,0.0,0.0,0.0,0.0,8963.5,0.0,55.0,5.0,246.91666666666666,0.0,0.0,0.0,0.0,0.0,0.0,0.0,0.0,1.1039999999999992,1.1039999999999992,0.0,0.0,0.0,55.0,616.79921,10000.0,85.000001,85.000001,85.000001,85.000001,395.0,0.0,0.0,0.0,1.0,333.33500000000004,52.46,52.46,47.211,47.211,34.0,-23.275,25.688,-29.78,32.175,0.0,1782.301,-0.3049999999999997,100.0,28.043,27.906,43.156,43.28,0.0,0.0,100.0,0.0,0.0,0.0,0.0,3063.714285714286,3191.4,4252.75,4422.9,305.5685,304.806,314.49975,313.99575,21.9899,20.6286,21.9865,21.5006,314.999998,314.999998,324.999988,324.999988,99.55941428571428,99.50735,99.56788571428571,99.54801428571429,0.10000000000000009,-0.03300000000000003,-0.09499999999999997,0.13783333333333325,-0.03833333333332689,-0.06333333333333258,1.4914999999999998,1.4769999999999999,38.437,29.928666666666665,38.416,35.379,56.086,35.329,59.769,52.841499999999996,54.004999999999995,34.426,58.3425,51.153999999999996,53.149,33.947,58.242,50.557,-0.10399999999999987,-0.053999999999999826,0.11028,0.105395,0.0,214.765,214.78,211.47333333333333,211.47333333333333,0.0,0.0
23,0.0,0.0,0.0,1.0,1.0,0.0,0.0,1.0,0.0,0.0,1.0,1.1856,26.0,0.0,0.0,0.0,59.999996,0.0,26.0,26.0,26.0,26.0,0.026888888888888962,0.26480000000000015,2.5e-05,292.038,-2.6662,-2.67925,-1.6426500000000002,-1.5357,-198.26,215.345,190.504375,0.0,0.0,0.0,0.0,0.0466,-5.498166666666667,-5.498166666666667,-0.5725,-0.25550000000000006,0.00955555555555554,-0.738,68.731,0.013000000000000001,-0.22407500000000002,-0.1639999999999997,100.0,1.0,1.0,211.92666666666668,0.0,0.0,0.0,0.0,0.0,0.0,0.0,8982.8,0.0,55.0,5.0,247.40333333333334,1.0,0.0,0.0,0.0,0.0,0.0,0.0,0.0,1.1550000000000011,1.1550000000000011,0.0,0.0,1.0,55.0,616.79921,10000.0,85.000001,85.000001,85.000001,85.000001,395.0,0.0,0.0,0.0,1.0,333.33500000000004,51.987,51.987,47.455,47.455,34.0,-23.787499999999998,24.686,-30.636666666666667,29.4575,0.0,1782.249,-0.3099999999999987,100.0,28.183,28.251,43.268,43.628,0.0,0.0,100.0,0.0,0.0,0.0,0.0,3236.857142857143,3068.7,4255.75,4183.9,305.059,304.8906666666667,314.61225,314.49025,21.9994,20.6342,21.997,21.509900000000002,314.999998,314.999998,324.999988,324.999988,99.55941428571428,99.50735,99.56802857142857,99.54815714285715,0.10124999999999984,-0.042749999999999955,-0.10616666666666663,0.12433333333333318,-0.03999999999999915,-0.03833333333332689,1.523,1.527,38.495999999999995,29.96366666666667,38.480999999999995,35.4365,56.074,35.368,59.807,52.9035,53.992999999999995,34.4625,58.378,51.214,53.135999999999996,33.982,58.274,50.61533333333333,-0.10549999999999993,-0.05500000000000016,0.11054000000000001,0.10933000000000001,0.0,215.17000000000002,215.17000000000002,211.92666666666668,211.92666666666668,0.0,0.0
24,0.0,0.0,0.0,1.0,1.0,0.0,0.0,1.0,0.0,0.0,1.0,1.1856,26.0,0.0,0.0,0.0,59.999996,0.0,26.0,26.0,26.0,26.0,0.035222222222222266,0.27390000000000003,-0.03545,292.48,-2.6928,-2.661125,-1.5516,-1.552,-194.95999999999998,215.3375,190.481875,0.0,0.0,0.0,0.0,0.04853333333333333,-5.498166666666667,-5.498166666666667,-0.5862,-0.35050000000000003,0.018111111111110967,-0.21399999999999997,68.857,0.0122,-0.22425,-0.17999999999999972,100.0,1.0,1.0,212.33333333333331,0.0,0.0,0.0,0.0,0.0,0.0,0.0,9000.0,0.0,55.0,5.0,247.86,0.0,0.0,0.0,0.0,0.0,0.0,0.0,0.0,1.2029999999999994,1.2029999999999994,0.0,0.0,0.0,55.0,616.79921,10000.0,85.000001,85.000001,85.000001,85.000001,395.0,0.0,0.0,0.0,1.0,166.665,52.704,52.704,47.516,47.516,34.0,-22.495,23.936,-28.316666666666666,29.11,0.0,1782.202,-0.34999999999999787,100.0,27.977,28.03,43.186,43.54,0.0,0.0,100.0,0.0,0.0,0.0,0.0,3040.857142857143,3006.2,4172.875,4112.5,305.708,305.15766666666667,314.7135,314.6365,22.0083,20.6394,22.0068,21.5185,314.999998,314.999998,324.999988,324.999988,99.55942857142857,99.50736666666667,99.56817142857143,99.5483,0.09624999999999995,-0.040999999999999925,-0.09816666666666662,0.123,-0.046666666666666856,-0.03833333333332689,1.5365,1.514,38.552,29.996000000000002,38.543,35.4905,56.061,35.403,59.841499999999996,52.96,53.982,34.495,58.41,51.2685,53.123000000000005,34.013,58.3035,50.66866666666667,-0.10299999999999998,-0.0495000000000001,0.09984000000000001,0.10826500000000001,0.0,215.57,215.56,212.33333333333331,212.33333333333331,0.0,0.0
25,0.0,0.0,0.0,1.0,1.0,0.0,0.0,1.0,0.0,0.0,1.0,1.1856,26.0,0.0,0.0,0.0,59.999996,0.0,26.0,26.0,26.0,26.0,0.02055555555555566,0.25370000000000004,-0.0073,292.206,-2.6881,-2.6416250000000003,-1.5946,-1.5481,-191.44,215.33249999999998,190.4565,0.0,0.0,0.0,0.0,0.05056666666666667,-5.498166666666667,-5.498166666666667,-0.6018,0.10199999999999998,0.02677777777777779,0.2509999999999999,68.99000000000001,0.0146,-0.21865,-0.3420000000000005,100.0,1.0,1.0,212.79000000000002,0.0,0.0,0.0,0.0,0.0,0.0,0.0,9019.4,0.0,55.0,5.0,248.33666666666664,1.0,0.0,0.0,0.0,0.0,0.0,0.0,0.0,1.2540000000000013,1.2540000000000013,0.0,0.0,1.0,55.0,616.79921,10000.0,85.000001,85.000001,85.000001,85.000001,395.0,0.0,0.0,0.0,1.0,166.665,51.849000000000004,51.849000000000004,47.806,47.806,34.0,-23.2075,27.024,-27.006666666666664,29.9675,0.0,1782.151,-0.36499999999999844,100.0,28.07,28.104,43.054,43.289,0.0,0.0,100.0,0.0,0.0,0.0,0.0,3187.142857142857,3342.3,4023.375,4169.4,305.1045,304.279,315.11625,314.56725,22.0176,20.645,22.0172,21.5276,314.999998,314.999998,324.999988,324.999988,99.55944285714286,99.50736666666667,99.56831428571428,99.54844285714286,0.11224999999999996,-0.03325,-0.08616666666666661,0.13383333333333325,-0.03833333333332689,-0.04833333333333201,1.5385,1.522,38.61,30.031333333333336,38.607,35.5475,56.048,35.442,59.8765,53.0195,53.969,34.531,58.443,51.326,53.108999999999995,34.0475,58.333,50.725,-0.11250000000000004,-0.05149999999999988,0.105325,0.10234000000000001,0.0,215.97,215.99,212.79000000000002,212.79000000000002,0.0,0.0
26,0.0,0.0,0.0,1.0,1.0,0.0,0.0,1.0,0.0,0.0,1.0,1.1856,26.0,0.0,0.0,0.0,59.999996,0.0,26.0,26.0,26.0,26.0,0.0407777777777778,0.2775000000000001,0.05305,291.412,-2.7132,-2.6491249999999997,-1.5575999999999999,-1.5514000000000001,-187.92000000000002,215.3275,190.431,0.0,0.0,0.0,0.0,0.0526,-5.498166666666667,-5.498166666666667,-0.5744,0.2975,0.012111111111110962,-0.5640000000000001,69.126,0.0173,-0.20242500000000002,-0.242,100.0,1.0,1.0,213.0,0.0,0.0,0.0,0.0,0.0,0.0,0.0,9028.3,0.0,55.0,5.0,248.82666666666665,0.0,0.0,0.0,0.0,0.0,0.0,0.0,0.0,1.3049999999999997,1.3049999999999997,0.0,0.0,0.0,55.0,616.79921,10000.0,85.000001,85.000001,85.000001,85.000001,395.0,0.0,0.0,0.0,1.0,333.33500000000004,51.697,51.697,46.692,46.692,34.0,-24.5175,24.282,-30.41333333333333,32.675,0.0,1782.099,-0.34999999999999787,100.0,28.616,28.677,43.485,43.866,0.0,0.0,100.0,0.0,0.0,0.0,0.0,3262.5714285714284,3062.6,4446.0,4447.0,305.1095,305.03266666666667,314.0745,313.81425,22.0272,20.6508,22.0277,21.5369,314.999998,314.999998,324.999988,324.999988,99.55945714285714,99.50736666666667,99.56847142857143,99.5486,0.09699999999999998,-0.04149999999999998,-0.08716666666666661,0.1283333333333332,-0.04333333333332945,-0.04833333333333201,1.4495,1.4355,38.67,30.067333333333334,38.673,35.606,56.037,35.482,59.916,53.082499999999996,53.959,34.567499999999995,58.4795,51.3865,53.098,34.083,58.3665,50.784,-0.10749999999999993,-0.05500000000000016,0.10314000000000001,0.11227000000000001,0.0,216.42000000000002,216.43,213.0,213.0,0.0,0.0
27,0.0,0.0,0.0,1.0,1.0,0.0,0.0,1.0,0.0,0.0,1.0,1.1856,26.0,0.0,0.0,0.0,59.999996,0.0,26.0,26.0,26.0,26.0,0.044666666666666854,0.2572000000000001,-0.048,291.824,-2.762,-2.659625,-1.619,-1.5304,-184.6,215.325,190.407875,0.0,0.0,0.0,0.0,0.054533333333333336,-5.498166666666667,-5.498166666666667,-0.596,-0.7565,0.02388888888888885,-0.45599999999999996,69.25,0.0194,-0.23672500000000002,-0.31400000000000006,100.0,1.0,1.0,213.50666666666666,0.0,0.0,0.0,0.0,0.0,0.0,0.0,9049.7,0.0,55.0,5.0,249.27333333333334,1.0,0.0,0.0,0.0,0.0,0.0,0.0,0.0,1.352999999999998,1.352999999999998,0.0,0.0,1.0,55.0,616.79921,10000.0,85.000001,85.000001,85.000001,85.000001,395.0,0.0,0.0,0.0,1.0,333.33500000000004,51.956,51.956,46.738,46.738,34.0,-23.5175,25.636,-28.96,29.2075,0.0,1782.052,-0.36499999999999844,100.0,28.303,28.651,43.843,44.18,0.0,0.0,100.0,0.0,0.0,0.0,0.0,3132.714285714286,3126.8,4170.125,4111.6,305.5315,304.738,314.78075,314.704,22.036,20.6561,22.0377,21.5457,314.999998,314.999998,324.999988,324.999988,99.55947142857143,99.50738333333334,99.5686,99.54874285714286,0.10375000000000023,-0.028749999999999942,-0.09299999999999997,0.1323333333333332,-0.046666666666666856,-0.05833333333333002,1.523,1.515,38.724999999999994,30.100666666666665,38.736000000000004,35.661,56.025999999999996,35.518,59.9525,53.1405,53.947,34.6015,58.5135,51.442499999999995,53.086,34.115,58.3975,50.83866666666667,-0.11650000000000005,-0.045500000000000096,0.10433500000000001,0.10670500000000001,0.0,216.75,216.78,213.50666666666666,213.50666666666666,0.0,0.0
28,0.0,0.0,0.0,1.0,1.0,0.0,0.0,1.0,0.0,0.0,1.0,1.1856,26.0,0.0,0.0,0.0,59.999996,0.0,26.0,26.0,26.0,26.0,0.04577777777777792,0.272,-0.047325,291.931,-2.6957,-2.64525,-1.633,-1.5596999999999999,-180.86,215.32,190.380875,0.0,0.0,0.0,0.0,0.05673333333333334,-5.498166666666667,-5.498166666666667,-0.5998,0.5045,0.010333333333333306,-1.085,69.389,0.023700000000000002,-0.21427500000000002,-0.36599999999999966,100.0,1.0,1.0,213.99,0.0,0.0,0.0,0.0,0.0,0.0,0.0,9070.2,0.0,55.0,5.0,249.76999999999998,0.0,0.0,0.0,0.0,0.0,0.0,0.0,0.0,1.407,1.407,0.0,0.0,0.0,55.0,616.79921,10000.0,85.000001,85.000001,85.000001,85.000001,395.0,0.0,0.0,0.0,1.0,166.665,51.971000000000004,51.971000000000004,47.104,47.104,34.0,-22.724999999999998,24.852,-29.273333333333333,30.035,0.0,1781.999,-0.370000000000001,100.0,28.319,28.65,43.323,43.822,0.0,0.0,100.0,0.0,0.0,0.0,0.0,3115.142857142857,3091.8,4242.0,4147.4,305.4625,304.82033333333334,314.70975,314.619,22.046,20.6622,22.0486,21.5554,314.999998,314.999998,324.999988,324.999988,99.5595,99.50738333333334,99.56875714285714,99.5489,0.10749999999999993,-0.037250000000000005,-0.08799999999999997,0.1353333333333333,-0.04833333333333201,-0.04999999999999716,1.5434999999999999,1.5265,38.787,30.138666666666666,38.804,35.721000000000004,56.013,35.5595,59.9885,53.203,53.935,34.64,58.547,51.5025,53.073,34.152,58.4275,50.897666666666666,-0.10949999999999993,-0.052000000000000046,0.10980500000000001,0.10401500000000001,0.0,217.22,217.24,213.99,213.99,0.0,0.0
29,0.0,0.0,0.0,1.0,1.0,0.0,0.0,1.0,0.0,0.0,1.0,1.1856,26.0,0.0,0.0,0.0,59.999996,0.0,26.0,26.0,26.0,26.0,0.054777777777777814,0.2518,-0.01845,291.885,-2.7592,-2.710875,-1.6085,-1.5452,-177.51999999999998,215.3175,190.356125,0.0,0.0,0.0,0.0,0.058666666666666666,-5.498166666666667,-5.498166666666667,-0.6046,-0.696,0.0031111111111110645,-0.786,69.514,0.025,-0.214975,-0.31599999999999984,100.0,1.0,1.0,214.25,0.0,0.0,0.0,0.0,0.0,0.0,0.0,9081.3,0.0,55.0,5.0,250.22666666666666,1.0,0.0,0.0,0.0,0.0,0.0,0.0,0.0,1.4549999999999983,1.4549999999999983,0.0,0.0,1.0,55.0,616.79921,10000.0,85.000001,85.000001,85.000001,85.000001,395.0,0.0,0.0,0.0,1.0,166.665,52.368,52.368,46.921,46.921,34.0,-23.849999999999998,24.695999999999998,-28.88,30.87,0.0,1781.951,-0.4400000000000013,100.0,28.021,28.41,43.701,44.114000000000004,0.0,0.0,100.0,0.0,0.0,0.0,0.0,3204.4285714285716,2986.2,4221.25,4252.4,305.4825,305.15066666666667,314.66075,314.27925,22.0547,20.6674,22.0585,21.5641,314.999998,314.999998,324.999988,324.999988,99.5595,99.5074,99.5689,99.54902857142856,0.10524999999999984,-0.030749999999999944,-0.08316666666666661,0.13050000000000006,-0.021666666666668277,-0.046666666666666856,1.4875,1.4689999999999999,38.842,30.171333333333333,38.866,35.775999999999996,56.0,35.5945,60.0255,53.2615,53.923,34.672,58.5815,51.5585,53.06,34.1835,58.459,50.952333333333335,-0.11250000000000004,-0.04200000000000026,0.10072500000000001,0.10379500000000001,0.0,217.585,217.60000000000002,214.25,214.25,0.0,0.0
30,0.0,0.0,0.0,1.0,1.0,0.0,0.0,1.0,0.0,0.0,1.0,1.1856,26.0,0.0,0.0,0.0,59.999996,0.0,26.0,26.0,26.0,26.0,0.06066666666666687,0.26570000000000005,-0.009825,291.199,-2.7326,-2.71325,-1.65595,-1.4609,-174.18,215.3175,190.331125,0.0,0.0,0.0,0.0,0.0606,-5.498166666666667,-5.498166666666667,-0.6071000000000001,0.802,0.008888888888888946,-0.2719999999999998,69.635,0.023,-0.21752500000000002,-0.35599999999999987,100.0,1.0,1.0,214.73000000000002,0.0,0.0,0.0,0.0,0.0,0.0,0.0,9101.7,0.0,55.0,5.0,250.66,0.0,0.0,0.0,0.0,0.0,0.0,1.0,0.0,1.5030000000000001,1.5030000000000001,0.0,0.0,0.0,55.0,616.79921,10000.0,85.000001,85.000001,85.000001,85.000001,395.0,0.0,0.0,0.0,1.0,166.665,50.537,50.537,47.119,47.119,34.0,-24.7775,28.712,-29.563333333333333,29.0675,0.0,1781.903,-0.5199999999999996,100.0,28.999,29.073,43.483000000000004,44.019999999999996,0.0,0.0,100.0,0.0,0.0,0.0,0.0,3394.857142857143,3362.0,4215.75,4188.7,304.562,303.99533333333335,314.81675,314.66425,22.0637,20.673000000000002,22.0683,21.5728,314.999998,314.999998,324.999988,324.999988,99.55951428571429,99.5074,99.56902857142857,99.54917142857143,0.12449999999999983,-0.022249999999999992,-0.09199999999999997,0.13883333333333336,-0.06333333333333258,-0.046666666666666856,1.5394999999999999,1.515,38.897999999999996,30.206333333333333,38.927,35.83,55.992000000000004,35.632999999999996,60.058,53.317499999999995,53.916,34.708,58.6115,51.613,53.051,34.2175,58.486,51.00533333333333,-0.133,-0.046499999999999986,0.10246500000000001,0.113905,0.0,217.995,218.0,214.73000000000002,214.73000000000002,0.0,0.0
31,0.0,0.0,0.0,1.0,1.0,0.0,0.0,1.0,0.0,0.0,1.0,1.1856,26.0,0.0,0.0,0.0,59.999996,0.0,26.0,26.0,26.0,26.0,0.033777777777777906,0.25880000000000014,0.0782,290.695,-2.7748,-2.6215,-1.6513,-1.5365,-170.63,215.3175,190.30525,0.0,0.0,0.0,0.0,0.06266666666666666,-5.498166666666667,-5.498166666666667,-0.5864,-0.3365,0.02288888888888896,0.8940000000000001,69.769,0.027,-0.219,-0.5259999999999998,100.0,1.0,1.0,214.92333333333335,0.0,0.0,0.0,0.0,0.0,0.0,0.0,9109.8,0.0,55.0,5.0,251.14333333333335,1.0,0.0,0.0,0.0,0.0,0.0,1.0,0.0,1.5539999999999985,1.5539999999999985,0.0,0.0,1.0,55.0,616.79921,10000.0,85.000001,85.000001,85.000001,85.000001,395.0,0.0,0.0,0.0,1.0,333.33500000000004,51.041,51.041,45.578,45.578,34.0,-22.6875,27.968,-30.55,33.3925,0.0,1781.85,-0.509999999999998,100.0,29.017,29.109,44.367000000000004,44.727000000000004,0.0,0.0,100.0,0.0,0.0,0.0,0.0,3134.285714285714,3400.3,4334.125,4480.1,305.3615,304.16966666666667,314.236,313.7325,22.073,20.6788,22.0789,21.5823,314.999998,314.999998,324.999988,324.999988,99.55952857142857,99.5074,99.56918571428571,99.54932857142857,0.13074999999999992,-0.019000000000000017,-0.07633333333333336,0.13800000000000012,-0.060000000000002274,-0.03833333333332689,1.431,1.4235,38.956,30.242666666666665,38.992999999999995,35.8895,55.982,35.673,60.0985,53.3825,53.906,34.7445,58.6495,51.675,53.04,34.253,58.5205,51.06633333333333,-0.12399999999999989,-0.04600000000000026,0.10368500000000001,0.10094500000000001,0.0,218.385,218.39499999999998,214.92333333333335,214.92333333333335,0.0,0.0
32,0.0,0.0,0.0,1.0,1.0,0.0,0.0,1.0,0.0,0.0,1.0,1.1856,26.0,0.0,0.0,0.0,59.999996,0.0,26.0,26.0,26.0,26.0,0.07111111111111112,0.26,-0.0533,291.428,-2.7016,-2.67625,-1.59275,-1.6163,-166.86,215.32,190.27825,0.0,0.0,0.0,0.0,0.06486666666666667,-5.498166666666667,-5.498166666666667,-0.6072000000000001,-0.3015000000000001,0.002777777777777768,0.29700000000000015,69.903,0.032,-0.23290000000000002,-0.5179999999999998,100.0,1.0,1.0,215.51333333333332,0.0,0.0,0.0,0.0,0.0,0.0,0.0,9134.8,0.0,55.0,5.0,251.62666666666667,0.0,0.0,0.0,0.0,0.0,0.0,1.0,0.0,1.6080000000000005,1.6080000000000005,0.0,0.0,0.0,55.0,616.79921,10000.0,85.000001,85.000001,85.000001,85.000001,395.0,0.0,0.0,0.0,1.0,166.665,51.62,51.62,46.738,46.738,34.0,-21.2825,26.518,-26.256666666666664,32.894999999999996,0.0,1781.797,-0.46499999999999986,100.0,28.823999999999998,28.964,44.153,44.613,0.0,0.0,100.0,0.0,0.0,0.0,0.0,3031.285714285714,3183.0,4023.875,4224.2,305.599,304.75866666666667,315.04875,314.4225,22.0828,20.685,22.0899,21.5922,314.999998,314.999998,324.999988,324.999988,99.55955714285714,99.5074,99.56934285714286,99.54948571428571,0.12950000000000017,-0.018749999999999933,-0.0678333333333333,0.15900000000000003,-0.041666666666671404,-0.03999999999999915,1.525,1.498,39.018,30.281,39.062,35.951,55.97,35.7145,60.135999999999996,53.446,53.894,34.783,58.684,51.7365,53.027,34.289500000000004,58.552,51.126333333333335,-0.11949999999999994,-0.04600000000000026,0.108005,0.10855000000000001,0.0,218.78,218.805,215.51333333333332,215.51333333333332,0.0,0.0
33,0.0,0.0,0.0,1.0,1.0,0.0,0.0,1.0,0.0,0.0,1.0,1.1856,26.0,0.0,0.0,0.0,59.999996,0.0,26.0,26.0,26.0,26.0,0.04633333333333334,0.25540000000000007,-0.082425,291.641,-2.7174,-2.645125,-1.60125,-1.5790000000000002,-163.5,215.3225,190.253125,0.0,0.0,0.0,0.0,0.0668,-5.498166666666667,-5.498166666666667,-0.6162000000000001,-0.1725000000000001,0.0031111111111110645,0.9809999999999999,70.024,0.0342,-0.21595,-0.5020000000000007,100.0,1.0,1.0,215.89666666666668,0.0,0.0,0.0,0.0,0.0,0.0,0.0,9151.0,0.0,55.0,5.0,252.06,1.0,0.0,0.0,0.0,0.0,0.0,1.0,0.0,1.6559999999999988,1.6559999999999988,0.0,0.0,1.0,55.0,616.79921,10000.0,85.000001,85.000001,85.000001,85.000001,395.0,0.0,0.0,0.0,1.0,166.665,51.849000000000004,51.849000000000004,46.997,46.997,34.0,-21.6775,26.07,-27.063333333333336,31.892500000000002,0.0,1781.75,-0.48499999999999943,100.0,28.655,28.72,43.92,44.351,0.0,0.0,100.0,0.0,0.0,0.0,0.0,3057.714285714286,3152.6,4054.5,4235.0,305.5455,304.9343333333333,314.99575,314.4605,22.0915,20.6903,22.0996,21.6008,314.999998,314.999998,324.999988,324.999988,99.55957142857143,99.5074,99.56948571428572,99.54962857142857,0.1280000000000001,-0.013249999999999984,-0.07733333333333337,0.14966666666666684,-0.036666666666668846,-0.045000000000001705,1.5295,1.5005,39.072,30.314333333333334,39.123000000000005,36.0055,55.959,35.749,60.1695,53.5015,53.882999999999996,34.8155,58.715,51.79,53.015,34.320499999999996,58.579499999999996,51.178333333333335,-0.11650000000000005,-0.04400000000000004,0.11324500000000001,0.10794500000000001,0.0,219.17000000000002,219.175,215.89666666666668,215.89666666666668,0.0,0.0
34,0.0,0.0,0.0,1.0,1.0,0.0,0.0,1.0,0.0,0.0,1.0,1.1856,26.0,0.0,0.0,0.0,59.999996,0.0,26.0,26.0,26.0,26.0,0.052999999999999936,0.26580000000000004,-0.08207500000000001,291.855,-2.6745,-2.672625,-1.63185,-1.5192999999999999,-159.92000000000002,215.325,190.225,0.0,0.0,0.0,0.0,0.0689,-5.498166666666667,-5.498166666666667,-0.6444000000000001,-0.9864999999999999,0.02011111111111097,-0.20799999999999974,70.154,0.0371,-0.222275,-0.46999999999999975,100.0,1.0,1.0,216.23000000000002,0.0,0.0,0.0,0.0,0.0,0.0,0.0,9165.2,0.0,55.0,5.0,252.52666666666664,0.0,0.0,0.0,0.0,0.0,0.0,1.0,0.0,1.7070000000000007,1.7070000000000007,0.0,0.0,0.0,55.0,616.79921,10000.0,85.000001,85.000001,85.000001,85.000001,395.0,0.0,0.0,0.0,1.0,166.665,52.414,52.414,47.058,47.058,34.0,-21.3725,25.253999999999998,-28.15,31.155,0.0,1781.698,-0.4800000000000004,100.0,28.229,28.489,43.759,44.5,0.0,0.0,100.0,0.0,0.0,0.0,0.0,3042.285714285714,3044.0,4152.0,4227.3,305.784,305.1723333333333,314.85075,314.40825,22.1007,20.6959,22.11,21.6102,314.999998,314.999998,324.999988,324.999988,99.55957142857143,99.50741666666667,99.56962857142857,99.54977142857143,0.11799999999999988,-0.01674999999999993,-0.07766666666666666,0.15083333333333337,-0.041666666666671404,-0.04999999999999716,1.537,1.5035,39.129000000000005,30.349333333333334,39.187,36.0635,55.946,35.785,60.204499999999996,53.563,53.870999999999995,34.8485,58.748,51.849000000000004,53.001999999999995,34.3525,58.6095,51.236000000000004,-0.11599999999999988,-0.04150000000000009,0.10996,0.11071,0.0,219.54500000000002,219.565,216.23000000000002,216.23000000000002,0.0,0.0
35,0.0,0.0,0.0,1.0,1.0,0.0,0.0,1.0,0.0,0.0,1.0,1.1856,26.0,0.0,0.0,0.0,59.999996,0.0,26.0,26.0,26.0,26.0,0.06844444444444431,0.24650000000000016,-0.063875,291.748,-2.806,-2.647625,-1.54265,-1.577,-156.55,215.32999999999998,190.196875,0.0,0.0,0.0,0.0,0.07083333333333335,-5.498166666666667,-5.498166666666667,-0.6785,-0.010000000000000009,0.0005555555555556424,-1.292,70.272,0.038,-0.22615000000000002,-0.39999999999999947,100.0,1.0,1.0,216.71333333333334,0.0,0.0,0.0,0.0,0.0,0.0,0.0,9185.6,0.0,55.0,5.0,252.95333333333335,1.0,0.0,0.0,0.0,0.0,0.0,1.0,0.0,1.754999999999999,1.754999999999999,0.0,0.0,1.0,55.0,616.79921,10000.0,85.000001,85.000001,85.000001,85.000001,395.0,0.0,0.0,0.0,1.0,166.665,51.59,51.59,46.906,46.906,34.0,-23.9625,27.284,-25.599999999999998,29.915,0.0,1781.651,-0.29499999999999815,100.0,28.174,28.948,43.533,44.012,0.0,0.0,100.0,0.0,0.0,0.0,0.0,3194.285714285714,3285.8,4100.25,4028.4,305.3205,304.2803333333333,315.026,314.99425,22.1092,20.7014,22.1196,21.6188,314.999998,314.999998,324.999988,324.999988,99.5596,99.50741666666667,99.56977142857143,99.54991428571428,0.11724999999999985,-0.023249999999999993,-0.06399999999999995,0.15316666666666667,-0.05666666666667197,-0.03999999999999915,1.571,1.551,39.183,30.384,39.248000000000005,36.1175,55.933,35.8225,60.236,53.616,53.858999999999995,34.8835,58.7775,51.9,52.989000000000004,34.385999999999996,58.6355,51.286,-0.10899999999999999,-0.0535000000000001,0.098555,0.10711000000000001,0.0,219.93,219.945,216.71333333333334,216.71333333333334,0.0,0.0
36,0.0,0.0,0.0,1.0,1.0,0.0,0.0,1.0,0.0,0.0,1.0,1.1856,26.0,0.0,0.0,0.0,59.999996,0.0,26.0,26.0,26.0,26.0,0.05600000000000005,0.26090000000000013,0.016,291.229,-2.6521,-2.71325,-1.64975,-1.5904,-152.97,215.3375,190.16575,0.0,0.0,0.0,0.0,0.07293333333333334,-5.498166666666667,-5.498166666666667,-0.6617000000000001,-0.12549999999999994,-0.0385555555555559,0.3280000000000003,70.403,0.032100000000000004,-0.20367500000000002,-0.3179999999999996,100.0,1.0,1.0,216.88,0.0,0.0,0.0,0.0,0.0,0.0,0.0,9192.7,0.0,55.0,5.0,253.42333333333335,0.0,0.0,0.0,0.0,0.0,0.0,1.0,0.0,1.806000000000001,1.806000000000001,0.0,0.0,0.0,55.0,616.79921,10000.0,85.000001,85.000001,85.000001,85.000001,395.0,0.0,0.0,0.0,1.0,166.665,51.956,51.956,46.265,46.265,34.0,-20.325,25.652,-30.366666666666667,35.095,0.0,1781.6,-0.259999999999998,100.0,28.834,28.718,43.937,44.306,0.0,0.0,100.0,0.0,0.0,0.0,0.0,2904.5714285714284,3096.6,4372.625,4494.3,305.8045,304.992,314.231,313.8325,22.1185,20.7073,22.1301,21.6282,314.999998,314.999998,324.999988,324.999988,99.55961428571429,99.50741666666667,99.56992857142858,99.55007142857143,0.12199999999999989,-0.029000000000000026,-0.06999999999999995,0.15533333333333332,-0.02499999999999858,-0.05333333333332746,1.4435,1.436,39.241,30.420333333333332,39.313,36.176,55.922,35.8615,60.2735,53.678,53.848,34.9195,58.812,51.96,52.977000000000004,34.420500000000004,58.667,51.34466666666667,-0.10250000000000004,-0.06050000000000022,0.10595500000000001,0.11254000000000002,0.0,220.335,220.36,216.88,216.88,0.0,0.0
