,ABS Active,ABS Enabled,AID Allow Tire Blankets,AID Auto Blip,AID Auto Clutch,AID Auto Shift,AID Fuel Rate,AID Ideal Line,AID Mech Damage,AID Stability,AID Tire Wear Rate,Air Density,Air Temp,Ballast,Best Lap Delta,Best Lap Time,Brake Bias,Brake Pos,Brake Temp FL,Brake Temp FR,Brake Temp RL,Brake Temp RR,CG Accel Lateral,CG Accel Longitudinal,CG Accel Vertical,CG Height,Camber FL,Camber FR,Camber RL,Camber RR,Car Coord X,Car Coord Y,Car Coord Z,Car Damage Front,Car Damage Left,Car Damage Rear,Car Damage Right,Car Pos Norm,Caster FL,Caster FR,Chassis Pitch Angle,Chassis Pitch Rate,Chassis Roll Angle,Chassis Roll Rate,Chassis Velocity X,Chassis Velocity Y,Chassis Velocity Z,Chassis Yaw Rate,Clutch Pos,DRS Active,DRS Available,Drive Train Speed,ERS Heat Charging,ERS Is Charging,ERS Max Energy,ERS Power Level,ERS Recovery Level,Engine Brake Setting,Engine Limiter,Engine RPM,Flags,Fuel Level,Gear,Ground Speed,HR Sample Clock,In Pit,KERS Charge,KERS Deployed Energy,KERS Input,KERS Max Energy,LR Sample Clock,Lap Invalidated,Lap Time,Lap Time2,Last Lap Time,Last Sector Time,MR Sample Clock,Max Fuel,Max Power,Max RPM,Max Sus Travel FL,Max Sus Travel FR,Max Sus Travel RL,Max Sus Travel RR,Max Torque,Max Turbo Boost,Num Tires Off Track,Penalties Enabled,Position,Raw Data Sample Rate,Ride Height FL,Ride Height FR,Ride Height RL,Ride Height RR,Road Temp,Self Align Torque FL,Self Align Torque FR,Self Align Torque RL,Self Align Torque RR,Session Lap Count,Session Time Left,Steering Angle,Surface Grip,Suspension Travel FL,Suspension Travel FR,Suspension Travel RL,Suspension Travel RR,TC Active,TC Enabled,Throttle Pos,Tire Dirt Level FL,Tire Dirt Level FR,Tire Dirt Level RL,Tire Dirt Level RR,Tire Load FL,Tire Load FR,Tire Load RL,Tire Load RR,Tire Loaded Radius FL,Tire Loaded Radius FR,Tire Loaded Radius RL,Tire Loaded Radius RR,Tire Pressure FL,Tire Pressure FR,Tire Pressure RL,Tire Pressure RR,Tire Radius FL,Tire Radius FR,Tire Radius RL,Tire Radius RR,Tire Rubber Grip FL,Tire Rubber Grip FR,Tire Rubber Grip RL,Tire Rubber Grip RR,Tire Slip Angle FL,Tire Slip Angle FR,Tire Slip Angle RL,Tire Slip Angle RR,Tire Slip Ratio FL,Tire Slip Ratio FR,Tire Slip Ratio RL,Tire Slip Ratio RR,Tire Temp Core FL,Tire Temp Core FR,Tire Temp Core RL,Tire Temp Core RR,Tire Temp Inner FL,Tire Temp Inner FR,Tire Temp Inner RL,Tire Temp Inner RR,Tire Temp Middle FL,Tire Temp Middle FR,Tire Temp Middle RL,Tire Temp Middle RR,Tire Temp Outer FL,Tire Temp Outer FR,Tire Temp Outer RL,Tire Temp Outer RR,Toe In FL,Toe In FR,Toe In RL,Toe In RR,Turbo Boost,Wheel Angular Speed FL,Wheel Angular Speed FR,Wheel Angular Speed RL,Wheel Angular Speed RR,Wind Direction,Wind Speed
0,0.0,0.0,0.0,1.0,1.0,0.0,0.0,1.0,0.0,0.0,1.0,1.1856,26.0,0.0,0.0,0.0,59.99999,0.0,26.0,26.0,26.0,26.0,-0.01577777777777778,0.3069000000000002,0.12573333333333334,293.045,-2.78775,-2.6170999999999998,-1.56045,-1.5045000000000002,-275.67,215.445,190.987375,0.0,0.0,0.0,0.0,0.0016,-5.498166666666667,-5.498166666666667,-0.5640000000000001,2.3365,0.002555555555555644,0.1509999999999998,65.48400000000001,-0.0246,-0.227,-0.05200000000000049,100.0,1.0,1.0,202.16666666666669,0.0,0.0,0.0,0.0,0.0,0.0,0.0,8569.1,0.0,55.0,5.0,235.71,0.0,0.0,0.0,0.0,0.0,0.0,0.0,0.0,0.0030000000000001137,0.0030000000000001137,0.0,0.0,0.0,55.0,616.79921,10000.0,85.0,85.0,85.0,85.0,395.0,0.0,0.0,0.0,1.0,20.0,50.613,50.613,48.766999999999996,48.766999999999996,34.0,-28.6825,33.35666666666667,-29.516666666666666,27.017500000000002,0.0,1783.582,0.125,100.0,27.634,27.446,40.341,40.014,0.0,0.0,100.0,0.0,0.0,0.0,0.0,3305.5,4322.2,4096.222222222223,4195.3,304.62733333333335,301.38866666666667,314.8815,314.45525,21.7652,20.5129,21.7608,21.3005,314.99999,314.99999,324.99998,324.99998,99.55838571428572,99.50721666666666,99.56467142857143,99.5447,0.03600000000000003,-0.07233333333333336,-0.1353333333333333,0.09016666666666673,-0.054999999999999716,-0.041666666666671404,1.542,1.5594999999999999,37.033,29.205333333333336,37.004999999999995,34.1285,56.094,34.4495,58.884,51.4225,54.024,33.634,57.5165,49.794,53.2,33.21,57.4795,49.22566666666667,-0.0695,-0.08750000000000013,0.11003,0.10892,0.0,205.22,205.18,202.16666666666669,202.16666666666669,0.0,0.0
1,0.0,0.0,0.0,1.0,1.0,0.0,0.0,1.0,0.0,0.0,1.0,1.1856,26.0,0.0,0.0,0.0,59.999996,0.0,26.0,26.0,26.0,26.0,-0.05777777777777782,0.33410000000000006,0.1844,292.221,-2.6933,-2.6994,-1.6032000000000002,-1.5272999999999999,-272.33,215.45,190.9675,0.0,0.0,0.0,0.0,0.0035333333333333336,-5.498166666666667,-5.498166666666667,-0.4706,-1.6190000000000002,-0.04466666666666663,-0.1429999999999998,65.643,-0.0158,-0.173075,0.49600000000000044,100.0,1.0,1.0,202.0366666666667,0.0,0.0,0.0,0.0,0.0,0.0,0.0,8563.6,0.0,55.0,5.0,236.28333333333333,1.0,0.0,0.0,0.0,0.0,0.0,0.0,0.0,0.053999999999998494,0.053999999999998494,0.0,0.0,1.0,55.0,616.79921,10000.0,85.000001,85.000001,85.000001,85.000001,395.0,0.0,0.0,0.0,1.0,333.33500000000004,54.321,54.321,47.058,47.058,34.0,-22.4625,16.884999999999998,-38.53,39.585,0.0,1783.529,0.33000000000000185,100.0,27.528,27.211,42.552,43.03,0.0,0.0,100.0,0.0,0.0,0.0,0.0,2785.125,2427.9,4815.555555555556,5654.3,306.35966666666667,307.09366666666665,312.9295,310.91075,21.7749,20.5179,21.7717,21.3099,314.999998,314.999998,324.999988,324.999988,99.55838571428572,99.50721666666666,99.56481428571429,99.54485714285714,0.03825000000000012,-0.09933333333333338,-0.14016666666666666,0.07750000000000012,-0.026666666666670835,-0.05666666666667197,1.2936666666666667,1.306,37.093,29.236666666666665,37.073,34.187,56.076,34.4865,58.9335,51.494,54.007999999999996,33.6685,57.5625,49.862,53.182,33.2435,57.5225,49.29233333333333,-0.04749999999999999,-0.10400000000000009,0.10721000000000001,0.10605,0.0,205.615,205.60000000000002,202.0366666666667,202.0366666666667,0.0,0.0
2,0.0,0.0,0.0,1.0,1.0,0.0,0.0,1.0,0.0,0.0,1.0,1.1856,26.0,0.0,0.0,0.0,59.999996,0.0,26.0,26.0,26.0,26.0,-0.06888888888888889,0.30879999999999996,0.03416666666666667,293.777,-2.6684,-2.6506,-1.57085,-1.5129000000000001,-268.98,215.45,190.948625,0.0,0.0,0.0,0.0,0.0055000000000000005,-5.498166666666667,-5.498166666666667,-0.5832,0.45999999999999996,-0.00633333333333308,2.1500000000000004,65.777,-0.019,-0.27325,0.7060000000000004,100.0,1.0,1.0,203.5233333333333,0.0,0.0,0.0,0.0,0.0,0.0,0.0,8626.7,0.0,55.0,5.0,236.76666666666665,0.0,0.0,0.0,0.0,0.0,0.0,0.0,0.0,0.10500000000000043,0.10500000000000043,0.0,0.0,0.0,55.0,616.79921,10000.0,85.000001,85.000001,85.000001,85.000001,395.0,0.0,0.0,0.0,1.0,333.33500000000004,51.650999999999996,51.650999999999996,50.72,50.72,34.0,-28.8725,23.005,-24.31,19.25,0.0,1783.478,0.46000000000000085,100.0,28.163,27.521,41.845,41.796,0.0,0.0,100.0,0.0,0.0,0.0,0.0,3394.125,3262.7,3481.4444444444443,3352.6,304.47366666666665,304.3693333333333,316.35025,316.59525,21.7849,20.523,21.782,21.3183,314.999998,314.999998,324.999988,324.999988,99.5584,99.50723333333333,99.56495714285714,99.54498571428572,0.022749999999999826,-0.10999999999999999,-0.15666666666666662,0.07683333333333331,-0.05666666666667197,-0.07499999999999574,1.7903333333333333,1.8225,37.155,29.269,37.137,34.2395,56.063,34.525999999999996,58.968,51.543,53.995000000000005,33.705,57.5945,49.9095,53.169,33.278,57.5515,49.339,-0.051999999999999935,-0.11949999999999994,0.10834,0.11346500000000001,0.0,206.07,206.015,203.5233333333333,203.5233333333333,0.0,0.0
3,0.0,0.0,0.0,1.0,1.0,0.0,0.0,1.0,0.0,0.0,1.0,1.1856,26.0,0.0,0.0,0.0,59.999996,0.0,26.0,26.0,26.0,26.0,-0.059222222222222176,0.29720000000000013,0.034833333333333334,292.862,-2.68925,-2.673,-1.55545,-1.4789,-265.62,215.45,190.928125,0.0,0.0,0.0,0.0,0.0074333333333333335,-5.498166666666667,-5.498166666666667,-0.49870000000000003,0.5085,0.009666666666666712,-2.246,65.935,-0.0332,-0.186275,0.6760000000000002,100.0,1.0,1.0,203.28333333333333,0.0,0.0,0.0,0.0,0.0,0.0,0.0,8616.4,0.0,55.0,5.0,237.33666666666667,1.0,0.0,0.0,0.0,0.0,0.0,0.0,0.0,0.1559999999999988,0.1559999999999988,0.0,0.0,1.0,55.0,616.79921,10000.0,85.000001,85.000001,85.000001,85.000001,395.0,0.0,0.0,0.0,1.0,166.665,53.253,53.253,47.348,47.348,34.0,-23.64,20.195,-35.31666666666666,27.7525,0.0,1783.429,0.5350000000000001,100.0,27.826999999999998,27.683,42.084,42.257,0.0,0.0,100.0,0.0,0.0,0.0,0.0,2850.375,2873.5,4562.555555555556,4401.7,306.248,305.486,313.73,313.77675,21.7945,20.5284,21.7924,21.3273,314.999998,314.999998,324.999988,324.999988,99.5584,99.50723333333333,99.5651,99.54512857142858,0.02024999999999988,-0.10866666666666658,-0.15300000000000002,0.06766666666666676,-0.036666666666668846,-0.045000000000001705,1.405,1.429,37.216,29.302333333333333,37.203,34.296,56.046,34.5685,59.0085,51.611,53.979,33.744,57.6325,49.975,53.152,33.3155,57.5865,49.403,-0.03849999999999998,-0.11850000000000005,0.1131,0.10207500000000001,0.0,206.57999999999998,206.55,203.28333333333333,203.28333333333333,0.0,0.0
4,0.0,0.0,0.0,1.0,1.0,0.0,0.0,1.0,0.0,0.0,1.0,1.1856,26.0,0.0,0.0,0.0,59.999996,0.0,26.0,26.0,26.0,26.0,-0.08966666666666656,0.2843,-0.07216666666666667,293.365,-2.6713,-2.7451,-1.4905,-1.594,-262.25,215.45,190.908875,0.0,0.0,0.0,0.0,0.0094,-5.498166666666667,-5.498166666666667,-0.5357000000000001,-0.843,-0.04244444444444451,0.4720000000000004,66.08,-0.044000000000000004,-0.24065,1.016,100.0,1.0,1.0,203.98333333333335,0.0,0.0,0.0,0.0,0.0,0.0,0.0,8646.1,0.0,55.0,5.0,237.86,0.0,0.0,0.0,0.0,0.0,0.0,0.0,0.0,0.20700000000000074,0.20700000000000074,0.0,0.0,0.0,55.0,616.79921,10000.0,85.000001,85.000001,85.000001,85.000001,395.0,0.0,0.0,0.0,1.0,166.665,52.902,52.902,48.798,48.798,34.0,-26.9375,20.79,-29.21,24.377499999999998,0.0,1783.378,0.5399999999999991,100.0,27.911,27.161,42.873000000000005,42.185,0.0,0.0,100.0,0.0,0.0,0.0,0.0,3124.75,2955.1,3999.777777777778,3834.0,305.2493333333333,305.464,315.0435,315.303,21.8043,20.5335,21.8031,21.336199999999998,314.999998,314.999998,324.999988,324.999988,99.5584,99.50725,99.56524285714286,99.54527142857143,0.007750000000000146,-0.1203333333333334,-0.1638333333333334,0.07050000000000001,-0.05333333333332746,-0.03166666666666629,1.5603333333333333,1.592,37.277,29.334333333333333,37.269,34.3515,56.03,34.608000000000004,59.051,51.670500000000004,53.963,33.7805,57.672,50.032,53.135999999999996,33.3505,57.6235,49.459,-0.026000000000000023,-0.119,0.10654500000000001,0.12363,0.0,206.99,206.9,203.98333333333335,203.98333333333335,0.0,0.0
5,0.0,0.0,0.0,1.0,1.0,0.0,0.0,1.0,0.0,0.0,1.0,1.1856,26.0,0.0,0.0,0.0,59.999996,0.0,26.0,26.0,26.0,26.0,-0.10288888888888892,0.2841,-0.0417,293.686,-2.6465,-2.6995,-1.54275,-1.5751,-259.08,215.4475,190.89025,0.0,0.0,0.0,0.0,0.011233333333333333,-5.498166666666667,-5.498166666666667,-0.5399,0.5914999999999999,-0.02666666666666684,0.7679999999999998,66.21600000000001,-0.0621,-0.2257,0.9460000000000006,100.0,1.0,1.0,204.49,0.0,0.0,0.0,0.0,0.0,0.0,0.0,8667.5,0.0,55.0,5.0,238.35000000000002,1.0,0.0,0.0,0.0,0.0,0.0,0.0,0.0,0.254999999999999,0.254999999999999,0.0,0.0,1.0,55.0,616.79921,10000.0,85.000001,85.000001,85.000001,85.000001,395.0,0.0,0.0,0.0,1.0,333.33500000000004,53.177,53.177,49.194,49.194,34.0,-25.245,21.063333333333333,-29.846666666666668,23.7025,0.0,1783.329,0.129999999999999,100.0,27.817,27.034,42.405,41.623000000000005,0.0,0.0,100.0,0.0,0.0,0.0,0.0,3010.75,2996.3,3911.4444444444443,3963.6000000000004,305.53,305.318,315.3085,315.06425,21.8136,20.5384,21.8128,21.3444,314.999998,314.999998,324.999988,324.999988,99.5584,99.50726666666667,99.56537142857142,99.5454,0.0182500000000001,-0.1123333333333334,-0.1841666666666666,0.04383333333333317,-0.04999999999999716,-0.06499999999999773,1.588,1.6,37.335,29.365000000000002,37.33,34.4025,56.016,34.6465,59.0865,51.725,53.95,33.816,57.7055,50.084,53.122,33.3845,57.653999999999996,49.51,-0.05799999999999994,-0.09499999999999997,0.10690500000000001,0.10905000000000001,0.0,207.465,207.385,204.49,204.49,0.0,0.0
6,0.0,0.0,0.0,1.0,1.0,0.0,0.0,1.0,0.0,0.0,1.0,1.1856,26.0,0.0,0.0,0.0,59.999996,0.0,26.0,26.0,26.0,26.0,-0.08711111111111103,0.2912000000000001,0.031100000000000003,293.457,-2.6824,-2.7735000000000003,-1.4899,-1.5881,-255.69,215.44,190.869625,0.0,0.0,0.0,0.0,0.013233333333333335,-5.498166666666667,-5.498166666666667,-0.5285000000000001,-0.32899999999999996,-0.04922222222222228,-0.9790000000000001,66.366,-0.0623,-0.20635,0.7620000000000005,100.0,1.0,1.0,204.75333333333333,0.0,0.0,0.0,0.0,0.0,0.0,0.0,8678.7,0.0,55.0,5.0,238.89,0.0,0.0,0.0,0.0,0.0,0.0,0.0,0.0,0.30600000000000094,0.30600000000000094,0.0,0.0,0.0,55.0,616.79921,10000.0,85.000001,85.000001,85.000001,85.000001,395.0,0.0,0.0,0.0,1.0,166.665,53.513,53.513,48.615,48.615,34.0,-28.215,19.47833333333333,-32.64333333333333,24.29,0.0,1783.278,0.38500000000000156,100.0,27.376,26.806,42.576,41.873000000000005,0.0,0.0,100.0,0.0,0.0,0.0,0.0,3219.25,2777.5,4234.444444444444,4031.6000000000004,305.2006666666667,305.8433333333333,314.52575,314.7545,21.8233,20.5435,21.8233,21.3533,314.999998,314.999998,324.999988,324.999988,99.55841428571429,99.50728333333333,99.56551428571429,99.54554285714286,-0.004750000000000032,-0.1273333333333333,-0.18566666666666665,0.03400000000000003,-0.04333333333332945,-0.045000000000001705,1.5,1.5345,37.396,29.39666666666667,37.396,34.4585,55.998999999999995,34.685,59.128,51.7875,53.934,33.8515,57.744,50.144,53.105000000000004,33.4185,57.689499999999995,49.568333333333335,-0.04849999999999999,-0.10149999999999992,0.10475000000000001,0.105675,0.0,207.89,207.82999999999998,204.75333333333333,204.75333333333333,0.0,0.0
7,0.0,0.0,0.0,1.0,1.0,0.0,0.0,1.0,0.0,0.0,1.0,1.1856,26.0,0.0,0.0,0.0,59.999996,0.0,26.0,26.0,26.0,26.0,-0.06088888888888888,0.2882,-0.006066666666666666,293.442,-2.6821,-2.7685,-1.5423,-1.6063,-252.51,215.4325,190.85025,0.0,0.0,0.0,0.0,0.015066666666666666,-5.498166666666667,-5.498166666666667,-0.5342,0.13349999999999995,-0.03944444444444439,-0.2650000000000001,66.502,-0.06430000000000001,-0.21652500000000002,0.6400000000000006,100.0,1.0,1.0,205.24333333333334,0.0,0.0,0.0,0.0,0.0,0.0,0.0,8699.5,0.0,55.0,5.0,239.37666666666667,1.0,0.0,0.0,0.0,0.0,0.0,0.0,0.0,0.3539999999999992,0.3539999999999992,0.0,0.0,1.0,55.0,616.79921,10000.0,85.000001,85.000001,85.000001,85.000001,395.0,0.0,0.0,0.0,1.0,333.33500000000004,53.223,53.223,48.691,48.691,34.0,-26.77,20.95,-32.763333333333335,23.887500000000003,0.0,1783.23,-0.08499999999999908,100.0,27.64,27.03,42.586,41.834,0.0,0.0,100.0,0.0,0.0,0.0,0.0,3197.875,2854.2,4151.111111111111,3946.3,305.25266666666664,305.5606666666667,314.77475,314.98925,21.8327,20.5484,21.8331,21.3617,314.999998,314.999998,324.999988,324.999988,99.55841428571429,99.5073,99.56565714285715,99.54567142857142,0.02450000000000019,-0.10599999999999998,-0.1938333333333333,0.03550000000000009,-0.03333333333333144,-0.061666666666667425,1.5313333333333334,1.5554999999999999,37.454,29.427333333333333,37.457,34.5105,55.986000000000004,34.723,59.1655,51.8435,53.921,33.8865,57.778999999999996,50.198,53.091,33.452,57.722,49.62133333333333,-0.08499999999999996,-0.06750000000000012,0.110075,0.103815,0.0,208.31,208.26,205.24333333333334,205.24333333333334,0.0,0.0
8,0.0,0.0,0.0,1.0,1.0,0.0,0.0,1.0,0.0,0.0,1.0,1.1856,26.0,0.0,0.0,0.0,59.999996,0.0,26.0,26.0,26.0,26.0,-0.045777777777777806,0.2935000000000001,-0.022000000000000002,293.51800000000003,-2.6986499999999998,-2.7021,-1.5554999999999999,-1.5984,-248.91,215.4225,190.8285,0.0,0.0,0.0,0.0,0.017166666666666667,-5.498166666666667,-5.498166666666667,-0.5367000000000001,-0.11450000000000005,-0.028555555555555667,-1.112,66.656,-0.056,-0.21930000000000002,0.2839999999999998,100.0,1.0,1.0,205.72,0.0,0.0,0.0,0.0,0.0,0.0,0.0,8719.7,0.0,55.0,5.0,239.93,0.0,0.0,0.0,0.0,0.0,0.0,0.0,0.0,0.40800000000000125,0.40800000000000125,0.0,0.0,0.0,55.0,616.79921,10000.0,85.000001,85.000001,85.000001,85.000001,395.0,0.0,0.0,0.0,1.0,166.665,53.329,53.329,48.492,48.492,34.0,-25.7975,21.75,-31.18,25.1625,0.0,1783.177,-0.1850000000000005,100.0,27.301,27.09,42.525999999999996,41.976,0.0,0.0,100.0,0.0,0.0,0.0,0.0,3121.25,2950.5,4088.1111111111113,3930.7,305.5036666666667,305.2753333333333,314.9185,315.01025,21.8429,20.554,21.8442,21.3712,314.999998,314.999998,324.999988,324.999988,99.55841428571429,99.50731666666667,99.56581428571428,99.54582857142857,0.03275000000000006,-0.09166666666666656,-0.17149999999999999,0.06566666666666676,-0.06666666666666998,-0.01833333333333087,1.5486666666666666,1.5605,37.518,29.462333333333333,37.525999999999996,34.57,55.969,34.765,59.207499999999996,51.909,53.906,33.9255,57.818,50.2605,53.075,33.489,57.757999999999996,49.68266666666666,-0.09299999999999997,-0.06000000000000005,0.10046500000000001,0.11913000000000001,0.0,208.805,208.715,205.72,205.72,0.0,0.0
9,0.0,0.0,0.0,1.0,1.0,0.0,0.0,1.0,0.0,0.0,1.0,1.1856,26.0,0.0,0.0,0.0,59.999996,0.0,26.0,26.0,26.0,26.0,-0.03322222222222215,0.2794000000000001,0.0074,293.35,-2.6727499999999997,-2.721,-1.52115,-1.5568,-245.91,215.4125,190.810125,0.0,0.0,0.0,0.0,0.0189,-5.498166666666667,-5.498166666666667,-0.5339,0.19499999999999995,-0.03766666666666696,0.6909999999999998,66.783,-0.0453,-0.2126,0.06200000000000028,100.0,1.0,1.0,206.08333333333331,0.0,0.0,0.0,0.0,0.0,0.0,0.0,8735.2,0.0,55.0,5.0,240.39,1.0,0.0,0.0,0.0,0.0,0.0,0.0,0.0,0.4529999999999994,0.4529999999999994,0.0,0.0,1.0,55.0,616.79921,10000.0,85.000001,85.000001,85.000001,85.000001,395.0,0.0,0.0,0.0,1.0,333.33500000000004,53.085,53.085,48.737,48.737,34.0,-24.7175,23.375,-28.93,26.7,0.0,1783.13,-0.34499999999999886,100.0,27.64,26.934,42.562,41.912,0.0,0.0,100.0,0.0,0.0,0.0,0.0,3100.125,3054.4,4024.5555555555557,4117.6,305.328,305.1603333333333,315.003,314.66675,21.8516,20.5586,21.8534,21.3791,314.999998,314.999998,324.999988,324.999988,99.55842857142858,99.50731666666667,99.56594285714286,99.54595714285715,0.05549999999999988,-0.07266666666666666,-0.14300000000000002,0.08050000000000002,-0.04333333333332945,-0.061666666666667425,1.5336666666666665,1.5525,37.572,29.491333333333333,37.584,34.619,55.956,34.802,59.2445,51.966,53.893,33.959,57.8525,50.315,53.062,33.5215,57.79,49.736333333333334,-0.09599999999999997,-0.0495000000000001,0.096905,0.11266000000000001,0.0,209.16,209.17000000000002,206.08333333333331,206.08333333333331,0.0,0.0
10,0.0,0.0,0.0,1.0,1.0,0.0,0.0,1.0,0.0,0.0,1.0,1.1856,26.0,0.0,0.0,0.0,59.999996,0.0,26.0,26.0,26.0,26.0,-0.01488888888888884,0.29310000000000014,0.005533333333333334,293.243,-2.68095,-2.699,-1.5572,-1.5451000000000001,-242.5,215.4025,190.78925,0.0,0.0,0.0,0.0,0.020900000000000002,-5.498166666666667,-5.498166666666667,-0.529,-0.21599999999999997,-0.015888888888889063,-0.0259999999999998,66.928,-0.031200000000000002,-0.21052500000000002,-0.11799999999999944,100.0,1.0,1.0,206.46,0.0,0.0,0.0,0.0,0.0,0.0,0.0,8751.1,0.0,55.0,5.0,240.91,0.0,0.0,0.0,0.0,0.0,0.0,1.0,0.0,0.5040000000000013,0.5040000000000013,0.0,0.0,0.0,55.0,616.79921,10000.0,85.000001,85.000001,85.000001,85.000001,395.0,0.0,0.0,0.0,1.0,166.665,53.329,53.329,48.416,48.416,34.0,-24.3025,22.509999999999998,-30.763333333333332,27.505,0.0,1783.081,-0.46499999999999986,100.0,27.439,27.05,42.566,42.285,0.0,0.0,100.0,0.0,0.0,0.0,0.0,3106.0,2926.9,4159.777777777777,4190.6,305.488,305.39566666666667,314.7355,314.3995,21.8613,20.5639,21.8639,21.3881,314.999998,314.999998,324.999988,324.999988,99.55842857142858,99.50731666666667,99.56607142857143,99.54608571428571,0.06325000000000003,-0.06566666666666665,-0.14583333333333337,0.08283333333333331,-0.04333333333332945,-0.05666666666667197,1.513,1.5145,37.632999999999996,29.52433333333333,37.65,34.6755,55.944,34.837,59.2825,52.0245,53.881,33.9915,57.888,50.3715,53.049,33.5525,57.8225,49.791,-0.11199999999999999,-0.03750000000000009,0.10911000000000001,0.11042,0.0,209.60000000000002,209.615,206.46,206.46,0.0,0.0
11,0.0,0.0,0.0,1.0,1.0,0.0,0.0,1.0,0.0,0.0,1.0,1.1856,26.0,0.0,0.0,0.0,59.999996,0.0,26.0,26.0,26.0,26.0,-0.00477777777777777,0.2903,-0.0308,293.533,-2.70255,-2.696,-1.56515,-1.5182,-239.07999999999998,215.39,190.768375,0.0,0.0,0.0,0.0,0.022600000000000002,-5.498166666666667,-5.498166666666667,-0.5497000000000001,-0.26750000000000007,0.012111111111110962,0.9779999999999998,67.07,-0.013600000000000001,-0.222925,-0.39200000000000035,100.0,1.0,1.0,206.98666666666668,0.0,0.0,0.0,0.0,0.0,0.0,0.0,8773.4,0.0,55.0,5.0,241.42333333333335,1.0,0.0,0.0,0.0,0.0,0.0,1.0,0.0,0.5549999999999997,0.5549999999999997,0.0,0.0,1.0,55.0,616.79921,10000.0,85.000001,85.000001,85.000001,85.000001,395.0,0.0,0.0,0.0,1.0,166.665,53.329,53.329,48.888999999999996,48.888999999999996,34.0,-22.9275,24.936666666666667,-26.746666666666666,27.78,0.0,1783.03,-0.6199999999999992,100.0,27.332,26.935,42.451,42.227000000000004,0.0,0.0,100.0,0.0,0.0,0.0,0.0,2992.75,3120.5,3887.4444444444443,4097.4,305.66266666666667,304.9753333333333,315.35125,314.725,21.8708,20.5692,21.874299999999998,21.397100000000002,314.999998,314.999998,324.999988,324.999988,99.55842857142858,99.50733333333334,99.56622857142857,99.54622857142857,0.08099999999999996,-0.04366666666666663,-0.11466666666666658,0.1156666666666668,-0.036666666666668846,-0.05833333333333002,1.5833333333333335,1.561,37.693,29.557333333333332,37.714,34.7315,55.929,34.8745,59.3195,52.085499999999996,53.867000000000004,34.025999999999996,57.9225,50.43,53.034,33.585499999999996,57.854,49.84866666666667,-0.11449999999999994,-0.03499999999999992,0.10940000000000001,0.10817,0.0,210.025,210.04500000000002,206.98666666666668,206.98666666666668,0.0,0.0
12,0.0,0.0,0.0,1.0,1.0,0.0,0.0,1.0,0.0,0.0,1.0,1.1856,26.0,0.0,0.0,0.0,59.999996,0.0,26.0,26.0,26.0,26.0,0.005444444444444585,0.29800000000000004,0.0028333333333333335,293.167,-2.70175,-2.6836,-1.5644,-1.5331000000000001,-235.86,215.3775,190.74775,0.0,0.0,0.0,0.0,0.025466666666666665,-5.498166666666667,-5.498166666666667,-0.5427000000000001,0.41100000000000003,0.016000000000000014,0.8010000000000002,67.20400000000001,0.0039000000000000003,-0.205625,-0.4939999999999998,100.0,1.0,1.0,207.34,0.0,0.0,0.0,0.0,0.0,0.0,0.0,8788.4,0.0,55.0,5.0,241.90666666666667,0.0,0.0,0.0,0.0,0.0,0.0,1.0,0.0,0.602999999999998,0.602999999999998,0.0,0.0,0.0,55.0,616.79921,10000.0,85.000001,85.000001,85.000001,85.000001,395.0,0.0,0.0,0.0,1.0,166.665,52.994,52.994,48.325,48.325,34.0,-23.0025,25.255,-27.493333333333332,29.8775,0.0,1782.981,-0.4399999999999995,100.0,27.504,27.285,42.309,42.229,0.0,0.0,100.0,0.0,0.0,0.0,0.0,2996.375,3164.6,4078.0,4229.9,305.639,304.81333333333333,314.9015,314.428,21.8798,20.5743,21.884,21.4055,314.999998,314.999998,324.999988,324.999988,99.55844285714285,99.50733333333334,99.56635714285714,99.54635714285715,0.08050000000000024,-0.04399999999999993,-0.09650000000000003,0.12949999999999995,-0.05833333333333002,-0.03999999999999915,1.5596666666666668,1.5365,37.748999999999995,29.589333333333336,37.775,34.7845,55.918,34.911,59.3545,52.143,53.855999999999995,34.0595,57.955,50.4855,53.022,33.6175,57.8835,49.903,-0.10199999999999998,-0.04699999999999993,0.10726000000000001,0.11166500000000001,0.0,210.465,210.49,207.34,207.34,0.0,0.0
13,0.0,0.0,0.0,1.0,1.0,0.0,0.0,1.0,0.0,0.0,1.0,1.1856,26.0,0.0,0.0,0.0,59.999996,0.0,26.0,26.0,26.0,26.0,0.041444444444444395,0.28500000000000014,0.0154,292.862,-2.69725,-2.688,-1.5624,-1.5388000000000002,-232.43,215.3675,190.726125,0.0,0.0,0.0,0.0,0.02673333333333333,-5.498166666666667,-5.498166666666667,-0.5385,-0.266,0.011888888888888838,-0.5030000000000001,67.34700000000001,0.0108,-0.214625,-0.34999999999999964,100.0,1.0,1.0,207.70666666666668,0.0,0.0,0.0,0.0,0.0,0.0,0.0,8804.0,0.0,55.0,5.0,242.42333333333335,1.0,0.0,0.0,0.0,0.0,0.0,1.0,0.0,0.6539999999999999,0.6539999999999999,0.0,0.0,1.0,55.0,616.79921,10000.0,85.000001,85.000001,85.000001,85.000001,395.0,0.0,0.0,0.0,1.0,333.33500000000004,52.856,52.856,48.096000000000004,48.096000000000004,34.0,-23.037499999999998,25.023333333333333,-28.87333333333333,29.5575,0.0,1782.929,-0.5700000000000003,100.0,27.532,27.597,42.565,42.798,0.0,0.0,100.0,0.0,0.0,0.0,0.0,3118.625,3030.2,4156.666666666667,4232.7,305.46233333333333,305.04966666666667,314.742,314.29875,21.8894,20.5797,21.8946,21.4147,314.999998,314.999998,324.999988,324.999988,99.55845714285714,99.50735,99.5665,99.54651428571428,0.0987499999999999,-0.02533333333333332,-0.10683333333333334,0.11533333333333329,-0.03499999999999659,-0.04333333333332945,1.499,1.5025,37.809,29.623333333333335,37.841,34.841499999999996,55.903999999999996,34.949,59.3965,52.207,53.843,34.097,57.9945,50.5505,53.009,33.653,57.918,49.96666666666667,-0.11699999999999999,-0.03049999999999997,0.11313000000000001,0.105355,0.0,210.885,210.91500000000002,207.70666666666668,207.70666666666668,0.0,0.0
14,0.0,0.0,0.0,1.0,1.0,0.0,0.0,1.0,0.0,0.0,1.0,1.1856,26.0,0.0,0.0,0.0,59.999996,0.0,26.0,26.0,26.0,26.0,0.033777777777777906,0.2811000000000001,-0.029,293.106,-2.6845499999999998,-2.7064,-1.5672000000000001,-1.5396,-228.99,215.35750000000002,190.704875,0.0,0.0,0.0,0.0,0.028733333333333333,-5.498166666666667,-5.498166666666667,-0.551,-0.009000000000000119,0.024777777777777787,1.0659999999999998,67.487,0.0201,-0.22592500000000001,-0.49600000000000044,100.0,1.0,1.0,208.24666666666667,0.0,0.0,0.0,0.0,0.0,0.0,0.0,8826.8,0.0,55.0,5.0,242.92333333333335,0.0,0.0,0.0,0.0,0.0,0.0,1.0,0.0,0.7049999999999983,0.7049999999999983,0.0,0.0,0.0,55.0,616.79921,10000.0,85.000001,85.000001,85.000001,85.000001,395.0,0.0,0.0,0.0,1.0,166.665,52.872,52.872,48.507999999999996,48.507999999999996,34.0,-21.55,25.888333333333335,-25.946666666666665,30.0025,0.0,1782.88,-0.46999999999999886,100.0,27.703,27.573,42.53,42.713,0.0,0.0,100.0,0.0,0.0,0.0,0.0,2975.625,3110.3,3948.1111111111113,4127.5,305.6983333333333,304.9506666666667,315.20475,314.655,21.8989,20.5852,21.905,21.4237,314.999998,314.999998,324.999988,324.999988,99.55847142857142,99.50735,99.56664285714285,99.54665714285714,0.10749999999999993,-0.022333333333333316,-0.08383333333333332,0.14683333333333337,-0.030000000000001137,-0.05666666666667197,1.5463333333333333,1.5394999999999999,37.867999999999995,29.657666666666664,37.906,34.897999999999996,55.893,34.9865,59.4315,52.268,53.833,34.1295,58.027,50.6055,52.997,33.6845,57.9495,50.02066666666666,-0.10949999999999993,-0.03699999999999992,0.10929000000000001,0.10949500000000001,0.0,211.3,211.345,208.24666666666667,208.24666666666667,0.0,0.0
15,0.0,0.0,0.0,1.0,1.0,0.0,0.0,1.0,0.0,0.0,1.0,1.1856,26.0,0.0,0.0,0.0,59.999996,0.0,26.0,26.0,26.0,26.0,0.04222222222222216,0.27900000000000014,-0.005833333333333334,293.015,-2.67735,-2.6814,-1.5599500000000002,-1.5544,-225.75,215.3475,190.684375,0.0,0.0,0.0,0.0,0.030633333333333332,-5.498166666666667,-5.498166666666667,-0.5441,0.24349999999999994,0.03633333333333311,0.8230000000000004,67.619,0.0234,-0.21250000000000002,-0.4679999999999991,100.0,1.0,1.0,208.60666666666668,0.0,0.0,0.0,0.0,0.0,0.0,0.0,8842.1,0.0,55.0,5.0,243.40333333333334,1.0,0.0,0.0,0.0,0.0,0.0,1.0,0.0,0.7530000000000001,0.7530000000000001,0.0,0.0,1.0,55.0,616.79921,10000.0,85.000001,85.000001,85.000001,85.000001,395.0,0.0,0.0,0.0,1.0,333.33500000000004,52.887,52.887,48.294,48.294,34.0,-20.8675,25.901666666666667,-26.44333333333333,30.9875,0.0,1782.831,-0.4350000000000005,100.0,27.674,27.655,42.412,42.784,0.0,0.0,100.0,0.0,0.0,0.0,0.0,2936.625,3112.4,4022.8888888888887,4195.8,305.81233333333336,304.9266666666667,315.02975,314.46525,21.907899999999998,20.5904,21.9147,21.4322,314.999998,314.999998,324.999988,324.999988,99.55848571428571,99.50735,99.56677142857143,99.54678571428572,0.11500000000000021,-0.018000000000000016,-0.08366666666666656,0.14733333333333332,-0.05333333333332746,-0.045000000000001705,1.5423333333333333,1.514,37.924,29.689999999999998,37.967,34.951499999999996,55.882,35.0225,59.466499999999996,52.327,53.822,34.1625,58.059,50.662,52.985,33.716499999999996,57.979,50.07633333333334,-0.11149999999999993,-0.04049999999999998,0.10661000000000001,0.11506500000000001,0.0,211.75,211.765,208.60666666666668,208.60666666666668,0.0,0.0
16,0.0,0.0,0.0,1.0,1.0,0.0,0.0,1.0,0.0,0.0,1.0,1.1856,26.0,0.0,0.0,0.0,59.999996,0.0,26.0,26.0,26.0,26.0,0.045666666666666744,0.2723,-0.0047,292.755,-2.70665,-2.6295,-1.59055,-1.5545,-222.09,215.3375,190.661,0.0,0.0,0.0,0.0,0.03276666666666667,-5.498166666666667,-5.498166666666667,-0.5534,-0.26150000000000007,0.02488888888888896,0.26200000000000045,67.768,0.0263,-0.22362500000000002,-0.36799999999999944,100.0,1.0,1.0,209.05666666666667,0.0,0.0,0.0,0.0,0.0,0.0,0.0,8861.2,0.0,55.0,5.0,243.93666666666667,0.0,0.0,0.0,0.0,0.0,0.0,1.0,0.0,0.8069999999999986,0.8069999999999986,0.0,0.0,0.0,55.0,616.79921,10000.0,85.000001,85.000001,85.000001,85.000001,395.0,0.0,0.0,0.0,1.0,166.665,52.49,52.49,47.958,47.958,34.0,-22.4425,26.596666666666664,-26.46,29.955000000000002,0.0,1782.778,-0.35999999999999943,100.0,27.611,27.791,42.687,43.009,0.0,0.0,100.0,0.0,0.0,0.0,0.0,3062.0,3239.9,4056.3333333333335,4058.7,305.43733333333336,304.56666666666666,314.9895,314.777,21.9179,20.5963,21.9258,21.4419,314.999998,314.999998,324.999988,324.999988,99.5585,99.50735,99.56692857142858,99.54694285714285,0.10899999999999999,-0.01866666666666661,-0.07233333333333336,0.15116666666666667,-0.02499999999999858,-0.04833333333333201,1.5533333333333332,1.524,37.986999999999995,29.726666666666667,38.036,35.012,55.869,35.063,59.507,52.393,53.809,34.2,58.097,50.726,52.971000000000004,33.751999999999995,58.0135,50.138666666666666,-0.10399999999999998,-0.050000000000000044,0.10483500000000001,0.107075,0.0,212.16500000000002,212.2,209.05666666666667,209.05666666666667,0.0,0.0
17,0.0,0.0,0.0,1.0,1.0,0.0,0.0,1.0,0.0,0.0,1.0,1.1856,26.0,0.0,0.0,0.0,59.999996,0.0,26.0,26.0,26.0,26.0,0.03511111111111109,0.27590000000000003,0.0284,292.48,-2.6657,-2.6097,-1.554,-1.5150000000000001,-218.82999999999998,215.33249999999998,190.64,0.0,0.0,0.0,0.0,0.034633333333333335,-5.498166666666667,-5.498166666666667,-0.5504,0.15500000000000003,0.005111111111111066,0.44700000000000006,67.899,0.025500000000000002,-0.2167,-0.3379999999999992,100.0,1.0,1.0,209.40333333333334,0.0,0.0,0.0,0.0,0.0,0.0,0.0,8875.8,0.0,55.0,5.0,244.41,1.0,0.0,0.0,0.0,0.0,0.0,1.0,0.0,0.8550000000000004,0.8550000000000004,0.0,0.0,1.0,55.0,616.79921,10000.0,85.000001,85.000001,85.000001,85.000001,395.0,0.0,0.0,0.0,1.0,333.33500000000004,52.368,52.368,47.592,47.592,34.0,-22.14,26.366666666666667,-27.736666666666668,30.755,0.0,1782.729,-0.25,100.0,27.873,27.882,42.730000000000004,43.009,0.0,0.0,100.0,0.0,0.0,0.0,0.0,3040.0,3236.9,4173.666666666667,4256.7,305.46,304.5733333333333,314.63275,314.372,21.9269,20.6015,21.9355,21.4504,314.999998,314.999998,324.999988,324.999988,99.55851428571428,99.50736666666667,99.56707142857142,99.54708571428571,0.10424999999999995,-0.019000000000000017,-0.08350000000000002,0.14316666666666666,-0.045000000000001705,-0.041666666666671404,1.513,1.501,38.043,29.759333333333334,38.097,35.065,55.858000000000004,35.099000000000004,59.542500000000004,52.451,53.798,34.2335,58.129999999999995,50.7815,52.959,33.7845,58.0435,50.193333333333335,-0.09350000000000003,-0.05400000000000005,0.111445,0.10408500000000001,0.0,212.615,212.62,209.40333333333334,209.40333333333334,0.0,0.0
18,0.0,0.0,0.0,1.0,1.0,0.0,0.0,1.0,0.0,0.0,1.0,1.1856,26.0,0.0,0.0,0.0,59.999996,0.0,26.0,26.0,26.0,26.0,0.040888888888888975,0.2771000000000001,0.03686666666666667,292.45,-2.65755,-2.7427,-1.53745,-1.4819,-215.57,215.325,190.618875,0.0,0.0,0.0,0.0,0.036533333333333334,-5.498166666666667,-5.498166666666667,-0.5599000000000001,-0.3380000000000001,0.00477777777777777,0.8280000000000003,68.03,0.0228,-0.2243,-0.2759999999999998,100.0,1.0,1.0,209.77666666666667,0.0,0.0,0.0,0.0,0.0,0.0,0.0,8891.7,0.0,55.0,5.0,244.88,0.0,0.0,0.0,0.0,0.0,0.0,1.0,0.0,0.9029999999999987,0.9029999999999987,0.0,0.0,0.0,55.0,616.79921,10000.0,85.000001,85.000001,85.000001,85.000001,395.0,0.0,0.0,0.0,1.0,333.33500000000004,52.46,52.46,47.745,47.745,34.0,-22.2975,26.741666666666667,-26.946666666666665,30.82,0.0,1782.68,-0.23000000000000043,100.0,27.86,27.798000000000002,42.925,43.150999999999996,0.0,0.0,100.0,0.0,0.0,0.0,0.0,3049.875,3176.4,4075.5555555555557,4319.4,305.4823333333333,304.65933333333334,314.83975,314.19725,21.9358,20.6066,21.9454,21.459,314.999998,314.999998,324.999988,324.999988,99.55852857142857,99.50736666666667,99.5672,99.54721428571429,0.09949999999999992,-0.028000000000000025,-0.08650000000000002,0.14166666666666683,-0.03999999999999915,-0.04333333333332945,1.505,1.495,38.099000000000004,29.791666666666664,38.159,35.119,55.846000000000004,35.134,59.579,52.5095,53.787,34.266,58.1635,50.838,52.947,33.8155,58.0745,50.248333333333335,-0.09399999999999997,-0.05950000000000011,0.11019000000000001,0.10822000000000001,0.0,213.01,213.005,209.77666666666667,209.77666666666667,0.0,0.0
19,0.0,0.0,0.0,1.0,1.0,0.0,0.0,1.0,0.0,0.0,1.0,1.1856,26.0,0.0,0.0,0.0,59.999996,0.0,26.0,26.0,26.0,26.0,0.04788888888888887,0.27080000000000015,0.0126,292.282,-2.64275,-2.7016999999999998,-1.53735,-1.6036000000000001,-212.1,215.32,190.596125,0.0,0.0,0.0,0.0,0.03856666666666667,-5.498166666666667,-5.498166666666667,-0.5525,0.55,0.011666666666666714,-0.7239999999999998,68.167,0.0152,-0.21565,-0.03799999999999937,100.0,1.0,1.0,210.23000000000002,0.0,0.0,0.0,0.0,0.0,0.0,0.0,8910.9,0.0,55.0,5.0,245.37333333333333,1.0,0.0,0.0,0.0,0.0,0.0,1.0,0.0,0.9540000000000006,0.9540000000000006,0.0,0.0,1.0,55.0,616.79921,10000.0,85.000001,85.000001,85.000001,85.000001,395.0,0.0,0.0,0.0,1.0,166.665,52.078,52.078,47.821,47.821,34.0,-23.355,24.508333333333333,-28.116666666666667,30.925,0.0,1782.631,-0.1999999999999993,100.0,28.188,28.358,42.762,43.314,0.0,0.0,100.0,0.0,0.0,0.0,0.0,3153.125,3037.1,4154.0,4195.3,305.321,304.9096666666667,314.78475,314.343,21.9453,20.6123,21.9557,21.4681,314.999998,314.999998,324.999988,324.999988,99.55854285714285,99.50736666666667,99.56734285714286,99.54737142857142,0.08850000000000025,-0.04699999999999993,-0.09933333333333338,0.12766666666666682,-0.046666666666666856,-0.05333333333332746,1.498,1.4985,38.158,29.826666666666668,38.223,35.1755,55.835,35.174,59.615,52.571,53.775999999999996,34.3025,58.1975,50.897,52.935,33.8505,58.105000000000004,50.306333333333335,-0.09499999999999997,-0.058499999999999996,0.10153500000000001,0.112085,0.0,213.45499999999998,213.46,210.23000000000002,210.23000000000002,0.0,0.0
20,0.0,0.0,0.0,1.0,1.0,0.0,0.0,1.0,0.0,0.0,1.0,1.1856,26.0,0.0,0.0,0.0,59.999996,0.0,26.0,26.0,26.0,26.0,0.03155555555555578,0.2623,-0.015700000000000002,292.404,-2.7063,-2.6456,-1.5225,-1.5873,-208.62,215.315,190.57375,0.0,0.0,0.0,0.0,0.040600000000000004,-5.498166666666667,-5.498166666666667,-0.5537000000000001,-0.698,0.015444444444444372,0.577,68.305,0.0091,-0.223775,-0.08000000000000007,100.0,1.0,1.0,210.63666666666666,0.0,0.0,0.0,0.0,0.0,0.0,0.0,8928.2,0.0,55.0,5.0,245.87333333333333,0.0,0.0,0.0,0.0,0.0,0.0,0.0,0.0,1.004999999999999,1.004999999999999,0.0,0.0,0.0,55.0,616.79921,10000.0,85.000001,85.000001,85.000001,85.000001,395.0,0.0,0.0,0.0,1.0,333.33500000000004,52.505,52.505,47.44,47.44,34.0,-22.5225,24.933333333333334,-26.77,30.145,0.0,1782.578,-0.21999999999999886,100.0,27.977,27.944,43.378,43.636,0.0,0.0,100.0,0.0,0.0,0.0,0.0,3008.125,3148.8,4058.3333333333335,4105.9,305.6483333333333,304.901,314.899,314.62475,21.9547,20.6178,21.9663,21.4774,314.999998,314.999998,324.999988,324.999988,99.55854285714285,99.50738333333334,99.56748571428571,99.54751428571429,0.09525000000000006,-0.03966666666666663,-0.08999999999999997,0.1343333333333332,-0.01666666666666572,-0.05333333333332746,1.5086666666666666,1.504,38.217,29.861,38.289,35.2335,55.821,35.212,59.6545,52.634,53.763,34.338,58.2345,50.958,52.922,33.8845,58.138999999999996,50.366,-0.09250000000000003,-0.06600000000000006,0.10255500000000001,0.11471500000000001,0.0,213.85000000000002,213.85000000000002,210.63666666666666,210.63666666666666,0.0,0.0
21,0.0,0.0,0.0,1.0,1.0,0.0,0.0,1.0,0.0,0.0,1.0,1.1856,26.0,0.0,0.0,0.0,59.999996,0.0,26.0,26.0,26.0,26.0,0.0033333333333334103,0.2731000000000001,-0.05056666666666667,292.587,-2.72035,-2.6314,-1.57085,-1.5292,-205.34,215.31,190.55225,0.0,0.0,0.0,0.0,0.0425,-5.498166666666667,-5.498166666666667,-0.5729000000000001,-0.028999999999999915,0.005111111111111066,0.5090000000000003,68.432,0.005200000000000001,-0.224225,-0.08399999999999963,100.0,1.0,1.0,211.12,0.0,0.0,0.0,0.0,0.0,0.0,0.0,8948.7,0.0,55.0,5.0,246.32666666666665,1.0,0.0,0.0,0.0,0.0,0.0,0.0,0.0,1.0530000000000008,1.0530000000000008,0.0,0.0,1.0,55.0,616.79921,10000.0,85.000001,85.000001,85.000001,85.000001,395.0,0.0,0.0,0.0,1.0,333.33500000000004,52.414,52.414,48.05,48.05,34.0,-23.662499999999998,25.306666666666665,-26.936666666666667,28.0025,0.0,1782.53,-0.2699999999999996,100.0,28.003,27.794,43.084,43.268,0.0,0.0,100.0,0.0,0.0,0.0,0.0,3118.5,3196.3,4004.4444444444443,4057.4,305.3353333333333,304.7703333333333,315.1175,314.85775,21.9636,20.623,21.976,21.4858,314.999998,314.999998,324.999988,324.999988,99.55855714285714,99.50738333333334,99.56762857142857,99.54764285714286,0.09399999999999986,-0.037666666666666626,-0.09716666666666662,0.12349999999999994,-0.04333333333332945,-0.06333333333333258,1.5819999999999999,1.5625,38.272999999999996,29.893666666666668,38.349999999999994,35.286500000000004,55.81,35.2485,59.6885,52.69,53.751999999999995,34.3715,58.2655,51.0115,52.909,33.9165,58.167,50.41866666666667,-0.10199999999999998,-0.05800000000000005,0.09825,0.111085,0.0,214.255,214.265,211.12,211.12,0.0,0.0
22,0.0,0.0,0.0,1.0,1.0,0.0,0.0,1.0,0.0,0.0,1.0,1.1856,26.0,0.0,0.0,0.0,59.999996,0.0,26.0,26.0,26.0,26.0,0.009777777777777885,0.27960000000000007,0.021366666666666666,292.191,-2.7641,-2.6605,-1.5998,-1.4964,-201.84,215.3075,190.5285,0.0,0.0,0.0,0.0,0.044533333333333334,-5.498166666666667,-5.498166666666667,-0.5582,0.09299999999999997,0.007444444444444365,-0.605,68.57,0.0048000000000000004,-0.20072500000000001,-0.14399999999999924,100.0,1.0,1.0,211.39,0.0,0.0,0.0,0.0,0.0,0.0,0.0,8960.1,0.0,55.0,5.0,246.82333333333332,0.0,0.0,0.0,0.0,0.0,0.0,0.0,0.0,1.1039999999999992,1.1039999999999992,0.0,0.0,0.0,55.0,616.79921,10000.0,85.000001,85.000001,85.000001,85.000001,395.0,0.0,0.0,0.0,1.0,166.665,52.444,52.444,47.211,47.211,34.0,-24.93,24.278333333333332,-31.293333333333333,29.4525,0.0,1782.481,-0.33000000000000007,100.0,27.895,28.033,43.104,43.355000000000004,0.0,0.0,100.0,0.0,0.0,0.0,0.0,3189.625,3063.4,4335.111111111111,4331.6,305.372,305.0056666666667,314.3945,314.13475,21.9731,20.6285,21.9864,21.495,314.999998,314.999998,324.999988,324.999988,99.55857142857143,99.5074,99.56778571428572,99.5478,0.08199999999999985,-0.04466666666666663,-0.1133333333333334,0.10899999999999999,-0.04833333333333201,-0.04999999999999716,1.486,1.49,38.332,29.928333333333335,38.415,35.3435,55.798,35.287,59.727000000000004,52.751,53.739999999999995,34.407,58.3015,51.070499999999996,52.897,33.9505,58.2,50.476333333333336,-0.10299999999999998,-0.05049999999999999,0.11055000000000001,0.10598,0.0,214.69,214.70499999999998,211.39,211.39,0.0,0.0
23,0.0,0.0,0.0,1.0,1.0,0.0,0.0,1.0,0.0,0.0,1.0,1.1856,26.0,0.0,0.0,0.0,59.999996,0.0,26.0,26.0,26.0,26.0,0.023555555555555552,0.2692000000000001,0.00023333333333333336,292.053,-2.6623,-2.6836,-1.63985,-1.5382,-198.14,215.3025,190.503625,0.0,0.0,0.0,0.0,0.04666666666666667,-5.498166666666667,-5.498166666666667,-0.5727,-0.27500000000000013,0.006333333333333302,-0.6189999999999998,68.713,0.0081,-0.224925,-0.18200000000000038,100.0,1.0,1.0,211.86666666666667,0.0,0.0,0.0,0.0,0.0,0.0,0.0,8980.3,0.0,55.0,5.0,247.34,1.0,0.0,0.0,0.0,0.0,0.0,0.0,0.0,1.1580000000000013,1.1580000000000013,0.0,0.0,1.0,55.0,616.79921,10000.0,85.000001,85.000001,85.000001,85.000001,395.0,0.0,0.0,0.0,1.0,166.665,52.109,52.109,47.363,47.363,34.0,-23.8675,24.245,-31.233333333333334,30.13,0.0,1782.427,-0.29999999999999893,100.0,28.189,28.207,43.325,43.594,0.0,0.0,100.0,0.0,0.0,0.0,0.0,3218.375,3052.0,4283.111111111111,4188.6,305.1213333333333,304.9526666666667,314.53725,314.47625,21.9831,20.6345,21.9975,21.5047,314.999998,314.999998,324.999988,324.999988,99.55858571428571,99.5074,99.56792857142857,99.54795714285714,0.09450000000000003,-0.05033333333333334,-0.11216666666666664,0.13450000000000006,-0.05833333333333002,-0.036666666666668846,1.5103333333333333,1.5075,38.394,29.965333333333334,38.483999999999995,35.4045,55.785,35.3285,59.7675,52.817,53.727999999999994,34.445499999999996,58.3395,51.1335,52.882999999999996,33.9875,58.2345,50.538333333333334,-0.10449999999999993,-0.05899999999999994,0.110585,0.11680000000000001,0.0,215.125,215.115,211.86666666666667,211.86666666666667,0.0,0.0
24,0.0,0.0,0.0,1.0,1.0,0.0,0.0,1.0,0.0,0.0,1.0,1.1856,26.0,0.0,0.0,0.0,59.999996,0.0,26.0,26.0,26.0,26.0,0.021333333333333426,0.27990000000000004,-0.033,292.45,-2.6884,-2.6676,-1.5492,-1.5552000000000001,-195.04,215.3,190.482375,0.0,0.0,0.0,0.0,0.04846666666666667,-5.498166666666667,-5.498166666666667,-0.5855,-0.38349999999999995,0.018777777777777782,1.1589999999999998,68.832,0.008,-0.22362500000000002,-0.22599999999999998,100.0,1.0,1.0,212.25,0.0,0.0,0.0,0.0,0.0,0.0,0.0,8996.5,0.0,55.0,5.0,247.76666666666665,0.0,0.0,0.0,0.0,0.0,0.0,0.0,0.0,1.2029999999999994,1.2029999999999994,0.0,0.0,0.0,55.0,616.79921,10000.0,85.000001,85.000001,85.000001,85.000001,395.0,0.0,0.0,0.0,1.0,166.665,52.704,52.704,47.516,47.516,34.0,-21.7975,24.971666666666664,-27.419999999999998,29.82,0.0,1782.382,-0.33000000000000007,100.0,28.136,27.839,43.326,43.44,0.0,0.0,100.0,0.0,0.0,0.0,0.0,2949.25,3112.5,4110.222222222223,4167.8,305.80133333333333,305.022,314.7915,314.562,21.9914,20.6393,22.0066,21.5128,314.999998,314.999998,324.999988,324.999988,99.5586,99.5074,99.56805714285714,99.54808571428572,0.09799999999999986,-0.035666666666666624,-0.08899999999999997,0.1293333333333333,-0.045000000000001705,-0.060000000000002274,1.5293333333333334,1.5215,38.446,29.995666666666665,38.541,35.455,55.774,35.3615,59.7995,52.8705,53.717,34.476,58.3695,51.185,52.872,34.0165,58.262,50.58866666666667,-0.10449999999999993,-0.052000000000000046,0.09971500000000001,0.10393000000000001,0.0,215.48000000000002,215.49,212.25,212.25,0.0,0.0
25,0.0,0.0,0.0,1.0,1.0,0.0,0.0,1.0,0.0,0.0,1.0,1.1856,26.0,0.0,0.0,0.0,59.999996,0.0,26.0,26.0,26.0,26.0,0.016888888888888953,0.2811000000000001,0.0053,292.175,-2.6824500000000002,-2.6622,-1.5904500000000001,-1.5535999999999999,-191.32,215.2975,190.455625,0.0,0.0,0.0,0.0,0.050633333333333336,-5.498166666666667,-5.498166666666667,-0.6007,0.1795,0.021777777777777896,0.24099999999999966,68.973,0.010100000000000001,-0.2175,-0.2679999999999998,100.0,1.0,1.0,212.73000000000002,0.0,0.0,0.0,0.0,0.0,0.0,0.0,9016.9,0.0,55.0,5.0,248.27666666666664,1.0,0.0,0.0,0.0,0.0,0.0,0.0,0.0,1.256999999999998,1.256999999999998,0.0,0.0,1.0,55.0,616.79921,10000.0,85.000001,85.000001,85.000001,85.000001,395.0,0.0,0.0,0.0,1.0,166.665,51.834,51.834,47.699,47.699,34.0,-23.685,27.028333333333332,-27.5,29.595,0.0,1782.327,-0.3550000000000004,100.0,28.141,28.12,43.108000000000004,43.293,0.0,0.0,100.0,0.0,0.0,0.0,0.0,3178.0,3321.2,4055.0,4151.9,305.1206666666667,304.311,315.041,314.614,22.0012,20.6453,22.0176,21.5224,314.999998,314.999998,324.999988,324.999988,99.55861428571428,99.5074,99.56821428571429,99.54824285714285,0.0987499999999999,-0.03400000000000003,-0.09250000000000003,0.1293333333333333,-0.04999999999999716,-0.07000000000000028,1.5453333333333332,1.537,38.507999999999996,30.033,38.61,35.515,55.76,35.403,59.8375,52.9335,53.704,34.5145,58.4045,51.246,52.858000000000004,34.0535,58.2935,50.647999999999996,-0.10449999999999993,-0.05400000000000005,0.105635,0.10458500000000001,0.0,215.935,215.95,212.73000000000002,212.73000000000002,0.0,0.0
26,0.0,0.0,0.0,1.0,1.0,0.0,0.0,1.0,0.0,0.0,1.0,1.1856,26.0,0.0,0.0,0.0,59.999996,0.0,26.0,26.0,26.0,26.0,0.033666666666666734,0.26480000000000015,0.051366666666666665,291.412,-2.71345,-2.6522,-1.55375,-1.5542,-187.8,215.29500000000002,190.430125,0.0,0.0,0.0,0.0,0.052700000000000004,-5.498166666666667,-5.498166666666667,-0.5742,0.21050000000000002,0.010555555555555651,-0.5680000000000001,69.10900000000001,0.0117,-0.20292500000000002,-0.21799999999999908,100.0,1.0,1.0,212.95333333333332,0.0,0.0,0.0,0.0,0.0,0.0,0.0,9026.3,0.0,55.0,5.0,248.76333333333332,0.0,0.0,0.0,0.0,0.0,0.0,0.0,0.0,1.3079999999999998,1.3079999999999998,0.0,0.0,0.0,55.0,616.79921,10000.0,85.000001,85.000001,85.000001,85.000001,395.0,0.0,0.0,0.0,1.0,166.665,51.666,51.666,46.722,46.722,34.0,-24.5875,24.623333333333335,-31.19333333333333,31.8,0.0,1782.277,-0.3650000000000002,100.0,28.621,28.61,43.518,43.875,0.0,0.0,100.0,0.0,0.0,0.0,0.0,3270.75,3083.8,4440.555555555556,4418.8,305.08033333333333,304.95733333333334,314.12075,313.8465,22.0107,20.651,22.0281,21.5317,314.999998,314.999998,324.999988,324.999988,99.55862857142857,99.50741666666667,99.56835714285714,99.5484,0.09724999999999984,-0.039000000000000035,-0.10266666666666657,0.11633333333333318,-0.03333333333333144,-0.03333333333333144,1.4413333333333334,1.445,38.567,30.068666666666665,38.676,35.573,55.75,35.443,59.876999999999995,52.997,53.695,34.551,58.4415,51.3065,52.847,34.088499999999996,58.327,50.70766666666667,-0.11149999999999993,-0.050999999999999934,0.10647500000000001,0.10025500000000001,0.0,216.35000000000002,216.365,212.95333333333332,212.95333333333332,0.0,0.0
27,0.0,0.0,0.0,1.0,1.0,0.0,0.0,1.0,0.0,0.0,1.0,1.1856,26.0,0.0,0.0,0.0,59.999996,0.0,26.0,26.0,26.0,26.0,0.022111111111111192,0.25760000000000005,-0.05623333333333334,291.824,-2.7543,-2.6672000000000002,-1.6149,-1.5354,-184.69,215.29500000000002,190.4085,0.0,0.0,0.0,0.0,0.0545,-5.498166666666667,-5.498166666666667,-0.5956,-0.758,0.02299999999999991,0.8870000000000005,69.225,0.0151,-0.23647500000000002,-0.3200000000000003,100.0,1.0,1.0,213.43666666666667,0.0,0.0,0.0,0.0,0.0,0.0,0.0,9046.8,0.0,55.0,5.0,249.18333333333334,1.0,0.0,0.0,0.0,0.0,0.0,0.0,0.0,1.352999999999998,1.352999999999998,0.0,0.0,1.0,55.0,616.79921,10000.0,85.000001,85.000001,85.000001,85.000001,395.0,0.0,0.0,0.0,1.0,333.33500000000004,51.956,51.956,46.768,46.768,34.0,-22.7725,26.248333333333335,-28.023333333333333,30.26,0.0,1782.231,-0.34999999999999964,100.0,28.492,28.451999999999998,43.962,44.037,0.0,0.0,100.0,0.0,0.0,0.0,0.0,3032.5,3230.0,4117.222222222223,4154.8,305.63966666666664,304.6023333333333,314.84325,314.65975,22.0189,20.656,22.037399999999998,21.5399,314.999998,314.999998,324.999988,324.999988,99.55862857142857,99.50741666666667,99.56848571428571,99.54851428571429,0.10400000000000009,-0.033333333333333326,-0.08316666666666661,0.14466666666666672,-0.04333333333332945,-0.054999999999999716,1.5283333333333333,1.499,38.617999999999995,30.1,38.733999999999995,35.6245,55.739000000000004,35.4775,59.911,53.0515,53.685,34.583,58.4735,51.359,52.836,34.119,58.3565,50.759,-0.10749999999999993,-0.05699999999999994,0.10092500000000001,0.10885,0.0,216.67000000000002,216.685,213.43666666666667,213.43666666666667,0.0,0.0
28,0.0,0.0,0.0,1.0,1.0,0.0,0.0,1.0,0.0,0.0,1.0,1.1856,26.0,0.0,0.0,0.0,59.999996,0.0,26.0,26.0,26.0,26.0,0.04488888888888898,0.2784,-0.05623333333333334,291.977,-2.6886,-2.6494,-1.63145,-1.5624,-181.14999999999998,215.29250000000002,190.383125,0.0,0.0,0.0,0.0,0.05656666666666667,-5.498166666666667,-5.498166666666667,-0.6021000000000001,0.487,0.007222222222222241,-1.1440000000000001,69.356,0.0173,-0.21845,-0.3039999999999994,100.0,1.0,1.0,213.91666666666669,0.0,0.0,0.0,0.0,0.0,0.0,0.0,9067.2,0.0,55.0,5.0,249.65333333333334,0.0,0.0,0.0,0.0,0.0,0.0,0.0,0.0,1.404,1.404,0.0,0.0,0.0,55.0,616.79921,10000.0,85.000001,85.000001,85.000001,85.000001,395.0,0.0,0.0,0.0,1.0,166.665,51.894999999999996,51.894999999999996,47.348,47.348,34.0,-23.162499999999998,24.905,-28.986666666666668,29.4925,0.0,1782.18,-0.3949999999999996,100.0,28.395,28.63,43.381,43.772999999999996,0.0,0.0,100.0,0.0,0.0,0.0,0.0,3166.625,3100.3,4146.222222222223,4103.6,305.342,304.822,314.9105,314.6975,22.0282,20.6617,22.0477,21.549,314.999998,314.999998,324.999988,324.999988,99.55864285714286,99.50743333333334,99.56862857142858,99.54867142857142,0.10499999999999998,-0.038000000000000034,-0.09833333333333338,0.13183333333333325,-0.04333333333332945,-0.04999999999999716,1.5506666666666666,1.538,38.676,30.135666666666665,38.798,35.6815,55.727999999999994,35.516999999999996,59.945,53.1105,53.674,34.6195,58.5045,51.416,52.824,34.153999999999996,58.3845,50.81433333333334,-0.11599999999999999,-0.050000000000000044,0.10803000000000001,0.104955,0.0,217.11,217.12,213.91666666666669,213.91666666666669,0.0,0.0
29,0.0,0.0,0.0,1.0,1.0,0.0,0.0,1.0,0.0,0.0,1.0,1.1856,26.0,0.0,0.0,0.0,59.999996,0.0,26.0,26.0,26.0,26.0,0.040999999999999925,0.27259999999999995,-0.019766666666666665,291.885,-2.7515,-2.7205,-1.56935,-1.55,-177.61,215.29500000000002,190.35675,0.0,0.0,0.0,0.0,0.058600000000000006,-5.498166666666667,-5.498166666666667,-0.604,-0.669,0.002666666666666595,0.907,69.49000000000001,0.0181,-0.21432500000000002,-0.3779999999999992,100.0,1.0,1.0,214.17333333333335,0.0,0.0,0.0,0.0,0.0,0.0,0.0,9078.0,0.0,55.0,5.0,250.13666666666666,1.0,0.0,0.0,0.0,0.0,0.0,0.0,0.0,1.4549999999999983,1.4549999999999983,0.0,0.0,1.0,55.0,616.79921,10000.0,85.000001,85.000001,85.000001,85.000001,395.0,0.0,0.0,0.0,1.0,333.33500000000004,52.399,52.399,46.844,46.844,34.0,-22.5075,25.778333333333332,-27.95,32.2475,0.0,1782.129,-0.4499999999999993,100.0,28.246,28.214,43.846000000000004,43.951,0.0,0.0,100.0,0.0,0.0,0.0,0.0,3059.25,3103.9,4147.444444444444,4330.2,305.71366666666665,304.9993333333333,314.69375,314.17375,22.037399999999998,20.6673,22.0583,21.5583,314.999998,314.999998,324.999988,324.999988,99.55865714285714,99.50743333333334,99.56878571428571,99.54881428571429,0.11100000000000021,-0.02733333333333332,-0.08533333333333337,0.14483333333333337,-0.03499999999999659,-0.05666666666667197,1.5076666666666667,1.4775,38.733999999999995,30.170666666666666,38.864000000000004,35.7395,55.716,35.5545,59.984,53.1725,53.662,34.653999999999996,58.5415,51.476,52.811,34.1875,58.418,50.873,-0.11299999999999999,-0.045500000000000096,0.110325,0.11163500000000001,0.0,217.49,217.53,214.17333333333335,214.17333333333335,0.0,0.0
30,0.0,0.0,0.0,1.0,1.0,0.0,0.0,1.0,0.0,0.0,1.0,1.1856,26.0,0.0,0.0,0.0,59.999996,0.0,26.0,26.0,26.0,26.0,0.061111111111111116,0.23940000000000006,0.023733333333333335,291.29,-2.63675,-2.7185,-1.65115,-1.465,-174.26999999999998,215.29500000000002,190.331875,0.0,0.0,0.0,0.0,0.06053333333333334,-5.498166666666667,-5.498166666666667,-0.6079,0.777,0.007777777777777883,0.7220000000000004,69.61,0.019,-0.21775,-0.4039999999999999,100.0,1.0,1.0,214.67333333333335,0.0,0.0,0.0,0.0,0.0,0.0,0.0,9099.3,0.0,55.0,5.0,250.57,0.0,0.0,0.0,0.0,0.0,0.0,1.0,0.0,1.5030000000000001,1.5030000000000001,0.0,0.0,0.0,55.0,616.79921,10000.0,85.000001,85.000001,85.000001,85.000001,395.0,0.0,0.0,0.0,1.0,166.665,50.598,50.598,47.211,47.211,34.0,-23.8725,29.166666666666668,-29.003333333333334,28.885,0.0,1782.082,-0.48499999999999943,100.0,29.058,28.857,43.548,43.951,0.0,0.0,100.0,0.0,0.0,0.0,0.0,3371.875,3441.8,4156.555555555556,4178.6,304.6526666666667,303.9053333333333,314.94,314.74175,22.0464,20.6729,22.068,21.567,314.999998,314.999998,324.999988,324.999988,99.55867142857143,99.50743333333334,99.56892857142857,99.54895714285715,0.11775000000000002,-0.02633333333333332,-0.09116666666666662,0.13850000000000007,-0.03833333333332689,-0.054999999999999716,1.5323333333333333,1.5285,38.79,30.205333333333336,38.925,35.7935,55.708,35.5925,60.016999999999996,53.229,53.655,34.69,58.5715,51.53,52.803,34.2215,58.445499999999996,50.926,-0.128,-0.045500000000000096,0.10773500000000001,0.10296000000000001,0.0,217.9,217.93,214.67333333333335,214.67333333333335,0.0,0.0
31,0.0,0.0,0.0,1.0,1.0,0.0,0.0,1.0,0.0,0.0,1.0,1.1856,26.0,0.0,0.0,0.0,59.999996,0.0,26.0,26.0,26.0,26.0,0.052444444444444294,0.2572000000000001,0.0863,290.665,-2.7795,-2.6177,-1.65025,-1.538,-170.72,215.2975,190.305875,0.0,0.0,0.0,0.0,0.0626,-5.498166666666667,-5.498166666666667,-0.5848,-0.33000000000000007,0.01911111111111108,-0.528,69.744,0.025500000000000002,-0.215675,-0.39999999999999947,100.0,1.0,1.0,214.84333333333333,0.0,0.0,0.0,0.0,0.0,0.0,0.0,9106.4,0.0,55.0,5.0,251.05333333333334,1.0,0.0,0.0,0.0,0.0,0.0,1.0,0.0,1.5539999999999985,1.5539999999999985,0.0,0.0,1.0,55.0,616.79921,10000.0,85.000001,85.000001,85.000001,85.000001,395.0,0.0,0.0,0.0,1.0,166.665,51.132,51.132,45.501999999999995,45.501999999999995,34.0,-23.97,26.416666666666664,-31.973333333333333,33.3575,0.0,1782.03,-0.4399999999999995,100.0,28.842,29.207,44.278,44.757999999999996,0.0,0.0,100.0,0.0,0.0,0.0,0.0,3223.25,3270.5,4434.0,4458.3,305.27133333333336,304.3996666666667,314.06975,313.70375,22.0557,20.6787,22.0786,21.5765,314.999998,314.999998,324.999988,324.999988,99.5587,99.50745,99.56907142857143,99.54911428571428,0.11500000000000021,-0.030333333333333323,-0.08850000000000002,0.137,-0.041666666666671404,-0.03333333333333144,1.4316666666666666,1.4055,38.848,30.241666666666667,38.992000000000004,35.853,55.699,35.6325,60.058,53.2935,53.644999999999996,34.727000000000004,58.61,51.5925,52.792,34.257,58.4805,50.987,-0.12,-0.04699999999999993,0.10480500000000001,0.10957000000000001,0.0,218.3,218.325,214.84333333333333,214.84333333333333,0.0,0.0
32,0.0,0.0,0.0,1.0,1.0,0.0,0.0,1.0,0.0,0.0,1.0,1.1856,26.0,0.0,0.0,0.0,59.999996,0.0,26.0,26.0,26.0,26.0,0.05555555555555558,0.2650000000000001,-0.0362,291.351,-2.70265,-2.6771000000000003,-1.5922,-1.6168,-167.16,215.3,190.2805,0.0,0.0,0.0,0.0,0.06466666666666666,-5.498166666666667,-5.498166666666667,-0.6061000000000001,-0.31400000000000006,0.0021111111111109526,0.22799999999999976,69.87100000000001,0.028800000000000003,-0.23365000000000002,-0.4739999999999993,100.0,1.0,1.0,215.4,0.0,0.0,0.0,0.0,0.0,0.0,0.0,9130.0,0.0,55.0,5.0,251.51333333333332,0.0,0.0,0.0,0.0,0.0,0.0,1.0,0.0,1.6050000000000004,1.6050000000000004,0.0,0.0,0.0,55.0,616.79921,10000.0,85.000001,85.000001,85.000001,85.000001,395.0,0.0,0.0,0.0,1.0,333.33500000000004,51.575,51.575,46.616,46.616,34.0,-21.54,26.65833333333333,-26.80666666666667,32.7825,0.0,1781.978,-0.4499999999999993,100.0,28.856,28.941,44.217,44.59,0.0,0.0,100.0,0.0,0.0,0.0,0.0,3052.125,3196.6,4069.6666666666665,4256.8,305.525,304.715,314.92875,314.31775,22.065,20.6845,22.0891,21.5857,314.999998,314.999998,324.999988,324.999988,99.55871428571429,99.50745,99.56922857142857,99.54925714285714,0.12775000000000025,-0.01866666666666661,-0.0711666666666666,0.15050000000000008,-0.04333333333332945,-0.05666666666667197,1.5196666666666667,1.5015,38.906,30.278,39.057,35.911,55.687,35.672,60.0935,53.3545,53.634,34.7635,58.643,51.650999999999996,52.78,34.292,58.51,51.044,-0.11949999999999994,-0.04849999999999999,0.1092,0.10400500000000001,0.0,218.675,218.715,215.4,215.4,0.0,0.0
33,0.0,0.0,0.0,1.0,1.0,0.0,0.0,1.0,0.0,0.0,1.0,1.1856,26.0,0.0,0.0,0.0,59.999996,0.0,26.0,26.0,26.0,26.0,0.04122222222222227,0.25160000000000005,-0.07010000000000001,291.641,-2.72935,-2.6928,-1.5961500000000002,-1.5843,-163.8,215.305,190.2555,0.0,0.0,0.0,0.0,0.06663333333333334,-5.498166666666667,-5.498166666666667,-0.6148,-0.18399999999999994,-0.0023333333333335204,0.8929999999999998,69.992,0.029900000000000003,-0.21682500000000002,-0.4639999999999995,100.0,1.0,1.0,215.79333333333335,0.0,0.0,0.0,0.0,0.0,0.0,0.0,9146.7,0.0,55.0,5.0,251.94666666666666,1.0,0.0,0.0,0.0,0.0,0.0,1.0,0.0,1.6529999999999987,1.6529999999999987,0.0,0.0,1.0,55.0,616.79921,10000.0,85.000001,85.000001,85.000001,85.000001,395.0,0.0,0.0,0.0,1.0,166.665,51.894999999999996,51.894999999999996,46.967,46.967,34.0,-21.94,25.689999999999998,-27.316666666666666,31.2175,0.0,1781.932,-0.45500000000000007,100.0,28.713,28.687,43.99,44.32,0.0,0.0,100.0,0.0,0.0,0.0,0.0,3066.125,3107.2,4089.0,4198.9,305.56233333333336,304.98333333333335,314.93575,314.53875,22.0736,20.689799999999998,22.0988,21.5944,314.999998,314.999998,324.999988,324.999988,99.55872857142857,99.50745,99.56935714285714,99.5494,0.125,-0.025666666666666615,-0.07883333333333331,0.14266666666666672,-0.046666666666666856,-0.05833333333333002,1.5283333333333333,1.5145,38.96,30.311333333333334,39.117000000000004,35.965,55.677,35.707,60.126999999999995,53.41,53.623999999999995,34.795500000000004,58.674,51.704499999999996,52.769,34.323,58.538,51.096000000000004,-0.119,-0.052000000000000046,0.10645,0.10215,0.0,219.075,219.10000000000002,215.79333333333335,215.79333333333335,0.0,0.0
34,0.0,0.0,0.0,1.0,1.0,0.0,0.0,1.0,0.0,0.0,1.0,1.1856,26.0,0.0,0.0,0.0,59.999996,0.0,26.0,26.0,26.0,26.0,0.062000000000000055,0.26160000000000005,-0.07226666666666666,291.855,-2.6686,-2.6709,-1.6282,-1.5261,-160.23000000000002,215.3125,190.2275,0.0,0.0,0.0,0.0,0.0687,-5.498166666666667,-5.498166666666667,-0.641,-0.8900000000000001,0.015555555555555545,-0.2250000000000001,70.122,0.032600000000000004,-0.22007500000000002,-0.40200000000000014,100.0,1.0,1.0,216.15,0.0,0.0,0.0,0.0,0.0,0.0,0.0,9161.7,0.0,55.0,5.0,252.41333333333336,0.0,0.0,0.0,0.0,0.0,0.0,1.0,0.0,1.7040000000000006,1.7040000000000006,0.0,0.0,0.0,55.0,616.79921,10000.0,85.000001,85.000001,85.000001,85.000001,395.0,0.0,0.0,0.0,1.0,166.665,52.429,52.429,47.073,47.073,34.0,-21.5525,24.14666666666667,-28.366666666666667,30.8675,0.0,1781.881,-0.4299999999999997,100.0,28.273,28.519,43.788,44.475,0.0,0.0,100.0,0.0,0.0,0.0,0.0,3049.375,2950.0,4157.111111111111,4213.4,305.771,305.28366666666665,314.83725,314.4855,22.0827,20.6954,22.1092,21.6037,314.999998,314.999998,324.999988,324.999988,99.55872857142857,99.50745,99.56951428571429,99.54955714285714,0.11350000000000016,-0.02733333333333332,-0.08116666666666661,0.14716666666666667,-0.054999999999999716,-0.03499999999999659,1.525,1.5030000000000001,39.016999999999996,30.346333333333334,39.182,36.022999999999996,55.665,35.7435,60.1625,53.471000000000004,53.613,34.829,58.707,51.763,52.756,34.355000000000004,58.567499999999995,51.153333333333336,-0.11199999999999999,-0.0535000000000001,0.10491,0.11166500000000001,0.0,219.45,219.46,216.15,216.15,0.0,0.0
35,0.0,0.0,0.0,1.0,1.0,0.0,0.0,1.0,0.0,0.0,1.0,1.1856,26.0,0.0,0.0,0.0,59.999996,0.0,26.0,26.0,26.0,26.0,0.07266666666666666,0.25660000000000016,-0.053000000000000005,291.718,-2.80465,-2.6491,-1.5422,-1.5782,-156.44,215.32,190.195875,0.0,0.0,0.0,0.0,0.07093333333333333,-5.498166666666667,-5.498166666666667,-0.6775,0.0635,0.0,-1.291,70.256,0.0324,-0.22495,-0.33200000000000074,100.0,1.0,1.0,216.65,0.0,0.0,0.0,0.0,0.0,0.0,0.0,9183.0,0.0,55.0,5.0,252.89666666666665,1.0,0.0,0.0,0.0,0.0,0.0,1.0,0.0,1.7579999999999991,1.7579999999999991,0.0,0.0,1.0,55.0,616.79921,10000.0,85.000001,85.000001,85.000001,85.000001,395.0,0.0,0.0,0.0,1.0,166.665,51.605,51.605,46.86,46.86,34.0,-24.155,26.826666666666668,-26.37,30.285,0.0,1781.827,-0.27999999999999936,100.0,28.188,28.961,43.516,44.010999999999996,0.0,0.0,100.0,0.0,0.0,0.0,0.0,3183.625,3282.8,4132.111111111111,4069.4,305.33633333333336,304.28166666666664,314.951,314.88875,22.0923,20.7016,22.12,21.6134,314.999998,314.999998,324.999988,324.999988,99.55875714285715,99.50746666666667,99.56965714285714,99.54971428571429,0.11050000000000004,-0.03300000000000003,-0.07333333333333336,0.15216666666666678,-0.04333333333332945,-0.041666666666671404,1.556,1.5445,39.077,30.384999999999998,39.25,36.0835,55.650999999999996,35.7855,60.198499999999996,53.5315,53.599999999999994,34.868,58.7405,51.8215,52.742000000000004,34.3925,58.598,51.21033333333334,-0.10050000000000003,-0.06000000000000005,0.105315,0.10398,0.0,219.88,219.88,216.65,216.65,0.0,0.0
