,ABS Active,ABS Enabled,AID Allow Tire Blankets,AID Auto Blip,AID Auto Clutch,AID Auto Shift,AID Fuel Rate,AID Ideal Line,AID Mech Damage,AID Stability,AID Tire Wear Rate,Air Density,Air Temp,Ballast,Best Lap Delta,Best Lap Time,Brake Bias,Brake Pos,Brake Temp FL,Brake Temp FR,Brake Temp RL,Brake Temp RR,CG Accel Lateral,CG Accel Longitudinal,CG Accel Vertical,CG Height,Camber FL,Camber FR,Camber RL,Camber RR,Car Coord X,Car Coord Y,Car Coord Z,Car Damage Front,Car Damage Left,Car Damage Rear,Car Damage Right,Car Pos Norm,Caster FL,Caster FR,Chassis Pitch Angle,Chassis Pitch Rate,Chassis Roll Angle,Chassis Roll Rate,Chassis Velocity X,Chassis Velocity Y,Chassis Velocity Z,Chassis Yaw Rate,Clutch Pos,DRS Active,DRS Available,Drive Train Speed,ERS Heat Charging,ERS Is Charging,ERS Max Energy,ERS Power Level,ERS Recovery Level,Engine Brake Setting,Engine Limiter,Engine RPM,Flags,Fuel Level,Gear,Ground Speed,HR Sample Clock,In Pit,KERS Charge,KERS Deployed Energy,KERS Input,KERS Max Energy,LR Sample Clock,Lap Invalidated,Lap Time,Lap Time2,Last Lap Time,Last Sector Time,MR Sample Clock,Max Fuel,Max Power,Max RPM,Max Sus Travel FL,Max Sus Travel FR,Max Sus Travel RL,Max Sus Travel RR,Max Torque,Max Turbo Boost,Num Tires Off Track,Penalties Enabled,Position,Raw Data Sample Rate,Ride Height FL,Ride Height FR,Ride Height RL,Ride Height RR,Road Temp,Self Align Torque FL,Self Align Torque FR,Self Align Torque RL,Self Align Torque RR,Session Lap Count,Session Time Left,Steering Angle,Surface Grip,Suspension Travel FL,Suspension Travel FR,Suspension Travel RL,Suspension Travel RR,TC Active,TC Enabled,Throttle Pos,Tire Dirt Level FL,Tire Dirt Level FR,Tire Dirt Level RL,Tire Dirt Level RR,Tire Load FL,Tire Load FR,Tire Load RL,Tire Load RR,Tire Loaded Radius FL,Tire Loaded Radius FR,Tire Loaded Radius RL,Tire Loaded Radius RR,Tire Pressure FL,Tire Pressure FR,Tire Pressure RL,Tire Pressure RR,Tire Radius FL,Tire Radius FR,Tire Radius RL,Tire Radius RR,Tire Rubber Grip FL,Tire Rubber Grip FR,Tire Rubber Grip RL,Tire Rubber Grip RR,Tire Slip Angle FL,Tire Slip Angle FR,Tire Slip Angle RL,Tire Slip Angle RR,Tire Slip Ratio FL,Tire Slip Ratio FR,Tire Slip Ratio RL,Tire Slip Ratio RR,Tire Temp Core FL,Tire Temp Core FR,Tire Temp Core RL,Tire Temp Core RR,Tire Temp Inner FL,Tire Temp Inner FR,Tire Temp Inner RL,Tire Temp Inner RR,Tire Temp Middle FL,Tire Temp Middle FR,Tire Temp Middle RL,Tire Temp Middle RR,Tire Temp Outer FL,Tire Temp Outer FR,Tire Temp Outer RL,Tire Temp Outer RR,Toe In FL,Toe In FR,Toe In RL,Toe In RR,Turbo Boost,Wheel Angular Speed FL,Wheel Angular Speed FR,Wheel Angular Speed RL,Wheel Angular Speed RR,Wind Direction,Wind Speed
0,0.0,0.0,0.0,1.0,1.0,0.0,0.0,1.0,0.0,0.0,1.0,1.1856,26.0,0.0,0.0,0.0,59.99999,0.0,26.0,26.0,26.0,26.0,-0.07550000000000001,0.2895000000000001,0.055,294.067,-2.7195,-2.660111111111111,-1.5189,-1.5554999999999999,-275.68,216.3,190.987625,0.0,0.0,0.0,0.0,0.0015999999999999348,-5.498166666666667,-5.498166666666667,-0.5477000000000001,0.957,-0.010777777777777775,-0.43699999999999983,65.525,-0.0324,-0.21495,0.9539999999999997,100.0,1.0,1.0,202.33333333333331,0.0,0.0,0.0,0.0,0.0,0.0,0.0,8576.2,0.0,55.0,5.0,235.85666666666668,0.0,0.0,0.0,0.0,0.0,0.0,0.0,0.0,0.0030000000000001137,0.0030000000000001137,0.0,0.0,0.0,55.0,616.79921,10000.0,85.0,85.0,85.0,85.0,395.0,0.0,0.0,0.0,1.0,20.0,52.765,52.765,49.728,49.728,34.0,-25.9075,23.799999999999997,-29.546666666666663,24.78333333333333,0.0,1781.888,0.8150000000000013,100.0,27.542,26.883,40.641,40.567,0.0,0.0,100.0,0.0,0.0,0.0,0.0,2985.285714285714,3405.6,4028.375,3962.4,305.7845,304.0455,315.04625,314.9565,21.7559,20.5176,21.7926,21.312,314.99999,314.99999,324.99998,324.99998,99.55757142857144,99.50733333333334,99.56655714285715,99.54518571428571,0.0040000000000000036,-0.11699999999999999,-0.15833333333333335,0.06766666666666667,-0.045000000000001705,-0.051666666666669414,1.541,1.5843333333333334,36.974000000000004,29.234666666666666,37.204,34.2,55.847,34.4815,59.5295,51.5775,53.807,33.687,58.153999999999996,49.954499999999996,53.004000000000005,33.287,58.132999999999996,49.39933333333333,-0.010000000000000009,-0.1339999999999999,0.11187000000000001,0.11087000000000001,0.0,205.345,205.235,202.33333333333331,202.33333333333331,0.0,0.0
1,0.0,0.0,0.0,1.0,1.0,0.0,0.0,1.0,0.0,0.0,1.0,1.1856,26.0,0.0,0.0,0.0,59.999996,0.0,26.0,26.0,26.0,26.0,-0.10250000000000004,0.3147,0.16670000000000001,292.984,-2.6378,-2.762666666666667,-1.5272000000000001,-1.548,-272.33,216.29500000000002,190.96725,0.0,0.0,0.0,0.0,0.0035333333333333883,-5.498166666666667,-5.498166666666667,-0.5015000000000001,-0.4365000000000001,-0.05444444444444452,-0.7400000000000002,65.679,-0.046,-0.1951,1.3339999999999996,100.0,1.0,1.0,202.46333333333334,0.0,0.0,0.0,0.0,0.0,0.0,0.0,8581.6,0.0,55.0,5.0,236.41333333333333,1.0,0.0,0.0,0.0,0.0,0.0,0.0,0.0,0.053999999999998494,0.053999999999998494,0.0,0.0,1.0,55.0,616.79921,10000.0,85.000001,85.000001,85.000001,85.000001,395.0,0.0,0.0,0.0,1.0,166.665,53.314,53.314,48.325,48.325,34.0,-27.4625,18.296,-34.303333333333335,29.343333333333334,0.0,1781.84,0.9699999999999989,100.0,27.635,27.123,42.545,41.57,0.0,0.0,100.0,0.0,0.0,0.0,0.0,3166.857142857143,2718.5,4356.375,4696.4,305.2425,306.174,314.188,313.16375,21.7658,20.5227,21.8035,21.320999999999998,314.999998,314.999998,324.999988,324.999988,99.55758571428571,99.50735,99.5667,99.54532857142857,-0.006666666666666599,-0.1396666666666666,-0.17683333333333334,0.043500000000000004,-0.0799999999999983,-0.04333333333332945,1.417,1.4643333333333333,37.036,29.267,37.272,34.2565,55.833,34.5205,59.571,51.638,53.794,33.723,58.192499999999995,50.013,52.989999999999995,33.321,58.1695,49.45633333333333,-0.004999999999999893,-0.14749999999999996,0.10666500000000001,0.10304500000000001,0.0,205.815,205.7,202.46333333333334,202.46333333333334,0.0,0.0
2,0.0,0.0,0.0,1.0,1.0,0.0,0.0,1.0,0.0,0.0,1.0,1.1856,26.0,0.0,0.0,0.0,59.999996,0.0,26.0,26.0,26.0,26.0,-0.12724999999999997,0.2903,-0.011040000000000001,293.594,-2.6081,-2.7854444444444444,-1.4967000000000001,-1.6019999999999999,-268.78,216.28750000000002,190.94725,0.0,0.0,0.0,0.0,0.005599999999999938,-5.498166666666667,-5.498166666666667,-0.5493,0.09450000000000003,-0.041777777777777914,1.778,65.83,-0.07010000000000001,-0.25295,1.6679999999999993,100.0,1.0,1.0,203.38666666666666,0.0,0.0,0.0,0.0,0.0,0.0,0.0,8620.9,0.0,55.0,5.0,236.96,0.0,0.0,0.0,0.0,0.0,0.0,0.0,0.0,0.10800000000000054,0.10800000000000054,0.0,0.0,0.0,55.0,616.79921,10000.0,85.000001,85.000001,85.000001,85.000001,395.0,0.0,0.0,0.0,1.0,166.665,52.307,52.307,50.11,50.11,34.0,-30.2775,19.662,-29.453333333333333,20.563333333333333,0.0,1781.786,0.7250000000000014,100.0,28.357,27.217,42.538,41.419,0.0,0.0,100.0,0.0,0.0,0.0,0.0,3366.285714285714,2930.4,3754.25,3745.5,304.5765,305.479,315.651,315.6045,21.7765,20.528,21.8147,21.3303,314.999998,314.999998,324.999988,324.999988,99.55758571428571,99.50736666666667,99.56684285714286,99.54545714285715,-0.027666666666666728,-0.15333333333333332,-0.221,0.009166666666666667,-0.08500000000000085,-0.054999999999999716,1.6059999999999999,1.6833333333333333,37.102999999999994,29.299999999999997,37.342,34.314499999999995,55.821,34.562,59.61,51.6995,53.782,33.760999999999996,58.229,50.0715,52.977000000000004,33.3575,58.2025,49.513999999999996,-0.012499999999999956,-0.13900000000000023,0.10722500000000001,0.10536000000000001,0.0,206.315,206.14,203.38666666666666,203.38666666666666,0.0,0.0
3,0.0,0.0,0.0,1.0,1.0,0.0,0.0,1.0,0.0,0.0,1.0,1.1856,26.0,0.0,0.0,0.0,59.999996,0.0,26.0,26.0,26.0,26.0,-0.14212499999999995,0.29720000000000013,-0.03432,293.396,-2.7296,-2.688777777777778,-1.5123,-1.5918,-265.62,216.275,190.928875,0.0,0.0,0.0,0.0,0.007433333333333292,-5.498166666666667,-5.498166666666667,-0.5123,0.41700000000000004,-0.011333333333333417,-1.089,65.974,-0.0857,-0.2048,1.2739999999999991,100.0,1.0,1.0,203.5366666666667,0.0,0.0,0.0,0.0,0.0,0.0,0.0,8627.2,0.0,55.0,5.0,237.47333333333333,1.0,0.0,0.0,0.0,0.0,0.0,0.0,0.0,0.1559999999999988,0.1559999999999988,0.0,0.0,1.0,55.0,616.79921,10000.0,85.000001,85.000001,85.000001,85.000001,395.0,0.0,0.0,0.0,1.0,166.665,53.482,53.482,48.172,48.172,34.0,-25.7175,17.872,-35.52666666666667,24.39333333333333,0.0,1781.737,0.5800000000000018,100.0,27.974,27.196,42.388,41.512,0.0,0.0,100.0,0.0,0.0,0.0,0.0,2873.4285714285716,2795.0,4332.375,4196.7,306.0635,305.74425,314.31975,314.3955,21.7857,20.5329,21.8246,21.3387,314.999998,314.999998,324.999988,324.999988,99.55758571428571,99.50738333333334,99.56698571428572,99.5456,-0.01633333333333331,-0.15566666666666662,-0.2175,0.013333333333333334,-0.01666666666666572,-0.030000000000001137,1.496,1.529,37.16,29.330333333333336,37.403999999999996,34.367,55.806,34.602000000000004,59.6455,51.7585,53.768,33.798,58.262,50.1285,52.962,33.393,58.2335,49.56966666666666,-0.03600000000000003,-0.12550000000000017,0.10416,0.11548000000000001,0.0,206.715,206.61,203.5366666666667,203.5366666666667,0.0,0.0
4,0.0,0.0,0.0,1.0,1.0,0.0,0.0,1.0,0.0,0.0,1.0,1.1856,26.0,0.0,0.0,0.0,59.999996,0.0,26.0,26.0,26.0,26.0,-0.15412499999999996,0.2814000000000001,-0.03418,293.594,-2.6555999999999997,-2.7462222222222223,-1.5244,-1.6002,-262.25,216.26,190.909125,0.0,0.0,0.0,0.0,0.009399999999999964,-5.498166666666667,-5.498166666666667,-0.5466,-0.7175,-0.07877777777777784,-0.4940000000000002,66.12,-0.0862,-0.23920000000000002,1.0939999999999994,100.0,1.0,1.0,204.13,0.0,0.0,0.0,0.0,0.0,0.0,0.0,8652.4,0.0,55.0,5.0,238.00333333333333,0.0,0.0,0.0,0.0,0.0,0.0,0.0,0.0,0.20700000000000074,0.20700000000000074,0.0,0.0,0.0,55.0,616.79921,10000.0,85.000001,85.000001,85.000001,85.000001,395.0,0.0,0.0,0.0,1.0,111.11,52.933,52.933,48.859,48.859,34.0,-28.65,20.028,-32.230000000000004,20.816666666666666,0.0,1781.687,0.5450000000000017,100.0,27.898,26.799,42.871,41.457,0.0,0.0,100.0,0.0,0.0,0.0,0.0,3215.285714285714,2994.8,4037.25,3686.9,305.063,305.34,314.92,315.667,21.7953,20.538,21.8353,21.3475,314.999998,314.999998,324.999988,324.999988,99.55758571428571,99.5074,99.56712857142857,99.54574285714286,-0.0173333333333332,-0.14733333333333332,-0.2095,0.015833333333333335,-0.051666666666669414,-0.06666666666666998,1.5696666666666665,1.6036666666666668,37.221000000000004,29.362333333333332,37.47,34.422,55.789,34.6435,59.686,51.817499999999995,53.751999999999995,33.836,58.3,50.1845,52.946,33.4295,58.268,49.62433333333333,-0.02849999999999997,-0.1160000000000001,0.10294,0.10376500000000001,0.0,207.135,207.04500000000002,204.13,204.13,0.0,0.0
5,0.0,0.0,0.0,1.0,1.0,0.0,0.0,1.0,0.0,0.0,1.0,1.1856,26.0,0.0,0.0,0.0,59.999996,0.0,26.0,26.0,26.0,26.0,-0.14174999999999993,0.30900000000000016,-0.009600000000000001,293.61,-2.6693,-2.7655555555555558,-1.5097,-1.5871,-259.07,216.2425,190.889875,0.0,0.0,0.0,0.0,0.011266666666666536,-5.498166666666667,-5.498166666666667,-0.536,0.43799999999999994,-0.08011111111111147,1.1360000000000001,66.258,-0.0874,-0.2146,1.0120000000000005,100.0,1.0,1.0,204.49,0.0,0.0,0.0,0.0,0.0,0.0,0.0,8667.5,0.0,55.0,5.0,238.5,1.0,0.0,0.0,0.0,0.0,0.0,0.0,0.0,0.254999999999999,0.254999999999999,0.0,0.0,1.0,55.0,616.79921,10000.0,85.000001,85.000001,85.000001,85.000001,395.0,0.0,0.0,0.0,1.0,166.665,53.406,53.406,48.935,48.935,34.0,-27.085,19.564,-33.04,23.343333333333334,0.0,1781.638,0.17999999999999972,100.0,27.966,26.701,42.66,41.147999999999996,0.0,0.0,100.0,0.0,0.0,0.0,0.0,3086.5714285714284,2844.4,4140.375,4099.4,305.359,305.84925,314.75875,314.72825,21.8046,20.5428,21.8452,21.3557,314.999998,314.999998,324.999988,324.999988,99.5576,99.50741666666667,99.56725714285714,99.54587142857143,-0.00533333333333319,-0.1316666666666666,-0.20883333333333334,0.012833333333333334,-0.02833333333332888,-0.06833333333332803,1.5336666666666665,1.576,37.278999999999996,29.392666666666663,37.532,34.4735,55.777,34.682,59.7225,51.8715,53.739999999999995,33.871,58.334,50.2365,52.933,33.4625,58.2995,49.675,-0.05699999999999994,-0.09050000000000002,0.10334000000000002,0.103315,0.0,207.585,207.51999999999998,204.49,204.49,0.0,0.0
6,0.0,0.0,0.0,1.0,1.0,0.0,0.0,1.0,0.0,0.0,1.0,1.1856,26.0,0.0,0.0,0.0,59.999996,0.0,26.0,26.0,26.0,26.0,-0.12175000000000002,0.2986,0.01046,293.427,-2.6361,-2.742888888888889,-1.5534,-1.5834000000000001,-255.89,216.2225,190.8705,0.0,0.0,0.0,0.0,0.0131,-5.498166666666667,-5.498166666666667,-0.5321,0.08599999999999997,-0.06211111111111123,0.893,66.396,-0.0799,-0.21635000000000001,0.6639999999999997,100.0,1.0,1.0,204.91,0.0,0.0,0.0,0.0,0.0,0.0,0.0,8685.4,0.0,55.0,5.0,238.99666666666667,0.0,0.0,0.0,0.0,0.0,0.0,0.0,0.0,0.3030000000000008,0.3030000000000008,0.0,0.0,0.0,55.0,616.79921,10000.0,85.000001,85.000001,85.000001,85.000001,395.0,0.0,0.0,0.0,1.0,166.665,53.07,53.07,48.782,48.782,34.0,-26.552500000000002,21.286,-32.38333333333333,23.813333333333333,0.0,1781.59,0.07000000000000028,100.0,27.902,26.767,42.795,41.5,0.0,0.0,100.0,0.0,0.0,0.0,0.0,3125.285714285714,2999.9,4062.25,4037.8,305.2295,305.322,314.934,314.87275,21.8138,20.5477,21.8552,21.3642,314.999998,314.999998,324.999988,324.999988,99.5576,99.50743333333334,99.5674,99.546,0.010333333333333083,-0.1166666666666667,-0.19916666666666666,0.03,-0.05333333333332746,-0.03999999999999915,1.5406666666666666,1.5646666666666667,37.336,29.423000000000002,37.595,34.525999999999996,55.763,34.7195,59.759,51.9295,53.727000000000004,33.906,58.368,50.292,52.92,33.4955,58.3305,49.72933333333333,-0.06899999999999995,-0.08050000000000024,0.11026000000000001,0.106315,0.0,208.0,207.92000000000002,204.91,204.91,0.0,0.0
7,0.0,0.0,0.0,1.0,1.0,0.0,0.0,1.0,0.0,0.0,1.0,1.1856,26.0,0.0,0.0,0.0,59.999996,0.0,26.0,26.0,26.0,26.0,-0.078125,0.2915000000000001,0.050100000000000006,293.198,-2.61,-2.752888888888889,-1.5166,-1.624,-252.3,216.1975,190.848875,0.0,0.0,0.0,0.0,0.015199999999999991,-5.498166666666667,-5.498166666666667,-0.5345,0.0625,-0.0474444444444444,1.2189999999999999,66.551,-0.061900000000000004,-0.224275,0.3460000000000001,100.0,1.0,1.0,205.35666666666668,0.0,0.0,0.0,0.0,0.0,0.0,0.0,8704.4,0.0,55.0,5.0,239.55333333333334,1.0,0.0,0.0,0.0,0.0,0.0,0.0,0.0,0.3569999999999993,0.3569999999999993,0.0,0.0,1.0,55.0,616.79921,10000.0,85.000001,85.000001,85.000001,85.000001,395.0,0.0,0.0,0.0,1.0,166.665,52.78,52.78,48.813,48.813,34.0,-25.8875,22.668,-30.613333333333333,26.380000000000003,0.0,1781.537,-0.21000000000000085,100.0,27.992,26.867,42.804,41.764,0.0,0.0,100.0,0.0,0.0,0.0,0.0,3159.285714285714,3033.3,4026.0,4088.9,305.038,305.14525,314.97175,314.68175,21.8241,20.5531,21.8664,21.3737,314.999998,314.999998,324.999988,324.999988,99.5576,99.50743333333334,99.56755714285714,99.54614285714285,0.030666666666666842,-0.09433333333333316,-0.17733333333333334,0.058833333333333335,-0.03999999999999915,-0.05833333333333002,1.5343333333333335,1.544,37.400999999999996,29.457333333333334,37.665,34.585499999999996,55.748999999999995,34.7615,59.8,51.9945,53.713,33.944,58.406,50.354,52.905,33.5325,58.3655,49.79,-0.08850000000000002,-0.06349999999999989,0.10567000000000001,0.11281500000000001,0.0,208.44,208.41500000000002,205.35666666666668,205.35666666666668,0.0,0.0
8,0.0,0.0,0.0,1.0,1.0,0.0,0.0,1.0,0.0,0.0,1.0,1.1856,26.0,0.0,0.0,0.0,59.999996,0.0,26.0,26.0,26.0,26.0,-0.035250000000000004,0.3013000000000001,0.03674,293.427,-2.6968,-2.7164444444444444,-1.5,-1.5514000000000001,-249.1,216.1725,190.8295,0.0,0.0,0.0,0.0,0.017033333333333345,-5.498166666666667,-5.498166666666667,-0.5354,-0.5795000000000001,-0.030666666666666842,0.734,66.688,-0.047400000000000005,-0.21425000000000002,-0.007999999999999119,100.0,1.0,1.0,205.71333333333334,0.0,0.0,0.0,0.0,0.0,0.0,0.0,8719.4,0.0,55.0,5.0,240.04666666666668,0.0,0.0,0.0,0.0,0.0,0.0,0.0,0.0,0.40500000000000114,0.40500000000000114,0.0,0.0,0.0,55.0,616.79921,10000.0,85.000001,85.000001,85.000001,85.000001,395.0,0.0,0.0,0.0,1.0,166.665,53.635,53.635,48.08,48.08,34.0,-23.3025,22.918,-30.02,27.263333333333332,0.0,1781.489,-0.375,100.0,27.521,26.788,42.797,41.900999999999996,0.0,0.0,100.0,0.0,0.0,0.0,0.0,2908.285714285714,3005.6,4136.5,4175.2,305.9755,305.3345,314.65975,314.476,21.833,20.558,21.8764,21.3821,314.999998,314.999998,324.999988,324.999988,99.55761428571428,99.50745,99.56768571428572,99.54628571428572,0.04899999999999993,-0.07166666666666677,-0.14633333333333334,0.08,-0.041666666666671404,-0.05833333333333002,1.509,1.516,37.457,29.487666666666666,37.727000000000004,34.6385,55.733999999999995,34.7975,59.835499999999996,52.0515,53.699,33.977000000000004,58.439499999999995,50.409,52.89,33.564,58.396,49.843666666666664,-0.09650000000000003,-0.04700000000000015,0.0995,0.1101,0.0,208.85500000000002,208.86,205.71333333333334,205.71333333333334,0.0,0.0
9,0.0,0.0,0.0,1.0,1.0,0.0,0.0,1.0,0.0,0.0,1.0,1.1856,26.0,0.0,0.0,0.0,59.999996,0.0,26.0,26.0,26.0,26.0,-0.025124999999999953,0.28800000000000003,0.0417,293.045,-2.6228,-2.7217777777777776,-1.5535,-1.5624,-245.49,216.14499999999998,190.807125,0.0,0.0,0.0,0.0,0.019133333333333336,-5.498166666666667,-5.498166666666667,-0.5388000000000001,0.7995,-0.031333333333333435,1.0390000000000001,66.838,-0.0267,-0.21330000000000002,-0.21200000000000063,100.0,1.0,1.0,206.2866666666667,0.0,0.0,0.0,0.0,0.0,0.0,0.0,8743.7,0.0,55.0,5.0,240.58666666666667,1.0,0.0,0.0,0.0,0.0,0.0,0.0,0.0,0.45899999999999963,0.45899999999999963,0.0,0.0,1.0,55.0,616.79921,10000.0,85.000001,85.000001,85.000001,85.000001,395.0,0.0,0.0,0.0,1.0,111.11,52.368,52.368,49.025999999999996,49.025999999999996,34.0,-24.33,24.714,-28.24,27.8,0.0,1781.435,-0.509999999999998,100.0,28.103,27.266,42.428,41.932,0.0,0.0,100.0,0.0,0.0,0.0,0.0,3235.714285714286,3085.0,4043.75,4132.8,304.8515,305.0195,315.04375,314.66225,21.8434,20.5637,21.8875,21.3916,314.999998,314.999998,324.999988,324.999988,99.55761428571428,99.50745,99.56782857142858,99.54642857142858,0.08266666666666644,-0.04833333333333312,-0.12216666666666667,0.099,-0.051666666666669414,-0.07166666666666544,1.5696666666666665,1.5556666666666668,37.521,29.523333333333333,37.797,34.6975,55.721000000000004,34.838499999999996,59.8725,52.1145,53.687,34.0155,58.474000000000004,50.469,52.876999999999995,33.6005,58.4275,49.90266666666667,-0.121,-0.03849999999999998,0.09294000000000001,0.11102500000000001,0.0,209.36,209.37,206.2866666666667,206.2866666666667,0.0,0.0
10,0.0,0.0,0.0,1.0,1.0,0.0,0.0,1.0,0.0,0.0,1.0,1.1856,26.0,0.0,0.0,0.0,59.999996,0.0,26.0,26.0,26.0,26.0,0.00912500000000005,0.28390000000000004,0.001,292.938,-2.6632,-2.6973333333333334,-1.5363,-1.5328,-242.48,216.12,190.788875,0.0,0.0,0.0,0.0,0.02089999999999992,-5.498166666666667,-5.498166666666667,-0.5177,-0.36650000000000005,0.008000000000000007,0.35599999999999987,66.968,-0.0085,-0.207075,-0.4739999999999993,100.0,1.0,1.0,206.48333333333335,0.0,0.0,0.0,0.0,0.0,0.0,0.0,8752.1,0.0,55.0,5.0,241.05666666666667,0.0,0.0,0.0,0.0,0.0,0.0,1.0,0.0,0.5040000000000013,0.5040000000000013,0.0,0.0,0.0,55.0,616.79921,10000.0,85.000001,85.000001,85.000001,85.000001,395.0,0.0,0.0,0.0,1.0,166.665,53.436,53.436,47.577,47.577,34.0,-21.2375,22.966,-30.53,29.35333333333333,0.0,1781.388,-0.6149999999999984,100.0,27.713,27.377,42.778,42.755,0.0,0.0,100.0,0.0,0.0,0.0,0.0,2891.857142857143,2874.8,4333.25,4277.0,306.066,305.53075,314.27725,314.15525,21.8518,20.5684,21.8969,21.3997,314.999998,314.999998,324.999988,324.999988,99.55762857142857,99.50746666666667,99.56795714285714,99.54655714285714,0.08933333333333371,-0.04233333333333311,-0.11433333333333333,0.10233333333333333,-0.03166666666666629,-0.03499999999999659,1.4823333333333333,1.461,37.574,29.552333333333333,37.855999999999995,34.748,55.711,34.871,59.908,52.1715,53.677,34.045,58.5065,50.524,52.866,33.6285,58.457499999999996,49.956,-0.1259999999999999,-0.026499999999999968,0.09825500000000001,0.102275,0.0,209.715,209.735,206.48333333333335,206.48333333333335,0.0,0.0
11,0.0,0.0,0.0,1.0,1.0,0.0,0.0,1.0,0.0,0.0,1.0,1.1856,26.0,0.0,0.0,0.0,59.999996,0.0,26.0,26.0,26.0,26.0,0.048250000000000126,0.2724,-0.10028,293.51800000000003,-2.7103,-2.6833333333333336,-1.5909,-1.5225,-238.86,216.09,190.767,0.0,0.0,0.0,0.0,0.022599999999999953,-5.498166666666667,-5.498166666666667,-0.5617,-0.09650000000000003,0.03155555555555556,-0.7760000000000002,67.11500000000001,0.013900000000000001,-0.23650000000000002,-0.6139999999999999,100.0,1.0,1.0,207.25666666666666,0.0,0.0,0.0,0.0,0.0,0.0,0.0,8784.9,0.0,55.0,5.0,241.58666666666664,1.0,0.0,0.0,0.0,0.0,0.0,1.0,0.0,0.5579999999999998,0.5579999999999998,0.0,0.0,1.0,55.0,616.79921,10000.0,85.000001,85.000001,85.000001,85.000001,395.0,0.0,0.0,0.0,1.0,166.665,52.826,52.826,49.286,49.286,34.0,-22.68,25.692,-24.323333333333334,26.623333333333335,0.0,1781.336,-0.6649999999999991,100.0,27.428,27.607,42.26,42.601,0.0,0.0,100.0,0.0,0.0,0.0,0.0,3091.0,3086.5,3723.125,3853.9,305.538,304.8505,315.8495,315.26975,21.8618,20.5741,21.908,21.4092,314.999998,314.999998,324.999988,324.999988,99.55764285714285,99.50746666666667,99.56811428571429,99.5467,0.10400000000000009,-0.021666666666666723,-0.0925,0.13666666666666666,-0.04833333333333201,-0.045000000000001705,1.6516666666666666,1.629,37.635999999999996,29.58833333333333,37.925,34.8075,55.697,34.911,59.942499999999995,52.2345,53.663,34.082,58.539,50.5845,52.851,33.664,58.4865,50.01566666666667,-0.12149999999999994,-0.02400000000000002,0.10646000000000001,0.11132500000000001,0.0,210.16500000000002,210.19,207.25666666666666,207.25666666666666,0.0,0.0
12,0.0,0.0,0.0,1.0,1.0,0.0,0.0,1.0,0.0,0.0,1.0,1.1856,26.0,0.0,0.0,0.0,59.999996,0.0,26.0,26.0,26.0,26.0,0.04774999999999996,0.2921,0.01236,292.969,-2.759,-2.6844444444444444,-1.5522,-1.5238,-235.84,216.0675,190.7475,0.0,0.0,0.0,0.0,0.025466666666666526,-5.498166666666667,-5.498166666666667,-0.5461,0.30099999999999993,0.020000000000000018,0.6699999999999999,67.243,0.029900000000000003,-0.2064,-0.7320000000000002,100.0,1.0,1.0,207.42333333333335,0.0,0.0,0.0,0.0,0.0,0.0,0.0,8791.9,0.0,55.0,5.0,242.04666666666668,0.0,0.0,0.0,0.0,0.0,0.0,1.0,0.0,0.602999999999998,0.602999999999998,0.0,0.0,0.0,55.0,616.79921,10000.0,85.000001,85.000001,85.000001,85.000001,395.0,0.0,0.0,0.0,1.0,333.33500000000004,52.841,52.841,47.928,47.928,34.0,-21.7675,27.08,-26.349999999999998,31.763333333333335,0.0,1781.289,-0.6649999999999991,100.0,27.478,27.572,42.314,42.465,0.0,0.0,100.0,0.0,0.0,0.0,0.0,3012.285714285714,3191.6,4178.0,4229.7,305.636,304.735,314.656,314.4115,21.8701,20.579,21.9172,21.4171,314.999998,314.999998,324.999988,324.999988,99.55764285714285,99.50748333333334,99.56824285714286,99.54684285714286,0.12400000000000011,-0.006999999999999895,-0.06,0.164,-0.045000000000001705,-0.054999999999999716,1.534,1.496,37.688,29.618666666666666,37.983000000000004,34.857,55.686,34.9445,59.9755,52.288,53.653,34.1125,58.569,50.635999999999996,52.84,33.6935,58.513999999999996,50.06633333333333,-0.1259999999999999,-0.025500000000000078,0.107115,0.11177500000000001,0.0,210.57,210.615,207.42333333333335,207.42333333333335,0.0,0.0
13,0.0,0.0,0.0,1.0,1.0,0.0,0.0,1.0,0.0,0.0,1.0,1.1856,26.0,0.0,0.0,0.0,59.999996,0.0,26.0,26.0,26.0,26.0,0.07099999999999995,0.29390000000000005,0.0533,292.557,-2.7364,-2.674,-1.5907,-1.5070999999999999,-232.2,216.04000000000002,190.7245,0.0,0.0,0.0,0.0,0.026866666666666594,-5.498166666666667,-5.498166666666667,-0.5397000000000001,-0.10250000000000004,0.025333333333333208,0.9789999999999999,67.395,0.039900000000000005,-0.216175,-0.8739999999999997,100.0,1.0,1.0,207.82333333333332,0.0,0.0,0.0,0.0,0.0,0.0,0.0,8808.9,0.0,55.0,5.0,242.59,1.0,0.0,0.0,0.0,0.0,0.0,1.0,0.0,0.657,0.657,0.0,0.0,1.0,55.0,616.79921,10000.0,85.000001,85.000001,85.000001,85.000001,395.0,0.0,0.0,0.0,1.0,166.665,52.475,52.475,47.928,47.928,34.0,-20.9925,27.864,-26.583333333333336,32.81,0.0,1781.235,-0.8550000000000004,100.0,27.8,27.797,42.561,42.991,0.0,0.0,100.0,0.0,0.0,0.0,0.0,3052.285714285714,3194.6,4128.25,4362.8,305.49,304.71075,314.73975,314.06775,21.8803,20.5848,21.9284,21.4269,314.999998,314.999998,324.999988,324.999988,99.55767142857142,99.50748333333334,99.56838571428571,99.54698571428571,0.1456666666666666,0.0129999999999999,-0.058333333333333334,0.164,-0.030000000000001137,-0.054999999999999716,1.5070000000000001,1.4863333333333333,37.751999999999995,29.65533333333333,38.053,34.918,55.676,34.9845,60.0145,52.356,53.643,34.15,58.6055,50.701499999999996,52.829,33.729,58.547,50.13033333333333,-0.139,-0.01200000000000001,0.10769000000000001,0.103535,0.0,211.01,211.075,207.82333333333332,207.82333333333332,0.0,0.0
14,0.0,0.0,0.0,1.0,1.0,0.0,0.0,1.0,0.0,0.0,1.0,1.1856,26.0,0.0,0.0,0.0,59.999996,0.0,26.0,26.0,26.0,26.0,0.09812500000000002,0.28690000000000015,-0.00686,292.786,-2.7371,-2.611111111111111,-1.6021,-1.5104000000000002,-228.76,216.01749999999998,190.703125,0.0,0.0,0.0,0.0,0.028866666666666596,-5.498166666666667,-5.498166666666667,-0.5497000000000001,-0.15000000000000013,0.052111111111111,-0.06700000000000017,67.53399999999999,0.0528,-0.22935,-0.9859999999999998,100.0,1.0,1.0,208.35000000000002,0.0,0.0,0.0,0.0,0.0,0.0,0.0,8831.2,0.0,55.0,5.0,243.09333333333336,0.0,0.0,0.0,0.0,0.0,0.0,1.0,0.0,0.7079999999999984,0.7079999999999984,0.0,0.0,0.0,55.0,616.79921,10000.0,85.000001,85.000001,85.000001,85.000001,395.0,0.0,0.0,0.0,1.0,111.11,52.567,52.567,48.126,48.126,34.0,-20.455,27.674,-25.29,31.51,0.0,1781.186,-0.9549999999999983,100.0,27.55,28.034,42.429,43.284,0.0,0.0,100.0,0.0,0.0,0.0,0.0,3029.142857142857,3179.0,3988.75,4166.0,305.7265,304.59475,315.1565,314.48475,21.8898,20.5904,21.939,21.436,314.999998,314.999998,324.999988,324.999988,99.55768571428571,99.50748333333334,99.56852857142857,99.54712857142857,0.15033333333333365,0.020333333333333314,-0.057166666666666664,0.17450000000000002,-0.04999999999999716,-0.05666666666667197,1.5613333333333332,1.5306666666666666,37.811,29.689666666666668,38.117999999999995,34.975,55.668,35.0225,60.05,52.4185,53.635,34.185,58.638,50.7615,52.819,33.7625,58.576499999999996,50.189,-0.15100000000000002,-0.002000000000000224,0.10951500000000002,0.11037500000000001,0.0,211.44,211.525,208.35000000000002,208.35000000000002,0.0,0.0
15,0.0,0.0,0.0,1.0,1.0,0.0,0.0,1.0,0.0,0.0,1.0,1.1856,26.0,0.0,0.0,0.0,59.999996,0.0,26.0,26.0,26.0,26.0,0.12687500000000007,0.28880000000000017,-0.05312000000000001,292.816,-2.7503,-2.567,-1.6291,-1.4499,-225.51999999999998,215.9975,190.682875,0.0,0.0,0.0,0.0,0.03076666666666661,-5.498166666666667,-5.498166666666667,-0.5399,0.238,0.08322222222222209,-0.472,67.666,0.06520000000000001,-0.211075,-1.1339999999999995,100.0,1.0,1.0,208.73000000000002,0.0,0.0,0.0,0.0,0.0,0.0,0.0,8847.3,0.0,55.0,5.0,243.56666666666666,1.0,0.0,0.0,0.0,0.0,0.0,1.0,0.0,0.7560000000000002,0.7560000000000002,0.0,0.0,1.0,55.0,616.79921,10000.0,85.000001,85.000001,85.000001,85.000001,395.0,0.0,0.0,0.0,1.0,166.665,52.811,52.811,48.141,48.141,34.0,-18.8525,27.497999999999998,-24.683333333333334,33.269999999999996,0.0,1781.138,-0.9849999999999994,100.0,27.547,28.095,42.179,43.383,0.0,0.0,100.0,0.0,0.0,0.0,0.0,2870.5714285714284,3148.1,3974.75,4349.1,306.191,304.678,315.22525,314.0495,21.898699999999998,20.5956,21.9487,21.4446,314.999998,314.999998,324.999988,324.999988,99.5577,99.50748333333334,99.56867142857143,99.54727142857143,0.16199999999999992,0.03266666666666662,-0.04016666666666666,0.19016666666666665,-0.02833333333332888,-0.045000000000001705,1.5546666666666666,1.5076666666666667,37.867000000000004,29.722666666666665,38.18,35.028999999999996,55.659,35.0595,60.081,52.478,53.626000000000005,34.219,58.667,50.819,52.81,33.795,58.6025,50.245333333333335,-0.1519999999999999,-0.000500000000000167,0.10161500000000001,0.11422500000000001,0.0,211.85000000000002,211.945,208.73000000000002,208.73000000000002,0.0,0.0
16,0.0,0.0,0.0,1.0,1.0,0.0,0.0,1.0,0.0,0.0,1.0,1.1856,26.0,0.0,0.0,0.0,59.999996,0.0,26.0,26.0,26.0,26.0,0.14087500000000008,0.27700000000000014,-0.05678,292.847,-2.807,-2.605777777777778,-1.6007,-1.4532,-222.26999999999998,215.98250000000002,190.662125,0.0,0.0,0.0,0.0,0.0326333333333334,-5.498166666666667,-5.498166666666667,-0.5611,-0.7230000000000001,0.06777777777777771,-1.0500000000000003,67.797,0.0755,-0.226325,-1.2120000000000006,100.0,1.0,1.0,209.14,0.0,0.0,0.0,0.0,0.0,0.0,0.0,8864.7,0.0,55.0,5.0,244.04333333333335,0.0,0.0,0.0,0.0,0.0,0.0,1.0,0.0,0.8039999999999985,0.8039999999999985,0.0,0.0,0.0,55.0,616.79921,10000.0,85.000001,85.000001,85.000001,85.000001,395.0,0.0,0.0,0.0,1.0,166.665,52.704,52.704,47.882,47.882,34.0,-19.95,28.38,-23.71666666666666,32.013333333333335,0.0,1781.09,-0.9100000000000001,100.0,27.243,28.175,42.463,43.472,0.0,0.0,100.0,0.0,0.0,0.0,0.0,2996.5714285714284,3181.2,3972.125,4129.5,305.924,304.58,315.21775,314.59125,21.9073,20.6009,21.9587,21.4533,314.999998,314.999998,324.999988,324.999988,99.55772857142857,99.5075,99.5688,99.54741428571428,0.16833333333333345,0.03733333333333322,-0.029166666666666667,0.20566666666666666,-0.04333333333332945,-0.05333333333332746,1.5643333333333334,1.5223333333333335,37.921,29.755666666666666,38.242000000000004,35.083,55.647999999999996,35.0965,60.1155,52.536500000000004,53.614999999999995,34.2535,58.699,50.8755,52.798,33.828,58.6315,50.301,-0.15500000000000003,0.0009999999999998899,0.11155000000000001,0.11511,0.0,212.22500000000002,212.32,209.14,209.14,0.0,0.0
17,0.0,0.0,0.0,1.0,1.0,0.0,0.0,1.0,0.0,0.0,1.0,1.1856,26.0,0.0,0.0,0.0,59.999996,0.0,26.0,26.0,26.0,26.0,0.11837500000000012,0.2843,0.021740000000000002,292.389,-2.7677,-2.5616666666666665,-1.6424,-1.4758,-218.6,215.965,190.638125,0.0,0.0,0.0,0.0,0.03476666666666661,-5.498166666666667,-5.498166666666667,-0.5497000000000001,0.47150000000000003,0.0477777777777777,-0.6390000000000002,67.945,0.0826,-0.205825,-1.1439999999999992,100.0,1.0,1.0,209.54333333333335,0.0,0.0,0.0,0.0,0.0,0.0,0.0,8881.8,0.0,55.0,5.0,244.57,1.0,0.0,0.0,0.0,0.0,0.0,1.0,0.0,0.8580000000000005,0.8580000000000005,0.0,0.0,1.0,55.0,616.79921,10000.0,85.000001,85.000001,85.000001,85.000001,395.0,0.0,0.0,0.0,1.0,166.665,52.368,52.368,47.668,47.668,34.0,-20.215,27.36,-26.753333333333334,33.763333333333335,0.0,1781.036,-0.9400000000000013,100.0,27.685,28.421,42.262,43.480000000000004,0.0,0.0,100.0,0.0,0.0,0.0,0.0,3109.285714285714,3100.2,4298.375,4303.6,305.548,304.87475,314.5365,314.21625,21.9173,20.607,21.9697,21.4629,314.999998,314.999998,324.999988,324.999988,99.55774285714286,99.5075,99.56895714285714,99.54757142857143,0.17533333333333356,0.04366666666666674,-0.028833333333333332,0.2,-0.03999999999999915,-0.046666666666666856,1.5206666666666666,1.4856666666666667,37.983000000000004,29.793333333333333,38.311,35.1435,55.641,35.1405,60.1515,52.6025,53.608000000000004,34.2935,58.732,50.9385,52.789,33.867,58.661500000000004,50.363,-0.15249999999999986,-0.0009999999999998899,0.109865,0.10289500000000001,0.0,212.72,212.82,209.54333333333335,209.54333333333335,0.0,0.0
18,0.0,0.0,0.0,1.0,1.0,0.0,0.0,1.0,0.0,0.0,1.0,1.1856,26.0,0.0,0.0,0.0,59.999996,0.0,26.0,26.0,26.0,26.0,0.1312500000000001,0.27170000000000005,-0.013480000000000002,292.404,-2.8035,-2.531555555555556,-1.6597,-1.4199,-215.34,215.95499999999998,190.617125,0.0,0.0,0.0,0.0,0.036666666666666514,-5.498166666666667,-5.498166666666667,-0.5606,-0.5075000000000001,0.0735555555555556,-0.20500000000000007,68.074,0.0855,-0.22395,-1.21,100.0,1.0,1.0,209.97333333333333,0.0,0.0,0.0,0.0,0.0,0.0,0.0,8900.0,0.0,55.0,5.0,245.04000000000002,0.0,0.0,0.0,0.0,0.0,0.0,1.0,0.0,0.9059999999999988,0.9059999999999988,0.0,0.0,0.0,55.0,616.79921,10000.0,85.000001,85.000001,85.000001,85.000001,395.0,0.0,0.0,0.0,1.0,166.665,52.246,52.246,47.638,47.638,34.0,-20.3275,29.256,-24.779999999999998,32.43666666666667,0.0,1780.988,-1.0350000000000001,100.0,27.449,28.315,42.57,43.86,0.0,0.0,100.0,0.0,0.0,0.0,0.0,3102.714285714286,3308.6,4053.25,4203.5,305.617,304.272,315.063,314.43775,21.926099999999998,20.6123,21.9797,21.4717,314.999998,314.999998,324.999988,324.999988,99.55775714285714,99.5075,99.56908571428572,99.5477,0.17799999999999994,0.045666666666666966,-0.022333333333333334,0.20716666666666667,-0.051666666666669414,-0.05333333333332746,1.5510000000000002,1.491,38.038,29.826666666666668,38.373000000000005,35.198,55.632,35.178,60.1855,52.663,53.599999999999994,34.3285,58.763999999999996,50.997,52.78,33.9005,58.69,50.42,-0.16249999999999987,0.0,0.10271500000000001,0.10609,0.0,213.09,213.18,209.97333333333333,209.97333333333333,0.0,0.0
19,0.0,0.0,0.0,1.0,1.0,0.0,0.0,1.0,0.0,0.0,1.0,1.1856,26.0,0.0,0.0,0.0,59.999996,0.0,26.0,26.0,26.0,26.0,0.1023750000000001,0.2813000000000001,0.03234,291.992,-2.7718,-2.5234444444444444,-1.6688,-1.4068,-212.07,215.9475,190.595875,0.0,0.0,0.0,0.0,0.03856666666666653,-5.498166666666667,-5.498166666666667,-0.5514,0.835,0.07566666666666677,-0.875,68.203,0.0947,-0.211675,-1.0820000000000007,100.0,1.0,1.0,210.35666666666668,0.0,0.0,0.0,0.0,0.0,0.0,0.0,8916.2,0.0,55.0,5.0,245.50333333333333,1.0,0.0,0.0,0.0,0.0,0.0,1.0,0.0,0.9540000000000006,0.9540000000000006,0.0,0.0,1.0,55.0,616.79921,10000.0,85.000001,85.000001,85.000001,85.000001,395.0,0.0,0.0,0.0,1.0,166.665,51.666,51.666,47.607,47.607,34.0,-22.197499999999998,27.622,-26.093333333333334,33.20666666666666,0.0,1780.939,-0.3200000000000003,100.0,27.971,28.761,42.317,43.816,0.0,0.0,100.0,0.0,0.0,0.0,0.0,3155.4285714285716,3294.2,4192.375,4364.7,305.349,304.21775,314.79525,314.10825,21.935,20.6178,21.9894,21.4803,314.999998,314.999998,324.999988,324.999988,99.55778571428571,99.5075,99.56921428571428,99.54785714285714,0.1416666666666666,0.009666666666666934,-0.02666666666666667,0.19933333333333333,-0.046666666666666856,-0.03333333333333144,1.5523333333333333,1.5033333333333334,38.093,29.861,38.434,35.251999999999995,55.626000000000005,35.2175,60.216499999999996,52.722,53.593,34.365,58.792,51.054,52.772,33.9355,58.7155,50.476,-0.10549999999999993,-0.05250000000000021,0.11821000000000001,0.100415,0.0,213.54000000000002,213.595,210.35666666666668,210.35666666666668,0.0,0.0
20,0.0,0.0,0.0,1.0,1.0,0.0,0.0,1.0,0.0,0.0,1.0,1.1856,26.0,0.0,0.0,0.0,59.999996,0.0,26.0,26.0,26.0,26.0,0.08787499999999993,0.2674000000000001,-0.027139999999999997,292.374,-2.8037,-2.6052222222222223,-1.5759,-1.5495,-208.38,215.9425,190.572125,0.0,0.0,0.0,0.0,0.0407333333333334,-5.498166666666667,-5.498166666666667,-0.5561,-1.101,0.05400000000000005,-1.3559999999999999,68.351,0.0864,-0.224425,-0.2160000000000002,100.0,1.0,1.0,210.71,0.0,0.0,0.0,0.0,0.0,0.0,0.0,8931.2,0.0,55.0,5.0,246.03666666666666,0.0,0.0,0.0,0.0,0.0,0.0,0.0,0.0,1.0079999999999991,1.0079999999999991,0.0,0.0,0.0,55.0,616.79921,10000.0,85.000001,85.000001,85.000001,85.000001,395.0,0.0,0.0,0.0,1.0,166.665,52.811,52.811,47.028,47.028,34.0,-22.685,24.522,-26.16,33.39333333333333,0.0,1780.884,0.490000000000002,100.0,27.443,28.294,43.043,44.120999999999995,0.0,0.0,100.0,0.0,0.0,0.0,0.0,2962.0,3089.4,4175.625,4193.5,306.0275,304.88275,314.684,314.33275,21.9446,20.6237,22.0007,21.4902,314.999998,314.999998,324.999988,324.999988,99.5578,99.50751666666666,99.56938571428572,99.548,0.0950000000000002,-0.033666666666666734,-0.0455,0.18833333333333335,-0.04333333333332945,-0.03499999999999659,1.4736666666666667,1.4866666666666668,38.153999999999996,29.898,38.504999999999995,35.314,55.611000000000004,35.2575,60.257,52.79,53.579,34.402,58.83,51.1195,52.757,33.971000000000004,58.7495,50.540333333333336,-0.038999999999999924,-0.11050000000000004,0.11407,0.102425,0.0,213.965,213.985,210.71,210.71,0.0,0.0
21,0.0,0.0,0.0,1.0,1.0,0.0,0.0,1.0,0.0,0.0,1.0,1.1856,26.0,0.0,0.0,0.0,59.999996,0.0,26.0,26.0,26.0,26.0,0.04062499999999991,0.27780000000000005,-0.0538,292.679,-2.7452,-2.681222222222222,-1.6219999999999999,-1.5259,-205.1,215.94,190.5505,0.0,0.0,0.0,0.0,0.0426333333333333,-5.498166666666667,-5.498166666666667,-0.5759000000000001,0.516,0.017888888888888843,-1.262,68.475,0.0506,-0.2205,0.5060000000000002,100.0,1.0,1.0,211.31,0.0,0.0,0.0,0.0,0.0,0.0,0.0,8956.6,0.0,55.0,5.0,246.48333333333335,1.0,0.0,0.0,0.0,0.0,0.0,0.0,0.0,1.056000000000001,1.056000000000001,0.0,0.0,1.0,55.0,616.79921,10000.0,85.000001,85.000001,85.000001,85.000001,395.0,0.0,0.0,0.0,1.0,166.665,52.368,52.368,48.203,48.203,34.0,-24.63,23.614,-27.04,28.543333333333333,0.0,1780.837,0.5949999999999989,100.0,27.858,28.278,42.554,43.455,0.0,0.0,100.0,0.0,0.0,0.0,0.0,3152.285714285714,3043.8,4072.625,3982.9,305.4235,304.967,315.08275,315.022,21.9534,20.629,22.0105,21.4987,314.999998,314.999998,324.999988,324.999988,99.55781428571429,99.50751666666666,99.56951428571429,99.54814285714286,0.07833333333333359,-0.06366666666666676,-0.07683333333333334,0.14966666666666667,-0.06499999999999773,-0.03833333333332689,1.5753333333333335,1.5873333333333335,38.209,29.931333333333335,38.565,35.3665,55.599999999999994,35.295500000000004,60.286500000000004,52.8445,53.569,34.437,58.857,51.172,52.745000000000005,34.004,58.774,50.592,-0.03349999999999986,-0.12550000000000017,0.10653000000000001,0.10687500000000001,0.0,214.445,214.37,211.31,211.31,0.0,0.0
22,0.0,0.0,0.0,1.0,1.0,0.0,0.0,1.0,0.0,0.0,1.0,1.1856,26.0,0.0,0.0,0.0,59.999996,0.0,26.0,26.0,26.0,26.0,-0.001375000000000015,0.26449999999999996,0.029260000000000005,292.13,-2.6551,-2.706777777777778,-1.5997,-1.5321,-201.81,215.9375,190.528,0.0,0.0,0.0,0.0,0.044533333333333314,-5.498166666666667,-5.498166666666667,-0.5566,0.11099999999999999,0.005444444444444363,-0.9180000000000001,68.606,0.0081,-0.2049,0.9199999999999999,100.0,1.0,1.0,211.50666666666666,0.0,0.0,0.0,0.0,0.0,0.0,0.0,8965.0,0.0,55.0,5.0,246.95333333333335,0.0,0.0,0.0,0.0,0.0,0.0,0.0,0.0,1.1039999999999992,1.1039999999999992,0.0,0.0,0.0,55.0,616.79921,10000.0,85.000001,85.000001,85.000001,85.000001,395.0,0.0,0.0,0.0,1.0,166.665,52.322,52.322,47.134,47.134,34.0,-24.3875,22.868,-32.096666666666664,28.743333333333332,0.0,1780.788,0.5749999999999993,100.0,28.105,28.246000000000002,43.173,43.566,0.0,0.0,100.0,0.0,0.0,0.0,0.0,3086.5714285714284,3013.9,4310.375,4242.0,305.5085,305.00625,314.46875,314.3615,21.9622,20.6343,22.0205,21.5073,314.999998,314.999998,324.999988,324.999988,99.55782857142857,99.50753333333333,99.56964285714285,99.54828571428571,0.05433333333333357,-0.08233333333333315,-0.13066666666666665,0.10083333333333333,-0.03166666666666629,-0.03333333333333144,1.4696666666666667,1.5013333333333332,38.263999999999996,29.964333333333336,38.628,35.421,55.588,35.333,60.3225,52.903,53.557,34.472,58.8905,51.228,52.733000000000004,34.0375,58.8045,50.64666666666667,-0.03249999999999997,-0.11949999999999994,0.10697500000000001,0.11133000000000001,0.0,214.835,214.76,211.50666666666666,211.50666666666666,0.0,0.0
23,0.0,0.0,0.0,1.0,1.0,0.0,0.0,1.0,0.0,0.0,1.0,1.1856,26.0,0.0,0.0,0.0,59.999996,0.0,26.0,26.0,26.0,26.0,-0.03974999999999995,0.2430000000000001,-0.04404,292.191,-2.6612,-2.679666666666667,-1.6327,-1.616,-198.1,215.9325,190.503125,0.0,0.0,0.0,0.0,0.046699999999999964,-5.498166666666667,-5.498166666666667,-0.5757,-0.13200000000000012,-0.017555555555555546,-0.8080000000000003,68.747,-0.030600000000000002,-0.2308,1.0920000000000005,100.0,1.0,1.0,212.07666666666665,0.0,0.0,0.0,0.0,0.0,0.0,0.0,8989.2,0.0,55.0,5.0,247.46333333333334,1.0,0.0,0.0,0.0,0.0,0.0,0.0,0.0,1.1580000000000013,1.1580000000000013,0.0,0.0,1.0,55.0,616.79921,10000.0,85.000001,85.000001,85.000001,85.000001,395.0,0.0,0.0,0.0,1.0,166.665,51.743,51.743,48.187,48.187,34.0,-28.0,21.642,-31.323333333333334,25.276666666666667,0.0,1780.734,0.4750000000000014,100.0,28.555,28.185000000000002,43.518,43.591,0.0,0.0,100.0,0.0,0.0,0.0,0.0,3363.714285714286,3021.0,4040.625,3894.2,304.6905,305.08825,315.175,315.13125,21.9722,20.6402,22.0317,21.5171,314.999998,314.999998,324.999988,324.999988,99.55782857142857,99.50755,99.5698,99.54844285714286,0.03299999999999992,-0.10499999999999998,-0.161,0.068,-0.045000000000001705,-0.046666666666666856,1.5126666666666666,1.5643333333333334,38.326,30.000999999999998,38.698,35.4815,55.574,35.3765,60.3615,52.966499999999996,53.543,34.512,58.9265,51.289500000000004,52.718,34.076,58.837,50.70666666666666,-0.044499999999999984,-0.11699999999999999,0.10389000000000001,0.11109500000000001,0.0,215.26,215.18,212.07666666666665,212.07666666666665,0.0,0.0
24,0.0,0.0,0.0,1.0,1.0,0.0,0.0,1.0,0.0,0.0,1.0,1.1856,26.0,0.0,0.0,0.0,59.999996,0.0,26.0,26.0,26.0,26.0,-0.08912500000000001,0.2683,-0.06642,292.435,-2.6752,-2.7025555555555556,-1.5481,-1.5631,-194.59,215.9275,190.479125,0.0,0.0,0.0,0.0,0.048733333333333295,-5.498166666666667,-5.498166666666667,-0.5817,-0.748,-0.014555555555555877,0.819,68.884,-0.049,-0.217125,0.8339999999999996,100.0,1.0,1.0,212.37333333333333,0.0,0.0,0.0,0.0,0.0,0.0,0.0,9001.8,0.0,55.0,5.0,247.95333333333335,0.0,0.0,0.0,0.0,0.0,0.0,0.0,0.0,1.2089999999999996,1.2089999999999996,0.0,0.0,0.0,55.0,616.79921,10000.0,85.000001,85.000001,85.000001,85.000001,395.0,0.0,0.0,0.0,1.0,111.11,52.917,52.917,47.073,47.073,34.0,-24.560000000000002,20.768,-33.26,26.02,0.0,1780.684,0.375,100.0,28.354,27.66,43.817,43.294,0.0,0.0,100.0,0.0,0.0,0.0,0.0,2936.285714285714,2958.8,4261.125,4133.9,305.889,305.478,314.4525,314.66575,21.9815,20.6455,22.0423,21.5262,314.999998,314.999998,324.999988,324.999988,99.55784285714286,99.50756666666666,99.56995714285715,99.54858571428572,0.02200000000000024,-0.1136666666666668,-0.17233333333333334,0.059000000000000004,-0.045000000000001705,-0.03833333333332689,1.4886666666666666,1.5126666666666666,38.385,30.034666666666666,38.765,35.5385,55.558,35.416,60.399,53.0255,53.528999999999996,34.5485,58.962,51.346000000000004,52.703,34.111000000000004,58.869,50.762,-0.050999999999999934,-0.10450000000000026,0.10163000000000001,0.11188000000000001,0.0,215.685,215.60500000000002,212.37333333333333,212.37333333333333,0.0,0.0
25,0.0,0.0,0.0,1.0,1.0,0.0,0.0,1.0,0.0,0.0,1.0,1.1856,26.0,0.0,0.0,0.0,59.999996,0.0,26.0,26.0,26.0,26.0,-0.10375000000000001,0.2593000000000001,-0.057120000000000004,292.236,-2.7248,-2.676111111111111,-1.5483,-1.5785,-191.28,215.9225,190.455125,0.0,0.0,0.0,0.0,0.05066666666666653,-5.498166666666667,-5.498166666666667,-0.611,0.07899999999999996,-0.02833333333333332,-0.15799999999999992,69.007,-0.058800000000000005,-0.224725,0.7999999999999998,100.0,1.0,1.0,212.90666666666667,0.0,0.0,0.0,0.0,0.0,0.0,0.0,9024.4,0.0,55.0,5.0,248.4,1.0,0.0,0.0,0.0,0.0,0.0,0.0,0.0,1.256999999999998,1.256999999999998,0.0,0.0,1.0,55.0,616.79921,10000.0,85.000001,85.000001,85.000001,85.000001,395.0,0.0,0.0,0.0,1.0,166.665,51.697,51.697,47.943,47.943,34.0,-28.88,23.246,-30.046666666666663,24.74666666666667,0.0,1780.634,0.2950000000000017,100.0,28.484,27.924,43.557,42.962,0.0,0.0,100.0,0.0,0.0,0.0,0.0,3323.5714285714284,3268.2,3983.625,3988.0,304.811,304.5385,315.20625,315.02275,21.9904,20.6508,22.0522,21.5347,314.999998,314.999998,324.999988,324.999988,99.55784285714286,99.50756666666666,99.5701,99.54874285714286,0.019000000000000128,-0.10899999999999999,-0.16916666666666666,0.056666666666666664,-0.04333333333332945,-0.05666666666667197,1.566,1.583,38.44,30.067333333333334,38.826,35.591499999999996,55.543,35.4585,60.433,53.082,53.513999999999996,34.5875,58.9935,51.4,52.687,34.147999999999996,58.897999999999996,50.81466666666667,-0.05549999999999988,-0.09850000000000003,0.10054,0.10969500000000001,0.0,216.075,216.005,212.90666666666667,212.90666666666667,0.0,0.0
26,0.0,0.0,0.0,1.0,1.0,0.0,0.0,1.0,0.0,0.0,1.0,1.1856,26.0,0.0,0.0,0.0,59.999996,0.0,26.0,26.0,26.0,26.0,-0.09037499999999998,0.27590000000000003,0.06598,291.122,-2.6706,-2.759666666666667,-1.5923,-1.5782,-187.76,215.9125,190.4295,0.0,0.0,0.0,0.0,0.05269999999999997,-5.498166666666667,-5.498166666666667,-0.5698,0.5800000000000001,-0.05077777777777781,-0.8700000000000001,69.144,-0.060500000000000005,-0.197475,0.6879999999999997,100.0,1.0,1.0,213.0366666666667,0.0,0.0,0.0,0.0,0.0,0.0,0.0,9029.8,0.0,55.0,5.0,248.89,0.0,0.0,0.0,0.0,0.0,0.0,0.0,0.0,1.3079999999999998,1.3079999999999998,0.0,0.0,0.0,55.0,616.79921,10000.0,85.000001,85.000001,85.000001,85.000001,395.0,0.0,0.0,0.0,1.0,166.665,51.483,51.483,46.097,46.097,34.0,-27.88,21.09,-38.20333333333333,27.953333333333333,0.0,1780.586,0.10500000000000043,100.0,29.201,28.627,44.14,43.42,0.0,0.0,100.0,0.0,0.0,0.0,0.0,3317.142857142857,2933.9,4672.25,4461.0,304.8795,305.2785,313.6295,313.858,22.0,20.6565,22.0629,21.5439,314.999998,314.999998,324.999988,324.999988,99.55784285714286,99.50758333333333,99.57024285714286,99.54887142857143,0.027000000000000135,-0.12033333333333318,-0.17566666666666667,0.03866666666666666,-0.041666666666671404,-0.046666666666666856,1.415,1.4303333333333335,38.5,30.103,38.893,35.6495,55.532,35.5,60.4715,53.1395,53.504000000000005,34.6255,59.0295,51.4555,52.676,34.1845,58.9305,50.86866666666667,-0.08000000000000007,-0.08800000000000008,0.10504000000000001,0.101,0.0,216.51999999999998,216.45,213.0366666666667,213.0366666666667,0.0,0.0
27,0.0,0.0,0.0,1.0,1.0,0.0,0.0,1.0,0.0,0.0,1.0,1.1856,26.0,0.0,0.0,0.0,59.999996,0.0,26.0,26.0,26.0,26.0,-0.06637499999999996,0.25770000000000004,-0.04086000000000001,291.687,-2.64,-2.7223333333333333,-1.5822,-1.6494,-184.43,215.9025,190.406375,0.0,0.0,0.0,0.0,0.05463333333333331,-5.498166666666667,-5.498166666666667,-0.6001000000000001,-1.0385,-0.04800000000000004,-0.5060000000000002,69.268,-0.053200000000000004,-0.24557500000000002,0.4800000000000004,100.0,1.0,1.0,213.57,0.0,0.0,0.0,0.0,0.0,0.0,0.0,9052.5,0.0,55.0,5.0,249.34,1.0,0.0,0.0,0.0,0.0,0.0,0.0,0.0,1.355999999999998,1.355999999999998,0.0,0.0,1.0,55.0,616.79921,10000.0,85.000001,85.000001,85.000001,85.000001,395.0,0.0,0.0,0.0,1.0,166.665,51.788,51.788,46.738,46.738,34.0,-26.747500000000002,21.91,-32.10333333333334,25.59,0.0,1780.537,0.05000000000000071,100.0,28.878,28.38,44.685,43.886,0.0,0.0,100.0,0.0,0.0,0.0,0.0,3235.142857142857,3028.1,4115.0,3966.1000000000004,305.134,305.08825,314.81275,314.93425,22.0089,20.6616,22.073,21.5527,314.999998,314.999998,324.999988,324.999988,99.55784285714286,99.5076,99.57038571428572,99.54901428571429,0.02733333333333343,-0.10899999999999999,-0.16883333333333334,0.0495,-0.03999999999999915,-0.045000000000001705,1.5053333333333332,1.5186666666666666,38.556,30.135333333333335,38.956,35.704499999999996,55.519,35.5385,60.5085,53.1965,53.491,34.661,59.064499999999995,51.5105,52.662,34.2185,58.9625,50.922,-0.08000000000000007,-0.08450000000000024,0.10043500000000001,0.10744000000000001,0.0,216.825,216.79000000000002,213.57,213.57,0.0,0.0
28,0.0,0.0,0.0,1.0,1.0,0.0,0.0,1.0,0.0,0.0,1.0,1.1856,26.0,0.0,0.0,0.0,59.999996,0.0,26.0,26.0,26.0,26.0,-0.04512499999999997,0.2643,-0.0557,291.901,-2.6753,-2.701111111111111,-1.5386000000000002,-1.6032000000000002,-181.11,215.89,190.3825,0.0,0.0,0.0,0.0,0.05656666666666654,-5.498166666666667,-5.498166666666667,-0.6004,0.6395,-0.04244444444444451,-0.45299999999999985,69.39,-0.046700000000000005,-0.218775,0.4039999999999999,100.0,1.0,1.0,214.03333333333333,0.0,0.0,0.0,0.0,0.0,0.0,0.0,9072.1,0.0,55.0,5.0,249.77666666666664,0.0,0.0,0.0,0.0,0.0,0.0,0.0,0.0,1.404,1.404,0.0,0.0,0.0,55.0,616.79921,10000.0,85.000001,85.000001,85.000001,85.000001,395.0,0.0,0.0,0.0,1.0,333.33500000000004,51.712,51.712,47.592,47.592,34.0,-27.1925,22.037999999999997,-30.849999999999998,26.14333333333333,0.0,1780.487,-0.05999999999999872,100.0,28.928,28.366,43.94,43.394999999999996,0.0,0.0,100.0,0.0,0.0,0.0,0.0,3310.5714285714284,2993.5,4079.375,4095.2,304.9265,305.171,315.0165,314.756,22.0179,20.6669,22.0828,21.5612,314.999998,314.999998,324.999988,324.999988,99.55785714285715,99.50761666666666,99.57052857142857,99.54915714285714,0.040999999999999925,-0.09499999999999997,-0.16816666666666666,0.058833333333333335,-0.05333333333332746,-0.03166666666666629,1.5343333333333335,1.554,38.611999999999995,30.168333333333333,39.016999999999996,35.7575,55.506,35.579499999999996,60.5415,53.2535,53.479,34.699,59.0945,51.565,52.649,34.2545,58.9895,50.975,-0.09149999999999991,-0.06999999999999984,0.10724,0.10097500000000001,0.0,217.255,217.22500000000002,214.03333333333333,214.03333333333333,0.0,0.0
29,0.0,0.0,0.0,1.0,1.0,0.0,0.0,1.0,0.0,0.0,1.0,1.1856,26.0,0.0,0.0,0.0,59.999996,0.0,26.0,26.0,26.0,26.0,-0.037250000000000005,0.2621,0.024,291.595,-2.6241,-2.748555555555556,-1.5449000000000002,-1.5739,-177.35,215.8725,190.3545,0.0,0.0,0.0,0.0,0.05876666666666652,-5.498166666666667,-5.498166666666667,-0.6079,-0.726,-0.03600000000000003,-0.5880000000000001,69.532,-0.0347,-0.21980000000000002,0.1479999999999997,100.0,1.0,1.0,214.30333333333334,0.0,0.0,0.0,0.0,0.0,0.0,0.0,9083.5,0.0,55.0,5.0,250.29000000000002,1.0,0.0,0.0,0.0,0.0,0.0,0.0,0.0,1.4579999999999984,1.4579999999999984,0.0,0.0,1.0,55.0,616.79921,10000.0,85.000001,85.000001,85.000001,85.000001,395.0,0.0,0.0,0.0,1.0,111.11,51.834,51.834,46.707,46.707,34.0,-25.572499999999998,23.316,-32.02333333333333,27.96666666666667,0.0,1780.435,-0.16499999999999915,100.0,28.536,28.287,44.275,43.772999999999996,0.0,0.0,100.0,0.0,0.0,0.0,0.0,3276.0,3040.0,4226.125,4200.6,305.042,304.967,314.6,314.41575,22.0277,20.6728,22.0941,21.5711,314.999998,314.999998,324.999988,324.999988,99.55785714285715,99.50761666666666,99.57068571428572,99.54931428571429,0.05866666666666642,-0.08566666666666678,-0.15483333333333335,0.07733333333333332,-0.07000000000000028,-0.03166666666666629,1.4656666666666667,1.4783333333333333,38.673,30.204666666666668,39.088,35.8195,55.492000000000004,35.619,60.58,53.3145,53.465,34.7355,59.131,51.6235,52.635,34.289,59.0225,51.032,-0.09549999999999992,-0.06899999999999995,0.11077000000000001,0.11090000000000001,0.0,217.66500000000002,217.62,214.30333333333334,214.30333333333334,0.0,0.0
30,0.0,0.0,0.0,1.0,1.0,0.0,0.0,1.0,0.0,0.0,1.0,1.1856,26.0,0.0,0.0,0.0,59.999996,0.0,26.0,26.0,26.0,26.0,-0.021874999999999978,0.24250000000000016,0.0398,291.199,-2.6402,-2.6337777777777776,-1.5219,-1.6313,-173.8,215.85750000000002,190.328,0.0,0.0,0.0,0.0,0.060833333333333295,-5.498166666666667,-5.498166666666667,-0.6003000000000001,0.8755,-0.030666666666666842,0.98,69.661,-0.0236,-0.21377500000000002,0.04800000000000004,100.0,1.0,1.0,214.7733333333333,0.0,0.0,0.0,0.0,0.0,0.0,0.0,9103.4,0.0,55.0,5.0,250.75333333333333,0.0,0.0,0.0,0.0,0.0,0.0,1.0,0.0,1.5090000000000003,1.5090000000000003,0.0,0.0,0.0,55.0,616.79921,10000.0,85.000001,85.000001,85.000001,85.000001,395.0,0.0,0.0,0.0,1.0,111.11,50.873,50.873,47.043,47.043,34.0,-25.1325,23.976,-29.87,29.68,0.0,1780.385,-0.25,100.0,29.587,28.851,44.126,43.731,0.0,0.0,100.0,0.0,0.0,0.0,0.0,3284.4285714285716,3148.0,4202.625,4171.0,304.7275,304.8195,314.6665,314.54575,22.0373,20.6786,22.1046,21.5803,314.999998,314.999998,324.999988,324.999988,99.55787142857143,99.50763333333333,99.57082857142858,99.54945714285714,0.08099999999999996,-0.06299999999999994,-0.12566666666666668,0.10133333333333333,-0.04999999999999716,-0.060000000000002274,1.4843333333333333,1.4873333333333334,38.733000000000004,30.241333333333333,39.153999999999996,35.876999999999995,55.483000000000004,35.661500000000004,60.614,53.3735,53.456,34.775,59.1625,51.68,52.625,34.327,59.051,51.08733333333333,-0.10650000000000004,-0.059499999999999886,0.10615000000000001,0.111695,0.0,218.095,218.095,214.7733333333333,214.7733333333333,0.0,0.0
31,0.0,0.0,0.0,1.0,1.0,0.0,0.0,1.0,0.0,0.0,1.0,1.1856,26.0,0.0,0.0,0.0,59.999996,0.0,26.0,26.0,26.0,26.0,-0.029749999999999943,0.25639999999999996,-0.00304,290.939,-2.7494,-2.6124444444444443,-1.5702,-1.6243,-170.45999999999998,215.8425,190.303875,0.0,0.0,0.0,0.0,0.06276666666666653,-5.498166666666667,-5.498166666666667,-0.5938,-0.6080000000000001,-0.02244444444444449,0.7050000000000001,69.785,-0.01,-0.222925,-0.2079999999999993,100.0,1.0,1.0,215.04666666666668,0.0,0.0,0.0,0.0,0.0,0.0,0.0,9115.0,0.0,55.0,5.0,251.2,1.0,0.0,0.0,0.0,0.0,0.0,1.0,0.0,1.5569999999999986,1.5569999999999986,0.0,0.0,1.0,55.0,616.79921,10000.0,85.000001,85.000001,85.000001,85.000001,395.0,0.0,0.0,0.0,1.0,166.665,51.239,51.239,45.653999999999996,45.653999999999996,34.0,-24.4,25.53,-30.753333333333334,31.406666666666666,0.0,1780.334,-0.3099999999999987,100.0,29.183,28.891,44.813,44.439,0.0,0.0,100.0,0.0,0.0,0.0,0.0,3147.4285714285716,3310.6,4279.25,4290.8,305.376,304.505,314.38625,314.35325,22.046,20.684,22.1148,21.5893,314.999998,314.999998,324.999988,324.999988,99.55788571428572,99.50765,99.57098571428571,99.5496,0.08733333333333348,-0.05133333333333323,-0.11283333333333333,0.11633333333333333,-0.045000000000001705,-0.03833333333332689,1.4683333333333333,1.4606666666666666,38.788,30.275333333333336,39.217,35.933,55.471000000000004,35.7025,60.6535,53.436,53.445,34.8125,59.1995,51.7405,52.611999999999995,34.363,59.0845,51.146,-0.10699999999999998,-0.05500000000000016,0.111255,0.10614000000000001,0.0,218.41500000000002,218.425,215.04666666666668,215.04666666666668,0.0,0.0
32,0.0,0.0,0.0,1.0,1.0,0.0,0.0,1.0,0.0,0.0,1.0,1.1856,26.0,0.0,0.0,0.0,59.999996,0.0,26.0,26.0,26.0,26.0,0.00912500000000005,0.26680000000000015,-0.018080000000000002,291.138,-2.6606,-2.7119999999999997,-1.6364,-1.5324,-166.89999999999998,215.825,190.278125,0.0,0.0,0.0,0.0,0.0648333333333333,-5.498166666666667,-5.498166666666667,-0.6063000000000001,0.04999999999999993,-0.045111111111111324,-0.891,69.913,0.0018000000000000002,-0.22662500000000002,-0.21200000000000063,100.0,1.0,1.0,215.51,0.0,0.0,0.0,0.0,0.0,0.0,0.0,9134.6,0.0,55.0,5.0,251.66,0.0,0.0,0.0,0.0,0.0,0.0,1.0,0.0,1.6080000000000005,1.6080000000000005,0.0,0.0,0.0,55.0,616.79921,10000.0,85.000001,85.000001,85.000001,85.000001,395.0,0.0,0.0,0.0,1.0,166.665,51.3,51.3,46.402,46.402,34.0,-24.447499999999998,24.468,-30.443333333333335,30.28666666666667,0.0,1780.285,-0.3099999999999987,100.0,29.016,29.052,44.377,44.338,0.0,0.0,100.0,0.0,0.0,0.0,0.0,3268.714285714286,3066.7,4312.125,4277.0,305.0185,304.9565,314.5425,314.374,22.0553,20.689799999999998,22.1252,21.5985,314.999998,314.999998,324.999988,324.999988,99.55788571428572,99.50765,99.57112857142857,99.54974285714286,0.09100000000000019,-0.05433333333333312,-0.09516666666666668,0.12516666666666668,-0.061666666666667425,-0.036666666666668846,1.5253333333333334,1.5003333333333333,38.846000000000004,30.311333333333334,39.283,35.9905,55.461,35.74,60.6855,53.491,53.435,34.847,59.229,51.7935,52.602000000000004,34.396,59.111,51.19766666666666,-0.10850000000000004,-0.059499999999999886,0.09906000000000001,0.10978,0.0,218.845,218.82,215.51,215.51,0.0,0.0
33,0.0,0.0,0.0,1.0,1.0,0.0,0.0,1.0,0.0,0.0,1.0,1.1856,26.0,0.0,0.0,0.0,59.999996,0.0,26.0,26.0,26.0,26.0,-0.0007500000000000284,0.2663,-0.04172,291.412,-2.7007,-2.7044444444444444,-1.5707,-1.6077,-163.75,215.8125,190.254625,0.0,0.0,0.0,0.0,0.06666666666666654,-5.498166666666667,-5.498166666666667,-0.6131,-0.3720000000000001,-0.0341111111111112,1.256,70.028,0.0115,-0.21835000000000002,-0.28000000000000025,100.0,1.0,1.0,215.83666666666667,0.0,0.0,0.0,0.0,0.0,0.0,0.0,9148.5,0.0,55.0,5.0,252.07333333333332,1.0,0.0,0.0,0.0,0.0,0.0,1.0,0.0,1.6529999999999987,1.6529999999999987,0.0,0.0,1.0,55.0,616.79921,10000.0,85.000001,85.000001,85.000001,85.000001,395.0,0.0,0.0,0.0,1.0,166.665,51.788,51.788,46.509,46.509,34.0,-22.97,25.003999999999998,-29.186666666666664,31.453333333333333,0.0,1780.241,-0.34999999999999787,100.0,28.941,28.625,44.375,44.268,0.0,0.0,100.0,0.0,0.0,0.0,0.0,3084.5714285714284,3108.3,4193.75,4288.9,305.4995,304.99675,314.66025,314.32375,22.0634,20.6948,22.1345,21.6067,314.999998,314.999998,324.999988,324.999988,99.5579,99.50766666666667,99.57125714285715,99.54988571428571,0.09866666666666646,-0.04400000000000004,-0.10183333333333333,0.123,-0.041666666666671404,-0.061666666666667425,1.5056666666666667,1.4866666666666668,38.896,30.342333333333336,39.341,36.042,55.451,35.772999999999996,60.716,53.544,53.426,34.8775,59.2575,51.844,52.591,34.425,59.1365,51.24733333333333,-0.10899999999999999,-0.05699999999999994,0.10885500000000001,0.10215,0.0,219.16500000000002,219.195,215.83666666666667,215.83666666666667,0.0,0.0
34,0.0,0.0,0.0,1.0,1.0,0.0,0.0,1.0,0.0,0.0,1.0,1.1856,26.0,0.0,0.0,0.0,59.999996,0.0,26.0,26.0,26.0,26.0,0.026124999999999954,0.2559,-0.09406,291.87,-2.7409,-2.619666666666667,-1.6464,-1.533,-159.75,215.79250000000002,190.223375,0.0,0.0,0.0,0.0,0.06899999999999995,-5.498166666666667,-5.498166666666667,-0.6462,-0.798,0.0015555555555555323,-0.07200000000000006,70.17,0.0189,-0.22540000000000002,-0.2599999999999998,100.0,1.0,1.0,216.32,0.0,0.0,0.0,0.0,0.0,0.0,0.0,9169.0,0.0,55.0,5.0,252.58666666666664,0.0,0.0,0.0,0.0,0.0,0.0,1.0,0.0,1.7100000000000009,1.7100000000000009,0.0,0.0,0.0,55.0,616.79921,10000.0,85.000001,85.000001,85.000001,85.000001,395.0,0.0,0.0,0.0,1.0,111.11,52.322,52.322,47.18,47.18,34.0,-22.405,23.91,-29.15,29.463333333333335,0.0,1780.184,-0.375,100.0,28.445,28.415,43.94,44.365,0.0,0.0,100.0,0.0,0.0,0.0,0.0,3012.142857142857,3012.7,4091.125,4168.3,305.7395,305.1425,315.01725,314.57475,22.0736,20.701,22.1462,21.6171,314.999998,314.999998,324.999988,324.999988,99.55791428571429,99.50766666666667,99.57142857142857,99.55004285714286,0.10533333333333372,-0.035666666666666735,-0.10250000000000001,0.12683333333333333,-0.054999999999999716,-0.030000000000001137,1.528,1.5203333333333333,38.96,30.381333333333334,39.414,36.107,55.438,35.814,60.751999999999995,53.611000000000004,53.413,34.9155,59.291,51.908500000000004,52.577,34.461,59.1665,51.31,-0.10999999999999988,-0.04899999999999993,0.10864000000000001,0.10527,0.0,219.62,219.595,216.32,216.32,0.0,0.0
35,0.0,0.0,0.0,1.0,1.0,0.0,0.0,1.0,0.0,0.0,1.0,1.1856,26.0,0.0,0.0,0.0,59.999996,0.0,26.0,26.0,26.0,26.0,0.035374999999999934,0.23480000000000012,-0.05958,291.763,-2.7163,-2.6246666666666667,-1.6179000000000001,-1.5194,-156.38,215.78,190.195,0.0,0.0,0.0,0.0,0.0709333333333334,-5.498166666666667,-5.498166666666667,-0.6851,-0.26849999999999996,-0.015222222222222026,-1.1630000000000003,70.289,0.0263,-0.22985,-0.387999999999999,100.0,1.0,1.0,216.7733333333333,0.0,0.0,0.0,0.0,0.0,0.0,0.0,9188.2,0.0,55.0,5.0,253.01666666666665,1.0,0.0,0.0,0.0,0.0,0.0,1.0,0.0,1.7579999999999991,1.7579999999999991,0.0,0.0,1.0,55.0,616.79921,10000.0,85.000001,85.000001,85.000001,85.000001,395.0,0.0,0.0,0.0,1.0,166.665,51.528999999999996,51.528999999999996,47.012,47.012,34.0,-23.2925,26.86,-27.106666666666666,28.38,0.0,1780.135,-0.25,100.0,28.335,28.803,43.711,43.855000000000004,0.0,0.0,100.0,0.0,0.0,0.0,0.0,3176.714285714286,3322.8,4002.375,3967.5,305.35,304.18775,315.18075,315.072,22.0819,20.7065,22.156,21.6257,314.999998,314.999998,324.999988,324.999988,99.55792857142858,99.50768333333333,99.57155714285715,99.55018571428572,0.10999999999999988,-0.03499999999999992,-0.08466666666666667,0.14483333333333334,-0.05666666666667197,-0.041666666666671404,1.5493333333333332,1.5406666666666666,39.012,30.415666666666667,39.475,36.161,55.425,35.8505,60.7825,53.6635,53.400999999999996,34.9495,59.319,51.9595,52.564,34.494,59.1915,51.35966666666667,-0.11149999999999993,-0.05900000000000016,0.1087,0.10866500000000001,0.0,219.98000000000002,219.995,216.77333333333334,216.7733333333333,0.0,0.0
36,0.0,0.0,0.0,1.0,1.0,0.0,0.0,1.0,0.0,0.0,1.0,1.1856,26.0,0.0,0.0,0.0,59.999996,0.0,26.0,26.0,26.0,26.0,0.03037500000000004,0.2642,0.04652,290.802,-2.6438,-2.7174444444444443,-1.566,-1.578,-153.0,215.765,190.165375,0.0,0.0,0.0,0.0,0.07289999999999996,-5.498166666666667,-5.498166666666667,-0.6644,0.31299999999999994,-0.05455555555555591,-1.142,70.412,0.027700000000000002,-0.202025,-0.09999999999999964,100.0,1.0,1.0,216.89,0.0,0.0,0.0,0.0,0.0,0.0,0.0,9193.1,0.0,55.0,5.0,253.45666666666665,0.0,0.0,0.0,0.0,0.0,0.0,1.0,0.0,1.806000000000001,1.806000000000001,0.0,0.0,0.0,55.0,616.79921,10000.0,85.000001,85.000001,85.000001,85.000001,395.0,0.0,0.0,0.0,1.0,166.665,51.239,51.239,46.158,46.158,34.0,-22.9175,25.412,-30.113333333333333,34.45,0.0,1780.087,-0.18499999999999872,100.0,28.955,29.097,43.905,44.269999999999996,0.0,0.0,100.0,0.0,0.0,0.0,0.0,3160.714285714286,3105.5,4476.5,4517.4,305.117,304.71675,314.093,313.72475,22.0906,20.7121,22.1659,21.6346,314.999998,314.999998,324.999988,324.999988,99.55794285714286,99.50768333333333,99.5717,99.55032857142857,0.10666666666666647,-0.045333333333333226,-0.0745,0.14200000000000002,-0.03833333333332689,-0.04333333333332945,1.435,1.4393333333333334,39.066,30.450333333333333,39.537,36.216,55.416,35.8885,60.816,53.721000000000004,53.393,34.9845,59.35,52.015,52.555,34.5275,59.2195,51.413666666666664,-0.09599999999999986,-0.06700000000000017,0.09687000000000001,0.109645,0.0,220.385,220.38,216.89,216.89,0.0,0.0
