,ABS Active,ABS Enabled,AID Allow Tire Blankets,AID Auto Blip,AID Auto Clutch,AID Auto Shift,AID Fuel Rate,AID Ideal Line,AID Mech Damage,AID Stability,AID Tire Wear Rate,Air Density,Air Temp,Ballast,Best Lap Delta,Best Lap Time,Brake Bias,Brake Pos,Brake Temp FL,Brake Temp FR,Brake Temp RL,Brake Temp RR,CG Accel Lateral,CG Accel Longitudinal,CG Accel Vertical,CG Height,Camber FL,Camber FR,Camber RL,Camber RR,Car Coord X,Car Coord Y,Car Coord Z,Car Damage Front,Car Damage Left,Car Damage Rear,Car Damage Right,Car Pos Norm,Caster FL,Caster FR,Chassis Pitch Angle,Chassis Pitch Rate,Chassis Roll Angle,Chassis Roll Rate,Chassis Velocity X,Chassis Velocity Y,Chassis Velocity Z,Chassis Yaw Rate,Clutch Pos,DRS Active,DRS Available,Drive Train Speed,ERS Heat Charging,ERS Is Charging,ERS Max Energy,ERS Power Level,ERS Recovery Level,Engine Brake Setting,Engine Limiter,Engine RPM,Flags,Fuel Level,Gear,Ground Speed,HR Sample Clock,In Pit,KERS Charge,KERS Deployed Energy,KERS Input,KERS Max Energy,LR Sample Clock,Lap Invalidated,Lap Time,Lap Time2,Last Lap Time,Last Sector Time,MR Sample Clock,Max Fuel,Max Power,Max RPM,Max Sus Travel FL,Max Sus Travel FR,Max Sus Travel RL,Max Sus Travel RR,Max Torque,Max Turbo Boost,Num Tires Off Track,Penalties Enabled,Position,Raw Data Sample Rate,Ride Height FL,Ride Height FR,Ride Height RL,Ride Height RR,Road Temp,Self Align Torque FL,Self Align Torque FR,Self Align Torque RL,Self Align Torque RR,Session Lap Count,Session Time Left,Steering Angle,Surface Grip,Suspension Travel FL,Suspension Travel FR,Suspension Travel RL,Suspension Travel RR,TC Active,TC Enabled,Throttle Pos,Tire Dirt Level FL,Tire Dirt Level FR,Tire Dirt Level RL,Tire Dirt Level RR,Tire Load FL,Tire Load FR,Tire Load RL,Tire Load RR,Tire Loaded Radius FL,Tire Loaded Radius FR,Tire Loaded Radius RL,Tire Loaded Radius RR,Tire Pressure FL,Tire Pressure FR,Tire Pressure RL,Tire Pressure RR,Tire Radius FL,Tire Radius FR,Tire Radius RL,Tire Radius RR,Tire Rubber Grip FL,Tire Rubber Grip FR,Tire Rubber Grip RL,Tire Rubber Grip RR,Tire Slip Angle FL,Tire Slip Angle FR,Tire Slip Angle RL,Tire Slip Angle RR,Tire Slip Ratio FL,Tire Slip Ratio FR,Tire Slip Ratio RL,Tire Slip Ratio RR,Tire Temp Core FL,Tire Temp Core FR,Tire Temp Core RL,Tire Temp Core RR,Tire Temp Inner FL,Tire Temp Inner FR,Tire Temp Inner RL,Tire Temp Inner RR,Tire Temp Middle FL,Tire Temp Middle FR,Tire Temp Middle RL,Tire Temp Middle RR,Tire Temp Outer FL,Tire Temp Outer FR,Tire Temp Outer RL,Tire Temp Outer RR,Toe In FL,Toe In FR,Toe In RL,Toe In RR,Turbo Boost,Wheel Angular Speed FL,Wheel Angular Speed FR,Wheel Angular Speed RL,Wheel Angular Speed RR,Wind Direction,Wind Speed
0,0.0,0.0,0.0,1.0,1.0,0.0,0.0,1.0,0.0,0.0,1.0,1.1856,26.0,0.0,0.0,0.0,59.99999,0.0,26.0,26.0,26.0,26.0,-0.013625,0.3022,0.0936,293.289,-2.7943,-2.62325,-1.56045,-1.5081,-275.78,215.4125,190.988125,0.0,0.0,0.0,0.0,0.0015333333333333865,-5.498166666666667,-5.498166666666667,-0.558,1.686,0.0013333333333331865,0.41100000000000003,65.52799999999999,-0.027800000000000002,-0.2217,-0.07000000000000028,100.0,1.0,1.0,202.3,0.0,0.0,0.0,0.0,0.0,0.0,0.0,8574.8,0.0,55.0,5.0,235.87,0.0,0.0,0.0,0.0,0.0,0.0,0.0,0.0,0.0030000000000001137,0.0030000000000001137,0.0,0.0,0.0,55.0,616.79921,10000.0,85.0,85.0,85.0,85.0,395.0,0.0,0.0,0.0,1.0,20.0,51.071,51.071,49.132999999999996,49.132999999999996,34.0,-28.915,32.822,-28.303333333333335,26.6575,0.0,1783.596,0.13500000000000156,100.0,27.325,27.028,40.458,40.144,0.0,0.0,100.0,0.0,0.0,0.0,0.0,3338.5714285714284,4237.0,4018.5,4130.8,304.58,301.753,315.06225,314.6055,21.7867,20.5176,21.7746,21.3046,314.99999,314.99999,324.99998,324.99998,99.55972857142856,99.50731666666667,99.5655,99.54491428571428,0.03849999999999998,-0.06766666666666676,-0.1255,0.09183333333333334,-0.046666666666666856,-0.06714285714285495,1.5575,1.5626666666666666,37.167,29.234666666666666,37.091,34.1535,56.58,34.5615,59.1735,51.528999999999996,54.474999999999994,33.716,57.796,49.893,53.632,33.2635,57.7595,49.32066666666667,-0.07350000000000001,-0.08099999999999996,0.10235000000000001,0.10695,0.0,205.305,205.305,202.3,202.3,0.0,0.0
1,0.0,0.0,0.0,1.0,1.0,0.0,0.0,1.0,0.0,0.0,1.0,1.1856,26.0,0.0,0.0,0.0,59.999996,0.0,26.0,26.0,26.0,26.0,-0.04475,0.3327,0.1907,292.221,-2.6394,-2.696625,-1.6034000000000002,-1.5184,-272.43,215.42000000000002,190.968,0.0,0.0,0.0,0.0,0.003466666666666507,-5.498166666666667,-5.498166666666667,-0.47000000000000003,-1.1956666666666669,-0.04211111111111121,-0.083,65.687,-0.0183,-0.16615000000000002,0.4720000000000013,100.0,1.0,1.0,202.17666666666668,0.0,0.0,0.0,0.0,0.0,0.0,0.0,8569.5,0.0,55.0,5.0,236.44,1.0,0.0,0.0,0.0,0.0,0.0,0.0,0.0,0.053999999999998494,0.053999999999998494,0.0,0.0,1.0,55.0,616.79921,10000.0,85.000001,85.000001,85.000001,85.000001,395.0,0.0,0.0,0.0,1.0,111.11,54.214,54.214,46.89,46.89,34.0,-22.5975,17.162,-38.28666666666666,39.3625,0.0,1783.548,0.3049999999999997,100.0,27.52,27.372,42.441,42.644,0.0,0.0,100.0,0.0,0.0,0.0,0.0,2842.714285714286,2447.7,4886.75,5662.1,306.2795,307.0145,312.774,310.9535,21.796599999999998,20.5227,21.7856,21.3138,314.999998,314.999998,324.999988,324.999988,99.55974285714285,99.50731666666667,99.56564285714286,99.54505714285715,0.03474999999999984,-0.09566666666666679,-0.1255,0.0775,-0.023333333333326323,-0.04142857142856826,1.2885,1.31,37.229,29.267,37.16,34.2115,56.563,34.596000000000004,59.2185,51.595,54.458,33.748,57.838499999999996,49.956,53.614999999999995,33.2945,57.799,49.382333333333335,-0.04849999999999999,-0.09899999999999998,0.100235,0.11116500000000001,0.0,205.765,205.745,202.17666666666668,202.17666666666668,0.0,0.0
2,0.0,0.0,0.0,1.0,1.0,0.0,0.0,1.0,0.0,0.0,1.0,1.1856,26.0,0.0,0.0,0.0,59.999996,0.0,26.0,26.0,26.0,26.0,-0.074,0.29100000000000015,0.03805,293.777,-2.6724,-2.648,-1.57465,-1.5103,-268.88,215.4275,190.948,0.0,0.0,0.0,0.0,0.00553333333333339,-5.498166666666667,-5.498166666666667,-0.5808,0.6506666666666666,-0.0024444444444444713,2.0100000000000002,65.82900000000001,-0.0227,-0.271675,0.7200000000000006,100.0,1.0,1.0,203.65333333333334,0.0,0.0,0.0,0.0,0.0,0.0,0.0,8632.1,0.0,55.0,5.0,236.95666666666668,0.0,0.0,0.0,0.0,0.0,0.0,0.0,0.0,0.10800000000000054,0.10800000000000054,0.0,0.0,0.0,55.0,616.79921,10000.0,85.000001,85.000001,85.000001,85.000001,395.0,0.0,0.0,0.0,1.0,166.665,51.727000000000004,51.727000000000004,50.659,50.659,34.0,-28.77,23.125999999999998,-24.566666666666663,19.5775,0.0,1783.492,0.4250000000000007,100.0,28.174,27.522,41.807,41.775,0.0,0.0,100.0,0.0,0.0,0.0,0.0,3372.142857142857,3260.6,3513.25,3396.0,304.547,304.366,316.28675,316.486,21.807299999999998,20.5282,21.7965,21.3228,314.999998,314.999998,324.999988,324.999988,99.55974285714285,99.50733333333334,99.56578571428571,99.5452,0.021250000000000213,-0.10699999999999998,-0.155,0.07416666666666667,-0.0833333333333286,-0.07285714285714562,1.7850000000000001,1.7776666666666667,37.296,29.301333333333332,37.227999999999994,34.2675,56.548,34.638,59.254999999999995,51.649,54.444,33.786500000000004,57.872,50.007999999999996,53.6,33.3315,57.829499999999996,49.43366666666667,-0.04399999999999993,-0.11299999999999999,0.10405500000000001,0.104495,0.0,206.26,206.185,203.65333333333334,203.65333333333334,0.0,0.0
3,0.0,0.0,0.0,1.0,1.0,0.0,0.0,1.0,0.0,0.0,1.0,1.1856,26.0,0.0,0.0,0.0,59.999996,0.0,26.0,26.0,26.0,26.0,-0.055625,0.3013000000000001,0.056175,292.908,-2.6922,-2.67075,-1.5587,-1.4722,-265.92,215.4325,190.929875,0.0,0.0,0.0,0.0,0.0072666666666665325,-5.498166666666667,-5.498166666666667,-0.5001,0.9056666666666666,0.015111111111111075,-1.948,65.969,-0.0356,-0.1842,0.6679999999999993,100.0,1.0,1.0,203.39,0.0,0.0,0.0,0.0,0.0,0.0,0.0,8621.0,0.0,55.0,5.0,237.46,1.0,0.0,0.0,0.0,0.0,0.0,0.0,0.0,0.1529999999999987,0.1529999999999987,0.0,0.0,1.0,55.0,616.79921,10000.0,85.000001,85.000001,85.000001,85.000001,395.0,0.0,0.0,0.0,1.0,111.11,53.345,53.345,47.455,47.455,34.0,-22.995,20.152,-34.97333333333333,27.7875,0.0,1783.449,0.5500000000000007,100.0,27.86,27.682,41.946,42.112,0.0,0.0,100.0,0.0,0.0,0.0,0.0,2794.0,2874.4,4538.25,4496.3,306.4135,305.4685,313.80375,313.57575,21.8159,20.533,21.8057,21.3308,314.999998,314.999998,324.999988,324.999988,99.55974285714285,99.50735,99.56591428571429,99.54532857142857,0.02400000000000002,-0.10999999999999988,-0.151,0.06066666666666667,-0.03999999999999915,-0.027142857142855803,1.412,1.462,37.349999999999994,29.331,37.286,34.317499999999995,56.532,34.675,59.289500000000004,51.709,54.428,33.821,57.9045,50.0655,53.583,33.3645,57.859,49.49,-0.041999999999999926,-0.1120000000000001,0.10957000000000001,0.10418500000000001,0.0,206.715,206.65,203.39,203.39,0.0,0.0
4,0.0,0.0,0.0,1.0,1.0,0.0,0.0,1.0,0.0,0.0,1.0,1.1856,26.0,0.0,0.0,0.0,59.999996,0.0,26.0,26.0,26.0,26.0,-0.067875,0.29300000000000015,0.0014,293.32,-2.6739,-2.739375,-1.4956,-1.5911,-262.35,215.4375,190.909375,0.0,0.0,0.0,0.0,0.009333333333333305,-5.498166666666667,-5.498166666666667,-0.5351,-0.9483333333333334,-0.042888888888888754,-0.6890000000000001,66.124,-0.042,-0.23767500000000003,0.9620000000000015,100.0,1.0,1.0,204.10000000000002,0.0,0.0,0.0,0.0,0.0,0.0,0.0,8651.0,0.0,55.0,5.0,238.01666666666665,0.0,0.0,0.0,0.0,0.0,0.0,0.0,0.0,0.20700000000000074,0.20700000000000074,0.0,0.0,0.0,55.0,616.79921,10000.0,85.000001,85.000001,85.000001,85.000001,395.0,0.0,0.0,0.0,1.0,166.665,52.856,52.856,48.766999999999996,48.766999999999996,34.0,-28.075,19.945999999999998,-30.176666666666666,23.384999999999998,0.0,1783.393,0.6649999999999991,100.0,27.782,27.312,42.827,42.264,0.0,0.0,100.0,0.0,0.0,0.0,0.0,3233.0,2882.7,4041.875,3819.1,305.1245,305.56875,314.99525,315.30075,21.8264,20.5384,21.817,21.3403,314.999998,314.999998,324.999988,324.999988,99.55974285714285,99.50736666666667,99.56605714285715,99.54545714285715,0.0009999999999998899,-0.1283333333333332,-0.17633333333333334,0.052333333333333336,-0.03333333333333144,-0.07714285714285296,1.5625,1.6033333333333335,37.415,29.364666666666665,37.357,34.3765,56.513,34.716499999999996,59.3345,51.772,54.41,33.859,57.946,50.1265,53.565,33.400999999999996,57.897999999999996,49.54966666666667,-0.02749999999999997,-0.12650000000000006,0.1072,0.09989500000000001,0.0,207.095,207.055,204.10000000000002,204.1,0.0,0.0
5,0.0,0.0,0.0,1.0,1.0,0.0,0.0,1.0,0.0,0.0,1.0,1.1856,26.0,0.0,0.0,0.0,59.999996,0.0,26.0,26.0,26.0,26.0,-0.076,0.2901,-0.041625,293.594,-2.6463,-2.69725,-1.54305,-1.5761,-259.17,215.44,190.89075,0.0,0.0,0.0,0.0,0.011199999999999988,-5.498166666666667,-5.498166666666667,-0.5415,0.5853333333333334,-0.03022222222222215,-0.35100000000000003,66.259,-0.0587,-0.2291,1.0600000000000005,100.0,1.0,1.0,204.60000000000002,0.0,0.0,0.0,0.0,0.0,0.0,0.0,8672.3,0.0,55.0,5.0,238.50333333333333,1.0,0.0,0.0,0.0,0.0,0.0,0.0,0.0,0.254999999999999,0.254999999999999,0.0,0.0,1.0,55.0,616.79921,10000.0,85.000001,85.000001,85.000001,85.000001,395.0,0.0,0.0,0.0,1.0,166.665,53.024,53.024,49.149,49.149,34.0,-27.17,19.904,-29.99,23.2675,0.0,1783.345,0.5250000000000021,100.0,27.76,27.231,42.414,41.702,0.0,0.0,100.0,0.0,0.0,0.0,0.0,3145.0,2909.8,3949.25,3920.3,305.314,305.40625,315.2605,315.12275,21.8358,20.5433,21.8268,21.3485,314.999998,314.999998,324.999988,324.999988,99.55975714285714,99.50738333333334,99.5662,99.5456,-0.0020000000000000018,-0.1279999999999999,-0.18183333333333335,0.041166666666666664,-0.041666666666671404,-0.05142857142856627,1.599,1.6176666666666666,37.474000000000004,29.395666666666664,37.417,34.428,56.498000000000005,34.754999999999995,59.369,51.826,54.396,33.8945,57.9785,50.178,53.55,33.435,57.9275,49.60033333333333,-0.03649999999999998,-0.11050000000000004,0.10133500000000001,0.11113,0.0,207.585,207.51999999999998,204.60000000000002,204.6,0.0,0.0
6,0.0,0.0,0.0,1.0,1.0,0.0,0.0,1.0,0.0,0.0,1.0,1.1856,26.0,0.0,0.0,0.0,59.999996,0.0,26.0,26.0,26.0,26.0,-0.094125,0.27780000000000005,0.03755,293.427,-2.6819,-2.770875,-1.49085,-1.5615999999999999,-255.99,215.44,190.871375,0.0,0.0,0.0,0.0,0.013033333333333341,-5.498166666666667,-5.498166666666667,-0.5281,-0.25233333333333335,-0.047555555555555795,-1.074,66.4,-0.06720000000000001,-0.2056,0.8960000000000008,100.0,1.0,1.0,204.85000000000002,0.0,0.0,0.0,0.0,0.0,0.0,0.0,8682.9,0.0,55.0,5.0,239.01,0.0,0.0,0.0,0.0,0.0,0.0,0.0,0.0,0.3030000000000008,0.3030000000000008,0.0,0.0,0.0,55.0,616.79921,10000.0,85.000001,85.000001,85.000001,85.000001,395.0,0.0,0.0,0.0,1.0,166.665,53.513,53.513,48.447,48.447,34.0,-28.119999999999997,19.172,-33.36666666666666,23.945,0.0,1783.296,0.34499999999999886,100.0,27.457,26.887,42.597,41.893,0.0,0.0,100.0,0.0,0.0,0.0,0.0,3179.857142857143,2773.4,4270.0,4045.3,305.32,305.87175,314.4475,314.75175,21.845,20.5481,21.8367,21.3569,314.999998,314.999998,324.999988,324.999988,99.55975714285714,99.5074,99.56634285714286,99.54574285714286,-0.012249999999999872,-0.1336666666666666,-0.19233333333333336,0.0335,-0.03166666666666629,-0.0357142857142847,1.494,1.5413333333333332,37.531,29.425666666666665,37.479,34.4805,56.480000000000004,34.794,59.4095,51.8885,54.379000000000005,33.9305,58.016,50.2375,53.532,33.4695,57.9625,49.65866666666666,-0.038000000000000034,-0.10699999999999998,0.109655,0.11169000000000001,0.0,208.005,207.91500000000002,204.85000000000002,204.85,0.0,0.0
7,0.0,0.0,0.0,1.0,1.0,0.0,0.0,1.0,0.0,0.0,1.0,1.1856,26.0,0.0,0.0,0.0,59.999996,0.0,26.0,26.0,26.0,26.0,-0.09875,0.29269999999999996,-0.025025000000000002,293.427,-2.676,-2.7742500000000003,-1.5425499999999999,-1.5465,-252.2,215.4375,190.848375,0.0,0.0,0.0,0.0,0.015233333333333321,-5.498166666666667,-5.498166666666667,-0.534,0.13733333333333334,-0.03699999999999992,1.295,66.561,-0.07390000000000001,-0.216,0.6120000000000001,100.0,1.0,1.0,205.42000000000002,0.0,0.0,0.0,0.0,0.0,0.0,0.0,8707.0,0.0,55.0,5.0,239.59,1.0,0.0,0.0,0.0,0.0,0.0,0.0,0.0,0.35999999999999943,0.35999999999999943,0.0,0.0,1.0,55.0,616.79921,10000.0,85.000001,85.000001,85.000001,85.000001,395.0,0.0,0.0,0.0,1.0,111.11,53.192,53.192,48.615,48.615,34.0,-25.72,21.832,-32.22333333333333,23.5375,0.0,1783.241,-0.11499999999999844,100.0,27.847,26.841,42.728,41.735,0.0,0.0,100.0,0.0,0.0,0.0,0.0,3073.4285714285716,2956.3,4117.625,4029.4,305.3865,305.44975,314.78625,314.9235,21.856099999999998,20.554,21.8485,21.3668,314.999998,314.999998,324.999988,324.999988,99.55975714285714,99.5074,99.5665,99.54588571428572,0.027000000000000135,-0.10099999999999998,-0.18816666666666665,0.036166666666666666,-0.03333333333333144,-0.05857142857143316,1.546,1.5616666666666665,37.601,29.462333333333333,37.553,34.542500000000004,56.464,34.8365,59.451,51.951499999999996,54.363,33.9695,58.055,50.298,53.516,33.507,57.998,49.717666666666666,-0.07950000000000002,-0.06400000000000006,0.10522000000000001,0.10472000000000001,0.0,208.515,208.45,205.42000000000002,205.42000000000002,0.0,0.0
8,0.0,0.0,0.0,1.0,1.0,0.0,0.0,1.0,0.0,0.0,1.0,1.1856,26.0,0.0,0.0,0.0,59.999996,0.0,26.0,26.0,26.0,26.0,-0.07475,0.28100000000000014,-0.023775,293.457,-2.6663,-2.7102500000000003,-1.55225,-1.6053000000000002,-249.0,215.4325,190.829,0.0,0.0,0.0,0.0,0.017100000000000004,-5.498166666666667,-5.498166666666667,-0.5364,-0.10333333333333333,-0.03111111111111109,0.298,66.69800000000001,-0.0653,-0.21930000000000002,0.23600000000000065,100.0,1.0,1.0,205.84,0.0,0.0,0.0,0.0,0.0,0.0,0.0,8724.8,0.0,55.0,5.0,240.08333333333331,0.0,0.0,0.0,0.0,0.0,0.0,0.0,0.0,0.40800000000000125,0.40800000000000125,0.0,0.0,0.0,55.0,616.79921,10000.0,85.000001,85.000001,85.000001,85.000001,395.0,0.0,0.0,0.0,1.0,166.665,53.268,53.268,48.416,48.416,34.0,-24.669999999999998,22.445999999999998,-30.723333333333333,25.285,0.0,1783.193,-0.21000000000000085,100.0,27.583,26.948,42.74,41.894999999999996,0.0,0.0,100.0,0.0,0.0,0.0,0.0,3004.142857142857,3043.5,4044.0,3993.4,305.6235,305.1815,314.96175,314.9315,21.8654,20.5589,21.8583,21.3753,314.999998,314.999998,324.999988,324.999988,99.55977142857142,99.50741666666667,99.56662857142857,99.54601428571429,0.033500000000000085,-0.09066666666666667,-0.1695,0.057666666666666665,-0.045000000000001705,-0.060000000000002274,1.5525,1.5516666666666667,37.659,29.493333333333332,37.614999999999995,34.5955,56.448,34.874,59.4875,52.009,54.348,34.0045,58.0895,50.3535,53.5,33.54,58.0295,49.772,-0.08550000000000002,-0.055500000000000105,0.10866,0.10946000000000002,0.0,208.92000000000002,208.875,205.84,205.84,0.0,0.0
9,0.0,0.0,0.0,1.0,1.0,0.0,0.0,1.0,0.0,0.0,1.0,1.1856,26.0,0.0,0.0,0.0,59.999996,0.0,26.0,26.0,26.0,26.0,-0.048,0.28170000000000006,0.010175,293.259,-2.6645,-2.7276249999999997,-1.5371000000000001,-1.5636,-245.8,215.425,190.809375,0.0,0.0,0.0,0.0,0.018966666666666576,-5.498166666666667,-5.498166666666667,-0.5342,0.198,-0.04122222222222227,0.73,66.834,-0.049300000000000004,-0.21255000000000002,0.023999999999999133,100.0,1.0,1.0,206.2266666666667,0.0,0.0,0.0,0.0,0.0,0.0,0.0,8741.2,0.0,55.0,5.0,240.57,1.0,0.0,0.0,0.0,0.0,0.0,0.0,0.0,0.4559999999999995,0.4559999999999995,0.0,0.0,1.0,55.0,616.79921,10000.0,85.000001,85.000001,85.000001,85.000001,395.0,0.0,0.0,0.0,1.0,111.11,52.979,52.979,48.629999999999995,48.629999999999995,34.0,-25.085,23.372,-29.963333333333335,26.52,0.0,1783.146,-0.3000000000000007,100.0,27.77,26.957,42.689,41.922,0.0,0.0,100.0,0.0,0.0,0.0,0.0,3114.4285714285716,3051.0,4048.25,4120.5,305.2945,305.17275,314.969,314.66375,21.8747,20.5639,21.8682,21.3837,314.999998,314.999998,324.999988,324.999988,99.55977142857142,99.50743333333334,99.56677142857143,99.54614285714285,0.04850000000000021,-0.07333333333333325,-0.157,0.07483333333333334,-0.03166666666666629,-0.057142857142849834,1.5475,1.553,37.717,29.52433333333333,37.676,34.647999999999996,56.433,34.9105,59.5245,52.0655,54.335,34.038,58.1235,50.408,53.485,33.5725,58.061,49.825,-0.09699999999999998,-0.0495000000000001,0.111585,0.10580500000000001,0.0,209.32,209.31,206.2266666666667,206.2266666666667,0.0,0.0
10,0.0,0.0,0.0,1.0,1.0,0.0,0.0,1.0,0.0,0.0,1.0,1.1856,26.0,0.0,0.0,0.0,59.999996,0.0,26.0,26.0,26.0,26.0,-0.018125,0.2962,0.0035250000000000004,293.182,-2.6775,-2.701125,-1.55515,-1.5476,-242.38,215.42000000000002,190.7885,0.0,0.0,0.0,0.0,0.020966666666666578,-5.498166666666667,-5.498166666666667,-0.5293,-0.233,-0.019333333333333425,-0.075,66.97800000000001,-0.0316,-0.21195,-0.09200000000000053,100.0,1.0,1.0,206.60333333333335,0.0,0.0,0.0,0.0,0.0,0.0,0.0,8757.2,0.0,55.0,5.0,241.09333333333336,0.0,0.0,0.0,0.0,0.0,0.0,1.0,0.0,0.5069999999999979,0.5069999999999979,0.0,0.0,0.0,55.0,616.79921,10000.0,85.000001,85.000001,85.000001,85.000001,395.0,0.0,0.0,0.0,1.0,166.665,53.268,53.268,48.355000000000004,48.355000000000004,34.0,-24.8025,22.444000000000003,-30.23,26.83,0.0,1783.093,-0.375,100.0,27.537,27.076,42.691,42.297,0.0,0.0,100.0,0.0,0.0,0.0,0.0,3110.5714285714284,2927.7,4156.875,4196.9,305.4845,305.39275,314.748,314.3815,21.8845,20.5692,21.8788,21.3927,314.999998,314.999998,324.999988,324.999988,99.55977142857142,99.50743333333334,99.56691428571429,99.5463,0.051750000000000185,-0.06800000000000006,-0.1375,0.068,-0.045000000000001705,-0.04285714285714448,1.526,1.5083333333333333,37.778,29.557333333333332,37.742000000000004,34.704499999999996,56.418,34.948,59.564,52.1275,54.32,34.073,58.1605,50.467,53.471000000000004,33.606,58.095,49.882999999999996,-0.10199999999999998,-0.043500000000000094,0.09695500000000001,0.10436000000000001,0.0,209.76,209.755,206.60333333333335,206.60333333333335,0.0,0.0
11,0.0,0.0,0.0,1.0,1.0,0.0,0.0,1.0,0.0,0.0,1.0,1.1856,26.0,0.0,0.0,0.0,59.999996,0.0,26.0,26.0,26.0,26.0,0.002625,0.28580000000000005,-0.049375,293.51800000000003,-2.7026,-2.695875,-1.5624500000000001,-1.5234,-239.16,215.4125,190.768875,0.0,0.0,0.0,0.0,0.022599999999999953,-5.498166666666667,-5.498166666666667,-0.5493,-0.337,0.004888888888888943,-0.298,67.111,-0.0151,-0.22395,-0.24799999999999933,100.0,1.0,1.0,207.12,0.0,0.0,0.0,0.0,0.0,0.0,0.0,8779.1,0.0,55.0,5.0,241.57333333333332,1.0,0.0,0.0,0.0,0.0,0.0,1.0,0.0,0.5549999999999997,0.5549999999999997,0.0,0.0,1.0,55.0,616.79921,10000.0,85.000001,85.000001,85.000001,85.000001,395.0,0.0,0.0,0.0,1.0,166.665,53.314,53.314,48.874,48.874,34.0,-24.5575,23.118,-27.93,26.564999999999998,0.0,1783.046,-0.23999999999999844,100.0,27.25,27.068,42.496,42.308,0.0,0.0,100.0,0.0,0.0,0.0,0.0,3114.714285714286,3007.5,3934.0,4033.3,305.493,305.15575,315.28775,314.81425,21.8936,20.5742,21.8886,21.4012,314.999998,314.999998,324.999988,324.999988,99.55978571428571,99.50745,99.56704285714285,99.54642857142858,0.06325000000000003,-0.06766666666666676,-0.13216666666666665,0.09816666666666668,-0.06833333333332803,-0.04142857142856826,1.5695000000000001,1.5533333333333332,37.835,29.58833333333333,37.804,34.7575,56.403999999999996,34.9835,59.598,52.1845,54.306,34.1055,58.192,50.522,53.456,33.637,58.124,49.937,-0.09799999999999998,-0.050999999999999934,0.11000000000000001,0.10462,0.0,210.155,210.16500000000002,207.12,207.12,0.0,0.0
12,0.0,0.0,0.0,1.0,1.0,0.0,0.0,1.0,0.0,0.0,1.0,1.1856,26.0,0.0,0.0,0.0,59.999996,0.0,26.0,26.0,26.0,26.0,-0.002,0.29520000000000013,-7.500000000000001e-05,293.152,-2.7279999999999998,-2.676625,-1.5661,-1.5332,-235.94,215.405,190.74825,0.0,0.0,0.0,0.0,0.025466666666666526,-5.498166666666667,-5.498166666666667,-0.5424,0.4156666666666667,0.01344444444444437,-0.552,67.24600000000001,0.0002,-0.20522500000000002,-0.3819999999999997,100.0,1.0,1.0,207.47333333333333,0.0,0.0,0.0,0.0,0.0,0.0,0.0,8794.0,0.0,55.0,5.0,242.05666666666667,0.0,0.0,0.0,0.0,0.0,0.0,1.0,0.0,0.602999999999998,0.602999999999998,0.0,0.0,0.0,55.0,616.79921,10000.0,85.000001,85.000001,85.000001,85.000001,395.0,0.0,0.0,0.0,1.0,166.665,53.009,53.009,48.325,48.325,34.0,-26.16,22.095999999999997,-28.43,28.5625,0.0,1782.999,0.7899999999999991,100.0,27.368,27.418,42.314,42.332,0.0,0.0,100.0,0.0,0.0,0.0,0.0,3105.0,3066.3,4116.125,4166.0,305.499,304.94825,314.88375,314.517,21.9028,20.5793,21.8984,21.4096,314.999998,314.999998,324.999988,324.999988,99.5598,99.50745,99.56718571428571,99.54655714285714,0.02925000000000022,-0.10133333333333328,-0.10816666666666667,0.11216666666666668,-0.05833333333333002,-0.047142857142851824,1.5375,1.5293333333333334,37.891999999999996,29.620666666666665,37.864999999999995,34.81,56.391,35.0195,59.632,52.2415,54.294,34.1385,58.224000000000004,50.577,53.443,33.669,58.153,49.99066666666667,-0.04399999999999993,-0.10749999999999993,0.10425000000000001,0.103355,0.0,210.595,210.62,207.47333333333333,207.47333333333333,0.0,0.0
13,0.0,0.0,0.0,1.0,1.0,0.0,0.0,1.0,0.0,0.0,1.0,1.1856,26.0,0.0,0.0,0.0,59.999996,0.0,26.0,26.0,26.0,26.0,0.03375,0.28659999999999997,0.0199,292.816,-2.6915,-2.695125,-1.55675,-1.5472000000000001,-232.3,215.3975,190.725375,0.0,0.0,0.0,0.0,0.026799999999999935,-5.498166666666667,-5.498166666666667,-0.5376000000000001,-0.29433333333333334,0.004666666666666597,-0.375,67.397,0.0026000000000000003,-0.21352500000000002,-0.28200000000000003,100.0,1.0,1.0,207.85666666666668,0.0,0.0,0.0,0.0,0.0,0.0,0.0,8810.3,0.0,55.0,5.0,242.60000000000002,1.0,0.0,0.0,0.0,0.0,0.0,1.0,0.0,0.657,0.657,0.0,0.0,1.0,55.0,616.79921,10000.0,85.000001,85.000001,85.000001,85.000001,395.0,0.0,0.0,0.0,1.0,166.665,52.841,52.841,48.019,48.019,34.0,-23.4275,24.652,-29.296666666666663,29.3525,0.0,1782.942,-0.46999999999999886,100.0,27.589,27.575,42.685,42.833,0.0,0.0,100.0,0.0,0.0,0.0,0.0,3136.285714285714,3015.4,4177.375,4223.9,305.4135,305.108,314.69325,314.32625,21.913,20.585,21.9096,21.4193,314.999998,314.999998,324.999988,324.999988,99.5598,99.50745,99.56732857142858,99.54672857142857,0.09224999999999994,-0.03200000000000003,-0.11283333333333333,0.11133333333333333,-0.051666666666669414,-0.034285714285715585,1.4995,1.5126666666666666,37.956,29.656333333333336,37.935,34.8705,56.376000000000005,35.06,59.6735,52.3085,54.28,34.1765,58.2625,50.641,53.428,33.705,58.1885,50.053666666666665,-0.11499999999999999,-0.02950000000000008,0.11089,0.10616,0.0,211.06,211.04000000000002,207.85666666666668,207.85666666666668,0.0,0.0
14,0.0,0.0,0.0,1.0,1.0,0.0,0.0,1.0,0.0,0.0,1.0,1.1856,26.0,0.0,0.0,0.0,59.999996,0.0,26.0,26.0,26.0,26.0,0.04975,0.27849999999999997,-0.032775,293.03,-2.7082,-2.703875,-1.5709,-1.5390000000000001,-229.07,215.39,190.70525,0.0,0.0,0.0,0.0,0.028699999999999948,-5.498166666666667,-5.498166666666667,-0.5509000000000001,-0.06466666666666668,0.02200000000000002,-0.40800000000000003,67.528,0.010400000000000001,-0.22717500000000002,-0.39199999999999946,100.0,1.0,1.0,208.36666666666667,0.0,0.0,0.0,0.0,0.0,0.0,0.0,8831.9,0.0,55.0,5.0,243.07333333333332,0.0,0.0,0.0,0.0,0.0,0.0,1.0,0.0,0.7049999999999983,0.7049999999999983,0.0,0.0,0.0,55.0,616.79921,10000.0,85.000001,85.000001,85.000001,85.000001,395.0,0.0,0.0,0.0,1.0,166.665,52.811,52.811,48.431,48.431,34.0,-23.0225,24.65,-27.03666666666666,28.83,0.0,1782.896,-0.4499999999999993,100.0,27.596,27.752,42.579,42.818,0.0,0.0,100.0,0.0,0.0,0.0,0.0,3093.285714285714,3023.8,3981.5,4086.5,305.5435,305.024,315.187,314.683,21.9221,20.5902,21.9195,21.4278,314.999998,314.999998,324.999988,324.999988,99.55982857142857,99.50746666666667,99.56747142857142,99.54685714285715,0.09675000000000011,-0.038000000000000034,-0.10133333333333333,0.12816666666666665,-0.04999999999999716,-0.04999999999999716,1.5505,1.5326666666666666,38.013,29.688666666666666,37.997,34.924,56.364000000000004,35.096000000000004,59.708,52.366,54.268,34.2095,58.2945,50.6965,53.415,33.737,58.217,50.108000000000004,-0.11699999999999999,-0.038999999999999924,0.09957500000000001,0.11305000000000001,0.0,211.44,211.48000000000002,208.36666666666667,208.36666666666667,0.0,0.0
15,0.0,0.0,0.0,1.0,1.0,0.0,0.0,1.0,0.0,0.0,1.0,1.1856,26.0,0.0,0.0,0.0,59.999996,0.0,26.0,26.0,26.0,26.0,0.050375,0.2856000000000001,-0.011525,292.969,-2.6948,-2.68475,-1.5548000000000002,-1.5609000000000002,-225.82,215.385,190.68475,0.0,0.0,0.0,0.0,0.03059999999999996,-5.498166666666667,-5.498166666666667,-0.5437000000000001,0.24333333333333335,0.026555555555555665,-0.761,67.661,0.018000000000000002,-0.212925,-0.3520000000000003,100.0,1.0,1.0,208.72333333333333,0.0,0.0,0.0,0.0,0.0,0.0,0.0,8847.0,0.0,55.0,5.0,243.55,1.0,0.0,0.0,0.0,0.0,0.0,1.0,0.0,0.7530000000000001,0.7530000000000001,0.0,0.0,1.0,55.0,616.79921,10000.0,85.000001,85.000001,85.000001,85.000001,395.0,0.0,0.0,0.0,1.0,166.665,52.856,52.856,48.248,48.248,34.0,-23.1725,24.064,-27.04,29.872500000000002,0.0,1782.846,-0.29499999999999815,100.0,27.576999999999998,27.807,42.408,42.882,0.0,0.0,100.0,0.0,0.0,0.0,0.0,3079.285714285714,2991.8,4111.875,4120.3,305.581,305.1075,314.89,314.56975,21.9312,20.5954,21.9293,21.4364,314.999998,314.999998,324.999988,324.999988,99.55982857142857,99.50746666666667,99.5676,99.54698571428571,0.08775000000000022,-0.04166666666666674,-0.084,0.13483333333333333,-0.05666666666667197,-0.05285714285714249,1.5365,1.5183333333333335,38.07,29.721333333333334,38.058,34.9775,56.351,35.1315,59.742,52.4245,54.256,34.2425,58.326,50.7525,53.402,33.7685,58.246,50.163,-0.09850000000000003,-0.05049999999999999,0.10383500000000001,0.11103500000000001,0.0,211.875,211.89,208.72333333333333,208.72333333333333,0.0,0.0
16,0.0,0.0,0.0,1.0,1.0,0.0,0.0,1.0,0.0,0.0,1.0,1.1856,26.0,0.0,0.0,0.0,59.999996,0.0,26.0,26.0,26.0,26.0,0.04425,0.27670000000000017,-0.0024000000000000002,292.755,-2.7597,-2.627625,-1.5344,-1.5549,-222.16,215.38,190.6615,0.0,0.0,0.0,0.0,0.03269999999999995,-5.498166666666667,-5.498166666666667,-0.5531,-0.3486666666666667,0.02122222222222203,-0.996,67.809,0.0198,-0.223475,-0.17999999999999972,100.0,1.0,1.0,209.17333333333335,0.0,0.0,0.0,0.0,0.0,0.0,0.0,8866.1,0.0,55.0,5.0,244.08333333333334,0.0,0.0,0.0,0.0,0.0,0.0,1.0,0.0,0.8069999999999986,0.8069999999999986,0.0,0.0,0.0,55.0,616.79921,10000.0,85.000001,85.000001,85.000001,85.000001,395.0,0.0,0.0,0.0,1.0,166.665,52.505,52.505,47.958,47.958,34.0,-24.5025,24.945999999999998,-27.203333333333333,29.305,0.0,1782.792,-0.2699999999999996,100.0,27.471,27.882,42.67,43.07,0.0,0.0,100.0,0.0,0.0,0.0,0.0,3187.4285714285716,3141.3,4081.125,4029.4,305.312,304.70175,314.94275,314.775,21.9413,20.6013,21.9405,21.445999999999998,314.999998,314.999998,324.999988,324.999988,99.55984285714285,99.50748333333334,99.56775714285715,99.54715714285715,0.09175000000000022,-0.03966666666666674,-0.09666666666666668,0.13966666666666666,-0.051666666666669414,-0.048571428571428044,1.5355,1.5116666666666667,38.132999999999996,29.757666666666665,38.128,35.0375,56.335,35.1745,59.7845,52.4935,54.241,34.282,58.3655,50.819,53.385,33.8065,58.282,50.22833333333333,-0.09799999999999998,-0.05699999999999994,0.10656500000000001,0.10824500000000001,0.0,212.32,212.305,209.17333333333335,209.17333333333335,0.0,0.0
17,0.0,0.0,0.0,1.0,1.0,0.0,0.0,1.0,0.0,0.0,1.0,1.1856,26.0,0.0,0.0,0.0,59.999996,0.0,26.0,26.0,26.0,26.0,0.029750000000000002,0.28190000000000004,0.031425,292.496,-2.623,-2.7186250000000003,-1.549,-1.5188000000000001,-218.7,215.375,190.63925,0.0,0.0,0.0,0.0,0.034733333333333394,-5.498166666666667,-5.498166666666667,-0.5509000000000001,0.16466666666666666,0.0005555555555556424,0.399,67.94800000000001,0.016300000000000002,-0.2175,-0.23000000000000043,100.0,1.0,1.0,209.5366666666667,0.0,0.0,0.0,0.0,0.0,0.0,0.0,8881.5,0.0,55.0,5.0,244.58333333333334,1.0,0.0,0.0,0.0,0.0,0.0,1.0,0.0,0.8580000000000005,0.8580000000000005,0.0,0.0,1.0,55.0,616.79921,10000.0,85.000001,85.000001,85.000001,85.000001,395.0,0.0,0.0,0.0,1.0,166.665,52.399,52.399,47.638,47.638,34.0,-22.025,26.238,-28.006666666666664,30.305,0.0,1782.742,-0.19000000000000128,100.0,27.903,27.854,42.772999999999996,42.939,0.0,0.0,100.0,0.0,0.0,0.0,0.0,3049.5714285714284,3169.9,4178.5,4264.2,305.442,304.63325,314.62975,314.354,21.9509,20.6069,21.9509,21.4551,314.999998,314.999998,324.999988,324.999988,99.55985714285714,99.50748333333334,99.5679,99.54728571428572,0.09975000000000023,-0.03533333333333322,-0.08933333333333333,0.13333333333333336,-0.041666666666671404,-0.04571428571428271,1.514,1.5136666666666665,38.193,29.793,38.193,35.0945,56.323,35.211,59.819,52.551,54.229,34.3155,58.3975,50.8745,53.373000000000005,33.839,58.3115,50.282666666666664,-0.09099999999999997,-0.06099999999999994,0.10824,0.10837000000000001,0.0,212.76999999999998,212.76999999999998,209.5366666666667,209.5366666666667,0.0,0.0
18,0.0,0.0,0.0,1.0,1.0,0.0,0.0,1.0,0.0,0.0,1.0,1.1856,26.0,0.0,0.0,0.0,59.999996,0.0,26.0,26.0,26.0,26.0,0.0475,0.25970000000000004,0.017475,292.603,-2.6458,-2.74475,-1.53355,-1.5889,-215.23000000000002,215.3725,190.61675,0.0,0.0,0.0,0.0,0.036733333333333396,-5.498166666666667,-5.498166666666667,-0.5611,-0.3166666666666667,-0.0032222222222220154,-0.684,68.086,0.014100000000000001,-0.22587500000000002,-0.13400000000000034,100.0,1.0,1.0,209.98333333333335,0.0,0.0,0.0,0.0,0.0,0.0,0.0,8900.5,0.0,55.0,5.0,245.08333333333334,0.0,0.0,0.0,0.0,0.0,0.0,1.0,0.0,0.9089999999999989,0.9089999999999989,0.0,0.0,0.0,55.0,616.79921,10000.0,85.000001,85.000001,85.000001,85.000001,395.0,0.0,0.0,0.0,1.0,111.11,52.536,52.536,47.974000000000004,47.974000000000004,34.0,-23.585,24.444000000000003,-27.909999999999997,29.6875,0.0,1782.693,-0.120000000000001,100.0,27.761,27.914,42.874,43.181,0.0,0.0,100.0,0.0,0.0,0.0,0.0,3154.714285714286,3031.6,4083.375,4126.7,305.357,304.9615,314.91225,314.4855,21.9605,20.6123,21.9614,21.464199999999998,314.999998,314.999998,324.999988,324.999988,99.55987142857143,99.50748333333334,99.56804285714286,99.54742857142857,0.08349999999999991,-0.05499999999999994,-0.10633333333333334,0.11833333333333333,-0.045000000000001705,-0.05571428571428072,1.498,1.4946666666666668,38.253,29.826999999999998,38.259,35.1515,56.309,35.2485,59.8565,52.6125,54.215,34.3505,58.4325,50.9335,53.358000000000004,33.8725,58.343,50.340666666666664,-0.08750000000000002,-0.07099999999999995,0.112265,0.10046500000000001,0.0,213.18,213.175,209.98333333333335,209.98333333333335,0.0,0.0
19,0.0,0.0,0.0,1.0,1.0,0.0,0.0,1.0,0.0,0.0,1.0,1.1856,26.0,0.0,0.0,0.0,59.999996,0.0,26.0,26.0,26.0,26.0,0.035,0.27790000000000004,0.010425,292.297,-2.6374,-2.709375,-1.53305,-1.6078999999999999,-211.95999999999998,215.37,190.59525,0.0,0.0,0.0,0.0,0.0386333333333333,-5.498166666666667,-5.498166666666667,-0.5513,0.517,0.0058888888888888324,-0.686,68.215,0.010100000000000001,-0.214975,0.016000000000000014,100.0,1.0,1.0,210.37,0.0,0.0,0.0,0.0,0.0,0.0,0.0,8916.8,0.0,55.0,5.0,245.54666666666668,1.0,0.0,0.0,0.0,0.0,0.0,1.0,0.0,0.9570000000000007,0.9570000000000007,0.0,0.0,1.0,55.0,616.79921,10000.0,85.000001,85.000001,85.000001,85.000001,395.0,0.0,0.0,0.0,1.0,166.665,52.124,52.124,47.836,47.836,34.0,-23.865,23.98,-28.973333333333333,29.9125,0.0,1782.645,-0.10999999999999943,100.0,28.26,28.318,42.824,43.255,0.0,0.0,100.0,0.0,0.0,0.0,0.0,3157.714285714286,3007.8,4174.875,4190.3,305.3175,305.01325,314.73625,314.3555,21.9697,20.6176,21.9713,21.4728,314.999998,314.999998,324.999988,324.999988,99.55987142857143,99.5075,99.56817142857143,99.54757142857143,0.0767500000000001,-0.05433333333333312,-0.11266666666666668,0.10883333333333334,-0.03166666666666629,-0.04571428571428271,1.4885,1.5113333333333334,38.31,29.86,38.321,35.205,56.297,35.286,59.8905,52.67,54.204,34.385,58.464,50.989,53.346000000000004,33.9055,58.372,50.394666666666666,-0.08950000000000002,-0.07050000000000001,0.10994000000000001,0.10728000000000001,0.0,213.61,213.61,210.37,210.37,0.0,0.0
20,0.0,0.0,0.0,1.0,1.0,0.0,0.0,1.0,0.0,0.0,1.0,1.1856,26.0,0.0,0.0,0.0,59.999996,0.0,26.0,26.0,26.0,26.0,0.02025,0.2623,-0.0074,292.358,-2.7065,-2.6578749999999998,-1.52,-1.5896,-208.68,215.3675,190.574125,0.0,0.0,0.0,0.0,0.04053333333333331,-5.498166666666667,-5.498166666666667,-0.5541,-0.7123333333333334,0.00922222222222202,-0.93,68.346,0.0055000000000000005,-0.22512500000000002,0.0779999999999994,100.0,1.0,1.0,210.7266666666667,0.0,0.0,0.0,0.0,0.0,0.0,0.0,8932.0,0.0,55.0,5.0,246.01999999999998,0.0,0.0,0.0,0.0,0.0,0.0,0.0,0.0,1.004999999999999,1.004999999999999,0.0,0.0,0.0,55.0,616.79921,10000.0,85.000001,85.000001,85.000001,85.000001,395.0,0.0,0.0,0.0,1.0,166.665,52.521,52.521,47.409,47.409,34.0,-24.005,23.375999999999998,-28.813333333333333,28.9775,0.0,1782.595,-0.120000000000001,100.0,27.873,28.084,43.3,43.650999999999996,0.0,0.0,100.0,0.0,0.0,0.0,0.0,3125.714285714286,3024.1,4162.75,4077.2,305.4935,305.0665,314.7295,314.608,21.9786,20.6228,21.9813,21.4815,314.999998,314.999998,324.999988,324.999988,99.55988571428571,99.5075,99.56831428571428,99.54771428571429,0.08000000000000007,-0.05933333333333324,-0.11333333333333333,0.11133333333333333,-0.04833333333333201,-0.03714285714285381,1.484,1.4813333333333334,38.366,29.892666666666663,38.382999999999996,35.2595,56.283,35.322,59.9275,52.7295,54.191,34.4185,58.4985,51.046,53.332,33.9375,58.4035,50.45066666666666,-0.08899999999999997,-0.07250000000000001,0.10931,0.103345,0.0,213.99,213.96,210.7266666666667,210.7266666666667,0.0,0.0
21,0.0,0.0,0.0,1.0,1.0,0.0,0.0,1.0,0.0,0.0,1.0,1.1856,26.0,0.0,0.0,0.0,59.999996,0.0,26.0,26.0,26.0,26.0,0.008875000000000001,0.27790000000000004,-0.039150000000000004,292.633,-2.7195,-2.66325,-1.56595,-1.5316,-205.39999999999998,215.365,190.552625,0.0,0.0,0.0,0.0,0.04246666666666654,-5.498166666666667,-5.498166666666667,-0.5733,-0.02866666666666667,-0.00022222222222234578,-0.6980000000000001,68.47200000000001,0.0013000000000000002,-0.22490000000000002,0.06600000000000072,100.0,1.0,1.0,211.25,0.0,0.0,0.0,0.0,0.0,0.0,0.0,8954.0,0.0,55.0,5.0,246.47,1.0,0.0,0.0,0.0,0.0,0.0,0.0,0.0,1.0530000000000008,1.0530000000000008,0.0,0.0,1.0,55.0,616.79921,10000.0,85.000001,85.000001,85.000001,85.000001,395.0,0.0,0.0,0.0,1.0,166.665,52.444,52.444,48.08,48.08,34.0,-24.9275,23.625999999999998,-28.16,26.91,0.0,1782.546,-0.1999999999999993,100.0,27.897,27.916,43.024,43.256,0.0,0.0,100.0,0.0,0.0,0.0,0.0,3223.0,3064.4,4058.75,3997.4,305.211,305.01175,315.03875,314.96225,21.9876,20.628,21.9911,21.49,314.999998,314.999998,324.999988,324.999988,99.5599,99.5075,99.56847142857143,99.54785714285714,0.08150000000000013,-0.06066666666666665,-0.11383333333333333,0.109,-0.061666666666667425,-0.03714285714285381,1.5645,1.5566666666666666,38.423,29.925333333333334,38.444,35.3125,56.269,35.3605,59.9625,52.7875,54.177,34.454499999999996,58.531,51.102000000000004,53.318,33.972,58.4325,50.50566666666667,-0.09399999999999997,-0.06699999999999995,0.09732,0.10672500000000001,0.0,214.39,214.37,211.25,211.25,0.0,0.0
22,0.0,0.0,0.0,1.0,1.0,0.0,0.0,1.0,0.0,0.0,1.0,1.1856,26.0,0.0,0.0,0.0,59.999996,0.0,26.0,26.0,26.0,26.0,-0.0073750000000000005,0.27470000000000017,-0.008825000000000001,292.221,-2.7535,-2.668875,-1.5961500000000002,-1.5329000000000002,-201.89999999999998,215.365,190.528875,0.0,0.0,0.0,0.0,0.044499999999999984,-5.498166666666667,-5.498166666666667,-0.5584,0.10466666666666667,0.005666666666666709,1.1320000000000001,68.60900000000001,-0.0013000000000000002,-0.20035,-0.13599999999999923,100.0,1.0,1.0,211.5233333333333,0.0,0.0,0.0,0.0,0.0,0.0,0.0,8965.7,0.0,55.0,5.0,246.96666666666667,0.0,0.0,0.0,0.0,0.0,0.0,0.0,0.0,1.1039999999999992,1.1039999999999992,0.0,0.0,0.0,55.0,616.79921,10000.0,85.000001,85.000001,85.000001,85.000001,395.0,0.0,0.0,0.0,1.0,111.11,52.521,52.521,47.211,47.211,34.0,-23.47,25.024,-30.543333333333333,30.740000000000002,0.0,1782.498,-0.3000000000000007,100.0,28.131,27.84,43.249,43.199,0.0,0.0,100.0,0.0,0.0,0.0,0.0,3058.4285714285716,3157.5,4268.25,4382.5,305.583,304.92675,314.46825,314.1015,21.9972,20.6336,22.0016,21.499200000000002,314.999998,314.999998,324.999988,324.999988,99.5599,99.50751666666666,99.5686,99.548,0.09149999999999991,-0.04299999999999993,-0.10933333333333332,0.11666666666666667,-0.03999999999999915,-0.057142857142849834,1.495,1.4826666666666668,38.482,29.96,38.51,35.37,56.256,35.397,59.998,52.845,54.165,34.488,58.564,51.1575,53.304,34.0045,58.463,50.559333333333335,-0.10499999999999998,-0.0535000000000001,0.110475,0.106935,0.0,214.81,214.84,211.5233333333333,211.5233333333333,0.0,0.0
23,0.0,0.0,0.0,1.0,1.0,0.0,0.0,1.0,0.0,0.0,1.0,1.1856,26.0,0.0,0.0,0.0,59.999996,0.0,26.0,26.0,26.0,26.0,0.001875,0.2632000000000001,-0.0189,292.038,-2.6611,-2.667625,-1.6384,-1.5066000000000002,-198.39999999999998,215.3625,190.505375,0.0,0.0,0.0,0.0,0.046533333333333315,-5.498166666666667,-5.498166666666667,-0.5723,-0.251,0.004444444444444251,-0.787,68.744,0.0028,-0.22407500000000002,-0.10799999999999876,100.0,1.0,1.0,211.98333333333335,0.0,0.0,0.0,0.0,0.0,0.0,0.0,8985.2,0.0,55.0,5.0,247.45,1.0,0.0,0.0,0.0,0.0,0.0,0.0,0.0,1.1550000000000011,1.1550000000000011,0.0,0.0,1.0,55.0,616.79921,10000.0,85.000001,85.000001,85.000001,85.000001,395.0,0.0,0.0,0.0,1.0,111.11,51.926,51.926,47.531,47.531,34.0,-25.0675,24.406,-30.653333333333336,28.4325,0.0,1782.447,-0.21000000000000085,100.0,28.228,28.224,43.352000000000004,43.57,0.0,0.0,100.0,0.0,0.0,0.0,0.0,3275.4285714285716,3081.8,4221.25,4160.1,304.951,304.8895,314.703,314.55075,22.0068,20.6393,22.0122,21.508499999999998,314.999998,314.999998,324.999988,324.999988,99.55991428571429,99.50751666666666,99.56874285714285,99.54814285714286,0.07925000000000004,-0.04899999999999993,-0.11233333333333333,0.115,-0.03333333333333144,-0.054285714285711606,1.51,1.5116666666666667,38.542,29.995333333333335,38.576,35.428,56.242999999999995,35.436,60.0355,52.907,54.152,34.524,58.599000000000004,51.217,53.291,34.039,58.4945,50.617666666666665,-0.09299999999999997,-0.05750000000000011,0.107965,0.10097500000000001,0.0,215.21,215.215,211.98333333333335,211.98333333333335,0.0,0.0
24,0.0,0.0,0.0,1.0,1.0,0.0,0.0,1.0,0.0,0.0,1.0,1.1856,26.0,0.0,0.0,0.0,59.999996,0.0,26.0,26.0,26.0,26.0,0.019875,0.26449999999999996,-0.018500000000000003,292.419,-2.6837,-2.6705,-1.5471,-1.5612,-195.1,215.36,190.48275,0.0,0.0,0.0,0.0,0.04843333333333333,-5.498166666666667,-5.498166666666667,-0.5845,-0.3096666666666667,0.010222222222222133,-0.28300000000000003,68.87100000000001,0.0049,-0.22305,-0.15000000000000036,100.0,1.0,1.0,212.37333333333333,0.0,0.0,0.0,0.0,0.0,0.0,0.0,9001.8,0.0,55.0,5.0,247.90666666666667,0.0,0.0,0.0,0.0,0.0,0.0,0.0,0.0,1.2029999999999994,1.2029999999999994,0.0,0.0,0.0,55.0,616.79921,10000.0,85.000001,85.000001,85.000001,85.000001,395.0,0.0,0.0,0.0,1.0,166.665,52.658,52.658,47.424,47.424,34.0,-22.9925,23.218,-29.886666666666663,29.155,0.0,1782.398,-0.23000000000000043,100.0,28.063,27.990000000000002,43.277,43.511,0.0,0.0,100.0,0.0,0.0,0.0,0.0,3071.857142857143,2982.9,4225.375,4115.6,305.6155,305.23325,314.5905,314.63575,22.0157,20.6445,22.022100000000002,21.5171,314.999998,314.999998,324.999988,324.999988,99.55992857142857,99.50753333333333,99.56888571428571,99.54828571428571,0.08899999999999997,-0.05566666666666675,-0.11966666666666667,0.12033333333333333,-0.03833333333332689,-0.044285714285713595,1.5225,1.5046666666666666,38.598,30.028,38.638,35.482,56.230000000000004,35.4715,60.0695,52.963499999999996,54.14,34.557,58.6305,51.2715,53.277,34.070499999999996,58.5235,50.671,-0.10350000000000004,-0.06350000000000011,0.11127000000000001,0.10562,0.0,215.60500000000002,215.60500000000002,212.37333333333333,212.37333333333333,0.0,0.0
25,0.0,0.0,0.0,1.0,1.0,0.0,0.0,1.0,0.0,0.0,1.0,1.1856,26.0,0.0,0.0,0.0,59.999996,0.0,26.0,26.0,26.0,26.0,0.027125,0.26560000000000006,-0.023075000000000002,292.145,-2.6822,-2.64675,-1.589,-1.5556999999999999,-191.38,215.36,190.456,0.0,0.0,0.0,0.0,0.05059999999999998,-5.498166666666667,-5.498166666666667,-0.6017,0.098,0.01766666666666672,-0.872,69.013,0.0081,-0.21885000000000002,-0.1479999999999997,100.0,1.0,1.0,212.85000000000002,0.0,0.0,0.0,0.0,0.0,0.0,0.0,9021.9,0.0,55.0,5.0,248.41666666666666,1.0,0.0,0.0,0.0,0.0,0.0,0.0,0.0,1.256999999999998,1.256999999999998,0.0,0.0,1.0,55.0,616.79921,10000.0,85.000001,85.000001,85.000001,85.000001,395.0,0.0,0.0,0.0,1.0,166.665,51.757999999999996,51.757999999999996,47.729,47.729,34.0,-24.9725,25.976,-28.073333333333334,29.08,0.0,1782.343,-0.23499999999999943,100.0,28.038,28.225,43.098,43.34,0.0,0.0,100.0,0.0,0.0,0.0,0.0,3300.5714285714284,3246.6,4084.625,4114.1,304.92,304.415,315.02325,314.64225,22.0257,20.6504,22.0331,21.526699999999998,314.999998,314.999998,324.999988,324.999988,99.55994285714286,99.50753333333333,99.56904285714286,99.54842857142857,0.08999999999999986,-0.04233333333333311,-0.101,0.12233333333333334,-0.02499999999999858,-0.034285714285715585,1.5495,1.5256666666666665,38.66,30.065333333333335,38.707,35.542,56.214,35.5125,60.1065,53.025999999999996,54.125,34.595,58.665,51.3315,53.262,34.107,58.5545,50.730000000000004,-0.10350000000000004,-0.05899999999999994,0.10546000000000001,0.10514000000000001,0.0,216.03,216.035,212.85000000000002,212.85000000000002,0.0,0.0
26,0.0,0.0,0.0,1.0,1.0,0.0,0.0,1.0,0.0,0.0,1.0,1.1856,26.0,0.0,0.0,0.0,59.999996,0.0,26.0,26.0,26.0,26.0,0.013375,0.2695000000000001,0.07440000000000001,291.367,-2.7037,-2.6578749999999998,-1.55145,-1.5584,-187.85,215.35750000000002,190.4305,0.0,0.0,0.0,0.0,0.05266666666666653,-5.498166666666667,-5.498166666666667,-0.5745,0.265,0.00955555555555554,0.9460000000000001,69.148,0.0068000000000000005,-0.20342500000000002,-0.14000000000000057,100.0,1.0,1.0,213.06666666666666,0.0,0.0,0.0,0.0,0.0,0.0,0.0,9031.1,0.0,55.0,5.0,248.90666666666667,0.0,0.0,0.0,0.0,0.0,0.0,0.0,0.0,1.3079999999999998,1.3079999999999998,0.0,0.0,0.0,55.0,616.79921,10000.0,85.000001,85.000001,85.000001,85.000001,395.0,0.0,0.0,0.0,1.0,166.665,51.635999999999996,51.635999999999996,46.631,46.631,34.0,-23.96,24.918,-30.15,33.004999999999995,0.0,1782.292,-0.3099999999999987,100.0,28.861,28.490000000000002,43.668,43.762,0.0,0.0,100.0,0.0,0.0,0.0,0.0,3165.714285714286,3177.6,4408.0,4492.1,305.215,304.87925,314.1185,313.7525,22.0353,20.6562,22.0437,21.5361,314.999998,314.999998,324.999988,324.999988,99.55995714285714,99.50753333333333,99.56918571428571,99.54858571428572,0.09350000000000014,-0.047666666666666746,-0.088,0.1265,-0.03166666666666629,-0.07285714285714562,1.447,1.4336666666666666,38.721000000000004,30.101333333333336,38.772999999999996,35.6005,56.203,35.553,60.144999999999996,53.089,54.114999999999995,34.6325,58.701,51.391999999999996,53.25,34.143,58.587,50.78933333333333,-0.09899999999999998,-0.062000000000000055,0.09893,0.10704000000000001,0.0,216.48000000000002,216.505,213.06666666666666,213.06666666666666,0.0,0.0
27,0.0,0.0,0.0,1.0,1.0,0.0,0.0,1.0,0.0,0.0,1.0,1.1856,26.0,0.0,0.0,0.0,59.999996,0.0,26.0,26.0,26.0,26.0,0.022375,0.276,-0.028550000000000002,291.809,-2.7536,-2.66775,-1.6145,-1.5373,-184.32,215.35750000000002,190.405875,0.0,0.0,0.0,0.0,0.05469999999999997,-5.498166666666667,-5.498166666666667,-0.5992000000000001,-0.7603333333333334,0.01577777777777789,-0.607,69.279,0.007,-0.23927500000000002,-0.17999999999999972,100.0,1.0,1.0,213.61,0.0,0.0,0.0,0.0,0.0,0.0,0.0,9054.2,0.0,55.0,5.0,249.38,1.0,0.0,0.0,0.0,0.0,0.0,0.0,0.0,1.3589999999999982,1.3589999999999982,0.0,0.0,1.0,55.0,616.79921,10000.0,85.000001,85.000001,85.000001,85.000001,395.0,0.0,0.0,0.0,1.0,111.11,51.926,51.926,46.875,46.875,34.0,-24.335,24.66,-28.996666666666666,28.314999999999998,0.0,1782.241,-0.3299999999999983,100.0,28.331,28.63,43.95,44.138000000000005,0.0,0.0,100.0,0.0,0.0,0.0,0.0,3186.4285714285716,3111.5,4089.375,4095.5,305.3765,304.79725,314.8875,314.7175,22.0447,20.6619,22.0544,21.5454,314.999998,314.999998,324.999988,324.999988,99.55997142857143,99.50755,99.56934285714286,99.54874285714286,0.09399999999999986,-0.04966666666666675,-0.10616666666666667,0.11533333333333333,-0.046666666666666856,-0.04999999999999716,1.5325,1.5230000000000001,38.778999999999996,30.137,38.84,35.659,56.19,35.592,60.183,53.15,54.102000000000004,34.6685,58.7365,51.451,53.236000000000004,34.1775,58.6195,50.846666666666664,-0.10749999999999993,-0.05499999999999994,0.1014,0.108545,0.0,216.86,216.86,213.61,213.61,0.0,0.0
28,0.0,0.0,0.0,1.0,1.0,0.0,0.0,1.0,0.0,0.0,1.0,1.1856,26.0,0.0,0.0,0.0,59.999996,0.0,26.0,26.0,26.0,26.0,0.01825,0.2724,-0.033675000000000004,291.962,-2.6805,-2.65825,-1.6280999999999999,-1.5676,-181.2,215.36,190.383375,0.0,0.0,0.0,0.0,0.056533333333333324,-5.498166666666667,-5.498166666666667,-0.6021000000000001,0.5143333333333334,0.005555555555555536,0.28700000000000003,69.394,0.008,-0.21885000000000002,-0.27399999999999913,100.0,1.0,1.0,214.04000000000002,0.0,0.0,0.0,0.0,0.0,0.0,0.0,9072.3,0.0,55.0,5.0,249.79000000000002,0.0,0.0,0.0,0.0,0.0,0.0,0.0,0.0,1.404,1.404,0.0,0.0,0.0,55.0,616.79921,10000.0,85.000001,85.000001,85.000001,85.000001,395.0,0.0,0.0,0.0,1.0,111.11,51.865,51.865,47.394,47.394,34.0,-22.384999999999998,25.689999999999998,-28.363333333333333,29.4825,0.0,1782.196,-0.379999999999999,100.0,28.614,28.434,43.528999999999996,43.709,0.0,0.0,100.0,0.0,0.0,0.0,0.0,3076.285714285714,3203.0,4086.125,4136.4,305.431,304.6975,315.01475,314.67975,22.053,20.667,22.0635,21.5534,314.999998,314.999998,324.999988,324.999988,99.55998571428572,99.50755,99.56947142857143,99.54887142857143,0.10850000000000026,-0.03833333333333311,-0.09533333333333333,0.12766666666666668,-0.036666666666668846,-0.06142857142857139,1.5495,1.5513333333333335,38.831,30.168666666666667,38.897,35.709,56.179,35.626999999999995,60.212,53.201499999999996,54.091,34.7005,58.7635,51.5005,53.225,34.2085,58.6435,50.89533333333333,-0.11049999999999993,-0.05449999999999999,0.106395,0.10266000000000002,0.0,217.235,217.26,214.04000000000002,214.04000000000002,0.0,0.0
29,0.0,0.0,0.0,1.0,1.0,0.0,0.0,1.0,0.0,0.0,1.0,1.1856,26.0,0.0,0.0,0.0,59.999996,0.0,26.0,26.0,26.0,26.0,0.038625,0.26439999999999997,-0.008375,291.824,-2.6599,-2.718375,-1.56725,-1.5519,-177.66,215.36,190.357,0.0,0.0,0.0,0.0,0.058566666666666545,-5.498166666666667,-5.498166666666667,-0.6024,-0.652,-0.004222222222222349,-0.777,69.528,0.0131,-0.21282500000000001,-0.29800000000000004,100.0,1.0,1.0,214.27666666666667,0.0,0.0,0.0,0.0,0.0,0.0,0.0,9082.4,0.0,55.0,5.0,250.27666666666664,1.0,0.0,0.0,0.0,0.0,0.0,0.0,0.0,1.4549999999999983,1.4549999999999983,0.0,0.0,1.0,55.0,616.79921,10000.0,85.000001,85.000001,85.000001,85.000001,395.0,0.0,0.0,0.0,1.0,111.11,52.368,52.368,46.692,46.692,34.0,-22.6125,24.212,-29.566666666666663,30.3975,0.0,1782.146,-0.384999999999998,100.0,28.133,28.404,43.831,44.074,0.0,0.0,100.0,0.0,0.0,0.0,0.0,3113.285714285714,2993.6,4250.625,4258.8,305.5765,305.1345,314.53925,314.26325,22.0623,20.6726,22.0741,21.5628,314.999998,314.999998,324.999988,324.999988,99.55998571428572,99.50756666666666,99.56961428571428,99.54901428571429,0.09949999999999992,-0.04600000000000004,-0.10133333333333333,0.11950000000000001,-0.05833333333333002,-0.04571428571428271,1.4935,1.4763333333333333,38.89,30.203666666666663,38.963,35.7675,56.164,35.664,60.251,53.263,54.078,34.735,58.7995,51.56,53.21,34.2415,58.6765,50.953,-0.10999999999999999,-0.052999999999999936,0.10143,0.10254500000000001,0.0,217.63,217.635,214.27666666666667,214.27666666666667,0.0,0.0
30,0.0,0.0,0.0,1.0,1.0,0.0,0.0,1.0,0.0,0.0,1.0,1.1856,26.0,0.0,0.0,0.0,59.999996,0.0,26.0,26.0,26.0,26.0,0.04075,0.24870000000000014,0.034075,291.168,-2.7255,-2.6481250000000003,-1.64135,-1.466,-174.11,215.3625,190.330625,0.0,0.0,0.0,0.0,0.06063333333333332,-5.498166666666667,-5.498166666666667,-0.6058,0.897,0.006333333333333302,0.8320000000000001,69.656,0.016900000000000002,-0.21752500000000002,-0.40000000000000036,100.0,1.0,1.0,214.7866666666667,0.0,0.0,0.0,0.0,0.0,0.0,0.0,9104.1,0.0,55.0,5.0,250.73666666666668,0.0,0.0,0.0,0.0,0.0,0.0,1.0,0.0,1.5060000000000002,1.5060000000000002,0.0,0.0,0.0,55.0,616.79921,10000.0,85.000001,85.000001,85.000001,85.000001,395.0,0.0,0.0,0.0,1.0,111.11,50.552,50.552,47.012,47.012,34.0,-24.197499999999998,27.698,-29.296666666666663,29.4225,0.0,1782.095,-0.379999999999999,100.0,29.199,28.95,43.629,43.925,0.0,0.0,100.0,0.0,0.0,0.0,0.0,3297.0,3388.6,4207.125,4249.6,304.7135,303.93475,314.8,314.57125,22.072,20.6785,22.0845,21.572,314.999998,314.999998,324.999988,324.999988,99.56,99.50756666666666,99.56975714285714,99.54915714285714,0.12124999999999986,-0.035666666666666735,-0.0905,0.13716666666666666,-0.041666666666671404,-0.054285714285711606,1.5335,1.5286666666666666,38.95,30.240666666666666,39.028,35.825,56.155,35.7055,60.285,53.323,54.069,34.7735,58.831,51.6175,53.2,34.278,58.705,51.00933333333333,-0.122,-0.050999999999999934,0.10444500000000001,0.1068,0.0,218.04000000000002,218.07,214.7866666666667,214.7866666666667,0.0,0.0
31,0.0,0.0,0.0,1.0,1.0,0.0,0.0,1.0,0.0,0.0,1.0,1.1856,26.0,0.0,0.0,0.0,59.999996,0.0,26.0,26.0,26.0,26.0,0.031375,0.2539,0.0819,290.71,-2.7747,-2.622625,-1.64615,-1.542,-170.55,215.365,190.30475,0.0,0.0,0.0,0.0,0.06269999999999998,-5.498166666666667,-5.498166666666667,-0.5864,-0.41533333333333333,0.013333333333333197,-0.769,69.78999999999999,0.020900000000000002,-0.21882500000000002,-0.2839999999999989,100.0,1.0,1.0,215.00666666666666,0.0,0.0,0.0,0.0,0.0,0.0,0.0,9113.3,0.0,55.0,5.0,251.21666666666667,1.0,0.0,0.0,0.0,0.0,0.0,1.0,0.0,1.5569999999999986,1.5569999999999986,0.0,0.0,1.0,55.0,616.79921,10000.0,85.000001,85.000001,85.000001,85.000001,395.0,0.0,0.0,0.0,1.0,111.11,51.056,51.056,45.609,45.609,34.0,-24.8525,26.168,-32.016666666666666,32.3925,0.0,1782.045,-0.39000000000000057,100.0,28.874,29.242,44.369,44.826,0.0,0.0,100.0,0.0,0.0,0.0,0.0,3257.5714285714284,3284.7,4382.125,4361.3,305.1925,304.3515,314.21925,313.94475,22.0814,20.6844,22.0952,21.5815,314.999998,314.999998,324.999988,324.999988,99.56001428571429,99.50756666666666,99.56991428571429,99.54931428571429,0.10124999999999984,-0.04033333333333311,-0.09883333333333333,0.13566666666666666,-0.045000000000001705,-0.03999999999999915,1.432,1.4233333333333333,39.009,30.27733333333333,39.095,35.8845,56.143,35.745,60.325,53.3875,54.057,34.8105,58.8685,51.6795,53.188,34.3135,58.739,51.06966666666666,-0.11099999999999999,-0.056499999999999995,0.10771000000000001,0.11252000000000001,0.0,218.44,218.46,215.00666666666666,215.00666666666666,0.0,0.0
32,0.0,0.0,0.0,1.0,1.0,0.0,0.0,1.0,0.0,0.0,1.0,1.1856,26.0,0.0,0.0,0.0,59.999996,0.0,26.0,26.0,26.0,26.0,0.0365,0.26580000000000004,-0.037875,291.336,-2.6967,-2.684,-1.58615,-1.6232,-166.99,215.3675,190.27925,0.0,0.0,0.0,0.0,0.06476666666666653,-5.498166666666667,-5.498166666666667,-0.6065,-0.27666666666666667,-0.004999999999999893,0.281,69.917,0.023,-0.2326,-0.3960000000000008,100.0,1.0,1.0,215.54333333333335,0.0,0.0,0.0,0.0,0.0,0.0,0.0,9136.0,0.0,55.0,5.0,251.67333333333335,0.0,0.0,0.0,0.0,0.0,0.0,1.0,0.0,1.6080000000000005,1.6080000000000005,0.0,0.0,0.0,55.0,616.79921,10000.0,85.000001,85.000001,85.000001,85.000001,395.0,0.0,0.0,0.0,1.0,166.665,51.559,51.559,46.631,46.631,34.0,-21.8775,26.201999999999998,-27.366666666666667,32.58,0.0,1781.992,-0.39000000000000057,100.0,28.905,28.933,44.284,44.578,0.0,0.0,100.0,0.0,0.0,0.0,0.0,3060.714285714286,3181.5,4063.75,4247.8,305.507,304.758,314.95675,314.3455,22.0907,20.6902,22.1057,21.5908,314.999998,314.999998,324.999988,324.999988,99.56004285714286,99.50758333333333,99.57005714285714,99.54947142857142,0.12049999999999983,-0.027666666666666728,-0.0845,0.145,-0.041666666666671404,-0.047142857142851824,1.5170000000000001,1.4853333333333334,39.067,30.313666666666666,39.161,35.942499999999995,56.131,35.7845,60.36,53.447,54.045,34.8465,58.900999999999996,51.737,53.175,34.3485,58.768,51.126,-0.11649999999999994,-0.052000000000000046,0.10834,0.10529500000000001,0.0,218.815,218.85000000000002,215.54333333333335,215.54333333333335,0.0,0.0
33,0.0,0.0,0.0,1.0,1.0,0.0,0.0,1.0,0.0,0.0,1.0,1.1856,26.0,0.0,0.0,0.0,59.999996,0.0,26.0,26.0,26.0,26.0,0.048375,0.26480000000000015,-0.0641,291.58,-2.7283,-2.693625,-1.5923,-1.5902,-163.84,215.3725,190.25575,0.0,0.0,0.0,0.0,0.06659999999999999,-5.498166666666667,-5.498166666666667,-0.6143000000000001,-0.203,-0.010333333333333083,-0.271,70.03,0.024900000000000002,-0.21645,-0.3260000000000005,100.0,1.0,1.0,215.89666666666668,0.0,0.0,0.0,0.0,0.0,0.0,0.0,9151.0,0.0,55.0,5.0,252.08333333333334,1.0,0.0,0.0,0.0,0.0,0.0,1.0,0.0,1.6529999999999987,1.6529999999999987,0.0,0.0,1.0,55.0,616.79921,10000.0,85.000001,85.000001,85.000001,85.000001,395.0,0.0,0.0,0.0,1.0,166.665,51.865,51.865,46.844,46.844,34.0,-23.2425,24.746,-28.443333333333335,30.4225,0.0,1781.946,-0.39000000000000057,100.0,28.616,28.822,44.018,44.400999999999996,0.0,0.0,100.0,0.0,0.0,0.0,0.0,3167.0,3023.5,4150.875,4167.8,305.423,305.088,314.84225,314.567,22.099,20.6952,22.1149,21.599,314.999998,314.999998,324.999988,324.999988,99.56005714285715,99.50758333333333,99.57018571428571,99.5496,0.11050000000000004,-0.033666666666666734,-0.09333333333333332,0.12933333333333336,-0.02833333333332888,-0.04142857142856826,1.5325,1.5113333333333334,39.117999999999995,30.345,39.218,35.9935,56.120000000000005,35.817,60.3905,53.499,54.035,34.876999999999995,58.9295,51.787,53.163,34.3775,58.794,51.17466666666667,-0.118,-0.050999999999999934,0.10941500000000001,0.10111500000000001,0.0,219.17000000000002,219.19,215.89666666666668,215.89666666666668,0.0,0.0
34,0.0,0.0,0.0,1.0,1.0,0.0,0.0,1.0,0.0,0.0,1.0,1.1856,26.0,0.0,0.0,0.0,59.999996,0.0,26.0,26.0,26.0,26.0,0.043125000000000004,0.2610000000000001,-0.069075,291.763,-2.6608,-2.677,-1.62445,-1.53,-160.26999999999998,215.3775,190.22775,0.0,0.0,0.0,0.0,0.06869999999999998,-5.498166666666667,-5.498166666666667,-0.6398,-0.8243333333333334,0.0129999999999999,0.936,70.15899999999999,0.025900000000000003,-0.22037500000000002,-0.35599999999999987,100.0,1.0,1.0,216.25666666666666,0.0,0.0,0.0,0.0,0.0,0.0,0.0,9166.3,0.0,55.0,5.0,252.54666666666668,0.0,0.0,0.0,0.0,0.0,0.0,1.0,0.0,1.7040000000000006,1.7040000000000006,0.0,0.0,0.0,55.0,616.79921,10000.0,85.000001,85.000001,85.000001,85.000001,395.0,0.0,0.0,0.0,1.0,166.665,52.307,52.307,47.012,47.012,34.0,-20.98,24.857999999999997,-27.916666666666664,31.39,0.0,1781.897,-0.3949999999999996,100.0,28.504,28.407,43.984,44.394999999999996,0.0,0.0,100.0,0.0,0.0,0.0,0.0,2981.0,3045.1,4114.0,4264.9,305.7985,305.12875,314.89625,314.4225,22.1082,20.7008,22.1253,21.6083,314.999998,314.999998,324.999988,324.999988,99.56007142857143,99.50758333333333,99.57034285714286,99.54975714285715,0.11699999999999999,-0.028999999999999915,-0.07816666666666668,0.149,-0.026666666666670835,-0.04571428571428271,1.514,1.5023333333333333,39.176,30.38,39.283,36.052,56.107,35.853,60.425,53.56,54.022,34.9105,58.9615,51.8455,53.149,34.4095,58.8225,51.232,-0.11299999999999999,-0.0515000000000001,0.102425,0.10863500000000001,0.0,219.56,219.59,216.25666666666666,216.25666666666666,0.0,0.0
35,0.0,0.0,0.0,1.0,1.0,0.0,0.0,1.0,0.0,0.0,1.0,1.1856,26.0,0.0,0.0,0.0,59.999996,0.0,26.0,26.0,26.0,26.0,0.031875,0.2550000000000001,-0.08597500000000001,291.687,-2.7942,-2.660125,-1.5357,-1.5869,-156.48000000000002,215.385,190.196125,0.0,0.0,0.0,0.0,0.07089999999999996,-5.498166666666667,-5.498166666666667,-0.6782,-0.060333333333333336,-0.006000000000000227,-0.17,70.293,0.0281,-0.2268,-0.35599999999999987,100.0,1.0,1.0,216.76,0.0,0.0,0.0,0.0,0.0,0.0,0.0,9187.7,0.0,55.0,5.0,253.03,1.0,0.0,0.0,0.0,0.0,0.0,1.0,0.0,1.7579999999999991,1.7579999999999991,0.0,0.0,1.0,55.0,616.79921,10000.0,85.000001,85.000001,85.000001,85.000001,395.0,0.0,0.0,0.0,1.0,166.665,51.59,51.59,46.738,46.738,34.0,-23.7025,27.652,-25.943333333333335,30.4925,0.0,1781.842,-0.21000000000000085,100.0,28.369,28.756,43.732,43.943,0.0,0.0,100.0,0.0,0.0,0.0,0.0,3097.714285714286,3374.8,4101.5,4070.5,305.441,304.17275,314.97925,314.917,22.1179,20.707,22.1362,21.618,314.999998,314.999998,324.999988,324.999988,99.56008571428572,99.50758333333333,99.5705,99.5499,0.10599999999999987,-0.03200000000000003,-0.07116666666666667,0.15483333333333335,-0.045000000000001705,-0.05142857142856627,1.5705,1.5446666666666666,39.236999999999995,30.419,39.351,36.1125,56.091,35.894999999999996,60.460499999999996,53.62,54.007999999999996,34.949,58.994,51.9035,53.134,34.4465,58.852000000000004,51.288333333333334,-0.09899999999999998,-0.0625,0.10427000000000002,0.10738,0.0,219.995,220.005,216.76,216.76,0.0,0.0
36,0.0,0.0,0.0,1.0,1.0,0.0,0.0,1.0,0.0,0.0,1.0,1.1856,26.0,0.0,0.0,0.0,59.999996,0.0,26.0,26.0,26.0,26.0,0.043125000000000004,0.25170000000000003,0.0422,291.153,-2.6432,-2.72125,-1.64605,-1.5966,-153.1,215.39249999999998,190.16675,0.0,0.0,0.0,0.0,0.07286666666666652,-5.498166666666667,-5.498166666666667,-0.6616000000000001,0.012,-0.04477777777777803,0.328,70.416,0.024800000000000003,-0.20275,-0.21799999999999997,100.0,1.0,1.0,216.92666666666668,0.0,0.0,0.0,0.0,0.0,0.0,0.0,9194.8,0.0,55.0,5.0,253.47,0.0,0.0,0.0,0.0,0.0,0.0,1.0,0.0,1.806000000000001,1.806000000000001,0.0,0.0,0.0,55.0,616.79921,10000.0,85.000001,85.000001,85.000001,85.000001,395.0,0.0,0.0,0.0,1.0,166.665,51.772999999999996,51.772999999999996,46.341,46.341,34.0,-21.52,25.648,-30.953333333333333,34.1775,0.0,1781.793,-0.16000000000000014,100.0,28.909,28.736,43.963,44.205,0.0,0.0,100.0,0.0,0.0,0.0,0.0,3005.857142857143,3108.3,4379.5,4496.1,305.558,304.9455,314.23,313.8315,22.1267,20.7125,22.1461,21.6268,314.999998,314.999998,324.999988,324.999988,99.5601,99.5076,99.57064285714286,99.55004285714286,0.10999999999999988,-0.033666666666666734,-0.08083333333333333,0.13733333333333334,-0.03333333333333144,-0.04142857142856826,1.4455,1.4386666666666668,39.292,30.453333333333333,39.413,36.167500000000004,56.08,35.9315,60.4945,53.6775,53.997,34.983000000000004,59.0265,51.959,53.122,34.4795,58.881,51.343,-0.09550000000000003,-0.06699999999999995,0.10789000000000001,0.10885500000000001,0.0,220.38,220.39,216.92666666666668,216.92666666666668,0.0,0.0
