,ABS Active,ABS Enabled,AID Allow Tire Blankets,AID Auto Blip,AID Auto Clutch,AID Auto Shift,AID Fuel Rate,AID Ideal Line,AID Mech Damage,AID Stability,AID Tire Wear Rate,Air Density,Air Temp,Ballast,Best Lap Delta,Best Lap Time,Brake Bias,Brake Pos,Brake Temp FL,Brake Temp FR,Brake Temp RL,Brake Temp RR,CG Accel Lateral,CG Accel Longitudinal,CG Accel Vertical,CG Height,Camber FL,Camber FR,Camber RL,Camber RR,Car Coord X,Car Coord Y,Car Coord Z,Car Damage Front,Car Damage Left,Car Damage Rear,Car Damage Right,Car Pos Norm,Caster FL,Caster FR,Chassis Pitch Angle,Chassis Pitch Rate,Chassis Roll Angle,Chassis Roll Rate,Chassis Velocity X,Chassis Velocity Y,Chassis Velocity Z,Chassis Yaw Rate,Clutch Pos,DRS Active,DRS Available,Drive Train Speed,ERS Heat Charging,ERS Is Charging,ERS Max Energy,ERS Power Level,ERS Recovery Level,Engine Brake Setting,Engine Limiter,Engine RPM,Flags,Fuel Level,Gear,Ground Speed,HR Sample Clock,In Pit,KERS Charge,KERS Deployed Energy,KERS Input,KERS Max Energy,LR Sample Clock,Lap Invalidated,Lap Time,Lap Time2,Last Lap Time,Last Sector Time,MR Sample Clock,Max Fuel,Max Power,Max RPM,Max Sus Travel FL,Max Sus Travel FR,Max Sus Travel RL,Max Sus Travel RR,Max Torque,Max Turbo Boost,Num Tires Off Track,Penalties Enabled,Position,Raw Data Sample Rate,Ride Height FL,Ride Height FR,Ride Height RL,Ride Height RR,Road Temp,Self Align Torque FL,Self Align Torque FR,Self Align Torque RL,Self Align Torque RR,Session Lap Count,Session Time Left,Steering Angle,Surface Grip,Suspension Travel FL,Suspension Travel FR,Suspension Travel RL,Suspension Travel RR,TC Active,TC Enabled,Throttle Pos,Tire Dirt Level FL,Tire Dirt Level FR,Tire Dirt Level RL,Tire Dirt Level RR,Tire Load FL,Tire Load FR,Tire Load RL,Tire Load RR,Tire Loaded Radius FL,Tire Loaded Radius FR,Tire Loaded Radius RL,Tire Loaded Radius RR,Tire Pressure FL,Tire Pressure FR,Tire Pressure RL,Tire Pressure RR,Tire Radius FL,Tire Radius FR,Tire Radius RL,Tire Radius RR,Tire Rubber Grip FL,Tire Rubber Grip FR,Tire Rubber Grip RL,Tire Rubber Grip RR,Tire Slip Angle FL,Tire Slip Angle FR,Tire Slip Angle RL,Tire Slip Angle RR,Tire Slip Ratio FL,Tire Slip Ratio FR,Tire Slip Ratio RL,Tire Slip Ratio RR,Tire Temp Core FL,Tire Temp Core FR,Tire Temp Core RL,Tire Temp Core RR,Tire Temp Inner FL,Tire Temp Inner FR,Tire Temp Inner RL,Tire Temp Inner RR,Tire Temp Middle FL,Tire Temp Middle FR,Tire Temp Middle RL,Tire Temp Middle RR,Tire Temp Outer FL,Tire Temp Outer FR,Tire Temp Outer RL,Tire Temp Outer RR,Toe In FL,Toe In FR,Toe In RL,Toe In RR,Turbo Boost,Wheel Angular Speed FL,Wheel Angular Speed FR,Wheel Angular Speed RL,Wheel Angular Speed RR,Wind Direction,Wind Speed
0,0.0,0.0,0.0,1.0,1.0,0.0,0.0,1.0,0.0,0.0,1.0,1.1856,26.0,0.0,0.0,0.0,59.99999,0.0,26.0,26.0,26.0,26.0,-0.06899999999999995,0.30069999999999997,0.23202,293.167,-2.74035,-2.467375,-1.5303,-1.5154,-275.44,215.70749999999998,190.986,0.0,0.0,0.0,0.0,0.0017333333333333645,-5.498166666666667,-5.498166666666667,-0.5501,2.2765,-0.010777777777777775,-1.7149999999999999,65.519,-0.032,-0.2177,0.3160000000000007,100.0,1.0,1.0,202.25666666666666,0.0,0.0,0.0,0.0,0.0,0.0,0.0,8572.9,0.0,55.0,5.0,235.84,0.0,0.0,0.0,0.0,0.0,0.0,0.0,0.0,0.006000000000000227,0.006000000000000227,0.0,0.0,0.0,55.0,616.79921,10000.0,85.0,85.0,85.0,85.0,395.0,0.0,0.0,0.0,1.0,20.0,51.117,51.117,48.507999999999996,48.507999999999996,34.0,-29.095,26.486,-30.266666666666666,25.975,0.0,1771.033,0.4349999999999987,100.0,27.388,27.636,40.403999999999996,40.2,0.0,0.0,100.0,0.0,0.0,0.0,0.0,3292.714285714286,3921.4,4220.125,4094.0,304.8695,302.0636666666667,314.651,314.6215,21.8031,20.5367,21.8029,21.3319,314.99999,314.99999,324.99998,324.99998,99.55911428571429,99.50731666666667,99.56597142857143,99.5453,0.008000000000000007,-0.1096666666666668,-0.13816666666666666,0.07783333333333332,-0.05833333333333002,-0.054999999999999716,1.5414999999999999,1.5335,37.269999999999996,29.354666666666667,37.268,34.3245,56.465,34.629999999999995,59.4155,51.737,54.349000000000004,33.7695,58.0175,50.079499999999996,53.495000000000005,33.317,57.9745,49.501333333333335,-0.044499999999999984,-0.10899999999999999,0.10685000000000001,0.10423,0.0,205.32999999999998,205.275,202.25666666666666,202.25666666666666,0.0,0.0
1,0.0,0.0,0.0,1.0,1.0,0.0,0.0,1.0,0.0,0.0,1.0,1.1856,26.0,0.0,0.0,0.0,59.999996,0.0,26.0,26.0,26.0,26.0,-0.08966666666666656,0.3017000000000001,0.21386,292.908,-2.65125,-2.712625,-1.5452,-1.4509,-271.9,215.71,190.96525,0.0,0.0,0.0,0.0,0.0037999999999999146,-5.498166666666667,-5.498166666666667,-0.501,-2.595,-0.058555555555555916,-0.863,65.687,-0.035300000000000005,-0.2081,0.8979999999999997,100.0,1.0,1.0,202.31,0.0,0.0,0.0,0.0,0.0,0.0,0.0,8575.2,0.0,55.0,5.0,236.44333333333333,1.0,0.0,0.0,0.0,0.0,0.0,0.0,0.0,0.05999999999999872,0.05999999999999872,0.0,0.0,1.0,55.0,616.79921,10000.0,85.000001,85.000001,85.000001,85.000001,395.0,0.0,0.0,0.0,1.0,166.665,54.306,54.306,48.096000000000004,48.096000000000004,34.0,-24.285,16.942,-35.83,27.4025,0.0,1770.976,0.5300000000000011,100.0,27.398,26.788,42.565,43.432,0.0,0.0,100.0,0.0,0.0,0.0,0.0,2939.4285714285716,2470.8,4550.25,4476.5,305.9905,306.9696666666667,313.612,313.04025,21.8134,20.5419,21.8146,21.3418,314.999998,314.999998,324.999988,324.999988,99.55912857142857,99.50733333333334,99.56614285714285,99.54545714285715,0.01750000000000007,-0.11099999999999999,-0.15533333333333335,0.04533333333333334,-0.0033333333333303017,-0.026666666666670835,1.3215,1.3755,37.334,29.386666666666667,37.341,34.3865,56.444,34.6695,59.467,51.8135,54.329,33.806,58.066,50.1535,53.474000000000004,33.352000000000004,58.0195,49.57366666666667,-0.03249999999999997,-0.11649999999999983,0.10156000000000001,0.10015,0.0,205.73000000000002,205.68,202.31,202.31,0.0,0.0
2,0.0,0.0,0.0,1.0,1.0,0.0,0.0,1.0,0.0,0.0,1.0,1.1856,26.0,0.0,0.0,0.0,59.999996,0.0,26.0,26.0,26.0,26.0,-0.11711111111111105,0.29069999999999996,-0.11042,294.159,-2.63685,-2.737875,-1.5322,-1.5955,-268.54,215.71,190.94625,0.0,0.0,0.0,0.0,0.005733333333333368,-5.498166666666667,-5.498166666666667,-0.5677,1.174,-0.006000000000000227,2.6390000000000002,65.821,-0.0458,-0.2558,1.0779999999999994,100.0,1.0,1.0,203.57666666666665,0.0,0.0,0.0,0.0,0.0,0.0,0.0,8628.9,0.0,55.0,5.0,236.92666666666668,0.0,0.0,0.0,0.0,0.0,0.0,0.0,0.0,0.11100000000000065,0.11100000000000065,0.0,0.0,0.0,55.0,616.79921,10000.0,85.000001,85.000001,85.000001,85.000001,395.0,0.0,0.0,0.0,1.0,166.665,52.353,52.353,50.934,50.934,34.0,-27.61,22.266,-25.663333333333334,20.265,0.0,1770.927,0.5850000000000009,100.0,28.231,27.178,41.684,41.134,0.0,0.0,100.0,0.0,0.0,0.0,0.0,3193.142857142857,3136.8,3538.625,3580.5,304.9435,304.9293333333333,316.24225,316.165,21.8236,20.5471,21.8248,21.3502,314.999998,314.999998,324.999988,324.999988,99.55914285714286,99.50735,99.56627142857143,99.54558571428572,0.0040000000000000036,-0.11833333333333318,-0.183,0.041833333333333333,-0.07499999999999574,-0.06333333333333258,1.7315,1.8,37.397,29.419,37.405,34.4385,56.432,34.7085,59.497,51.8585,54.317,33.842,58.094,50.1965,53.461,33.3865,58.045,49.616,-0.03149999999999986,-0.11399999999999988,0.10637500000000001,0.10224000000000001,0.0,206.26999999999998,206.155,203.57666666666665,203.57666666666665,0.0,0.0
3,0.0,0.0,0.0,1.0,1.0,0.0,0.0,1.0,0.0,0.0,1.0,1.1856,26.0,0.0,0.0,0.0,59.999996,0.0,26.0,26.0,26.0,26.0,-0.10344444444444445,0.31200000000000006,-0.031380000000000005,293.259,-2.65195,-2.697625,-1.5086,-1.4943,-265.58,215.70749999999998,190.92825,0.0,0.0,0.0,0.0,0.0074666666666665105,-5.498166666666667,-5.498166666666667,-0.5024000000000001,0.47850000000000004,-0.008888888888888946,-2.019,65.961,-0.0575,-0.18962500000000002,0.9260000000000002,100.0,1.0,1.0,203.41666666666669,0.0,0.0,0.0,0.0,0.0,0.0,0.0,8622.0,0.0,55.0,5.0,237.43,1.0,0.0,0.0,0.0,0.0,0.0,0.0,0.0,0.1559999999999988,0.1559999999999988,0.0,0.0,1.0,55.0,616.79921,10000.0,85.000001,85.000001,85.000001,85.000001,395.0,0.0,0.0,0.0,1.0,111.11,53.452,53.452,47.791,47.791,34.0,-25.53,18.734,-34.93666666666667,24.939999999999998,0.0,1770.883,0.6999999999999993,100.0,27.686,27.308,42.068,41.815,0.0,0.0,100.0,0.0,0.0,0.0,0.0,2949.4285714285716,2826.4,4522.875,4180.3,305.9715,305.653,313.84925,314.3385,21.8321,20.5517,21.8341,21.3582,314.999998,314.999998,324.999988,324.999988,99.55914285714286,99.50735,99.56638571428572,99.54571428571428,-0.011749999999999927,-0.1413333333333333,-0.1695,0.04666666666666666,-0.04833333333333201,-0.041666666666671404,1.4535,1.488,37.451,29.448,37.463,34.4885,56.415,34.7455,59.5325,51.917,54.301,33.876,58.126999999999995,50.253,53.445,33.4195,58.075,49.67133333333334,-0.020999999999999908,-0.1280000000000001,0.09864,0.11096500000000001,0.0,206.685,206.595,203.41666666666669,203.41666666666669,0.0,0.0
4,0.0,0.0,0.0,1.0,1.0,0.0,0.0,1.0,0.0,0.0,1.0,1.1856,26.0,0.0,0.0,0.0,59.999996,0.0,26.0,26.0,26.0,26.0,-0.1022222222222221,0.28070000000000017,-0.00512,293.594,-2.65125,-2.767875,-1.4528,-1.5826,-262.01,215.7,190.90775,0.0,0.0,0.0,0.0,0.009533333333333394,-5.498166666666667,-5.498166666666667,-0.5365,-0.7345,-0.06122222222222229,-0.9570000000000001,66.11500000000001,-0.0688,-0.23797500000000002,1.3079999999999998,100.0,1.0,1.0,204.07666666666665,0.0,0.0,0.0,0.0,0.0,0.0,0.0,8650.1,0.0,55.0,5.0,237.98333333333335,0.0,0.0,0.0,0.0,0.0,0.0,0.0,0.0,0.21000000000000085,0.21000000000000085,0.0,0.0,0.0,55.0,616.79921,10000.0,85.000001,85.000001,85.000001,85.000001,395.0,0.0,0.0,0.0,1.0,166.665,53.223,53.223,48.828,48.828,34.0,-29.075,19.362000000000002,-31.386666666666663,21.985,0.0,1770.828,0.6500000000000021,100.0,27.541,26.882,42.723,41.821,0.0,0.0,100.0,0.0,0.0,0.0,0.0,3253.714285714286,2854.0,4135.125,3767.2,305.0485,305.61466666666666,314.7975,315.42375,21.8425,20.5571,21.8455,21.3676,314.999998,314.999998,324.999988,324.999988,99.55914285714286,99.50736666666667,99.56655714285715,99.54585714285714,-0.021499999999999853,-0.14500000000000002,-0.19383333333333336,0.03133333333333333,-0.03999999999999915,-0.046666666666666856,1.5445,1.592,37.516,29.481666666666666,37.534,34.5475,56.397,34.788,59.5755,51.9795,54.284,33.915,58.167500000000004,50.3125,53.427,33.457,58.113,49.72966666666667,-0.018999999999999906,-0.12700000000000022,0.10242000000000001,0.10720500000000001,0.0,207.11,207.015,204.07666666666665,204.07666666666665,0.0,0.0
5,0.0,0.0,0.0,1.0,1.0,0.0,0.0,1.0,0.0,0.0,1.0,1.1856,26.0,0.0,0.0,0.0,59.999996,0.0,26.0,26.0,26.0,26.0,-0.11477777777777776,0.28790000000000004,-0.035460000000000005,293.808,-2.66115,-2.72675,-1.5072,-1.6009,-258.83,215.6925,190.888875,0.0,0.0,0.0,0.0,0.011399999999999966,-5.498166666666667,-5.498166666666667,-0.5378000000000001,0.5415,-0.05411111111111122,-0.5489999999999999,66.252,-0.0811,-0.21965,1.2320000000000002,100.0,1.0,1.0,204.55666666666667,0.0,0.0,0.0,0.0,0.0,0.0,0.0,8670.4,0.0,55.0,5.0,238.4766666666667,1.0,0.0,0.0,0.0,0.0,0.0,0.0,0.0,0.2579999999999991,0.2579999999999991,0.0,0.0,1.0,55.0,616.79921,10000.0,85.000001,85.000001,85.000001,85.000001,395.0,0.0,0.0,0.0,1.0,166.665,53.421,53.421,49.301,49.301,34.0,-28.2225,19.426,-31.943333333333335,22.28,0.0,1770.779,0.2950000000000017,100.0,27.556,26.793,42.365,41.352000000000004,0.0,0.0,100.0,0.0,0.0,0.0,0.0,3177.4285714285716,2839.5,4024.75,3936.9,305.2225,305.652,315.0935,315.078,21.8518,20.5619,21.8552,21.375799999999998,314.999998,314.999998,324.999988,324.999988,99.55914285714286,99.5074,99.56668571428571,99.54598571428572,-0.01574999999999993,-0.1323333333333332,-0.21416666666666667,0.011,-0.046666666666666856,-0.061666666666667425,1.5625,1.613,37.574,29.512,37.595,34.599000000000004,56.382,34.826,59.61,52.033,54.271,33.9505,58.1995,50.364,53.413,33.4905,58.1425,49.78,-0.04249999999999998,-0.10250000000000004,0.10106000000000001,0.11137000000000001,0.0,207.59,207.46,204.55666666666667,204.55666666666667,0.0,0.0
6,0.0,0.0,0.0,1.0,1.0,0.0,0.0,1.0,0.0,0.0,1.0,1.1856,26.0,0.0,0.0,0.0,59.999996,0.0,26.0,26.0,26.0,26.0,-0.12277777777777776,0.2964,0.01614,293.579,-2.6954,-2.796125,-1.5097,-1.5724,-255.45,215.6825,190.86825,0.0,0.0,0.0,0.0,0.013366666666666527,-5.498166666666667,-5.498166666666667,-0.5254,-0.2415,-0.0602222222222224,0.841,66.401,-0.08320000000000001,-0.20447500000000002,0.8239999999999998,100.0,1.0,1.0,204.8466666666667,0.0,0.0,0.0,0.0,0.0,0.0,0.0,8682.7,0.0,55.0,5.0,239.01333333333332,0.0,0.0,0.0,0.0,0.0,0.0,0.0,0.0,0.30900000000000105,0.30900000000000105,0.0,0.0,0.0,55.0,616.79921,10000.0,85.000001,85.000001,85.000001,85.000001,395.0,0.0,0.0,0.0,1.0,166.665,53.741,53.741,48.553,48.553,34.0,-27.24,20.326,-33.596666666666664,24.455,0.0,1770.73,0.3099999999999987,100.0,27.49,26.349,42.753,41.480000000000004,0.0,0.0,100.0,0.0,0.0,0.0,0.0,3089.142857142857,2877.9,4195.375,4138.1,305.412,305.71933333333334,314.539,314.61475,21.8616,20.567,21.8658,21.3848,314.999998,314.999998,324.999988,324.999988,99.55915714285715,99.5074,99.56682857142857,99.54612857142857,-0.0040000000000000036,-0.1266666666666667,-0.20166666666666666,0.028833333333333332,-0.03499999999999659,-0.036666666666668846,1.4869999999999999,1.5345,37.635,29.543666666666667,37.661,34.655,56.364999999999995,34.865,59.6505,52.094,54.254000000000005,33.9865,58.2375,50.4225,53.396,33.525,58.177,49.837,-0.052000000000000046,-0.09450000000000003,0.11012500000000001,0.10590500000000001,0.0,207.99,207.925,204.8466666666667,204.84666666666666,0.0,0.0
7,0.0,0.0,0.0,1.0,1.0,0.0,0.0,1.0,0.0,0.0,1.0,1.1856,26.0,0.0,0.0,0.0,59.999996,0.0,26.0,26.0,26.0,26.0,-0.09299999999999997,0.2802,-0.014180000000000002,293.594,-2.61345,-2.78675,-1.5630000000000002,-1.6174,-252.26,215.66750000000002,190.848875,0.0,0.0,0.0,0.0,0.015199999999999991,-5.498166666666667,-5.498166666666667,-0.5334,0.1075,-0.04877777777777803,1.133,66.536,-0.0781,-0.21685000000000001,0.6079999999999997,100.0,1.0,1.0,205.36,0.0,0.0,0.0,0.0,0.0,0.0,0.0,8704.4,0.0,55.0,5.0,239.5,1.0,0.0,0.0,0.0,0.0,0.0,0.0,0.0,0.3569999999999993,0.3569999999999993,0.0,0.0,1.0,55.0,616.79921,10000.0,85.000001,85.000001,85.000001,85.000001,395.0,0.0,0.0,0.0,1.0,166.665,53.345,53.345,48.935,48.935,34.0,-25.345,21.578,-32.00666666666666,24.5925,0.0,1770.68,-0.019999999999999574,100.0,27.778,26.655,42.691,41.578,0.0,0.0,100.0,0.0,0.0,0.0,0.0,3063.5714285714284,2944.0,4052.375,3978.9,305.3735,305.4823333333333,314.971,314.987,21.8709,20.5718,21.8757,21.3932,314.999998,314.999998,324.999988,324.999988,99.55915714285715,99.50741666666667,99.56695714285715,99.54627142857143,0.02200000000000024,-0.10799999999999987,-0.1915,0.043833333333333335,-0.03499999999999659,-0.06499999999999773,1.5485,1.5615,37.693,29.573999999999998,37.723,34.707,56.351,34.903,59.6865,52.1495,54.241,34.021,58.271,50.4755,53.382,33.558,58.208,49.88933333333333,-0.0814999999999999,-0.07399999999999984,0.09931500000000001,0.11638500000000002,0.0,208.44,208.35500000000002,205.36,205.36,0.0,0.0
8,0.0,0.0,0.0,1.0,1.0,0.0,0.0,1.0,0.0,0.0,1.0,1.1856,26.0,0.0,0.0,0.0,59.999996,0.0,26.0,26.0,26.0,26.0,-0.07144444444444442,0.272,-0.026480000000000004,293.549,-2.6916,-2.7171250000000002,-1.5426,-1.6099999999999999,-248.66,215.65,190.827,0.0,0.0,0.0,0.0,0.017299999999999982,-5.498166666666667,-5.498166666666667,-0.5381,-0.1915,-0.03711111111111132,0.382,66.69,-0.0616,-0.218525,0.3100000000000005,100.0,1.0,1.0,205.81666666666666,0.0,0.0,0.0,0.0,0.0,0.0,0.0,8723.8,0.0,55.0,5.0,240.05333333333334,0.0,0.0,0.0,0.0,0.0,0.0,0.0,0.0,0.41100000000000136,0.41100000000000136,0.0,0.0,0.0,55.0,616.79921,10000.0,85.000001,85.000001,85.000001,85.000001,395.0,0.0,0.0,0.0,1.0,166.665,53.36,53.36,48.584,48.584,34.0,-25.7375,22.432000000000002,-30.013333333333335,25.622500000000002,0.0,1770.626,-0.10999999999999943,100.0,27.509,26.832,42.766999999999996,41.81,0.0,0.0,100.0,0.0,0.0,0.0,0.0,3042.285714285714,3043.2,4002.375,4003.7,305.5625,305.197,315.08425,314.917,21.8812,20.5774,21.8869,21.4027,314.999998,314.999998,324.999988,324.999988,99.55915714285715,99.50743333333334,99.56711428571428,99.54641428571429,0.02024999999999988,-0.09299999999999997,-0.16433333333333336,0.062,-0.041666666666671404,-0.054999999999999716,1.5405,1.557,37.757999999999996,29.608333333333334,37.793,34.7665,56.333,34.9445,59.727000000000004,52.213,54.224000000000004,34.0595,58.309,50.536500000000004,53.364000000000004,33.595,58.243,49.949,-0.07400000000000007,-0.06400000000000006,0.101345,0.11083000000000001,0.0,208.885,208.86,205.81666666666666,205.81666666666666,0.0,0.0
9,0.0,0.0,0.0,1.0,1.0,0.0,0.0,1.0,0.0,0.0,1.0,1.1856,26.0,0.0,0.0,0.0,59.999996,0.0,26.0,26.0,26.0,26.0,-0.045777777777777806,0.2955000000000001,0.02156,293.167,-2.6138500000000002,-2.7281250000000004,-1.5457,-1.5638,-245.46,215.6325,190.80725,0.0,0.0,0.0,0.0,0.019166666666666554,-5.498166666666667,-5.498166666666667,-0.5329,0.3695,-0.04355555555555579,0.853,66.826,-0.0483,-0.21065,0.05400000000000027,100.0,1.0,1.0,206.2,0.0,0.0,0.0,0.0,0.0,0.0,0.0,8740.1,0.0,55.0,5.0,240.54333333333335,1.0,0.0,0.0,0.0,0.0,0.0,0.0,0.0,0.45899999999999963,0.45899999999999963,0.0,0.0,1.0,55.0,616.79921,10000.0,85.000001,85.000001,85.000001,85.000001,395.0,0.0,0.0,0.0,1.0,166.665,52.872,52.872,48.644999999999996,48.644999999999996,34.0,-24.4,23.332,-30.0,26.3925,0.0,1770.579,-0.33999999999999986,100.0,27.889,27.002,42.684,41.891999999999996,0.0,0.0,100.0,0.0,0.0,0.0,0.0,3141.285714285714,3050.3,4093.25,4144.9,305.2035,305.173,314.893,314.6185,21.8905,20.5823,21.8967,21.4111,314.999998,314.999998,324.999988,324.999988,99.55917142857143,99.50743333333334,99.56724285714286,99.54654285714285,0.059499999999999886,-0.07466666666666666,-0.14733333333333334,0.0675,-0.046666666666666856,-0.04999999999999716,1.5414999999999999,1.5405,37.816,29.639333333333333,37.855000000000004,34.819,56.319,34.981,59.7625,52.269,54.211,34.0935,58.342,50.5905,53.35,33.6275,58.272999999999996,50.001666666666665,-0.10699999999999998,-0.052999999999999936,0.09888500000000001,0.103285,0.0,209.3,209.285,206.2,206.2,0.0,0.0
10,0.0,0.0,0.0,1.0,1.0,0.0,0.0,1.0,0.0,0.0,1.0,1.1856,26.0,0.0,0.0,0.0,59.999996,0.0,26.0,26.0,26.0,26.0,-0.015222222222222137,0.28970000000000007,-0.013080000000000001,293.121,-2.6882,-2.690375,-1.5189,-1.5404,-242.05,215.615,190.786375,0.0,0.0,0.0,0.0,0.021166666666666556,-5.498166666666667,-5.498166666666667,-0.5294,-0.46,-0.01100000000000012,0.0010000000000000009,66.971,-0.0307,-0.21407500000000002,-0.12399999999999967,100.0,1.0,1.0,206.56666666666666,0.0,0.0,0.0,0.0,0.0,0.0,0.0,8755.6,0.0,55.0,5.0,241.06666666666666,0.0,0.0,0.0,0.0,0.0,0.0,1.0,0.0,0.509999999999998,0.509999999999998,0.0,0.0,0.0,55.0,616.79921,10000.0,85.000001,85.000001,85.000001,85.000001,395.0,0.0,0.0,0.0,1.0,166.665,53.268,53.268,48.172,48.172,34.0,-24.04,22.61,-30.036666666666665,27.03,0.0,1770.528,-0.4400000000000013,100.0,27.549,27.166,42.832,42.492000000000004,0.0,0.0,100.0,0.0,0.0,0.0,0.0,3060.4285714285716,2942.1,4136.75,4178.1,305.6525,305.363,314.80975,314.41325,21.900199999999998,20.5875,21.9073,21.4202,314.999998,314.999998,324.999988,324.999988,99.55917142857143,99.50745,99.5674,99.54668571428572,0.06075000000000008,-0.06499999999999995,-0.14416666666666667,0.07583333333333334,-0.030000000000001137,-0.061666666666667425,1.4949999999999999,1.5115,37.876000000000005,29.672,37.921,34.876,56.305,35.018,59.801,52.331,54.197,34.1275,58.378,50.65,53.336,33.6605,58.3065,50.059666666666665,-0.11349999999999993,-0.03699999999999992,0.10613,0.103035,0.0,209.74,209.73000000000002,206.56666666666666,206.56666666666666,0.0,0.0
11,0.0,0.0,0.0,1.0,1.0,0.0,0.0,1.0,0.0,0.0,1.0,1.1856,26.0,0.0,0.0,0.0,59.999996,0.0,26.0,26.0,26.0,26.0,-0.0020000000000000018,0.2874000000000001,-0.029500000000000002,293.411,-2.6882,-2.691875,-1.5693000000000001,-1.5191,-238.63,215.595,190.765375,0.0,0.0,0.0,0.0,0.022599999999999953,-5.498166666666667,-5.498166666666667,-0.551,-0.035500000000000004,0.011555555555555541,0.671,67.112,-0.0137,-0.22275,-0.36600000000000055,100.0,1.0,1.0,207.13333333333333,0.0,0.0,0.0,0.0,0.0,0.0,0.0,8779.7,0.0,55.0,5.0,241.57333333333332,1.0,0.0,0.0,0.0,0.0,0.0,1.0,0.0,0.5609999999999999,0.5609999999999999,0.0,0.0,1.0,55.0,616.79921,10000.0,85.000001,85.000001,85.000001,85.000001,395.0,0.0,0.0,0.0,1.0,166.665,53.146,53.146,48.752,48.752,34.0,-22.572499999999998,25.458,-27.163333333333334,27.715,0.0,1770.477,-0.5799999999999983,100.0,27.447,27.105,42.503,42.349000000000004,0.0,0.0,100.0,0.0,0.0,0.0,0.0,3007.5714285714284,3142.2,3917.0,4066.7,305.6295,304.89633333333336,315.3475,314.7985,21.9098,20.5929,21.9177,21.4291,314.999998,314.999998,324.999988,324.999988,99.55918571428572,99.50745,99.56752857142857,99.54682857142858,0.08999999999999986,-0.03633333333333311,-0.11916666666666667,0.121,-0.03999999999999915,-0.054999999999999716,1.5895,1.588,37.936,29.705333333333336,37.986000000000004,34.932,56.29,35.056,59.835499999999996,52.3905,54.183,34.1625,58.41,50.707499999999996,53.321,33.6935,58.335,50.116,-0.11999999999999988,-0.03100000000000014,0.109465,0.109075,0.0,210.16,210.17000000000002,207.13333333333333,207.13333333333333,0.0,0.0
12,0.0,0.0,0.0,1.0,1.0,0.0,0.0,1.0,0.0,0.0,1.0,1.1856,26.0,0.0,0.0,0.0,59.999996,0.0,26.0,26.0,26.0,26.0,0.019555555555555548,0.2874000000000001,0.016,293.03,-2.71945,-2.6845,-1.5476,-1.5389,-235.6,215.5775,190.746125,0.0,0.0,0.0,0.0,0.025466666666666526,-5.498166666666667,-5.498166666666667,-0.5397000000000001,0.34500000000000003,0.010666666666666602,-0.667,67.238,0.0024000000000000002,-0.204775,-0.3420000000000005,100.0,1.0,1.0,207.43,0.0,0.0,0.0,0.0,0.0,0.0,0.0,8792.2,0.0,55.0,5.0,242.03,0.0,0.0,0.0,0.0,0.0,0.0,1.0,0.0,0.6059999999999981,0.6059999999999981,0.0,0.0,0.0,55.0,616.79921,10000.0,85.000001,85.000001,85.000001,85.000001,395.0,0.0,0.0,0.0,1.0,166.665,52.933,52.933,48.08,48.08,34.0,-23.79,24.528,-28.713333333333335,29.2925,0.0,1770.43,-0.46499999999999986,100.0,27.376,27.483,42.39,42.455,0.0,0.0,100.0,0.0,0.0,0.0,0.0,3113.714285714286,3071.3,4170.25,4178.4,305.4845,304.9336666666667,314.7625,314.4875,21.9183,20.5976,21.9269,21.4371,314.999998,314.999998,324.999988,324.999988,99.5592,99.50746666666667,99.56767142857143,99.54697142857142,0.08574999999999999,-0.04600000000000004,-0.10966666666666668,0.1205,-0.05666666666667197,-0.03833333333332689,1.5374999999999999,1.508,37.989000000000004,29.735333333333333,38.043,34.982,56.277,35.091499999999996,59.87,52.4475,54.17,34.195499999999996,58.442,50.762,53.307,33.7255,58.3645,50.169333333333334,-0.11099999999999999,-0.03949999999999987,0.10894500000000001,0.11832000000000001,0.0,210.57,210.57,207.43,207.43,0.0,0.0
13,0.0,0.0,0.0,1.0,1.0,0.0,0.0,1.0,0.0,0.0,1.0,1.1856,26.0,0.0,0.0,0.0,59.999996,0.0,26.0,26.0,26.0,26.0,0.045222222222222275,0.28,0.010280000000000001,292.801,-2.70105,-2.684875,-1.5845,-1.54,-231.97,215.555,190.72325,0.0,0.0,0.0,0.0,0.026999999999999913,-5.498166666666667,-5.498166666666667,-0.5388000000000001,-0.295,0.015111111111111075,-0.5589999999999999,67.389,0.0128,-0.21505000000000002,-0.4299999999999997,100.0,1.0,1.0,207.83333333333331,0.0,0.0,0.0,0.0,0.0,0.0,0.0,8809.3,0.0,55.0,5.0,242.57333333333332,1.0,0.0,0.0,0.0,0.0,0.0,1.0,0.0,0.6600000000000001,0.6600000000000001,0.0,0.0,1.0,55.0,616.79921,10000.0,85.000001,85.000001,85.000001,85.000001,395.0,0.0,0.0,0.0,1.0,166.665,52.826,52.826,48.05,48.05,34.0,-22.947499999999998,24.887999999999998,-28.553333333333335,30.52,0.0,1770.376,-0.4800000000000004,100.0,27.537,27.648,42.649,42.943,0.0,0.0,100.0,0.0,0.0,0.0,0.0,3109.714285714286,3043.5,4129.75,4255.1,305.506,305.01666666666665,314.846,314.2505,21.9285,20.6034,21.9381,21.4468,314.999998,314.999998,324.999988,324.999988,99.5592,99.50746666666667,99.56781428571429,99.54711428571429,0.10000000000000009,-0.03133333333333321,-0.09966666666666667,0.12883333333333336,-0.04333333333332945,-0.046666666666666856,1.5015,1.499,38.053,29.771,38.113,35.042500000000004,56.263,35.131,59.9095,52.513999999999996,54.158,34.232,58.479,50.826,53.294,33.76,58.3985,50.232,-0.11799999999999988,-0.03400000000000025,0.10709,0.11378,0.0,211.01,211.035,207.83333333333331,207.83333333333331,0.0,0.0
14,0.0,0.0,0.0,1.0,1.0,0.0,0.0,1.0,0.0,0.0,1.0,1.1856,26.0,0.0,0.0,0.0,59.999996,0.0,26.0,26.0,26.0,26.0,0.03922222222222227,0.2771000000000001,-0.02692,293.06,-2.71,-2.7018750000000002,-1.5763,-1.5348000000000002,-228.53,215.5375,190.701875,0.0,0.0,0.0,0.0,0.028999999999999915,-5.498166666666667,-5.498166666666667,-0.5493,0.001,0.028666666666666618,0.912,67.529,0.0228,-0.2228,-0.5420000000000007,100.0,1.0,1.0,208.35666666666668,0.0,0.0,0.0,0.0,0.0,0.0,0.0,8831.5,0.0,55.0,5.0,243.07666666666665,0.0,0.0,0.0,0.0,0.0,0.0,1.0,0.0,0.7109999999999985,0.7109999999999985,0.0,0.0,0.0,55.0,616.79921,10000.0,85.000001,85.000001,85.000001,85.000001,395.0,0.0,0.0,0.0,1.0,166.665,52.902,52.902,48.400999999999996,48.400999999999996,34.0,-21.34,26.204,-25.806666666666665,30.052500000000002,0.0,1770.328,-0.504999999999999,100.0,27.671,27.594,42.58,42.857,0.0,0.0,100.0,0.0,0.0,0.0,0.0,2958.714285714286,3122.6,3962.75,4134.7,305.772,304.917,315.21725,314.6075,21.938,20.6088,21.9485,21.4559,314.999998,314.999998,324.999988,324.999988,99.55921428571429,99.50748333333334,99.56795714285714,99.54725714285715,0.11474999999999991,-0.016999999999999904,-0.07816666666666668,0.1465,-0.030000000000001137,-0.04833333333333201,1.5605,1.541,38.113,29.805333333333333,38.178,35.099000000000004,56.251000000000005,35.166,59.943,52.570499999999996,54.146,34.2645,58.51,50.8805,53.281,33.7915,58.4265,50.285666666666664,-0.11450000000000005,-0.0405000000000002,0.10481000000000001,0.10566,0.0,211.44,211.48000000000002,208.35666666666668,208.35666666666668,0.0,0.0
15,0.0,0.0,0.0,1.0,1.0,0.0,0.0,1.0,0.0,0.0,1.0,1.1856,26.0,0.0,0.0,0.0,59.999996,0.0,26.0,26.0,26.0,26.0,0.041888888888888864,0.27690000000000015,-0.00966,292.984,-2.7073,-2.67375,-1.588,-1.5485,-225.28,215.51999999999998,190.681375,0.0,0.0,0.0,0.0,0.030899999999999928,-5.498166666666667,-5.498166666666667,-0.5413,0.158,0.041888888888888864,0.591,67.661,0.0297,-0.209375,-0.5520000000000005,100.0,1.0,1.0,208.71666666666667,0.0,0.0,0.0,0.0,0.0,0.0,0.0,8846.8,0.0,55.0,5.0,243.55333333333334,1.0,0.0,0.0,0.0,0.0,0.0,1.0,0.0,0.7590000000000003,0.7590000000000003,0.0,0.0,1.0,55.0,616.79921,10000.0,85.000001,85.000001,85.000001,85.000001,395.0,0.0,0.0,0.0,1.0,166.665,52.994,52.994,48.203,48.203,34.0,-20.6175,25.98,-26.896666666666665,30.97,0.0,1770.279,-0.4299999999999997,100.0,27.652,27.677,42.471000000000004,42.941,0.0,0.0,100.0,0.0,0.0,0.0,0.0,2902.285714285714,3099.7,4069.875,4215.7,305.947,304.985,315.04075,314.41725,21.947,20.614,21.9584,21.4645,314.999998,314.999998,324.999988,324.999988,99.55922857142858,99.50748333333334,99.56808571428571,99.5474,0.12024999999999997,-0.010999999999999899,-0.07983333333333333,0.14533333333333334,-0.04999999999999716,-0.041666666666671404,1.537,1.526,38.169,29.837333333333333,38.239999999999995,35.153,56.239000000000004,35.201,59.976,52.6285,54.135,34.297,58.5405,50.9365,53.269,33.8225,58.454499999999996,50.340666666666664,-0.11349999999999993,-0.0365000000000002,0.11238500000000001,0.09805000000000001,0.0,211.87,211.9,208.71666666666667,208.71666666666667,0.0,0.0
16,0.0,0.0,0.0,1.0,1.0,0.0,0.0,1.0,0.0,0.0,1.0,1.1856,26.0,0.0,0.0,0.0,59.999996,0.0,26.0,26.0,26.0,26.0,0.04866666666666686,0.27059999999999995,-0.0031600000000000005,292.77,-2.76335,-2.622875,-1.5630000000000002,-1.5493000000000001,-222.03,215.505,190.660625,0.0,0.0,0.0,0.0,0.03279999999999994,-5.498166666666667,-5.498166666666667,-0.5557,-0.3585,0.02977777777777768,0.17899999999999994,67.793,0.0334,-0.225525,-0.42600000000000016,100.0,1.0,1.0,209.13333333333333,0.0,0.0,0.0,0.0,0.0,0.0,0.0,8864.4,0.0,55.0,5.0,244.02666666666664,0.0,0.0,0.0,0.0,0.0,0.0,1.0,0.0,0.8069999999999986,0.8069999999999986,0.0,0.0,0.0,55.0,616.79921,10000.0,85.000001,85.000001,85.000001,85.000001,395.0,0.0,0.0,0.0,1.0,166.665,52.46,52.46,47.989,47.989,34.0,-22.81,27.352,-25.54,30.4375,0.0,1770.231,-0.34499999999999886,100.0,27.558,27.814,42.707,43.083,0.0,0.0,100.0,0.0,0.0,0.0,0.0,3108.857142857143,3269.7,3987.75,4076.2,305.4345,304.51933333333335,315.0965,314.76025,21.9558,20.6192,21.9683,21.473,314.999998,314.999998,324.999988,324.999988,99.55924285714286,99.50748333333334,99.56822857142858,99.54752857142857,0.11874999999999991,-0.00533333333333319,-0.0695,0.157,-0.04333333333332945,-0.05666666666667197,1.546,1.5025,38.224000000000004,29.869999999999997,38.302,35.2065,56.226,35.2365,60.010999999999996,52.686,54.122,34.33,58.573,50.9915,53.256,33.8545,58.484,50.394666666666666,-0.10399999999999987,-0.044500000000000206,0.10354500000000001,0.10999,0.0,212.265,212.26999999999998,209.13333333333333,209.13333333333333,0.0,0.0
17,0.0,0.0,0.0,1.0,1.0,0.0,0.0,1.0,0.0,0.0,1.0,1.1856,26.0,0.0,0.0,0.0,59.999996,0.0,26.0,26.0,26.0,26.0,0.036555555555555674,0.2913000000000001,0.03622,292.435,-2.6398,-2.599375,-1.5147,-1.5117,-218.57,215.49,190.63825,0.0,0.0,0.0,0.0,0.03479999999999994,-5.498166666666667,-5.498166666666667,-0.5489,0.1975,0.008333333333333304,-0.841,67.93299999999999,0.0316,-0.21325000000000002,-0.25,100.0,1.0,1.0,209.48333333333335,0.0,0.0,0.0,0.0,0.0,0.0,0.0,8879.2,0.0,55.0,5.0,244.53,1.0,0.0,0.0,0.0,0.0,0.0,1.0,0.0,0.8580000000000005,0.8580000000000005,0.0,0.0,1.0,55.0,616.79921,10000.0,85.000001,85.000001,85.000001,85.000001,395.0,0.0,0.0,0.0,1.0,166.665,52.414,52.414,47.516,47.516,34.0,-22.44,25.348,-27.833333333333336,31.015,0.0,1770.18,-0.26500000000000057,100.0,27.739,28.057000000000002,42.629,43.18,0.0,0.0,100.0,0.0,0.0,0.0,0.0,3123.714285714286,3132.2,4283.75,4239.3,305.382,304.739,314.46325,314.355,21.9653,20.6248,21.9787,21.4821,314.999998,314.999998,324.999988,324.999988,99.55925714285715,99.50748333333334,99.56837142857142,99.54767142857143,0.10400000000000009,-0.023333333333333206,-0.08166666666666668,0.14933333333333335,-0.05833333333333002,-0.03999999999999915,1.5165,1.4954999999999998,38.283,29.904666666666664,38.367000000000004,35.2635,56.214,35.2745,60.047,52.7465,54.11,34.365,58.6065,51.05,53.242999999999995,33.888,58.5145,50.452,-0.09850000000000003,-0.05500000000000016,0.10429500000000001,0.11317,0.0,212.72,212.72500000000002,209.48333333333335,209.48333333333335,0.0,0.0
18,0.0,0.0,0.0,1.0,1.0,0.0,0.0,1.0,0.0,0.0,1.0,1.1856,26.0,0.0,0.0,0.0,59.999996,0.0,26.0,26.0,26.0,26.0,0.04588888888888887,0.26990000000000003,0.05034,292.419,-2.6635999999999997,-2.72825,-1.5112,-1.4729,-215.31,215.47750000000002,190.617125,0.0,0.0,0.0,0.0,0.036699999999999955,-5.498166666666667,-5.498166666666667,-0.5602,-0.34750000000000003,0.01200000000000001,-0.7070000000000001,68.063,0.025,-0.224925,-0.23799999999999955,100.0,1.0,1.0,209.88333333333333,0.0,0.0,0.0,0.0,0.0,0.0,0.0,8896.2,0.0,55.0,5.0,245.0,0.0,0.0,0.0,0.0,0.0,0.0,1.0,0.0,0.9059999999999988,0.9059999999999988,0.0,0.0,0.0,55.0,616.79921,10000.0,85.000001,85.000001,85.000001,85.000001,395.0,0.0,0.0,0.0,1.0,166.665,52.353,52.353,47.729,47.729,34.0,-22.75,26.116,-27.509999999999998,30.1375,0.0,1770.132,-0.3200000000000003,100.0,27.667,28.026,42.797,43.354,0.0,0.0,100.0,0.0,0.0,0.0,0.0,3158.714285714286,3114.2,4130.0,4250.4,305.3435,304.68766666666664,314.80725,314.30225,21.9742,20.6299,21.988599999999998,21.4907,314.999998,314.999998,324.999988,324.999988,99.55927142857144,99.5075,99.5685,99.5478,0.1070000000000002,-0.030999999999999917,-0.0975,0.13966666666666666,-0.05833333333333002,-0.04833333333333201,1.502,1.488,38.339,29.936999999999998,38.429,35.317,56.201,35.3095,60.081,52.8045,54.098,34.3975,58.6385,51.106,53.230000000000004,33.919,58.543,50.50666666666667,-0.10650000000000004,-0.053999999999999826,0.11181500000000001,0.10523,0.0,213.10500000000002,213.115,209.88333333333333,209.88333333333333,0.0,0.0
19,0.0,0.0,0.0,1.0,1.0,0.0,0.0,1.0,0.0,0.0,1.0,1.1856,26.0,0.0,0.0,0.0,59.999996,0.0,26.0,26.0,26.0,26.0,0.049555555555555575,0.26490000000000014,-0.0047,292.328,-2.66235,-2.69525,-1.5371000000000001,-1.5989,-211.63,215.4625,190.593125,0.0,0.0,0.0,0.0,0.038833333333333386,-5.498166666666667,-5.498166666666667,-0.5478000000000001,0.517,0.018000000000000016,-0.746,68.208,0.0212,-0.21072500000000002,-0.19399999999999995,100.0,1.0,1.0,210.36,0.0,0.0,0.0,0.0,0.0,0.0,0.0,8916.4,0.0,55.0,5.0,245.51999999999998,1.0,0.0,0.0,0.0,0.0,0.0,1.0,0.0,0.9600000000000009,0.9600000000000009,0.0,0.0,1.0,55.0,616.79921,10000.0,85.000001,85.000001,85.000001,85.000001,395.0,0.0,0.0,0.0,1.0,166.665,52.246,52.246,47.775,47.775,34.0,-22.58,23.994,-28.326666666666664,31.0925,0.0,1770.078,-0.23499999999999943,100.0,28.175,28.391,42.788,43.456,0.0,0.0,100.0,0.0,0.0,0.0,0.0,3109.5714285714284,2982.8,4168.875,4178.1,305.4865,305.105,314.767,314.40175,21.9844,20.6358,21.9997,21.5004,314.999998,314.999998,324.999988,324.999988,99.55928571428572,99.5075,99.56865714285715,99.54797142857143,0.10175000000000001,-0.045333333333333226,-0.10083333333333333,0.13366666666666666,-0.05333333333332746,-0.03999999999999915,1.4955,1.4849999999999999,38.403,29.974,38.498000000000005,35.3775,56.189,35.3505,60.1175,52.8685,54.087,34.4355,58.6725,51.167500000000004,53.217,33.956,58.5745,50.567,-0.10149999999999992,-0.06050000000000022,0.11069500000000002,0.103355,0.0,213.595,213.585,210.36,210.36,0.0,0.0
20,0.0,0.0,0.0,1.0,1.0,0.0,0.0,1.0,0.0,0.0,1.0,1.1856,26.0,0.0,0.0,0.0,59.999996,0.0,26.0,26.0,26.0,26.0,0.03888888888888897,0.2561,-0.021040000000000003,292.435,-2.7295,-2.636625,-1.5397,-1.582,-208.35,215.4525,190.572,0.0,0.0,0.0,0.0,0.0407333333333334,-5.498166666666667,-5.498166666666667,-0.5576,-0.8230000000000001,0.016666666666666607,-0.9610000000000001,68.338,0.020300000000000002,-0.22792500000000002,-0.08200000000000074,100.0,1.0,1.0,210.73000000000002,0.0,0.0,0.0,0.0,0.0,0.0,0.0,8932.1,0.0,55.0,5.0,245.99,0.0,0.0,0.0,0.0,0.0,0.0,0.0,0.0,1.0079999999999991,1.0079999999999991,0.0,0.0,0.0,55.0,616.79921,10000.0,85.000001,85.000001,85.000001,85.000001,395.0,0.0,0.0,0.0,1.0,333.33500000000004,52.49,52.49,47.485,47.485,34.0,-23.6825,24.29,-27.266666666666666,29.185000000000002,0.0,1770.029,-0.21999999999999886,100.0,27.81,28.129,43.289,43.74,0.0,0.0,100.0,0.0,0.0,0.0,0.0,3117.142857142857,3068.2,4087.625,4031.1000000000004,305.54,304.96,314.9125,314.775,21.9932,20.641,22.0097,21.5091,314.999998,314.999998,324.999988,324.999988,99.5593,99.5075,99.5688,99.54811428571429,0.08999999999999986,-0.04133333333333322,-0.093,0.12866666666666665,-0.041666666666671404,-0.05833333333333002,1.5185,1.5095,38.458,30.006333333333334,38.561,35.432,56.175,35.385999999999996,60.1535,52.927,54.074,34.4685,58.7065,51.224000000000004,53.203,33.9875,58.605000000000004,50.62233333333333,-0.09349999999999992,-0.06550000000000011,0.10629000000000001,0.10661000000000001,0.0,213.94,213.95,210.73000000000002,210.73000000000002,0.0,0.0
21,0.0,0.0,0.0,1.0,1.0,0.0,0.0,1.0,0.0,0.0,1.0,1.1856,26.0,0.0,0.0,0.0,59.999996,0.0,26.0,26.0,26.0,26.0,0.015555555555555545,0.2732000000000001,-0.03904,292.526,-2.72175,-2.6578749999999998,-1.5857,-1.5253,-204.86,215.44,190.549,0.0,0.0,0.0,0.0,0.04276666666666651,-5.498166666666667,-5.498166666666667,-0.5733,0.194,0.007777777777777883,0.673,68.47200000000001,0.013900000000000001,-0.22162500000000002,-0.1739999999999995,100.0,1.0,1.0,211.24666666666667,0.0,0.0,0.0,0.0,0.0,0.0,0.0,8953.9,0.0,55.0,5.0,246.47333333333336,1.0,0.0,0.0,0.0,0.0,0.0,0.0,0.0,1.059000000000001,1.059000000000001,0.0,0.0,1.0,55.0,616.79921,10000.0,85.000001,85.000001,85.000001,85.000001,395.0,0.0,0.0,0.0,1.0,166.665,52.277,52.277,47.974000000000004,47.974000000000004,34.0,-23.287499999999998,26.474,-27.253333333333334,28.425,0.0,1769.98,-0.3150000000000013,100.0,28.068,27.9,42.984,43.253,0.0,0.0,100.0,0.0,0.0,0.0,0.0,3111.142857142857,3229.0,4033.75,4094.2,305.363,304.661,315.06925,314.79425,22.0027,20.6466,22.02,21.5181,314.999998,314.999998,324.999988,324.999988,99.55931428571428,99.5075,99.56894285714286,99.54824285714285,0.10199999999999987,-0.02400000000000002,-0.09266666666666667,0.12683333333333333,-0.021666666666668277,-0.06666666666666998,1.5585,1.566,38.516999999999996,30.041,38.625,35.488,56.163,35.424,60.187,52.9845,54.061,34.5035,58.7375,51.2795,53.19,34.021,58.632999999999996,50.677,-0.10199999999999987,-0.04999999999999982,0.10865500000000002,0.11012000000000001,0.0,214.38,214.39499999999998,211.24666666666667,211.24666666666667,0.0,0.0
22,0.0,0.0,0.0,1.0,1.0,0.0,0.0,1.0,0.0,0.0,1.0,1.1856,26.0,0.0,0.0,0.0,59.999996,0.0,26.0,26.0,26.0,26.0,0.011777777777777887,0.2824,0.028760000000000004,292.068,-2.7675,-2.62125,-1.6075,-1.5223,-201.57,215.43,190.526625,0.0,0.0,0.0,0.0,0.04466666666666652,-5.498166666666667,-5.498166666666667,-0.558,-0.015,0.0173333333333332,0.984,68.60300000000001,0.0134,-0.201625,-0.31599999999999984,100.0,1.0,1.0,211.47,0.0,0.0,0.0,0.0,0.0,0.0,0.0,8963.4,0.0,55.0,5.0,246.94333333333333,0.0,0.0,0.0,0.0,0.0,0.0,0.0,0.0,1.1069999999999993,1.1069999999999993,0.0,0.0,0.0,55.0,616.79921,10000.0,85.000001,85.000001,85.000001,85.000001,395.0,0.0,0.0,0.0,1.0,166.665,52.368,52.368,47.119,47.119,34.0,-23.06,25.82,-29.773333333333333,31.385,0.0,1769.93,-0.35999999999999943,100.0,28.101,27.979,43.221000000000004,43.419,0.0,0.0,100.0,0.0,0.0,0.0,0.0,3069.5714285714284,3208.3,4258.5,4436.4,305.5685,304.75966666666665,314.49975,313.96525,22.0116,20.6518,22.0299,21.526699999999998,314.999998,314.999998,324.999988,324.999988,99.55931428571428,99.5075,99.56907142857143,99.54838571428571,0.10650000000000004,-0.026000000000000023,-0.0925,0.122,-0.046666666666666856,-0.05333333333332746,1.484,1.479,38.573,30.073666666666668,38.687,35.542,56.15,35.4595,60.222,53.042500000000004,54.05,34.536500000000004,58.769999999999996,51.335,53.178,34.0525,58.6625,50.73133333333333,-0.10999999999999988,-0.04800000000000004,0.10971000000000002,0.09443000000000001,0.0,214.785,214.79500000000002,211.47,211.47,0.0,0.0
23,0.0,0.0,0.0,1.0,1.0,0.0,0.0,1.0,0.0,0.0,1.0,1.1856,26.0,0.0,0.0,0.0,59.999996,0.0,26.0,26.0,26.0,26.0,0.020777777777777784,0.2815000000000001,0.01204,292.023,-2.66585,-2.6803749999999997,-1.6442,-1.5021,-197.86,215.41750000000002,190.501625,0.0,0.0,0.0,0.0,0.04683333333333339,-5.498166666666667,-5.498166666666667,-0.5744,-0.23550000000000001,0.014333333333333309,0.8240000000000001,68.745,0.019,-0.22725,-0.33999999999999986,100.0,1.0,1.0,211.96333333333334,0.0,0.0,0.0,0.0,0.0,0.0,0.0,8984.4,0.0,55.0,5.0,247.45666666666665,1.0,0.0,0.0,0.0,0.0,0.0,0.0,0.0,1.1610000000000014,1.1610000000000014,0.0,0.0,1.0,55.0,616.79921,10000.0,85.000001,85.000001,85.000001,85.000001,395.0,0.0,0.0,0.0,1.0,166.665,52.063,52.063,47.348,47.348,34.0,-22.38,25.802,-29.273333333333333,30.37,0.0,1769.876,-0.3249999999999993,100.0,28.381,28.159,43.384,43.638,0.0,0.0,100.0,0.0,0.0,0.0,0.0,3098.5714285714284,3159.8,4225.125,4243.0,305.333,304.81333333333333,314.627,314.42875,22.0217,20.6577,22.0411,21.5365,314.999998,314.999998,324.999988,324.999988,99.55932857142857,99.50751666666666,99.56922857142857,99.54854285714286,0.10999999999999988,-0.03133333333333321,-0.082,0.14066666666666666,-0.036666666666668846,-0.051666666666669414,1.51,1.4994999999999998,38.635,30.111,38.757,35.603,56.137,35.5005,60.2605,53.1065,54.037,34.5745,58.8055,51.397,53.164,34.089,58.695,50.792,-0.10599999999999987,-0.052999999999999936,0.10326,0.10402000000000002,0.0,215.20499999999998,215.23000000000002,211.96333333333334,211.96333333333334,0.0,0.0
24,0.0,0.0,0.0,1.0,1.0,0.0,0.0,1.0,0.0,0.0,1.0,1.1856,26.0,0.0,0.0,0.0,59.999996,0.0,26.0,26.0,26.0,26.0,0.042888888888888976,0.2641,-0.044000000000000004,292.48,-2.71985,-2.6555,-1.5594000000000001,-1.5507,-194.76999999999998,215.41,190.4805,0.0,0.0,0.0,0.0,0.048633333333333306,-5.498166666666667,-5.498166666666667,-0.5860000000000001,-0.383,0.024222222222222145,-0.24,68.864,0.0178,-0.22310000000000002,-0.22200000000000042,100.0,1.0,1.0,212.35000000000002,0.0,0.0,0.0,0.0,0.0,0.0,0.0,9000.8,0.0,55.0,5.0,247.88333333333333,0.0,0.0,0.0,0.0,0.0,0.0,0.0,0.0,1.2059999999999995,1.2059999999999995,0.0,0.0,0.0,55.0,616.79921,10000.0,85.000001,85.000001,85.000001,85.000001,395.0,0.0,0.0,0.0,1.0,111.11,52.75,52.75,47.501,47.501,34.0,-22.1525,24.128,-28.213333333333335,29.79,0.0,1769.833,-0.35999999999999943,100.0,27.933,28.043,43.206,43.61,0.0,0.0,100.0,0.0,0.0,0.0,0.0,3025.5714285714284,3023.6,4138.125,4128.6,305.799,305.11133333333333,314.82025,314.606,22.0299,20.6626,22.0503,21.5445,314.999998,314.999998,324.999988,324.999988,99.55934285714285,99.50751666666666,99.56935714285714,99.54867142857142,0.10599999999999987,-0.03933333333333322,-0.09733333333333333,0.13266666666666665,-0.04999999999999716,-0.041666666666671404,1.506,1.5030000000000001,38.687,30.141,38.814,35.6535,56.126000000000005,35.5325,60.291,53.1595,54.025999999999996,34.6045,58.834,51.448,53.152,34.118,58.7205,50.84166666666667,-0.11349999999999993,-0.04899999999999993,0.09766000000000001,0.11463500000000001,0.0,215.585,215.585,212.35000000000002,212.35000000000002,0.0,0.0
25,0.0,0.0,0.0,1.0,1.0,0.0,0.0,1.0,0.0,0.0,1.0,1.1856,26.0,0.0,0.0,0.0,59.999996,0.0,26.0,26.0,26.0,26.0,0.05111111111111111,0.2801,-0.01314,292.13,-2.6906,-2.650375,-1.5961,-1.5471,-191.04,215.4,190.453625,0.0,0.0,0.0,0.0,0.050799999999999956,-5.498166666666667,-5.498166666666667,-0.6006,0.273,0.025111111111111084,-0.9850000000000001,69.005,0.0177,-0.21730000000000002,-0.28799999999999937,100.0,1.0,1.0,212.82333333333332,0.0,0.0,0.0,0.0,0.0,0.0,0.0,9020.9,0.0,55.0,5.0,248.39,1.0,0.0,0.0,0.0,0.0,0.0,0.0,0.0,1.259999999999998,1.259999999999998,0.0,0.0,1.0,55.0,616.79921,10000.0,85.000001,85.000001,85.000001,85.000001,395.0,0.0,0.0,0.0,1.0,166.665,51.758,51.758,47.653,47.653,34.0,-23.95,26.637999999999998,-28.006666666666664,29.442500000000003,0.0,1769.779,-0.39000000000000057,100.0,28.038,28.37,43.0,43.454,0.0,0.0,100.0,0.0,0.0,0.0,0.0,3273.0,3241.1,4104.0,4116.4,305.042,304.3553333333333,314.99325,314.65775,22.0398,20.6686,22.0613,21.5541,314.999998,314.999998,324.999988,324.999988,99.55935714285714,99.50753333333333,99.56951428571429,99.54884285714286,0.10775000000000023,-0.02933333333333321,-0.09433333333333332,0.1325,-0.051666666666669414,-0.06666666666666998,1.546,1.5394999999999999,38.748999999999995,30.178666666666665,38.882999999999996,35.713499999999996,56.111999999999995,35.573499999999996,60.326499999999996,53.2215,54.013,34.6425,58.867,51.507999999999996,53.138,34.1545,58.7505,50.900333333333336,-0.11450000000000005,-0.04600000000000026,0.10890000000000001,0.10722500000000001,0.0,216.01999999999998,216.055,212.82333333333332,212.82333333333332,0.0,0.0
26,0.0,0.0,0.0,1.0,1.0,0.0,0.0,1.0,0.0,0.0,1.0,1.1856,26.0,0.0,0.0,0.0,59.999996,0.0,26.0,26.0,26.0,26.0,0.03499999999999992,0.272,0.05646,291.321,-2.71555,-2.6466250000000002,-1.5601,-1.5499,-187.73000000000002,215.39249999999998,190.429625,0.0,0.0,0.0,0.0,0.0527333333333333,-5.498166666666667,-5.498166666666667,-0.5732,0.2295,0.014222222222222136,-0.635,69.133,0.0222,-0.20245000000000002,-0.32399999999999984,100.0,1.0,1.0,213.00666666666666,0.0,0.0,0.0,0.0,0.0,0.0,0.0,9028.6,0.0,55.0,5.0,248.85333333333335,0.0,0.0,0.0,0.0,0.0,0.0,0.0,0.0,1.3079999999999998,1.3079999999999998,0.0,0.0,0.0,55.0,616.79921,10000.0,85.000001,85.000001,85.000001,85.000001,395.0,0.0,0.0,0.0,1.0,166.665,51.636,51.636,46.57,46.57,34.0,-24.3175,24.881999999999998,-31.026666666666664,32.2525,0.0,1769.73,-0.370000000000001,100.0,28.65,28.726,43.538,43.992000000000004,0.0,0.0,100.0,0.0,0.0,0.0,0.0,3262.0,3087.0,4470.875,4430.4,305.1245,304.9563333333333,314.05875,313.83,22.0487,20.6739,22.0712,21.5629,314.999998,314.999998,324.999988,324.999988,99.55937142857142,99.50753333333333,99.56965714285714,99.54897142857143,0.10175000000000001,-0.032333333333333325,-0.09316666666666668,0.123,-0.03333333333333144,-0.03833333333332689,1.437,1.4375,38.805,30.212,38.945,35.768,56.102000000000004,35.6105,60.3625,53.2805,54.004000000000005,34.6765,58.9005,51.5645,53.126999999999995,34.187,58.781,50.956,-0.11250000000000004,-0.05149999999999988,0.11075000000000002,0.09883,0.0,216.425,216.43,213.00666666666666,213.00666666666666,0.0,0.0
27,0.0,0.0,0.0,1.0,1.0,0.0,0.0,1.0,0.0,0.0,1.0,1.1856,26.0,0.0,0.0,0.0,59.999996,0.0,26.0,26.0,26.0,26.0,0.027888888888888852,0.25170000000000003,-0.0425,291.855,-2.75915,-2.663875,-1.6217000000000001,-1.5323,-184.2,215.385,190.405,0.0,0.0,0.0,0.0,0.05476666666666652,-5.498166666666667,-5.498166666666667,-0.6008,-0.7615000000000001,0.02588888888888885,0.746,69.264,0.024800000000000003,-0.24122500000000002,-0.3639999999999999,100.0,1.0,1.0,213.58333333333331,0.0,0.0,0.0,0.0,0.0,0.0,0.0,9053.1,0.0,55.0,5.0,249.32333333333332,1.0,0.0,0.0,0.0,0.0,0.0,0.0,0.0,1.3589999999999982,1.3589999999999982,0.0,0.0,1.0,55.0,616.79921,10000.0,85.000001,85.000001,85.000001,85.000001,395.0,0.0,0.0,0.0,1.0,166.665,51.88,51.88,47.012,47.012,34.0,-23.1525,26.625999999999998,-26.84,30.34,0.0,1769.679,-0.3550000000000004,100.0,28.454,28.544,43.97,44.141999999999996,0.0,0.0,100.0,0.0,0.0,0.0,0.0,3083.857142857143,3243.0,3976.75,4152.9,305.545,304.6143333333333,315.11725,314.64225,22.058,20.6796,22.0818,21.5722,314.999998,314.999998,324.999988,324.999988,99.55938571428571,99.50753333333333,99.5698,99.54911428571428,0.10550000000000015,-0.025666666666666726,-0.07766666666666668,0.1475,-0.030000000000001137,-0.05333333333332746,1.5175,1.513,38.863,30.247666666666667,39.010999999999996,35.826499999999996,56.089,35.649,60.399,53.341,53.991,34.712,58.9345,51.623,53.114000000000004,34.221000000000004,58.8115,51.013,-0.10599999999999987,-0.05600000000000005,0.10394500000000001,0.10817,0.0,216.785,216.82,213.58333333333331,213.58333333333331,0.0,0.0
28,0.0,0.0,0.0,1.0,1.0,0.0,0.0,1.0,0.0,0.0,1.0,1.1856,26.0,0.0,0.0,0.0,59.999996,0.0,26.0,26.0,26.0,26.0,0.0367777777777778,0.2724,-0.04104,291.931,-2.6879,-2.650375,-1.6337000000000002,-1.5612,-180.87,215.38,190.381,0.0,0.0,0.0,0.0,0.05669999999999997,-5.498166666666667,-5.498166666666667,-0.5993,0.5675,0.012555555555555653,0.32299999999999995,69.387,0.023100000000000002,-0.2137,-0.4039999999999999,100.0,1.0,1.0,213.98333333333335,0.0,0.0,0.0,0.0,0.0,0.0,0.0,9070.0,0.0,55.0,5.0,249.76666666666665,0.0,0.0,0.0,0.0,0.0,0.0,0.0,0.0,1.407,1.407,0.0,0.0,0.0,55.0,616.79921,10000.0,85.000001,85.000001,85.000001,85.000001,395.0,0.0,0.0,0.0,1.0,166.665,51.971000000000004,51.971000000000004,47.119,47.119,34.0,-21.18,26.526,-28.503333333333334,30.645,0.0,1769.63,-0.46999999999999886,100.0,28.518,28.490000000000002,43.434,43.79,0.0,0.0,100.0,0.0,0.0,0.0,0.0,3003.142857142857,3200.3,4184.625,4195.9,305.615,304.683,314.81675,314.57325,22.0668,20.685,22.0915,21.5808,314.999998,314.999998,324.999988,324.999988,99.5594,99.50755,99.56994285714286,99.54925714285714,0.125,-0.01766666666666672,-0.08083333333333333,0.1405,-0.03499999999999659,-0.061666666666667425,1.5454999999999999,1.532,38.918,30.281333333333336,39.072,35.879999999999995,56.078,35.6855,60.429,53.396,53.980999999999995,34.746,58.9625,51.676,53.102999999999994,34.2535,58.8365,51.06466666666667,-0.12050000000000005,-0.04800000000000004,0.109145,0.10916500000000001,0.0,217.215,217.24,213.98333333333335,213.98333333333335,0.0,0.0
29,0.0,0.0,0.0,1.0,1.0,0.0,0.0,1.0,0.0,0.0,1.0,1.1856,26.0,0.0,0.0,0.0,59.999996,0.0,26.0,26.0,26.0,26.0,0.04499999999999993,0.2581,-0.02808,291.809,-2.7627,-2.576125,-1.6111,-1.5465,-177.32999999999998,215.3725,190.354625,0.0,0.0,0.0,0.0,0.05876666666666652,-5.498166666666667,-5.498166666666667,-0.6061000000000001,-0.7415,0.00477777777777777,-0.6990000000000001,69.521,0.025400000000000002,-0.21575,-0.3420000000000005,100.0,1.0,1.0,214.27666666666667,0.0,0.0,0.0,0.0,0.0,0.0,0.0,9082.5,0.0,55.0,5.0,250.25,1.0,0.0,0.0,0.0,0.0,0.0,0.0,0.0,1.4579999999999984,1.4579999999999984,0.0,0.0,1.0,55.0,616.79921,10000.0,85.000001,85.000001,85.000001,85.000001,395.0,0.0,0.0,0.0,1.0,166.665,52.17,52.17,46.951,46.951,34.0,-23.985,24.79,-29.406666666666666,31.47,0.0,1769.58,-0.509999999999998,100.0,28.057,28.423000000000002,43.725,44.19,0.0,0.0,100.0,0.0,0.0,0.0,0.0,3251.857142857143,3129.4,4204.625,4239.7,305.33,304.9943333333333,314.72125,314.3245,22.076,20.6906,22.1021,21.5901,314.999998,314.999998,324.999988,324.999988,99.55941428571428,99.50755,99.57008571428571,99.54941428571429,0.11299999999999999,-0.024333333333333318,-0.09516666666666668,0.14316666666666666,-0.036666666666668846,-0.051666666666669414,1.4929999999999999,1.4685000000000001,38.975,30.316,39.138,35.938,56.065,35.722,60.466499999999996,53.457,53.968,34.78,58.9975,51.735,53.089,34.286500000000004,58.868,51.12233333333333,-0.12199999999999989,-0.040000000000000036,0.11387000000000001,0.11221500000000001,0.0,217.60000000000002,217.615,214.27666666666667,214.27666666666667,0.0,0.0
30,0.0,0.0,0.0,1.0,1.0,0.0,0.0,1.0,0.0,0.0,1.0,1.1856,26.0,0.0,0.0,0.0,59.999996,0.0,26.0,26.0,26.0,26.0,0.0277777777777779,0.2752000000000001,0.01842,291.046,-2.73495,-2.638,-1.6507,-1.4582,-173.78,215.37,190.328125,0.0,0.0,0.0,0.0,0.060833333333333295,-5.498166666666667,-5.498166666666667,-0.601,0.9495,0.015222222222222026,0.857,69.65,0.0302,-0.21282500000000001,-0.5760000000000005,100.0,1.0,1.0,214.71,0.0,0.0,0.0,0.0,0.0,0.0,0.0,9100.8,0.0,55.0,5.0,250.71333333333334,0.0,0.0,0.0,0.0,0.0,0.0,1.0,0.0,1.5090000000000003,1.5090000000000003,0.0,0.0,0.0,55.0,616.79921,10000.0,85.000001,85.000001,85.000001,85.000001,395.0,0.0,0.0,0.0,1.0,111.11,50.797,50.797,46.631,46.631,34.0,-23.345,27.823999999999998,-29.513333333333335,31.8575,0.0,1769.53,-0.48999999999999844,100.0,29.125,29.08,43.621,44.065,0.0,0.0,100.0,0.0,0.0,0.0,0.0,3213.5714285714284,3329.5,4333.125,4405.0,304.973,304.179,314.49625,314.1605,22.0855,20.6965,22.1125,21.5993,314.999998,314.999998,324.999988,324.999988,99.55942857142857,99.50755,99.57024285714286,99.54955714285714,0.1262500000000002,-0.016999999999999904,-0.07166666666666667,0.15466666666666665,-0.03999999999999915,-0.05333333333332746,1.5275,1.4845000000000002,39.035,30.353,39.203,35.9955,56.056,35.763,60.5,53.5165,53.96,34.817499999999995,59.0285,51.792500000000004,53.08,34.3225,58.896,51.178333333333335,-0.12250000000000005,-0.04700000000000015,0.10572000000000001,0.107935,0.0,218.03,218.065,214.71,214.71,0.0,0.0
31,0.0,0.0,0.0,1.0,1.0,0.0,0.0,1.0,0.0,0.0,1.0,1.1856,26.0,0.0,0.0,0.0,59.999996,0.0,26.0,26.0,26.0,26.0,0.04922222222222228,0.25029999999999997,0.05256,290.726,-2.71045,-2.6178749999999997,-1.6543,-1.5373999999999999,-170.43,215.3675,190.303875,0.0,0.0,0.0,0.0,0.06276666666666653,-5.498166666666667,-5.498166666666667,-0.5865,-0.3965,0.024222222222222145,0.753,69.775,0.0335,-0.22025,-0.5220000000000002,100.0,1.0,1.0,214.97,0.0,0.0,0.0,0.0,0.0,0.0,0.0,9111.8,0.0,55.0,5.0,251.16333333333336,1.0,0.0,0.0,0.0,0.0,0.0,1.0,0.0,1.5569999999999986,1.5569999999999986,0.0,0.0,1.0,55.0,616.79921,10000.0,85.000001,85.000001,85.000001,85.000001,395.0,0.0,0.0,0.0,1.0,166.665,51.041,51.041,45.609,45.609,34.0,-21.68,28.228,-29.753333333333334,33.8575,0.0,1769.48,-0.509999999999998,100.0,28.977,29.16,44.439,44.812,0.0,0.0,100.0,0.0,0.0,0.0,0.0,3063.4285714285716,3424.7,4256.625,4421.2,305.439,304.0933333333333,314.449,313.89975,22.0943,20.7019,22.1226,21.6082,314.999998,314.999998,324.999988,324.999988,99.55944285714286,99.50756666666666,99.57037142857143,99.5497,0.1299999999999999,-0.018999999999999906,-0.07283333333333333,0.15533333333333335,-0.04333333333332945,-0.05333333333332746,1.4275,1.4184999999999999,39.089,30.387333333333334,39.266,36.0515,56.046,35.8,60.536500000000004,53.577,53.95,34.852000000000004,59.0625,51.8505,53.069,34.3555,58.927,51.235,-0.11999999999999988,-0.04999999999999982,0.106575,0.10697000000000001,0.0,218.39499999999998,218.41,214.97,214.97,0.0,0.0
32,0.0,0.0,0.0,1.0,1.0,0.0,0.0,1.0,0.0,0.0,1.0,1.1856,26.0,0.0,0.0,0.0,59.999996,0.0,26.0,26.0,26.0,26.0,0.07699999999999996,0.2563,-0.028780000000000003,291.397,-2.70425,-2.674125,-1.5921,-1.6174,-166.87,215.365,190.278375,0.0,0.0,0.0,0.0,0.0648333333333333,-5.498166666666667,-5.498166666666667,-0.6071000000000001,-0.34800000000000003,-0.0009999999999998899,-0.982,69.902,0.0346,-0.232025,-0.42600000000000016,100.0,1.0,1.0,215.5,0.0,0.0,0.0,0.0,0.0,0.0,0.0,9134.3,0.0,55.0,5.0,251.62,0.0,0.0,0.0,0.0,0.0,0.0,1.0,0.0,1.6080000000000005,1.6080000000000005,0.0,0.0,0.0,55.0,616.79921,10000.0,85.000001,85.000001,85.000001,85.000001,395.0,0.0,0.0,0.0,1.0,166.665,51.605,51.605,46.722,46.722,34.0,-22.1825,25.811999999999998,-26.856666666666666,32.1625,0.0,1769.429,-0.5150000000000006,100.0,28.662,29.126,44.112,44.727000000000004,0.0,0.0,100.0,0.0,0.0,0.0,0.0,3152.714285714286,3094.2,4078.75,4187.7,305.4315,304.88033333333334,314.988,314.45325,22.1035,20.7077,22.133,21.6175,314.999998,314.999998,324.999988,324.999988,99.55947142857143,99.50756666666666,99.57052857142857,99.54985714285715,0.12749999999999995,-0.01966666666666672,-0.07150000000000001,0.14983333333333335,-0.051666666666669414,-0.036666666666668846,1.5105,1.5085,39.147,30.423000000000002,39.331,36.1095,56.034,35.838,60.57,53.635999999999996,53.939,34.8875,59.094,51.9075,53.056,34.3895,58.955,51.291,-0.123,-0.04700000000000015,0.10022,0.111975,0.0,218.78,218.82,215.5,215.5,0.0,0.0
33,0.0,0.0,0.0,1.0,1.0,0.0,0.0,1.0,0.0,0.0,1.0,1.1856,26.0,0.0,0.0,0.0,59.999996,0.0,26.0,26.0,26.0,26.0,0.06466666666666687,0.2481,-0.05714,291.611,-2.7237,-2.6395,-1.6045,-1.5761,-163.51,215.365,190.25325,0.0,0.0,0.0,0.0,0.06679999999999997,-5.498166666666667,-5.498166666666667,-0.6159,-0.23550000000000001,0.002666666666666595,-0.09200000000000008,70.024,0.0332,-0.21507500000000002,-0.4399999999999995,100.0,1.0,1.0,215.87666666666667,0.0,0.0,0.0,0.0,0.0,0.0,0.0,9150.2,0.0,55.0,5.0,252.06,1.0,0.0,0.0,0.0,0.0,0.0,1.0,0.0,1.6559999999999988,1.6559999999999988,0.0,0.0,1.0,55.0,616.79921,10000.0,85.000001,85.000001,85.000001,85.000001,395.0,0.0,0.0,0.0,1.0,111.11,51.849000000000004,51.849000000000004,46.982,46.982,34.0,-22.07,25.490000000000002,-27.419999999999998,31.4025,0.0,1769.383,-0.5700000000000003,100.0,28.558,28.866,43.894999999999996,44.475,0.0,0.0,100.0,0.0,0.0,0.0,0.0,3135.714285714286,3076.8,4087.5,4204.9,305.485,305.04133333333334,314.98075,314.49125,22.1122,20.713,22.1428,21.6262,314.999998,314.999998,324.999988,324.999988,99.55948571428571,99.50756666666666,99.57065714285714,99.55,0.13100000000000023,-0.0129999999999999,-0.07983333333333333,0.14433333333333334,-0.04333333333332945,-0.04833333333333201,1.5345,1.4969999999999999,39.201,30.456333333333333,39.391999999999996,36.1635,56.022999999999996,35.8725,60.6015,53.691,53.928,34.9195,59.123,51.960499999999996,53.045,34.42,58.981,51.342666666666666,-0.129,-0.03849999999999998,0.10584,0.11095000000000001,0.0,219.15,219.18,215.87666666666667,215.87666666666667,0.0,0.0
34,0.0,0.0,0.0,1.0,1.0,0.0,0.0,1.0,0.0,0.0,1.0,1.1856,26.0,0.0,0.0,0.0,59.999996,0.0,26.0,26.0,26.0,26.0,0.0712222222222223,0.25360000000000005,-0.05448,291.718,-2.67785,-2.668,-1.6360999999999999,-1.5162,-159.73000000000002,215.3675,190.223375,0.0,0.0,0.0,0.0,0.06899999999999995,-5.498166666666667,-5.498166666666667,-0.6477,-0.9865,0.02288888888888896,-0.20199999999999996,70.16,0.0379,-0.2233,-0.5300000000000002,100.0,1.0,1.0,216.25666666666666,0.0,0.0,0.0,0.0,0.0,0.0,0.0,9166.3,0.0,55.0,5.0,252.55,0.0,0.0,0.0,0.0,0.0,0.0,1.0,0.0,1.7100000000000009,1.7100000000000009,0.0,0.0,0.0,55.0,616.79921,10000.0,85.000001,85.000001,85.000001,85.000001,395.0,0.0,0.0,0.0,1.0,166.665,52.216,52.216,46.997,46.997,34.0,-21.7575,25.872,-27.87,31.26,0.0,1769.328,-0.495000000000001,100.0,28.232,28.625,43.807,44.602000000000004,0.0,0.0,100.0,0.0,0.0,0.0,0.0,3091.142857142857,3088.2,4140.75,4229.5,305.662,305.0346666666667,314.89625,314.42325,22.1218,20.7189,22.1538,21.636,314.999998,314.999998,324.999988,324.999988,99.5595,99.50756666666666,99.57081428571429,99.55015714285715,0.11900000000000022,-0.011666666666666714,-0.07150000000000001,0.15366666666666667,-0.036666666666668846,-0.04833333333333201,1.5205,1.504,39.260999999999996,30.493000000000002,39.461,36.225,56.01,35.91,60.637,53.754999999999995,53.915,34.954,59.156,52.022,53.031,34.4535,59.0105,51.40266666666667,-0.11799999999999988,-0.0365000000000002,0.10616,0.11266500000000002,0.0,219.55,219.57,216.25666666666666,216.25666666666666,0.0,0.0
35,0.0,0.0,0.0,1.0,1.0,0.0,0.0,1.0,0.0,0.0,1.0,1.1856,26.0,0.0,0.0,0.0,59.999996,0.0,26.0,26.0,26.0,26.0,0.076888888888889,0.2610000000000001,-0.03642,291.641,-2.81085,-2.6425,-1.5478,-1.5750000000000002,-156.36,215.37,190.195125,0.0,0.0,0.0,0.0,0.07096666666666651,-5.498166666666667,-5.498166666666667,-0.6778000000000001,0.0365,0.003444444444444361,-1.355,70.279,0.04,-0.22667500000000002,-0.4139999999999997,100.0,1.0,1.0,216.70333333333332,0.0,0.0,0.0,0.0,0.0,0.0,0.0,9185.3,0.0,55.0,5.0,252.97666666666666,1.0,0.0,0.0,0.0,0.0,0.0,1.0,0.0,1.7579999999999991,1.7579999999999991,0.0,0.0,1.0,55.0,616.79921,10000.0,85.000001,85.000001,85.000001,85.000001,395.0,0.0,0.0,0.0,1.0,333.33500000000004,51.575,51.575,46.722,46.722,34.0,-23.8375,27.362000000000002,-26.56,31.04,0.0,1769.278,-0.3099999999999987,100.0,28.147,29.034,43.524,44.097,0.0,0.0,100.0,0.0,0.0,0.0,0.0,3175.142857142857,3309.6,4145.375,4103.2,305.381,304.20366666666666,314.9345,314.81125,22.1304,20.7244,22.1635,21.6446,314.999998,314.999998,324.999988,324.999988,99.55951428571429,99.50758333333333,99.57097142857143,99.55031428571428,0.11724999999999985,-0.02633333333333332,-0.07366666666666667,0.1615,-0.05333333333332746,-0.036666666666668846,1.5625,1.543,39.315,30.52766666666667,39.522,36.278999999999996,55.995999999999995,35.95,60.6695,53.811,53.903,34.9915,59.186,52.076499999999996,53.016999999999996,34.489,59.0375,51.455666666666666,-0.10999999999999988,-0.058499999999999996,0.10424000000000001,0.11406500000000001,0.0,219.945,219.96,216.70333333333335,216.70333333333332,0.0,0.0
36,0.0,0.0,0.0,1.0,1.0,0.0,0.0,1.0,0.0,0.0,1.0,1.1856,26.0,0.0,0.0,0.0,59.999996,0.0,26.0,26.0,26.0,26.0,0.06077777777777782,0.2529000000000001,0.00448,291.29,-2.65465,-2.705,-1.6456,-1.5913,-152.77,215.375,190.164,0.0,0.0,0.0,0.0,0.0730333333333334,-5.498166666666667,-5.498166666666667,-0.6627000000000001,-0.277,-0.03777777777777791,0.18999999999999995,70.40899999999999,0.0345,-0.204625,-0.3540000000000001,100.0,1.0,1.0,216.89,0.0,0.0,0.0,0.0,0.0,0.0,0.0,9193.1,0.0,55.0,5.0,253.44666666666666,0.0,0.0,0.0,0.0,0.0,0.0,1.0,0.0,1.809000000000001,1.809000000000001,0.0,0.0,0.0,55.0,616.79921,10000.0,85.000001,85.000001,85.000001,85.000001,395.0,0.0,0.0,0.0,1.0,166.665,52.185,52.185,46.158,46.158,34.0,-19.3525,24.857999999999997,-30.169999999999998,35.035,0.0,1769.229,-0.28999999999999915,100.0,28.804000000000002,28.75,43.954,44.43,0.0,0.0,100.0,0.0,0.0,0.0,0.0,2827.714285714286,3008.9,4453.25,4493.0,306.0785,305.132,314.19675,313.84725,22.1396,20.7302,22.174,21.654,314.999998,314.999998,324.999988,324.999988,99.55952857142857,99.50758333333333,99.5711,99.55045714285714,0.1302500000000002,-0.03066666666666662,-0.059833333333333336,0.15383333333333335,-0.03999999999999915,-0.03833333333332689,1.45,1.4344999999999999,39.372,30.564,39.588,36.338,55.986000000000004,35.9855,60.703,53.8695,53.893,35.0245,59.2175,52.1325,53.006,34.521,59.0655,51.510666666666665,-0.11099999999999999,-0.0625,0.10136500000000001,0.10679500000000001,0.0,220.365,220.37,216.89,216.89,0.0,0.0
