,ABS Active,ABS Enabled,AID Allow Tire Blankets,AID Auto Blip,AID Auto Clutch,AID Auto Shift,AID Fuel Rate,AID Ideal Line,AID Mech Damage,AID Stability,AID Tire Wear Rate,Air Density,Air Temp,Ballast,Best Lap Delta,Best Lap Time,Brake Bias,Brake Pos,Brake Temp FL,Brake Temp FR,Brake Temp RL,Brake Temp RR,CG Accel Lateral,CG Accel Longitudinal,CG Accel Vertical,CG Height,Camber FL,Camber FR,Camber RL,Camber RR,Car Coord X,Car Coord Y,Car Coord Z,Car Damage Front,Car Damage Left,Car Damage Rear,Car Damage Right,Car Pos Norm,Caster FL,Caster FR,Chassis Pitch Angle,Chassis Pitch Rate,Chassis Roll Angle,Chassis Roll Rate,Chassis Velocity X,Chassis Velocity Y,Chassis Velocity Z,Chassis Yaw Rate,Clutch Pos,DRS Active,DRS Available,Drive Train Speed,ERS Heat Charging,ERS Is Charging,ERS Max Energy,ERS Power Level,ERS Recovery Level,Engine Brake Setting,Engine Limiter,Engine RPM,Flags,Fuel Level,Gear,Ground Speed,HR Sample Clock,In Pit,KERS Charge,KERS Deployed Energy,KERS Input,KERS Max Energy,LR Sample Clock,Lap Invalidated,Lap Time,Lap Time2,Last Lap Time,Last Sector Time,MR Sample Clock,Max Fuel,Max Power,Max RPM,Max Sus Travel FL,Max Sus Travel FR,Max Sus Travel RL,Max Sus Travel RR,Max Torque,Max Turbo Boost,Num Tires Off Track,Penalties Enabled,Position,Raw Data Sample Rate,Ride Height FL,Ride Height FR,Ride Height RL,Ride Height RR,Road Temp,Self Align Torque FL,Self Align Torque FR,Self Align Torque RL,Self Align Torque RR,Session Lap Count,Session Time Left,Steering Angle,Surface Grip,Suspension Travel FL,Suspension Travel FR,Suspension Travel RL,Suspension Travel RR,TC Active,TC Enabled,Throttle Pos,Tire Dirt Level FL,Tire Dirt Level FR,Tire Dirt Level RL,Tire Dirt Level RR,Tire Load FL,Tire Load FR,Tire Load RL,Tire Load RR,Tire Loaded Radius FL,Tire Loaded Radius FR,Tire Loaded Radius RL,Tire Loaded Radius RR,Tire Pressure FL,Tire Pressure FR,Tire Pressure RL,Tire Pressure RR,Tire Radius FL,Tire Radius FR,Tire Radius RL,Tire Radius RR,Tire Rubber Grip FL,Tire Rubber Grip FR,Tire Rubber Grip RL,Tire Rubber Grip RR,Tire Slip Angle FL,Tire Slip Angle FR,Tire Slip Angle RL,Tire Slip Angle RR,Tire Slip Ratio FL,Tire Slip Ratio FR,Tire Slip Ratio RL,Tire Slip Ratio RR,Tire Temp Core FL,Tire Temp Core FR,Tire Temp Core RL,Tire Temp Core RR,Tire Temp Inner FL,Tire Temp Inner FR,Tire Temp Inner RL,Tire Temp Inner RR,Tire Temp Middle FL,Tire Temp Middle FR,Tire Temp Middle RL,Tire Temp Middle RR,Tire Temp Outer FL,Tire Temp Outer FR,Tire Temp Outer RL,Tire Temp Outer RR,Toe In FL,Toe In FR,Toe In RL,Toe In RR,Turbo Boost,Wheel Angular Speed FL,Wheel Angular Speed FR,Wheel Angular Speed RL,Wheel Angular Speed RR,Wind Direction,Wind Speed
0,0.0,0.0,0.0,1.0,1.0,0.0,0.0,1.0,0.0,100.0,1.0,1.1856,26.0,0.0,0.0,0.0,59.99999,0.0,26.0,26.0,26.0,26.0,-0.078875,0.30730000000000013,0.040400000000000005,293.9,-2.7176,-2.6573333333333333,-1.5138500000000001,-1.5568,-275.62,216.29500000000002,190.987125,0.0,0.0,0.0,0.0,0.0016333333333333755,-5.498166666666667,-5.498166666666667,-0.5508000000000001,1.7565,-0.00855555555555565,-0.20599999999999996,65.491,-0.0335,-0.2192,0.976,100.0,1.0,1.0,202.18333333333334,0.0,0.0,0.0,0.0,0.0,0.0,0.0,8569.9,0.0,55.0,5.0,235.73666666666668,0.0,0.0,0.0,0.0,0.0,0.0,0.0,0.0,0.0030000000000001137,0.0030000000000001137,0.0,0.0,0.0,55.0,616.79921,10000.0,85.0,85.0,85.0,85.0,395.0,0.0,0.0,0.0,1.0,20.0,52.567,52.567,49.515,49.515,34.0,-26.8,23.844,-30.32,25.655,0.0,1782.484,0.8200000000000003,100.0,27.455,27.108,40.47,40.421,0.0,0.0,100.0,0.0,0.0,0.0,0.0,3059.714285714286,3408.1,4162.375,4049.1000000000004,305.4205,303.986,314.713,314.77575,21.7574,20.5143,21.787,21.3127,314.99999,314.99999,324.99998,324.99998,99.55752857142858,99.50721666666666,99.56558571428572,99.54485714285714,0.004999999999999893,-0.11733333333333329,-0.15216666666666667,0.07266666666666667,-0.03999999999999915,-0.06833333333332803,1.5499999999999998,1.5875,36.983999999999995,29.214333333333336,37.169,34.204499999999996,55.811,34.42,59.1665,51.4705,53.775,33.6305,57.8055,49.846000000000004,52.974000000000004,33.232,57.7825,49.281666666666666,-0.009500000000000064,-0.13649999999999984,0.10519,0.10828000000000002,0.0,205.22500000000002,205.185,202.18333333333334,202.18333333333334,0.0,0.0
1,0.0,0.0,0.0,1.0,1.0,0.0,0.0,1.0,0.0,100.0,1.0,1.1856,26.0,0.0,0.0,0.0,59.999996,0.0,26.0,26.0,26.0,26.0,-0.100875,0.3103,0.16970000000000002,293.243,-2.6467,-2.7605555555555554,-1.53485,-1.5413000000000001,-272.28,216.29000000000002,190.96725,0.0,0.0,0.0,0.0,0.003566666666666607,-5.498166666666667,-5.498166666666667,-0.4943,-0.7655000000000001,-0.04844444444444429,-0.9260000000000002,65.644,-0.0485,-0.19210000000000002,1.3639999999999999,100.0,1.0,1.0,202.38,0.0,0.0,0.0,0.0,0.0,0.0,0.0,8578.2,0.0,55.0,5.0,236.29000000000002,1.0,0.0,0.0,0.0,0.0,0.0,0.0,0.0,0.053999999999998494,0.053999999999998494,0.0,0.0,1.0,55.0,616.79921,10000.0,85.000001,85.000001,85.000001,85.000001,395.0,0.0,0.0,0.0,1.0,333.33500000000004,53.833,53.833,48.416,48.416,34.0,-26.805,17.932000000000002,-33.50666666666667,28.98,0.0,1782.435,0.9250000000000007,100.0,27.332,26.917,42.704,41.636,0.0,0.0,100.0,0.0,0.0,0.0,0.0,3078.714285714286,2661.5,4245.0,4705.3,305.5495,306.3755,314.4645,313.11975,21.7672,20.5193,21.7978,21.3218,314.999998,314.999998,324.999988,324.999988,99.55752857142858,99.50723333333333,99.56572857142856,99.54501428571429,-0.01200000000000001,-0.13666666666666671,-0.1805,0.03816666666666667,-0.06833333333332803,-0.06499999999999773,1.4169999999999998,1.467,37.045,29.246000000000002,37.236000000000004,34.2615,55.796,34.46,59.2115,51.536500000000004,53.760999999999996,33.667,57.8475,49.909,52.959,33.2675,57.8215,49.343666666666664,-0.0024999999999999467,-0.14449999999999985,0.10852,0.10924500000000001,0.0,205.715,205.57,202.38,202.38,0.0,0.0
2,0.0,0.0,0.0,1.0,1.0,0.0,0.0,1.0,0.0,100.0,1.0,1.1856,26.0,0.0,0.0,0.0,59.999996,0.0,26.0,26.0,26.0,26.0,-0.144375,0.30269999999999997,-0.107075,293.747,-2.5968999999999998,-2.801222222222222,-1.4837,-1.6133000000000002,-268.93,216.2825,190.94825,0.0,0.0,0.0,0.0,0.00553333333333339,-5.498166666666667,-5.498166666666667,-0.5495,0.08499999999999996,-0.05255555555555569,2.427,65.787,-0.0692,-0.249625,1.5820000000000007,100.0,1.0,1.0,203.27666666666667,0.0,0.0,0.0,0.0,0.0,0.0,0.0,8616.1,0.0,55.0,5.0,236.80333333333334,0.0,0.0,0.0,0.0,0.0,0.0,0.0,0.0,0.10500000000000043,0.10500000000000043,0.0,0.0,0.0,55.0,616.79921,10000.0,85.000001,85.000001,85.000001,85.000001,395.0,0.0,0.0,0.0,1.0,166.665,52.49,52.49,50.232,50.232,34.0,-29.595,19.734,-29.156666666666666,20.3525,0.0,1782.384,0.7149999999999999,100.0,28.314,26.915,42.514,41.269999999999996,0.0,0.0,100.0,0.0,0.0,0.0,0.0,3332.4285714285716,2926.5,3774.5,3676.9,304.518,305.5585,315.592,315.805,21.7772,20.5243,21.8083,21.3305,314.999998,314.999998,324.999988,324.999988,99.55752857142858,99.50725,99.56587142857143,99.54515714285715,-0.018000000000000016,-0.1523333333333332,-0.2165,0.013666666666666666,-0.04333333333332945,-0.03833333333332689,1.6390000000000002,1.7005,37.108000000000004,29.276666666666664,37.302,34.3155,55.784,34.499,59.2485,51.5935,53.748999999999995,33.7025,57.882,49.964,52.947,33.3015,57.8535,49.397333333333336,-0.0129999999999999,-0.14049999999999985,0.10197500000000001,0.10787500000000001,0.0,206.135,205.965,203.27666666666667,203.27666666666667,0.0,0.0
3,0.0,0.0,0.0,1.0,1.0,0.0,0.0,1.0,0.0,100.0,1.0,1.1856,26.0,0.0,0.0,0.0,59.999996,0.0,26.0,26.0,26.0,26.0,-0.13575,0.3239000000000001,0.084425,293.365,-2.7283,-2.6913333333333336,-1.51475,-1.5899,-265.77,216.26999999999998,190.929625,0.0,0.0,0.0,0.0,0.0073666666666665215,-5.498166666666667,-5.498166666666667,-0.5094000000000001,0.38349999999999995,-0.009222222222222243,0.4289999999999998,65.931,-0.0833,-0.2003,1.2060000000000004,100.0,1.0,1.0,203.39666666666668,0.0,0.0,0.0,0.0,0.0,0.0,0.0,8621.2,0.0,55.0,5.0,237.32,1.0,0.0,0.0,0.0,0.0,0.0,0.0,0.0,0.1529999999999987,0.1529999999999987,0.0,0.0,1.0,55.0,616.79921,10000.0,85.000001,85.000001,85.000001,85.000001,395.0,0.0,0.0,0.0,1.0,333.33500000000004,53.436,53.436,48.096000000000004,48.096000000000004,34.0,-25.685,18.86,-34.626666666666665,25.2025,0.0,1782.334,0.5899999999999999,100.0,27.951999999999998,26.979,42.49,41.387,0.0,0.0,100.0,0.0,0.0,0.0,0.0,2867.714285714286,2925.4,4280.75,4287.9,306.0045,305.53375,314.35275,314.24525,21.7864,20.5292,21.8181,21.3388,314.999998,314.999998,324.999988,324.999988,99.55754285714286,99.50726666666667,99.56601428571429,99.5453,-0.01475000000000004,-0.15100000000000002,-0.20600000000000002,0.02,-0.02833333333332888,-0.05333333333332746,1.4900000000000002,1.5510000000000002,37.165,29.307333333333332,37.363,34.3675,55.769,34.5415,59.2875,51.657,53.735,33.742,57.919,50.0245,52.931,33.339,57.887,49.457,-0.026999999999999913,-0.12300000000000022,0.10550000000000001,0.11113,0.0,206.60000000000002,206.48000000000002,203.39666666666668,203.39666666666668,0.0,0.0
4,0.0,0.0,0.0,1.0,1.0,0.0,0.0,1.0,0.0,100.0,1.0,1.1856,26.0,0.0,0.0,0.0,59.999996,0.0,26.0,26.0,26.0,26.0,-0.135375,0.2762,-0.022025,293.64,-2.6639,-2.739111111111111,-1.5277,-1.5958,-262.4,216.255,190.91,0.0,0.0,0.0,0.0,0.009299999999999975,-5.498166666666667,-5.498166666666667,-0.5439,-0.7404999999999999,-0.07644444444444431,-1.8159999999999998,66.077,-0.0844,-0.2381,1.138,100.0,1.0,1.0,203.98666666666668,0.0,0.0,0.0,0.0,0.0,0.0,0.0,8646.3,0.0,55.0,5.0,237.8466666666667,0.0,0.0,0.0,0.0,0.0,0.0,0.0,0.0,0.20400000000000063,0.20400000000000063,0.0,0.0,0.0,55.0,616.79921,10000.0,85.000001,85.000001,85.000001,85.000001,395.0,0.0,0.0,0.0,1.0,166.665,53.101,53.101,48.766999999999996,48.766999999999996,34.0,-29.314999999999998,19.067999999999998,-32.053333333333335,20.7925,0.0,1782.285,0.620000000000001,100.0,27.671,26.92,42.787,41.546,0.0,0.0,100.0,0.0,0.0,0.0,0.0,3252.714285714286,2874.9,4093.375,3671.7,305.081,305.52575,314.8465,315.66975,21.7959,20.5343,21.8287,21.3477,314.999998,314.999998,324.999988,324.999988,99.55754285714286,99.50728333333333,99.56615714285714,99.54541428571429,-0.026249999999999885,-0.15066666666666673,-0.1945,0.0185,-0.03333333333333144,-0.054999999999999716,1.5540000000000003,1.609,37.224999999999994,29.339,37.429,34.423,55.753,34.5805,59.326499999999996,51.7125,53.72,33.778,57.955,50.078,52.916,33.373,57.920500000000004,49.50933333333333,-0.03200000000000003,-0.1200000000000001,0.09667,0.10888,0.0,206.985,206.89,203.98666666666668,203.98666666666668,0.0,0.0
5,0.0,0.0,0.0,1.0,1.0,0.0,0.0,1.0,0.0,100.0,1.0,1.1856,26.0,0.0,0.0,0.0,59.999996,0.0,26.0,26.0,26.0,26.0,-0.120125,0.30490000000000017,-0.010525000000000001,293.64,-2.6766,-2.7624444444444443,-1.51145,-1.5843,-258.83,216.2375,190.8885,0.0,0.0,0.0,0.0,0.011399999999999966,-5.498166666666667,-5.498166666666667,-0.5339,0.36949999999999994,-0.08022222222222242,-0.20900000000000007,66.233,-0.0855,-0.2111,1.0420000000000007,100.0,1.0,1.0,204.4,0.0,0.0,0.0,0.0,0.0,0.0,0.0,8663.7,0.0,55.0,5.0,238.41,1.0,0.0,0.0,0.0,0.0,0.0,0.0,0.0,0.2579999999999991,0.2579999999999991,0.0,0.0,1.0,55.0,616.79921,10000.0,85.000001,85.000001,85.000001,85.000001,395.0,0.0,0.0,0.0,1.0,166.665,53.482,53.482,48.903999999999996,48.903999999999996,34.0,-28.299999999999997,19.094,-34.019999999999996,22.955,0.0,1782.232,0.21499999999999986,100.0,27.705,26.727,42.549,41.259,0.0,0.0,100.0,0.0,0.0,0.0,0.0,3191.714285714286,2769.3,4213.0,4054.1000000000004,305.2235,305.912,314.6385,314.76075,21.8064,20.5396,21.8398,21.3569,314.999998,314.999998,324.999988,324.999988,99.55754285714286,99.5073,99.5663,99.54557142857144,-0.013249999999999984,-0.1323333333333332,-0.21483333333333335,0.009000000000000001,-0.03999999999999915,-0.036666666666668846,1.5259999999999998,1.5575,37.29,29.372666666666667,37.498999999999995,34.4805,55.739000000000004,34.6235,59.3685,51.7735,53.706,33.817,57.994,50.1365,52.900999999999996,33.4105,57.957,49.56633333333333,-0.05499999999999994,-0.09549999999999992,0.10993000000000001,0.10916000000000001,0.0,207.505,207.39499999999998,204.4,204.4,0.0,0.0
6,0.0,0.0,0.0,1.0,1.0,0.0,0.0,1.0,0.0,100.0,1.0,1.1856,26.0,0.0,0.0,0.0,59.999996,0.0,26.0,26.0,26.0,26.0,-0.107875,0.29400000000000004,-0.0033,293.457,-2.6456,-2.792111111111111,-1.5559,-1.5809000000000002,-255.65,216.215,190.869125,0.0,0.0,0.0,0.0,0.01323333333333332,-5.498166666666667,-5.498166666666667,-0.53,0.06699999999999995,-0.06211111111111123,-0.5470000000000002,66.37,-0.08,-0.2137,0.7620000000000005,100.0,1.0,1.0,204.81666666666666,0.0,0.0,0.0,0.0,0.0,0.0,0.0,8681.5,0.0,55.0,5.0,238.90333333333334,0.0,0.0,0.0,0.0,0.0,0.0,0.0,0.0,0.30600000000000094,0.30600000000000094,0.0,0.0,0.0,55.0,616.79921,10000.0,85.000001,85.000001,85.000001,85.000001,395.0,0.0,0.0,0.0,1.0,166.665,53.177,53.177,48.676,48.676,34.0,-27.825,20.618,-33.07666666666667,22.572499999999998,0.0,1782.183,0.05000000000000071,100.0,27.628,26.881,42.673,41.594,0.0,0.0,100.0,0.0,0.0,0.0,0.0,3196.714285714286,2868.4,4136.125,4010.3,305.17,305.49225,314.8135,314.859,21.8156,20.5445,21.8497,21.3653,314.999998,314.999998,324.999988,324.999988,99.55754285714286,99.50731666666667,99.56644285714286,99.5457,-0.006000000000000005,-0.1233333333333333,-0.20083333333333334,0.008833333333333334,-0.054999999999999716,-0.04833333333333201,1.5469999999999997,1.573,37.348,29.403,37.56,34.533,55.726,34.661500000000004,59.406,51.832,53.693,33.852000000000004,58.028999999999996,50.192499999999995,52.888,33.444,57.989,49.621,-0.0605,-0.07450000000000001,0.10576500000000001,0.101135,0.0,207.935,207.845,204.81666666666666,204.81666666666666,0.0,0.0
7,0.0,0.0,0.0,1.0,1.0,0.0,0.0,1.0,0.0,100.0,1.0,1.1856,26.0,0.0,0.0,0.0,59.999996,0.0,26.0,26.0,26.0,26.0,-0.072875,0.28700000000000014,0.018225,293.182,-2.6135,-2.7293333333333334,-1.5143,-1.6257000000000001,-252.46,216.1925,190.849875,0.0,0.0,0.0,0.0,0.015100000000000002,-5.498166666666667,-5.498166666666667,-0.5343,-0.017000000000000126,-0.04899999999999993,-0.17300000000000004,66.508,-0.0639,-0.22387500000000002,0.4039999999999999,100.0,1.0,1.0,205.23000000000002,0.0,0.0,0.0,0.0,0.0,0.0,0.0,8698.9,0.0,55.0,5.0,239.4,1.0,0.0,0.0,0.0,0.0,0.0,0.0,0.0,0.3539999999999992,0.3539999999999992,0.0,0.0,1.0,55.0,616.79921,10000.0,85.000001,85.000001,85.000001,85.000001,395.0,0.0,0.0,0.0,1.0,333.33500000000004,52.765,52.765,48.813,48.813,34.0,-26.947499999999998,22.024,-31.556666666666665,25.2225,0.0,1782.133,-0.19500000000000028,100.0,27.797,26.923000000000002,42.732,41.867000000000004,0.0,0.0,100.0,0.0,0.0,0.0,0.0,3297.4285714285716,2967.8,4093.625,4024.5,304.8115,305.2535,314.8675,314.76075,21.8248,20.5494,21.8596,21.3737,314.999998,314.999998,324.999988,324.999988,99.55755714285715,99.50733333333334,99.56658571428571,99.54584285714286,0.03175000000000017,-0.09366666666666679,-0.185,0.043666666666666666,-0.054999999999999716,-0.04999999999999716,1.5190000000000001,1.5470000000000002,37.405,29.433666666666667,37.622,34.585499999999996,55.712,34.701,59.445,51.8935,53.68,33.8885,58.0655,50.251,52.873999999999995,33.4785,58.022999999999996,49.678333333333335,-0.08949999999999991,-0.05500000000000016,0.10736000000000001,0.10656,0.0,208.325,208.29000000000002,205.23000000000002,205.23000000000002,0.0,0.0
8,0.0,0.0,0.0,1.0,1.0,0.0,0.0,1.0,0.0,100.0,1.0,1.1856,26.0,0.0,0.0,0.0,59.999996,0.0,26.0,26.0,26.0,26.0,-0.035250000000000004,0.2985,0.03275,293.472,-2.6967,-2.7158888888888892,-1.4997500000000001,-1.5498,-249.06,216.16750000000002,190.829375,0.0,0.0,0.0,0.0,0.017066666666666563,-5.498166666666667,-5.498166666666667,-0.5344,-0.5780000000000001,-0.029888888888888854,0.7829999999999999,66.654,-0.0456,-0.21295,-0.08399999999999963,100.0,1.0,1.0,205.60666666666668,0.0,0.0,0.0,0.0,0.0,0.0,0.0,8714.9,0.0,55.0,5.0,239.92666666666668,0.0,0.0,0.0,0.0,0.0,0.0,0.0,0.0,0.40500000000000114,0.40500000000000114,0.0,0.0,0.0,55.0,616.79921,10000.0,85.000001,85.000001,85.000001,85.000001,395.0,0.0,0.0,0.0,1.0,166.665,53.711,53.711,48.111,48.111,34.0,-23.3175,22.944,-30.133333333333333,26.8925,0.0,1782.085,-0.3550000000000004,100.0,27.451999999999998,26.735,42.785,41.889,0.0,0.0,100.0,0.0,0.0,0.0,0.0,2906.4285714285716,3005.0,4127.375,4187.2,305.9775,305.3365,314.67725,314.4475,21.8344,20.5545,21.87,21.3826,314.999998,314.999998,324.999988,324.999988,99.55755714285715,99.50733333333334,99.56671428571428,99.54597142857143,0.048249999999999904,-0.07066666666666666,-0.15016666666666667,0.07083333333333333,-0.03166666666666629,-0.051666666666669414,1.5089999999999995,1.5070000000000001,37.465,29.466,37.688,34.6415,55.697,34.737,59.482,51.9505,53.666,33.9215,58.1,50.306,52.858999999999995,33.51,58.0545,49.732,-0.09799999999999986,-0.03849999999999998,0.11080500000000001,0.104025,0.0,208.745,208.75,205.60666666666668,205.60666666666668,0.0,0.0
9,0.0,0.0,0.0,1.0,1.0,0.0,0.0,1.0,0.0,100.0,1.0,1.1856,26.0,0.0,0.0,0.0,59.999996,0.0,26.0,26.0,26.0,26.0,-0.01525,0.28269999999999995,-0.01335,293.091,-2.6268,-2.716555555555556,-1.55505,-1.5532,-245.66,216.14,190.80825,0.0,0.0,0.0,0.0,0.019033333333333347,-5.498166666666667,-5.498166666666667,-0.5408000000000001,0.6839999999999999,-0.03400000000000025,-0.383,66.79599999999999,-0.0238,-0.21575,-0.16999999999999993,100.0,1.0,1.0,206.16,0.0,0.0,0.0,0.0,0.0,0.0,0.0,8738.4,0.0,55.0,5.0,240.43666666666667,1.0,0.0,0.0,0.0,0.0,0.0,0.0,0.0,0.4559999999999995,0.4559999999999995,0.0,0.0,1.0,55.0,616.79921,10000.0,85.000001,85.000001,85.000001,85.000001,395.0,0.0,0.0,0.0,1.0,166.665,52.399,52.399,49.164,49.164,34.0,-25.8475,23.524,-28.75,26.1625,0.0,1782.034,-0.4549999999999983,100.0,27.873,27.354,42.333,41.971000000000004,0.0,0.0,100.0,0.0,0.0,0.0,0.0,3349.857142857143,3002.2,4043.125,4051.4,304.671,305.098,315.092,314.80225,21.8441,20.5599,21.8804,21.3915,314.999998,314.999998,324.999988,324.999988,99.55755714285715,99.50735,99.56685714285715,99.54611428571428,0.06875000000000009,-0.06299999999999994,-0.13366666666666666,0.08133333333333333,-0.051666666666669414,-0.03999999999999915,1.572,1.5670000000000002,37.525999999999996,29.499333333333333,37.751999999999995,34.697,55.686,34.7765,59.518,52.01,53.655,33.958,58.1335,50.3635,52.847,33.545,58.085,49.788,-0.11650000000000005,-0.04800000000000004,0.10524000000000001,0.09667,0.0,209.23000000000002,209.22500000000002,206.16,206.16,0.0,0.0
10,0.0,0.0,0.0,1.0,1.0,0.0,0.0,1.0,0.0,100.0,1.0,1.1856,26.0,0.0,0.0,0.0,59.999996,0.0,26.0,26.0,26.0,26.0,0.0105,0.27560000000000007,0.0565,293.015,-2.7016999999999998,-2.7065555555555556,-1.5388000000000002,-1.5319,-242.25,216.1125,190.7875,0.0,0.0,0.0,0.0,0.02103333333333335,-5.498166666666667,-5.498166666666667,-0.5203,-0.653,0.012444444444444258,1.768,66.943,-0.0036000000000000003,-0.20805,-0.532,100.0,1.0,1.0,206.42666666666668,0.0,0.0,0.0,0.0,0.0,0.0,0.0,8749.6,0.0,55.0,5.0,240.96333333333334,0.0,0.0,0.0,0.0,0.0,0.0,1.0,0.0,0.5069999999999979,0.5069999999999979,0.0,0.0,0.0,55.0,616.79921,10000.0,85.000001,85.000001,85.000001,85.000001,395.0,0.0,0.0,0.0,1.0,166.665,53.497,53.497,47.668,47.668,34.0,-20.662499999999998,24.067999999999998,-29.403333333333336,30.785,0.0,1781.982,-0.5850000000000009,100.0,27.75,27.16,42.897,42.635,0.0,0.0,100.0,0.0,0.0,0.0,0.0,2814.4285714285716,2986.4,4213.25,4324.4,306.235,305.3955,314.492,314.126,21.8537,20.5652,21.891,21.4007,314.999998,314.999998,324.999988,324.999988,99.55758571428571,99.50735,99.56701428571428,99.54625714285714,0.09724999999999984,-0.03600000000000003,-0.10933333333333332,0.12366666666666667,-0.030000000000001137,-0.05666666666667197,1.4769999999999994,1.462,37.586,29.532333333333334,37.819,34.7545,55.674,34.8135,59.559,52.0745,53.644,33.9915,58.1715,50.425,52.834,33.5775,58.1195,49.84866666666667,-0.123,-0.027499999999999858,0.110585,0.111005,0.0,209.625,209.66,206.42666666666668,206.42666666666668,0.0,0.0
11,0.0,0.0,0.0,1.0,1.0,0.0,0.0,1.0,0.0,100.0,1.0,1.1856,26.0,0.0,0.0,0.0,59.999996,0.0,26.0,26.0,26.0,26.0,0.029750000000000002,0.27459999999999996,-0.06485,293.488,-2.7058,-2.686111111111111,-1.5911,-1.5232999999999999,-239.03,216.0875,190.768,0.0,0.0,0.0,0.0,0.022599999999999953,-5.498166666666667,-5.498166666666667,-0.5621,-0.26049999999999995,0.03344444444444439,0.2370000000000001,67.07300000000001,0.0143,-0.23767500000000003,-0.6579999999999995,100.0,1.0,1.0,207.13333333333333,0.0,0.0,0.0,0.0,0.0,0.0,0.0,8779.6,0.0,55.0,5.0,241.43666666666667,1.0,0.0,0.0,0.0,0.0,0.0,1.0,0.0,0.5549999999999997,0.5549999999999997,0.0,0.0,1.0,55.0,616.79921,10000.0,85.000001,85.000001,85.000001,85.000001,395.0,0.0,0.0,0.0,1.0,166.665,52.78,52.78,49.271,49.271,34.0,-21.6925,26.596,-24.066666666666663,27.075000000000003,0.0,1781.934,-0.6499999999999986,100.0,27.622,27.466,42.369,42.59,0.0,0.0,100.0,0.0,0.0,0.0,0.0,2998.4285714285716,3186.0,3683.125,3873.9,305.678,304.716,315.91325,315.242,21.8626,20.5703,21.9007,21.4091,314.999998,314.999998,324.999988,324.999988,99.55758571428571,99.50736666666667,99.56714285714285,99.5464,0.11149999999999993,-0.018333333333333313,-0.092,0.14183333333333334,-0.030000000000001137,-0.054999999999999716,1.6390000000000002,1.6139999999999999,37.641,29.564,37.879000000000005,34.807,55.661,34.849000000000004,59.5905,52.131,53.631,34.0245,58.2005,50.4795,52.821,33.609,58.146,49.902,-0.127,-0.028500000000000192,0.10833000000000001,0.10876000000000001,0.0,210.015,210.06,207.13333333333333,207.13333333333333,0.0,0.0
12,0.0,0.0,0.0,1.0,1.0,0.0,0.0,1.0,0.0,100.0,1.0,1.1856,26.0,0.0,0.0,0.0,59.999996,0.0,26.0,26.0,26.0,26.0,0.052625,0.29180000000000006,0.0164,292.862,-2.7554,-2.682777777777778,-1.55205,-1.5266000000000002,-235.81,216.0625,190.74725,0.0,0.0,0.0,0.0,0.025466666666666526,-5.498166666666667,-5.498166666666667,-0.5473,0.30499999999999994,0.018444444444444263,0.6579999999999999,67.21000000000001,0.0297,-0.20752500000000002,-0.6920000000000002,100.0,1.0,1.0,207.32,0.0,0.0,0.0,0.0,0.0,0.0,0.0,8787.5,0.0,55.0,5.0,241.92666666666668,0.0,0.0,0.0,0.0,0.0,0.0,1.0,0.0,0.602999999999998,0.602999999999998,0.0,0.0,0.0,55.0,616.79921,10000.0,85.000001,85.000001,85.000001,85.000001,395.0,0.0,0.0,0.0,1.0,166.665,52.719,52.719,47.897,47.897,34.0,-21.7675,26.956,-26.496666666666666,31.2525,0.0,1781.887,-0.6550000000000011,100.0,27.596,27.651,42.376,42.505,0.0,0.0,100.0,0.0,0.0,0.0,0.0,3029.714285714286,3198.8,4177.125,4227.5,305.5925,304.70625,314.65775,314.4135,21.8714,20.5754,21.9105,21.4175,314.999998,314.999998,324.999988,324.999988,99.5576,99.50736666666667,99.56727142857143,99.54652857142857,0.12650000000000006,-0.011333333333333195,-0.06333333333333334,0.155,-0.046666666666666856,-0.05333333333332746,1.5389999999999997,1.5110000000000001,37.696,29.596333333333334,37.94,34.8595,55.65,34.885,59.6255,52.1885,53.620999999999995,34.0575,58.2335,50.5345,52.81,33.6405,58.176,49.956,-0.12399999999999989,-0.033500000000000085,0.10258,0.10783000000000001,0.0,210.465,210.51999999999998,207.32,207.32,0.0,0.0
13,0.0,0.0,0.0,1.0,1.0,0.0,0.0,1.0,0.0,100.0,1.0,1.1856,26.0,0.0,0.0,0.0,59.999996,0.0,26.0,26.0,26.0,26.0,0.079125,0.2876000000000001,0.034975,292.526,-2.7399,-2.6706666666666665,-1.62375,-1.5094,-232.38,216.0375,190.7255,0.0,0.0,0.0,0.0,0.026766666666666605,-5.498166666666667,-5.498166666666667,-0.5395,-0.0515000000000001,0.02066666666666661,-0.536,67.35300000000001,0.0385,-0.216225,-0.7779999999999996,100.0,1.0,1.0,207.70333333333332,0.0,0.0,0.0,0.0,0.0,0.0,0.0,8803.8,0.0,55.0,5.0,242.44,1.0,0.0,0.0,0.0,0.0,0.0,1.0,0.0,0.6539999999999999,0.6539999999999999,0.0,0.0,1.0,55.0,616.79921,10000.0,85.000001,85.000001,85.000001,85.000001,395.0,0.0,0.0,0.0,1.0,333.33500000000004,52.444,52.444,47.867,47.867,34.0,-21.9725,26.688,-28.14,32.09,0.0,1781.834,-0.8599999999999994,100.0,27.678,27.962,42.501,43.083,0.0,0.0,100.0,0.0,0.0,0.0,0.0,3161.5714285714284,3088.3,4225.0,4292.9,305.3395,304.8505,314.6195,314.14625,21.8809,20.5809,21.921,21.4267,314.999998,314.999998,324.999988,324.999988,99.55761428571428,99.50736666666667,99.56741428571429,99.54667142857143,0.14000000000000012,0.004999999999999893,-0.0675,0.15883333333333335,-0.04333333333332945,-0.05333333333332746,1.5119999999999996,1.4805,37.756,29.631,38.006,34.917,55.641,34.923,59.664,52.2525,53.611999999999995,34.093,58.269,50.596000000000004,52.8,33.674,58.2085,50.016333333333336,-0.1459999999999999,-0.01200000000000001,0.10482500000000002,0.111835,0.0,210.9,210.96,207.70333333333332,207.70333333333332,0.0,0.0
14,0.0,0.0,0.0,1.0,1.0,0.0,0.0,1.0,0.0,100.0,1.0,1.1856,26.0,0.0,0.0,0.0,59.999996,0.0,26.0,26.0,26.0,26.0,0.097625,0.27370000000000005,-0.014375,292.847,-2.7366,-2.6135555555555556,-1.6003500000000002,-1.51,-228.74,216.0125,190.703125,0.0,0.0,0.0,0.0,0.028899999999999926,-5.498166666666667,-5.498166666666667,-0.5484,-0.13450000000000006,0.051444444444444404,-0.14100000000000001,67.501,0.049800000000000004,-0.227325,-0.9580000000000002,100.0,1.0,1.0,208.24666666666667,0.0,0.0,0.0,0.0,0.0,0.0,0.0,8826.8,0.0,55.0,5.0,242.97333333333336,0.0,0.0,0.0,0.0,0.0,0.0,1.0,0.0,0.7079999999999984,0.7079999999999984,0.0,0.0,0.0,55.0,616.79921,10000.0,85.000001,85.000001,85.000001,85.000001,395.0,0.0,0.0,0.0,1.0,166.665,52.673,52.673,48.141,48.141,34.0,-20.43,27.606,-25.37,30.765,0.0,1781.781,-0.9649999999999999,100.0,27.485,27.974,42.422,43.266999999999996,0.0,0.0,100.0,0.0,0.0,0.0,0.0,3019.285714285714,3168.4,3982.625,4165.3,305.759,304.62725,315.174,314.48675,21.8909,20.5868,21.932,21.4364,314.999998,314.999998,324.999988,324.999988,99.55764285714285,99.50736666666667,99.56757142857143,99.54682857142858,0.14875000000000016,0.02066666666666661,-0.06016666666666667,0.1605,-0.041666666666671404,-0.03166666666666629,1.561,1.536,37.818,29.667333333333332,38.075,34.9775,55.632,34.963499999999996,59.702,52.319,53.602999999999994,34.129999999999995,58.3045,50.6605,52.789,33.71,58.2405,50.07933333333334,-0.15149999999999997,0.0009999999999998899,0.10772500000000002,0.102925,0.0,211.34,211.4,208.24666666666667,208.24666666666667,0.0,0.0
15,0.0,0.0,0.0,1.0,1.0,0.0,0.0,1.0,0.0,100.0,1.0,1.1856,26.0,0.0,0.0,0.0,59.999996,0.0,26.0,26.0,26.0,26.0,0.104125,0.2813000000000001,0.01165,292.862,-2.7088,-2.576,-1.62945,-1.453,-225.69,215.995,190.684,0.0,0.0,0.0,0.0,0.03066666666666651,-5.498166666666667,-5.498166666666667,-0.5395,0.28400000000000003,0.08211111111111102,1.074,67.625,0.0632,-0.2083,-1.2000000000000002,100.0,1.0,1.0,208.62,0.0,0.0,0.0,0.0,0.0,0.0,0.0,8842.6,0.0,55.0,5.0,243.42000000000002,1.0,0.0,0.0,0.0,0.0,0.0,1.0,0.0,0.7530000000000001,0.7530000000000001,0.0,0.0,1.0,55.0,616.79921,10000.0,85.000001,85.000001,85.000001,85.000001,395.0,0.0,0.0,0.0,1.0,166.665,52.841,52.841,48.187,48.187,34.0,-17.895,28.27,-24.396666666666665,33.6475,0.0,1781.737,-0.9899999999999984,100.0,27.663,27.858,42.274,43.224000000000004,0.0,0.0,100.0,0.0,0.0,0.0,0.0,2797.285714285714,3232.1,3944.0,4387.9,306.21,304.6045,315.24275,314.05175,21.8992,20.5917,21.9411,21.4444,314.999998,314.999998,324.999988,324.999988,99.55765714285714,99.50736666666667,99.5677,99.54695714285714,0.16825,0.034666666666666845,-0.036833333333333336,0.19266666666666665,-0.045000000000001705,-0.04333333333332945,1.545,1.505,37.870000000000005,29.698,38.132,35.0275,55.623999999999995,34.9975,59.7325,52.3745,53.595,34.161500000000004,58.332499999999996,50.714,52.781,33.74,58.2655,50.132,-0.1499999999999999,-0.000500000000000167,0.10891,0.104425,0.0,211.735,211.81,208.62,208.62,0.0,0.0
16,0.0,0.0,0.0,1.0,1.0,0.0,0.0,1.0,0.0,100.0,1.0,1.1856,26.0,0.0,0.0,0.0,59.999996,0.0,26.0,26.0,26.0,26.0,0.1325,0.2692000000000001,-0.052675,292.862,-2.8096,-2.5789999999999997,-1.6005,-1.4521,-222.24,215.97750000000002,190.662,0.0,0.0,0.0,0.0,0.03266666666666651,-5.498166666666667,-5.498166666666667,-0.5602,-0.71,0.06888888888888878,-1.0019999999999998,67.765,0.076,-0.22465000000000002,-1.2119999999999997,100.0,1.0,1.0,209.04000000000002,0.0,0.0,0.0,0.0,0.0,0.0,0.0,8860.4,0.0,55.0,5.0,243.92666666666668,0.0,0.0,0.0,0.0,0.0,0.0,1.0,0.0,0.8039999999999985,0.8039999999999985,0.0,0.0,0.0,55.0,616.79921,10000.0,85.000001,85.000001,85.000001,85.000001,395.0,0.0,0.0,0.0,1.0,333.33500000000004,52.78,52.78,47.897,47.897,34.0,-20.105,28.137999999999998,-23.403333333333336,31.9025,0.0,1781.684,-0.8900000000000006,100.0,27.16,28.117,42.441,43.459,0.0,0.0,100.0,0.0,0.0,0.0,0.0,3002.142857142857,3197.3,3970.25,4141.5,305.911,304.5665,315.21975,314.56275,21.9084,20.5972,21.9516,21.4535,314.999998,314.999998,324.999988,324.999988,99.55767142857142,99.50738333333334,99.56782857142858,99.5471,0.16625000000000023,0.034666666666666845,-0.0235,0.20133333333333334,-0.054999999999999716,-0.04833333333333201,1.569,1.516,37.927,29.732666666666667,38.198,35.0845,55.611999999999995,35.0375,59.769999999999996,52.4375,53.583,34.198499999999996,58.3675,50.7745,52.768,33.7755,58.2975,50.19133333333333,-0.14849999999999985,-0.0024999999999999467,0.10714000000000001,0.11099,0.0,212.13,212.21,209.04000000000002,209.04000000000002,0.0,0.0
17,0.0,0.0,0.0,1.0,1.0,0.0,0.0,1.0,0.0,100.0,1.0,1.1856,26.0,0.0,0.0,0.0,59.999996,0.0,26.0,26.0,26.0,26.0,0.10675,0.2855000000000001,-0.019375,292.511,-2.7648,-2.5655555555555556,-1.64155,-1.4755,-218.78,215.9625,190.639375,0.0,0.0,0.0,0.0,0.03466666666666651,-5.498166666666667,-5.498166666666667,-0.5498000000000001,0.5365,0.05044444444444429,0.6589999999999998,67.904,0.08120000000000001,-0.20575000000000002,-1.194,100.0,1.0,1.0,209.43666666666667,0.0,0.0,0.0,0.0,0.0,0.0,0.0,8877.3,0.0,55.0,5.0,244.42333333333335,1.0,0.0,0.0,0.0,0.0,0.0,1.0,0.0,0.8550000000000004,0.8550000000000004,0.0,0.0,1.0,55.0,616.79921,10000.0,85.000001,85.000001,85.000001,85.000001,395.0,0.0,0.0,0.0,1.0,166.665,52.475,52.475,47.821,47.821,34.0,-19.0575,27.88,-25.326666666666664,34.150000000000006,0.0,1781.635,-0.9499999999999993,100.0,27.803,28.278,42.3,43.363,0.0,0.0,100.0,0.0,0.0,0.0,0.0,2981.857142857143,3159.4,4197.375,4323.5,305.7485,304.84725,314.7215,314.24875,21.9178,20.602899999999998,21.9619,21.4626,314.999998,314.999998,324.999988,324.999988,99.5577,99.5074,99.56797142857143,99.54724285714286,0.18325000000000014,0.045666666666666966,-0.017333333333333333,0.20750000000000002,-0.02833333333332888,-0.05833333333333002,1.548,1.5,37.986000000000004,29.768333333333334,38.262,35.1415,55.605000000000004,35.0785,59.8045,52.4995,53.577,34.2365,58.399,50.8345,52.76,33.812,58.326,50.25033333333333,-0.15049999999999986,-0.010000000000000231,0.11367000000000001,0.10409500000000001,0.0,212.57999999999998,212.675,209.43666666666667,209.43666666666667,0.0,0.0
18,0.0,0.0,0.0,1.0,1.0,0.0,0.0,1.0,0.0,100.0,1.0,1.1856,26.0,0.0,0.0,0.0,59.999996,0.0,26.0,26.0,26.0,26.0,0.123625,0.26980000000000004,-0.024225,292.511,-2.7941,-2.541,-1.6553,-1.4229,-215.51999999999998,215.95,190.61825,0.0,0.0,0.0,0.0,0.036566666666666525,-5.498166666666667,-5.498166666666667,-0.5599000000000001,-0.5395000000000001,0.07299999999999995,1.199,68.03399999999999,0.0844,-0.222925,-1.306,100.0,1.0,1.0,209.85333333333335,0.0,0.0,0.0,0.0,0.0,0.0,0.0,8895.0,0.0,55.0,5.0,244.89333333333335,0.0,0.0,0.0,0.0,0.0,0.0,1.0,0.0,0.9029999999999987,0.9029999999999987,0.0,0.0,0.0,55.0,616.79921,10000.0,85.000001,85.000001,85.000001,85.000001,395.0,0.0,0.0,0.0,1.0,166.665,52.399,52.399,47.729,47.729,34.0,-18.8325,30.564,-23.996666666666666,32.55,0.0,1781.587,-1.1799999999999997,100.0,27.563,28.089,42.622,43.775,0.0,0.0,100.0,0.0,0.0,0.0,0.0,2984.0,3367.9,4000.625,4216.5,305.8025,304.28975,315.12625,314.4705,21.9265,20.6082,21.9718,21.4713,314.999998,314.999998,324.999988,324.999988,99.55771428571428,99.5074,99.56811428571429,99.5474,0.1937500000000001,0.06599999999999984,-0.014666666666666666,0.21,-0.03833333333332689,-0.04333333333332945,1.5549999999999997,1.5075,38.041,29.801333333333332,38.324,35.195499999999996,55.597,35.1165,59.84,52.5605,53.569,34.2715,58.432,50.8925,52.751000000000005,33.8455,58.356,50.30733333333333,-0.16549999999999998,0.01200000000000001,0.10770500000000001,0.10522000000000001,0.0,212.96,213.05,209.85333333333335,209.85333333333335,0.0,0.0
19,0.0,0.0,0.0,1.0,1.0,0.0,0.0,1.0,0.0,100.0,1.0,1.1856,26.0,0.0,0.0,0.0,59.999996,0.0,26.0,26.0,26.0,26.0,0.1675,0.3033000000000001,0.030375000000000003,291.992,-2.7744,-2.5203333333333333,-1.6755499999999999,-1.4003,-212.05,215.9425,190.59575,0.0,0.0,0.0,0.0,0.03859999999999997,-5.498166666666667,-5.498166666666667,-0.5506,0.843,0.08599999999999985,-0.43199999999999994,68.17099999999999,0.09480000000000001,-0.2109,-1.5860000000000003,100.0,1.0,1.0,210.25333333333333,0.0,0.0,0.0,0.0,0.0,0.0,0.0,8911.9,0.0,55.0,5.0,245.38666666666666,1.0,0.0,0.0,0.0,0.0,0.0,1.0,0.0,0.9540000000000006,0.9540000000000006,0.0,0.0,1.0,55.0,616.79921,10000.0,85.000001,85.000001,85.000001,85.000001,395.0,0.0,0.0,0.0,1.0,333.33500000000004,51.697,51.697,47.562,47.562,34.0,-18.715,30.712,-24.813333333333333,34.455,0.0,1781.534,-1.4199999999999982,100.0,27.904,28.797,42.266999999999996,43.859,0.0,0.0,100.0,0.0,0.0,0.0,0.0,3123.285714285714,3319.5,4169.125,4401.2,305.4425,304.143,314.843,314.01875,21.936,20.614,21.9821,21.4805,314.999998,314.999998,324.999988,324.999988,99.55774285714286,99.5074,99.56825714285715,99.54754285714286,0.2137500000000001,0.07566666666666677,-0.0036666666666666666,0.21883333333333335,-0.041666666666671404,-0.051666666666669414,1.548,1.5095,38.099999999999994,29.837666666666664,38.388,35.253,55.592,35.1605,59.874,52.6235,53.564,34.3125,58.463499999999996,50.9535,52.744,33.885,58.384,50.367333333333335,-0.1924999999999999,0.03149999999999986,0.10572000000000001,0.10092500000000001,0.0,213.41500000000002,213.535,210.25333333333333,210.25333333333333,0.0,0.0
20,0.0,0.0,0.0,1.0,1.0,0.0,0.0,1.0,0.0,100.0,1.0,1.1856,26.0,0.0,0.0,0.0,59.999996,0.0,26.0,26.0,26.0,26.0,0.20725000000000002,0.27960000000000007,0.05335,292.313,-2.8251,-2.5828888888888892,-1.6095000000000002,-1.5146000000000002,-208.57,215.94,190.573375,0.0,0.0,0.0,0.0,0.04059999999999997,-5.498166666666667,-5.498166666666667,-0.5538000000000001,-1.2345000000000002,0.0968888888888888,0.5760000000000001,68.311,0.1085,-0.22037500000000002,-2.036,100.0,1.0,1.0,210.56666666666666,0.0,0.0,0.0,0.0,0.0,0.0,0.0,8925.1,0.0,55.0,5.0,245.89333333333335,0.0,0.0,0.0,0.0,0.0,0.0,0.0,0.0,1.004999999999999,1.004999999999999,0.0,0.0,0.0,55.0,616.79921,10000.0,85.000001,85.000001,85.000001,85.000001,395.0,0.0,0.0,0.0,1.0,166.665,52.826,52.826,46.875,46.875,34.0,-15.552499999999998,32.074,-22.259999999999998,37.900000000000006,0.0,1781.485,-1.759999999999998,100.0,27.373,28.351,42.841,44.296,0.0,0.0,100.0,0.0,0.0,0.0,0.0,2764.714285714286,3278.8,4082.625,4389.2,306.5195,304.48725,314.824,313.8785,21.945,20.6197,21.9927,21.4898,314.999998,314.999998,324.999988,324.999988,99.55777142857143,99.50741666666667,99.5684,99.54768571428572,0.24124999999999996,0.11333333333333373,0.02266666666666667,0.2415,-0.051666666666669414,-0.05333333333332746,1.5140000000000002,1.4245,38.156,29.872999999999998,38.454,35.3115,55.583,35.204,59.9125,52.6895,53.555,34.3525,58.4995,51.0175,52.733999999999995,33.923,58.4165,50.43033333333334,-0.20700000000000007,0.0625,0.10890000000000001,0.10031000000000001,0.0,213.78,213.945,210.56666666666666,210.56666666666666,0.0,0.0
21,0.0,0.0,0.0,1.0,1.0,0.0,0.0,1.0,0.0,100.0,1.0,1.1856,26.0,0.0,0.0,0.0,59.999996,0.0,26.0,26.0,26.0,26.0,0.21075,0.27900000000000014,-0.060025,292.618,-2.7496,-2.624777777777778,-1.6835499999999999,-1.4649,-205.28,215.94,190.551625,0.0,0.0,0.0,0.0,0.04253333333333331,-5.498166666666667,-5.498166666666667,-0.5790000000000001,0.5209999999999999,0.09199999999999986,0.5179999999999998,68.435,0.1265,-0.22587500000000002,-2.324,100.0,1.0,1.0,211.21333333333334,0.0,0.0,0.0,0.0,0.0,0.0,0.0,8952.5,0.0,55.0,5.0,246.33666666666664,1.0,0.0,0.0,0.0,0.0,0.0,0.0,0.0,1.0530000000000008,1.0530000000000008,0.0,0.0,1.0,55.0,616.79921,10000.0,85.000001,85.000001,85.000001,85.000001,395.0,0.0,0.0,0.0,1.0,333.33500000000004,52.185,52.185,48.294,48.294,34.0,-15.95,32.768,-20.176666666666662,34.8275,0.0,1781.436,-1.3999999999999986,100.0,27.654,28.643,42.102000000000004,43.956,0.0,0.0,100.0,0.0,0.0,0.0,0.0,2900.714285714286,3321.5,3861.625,4125.6,305.9175,304.26575,315.55775,314.7035,21.9537,20.6252,22.0022,21.4983,314.999998,314.999998,324.999988,324.999988,99.5578,99.50743333333334,99.56854285714286,99.54784285714285,0.2410000000000001,0.10599999999999987,0.043500000000000004,0.2671666666666667,-0.04833333333333201,-0.05833333333333002,1.63,1.5565,38.21,29.907333333333334,38.513999999999996,35.3645,55.579,35.248,59.9415,52.747,53.55,34.3935,58.525999999999996,51.073,52.727999999999994,33.9625,58.44,50.48466666666667,-0.20100000000000007,0.044499999999999984,0.10688500000000001,0.10652500000000001,0.0,214.195,214.36,211.21333333333334,211.21333333333334,0.0,0.0
22,0.0,0.0,0.0,1.0,1.0,0.0,0.0,1.0,0.0,100.0,1.0,1.1856,26.0,0.0,0.0,0.0,59.999996,0.0,26.0,26.0,26.0,26.0,0.170875,0.26980000000000004,-0.002425,292.13,-2.746,-2.6163333333333334,-1.68035,-1.4537,-201.57999999999998,215.9475,190.5265,0.0,0.0,0.0,0.0,0.04466666666666652,-5.498166666666667,-5.498166666666667,-0.5571,-0.0004999999999999449,0.10055555555555551,0.7269999999999999,68.581,0.1418,-0.20647500000000002,-1.3600000000000003,100.0,1.0,1.0,211.43333333333334,0.0,0.0,0.0,0.0,0.0,0.0,0.0,8961.9,0.0,55.0,5.0,246.86666666666667,0.0,0.0,0.0,0.0,0.0,0.0,0.0,0.0,1.1069999999999993,1.1069999999999993,0.0,0.0,0.0,55.0,616.79921,10000.0,85.000001,85.000001,85.000001,85.000001,395.0,0.0,0.0,0.0,1.0,166.665,52.429,52.429,47.119,47.119,34.0,-17.947499999999998,28.62,-22.266666666666666,38.8025,0.0,1781.383,0.1700000000000017,100.0,27.666,28.713,42.496,44.323,0.0,0.0,100.0,0.0,0.0,0.0,0.0,2755.285714285714,3270.4,4113.875,4462.3,306.336,304.39575,314.85175,313.89,21.9634,20.6313,22.0133,21.5082,314.999998,314.999998,324.999988,324.999988,99.55782857142857,99.50743333333334,99.5687,99.548,0.16774999999999984,0.021333333333333204,0.043166666666666666,0.26966666666666667,-0.03166666666666629,-0.06333333333333258,1.513,1.46,38.271,29.945999999999998,38.583,35.4265,55.571,35.2935,59.9815,52.817499999999995,53.542,34.4355,58.5625,51.141,52.718,34.003,58.4735,50.55133333333333,-0.0814999999999999,-0.08349999999999991,0.10808000000000001,0.11002500000000001,0.0,214.66,214.8,211.43333333333334,211.43333333333334,0.0,0.0
23,0.0,0.0,0.0,1.0,1.0,0.0,0.0,1.0,0.0,100.0,1.0,1.1856,26.0,0.0,0.0,0.0,59.999996,0.0,26.0,26.0,26.0,26.0,0.116625,0.25439999999999996,-0.014775,292.084,-2.75,-2.5917777777777777,-1.5806499999999999,-1.5459,-198.29,215.96,190.504375,0.0,0.0,0.0,0.0,0.046599999999999975,-5.498166666666667,-5.498166666666667,-0.5761000000000001,-0.31600000000000006,0.06933333333333325,0.06099999999999994,68.707,0.1119,-0.233375,0.012000000000000455,100.0,1.0,1.0,211.93,0.0,0.0,0.0,0.0,0.0,0.0,0.0,8983.0,0.0,55.0,5.0,247.32,1.0,0.0,0.0,0.0,0.0,0.0,0.0,0.0,1.1550000000000011,1.1550000000000011,0.0,0.0,1.0,55.0,616.79921,10000.0,85.000001,85.000001,85.000001,85.000001,395.0,0.0,0.0,0.0,1.0,166.665,51.666,51.666,48.065,48.065,34.0,-23.0425,26.568,-21.626666666666665,33.5025,0.0,1781.334,0.7750000000000021,100.0,28.075,28.672,42.785,44.437,0.0,0.0,100.0,0.0,0.0,0.0,0.0,3142.5714285714284,3281.6,3898.125,4052.2,305.2125,304.44925,315.3025,314.76825,21.9721,20.6368,22.0231,21.5169,314.999998,314.999998,324.999988,324.999988,99.55784285714286,99.50745,99.56882857142857,99.54812857142858,0.12075000000000014,-0.020333333333333314,0.0021666666666666666,0.22483333333333336,-0.036666666666668846,-0.041666666666671404,1.529,1.5175,38.326,29.98,38.644999999999996,35.481,55.561,35.3315,60.015,52.878,53.532,34.47,58.5935,51.1995,52.707,34.036500000000004,58.5015,50.608666666666664,-0.022499999999999964,-0.13750000000000018,0.09598000000000001,0.11446500000000001,0.0,215.10000000000002,215.09,211.93,211.93,0.0,0.0
24,0.0,0.0,0.0,1.0,1.0,0.0,0.0,1.0,0.0,100.0,1.0,1.1856,26.0,0.0,0.0,0.0,59.999996,0.0,26.0,26.0,26.0,26.0,0.013375,0.2812000000000001,-0.10535,292.374,-2.7491,-2.6260000000000003,-1.60095,-1.5093,-194.99,215.9725,190.482,0.0,0.0,0.0,0.0,0.04849999999999999,-5.498166666666667,-5.498166666666667,-0.5788,-0.5185,0.05111111111111111,0.3719999999999999,68.836,0.055900000000000005,-0.21845,0.8520000000000003,100.0,1.0,1.0,212.22,0.0,0.0,0.0,0.0,0.0,0.0,0.0,8995.3,0.0,55.0,5.0,247.78,0.0,0.0,0.0,0.0,0.0,0.0,0.0,0.0,1.2029999999999994,1.2029999999999994,0.0,0.0,0.0,55.0,616.79921,10000.0,85.000001,85.000001,85.000001,85.000001,395.0,0.0,0.0,0.0,1.0,333.33500000000004,52.872,52.872,47.073,47.073,34.0,-22.474999999999998,22.468,-28.763333333333335,29.9125,0.0,1781.285,0.9450000000000003,100.0,27.95,28.282,43.038,44.064,0.0,0.0,100.0,0.0,0.0,0.0,0.0,2839.5714285714284,3031.9,4268.75,4145.8,306.1665,305.236,314.42475,314.638,21.9808,20.642,22.033,21.5255,314.999998,314.999998,324.999988,324.999988,99.55784285714286,99.50745,99.56897142857143,99.54828571428571,0.06800000000000006,-0.07099999999999995,-0.0745,0.1475,-0.03999999999999915,-0.04333333333332945,1.505,1.5230000000000001,38.379999999999995,30.012666666666668,38.706,35.5345,55.548,35.368,60.049,52.9355,53.519999999999996,34.504,58.6255,51.254999999999995,52.694,34.0685,58.53,50.663,0.000500000000000167,-0.15649999999999986,0.10863500000000001,0.104495,0.0,215.525,215.47,212.22,212.22,0.0,0.0
25,0.0,0.0,0.0,1.0,1.0,0.0,0.0,1.0,0.0,100.0,1.0,1.1856,26.0,0.0,0.0,0.0,59.999996,0.0,26.0,26.0,26.0,26.0,-0.039625,0.25839999999999996,-0.045125000000000005,292.374,-2.7786,-2.6256666666666666,-1.58125,-1.5452,-191.47,215.9875,190.456625,0.0,0.0,0.0,0.0,0.05053333333333332,-5.498166666666667,-5.498166666666667,-0.6132000000000001,0.0010000000000000009,0.013333333333333197,-1.8950000000000005,68.967,-0.007,-0.22642500000000002,1.4639999999999995,100.0,1.0,1.0,212.79000000000002,0.0,0.0,0.0,0.0,0.0,0.0,0.0,9019.4,0.0,55.0,5.0,248.25666666666666,1.0,0.0,0.0,0.0,0.0,0.0,0.0,0.0,1.2540000000000013,1.2540000000000013,0.0,0.0,1.0,55.0,616.79921,10000.0,85.000001,85.000001,85.000001,85.000001,395.0,0.0,0.0,0.0,1.0,166.665,51.941,51.941,47.958,47.958,34.0,-29.155,21.73,-29.656666666666666,25.052500000000002,0.0,1781.235,1.0549999999999997,100.0,27.948,28.331,42.965,43.449,0.0,0.0,100.0,0.0,0.0,0.0,0.0,3306.4285714285716,3193.5,4024.5,3954.9,305.0725,304.60225,315.1625,315.1005,21.99,20.6476,22.0433,21.5345,314.999998,314.999998,324.999988,324.999988,99.55785714285715,99.50746666666667,99.56911428571429,99.54842857142857,0.013749999999999929,-0.12233333333333318,-0.145,0.07866666666666668,-0.060000000000002274,-0.03833333333332689,1.5499999999999998,1.6085,38.437,30.047666666666665,38.771,35.5905,55.532,35.4095,60.0835,52.993,53.504000000000005,34.542500000000004,58.6575,51.31,52.678,34.1055,58.559,50.717,0.0015000000000000568,-0.16400000000000015,0.10523,0.10941500000000001,0.0,215.99,215.835,212.79000000000002,212.79000000000002,0.0,0.0
26,0.0,0.0,0.0,1.0,1.0,0.0,0.0,1.0,0.0,100.0,1.0,1.1856,26.0,0.0,0.0,0.0,59.999996,0.0,26.0,26.0,26.0,26.0,-0.112125,0.28390000000000004,0.057725000000000005,291.153,-2.6758,-2.7527777777777778,-1.5886,-1.5825,-187.75,216.0,190.429375,0.0,0.0,0.0,0.0,0.05269999999999997,-5.498166666666667,-5.498166666666667,-0.5700000000000001,0.5945,-0.05111111111111155,-1.4009999999999998,69.112,-0.0648,-0.196975,1.726,100.0,1.0,1.0,212.94666666666666,0.0,0.0,0.0,0.0,0.0,0.0,0.0,9026.0,0.0,55.0,5.0,248.77666666666664,0.0,0.0,0.0,0.0,0.0,0.0,0.0,0.0,1.3079999999999998,1.3079999999999998,0.0,0.0,0.0,55.0,616.79921,10000.0,85.000001,85.000001,85.000001,85.000001,395.0,0.0,0.0,0.0,1.0,166.665,51.483000000000004,51.483000000000004,46.143,46.143,34.0,-29.557499999999997,19.558,-39.02666666666667,26.71,0.0,1781.182,0.875,100.0,29.129,28.65,44.027,43.538,0.0,0.0,100.0,0.0,0.0,0.0,0.0,3328.857142857143,2933.7,4689.375,4396.5,304.85,305.26575,313.5855,314.0275,22.0001,20.6536,22.0546,21.5442,314.999998,314.999998,324.999988,324.999988,99.55785714285715,99.50748333333334,99.56927142857143,99.54858571428572,-0.006999999999999895,-0.1563333333333332,-0.18716666666666665,0.02716666666666667,-0.03166666666666629,-0.03833333333332689,1.4089999999999998,1.466,38.501000000000005,30.085,38.841,35.6515,55.519,35.458,60.1275,53.057,53.492000000000004,34.587,58.698499999999996,51.372,52.665,34.147999999999996,58.596000000000004,50.77733333333333,-0.018000000000000016,-0.1499999999999999,0.094825,0.11004000000000001,0.0,216.46,216.31,212.94666666666666,212.94666666666666,0.0,0.0
27,0.0,0.0,0.0,1.0,1.0,0.0,0.0,1.0,0.0,100.0,1.0,1.1856,26.0,0.0,0.0,0.0,59.999996,0.0,26.0,26.0,26.0,26.0,-0.13725,0.24330000000000007,-0.01365,291.58,-2.6132,-2.7493333333333334,-1.558,-1.6737000000000002,-184.63,216.01,190.40775,0.0,0.0,0.0,0.0,0.05453333333333332,-5.498166666666667,-5.498166666666667,-0.5975,-1.096,-0.0694444444444442,0.4009999999999998,69.22800000000001,-0.0942,-0.24327500000000002,1.5760000000000005,100.0,1.0,1.0,213.42000000000002,0.0,0.0,0.0,0.0,0.0,0.0,0.0,9046.0,0.0,55.0,5.0,249.19666666666666,1.0,0.0,0.0,0.0,0.0,0.0,0.0,0.0,1.352999999999998,1.352999999999998,0.0,0.0,1.0,55.0,616.79921,10000.0,85.000001,85.000001,85.000001,85.000001,395.0,0.0,0.0,0.0,1.0,166.665,51.712,51.712,46.707,46.707,34.0,-28.744999999999997,19.976,-34.586666666666666,24.48,0.0,1781.136,0.7600000000000016,100.0,29.158,28.127,44.943,43.713,0.0,0.0,100.0,0.0,0.0,0.0,0.0,3219.714285714286,3056.4,4175.875,4029.9,304.983,305.19825,314.66175,314.83025,22.0084,20.6584,22.0641,21.5524,314.999998,314.999998,324.999988,324.999988,99.55785714285715,99.5075,99.56941428571429,99.54871428571428,-0.021499999999999853,-0.16066666666666674,-0.2095,0.012666666666666666,-0.04833333333333201,-0.041666666666671404,1.471,1.516,38.553,30.115000000000002,38.900999999999996,35.7025,55.506,35.496,60.164500000000004,53.111000000000004,53.480000000000004,34.622,58.733000000000004,51.423500000000004,52.652,34.1815,58.628,50.827333333333335,-0.021499999999999853,-0.13949999999999996,0.09929500000000001,0.10829000000000001,0.0,216.755,216.62,213.42000000000002,213.42000000000002,0.0,0.0
28,0.0,0.0,0.0,1.0,1.0,0.0,0.0,1.0,0.0,100.0,1.0,1.1856,26.0,0.0,0.0,0.0,59.999996,0.0,26.0,26.0,26.0,26.0,-0.14875,0.27090000000000014,-0.035175000000000005,291.87,-2.6335,-2.7423333333333333,-1.5018500000000001,-1.6408,-181.1,216.01749999999998,190.382375,0.0,0.0,0.0,0.0,0.05656666666666654,-5.498166666666667,-5.498166666666667,-0.6016,0.671,-0.08522222222222231,-0.6859999999999999,69.358,-0.1139,-0.216475,1.5140000000000002,100.0,1.0,1.0,213.93,0.0,0.0,0.0,0.0,0.0,0.0,0.0,9067.7,0.0,55.0,5.0,249.66333333333336,0.0,0.0,0.0,0.0,0.0,0.0,0.0,0.0,1.404,1.404,0.0,0.0,0.0,55.0,616.79921,10000.0,85.000001,85.000001,85.000001,85.000001,395.0,0.0,0.0,0.0,1.0,166.665,51.757999999999996,51.757999999999996,47.516,47.516,34.0,-31.0675,18.344,-35.379999999999995,22.192500000000003,0.0,1781.086,0.629999999999999,100.0,29.165,28.076999999999998,44.265,43.083,0.0,0.0,100.0,0.0,0.0,0.0,0.0,3391.857142857143,2901.7,4185.625,4036.8,304.683,305.46425,314.759,314.9105,22.018,20.6638,22.0744,21.5613,314.999998,314.999998,324.999988,324.999988,99.55787142857143,99.50751666666666,99.56955714285715,99.54885714285714,-0.035499999999999865,-0.17566666666666664,-0.24683333333333335,-0.017833333333333333,-0.05333333333332746,-0.05833333333333002,1.5140000000000002,1.5750000000000002,38.611999999999995,30.149,38.965,35.7585,55.495000000000005,35.54,60.2005,53.1665,53.469,34.6625,58.7665,51.4765,52.64,34.2205,58.658500000000004,50.879,-0.03600000000000003,-0.1280000000000001,0.10829000000000001,0.10169500000000001,0.0,217.21,217.07999999999998,213.93,213.93,0.0,0.0
29,0.0,0.0,0.0,1.0,1.0,0.0,0.0,1.0,0.0,100.0,1.0,1.1856,26.0,0.0,0.0,0.0,59.999996,0.0,26.0,26.0,26.0,26.0,-0.154,0.2550000000000001,0.044075,291.519,-2.57,-2.8018888888888887,-1.5300500000000001,-1.6221,-177.35,216.01999999999998,190.354375,0.0,0.0,0.0,0.0,0.05876666666666652,-5.498166666666667,-5.498166666666667,-0.6084,-0.6925000000000001,-0.08877777777777807,-0.7280000000000002,69.5,-0.1126,-0.22012500000000002,1.2300000000000004,100.0,1.0,1.0,214.21666666666667,0.0,0.0,0.0,0.0,0.0,0.0,0.0,9079.8,0.0,55.0,5.0,250.17333333333335,1.0,0.0,0.0,0.0,0.0,0.0,0.0,0.0,1.4579999999999984,1.4579999999999984,0.0,0.0,1.0,55.0,616.79921,10000.0,85.000001,85.000001,85.000001,85.000001,395.0,0.0,0.0,0.0,1.0,166.665,51.682,51.682,46.692,46.692,34.0,-30.7775,19.362000000000002,-36.96,23.25,0.0,1781.031,0.5199999999999996,100.0,28.943,27.916,44.787,43.305,0.0,0.0,100.0,0.0,0.0,0.0,0.0,3418.0,2978.1,4301.875,4110.6,304.5855,305.153,314.4185,314.64625,22.0279,20.6695,22.0858,21.5711,314.999998,314.999998,324.999988,324.999988,99.55787142857143,99.50755,99.56972857142857,99.54901428571429,-0.03574999999999995,-0.17933333333333312,-0.23783333333333334,-0.0085,-0.04333333333332945,-0.03499999999999659,1.4489999999999998,1.506,38.674,30.184333333333335,39.036,35.819,55.480000000000004,35.585499999999996,60.245,53.2295,53.455,34.704499999999996,58.8085,51.537,52.625,34.2605,58.697,50.938,-0.03949999999999987,-0.11949999999999994,0.10652,0.10859500000000001,0.0,217.575,217.47500000000002,214.21666666666667,214.21666666666667,0.0,0.0
30,0.0,0.0,0.0,1.0,1.0,0.0,0.0,1.0,0.0,100.0,1.0,1.1856,26.0,0.0,0.0,0.0,59.999996,0.0,26.0,26.0,26.0,26.0,-0.167375,0.2672000000000001,0.0565,291.031,-2.6204,-2.696777777777778,-1.47075,-1.7035,-174.22,216.01749999999998,190.331,0.0,0.0,0.0,0.0,0.060566666666666547,-5.498166666666667,-5.498166666666667,-0.6037,0.776,-0.08922222222222231,0.7749999999999999,69.614,-0.1072,-0.21780000000000002,1.0940000000000003,100.0,1.0,1.0,214.59333333333333,0.0,0.0,0.0,0.0,0.0,0.0,0.0,9095.8,0.0,55.0,5.0,250.58333333333334,0.0,0.0,0.0,0.0,0.0,0.0,1.0,0.0,1.5030000000000001,1.5030000000000001,0.0,0.0,0.0,55.0,616.79921,10000.0,85.000001,85.000001,85.000001,85.000001,395.0,0.0,0.0,0.0,1.0,333.33500000000004,50.873,50.873,46.829,46.829,34.0,-30.445,19.79,-35.45,26.1725,0.0,1780.984,0.3200000000000003,100.0,29.901,28.392,44.735,43.188,0.0,0.0,100.0,0.0,0.0,0.0,0.0,3454.714285714286,3064.2,4333.875,4247.1,304.286,305.08275,314.334,314.32025,22.0365,20.6745,22.095,21.5791,314.999998,314.999998,324.999988,324.999988,99.55787142857143,99.50756666666666,99.56985714285715,99.54914285714285,-0.0035000000000000586,-0.15733333333333333,-0.2195,0.005833333333333333,-0.01833333333333087,-0.05833333333333002,1.4609999999999994,1.508,38.727999999999994,30.215666666666664,39.094,35.8695,55.472,35.629,60.2805,53.284,53.447,34.7445,58.842,51.5895,52.616,34.298500000000004,58.7275,50.989,-0.06299999999999994,-0.10749999999999993,0.09982,0.111365,0.0,217.96,217.905,214.59333333333333,214.59333333333333,0.0,0.0
31,0.0,0.0,0.0,1.0,1.0,0.0,0.0,1.0,0.0,100.0,1.0,1.1856,26.0,0.0,0.0,0.0,59.999996,0.0,26.0,26.0,26.0,26.0,-0.130125,0.25970000000000004,0.010075,290.985,-2.691,-2.672555555555556,-1.5231,-1.6726,-170.45999999999998,216.0125,190.30375,0.0,0.0,0.0,0.0,0.06276666666666653,-5.498166666666667,-5.498166666666667,-0.5917,-0.784,-0.07666666666666666,0.6520000000000001,69.754,-0.095,-0.22232500000000002,0.6799999999999997,100.0,1.0,1.0,214.93666666666667,0.0,0.0,0.0,0.0,0.0,0.0,0.0,9110.3,0.0,55.0,5.0,251.09,1.0,0.0,0.0,0.0,0.0,0.0,1.0,0.0,1.5569999999999986,1.5569999999999986,0.0,0.0,1.0,55.0,616.79921,10000.0,85.000001,85.000001,85.000001,85.000001,395.0,0.0,0.0,0.0,1.0,166.665,51.453,51.453,45.609,45.609,34.0,-28.0,20.823999999999998,-35.30333333333333,27.3475,0.0,1780.933,0.20500000000000185,100.0,29.531,28.457,45.381,43.858000000000004,0.0,0.0,100.0,0.0,0.0,0.0,0.0,3203.4285714285716,3156.2,4364.75,4287.9,305.2245,305.042,314.1745,314.34,22.0465,20.6804,22.1064,21.589,314.999998,314.999998,324.999988,324.999988,99.55788571428572,99.50758333333333,99.57002857142857,99.5493,0.003249999999999975,-0.1393333333333333,-0.193,0.029833333333333333,-0.02499999999999858,-0.04333333333332945,1.4450000000000003,1.473,38.791,30.252333333333333,39.165,35.9315,55.457,35.6735,60.323499999999996,53.3455,53.433,34.7855,58.882,51.6485,52.601,34.3375,58.7645,51.04633333333334,-0.0694999999999999,-0.09650000000000025,0.09803500000000001,0.11144000000000001,0.0,218.34,218.285,214.93666666666667,214.93666666666667,0.0,0.0
32,0.0,0.0,0.0,1.0,1.0,0.0,0.0,1.0,0.0,100.0,1.0,1.1856,26.0,0.0,0.0,0.0,59.999996,0.0,26.0,26.0,26.0,26.0,-0.116625,0.2711000000000001,-0.032575,291.229,-2.6424,-2.7134444444444443,-1.5842,-1.5814,-166.89999999999998,216.005,190.278,0.0,0.0,0.0,0.0,0.0648333333333333,-5.498166666666667,-5.498166666666667,-0.6102000000000001,0.1925,-0.1038888888888887,-0.8770000000000002,69.881,-0.08030000000000001,-0.228575,0.6739999999999995,100.0,1.0,1.0,215.46333333333334,0.0,0.0,0.0,0.0,0.0,0.0,0.0,9132.7,0.0,55.0,5.0,251.54333333333335,0.0,0.0,0.0,0.0,0.0,0.0,1.0,0.0,1.6080000000000005,1.6080000000000005,0.0,0.0,0.0,55.0,616.79921,10000.0,85.000001,85.000001,85.000001,85.000001,395.0,0.0,0.0,0.0,1.0,166.665,51.193,51.193,46.646,46.646,34.0,-29.48,20.458,-35.2,24.61,0.0,1780.882,0.10500000000000043,100.0,29.439,28.694,44.815,43.661,0.0,0.0,100.0,0.0,0.0,0.0,0.0,3439.285714285714,2988.5,4313.75,4139.6,304.561,305.2185,314.5435,314.741,22.056,20.686,22.1169,21.5981,314.999998,314.999998,324.999988,324.999988,99.55788571428572,99.5076,99.57017142857143,99.54944285714285,0.01200000000000001,-0.1343333333333332,-0.19883333333333333,0.030166666666666668,-0.05833333333333002,-0.041666666666671404,1.524,1.55,38.849999999999994,30.287666666666667,39.230000000000004,35.9885,55.444,35.717,60.3595,53.4025,53.421,34.8255,58.916,51.703,52.588,34.376,58.795500000000004,51.099333333333334,-0.0754999999999999,-0.09699999999999998,0.10418000000000001,0.105745,0.0,218.78,218.7,215.46333333333334,215.46333333333334,0.0,0.0
33,0.0,0.0,0.0,1.0,1.0,0.0,0.0,1.0,0.0,100.0,1.0,1.1856,26.0,0.0,0.0,0.0,59.999996,0.0,26.0,26.0,26.0,26.0,-0.100875,0.26280000000000014,-0.03765,291.351,-2.645,-2.759333333333333,-1.55345,-1.5912000000000002,-163.75,215.995,190.2545,0.0,0.0,0.0,0.0,0.06666666666666654,-5.498166666666667,-5.498166666666667,-0.6109,-0.34450000000000003,-0.0865555555555555,1.429,69.99600000000001,-0.0719,-0.215,0.48600000000000065,100.0,1.0,1.0,215.71666666666667,0.0,0.0,0.0,0.0,0.0,0.0,0.0,9143.5,0.0,55.0,5.0,251.96,1.0,0.0,0.0,0.0,0.0,0.0,1.0,0.0,1.6529999999999987,1.6529999999999987,0.0,0.0,1.0,55.0,616.79921,10000.0,85.000001,85.000001,85.000001,85.000001,395.0,0.0,0.0,0.0,1.0,333.33500000000004,51.819,51.819,46.356,46.356,34.0,-26.395,21.632,-34.64333333333333,26.46,0.0,1780.836,-0.07000000000000028,100.0,29.319,28.286,44.889,43.71,0.0,0.0,100.0,0.0,0.0,0.0,0.0,3160.857142857143,3006.7,4311.0,4290.6,305.2715,305.32,314.4175,314.3415,22.0642,20.6908,22.1262,21.6063,314.999998,314.999998,324.999988,324.999988,99.55788571428572,99.50761666666666,99.57031428571429,99.54957142857143,0.023499999999999854,-0.11533333333333329,-0.1875,0.036166666666666666,-0.01999999999999602,-0.060000000000002274,1.4699999999999998,1.49,38.900999999999996,30.317333333333334,39.289,36.039,55.432,35.7525,60.3935,53.454499999999996,53.409,34.858000000000004,58.9475,51.753,52.575,34.4065,58.8245,51.147999999999996,-0.08699999999999997,-0.07450000000000001,0.108365,0.1038,0.0,219.10000000000002,219.06,215.71666666666667,215.71666666666667,0.0,0.0
34,0.0,0.0,0.0,1.0,1.0,0.0,0.0,1.0,0.0,100.0,1.0,1.1856,26.0,0.0,0.0,0.0,59.999996,0.0,26.0,26.0,26.0,26.0,-0.076875,0.2630000000000001,-0.083375,291.718,-2.7164,-2.7095555555555557,-1.59035,-1.6128,-160.18,215.98000000000002,190.226625,0.0,0.0,0.0,0.0,0.06873333333333331,-5.498166666666667,-5.498166666666667,-0.6435000000000001,-0.831,-0.056333333333333346,-0.129,70.124,-0.054200000000000005,-0.22745,0.3380000000000001,100.0,1.0,1.0,216.18666666666667,0.0,0.0,0.0,0.0,0.0,0.0,0.0,9163.3,0.0,55.0,5.0,252.42000000000002,0.0,0.0,0.0,0.0,0.0,0.0,1.0,0.0,1.7040000000000006,1.7040000000000006,0.0,0.0,0.0,55.0,616.79921,10000.0,85.000001,85.000001,85.000001,85.000001,395.0,0.0,0.0,0.0,1.0,166.665,51.987,51.987,47.363,47.363,34.0,-27.655,21.09,-32.3,26.53,0.0,1780.786,-0.03999999999999915,100.0,28.912,28.116,44.501,43.887,0.0,0.0,100.0,0.0,0.0,0.0,0.0,3268.0,2934.0,4100.75,4114.4,305.054,305.43475,314.97425,314.63925,22.0735,20.6962,22.1366,21.6155,314.999998,314.999998,324.999988,324.999988,99.55788571428572,99.50763333333333,99.57045714285714,99.54972857142857,0.03125,-0.10599999999999987,-0.1775,0.05683333333333334,-0.05833333333333002,-0.03833333333332689,1.5149999999999997,1.534,38.959,30.351333333333336,39.354,36.097,55.417,35.7915,60.4285,53.5135,53.394999999999996,34.894,58.9805,51.81,52.561,34.441,58.854,51.20333333333333,-0.08599999999999985,-0.07600000000000007,0.10522500000000001,0.10887000000000001,0.0,219.47500000000002,219.44,216.18666666666667,216.18666666666667,0.0,0.0
35,0.0,0.0,0.0,1.0,1.0,0.0,0.0,1.0,0.0,100.0,1.0,1.1856,26.0,0.0,0.0,0.0,59.999996,0.0,26.0,26.0,26.0,26.0,-0.054,0.26160000000000005,-0.033175,291.779,-2.7168,-2.6934444444444443,-1.56,-1.6206,-156.6,215.965,190.19675,0.0,0.0,0.0,0.0,0.0708333333333333,-5.498166666666667,-5.498166666666667,-0.6871,-0.486,-0.062333333333333574,-0.014000000000000234,70.251,-0.037000000000000005,-0.2315,0.14000000000000057,100.0,1.0,1.0,216.64,0.0,0.0,0.0,0.0,0.0,0.0,0.0,9182.5,0.0,55.0,5.0,252.88,1.0,0.0,0.0,0.0,0.0,0.0,1.0,0.0,1.754999999999999,1.754999999999999,0.0,0.0,1.0,55.0,616.79921,10000.0,85.000001,85.000001,85.000001,85.000001,395.0,0.0,0.0,0.0,1.0,333.33500000000004,51.59,51.59,46.997,46.997,34.0,-26.6725,24.939999999999998,-29.353333333333335,26.73,0.0,1780.732,-0.019999999999999574,100.0,28.759,28.258,44.233000000000004,43.399,0.0,0.0,100.0,0.0,0.0,0.0,0.0,3246.0,3323.8,4048.375,3939.8,305.1515,304.389,314.99975,315.1355,22.0825,20.7018,22.147,21.6245,314.999998,314.999998,324.999988,324.999988,99.5579,99.50765,99.57061428571429,99.54988571428571,0.04800000000000004,-0.08633333333333315,-0.13633333333333333,0.08983333333333333,-0.060000000000002274,-0.05833333333333002,1.5579999999999998,1.5554999999999999,39.016,30.386333333333333,39.418,36.1535,55.4,35.835,60.4655,53.572,53.379000000000005,34.934,59.0145,51.866,52.544,34.479,58.8845,51.257666666666665,-0.08949999999999991,-0.07600000000000007,0.099305,0.11155000000000001,0.0,219.875,219.84,216.64,216.64,0.0,0.0
36,0.0,0.0,0.0,1.0,1.0,0.0,0.0,1.0,0.0,100.0,1.0,1.1856,26.0,0.0,0.0,0.0,59.999996,0.0,26.0,26.0,26.0,26.0,-0.03175,0.2563,0.0548,290.756,-2.7309,-2.648111111111111,-1.5343499999999999,-1.6101,-153.01,215.95,190.165125,0.0,0.0,0.0,0.0,0.07289999999999996,-5.498166666666667,-5.498166666666667,-0.6644,0.3155,-0.09322222222222232,-1.234,70.381,-0.027200000000000002,-0.200025,0.30600000000000005,100.0,1.0,1.0,216.79666666666668,0.0,0.0,0.0,0.0,0.0,0.0,0.0,9189.2,0.0,55.0,5.0,253.34666666666666,0.0,0.0,0.0,0.0,0.0,0.0,1.0,0.0,1.806000000000001,1.806000000000001,0.0,0.0,0.0,55.0,616.79921,10000.0,85.000001,85.000001,85.000001,85.000001,395.0,0.0,0.0,0.0,1.0,166.665,51.178,51.178,46.126999999999995,46.126999999999995,34.0,-27.685,23.003999999999998,-34.00666666666667,32.067499999999995,0.0,1780.684,-0.06500000000000128,100.0,29.143,28.817,44.287,43.844,0.0,0.0,100.0,0.0,0.0,0.0,0.0,3405.714285714286,3076.0,4545.625,4514.6,304.6715,304.976,313.912,313.72675,22.0918,20.7076,22.1574,21.6338,314.999998,314.999998,324.999988,324.999988,99.55791428571429,99.50765,99.57075714285715,99.55002857142857,0.0625,-0.07666666666666666,-0.13783333333333334,0.09116666666666667,-0.054999999999999716,-0.04333333333332945,1.4159999999999995,1.4224999999999999,39.074,30.422666666666665,39.483999999999995,36.2115,55.39,35.8745,60.5005,53.629,53.369,34.971000000000004,59.0475,51.920500000000004,52.533,34.5145,58.914500000000004,51.311,-0.08899999999999997,-0.07500000000000018,0.10596000000000001,0.11561,0.0,220.315,220.285,216.79666666666668,216.79666666666668,0.0,0.0
