,ABS Active,ABS Enabled,AID Allow Tire Blankets,AID Auto Blip,AID Auto Clutch,AID Auto Shift,AID Fuel Rate,AID Ideal Line,AID Mech Damage,AID Stability,AID Tire Wear Rate,Air Density,Air Temp,Ballast,Best Lap Delta,Best Lap Time,Brake Bias,Brake Pos,Brake Temp FL,Brake Temp FR,Brake Temp RL,Brake Temp RR,CG Accel Lateral,CG Accel Longitudinal,CG Accel Vertical,CG Height,Camber FL,Camber FR,Camber RL,Camber RR,Car Coord X,Car Coord Y,Car Coord Z,Car Damage Front,Car Damage Left,Car Damage Rear,Car Damage Right,Car Pos Norm,Caster FL,Caster FR,Chassis Pitch Angle,Chassis Pitch Rate,Chassis Roll Angle,Chassis Roll Rate,Chassis Velocity X,Chassis Velocity Y,Chassis Velocity Z,Chassis Yaw Rate,Clutch Pos,DRS Active,DRS Available,Drive Train Speed,ERS Heat Charging,ERS Is Charging,ERS Max Energy,ERS Power Level,ERS Recovery Level,Engine Brake Setting,Engine Limiter,Engine RPM,Flags,Fuel Level,Gear,Ground Speed,HR Sample Clock,In Pit,KERS Charge,KERS Deployed Energy,KERS Input,KERS Max Energy,LR Sample Clock,Lap Invalidated,Lap Time,Lap Time2,Last Lap Time,Last Sector Time,MR Sample Clock,Max Fuel,Max Power,Max RPM,Max Sus Travel FL,Max Sus Travel FR,Max Sus Travel RL,Max Sus Travel RR,Max Torque,Max Turbo Boost,Num Tires Off Track,Penalties Enabled,Position,Raw Data Sample Rate,Ride Height FL,Ride Height FR,Ride Height RL,Ride Height RR,Road Temp,Self Align Torque FL,Self Align Torque FR,Self Align Torque RL,Self Align Torque RR,Session Lap Count,Session Time Left,Steering Angle,Surface Grip,Suspension Travel FL,Suspension Travel FR,Suspension Travel RL,Suspension Travel RR,TC Active,TC Enabled,Throttle Pos,Tire Dirt Level FL,Tire Dirt Level FR,Tire Dirt Level RL,Tire Dirt Level RR,Tire Load FL,Tire Load FR,Tire Load RL,Tire Load RR,Tire Loaded Radius FL,Tire Loaded Radius FR,Tire Loaded Radius RL,Tire Loaded Radius RR,Tire Pressure FL,Tire Pressure FR,Tire Pressure RL,Tire Pressure RR,Tire Radius FL,Tire Radius FR,Tire Radius RL,Tire Radius RR,Tire Rubber Grip FL,Tire Rubber Grip FR,Tire Rubber Grip RL,Tire Rubber Grip RR,Tire Slip Angle FL,Tire Slip Angle FR,Tire Slip Angle RL,Tire Slip Angle RR,Tire Slip Ratio FL,Tire Slip Ratio FR,Tire Slip Ratio RL,Tire Slip Ratio RR,Tire Temp Core FL,Tire Temp Core FR,Tire Temp Core RL,Tire Temp Core RR,Tire Temp Inner FL,Tire Temp Inner FR,Tire Temp Inner RL,Tire Temp Inner RR,Tire Temp Middle FL,Tire Temp Middle FR,Tire Temp Middle RL,Tire Temp Middle RR,Tire Temp Outer FL,Tire Temp Outer FR,Tire Temp Outer RL,Tire Temp Outer RR,Toe In FL,Toe In FR,Toe In RL,Toe In RR,Turbo Boost,Wheel Angular Speed FL,Wheel Angular Speed FR,Wheel Angular Speed RL,Wheel Angular Speed RR,Wind Direction,Wind Speed
0,0.0,1.0,0.0,1.0,1.0,0.0,0.0,1.0,0.0,100.0,1.0,1.1856,26.0,0.0,0.0,0.0,59.99999,0.0,26.0,26.0,26.0,26.0,-0.12,0.30100000000000016,0.0206,294.022,-2.69345,-2.6806666666666668,-1.4931,-1.576,-275.72,216.2775,190.987875,0.0,0.0,0.0,0.0,0.0015666666666666667,-5.498166666666667,-5.498166666666667,-0.5509000000000001,1.5394999999999999,-0.03288888888888897,-1.295,65.487,-0.06860000000000001,-0.215375,1.3339999999999996,100.0,1.0,1.0,202.19666666666666,0.0,0.0,0.0,0.0,0.0,0.0,0.0,8570.4,0.0,55.0,5.0,235.72333333333333,0.0,0.0,0.0,0.0,0.0,0.0,0.0,0.0,0.0030000000000001137,0.0030000000000001137,0.0,0.0,0.0,55.0,616.79921,10000.0,85.0,85.0,85.0,85.0,395.0,0.0,0.0,0.0,1.0,20.0,52.734,52.734,49.667,49.667,34.0,-28.125,21.226,-32.68,23.4,0.0,1783.154,0.9649999999999999,100.0,27.745,26.933,40.631,40.215,0.0,1.0,100.0,0.0,0.0,0.0,0.0,3062.142857142857,3263.5,4195.375,3989.3,305.558,304.3376666666667,314.6825,314.83675,21.748,20.5021,21.7325,21.2659,314.99999,314.99999,324.99998,324.99998,99.55741428571429,99.50681666666667,99.56374285714286,99.54331428571429,-0.038249999999999895,-0.15533333333333332,-0.19899999999999995,0.02966666666666673,-0.061666666666667425,-0.05333333333332746,1.5326666666666666,1.58,36.925,29.137999999999998,36.828,33.912,55.757999999999996,34.2585,58.570499999999996,50.9705,53.718,33.4825,57.228,49.36233333333333,52.912,33.0905,57.208,48.799,-0.0020000000000000018,-0.1495000000000002,0.10064000000000001,0.11287000000000001,0.0,205.245,205.135,202.19666666666666,202.19666666666666,0.0,0.0
1,0.0,1.0,0.0,1.0,1.0,0.0,0.0,1.0,0.0,100.0,1.0,1.1856,26.0,0.0,0.0,0.0,59.999996,0.0,26.0,26.0,26.0,26.0,-0.1515,0.3074000000000001,0.2011,293.03,-2.6106,-2.7941111111111114,-1.5041,-1.572,-272.18,216.2775,190.9665,0.0,0.0,0.0,0.0,0.003633333333333334,-5.498166666666667,-5.498166666666667,-0.49870000000000003,-0.8359999999999999,-0.08099999999999996,-0.8599999999999999,65.651,-0.0818,-0.196225,1.67,100.0,1.0,1.0,202.38,0.0,0.0,0.0,0.0,0.0,0.0,0.0,8578.1,0.0,55.0,5.0,236.31,1.0,0.0,0.0,0.0,0.0,0.0,0.0,0.0,0.05699999999999861,0.05699999999999861,0.0,0.0,1.0,55.0,616.79921,10000.0,85.000001,85.000001,85.000001,85.000001,395.0,0.0,0.0,0.0,1.0,166.665,53.528,53.528,48.309,48.309,34.0,-28.752499999999998,16.785999999999998,-36.41666666666667,26.8075,0.0,1783.101,0.9800000000000004,100.0,27.693,26.807,42.921,41.462,0.0,1.0,100.0,0.0,0.0,0.0,0.0,3190.4285714285716,2654.5,4350.875,4678.2,305.198,306.39,314.1745,313.1655,21.7584,20.5074,21.744,21.2755,314.999998,314.999998,324.999988,324.999988,99.55741428571429,99.50685,99.56391428571429,99.54347142857142,-0.03849999999999998,-0.17366666666666664,-0.22283333333333333,-0.0010000000000000009,-0.05333333333332746,-0.03833333333332689,1.405,1.472,36.989999999999995,29.171,36.9,33.972,55.744,34.303,58.621,51.0415,53.705,33.5235,57.2755,49.43033333333334,52.897,33.1295,57.2525,48.86533333333333,0.002000000000000224,-0.15249999999999986,0.105105,0.10551500000000001,0.0,205.73000000000002,205.57999999999998,202.38,202.38,0.0,0.0
2,0.0,1.0,0.0,1.0,1.0,0.0,0.0,1.0,0.0,100.0,1.0,1.1856,26.0,0.0,0.0,0.0,59.999996,0.0,26.0,26.0,26.0,26.0,-0.15762500000000002,0.28090000000000015,-0.026333333333333334,293.686,-2.5769,-2.819777777777778,-1.4682,-1.6305,-269.03,216.275,190.94875,0.0,0.0,0.0,0.0,0.0054666666666666665,-5.498166666666667,-5.498166666666667,-0.5509000000000001,-0.051000000000000156,-0.0732222222222223,1.7430000000000003,65.78399999999999,-0.0969,-0.2554,1.8100000000000005,100.0,1.0,1.0,203.27666666666667,0.0,0.0,0.0,0.0,0.0,0.0,0.0,8616.2,0.0,55.0,5.0,236.79333333333335,0.0,0.0,0.0,0.0,0.0,0.0,0.0,0.0,0.10500000000000043,0.10500000000000043,0.0,0.0,0.0,55.0,616.79921,10000.0,85.000001,85.000001,85.000001,85.000001,395.0,0.0,0.0,0.0,1.0,333.33500000000004,52.382999999999996,52.382999999999996,50.186,50.186,34.0,-31.82,18.824,-30.593333333333334,19.015,0.0,1783.052,0.8249999999999993,100.0,28.424,26.867,42.785,41.159,0.0,1.0,100.0,0.0,0.0,0.0,0.0,3466.4285714285716,2869.6,3792.0,3622.7,304.259,305.6653333333333,315.53125,315.89675,21.768,20.512,21.7538,21.2836,314.999998,314.999998,324.999988,324.999988,99.55742857142857,99.50685,99.56404285714285,99.54358571428571,-0.04499999999999993,-0.16933333333333334,-0.24983333333333335,-0.014000000000000012,-0.05666666666667197,-0.046666666666666856,1.638,1.694,37.05,29.199666666666666,36.961,34.0225,55.735,34.341,58.658500000000004,51.0965,53.696,33.5585,57.311,49.483000000000004,52.888,33.1625,57.2855,48.917,-0.013500000000000068,-0.137,0.10814000000000001,0.11233000000000001,0.0,206.135,205.97,203.27666666666667,203.27666666666667,0.0,0.0
3,0.0,1.0,0.0,1.0,1.0,0.0,0.0,1.0,0.0,100.0,1.0,1.1856,26.0,0.0,0.0,0.0,59.999996,0.0,26.0,26.0,26.0,26.0,-0.16375,0.3117000000000001,0.09086666666666667,293.442,-2.70685,-2.7133333333333334,-1.4942,-1.6076000000000001,-265.67,216.265,190.929125,0.0,0.0,0.0,0.0,0.0074,-5.498166666666667,-5.498166666666667,-0.5094000000000001,0.254,-0.02777777777777768,0.1299999999999999,65.936,-0.1052,-0.19885,1.306000000000001,100.0,1.0,1.0,203.42333333333335,0.0,0.0,0.0,0.0,0.0,0.0,0.0,8622.4,0.0,55.0,5.0,237.34,1.0,0.0,0.0,0.0,0.0,0.0,0.0,0.0,0.1559999999999988,0.1559999999999988,0.0,0.0,1.0,55.0,616.79921,10000.0,85.000001,85.000001,85.000001,85.000001,395.0,0.0,0.0,0.0,1.0,166.665,53.558,53.558,48.111,48.111,34.0,-26.6725,17.59,-35.67333333333333,24.002499999999998,0.0,1783.003,0.740000000000002,100.0,28.091,26.796,42.656,41.192,0.0,1.0,100.0,0.0,0.0,0.0,0.0,2874.285714285714,2859.0,4302.75,4250.7,306.0205,305.74733333333336,314.27625,314.30625,21.7777,20.5171,21.7642,21.2924,314.999998,314.999998,324.999988,324.999988,99.55742857142857,99.50688333333333,99.56418571428571,99.54372857142857,-0.04600000000000004,-0.17466666666666664,-0.2263333333333334,-0.002666666666666595,-0.05333333333332746,-0.05333333333332746,1.477,1.537,37.11,29.231666666666666,37.025999999999996,34.0775,55.722,34.385,58.7,51.161,53.683,33.5985,57.3495,49.544666666666664,52.873999999999995,33.201,57.321,48.977666666666664,-0.02200000000000002,-0.12950000000000017,0.109435,0.10888500000000001,0.0,206.60500000000002,206.49,203.42333333333335,203.42333333333335,0.0,0.0
4,0.0,1.0,0.0,1.0,1.0,0.0,0.0,1.0,0.0,100.0,1.0,1.1856,26.0,0.0,0.0,0.0,59.999996,0.0,26.0,26.0,26.0,26.0,-0.166125,0.29520000000000013,-0.018033333333333335,293.625,-2.6441,-2.759333333333333,-1.5148000000000001,-1.6102,-262.5,216.255,190.910625,0.0,0.0,0.0,0.0,0.009266666666666668,-5.498166666666667,-5.498166666666667,-0.5436,-0.9085000000000001,-0.08988888888888891,-0.6339999999999999,66.074,-0.1019,-0.2368,1.25,100.0,1.0,1.0,203.97333333333333,0.0,0.0,0.0,0.0,0.0,0.0,0.0,8645.7,0.0,55.0,5.0,237.83666666666667,0.0,0.0,0.0,0.0,0.0,0.0,0.0,0.0,0.20400000000000063,0.20400000000000063,0.0,0.0,0.0,55.0,616.79921,10000.0,85.000001,85.000001,85.000001,85.000001,395.0,0.0,0.0,0.0,1.0,166.665,53.085,53.085,48.706,48.706,34.0,-29.395,19.268,-32.3,20.425,0.0,1782.954,0.7300000000000004,100.0,27.901,26.625,43.038,41.307,0.0,1.0,100.0,0.0,0.0,0.0,0.0,3210.5714285714284,2953.8,4071.75,3695.7,305.096,305.465,314.801,315.609,21.7867,20.5218,21.7742,21.3007,314.999998,314.999998,324.999988,324.999988,99.55742857142857,99.5069,99.56432857142858,99.54385714285715,-0.03949999999999987,-0.16000000000000003,-0.20599999999999996,0.003666666666666707,-0.041666666666671404,-0.041666666666671404,1.5643333333333334,1.6085,37.167,29.261333333333333,37.089,34.129,55.707,34.425,58.7415,51.218,53.67,33.6355,57.3885,49.599666666666664,52.86,33.236000000000004,57.3575,49.031,-0.01849999999999996,-0.129,0.09607500000000001,0.10534,0.0,206.995,206.87,203.97333333333333,203.97333333333333,0.0,0.0
5,0.0,1.0,0.0,1.0,1.0,0.0,0.0,1.0,0.0,100.0,1.0,1.1856,26.0,0.0,0.0,0.0,59.999996,0.0,26.0,26.0,26.0,26.0,-0.15425,0.2994000000000001,-0.010066666666666668,293.594,-2.6569,-2.7792222222222223,-1.4995,-1.5962,-258.93,216.2375,190.889,0.0,0.0,0.0,0.0,0.011333333333333334,-5.498166666666667,-5.498166666666667,-0.5348,0.43100000000000005,-0.0903333333333336,1.2270000000000003,66.229,-0.10310000000000001,-0.212925,1.152000000000001,100.0,1.0,1.0,204.40333333333334,0.0,0.0,0.0,0.0,0.0,0.0,0.0,8663.9,0.0,55.0,5.0,238.39666666666668,1.0,0.0,0.0,0.0,0.0,0.0,0.0,0.0,0.2579999999999991,0.2579999999999991,0.0,0.0,1.0,55.0,616.79921,10000.0,85.000001,85.000001,85.000001,85.000001,395.0,0.0,0.0,0.0,1.0,166.665,53.436,53.436,48.888999999999996,48.888999999999996,34.0,-27.4775,19.454,-33.74,23.055,0.0,1782.901,0.21000000000000085,100.0,28.022,26.555,42.763,41.0,0.0,1.0,100.0,0.0,0.0,0.0,0.0,3104.142857142857,2835.2,4159.125,4109.1,305.3,305.866,314.684,314.68425,21.7971,20.5271,21.7853,21.3098,314.999998,314.999998,324.999988,324.999988,99.55744285714286,99.50691666666667,99.56447142857142,99.54401428571428,-0.0129999999999999,-0.1356666666666666,-0.22266666666666657,0.003666666666666707,-0.054999999999999716,-0.046666666666666856,1.5413333333333332,1.576,37.232,29.294666666666664,37.158,34.1865,55.695,34.469,58.786,51.281,53.658,33.676,57.43,49.659666666666666,52.847,33.2745,57.396,49.09,-0.059499999999999886,-0.08999999999999986,0.10173000000000001,0.11178500000000001,0.0,207.515,207.42000000000002,204.40333333333334,204.40333333333334,0.0,0.0
6,0.0,1.0,0.0,1.0,1.0,0.0,0.0,1.0,0.0,100.0,1.0,1.1856,26.0,0.0,0.0,0.0,59.999996,0.0,26.0,26.0,26.0,26.0,-0.129375,0.30210000000000004,0.006333333333333334,293.427,-2.6272,-2.807777777777778,-1.5474,-1.5906,-255.75,216.2175,190.86975,0.0,0.0,0.0,0.0,0.0132,-5.498166666666667,-5.498166666666667,-0.5308,0.11949999999999994,-0.06966666666666654,0.9460000000000002,66.368,-0.09580000000000001,-0.21457500000000002,0.7800000000000002,100.0,1.0,1.0,204.82333333333332,0.0,0.0,0.0,0.0,0.0,0.0,0.0,8681.6,0.0,55.0,5.0,238.89666666666668,0.0,0.0,0.0,0.0,0.0,0.0,0.0,0.0,0.30600000000000094,0.30600000000000094,0.0,0.0,0.0,55.0,616.79921,10000.0,85.000001,85.000001,85.000001,85.000001,395.0,0.0,0.0,0.0,1.0,166.665,53.116,53.116,48.706,48.706,34.0,-26.75,21.118,-32.97666666666667,23.0875,0.0,1782.852,0.08999999999999986,100.0,27.909,26.691,42.878,41.400999999999996,0.0,1.0,100.0,0.0,0.0,0.0,0.0,3115.857142857143,2960.8,4076.875,4048.3,305.216,305.3856666666667,314.8745,314.8285,21.8063,20.5319,21.795099999999998,21.3182,314.999998,314.999998,324.999988,324.999988,99.55744285714286,99.50693333333334,99.56461428571428,99.54414285714286,0.0024999999999999467,-0.128,-0.2111666666666666,0.014000000000000012,-0.046666666666666856,-0.05833333333333002,1.5476666666666667,1.581,37.29,29.324666666666666,37.22,34.2385,55.682,34.5075,58.8255,51.341,53.644999999999996,33.7115,57.467,49.717,52.834,33.3085,57.4305,49.146,-0.0734999999999999,-0.08349999999999991,0.10118500000000001,0.105785,0.0,207.91,207.84,204.82333333333332,204.82333333333332,0.0,0.0
7,0.0,1.0,0.0,1.0,1.0,0.0,0.0,1.0,0.0,100.0,1.0,1.1856,26.0,0.0,0.0,0.0,59.999996,0.0,26.0,26.0,26.0,26.0,-0.104625,0.27170000000000005,0.04493333333333333,293.152,-2.6,-2.742222222222222,-1.5068000000000001,-1.5783,-252.56,216.1975,190.8505,0.0,0.0,0.0,0.0,0.015033333333333334,-5.498166666666667,-5.498166666666667,-0.5337000000000001,-0.023499999999999854,-0.058111111111111224,1.1450000000000005,66.505,-0.07740000000000001,-0.222175,0.43400000000000016,100.0,1.0,1.0,205.20666666666668,0.0,0.0,0.0,0.0,0.0,0.0,0.0,8698.0,0.0,55.0,5.0,239.39,1.0,0.0,0.0,0.0,0.0,0.0,0.0,0.0,0.3539999999999992,0.3539999999999992,0.0,0.0,1.0,55.0,616.79921,10000.0,85.000001,85.000001,85.000001,85.000001,395.0,0.0,0.0,0.0,1.0,166.665,52.795,52.795,48.782,48.782,34.0,-26.935,22.259999999999998,-30.976666666666667,24.6525,0.0,1782.804,-0.17999999999999972,100.0,27.958,26.711,42.903999999999996,41.646,0.0,1.0,100.0,0.0,0.0,0.0,0.0,3236.5714285714284,3043.8,4061.625,4126.0,304.8265,305.19266666666664,314.8525,314.623,21.8155,20.5368,21.805,21.3265,314.999998,314.999998,324.999988,324.999988,99.55744285714286,99.50693333333334,99.56475714285715,99.54427142857143,0.020750000000000046,-0.10166666666666657,-0.17933333333333334,0.03316666666666679,-0.02833333333332888,-0.04833333333333201,1.5196666666666667,1.5335,37.347,29.354666666666667,37.281,34.291,55.669,34.545500000000004,58.865,51.4005,53.632999999999996,33.746,57.5035,49.774,52.821,33.341499999999996,57.464,49.20166666666667,-0.08650000000000002,-0.06199999999999983,0.10035500000000001,0.105465,0.0,208.305,208.275,205.20666666666668,205.20666666666668,0.0,0.0
8,0.0,1.0,0.0,1.0,1.0,0.0,0.0,1.0,0.0,100.0,1.0,1.1856,26.0,0.0,0.0,0.0,59.999996,0.0,26.0,26.0,26.0,26.0,-0.048875,0.29920000000000013,-0.0284,293.427,-2.6786,-2.721222222222222,-1.4926,-1.5568,-249.16,216.17000000000002,190.829875,0.0,0.0,0.0,0.0,0.017,-5.498166666666667,-5.498166666666667,-0.5341,-0.44499999999999984,-0.04033333333333333,-0.3999999999999999,66.651,-0.0585,-0.21445,0.040000000000000036,100.0,1.0,1.0,205.5966666666667,0.0,0.0,0.0,0.0,0.0,0.0,0.0,8714.5,0.0,55.0,5.0,239.91666666666669,0.0,0.0,0.0,0.0,0.0,0.0,0.0,0.0,0.40500000000000114,0.40500000000000114,0.0,0.0,0.0,55.0,616.79921,10000.0,85.000001,85.000001,85.000001,85.000001,395.0,0.0,0.0,0.0,1.0,333.33500000000004,53.696,53.696,48.035,48.035,34.0,-24.0325,21.472,-31.633333333333333,25.817500000000003,0.0,1782.752,-0.370000000000001,100.0,27.453,26.859,42.764,41.861000000000004,0.0,1.0,100.0,0.0,0.0,0.0,0.0,2972.5714285714284,2880.0,4221.25,4131.8,305.856,305.5353333333333,314.50925,314.49325,21.8251,20.5419,21.8155,21.3354,314.999998,314.999998,324.999988,324.999988,99.55745714285715,99.50695,99.5649,99.54441428571428,0.03925000000000001,-0.08633333333333337,-0.16849999999999998,0.05699999999999994,-0.051666666666669414,-0.03333333333333144,1.521,1.5275,37.407,29.386666666666667,37.347,34.346000000000004,55.653999999999996,34.5845,58.9065,51.463,53.617999999999995,33.7815,57.542,49.833666666666666,52.806,33.3755,57.5,49.260333333333335,-0.10399999999999987,-0.03949999999999987,0.105315,0.10843000000000001,0.0,208.75,208.72,205.5966666666667,205.5966666666667,0.0,0.0
9,0.0,1.0,0.0,1.0,1.0,0.0,0.0,1.0,0.0,100.0,1.0,1.1856,26.0,0.0,0.0,0.0,59.999996,0.0,26.0,26.0,26.0,26.0,-0.023625,0.30079999999999996,-0.021433333333333335,293.213,-2.6813,-2.725111111111111,-1.5512000000000001,-1.5588000000000002,-245.96,216.14499999999998,190.810125,0.0,0.0,0.0,0.0,0.018866666666666667,-5.498166666666667,-5.498166666666667,-0.5437000000000001,0.556,-0.040000000000000036,-0.4169999999999998,66.785,-0.035500000000000004,-0.218425,-0.11799999999999944,100.0,1.0,1.0,206.16,0.0,0.0,0.0,0.0,0.0,0.0,0.0,8738.3,0.0,55.0,5.0,240.39666666666668,1.0,0.0,0.0,0.0,0.0,0.0,0.0,0.0,0.4529999999999994,0.4529999999999994,0.0,0.0,1.0,55.0,616.79921,10000.0,85.000001,85.000001,85.000001,85.000001,395.0,0.0,0.0,0.0,1.0,166.665,52.46,52.46,49.21,49.21,34.0,-26.965,23.648,-28.753333333333334,25.572499999999998,0.0,1782.705,-0.46999999999999886,100.0,27.8,27.261,42.388,41.86,0.0,1.0,100.0,0.0,0.0,0.0,0.0,3378.857142857143,3003.0,3986.125,4000.1000000000004,304.656,305.099,315.16925,314.89425,21.8343,20.5469,21.8252,21.3437,314.999998,314.999998,324.999988,324.999988,99.55745714285715,99.50696666666667,99.56502857142857,99.54454285714286,0.06000000000000005,-0.06166666666666665,-0.14500000000000002,0.07699999999999996,-0.061666666666667425,-0.04333333333332945,1.5813333333333333,1.581,37.464,29.418,37.408,34.397999999999996,55.641999999999996,34.622,58.942,51.519999999999996,53.607,33.8165,57.5755,49.888666666666666,52.794,33.408500000000004,57.5305,49.31433333333334,-0.11349999999999993,-0.03500000000000014,0.11028,0.10319500000000001,0.0,209.18,209.17000000000002,206.16,206.16,0.0,0.0
10,0.0,1.0,0.0,1.0,1.0,0.0,0.0,1.0,0.0,100.0,1.0,1.1856,26.0,0.0,0.0,0.0,59.999996,0.0,26.0,26.0,26.0,26.0,0.003875,0.30190000000000006,0.053000000000000005,292.923,-2.6542,-2.708333333333333,-1.5298,-1.5396,-242.55,216.12,190.789375,0.0,0.0,0.0,0.0,0.020866666666666665,-5.498166666666667,-5.498166666666667,-0.5172,-0.3959999999999999,0.004111111111110954,1.8529999999999998,66.932,-0.011300000000000001,-0.204275,-0.5099999999999998,100.0,1.0,1.0,206.38,0.0,0.0,0.0,0.0,0.0,0.0,0.0,8747.7,0.0,55.0,5.0,240.92666666666668,0.0,0.0,0.0,0.0,0.0,0.0,1.0,0.0,0.5040000000000013,0.5040000000000013,0.0,0.0,0.0,55.0,616.79921,10000.0,85.000001,85.000001,85.000001,85.000001,395.0,0.0,0.0,0.0,1.0,166.665,53.421,53.421,47.592,47.592,34.0,-20.7175,23.704,-29.79,30.51,0.0,1782.654,-0.5850000000000009,100.0,27.869,27.144,42.867000000000004,42.525,0.0,1.0,100.0,0.0,0.0,0.0,0.0,2824.714285714286,2961.8,4284.875,4348.9,306.1295,305.45666666666665,314.27925,314.0505,21.843899999999998,20.5521,21.8358,21.3527,314.999998,314.999998,324.999988,324.999988,99.55747142857143,99.50696666666667,99.56517142857143,99.5447,0.08975,-0.040000000000000036,-0.10849999999999993,0.1136666666666668,-0.030000000000001137,-0.041666666666671404,1.4903333333333333,1.468,37.525,29.451,37.474000000000004,34.454499999999996,55.631,34.6595,58.9845,51.586,53.596000000000004,33.851,57.615,49.952,52.781,33.4415,57.567,49.376333333333335,-0.12349999999999994,-0.025500000000000078,0.10543500000000001,0.105675,0.0,209.585,209.63,206.38,206.38,0.0,0.0
11,0.0,1.0,0.0,1.0,1.0,0.0,0.0,1.0,0.0,100.0,1.0,1.1856,26.0,0.0,0.0,0.0,59.999996,0.0,26.0,26.0,26.0,26.0,0.04825,0.2639,-0.10166666666666667,293.503,-2.707,-2.6844444444444444,-1.5512000000000001,-1.5242,-239.13,216.0925,190.768625,0.0,0.0,0.0,0.0,0.022600000000000002,-5.498166666666667,-5.498166666666667,-0.562,-0.3195000000000001,0.03055555555555567,-0.6259999999999999,67.071,0.0094,-0.239925,-0.5739999999999998,100.0,1.0,1.0,207.12333333333333,0.0,0.0,0.0,0.0,0.0,0.0,0.0,8779.1,0.0,55.0,5.0,241.42666666666668,1.0,0.0,0.0,0.0,0.0,0.0,1.0,0.0,0.5549999999999997,0.5549999999999997,0.0,0.0,1.0,55.0,616.79921,10000.0,85.000001,85.000001,85.000001,85.000001,395.0,0.0,0.0,0.0,1.0,333.33500000000004,52.811,52.811,49.271,49.271,34.0,-22.8375,25.668,-23.82,26.35,0.0,1782.603,-0.629999999999999,100.0,27.481,27.562,42.364000000000004,42.577,0.0,1.0,100.0,0.0,0.0,0.0,0.0,3089.0,3095.1,3674.0,3857.0,305.541,304.8226666666667,315.899,315.227,21.8534,20.5575,21.8462,21.3617,314.999998,314.999998,324.999988,324.999988,99.55748571428572,99.50696666666667,99.56531428571428,99.54484285714285,0.09925000000000006,-0.024333333333333318,-0.09833333333333338,0.1280000000000001,-0.046666666666666856,-0.041666666666671404,1.6376666666666666,1.613,37.584,29.484333333333332,37.538,34.5105,55.617000000000004,34.6975,59.0205,51.647999999999996,53.583,33.885999999999996,57.6485,50.01166666666667,52.768,33.4755,57.5975,49.434666666666665,-0.12549999999999994,-0.027499999999999858,0.10773500000000001,0.10791,0.0,210.01999999999998,210.05,207.12333333333333,207.12333333333333,0.0,0.0
12,0.0,1.0,0.0,1.0,1.0,0.0,0.0,1.0,0.0,100.0,1.0,1.1856,26.0,0.0,0.0,0.0,59.999996,0.0,26.0,26.0,26.0,26.0,0.043250000000000004,0.2925,0.03046666666666667,292.984,-2.7603,-2.6806666666666668,-1.5487000000000002,-1.5267,-235.91,216.0675,190.747875,0.0,0.0,0.0,0.0,0.025466666666666665,-5.498166666666667,-5.498166666666667,-0.5467000000000001,0.35199999999999987,0.013666666666666716,-0.968,67.208,0.025900000000000003,-0.20700000000000002,-0.5360000000000005,100.0,1.0,1.0,207.31666666666666,0.0,0.0,0.0,0.0,0.0,0.0,0.0,8787.4,0.0,55.0,5.0,241.91666666666666,0.0,0.0,0.0,0.0,0.0,0.0,1.0,0.0,0.602999999999998,0.602999999999998,0.0,0.0,0.0,55.0,616.79921,10000.0,85.000001,85.000001,85.000001,85.000001,395.0,0.0,0.0,0.0,1.0,166.665,52.856,52.856,47.974000000000004,47.974000000000004,34.0,-23.625,24.948,-27.676666666666666,30.135,0.0,1782.555,-0.41000000000000014,100.0,27.322,27.699,42.205,42.488,0.0,1.0,100.0,0.0,0.0,0.0,0.0,3133.0,3079.1,4241.5,4157.4,305.4555,304.88966666666664,314.56625,314.48975,21.8623,20.5626,21.8559,21.37,314.999998,314.999998,324.999988,324.999988,99.5575,99.50698333333334,99.56544285714286,99.54497142857143,0.10024999999999995,-0.03700000000000003,-0.07916666666666661,0.14400000000000013,-0.051666666666669414,-0.046666666666666856,1.54,1.516,37.64,29.516666666666666,37.599000000000004,34.5625,55.605999999999995,34.734,59.0575,51.707,53.572,33.9195,57.683,50.068333333333335,52.756,33.5075,57.629,49.49033333333333,-0.11250000000000004,-0.05149999999999988,0.10098000000000001,0.11178500000000001,0.0,210.45499999999998,210.495,207.31666666666666,207.31666666666666,0.0,0.0
13,0.0,1.0,0.0,1.0,1.0,0.0,0.0,1.0,0.0,100.0,1.0,1.1856,26.0,0.0,0.0,0.0,59.999996,0.0,26.0,26.0,26.0,26.0,0.040375,0.2864,0.0461,292.603,-2.72875,-2.683777777777778,-1.6146,-1.5171999999999999,-232.48,216.04250000000002,190.726125,0.0,0.0,0.0,0.0,0.0267,-5.498166666666667,-5.498166666666667,-0.5385,-0.05650000000000022,0.01344444444444437,0.8890000000000002,67.35,0.0296,-0.21315,-0.41999999999999993,100.0,1.0,1.0,207.70666666666668,0.0,0.0,0.0,0.0,0.0,0.0,0.0,8803.9,0.0,55.0,5.0,242.43,1.0,0.0,0.0,0.0,0.0,0.0,1.0,0.0,0.6539999999999999,0.6539999999999999,0.0,0.0,1.0,55.0,616.79921,10000.0,85.000001,85.000001,85.000001,85.000001,395.0,0.0,0.0,0.0,1.0,333.33500000000004,52.521,52.521,47.928,47.928,34.0,-22.345,26.488,-28.32,32.245000000000005,0.0,1782.503,-0.4400000000000013,100.0,27.83,27.673000000000002,42.567,42.856,0.0,1.0,100.0,0.0,0.0,0.0,0.0,3066.142857142857,3159.1,4180.5,4331.6,305.4465,304.821,314.61925,314.131,21.8719,20.5681,21.8664,21.3791,314.999998,314.999998,324.999988,324.999988,99.55751428571429,99.50698333333334,99.56558571428572,99.54511428571429,0.11549999999999994,-0.013333333333333308,-0.07766666666666666,0.15749999999999997,-0.03999999999999915,-0.060000000000002274,1.505,1.4985,37.7,29.550666666666665,37.665,34.6195,55.596000000000004,34.772999999999996,59.098,51.7725,53.562,33.9555,57.7205,50.13133333333333,52.745000000000005,33.5415,57.6635,49.552,-0.11149999999999993,-0.04400000000000004,0.11030500000000001,0.11171,0.0,210.9,210.91500000000002,207.70666666666668,207.70666666666668,0.0,0.0
14,0.0,1.0,0.0,1.0,1.0,0.0,0.0,1.0,0.0,100.0,1.0,1.1856,26.0,0.0,0.0,0.0,59.999996,0.0,26.0,26.0,26.0,26.0,0.025375,0.27859999999999996,-0.017366666666666666,292.801,-2.72035,-2.633222222222222,-1.5829,-1.5270000000000001,-228.84,216.015,190.703625,0.0,0.0,0.0,0.0,0.028833333333333332,-5.498166666666667,-5.498166666666667,-0.5495,-0.1280000000000001,0.03444444444444428,1.1280000000000001,67.498,0.0308,-0.22890000000000002,-0.34999999999999964,100.0,1.0,1.0,208.24,0.0,0.0,0.0,0.0,0.0,0.0,0.0,8826.6,0.0,55.0,5.0,242.96666666666667,0.0,0.0,0.0,0.0,0.0,0.0,1.0,0.0,0.7079999999999984,0.7079999999999984,0.0,0.0,0.0,55.0,616.79921,10000.0,85.000001,85.000001,85.000001,85.000001,395.0,0.0,0.0,0.0,1.0,166.665,52.597,52.597,48.141,48.141,34.0,-21.805,26.114,-25.97,30.2825,0.0,1782.45,-0.28999999999999915,100.0,27.81,27.734,42.61,43.004,0.0,1.0,100.0,0.0,0.0,0.0,0.0,2970.0,3229.5,3982.125,4186.8,305.7125,304.613,315.0825,314.487,21.881999999999998,20.5739,21.8774,21.3887,314.999998,314.999998,324.999988,324.999988,99.55751428571429,99.50698333333334,99.56572857142856,99.54527142857143,0.1080000000000001,-0.02733333333333332,-0.07483333333333331,0.14483333333333337,-0.03833333333332689,-0.051666666666669414,1.5546666666666666,1.5330000000000001,37.763,29.586666666666666,37.733999999999995,34.679,55.584,34.8135,59.138999999999996,51.8405,53.551,33.9925,57.7585,50.196333333333335,52.733000000000004,33.5775,57.698499999999996,49.616,-0.09699999999999998,-0.05799999999999983,0.10056000000000001,0.103995,0.0,211.35500000000002,211.375,208.24,208.24,0.0,0.0
15,0.0,1.0,0.0,1.0,1.0,0.0,0.0,1.0,0.0,100.0,1.0,1.1856,26.0,0.0,0.0,0.0,59.999996,0.0,26.0,26.0,26.0,26.0,0.033875,0.29679999999999995,-0.033933333333333336,292.847,-2.6894,-2.596888888888889,-1.6076000000000001,-1.4755,-225.8,215.995,190.684625,0.0,0.0,0.0,0.0,0.030600000000000002,-5.498166666666667,-5.498166666666667,-0.5408000000000001,0.3205,0.05333333333333323,-0.33299999999999974,67.622,0.029500000000000002,-0.2117,-0.20000000000000018,100.0,1.0,1.0,208.60666666666668,0.0,0.0,0.0,0.0,0.0,0.0,0.0,8842.1,0.0,55.0,5.0,243.41,1.0,0.0,0.0,0.0,0.0,0.0,1.0,0.0,0.7530000000000001,0.7530000000000001,0.0,0.0,1.0,55.0,616.79921,10000.0,85.000001,85.000001,85.000001,85.000001,395.0,0.0,0.0,0.0,1.0,166.665,52.795,52.795,48.248,48.248,34.0,-21.6175,24.195999999999998,-27.736666666666665,29.330000000000002,0.0,1782.406,-0.23499999999999943,100.0,27.737000000000002,27.864,42.353,43.062,0.0,1.0,100.0,0.0,0.0,0.0,0.0,2958.857142857143,3069.6,4039.75,4268.3,305.874,304.926,315.0445,314.25025,21.8904,20.5787,21.886499999999998,21.3966,314.999998,314.999998,324.999988,324.999988,99.55752857142858,99.50698333333334,99.56587142857143,99.5454,0.10000000000000009,-0.03500000000000003,-0.09533333333333338,0.1273333333333333,-0.046666666666666856,-0.041666666666671404,1.5383333333333333,1.5465,37.815,29.616999999999997,37.791,34.729,55.575,34.847,59.172,51.8965,53.542,34.024,57.789500000000004,50.25033333333333,52.722,33.6075,57.726,49.669,-0.09399999999999986,-0.06349999999999989,0.10341,0.10450000000000001,0.0,211.76,211.745,208.60666666666668,208.60666666666668,0.0,0.0
16,0.0,1.0,0.0,1.0,1.0,0.0,0.0,1.0,0.0,100.0,1.0,1.1856,26.0,0.0,0.0,0.0,59.999996,0.0,26.0,26.0,26.0,26.0,0.024,0.2732000000000001,-0.0246,292.892,-2.77205,-2.6454444444444443,-1.5684,-1.4852,-222.34,215.9725,190.662625,0.0,0.0,0.0,0.0,0.032600000000000004,-5.498166666666667,-5.498166666666667,-0.5592,-0.7389999999999999,0.032444444444444276,0.03699999999999992,67.762,0.0262,-0.22375,-0.15399999999999991,100.0,1.0,1.0,209.03,0.0,0.0,0.0,0.0,0.0,0.0,0.0,8860.0,0.0,55.0,5.0,243.91666666666666,0.0,0.0,0.0,0.0,0.0,0.0,1.0,0.0,0.8039999999999985,0.8039999999999985,0.0,0.0,0.0,55.0,616.79921,10000.0,85.000001,85.000001,85.000001,85.000001,395.0,0.0,0.0,0.0,1.0,166.665,52.841,52.841,47.882,47.882,34.0,-23.065,25.828,-25.736666666666665,29.5375,0.0,1782.354,-0.08999999999999986,100.0,27.497,27.696,42.821,43.016,0.0,1.0,100.0,0.0,0.0,0.0,0.0,2991.4285714285716,3200.7,3991.125,4122.4,305.803,304.705,315.08275,314.63925,21.8996,20.5842,21.897,21.4056,314.999998,314.999998,324.999988,324.999988,99.55754285714286,99.507,99.56601428571429,99.54554285714286,0.0887500000000001,-0.030333333333333323,-0.07199999999999995,0.15116666666666667,-0.03833333333332689,-0.060000000000002274,1.5443333333333333,1.524,37.872,29.651,37.855999999999995,34.785,55.56,34.885999999999996,59.2125,51.959,53.528,34.0595,57.827,50.31066666666666,52.707,33.6415,57.7605,49.72833333333333,-0.08099999999999996,-0.06700000000000017,0.102735,0.11357,0.0,212.16500000000002,212.175,209.03,209.03,0.0,0.0
17,0.0,1.0,0.0,1.0,1.0,0.0,0.0,1.0,0.0,100.0,1.0,1.1856,26.0,0.0,0.0,0.0,59.999996,0.0,26.0,26.0,26.0,26.0,-0.008625,0.29590000000000005,-0.0189,292.465,-2.71455,-2.614111111111111,-1.5975000000000001,-1.5192,-218.68,215.95,190.63875,0.0,0.0,0.0,0.0,0.03473333333333333,-5.498166666666667,-5.498166666666667,-0.5483,0.502,-0.0005555555555556424,0.5249999999999999,67.91,0.014400000000000001,-0.204275,0.006000000000000227,100.0,1.0,1.0,209.45,0.0,0.0,0.0,0.0,0.0,0.0,0.0,8877.8,0.0,55.0,5.0,244.44666666666666,1.0,0.0,0.0,0.0,0.0,0.0,1.0,0.0,0.8580000000000005,0.8580000000000005,0.0,0.0,1.0,55.0,616.79921,10000.0,85.000001,85.000001,85.000001,85.000001,395.0,0.0,0.0,0.0,1.0,166.665,52.49,52.49,47.745,47.745,34.0,-23.09,24.240000000000002,-30.063333333333333,30.0025,0.0,1782.301,-0.16499999999999915,100.0,28.12,27.895,42.755,42.914,0.0,1.0,100.0,0.0,0.0,0.0,0.0,3086.0,3073.7,4289.5,4270.4,305.427,305.12233333333336,314.46175,314.35525,21.9096,20.59,21.907899999999998,21.4151,314.999998,314.999998,324.999988,324.999988,99.55755714285715,99.507,99.56615714285714,99.5457,0.0987499999999999,-0.033333333333333326,-0.10150000000000003,0.1286666666666667,-0.03499999999999659,-0.04999999999999716,1.5230000000000001,1.5255,37.935,29.687666666666665,37.924,34.8445,55.549,34.928,59.251999999999995,52.0255,53.516999999999996,34.0985,57.864,50.37433333333333,52.696,33.679,57.7945,49.790333333333336,-0.08850000000000002,-0.06499999999999995,0.10856500000000001,0.10658000000000001,0.0,212.66500000000002,212.64499999999998,209.45,209.45,0.0,0.0
18,0.0,1.0,0.0,1.0,1.0,0.0,0.0,1.0,0.0,100.0,1.0,1.1856,26.0,0.0,0.0,0.0,59.999996,0.0,26.0,26.0,26.0,26.0,-0.020625,0.27649999999999997,-0.012333333333333333,292.435,-2.7399,-2.5964444444444443,-1.6041,-1.4726,-215.42000000000002,215.93,190.617625,0.0,0.0,0.0,0.0,0.03663333333333333,-5.498166666666667,-5.498166666666667,-0.5596,-0.5369999999999999,0.013555555555555543,0.9849999999999999,68.03999999999999,0.0074,-0.22275,0.014000000000000234,100.0,1.0,1.0,209.85333333333335,0.0,0.0,0.0,0.0,0.0,0.0,0.0,8894.9,0.0,55.0,5.0,244.91666666666666,0.0,0.0,0.0,0.0,0.0,0.0,1.0,0.0,0.9059999999999988,0.9059999999999988,0.0,0.0,0.0,55.0,616.79921,10000.0,85.000001,85.000001,85.000001,85.000001,395.0,0.0,0.0,0.0,1.0,166.665,52.322,52.322,47.653,47.653,34.0,-24.04,25.338,-28.326666666666664,28.0775,0.0,1782.252,-0.19000000000000128,100.0,27.969,27.714,43.163,43.202,0.0,1.0,100.0,0.0,0.0,0.0,0.0,3118.0,3275.3,4089.125,4169.7,305.389,304.565,314.882,314.56175,21.9184,20.5952,21.9178,21.4237,314.999998,314.999998,324.999988,324.999988,99.55755714285715,99.50701666666667,99.5663,99.54584285714286,0.08725000000000005,-0.044333333333333336,-0.09916666666666663,0.11933333333333329,-0.05666666666667197,-0.05333333333332746,1.5493333333333332,1.5270000000000001,37.989999999999995,29.719666666666665,37.986000000000004,34.897999999999996,55.538,34.964,59.2905,52.085499999999996,53.506,34.1315,57.8995,50.43233333333333,52.684,33.710499999999996,57.8275,49.84733333333333,-0.08999999999999986,-0.0665,0.09849500000000001,0.10217000000000001,0.0,213.04000000000002,213.025,209.85333333333335,209.85333333333335,0.0,0.0
19,0.0,1.0,0.0,1.0,1.0,0.0,0.0,1.0,0.0,100.0,1.0,1.1856,26.0,0.0,0.0,0.0,59.999996,0.0,26.0,26.0,26.0,26.0,-0.01975,0.28600000000000003,0.023833333333333335,292.038,-2.70385,-2.591333333333333,-1.6141,-1.4609,-212.14999999999998,215.91,190.596375,0.0,0.0,0.0,0.0,0.038533333333333336,-5.498166666666667,-5.498166666666667,-0.553,0.8285,0.016999999999999904,0.75,68.169,0.0054,-0.21332500000000001,-0.03399999999999981,100.0,1.0,1.0,210.26999999999998,0.0,0.0,0.0,0.0,0.0,0.0,0.0,8912.5,0.0,55.0,5.0,245.38,1.0,0.0,0.0,0.0,0.0,0.0,1.0,0.0,0.9540000000000006,0.9540000000000006,0.0,0.0,1.0,55.0,616.79921,10000.0,85.000001,85.000001,85.000001,85.000001,395.0,0.0,0.0,0.0,1.0,166.665,51.650999999999996,51.650999999999996,47.668,47.668,34.0,-24.2625,25.326,-29.583333333333332,29.245,0.0,1782.204,-0.17999999999999972,100.0,28.538,28.197,42.945,43.077,0.0,1.0,100.0,0.0,0.0,0.0,0.0,3173.714285714286,3283.1,4185.875,4334.5,305.106,304.43466666666666,314.72075,314.23225,21.9274,20.6005,21.9274,21.4322,314.999998,314.999998,324.999988,324.999988,99.55758571428571,99.50701666666667,99.56644285714286,99.54597142857143,0.08899999999999997,-0.04833333333333334,-0.10449999999999993,0.12149999999999994,-0.03499999999999659,-0.07000000000000028,1.5230000000000001,1.5365,38.046,29.752666666666666,38.047,34.951,55.528999999999996,35.0025,59.3255,52.144,53.498000000000005,34.167500000000004,57.932,50.48866666666667,52.674,33.745,57.857,49.90266666666667,-0.09399999999999986,-0.06999999999999984,0.105245,0.10942500000000001,0.0,213.465,213.47,210.26999999999998,210.26999999999998,0.0,0.0
20,0.0,1.0,0.0,1.0,1.0,0.0,0.0,1.0,0.0,100.0,1.0,1.1856,26.0,0.0,0.0,0.0,59.999996,0.0,26.0,26.0,26.0,26.0,-0.000875,0.27960000000000007,-0.026433333333333333,292.297,-2.7504,-2.656777777777778,-1.5373999999999999,-1.5857,-208.67000000000002,215.8875,190.574,0.0,0.0,0.0,0.0,0.04056666666666667,-5.498166666666667,-5.498166666666667,-0.5523,-1.0085000000000002,0.009333333333333194,-0.9889999999999999,68.309,0.0081,-0.22087500000000002,-0.10799999999999965,100.0,1.0,1.0,210.56,0.0,0.0,0.0,0.0,0.0,0.0,0.0,8924.9,0.0,55.0,5.0,245.88666666666666,0.0,0.0,0.0,0.0,0.0,0.0,0.0,0.0,1.004999999999999,1.004999999999999,0.0,0.0,0.0,55.0,616.79921,10000.0,85.000001,85.000001,85.000001,85.000001,395.0,0.0,0.0,0.0,1.0,333.33500000000004,52.841,52.841,46.86,46.86,34.0,-23.3775,23.32,-30.046666666666667,30.7575,0.0,1782.152,-0.09999999999999787,100.0,27.835,27.994,43.471000000000004,43.57,0.0,1.0,100.0,0.0,0.0,0.0,0.0,3000.714285714286,2995.6,4272.75,4251.8,305.8925,305.17566666666664,314.42725,314.12275,21.9366,20.6059,21.938,21.4414,314.999998,314.999998,324.999988,324.999988,99.55758571428571,99.50701666666667,99.56658571428571,99.54611428571428,0.0757500000000002,-0.053333333333333344,-0.1133333333333334,0.11516666666666686,-0.03499999999999659,-0.041666666666671404,1.4733333333333334,1.4625000000000001,38.104,29.786666666666665,38.113,35.0085,55.515,35.041,59.368,52.2095,53.483999999999995,34.203,57.9715,50.55133333333333,52.66,33.778999999999996,57.8935,49.964,-0.08450000000000002,-0.06199999999999983,0.10880500000000001,0.102165,0.0,213.85000000000002,213.85000000000002,210.56,210.56,0.0,0.0
21,0.0,1.0,0.0,1.0,1.0,0.0,0.0,1.0,0.0,100.0,1.0,1.1856,26.0,0.0,0.0,0.0,59.999996,0.0,26.0,26.0,26.0,26.0,-0.00875,0.28259999999999996,-0.06553333333333335,292.679,-2.71035,-2.669888888888889,-1.5998,-1.5443,-205.18,215.865,190.551,0.0,0.0,0.0,0.0,0.04256666666666667,-5.498166666666667,-5.498166666666667,-0.5770000000000001,0.4464999999999999,-0.005666666666666931,0.35599999999999987,68.44200000000001,0.0058000000000000005,-0.22285000000000002,-0.02200000000000024,100.0,1.0,1.0,211.21333333333334,0.0,0.0,0.0,0.0,0.0,0.0,0.0,8952.5,0.0,55.0,5.0,246.36333333333334,1.0,0.0,0.0,0.0,0.0,0.0,0.0,0.0,1.056000000000001,1.056000000000001,0.0,0.0,1.0,55.0,616.79921,10000.0,85.000001,85.000001,85.000001,85.000001,395.0,0.0,0.0,0.0,1.0,166.665,52.322,52.322,48.218,48.218,34.0,-23.69,24.826,-27.713333333333335,27.6375,0.0,1782.103,-0.16499999999999915,100.0,28.231,27.915,42.937,43.025,0.0,1.0,100.0,0.0,0.0,0.0,0.0,3093.285714285714,3134.1,4016.5,4019.6000000000004,305.4105,304.9526666666667,315.14575,314.9475,21.945999999999998,20.6114,21.9482,21.4503,314.999998,314.999998,324.999988,324.999988,99.5576,99.50703333333334,99.56672857142857,99.54627142857143,0.08574999999999999,-0.04399999999999993,-0.10549999999999993,0.1213333333333333,-0.03499999999999659,-0.05833333333333002,1.5883333333333334,1.5905,38.163,29.821333333333335,38.176,35.064,55.503,35.081,59.4025,52.2685,53.473,34.2395,58.004,50.608333333333334,52.647999999999996,33.814,57.923,50.019999999999996,-0.08799999999999986,-0.06599999999999984,0.10670500000000001,0.10344,0.0,214.3,214.29500000000002,211.21333333333334,211.21333333333334,0.0,0.0
22,0.0,1.0,0.0,1.0,1.0,0.0,0.0,1.0,0.0,100.0,1.0,1.1856,26.0,0.0,0.0,0.0,59.999996,0.0,26.0,26.0,26.0,26.0,0.009125,0.27870000000000017,0.004633333333333334,292.191,-2.642,-2.719888888888889,-1.5966,-1.5318,-201.89,215.845,190.528625,0.0,0.0,0.0,0.0,0.044500000000000005,-5.498166666666667,-5.498166666666667,-0.5577,0.12399999999999989,0.005666666666666709,1.237,68.572,0.0028,-0.20572500000000002,-0.02400000000000002,100.0,1.0,1.0,211.41,0.0,0.0,0.0,0.0,0.0,0.0,0.0,8960.9,0.0,55.0,5.0,246.83333333333334,0.0,0.0,0.0,0.0,0.0,0.0,0.0,0.0,1.1039999999999992,1.1039999999999992,0.0,0.0,0.0,55.0,616.79921,10000.0,85.000001,85.000001,85.000001,85.000001,395.0,0.0,0.0,0.0,1.0,166.665,52.353,52.353,47.195,47.195,34.0,-21.68,25.208,-29.73333333333333,30.2575,0.0,1782.054,-0.2699999999999996,100.0,28.313,28.043,43.302,43.228,0.0,1.0,100.0,0.0,0.0,0.0,0.0,2951.142857142857,3111.8,4202.125,4351.4,305.7095,304.8856666666667,314.608,314.165,21.9549,20.6166,21.9581,21.4589,314.999998,314.999998,324.999988,324.999988,99.55761428571428,99.50705,99.56685714285715,99.5464,0.09299999999999997,-0.04466666666666663,-0.10449999999999993,0.11433333333333318,-0.02833333333332888,-0.045000000000001705,1.492,1.497,38.218,29.854,38.238,35.118,55.492999999999995,35.118,59.4415,52.329,53.463,34.274,58.04,50.666333333333334,52.635999999999996,33.8465,57.956,50.07666666666667,-0.09699999999999998,-0.06000000000000005,0.10245000000000001,0.10530500000000001,0.0,214.7,214.7,211.41,211.41,0.0,0.0
23,0.0,1.0,0.0,1.0,1.0,0.0,0.0,1.0,0.0,100.0,1.0,1.1856,26.0,0.0,0.0,0.0,59.999996,0.0,26.0,26.0,26.0,26.0,0.0205,0.2541,-0.052866666666666666,292.191,-2.68095,-2.663777777777778,-1.5283,-1.5937000000000001,-198.39,215.825,190.50525,0.0,0.0,0.0,0.0,0.046533333333333336,-5.498166666666667,-5.498166666666667,-0.5758,-0.2905000000000002,0.0033333333333331883,-0.6429999999999998,68.707,0.0026000000000000003,-0.232075,-0.006000000000000227,100.0,1.0,1.0,211.92666666666668,0.0,0.0,0.0,0.0,0.0,0.0,0.0,8982.8,0.0,55.0,5.0,247.31666666666666,1.0,0.0,0.0,0.0,0.0,0.0,0.0,0.0,1.1550000000000011,1.1550000000000011,0.0,0.0,1.0,55.0,616.79921,10000.0,85.000001,85.000001,85.000001,85.000001,395.0,0.0,0.0,0.0,1.0,333.33500000000004,51.772999999999996,51.772999999999996,48.111,48.111,34.0,-25.4675,24.445999999999998,-26.626666666666665,28.28,0.0,1782.002,-0.3249999999999993,100.0,28.306,28.293,43.359,43.614000000000004,0.0,1.0,100.0,0.0,0.0,0.0,0.0,3359.0,3074.7,3939.5,4006.9,304.8145,304.9073333333333,315.2415,314.7985,21.9643,20.6222,21.9685,21.4681,314.999998,314.999998,324.999988,324.999988,99.55761428571428,99.50705,99.56701428571428,99.54655714285714,0.08749999999999991,-0.04533333333333334,-0.10866666666666658,0.11266666666666669,-0.05833333333333002,-0.04833333333333201,1.54,1.5285,38.277,29.888666666666666,38.303,35.1755,55.482,35.1575,59.480000000000004,52.3925,53.452,34.3105,58.076,50.727333333333334,52.625,33.8815,57.9885,50.13666666666667,-0.10699999999999998,-0.05549999999999988,0.10441,0.104465,0.0,215.10500000000002,215.09,211.92666666666668,211.92666666666668,0.0,0.0
24,0.0,1.0,0.0,1.0,1.0,0.0,0.0,1.0,0.0,100.0,1.0,1.1856,26.0,0.0,0.0,0.0,59.999996,0.0,26.0,26.0,26.0,26.0,-0.0035,0.28290000000000015,-0.04513333333333333,292.419,-2.7049,-2.6743333333333332,-1.5741,-1.5333,-194.88,215.8025,190.48125,0.0,0.0,0.0,0.0,0.04856666666666667,-5.498166666666667,-5.498166666666667,-0.5810000000000001,-0.5705,0.017555555555555546,1.162,68.842,0.0077,-0.217675,-0.2560000000000002,100.0,1.0,1.0,212.26,0.0,0.0,0.0,0.0,0.0,0.0,0.0,8997.0,0.0,55.0,5.0,247.80666666666667,0.0,0.0,0.0,0.0,0.0,0.0,0.0,0.0,1.2059999999999995,1.2059999999999995,0.0,0.0,0.0,55.0,616.79921,10000.0,85.000001,85.000001,85.000001,85.000001,395.0,0.0,0.0,0.0,1.0,166.665,52.856,52.856,47.18,47.18,34.0,-21.36,24.369999999999997,-28.976666666666667,29.88,0.0,1781.953,-0.33999999999999986,100.0,28.184,27.854,43.425,43.492000000000004,0.0,1.0,100.0,0.0,0.0,0.0,0.0,2890.0,3049.2,4220.25,4197.6,306.014,305.2196666666667,314.53075,314.5,21.9736,20.6277,21.9789,21.4772,314.999998,314.999998,324.999988,324.999988,99.55762857142857,99.50705,99.56715714285714,99.5467,0.09825000000000017,-0.03700000000000003,-0.09416666666666662,0.1303333333333332,-0.030000000000001137,-0.05666666666667197,1.5156666666666667,1.4995,38.335,29.923000000000002,38.367999999999995,35.2325,55.469,35.195,59.5185,52.454499999999996,53.441,34.345,58.112,50.787,52.611999999999995,33.914500000000004,58.0215,50.195,-0.10499999999999998,-0.04850000000000021,0.10011,0.11217500000000001,0.0,215.515,215.525,212.26,212.26,0.0,0.0
25,0.0,1.0,0.0,1.0,1.0,0.0,0.0,1.0,0.0,100.0,1.0,1.1856,26.0,0.0,0.0,0.0,59.999996,0.0,26.0,26.0,26.0,26.0,0.008125,0.2599,-0.05556666666666667,292.343,-2.7721999999999998,-2.633,-1.5912000000000002,-1.537,-191.57999999999998,215.7825,190.4575,0.0,0.0,0.0,0.0,0.0505,-5.498166666666667,-5.498166666666667,-0.6106,-0.09050000000000002,0.022555555555555662,0.16000000000000014,68.967,0.013300000000000001,-0.224925,-0.3279999999999994,100.0,1.0,1.0,212.7733333333333,0.0,0.0,0.0,0.0,0.0,0.0,0.0,9018.7,0.0,55.0,5.0,248.25333333333333,1.0,0.0,0.0,0.0,0.0,0.0,0.0,0.0,1.2540000000000013,1.2540000000000013,0.0,0.0,1.0,55.0,616.79921,10000.0,85.000001,85.000001,85.000001,85.000001,395.0,0.0,0.0,0.0,1.0,166.665,51.894999999999996,51.894999999999996,47.913,47.913,34.0,-24.2675,26.915999999999997,-26.503333333333334,28.945,0.0,1781.904,-0.34499999999999886,100.0,28.128,28.119,43.121,43.301,0.0,1.0,100.0,0.0,0.0,0.0,0.0,3178.285714285714,3344.2,3926.75,4081.5,305.272,304.296,315.3155,314.79575,21.9823,20.6329,21.9885,21.4857,314.999998,314.999998,324.999988,324.999988,99.55764285714285,99.50705,99.56728571428572,99.54684285714286,0.10050000000000026,-0.03366666666666662,-0.09550000000000003,0.13549999999999995,-0.03999999999999915,-0.04999999999999716,1.5773333333333333,1.5585,38.388999999999996,29.956,38.428,35.2855,55.457,35.2325,59.552,52.5115,53.429,34.379,58.1435,50.84166666666667,52.599000000000004,33.9475,58.05,50.248666666666665,-0.10749999999999993,-0.052999999999999936,0.11151000000000001,0.1063,0.0,215.9,215.905,212.7733333333333,212.7733333333333,0.0,0.0
26,0.0,1.0,0.0,1.0,1.0,0.0,0.0,1.0,0.0,100.0,1.0,1.1856,26.0,0.0,0.0,0.0,59.999996,0.0,26.0,26.0,26.0,26.0,0.02425,0.27090000000000014,0.07433333333333333,291.168,-2.7292,-2.6983333333333333,-1.6400000000000001,-1.5262,-188.06,215.7625,190.431625,0.0,0.0,0.0,0.0,0.05253333333333334,-5.498166666666667,-5.498166666666667,-0.5740000000000001,0.7144999999999999,0.006333333333333302,-0.6720000000000002,69.10300000000001,0.018600000000000002,-0.199325,-0.2320000000000002,100.0,1.0,1.0,212.94,0.0,0.0,0.0,0.0,0.0,0.0,0.0,9025.7,0.0,55.0,5.0,248.74333333333334,0.0,0.0,0.0,0.0,0.0,0.0,0.0,0.0,1.3049999999999997,1.3049999999999997,0.0,0.0,0.0,55.0,616.79921,10000.0,85.000001,85.000001,85.000001,85.000001,395.0,0.0,0.0,0.0,1.0,166.665,51.315,51.315,46.31,46.31,34.0,-23.91,25.42,-32.67666666666666,32.5275,0.0,1781.854,-0.3999999999999986,100.0,28.836,28.979,43.442,43.76,0.0,1.0,100.0,0.0,0.0,0.0,0.0,3241.4285714285716,3085.5,4562.875,4485.2,305.0965,304.77666666666664,313.87575,313.7385,21.9919,20.6387,21.999,21.4949,314.999998,314.999998,324.999988,324.999988,99.55765714285714,99.50706666666666,99.56744285714285,99.54698571428571,0.11125000000000007,-0.03500000000000003,-0.08950000000000002,0.1280000000000001,-0.036666666666668846,-0.054999999999999716,1.4523333333333333,1.436,38.449,29.991999999999997,38.494,35.343,55.449,35.274,59.5925,52.5755,53.421,34.417500000000004,58.181,50.903333333333336,52.591,33.984,58.0845,50.309,-0.11250000000000004,-0.052000000000000046,0.09997500000000001,0.107895,0.0,216.35000000000002,216.37,212.94,212.94,0.0,0.0
27,0.0,1.0,0.0,1.0,1.0,0.0,0.0,1.0,0.0,100.0,1.0,1.1856,26.0,0.0,0.0,0.0,59.999996,0.0,26.0,26.0,26.0,26.0,0.043000000000000003,0.2563,-0.0253,291.58,-2.70035,-2.661888888888889,-1.6344,-1.5951,-184.74,215.745,190.4085,0.0,0.0,0.0,0.0,0.05446666666666666,-5.498166666666667,-5.498166666666667,-0.5961000000000001,-1.0415,0.011333333333333195,-0.8279999999999998,69.227,0.019100000000000002,-0.24277500000000002,-0.26399999999999935,100.0,1.0,1.0,213.41333333333333,0.0,0.0,0.0,0.0,0.0,0.0,0.0,9045.8,0.0,55.0,5.0,249.19333333333333,1.0,0.0,0.0,0.0,0.0,0.0,0.0,0.0,1.352999999999998,1.352999999999998,0.0,0.0,1.0,55.0,616.79921,10000.0,85.000001,85.000001,85.000001,85.000001,395.0,0.0,0.0,0.0,1.0,333.33500000000004,51.757999999999996,51.757999999999996,46.57,46.57,34.0,-22.6425,25.497999999999998,-29.203333333333333,29.9825,0.0,1781.804,-0.47499999999999787,100.0,28.477,28.813,44.099000000000004,44.435,0.0,1.0,100.0,0.0,0.0,0.0,0.0,3130.285714285714,3115.8,4153.125,4088.2,305.458,304.7846666666667,314.7685,314.58625,22.0006,20.644,22.0089,21.5037,314.999998,314.999998,324.999988,324.999988,99.55767142857142,99.50706666666666,99.56758571428571,99.54712857142857,0.11175000000000024,-0.029333333333333322,-0.09383333333333332,0.1286666666666667,-0.061666666666667425,-0.03499999999999659,1.505,1.4965,38.504000000000005,30.025333333333336,38.556,35.397999999999996,55.439,35.3105,59.631,52.637,53.411,34.451499999999996,58.217,50.962666666666664,52.579,34.0165,58.117,50.36666666666667,-0.11749999999999994,-0.04300000000000015,0.10677500000000001,0.10745,0.0,216.69,216.69,213.41333333333333,213.41333333333333,0.0,0.0
28,0.0,1.0,0.0,1.0,1.0,0.0,0.0,1.0,0.0,100.0,1.0,1.1856,26.0,0.0,0.0,0.0,59.999996,0.0,26.0,26.0,26.0,26.0,0.032375,0.2570000000000001,-0.05756666666666667,291.931,-2.70935,-2.664777777777778,-1.5772,-1.5621,-181.2,215.725,190.38325,0.0,0.0,0.0,0.0,0.05653333333333334,-5.498166666666667,-5.498166666666667,-0.6038,0.6425000000000001,0.004888888888888943,0.7210000000000001,69.357,0.024200000000000003,-0.2202,-0.4139999999999997,100.0,1.0,1.0,213.96666666666667,0.0,0.0,0.0,0.0,0.0,0.0,0.0,9069.3,0.0,55.0,5.0,249.65666666666667,0.0,0.0,0.0,0.0,0.0,0.0,0.0,0.0,1.404,1.404,0.0,0.0,0.0,55.0,616.79921,10000.0,85.000001,85.000001,85.000001,85.000001,395.0,0.0,0.0,0.0,1.0,166.665,51.697,51.697,47.684,47.684,34.0,-22.665,26.348,-26.063333333333336,30.2225,0.0,1781.754,-0.46000000000000085,100.0,28.703,28.531,43.485,43.814,0.0,1.0,100.0,0.0,0.0,0.0,0.0,3126.5714285714284,3194.4,3968.875,4132.8,305.295,304.715,315.21625,314.69625,22.009900000000002,20.6497,22.0191,21.5127,314.999998,314.999998,324.999988,324.999988,99.5577,99.50706666666666,99.56772857142857,99.54727142857143,0.11699999999999999,-0.022333333333333316,-0.08199999999999996,0.14483333333333337,-0.046666666666666856,-0.05833333333333002,1.5646666666666667,1.5455,38.562,30.061,38.619,35.454499999999996,55.43,35.35,59.665,52.6965,53.402,34.4875,58.2485,51.019666666666666,52.569,34.0515,58.1455,50.422666666666665,-0.11499999999999999,-0.047499999999999876,0.10859500000000001,0.102595,0.0,217.12,217.16,213.96666666666667,213.96666666666667,0.0,0.0
29,0.0,1.0,0.0,1.0,1.0,0.0,0.0,1.0,0.0,100.0,1.0,1.1856,26.0,0.0,0.0,0.0,59.999996,0.0,26.0,26.0,26.0,26.0,0.05775,0.2593000000000001,0.05123333333333334,291.595,-2.67565,-2.6995555555555555,-1.5836999999999999,-1.538,-177.66,215.70749999999998,190.356875,0.0,0.0,0.0,0.0,0.05856666666666666,-5.498166666666667,-5.498166666666667,-0.6033000000000001,-0.7035,0.011333333333333195,-0.6400000000000001,69.492,0.0296,-0.2137,-0.41999999999999993,100.0,1.0,1.0,214.16333333333333,0.0,0.0,0.0,0.0,0.0,0.0,0.0,9077.6,0.0,55.0,5.0,250.14666666666665,1.0,0.0,0.0,0.0,0.0,0.0,0.0,0.0,1.4549999999999983,1.4549999999999983,0.0,0.0,1.0,55.0,616.79921,10000.0,85.000001,85.000001,85.000001,85.000001,395.0,0.0,0.0,0.0,1.0,166.665,51.987,51.987,46.509,46.509,34.0,-22.197499999999998,26.152,-28.96666666666667,31.365000000000002,0.0,1781.703,-0.5,100.0,28.137,28.564,43.728,44.202,0.0,1.0,100.0,0.0,0.0,0.0,0.0,3140.142857142857,3126.1,4263.5,4294.0,305.472,304.6936666666667,314.4805,314.159,22.019,20.6553,22.0296,21.522,314.999998,314.999998,324.999988,324.999988,99.5577,99.50706666666666,99.56788571428571,99.54742857142857,0.11750000000000016,-0.026000000000000023,-0.08199999999999996,0.13383333333333325,-0.05333333333332746,-0.026666666666670835,1.472,1.456,38.619,30.096,38.685,35.5125,55.418,35.3875,59.706,52.760999999999996,53.39,34.5225,58.286500000000004,51.08166666666666,52.557,34.0845,58.18,50.483000000000004,-0.12149999999999994,-0.04200000000000026,0.10645,0.107325,0.0,217.505,217.525,214.16333333333333,214.16333333333333,0.0,0.0
30,0.0,1.0,0.0,1.0,1.0,0.0,0.0,1.0,0.0,100.0,1.0,1.1856,26.0,0.0,0.0,0.0,59.999996,0.0,26.0,26.0,26.0,26.0,0.0455,0.2511000000000001,0.05333333333333334,291.199,-2.6881,-2.592777777777778,-1.5542,-1.5943,-174.11,215.69,190.3305,0.0,0.0,0.0,0.0,0.06063333333333334,-5.498166666666667,-5.498166666666667,-0.6054,0.835,0.00922222222222202,0.5489999999999999,69.62100000000001,0.036000000000000004,-0.21945,-0.5339999999999998,100.0,1.0,1.0,214.66333333333333,0.0,0.0,0.0,0.0,0.0,0.0,0.0,9098.8,0.0,55.0,5.0,250.61,0.0,0.0,0.0,0.0,0.0,0.0,1.0,0.0,1.5060000000000002,1.5060000000000002,0.0,0.0,0.0,55.0,616.79921,10000.0,85.000001,85.000001,85.000001,85.000001,395.0,0.0,0.0,0.0,1.0,166.665,50.659,50.659,47.165,47.165,34.0,-23.0875,27.15,-26.436666666666664,32.015,0.0,1781.653,-0.4299999999999997,100.0,29.162,29.134999999999998,43.551,44.08,0.0,1.0,100.0,0.0,0.0,0.0,0.0,3278.142857142857,3312.0,4127.25,4186.0,304.746,304.25733333333335,314.83625,314.4715,22.0285,20.6613,22.0399,21.5311,314.999998,314.999998,324.999988,324.999988,99.55772857142857,99.50708333333333,99.56802857142857,99.54757142857143,0.13324999999999987,-0.01733333333333331,-0.06766666666666665,0.15466666666666673,-0.045000000000001705,-0.05833333333333002,1.526,1.4995,38.678,30.133,38.748999999999995,35.5695,55.411,35.4295,59.7415,52.823,53.384,34.5615,58.3195,51.141333333333336,52.549,34.1215,58.21,50.541666666666664,-0.12450000000000006,-0.04899999999999993,0.10604000000000001,0.10225000000000001,0.0,217.92000000000002,217.97500000000002,214.66333333333333,214.66333333333333,0.0,0.0
31,0.0,1.0,0.0,1.0,1.0,0.0,0.0,1.0,0.0,100.0,1.0,1.1856,26.0,0.0,0.0,0.0,59.999996,0.0,26.0,26.0,26.0,26.0,0.050875000000000004,0.256,0.033266666666666674,290.909,-2.7804,-2.619222222222222,-1.604,-1.4901,-170.56,215.675,190.304625,0.0,0.0,0.0,0.0,0.0627,-5.498166666666667,-5.498166666666667,-0.5899,-0.4980000000000002,0.01577777777777789,-0.8420000000000001,69.753,0.0397,-0.22107500000000002,-0.37399999999999967,100.0,1.0,1.0,214.93666666666667,0.0,0.0,0.0,0.0,0.0,0.0,0.0,9110.4,0.0,55.0,5.0,251.08666666666664,1.0,0.0,0.0,0.0,0.0,0.0,1.0,0.0,1.5569999999999986,1.5569999999999986,0.0,0.0,1.0,55.0,616.79921,10000.0,85.000001,85.000001,85.000001,85.000001,395.0,0.0,0.0,0.0,1.0,166.665,51.193,51.193,45.67,45.67,34.0,-23.825,26.79,-29.56,31.2625,0.0,1781.601,-0.47499999999999787,100.0,28.692,29.282,44.207,44.869,0.0,1.0,100.0,0.0,0.0,0.0,0.0,3208.857142857143,3283.8,4342.25,4228.1,305.347,304.35366666666664,314.29675,314.28175,22.0376,20.6671,22.0505,21.5406,314.999998,314.999998,324.999988,324.999988,99.55774285714286,99.50708333333333,99.56817142857143,99.54772857142858,0.11474999999999991,-0.02533333333333332,-0.07483333333333331,0.15416666666666679,-0.03333333333333144,-0.04333333333332945,1.4636666666666667,1.452,38.735,30.169,38.815,35.6285,55.400999999999996,35.4695,59.783,52.8885,53.375,34.598,58.358000000000004,51.20466666666667,52.538,34.157,58.2455,50.60366666666667,-0.11399999999999988,-0.052999999999999936,0.108365,0.11512000000000001,0.0,218.315,218.345,214.93666666666667,214.93666666666667,0.0,0.0
32,0.0,1.0,0.0,1.0,1.0,0.0,0.0,1.0,0.0,100.0,1.0,1.1856,26.0,0.0,0.0,0.0,59.999996,0.0,26.0,26.0,26.0,26.0,0.044875,0.2594000000000001,-0.04373333333333333,291.214,-2.69535,-2.684222222222222,-1.6522000000000001,-1.5509,-167.0,215.66,190.279125,0.0,0.0,0.0,0.0,0.06476666666666667,-5.498166666666667,-5.498166666666667,-0.6059,-0.07900000000000018,-0.006222222222222129,0.21099999999999985,69.881,0.038700000000000005,-0.22887500000000002,-0.532,100.0,1.0,1.0,215.41666666666669,0.0,0.0,0.0,0.0,0.0,0.0,0.0,9130.7,0.0,55.0,5.0,251.54333333333335,0.0,0.0,0.0,0.0,0.0,0.0,1.0,0.0,1.6080000000000005,1.6080000000000005,0.0,0.0,0.0,55.0,616.79921,10000.0,85.000001,85.000001,85.000001,85.000001,395.0,0.0,0.0,0.0,1.0,166.665,51.468,51.468,46.448,46.448,34.0,-21.485,27.0,-28.02,33.337500000000006,0.0,1781.55,-0.48999999999999844,100.0,28.814,29.059,44.066,44.578,0.0,1.0,100.0,0.0,0.0,0.0,0.0,3090.857142857143,3184.9,4230.375,4354.6,305.3865,304.71433333333334,314.65125,314.1925,22.0467,20.6729,22.0608,21.5498,314.999998,314.999998,324.999988,324.999988,99.55775714285714,99.50708333333333,99.56832857142857,99.54788571428571,0.13474999999999993,-0.010666666666666602,-0.057499999999999996,0.16516666666666668,-0.03999999999999915,-0.05833333333333002,1.5266666666666666,1.5010000000000001,38.792,30.205333333333336,38.879999999999995,35.686,55.391999999999996,35.5095,59.8195,52.951,53.364999999999995,34.635,58.391999999999996,51.26466666666666,52.528,34.192499999999995,58.275999999999996,50.662333333333336,-0.123,-0.04400000000000004,0.10191000000000001,0.110255,0.0,218.72500000000002,218.755,215.41666666666669,215.41666666666669,0.0,0.0
33,0.0,1.0,0.0,1.0,1.0,0.0,0.0,1.0,0.0,100.0,1.0,1.1856,26.0,0.0,0.0,0.0,59.999996,0.0,26.0,26.0,26.0,26.0,0.057,0.2663,-0.03176666666666667,291.489,-2.73495,-2.670888888888889,-1.5961,-1.5801,-163.85,215.65,190.255625,0.0,0.0,0.0,0.0,0.0666,-5.498166666666667,-5.498166666666667,-0.6146,-0.29600000000000026,-0.005555555555555536,-0.040999999999999925,69.995,0.0381,-0.2174,-0.40200000000000014,100.0,1.0,1.0,215.77666666666667,0.0,0.0,0.0,0.0,0.0,0.0,0.0,9145.9,0.0,55.0,5.0,251.95666666666665,1.0,0.0,0.0,0.0,0.0,0.0,1.0,0.0,1.6529999999999987,1.6529999999999987,0.0,0.0,1.0,55.0,616.79921,10000.0,85.000001,85.000001,85.000001,85.000001,395.0,0.0,0.0,0.0,1.0,333.33500000000004,51.788,51.788,46.677,46.677,34.0,-22.415,25.445999999999998,-28.06,32.33,0.0,1781.504,-0.509999999999998,100.0,28.563,28.951999999999998,43.905,44.528999999999996,0.0,1.0,100.0,0.0,0.0,0.0,0.0,3133.0,3063.4,4184.875,4222.9,305.5165,304.968,314.72275,314.41675,22.0548,20.6778,22.0699,21.5579,314.999998,314.999998,324.999988,324.999988,99.55777142857143,99.5071,99.56845714285714,99.54801428571429,0.12375000000000025,-0.02066666666666661,-0.07766666666666666,0.15749999999999997,-0.04333333333332945,-0.04333333333332945,1.5113333333333334,1.488,38.842,30.236333333333334,38.937,35.737,55.382999999999996,35.542,59.852000000000004,53.004999999999995,53.357,34.665,58.422,51.31666666666666,52.519,34.221000000000004,58.303,50.71333333333333,-0.12399999999999989,-0.046499999999999986,0.10264000000000001,0.11323500000000002,0.0,219.075,219.085,215.77666666666667,215.77666666666667,0.0,0.0
34,0.0,1.0,0.0,1.0,1.0,0.0,0.0,1.0,0.0,100.0,1.0,1.1856,26.0,0.0,0.0,0.0,59.999996,0.0,26.0,26.0,26.0,26.0,0.049375,0.2639,-0.045866666666666674,291.702,-2.6736,-2.6657777777777776,-1.6554,-1.5453999999999999,-160.28,215.6375,190.22775,0.0,0.0,0.0,0.0,0.06866666666666667,-5.498166666666667,-5.498166666666667,-0.6407,-0.7255000000000003,0.02344444444444438,0.9729999999999999,70.124,0.0374,-0.22335000000000002,-0.4720000000000004,100.0,1.0,1.0,216.16333333333333,0.0,0.0,0.0,0.0,0.0,0.0,0.0,9162.3,0.0,55.0,5.0,252.42000000000002,0.0,0.0,0.0,0.0,0.0,0.0,1.0,0.0,1.7040000000000006,1.7040000000000006,0.0,0.0,0.0,55.0,616.79921,10000.0,85.000001,85.000001,85.000001,85.000001,395.0,0.0,0.0,0.0,1.0,166.665,52.078,52.078,47.195,47.195,34.0,-21.005,26.348,-27.586666666666666,32.1625,0.0,1781.454,-0.5249999999999986,100.0,28.45,28.489,43.775999999999996,44.510000000000005,0.0,1.0,100.0,0.0,0.0,0.0,0.0,3027.142857142857,3116.8,4067.25,4264.4,305.6175,304.87166666666667,314.99,314.33425,22.0638,20.6834,22.0802,21.5672,314.999998,314.999998,324.999988,324.999988,99.55778571428571,99.5071,99.5686,99.54815714285715,0.12849999999999984,-0.008000000000000007,-0.0711666666666666,0.15783333333333327,-0.02833333333332888,-0.05833333333333002,1.517,1.5030000000000001,38.899,30.271333333333335,39.001,35.795,55.373000000000005,35.579,59.8875,53.0685,53.347,34.699,58.455,51.37766666666667,52.507,34.254,58.332499999999996,50.772666666666666,-0.11549999999999994,-0.03949999999999987,0.11069500000000002,0.10915000000000001,0.0,219.46,219.47500000000002,216.16333333333336,216.16333333333333,0.0,0.0
35,0.0,1.0,0.0,1.0,1.0,0.0,0.0,1.0,0.0,100.0,1.0,1.1856,26.0,0.0,0.0,0.0,59.999996,0.0,26.0,26.0,26.0,26.0,0.06575,0.25350000000000006,-0.041800000000000004,291.748,-2.73795,-2.605888888888889,-1.6341,-1.5049000000000001,-156.7,215.6275,190.197875,0.0,0.0,0.0,0.0,0.07076666666666667,-5.498166666666667,-5.498166666666667,-0.6793,-0.31499999999999995,0.004222222222222127,-1.183,70.251,0.043300000000000005,-0.2288,-0.4939999999999998,100.0,1.0,1.0,216.61666666666667,0.0,0.0,0.0,0.0,0.0,0.0,0.0,9181.6,0.0,55.0,5.0,252.87666666666667,1.0,0.0,0.0,0.0,0.0,0.0,1.0,0.0,1.754999999999999,1.754999999999999,0.0,0.0,1.0,55.0,616.79921,10000.0,85.000001,85.000001,85.000001,85.000001,395.0,0.0,0.0,0.0,1.0,166.665,51.743,51.743,46.738,46.738,34.0,-22.8425,27.345999999999997,-27.096666666666664,29.3275,0.0,1781.404,-0.34999999999999787,100.0,28.035,28.805,43.525,44.088,0.0,1.0,100.0,0.0,0.0,0.0,0.0,3150.0,3308.9,4105.625,4024.0,305.4285,304.22066666666666,314.878,314.89175,22.0727,20.6892,22.0905,21.5763,314.999998,314.999998,324.999988,324.999988,99.55781428571429,99.5071,99.56875714285714,99.54831428571428,0.11925000000000008,-0.017000000000000015,-0.0638333333333333,0.15700000000000003,-0.045000000000001705,-0.03999999999999915,1.5596666666666668,1.5305,38.954,30.307666666666666,39.066,35.8515,55.361000000000004,35.618,59.923,53.127,53.335,34.7355,58.488,51.434333333333335,52.494,34.2885,58.362,50.828,-0.11549999999999994,-0.052000000000000046,0.10237,0.10741500000000001,0.0,219.85000000000002,219.865,216.61666666666667,216.61666666666667,0.0,0.0
