,ABS Active,ABS Enabled,AID Allow Tire Blankets,AID Auto Blip,AID Auto Clutch,AID Auto Shift,AID Fuel Rate,AID Ideal Line,AID Mech Damage,AID Stability,AID Tire Wear Rate,Air Density,Air Temp,Ballast,Best Lap Delta,Best Lap Time,Brake Bias,Brake Pos,Brake Temp FL,Brake Temp FR,Brake Temp RL,Brake Temp RR,CG Accel Lateral,CG Accel Longitudinal,CG Accel Vertical,CG Height,Camber FL,Camber FR,Camber RL,Camber RR,Car Coord X,Car Coord Y,Car Coord Z,Car Damage Front,Car Damage Left,Car Damage Rear,Car Damage Right,Car Pos Norm,Caster FL,Caster FR,Chassis Pitch Angle,Chassis Pitch Rate,Chassis Roll Angle,Chassis Roll Rate,Chassis Velocity X,Chassis Velocity Y,Chassis Velocity Z,Chassis Yaw Rate,Clutch Pos,DRS Active,DRS Available,Drive Train Speed,ERS Heat Charging,ERS Is Charging,ERS Max Energy,ERS Power Level,ERS Recovery Level,Engine Brake Setting,Engine Limiter,Engine RPM,Flags,Fuel Level,Gear,Ground Speed,HR Sample Clock,In Pit,KERS Charge,KERS Deployed Energy,KERS Input,KERS Max Energy,LR Sample Clock,Lap Invalidated,Lap Time,Lap Time2,Last Lap Time,Last Sector Time,MR Sample Clock,Max Fuel,Max Power,Max RPM,Max Sus Travel FL,Max Sus Travel FR,Max Sus Travel RL,Max Sus Travel RR,Max Torque,Max Turbo Boost,Num Tires Off Track,Penalties Enabled,Position,Raw Data Sample Rate,Ride Height FL,Ride Height FR,Ride Height RL,Ride Height RR,Road Temp,Self Align Torque FL,Self Align Torque FR,Self Align Torque RL,Self Align Torque RR,Session Lap Count,Session Time Left,Steering Angle,Surface Grip,Suspension Travel FL,Suspension Travel FR,Suspension Travel RL,Suspension Travel RR,TC Active,TC Enabled,Throttle Pos,Tire Dirt Level FL,Tire Dirt Level FR,Tire Dirt Level RL,Tire Dirt Level RR,Tire Load FL,Tire Load FR,Tire Load RL,Tire Load RR,Tire Loaded Radius FL,Tire Loaded Radius FR,Tire Loaded Radius RL,Tire Loaded Radius RR,Tire Pressure FL,Tire Pressure FR,Tire Pressure RL,Tire Pressure RR,Tire Radius FL,Tire Radius FR,Tire Radius RL,Tire Radius RR,Tire Rubber Grip FL,Tire Rubber Grip FR,Tire Rubber Grip RL,Tire Rubber Grip RR,Tire Slip Angle FL,Tire Slip Angle FR,Tire Slip Angle RL,Tire Slip Angle RR,Tire Slip Ratio FL,Tire Slip Ratio FR,Tire Slip Ratio RL,Tire Slip Ratio RR,Tire Temp Core FL,Tire Temp Core FR,Tire Temp Core RL,Tire Temp Core RR,Tire Temp Inner FL,Tire Temp Inner FR,Tire Temp Inner RL,Tire Temp Inner RR,Tire Temp Middle FL,Tire Temp Middle FR,Tire Temp Middle RL,Tire Temp Middle RR,Tire Temp Outer FL,Tire Temp Outer FR,Tire Temp Outer RL,Tire Temp Outer RR,Toe In FL,Toe In FR,Toe In RL,Toe In RR,Turbo Boost,Wheel Angular Speed FL,Wheel Angular Speed FR,Wheel Angular Speed RL,Wheel Angular Speed RR,Wind Direction,Wind Speed
0,0.0,1.0,0.0,1.0,1.0,0.0,0.0,1.0,0.0,100.0,1.0,1.1856,26.0,0.0,0.0,0.0,59.99999,0.0,26.0,26.0,26.0,26.0,-0.07322222222222219,0.30010000000000003,0.09302500000000001,293.854,-2.71465,-2.4855,-1.5216,-1.5368,-275.69,215.97,190.98775,0.0,0.0,0.0,0.0,0.0015999999999999348,-5.498166666666667,-5.498166666666667,-0.5501,1.649,-0.014888888888889174,-0.957,65.487,-0.041,-0.2124,0.694,100.0,1.0,1.0,202.18,0.0,0.0,0.0,0.0,0.0,0.0,0.0,8569.7,0.0,55.0,5.0,235.72,0.0,0.0,0.0,0.0,0.0,0.0,0.0,0.0,0.0030000000000001137,0.0030000000000001137,0.0,0.0,0.0,55.0,616.79921,10000.0,85.0,85.0,85.0,85.0,395.0,0.0,0.0,0.0,1.0,20.0,52.292,52.292,49.332,49.332,34.0,-28.2375,23.618333333333332,-30.223333333333333,24.322499999999998,0.0,1783.609,0.7149999999999999,100.0,27.2,26.761,40.443,40.2,0.0,1.0,100.0,0.0,0.0,0.0,0.0,3151.4285714285716,3644.4,4124.888888888889,4010.8,305.2225,303.10375,314.82025,314.8065,21.7885,20.5167,21.7398,21.2849,314.99999,314.99999,324.99998,324.99998,99.5597,99.50725,99.56401428571428,99.54408571428571,-0.009749999999999925,-0.12399999999999989,-0.15633333333333335,0.05633333333333334,-0.04999999999999716,-0.046666666666666856,1.5545,1.588,37.178,29.229,36.873999999999995,34.0305,56.543,34.533,58.6755,51.269,54.441,33.689499999999995,57.321,49.644999999999996,53.601,33.239,57.292,49.0755,-0.020499999999999963,-0.123,0.10482000000000001,0.10578000000000001,0.0,205.235,205.14,202.18,202.18,0.0,0.0
1,0.0,1.0,0.0,1.0,1.0,0.0,0.0,1.0,0.0,100.0,1.0,1.1856,26.0,0.0,0.0,0.0,59.999996,0.0,26.0,26.0,26.0,26.0,-0.10799999999999998,0.32289999999999996,0.19665000000000002,293.106,-2.64865,-2.7155,-1.5192999999999999,-1.3744,-272.34,215.9875,190.967625,0.0,0.0,0.0,0.0,0.0035333333333333883,-5.498166666666667,-5.498166666666667,-0.48610000000000003,-0.9315,-0.06033333333333335,-0.727,65.642,-0.0533,-0.1834,1.354,100.0,1.0,1.0,202.26333333333332,0.0,0.0,0.0,0.0,0.0,0.0,0.0,8573.2,0.0,55.0,5.0,236.28,1.0,0.0,0.0,0.0,0.0,0.0,0.0,0.0,0.053999999999998494,0.053999999999998494,0.0,0.0,1.0,55.0,616.79921,10000.0,85.000001,85.000001,85.000001,85.000001,395.0,0.0,0.0,0.0,1.0,333.33500000000004,54.169,54.169,48.218,48.218,34.0,-26.625,16.015,-35.41333333333333,27.830000000000002,0.0,1783.556,0.865000000000002,100.0,27.311,26.778,42.689,41.807,0.0,1.0,100.0,0.0,0.0,0.0,0.0,3048.857142857143,2484.6,4424.555555555556,4901.9,305.611,306.85025,313.9635,312.52975,21.7984,20.5217,21.7506,21.2941,314.999998,314.999998,324.999988,324.999988,99.55971428571429,99.50726666666667,99.56417142857143,99.54422857142858,-0.0129999999999999,-0.14466666666666672,-0.181,0.03816666666666667,-0.041666666666671404,-0.07499999999999574,1.3525,1.411,37.239999999999995,29.260666666666665,36.941,34.088,56.525,34.573,58.726,51.3365,54.425,33.7265,57.366,49.714,53.584,33.2765,57.334,49.1435,-0.0020000000000000018,-0.14349999999999996,0.101165,0.115735,0.0,205.675,205.59,202.26333333333332,202.26333333333332,0.0,0.0
2,0.0,1.0,0.0,1.0,1.0,0.0,0.0,1.0,0.0,100.0,1.0,1.1856,26.0,0.0,0.0,0.0,59.999996,0.0,26.0,26.0,26.0,26.0,-0.1654444444444444,0.27190000000000003,-0.08665,293.991,-2.59445,-2.7910000000000004,-1.4945,-1.6447,-268.99,216.0025,190.94875,0.0,0.0,0.0,0.0,0.005466666666666509,-5.498166666666667,-5.498166666666667,-0.5564,0.1755,-0.05255555555555569,2.571,65.781,-0.0743,-0.254325,1.5940000000000003,100.0,1.0,1.0,203.36,0.0,0.0,0.0,0.0,0.0,0.0,0.0,8619.7,0.0,55.0,5.0,236.78333333333333,0.0,0.0,0.0,0.0,0.0,0.0,0.0,0.0,0.10500000000000043,0.10500000000000043,0.0,0.0,0.0,55.0,616.79921,10000.0,85.000001,85.000001,85.000001,85.000001,395.0,0.0,0.0,0.0,1.0,333.33500000000004,52.567,52.567,50.537,50.537,34.0,-30.4925,19.7,-28.599999999999998,19.35,0.0,1783.507,0.9149999999999991,100.0,28.246,26.683,42.442,41.186,0.0,1.0,100.0,0.0,0.0,0.0,0.0,3343.714285714286,2984.6,3684.8888888888887,3515.8,304.503,305.43625,315.78925,316.246,21.8086,20.526699999999998,21.761,21.3027,314.999998,314.999998,324.999988,324.999988,99.55971428571429,99.5073,99.56431428571429,99.54437142857142,-0.03600000000000003,-0.16033333333333322,-0.22283333333333336,0.011333333333333334,-0.04333333333332945,-0.060000000000002274,1.665,1.7365,37.304,29.292,37.006,34.1415,56.513,34.6125,58.7615,51.391999999999996,54.412,33.763,57.4015,49.763,53.571,33.3095,57.3665,49.1915,0.0,-0.15149999999999997,0.10991000000000001,0.104245,0.0,206.12,205.99,203.36,203.36,0.0,0.0
3,0.0,1.0,0.0,1.0,1.0,0.0,0.0,1.0,0.0,100.0,1.0,1.1856,26.0,0.0,0.0,0.0,59.999996,0.0,26.0,26.0,26.0,26.0,-0.14900000000000002,0.31220000000000003,0.092175,293.411,-2.62955,-2.7025,-1.4935,-1.5894,-265.83,216.015,190.93,0.0,0.0,0.0,0.0,0.007333333333333303,-5.498166666666667,-5.498166666666667,-0.5057,0.5425,-0.022222222222222143,-0.119,65.92699999999999,-0.093,-0.192775,1.3600000000000003,100.0,1.0,1.0,203.38,0.0,0.0,0.0,0.0,0.0,0.0,0.0,8620.5,0.0,55.0,5.0,237.30666666666667,1.0,0.0,0.0,0.0,0.0,0.0,0.0,0.0,0.1529999999999987,0.1529999999999987,0.0,0.0,1.0,55.0,616.79921,10000.0,85.000001,85.000001,85.000001,85.000001,395.0,0.0,0.0,0.0,1.0,333.33500000000004,53.528,53.528,48.05,48.05,34.0,-26.697499999999998,18.085,-35.61666666666667,24.405,0.0,1783.457,0.8900000000000006,100.0,27.861,26.838,42.451,41.284,0.0,1.0,100.0,0.0,0.0,0.0,0.0,2963.857142857143,2889.7,4377.222222222223,4230.2,305.8205,305.6255,314.10925,314.38325,21.818,20.5316,21.7708,21.3111,314.999998,314.999998,324.999988,324.999988,99.55971428571429,99.50731666666667,99.56445714285714,99.5445,-0.03949999999999987,-0.16633333333333322,-0.21233333333333335,0.010833333333333334,-0.01833333333333087,-0.06666666666666998,1.4834999999999998,1.5114999999999998,37.361999999999995,29.322666666666667,37.067,34.194,56.498000000000005,34.6535,58.8005,51.453,54.397999999999996,33.801,57.4375,49.8215,53.556,33.346000000000004,57.4,49.249,-0.008499999999999952,-0.14100000000000001,0.10504500000000001,0.10885500000000001,0.0,206.59,206.49,203.38,203.38,0.0,0.0
4,0.0,1.0,0.0,1.0,1.0,0.0,0.0,1.0,0.0,100.0,1.0,1.1856,26.0,0.0,0.0,0.0,59.999996,0.0,26.0,26.0,26.0,26.0,-0.15666666666666662,0.2744,-0.00115,293.655,-2.6606,-2.7908749999999998,-1.4353,-1.6025,-262.47,216.0225,190.9105,0.0,0.0,0.0,0.0,0.009266666666666534,-5.498166666666667,-5.498166666666667,-0.5332,-0.8200000000000001,-0.08488888888888857,-1.732,66.074,-0.1037,-0.2308,1.6620000000000008,100.0,1.0,1.0,203.94333333333333,0.0,0.0,0.0,0.0,0.0,0.0,0.0,8644.5,0.0,55.0,5.0,237.83333333333331,0.0,0.0,0.0,0.0,0.0,0.0,0.0,0.0,0.20400000000000063,0.20400000000000063,0.0,0.0,0.0,55.0,616.79921,10000.0,85.000001,85.000001,85.000001,85.000001,395.0,0.0,0.0,0.0,1.0,166.665,53.391,53.391,48.584,48.584,34.0,-31.1175,17.65,-34.36333333333333,19.9825,0.0,1783.408,0.9699999999999989,100.0,27.457,26.598,42.949,41.534,0.0,1.0,100.0,0.0,0.0,0.0,0.0,3298.5714285714284,2813.6,4203.555555555556,3724.3,304.9745,305.724,314.617,315.5025,21.8279,20.5366,21.781399999999998,21.32,314.999998,314.999998,324.999988,324.999988,99.55971428571429,99.50731666666667,99.56458571428571,99.54464285714286,-0.058499999999999996,-0.18566666666666665,-0.2455,-0.009666666666666665,-0.036666666666668846,-0.03166666666666629,1.544,1.6,37.424,29.354,37.134,34.25,56.482,34.695499999999996,58.8445,51.513999999999996,54.382999999999996,33.8395,57.479,49.879999999999995,53.54,33.3825,57.439,49.306,-0.0010000000000000009,-0.14800000000000013,0.11372000000000002,0.10591500000000001,0.0,206.97500000000002,206.865,203.94333333333333,203.94333333333333,0.0,0.0
5,0.0,1.0,0.0,1.0,1.0,0.0,0.0,1.0,0.0,100.0,1.0,1.1856,26.0,0.0,0.0,0.0,59.999996,0.0,26.0,26.0,26.0,26.0,-0.16166666666666663,0.30580000000000007,-0.0132,293.808,-2.66865,-2.76525,-1.5001,-1.6359,-258.89,216.025,190.889125,0.0,0.0,0.0,0.0,0.011366666666666525,-5.498166666666667,-5.498166666666667,-0.5345,0.3305,-0.09188888888888869,-0.46199999999999997,66.22800000000001,-0.116,-0.212325,1.596,100.0,1.0,1.0,204.44333333333333,0.0,0.0,0.0,0.0,0.0,0.0,0.0,8665.6,0.0,55.0,5.0,238.39,1.0,0.0,0.0,0.0,0.0,0.0,0.0,0.0,0.2579999999999991,0.2579999999999991,0.0,0.0,1.0,55.0,616.79921,10000.0,85.000001,85.000001,85.000001,85.000001,395.0,0.0,0.0,0.0,1.0,166.665,53.604,53.604,49.149,49.149,34.0,-30.740000000000002,16.826666666666668,-34.66333333333333,21.3325,0.0,1783.355,0.7899999999999991,100.0,27.637,26.432,42.641999999999996,41.045,0.0,1.0,100.0,0.0,0.0,0.0,0.0,3247.285714285714,2747.9,4156.888888888889,3960.3,305.071,305.974,314.7595,314.9885,21.8385,20.542,21.7925,21.3291,314.999998,314.999998,324.999988,324.999988,99.55972857142856,99.50735,99.56475714285715,99.54478571428571,-0.05874999999999986,-0.18833333333333324,-0.24566666666666667,-0.020833333333333332,-0.04999999999999716,-0.07166666666666544,1.5579999999999998,1.6029999999999998,37.491,29.387333333333334,37.203,34.307,56.469,34.7395,58.8885,51.5755,54.370000000000005,33.879999999999995,57.519999999999996,49.9385,53.525999999999996,33.4215,57.477000000000004,49.3635,-0.017000000000000015,-0.13650000000000007,0.09951,0.11101000000000001,0.0,207.515,207.39,204.44333333333333,204.44333333333333,0.0,0.0
6,0.0,1.0,0.0,1.0,1.0,0.0,0.0,1.0,0.0,100.0,1.0,1.1856,26.0,0.0,0.0,0.0,59.999996,0.0,26.0,26.0,26.0,26.0,-0.17033333333333334,0.2884,0.0182,293.51800000000003,-2.62005,-2.815875,-1.5314,-1.5958,-255.71,216.025,190.869625,0.0,0.0,0.0,0.0,0.01319999999999999,-5.498166666666667,-5.498166666666667,-0.5264,0.0635,-0.08977777777777796,-0.8009999999999999,66.367,-0.1208,-0.20595000000000002,1.42,100.0,1.0,1.0,204.79666666666668,0.0,0.0,0.0,0.0,0.0,0.0,0.0,8680.6,0.0,55.0,5.0,238.89,0.0,0.0,0.0,0.0,0.0,0.0,0.0,0.0,0.30600000000000094,0.30600000000000094,0.0,0.0,0.0,55.0,616.79921,10000.0,85.000001,85.000001,85.000001,85.000001,395.0,0.0,0.0,0.0,1.0,166.665,53.452,53.452,48.584,48.584,34.0,-30.3825,17.688333333333333,-36.94,20.947499999999998,0.0,1783.306,0.4499999999999993,100.0,27.663,26.54,42.863,41.283,0.0,1.0,100.0,0.0,0.0,0.0,0.0,3247.285714285714,2768.8,4267.777777777777,4005.0,305.0325,305.82825,314.47825,314.85975,21.8479,20.5468,21.8024,21.3375,314.999998,314.999998,324.999988,324.999988,99.55974285714285,99.50736666666667,99.56488571428571,99.54492857142857,-0.059250000000000025,-0.18266666666666675,-0.2545,-0.026333333333333334,-0.061666666666667425,-0.03833333333332689,1.5070000000000001,1.5625,37.55,29.417333333333332,37.265,34.3595,56.456,34.778999999999996,58.929,51.6335,54.358000000000004,33.916,57.558,49.9945,53.513,33.456,57.512,49.418,-0.028000000000000025,-0.1140000000000001,0.10233500000000001,0.10937500000000001,0.0,207.945,207.815,204.79666666666668,204.79666666666668,0.0,0.0
7,0.0,1.0,0.0,1.0,1.0,0.0,0.0,1.0,0.0,100.0,1.0,1.1856,26.0,0.0,0.0,0.0,59.999996,0.0,26.0,26.0,26.0,26.0,-0.13277777777777777,0.27649999999999997,0.01905,293.32,-2.58325,-2.8133749999999997,-1.4863,-1.6459000000000001,-252.52,216.0225,190.850375,0.0,0.0,0.0,0.0,0.015066666666666562,-5.498166666666667,-5.498166666666667,-0.5348,-0.04499999999999993,-0.0818888888888889,-0.31099999999999994,66.504,-0.11660000000000001,-0.22337500000000002,1.1979999999999995,100.0,1.0,1.0,205.23000000000002,0.0,0.0,0.0,0.0,0.0,0.0,0.0,8698.9,0.0,55.0,5.0,239.38333333333333,1.0,0.0,0.0,0.0,0.0,0.0,0.0,0.0,0.3539999999999992,0.3539999999999992,0.0,0.0,1.0,55.0,616.79921,10000.0,85.000001,85.000001,85.000001,85.000001,395.0,0.0,0.0,0.0,1.0,333.33500000000004,52.933,52.933,48.874,48.874,34.0,-29.645,19.56833333333333,-34.46,21.555,0.0,1783.258,0.17999999999999972,100.0,27.927,26.64,42.939,41.463,0.0,1.0,100.0,0.0,0.0,0.0,0.0,3340.857142857143,2873.5,4121.333333333333,3949.9,304.719,305.469,314.776,314.944,21.8574,20.5516,21.8123,21.3459,314.999998,314.999998,324.999988,324.999988,99.55974285714285,99.50738333333334,99.56502857142857,99.54505714285715,-0.02574999999999994,-0.15533333333333332,-0.24533333333333335,-0.021833333333333333,-0.054999999999999716,-0.045000000000001705,1.513,1.5635,37.608999999999995,29.447333333333333,37.327,34.412,56.444,34.818,58.969,51.6915,54.346000000000004,33.952,57.5955,50.05,53.5,33.4905,57.547,49.472,-0.0605,-0.08499999999999996,0.10405,0.10833000000000001,0.0,208.36,208.24,205.23000000000002,205.23000000000002,0.0,0.0
8,0.0,1.0,0.0,1.0,1.0,0.0,0.0,1.0,0.0,100.0,1.0,1.1856,26.0,0.0,0.0,0.0,59.999996,0.0,26.0,26.0,26.0,26.0,-0.12222222222222212,0.3014000000000001,0.022625000000000003,293.51800000000003,-2.66145,-2.7506250000000003,-1.4681,-1.6351,-249.13,216.015,190.82975,0.0,0.0,0.0,0.0,0.017033333333333345,-5.498166666666667,-5.498166666666667,-0.5349,-0.4615,-0.06466666666666665,0.7730000000000001,66.65,-0.1014,-0.215175,0.5920000000000005,100.0,1.0,1.0,205.61666666666667,0.0,0.0,0.0,0.0,0.0,0.0,0.0,8715.4,0.0,55.0,5.0,239.91,0.0,0.0,0.0,0.0,0.0,0.0,0.0,0.0,0.40500000000000114,0.40500000000000114,0.0,0.0,0.0,55.0,616.79921,10000.0,85.000001,85.000001,85.000001,85.000001,395.0,0.0,0.0,0.0,1.0,333.33500000000004,53.696,53.696,48.263999999999996,48.263999999999996,34.0,-26.59,19.82,-32.92333333333333,24.697499999999998,0.0,1783.206,0.08000000000000185,100.0,27.662,26.467,43.068,41.472,0.0,1.0,100.0,0.0,0.0,0.0,0.0,3004.714285714286,2942.2,4134.222222222223,4110.4,305.657,305.55075,314.6465,314.6155,21.8673,20.5567,21.8228,21.3548,314.999998,314.999998,324.999988,324.999988,99.55974285714285,99.5074,99.56517142857143,99.54518571428571,-0.01649999999999996,-0.1416666666666666,-0.21316666666666667,0.01916666666666667,-0.04833333333333201,-0.05833333333333002,1.5135,1.5284999999999997,37.67,29.479333333333333,37.393,34.4675,56.427,34.858000000000004,59.0115,51.7525,54.33,33.9895,57.635,50.108000000000004,53.483999999999995,33.525999999999996,57.584,49.528999999999996,-0.0605,-0.08350000000000013,0.102855,0.112515,0.0,208.765,208.72,205.61666666666667,205.61666666666667,0.0,0.0
9,0.0,1.0,0.0,1.0,1.0,0.0,0.0,1.0,0.0,100.0,1.0,1.1856,26.0,0.0,0.0,0.0,59.999996,0.0,26.0,26.0,26.0,26.0,-0.10211111111111104,0.2863,0.030575,293.274,-2.5858499999999998,-2.770875,-1.5206,-1.5963,-245.92000000000002,216.0025,190.81,0.0,0.0,0.0,0.0,0.018899999999999917,-5.498166666666667,-5.498166666666667,-0.54,0.5295,-0.06877777777777805,0.865,66.78399999999999,-0.0882,-0.21477500000000002,0.548,100.0,1.0,1.0,206.13666666666666,0.0,0.0,0.0,0.0,0.0,0.0,0.0,8737.4,0.0,55.0,5.0,240.39,1.0,0.0,0.0,0.0,0.0,0.0,0.0,0.0,0.4529999999999994,0.4529999999999994,0.0,0.0,1.0,55.0,616.79921,10000.0,85.000001,85.000001,85.000001,85.000001,395.0,0.0,0.0,0.0,1.0,333.33500000000004,52.658,52.658,49.164,49.164,34.0,-27.6525,21.833333333333332,-31.083333333333336,24.085,0.0,1783.159,-0.125,100.0,28.068,26.775,42.748000000000005,41.47,0.0,1.0,100.0,0.0,0.0,0.0,0.0,3309.285714285714,3011.1,4014.0,4022.3,304.656,305.26775,315.0475,314.90975,21.8767,20.5616,21.8326,21.3631,314.999998,314.999998,324.999988,324.999988,99.55974285714285,99.50741666666667,99.5653,99.54531428571428,0.016999999999999904,-0.11233333333333317,-0.19333333333333336,0.035666666666666666,-0.036666666666668846,-0.061666666666667425,1.5675,1.584,37.729,29.510333333333335,37.454,34.5195,56.413,34.897,59.0485,51.8085,54.316,34.025,57.6695,50.162,53.47,33.56,57.616,49.5815,-0.08950000000000002,-0.06550000000000011,0.10268000000000001,0.113125,0.0,209.19,209.15,206.13666666666666,206.13666666666666,0.0,0.0
10,0.0,1.0,0.0,1.0,1.0,0.0,0.0,1.0,0.0,100.0,1.0,1.1856,26.0,0.0,0.0,0.0,59.999996,0.0,26.0,26.0,26.0,26.0,-0.06333333333333335,0.2957000000000001,0.005475,293.137,-2.66285,-2.74825,-1.496,-1.5759,-242.51,215.99,190.78925,0.0,0.0,0.0,0.0,0.02086666666666659,-5.498166666666667,-5.498166666666667,-0.5193,-0.38850000000000007,-0.0341111111111112,0.20900000000000007,66.93,-0.0687,-0.206025,0.1739999999999995,100.0,1.0,1.0,206.39333333333332,0.0,0.0,0.0,0.0,0.0,0.0,0.0,8748.2,0.0,55.0,5.0,240.92000000000002,0.0,0.0,0.0,0.0,0.0,0.0,1.0,0.0,0.5040000000000013,0.5040000000000013,0.0,0.0,0.0,55.0,616.79921,10000.0,85.000001,85.000001,85.000001,85.000001,395.0,0.0,0.0,0.0,1.0,333.33500000000004,53.558,53.558,47.821,47.821,34.0,-24.955,20.125,-33.45666666666666,25.915,0.0,1783.107,-0.29499999999999993,100.0,27.778,26.933,43.022999999999996,42.186,0.0,1.0,100.0,0.0,0.0,0.0,0.0,3016.4285714285716,2790.5,4329.222222222223,4205.1,305.762,305.80825,314.279,314.32475,21.886499999999998,20.5668,21.8432,21.3722,314.999998,314.999998,324.999988,324.999988,99.55975714285714,99.50743333333334,99.56545714285714,99.54545714285715,0.023499999999999854,-0.10799999999999987,-0.181,0.041166666666666664,-0.03999999999999915,-0.03833333333332689,1.492,1.499,37.791,29.542666666666666,37.519999999999996,34.576499999999996,56.397,34.9355,59.091499999999996,51.8725,54.302,34.0605,57.71,50.223,53.454,33.594,57.6535,49.6415,-0.10150000000000003,-0.0475000000000001,0.10867500000000001,0.10682000000000001,0.0,209.625,209.60000000000002,206.39333333333332,206.39333333333332,0.0,0.0
11,0.0,1.0,0.0,1.0,1.0,0.0,0.0,1.0,0.0,100.0,1.0,1.1856,26.0,0.0,0.0,0.0,59.999996,0.0,26.0,26.0,26.0,26.0,-0.05399999999999994,0.2762,-0.075625,293.625,-2.66575,-2.731625,-1.5527000000000002,-1.5651000000000002,-239.1,215.975,190.7685,0.0,0.0,0.0,0.0,0.022599999999999953,-5.498166666666667,-5.498166666666667,-0.5572,-0.18599999999999994,-0.006666666666666821,0.6380000000000001,67.07,-0.0426,-0.23315000000000002,-0.10599999999999987,100.0,1.0,1.0,207.09333333333333,0.0,0.0,0.0,0.0,0.0,0.0,0.0,8778.0,0.0,55.0,5.0,241.42333333333335,1.0,0.0,0.0,0.0,0.0,0.0,1.0,0.0,0.5549999999999997,0.5549999999999997,0.0,0.0,1.0,55.0,616.79921,10000.0,85.000001,85.000001,85.000001,85.000001,395.0,0.0,0.0,0.0,1.0,333.33500000000004,53.07,53.07,49.254999999999995,49.254999999999995,34.0,-24.7825,23.42666666666667,-26.75,24.630000000000003,0.0,1783.056,-0.16999999999999993,100.0,27.678,26.978,42.708,42.047,0.0,1.0,100.0,0.0,0.0,0.0,0.0,3065.285714285714,3080.1,3762.222222222222,3881.1000000000004,305.449,305.06775,315.685,315.22725,21.8962,20.5721,21.8535,21.3812,314.999998,314.999998,324.999988,324.999988,99.55975714285714,99.50743333333334,99.5656,99.5456,0.04499999999999993,-0.07966666666666677,-0.14616666666666667,0.078,-0.03499999999999659,-0.07833333333332604,1.625,1.6175000000000002,37.851,29.575666666666663,37.584,34.6325,56.379999999999995,34.9745,59.1285,51.9325,54.286,34.0965,57.7445,50.281,53.437,33.6285,57.685,49.698,-0.09250000000000003,-0.05950000000000011,0.10162,0.10884,0.0,210.035,210.035,207.09333333333333,207.09333333333333,0.0,0.0
12,0.0,1.0,0.0,1.0,1.0,0.0,0.0,1.0,0.0,100.0,1.0,1.1856,26.0,0.0,0.0,0.0,59.999996,0.0,26.0,26.0,26.0,26.0,-0.03433333333333333,0.28690000000000015,0.01405,293.152,-2.73055,-2.716125,-1.5255,-1.5782,-235.87,215.96,190.747875,0.0,0.0,0.0,0.0,0.025466666666666526,-5.498166666666667,-5.498166666666667,-0.5443,0.28200000000000003,-0.01188888888888906,0.7570000000000001,67.206,-0.0224,-0.20472500000000002,-0.242,100.0,1.0,1.0,207.32333333333332,0.0,0.0,0.0,0.0,0.0,0.0,0.0,8787.7,0.0,55.0,5.0,241.91333333333333,0.0,0.0,0.0,0.0,0.0,0.0,1.0,0.0,0.602999999999998,0.602999999999998,0.0,0.0,0.0,55.0,616.79921,10000.0,85.000001,85.000001,85.000001,85.000001,395.0,0.0,0.0,0.0,1.0,333.33500000000004,53.024,53.024,48.141,48.141,34.0,-25.912499999999998,23.126666666666665,-28.616666666666664,28.9425,0.0,1783.008,0.3949999999999996,100.0,27.543,27.108,42.569,41.966,0.0,1.0,100.0,0.0,0.0,0.0,0.0,3083.4285714285716,3124.5,4163.777777777777,4188.2,305.4245,304.95125,314.67325,314.50525,21.9053,20.5772,21.8632,21.3896,314.999998,314.999998,324.999988,324.999988,99.55977142857142,99.50745,99.56572857142856,99.54574285714286,0.035250000000000004,-0.09199999999999986,-0.11216666666666668,0.10416666666666667,-0.045000000000001705,-0.051666666666669414,1.5310000000000001,1.5145,37.908,29.607333333333333,37.644999999999996,34.685,56.366,35.0105,59.166,51.99,54.272,34.129999999999995,57.7795,50.336,53.423,33.6605,57.717,49.752,-0.06499999999999995,-0.08800000000000008,0.096235,0.11225,0.0,210.48000000000002,210.47500000000002,207.32333333333332,207.32333333333332,0.0,0.0
13,0.0,1.0,0.0,1.0,1.0,0.0,0.0,1.0,0.0,100.0,1.0,1.1856,26.0,0.0,0.0,0.0,59.999996,0.0,26.0,26.0,26.0,26.0,-0.0040000000000000036,0.28659999999999997,0.0521,292.709,-2.6635,-2.71875,-1.5539,-1.5752000000000002,-232.24,215.9425,190.724875,0.0,0.0,0.0,0.0,0.026833333333333376,-5.498166666666667,-5.498166666666667,-0.5378000000000001,-0.1120000000000001,-0.016555555555555657,1.0779999999999998,67.357,-0.014100000000000001,-0.2127,-0.137999999999999,100.0,1.0,1.0,207.72,0.0,0.0,0.0,0.0,0.0,0.0,0.0,8804.5,0.0,55.0,5.0,242.45666666666665,1.0,0.0,0.0,0.0,0.0,0.0,1.0,0.0,0.657,0.657,0.0,0.0,1.0,55.0,616.79921,10000.0,85.000001,85.000001,85.000001,85.000001,395.0,0.0,0.0,0.0,1.0,166.665,52.673,52.673,48.035,48.035,34.0,-23.537499999999998,25.035,-29.66,29.9875,0.0,1782.956,-0.3200000000000003,100.0,27.934,27.334,42.870000000000005,42.489000000000004,0.0,1.0,100.0,0.0,0.0,0.0,0.0,3121.5714285714284,3096.7,4180.0,4292.7,305.248,305.034,314.589,314.2375,21.9156,20.5829,21.8744,21.3992,314.999998,314.999998,324.999988,324.999988,99.55977142857142,99.50745,99.56588571428571,99.54588571428572,0.08674999999999988,-0.04133333333333322,-0.11916666666666667,0.106,-0.030000000000001137,-0.054999999999999716,1.5145,1.4929999999999999,37.973,29.643,37.715,34.745,56.351,35.052,59.209,52.0575,54.257999999999996,34.168,57.8195,50.400999999999996,53.408,33.697,57.754,49.8155,-0.11299999999999999,-0.043500000000000094,0.10868000000000001,0.10749,0.0,210.925,210.935,207.72,207.72,0.0,0.0
14,0.0,1.0,0.0,1.0,1.0,0.0,0.0,1.0,0.0,100.0,1.0,1.1856,26.0,0.0,0.0,0.0,59.999996,0.0,26.0,26.0,26.0,26.0,-0.008888888888888946,0.27870000000000017,-0.0128,292.908,-2.6964,-2.65625,-1.5619,-1.5457,-229.0,215.9275,190.704875,0.0,0.0,0.0,0.0,0.02873333333333339,-5.498166666666667,-5.498166666666667,-0.5486,-0.14250000000000007,0.012444444444444258,1.3519999999999999,67.489,-0.0033,-0.2267,-0.2679999999999998,100.0,1.0,1.0,208.21333333333334,0.0,0.0,0.0,0.0,0.0,0.0,0.0,8825.3,0.0,55.0,5.0,242.93333333333334,0.0,0.0,0.0,0.0,0.0,0.0,1.0,0.0,0.7049999999999983,0.7049999999999983,0.0,0.0,0.0,55.0,616.79921,10000.0,85.000001,85.000001,85.000001,85.000001,395.0,0.0,0.0,0.0,1.0,166.665,52.704,52.704,48.233000000000004,48.233000000000004,34.0,-23.162499999999998,24.943333333333335,-27.783333333333335,28.7025,0.0,1782.907,-0.33000000000000007,100.0,27.885,27.451999999999998,42.815,42.647999999999996,0.0,1.0,100.0,0.0,0.0,0.0,0.0,3013.4285714285716,3180.2,3988.3333333333335,4173.3,305.5915,304.7815,315.068,314.5335,21.9247,20.588,21.8842,21.4078,314.999998,314.999998,324.999988,324.999988,99.55978571428571,99.50746666666667,99.56601428571429,99.54602857142856,0.07975000000000021,-0.04833333333333312,-0.1135,0.11133333333333333,-0.03499999999999659,-0.04999999999999716,1.5270000000000001,1.5324999999999998,38.03,29.674666666666667,37.775999999999996,34.7985,56.339,35.0875,59.2455,52.116,54.245999999999995,34.201,57.8535,50.457,53.394999999999996,33.729,57.785,49.8705,-0.09999999999999998,-0.05049999999999999,0.11302000000000001,0.10483,0.0,211.305,211.345,208.21333333333334,208.21333333333334,0.0,0.0
15,0.0,1.0,0.0,1.0,1.0,0.0,0.0,1.0,0.0,100.0,1.0,1.1856,26.0,0.0,0.0,0.0,59.999996,0.0,26.0,26.0,26.0,26.0,0.014111111111111185,0.2883,0.0095,292.847,-2.6669,-2.621875,-1.5842,-1.4908000000000001,-225.76,215.9125,190.684375,0.0,0.0,0.0,0.0,0.0306333333333334,-5.498166666666667,-5.498166666666667,-0.5407000000000001,0.2885,0.037111111111111095,0.915,67.62100000000001,0.0066,-0.20965,-0.3200000000000003,100.0,1.0,1.0,208.59333333333333,0.0,0.0,0.0,0.0,0.0,0.0,0.0,8841.6,0.0,55.0,5.0,243.40666666666667,1.0,0.0,0.0,0.0,0.0,0.0,1.0,0.0,0.7530000000000001,0.7530000000000001,0.0,0.0,1.0,55.0,616.79921,10000.0,85.000001,85.000001,85.000001,85.000001,395.0,0.0,0.0,0.0,1.0,333.33500000000004,52.826,52.826,48.203,48.203,34.0,-21.32,24.955,-27.303333333333335,29.7,0.0,1782.859,-0.3149999999999995,100.0,27.951,27.564,42.641,42.736000000000004,0.0,1.0,100.0,0.0,0.0,0.0,0.0,2890.4285714285716,3159.6,3996.1111111111113,4344.9,305.9345,304.83425,315.0905,314.14375,21.933799999999998,20.5931,21.8939,21.4163,314.999998,314.999998,324.999988,324.999988,99.5598,99.50746666666667,99.56614285714285,99.54617142857143,0.09299999999999997,-0.036666666666666625,-0.0985,0.11833333333333333,-0.04333333333332945,-0.04833333333333201,1.5390000000000001,1.5270000000000001,38.086,29.706666666666663,37.837,34.852000000000004,56.326,35.1235,59.2805,52.175,54.233999999999995,34.234,57.885999999999996,50.513999999999996,53.382,33.7605,57.814499999999995,49.926,-0.10250000000000004,-0.050999999999999934,0.09882500000000001,0.10554000000000001,0.0,211.76,211.765,208.59333333333333,208.59333333333333,0.0,0.0
16,0.0,1.0,0.0,1.0,1.0,0.0,0.0,1.0,0.0,100.0,1.0,1.1856,26.0,0.0,0.0,0.0,59.999996,0.0,26.0,26.0,26.0,26.0,0.025555555555555776,0.2713000000000001,-0.03615,292.877,-2.75595,-2.632625,-1.5548000000000002,-1.4976,-222.31,215.8975,190.662375,0.0,0.0,0.0,0.0,0.0326333333333334,-5.498166666666667,-5.498166666666667,-0.559,-0.6805000000000001,0.016888888888888953,-1.1,67.761,0.0142,-0.224775,-0.20000000000000018,100.0,1.0,1.0,209.01,0.0,0.0,0.0,0.0,0.0,0.0,0.0,8859.2,0.0,55.0,5.0,243.91333333333336,0.0,0.0,0.0,0.0,0.0,0.0,1.0,0.0,0.8039999999999985,0.8039999999999985,0.0,0.0,0.0,55.0,616.79921,10000.0,85.000001,85.000001,85.000001,85.000001,395.0,0.0,0.0,0.0,1.0,333.33500000000004,52.78,52.78,47.913,47.913,34.0,-24.25,24.465,-26.653333333333336,28.5975,0.0,1782.806,-0.16999999999999993,100.0,27.443,27.732,42.854,42.924,0.0,1.0,100.0,0.0,0.0,0.0,0.0,3132.5714285714284,3096.5,4048.3333333333335,4096.6,305.529,304.88725,315.0065,314.65475,21.9433,20.5985,21.9043,21.4254,314.999998,314.999998,324.999988,324.999988,99.5598,99.50748333333334,99.5663,99.54631428571429,0.08375000000000021,-0.040999999999999925,-0.08683333333333333,0.1325,-0.045000000000001705,-0.04833333333333201,1.5505,1.532,38.144999999999996,29.741,37.902,34.909,56.309,35.161500000000004,59.320499999999996,52.237,54.218,34.2695,57.9235,50.573499999999996,53.364999999999995,33.7945,57.849000000000004,49.9845,-0.08899999999999997,-0.05449999999999999,0.10100500000000001,0.11031500000000001,0.0,212.155,212.185,209.01,209.01,0.0,0.0
17,0.0,1.0,0.0,1.0,1.0,0.0,0.0,1.0,0.0,100.0,1.0,1.1856,26.0,0.0,0.0,0.0,59.999996,0.0,26.0,26.0,26.0,26.0,-0.0013333333333332975,0.28180000000000005,-0.014400000000000001,292.633,-2.71335,-2.61975,-1.5924,-1.5203,-218.85,215.88,190.639875,0.0,0.0,0.0,0.0,0.034633333333333294,-5.498166666666667,-5.498166666666667,-0.5496,0.48650000000000004,-0.003444444444444361,0.579,67.9,0.0108,-0.20605,-0.10200000000000031,100.0,1.0,1.0,209.43333333333334,0.0,0.0,0.0,0.0,0.0,0.0,0.0,8877.1,0.0,55.0,5.0,244.41,1.0,0.0,0.0,0.0,0.0,0.0,1.0,0.0,0.8550000000000004,0.8550000000000004,0.0,0.0,1.0,55.0,616.79921,10000.0,85.000001,85.000001,85.000001,85.000001,395.0,0.0,0.0,0.0,1.0,166.665,52.567,52.567,47.913,47.913,34.0,-23.1575,24.22,-29.18,29.9175,0.0,1782.758,-0.21999999999999886,100.0,28.076,27.802,42.730000000000004,42.736000000000004,0.0,1.0,100.0,0.0,0.0,0.0,0.0,3081.0,3071.6,4237.777777777777,4255.7,305.458,305.13775,314.59975,314.40175,21.953,20.6041,21.9146,21.4345,314.999998,314.999998,324.999988,324.999988,99.55982857142857,99.50748333333334,99.56644285714286,99.54645714285714,0.09600000000000009,-0.03400000000000003,-0.09416666666666668,0.12916666666666665,-0.03999999999999915,-0.03499999999999659,1.5164999999999997,1.528,38.206,29.775666666666666,37.966,34.9655,56.297,35.2005,59.3575,52.298,54.206,34.3055,57.958,50.6325,53.352999999999994,33.829,57.8805,50.042500000000004,-0.09650000000000003,-0.06099999999999994,0.10325500000000001,0.10677500000000001,0.0,212.635,212.62,209.43333333333334,209.43333333333334,0.0,0.0
18,0.0,1.0,0.0,1.0,1.0,0.0,0.0,1.0,0.0,100.0,1.0,1.1856,26.0,0.0,0.0,0.0,59.999996,0.0,26.0,26.0,26.0,26.0,-0.006333333333333302,0.27780000000000005,-0.026725000000000002,292.557,-2.7392,-2.6014999999999997,-1.6032000000000002,-1.4736,-215.59,215.8675,190.618875,0.0,0.0,0.0,0.0,0.03653333333333331,-5.498166666666667,-5.498166666666667,-0.5588000000000001,-0.512,0.013777777777777889,1.129,68.031,0.006200000000000001,-0.220725,-0.12200000000000077,100.0,1.0,1.0,209.82999999999998,0.0,0.0,0.0,0.0,0.0,0.0,0.0,8893.9,0.0,55.0,5.0,244.88333333333333,0.0,0.0,0.0,0.0,0.0,0.0,1.0,0.0,0.9029999999999987,0.9029999999999987,0.0,0.0,0.0,55.0,616.79921,10000.0,85.000001,85.000001,85.000001,85.000001,395.0,0.0,0.0,0.0,1.0,333.33500000000004,52.475,52.475,47.791,47.791,34.0,-23.8425,25.418333333333333,-28.533333333333335,28.055,0.0,1782.709,-0.2649999999999988,100.0,27.871,27.611,43.078,43.143,0.0,1.0,100.0,0.0,0.0,0.0,0.0,3104.714285714286,3262.8,4084.1111111111113,4169.4,305.435,304.62675,314.89775,314.5775,21.962,20.6092,21.9245,21.4431,314.999998,314.999998,324.999988,324.999988,99.55982857142857,99.50748333333334,99.56658571428571,99.5466,0.08950000000000014,-0.04066666666666663,-0.10316666666666667,0.11933333333333333,-0.03999999999999915,-0.05333333333332746,1.5350000000000001,1.5354999999999999,38.262,29.807666666666666,38.028,35.0195,56.284,35.2355,59.394999999999996,52.3575,54.194,34.3375,57.993,50.6895,53.339,33.86,57.913,50.0985,-0.09650000000000003,-0.056499999999999995,0.11100000000000002,0.10612500000000001,0.0,213.015,212.99,209.82999999999998,209.82999999999998,0.0,0.0
19,0.0,1.0,0.0,1.0,1.0,0.0,0.0,1.0,0.0,100.0,1.0,1.1856,26.0,0.0,0.0,0.0,59.999996,0.0,26.0,26.0,26.0,26.0,0.001777777777777878,0.28900000000000015,0.04775,292.023,-2.66,-2.585375,-1.617,-1.4576,-212.11,215.85250000000002,190.59625,0.0,0.0,0.0,0.0,0.03853333333333331,-5.498166666666667,-5.498166666666667,-0.5507000000000001,0.8109999999999999,0.017777777777777892,-0.6890000000000001,68.169,0.0079,-0.21115,-0.07200000000000006,100.0,1.0,1.0,210.23333333333335,0.0,0.0,0.0,0.0,0.0,0.0,0.0,8911.0,0.0,55.0,5.0,245.37666666666667,1.0,0.0,0.0,0.0,0.0,0.0,1.0,0.0,0.9540000000000006,0.9540000000000006,0.0,0.0,1.0,55.0,616.79921,10000.0,85.000001,85.000001,85.000001,85.000001,395.0,0.0,0.0,0.0,1.0,333.33500000000004,51.727000000000004,51.727000000000004,47.562,47.562,34.0,-24.55,24.766666666666666,-30.423333333333336,29.2425,0.0,1782.657,-0.23000000000000043,100.0,28.296,28.302,42.802,43.184,0.0,1.0,100.0,0.0,0.0,0.0,0.0,3233.714285714286,3208.4,4273.666666666667,4332.8,305.0465,304.4955,314.56875,314.17175,21.9717,20.6149,21.9348,21.4522,314.999998,314.999998,324.999988,324.999988,99.55984285714285,99.5075,99.56671428571428,99.54674285714286,0.08274999999999988,-0.04899999999999993,-0.1065,0.11966666666666667,-0.030000000000001137,-0.061666666666667425,1.5179999999999998,1.524,38.323,29.843,38.093,35.076499999999996,56.272,35.2755,59.432,52.4195,54.182,34.375,58.0275,50.749,53.327,33.896,57.944,50.157,-0.09550000000000003,-0.062000000000000055,0.10931500000000001,0.11312000000000001,0.0,213.445,213.47,210.23333333333335,210.23333333333335,0.0,0.0
20,0.0,1.0,0.0,1.0,1.0,0.0,0.0,1.0,0.0,100.0,1.0,1.1856,26.0,0.0,0.0,0.0,59.999996,0.0,26.0,26.0,26.0,26.0,0.021777777777777896,0.26859999999999995,-0.024525,292.435,-2.7511,-2.655625,-1.5373,-1.5833,-208.43,215.8375,190.5725,0.0,0.0,0.0,0.0,0.04069999999999996,-5.498166666666667,-5.498166666666667,-0.5562,-1.1124999999999998,0.011444444444444368,-1.001,68.316,0.01,-0.22485000000000002,-0.11799999999999944,100.0,1.0,1.0,210.60666666666668,0.0,0.0,0.0,0.0,0.0,0.0,0.0,8926.9,0.0,55.0,5.0,245.91,0.0,0.0,0.0,0.0,0.0,0.0,0.0,0.0,1.0079999999999991,1.0079999999999991,0.0,0.0,0.0,55.0,616.79921,10000.0,85.000001,85.000001,85.000001,85.000001,395.0,0.0,0.0,0.0,1.0,166.665,52.811,52.811,47.18,47.18,34.0,-23.6475,23.491666666666667,-28.696666666666665,29.6725,0.0,1782.604,-0.1399999999999988,100.0,27.732,27.932,43.396,43.596000000000004,0.0,1.0,100.0,0.0,0.0,0.0,0.0,3061.285714285714,3022.0,4186.777777777777,4132.0,305.7395,305.09875,314.64025,314.4425,21.9817,20.6207,21.9461,21.462,314.999998,314.999998,324.999988,324.999988,99.55985714285714,99.5075,99.56688571428572,99.54688571428571,0.08250000000000002,-0.05433333333333312,-0.10266666666666667,0.11616666666666667,-0.03833333333332689,-0.03166666666666629,1.484,1.4735,38.385999999999996,29.878999999999998,38.163,35.1375,56.254999999999995,35.3155,59.476,52.487,54.166,34.412,58.0685,50.814,53.31,33.9315,57.982,50.2205,-0.09050000000000002,-0.06550000000000011,0.09983,0.10343500000000001,0.0,213.865,213.86,210.60666666666668,210.60666666666668,0.0,0.0
21,0.0,1.0,0.0,1.0,1.0,0.0,0.0,1.0,0.0,100.0,1.0,1.1856,26.0,0.0,0.0,0.0,59.999996,0.0,26.0,26.0,26.0,26.0,0.01677777777777778,0.27859999999999996,-0.06470000000000001,292.709,-2.715,-2.6633750000000003,-1.6043,-1.544,-205.14999999999998,215.8225,190.550875,0.0,0.0,0.0,0.0,0.04259999999999997,-5.498166666666667,-5.498166666666667,-0.5758,0.4205,-0.005111111111111288,-0.845,68.441,0.0071,-0.22105000000000002,-0.02799999999999958,100.0,1.0,1.0,211.2,0.0,0.0,0.0,0.0,0.0,0.0,0.0,8952.1,0.0,55.0,5.0,246.36,1.0,0.0,0.0,0.0,0.0,0.0,0.0,0.0,1.056000000000001,1.056000000000001,0.0,0.0,1.0,55.0,616.79921,10000.0,85.000001,85.000001,85.000001,85.000001,395.0,0.0,0.0,0.0,1.0,166.665,52.414,52.414,48.218,48.218,34.0,-24.665,24.138333333333332,-28.66,27.51,0.0,1782.556,-0.17499999999999893,100.0,28.001,28.025,42.839,43.079,0.0,1.0,100.0,0.0,0.0,0.0,0.0,3198.285714285714,3045.4,4063.5555555555557,3998.8,305.2885,305.05925,315.06975,314.96325,21.9908,20.6259,21.9557,21.4705,314.999998,314.999998,324.999988,324.999988,99.55985714285714,99.5075,99.56701428571428,99.54702857142857,0.08124999999999982,-0.044333333333333114,-0.11466666666666668,0.11900000000000001,-0.04333333333332945,-0.04333333333332945,1.569,1.5670000000000002,38.442,29.912,38.223,35.1905,56.242999999999995,35.352000000000004,59.5085,52.542,54.155,34.446,58.0985,50.867,53.297,33.964,58.009,50.272,-0.09099999999999997,-0.0625,0.11598000000000001,0.105535,0.0,214.29500000000002,214.29500000000002,211.2,211.2,0.0,0.0
22,0.0,1.0,0.0,1.0,1.0,0.0,0.0,1.0,0.0,100.0,1.0,1.1856,26.0,0.0,0.0,0.0,59.999996,0.0,26.0,26.0,26.0,26.0,0.02100000000000013,0.27970000000000006,0.009125000000000001,292.252,-2.65155,-2.7121250000000003,-1.6002,-1.5292,-201.86,215.81,190.5285,0.0,0.0,0.0,0.0,0.044499999999999984,-5.498166666666667,-5.498166666666667,-0.5572,0.09050000000000002,0.006222222222222129,-0.30899999999999994,68.571,0.0024000000000000002,-0.204075,0.02400000000000002,100.0,1.0,1.0,211.40333333333334,0.0,0.0,0.0,0.0,0.0,0.0,0.0,8960.6,0.0,55.0,5.0,246.82999999999998,0.0,0.0,0.0,0.0,0.0,0.0,0.0,0.0,1.1039999999999992,1.1039999999999992,0.0,0.0,0.0,55.0,616.79921,10000.0,85.000001,85.000001,85.000001,85.000001,395.0,0.0,0.0,0.0,1.0,333.33500000000004,52.49,52.49,47.226,47.226,34.0,-22.69,23.763333333333332,-30.843333333333334,29.1275,0.0,1782.507,-0.27500000000000036,100.0,28.059,28.156,43.144,43.339,0.0,1.0,100.0,0.0,0.0,0.0,0.0,3050.714285714286,3004.3,4274.666666666667,4294.0,305.634,305.0535,314.5165,314.226,21.9998,20.6311,21.9656,21.4791,314.999998,314.999998,324.999988,324.999988,99.55987142857143,99.5075,99.56715714285714,99.54717142857143,0.08574999999999999,-0.05899999999999994,-0.11433333333333333,0.10083333333333333,-0.06666666666666998,-0.036666666666668846,1.4895,1.4965000000000002,38.498999999999995,29.944666666666667,38.285,35.2445,56.230999999999995,35.3885,59.5465,52.601,54.143,34.4795,58.1345,50.924,53.285,33.996,58.042,50.328,-0.10099999999999998,-0.0605,0.10604500000000001,0.10126500000000001,0.0,214.71,214.685,211.40333333333334,211.40333333333334,0.0,0.0
23,0.0,1.0,0.0,1.0,1.0,0.0,0.0,1.0,0.0,100.0,1.0,1.1856,26.0,0.0,0.0,0.0,59.999996,0.0,26.0,26.0,26.0,26.0,0.020777777777777784,0.24330000000000007,-0.060750000000000005,292.236,-2.6834,-2.661125,-1.6520000000000001,-1.5046,-198.14999999999998,215.79500000000002,190.503625,0.0,0.0,0.0,0.0,0.04666666666666652,-5.498166666666667,-5.498166666666667,-0.5766,-0.12149999999999994,0.004444444444444251,-0.6799999999999999,68.713,0.0029000000000000002,-0.230275,-0.02200000000000024,100.0,1.0,1.0,211.96666666666667,0.0,0.0,0.0,0.0,0.0,0.0,0.0,8984.4,0.0,55.0,5.0,247.34,1.0,0.0,0.0,0.0,0.0,0.0,0.0,0.0,1.1580000000000013,1.1580000000000013,0.0,0.0,1.0,55.0,616.79921,10000.0,85.000001,85.000001,85.000001,85.000001,395.0,0.0,0.0,0.0,1.0,166.665,51.772999999999996,51.772999999999996,48.141,48.141,34.0,-25.27,24.201666666666668,-29.136666666666663,26.990000000000002,0.0,1782.454,-0.23000000000000043,100.0,28.328,28.27,43.205,43.552,0.0,1.0,100.0,0.0,0.0,0.0,0.0,3310.5714285714284,3078.4,4050.6666666666665,4001.7,304.8615,304.9065,315.13075,314.96325,22.009900000000002,20.6371,21.9767,21.4889,314.999998,314.999998,324.999988,324.999988,99.55988571428571,99.50751666666666,99.5673,99.54732857142857,0.08625000000000016,-0.05133333333333323,-0.11266666666666668,0.117,-0.054999999999999716,-0.03333333333333144,1.549,1.5514999999999999,38.562,29.981666666666666,38.354,35.3055,56.217,35.4295,59.587,52.667500000000004,54.129000000000005,34.5175,58.1715,50.9875,53.269999999999996,34.033,58.076,50.3905,-0.09850000000000003,-0.05899999999999994,0.10566500000000001,0.110405,0.0,215.12,215.10500000000002,211.96666666666667,211.96666666666667,0.0,0.0
24,0.0,1.0,0.0,1.0,1.0,0.0,0.0,1.0,0.0,100.0,1.0,1.1856,26.0,0.0,0.0,0.0,59.999996,0.0,26.0,26.0,26.0,26.0,0.0021111111111111747,0.2692000000000001,-0.0517,292.45,-2.7037,-2.674375,-1.5705,-1.5335,-195.06,215.7825,190.4825,0.0,0.0,0.0,0.0,0.04846666666666655,-5.498166666666667,-5.498166666666667,-0.5804,-0.4415,0.018000000000000016,1.2200000000000002,68.834,0.0029000000000000002,-0.218425,-0.10799999999999965,100.0,1.0,1.0,212.23333333333335,0.0,0.0,0.0,0.0,0.0,0.0,0.0,8995.8,0.0,55.0,5.0,247.77333333333334,0.0,0.0,0.0,0.0,0.0,0.0,0.0,0.0,1.2029999999999994,1.2029999999999994,0.0,0.0,0.0,55.0,616.79921,10000.0,85.000001,85.000001,85.000001,85.000001,395.0,0.0,0.0,0.0,1.0,166.665,52.887,52.887,47.272,47.272,34.0,-21.7725,23.946666666666665,-29.45,29.677500000000002,0.0,1782.409,-0.27500000000000036,100.0,28.171,27.835,43.337,43.428,0.0,1.0,100.0,0.0,0.0,0.0,0.0,2902.714285714286,3037.9,4232.666666666667,4191.2,305.9685,305.251,314.50075,314.531,22.0182,20.6419,21.9859,21.497,314.999998,314.999998,324.999988,324.999988,99.5599,99.50753333333333,99.56744285714285,99.54745714285714,0.09125000000000005,-0.045333333333333226,-0.10200000000000001,0.12816666666666665,-0.036666666666668846,-0.06499999999999773,1.5154999999999998,1.5074999999999998,38.614000000000004,30.012,38.412,35.356,56.204,35.4625,59.621,52.7215,54.117000000000004,34.548,58.2035,51.039500000000004,53.257,34.062,58.105000000000004,50.4415,-0.10099999999999998,-0.056499999999999995,0.09639,0.11403,0.0,215.49,215.495,212.23333333333335,212.23333333333335,0.0,0.0
25,0.0,1.0,0.0,1.0,1.0,0.0,0.0,1.0,0.0,100.0,1.0,1.1856,26.0,0.0,0.0,0.0,59.999996,0.0,26.0,26.0,26.0,26.0,0.016555555555555657,0.2622,-0.04915,292.389,-2.7741,-2.63225,-1.5867,-1.5386000000000002,-191.54,215.76999999999998,190.45725,0.0,0.0,0.0,0.0,0.05049999999999999,-5.498166666666667,-5.498166666666667,-0.6093000000000001,-0.07000000000000006,0.01677777777777778,-1.141,68.96600000000001,0.0054,-0.224,-0.17799999999999905,100.0,1.0,1.0,212.76333333333332,0.0,0.0,0.0,0.0,0.0,0.0,0.0,9018.3,0.0,55.0,5.0,248.25,1.0,0.0,0.0,0.0,0.0,0.0,0.0,0.0,1.2540000000000013,1.2540000000000013,0.0,0.0,1.0,55.0,616.79921,10000.0,85.000001,85.000001,85.000001,85.000001,395.0,0.0,0.0,0.0,1.0,333.33500000000004,51.956,51.956,47.974000000000004,47.974000000000004,34.0,-25.8725,25.58,-27.456666666666663,27.6475,0.0,1782.356,-0.29999999999999893,100.0,27.904,28.186,43.032,43.292,0.0,1.0,100.0,0.0,0.0,0.0,0.0,3303.5714285714284,3231.8,3978.1111111111113,4041.8,305.074,304.47925,315.2395,314.857,22.0275,20.6475,21.9962,21.5061,314.999998,314.999998,324.999988,324.999988,99.5599,99.50753333333333,99.56758571428571,99.54761428571429,0.08625000000000016,-0.04466666666666663,-0.10816666666666667,0.11466666666666668,-0.04333333333332945,-0.054999999999999716,1.5715,1.5585,38.672,30.047,38.476,35.413,56.188,35.5035,59.658500000000004,52.7845,54.102000000000004,34.586,58.2385,51.1005,53.241,34.0985,58.1365,50.5005,-0.10449999999999993,-0.05499999999999994,0.11303,0.10268500000000001,0.0,215.905,215.905,212.76333333333332,212.76333333333332,0.0,0.0
26,0.0,1.0,0.0,1.0,1.0,0.0,0.0,1.0,0.0,100.0,1.0,1.1856,26.0,0.0,0.0,0.0,59.999996,0.0,26.0,26.0,26.0,26.0,0.005666666666666709,0.28190000000000004,0.08135,291.275,-2.721,-2.7115,-1.6308,-1.532,-188.01999999999998,215.7575,190.4315,0.0,0.0,0.0,0.0,0.05256666666666654,-5.498166666666667,-5.498166666666667,-0.5726,0.704,0.002555555555555644,0.8260000000000001,69.10300000000001,0.0111,-0.19725,-0.2320000000000002,100.0,1.0,1.0,212.92333333333335,0.0,0.0,0.0,0.0,0.0,0.0,0.0,9025.1,0.0,55.0,5.0,248.74,0.0,0.0,0.0,0.0,0.0,0.0,0.0,0.0,1.3049999999999997,1.3049999999999997,0.0,0.0,0.0,55.0,616.79921,10000.0,85.000001,85.000001,85.000001,85.000001,395.0,0.0,0.0,0.0,1.0,333.33500000000004,51.468,51.468,46.356,46.356,34.0,-23.535,25.988333333333333,-32.239999999999995,33.28,0.0,1782.307,-0.29999999999999893,100.0,28.931,28.629,43.538,43.556,0.0,1.0,100.0,0.0,0.0,0.0,0.0,3144.142857142857,3168.7,4524.666666666667,4542.4,305.2185,304.716,313.89125,313.693,22.0371,20.6533,22.0067,21.5153,314.999998,314.999998,324.999988,324.999988,99.55991428571429,99.50753333333333,99.56772857142857,99.54775714285714,0.10424999999999995,-0.03733333333333322,-0.0885,0.13183333333333336,-0.041666666666671404,-0.046666666666666856,1.455,1.4255,38.732,30.083,38.542,35.471000000000004,56.179,35.542,59.697,52.844,54.093,34.6215,58.274,51.1575,53.230999999999995,34.1325,58.1695,50.5565,-0.10749999999999993,-0.05899999999999994,0.10737500000000001,0.10944500000000001,0.0,216.35500000000002,216.35000000000002,212.92333333333335,212.92333333333335,0.0,0.0
27,0.0,1.0,0.0,1.0,1.0,0.0,0.0,1.0,0.0,100.0,1.0,1.1856,26.0,0.0,0.0,0.0,59.999996,0.0,26.0,26.0,26.0,26.0,0.030444444444444274,0.2542,-0.036750000000000005,291.794,-2.6961,-2.669,-1.6286,-1.5998999999999999,-184.49,215.745,190.407,0.0,0.0,0.0,0.0,0.05459999999999998,-5.498166666666667,-5.498166666666667,-0.5978,-1.009,0.006444444444444253,-0.725,69.23400000000001,0.0129,-0.24180000000000001,-0.2160000000000002,100.0,1.0,1.0,213.46333333333334,0.0,0.0,0.0,0.0,0.0,0.0,0.0,9047.9,0.0,55.0,5.0,249.21666666666667,1.0,0.0,0.0,0.0,0.0,0.0,0.0,0.0,1.355999999999998,1.355999999999998,0.0,0.0,1.0,55.0,616.79921,10000.0,85.000001,85.000001,85.000001,85.000001,395.0,0.0,0.0,0.0,1.0,166.665,51.956,51.956,46.722,46.722,34.0,-23.0075,24.78,-29.62,29.13,0.0,1782.257,-0.34499999999999886,100.0,28.385,28.659,44.06,44.293,0.0,1.0,100.0,0.0,0.0,0.0,0.0,3116.5714285714284,3105.6,4130.666666666667,4020.9,305.518,304.8305,314.8285,314.7835,22.0465,20.6589,22.0173,21.5247,314.999998,314.999998,324.999988,324.999988,99.55994285714286,99.50755,99.56788571428571,99.5479,0.10000000000000009,-0.045333333333333226,-0.10833333333333334,0.12316666666666667,-0.04833333333333201,-0.045000000000001705,1.5175,1.5025,38.79,30.118333333333332,38.608000000000004,35.5295,56.165,35.5805,59.7375,52.907,54.08,34.657,58.312,51.2185,53.217,34.1665,58.204,50.616,-0.10949999999999993,-0.055500000000000105,0.110225,0.10687,0.0,216.71,216.70499999999998,213.46333333333334,213.46333333333334,0.0,0.0
28,0.0,1.0,0.0,1.0,1.0,0.0,0.0,1.0,0.0,100.0,1.0,1.1856,26.0,0.0,0.0,0.0,59.999996,0.0,26.0,26.0,26.0,26.0,0.04633333333333334,0.25860000000000016,-0.059825,292.007,-2.67805,-2.668125,-1.572,-1.5661,-181.17000000000002,215.73250000000002,190.383125,0.0,0.0,0.0,0.0,0.056533333333333324,-5.498166666666667,-5.498166666666667,-0.6041000000000001,0.5974999999999999,-0.002000000000000224,-0.601,69.356,0.0154,-0.220175,-0.20199999999999996,100.0,1.0,1.0,213.95333333333332,0.0,0.0,0.0,0.0,0.0,0.0,0.0,9068.7,0.0,55.0,5.0,249.65666666666667,0.0,0.0,0.0,0.0,0.0,0.0,0.0,0.0,1.404,1.404,0.0,0.0,0.0,55.0,616.79921,10000.0,85.000001,85.000001,85.000001,85.000001,395.0,0.0,0.0,0.0,1.0,333.33500000000004,51.772999999999996,51.772999999999996,47.775,47.775,34.0,-23.375,24.869999999999997,-27.259999999999998,29.4425,0.0,1782.206,-0.35999999999999943,100.0,28.533,28.59,43.38,43.758,0.0,1.0,100.0,0.0,0.0,0.0,0.0,3224.4285714285716,3076.4,4014.1111111111113,4090.1000000000004,305.1435,304.89825,315.15525,314.7575,22.0554,20.6643,22.0269,21.5332,314.999998,314.999998,324.999988,324.999988,99.55994285714286,99.50755,99.56801428571428,99.54802857142857,0.10999999999999988,-0.03733333333333322,-0.101,0.13516666666666666,-0.051666666666669414,-0.03833333333332689,1.5619999999999998,1.5604999999999998,38.846000000000004,30.151666666666664,38.668,35.582499999999996,56.153999999999996,35.6175,59.769,52.9625,54.069,34.691,58.341499999999996,51.2715,53.205,34.1995,58.2305,50.668,-0.11299999999999999,-0.0515000000000001,0.10579500000000001,0.108035,0.0,217.135,217.13,213.95333333333332,213.95333333333332,0.0,0.0
29,0.0,1.0,0.0,1.0,1.0,0.0,0.0,1.0,0.0,100.0,1.0,1.1856,26.0,0.0,0.0,0.0,59.999996,0.0,26.0,26.0,26.0,26.0,0.03722222222222227,0.26270000000000016,0.014825000000000001,291.656,-2.6624499999999998,-2.71375,-1.5742,-1.5439,-177.63,215.7225,190.35675,0.0,0.0,0.0,0.0,0.058599999999999985,-5.498166666666667,-5.498166666666667,-0.604,-0.6385000000000001,0.005222222222222239,0.8069999999999999,69.491,0.0182,-0.2149,-0.37399999999999967,100.0,1.0,1.0,214.15,0.0,0.0,0.0,0.0,0.0,0.0,0.0,9077.1,0.0,55.0,5.0,250.14333333333335,1.0,0.0,0.0,0.0,0.0,0.0,0.0,0.0,1.4549999999999983,1.4549999999999983,0.0,0.0,1.0,55.0,616.79921,10000.0,85.000001,85.000001,85.000001,85.000001,395.0,0.0,0.0,0.0,1.0,333.33500000000004,52.032,52.032,46.6,46.6,34.0,-21.865,26.461666666666666,-28.3,31.675,0.0,1782.155,-0.3650000000000002,100.0,28.317,28.3,43.868,43.94,0.0,1.0,100.0,0.0,0.0,0.0,0.0,3058.142857142857,3202.7,4185.222222222223,4343.9,305.533,304.618,314.5875,314.1285,22.0646,20.6699,22.0375,21.5426,314.999998,314.999998,324.999988,324.999988,99.55995714285714,99.50756666666666,99.56815714285715,99.54818571428571,0.1120000000000001,-0.03466666666666662,-0.0825,0.13383333333333333,-0.046666666666666856,-0.04999999999999716,1.479,1.479,38.903999999999996,30.186999999999998,38.733999999999995,35.641,56.14,35.655,59.8095,53.0255,54.056,34.726,58.379,51.332499999999996,53.191,34.2325,58.2645,50.7275,-0.11049999999999993,-0.04899999999999993,0.10551500000000001,0.10523,0.0,217.51,217.525,214.15,214.15,0.0,0.0
30,0.0,1.0,0.0,1.0,1.0,0.0,0.0,1.0,0.0,100.0,1.0,1.1856,26.0,0.0,0.0,0.0,59.999996,0.0,26.0,26.0,26.0,26.0,0.03533333333333322,0.2592000000000001,0.055600000000000004,291.168,-2.71755,-2.6020000000000003,-1.5474,-1.6009,-174.29,215.7125,190.33175,0.0,0.0,0.0,0.0,0.06053333333333333,-5.498166666666667,-5.498166666666667,-0.6065,0.7175,0.0011111111111110628,0.4790000000000001,69.612,0.021,-0.220425,-0.34999999999999964,100.0,1.0,1.0,214.62333333333333,0.0,0.0,0.0,0.0,0.0,0.0,0.0,9097.1,0.0,55.0,5.0,250.57999999999998,0.0,0.0,0.0,0.0,0.0,0.0,1.0,0.0,1.5030000000000001,1.5030000000000001,0.0,0.0,0.0,55.0,616.79921,10000.0,85.000001,85.000001,85.000001,85.000001,395.0,0.0,0.0,0.0,1.0,166.665,50.69,50.69,47.134,47.134,34.0,-24.535,26.741666666666667,-27.013333333333335,31.7225,0.0,1782.109,-0.35999999999999943,100.0,29.137999999999998,29.008,43.631,43.974000000000004,0.0,1.0,100.0,0.0,0.0,0.0,0.0,3330.0,3310.6,4138.222222222223,4222.4,304.684,304.258,314.80675,314.38075,22.0736,20.6755,22.0472,21.5512,314.999998,314.999998,324.999988,324.999988,99.55997142857143,99.50756666666666,99.5683,99.54832857142857,0.11675000000000013,-0.02833333333333332,-0.07783333333333332,0.14,-0.03499999999999659,-0.05666666666667197,1.516,1.495,38.96,30.221666666666664,38.795,35.695499999999996,56.131,35.6935,59.843,53.083,54.047,34.762,58.41,51.3875,53.181,34.266999999999996,58.293,50.7815,-0.11649999999999994,-0.05750000000000011,0.09855000000000001,0.10382000000000001,0.0,217.925,217.93,214.62333333333333,214.62333333333333,0.0,0.0
31,0.0,1.0,0.0,1.0,1.0,0.0,0.0,1.0,0.0,100.0,1.0,1.1856,26.0,0.0,0.0,0.0,59.999996,0.0,26.0,26.0,26.0,26.0,0.018777777777777782,0.2601,0.00025,290.955,-2.7834,-2.5795000000000003,-1.5939,-1.4994,-170.73000000000002,215.7025,190.305875,0.0,0.0,0.0,0.0,0.06259999999999999,-5.498166666666667,-5.498166666666667,-0.5896,-0.494,0.004666666666666597,-0.929,69.745,0.0227,-0.22032500000000002,-0.266,100.0,1.0,1.0,214.89,0.0,0.0,0.0,0.0,0.0,0.0,0.0,9108.4,0.0,55.0,5.0,251.05666666666667,1.0,0.0,0.0,0.0,0.0,0.0,1.0,0.0,1.5539999999999985,1.5539999999999985,0.0,0.0,1.0,55.0,616.79921,10000.0,85.000001,85.000001,85.000001,85.000001,395.0,0.0,0.0,0.0,1.0,166.665,51.346000000000004,51.346000000000004,45.638999999999996,45.638999999999996,34.0,-23.849999999999998,25.238333333333333,-31.06,30.79,0.0,1782.058,-0.3899999999999988,100.0,28.782,29.178,44.289,44.738,0.0,1.0,100.0,0.0,0.0,0.0,0.0,3191.142857142857,3219.0,4393.666666666667,4241.4,305.4085,304.58325,314.16025,314.252,22.083,20.6812,22.0578,21.5607,314.999998,314.999998,324.999988,324.999988,99.55998571428572,99.50756666666666,99.56845714285714,99.54848571428572,0.11149999999999993,-0.03733333333333322,-0.09583333333333333,0.14033333333333334,-0.04833333333333201,-0.030000000000001137,1.4594999999999998,1.4545,39.019,30.257666666666665,38.861999999999995,35.7545,56.119,35.7335,59.884,53.1475,54.036,34.799,58.448499999999996,51.4495,53.169,34.3025,58.328,50.8425,-0.11299999999999999,-0.05049999999999999,0.11244000000000001,0.11550500000000001,0.0,218.31,218.315,214.89,214.89,0.0,0.0
32,0.0,1.0,0.0,1.0,1.0,0.0,0.0,1.0,0.0,100.0,1.0,1.1856,26.0,0.0,0.0,0.0,59.999996,0.0,26.0,26.0,26.0,26.0,0.02344444444444438,0.27300000000000013,-0.044225,291.245,-2.6823,-2.68975,-1.6429,-1.5114,-167.17000000000002,215.6925,190.280375,0.0,0.0,0.0,0.0,0.06466666666666654,-5.498166666666667,-5.498166666666667,-0.6056,-0.02400000000000002,-0.01855555555555588,0.18799999999999994,69.872,0.023700000000000002,-0.22795,-0.36799999999999944,100.0,1.0,1.0,215.41666666666669,0.0,0.0,0.0,0.0,0.0,0.0,0.0,9130.7,0.0,55.0,5.0,251.51333333333332,0.0,0.0,0.0,0.0,0.0,0.0,1.0,0.0,1.6050000000000004,1.6050000000000004,0.0,0.0,0.0,55.0,616.79921,10000.0,85.000001,85.000001,85.000001,85.000001,395.0,0.0,0.0,0.0,1.0,166.665,51.391999999999996,51.391999999999996,46.539,46.539,34.0,-22.44,26.351666666666667,-29.189999999999998,31.25,0.0,1782.007,-0.3699999999999992,100.0,28.956,28.999,44.196,44.442,0.0,1.0,100.0,0.0,0.0,0.0,0.0,3134.142857142857,3186.1,4215.222222222223,4298.0,305.265,304.7455,314.697,314.3605,22.0924,20.6871,22.0682,21.5699,314.999998,314.999998,324.999988,324.999988,99.56,99.50758333333333,99.5686,99.54862857142857,0.11900000000000022,-0.02633333333333332,-0.084,0.14816666666666667,-0.05833333333333002,-0.05333333333332746,1.524,1.5145,39.077,30.294,38.926,35.812,56.107,35.772999999999996,59.920500000000004,53.207499999999996,54.024,34.835499999999996,58.482,51.5075,53.156,34.3375,58.3585,50.899,-0.11099999999999999,-0.052999999999999936,0.11216000000000001,0.10892,0.0,218.71,218.715,215.41666666666669,215.41666666666669,0.0,0.0
33,0.0,1.0,0.0,1.0,1.0,0.0,0.0,1.0,0.0,100.0,1.0,1.1856,26.0,0.0,0.0,0.0,59.999996,0.0,26.0,26.0,26.0,26.0,0.036111111111111205,0.25140000000000007,-0.034875,291.504,-2.72545,-2.683125,-1.5864,-1.5941,-163.61,215.685,190.25375,0.0,0.0,0.0,0.0,0.06673333333333331,-5.498166666666667,-5.498166666666667,-0.6152000000000001,-0.3285,-0.01577777777777767,0.02400000000000002,70.002,0.0233,-0.21832500000000002,-0.21999999999999975,100.0,1.0,1.0,215.7866666666667,0.0,0.0,0.0,0.0,0.0,0.0,0.0,9146.4,0.0,55.0,5.0,251.98000000000002,1.0,0.0,0.0,0.0,0.0,0.0,1.0,0.0,1.6559999999999988,1.6559999999999988,0.0,0.0,1.0,55.0,616.79921,10000.0,85.000001,85.000001,85.000001,85.000001,395.0,0.0,0.0,0.0,1.0,166.665,51.819,51.819,46.753,46.753,34.0,-23.5975,24.64666666666667,-28.89,31.142500000000002,0.0,1781.957,-0.3699999999999992,100.0,28.64,28.816,44.007,44.429,0.0,1.0,100.0,0.0,0.0,0.0,0.0,3167.0,3041.8,4190.222222222223,4215.4,305.4245,305.04375,314.7225,314.432,22.1017,20.6927,22.0786,21.5792,314.999998,314.999998,324.999988,324.999988,99.56001428571429,99.50758333333333,99.56875714285714,99.54878571428571,0.10199999999999987,-0.03766666666666674,-0.09516666666666668,0.13216666666666665,-0.04833333333333201,-0.051666666666669414,1.509,1.4925000000000002,39.135999999999996,30.329,38.991,35.87,56.095,35.8095,59.957499999999996,53.2685,54.013,34.8695,58.516999999999996,51.566,53.144,34.3705,58.39,50.956,-0.10649999999999993,-0.0535000000000001,0.10829000000000001,0.10743000000000001,0.0,219.10000000000002,219.12,215.7866666666667,215.7866666666667,0.0,0.0
34,0.0,1.0,0.0,1.0,1.0,0.0,0.0,1.0,0.0,100.0,1.0,1.1856,26.0,0.0,0.0,0.0,59.999996,0.0,26.0,26.0,26.0,26.0,0.03844444444444428,0.2513000000000001,-0.04875,291.748,-2.66365,-2.6765,-1.6452,-1.5556999999999999,-160.24,215.6775,190.2275,0.0,0.0,0.0,0.0,0.06869999999999998,-5.498166666666667,-5.498166666666667,-0.6403,-0.796,0.008444444444444255,-0.30999999999999994,70.123,0.0247,-0.22260000000000002,-0.23399999999999999,100.0,1.0,1.0,216.17000000000002,0.0,0.0,0.0,0.0,0.0,0.0,0.0,9162.7,0.0,55.0,5.0,252.41666666666666,0.0,0.0,0.0,0.0,0.0,0.0,1.0,0.0,1.7040000000000006,1.7040000000000006,0.0,0.0,0.0,55.0,616.79921,10000.0,85.000001,85.000001,85.000001,85.000001,395.0,0.0,0.0,0.0,1.0,333.33500000000004,52.138999999999996,52.138999999999996,47.256,47.256,34.0,-22.7475,24.28666666666667,-28.5,30.89,0.0,1781.907,-0.33999999999999986,100.0,28.38,28.505,43.827,44.461,0.0,1.0,100.0,0.0,0.0,0.0,0.0,3151.4285714285716,2990.9,4105.444444444444,4189.6,305.45,305.13125,314.94425,314.45625,22.1104,20.6979,22.0883,21.588,314.999998,314.999998,324.999988,324.999988,99.56004285714286,99.50758333333333,99.5689,99.54892857142858,0.10550000000000015,-0.035666666666666735,-0.08650000000000001,0.14116666666666666,-0.03499999999999659,-0.041666666666671404,1.516,1.496,39.19,30.362000000000002,39.052,35.925,56.082,35.844,59.9905,53.326499999999996,54.001000000000005,34.900999999999996,58.5475,51.622,53.129999999999995,34.400999999999996,58.417500000000004,51.0105,-0.10899999999999999,-0.052000000000000046,0.10365500000000001,0.11085500000000001,0.0,219.46,219.46,216.17000000000002,216.17000000000002,0.0,0.0
35,0.0,1.0,0.0,1.0,1.0,0.0,0.0,1.0,0.0,100.0,1.0,1.1856,26.0,0.0,0.0,0.0,59.999996,0.0,26.0,26.0,26.0,26.0,0.025111111111111084,0.25690000000000013,-0.075075,291.779,-2.7215,-2.623125,-1.6229,-1.5169000000000001,-156.66,215.6725,190.197625,0.0,0.0,0.0,0.0,0.07079999999999997,-5.498166666666667,-5.498166666666667,-0.6811,-0.3985000000000001,-0.005555555555555536,0.040999999999999925,70.25,0.0264,-0.23085,-0.35599999999999987,100.0,1.0,1.0,216.62333333333333,0.0,0.0,0.0,0.0,0.0,0.0,0.0,9181.9,0.0,55.0,5.0,252.87666666666667,1.0,0.0,0.0,0.0,0.0,0.0,1.0,0.0,1.754999999999999,1.754999999999999,0.0,0.0,1.0,55.0,616.79921,10000.0,85.000001,85.000001,85.000001,85.000001,395.0,0.0,0.0,0.0,1.0,166.665,51.727000000000004,51.727000000000004,46.829,46.829,34.0,-22.755,27.498333333333335,-27.509999999999998,28.900000000000002,0.0,1781.857,-0.25,100.0,28.288,28.596,43.733000000000004,43.91,0.0,1.0,100.0,0.0,0.0,0.0,0.0,3087.142857142857,3385.5,4038.4444444444443,4017.9,305.4745,304.16,314.985,314.9375,22.1195,20.7037,22.0985,21.5971,314.999998,314.999998,324.999988,324.999988,99.56004285714286,99.50758333333333,99.56904285714286,99.54907142857142,0.10975000000000001,-0.028666666666666618,-0.0825,0.14683333333333334,-0.051666666666669414,-0.04833333333333201,1.5394999999999999,1.5345,39.247,30.398,39.116,35.982,56.067,35.8825,60.025999999999996,53.384,53.986000000000004,34.937,58.5805,51.6775,53.114999999999995,34.4355,58.447,51.0645,-0.10050000000000003,-0.06000000000000005,0.11298500000000002,0.10763,0.0,219.85000000000002,219.86,216.62333333333333,216.62333333333333,0.0,0.0
36,0.0,1.0,0.0,1.0,1.0,0.0,0.0,1.0,0.0,100.0,1.0,1.1856,26.0,0.0,0.0,0.0,59.999996,0.0,26.0,26.0,26.0,26.0,0.02966666666666673,0.266,0.054150000000000004,290.985,-2.7646,-2.6656250000000004,-1.5695999999999999,-1.5558,-153.29,215.66750000000002,190.168125,0.0,0.0,0.0,0.0,0.07273333333333332,-5.498166666666667,-5.498166666666667,-0.6637000000000001,0.28500000000000003,-0.046111111111111214,0.13600000000000012,70.372,0.0252,-0.20090000000000002,-0.08799999999999919,100.0,1.0,1.0,216.8,0.0,0.0,0.0,0.0,0.0,0.0,0.0,9189.4,0.0,55.0,5.0,253.31333333333333,0.0,0.0,0.0,0.0,0.0,0.0,1.0,0.0,1.8030000000000008,1.8030000000000008,0.0,0.0,0.0,55.0,616.79921,10000.0,85.000001,85.000001,85.000001,85.000001,395.0,0.0,0.0,0.0,1.0,333.33500000000004,51.315,51.315,46.478,46.478,34.0,-24.54,26.263333333333335,-29.213333333333335,34.215,0.0,1781.808,-0.15499999999999936,100.0,28.872,28.769,43.82,44.043,0.0,1.0,100.0,0.0,0.0,0.0,0.0,3275.0,3237.3,4386.0,4515.8,304.991,304.6405,314.2015,313.78775,22.1283,20.7092,22.1083,21.6059,314.999998,314.999998,324.999988,324.999988,99.56005714285715,99.50758333333333,99.56918571428571,99.54921428571429,0.11375000000000002,-0.033666666666666734,-0.07050000000000001,0.1475,-0.041666666666671404,-0.051666666666669414,1.4554999999999998,1.4539999999999997,39.302,30.432666666666666,39.177,36.036500000000004,56.057,35.920500000000004,60.061,53.4415,53.976,34.9725,58.613,51.733000000000004,53.104,34.469,58.4765,51.119,-0.09750000000000003,-0.06899999999999995,0.097585,0.11531000000000001,0.0,220.26999999999998,220.275,216.8,216.8,0.0,0.0
