,ABS Active,ABS Enabled,AID Allow Tire Blankets,AID Auto Blip,AID Auto Clutch,AID Auto Shift,AID Fuel Rate,AID Ideal Line,AID Mech Damage,AID Stability,AID Tire Wear Rate,Air Density,Air Temp,Ballast,Best Lap Delta,Best Lap Time,Brake Bias,Brake Pos,Brake Temp FL,Brake Temp FR,Brake Temp RL,Brake Temp RR,CG Accel Lateral,CG Accel Longitudinal,CG Accel Vertical,CG Height,Camber FL,Camber FR,Camber RL,Camber RR,Car Coord X,Car Coord Y,Car Coord Z,Car Damage Front,Car Damage Left,Car Damage Rear,Car Damage Right,Car Pos Norm,Caster FL,Caster FR,Chassis Pitch Angle,Chassis Pitch Rate,Chassis Roll Angle,Chassis Roll Rate,Chassis Velocity X,Chassis Velocity Y,Chassis Velocity Z,Chassis Yaw Rate,Clutch Pos,DRS Active,DRS Available,Drive Train Speed,ERS Heat Charging,ERS Is Charging,ERS Max Energy,ERS Power Level,ERS Recovery Level,Engine Brake Setting,Engine Limiter,Engine RPM,Flags,Fuel Level,Gear,Ground Speed,HR Sample Clock,In Pit,KERS Charge,KERS Deployed Energy,KERS Input,KERS Max Energy,LR Sample Clock,Lap Invalidated,Lap Time,Lap Time2,Last Lap Time,Last Sector Time,MR Sample Clock,Max Fuel,Max Power,Max RPM,Max Sus Travel FL,Max Sus Travel FR,Max Sus Travel RL,Max Sus Travel RR,Max Torque,Max Turbo Boost,Num Tires Off Track,Penalties Enabled,Position,Raw Data Sample Rate,Ride Height FL,Ride Height FR,Ride Height RL,Ride Height RR,Road Temp,Self Align Torque FL,Self Align Torque FR,Self Align Torque RL,Self Align Torque RR,Session Lap Count,Session Time Left,Steering Angle,Surface Grip,Suspension Travel FL,Suspension Travel FR,Suspension Travel RL,Suspension Travel RR,TC Active,TC Enabled,Throttle Pos,Tire Dirt Level FL,Tire Dirt Level FR,Tire Dirt Level RL,Tire Dirt Level RR,Tire Load FL,Tire Load FR,Tire Load RL,Tire Load RR,Tire Loaded Radius FL,Tire Loaded Radius FR,Tire Loaded Radius RL,Tire Loaded Radius RR,Tire Pressure FL,Tire Pressure FR,Tire Pressure RL,Tire Pressure RR,Tire Radius FL,Tire Radius FR,Tire Radius RL,Tire Radius RR,Tire Rubber Grip FL,Tire Rubber Grip FR,Tire Rubber Grip RL,Tire Rubber Grip RR,Tire Slip Angle FL,Tire Slip Angle FR,Tire Slip Angle RL,Tire Slip Angle RR,Tire Slip Ratio FL,Tire Slip Ratio FR,Tire Slip Ratio RL,Tire Slip Ratio RR,Tire Temp Core FL,Tire Temp Core FR,Tire Temp Core RL,Tire Temp Core RR,Tire Temp Inner FL,Tire Temp Inner FR,Tire Temp Inner RL,Tire Temp Inner RR,Tire Temp Middle FL,Tire Temp Middle FR,Tire Temp Middle RL,Tire Temp Middle RR,Tire Temp Outer FL,Tire Temp Outer FR,Tire Temp Outer RL,Tire Temp Outer RR,Toe In FL,Toe In FR,Toe In RL,Toe In RR,Turbo Boost,Wheel Angular Speed FL,Wheel Angular Speed FR,Wheel Angular Speed RL,Wheel Angular Speed RR,Wind Direction,Wind Speed
0,0.0,1.0,0.0,1.0,1.0,0.0,0.0,1.0,0.0,100.0,1.0,1.1856,26.0,0.0,0.0,0.0,59.99999,0.0,26.0,26.0,26.0,26.0,-0.10233333333333339,0.32220000000000004,0.07935,293.823,-2.697,-2.669428571428571,-1.5021499999999999,-1.5674000000000001,-275.54,216.28750000000002,190.986625,0.0,0.0,0.0,0.0,0.0016666666666665941,-5.498166666666667,-5.498166666666667,-0.554,1.948,-0.022333333333333094,-0.657,65.39,-0.0543,-0.22075,1.1160000000000005,100.0,1.0,1.0,201.89,0.0,0.0,0.0,0.0,0.0,0.0,0.0,8557.4,0.0,55.0,5.0,235.37333333333333,0.0,0.0,0.0,0.0,0.0,0.0,0.0,0.0,0.006000000000000227,0.006000000000000227,0.0,0.0,0.0,55.0,616.79921,10000.0,85.0,85.0,85.0,85.0,395.0,0.0,0.0,0.0,1.0,20.0,52.307,52.307,49.484,49.484,34.0,-26.9,22.935,-31.695,24.2175,0.0,1783.028,0.9000000000000021,100.0,28.007,27.301000000000002,40.485,40.152,0.0,1.0,100.0,0.0,0.0,0.0,0.0,3023.714285714286,3377.9,4200.625,4037.5,305.6095,304.053,314.627,314.79675,21.8063,20.5161,21.7729,21.3012,314.99999,314.99999,324.99998,324.99998,99.56081428571429,99.50728333333333,99.56691428571429,99.54532857142857,-0.0129999999999999,-0.134,-0.1758333333333334,0.044333333333333336,-0.061666666666667425,-0.06833333333332803,1.55,1.6056666666666666,37.289,29.225666666666665,37.081,34.1325,57.003,34.555,59.7285,51.863,54.872,33.709,58.348,50.1875,54.022,33.257,58.3335,49.590333333333334,-0.010000000000000009,-0.14250000000000007,0.10663,0.11082000000000002,0.0,204.95499999999998,204.88,201.89,201.89,0.0,0.0
1,0.0,1.0,0.0,1.0,1.0,0.0,0.0,1.0,0.0,100.0,1.0,1.1856,26.0,0.0,0.0,0.0,59.999996,0.0,26.0,26.0,26.0,26.0,-0.123,0.3086,0.18785000000000002,293.045,-2.62,-2.7804285714285717,-1.5108000000000001,-1.5632000000000001,-272.2,216.285,190.966625,0.0,0.0,0.0,0.0,0.0036333333333333773,-5.498166666666667,-5.498166666666667,-0.4989,-1.1016666666666666,-0.06966666666666654,-0.48999999999999977,65.54599999999999,-0.0684,-0.19992500000000002,1.4939999999999998,100.0,1.0,1.0,202.00666666666666,0.0,0.0,0.0,0.0,0.0,0.0,0.0,8562.3,0.0,55.0,5.0,235.93666666666667,1.0,0.0,0.0,0.0,0.0,0.0,0.0,0.0,0.05699999999999861,0.05699999999999861,0.0,0.0,1.0,55.0,616.79921,10000.0,85.000001,85.000001,85.000001,85.000001,395.0,0.0,0.0,0.0,1.0,333.33500000000004,53.543,53.543,48.34,48.34,34.0,-27.515,17.475,-36.31,27.8075,0.0,1782.976,0.8949999999999996,100.0,27.738,26.987000000000002,42.592,41.531,0.0,1.0,100.0,0.0,0.0,0.0,0.0,3137.142857142857,2648.7,4426.5,4709.2,305.388,306.442,313.95325,313.09675,21.8163,20.5211,21.784,21.3104,314.999998,314.999998,324.999988,324.999988,99.56082857142857,99.50731666666667,99.56707142857142,99.54548571428572,-0.020000000000000018,-0.14949999999999997,-0.20099999999999996,0.011166666666666547,-0.06333333333333258,-0.030000000000001137,1.3833333333333333,1.438,37.352000000000004,29.256999999999998,37.15,34.19,56.985,34.5945,59.774,51.928,54.855000000000004,33.745,58.3905,50.25,54.004,33.2915,58.373,49.651666666666664,-0.006000000000000005,-0.14250000000000007,0.10355,0.109825,0.0,205.39499999999998,205.26,202.00666666666666,202.00666666666666,0.0,0.0
2,0.0,1.0,0.0,1.0,1.0,0.0,0.0,1.0,0.0,100.0,1.0,1.1856,26.0,0.0,0.0,0.0,59.999996,0.0,26.0,26.0,26.0,26.0,-0.14177777777777778,0.30469999999999997,-0.046200000000000005,293.839,-2.6088,-2.785857142857143,-1.4914,-1.5978,-268.66,216.2775,190.946875,0.0,0.0,0.0,0.0,0.005666666666666598,-5.498166666666667,-5.498166666666667,-0.5578000000000001,0.4913333333333333,-0.0434444444444444,1.4649999999999999,65.696,-0.08410000000000001,-0.26075000000000004,1.6760000000000002,100.0,1.0,1.0,203.04666666666668,0.0,0.0,0.0,0.0,0.0,0.0,0.0,8606.4,0.0,55.0,5.0,236.4766666666667,0.0,0.0,0.0,0.0,0.0,0.0,0.0,0.0,0.11100000000000065,0.11100000000000065,0.0,0.0,0.0,55.0,616.79921,10000.0,85.000001,85.000001,85.000001,85.000001,395.0,0.0,0.0,0.0,1.0,166.665,52.277,52.277,50.568,50.568,34.0,-30.85,19.28666666666667,-28.9975,19.3,0.0,1782.923,0.7300000000000004,100.0,28.428,27.133,42.238,41.024,0.0,1.0,100.0,0.0,0.0,0.0,0.0,3363.714285714286,2956.7,3676.375,3710.1,304.6,305.3345,315.87125,315.7025,21.8273,20.5264,21.7952,21.3197,314.999998,314.999998,324.999988,324.999988,99.56082857142857,99.50733333333334,99.56721428571429,99.54562857142857,-0.040999999999999925,-0.16874999999999996,-0.2363333333333334,-0.00983333333333336,-0.04333333333332945,-0.04833333333333201,1.6626666666666665,1.7153333333333334,37.421,29.29,37.22,34.2485,56.971000000000004,34.637,59.811,51.9865,54.842,33.7845,58.425,50.306,53.989999999999995,33.329499999999996,58.4045,49.70666666666666,-0.013500000000000068,-0.14150000000000018,0.10389500000000002,0.11175500000000001,0.0,205.845,205.715,203.04666666666668,203.04666666666668,0.0,0.0
3,0.0,1.0,0.0,1.0,1.0,0.0,0.0,1.0,0.0,100.0,1.0,1.1856,26.0,0.0,0.0,0.0,59.999996,0.0,26.0,26.0,26.0,26.0,-0.14933333333333332,0.3074000000000001,0.10685,293.549,-2.7173,-2.7054285714285715,-1.499,-1.5979,-265.7,216.26749999999998,190.929375,0.0,0.0,0.0,0.0,0.007399999999999962,-5.498166666666667,-5.498166666666667,-0.51,0.379,-0.019777777777777672,0.1259999999999999,65.832,-0.0961,-0.19805,1.298,100.0,1.0,1.0,203.09333333333333,0.0,0.0,0.0,0.0,0.0,0.0,0.0,8608.3,0.0,55.0,5.0,236.96333333333334,1.0,0.0,0.0,0.0,0.0,0.0,0.0,0.0,0.1559999999999988,0.1559999999999988,0.0,0.0,1.0,55.0,616.79921,10000.0,85.000001,85.000001,85.000001,85.000001,395.0,0.0,0.0,0.0,1.0,166.665,53.65,53.65,48.263999999999996,48.263999999999996,34.0,-25.7125,18.081666666666667,-35.015,24.5275,0.0,1782.878,0.6449999999999996,100.0,28.028,26.87,42.36,41.147999999999996,0.0,1.0,100.0,0.0,0.0,0.0,0.0,2844.714285714286,2842.2,4332.625,4257.3,306.133,305.79975,314.22175,314.31275,21.836100000000002,20.531,21.8047,21.3277,314.999998,314.999998,324.999988,324.999988,99.56084285714286,99.50735,99.56734285714286,99.54574285714286,-0.026000000000000023,-0.15749999999999997,-0.20799999999999996,0.007333333333333414,-0.03499999999999659,-0.09833333333332916,1.492,1.5163333333333333,37.476,29.318666666666665,37.278999999999996,34.298,56.955,34.6745,59.845,52.0415,54.826,33.819,58.457,50.3585,53.974000000000004,33.3625,58.434,49.75833333333333,-0.028999999999999915,-0.12550000000000017,0.09745500000000001,0.10614000000000001,0.0,206.29500000000002,206.2,203.09333333333333,203.09333333333333,0.0,0.0
4,0.0,1.0,0.0,1.0,1.0,0.0,0.0,1.0,0.0,100.0,1.0,1.1856,26.0,0.0,0.0,0.0,59.999996,0.0,26.0,26.0,26.0,26.0,-0.15200000000000002,0.2923,-0.0164,293.716,-2.6559,-2.7471428571428573,-1.51985,-1.6011,-262.33,216.255,190.90975,0.0,0.0,0.0,0.0,0.009366666666666523,-5.498166666666667,-5.498166666666667,-0.5476,-0.7786666666666668,-0.08422222222222242,-1.6059999999999999,65.979,-0.0942,-0.23997500000000002,1.226,100.0,1.0,1.0,203.7,0.0,0.0,0.0,0.0,0.0,0.0,0.0,8634.1,0.0,55.0,5.0,237.49666666666667,0.0,0.0,0.0,0.0,0.0,0.0,0.0,0.0,0.20700000000000074,0.20700000000000074,0.0,0.0,0.0,55.0,616.79921,10000.0,85.000001,85.000001,85.000001,85.000001,395.0,0.0,0.0,0.0,1.0,333.33500000000004,53.024,53.024,48.965,48.965,34.0,-30.075,19.056666666666665,-32.8975,20.495,0.0,1782.825,0.620000000000001,100.0,27.708,26.813,42.738,41.302,0.0,1.0,100.0,0.0,0.0,0.0,0.0,3298.5714285714284,2885.0,4074.5,3657.4,304.965,305.501,314.88275,315.70575,21.846,20.5361,21.8155,21.3366,314.999998,314.999998,324.999988,324.999988,99.56084285714286,99.50736666666667,99.56748571428571,99.54588571428572,-0.03424999999999989,-0.15425,-0.21966666666666657,0.012833333333333474,-0.045000000000001705,-0.061666666666667425,1.5736666666666665,1.6106666666666667,37.538,29.35033333333333,37.347,34.354,56.936,34.7155,59.885,52.0995,54.808,33.8565,58.4945,50.414500000000004,53.955,33.3985,58.4685,49.813,-0.030000000000000027,-0.11399999999999988,0.10597500000000001,0.11278500000000001,0.0,206.69,206.61,203.7,203.7,0.0,0.0
5,0.0,1.0,0.0,1.0,1.0,0.0,0.0,1.0,0.0,100.0,1.0,1.1856,26.0,0.0,0.0,0.0,59.999996,0.0,26.0,26.0,26.0,26.0,-0.14,0.3146,-0.0061,293.655,-2.6709,-2.7678571428571432,-1.5069,-1.5858,-258.77,216.235,190.888125,0.0,0.0,0.0,0.0,0.011433333333333295,-5.498166666666667,-5.498166666666667,-0.5359,0.364,-0.08499999999999996,-0.2490000000000001,66.135,-0.09340000000000001,-0.2139,1.08,100.0,1.0,1.0,204.09666666666666,0.0,0.0,0.0,0.0,0.0,0.0,0.0,8650.9,0.0,55.0,5.0,238.05666666666667,1.0,0.0,0.0,0.0,0.0,0.0,0.0,0.0,0.26099999999999923,0.26099999999999923,0.0,0.0,1.0,55.0,616.79921,10000.0,85.000001,85.000001,85.000001,85.000001,395.0,0.0,0.0,0.0,1.0,166.665,53.452,53.452,48.981,48.981,34.0,-28.535,18.37166666666667,-34.2275,22.445,0.0,1782.773,0.21999999999999886,100.0,27.798000000000002,26.727,42.494,41.086,0.0,1.0,100.0,0.0,0.0,0.0,0.0,3190.4285714285716,2758.8,4219.875,4053.6000000000004,305.244,305.94825,314.61375,314.75125,21.8568,20.5415,21.8268,21.346,314.999998,314.999998,324.999988,324.999988,99.56084285714286,99.50738333333334,99.56764285714286,99.54604285714285,-0.019749999999999934,-0.15025,-0.22066666666666657,-0.0004999999999999449,-0.03499999999999659,-0.051666666666669414,1.546,1.5676666666666668,37.605000000000004,29.384,37.417,34.4125,56.919,34.7585,59.9255,52.16,54.793,33.896,58.532,50.472,53.939,33.436,58.5035,49.86966666666667,-0.05400000000000005,-0.09549999999999992,0.10660000000000001,0.106495,0.0,207.235,207.125,204.0966666666667,204.09666666666666,0.0,0.0
6,0.0,1.0,0.0,1.0,1.0,0.0,0.0,1.0,0.0,100.0,1.0,1.1856,26.0,0.0,0.0,0.0,59.999996,0.0,26.0,26.0,26.0,26.0,-0.1283333333333333,0.28910000000000013,0.00965,293.503,-2.6335,-2.748857142857143,-1.5484499999999999,-1.5833000000000002,-255.79,216.2175,190.87,0.0,0.0,0.0,0.0,0.013166666666666549,-5.498166666666667,-5.498166666666667,-0.5323,0.08866666666666656,-0.06566666666666654,0.968,66.265,-0.0863,-0.21595,0.734,100.0,1.0,1.0,204.51333333333332,0.0,0.0,0.0,0.0,0.0,0.0,0.0,8668.5,0.0,55.0,5.0,238.5233333333333,0.0,0.0,0.0,0.0,0.0,0.0,0.0,0.0,0.30600000000000094,0.30600000000000094,0.0,0.0,0.0,55.0,616.79921,10000.0,85.000001,85.000001,85.000001,85.000001,395.0,0.0,0.0,0.0,1.0,166.665,53.162,53.162,48.828,48.828,34.0,-26.7425,20.876666666666665,-32.4625,23.4775,0.0,1782.728,-0.00999999999999801,100.0,27.868,26.678,42.715,41.338,0.0,1.0,100.0,0.0,0.0,0.0,0.0,3106.857142857143,2993.4,4072.75,4045.9,305.268,305.3605,314.89625,314.85,21.8657,20.546,21.8363,21.354,314.999998,314.999998,324.999988,324.999988,99.56084285714286,99.5074,99.56777142857143,99.54614285714285,0.0022500000000000853,-0.126,-0.19999999999999996,0.02200000000000002,-0.05666666666667197,-0.04999999999999716,1.54,1.558,37.661,29.412333333333336,37.477000000000004,34.4625,56.903999999999996,34.794,59.9595,52.213499999999996,54.778,33.929,58.5635,50.5235,53.924,33.4675,58.5325,49.919666666666664,-0.0694999999999999,-0.08199999999999985,0.10919500000000001,0.108115,0.0,207.61,207.51999999999998,204.51333333333332,204.51333333333332,0.0,0.0
7,0.0,1.0,0.0,1.0,1.0,0.0,0.0,1.0,0.0,100.0,1.0,1.1856,26.0,0.0,0.0,0.0,59.999996,0.0,26.0,26.0,26.0,26.0,-0.07866666666666666,0.29590000000000005,0.021750000000000002,293.243,-2.6119,-2.732142857142857,-1.5110999999999999,-1.625,-252.4,216.1925,190.849625,0.0,0.0,0.0,0.0,0.015133333333333332,-5.498166666666667,-5.498166666666667,-0.5355,0.0040000000000000036,-0.05466666666666642,-0.21099999999999985,66.411,-0.0695,-0.22505,0.4500000000000002,100.0,1.0,1.0,204.93666666666667,0.0,0.0,0.0,0.0,0.0,0.0,0.0,8686.6,0.0,55.0,5.0,239.05333333333334,1.0,0.0,0.0,0.0,0.0,0.0,0.0,0.0,0.3569999999999993,0.3569999999999993,0.0,0.0,1.0,55.0,616.79921,10000.0,85.000001,85.000001,85.000001,85.000001,395.0,0.0,0.0,0.0,1.0,166.665,52.811,52.811,48.903999999999996,48.903999999999996,34.0,-27.197499999999998,21.653333333333336,-31.92,24.6325,0.0,1782.677,-0.21000000000000085,100.0,27.809,26.913,42.684,41.738,0.0,1.0,100.0,0.0,0.0,0.0,0.0,3300.4285714285716,2961.2,4083.125,4019.8,304.8325,305.2745,314.8885,314.7665,21.875799999999998,20.5512,21.847,21.3631,314.999998,314.999998,324.999988,324.999988,99.56085714285715,99.5074,99.56791428571428,99.5463,0.026250000000000107,-0.10199999999999998,-0.1958333333333333,0.03283333333333327,-0.054999999999999716,-0.04833333333333201,1.5273333333333334,1.544,37.724000000000004,29.445,37.543,34.519,56.888,34.833,59.9975,52.2735,54.763,33.965,58.599000000000004,50.5815,53.907,33.501999999999995,58.565,49.976333333333336,-0.09399999999999986,-0.06000000000000005,0.11295000000000001,0.10374000000000001,0.0,208.03,207.99,204.93666666666667,204.93666666666667,0.0,0.0
8,0.0,1.0,0.0,1.0,1.0,0.0,0.0,1.0,0.0,100.0,1.0,1.1856,26.0,0.0,0.0,0.0,59.999996,0.0,26.0,26.0,26.0,26.0,-0.03888888888888886,0.29259999999999997,0.03635,293.503,-2.6944,-2.722,-1.4967000000000001,-1.576,-249.01,216.16750000000002,190.829125,0.0,0.0,0.0,0.0,0.017100000000000004,-5.498166666666667,-5.498166666666667,-0.5358,-0.5996666666666668,-0.03355555555555556,0.815,66.55799999999999,-0.048400000000000006,-0.21457500000000002,-0.07600000000000051,100.0,1.0,1.0,205.32,0.0,0.0,0.0,0.0,0.0,0.0,0.0,8702.8,0.0,55.0,5.0,239.57999999999998,0.0,0.0,0.0,0.0,0.0,0.0,0.0,0.0,0.40800000000000125,0.40800000000000125,0.0,0.0,0.0,55.0,616.79921,10000.0,85.000001,85.000001,85.000001,85.000001,395.0,0.0,0.0,0.0,1.0,333.33500000000004,53.711,53.711,48.203,48.203,34.0,-23.134999999999998,22.638333333333335,-29.7625,27.3325,0.0,1782.625,-0.33500000000000085,100.0,27.494,26.708,42.785,41.824,0.0,1.0,100.0,0.0,0.0,0.0,0.0,2911.285714285714,2999.6,4110.625,4154.7,305.9835,305.35775,314.7135,314.49925,21.8856,20.5564,21.857599999999998,21.3721,314.999998,314.999998,324.999988,324.999988,99.56085714285715,99.50741666666667,99.56805714285714,99.54644285714286,0.053749999999999964,-0.07799999999999996,-0.14733333333333332,0.07699999999999996,-0.03166666666666629,-0.06833333333332803,1.5176666666666665,1.512,37.785,29.477333333333334,37.61,34.5755,56.869,34.871,60.035,52.3335,54.745000000000005,34.0,58.6345,50.6385,53.888999999999996,33.5355,58.597,50.032333333333334,-0.10399999999999987,-0.04700000000000015,0.10082,0.11366000000000001,0.0,208.45,208.47500000000002,205.32,205.32,0.0,0.0
9,0.0,1.0,0.0,1.0,1.0,0.0,0.0,1.0,0.0,100.0,1.0,1.1856,26.0,0.0,0.0,0.0,59.999996,0.0,26.0,26.0,26.0,26.0,-0.03433333333333333,0.2936000000000001,0.032600000000000004,293.228,-2.6832,-2.7222857142857144,-1.55205,-1.5538,-245.82,216.14249999999998,190.80925,0.0,0.0,0.0,0.0,0.018966666666666576,-5.498166666666667,-5.498166666666667,-0.5425,0.6383333333333333,-0.03288888888888897,0.806,66.69200000000001,-0.0286,-0.2167,-0.14999999999999947,100.0,1.0,1.0,205.86333333333334,0.0,0.0,0.0,0.0,0.0,0.0,0.0,8725.8,0.0,55.0,5.0,240.06333333333333,1.0,0.0,0.0,0.0,0.0,0.0,0.0,0.0,0.4559999999999995,0.4559999999999995,0.0,0.0,1.0,55.0,616.79921,10000.0,85.000001,85.000001,85.000001,85.000001,395.0,0.0,0.0,0.0,1.0,166.665,52.49,52.49,49.271,49.271,34.0,-25.740000000000002,24.461666666666666,-27.675,26.7225,0.0,1782.578,-0.5249999999999986,100.0,27.906,27.123,42.341,41.793,0.0,1.0,100.0,0.0,0.0,0.0,0.0,3281.5714285714284,3096.4,3954.75,4066.1000000000004,304.814,304.98275,315.22075,314.80825,21.895,20.5614,21.8675,21.3806,314.999998,314.999998,324.999988,324.999988,99.56085714285715,99.50743333333334,99.56818571428572,99.54657142857143,0.07224999999999993,-0.05699999999999994,-0.12649999999999995,0.09216666666666673,-0.03999999999999915,-0.060000000000002274,1.5803333333333334,1.5793333333333335,37.844,29.509,37.672,34.6285,56.855000000000004,34.908,60.067499999999995,52.388,54.732,34.034,58.664,50.6915,53.875,33.568,58.624,50.08433333333333,-0.11149999999999993,-0.040999999999999925,0.10296000000000001,0.10612,0.0,208.885,208.89,205.86333333333334,205.86333333333334,0.0,0.0
10,0.0,1.0,0.0,1.0,1.0,0.0,0.0,1.0,0.0,100.0,1.0,1.1856,26.0,0.0,0.0,0.0,59.999996,0.0,26.0,26.0,26.0,26.0,0.005111111111111066,0.3023,-0.019200000000000002,293.076,-2.6622,-2.7005714285714286,-1.5350000000000001,-1.5332000000000001,-242.41,216.115,190.788625,0.0,0.0,0.0,0.0,0.02093333333333336,-5.498166666666667,-5.498166666666667,-0.518,-0.42300000000000004,0.006666666666666599,0.355,66.84,-0.009000000000000001,-0.2063,-0.4500000000000002,100.0,1.0,1.0,206.10000000000002,0.0,0.0,0.0,0.0,0.0,0.0,0.0,8735.8,0.0,55.0,5.0,240.59333333333333,0.0,0.0,0.0,0.0,0.0,0.0,1.0,0.0,0.5069999999999979,0.5069999999999979,0.0,0.0,0.0,55.0,616.79921,10000.0,85.000001,85.000001,85.000001,85.000001,395.0,0.0,0.0,0.0,1.0,166.665,53.589,53.589,47.714,47.714,34.0,-21.15,22.768333333333334,-30.48,29.605,0.0,1782.527,-0.6099999999999994,100.0,27.645,27.259,42.713,42.641,0.0,1.0,100.0,0.0,0.0,0.0,0.0,2870.142857142857,2859.3,4308.375,4259.8,306.1505,305.5845,314.3305,314.19325,21.9048,20.5667,21.8783,21.3899,314.999998,314.999998,324.999988,324.999988,99.56087142857143,99.50743333333334,99.56834285714285,99.54671428571429,0.08674999999999988,-0.04399999999999993,-0.11916666666666664,0.11066666666666669,-0.03833333333332689,-0.03166666666666629,1.4993333333333334,1.4743333333333333,37.905,29.542,37.739000000000004,34.6865,56.84,34.944,60.1065,52.451499999999996,54.718,34.067499999999995,58.7005,50.752,53.86,33.6,58.657,50.144,-0.127,-0.020500000000000185,0.11288000000000001,0.11715500000000001,0.0,209.31,209.335,206.10000000000002,206.10000000000002,0.0,0.0
11,0.0,1.0,0.0,1.0,1.0,0.0,0.0,1.0,0.0,100.0,1.0,1.1856,26.0,0.0,0.0,0.0,59.999996,0.0,26.0,26.0,26.0,26.0,0.03111111111111109,0.26260000000000017,-0.0678,293.579,-2.7053,-2.6879999999999997,-1.5885500000000001,-1.5246000000000002,-239.0,216.0875,190.767875,0.0,0.0,0.0,0.0,0.022599999999999953,-5.498166666666667,-5.498166666666667,-0.5622,-0.2350000000000001,0.03166666666666673,0.26900000000000013,66.979,0.011000000000000001,-0.23700000000000002,-0.6520000000000001,100.0,1.0,1.0,206.85333333333335,0.0,0.0,0.0,0.0,0.0,0.0,0.0,8767.8,0.0,55.0,5.0,241.09333333333336,1.0,0.0,0.0,0.0,0.0,0.0,1.0,0.0,0.5579999999999998,0.5579999999999998,0.0,0.0,1.0,55.0,616.79921,10000.0,85.000001,85.000001,85.000001,85.000001,395.0,0.0,0.0,0.0,1.0,166.665,52.872,52.872,49.347,49.347,34.0,-21.83,26.398333333333333,-24.31,27.255,0.0,1782.476,-0.6149999999999984,100.0,27.56,27.371,42.28,42.471000000000004,0.0,1.0,100.0,0.0,0.0,0.0,0.0,2996.857142857143,3179.9,3685.625,3870.8,305.699,304.73675,315.9035,315.2475,21.9145,20.5721,21.8888,21.3989,314.999998,314.999998,324.999988,324.999988,99.56088571428572,99.50743333333334,99.56847142857143,99.54685714285715,0.10824999999999996,-0.021749999999999936,-0.09716666666666662,0.14533333333333331,-0.03833333333332689,-0.04999999999999716,1.6313333333333335,1.6059999999999999,37.965,29.576,37.805,34.7435,56.824,34.981,60.1385,52.5105,54.702,34.1015,58.7305,50.809,53.844,33.632999999999996,58.684,50.199666666666666,-0.1259999999999999,-0.02450000000000019,0.11282,0.11291000000000001,0.0,209.72500000000002,209.775,206.85333333333335,206.85333333333335,0.0,0.0
12,0.0,1.0,0.0,1.0,1.0,0.0,0.0,1.0,0.0,100.0,1.0,1.1856,26.0,0.0,0.0,0.0,59.999996,0.0,26.0,26.0,26.0,26.0,0.04922222222222228,0.29469999999999996,0.03995,292.953,-2.7615,-2.6797142857142857,-1.55565,-1.5232,-235.57999999999998,216.06,190.745875,0.0,0.0,0.0,0.0,0.025466666666666526,-5.498166666666667,-5.498166666666667,-0.5462,0.28900000000000003,0.016999999999999904,-0.798,67.125,0.0292,-0.207175,-0.6619999999999999,100.0,1.0,1.0,207.05666666666667,0.0,0.0,0.0,0.0,0.0,0.0,0.0,8776.4,0.0,55.0,5.0,241.62,0.0,0.0,0.0,0.0,0.0,0.0,1.0,0.0,0.6089999999999982,0.6089999999999982,0.0,0.0,0.0,55.0,616.79921,10000.0,85.000001,85.000001,85.000001,85.000001,395.0,0.0,0.0,0.0,1.0,166.665,52.765,52.765,47.958,47.958,34.0,-23.845,25.843333333333334,-28.08,30.6625,0.0,1782.425,-0.46999999999999886,100.0,27.325,27.715,42.171,42.511,0.0,1.0,100.0,0.0,0.0,0.0,0.0,3135.5714285714284,3108.4,4239.25,4172.2,305.4605,304.80325,314.587,314.46475,21.9242,20.5776,21.8994,21.408,314.999998,314.999998,324.999988,324.999988,99.5609,99.50743333333334,99.56861428571429,99.547,0.09650000000000025,-0.021499999999999964,-0.08350000000000002,0.15066666666666673,-0.05333333333332746,-0.05833333333333002,1.5213333333333334,1.4956666666666667,38.025999999999996,29.610333333333333,37.870999999999995,34.8,56.809,35.019,60.175,52.57,54.688,34.1365,58.763999999999996,50.8665,53.829,33.6665,58.715,50.25633333333333,-0.11149999999999993,-0.038000000000000256,0.10899500000000001,0.10923500000000001,0.0,210.21,210.25,207.05666666666667,207.05666666666667,0.0,0.0
13,0.0,1.0,0.0,1.0,1.0,0.0,0.0,1.0,0.0,100.0,1.0,1.1856,26.0,0.0,0.0,0.0,59.999996,0.0,26.0,26.0,26.0,26.0,0.0778888888888889,0.28080000000000016,0.0364,292.633,-2.7414,-2.670714285714286,-1.62415,-1.5058,-232.35,216.0375,190.7255,0.0,0.0,0.0,0.0,0.026799999999999935,-5.498166666666667,-5.498166666666667,-0.5391,-0.06333333333333324,0.02211111111111097,-0.5089999999999999,67.259,0.0364,-0.215,-0.7860000000000005,100.0,1.0,1.0,207.42333333333335,0.0,0.0,0.0,0.0,0.0,0.0,0.0,8791.9,0.0,55.0,5.0,242.10333333333335,1.0,0.0,0.0,0.0,0.0,0.0,1.0,0.0,0.657,0.657,0.0,0.0,1.0,55.0,616.79921,10000.0,85.000001,85.000001,85.000001,85.000001,395.0,0.0,0.0,0.0,1.0,166.665,52.567,52.567,47.974000000000004,47.974000000000004,34.0,-21.8675,26.755,-28.5425,31.4825,0.0,1782.377,-0.8550000000000004,100.0,27.586,27.875,42.39,43.019,0.0,1.0,100.0,0.0,0.0,0.0,0.0,3151.142857142857,3083.0,4214.625,4284.2,305.391,304.8715,314.64025,314.16725,21.9334,20.5829,21.9095,21.4168,314.999998,314.999998,324.999988,324.999988,99.56091428571429,99.50745,99.56875714285714,99.54712857142857,0.14075000000000015,0.00825000000000009,-0.07650000000000001,0.15000000000000013,-0.04333333333332945,-0.054999999999999716,1.512,1.4809999999999999,38.084,29.642666666666663,37.934,34.8545,56.798,35.0545,60.2095,52.629999999999995,54.677,34.1695,58.796,50.924,53.817,33.698,58.7435,50.312666666666665,-0.1479999999999999,-0.008000000000000007,0.11429500000000001,0.10395000000000001,0.0,210.62,210.66,207.42333333333335,207.42333333333335,0.0,0.0
14,0.0,1.0,0.0,1.0,1.0,0.0,0.0,1.0,0.0,100.0,1.0,1.1856,26.0,0.0,0.0,0.0,59.999996,0.0,26.0,26.0,26.0,26.0,0.08955555555555561,0.27970000000000006,-0.012,292.923,-2.7366,-2.6184285714285713,-1.59715,-1.5103,-228.92000000000002,216.015,190.70425,0.0,0.0,0.0,0.0,0.028766666666666607,-5.498166666666667,-5.498166666666667,-0.5483,-0.1213333333333333,0.05311111111111111,1.3680000000000003,67.399,0.0497,-0.22742500000000002,-1.0419999999999998,100.0,1.0,1.0,207.94,0.0,0.0,0.0,0.0,0.0,0.0,0.0,8813.8,0.0,55.0,5.0,242.61,0.0,0.0,0.0,0.0,0.0,0.0,1.0,0.0,0.7079999999999984,0.7079999999999984,0.0,0.0,0.0,55.0,616.79921,10000.0,85.000001,85.000001,85.000001,85.000001,395.0,0.0,0.0,0.0,1.0,333.33500000000004,52.734,52.734,48.218,48.218,34.0,-19.325,28.583333333333332,-24.445,32.39,0.0,1782.325,-0.9400000000000013,100.0,27.615,27.752,42.413,43.093,0.0,1.0,100.0,0.0,0.0,0.0,0.0,2918.857142857143,3245.4,3950.125,4210.5,305.8875,304.5725,315.18,314.44725,21.9431,20.5884,21.920099999999998,21.426,314.999998,314.999998,324.999988,324.999988,99.56092857142858,99.50745,99.5689,99.54728571428572,0.1612499999999999,0.03049999999999997,-0.045499999999999985,0.18533333333333335,-0.051666666666669414,-0.051666666666669414,1.5593333333333335,1.524,38.144,29.677333333333333,38.0,34.9125,56.786,35.092,60.244,52.6915,54.666,34.204,58.828,50.9835,53.804,33.7315,58.7725,50.371,-0.1499999999999999,-0.0015000000000000568,0.10847000000000001,0.11701,0.0,211.025,211.10500000000002,207.94,207.94,0.0,0.0
15,0.0,1.0,0.0,1.0,1.0,0.0,0.0,1.0,0.0,100.0,1.0,1.1856,26.0,0.0,0.0,0.0,59.999996,0.0,26.0,26.0,26.0,26.0,0.11533333333333329,0.2875000000000001,0.00875,292.938,-2.7119,-2.5774285714285714,-1.6290499999999999,-1.4519,-225.68,215.995,190.684,0.0,0.0,0.0,0.0,0.03066666666666651,-5.498166666666667,-5.498166666666667,-0.54,0.276,0.08277777777777784,1.0250000000000004,67.532,0.063,-0.20902500000000002,-1.1799999999999997,100.0,1.0,1.0,208.32666666666665,0.0,0.0,0.0,0.0,0.0,0.0,0.0,8830.2,0.0,55.0,5.0,243.08666666666664,1.0,0.0,0.0,0.0,0.0,0.0,1.0,0.0,0.7560000000000002,0.7560000000000002,0.0,0.0,1.0,55.0,616.79921,10000.0,85.000001,85.000001,85.000001,85.000001,395.0,0.0,0.0,0.0,1.0,333.33500000000004,52.917,52.917,48.294,48.294,34.0,-17.805,28.491666666666667,-23.9425,33.644999999999996,0.0,1782.277,-0.9849999999999994,100.0,27.604,27.806,42.16,43.132,0.0,1.0,100.0,0.0,0.0,0.0,0.0,2790.714285714286,3225.6,3939.625,4388.8,306.2465,304.6255,315.2485,314.04225,21.9522,20.5936,21.93,21.4347,314.999998,314.999998,324.999988,324.999988,99.56094285714286,99.50745,99.56902857142857,99.54741428571428,0.17025000000000023,0.041749999999999954,-0.02966666666666662,0.1928333333333332,-0.05333333333332746,-0.045000000000001705,1.5593333333333335,1.5116666666666667,38.201,29.71,38.062,34.967,56.775,35.1285,60.275,52.75,54.655,34.238,58.8565,51.04,53.793,33.763999999999996,58.798,50.42633333333333,-0.15349999999999997,0.0015000000000000568,0.10790500000000001,0.10891500000000001,0.0,211.445,211.515,208.32666666666665,208.32666666666665,0.0,0.0
16,0.0,1.0,0.0,1.0,1.0,0.0,0.0,1.0,0.0,100.0,1.0,1.1856,26.0,0.0,0.0,0.0,59.999996,0.0,26.0,26.0,26.0,26.0,0.1303333333333332,0.272,-0.041350000000000005,292.969,-2.8077,-2.581857142857143,-1.5992000000000002,-1.4524000000000001,-222.23,215.97750000000002,190.662,0.0,0.0,0.0,0.0,0.03266666666666651,-5.498166666666667,-5.498166666666667,-0.5602,-0.6766666666666667,0.06733333333333325,-1.026,67.672,0.0767,-0.22485000000000002,-1.1879999999999997,100.0,1.0,1.0,208.76333333333332,0.0,0.0,0.0,0.0,0.0,0.0,0.0,8848.6,0.0,55.0,5.0,243.59333333333336,0.0,0.0,0.0,0.0,0.0,0.0,1.0,0.0,0.8069999999999986,0.8069999999999986,0.0,0.0,0.0,55.0,616.79921,10000.0,85.000001,85.000001,85.000001,85.000001,395.0,0.0,0.0,0.0,1.0,333.33500000000004,52.872,52.872,48.019,48.019,34.0,-20.3025,27.968333333333334,-23.21,32.0025,0.0,1782.225,-0.879999999999999,100.0,27.061,28.009999999999998,42.366,43.346000000000004,0.0,1.0,100.0,0.0,0.0,0.0,0.0,3019.142857142857,3190.0,3959.875,4131.1,305.886,304.587,315.2405,314.5835,21.9616,20.5992,21.9406,21.444,314.999998,314.999998,324.999988,324.999988,99.56097142857143,99.50745,99.56917142857142,99.54755714285714,0.16449999999999987,0.03200000000000003,-0.021499999999999964,0.20500000000000007,-0.05333333333332746,-0.036666666666668846,1.569,1.5143333333333335,38.26,29.744999999999997,38.129000000000005,35.0245,56.76,35.167500000000004,60.311,52.8115,54.641,34.274,58.89,51.099000000000004,53.777,33.799,58.828,50.485,-0.14549999999999996,-0.00749999999999984,0.10228000000000001,0.11524000000000001,0.0,211.845,211.925,208.76333333333332,208.76333333333332,0.0,0.0
17,0.0,1.0,0.0,1.0,1.0,0.0,0.0,1.0,0.0,100.0,1.0,1.1856,26.0,0.0,0.0,0.0,59.999996,0.0,26.0,26.0,26.0,26.0,0.12877777777777788,0.29390000000000005,0.01535,292.542,-2.7702,-2.563714285714286,-1.6424,-1.4725000000000001,-218.57,215.9625,190.638125,0.0,0.0,0.0,0.0,0.03479999999999994,-5.498166666666667,-5.498166666666667,-0.5475,0.43166666666666664,0.04844444444444429,-0.649,67.82,0.07730000000000001,-0.20292500000000002,-1.0599999999999996,100.0,1.0,1.0,209.16,0.0,0.0,0.0,0.0,0.0,0.0,0.0,8865.5,0.0,55.0,5.0,244.12333333333333,1.0,0.0,0.0,0.0,0.0,0.0,1.0,0.0,0.8610000000000007,0.8610000000000007,0.0,0.0,1.0,55.0,616.79921,10000.0,85.000001,85.000001,85.000001,85.000001,395.0,0.0,0.0,0.0,1.0,166.665,52.597,52.597,47.775,47.775,34.0,-20.1025,27.316666666666666,-26.94,33.7675,0.0,1782.173,-1.0399999999999991,100.0,27.515,28.254,42.144999999999996,43.364000000000004,0.0,1.0,100.0,0.0,0.0,0.0,0.0,3094.285714285714,3083.5,4297.625,4309.4,305.6165,304.9285,314.5285,314.19325,21.971899999999998,20.6052,21.9518,21.4537,314.999998,314.999998,324.999988,324.999988,99.56098571428572,99.50746666666667,99.56931428571428,99.54772857142858,0.17574999999999985,0.046250000000000124,-0.033499999999999974,0.20116666666666672,-0.04333333333332945,-0.054999999999999716,1.5366666666666666,1.501,38.324,29.782666666666664,38.199,35.085499999999996,56.75,35.210499999999996,60.346000000000004,52.8765,54.631,34.314,58.9225,51.162,53.766,33.8375,58.8575,50.54666666666667,-0.15249999999999986,-0.0015000000000000568,0.11046,0.107145,0.0,212.335,212.42000000000002,209.16,209.16,0.0,0.0
18,0.0,1.0,0.0,1.0,1.0,0.0,0.0,1.0,0.0,100.0,1.0,1.1856,26.0,0.0,0.0,0.0,59.999996,0.0,26.0,26.0,26.0,26.0,0.1326666666666667,0.27770000000000006,-0.011600000000000001,292.526,-2.8022,-2.5382857142857143,-1.6569,-1.419,-215.32,215.95,190.617125,0.0,0.0,0.0,0.0,0.036699999999999955,-5.498166666666667,-5.498166666666667,-0.5608000000000001,-0.5270000000000001,0.07188888888888889,-0.2799999999999998,67.951,0.0814,-0.22275,-1.298,100.0,1.0,1.0,209.59,0.0,0.0,0.0,0.0,0.0,0.0,0.0,8883.8,0.0,55.0,5.0,244.59333333333336,0.0,0.0,0.0,0.0,0.0,0.0,1.0,0.0,0.9089999999999989,0.9089999999999989,0.0,0.0,0.0,55.0,616.79921,10000.0,85.000001,85.000001,85.000001,85.000001,395.0,0.0,0.0,0.0,1.0,166.665,52.353,52.353,47.76,47.76,34.0,-20.24,29.908333333333335,-24.974999999999998,31.725,0.0,1782.125,-1.2650000000000006,100.0,27.304,28.177,42.448,43.731,0.0,1.0,100.0,0.0,0.0,0.0,0.0,3117.857142857143,3305.7,4048.5,4191.8,305.594,304.2795,315.0705,314.46025,21.9809,20.610500000000002,21.9618,21.4625,314.999998,314.999998,324.999988,324.999988,99.56101428571428,99.50748333333334,99.56945714285715,99.54787142857143,0.1825000000000001,0.0605,-0.028166666666666562,0.19733333333333336,-0.05666666666667197,-0.04333333333332945,1.5583333333333333,1.5110000000000001,38.381,29.815666666666665,38.260999999999996,35.1405,56.739000000000004,35.2485,60.3795,52.936,54.620000000000005,34.349000000000004,58.953,51.2195,53.754000000000005,33.871,58.885,50.60333333333333,-0.17149999999999999,0.020000000000000018,0.11248500000000002,0.104135,0.0,212.71,212.79000000000002,209.59,209.59,0.0,0.0
19,0.0,1.0,0.0,1.0,1.0,0.0,0.0,1.0,0.0,100.0,1.0,1.1856,26.0,0.0,0.0,0.0,59.999996,0.0,26.0,26.0,26.0,26.0,0.1587777777777779,0.30180000000000007,0.0296,292.099,-2.7718,-2.524714285714286,-1.6729500000000002,-1.4000000000000001,-212.05,215.945,190.595875,0.0,0.0,0.0,0.0,0.03859999999999997,-5.498166666666667,-5.498166666666667,-0.5512,0.8243333333333334,0.08299999999999996,-0.42600000000000016,68.08,0.0951,-0.211125,-1.6419999999999995,100.0,1.0,1.0,209.98000000000002,0.0,0.0,0.0,0.0,0.0,0.0,0.0,8900.3,0.0,55.0,5.0,245.06,1.0,0.0,0.0,0.0,0.0,0.0,1.0,0.0,0.9570000000000007,0.9570000000000007,0.0,0.0,1.0,55.0,616.79921,10000.0,85.000001,85.000001,85.000001,85.000001,395.0,0.0,0.0,0.0,1.0,166.665,51.772999999999996,51.772999999999996,47.699,47.699,34.0,-19.085,30.80666666666667,-25.0525,34.21,0.0,1782.077,-1.4600000000000009,100.0,27.854,28.695999999999998,42.2,43.715,0.0,1.0,100.0,0.0,0.0,0.0,0.0,3132.4285714285716,3308.2,4165.375,4396.4,305.433,304.179,314.84825,314.024,21.99,20.616,21.9717,21.4712,314.999998,314.999998,324.999988,324.999988,99.56102857142857,99.50748333333334,99.56958571428571,99.548,0.20650000000000013,0.08050000000000002,-0.010499999999999954,0.21433333333333326,-0.041666666666671404,-0.05333333333332746,1.5656666666666665,1.5003333333333333,38.438,29.85,38.323,35.195,56.732,35.289500000000004,60.41,52.9945,54.613,34.3875,58.981,51.275999999999996,53.745999999999995,33.908,58.91,50.65866666666666,-0.19399999999999995,0.03499999999999992,0.10890000000000001,0.107355,0.0,213.135,213.25,209.98000000000002,209.98000000000002,0.0,0.0
20,0.0,1.0,0.0,1.0,1.0,0.0,0.0,1.0,0.0,100.0,1.0,1.1856,26.0,0.0,0.0,0.0,59.999996,0.0,26.0,26.0,26.0,26.0,0.18322222222222218,0.2793000000000001,0.055150000000000005,292.374,-2.8286,-2.5827142857142857,-1.6062500000000002,-1.5165000000000002,-208.57999999999998,215.94,190.5735,0.0,0.0,0.0,0.0,0.04059999999999997,-5.498166666666667,-5.498166666666667,-0.554,-1.2356666666666665,0.09455555555555573,0.3500000000000001,68.22,0.10940000000000001,-0.22,-1.726,100.0,1.0,1.0,210.29666666666668,0.0,0.0,0.0,0.0,0.0,0.0,0.0,8913.7,0.0,55.0,5.0,245.56666666666666,0.0,0.0,0.0,0.0,0.0,0.0,0.0,0.0,1.0079999999999991,1.0079999999999991,0.0,0.0,0.0,55.0,616.79921,10000.0,85.000001,85.000001,85.000001,85.000001,395.0,0.0,0.0,0.0,1.0,333.33500000000004,52.902,52.902,46.967,46.967,34.0,-17.28,29.648333333333333,-22.255,37.5675,0.0,1782.025,-0.9600000000000009,100.0,27.386,28.306,42.795,44.224000000000004,0.0,1.0,100.0,0.0,0.0,0.0,0.0,2757.714285714286,3267.2,4080.25,4383.9,306.5705,304.52375,314.82925,313.88375,21.999299999999998,20.6217,21.9824,21.4807,314.999998,314.999998,324.999988,324.999988,99.56105714285714,99.5075,99.56974285714286,99.54815714285715,0.19700000000000006,0.05750000000000011,0.022333333333333316,0.2376666666666667,-0.04333333333332945,-0.05833333333333002,1.4996666666666667,1.4446666666666668,38.495999999999995,29.885666666666665,38.39,35.254,56.719,35.3315,60.447,53.06,54.601,34.426,59.0155,51.339,53.732,33.945,58.941,50.720666666666666,-0.15100000000000002,-0.0040000000000000036,0.09835500000000001,0.106675,0.0,213.505,213.64499999999998,210.29666666666668,210.29666666666668,0.0,0.0
21,0.0,1.0,0.0,1.0,1.0,0.0,0.0,1.0,0.0,100.0,1.0,1.1856,26.0,0.0,0.0,0.0,59.999996,0.0,26.0,26.0,26.0,26.0,0.121,0.2681,-0.06455,292.709,-2.7309,-2.643714285714286,-1.65875,-1.4885000000000002,-205.3,215.94,190.551875,0.0,0.0,0.0,0.0,0.04249999999999998,-5.498166666666667,-5.498166666666667,-0.5803,0.491,0.06411111111111101,-0.11299999999999999,68.345,0.1119,-0.22712500000000002,-1.0499999999999998,100.0,1.0,1.0,210.94,0.0,0.0,0.0,0.0,0.0,0.0,0.0,8941.0,0.0,55.0,5.0,246.01333333333332,1.0,0.0,0.0,0.0,0.0,0.0,0.0,0.0,1.056000000000001,1.056000000000001,0.0,0.0,1.0,55.0,616.79921,10000.0,85.000001,85.000001,85.000001,85.000001,395.0,0.0,0.0,0.0,1.0,333.33500000000004,52.246,52.246,48.431,48.431,34.0,-19.94,28.42,-22.0325,32.825,0.0,1781.977,0.10500000000000043,100.0,27.789,28.457,42.143,43.749,0.0,1.0,100.0,0.0,0.0,0.0,0.0,2966.142857142857,3253.9,3926.875,4025.8,305.754,304.4705,315.39525,314.93775,22.0082,20.6272,21.9922,21.4892,314.999998,314.999998,324.999988,324.999988,99.56108571428571,99.5075,99.56987142857143,99.5483,0.15474999999999994,0.01574999999999993,0.0086666666666666,0.2416666666666667,-0.041666666666671404,-0.054999999999999716,1.6163333333333334,1.5773333333333333,38.551,29.919666666666664,38.451,35.308,56.708,35.37,60.475,53.1155,54.59,34.462,59.041,51.3925,53.721000000000004,33.9795,58.964,50.77333333333333,-0.08699999999999997,-0.07850000000000001,0.11428500000000001,0.10878000000000002,0.0,213.96,214.04000000000002,210.94,210.94,0.0,0.0
22,0.0,1.0,0.0,1.0,1.0,0.0,0.0,1.0,0.0,100.0,1.0,1.1856,26.0,0.0,0.0,0.0,59.999996,0.0,26.0,26.0,26.0,26.0,0.08688888888888902,0.26660000000000017,0.024900000000000002,292.191,-2.7085,-2.6532857142857145,-1.64225,-1.4903000000000002,-201.81,215.945,190.528125,0.0,0.0,0.0,0.0,0.044533333333333314,-5.498166666666667,-5.498166666666667,-0.557,0.1363333333333333,0.05455555555555569,-0.8319999999999999,68.48400000000001,0.08610000000000001,-0.206025,0.08200000000000074,100.0,1.0,1.0,211.14,0.0,0.0,0.0,0.0,0.0,0.0,0.0,8949.5,0.0,55.0,5.0,246.51666666666665,0.0,0.0,0.0,0.0,0.0,0.0,0.0,0.0,1.1069999999999993,1.1069999999999993,0.0,0.0,0.0,55.0,616.79921,10000.0,85.000001,85.000001,85.000001,85.000001,395.0,0.0,0.0,0.0,1.0,333.33500000000004,52.353,52.353,47.226,47.226,34.0,-21.8975,24.85333333333333,-27.6575,32.84,0.0,1781.925,0.5150000000000006,100.0,27.777,28.558,42.647,43.93,0.0,1.0,100.0,0.0,0.0,0.0,0.0,2985.714285714286,3100.4,4246.75,4303.8,305.837,304.72325,314.6135,314.201,22.0177,20.6329,22.003,21.4986,314.999998,314.999998,324.999988,324.999988,99.5611,99.5075,99.57001428571428,99.54844285714286,0.10349999999999993,-0.041999999999999926,-0.04749999999999999,0.1771666666666667,-0.03333333333333144,-0.04333333333332945,1.4726666666666666,1.483,38.611000000000004,29.955666666666666,38.518,35.366,56.694,35.409,60.512,53.178,54.577,34.498,59.0755,51.453,53.707,34.013999999999996,58.995,50.833,-0.04049999999999998,-0.11949999999999994,0.10512,0.10350500000000001,0.0,214.425,214.42000000000002,211.14,211.14,0.0,0.0
23,0.0,1.0,0.0,1.0,1.0,0.0,0.0,1.0,0.0,100.0,1.0,1.1856,26.0,0.0,0.0,0.0,59.999996,0.0,26.0,26.0,26.0,26.0,0.016555555555555657,0.2572000000000001,-0.017750000000000002,292.221,-2.7062,-2.639857142857143,-1.54075,-1.5805,-198.31,215.95,190.50475,0.0,0.0,0.0,0.0,0.046566666666666534,-5.498166666666667,-5.498166666666667,-0.5759000000000001,-0.34333333333333327,0.02588888888888885,0.1160000000000001,68.618,0.037700000000000004,-0.232575,0.7720000000000002,100.0,1.0,1.0,211.66,0.0,0.0,0.0,0.0,0.0,0.0,0.0,8971.5,0.0,55.0,5.0,247.00333333333333,1.0,0.0,0.0,0.0,0.0,0.0,0.0,0.0,1.1580000000000013,1.1580000000000013,0.0,0.0,1.0,55.0,616.79921,10000.0,85.000001,85.000001,85.000001,85.000001,395.0,0.0,0.0,0.0,1.0,166.665,51.804,51.804,48.172,48.172,34.0,-25.2925,24.384999999999998,-25.537499999999998,29.310000000000002,0.0,1781.876,0.6550000000000011,100.0,28.248,28.253,43.074,43.89,0.0,1.0,100.0,0.0,0.0,0.0,0.0,3222.714285714286,3190.3,3935.5,3999.8,304.9885,304.7455,315.201,314.89575,22.0273,20.6386,22.0137,21.5079,314.999998,314.999998,324.999988,324.999988,99.5611,99.5075,99.57015714285714,99.54858571428572,0.07725000000000026,-0.06099999999999994,-0.07916666666666661,0.1413333333333333,-0.036666666666668846,-0.07000000000000028,1.5036666666666667,1.5416666666666665,38.67,29.991,38.585,35.4245,56.679,35.448499999999996,60.547,53.2395,54.562,34.5345,59.1075,51.5125,53.691,34.0495,59.0235,50.891,-0.026499999999999968,-0.12849999999999984,0.10165500000000001,0.11533500000000001,0.0,214.85000000000002,214.805,211.66,211.66,0.0,0.0
24,0.0,1.0,0.0,1.0,1.0,0.0,0.0,1.0,0.0,100.0,1.0,1.1856,26.0,0.0,0.0,0.0,59.999996,0.0,26.0,26.0,26.0,26.0,-0.0431111111111111,0.28480000000000016,-0.08915000000000001,292.511,-2.7064,-2.670571428571429,-1.5683,-1.5401,-195.01999999999998,215.95749999999998,190.48225,0.0,0.0,0.0,0.0,0.04849999999999999,-5.498166666666667,-5.498166666666667,-0.5779000000000001,-0.4996666666666667,0.014000000000000012,0.6520000000000001,68.747,-0.006,-0.216375,0.9720000000000004,100.0,1.0,1.0,211.96,0.0,0.0,0.0,0.0,0.0,0.0,0.0,8984.2,0.0,55.0,5.0,247.46333333333334,0.0,0.0,0.0,0.0,0.0,0.0,0.0,0.0,1.2059999999999995,1.2059999999999995,0.0,0.0,0.0,55.0,616.79921,10000.0,85.000001,85.000001,85.000001,85.000001,395.0,0.0,0.0,0.0,1.0,166.665,53.009,53.009,47.195,47.195,34.0,-23.7,21.551666666666666,-31.41,27.79,0.0,1781.828,0.615000000000002,100.0,28.123,27.848,43.311,43.541,0.0,1.0,100.0,0.0,0.0,0.0,0.0,2898.142857142857,2969.3,4294.875,4120.6,306.004,305.45525,314.3535,314.70425,22.0362,20.6437,22.023699999999998,21.5165,314.999998,314.999998,324.999988,324.999988,99.56111428571428,99.50751666666666,99.5703,99.54874285714286,0.041749999999999954,-0.08899999999999997,-0.1273333333333333,0.10250000000000004,-0.04333333333332945,-0.03999999999999915,1.502,1.526,38.726,30.023,38.647999999999996,35.4785,56.663,35.485,60.5805,53.2945,54.547,34.5685,59.138999999999996,51.5655,53.675,34.082,59.052,50.943,-0.028000000000000025,-0.12300000000000022,0.10492000000000001,0.11626000000000002,0.0,215.265,215.185,211.96,211.96,0.0,0.0
25,0.0,1.0,0.0,1.0,1.0,0.0,0.0,1.0,0.0,100.0,1.0,1.1856,26.0,0.0,0.0,0.0,59.999996,0.0,26.0,26.0,26.0,26.0,-0.06822222222222218,0.266,-0.0463,292.511,-2.7526,-2.656,-1.5630000000000002,-1.5618,-191.51,215.9625,190.457,0.0,0.0,0.0,0.0,0.05053333333333332,-5.498166666666667,-5.498166666666667,-0.6119,-0.03133333333333321,-0.008444444444444255,-1.575,68.88,-0.042800000000000005,-0.225325,1.1400000000000006,100.0,1.0,1.0,212.51666666666665,0.0,0.0,0.0,0.0,0.0,0.0,0.0,9007.8,0.0,55.0,5.0,247.94,1.0,0.0,0.0,0.0,0.0,0.0,0.0,0.0,1.256999999999998,1.256999999999998,0.0,0.0,1.0,55.0,616.79921,10000.0,85.000001,85.000001,85.000001,85.000001,395.0,0.0,0.0,0.0,1.0,333.33500000000004,52.094,52.094,48.05,48.05,34.0,-29.515,21.625,-30.6675,23.7225,0.0,1781.775,0.6099999999999994,100.0,28.011,28.02,43.167,43.118,0.0,1.0,100.0,0.0,0.0,0.0,0.0,3335.714285714286,3155.4,4017.25,3944.7,305.002,304.72975,315.168,315.12125,22.0457,20.6492,22.0343,21.5256,314.999998,314.999998,324.999988,324.999988,99.56111428571428,99.50753333333333,99.57044285714285,99.54887142857143,0.007249999999999979,-0.124,-0.17233333333333334,0.048833333333333284,-0.06499999999999773,-0.04999999999999716,1.554,1.6096666666666666,38.786,30.057666666666666,38.714,35.535,56.644,35.5265,60.6145,53.3505,54.528,34.6065,59.170500000000004,51.6195,53.656,34.1185,59.08,50.995666666666665,-0.028000000000000025,-0.13149999999999995,0.10995,0.10450000000000001,0.0,215.695,215.57999999999998,212.51666666666665,212.51666666666665,0.0,0.0
26,0.0,1.0,0.0,1.0,1.0,0.0,0.0,1.0,0.0,100.0,1.0,1.1856,26.0,0.0,0.0,0.0,59.999996,0.0,26.0,26.0,26.0,26.0,-0.11577777777777776,0.2693000000000001,0.069,291.306,-2.6684,-2.7632857142857143,-1.5876000000000001,-1.5784,-187.99,215.965,190.43125,0.0,0.0,0.0,0.0,0.05256666666666654,-5.498166666666667,-5.498166666666667,-0.5712,0.775,-0.04922222222222228,0.383,69.017,-0.0664,-0.195,1.1079999999999997,100.0,1.0,1.0,212.67666666666668,0.0,0.0,0.0,0.0,0.0,0.0,0.0,9014.6,0.0,55.0,5.0,248.43,0.0,0.0,0.0,0.0,0.0,0.0,0.0,0.0,1.3079999999999998,1.3079999999999998,0.0,0.0,0.0,55.0,616.79921,10000.0,85.000001,85.000001,85.000001,85.000001,395.0,0.0,0.0,0.0,1.0,166.665,51.513999999999996,51.513999999999996,46.371,46.371,34.0,-27.585,21.748333333333335,-37.4675,27.650000000000002,0.0,1781.726,0.4349999999999987,100.0,29.243,28.354,43.979,43.159,0.0,1.0,100.0,0.0,0.0,0.0,0.0,3223.0,3072.7,4569.125,4439.4,304.9935,305.012,313.8045,313.9725,22.0556,20.6549,22.0452,21.5349,314.999998,314.999998,324.999988,324.999988,99.56111428571428,99.50755,99.5706,99.54902857142856,0.018000000000000238,-0.12824999999999998,-0.1815,0.04049999999999998,-0.045000000000001705,-0.041666666666671404,1.4303333333333335,1.4706666666666668,38.848,30.093333333333334,38.782,35.593,56.629000000000005,35.571,60.653999999999996,53.4095,54.515,34.6475,59.207,51.676,53.641,34.158,59.114,51.05133333333333,-0.050000000000000044,-0.11900000000000022,0.10823500000000001,0.10863500000000001,0.0,216.15,216.03,212.67666666666668,212.67666666666668,0.0,0.0
27,0.0,1.0,0.0,1.0,1.0,0.0,0.0,1.0,0.0,100.0,1.0,1.1856,26.0,0.0,0.0,0.0,59.999996,0.0,26.0,26.0,26.0,26.0,-0.11355555555555552,0.24860000000000015,-0.0008500000000000001,291.656,-2.6231,-2.7394285714285713,-1.5698500000000002,-1.6592,-184.67000000000002,215.965,190.408125,0.0,0.0,0.0,0.0,0.05449999999999999,-5.498166666666667,-5.498166666666667,-0.5964,-1.0699999999999998,-0.05777777777777793,0.6640000000000001,69.141,-0.0734,-0.2421,0.8920000000000003,100.0,1.0,1.0,213.15666666666667,0.0,0.0,0.0,0.0,0.0,0.0,0.0,9034.9,0.0,55.0,5.0,248.88333333333333,1.0,0.0,0.0,0.0,0.0,0.0,0.0,0.0,1.355999999999998,1.355999999999998,0.0,0.0,1.0,55.0,616.79921,10000.0,85.000001,85.000001,85.000001,85.000001,395.0,0.0,0.0,0.0,1.0,333.33500000000004,51.834,51.834,46.768,46.768,34.0,-27.2725,21.445,-33.345,25.675,0.0,1781.677,0.33000000000000185,100.0,29.029,28.058,44.8,43.679,0.0,1.0,100.0,0.0,0.0,0.0,0.0,3183.142857142857,3093.2,4145.375,4071.9,305.111,305.081,314.728,314.72875,22.0647,20.6601,22.0555,21.5437,314.999998,314.999998,324.999988,324.999988,99.56112857142857,99.50756666666666,99.57074285714286,99.54915714285714,0.006750000000000256,-0.131,-0.18799999999999994,0.03299999999999992,-0.045000000000001705,-0.045000000000001705,1.4743333333333333,1.5070000000000001,38.903999999999996,30.125333333333334,38.847,35.6485,56.611999999999995,35.6095,60.6915,53.466499999999996,54.498999999999995,34.6835,59.2425,51.7305,53.623999999999995,34.192499999999995,59.146,51.10433333333333,-0.05400000000000005,-0.1070000000000002,0.11020500000000001,0.10209000000000001,0.0,216.45499999999998,216.385,213.15666666666667,213.15666666666667,0.0,0.0
28,0.0,1.0,0.0,1.0,1.0,0.0,0.0,1.0,0.0,100.0,1.0,1.1856,26.0,0.0,0.0,0.0,59.999996,0.0,26.0,26.0,26.0,26.0,-0.0925555555555555,0.2704,-0.043250000000000004,291.962,-2.6543,-2.7224285714285714,-1.5180500000000001,-1.6211,-181.14,215.9625,190.382875,0.0,0.0,0.0,0.0,0.05656666666666654,-5.498166666666667,-5.498166666666667,-0.6015,0.6316666666666666,-0.06433333333333335,-0.48,69.272,-0.0745,-0.21677500000000002,0.8679999999999994,100.0,1.0,1.0,213.67000000000002,0.0,0.0,0.0,0.0,0.0,0.0,0.0,9056.7,0.0,55.0,5.0,249.35333333333335,0.0,0.0,0.0,0.0,0.0,0.0,0.0,0.0,1.407,1.407,0.0,0.0,0.0,55.0,616.79921,10000.0,85.000001,85.000001,85.000001,85.000001,395.0,0.0,0.0,0.0,1.0,166.665,51.865,51.865,47.623,47.623,34.0,-29.0125,20.138333333333335,-32.53,24.4725,0.0,1781.627,0.240000000000002,100.0,28.967,28.157,44.043,43.193,0.0,1.0,100.0,0.0,0.0,0.0,0.0,3341.857142857143,2935.2,4130.125,4056.5,304.857,305.36225,314.88625,314.85475,22.0745,20.6656,22.066,21.5528,314.999998,314.999998,324.999988,324.999988,99.56112857142857,99.50758333333333,99.57088571428571,99.54931428571429,0.003249999999999975,-0.13375000000000004,-0.19766666666666666,0.02849999999999997,-0.05833333333333002,-0.054999999999999716,1.5326666666666666,1.5686666666666667,38.965,30.159666666666666,38.912,35.705,56.596000000000004,35.652,60.725,53.521,54.483999999999995,34.7225,59.2735,51.783500000000004,53.608999999999995,34.2295,59.174,51.156,-0.062000000000000055,-0.10199999999999987,0.10396000000000001,0.10821000000000001,0.0,216.92000000000002,216.82999999999998,213.67000000000002,213.67000000000002,0.0,0.0
29,0.0,1.0,0.0,1.0,1.0,0.0,0.0,1.0,0.0,100.0,1.0,1.1856,26.0,0.0,0.0,0.0,59.999996,0.0,26.0,26.0,26.0,26.0,-0.09233333333333338,0.25980000000000003,0.05075,291.641,-2.6038,-2.771571428571429,-1.5578500000000002,-1.5926,-177.39999999999998,215.95749999999998,190.354875,0.0,0.0,0.0,0.0,0.058733333333333304,-5.498166666666667,-5.498166666666667,-0.6073000000000001,-0.7006666666666668,-0.05666666666666664,-0.645,69.414,-0.07010000000000001,-0.21932500000000002,0.6379999999999999,100.0,1.0,1.0,213.94666666666666,0.0,0.0,0.0,0.0,0.0,0.0,0.0,9068.5,0.0,55.0,5.0,249.86666666666667,1.0,0.0,0.0,0.0,0.0,0.0,0.0,0.0,1.4609999999999985,1.4609999999999985,0.0,0.0,1.0,55.0,616.79921,10000.0,85.000001,85.000001,85.000001,85.000001,395.0,0.0,0.0,0.0,1.0,166.665,51.865,51.865,46.722,46.722,34.0,-27.8375,21.648333333333333,-34.457499999999996,25.6525,0.0,1781.574,0.10000000000000142,100.0,28.654,28.029,44.427,43.511,0.0,1.0,100.0,0.0,0.0,0.0,0.0,3325.714285714286,3028.4,4261.125,4160.2,304.896,304.99025,314.51525,314.514,22.084600000000002,20.6713,22.0775,21.5627,314.999998,314.999998,324.999988,324.999988,99.56112857142857,99.5076,99.57105714285714,99.54945714285714,0.015499999999999847,-0.128,-0.19166666666666665,0.03733333333333322,-0.03833333333332689,-0.05833333333333002,1.466,1.5056666666666667,39.028999999999996,30.195999999999998,38.983999999999995,35.766999999999996,56.577,35.695,60.766,53.584,54.465,34.7625,59.312,51.844,53.589,34.2675,59.209,51.215,-0.07600000000000007,-0.08550000000000013,0.11442500000000001,0.10923500000000001,0.0,217.3,217.24,213.94666666666666,213.94666666666666,0.0,0.0
30,0.0,1.0,0.0,1.0,1.0,0.0,0.0,1.0,0.0,100.0,1.0,1.1856,26.0,0.0,0.0,0.0,59.999996,0.0,26.0,26.0,26.0,26.0,-0.0902222222222222,0.26239999999999997,0.060250000000000005,291.168,-2.6574,-2.662714285714286,-1.49825,-1.6525,-174.26999999999998,215.9525,190.3315,0.0,0.0,0.0,0.0,0.06053333333333333,-5.498166666666667,-5.498166666666667,-0.6041000000000001,0.7643333333333333,-0.05655555555555569,0.6619999999999999,69.529,-0.0621,-0.21760000000000002,0.4579999999999993,100.0,1.0,1.0,214.33666666666667,0.0,0.0,0.0,0.0,0.0,0.0,0.0,9085.0,0.0,55.0,5.0,250.27666666666664,0.0,0.0,0.0,0.0,0.0,0.0,1.0,0.0,1.5060000000000002,1.5060000000000002,0.0,0.0,0.0,55.0,616.79921,10000.0,85.000001,85.000001,85.000001,85.000001,395.0,0.0,0.0,0.0,1.0,333.33500000000004,50.934,50.934,46.967,46.967,34.0,-27.895,22.218333333333334,-32.5075,28.1875,0.0,1781.527,0.010000000000001563,100.0,29.567,28.549,44.307,43.414,0.0,1.0,100.0,0.0,0.0,0.0,0.0,3387.714285714286,3132.3,4264.5,4256.0,304.5055,304.85925,314.50725,314.29475,22.0933,20.6764,22.0868,21.5708,314.999998,314.999998,324.999988,324.999988,99.56112857142857,99.50761666666666,99.57118571428572,99.54958571428571,0.044500000000000206,-0.10675000000000001,-0.17033333333333334,0.054166666666666696,-0.041666666666671404,-0.06833333333332803,1.47,1.4963333333333333,39.083,30.227666666666664,39.043,35.818,56.565,35.7335,60.7965,53.635,54.454,34.798,59.3405,51.893,53.577,34.302,59.2345,51.26266666666667,-0.09299999999999997,-0.08000000000000007,0.10566500000000001,0.10726000000000001,0.0,217.68,217.64499999999998,214.33666666666667,214.33666666666667,0.0,0.0
31,0.0,1.0,0.0,1.0,1.0,0.0,0.0,1.0,0.0,100.0,1.0,1.1856,26.0,0.0,0.0,0.0,59.999996,0.0,26.0,26.0,26.0,26.0,-0.07877777777777784,0.2552000000000001,0.00685,291.138,-2.7292,-2.7341428571428574,-1.58745,-1.6437000000000002,-170.72,215.9425,190.30575,0.0,0.0,0.0,0.0,0.06259999999999999,-5.498166666666667,-5.498166666666667,-0.5882000000000001,-0.5250000000000001,-0.04822222222222239,-0.8010000000000002,69.662,-0.0463,-0.217,0.2400000000000002,100.0,1.0,1.0,214.64,0.0,0.0,0.0,0.0,0.0,0.0,0.0,9097.8,0.0,55.0,5.0,250.75666666666666,1.0,0.0,0.0,0.0,0.0,0.0,1.0,0.0,1.5569999999999986,1.5569999999999986,0.0,0.0,1.0,55.0,616.79921,10000.0,85.000001,85.000001,85.000001,85.000001,395.0,0.0,0.0,0.0,1.0,166.665,51.697,51.697,45.563,45.563,34.0,-26.8675,21.956666666666667,-35.3725,27.8975,0.0,1781.477,-0.030000000000001137,100.0,29.075,28.732,44.867000000000004,44.146,0.0,1.0,100.0,0.0,0.0,0.0,0.0,3202.4285714285716,2997.0,4479.75,4222.0,305.3985,305.1105,314.042,314.45275,22.102899999999998,20.6821,22.0977,21.5803,314.999998,314.999998,324.999988,324.999988,99.56114285714285,99.50761666666666,99.57132857142857,99.54974285714286,0.03299999999999992,-0.10599999999999998,-0.16133333333333333,0.055333333333333234,-0.04833333333333201,-0.051666666666669414,1.4476666666666667,1.463,39.143,30.262999999999998,39.111,35.876999999999995,56.548,35.7755,60.836,53.695499999999996,54.439,34.8365,59.3775,51.951,53.561,34.339,59.2685,51.31966666666666,-0.08549999999999991,-0.07900000000000018,0.10608500000000001,0.10031000000000001,0.0,218.04500000000002,218.04500000000002,214.64,214.64,0.0,0.0
32,0.0,1.0,0.0,1.0,1.0,0.0,0.0,1.0,0.0,100.0,1.0,1.1856,26.0,0.0,0.0,0.0,59.999996,0.0,26.0,26.0,26.0,26.0,-0.06599999999999995,0.25570000000000004,-0.0519,291.367,-2.6601,-2.7437142857142858,-1.6123500000000002,-1.5555,-167.17000000000002,215.9325,190.280125,0.0,0.0,0.0,0.0,0.06466666666666654,-5.498166666666667,-5.498166666666667,-0.6075,0.17299999999999993,-0.07066666666666643,0.14700000000000024,69.789,-0.034300000000000004,-0.22695,0.2060000000000004,100.0,1.0,1.0,215.20666666666668,0.0,0.0,0.0,0.0,0.0,0.0,0.0,9121.8,0.0,55.0,5.0,251.21333333333334,0.0,0.0,0.0,0.0,0.0,0.0,1.0,0.0,1.6080000000000005,1.6080000000000005,0.0,0.0,0.0,55.0,616.79921,10000.0,85.000001,85.000001,85.000001,85.000001,395.0,0.0,0.0,0.0,1.0,166.665,51.315,51.315,46.738,46.738,34.0,-25.9225,23.814999999999998,-31.6025,26.94,0.0,1781.426,-0.05000000000000071,100.0,29.245,28.645,44.609,43.871,0.0,1.0,100.0,0.0,0.0,0.0,0.0,3270.857142857143,3128.2,4189.875,4145.6,304.918,304.9185,314.808,314.7615,22.1125,20.6878,22.1084,21.5896,314.999998,314.999998,324.999988,324.999988,99.56114285714285,99.50765,99.57148571428571,99.54988571428571,0.06274999999999986,-0.08524999999999994,-0.14449999999999996,0.0818333333333332,-0.05833333333333002,-0.04833333333333201,1.5350000000000001,1.5506666666666666,39.203,30.298666666666666,39.177,35.935,56.533,35.817499999999995,60.87,53.7525,54.424,34.8755,59.409,52.006,53.546,34.376,59.297,51.373,-0.08949999999999991,-0.07850000000000001,0.102595,0.10569500000000001,0.0,218.47,218.45,215.20666666666668,215.20666666666668,0.0,0.0
33,0.0,1.0,0.0,1.0,1.0,0.0,0.0,1.0,0.0,100.0,1.0,1.1856,26.0,0.0,0.0,0.0,59.999996,0.0,26.0,26.0,26.0,26.0,-0.0367777777777778,0.26049999999999995,-0.04435,291.443,-2.6722,-2.733428571428571,-1.5759,-1.5688,-163.81,215.92000000000002,190.255125,0.0,0.0,0.0,0.0,0.06663333333333332,-5.498166666666667,-5.498166666666667,-0.6101,-0.3796666666666668,-0.0602222222222224,1.3399999999999999,69.912,-0.0263,-0.21377500000000002,0.12399999999999967,100.0,1.0,1.0,215.46333333333334,0.0,0.0,0.0,0.0,0.0,0.0,0.0,9132.7,0.0,55.0,5.0,251.65666666666667,1.0,0.0,0.0,0.0,0.0,0.0,1.0,0.0,1.6559999999999988,1.6559999999999988,0.0,0.0,1.0,55.0,616.79921,10000.0,85.000001,85.000001,85.000001,85.000001,395.0,0.0,0.0,0.0,1.0,333.33500000000004,51.91,51.91,46.417,46.417,34.0,-24.5075,23.211666666666666,-31.53,29.265,0.0,1781.376,-0.14499999999999957,100.0,29.033,28.383,44.559,43.948,0.0,1.0,100.0,0.0,0.0,0.0,0.0,3112.857142857143,3046.1,4283.5,4309.4,305.4445,305.18775,314.4835,314.28525,22.1214,20.6929,22.1184,21.598399999999998,314.999998,314.999998,324.999988,324.999988,99.56115714285714,99.50765,99.57162857142858,99.55002857142857,0.06274999999999986,-0.07974999999999999,-0.13016666666666665,0.09083333333333332,-0.03333333333333144,-0.06833333333332803,1.4953333333333334,1.496,39.259,30.331,39.24,35.99,56.519,35.853,60.9035,53.808,54.411,34.908,59.44,52.059,53.531,34.4075,59.325,51.425,-0.08999999999999986,-0.07050000000000001,0.102205,0.10802,0.0,218.85000000000002,218.81,215.46333333333334,215.46333333333334,0.0,0.0
34,0.0,1.0,0.0,1.0,1.0,0.0,0.0,1.0,0.0,100.0,1.0,1.1856,26.0,0.0,0.0,0.0,59.999996,0.0,26.0,26.0,26.0,26.0,-0.029888888888888854,0.26080000000000014,-0.0721,291.779,-2.7497,-2.6805714285714286,-1.6141,-1.5856000000000001,-160.25,215.9075,190.227375,0.0,0.0,0.0,0.0,0.06869999999999998,-5.498166666666667,-5.498166666666667,-0.6419,-0.7906666666666669,-0.027222222222222037,-0.19199999999999973,70.041,-0.0196,-0.22567500000000001,0.13400000000000034,100.0,1.0,1.0,215.93,0.0,0.0,0.0,0.0,0.0,0.0,0.0,9152.5,0.0,55.0,5.0,252.12,0.0,0.0,0.0,0.0,0.0,0.0,1.0,0.0,1.7070000000000007,1.7070000000000007,0.0,0.0,0.0,55.0,616.79921,10000.0,85.000001,85.000001,85.000001,85.000001,395.0,0.0,0.0,0.0,1.0,166.665,52.048,52.048,47.44,47.44,34.0,-26.03,22.64666666666667,-30.56,27.6525,0.0,1781.327,-0.1750000000000007,100.0,28.586,28.215,44.150999999999996,44.099000000000004,0.0,1.0,100.0,0.0,0.0,0.0,0.0,3249.857142857143,2992.0,4080.75,4153.6,305.1355,305.27125,315.02525,314.5525,22.1308,20.6985,22.129,21.6077,314.999998,314.999998,324.999988,324.999988,99.56117142857143,99.50766666666667,99.57177142857142,99.55018571428572,0.07100000000000017,-0.07299999999999995,-0.14016666666666666,0.07916666666666683,-0.05666666666667197,-0.036666666666668846,1.5196666666666667,1.524,39.318,30.365333333333332,39.306,36.0485,56.503,35.8905,60.936,53.8665,54.394999999999996,34.943,59.47,52.1155,53.515,34.441,59.352000000000004,51.480000000000004,-0.09749999999999992,-0.06599999999999984,0.10684500000000001,0.10126500000000001,0.0,219.21,219.2,215.93,215.93,0.0,0.0
35,0.0,1.0,0.0,1.0,1.0,0.0,0.0,1.0,0.0,100.0,1.0,1.1856,26.0,0.0,0.0,0.0,59.999996,0.0,26.0,26.0,26.0,26.0,-0.025222222222222146,0.2593000000000001,-0.0506,291.855,-2.7429,-2.6565714285714286,-1.5803,-1.6,-156.67000000000002,215.89499999999998,190.1975,0.0,0.0,0.0,0.0,0.07076666666666653,-5.498166666666667,-5.498166666666667,-0.6829000000000001,-0.4813333333333334,-0.03588888888888908,-0.08099999999999996,70.168,-0.0076,-0.230075,-0.0779999999999994,100.0,1.0,1.0,216.38333333333333,0.0,0.0,0.0,0.0,0.0,0.0,0.0,9171.7,0.0,55.0,5.0,252.57999999999998,1.0,0.0,0.0,0.0,0.0,0.0,1.0,0.0,1.7579999999999991,1.7579999999999991,0.0,0.0,1.0,55.0,616.79921,10000.0,85.000001,85.000001,85.000001,85.000001,395.0,0.0,0.0,0.0,1.0,333.33500000000004,51.772999999999996,51.772999999999996,46.967,46.967,34.0,-25.195,25.706666666666667,-28.37,27.675,0.0,1781.274,-0.14000000000000057,100.0,28.444,28.310000000000002,43.980000000000004,43.61,0.0,1.0,100.0,0.0,0.0,0.0,0.0,3191.4285714285716,3328.6,4041.75,3953.3,305.3245,304.3485,315.005,315.095,22.14,20.7041,22.139499999999998,21.6169,314.999998,314.999998,324.999988,324.999988,99.56118571428571,99.50766666666667,99.57192857142857,99.55032857142857,0.0757500000000002,-0.06325000000000003,-0.1113333333333334,0.11116666666666686,-0.04999999999999716,-0.06333333333333258,1.5493333333333332,1.5393333333333334,39.375,30.401,39.372,36.1055,56.485,35.9295,60.9685,53.9215,54.379000000000005,34.979,59.5005,52.1685,53.498000000000005,34.4755,59.379,51.531666666666666,-0.09450000000000003,-0.07100000000000017,0.10962000000000001,0.104675,0.0,219.60500000000002,219.60000000000002,216.38333333333333,216.38333333333333,0.0,0.0
