,ABS Active,ABS Enabled,AID Allow Tire Blankets,AID Auto Blip,AID Auto Clutch,AID Auto Shift,AID Fuel Rate,AID Ideal Line,AID Mech Damage,AID Stability,AID Tire Wear Rate,Air Density,Air Temp,Ballast,Best Lap Delta,Best Lap Time,Brake Bias,Brake Pos,Brake Temp FL,Brake Temp FR,Brake Temp RL,Brake Temp RR,CG Accel Lateral,CG Accel Longitudinal,CG Accel Vertical,CG Height,Camber FL,Camber FR,Camber RL,Camber RR,Car Coord X,Car Coord Y,Car Coord Z,Car Damage Front,Car Damage Left,Car Damage Rear,Car Damage Right,Car Pos Norm,Caster FL,Caster FR,Chassis Pitch Angle,Chassis Pitch Rate,Chassis Roll Angle,Chassis Roll Rate,Chassis Velocity X,Chassis Velocity Y,Chassis Velocity Z,Chassis Yaw Rate,Clutch Pos,DRS Active,DRS Available,Drive Train Speed,ERS Heat Charging,ERS Is Charging,ERS Max Energy,ERS Power Level,ERS Recovery Level,Engine Brake Setting,Engine Limiter,Engine RPM,Flags,Fuel Level,Gear,Ground Speed,HR Sample Clock,In Pit,KERS Charge,KERS Deployed Energy,KERS Input,KERS Max Energy,LR Sample Clock,Lap Invalidated,Lap Time,Lap Time2,Last Lap Time,Last Sector Time,MR Sample Clock,Max Fuel,Max Power,Max RPM,Max Sus Travel FL,Max Sus Travel FR,Max Sus Travel RL,Max Sus Travel RR,Max Torque,Max Turbo Boost,Num Tires Off Track,Penalties Enabled,Position,Raw Data Sample Rate,Ride Height FL,Ride Height FR,Ride Height RL,Ride Height RR,Road Temp,Self Align Torque FL,Self Align Torque FR,Self Align Torque RL,Self Align Torque RR,Session Lap Count,Session Time Left,Steering Angle,Surface Grip,Suspension Travel FL,Suspension Travel FR,Suspension Travel RL,Suspension Travel RR,TC Active,TC Enabled,Throttle Pos,Tire Dirt Level FL,Tire Dirt Level FR,Tire Dirt Level RL,Tire Dirt Level RR,Tire Load FL,Tire Load FR,Tire Load RL,Tire Load RR,Tire Loaded Radius FL,Tire Loaded Radius FR,Tire Loaded Radius RL,Tire Loaded Radius RR,Tire Pressure FL,Tire Pressure FR,Tire Pressure RL,Tire Pressure RR,Tire Radius FL,Tire Radius FR,Tire Radius RL,Tire Radius RR,Tire Rubber Grip FL,Tire Rubber Grip FR,Tire Rubber Grip RL,Tire Rubber Grip RR,Tire Slip Angle FL,Tire Slip Angle FR,Tire Slip Angle RL,Tire Slip Angle RR,Tire Slip Ratio FL,Tire Slip Ratio FR,Tire Slip Ratio RL,Tire Slip Ratio RR,Tire Temp Core FL,Tire Temp Core FR,Tire Temp Core RL,Tire Temp Core RR,Tire Temp Inner FL,Tire Temp Inner FR,Tire Temp Inner RL,Tire Temp Inner RR,Tire Temp Middle FL,Tire Temp Middle FR,Tire Temp Middle RL,Tire Temp Middle RR,Tire Temp Outer FL,Tire Temp Outer FR,Tire Temp Outer RL,Tire Temp Outer RR,Toe In FL,Toe In FR,Toe In RL,Toe In RR,Turbo Boost,Wheel Angular Speed FL,Wheel Angular Speed FR,Wheel Angular Speed RL,Wheel Angular Speed RR,Wind Direction,Wind Speed
0,0.0,1.0,0.0,1.0,1.0,0.0,0.0,1.0,0.0,100.0,1.0,1.1856,26.0,0.0,0.0,0.0,59.99999,0.0,26.0,26.0,26.0,26.0,-0.10366666666666657,0.2973000000000001,0.03106666666666667,294.052,-2.7021,-2.6825555555555556,-1.5,-1.5729,-275.6,216.29250000000002,190.987125,0.0,0.0,0.0,0.0,0.0016333333333333755,-5.498166666666667,-5.498166666666667,-0.55,1.1866666666666668,-0.026000000000000245,-0.132,65.516,-0.0494,-0.21685000000000001,1.1059999999999999,100.0,1.0,1.0,202.2866666666667,0.0,0.0,0.0,0.0,0.0,0.0,0.0,8574.2,0.0,55.0,5.0,235.82666666666665,0.0,0.0,0.0,0.0,0.0,0.0,0.0,0.0,0.006000000000000227,0.006000000000000227,0.0,0.0,0.0,55.0,616.79921,10000.0,85.0,85.0,85.0,85.0,395.0,0.0,0.0,0.0,1.0,20.0,52.75,52.75,49.652,49.652,34.0,-28.307499999999997,23.372,-30.269999999999996,24.075000000000003,0.0,1775.576,0.9000000000000021,100.0,27.337,26.675,40.744,40.323,0.0,1.0,100.0,0.0,0.0,0.0,0.0,3118.0,3419.5,4092.375,3941.5,305.297,303.985,314.8636666666667,315.01825,21.7917,20.5259,21.7517,21.2934,314.99999,314.99999,324.99998,324.99998,99.55884285714286,99.50731666666667,99.56414285714285,99.54408571428571,-0.021499999999999853,-0.13375000000000004,-0.16833333333333333,0.0535000000000001,-0.06499999999999773,-0.04833333333333201,1.5613333333333332,1.5975000000000001,37.198,29.287,36.948,34.084,56.358000000000004,34.5465,58.7935,51.3375,54.26,33.719,57.4295,49.698499999999996,53.418,33.293,57.400999999999996,49.123333333333335,-0.0024999999999999467,-0.1459999999999999,0.09893,0.11592000000000001,0.0,205.34,205.20499999999998,202.2866666666667,202.2866666666667,0.0,0.0
1,0.0,1.0,0.0,1.0,1.0,0.0,0.0,1.0,0.0,100.0,1.0,1.1856,26.0,0.0,0.0,0.0,59.999996,0.0,26.0,26.0,26.0,26.0,-0.13211111111111107,0.2976000000000001,-0.005733333333333334,293.152,-2.6301,-2.7744444444444447,-1.5220500000000001,-1.5558,-272.06,216.29000000000002,190.966,0.0,0.0,0.0,0.0,0.0036999999999999256,-5.498166666666667,-5.498166666666667,-0.49670000000000003,-0.586,-0.06162500000000026,-0.565,65.679,-0.0634,-0.198025,1.4160000000000004,100.0,1.0,1.0,202.47,0.0,0.0,0.0,0.0,0.0,0.0,0.0,8581.9,0.0,55.0,5.0,236.41333333333333,1.0,0.0,0.0,0.0,0.0,0.0,0.0,0.0,0.05999999999999872,0.05999999999999872,0.0,0.0,1.0,55.0,616.79921,10000.0,85.000001,85.000001,85.000001,85.000001,395.0,0.0,0.0,0.0,1.0,166.665,53.772,53.772,48.400999999999996,48.400999999999996,34.0,-26.705,17.836,-33.67666666666666,28.975,0.0,1775.522,0.9100000000000001,100.0,27.61,26.817,42.854,41.607,0.0,1.0,100.0,0.0,0.0,0.0,0.0,3014.714285714286,2676.2,4241.125,4740.6,305.578,306.31166666666667,314.44733333333335,313.0265,21.8022,20.5313,21.762999999999998,21.3031,314.999998,314.999998,324.999988,324.999988,99.55885714285715,99.50733333333334,99.56431428571429,99.54422857142858,-0.02299999999999991,-0.14574999999999994,-0.1875,0.02950000000000008,-0.02499999999999858,-0.03166666666666629,1.4173333333333333,1.457,37.263999999999996,29.320666666666668,37.019,34.144,56.342,34.59,58.841,51.408,54.244,33.759,57.474000000000004,49.7665,53.400999999999996,33.3315,57.443,49.19,0.0015000000000000568,-0.14700000000000024,0.100915,0.10891,0.0,205.78,205.675,202.47,202.47,0.0,0.0
2,0.0,1.0,0.0,1.0,1.0,0.0,0.0,1.0,0.0,100.0,1.0,1.1856,26.0,0.0,0.0,0.0,59.999996,0.0,26.0,26.0,26.0,26.0,-0.16588888888888886,0.28,-0.08543333333333335,293.73199999999997,-2.5868,-2.8129999999999997,-1.47615,-1.623,-268.9,216.2825,190.948125,0.0,0.0,0.0,0.0,0.00553333333333339,-5.498166666666667,-5.498166666666667,-0.5459,-0.04033333333333334,-0.06174999999999997,2.5340000000000003,65.813,-0.0796,-0.24705000000000002,1.6820000000000004,100.0,1.0,1.0,203.32333333333332,0.0,0.0,0.0,0.0,0.0,0.0,0.0,8618.1,0.0,55.0,5.0,236.89666666666668,0.0,0.0,0.0,0.0,0.0,0.0,0.0,0.0,0.10800000000000054,0.10800000000000054,0.0,0.0,0.0,55.0,616.79921,10000.0,85.000001,85.000001,85.000001,85.000001,395.0,0.0,0.0,0.0,1.0,333.33500000000004,52.582,52.582,50.125,50.125,34.0,-30.2225,19.898,-29.630000000000003,20.134999999999998,0.0,1775.472,0.7300000000000004,100.0,28.353,26.733,42.689,41.218,0.0,1.0,100.0,0.0,0.0,0.0,0.0,3334.0,2929.9,3789.125,3689.4,304.532,305.587,315.5303333333333,315.7585,21.811799999999998,20.535899999999998,21.7728,21.3112,314.999998,314.999998,324.999988,324.999988,99.55885714285715,99.50735,99.56444285714285,99.54435714285714,-0.03374999999999995,-0.15100000000000002,-0.22316666666666662,0.0035000000000000586,-0.04833333333333201,-0.051666666666669414,1.6156666666666668,1.6915,37.324,29.349333333333334,37.08,34.195499999999996,56.331,34.626,58.878,51.462,54.233000000000004,33.792500000000004,57.5085,49.818,53.39,33.363,57.4745,49.24066666666667,-0.012499999999999956,-0.13100000000000023,0.09652000000000001,0.11246500000000001,0.0,206.215,206.065,203.32333333333332,203.32333333333332,0.0,0.0
3,0.0,1.0,0.0,1.0,1.0,0.0,0.0,1.0,0.0,100.0,1.0,1.1856,26.0,0.0,0.0,0.0,59.999996,0.0,26.0,26.0,26.0,26.0,-0.14733333333333332,0.30800000000000005,0.07213333333333334,293.411,-2.7231,-2.699,-1.5083,-1.5945,-265.74,216.2725,190.929625,0.0,0.0,0.0,0.0,0.0073666666666665215,-5.498166666666667,-5.498166666666667,-0.5104000000000001,0.3793333333333333,-0.013125000000000053,0.4990000000000001,65.956,-0.0931,-0.20045000000000002,1.2479999999999993,100.0,1.0,1.0,203.48000000000002,0.0,0.0,0.0,0.0,0.0,0.0,0.0,8624.8,0.0,55.0,5.0,237.41,1.0,0.0,0.0,0.0,0.0,0.0,0.0,0.0,0.1559999999999988,0.1559999999999988,0.0,0.0,1.0,55.0,616.79921,10000.0,85.000001,85.000001,85.000001,85.000001,395.0,0.0,0.0,0.0,1.0,166.665,53.513,53.513,48.157,48.157,34.0,-26.21,18.656,-34.95333333333333,24.6825,0.0,1775.426,0.5949999999999989,100.0,27.953,26.88,42.554,41.299,0.0,1.0,100.0,0.0,0.0,0.0,0.0,2876.285714285714,2908.1,4268.75,4268.5,305.9885,305.5933333333333,314.3666666666667,314.28975,21.8211,20.5408,21.7825,21.3196,314.999998,314.999998,324.999988,324.999988,99.55887142857142,99.50736666666667,99.56457142857143,99.5445,-0.027499999999999858,-0.15449999999999997,-0.21683333333333332,0.01100000000000012,-0.03499999999999659,-0.060000000000002274,1.4946666666666668,1.5325,37.382,29.38,37.141,34.2475,56.316,34.666,58.9155,51.5215,54.219,33.829499999999996,57.544,49.8755,53.375,33.3985,57.5075,49.29666666666667,-0.026000000000000023,-0.125,0.10736000000000001,0.10991500000000001,0.0,206.66500000000002,206.555,203.48000000000002,203.48000000000002,0.0,0.0
4,0.0,1.0,0.0,1.0,1.0,0.0,0.0,1.0,0.0,100.0,1.0,1.1856,26.0,0.0,0.0,0.0,59.999996,0.0,26.0,26.0,26.0,26.0,-0.1584444444444444,0.2912000000000001,-0.05533333333333334,293.716,-2.6536,-2.7535555555555558,-1.5204,-1.6017000000000001,-262.18,216.255,190.90875,0.0,0.0,0.0,0.0,0.009433333333333294,-5.498166666666667,-5.498166666666667,-0.5441,-0.6963333333333334,-0.08199999999999985,-0.44499999999999995,66.11,-0.09190000000000001,-0.23770000000000002,1.1059999999999999,100.0,1.0,1.0,204.11333333333334,0.0,0.0,0.0,0.0,0.0,0.0,0.0,8651.6,0.0,55.0,5.0,237.97,0.0,0.0,0.0,0.0,0.0,0.0,0.0,0.0,0.21000000000000085,0.21000000000000085,0.0,0.0,0.0,55.0,616.79921,10000.0,85.000001,85.000001,85.000001,85.000001,395.0,0.0,0.0,0.0,1.0,166.665,53.116,53.116,48.92,48.92,34.0,-29.0775,19.811999999999998,-32.053333333333335,20.692500000000003,0.0,1775.372,0.5500000000000007,100.0,27.749,26.668,42.884,41.369,0.0,1.0,100.0,0.0,0.0,0.0,0.0,3221.714285714286,2967.7,4017.375,3689.3,305.0335,305.43233333333336,314.951,315.652,21.8314,20.5462,21.7937,21.3289,314.999998,314.999998,324.999988,324.999988,99.55887142857142,99.50738333333334,99.56472857142857,99.54464285714286,-0.025249999999999995,-0.14825,-0.21099999999999997,0.012499999999999956,-0.06499999999999773,-0.06333333333333258,1.5696666666666665,1.6035,37.446,29.413666666666664,37.211,34.306,56.297,34.71,58.961,51.585,54.202,33.87,57.586,49.936,53.357,33.437,57.5465,49.356,-0.03149999999999986,-0.11949999999999994,0.1101,0.1034,0.0,207.11,206.985,204.11333333333334,204.11333333333334,0.0,0.0
5,0.0,1.0,0.0,1.0,1.0,0.0,0.0,1.0,0.0,100.0,1.0,1.1856,26.0,0.0,0.0,0.0,59.999996,0.0,26.0,26.0,26.0,26.0,-0.14022222222222214,0.29580000000000006,-0.014833333333333336,293.686,-2.6646,-2.773777777777778,-1.5056500000000002,-1.5911000000000002,-259.0,216.2375,190.8895,0.0,0.0,0.0,0.0,0.011299999999999977,-5.498166666666667,-5.498166666666667,-0.5345,0.39566666666666667,-0.08512500000000012,1.1179999999999999,66.249,-0.0901,-0.211825,1.0060000000000002,100.0,1.0,1.0,204.47,0.0,0.0,0.0,0.0,0.0,0.0,0.0,8666.7,0.0,55.0,5.0,238.46333333333334,1.0,0.0,0.0,0.0,0.0,0.0,0.0,0.0,0.2579999999999991,0.2579999999999991,0.0,0.0,1.0,55.0,616.79921,10000.0,85.000001,85.000001,85.000001,85.000001,395.0,0.0,0.0,0.0,1.0,333.33500000000004,53.528,53.528,48.996,48.996,34.0,-27.295,19.576,-33.31,23.189999999999998,0.0,1775.322,0.19500000000000028,100.0,27.906,26.541,42.657,41.066,0.0,1.0,100.0,0.0,0.0,0.0,0.0,3097.857142857143,2833.8,4145.875,4082.5,305.3445,305.8806666666667,314.72833333333335,314.75925,21.8407,20.5509,21.8035,21.3371,314.999998,314.999998,324.999988,324.999988,99.55887142857142,99.5074,99.56487142857142,99.54477142857142,-0.008750000000000036,-0.13124999999999998,-0.21516666666666662,0.011166666666666547,-0.046666666666666856,-0.07333333333333059,1.5416666666666665,1.582,37.504999999999995,29.443333333333335,37.272,34.357,56.284,34.7475,58.9995,51.64,54.189,33.9045,57.622,49.9885,53.344,33.47,57.58,49.407666666666664,-0.05349999999999988,-0.09250000000000025,0.10949500000000001,0.10463000000000001,0.0,207.57,207.48000000000002,204.47,204.47,0.0,0.0
6,0.0,1.0,0.0,1.0,1.0,0.0,0.0,1.0,0.0,100.0,1.0,1.1856,26.0,0.0,0.0,0.0,59.999996,0.0,26.0,26.0,26.0,26.0,-0.10299999999999998,0.28459999999999996,-0.008466666666666667,293.472,-2.6418,-2.7944444444444443,-1.553,-1.5822,-255.62,216.2175,190.869,0.0,0.0,0.0,0.0,0.013266666666666538,-5.498166666666667,-5.498166666666667,-0.5306000000000001,0.10033333333333333,-0.06424999999999992,-0.43599999999999994,66.395,-0.08320000000000001,-0.2136,0.7640000000000002,100.0,1.0,1.0,204.91666666666669,0.0,0.0,0.0,0.0,0.0,0.0,0.0,8685.6,0.0,55.0,5.0,238.99333333333334,0.0,0.0,0.0,0.0,0.0,0.0,0.0,0.0,0.30900000000000105,0.30900000000000105,0.0,0.0,0.0,55.0,616.79921,10000.0,85.000001,85.000001,85.000001,85.000001,395.0,0.0,0.0,0.0,1.0,166.665,53.192,53.192,48.721000000000004,48.721000000000004,34.0,-27.78,20.642,-33.39,23.025,0.0,1775.273,0.045000000000001705,100.0,27.637,26.842,42.684,41.528999999999996,0.0,1.0,100.0,0.0,0.0,0.0,0.0,3205.5714285714284,2870.4,4124.375,4009.2,305.153,305.49033333333335,314.827,314.8575,21.8506,20.5561,21.814,21.3461,314.999998,314.999998,324.999988,324.999988,99.55887142857142,99.5074,99.56501428571428,99.54491428571428,-0.0029999999999998916,-0.12349999999999994,-0.20799999999999996,0.01750000000000007,-0.03999999999999915,-0.04333333333332945,1.5256666666666665,1.5645,37.566,29.47533333333333,37.337,34.413,56.268,34.788,59.0405,51.702,54.174,33.9415,57.6605,50.048500000000004,53.328,33.504999999999995,57.6155,49.466,-0.07099999999999995,-0.07350000000000012,0.10476500000000001,0.10449000000000001,0.0,208.0,207.93,204.91666666666669,204.91666666666669,0.0,0.0
7,0.0,1.0,0.0,1.0,1.0,0.0,0.0,1.0,0.0,100.0,1.0,1.1856,26.0,0.0,0.0,0.0,59.999996,0.0,26.0,26.0,26.0,26.0,-0.0845555555555555,0.2995000000000001,0.022766666666666668,293.213,-2.6129,-2.729,-1.5131999999999999,-1.6242,-252.43,216.195,190.84975,0.0,0.0,0.0,0.0,0.015100000000000002,-5.498166666666667,-5.498166666666667,-0.5337000000000001,-0.029333333333333333,-0.05287500000000023,-0.244,66.533,-0.0669,-0.22310000000000002,0.41999999999999993,100.0,1.0,1.0,205.29666666666668,0.0,0.0,0.0,0.0,0.0,0.0,0.0,8701.7,0.0,55.0,5.0,239.49,1.0,0.0,0.0,0.0,0.0,0.0,0.0,0.0,0.3569999999999993,0.3569999999999993,0.0,0.0,1.0,55.0,616.79921,10000.0,85.000001,85.000001,85.000001,85.000001,395.0,0.0,0.0,0.0,1.0,333.33500000000004,52.841,52.841,48.828,48.828,34.0,-27.145,21.856,-31.566666666666663,24.8825,0.0,1775.223,-0.2049999999999983,100.0,27.789,26.899,42.691,41.795,0.0,1.0,100.0,0.0,0.0,0.0,0.0,3288.857142857143,2964.9,4100.625,4037.6000000000004,304.8555,305.267,314.8353333333333,314.7135,21.8599,20.5609,21.8239,21.3545,314.999998,314.999998,324.999988,324.999988,99.55887142857142,99.50741666666667,99.56514285714286,99.54504285714286,0.025500000000000078,-0.09724999999999995,-0.18533333333333335,0.035666666666666735,-0.046666666666666856,-0.046666666666666856,1.5323333333333333,1.5495,37.623999999999995,29.506,37.399,34.4655,56.254000000000005,34.8245,59.079,51.760999999999996,54.161,33.9755,57.6965,50.1045,53.314,33.5375,57.6485,49.521,-0.08799999999999986,-0.052999999999999936,0.098835,0.103425,0.0,208.405,208.365,205.29666666666668,205.29666666666668,0.0,0.0
8,0.0,1.0,0.0,1.0,1.0,0.0,0.0,1.0,0.0,100.0,1.0,1.1856,26.0,0.0,0.0,0.0,59.999996,0.0,26.0,26.0,26.0,26.0,-0.03344444444444439,0.2944,-0.03126666666666667,293.51800000000003,-2.697,-2.7205555555555554,-1.4979,-1.5754000000000001,-248.82999999999998,216.16750000000002,190.828,0.0,0.0,0.0,0.0,0.017199999999999993,-5.498166666666667,-5.498166666666667,-0.5369,-0.5413333333333333,-0.03462500000000013,-0.493,66.687,-0.0466,-0.21635000000000001,-0.02200000000000024,100.0,1.0,1.0,205.72333333333333,0.0,0.0,0.0,0.0,0.0,0.0,0.0,8719.9,0.0,55.0,5.0,240.04333333333335,0.0,0.0,0.0,0.0,0.0,0.0,0.0,0.0,0.41100000000000136,0.41100000000000136,0.0,0.0,0.0,55.0,616.79921,10000.0,85.000001,85.000001,85.000001,85.000001,395.0,0.0,0.0,0.0,1.0,166.665,53.65,53.65,48.263999999999996,48.263999999999996,34.0,-24.035,22.04,-30.46666666666666,26.567500000000003,0.0,1775.17,-0.36499999999999844,100.0,27.329,26.879,42.667,41.932,0.0,1.0,100.0,0.0,0.0,0.0,0.0,3018.285714285714,2921.4,4140.375,4074.2,305.8075,305.426,314.72066666666666,314.62875,21.8701,20.5664,21.835,21.364,314.999998,314.999998,324.999988,324.999988,99.55888571428571,99.50743333333334,99.5653,99.5452,0.052000000000000046,-0.08150000000000002,-0.15900000000000003,0.07433333333333336,-0.054999999999999716,-0.04333333333332945,1.525,1.53,37.688,29.540333333333333,37.468,34.525,56.236000000000004,34.865,59.1215,51.826,54.144,34.0125,57.736,50.167,53.296,33.573,57.6855,49.582,-0.11099999999999999,-0.040999999999999925,0.10582000000000001,0.11371500000000001,0.0,208.86,208.835,205.72333333333333,205.72333333333333,0.0,0.0
9,0.0,1.0,0.0,1.0,1.0,0.0,0.0,1.0,0.0,100.0,1.0,1.1856,26.0,0.0,0.0,0.0,59.999996,0.0,26.0,26.0,26.0,26.0,-0.012555555555555542,0.28090000000000015,-0.013933333333333336,293.106,-2.6261,-2.7172222222222224,-1.5549,-1.5549000000000002,-245.62,216.14,190.808,0.0,0.0,0.0,0.0,0.019066666666666565,-5.498166666666667,-5.498166666666667,-0.5394,0.7173333333333334,-0.03337499999999993,-0.32499999999999996,66.821,-0.0269,-0.21407500000000002,-0.13600000000000012,100.0,1.0,1.0,206.24,0.0,0.0,0.0,0.0,0.0,0.0,0.0,8741.7,0.0,55.0,5.0,240.5233333333333,1.0,0.0,0.0,0.0,0.0,0.0,0.0,0.0,0.45899999999999963,0.45899999999999963,0.0,0.0,1.0,55.0,616.79921,10000.0,85.000001,85.000001,85.000001,85.000001,395.0,0.0,0.0,0.0,1.0,166.665,52.429,52.429,49.118,49.118,34.0,-25.549999999999997,23.732,-29.043333333333337,26.7975,0.0,1775.123,-0.5,100.0,27.858,27.337,42.33,41.965,0.0,1.0,100.0,0.0,0.0,0.0,0.0,3343.714285714286,2999.3,4050.625,4066.7,304.7,305.112,315.06,314.75475,21.8794,20.5715,21.8447,21.3723,314.999998,314.999998,324.999988,324.999988,99.5589,99.50743333333334,99.56542857142857,99.54532857142857,0.07399999999999984,-0.05725000000000002,-0.1386666666666666,0.09066666666666667,-0.041666666666671404,-0.051666666666669414,1.5706666666666667,1.563,37.745999999999995,29.572,37.528999999999996,34.577,56.224000000000004,34.9015,59.1565,51.8825,54.132,34.046,57.7685,50.2215,53.284,33.6055,57.715,49.635333333333335,-0.11999999999999988,-0.03750000000000009,0.10422500000000001,0.11026000000000001,0.0,209.28,209.3,206.24,206.24,0.0,0.0
10,0.0,1.0,0.0,1.0,1.0,0.0,0.0,1.0,0.0,100.0,1.0,1.1856,26.0,0.0,0.0,0.0,59.999996,0.0,26.0,26.0,26.0,26.0,0.00377777777777788,0.29780000000000006,-0.0111,292.984,-2.6617,-2.698666666666667,-1.5356,-1.534,-242.41,216.115,190.7885,0.0,0.0,0.0,0.0,0.02093333333333336,-5.498166666666667,-5.498166666666667,-0.518,-0.438,0.007249999999999979,0.345,66.959,-0.008,-0.20670000000000002,-0.46999999999999975,100.0,1.0,1.0,206.45666666666668,0.0,0.0,0.0,0.0,0.0,0.0,0.0,8750.9,0.0,55.0,5.0,241.02333333333334,0.0,0.0,0.0,0.0,0.0,0.0,1.0,0.0,0.5069999999999979,0.5069999999999979,0.0,0.0,0.0,55.0,616.79921,10000.0,85.000001,85.000001,85.000001,85.000001,395.0,0.0,0.0,0.0,1.0,166.665,53.497,53.497,47.623,47.623,34.0,-21.3825,22.747999999999998,-30.486666666666665,29.5325,0.0,1775.074,-0.6149999999999984,100.0,27.696,27.325,42.769999999999996,42.712,0.0,1.0,100.0,0.0,0.0,0.0,0.0,2881.714285714286,2867.2,4319.125,4272.5,306.1125,305.562,314.293,314.15575,21.8885,20.5764,21.8547,21.381,314.999998,314.999998,324.999988,324.999988,99.5589,99.50745,99.56557142857143,99.54545714285715,0.08325000000000005,-0.046499999999999986,-0.11683333333333334,0.10650000000000004,-0.036666666666668846,-0.051666666666669414,1.4956666666666667,1.4675,37.803,29.602666666666664,37.592,34.631,56.212,34.936,59.196,51.944,54.120000000000005,34.078,57.8055,50.28,53.271,33.6355,57.749,49.693,-0.121,-0.03200000000000003,0.10297500000000001,0.10619500000000001,0.0,209.685,209.715,206.45666666666668,206.45666666666668,0.0,0.0
11,0.0,1.0,0.0,1.0,1.0,0.0,0.0,1.0,0.0,100.0,1.0,1.1856,26.0,0.0,0.0,0.0,59.999996,0.0,26.0,26.0,26.0,26.0,0.05122222222222228,0.27449999999999997,-0.10096666666666666,293.503,-2.7115,-2.6853333333333333,-1.5891000000000002,-1.5229000000000001,-238.79,216.085,190.7665,0.0,0.0,0.0,0.0,0.022599999999999953,-5.498166666666667,-5.498166666666667,-0.5623,-0.05566666666666666,0.030249999999999888,-0.766,67.106,0.014100000000000001,-0.23620000000000002,-0.637999999999999,100.0,1.0,1.0,207.23666666666668,0.0,0.0,0.0,0.0,0.0,0.0,0.0,8784.1,0.0,55.0,5.0,241.55333333333334,1.0,0.0,0.0,0.0,0.0,0.0,1.0,0.0,0.5609999999999999,0.5609999999999999,0.0,0.0,1.0,55.0,616.79921,10000.0,85.000001,85.000001,85.000001,85.000001,395.0,0.0,0.0,0.0,1.0,166.665,52.795,52.795,49.271,49.271,34.0,-22.55,25.86,-24.76333333333333,26.83,0.0,1775.021,-0.6849999999999987,100.0,27.466,27.611,42.227000000000004,42.537,0.0,1.0,100.0,0.0,0.0,0.0,0.0,3097.0,3086.4,3747.0,3863.3,305.539,304.85066666666665,315.8036666666667,315.23975,21.8985,20.5822,21.8655,21.3904,314.999998,314.999998,324.999988,324.999988,99.55891428571428,99.50745,99.56571428571428,99.54561428571428,0.10850000000000026,-0.019000000000000017,-0.09816666666666662,0.13816666666666677,-0.05833333333333002,-0.03499999999999659,1.6353333333333335,1.6165,37.866,29.638666666666666,37.66,34.69,56.196,34.9755,59.233000000000004,52.007999999999996,54.105000000000004,34.1145,57.84,50.342,53.254999999999995,33.671,57.7805,49.75366666666667,-0.13250000000000006,-0.02400000000000002,0.11079000000000001,0.11434500000000002,0.0,210.13,210.16500000000002,207.23666666666668,207.23666666666668,0.0,0.0
12,0.0,1.0,0.0,1.0,1.0,0.0,0.0,1.0,0.0,100.0,1.0,1.1856,26.0,0.0,0.0,0.0,59.999996,0.0,26.0,26.0,26.0,26.0,0.04988888888888887,0.28459999999999996,0.011933333333333334,292.938,-2.758,-2.682777777777778,-1.55145,-1.5244,-235.76999999999998,216.0625,190.747,0.0,0.0,0.0,0.0,0.025466666666666526,-5.498166666666667,-5.498166666666667,-0.5463,0.3076666666666667,0.019874999999999865,0.6719999999999999,67.23400000000001,0.030500000000000003,-0.20722500000000002,-0.75,100.0,1.0,1.0,207.39,0.0,0.0,0.0,0.0,0.0,0.0,0.0,8790.5,0.0,55.0,5.0,242.01333333333332,0.0,0.0,0.0,0.0,0.0,0.0,1.0,0.0,0.6059999999999981,0.6059999999999981,0.0,0.0,0.0,55.0,616.79921,10000.0,85.000001,85.000001,85.000001,85.000001,395.0,0.0,0.0,0.0,1.0,166.665,52.826,52.826,47.943,47.943,34.0,-21.9075,27.18,-26.303333333333327,31.77,0.0,1774.976,-0.6600000000000001,100.0,27.485,27.592,42.294,42.443,0.0,1.0,100.0,0.0,0.0,0.0,0.0,3025.5714285714284,3196.1,4176.25,4237.9,305.606,304.72,314.6413333333333,314.38175,21.9069,20.587,21.8747,21.3983,314.999998,314.999998,324.999988,324.999988,99.55892857142857,99.50745,99.56584285714285,99.54574285714286,0.12349999999999994,-0.005249999999999977,-0.05899999999999994,0.16316666666666668,-0.04333333333332945,-0.05666666666667197,1.5256666666666665,1.5005,37.918,29.669,37.717,34.7395,56.185,35.009,59.2675,52.0625,54.095,34.1455,57.8725,50.3945,53.244,33.7005,57.81,49.805,-0.125,-0.028500000000000192,0.10254,0.10961000000000001,0.0,210.54500000000002,210.595,207.39,207.39,0.0,0.0
13,0.0,1.0,0.0,1.0,1.0,0.0,0.0,1.0,0.0,100.0,1.0,1.1856,26.0,0.0,0.0,0.0,59.999996,0.0,26.0,26.0,26.0,26.0,0.074888888888889,0.2781,0.052566666666666664,292.572,-2.7356,-2.674444444444444,-1.59205,-1.5071,-232.14,216.0375,190.724,0.0,0.0,0.0,0.0,0.026899999999999924,-5.498166666666667,-5.498166666666667,-0.5393,-0.109,0.025499999999999856,1.017,67.385,0.0397,-0.216375,-0.8739999999999997,100.0,1.0,1.0,207.81,0.0,0.0,0.0,0.0,0.0,0.0,0.0,8808.3,0.0,55.0,5.0,242.55666666666667,1.0,0.0,0.0,0.0,0.0,0.0,1.0,0.0,0.6600000000000001,0.6600000000000001,0.0,0.0,1.0,55.0,616.79921,10000.0,85.000001,85.000001,85.000001,85.000001,395.0,0.0,0.0,0.0,1.0,166.665,52.475,52.475,47.928,47.928,34.0,-20.5825,28.008,-26.48666666666667,33.195,0.0,1774.921,-0.8599999999999994,100.0,27.818,27.802,42.569,43.001,0.0,1.0,100.0,0.0,0.0,0.0,0.0,3051.5714285714284,3190.9,4121.0,4365.0,305.5055,304.727,314.74,314.05275,21.9171,20.5929,21.8858,21.408,314.999998,314.999998,324.999988,324.999988,99.55895714285714,99.50746666666667,99.566,99.5459,0.15500000000000025,0.017249999999999988,-0.0568333333333334,0.16900000000000004,-0.03333333333333144,-0.06333333333333258,1.505,1.467,37.982,29.705333333333336,37.786,34.8005,56.174,35.049,59.309,52.131,54.084,34.1825,57.911,50.460499999999996,53.232,33.736000000000004,57.8455,49.87,-0.1459999999999999,-0.014499999999999957,0.10891,0.1048,0.0,210.99,211.04000000000002,207.81,207.81,0.0,0.0
14,0.0,1.0,0.0,1.0,1.0,0.0,0.0,1.0,0.0,100.0,1.0,1.1856,26.0,0.0,0.0,0.0,59.999996,0.0,26.0,26.0,26.0,26.0,0.10877777777777786,0.28290000000000015,-0.008433333333333333,292.801,-2.7376,-2.6101111111111113,-1.6009,-1.51,-228.7,216.0125,190.70275,0.0,0.0,0.0,0.0,0.028899999999999926,-5.498166666666667,-5.498166666666667,-0.5492,-0.13366666666666666,0.052875000000000005,-0.10399999999999998,67.525,0.051000000000000004,-0.22837500000000002,-0.9539999999999997,100.0,1.0,1.0,208.32333333333332,0.0,0.0,0.0,0.0,0.0,0.0,0.0,8830.1,0.0,55.0,5.0,243.06,0.0,0.0,0.0,0.0,0.0,0.0,1.0,0.0,0.7109999999999985,0.7109999999999985,0.0,0.0,0.0,55.0,616.79921,10000.0,85.000001,85.000001,85.000001,85.000001,395.0,0.0,0.0,0.0,1.0,166.665,52.597,52.597,48.096000000000004,48.096000000000004,34.0,-20.3375,27.88,-25.086666666666666,31.405,0.0,1774.871,-0.9600000000000009,100.0,27.524,28.031,42.4,43.292,0.0,1.0,100.0,0.0,0.0,0.0,0.0,3024.142857142857,3184.4,3989.625,4168.4,305.7575,304.58033333333333,315.142,314.47,21.9266,20.5984,21.8961,21.4171,314.999998,314.999998,324.999988,324.999988,99.55897142857143,99.50746666666667,99.56614285714285,99.54604285714285,0.15200000000000014,0.023249999999999993,-0.053333333333333344,0.1711666666666667,-0.04333333333332945,-0.041666666666671404,1.5590000000000002,1.5205,38.041,29.739666666666665,37.851,34.857,56.164,35.087,59.3465,52.1945,54.074,34.2175,57.945499999999996,50.5215,53.221000000000004,33.7695,57.876999999999995,49.92966666666666,-0.15549999999999997,0.0024999999999999467,0.10106000000000001,0.11260500000000001,0.0,211.41,211.47500000000002,208.32333333333332,208.32333333333332,0.0,0.0
15,0.0,1.0,0.0,1.0,1.0,0.0,0.0,1.0,0.0,100.0,1.0,1.1856,26.0,0.0,0.0,0.0,59.999996,0.0,26.0,26.0,26.0,26.0,0.1080000000000001,0.27890000000000015,0.0142,292.801,-2.714,-2.570888888888889,-1.6279,-1.4505000000000001,-225.65,215.995,190.68375,0.0,0.0,0.0,0.0,0.03066666666666651,-5.498166666666667,-5.498166666666667,-0.5396000000000001,0.2723333333333333,0.08549999999999991,0.976,67.648,0.0641,-0.20905,-1.2299999999999995,100.0,1.0,1.0,208.68666666666667,0.0,0.0,0.0,0.0,0.0,0.0,0.0,8845.5,0.0,55.0,5.0,243.50333333333333,1.0,0.0,0.0,0.0,0.0,0.0,1.0,0.0,0.7560000000000002,0.7560000000000002,0.0,0.0,1.0,55.0,616.79921,10000.0,85.000001,85.000001,85.000001,85.000001,395.0,0.0,0.0,0.0,1.0,333.33500000000004,52.811,52.811,48.141,48.141,34.0,-17.99,28.502,-24.056666666666672,33.855000000000004,0.0,1774.825,-0.9749999999999979,100.0,27.69,27.924,42.257,43.256,0.0,1.0,100.0,0.0,0.0,0.0,0.0,2783.285714285714,3242.6,3937.0,4413.7,306.269,304.573,315.24133333333333,313.974,21.935,20.6033,21.9052,21.4252,314.999998,314.999998,324.999988,324.999988,99.55898571428571,99.50746666666667,99.56625714285714,99.54617142857143,0.16425,0.03875000000000006,-0.03183333333333338,0.19199999999999995,-0.03333333333333144,-0.06666666666666998,1.5496666666666665,1.5010000000000001,38.094,29.770333333333333,37.907,34.9075,56.155,35.121,59.378,52.2505,54.065,34.249,57.9745,50.5755,53.211,33.8,57.903,49.983000000000004,-0.15049999999999986,0.0035000000000000586,0.10261500000000001,0.10896000000000002,0.0,211.82,211.885,208.68666666666667,208.68666666666667,0.0,0.0
16,0.0,1.0,0.0,1.0,1.0,0.0,0.0,1.0,0.0,100.0,1.0,1.1856,26.0,0.0,0.0,0.0,59.999996,0.0,26.0,26.0,26.0,26.0,0.12400000000000011,0.2674000000000001,-0.05183333333333334,292.847,-2.8049,-2.5828888888888892,-1.6008499999999999,-1.4542000000000002,-222.2,215.97750000000002,190.661625,0.0,0.0,0.0,0.0,0.03269999999999995,-5.498166666666667,-5.498166666666667,-0.5611,-0.6973333333333334,0.0665,-1.063,67.788,0.0786,-0.22595,-1.2239999999999993,100.0,1.0,1.0,209.11666666666667,0.0,0.0,0.0,0.0,0.0,0.0,0.0,8863.7,0.0,55.0,5.0,244.01,0.0,0.0,0.0,0.0,0.0,0.0,1.0,0.0,0.8069999999999986,0.8069999999999986,0.0,0.0,0.0,55.0,616.79921,10000.0,85.000001,85.000001,85.000001,85.000001,395.0,0.0,0.0,0.0,1.0,166.665,52.719,52.719,47.913,47.913,34.0,-20.28,28.136,-23.490000000000002,32.31,0.0,1774.775,-0.8599999999999994,100.0,27.217,28.145,42.447,43.453,0.0,1.0,100.0,0.0,0.0,0.0,0.0,3015.285714285714,3198.5,3970.875,4132.4,305.879,304.56466666666665,315.203,314.5765,21.9442,20.6089,21.9156,21.4343,314.999998,314.999998,324.999988,324.999988,99.559,99.50748333333334,99.5664,99.54631428571429,0.16400000000000015,0.033500000000000085,-0.025499999999999967,0.20950000000000002,-0.04833333333333201,-0.04833333333333201,1.5746666666666667,1.5045,38.150999999999996,29.805333333333333,37.972,34.9645,56.141,35.1605,59.417,52.3135,54.052,34.2855,58.0105,50.6365,53.197,33.835,57.936,50.04266666666666,-0.14449999999999985,-0.01200000000000001,0.11085500000000001,0.11024,0.0,212.2,212.29000000000002,209.11666666666667,209.11666666666667,0.0,0.0
17,0.0,1.0,0.0,1.0,1.0,0.0,0.0,1.0,0.0,100.0,1.0,1.1856,26.0,0.0,0.0,0.0,59.999996,0.0,26.0,26.0,26.0,26.0,0.12522222222222212,0.28890000000000016,0.023066666666666666,292.374,-2.7652,-2.563777777777778,-1.64235,-1.476,-218.54,215.9625,190.63775,0.0,0.0,0.0,0.0,0.03483333333333338,-5.498166666666667,-5.498166666666667,-0.5478000000000001,0.4536666666666667,0.04774999999999996,-0.615,67.936,0.0818,-0.204025,-1.064,100.0,1.0,1.0,209.50333333333333,0.0,0.0,0.0,0.0,0.0,0.0,0.0,8880.1,0.0,55.0,5.0,244.54000000000002,1.0,0.0,0.0,0.0,0.0,0.0,1.0,0.0,0.8610000000000007,0.8610000000000007,0.0,0.0,1.0,55.0,616.79921,10000.0,85.000001,85.000001,85.000001,85.000001,395.0,0.0,0.0,0.0,1.0,166.665,52.399,52.399,47.577,47.577,34.0,-20.345,27.376,-26.50333333333333,34.2325,0.0,1774.72,-0.9800000000000004,100.0,27.675,28.393,42.266999999999996,43.496,0.0,1.0,100.0,0.0,0.0,0.0,0.0,3104.714285714286,3100.5,4320.75,4323.2,305.579,304.87533333333334,314.46066666666667,314.156,21.9543,20.6149,21.9265,21.4439,314.999998,314.999998,324.999988,324.999988,99.55901428571428,99.50748333333334,99.56655714285715,99.54647142857142,0.17100000000000026,0.04325000000000001,-0.02183333333333337,0.20516666666666672,-0.04833333333333201,-0.03833333333332689,1.5273333333333334,1.4845,38.214,29.843,38.041,35.0245,56.132999999999996,35.2035,59.4555,52.3805,54.044,34.3255,58.0465,50.701,53.187,33.873,57.9685,50.106,-0.1499999999999999,-0.0045000000000001705,0.10629000000000001,0.10943000000000001,0.0,212.695,212.775,209.50333333333333,209.50333333333333,0.0,0.0
18,0.0,1.0,0.0,1.0,1.0,0.0,0.0,1.0,0.0,100.0,1.0,1.1856,26.0,0.0,0.0,0.0,59.999996,0.0,26.0,26.0,26.0,26.0,0.12177777777777776,0.2792000000000001,-0.0122,292.48,-2.7958,-2.539888888888889,-1.6565,-1.4206,-215.48000000000002,215.9525,190.618,0.0,0.0,0.0,0.0,0.036599999999999966,-5.498166666666667,-5.498166666666667,-0.5589000000000001,-0.531,0.07487500000000002,1.165,68.057,0.0819,-0.222025,-1.2879999999999994,100.0,1.0,1.0,209.92333333333335,0.0,0.0,0.0,0.0,0.0,0.0,0.0,8897.9,0.0,55.0,5.0,244.98000000000002,0.0,0.0,0.0,0.0,0.0,0.0,1.0,0.0,0.9059999999999988,0.9059999999999988,0.0,0.0,0.0,55.0,616.79921,10000.0,85.000001,85.000001,85.000001,85.000001,395.0,0.0,0.0,0.0,1.0,333.33500000000004,52.383,52.383,47.684,47.684,34.0,-18.857499999999998,30.532,-23.946666666666665,32.735,0.0,1774.674,-1.245000000000001,100.0,27.554,28.101,42.637,43.794,0.0,1.0,100.0,0.0,0.0,0.0,0.0,2985.4285714285716,3372.8,4002.0,4231.1,305.816,304.2733333333333,315.10966666666667,314.42325,21.9625,20.6198,21.9357,21.4521,314.999998,314.999998,324.999988,324.999988,99.55904285714286,99.50748333333334,99.56668571428571,99.54661428571428,0.19399999999999995,0.06424999999999992,-0.014499999999999957,0.2108333333333332,-0.045000000000001705,-0.051666666666669414,1.572,1.504,38.266,29.874000000000002,38.098,35.0755,56.123999999999995,35.239,59.489,52.438,54.035,34.358000000000004,58.078,50.756,53.178,33.9045,57.9975,50.160333333333334,-0.16749999999999998,0.014999999999999902,0.11102000000000001,0.10695500000000001,0.0,213.05,213.115,209.92333333333335,209.92333333333335,0.0,0.0
19,0.0,1.0,0.0,1.0,1.0,0.0,0.0,1.0,0.0,100.0,1.0,1.1856,26.0,0.0,0.0,0.0,59.999996,0.0,26.0,26.0,26.0,26.0,0.16744444444444428,0.2885,0.035133333333333336,291.992,-2.772,-2.522444444444444,-1.67455,-1.4001000000000001,-212.0,215.9425,190.595375,0.0,0.0,0.0,0.0,0.03859999999999997,-5.498166666666667,-5.498166666666667,-0.5498000000000001,0.8236666666666667,0.08424999999999994,-0.46299999999999997,68.195,0.09230000000000001,-0.2102,-1.5999999999999996,100.0,1.0,1.0,210.32333333333332,0.0,0.0,0.0,0.0,0.0,0.0,0.0,8914.9,0.0,55.0,5.0,245.47333333333336,1.0,0.0,0.0,0.0,0.0,0.0,1.0,0.0,0.9570000000000007,0.9570000000000007,0.0,0.0,1.0,55.0,616.79921,10000.0,85.000001,85.000001,85.000001,85.000001,395.0,0.0,0.0,0.0,1.0,166.665,51.697,51.697,47.531,47.531,34.0,-18.685,30.624,-25.119999999999997,34.6325,0.0,1774.625,-1.4749999999999979,100.0,27.915,28.78,42.294,43.86,0.0,1.0,100.0,0.0,0.0,0.0,0.0,3128.5714285714284,3316.2,4176.125,4409.3,305.4415,304.157,314.811,313.98675,21.972,20.6257,21.945999999999998,21.461199999999998,314.999998,314.999998,324.999988,324.999988,99.55907142857143,99.5075,99.56682857142857,99.54675714285715,0.21475,0.07450000000000001,-0.009166666666666656,0.21983333333333333,-0.04333333333332945,-0.060000000000002274,1.5526666666666666,1.499,38.325,29.910333333333334,38.162,35.1325,56.117999999999995,35.283,59.5245,52.5015,54.028999999999996,34.399,58.1105,50.817499999999995,53.17,33.9435,58.0265,50.221000000000004,-0.1924999999999999,0.03149999999999986,0.10756500000000001,0.102745,0.0,213.48000000000002,213.61,210.32333333333332,210.32333333333332,0.0,0.0
20,0.0,1.0,0.0,1.0,1.0,0.0,0.0,1.0,0.0,100.0,1.0,1.1856,26.0,0.0,0.0,0.0,59.999996,0.0,26.0,26.0,26.0,26.0,0.20466666666666677,0.26690000000000014,-0.05853333333333334,292.343,-2.829,-2.577888888888889,-1.6094,-1.5166000000000002,-208.31,215.94,190.57175,0.0,0.0,0.0,0.0,0.04076666666666651,-5.498166666666667,-5.498166666666667,-0.5578000000000001,-1.1776666666666669,0.09362500000000007,-0.732,68.342,0.1091,-0.225475,-1.9739999999999993,100.0,1.0,1.0,210.69333333333333,0.0,0.0,0.0,0.0,0.0,0.0,0.0,8930.5,0.0,55.0,5.0,246.00333333333333,0.0,0.0,0.0,0.0,0.0,0.0,0.0,0.0,1.0109999999999992,1.0109999999999992,0.0,0.0,0.0,55.0,616.79921,10000.0,85.000001,85.000001,85.000001,85.000001,395.0,0.0,0.0,0.0,1.0,166.665,52.719,52.719,47.043,47.043,34.0,-17.08,30.308,-22.66666666666667,36.212500000000006,0.0,1774.571,-1.2650000000000006,100.0,27.339,28.518,42.785,44.409,0.0,1.0,100.0,0.0,0.0,0.0,0.0,2854.285714285714,3196.9,4064.375,4259.8,306.35,304.5466666666667,314.9286666666667,314.16525,21.9817,20.6317,21.9571,21.4711,314.999998,314.999998,324.999988,324.999988,99.5591,99.5075,99.56698571428572,99.54691428571428,0.21750000000000025,0.08624999999999994,0.010499999999999954,0.2370000000000001,-0.03499999999999659,-0.05333333333332746,1.52,1.458,38.385,29.948,38.232,35.1945,56.107,35.328,59.5665,52.572,54.018,34.441,58.1495,50.8855,53.158,33.984,58.0625,50.28766666666667,-0.18999999999999995,0.030000000000000027,0.11161000000000001,0.09744000000000001,0.0,213.87,214.01999999999998,210.69333333333333,210.69333333333333,0.0,0.0
21,0.0,1.0,0.0,1.0,1.0,0.0,0.0,1.0,0.0,100.0,1.0,1.1856,26.0,0.0,0.0,0.0,59.999996,0.0,26.0,26.0,26.0,26.0,0.1842222222222223,0.2742,-0.056100000000000004,292.572,-2.796,-2.5792222222222225,-1.6679,-1.4814,-205.03,215.9425,190.549875,0.0,0.0,0.0,0.0,0.04266666666666652,-5.498166666666667,-5.498166666666667,-0.5771000000000001,0.554,0.07187499999999991,-1.127,68.46600000000001,0.1279,-0.2217,-1.4639999999999995,100.0,1.0,1.0,211.2866666666667,0.0,0.0,0.0,0.0,0.0,0.0,0.0,8955.6,0.0,55.0,5.0,246.45,1.0,0.0,0.0,0.0,0.0,0.0,0.0,0.0,1.059000000000001,1.059000000000001,0.0,0.0,1.0,55.0,616.79921,10000.0,85.000001,85.000001,85.000001,85.000001,395.0,0.0,0.0,0.0,1.0,166.665,52.231,52.231,48.111,48.111,34.0,-20.865,27.734,-21.84666666666667,34.0925,0.0,1774.523,-0.2049999999999983,100.0,27.632,28.722,42.114000000000004,43.948,0.0,1.0,100.0,0.0,0.0,0.0,0.0,3051.285714285714,3197.7,4010.0,4075.6000000000004,305.7465,304.55333333333334,315.2203333333333,314.77825,21.9905,20.6372,21.9665,21.4796,314.999998,314.999998,324.999988,324.999988,99.55911428571429,99.50751666666666,99.56711428571428,99.54705714285714,0.15649999999999986,0.023500000000000076,0.025333333333333208,0.2576666666666667,-0.05666666666667197,-0.05833333333333002,1.615,1.5655000000000001,38.44,29.982333333333333,38.291,35.2475,56.098,35.3685,59.597,52.6295,54.01,34.4785,58.178,50.941,53.149,34.019999999999996,58.0875,50.342333333333336,-0.09749999999999992,-0.05650000000000022,0.10645500000000001,0.10675000000000001,0.0,214.32,214.425,211.2866666666667,211.2866666666667,0.0,0.0
22,0.0,1.0,0.0,1.0,1.0,0.0,0.0,1.0,0.0,100.0,1.0,1.1856,26.0,0.0,0.0,0.0,59.999996,0.0,26.0,26.0,26.0,26.0,0.1206666666666667,0.26760000000000006,0.019700000000000002,292.084,-2.7193,-2.639333333333333,-1.65395,-1.4796,-201.74,215.9475,190.5275,0.0,0.0,0.0,0.0,0.04456666666666653,-5.498166666666667,-5.498166666666667,-0.5566,0.10433333333333333,0.06774999999999998,-0.813,68.59700000000001,0.1124,-0.20622500000000002,-0.25200000000000067,100.0,1.0,1.0,211.49,0.0,0.0,0.0,0.0,0.0,0.0,0.0,8964.3,0.0,55.0,5.0,246.92000000000002,0.0,0.0,0.0,0.0,0.0,0.0,0.0,0.0,1.1069999999999993,1.1069999999999993,0.0,0.0,0.0,55.0,616.79921,10000.0,85.000001,85.000001,85.000001,85.000001,395.0,0.0,0.0,0.0,1.0,333.33500000000004,52.307,52.307,47.073,47.073,34.0,-21.3325,25.414,-25.943333333333328,35.185,0.0,1774.473,0.495000000000001,100.0,27.757,28.732,42.644999999999996,44.17,0.0,1.0,100.0,0.0,0.0,0.0,0.0,2953.142857142857,3119.6,4224.5,4334.9,305.938,304.67,314.65233333333333,314.11775,21.999299999999998,20.6426,21.976399999999998,21.4883,314.999998,314.999998,324.999988,324.999988,99.55912857142857,99.50751666666666,99.56725714285714,99.5472,0.11249999999999982,-0.03025,-0.017000000000000015,0.21900000000000008,-0.060000000000002274,-0.04999999999999716,1.484,1.485,38.495999999999995,30.016,38.352999999999994,35.302,56.087,35.4055,59.6345,52.691,54.0,34.5125,58.2125,51.0005,53.137,34.053,58.1195,50.400666666666666,-0.038999999999999924,-0.11699999999999999,0.107215,0.11022000000000001,0.0,214.76999999999998,214.8,211.49,211.49,0.0,0.0
23,0.0,1.0,0.0,1.0,1.0,0.0,0.0,1.0,0.0,100.0,1.0,1.1856,26.0,0.0,0.0,0.0,59.999996,0.0,26.0,26.0,26.0,26.0,0.03833333333333333,0.25340000000000007,-0.0159,292.084,-2.7185,-2.6215555555555556,-1.5549,-1.5707,-198.24,215.95499999999998,190.504,0.0,0.0,0.0,0.0,0.046599999999999975,-5.498166666666667,-5.498166666666667,-0.5760000000000001,-0.28833333333333333,0.03949999999999987,0.02300000000000013,68.731,0.062400000000000004,-0.23292500000000002,0.6679999999999993,100.0,1.0,1.0,212.00333333333333,0.0,0.0,0.0,0.0,0.0,0.0,0.0,8986.1,0.0,55.0,5.0,247.40666666666667,1.0,0.0,0.0,0.0,0.0,0.0,0.0,0.0,1.1580000000000013,1.1580000000000013,0.0,0.0,1.0,55.0,616.79921,10000.0,85.000001,85.000001,85.000001,85.000001,395.0,0.0,0.0,0.0,1.0,166.665,51.635999999999996,51.635999999999996,48.08,48.08,34.0,-24.7425,24.922,-24.92,30.025000000000002,0.0,1774.424,0.754999999999999,100.0,28.315,28.476,43.073,44.183,0.0,1.0,100.0,0.0,0.0,0.0,0.0,3196.857142857143,3231.6,3918.75,4002.3,305.058,304.61633333333333,315.24,314.88875,22.0087,20.6483,21.9868,21.4976,314.999998,314.999998,324.999988,324.999988,99.55914285714286,99.50753333333333,99.5674,99.54734285714285,0.08700000000000019,-0.053749999999999964,-0.06699999999999995,0.15900000000000003,-0.05666666666667197,-0.05666666666667197,1.5186666666666666,1.548,38.554,30.052,38.418,35.3595,56.074,35.445499999999996,59.6715,52.7545,53.986999999999995,34.5495,58.247,51.0615,53.123000000000005,34.088499999999996,58.1505,50.461,-0.020000000000000018,-0.14250000000000007,0.10891500000000001,0.10527,0.0,215.2,215.14499999999998,212.00333333333333,212.00333333333333,0.0,0.0
24,0.0,1.0,0.0,1.0,1.0,0.0,0.0,1.0,0.0,100.0,1.0,1.1856,26.0,0.0,0.0,0.0,59.999996,0.0,26.0,26.0,26.0,26.0,-0.017555555555555546,0.2783,-0.10686666666666668,292.374,-2.7155,-2.6594444444444445,-1.5779,-1.5337,-194.94,215.9625,190.481625,0.0,0.0,0.0,0.0,0.04853333333333332,-5.498166666666667,-5.498166666666667,-0.5783,-0.5633333333333334,0.023374999999999924,0.577,68.85900000000001,0.0114,-0.21680000000000002,1.0239999999999991,100.0,1.0,1.0,212.3,0.0,0.0,0.0,0.0,0.0,0.0,0.0,8998.7,0.0,55.0,5.0,247.86333333333334,0.0,0.0,0.0,0.0,0.0,0.0,0.0,0.0,1.2059999999999995,1.2059999999999995,0.0,0.0,0.0,55.0,616.79921,10000.0,85.000001,85.000001,85.000001,85.000001,395.0,0.0,0.0,0.0,1.0,333.33500000000004,52.887,52.887,47.043,47.043,34.0,-23.23,21.672,-30.806666666666665,27.855,0.0,1774.375,0.754999999999999,100.0,28.169,28.070999999999998,43.337,43.812,0.0,1.0,100.0,0.0,0.0,0.0,0.0,2881.5714285714284,2984.2,4291.75,4118.9,306.058,305.4026666666667,314.347,314.69775,22.0175,20.6534,21.9967,21.5061,314.999998,314.999998,324.999988,324.999988,99.55915714285715,99.50753333333333,99.56752857142857,99.54748571428571,0.05149999999999988,-0.08724999999999994,-0.11199999999999999,0.10616666666666674,-0.045000000000001705,-0.026666666666670835,1.4746666666666668,1.5310000000000001,38.608999999999995,30.084,38.479,35.413,56.059,35.4815,59.7085,52.8115,53.973,34.583,58.281,51.1165,53.108000000000004,34.1205,58.1815,50.51433333333333,-0.01550000000000007,-0.14000000000000012,0.10247500000000001,0.107185,0.0,215.61,215.51,212.3,212.3,0.0,0.0
25,0.0,1.0,0.0,1.0,1.0,0.0,0.0,1.0,0.0,100.0,1.0,1.1856,26.0,0.0,0.0,0.0,59.999996,0.0,26.0,26.0,26.0,26.0,-0.06599999999999995,0.26280000000000014,-0.0439,292.252,-2.7555,-2.6451111111111114,-1.56825,-1.5599,-191.42000000000002,215.97,190.45625,0.0,0.0,0.0,0.0,0.05056666666666654,-5.498166666666667,-5.498166666666667,-0.6133000000000001,0.005,-0.0040000000000000036,-1.737,68.991,-0.035500000000000004,-0.22675,1.2919999999999998,100.0,1.0,1.0,212.86333333333334,0.0,0.0,0.0,0.0,0.0,0.0,0.0,9022.4,0.0,55.0,5.0,248.34,1.0,0.0,0.0,0.0,0.0,0.0,0.0,0.0,1.256999999999998,1.256999999999998,0.0,0.0,1.0,55.0,616.79921,10000.0,85.000001,85.000001,85.000001,85.000001,395.0,0.0,0.0,0.0,1.0,166.665,51.788,51.788,47.897,47.897,34.0,-29.485,22.04,-30.736666666666665,24.345,0.0,1774.325,0.7250000000000014,100.0,28.19,28.268,43.233000000000004,43.309,0.0,1.0,100.0,0.0,0.0,0.0,0.0,3353.714285714286,3191.3,4020.125,3949.2,304.934,304.616,315.146,315.06925,22.0268,20.659,22.006999999999998,21.5151,314.999998,314.999998,324.999988,324.999988,99.55915714285715,99.50755,99.56768571428572,99.54764285714286,0.0129999999999999,-0.11924999999999997,-0.17133333333333334,0.05950000000000011,-0.04833333333333201,-0.04833333333333201,1.5536666666666665,1.5985,38.668,30.119,38.544,35.4695,56.041,35.5235,59.7445,52.869,53.956,34.6215,58.315,51.172,53.091,34.1575,58.212,50.568666666666665,-0.020999999999999908,-0.1379999999999999,0.11453500000000001,0.10343000000000001,0.0,216.025,215.93,212.86333333333334,212.86333333333334,0.0,0.0
26,0.0,1.0,0.0,1.0,1.0,0.0,0.0,1.0,0.0,100.0,1.0,1.1856,26.0,0.0,0.0,0.0,59.999996,0.0,26.0,26.0,26.0,26.0,-0.11244444444444446,0.2613000000000001,0.05593333333333334,291.077,-2.6664,-2.759444444444444,-1.5865,-1.5872000000000002,-187.69,215.97750000000002,190.429,0.0,0.0,0.0,0.0,0.0527333333333333,-5.498166666666667,-5.498166666666667,-0.5689000000000001,0.5656666666666667,-0.05600000000000005,-1.104,69.135,-0.06720000000000001,-0.19692500000000002,1.2780000000000005,100.0,1.0,1.0,213.01333333333332,0.0,0.0,0.0,0.0,0.0,0.0,0.0,9028.9,0.0,55.0,5.0,248.85666666666668,0.0,0.0,0.0,0.0,0.0,0.0,0.0,0.0,1.311,1.311,0.0,0.0,0.0,55.0,616.79921,10000.0,85.000001,85.000001,85.000001,85.000001,395.0,0.0,0.0,0.0,1.0,166.665,51.483000000000004,51.483000000000004,46.036,46.036,34.0,-29.1625,20.052,-39.60666666666667,27.06,0.0,1774.271,0.5599999999999987,100.0,29.233,28.631,44.175,43.478,0.0,1.0,100.0,0.0,0.0,0.0,0.0,3333.5714285714284,2919.0,4704.5,4445.6,304.8495,305.325,313.523,313.88875,22.0371,20.665,22.0182,21.5248,314.999998,314.999998,324.999988,324.999988,99.55917142857143,99.50756666666666,99.56784285714286,99.54778571428571,0.0009999999999998899,-0.14274999999999993,-0.19499999999999995,0.02416666666666667,-0.05333333333332746,-0.02833333333332888,1.4093333333333333,1.4485000000000001,38.732,30.156333333333336,38.614000000000004,35.53,56.027,35.570499999999996,59.79,52.934,53.943,34.665,58.3575,51.2345,53.077,34.1995,58.2515,50.629666666666665,-0.038999999999999924,-0.125,0.10518000000000001,0.09926000000000001,0.0,216.515,216.39499999999998,213.01333333333332,213.01333333333332,0.0,0.0
27,0.0,1.0,0.0,1.0,1.0,0.0,0.0,1.0,0.0,100.0,1.0,1.1856,26.0,0.0,0.0,0.0,59.999996,0.0,26.0,26.0,26.0,26.0,-0.11588888888888893,0.24839999999999995,-0.015666666666666666,291.58,-2.6174,-2.743333333333333,-1.56485,-1.6665,-184.57999999999998,215.98000000000002,190.407375,0.0,0.0,0.0,0.0,0.05456666666666654,-5.498166666666667,-5.498166666666667,-0.5976,-1.078,-0.06312499999999988,0.655,69.251,-0.0787,-0.244375,1.0739999999999998,100.0,1.0,1.0,213.50666666666666,0.0,0.0,0.0,0.0,0.0,0.0,0.0,9049.7,0.0,55.0,5.0,249.27666666666664,1.0,0.0,0.0,0.0,0.0,0.0,0.0,0.0,1.355999999999998,1.355999999999998,0.0,0.0,1.0,55.0,616.79921,10000.0,85.000001,85.000001,85.000001,85.000001,395.0,0.0,0.0,0.0,1.0,166.665,51.712,51.712,46.661,46.661,34.0,-27.535,21.104,-33.61666666666667,25.3575,0.0,1774.225,0.495000000000001,100.0,29.168,28.13,44.958,43.793,0.0,1.0,100.0,0.0,0.0,0.0,0.0,3193.857142857143,3091.6,4143.625,4025.0,305.0735,305.0896666666667,314.721,314.84375,22.0455,20.6698,22.0277,21.533,314.999998,314.999998,324.999988,324.999988,99.55917142857143,99.50758333333333,99.56797142857143,99.54791428571428,0.0017499999999999183,-0.14024999999999999,-0.19599999999999995,0.03283333333333327,-0.03333333333333144,-0.036666666666668846,1.4836666666666667,1.5170000000000001,38.784,30.186333333333334,38.673,35.5815,56.013,35.608000000000004,59.828,52.988,53.929,34.6995,58.393,51.286,53.062,34.232,58.284,50.68,-0.040999999999999925,-0.11900000000000022,0.10888,0.10826000000000001,0.0,216.79500000000002,216.71,213.50666666666666,213.50666666666666,0.0,0.0
28,0.0,1.0,0.0,1.0,1.0,0.0,0.0,1.0,0.0,100.0,1.0,1.1856,26.0,0.0,0.0,0.0,59.999996,0.0,26.0,26.0,26.0,26.0,-0.10611111111111104,0.27090000000000014,-0.046933333333333334,291.855,-2.6508,-2.726222222222222,-1.51445,-1.6264,-181.04,215.98000000000002,190.382,0.0,0.0,0.0,0.0,0.056599999999999984,-5.498166666666667,-5.498166666666667,-0.6003000000000001,0.6593333333333334,-0.0691250000000001,-0.548,69.381,-0.0873,-0.21535,1.0779999999999994,100.0,1.0,1.0,213.99333333333334,0.0,0.0,0.0,0.0,0.0,0.0,0.0,9070.4,0.0,55.0,5.0,249.74666666666667,0.0,0.0,0.0,0.0,0.0,0.0,0.0,0.0,1.407,1.407,0.0,0.0,0.0,55.0,616.79921,10000.0,85.000001,85.000001,85.000001,85.000001,395.0,0.0,0.0,0.0,1.0,166.665,51.772999999999996,51.772999999999996,47.516,47.516,34.0,-29.564999999999998,19.668,-33.306666666666665,23.9525,0.0,1774.175,0.365000000000002,100.0,29.069,28.184,44.161,43.212,0.0,1.0,100.0,0.0,0.0,0.0,0.0,3351.857142857143,2928.3,4177.375,4074.6000000000004,304.8195,305.3856666666667,314.83233333333334,314.8025,22.0551,20.6753,22.0379,21.542,314.999998,314.999998,324.999988,324.999988,99.55917142857143,99.5076,99.56812857142857,99.54807142857143,-0.007500000000000062,-0.14474999999999993,-0.20766666666666667,0.014499999999999957,-0.054999999999999716,-0.03166666666666629,1.533,1.5685,38.844,30.220666666666666,38.736999999999995,35.6375,55.998999999999995,35.6505,59.864,53.0445,53.916,34.739,58.427,51.3405,53.048,34.2695,58.315,50.733000000000004,-0.05349999999999988,-0.1070000000000002,0.10677500000000001,0.103355,0.0,217.275,217.16,213.99333333333334,213.99333333333334,0.0,0.0
29,0.0,1.0,0.0,1.0,1.0,0.0,0.0,1.0,0.0,100.0,1.0,1.1856,26.0,0.0,0.0,0.0,59.999996,0.0,26.0,26.0,26.0,26.0,-0.1193333333333334,0.25229999999999997,0.010766666666666667,291.489,-2.5898,-2.783666666666667,-1.5502500000000001,-1.6047,-177.5,215.97750000000002,190.355625,0.0,0.0,0.0,0.0,0.058666666666666534,-5.498166666666667,-5.498166666666667,-0.6061000000000001,-0.711,-0.06437500000000007,0.681,69.515,-0.0847,-0.21795,0.7779999999999996,100.0,1.0,1.0,214.25,0.0,0.0,0.0,0.0,0.0,0.0,0.0,9081.3,0.0,55.0,5.0,250.23000000000002,1.0,0.0,0.0,0.0,0.0,0.0,0.0,0.0,1.4579999999999984,1.4579999999999984,0.0,0.0,1.0,55.0,616.79921,10000.0,85.000001,85.000001,85.000001,85.000001,395.0,0.0,0.0,0.0,1.0,166.665,51.727000000000004,51.727000000000004,46.555,46.555,34.0,-27.6525,22.098,-34.153333333333336,26.009999999999998,0.0,1774.124,0.20500000000000185,100.0,28.894,27.9,44.667,43.424,0.0,1.0,100.0,0.0,0.0,0.0,0.0,3273.714285714286,3115.7,4244.75,4211.1,304.8745,304.862,314.4483333333333,314.4625,22.0644,20.6807,22.0486,21.5512,314.999998,314.999998,324.999988,324.999988,99.55917142857143,99.50761666666666,99.56828571428571,99.54821428571428,0.010000000000000231,-0.13375000000000004,-0.18766666666666665,0.03383333333333338,-0.03499999999999659,-0.04333333333332945,1.46,1.486,38.903,30.254666666666665,38.803,35.695,55.982,35.692,59.9065,53.1055,53.9,34.7775,58.466499999999996,51.399,53.031,34.3065,58.3515,50.79,-0.0714999999999999,-0.09949999999999992,0.099025,0.11276000000000001,0.0,217.615,217.54000000000002,214.25,214.25,0.0,0.0
30,0.0,1.0,0.0,1.0,1.0,0.0,0.0,1.0,0.0,100.0,1.0,1.1856,26.0,0.0,0.0,0.0,59.999996,0.0,26.0,26.0,26.0,26.0,-0.1022222222222221,0.272,0.010166666666666668,291.122,-2.6478,-2.768222222222222,-1.4922,-1.6636000000000002,-173.95,215.9725,190.329,0.0,0.0,0.0,0.0,0.060733333333333306,-5.498166666666667,-5.498166666666667,-0.5997,0.8303333333333334,-0.06899999999999995,-0.5800000000000001,69.644,-0.07590000000000001,-0.2139,0.6960000000000006,100.0,1.0,1.0,214.69666666666666,0.0,0.0,0.0,0.0,0.0,0.0,0.0,9100.2,0.0,55.0,5.0,250.69333333333333,0.0,0.0,0.0,0.0,0.0,0.0,1.0,0.0,1.5090000000000003,1.5090000000000003,0.0,0.0,0.0,55.0,616.79921,10000.0,85.000001,85.000001,85.000001,85.000001,395.0,0.0,0.0,0.0,1.0,166.665,50.919,50.919,46.875,46.875,34.0,-29.862499999999997,21.427999999999997,-34.193333333333335,26.310000000000002,0.0,1774.072,0.07499999999999929,100.0,29.632,28.72,44.434,43.518,0.0,1.0,100.0,0.0,0.0,0.0,0.0,3492.4285714285716,3024.0,4346.875,4141.1,304.3605,305.18466666666666,314.36266666666666,314.5165,22.0742,20.6864,22.059,21.5604,314.999998,314.999998,324.999988,324.999988,99.55917142857143,99.50763333333333,99.56844285714286,99.54835714285714,0.017749999999999932,-0.12775000000000003,-0.1921666666666666,0.03183333333333338,-0.045000000000001705,-0.03833333333332689,1.4813333333333334,1.4955,38.964,30.290333333333333,38.869,35.7525,55.97,35.7365,59.9445,53.164500000000004,53.888,34.8185,58.5025,51.4555,53.019,34.3455,58.384,50.84533333333333,-0.08050000000000002,-0.08950000000000014,0.11025000000000001,0.10596000000000001,0.0,218.07,217.995,214.69666666666666,214.69666666666666,0.0,0.0
31,0.0,1.0,0.0,1.0,1.0,0.0,0.0,1.0,0.0,100.0,1.0,1.1856,26.0,0.0,0.0,0.0,59.999996,0.0,26.0,26.0,26.0,26.0,-0.09744444444444444,0.2602,-0.0038,290.97,-2.7129,-2.650888888888889,-1.5409000000000002,-1.6560000000000001,-170.39999999999998,215.965,190.303375,0.0,0.0,0.0,0.0,0.06279999999999997,-5.498166666666667,-5.498166666666667,-0.5913,-0.7273333333333334,-0.0561250000000002,0.784,69.776,-0.0579,-0.222175,0.3440000000000003,100.0,1.0,1.0,215.00666666666666,0.0,0.0,0.0,0.0,0.0,0.0,0.0,9113.4,0.0,55.0,5.0,251.17000000000002,1.0,0.0,0.0,0.0,0.0,0.0,1.0,0.0,1.5599999999999987,1.5599999999999987,0.0,0.0,1.0,55.0,616.79921,10000.0,85.000001,85.000001,85.000001,85.000001,395.0,0.0,0.0,0.0,1.0,166.665,51.391999999999996,51.391999999999996,45.638999999999996,45.638999999999996,34.0,-27.189999999999998,22.484,-33.61666666666667,28.830000000000002,0.0,1774.021,0.03999999999999915,100.0,29.334,28.579,45.192,44.073,0.0,1.0,100.0,0.0,0.0,0.0,0.0,3201.0,3225.1,4310.75,4306.2,305.2235,304.8106666666667,314.28,314.29275,22.0836,20.6921,22.0697,21.5698,314.999998,314.999998,324.999988,324.999988,99.55918571428572,99.50765,99.56858571428572,99.54851428571429,0.027249999999999996,-0.10999999999999999,-0.16666666666666663,0.05966666666666676,-0.030000000000001137,-0.045000000000001705,1.4496666666666667,1.483,39.022,30.325333333333333,38.936,35.811,55.954,35.7795,59.9875,53.2265,53.873999999999995,34.858000000000004,58.543,51.5155,53.004000000000005,34.382999999999996,58.4215,50.903666666666666,-0.07850000000000001,-0.08550000000000013,0.11188000000000001,0.10712,0.0,218.4,218.39499999999998,215.00666666666666,215.00666666666666,0.0,0.0
32,0.0,1.0,0.0,1.0,1.0,0.0,0.0,1.0,0.0,100.0,1.0,1.1856,26.0,0.0,0.0,0.0,59.999996,0.0,26.0,26.0,26.0,26.0,-0.09299999999999997,0.26280000000000014,-0.044700000000000004,291.26,-2.649,-2.691,-1.6052,-1.5629000000000002,-167.05,215.95499999999998,190.279125,0.0,0.0,0.0,0.0,0.06473333333333331,-5.498166666666667,-5.498166666666667,-0.6079,0.18166666666666667,-0.07874999999999988,0.19300000000000006,69.896,-0.0468,-0.227275,0.31400000000000006,100.0,1.0,1.0,215.51999999999998,0.0,0.0,0.0,0.0,0.0,0.0,0.0,9135.0,0.0,55.0,5.0,251.59666666666666,0.0,0.0,0.0,0.0,0.0,0.0,1.0,0.0,1.6080000000000005,1.6080000000000005,0.0,0.0,0.0,55.0,616.79921,10000.0,85.000001,85.000001,85.000001,85.000001,395.0,0.0,0.0,0.0,1.0,166.665,51.254,51.254,46.631,46.631,34.0,-26.695,22.742,-32.55,26.4125,0.0,1773.974,-0.03500000000000014,100.0,29.382,28.67,44.703,43.848,0.0,1.0,100.0,0.0,0.0,0.0,0.0,3290.4285714285716,3122.1,4235.125,4176.4,304.85,304.9576666666667,314.67966666666666,314.679,22.0925,20.697400000000002,22.0794,21.5784,314.999998,314.999998,324.999988,324.999988,99.55918571428572,99.50766666666667,99.56872857142857,99.54865714285714,0.047250000000000014,-0.09750000000000003,-0.15649999999999997,0.0645,-0.030000000000001137,-0.051666666666669414,1.5336666666666665,1.5445,39.078,30.359,38.997,35.865,55.941,35.819,60.022,53.2815,53.861000000000004,34.8945,58.575,51.568,52.989999999999995,34.4185,58.4505,50.95466666666667,-0.08799999999999986,-0.08050000000000024,0.110795,0.10154500000000001,0.0,218.8,218.775,215.51999999999998,215.51999999999998,0.0,0.0
33,0.0,1.0,0.0,1.0,1.0,0.0,0.0,1.0,0.0,100.0,1.0,1.1856,26.0,0.0,0.0,0.0,59.999996,0.0,26.0,26.0,26.0,26.0,-0.05511111111111111,0.2613000000000001,-0.0357,291.367,-2.6654,-2.7404444444444445,-1.5423499999999999,-1.5763,-163.69,215.9425,190.254125,0.0,0.0,0.0,0.0,0.06669999999999998,-5.498166666666667,-5.498166666666667,-0.6108,-0.3853333333333333,-0.06662500000000016,1.404,70.019,-0.0379,-0.215175,0.22200000000000042,100.0,1.0,1.0,215.79333333333335,0.0,0.0,0.0,0.0,0.0,0.0,0.0,9146.6,0.0,55.0,5.0,252.04000000000002,1.0,0.0,0.0,0.0,0.0,0.0,1.0,0.0,1.6559999999999988,1.6559999999999988,0.0,0.0,1.0,55.0,616.79921,10000.0,85.000001,85.000001,85.000001,85.000001,395.0,0.0,0.0,0.0,1.0,333.33500000000004,51.849000000000004,51.849000000000004,46.356,46.356,34.0,-24.627499999999998,22.924,-32.07333333333333,28.837500000000002,0.0,1773.924,-0.14000000000000057,100.0,29.171,28.392,44.701,43.938,0.0,1.0,100.0,0.0,0.0,0.0,0.0,3124.857142857143,3037.7,4264.5,4308.3,305.393,305.2266666666667,314.4626666666667,314.279,22.1013,20.7026,22.0893,21.5871,314.999998,314.999998,324.999988,324.999988,99.5592,99.50768333333333,99.56887142857143,99.54878571428571,0.06125000000000025,-0.08650000000000002,-0.15066666666666662,0.08033333333333337,-0.05833333333333002,-0.03999999999999915,1.4876666666666667,1.4865,39.132999999999996,30.391,39.058,35.9195,55.928,35.855000000000004,60.0585,53.338,53.848,34.928,58.609,51.6225,52.977000000000004,34.45,58.482,51.008,-0.09599999999999986,-0.06950000000000012,0.10774500000000001,0.11417500000000001,0.0,219.175,219.135,215.79333333333335,215.79333333333335,0.0,0.0
34,0.0,1.0,0.0,1.0,1.0,0.0,0.0,1.0,0.0,100.0,1.0,1.1856,26.0,0.0,0.0,0.0,59.999996,0.0,26.0,26.0,26.0,26.0,-0.037555555555555564,0.2582,-0.06776666666666667,291.748,-2.6851,-2.6879999999999997,-1.60895,-1.5915000000000001,-160.11,215.93,190.22625,0.0,0.0,0.0,0.0,0.06876666666666653,-5.498166666666667,-5.498166666666667,-0.6434000000000001,-0.8103333333333333,-0.034250000000000114,-0.10099999999999998,70.146,-0.028900000000000002,-0.226225,0.20200000000000085,100.0,1.0,1.0,216.26,0.0,0.0,0.0,0.0,0.0,0.0,0.0,9166.5,0.0,55.0,5.0,252.5,0.0,0.0,0.0,0.0,0.0,0.0,1.0,0.0,1.7070000000000007,1.7070000000000007,0.0,0.0,0.0,55.0,616.79921,10000.0,85.000001,85.000001,85.000001,85.000001,395.0,0.0,0.0,0.0,1.0,333.33500000000004,52.048,52.048,47.333,47.333,34.0,-25.285,22.276,-30.953333333333333,27.4575,0.0,1773.874,-0.16499999999999915,100.0,28.694,28.239,44.283,44.093,0.0,1.0,100.0,0.0,0.0,0.0,0.0,3194.142857142857,2980.2,4084.25,4131.9,305.1765,305.29566666666665,315.00333333333333,314.592,22.110599999999998,20.7081,22.0997,21.5964,314.999998,314.999998,324.999988,324.999988,99.5592,99.50768333333333,99.56902857142857,99.54894285714286,0.06550000000000011,-0.08199999999999996,-0.1486666666666666,0.07750000000000012,-0.054999999999999716,-0.036666666666668846,1.518,1.5290000000000001,39.191,30.425666666666665,39.123,35.9775,55.913,35.8935,60.094,53.397999999999996,53.834,34.963,58.641999999999996,51.68,52.962,34.484,58.5115,51.064,-0.09499999999999997,-0.06550000000000011,0.11070500000000001,0.10573500000000001,0.0,219.54500000000002,219.51999999999998,216.26,216.26,0.0,0.0
35,0.0,1.0,0.0,1.0,1.0,0.0,0.0,1.0,0.0,100.0,1.0,1.1856,26.0,0.0,0.0,0.0,59.999996,0.0,26.0,26.0,26.0,26.0,-0.028000000000000025,0.25250000000000017,-0.06313333333333335,291.748,-2.6841,-2.6753333333333336,-1.57715,-1.6048,-156.53,215.91750000000002,190.19625,0.0,0.0,0.0,0.0,0.07086666666666652,-5.498166666666667,-5.498166666666667,-0.6846,-0.3823333333333333,-0.043874999999999886,0.017000000000000126,70.273,-0.0194,-0.229575,0.020000000000000462,100.0,1.0,1.0,216.71,0.0,0.0,0.0,0.0,0.0,0.0,0.0,9185.6,0.0,55.0,5.0,252.96,1.0,0.0,0.0,0.0,0.0,0.0,1.0,0.0,1.7579999999999991,1.7579999999999991,0.0,0.0,1.0,55.0,616.79921,10000.0,85.000001,85.000001,85.000001,85.000001,395.0,0.0,0.0,0.0,1.0,333.33500000000004,51.575,51.575,46.951,46.951,34.0,-24.88,25.786,-28.566666666666663,27.65,0.0,1773.821,-0.134999999999998,100.0,28.598,28.404,44.072,43.586,0.0,1.0,100.0,0.0,0.0,0.0,0.0,3180.5714285714284,3358.9,4023.875,3975.7,305.2135,304.2803333333333,315.0443333333333,315.04275,22.1197,20.7138,22.11,21.6055,314.999998,314.999998,324.999988,324.999988,99.55921428571429,99.5077,99.56917142857142,99.5491,0.07200000000000006,-0.07174999999999998,-0.11983333333333335,0.10650000000000004,-0.045000000000001705,-0.05666666666667197,1.553,1.55,39.248000000000005,30.461,39.187,36.0345,55.894999999999996,35.9355,60.1315,53.457499999999996,53.818,35.001999999999995,58.677,51.7375,52.945,34.5215,58.543,51.12,-0.09299999999999997,-0.07750000000000012,0.10506000000000001,0.10431000000000001,0.0,219.925,219.935,216.71,216.71,0.0,0.0
