,ABS Active,ABS Enabled,AID Allow Tire Blankets,AID Auto Blip,AID Auto Clutch,AID Auto Shift,AID Fuel Rate,AID Ideal Line,AID Mech Damage,AID Stability,AID Tire Wear Rate,Air Density,Air Temp,Ballast,Best Lap Delta,Best Lap Time,Brake Bias,Brake Pos,Brake Temp FL,Brake Temp FR,Brake Temp RL,Brake Temp RR,CG Accel Lateral,CG Accel Longitudinal,CG Accel Vertical,CG Height,Camber FL,Camber FR,Camber RL,Camber RR,Car Coord X,Car Coord Y,Car Coord Z,Car Damage Front,Car Damage Left,Car Damage Rear,Car Damage Right,Car Pos Norm,Caster FL,Caster FR,Chassis Pitch Angle,Chassis Pitch Rate,Chassis Roll Angle,Chassis Roll Rate,Chassis Velocity X,Chassis Velocity Y,Chassis Velocity Z,Chassis Yaw Rate,Clutch Pos,DRS Active,DRS Available,Drive Train Speed,ERS Heat Charging,ERS Is Charging,ERS Max Energy,ERS Power Level,ERS Recovery Level,Engine Brake Setting,Engine Limiter,Engine RPM,Flags,Fuel Level,Gear,Ground Speed,HR Sample Clock,In Pit,KERS Charge,KERS Deployed Energy,KERS Input,KERS Max Energy,LR Sample Clock,Lap Invalidated,Lap Time,Lap Time2,Last Lap Time,Last Sector Time,MR Sample Clock,Max Fuel,Max Power,Max RPM,Max Sus Travel FL,Max Sus Travel FR,Max Sus Travel RL,Max Sus Travel RR,Max Torque,Max Turbo Boost,Num Tires Off Track,Penalties Enabled,Position,Raw Data Sample Rate,Ride Height FL,Ride Height FR,Ride Height RL,Ride Height RR,Road Temp,Self Align Torque FL,Self Align Torque FR,Self Align Torque RL,Self Align Torque RR,Session Lap Count,Session Time Left,Steering Angle,Surface Grip,Suspension Travel FL,Suspension Travel FR,Suspension Travel RL,Suspension Travel RR,TC Active,TC Enabled,Throttle Pos,Tire Dirt Level FL,Tire Dirt Level FR,Tire Dirt Level RL,Tire Dirt Level RR,Tire Load FL,Tire Load FR,Tire Load RL,Tire Load RR,Tire Loaded Radius FL,Tire Loaded Radius FR,Tire Loaded Radius RL,Tire Loaded Radius RR,Tire Pressure FL,Tire Pressure FR,Tire Pressure RL,Tire Pressure RR,Tire Radius FL,Tire Radius FR,Tire Radius RL,Tire Radius RR,Tire Rubber Grip FL,Tire Rubber Grip FR,Tire Rubber Grip RL,Tire Rubber Grip RR,Tire Slip Angle FL,Tire Slip Angle FR,Tire Slip Angle RL,Tire Slip Angle RR,Tire Slip Ratio FL,Tire Slip Ratio FR,Tire Slip Ratio RL,Tire Slip Ratio RR,Tire Temp Core FL,Tire Temp Core FR,Tire Temp Core RL,Tire Temp Core RR,Tire Temp Inner FL,Tire Temp Inner FR,Tire Temp Inner RL,Tire Temp Inner RR,Tire Temp Middle FL,Tire Temp Middle FR,Tire Temp Middle RL,Tire Temp Middle RR,Tire Temp Outer FL,Tire Temp Outer FR,Tire Temp Outer RL,Tire Temp Outer RR,Toe In FL,Toe In FR,Toe In RL,Toe In RR,Turbo Boost,Wheel Angular Speed FL,Wheel Angular Speed FR,Wheel Angular Speed RL,Wheel Angular Speed RR,Wind Direction,Wind Speed
0,0.0,1.0,0.0,1.0,1.0,0.0,0.0,1.0,0.0,100.0,1.0,1.1856,26.0,0.0,0.0,0.0,59.99999,0.0,26.0,26.0,26.0,26.0,-0.018874999999999975,0.39600000000000013,0.15886666666666668,293.137,-2.8032,-2.6189999999999998,-1.5681,-1.5034,-275.73,215.43,190.987625,0.0,0.0,0.0,0.0,0.0015666666666666051,-5.498166666666667,-5.498166666666667,-0.5633,1.92,0.008750000000000036,0.3180000000000005,65.3,-0.0238,-0.2144,0.020000000000000462,100.0,1.0,1.0,202.29000000000002,0.0,0.0,0.0,0.0,0.0,0.0,0.0,9893.0,0.0,55.0,4.0,235.0366666666667,0.0,0.0,0.0,0.0,0.0,0.0,0.0,0.0,0.0030000000000001137,0.0030000000000001137,0.0,0.0,0.0,55.0,616.79921,10000.0,85.0,85.0,85.0,85.0,395.0,0.0,0.0,0.0,1.0,20.0,50.812,50.812,48.888999999999996,48.888999999999996,34.0,-30.91,34.108333333333334,-26.776666666666664,25.2875,0.0,1783.374,0.11500000000000199,100.0,26.905,26.974,40.609,40.318,0.0,1.0,100.0,0.0,0.0,0.0,0.0,3483.25,4356.7,3961.222222222222,4096.6,304.13666666666666,301.2635,315.215,314.682,21.766,20.5064,21.704,21.2567,314.99999,314.99999,324.99998,324.99998,99.55792857142858,99.50696666666667,99.56127142857143,99.54254285714286,0.028999999999999915,-0.06600000000000006,-0.13583333333333333,0.09816666666666668,-0.06833333333332803,-0.061666666666667425,1.9236666666666666,1.8886666666666665,37.038,29.165,36.65,33.854,55.855999999999995,34.338,57.689499999999995,50.5895,53.802,33.533,56.3665,49.0175,52.983999999999995,33.1135,56.333,48.474000000000004,-0.06299999999999994,-0.08299999999999996,0.10606000000000002,0.11318,0.0,204.595,204.585,202.29000000000002,202.29000000000002,0.0,0.0
1,0.0,1.0,0.0,1.0,1.0,0.0,0.0,1.0,0.0,100.0,1.0,1.1856,26.0,0.0,0.0,0.0,59.999996,0.0,26.0,26.0,26.0,26.0,-0.047250000000000014,-0.3237,0.24080000000000001,292.084,-2.6471,-2.6876249999999997,-1.6089,-1.5184,-272.39,215.4375,190.967625,0.0,0.0,0.0,0.0,0.0034999999999999476,-5.498166666666667,-5.498166666666667,-0.48040000000000005,-2.9225,-0.03699999999999992,-0.2939999999999996,65.29599999999999,-0.0216,-0.18235,0.6220000000000008,100.0,1.0,1.0,198.43666666666667,0.0,0.0,0.0,0.0,0.0,0.0,0.0,9677.4,0.0,55.0,0.0,235.10333333333335,1.0,0.0,0.0,0.0,0.0,0.0,0.0,0.0,0.053999999999998494,0.053999999999998494,0.0,0.0,1.0,55.0,616.79921,10000.0,85.000001,85.000001,85.000001,85.000001,395.0,0.0,0.0,0.0,1.0,333.33500000000004,53.802,53.802,47.073,47.073,34.0,-23.4725,17.703333333333333,-41.07333333333333,42.365,0.0,1783.322,0.3249999999999993,100.0,27.414,27.39,42.54,43.043,0.0,1.0,0.0,0.0,0.0,0.0,0.0,2969.625,2549.9,4751.555555555556,5541.8,305.9796666666667,306.745,313.03075,311.1645,21.7757,20.511499999999998,21.714555555555556,21.2658,314.999998,314.999998,324.999988,324.999988,99.55794285714286,99.50696666666667,99.56135714285715,99.54262857142857,0.04125000000000023,-0.10033333333333316,-0.122,0.06966666666666667,0.026666666666670835,0.03999999999999915,-0.01100000000000012,0.0030000000000000027,37.098,29.197,36.716,33.911,55.841,34.3765,57.714,50.6335,53.787,33.5685,56.388999999999996,49.0595,52.968,33.1475,56.3535,48.51533333333333,-0.051999999999999935,-0.10200000000000009,0.09230000000000001,0.10449000000000001,0.0,204.655,204.625,198.43666666666667,198.43666666666667,0.0,0.0
2,0.0,1.0,0.0,1.0,1.0,0.0,0.0,1.0,0.0,100.0,1.0,1.1856,26.0,0.0,0.0,0.0,59.999996,0.0,26.0,26.0,26.0,26.0,-0.08124999999999993,0.27249999999999996,0.024666666666666667,293.869,-2.6559,-2.639625,-1.5611000000000002,-1.5023,-268.87,215.445,190.948,0.0,0.0,0.0,0.0,0.005566666666666609,-5.498166666666667,-5.498166666666667,-0.6202000000000001,1.7850000000000001,-0.006250000000000089,1.9260000000000002,65.311,-0.0286,-0.317125,0.7640000000000002,100.0,1.0,1.0,202.23666666666668,0.0,0.0,0.0,0.0,0.0,0.0,0.0,8572.1,0.0,55.0,5.0,235.09,0.0,0.0,0.0,0.0,0.0,0.0,0.0,0.0,0.10800000000000054,0.10800000000000054,0.0,0.0,0.0,55.0,616.79921,10000.0,85.000001,85.000001,85.000001,85.000001,395.0,0.0,0.0,0.0,1.0,166.665,50.598,50.598,51.772999999999996,51.772999999999996,34.0,-29.93,23.625,-23.766666666666666,18.2075,0.0,1783.269,0.4200000000000017,100.0,28.947,28.293,40.967,40.875,0.0,1.0,100.0,0.0,0.0,0.0,0.0,3490.25,3335.2,3389.0,3260.4,304.0896666666667,304.0155,316.62,316.865,21.7865,20.5173,21.724888888888888,21.2743,314.999998,314.999998,324.999988,324.999988,99.55794285714286,99.50698333333334,99.56145714285714,99.54271428571428,0.020750000000000046,-0.10999999999999988,-0.17283333333333334,0.07416666666666667,-0.0799999999999983,-0.07166666666666544,1.8366666666666667,1.8639999999999999,37.166,29.233,36.78,33.964,55.832,34.423,57.7285,50.662,53.778999999999996,33.6115,56.402,49.0875,52.959,33.1885,56.364,48.54333333333334,-0.04999999999999993,-0.11250000000000004,0.11459000000000001,0.108645,0.0,204.685,204.615,202.23666666666668,202.23666666666668,0.0,0.0
3,0.0,1.0,0.0,1.0,1.0,0.0,0.0,1.0,0.0,100.0,1.0,1.1856,26.0,0.0,0.0,0.0,59.999996,0.0,26.0,26.0,26.0,26.0,-0.06412499999999999,0.30410000000000004,0.0941,293.167,-2.685,-2.6710000000000003,-1.5478,-1.4702,-265.93,215.45,190.93025,0.0,0.0,0.0,0.0,0.0072666666666665325,-5.498166666666667,-5.498166666666667,-0.5001,0.9085,0.01200000000000001,-1.592,65.456,-0.0375,-0.184475,0.6160000000000005,100.0,1.0,1.0,201.79333333333335,0.0,0.0,0.0,0.0,0.0,0.0,0.0,8553.2,0.0,55.0,5.0,235.61,1.0,0.0,0.0,0.0,0.0,0.0,0.0,0.0,0.1529999999999987,0.1529999999999987,0.0,0.0,1.0,55.0,616.79921,10000.0,85.000001,85.000001,85.000001,85.000001,395.0,0.0,0.0,0.0,1.0,166.665,53.574,53.574,47.684,47.684,34.0,-21.77,18.451666666666668,-35.95666666666666,28.89,0.0,1783.224,0.5549999999999997,100.0,28.097,27.993,41.418,41.525,0.0,1.0,100.0,0.0,0.0,0.0,0.0,2653.625,2707.1,4647.333333333333,4584.4,306.85633333333334,306.09475,313.4845,313.31775,21.7948,20.5218,21.733777777777778,21.2821,314.999998,314.999998,324.999988,324.999988,99.55794285714286,99.507,99.56158571428571,99.54284285714286,0.01750000000000007,-0.1166666666666667,-0.15066666666666667,0.06616666666666668,-0.03999999999999915,-0.03999999999999915,1.3833333333333333,1.427,37.217,29.261333333333333,36.836,34.0135,55.816,34.459,57.7685,50.7255,53.763999999999996,33.6445,56.439499999999995,49.1485,52.943,33.2205,56.399,48.603,-0.034499999999999975,-0.12250000000000005,0.10629500000000001,0.10564000000000001,0.0,205.14499999999998,205.095,201.79333333333335,201.79333333333335,0.0,0.0
4,0.0,1.0,0.0,1.0,1.0,0.0,0.0,1.0,0.0,100.0,1.0,1.1856,26.0,0.0,0.0,0.0,59.999996,0.0,26.0,26.0,26.0,26.0,-0.09299999999999997,0.29500000000000015,-0.09776666666666667,293.549,-2.6769,-2.7365,-1.4946000000000002,-1.5812,-262.58,215.45499999999998,190.911,0.0,0.0,0.0,0.0,0.009199999999999986,-5.498166666666667,-5.498166666666667,-0.5523,-1.1935000000000002,-0.034250000000000114,0.11899999999999977,65.60300000000001,-0.0443,-0.2539,1.032000000000001,100.0,1.0,1.0,202.57333333333332,0.0,0.0,0.0,0.0,0.0,0.0,0.0,8586.3,0.0,55.0,5.0,236.14333333333332,0.0,0.0,0.0,0.0,0.0,0.0,0.0,0.0,0.20400000000000063,0.20400000000000063,0.0,0.0,0.0,55.0,616.79921,10000.0,85.000001,85.000001,85.000001,85.000001,395.0,0.0,0.0,0.0,1.0,333.33500000000004,52.521,52.521,49.5,49.5,34.0,-27.5325,20.225,-28.46,23.0225,0.0,1783.171,0.6099999999999994,100.0,28.104,27.599,42.373000000000005,41.814,0.0,1.0,100.0,0.0,0.0,0.0,0.0,3147.875,2928.3,3875.222222222222,3753.4,305.23266666666666,305.509,315.346,315.4685,21.8043,20.526699999999998,21.74411111111111,21.2908,314.999998,314.999998,324.999988,324.999988,99.55794285714286,99.50701666666667,99.56172857142857,99.54297142857143,-0.0015000000000000568,-0.1276666666666666,-0.17266666666666666,0.060833333333333336,-0.03333333333333144,-0.03833333333332689,1.577,1.6323333333333334,37.277,29.292,36.900999999999996,34.067499999999995,55.799,34.497,57.814499999999995,50.788,53.747,33.6795,56.4825,49.208,52.926,33.254,56.439,48.66133333333333,-0.025000000000000022,-0.1280000000000001,0.10827,0.11251000000000001,0.0,205.49,205.405,202.57333333333332,202.57333333333332,0.0,0.0
5,0.0,1.0,0.0,1.0,1.0,0.0,0.0,1.0,0.0,100.0,1.0,1.1856,26.0,0.0,0.0,0.0,59.999996,0.0,26.0,26.0,26.0,26.0,-0.06887500000000002,0.31020000000000003,0.002866666666666667,293.61,-2.6444,-2.69025,-1.5373999999999999,-1.5764,-259.23,215.45749999999998,190.891125,0.0,0.0,0.0,0.0,0.011166666666666547,-5.498166666666667,-5.498166666666667,-0.5538000000000001,0.8065,-0.028249999999999886,-0.3799999999999999,65.751,-0.0658,-0.23815,1.0860000000000003,100.0,1.0,1.0,203.05666666666667,0.0,0.0,0.0,0.0,0.0,0.0,0.0,8606.8,0.0,55.0,5.0,236.67333333333335,1.0,0.0,0.0,0.0,0.0,0.0,0.0,0.0,0.254999999999999,0.254999999999999,0.0,0.0,1.0,55.0,616.79921,10000.0,85.000001,85.000001,85.000001,85.000001,395.0,0.0,0.0,0.0,1.0,166.665,52.643,52.643,49.469,49.469,34.0,-26.8125,20.076666666666668,-30.31,22.9675,0.0,1783.123,0.33500000000000085,100.0,28.031,27.681,41.961,41.289,0.0,1.0,100.0,0.0,0.0,0.0,0.0,3163.25,2893.0,3966.3333333333335,3936.3,305.23833333333334,305.4835,315.19925,315.06175,21.8141,20.5319,21.75411111111111,21.2993,314.999998,314.999998,324.999988,324.999988,99.55795714285715,99.50703333333334,99.56187142857142,99.54311428571428,0.01075000000000026,-0.11833333333333318,-0.18766666666666665,0.034833333333333334,-0.060000000000002274,-0.06666666666666998,1.5996666666666668,1.6446666666666667,37.338,29.324666666666666,36.963,34.1205,55.786,34.5385,57.8555,50.848,53.735,33.718,56.5205,49.2655,52.913,33.2905,56.4745,48.717666666666666,-0.05499999999999994,-0.09949999999999992,0.10186,0.108395,0.0,206.035,205.95499999999998,203.05666666666667,203.05666666666667,0.0,0.0
6,0.0,1.0,0.0,1.0,1.0,0.0,0.0,1.0,0.0,100.0,1.0,1.1856,26.0,0.0,0.0,0.0,59.999996,0.0,26.0,26.0,26.0,26.0,-0.11099999999999999,0.29500000000000015,0.08406666666666666,293.457,-2.6737,-2.764875,-1.4878,-1.558,-256.07,215.45749999999998,190.871875,0.0,0.0,0.0,0.0,0.0129999999999999,-5.498166666666667,-5.498166666666667,-0.537,-0.4515,-0.04662500000000014,-0.7599999999999998,65.894,-0.0713,-0.21505000000000002,0.8960000000000008,100.0,1.0,1.0,203.31666666666666,0.0,0.0,0.0,0.0,0.0,0.0,0.0,8617.9,0.0,55.0,5.0,237.18666666666667,0.0,0.0,0.0,0.0,0.0,0.0,0.0,0.0,0.3030000000000008,0.3030000000000008,0.0,0.0,0.0,55.0,616.79921,10000.0,85.000001,85.000001,85.000001,85.000001,395.0,0.0,0.0,0.0,1.0,166.665,53.253,53.253,48.706,48.706,34.0,-27.924999999999997,18.856666666666666,-33.02666666666667,23.92,0.0,1783.075,0.4450000000000003,100.0,27.671,27.306,42.343,41.613,0.0,1.0,100.0,0.0,0.0,0.0,0.0,3166.375,2747.6,4234.666666666667,4029.8,305.3516666666667,306.025,314.47775,314.767,21.8231,20.5366,21.763666666666666,21.3075,314.999998,314.999998,324.999988,324.999988,99.55795714285715,99.50705,99.562,99.54324285714286,-0.012499999999999956,-0.133,-0.19433333333333336,0.036166666666666666,-0.04999999999999716,-0.060000000000002274,1.5123333333333333,1.5356666666666667,37.394,29.353666666666665,37.022999999999996,34.172,55.769999999999996,34.5745,57.8975,50.909,53.72,33.751,56.56,49.324,52.897,33.3225,56.5115,48.775,-0.040000000000000036,-0.11050000000000004,0.10516500000000001,0.11016500000000001,0.0,206.44,206.37,203.31666666666666,203.31666666666666,0.0,0.0
7,0.0,1.0,0.0,1.0,1.0,0.0,0.0,1.0,0.0,100.0,1.0,1.1856,26.0,0.0,0.0,0.0,59.999996,0.0,26.0,26.0,26.0,26.0,-0.08287500000000003,0.29610000000000003,-0.002033333333333333,293.365,-2.6184,-2.7695,-1.5397,-1.6051000000000002,-252.71,215.45499999999998,190.851375,0.0,0.0,0.0,0.0,0.014966666666666573,-5.498166666666667,-5.498166666666667,-0.5458000000000001,0.31299999999999994,-0.03750000000000009,0.9809999999999999,66.03999999999999,-0.0763,-0.2293,0.6600000000000001,100.0,1.0,1.0,203.87333333333333,0.0,0.0,0.0,0.0,0.0,0.0,0.0,8641.4,0.0,55.0,5.0,237.71333333333334,1.0,0.0,0.0,0.0,0.0,0.0,0.0,0.0,0.3539999999999992,0.3539999999999992,0.0,0.0,1.0,55.0,616.79921,10000.0,85.000001,85.000001,85.000001,85.000001,395.0,0.0,0.0,0.0,1.0,333.33500000000004,52.734,52.734,48.935,48.935,34.0,-24.89,22.266666666666666,-31.756666666666668,24.16,0.0,1783.022,-0.14499999999999957,100.0,28.137,27.204,42.466,41.545,0.0,1.0,100.0,0.0,0.0,0.0,0.0,3094.875,2994.0,4041.1111111111113,3986.1000000000004,305.2966666666667,305.2985,314.95475,314.955,21.8328,20.5417,21.773777777777777,21.3162,314.999998,314.999998,324.999988,324.999988,99.55795714285715,99.50705,99.56214285714286,99.54338571428572,0.03949999999999987,-0.09799999999999986,-0.195,0.0395,-0.045000000000001705,-0.03833333333332689,1.5473333333333334,1.5796666666666668,37.455,29.386,37.086,34.226,55.757,34.615,57.9405,50.9715,53.707,33.7885,56.6,49.3835,52.884,33.358000000000004,56.5485,48.833333333333336,-0.08950000000000002,-0.06299999999999994,0.10722000000000001,0.11325,0.0,206.91500000000002,206.82999999999998,203.87333333333333,203.87333333333333,0.0,0.0
8,0.0,1.0,0.0,1.0,1.0,0.0,0.0,1.0,0.0,100.0,1.0,1.1856,26.0,0.0,0.0,0.0,59.999996,0.0,26.0,26.0,26.0,26.0,-0.05674999999999997,0.28710000000000013,-0.0083,293.533,-2.662,-2.71225,-1.5491000000000001,-1.6041,-249.14,215.4475,190.829875,0.0,0.0,0.0,0.0,0.017033333333333345,-5.498166666666667,-5.498166666666667,-0.5386000000000001,-0.08050000000000002,-0.032500000000000195,0.3230000000000004,66.196,-0.0651,-0.22465000000000002,0.2240000000000002,100.0,1.0,1.0,204.31,0.0,0.0,0.0,0.0,0.0,0.0,0.0,8660.0,0.0,55.0,5.0,238.27666666666667,0.0,0.0,0.0,0.0,0.0,0.0,0.0,0.0,0.40800000000000125,0.40800000000000125,0.0,0.0,0.0,55.0,616.79921,10000.0,85.000001,85.000001,85.000001,85.000001,395.0,0.0,0.0,0.0,1.0,166.665,53.284,53.284,48.584,48.584,34.0,-24.355,22.30833333333333,-30.896666666666665,25.055,0.0,1782.97,-0.16499999999999915,100.0,27.685,27.01,42.58,41.758,0.0,1.0,100.0,0.0,0.0,0.0,0.0,2976.125,3006.7,4043.5555555555557,3989.4,305.70033333333333,305.30325,314.931,314.916,21.843,20.5472,21.784555555555556,21.325499999999998,314.999998,314.999998,324.999988,324.999988,99.55797142857143,99.50706666666666,99.5623,99.54352857142857,0.03374999999999995,-0.08699999999999997,-0.17350000000000002,0.05516666666666666,-0.05333333333332746,-0.03999999999999915,1.545,1.5630000000000002,37.519,29.42,37.153999999999996,34.284,55.741,34.657,57.987,51.039,53.692,33.827,56.6435,49.448499999999996,52.867999999999995,33.394999999999996,56.589,48.89666666666667,-0.08450000000000002,-0.058499999999999996,0.108545,0.103525,0.0,207.365,207.325,204.31,204.31,0.0,0.0
9,0.0,1.0,0.0,1.0,1.0,0.0,0.0,1.0,0.0,100.0,1.0,1.1856,26.0,0.0,0.0,0.0,59.999996,0.0,26.0,26.0,26.0,26.0,-0.03300000000000003,0.28500000000000014,-0.012100000000000001,293.533,-2.6724,-2.7225,-1.5166,-1.5589,-246.16,215.4425,190.811875,0.0,0.0,0.0,0.0,0.018766666666666598,-5.498166666666667,-5.498166666666667,-0.5376000000000001,0.14200000000000002,-0.04325000000000001,-0.6459999999999999,66.325,-0.050300000000000004,-0.217375,0.13600000000000012,100.0,1.0,1.0,204.71666666666667,0.0,0.0,0.0,0.0,0.0,0.0,0.0,8677.2,0.0,55.0,5.0,238.74,1.0,0.0,0.0,0.0,0.0,0.0,0.0,0.0,0.4529999999999994,0.4529999999999994,0.0,0.0,1.0,55.0,616.79921,10000.0,85.000001,85.000001,85.000001,85.000001,395.0,0.0,0.0,0.0,1.0,333.33500000000004,53.223,53.223,48.965,48.965,34.0,-25.9725,21.96333333333333,-29.95,24.8125,0.0,1782.923,-0.259999999999998,100.0,27.472,26.989,42.382,41.745000000000005,0.0,1.0,100.0,0.0,0.0,0.0,0.0,3193.5,2910.6,4047.6666666666665,4007.7,305.2343333333333,305.43225,314.98425,314.84625,21.8515,20.5518,21.793555555555557,21.3331,314.999998,314.999998,324.999988,324.999988,99.55797142857143,99.50706666666666,99.56241428571428,99.54365714285714,0.040999999999999925,-0.08133333333333326,-0.1655,0.059333333333333335,-0.06333333333333258,-0.03999999999999915,1.5646666666666667,1.5706666666666667,37.572,29.448666666666668,37.209,34.332,55.729,34.691,58.0245,51.0935,53.68,33.8585,56.679,49.5005,52.855000000000004,33.425,56.6215,48.948,-0.09399999999999997,-0.04800000000000004,0.10849,0.105885,0.0,207.76,207.735,204.71666666666667,204.71666666666667,0.0,0.0
10,0.0,1.0,0.0,1.0,1.0,0.0,0.0,1.0,0.0,100.0,1.0,1.1856,26.0,0.0,0.0,0.0,59.999996,0.0,26.0,26.0,26.0,26.0,-0.03249999999999997,0.2954000000000001,0.015366666666666666,293.411,-2.6695,-2.7119999999999997,-1.5473,-1.5498,-242.76999999999998,215.435,190.791125,0.0,0.0,0.0,0.0,0.02073333333333338,-5.498166666666667,-5.498166666666667,-0.5288,-0.06499999999999995,-0.020500000000000185,1.6280000000000001,66.473,-0.035300000000000005,-0.2091,-0.10400000000000009,100.0,1.0,1.0,205.0966666666667,0.0,0.0,0.0,0.0,0.0,0.0,0.0,8693.3,0.0,55.0,5.0,239.26999999999998,0.0,0.0,0.0,0.0,0.0,0.0,1.0,0.0,0.5040000000000013,0.5040000000000013,0.0,0.0,0.0,55.0,616.79921,10000.0,85.000001,85.000001,85.000001,85.000001,395.0,0.0,0.0,0.0,1.0,333.33500000000004,53.452,53.452,48.615,48.615,34.0,-23.625,23.05833333333333,-30.099999999999998,27.8475,0.0,1782.872,-0.375,100.0,27.636,26.749,42.558,41.927,0.0,1.0,100.0,0.0,0.0,0.0,0.0,2978.875,2985.2,4088.6666666666665,4220.0,305.66833333333335,305.4085,314.80825,314.41125,21.8611,20.557,21.803666666666665,21.3419,314.999998,314.999998,324.999988,324.999988,99.55797142857143,99.50708333333333,99.56255714285714,99.5438,0.054749999999999854,-0.062000000000000055,-0.14733333333333334,0.08816666666666667,-0.05333333333332746,-0.03999999999999915,1.528,1.536,37.632,29.481,37.272999999999996,34.387,55.715,34.729,58.068,51.1575,53.667,33.893,56.7195,49.562,52.841,33.458,56.659,49.007999999999996,-0.09950000000000003,-0.038999999999999924,0.104465,0.10969500000000001,0.0,208.20499999999998,208.19,205.0966666666667,205.09666666666666,0.0,0.0
11,0.0,1.0,0.0,1.0,1.0,0.0,0.0,1.0,0.0,100.0,1.0,1.1856,26.0,0.0,0.0,0.0,59.999996,0.0,26.0,26.0,26.0,26.0,-0.018749999999999933,0.26780000000000004,-0.033,293.73199999999997,-2.687,-2.7037500000000003,-1.5588000000000002,-1.522,-239.18,215.4275,190.769125,0.0,0.0,0.0,0.0,0.022599999999999953,-5.498166666666667,-5.498166666666667,-0.5492,-0.2975000000000001,0.007749999999999924,1.0590000000000002,66.625,-0.0189,-0.22260000000000002,-0.2579999999999991,100.0,1.0,1.0,205.65666666666667,0.0,0.0,0.0,0.0,0.0,0.0,0.0,8717.0,0.0,55.0,5.0,239.82,1.0,0.0,0.0,0.0,0.0,0.0,1.0,0.0,0.5579999999999998,0.5579999999999998,0.0,0.0,1.0,55.0,616.79921,10000.0,85.000001,85.000001,85.000001,85.000001,395.0,0.0,0.0,0.0,1.0,166.665,53.528,53.528,49.072,49.072,34.0,-23.805,23.994999999999997,-27.05,27.1725,0.0,1782.82,-0.26500000000000057,100.0,27.221,26.73,42.314,42.016999999999996,0.0,1.0,100.0,0.0,0.0,0.0,0.0,2983.25,3089.0,3882.6666666666665,4060.4,305.69,305.07875,315.332,314.7975,21.8711,20.5625,21.814333333333334,21.3513,314.999998,314.999998,324.999988,324.999988,99.55798571428572,99.5071,99.56271428571428,99.54394285714285,0.05425000000000013,-0.06099999999999994,-0.12216666666666667,0.10916666666666668,-0.061666666666667425,-0.04333333333332945,1.5670000000000002,1.5616666666666665,37.694,29.515333333333334,37.34,34.445499999999996,55.7,34.7685,58.1115,51.2245,53.653,33.9295,56.76,49.626,52.826,33.493,56.6965,49.071,-0.08899999999999997,-0.05400000000000005,0.10958500000000002,0.11343500000000001,0.0,208.67000000000002,208.66500000000002,205.65666666666667,205.65666666666667,0.0,0.0
12,0.0,1.0,0.0,1.0,1.0,0.0,0.0,1.0,0.0,100.0,1.0,1.1856,26.0,0.0,0.0,0.0,59.999996,0.0,26.0,26.0,26.0,26.0,0.006000000000000005,0.29110000000000014,-0.0079,293.488,-2.7260999999999997,-2.68525,-1.5593,-1.5324,-236.18,215.42000000000002,190.750125,0.0,0.0,0.0,0.0,0.025466666666666526,-5.498166666666667,-5.498166666666667,-0.5442,0.40800000000000003,0.011500000000000066,-0.40200000000000014,66.753,-0.0073,-0.2063,-0.4679999999999991,100.0,1.0,1.0,206.01,0.0,0.0,0.0,0.0,0.0,0.0,0.0,8732.0,0.0,55.0,5.0,240.28,0.0,0.0,0.0,0.0,0.0,0.0,1.0,0.0,0.602999999999998,0.602999999999998,0.0,0.0,0.0,55.0,616.79921,10000.0,85.000001,85.000001,85.000001,85.000001,395.0,0.0,0.0,0.0,1.0,333.33500000000004,53.299,53.299,48.721000000000004,48.721000000000004,34.0,-25.745,22.456666666666667,-28.15,27.567500000000003,0.0,1782.773,0.5749999999999993,100.0,27.148,27.163,42.04,42.057,0.0,1.0,100.0,0.0,0.0,0.0,0.0,3096.125,3028.6,4078.0,4095.0,305.514,305.07,314.94325,314.68325,21.8795,20.5672,21.82322222222222,21.3589,314.999998,314.999998,324.999988,324.999988,99.558,99.5071,99.56284285714285,99.54407142857143,0.03675000000000006,-0.08666666666666667,-0.11366666666666668,0.10616666666666667,-0.060000000000002274,-0.03999999999999915,1.5696666666666665,1.5446666666666666,37.747,29.545,37.394999999999996,34.4935,55.69,34.802,58.147,51.28,53.643,33.960499999999996,56.793,49.6795,52.815,33.5225,56.7275,49.123,-0.06399999999999995,-0.08000000000000007,0.106965,0.10178500000000001,0.0,209.07,209.085,206.01,206.01,0.0,0.0
13,0.0,1.0,0.0,1.0,1.0,0.0,0.0,1.0,0.0,100.0,1.0,1.1856,26.0,0.0,0.0,0.0,59.999996,0.0,26.0,26.0,26.0,26.0,0.04325000000000001,0.2948000000000002,0.02626666666666667,293.121,-2.6916,-2.702875,-1.549,-1.5455999999999999,-232.57,215.4125,190.72725,0.0,0.0,0.0,0.0,0.026666666666666505,-5.498166666666667,-5.498166666666667,-0.5365,-0.22750000000000004,0.0015000000000000568,-0.3899999999999997,66.907,-0.0005,-0.210675,-0.23799999999999955,100.0,1.0,1.0,206.37,0.0,0.0,0.0,0.0,0.0,0.0,0.0,8747.3,0.0,55.0,5.0,240.83666666666667,1.0,0.0,0.0,0.0,0.0,0.0,1.0,0.0,0.657,0.657,0.0,0.0,1.0,55.0,616.79921,10000.0,85.000001,85.000001,85.000001,85.000001,395.0,0.0,0.0,0.0,1.0,166.665,53.146,53.146,48.278999999999996,48.278999999999996,34.0,-22.8175,24.761666666666667,-29.276666666666664,28.42,0.0,1782.721,-0.40500000000000114,100.0,27.344,27.278,42.397,42.480000000000004,0.0,1.0,100.0,0.0,0.0,0.0,0.0,3122.375,2974.8,4185.111111111111,4186.8,305.4433333333333,305.2295,314.64625,314.40125,21.889499999999998,20.5728,21.834,21.3684,314.999998,314.999998,324.999988,324.999988,99.558,99.5071,99.56298571428572,99.54421428571429,0.10349999999999993,-0.021333333333333204,-0.11416666666666668,0.10133333333333333,-0.041666666666671404,-0.051666666666669414,1.508,1.5223333333333335,37.809,29.580333333333336,37.463,34.5525,55.676,34.843,58.193,51.349000000000004,53.629999999999995,33.998,56.836,49.7455,52.801,33.5585,56.7675,49.18833333333333,-0.11949999999999994,-0.026999999999999913,0.10312,0.103495,0.0,209.54000000000002,209.54000000000002,206.37,206.37,0.0,0.0
14,0.0,1.0,0.0,1.0,1.0,0.0,0.0,1.0,0.0,100.0,1.0,1.1856,26.0,0.0,0.0,0.0,59.999996,0.0,26.0,26.0,26.0,26.0,0.0378750000000001,0.2815000000000001,-0.018233333333333334,293.259,-2.707,-2.7105,-1.5635,-1.5407000000000002,-229.35,215.405,190.70725,0.0,0.0,0.0,0.0,0.0285333333333333,-5.498166666666667,-5.498166666666667,-0.5498000000000001,-0.08350000000000013,0.018249999999999877,-0.29499999999999993,67.03999999999999,0.0059,-0.22510000000000002,-0.3379999999999992,100.0,1.0,1.0,206.89,0.0,0.0,0.0,0.0,0.0,0.0,0.0,8769.3,0.0,55.0,5.0,241.31666666666666,0.0,0.0,0.0,0.0,0.0,0.0,1.0,0.0,0.7049999999999983,0.7049999999999983,0.0,0.0,0.0,55.0,616.79921,10000.0,85.000001,85.000001,85.000001,85.000001,395.0,0.0,0.0,0.0,1.0,166.665,53.024,53.024,48.615,48.615,34.0,-23.3425,24.490000000000002,-26.866666666666664,28.1575,0.0,1782.673,-0.46999999999999886,100.0,27.402,27.512999999999998,42.399,42.582,0.0,1.0,100.0,0.0,0.0,0.0,0.0,3089.0,3009.8,3973.6666666666665,4043.8,305.54266666666666,305.06925,315.1705,314.77325,21.8984,20.5779,21.843555555555554,21.3767,314.999998,314.999998,324.999988,324.999988,99.55802857142857,99.50711666666666,99.56312857142858,99.54435714285714,0.08800000000000008,-0.040000000000000036,-0.10233333333333333,0.1235,-0.054999999999999716,-0.03833333333332689,1.5603333333333333,1.5503333333333333,37.864999999999995,29.612000000000002,37.522,34.6045,55.665,34.8785,58.2315,51.409,53.619,34.031,56.872,49.803,52.79,33.59,56.8,49.24433333333333,-0.11049999999999993,-0.03750000000000009,0.10550500000000002,0.105825,0.0,209.95,209.95499999999998,206.89,206.89,0.0,0.0
15,0.0,1.0,0.0,1.0,1.0,0.0,0.0,1.0,0.0,100.0,1.0,1.1856,26.0,0.0,0.0,0.0,59.999996,0.0,26.0,26.0,26.0,26.0,0.039875000000000105,0.28510000000000013,0.012966666666666666,293.06,-2.696,-2.6865,-1.5726,-1.5586,-226.13,215.3975,190.686875,0.0,0.0,0.0,0.0,0.030399999999999983,-5.498166666666667,-5.498166666666667,-0.5439,0.25349999999999995,0.02574999999999994,-0.75,67.175,0.0154,-0.21302500000000002,-0.41999999999999993,100.0,1.0,1.0,207.24666666666667,0.0,0.0,0.0,0.0,0.0,0.0,0.0,8784.4,0.0,55.0,5.0,241.80333333333334,1.0,0.0,0.0,0.0,0.0,0.0,1.0,0.0,0.7530000000000001,0.7530000000000001,0.0,0.0,1.0,55.0,616.79921,10000.0,85.000001,85.000001,85.000001,85.000001,395.0,0.0,0.0,0.0,1.0,166.665,52.933,52.933,48.355000000000004,48.355000000000004,34.0,-23.1275,24.48833333333333,-27.806666666666665,29.2825,0.0,1782.624,-0.3299999999999983,100.0,27.443,27.619,42.261,42.682,0.0,1.0,100.0,0.0,0.0,0.0,0.0,3079.25,3012.3,4097.444444444444,4135.5,305.56533333333334,305.0305,314.8885,314.50725,21.9072,20.583,21.853,21.3851,314.999998,314.999998,324.999988,324.999988,99.55802857142857,99.50711666666666,99.56325714285714,99.5445,0.08899999999999997,-0.03633333333333311,-0.09733333333333333,0.12316666666666667,-0.06499999999999773,-0.03833333333332689,1.544,1.5376666666666665,37.92,29.643666666666668,37.582,34.6565,55.653999999999996,34.914,58.2695,51.4695,53.608000000000004,34.064,56.907,49.8615,52.778,33.6215,56.833,49.30166666666666,-0.10199999999999998,-0.04699999999999993,0.10562500000000001,0.10039000000000001,0.0,210.37,210.38,207.24666666666667,207.24666666666667,0.0,0.0
16,0.0,1.0,0.0,1.0,1.0,0.0,0.0,1.0,0.0,100.0,1.0,1.1856,26.0,0.0,0.0,0.0,59.999996,0.0,26.0,26.0,26.0,26.0,0.028874999999999984,0.28,0.008866666666666667,293.015,-2.7576,-2.6355,-1.5535,-1.5535999999999999,-222.7,215.39249999999998,190.665125,0.0,0.0,0.0,0.0,0.032399999999999984,-5.498166666666667,-5.498166666666667,-0.5496,-0.47050000000000014,0.022750000000000048,0.3799999999999999,67.318,0.021500000000000002,-0.21932500000000002,-0.34999999999999964,100.0,1.0,1.0,207.64666666666668,0.0,0.0,0.0,0.0,0.0,0.0,0.0,8801.4,0.0,55.0,5.0,242.31666666666666,0.0,0.0,0.0,0.0,0.0,0.0,1.0,0.0,0.8039999999999985,0.8039999999999985,0.0,0.0,0.0,55.0,616.79921,10000.0,85.000001,85.000001,85.000001,85.000001,395.0,0.0,0.0,0.0,1.0,333.33500000000004,52.979,52.979,48.019,48.019,34.0,-23.0275,25.74666666666667,-27.03,30.0325,0.0,1782.572,-0.23000000000000043,100.0,27.326999999999998,27.413,42.587,42.756,0.0,1.0,100.0,0.0,0.0,0.0,0.0,3024.5,3188.0,4050.5555555555557,4139.3,305.63166666666666,304.74675,314.8965,314.54575,21.9165,20.5884,21.863222222222223,21.394,314.999998,314.999998,324.999988,324.999988,99.55804285714285,99.50713333333333,99.5634,99.54464285714286,0.09600000000000009,-0.02733333333333321,-0.09016666666666667,0.1375,-0.023333333333326323,-0.03166666666666629,1.5230000000000001,1.5106666666666668,37.977999999999994,29.677333333333333,37.644999999999996,34.7125,55.64,34.951499999999996,58.312,51.534,53.595,34.0985,56.947,49.923500000000004,52.763999999999996,33.655,56.8695,49.36233333333333,-0.09199999999999997,-0.055500000000000105,0.11288000000000001,0.100315,0.0,210.785,210.79000000000002,207.64666666666668,207.64666666666668,0.0,0.0
17,0.0,1.0,0.0,1.0,1.0,0.0,0.0,1.0,0.0,100.0,1.0,1.1856,26.0,0.0,0.0,0.0,59.999996,0.0,26.0,26.0,26.0,26.0,0.02475000000000005,0.28690000000000015,0.020266666666666665,292.77,-2.7218,-2.6205,-1.5943,-1.5163,-219.06,215.3875,190.64175,0.0,0.0,0.0,0.0,0.034499999999999975,-5.498166666666667,-5.498166666666667,-0.5507000000000001,0.14300000000000002,-0.00012500000000015277,0.3390000000000004,67.467,0.0216,-0.213475,-0.23399999999999999,100.0,1.0,1.0,208.11333333333334,0.0,0.0,0.0,0.0,0.0,0.0,0.0,8821.2,0.0,55.0,5.0,242.85333333333335,1.0,0.0,0.0,0.0,0.0,0.0,1.0,0.0,0.8580000000000005,0.8580000000000005,0.0,0.0,1.0,55.0,616.79921,10000.0,85.000001,85.000001,85.000001,85.000001,395.0,0.0,0.0,0.0,1.0,166.665,52.612,52.612,47.958,47.958,34.0,-23.3825,25.306666666666665,-28.076666666666664,30.085,0.0,1782.519,-0.120000000000001,100.0,27.657,27.565,42.542,42.681,0.0,1.0,100.0,0.0,0.0,0.0,0.0,3109.75,3192.9,4179.888888888889,4199.2,305.363,304.73725,314.657,314.47425,21.9264,20.5942,21.87388888888889,21.4034,314.999998,314.999998,324.999988,324.999988,99.55805714285714,99.50713333333333,99.56355714285715,99.54478571428571,0.09825000000000017,-0.03600000000000003,-0.08116666666666668,0.14100000000000001,-0.03499999999999659,-0.05833333333333002,1.5266666666666666,1.5236666666666667,38.04,29.71366666666667,37.712,34.771,55.628,34.9925,58.355000000000004,51.6005,53.583,34.1365,56.987,49.9875,52.751000000000005,33.6915,56.9065,49.425,-0.08850000000000002,-0.06499999999999995,0.10722000000000001,0.10826500000000001,0.0,211.26,211.29000000000002,208.11333333333334,208.11333333333334,0.0,0.0
18,0.0,1.0,0.0,1.0,1.0,0.0,0.0,1.0,0.0,100.0,1.0,1.1856,26.0,0.0,0.0,0.0,59.999996,0.0,26.0,26.0,26.0,26.0,0.0002500000000000835,0.2954000000000001,0.02826666666666667,292.648,-2.6481,-2.616375,-1.6162,-1.4833,-215.82,215.385,190.62075,0.0,0.0,0.0,0.0,0.03639999999999999,-5.498166666666667,-5.498166666666667,-0.5582,-0.3514999999999999,0.00024999999999986144,0.9569999999999999,67.6,0.0175,-0.21937500000000001,-0.12799999999999923,100.0,1.0,1.0,208.47333333333333,0.0,0.0,0.0,0.0,0.0,0.0,0.0,8836.4,0.0,55.0,5.0,243.33333333333334,0.0,0.0,0.0,0.0,0.0,0.0,1.0,0.0,0.9059999999999988,0.9059999999999988,0.0,0.0,0.0,55.0,616.79921,10000.0,85.000001,85.000001,85.000001,85.000001,395.0,0.0,0.0,0.0,1.0,166.665,52.597,52.597,47.791,47.791,34.0,-22.9675,25.748333333333335,-29.286666666666665,29.7425,0.0,1782.472,-0.125,100.0,27.673000000000002,27.482,42.712,42.814,0.0,1.0,100.0,0.0,0.0,0.0,0.0,3071.75,3260.3,4187.555555555556,4284.1,305.40233333333333,304.59175,314.6195,314.28375,21.935200000000002,20.5992,21.883555555555557,21.4118,314.999998,314.999998,324.999988,324.999988,99.55805714285714,99.50713333333333,99.56368571428571,99.54492857142857,0.08674999999999988,-0.03699999999999992,-0.0955,0.13,-0.03999999999999915,-0.05833333333333002,1.5143333333333335,1.525,38.095,29.745333333333335,37.772,34.823499999999996,55.616,35.0275,58.3945,51.661,53.571,34.169,57.024,50.045500000000004,52.738,33.7225,56.9405,49.482,-0.08499999999999996,-0.0685,0.11211000000000002,0.107795,0.0,211.655,211.685,208.47333333333333,208.47333333333333,0.0,0.0
19,0.0,1.0,0.0,1.0,1.0,0.0,0.0,1.0,0.0,100.0,1.0,1.1856,26.0,0.0,0.0,0.0,59.999996,0.0,26.0,26.0,26.0,26.0,0.020375000000000032,0.29080000000000017,0.06823333333333334,292.328,-2.6488,-2.715375,-1.5298,-1.4652,-212.57,215.38,190.5995,0.0,0.0,0.0,0.0,0.0383,-5.498166666666667,-5.498166666666667,-0.5567,0.6145,0.01024999999999987,0.8020000000000005,67.731,0.0094,-0.217475,-0.05600000000000005,100.0,1.0,1.0,208.9,0.0,0.0,0.0,0.0,0.0,0.0,0.0,8854.4,0.0,55.0,5.0,243.80333333333334,1.0,0.0,0.0,0.0,0.0,0.0,1.0,0.0,0.9540000000000006,0.9540000000000006,0.0,0.0,1.0,55.0,616.79921,10000.0,85.000001,85.000001,85.000001,85.000001,395.0,0.0,0.0,0.0,1.0,166.665,52.002,52.002,47.974000000000004,47.974000000000004,34.0,-23.669999999999998,25.96,-27.523333333333333,30.252499999999998,0.0,1782.424,-0.134999999999998,100.0,28.171,27.938,42.603,42.804,0.0,1.0,100.0,0.0,0.0,0.0,0.0,3123.0,3217.7,4114.444444444444,4396.0,305.2103333333333,304.4635,314.78,314.06125,21.9441,20.6044,21.893,21.420099999999998,314.999998,314.999998,324.999988,324.999988,99.55807142857142,99.50713333333333,99.56381428571429,99.54505714285715,0.08199999999999985,-0.05166666666666675,-0.0955,0.127,-0.046666666666666856,-0.07333333333333059,1.512,1.5070000000000001,38.150999999999996,29.77766666666667,37.831,34.876,55.605000000000004,35.065,58.432,51.721000000000004,53.562,34.2035,57.059,50.1025,52.727000000000004,33.7555,56.9725,49.538333333333334,-0.08399999999999996,-0.06899999999999995,0.10306000000000001,0.10483,0.0,212.10500000000002,212.12,208.9,208.9,0.0,0.0
20,0.0,1.0,0.0,1.0,1.0,0.0,0.0,1.0,0.0,100.0,1.0,1.1856,26.0,0.0,0.0,0.0,59.999996,0.0,26.0,26.0,26.0,26.0,0.022375000000000034,0.26960000000000006,0.03606666666666667,292.465,-2.7212,-2.66325,-1.5141,-1.5892,-209.11,215.3775,190.577125,0.0,0.0,0.0,0.0,0.0403,-5.498166666666667,-5.498166666666667,-0.5491,-0.6600000000000001,0.005749999999999922,-1.02,67.872,0.0006000000000000001,-0.21855000000000002,0.09600000000000009,100.0,1.0,1.0,209.25,0.0,0.0,0.0,0.0,0.0,0.0,0.0,8869.3,0.0,55.0,5.0,244.31333333333333,0.0,0.0,0.0,0.0,0.0,0.0,0.0,0.0,1.004999999999999,1.004999999999999,0.0,0.0,0.0,55.0,616.79921,10000.0,85.000001,85.000001,85.000001,85.000001,395.0,0.0,0.0,0.0,1.0,333.33500000000004,52.811,52.811,47.363,47.363,34.0,-24.2175,23.168333333333333,-29.27,30.0925,0.0,1782.372,-0.19500000000000028,100.0,27.663,27.866,43.098,43.383,0.0,1.0,100.0,0.0,0.0,0.0,0.0,3104.625,2981.9,4247.222222222223,4196.1,305.568,305.187,314.484,314.27075,21.9533,20.6099,21.903222222222222,21.4292,314.999998,314.999998,324.999988,324.999988,99.55808571428571,99.50715,99.56397142857143,99.54521428571428,0.07275000000000009,-0.056333333333333124,-0.10883333333333334,0.113,-0.041666666666671404,-0.06333333333333258,1.464,1.4826666666666668,38.208,29.811666666666667,37.894999999999996,34.9325,55.592,35.1035,58.475,51.786500000000004,53.549,34.239,57.0995,50.166,52.714,33.789500000000004,57.01,49.6,-0.08799999999999997,-0.06600000000000006,0.09914500000000001,0.10801000000000001,0.0,212.525,212.525,209.25,209.25,0.0,0.0
21,0.0,1.0,0.0,1.0,1.0,0.0,0.0,1.0,0.0,100.0,1.0,1.1856,26.0,0.0,0.0,0.0,59.999996,0.0,26.0,26.0,26.0,26.0,0.010250000000000092,0.27190000000000003,-0.06173333333333334,292.999,-2.7218999999999998,-2.667625,-1.5747,-1.5425,-205.85,215.375,190.556,0.0,0.0,0.0,0.0,0.042199999999999904,-5.498166666666667,-5.498166666666667,-0.5730000000000001,-0.20350000000000001,-0.0030000000000001137,-0.7240000000000002,68.0,-0.0063,-0.225975,0.05200000000000049,100.0,1.0,1.0,209.82666666666665,0.0,0.0,0.0,0.0,0.0,0.0,0.0,8893.8,0.0,55.0,5.0,244.77333333333334,1.0,0.0,0.0,0.0,0.0,0.0,0.0,0.0,1.0530000000000008,1.0530000000000008,0.0,0.0,1.0,55.0,616.79921,10000.0,85.000001,85.000001,85.000001,85.000001,395.0,0.0,0.0,0.0,1.0,333.33500000000004,52.841,52.841,48.416,48.416,34.0,-24.99,23.511666666666667,-28.05,26.68,0.0,1782.324,-0.28000000000000114,100.0,27.623,27.664,42.813,43.007,0.0,1.0,100.0,0.0,0.0,0.0,0.0,3187.25,2983.9,4026.6666666666665,3962.1000000000004,305.3156666666667,305.285,315.09725,314.99075,21.9621,20.615,21.912666666666667,21.4375,314.999998,314.999998,324.999988,324.999988,99.55808571428571,99.50715,99.5641,99.54534285714286,0.07299999999999995,-0.04600000000000004,-0.11616666666666667,0.10783333333333334,-0.03333333333333144,-0.05833333333333002,1.5766666666666667,1.5703333333333334,38.263,29.843333333333334,37.954,34.9845,55.58,35.1395,58.512,51.844,53.537,34.272,57.1335,50.221000000000004,52.701,33.8215,57.0415,49.653999999999996,-0.09550000000000003,-0.046499999999999986,0.10159000000000001,0.10634500000000001,0.0,212.92000000000002,212.92000000000002,209.82666666666665,209.82666666666665,0.0,0.0
22,0.0,1.0,0.0,1.0,1.0,0.0,0.0,1.0,0.0,100.0,1.0,1.1856,26.0,0.0,0.0,0.0,59.999996,0.0,26.0,26.0,26.0,26.0,-0.0003750000000000142,0.2853000000000001,-0.03096666666666667,292.664,-2.6624,-2.680625,-1.5878999999999999,-1.5319,-202.38,215.3725,190.532375,0.0,0.0,0.0,0.0,0.044199999999999906,-5.498166666666667,-5.498166666666667,-0.5598000000000001,0.29799999999999993,0.0021249999999999325,1.0659999999999998,68.14,-0.006500000000000001,-0.20035,-0.15399999999999991,100.0,1.0,1.0,210.15,0.0,0.0,0.0,0.0,0.0,0.0,0.0,8907.5,0.0,55.0,5.0,245.27333333333334,0.0,0.0,0.0,0.0,0.0,0.0,0.0,0.0,1.1039999999999992,1.1039999999999992,0.0,0.0,0.0,55.0,616.79921,10000.0,85.000001,85.000001,85.000001,85.000001,395.0,0.0,0.0,0.0,1.0,333.33500000000004,52.872,52.872,47.592,47.592,34.0,-21.83,24.296666666666667,-29.686666666666664,28.925,0.0,1782.272,-0.3200000000000003,100.0,27.959,27.627,42.92,42.863,0.0,1.0,100.0,0.0,0.0,0.0,0.0,2943.25,3080.0,4212.777777777777,4250.8,305.79633333333334,305.07875,314.587,314.4185,21.9714,20.6204,21.922777777777778,21.4464,314.999998,314.999998,324.999988,324.999988,99.5581,99.50715,99.56424285714286,99.5455,0.09050000000000002,-0.04833333333333312,-0.1065,0.1075,-0.03833333333332689,-0.05666666666667197,1.5123333333333333,1.5206666666666666,38.321,29.877666666666666,38.016999999999996,35.04,55.568,35.178,58.5535,51.9065,53.525999999999996,34.3075,57.172,50.281,52.689,33.8555,57.077,49.712666666666664,-0.10350000000000004,-0.052999999999999936,0.09727500000000001,0.109395,0.0,213.365,213.38,210.15,210.15,0.0,0.0
23,0.0,1.0,0.0,1.0,1.0,0.0,0.0,1.0,0.0,100.0,1.0,1.1856,26.0,0.0,0.0,0.0,59.999996,0.0,26.0,26.0,26.0,26.0,-0.003375000000000017,0.2811000000000001,-0.017,292.404,-2.7474,-2.6785,-1.6335000000000002,-1.5059,-198.7,215.3675,190.507625,0.0,0.0,0.0,0.0,0.046366666666666556,-5.498166666666667,-5.498166666666667,-0.5712,-0.3340000000000001,0.004750000000000032,0.5250000000000004,68.285,-0.0023,-0.220775,-0.11000000000000032,100.0,1.0,1.0,210.61333333333334,0.0,0.0,0.0,0.0,0.0,0.0,0.0,8927.1,0.0,55.0,5.0,245.8,1.0,0.0,0.0,0.0,0.0,0.0,0.0,0.0,1.1580000000000013,1.1580000000000013,0.0,0.0,1.0,55.0,616.79921,10000.0,85.000001,85.000001,85.000001,85.000001,395.0,0.0,0.0,0.0,1.0,166.665,52.260999999999996,52.260999999999996,47.913,47.913,34.0,-25.0625,25.02166666666667,-28.826666666666664,28.497500000000002,0.0,1782.22,-0.25,100.0,28.055,27.802,43.171,43.236000000000004,0.0,1.0,100.0,0.0,0.0,0.0,0.0,3208.625,3164.2,4102.666666666667,4146.4,305.1306666666667,304.8265,314.89775,314.63875,21.9813,20.6263,21.933555555555557,21.4559,314.999998,314.999998,324.999988,324.999988,99.55811428571428,99.50716666666666,99.5644,99.54564285714285,0.08499999999999996,-0.04899999999999993,-0.09966666666666667,0.123,-0.054999999999999716,-0.06499999999999773,1.5436666666666667,1.5376666666666665,38.382999999999996,29.91433333333333,38.085,35.0995,55.555,35.219,58.598,51.975,53.513,34.3455,57.214,50.3465,52.676,33.891999999999996,57.1155,49.777,-0.09750000000000003,-0.05899999999999994,0.09885000000000001,0.11342500000000001,0.0,213.785,213.79000000000002,210.61333333333334,210.61333333333334,0.0,0.0
24,0.0,1.0,0.0,1.0,1.0,0.0,0.0,1.0,0.0,100.0,1.0,1.1856,26.0,0.0,0.0,0.0,59.999996,0.0,26.0,26.0,26.0,26.0,0.001000000000000112,0.27770000000000006,-0.04656666666666667,292.679,-2.6822,-2.6785,-1.6285,-1.5424,-195.42000000000002,215.3675,190.48525,0.0,0.0,0.0,0.0,0.04826666666666657,-5.498166666666667,-5.498166666666667,-0.5822,-0.248,0.011374999999999913,1.064,68.414,-0.0015,-0.220775,-0.16799999999999926,100.0,1.0,1.0,210.99666666666667,0.0,0.0,0.0,0.0,0.0,0.0,0.0,8943.4,0.0,55.0,5.0,246.26,0.0,0.0,0.0,0.0,0.0,0.0,0.0,0.0,1.2059999999999995,1.2059999999999995,0.0,0.0,0.0,55.0,616.79921,10000.0,85.000001,85.000001,85.000001,85.000001,395.0,0.0,0.0,0.0,1.0,166.665,52.933,52.933,47.729,47.729,34.0,-22.1375,24.325,-29.87,29.3625,0.0,1782.172,-0.3299999999999983,100.0,28.006,27.568,43.076,43.164,0.0,1.0,100.0,0.0,0.0,0.0,0.0,2965.0,3049.8,4223.0,4150.0,305.735,305.20025,314.61525,314.61625,21.99,20.6314,21.94311111111111,21.4643,314.999998,314.999998,324.999988,324.999988,99.55812857142857,99.50718333333333,99.56454285714285,99.54578571428571,0.09224999999999994,-0.03966666666666674,-0.101,0.1285,-0.03499999999999659,-0.04833333333333201,1.541,1.5326666666666666,38.438,29.945999999999998,38.144,35.152,55.543,35.2545,58.635999999999996,52.034,53.501999999999995,34.3785,57.2495,50.4035,52.664,33.923500000000004,57.147999999999996,49.83266666666667,-0.10350000000000004,-0.04849999999999999,0.10457000000000001,0.10892500000000001,0.0,214.19,214.2,210.99666666666667,210.99666666666667,0.0,0.0
25,0.0,1.0,0.0,1.0,1.0,0.0,0.0,1.0,0.0,100.0,1.0,1.1856,26.0,0.0,0.0,0.0,59.999996,0.0,26.0,26.0,26.0,26.0,0.011624999999999996,0.27470000000000017,-0.050800000000000005,292.74,-2.7481999999999998,-2.65775,-1.5655000000000001,-1.5307,-192.13,215.365,190.461875,0.0,0.0,0.0,0.0,0.05016666666666658,-5.498166666666667,-5.498166666666667,-0.6006,-0.24049999999999994,0.02112500000000006,0.5529999999999999,68.542,0.002,-0.21785000000000002,-0.25200000000000067,100.0,1.0,1.0,211.43333333333334,0.0,0.0,0.0,0.0,0.0,0.0,0.0,8961.8,0.0,55.0,5.0,246.72333333333336,1.0,0.0,0.0,0.0,0.0,0.0,0.0,0.0,1.2540000000000013,1.2540000000000013,0.0,0.0,1.0,55.0,616.79921,10000.0,85.000001,85.000001,85.000001,85.000001,395.0,0.0,0.0,0.0,1.0,333.33500000000004,52.658,52.658,47.974000000000004,47.974000000000004,34.0,-23.857499999999998,25.96,-26.733333333333334,28.595,0.0,1782.123,-0.3099999999999987,100.0,27.696,27.615000000000002,42.95,42.986000000000004,0.0,1.0,100.0,0.0,0.0,0.0,0.0,3095.0,3238.1,3987.3333333333335,4103.0,305.527,304.6575,315.1135,314.731,21.9987,20.636499999999998,21.952555555555556,21.4727,314.999998,314.999998,324.999988,324.999988,99.55814285714285,99.50718333333333,99.56467142857143,99.54591428571429,0.08749999999999991,-0.03699999999999992,-0.09416666666666668,0.12533333333333332,-0.030000000000001137,-0.05833333333333002,1.554,1.5426666666666666,38.492000000000004,29.97833333333333,38.204,35.204499999999996,55.53,35.2905,58.6735,52.092,53.489999999999995,34.411500000000004,57.284,50.459,52.65,33.955,57.18,49.887,-0.09899999999999998,-0.0475000000000001,0.10177000000000001,0.10676500000000001,0.0,214.57,214.60500000000002,211.43333333333334,211.43333333333334,0.0,0.0
26,0.0,1.0,0.0,1.0,1.0,0.0,0.0,1.0,0.0,100.0,1.0,1.1856,26.0,0.0,0.0,0.0,59.999996,0.0,26.0,26.0,26.0,26.0,0.013624999999999998,0.2774000000000001,0.06223333333333334,291.687,-2.6754,-2.73625,-1.6065,-1.5372,-188.42000000000002,215.3625,190.43475,0.0,0.0,0.0,0.0,0.05233333333333334,-5.498166666666667,-5.498166666666667,-0.5767,0.6094999999999999,0.007500000000000062,0.6349999999999998,68.687,0.0071,-0.199025,-0.29799999999999915,100.0,1.0,1.0,211.71333333333334,0.0,0.0,0.0,0.0,0.0,0.0,0.0,8973.7,0.0,55.0,5.0,247.24333333333334,0.0,0.0,0.0,0.0,0.0,0.0,0.0,0.0,1.3079999999999998,1.3079999999999998,0.0,0.0,0.0,55.0,616.79921,10000.0,85.000001,85.000001,85.000001,85.000001,395.0,0.0,0.0,0.0,1.0,166.665,51.865,51.865,46.921,46.921,34.0,-23.22,25.75333333333333,-31.34,31.9775,0.0,1782.069,-0.3150000000000013,100.0,28.576999999999998,28.267,43.217,43.268,0.0,1.0,100.0,0.0,0.0,0.0,0.0,3139.5,3137.1,4442.111111111111,4474.3,305.22833333333335,304.81775,314.083,313.8545,22.0086,20.6426,21.963333333333335,21.4823,314.999998,314.999998,324.999988,324.999988,99.55815714285714,99.50718333333333,99.56482857142858,99.54607142857142,0.10050000000000026,-0.040999999999999925,-0.09266666666666667,0.12033333333333333,-0.02499999999999858,-0.054999999999999716,1.461,1.4483333333333333,38.554,30.016,38.271,35.2645,55.519999999999996,35.3335,58.7175,52.16,53.480000000000004,34.451,57.3255,50.5245,52.638999999999996,33.993,57.218,49.951,-0.10499999999999998,-0.05600000000000005,0.10805500000000001,0.10141000000000001,0.0,215.06,215.075,211.71333333333334,211.71333333333334,0.0,0.0
27,0.0,1.0,0.0,1.0,1.0,0.0,0.0,1.0,0.0,100.0,1.0,1.1856,26.0,0.0,0.0,0.0,59.999996,0.0,26.0,26.0,26.0,26.0,0.03837500000000005,0.2692000000000001,-0.0015,291.855,-2.7046,-2.66425,-1.5796000000000001,-1.6139999999999999,-185.32999999999998,215.3625,190.413125,0.0,0.0,0.0,0.0,0.05413333333333337,-5.498166666666667,-5.498166666666667,-0.5875,-0.8560000000000001,0.013749999999999929,-0.5229999999999997,68.807,0.0089,-0.229575,-0.1720000000000006,100.0,1.0,1.0,212.10666666666668,0.0,0.0,0.0,0.0,0.0,0.0,0.0,8990.4,0.0,55.0,5.0,247.67666666666668,1.0,0.0,0.0,0.0,0.0,0.0,0.0,0.0,1.352999999999998,1.352999999999998,0.0,0.0,1.0,55.0,616.79921,10000.0,85.000001,85.000001,85.000001,85.000001,395.0,0.0,0.0,0.0,1.0,166.665,52.109,52.109,46.829,46.829,34.0,-23.6475,24.583333333333332,-29.703333333333333,30.58,0.0,1782.024,-0.3099999999999987,100.0,28.215,28.346,43.722,43.974000000000004,0.0,1.0,100.0,0.0,0.0,0.0,0.0,3120.375,3094.3,4216.777777777777,4150.2,305.468,304.841,314.596,314.429,22.0168,20.6475,21.972555555555555,21.4904,314.999998,314.999998,324.999988,324.999988,99.55817142857143,99.5072,99.56495714285714,99.5462,0.08824999999999994,-0.04699999999999993,-0.106,0.12283333333333334,-0.05833333333333002,-0.03333333333333144,1.4843333333333333,1.4766666666666666,38.605000000000004,30.046666666666667,38.328,35.315,55.51,35.367,58.756,52.218,53.47,34.4825,57.3615,50.58,52.628,34.022999999999996,57.2515,50.00533333333333,-0.09999999999999998,-0.05249999999999999,0.10652500000000001,0.110085,0.0,215.4,215.39,212.10666666666668,212.10666666666668,0.0,0.0
28,0.0,1.0,0.0,1.0,1.0,0.0,0.0,1.0,0.0,100.0,1.0,1.1856,26.0,0.0,0.0,0.0,59.999996,0.0,26.0,26.0,26.0,26.0,0.03374999999999995,0.27100000000000013,-0.06736666666666667,292.267,-2.6895,-2.662125,-1.6274000000000002,-1.5526,-181.61,215.36,190.38675,0.0,0.0,0.0,0.0,0.056299999999999906,-5.498166666666667,-5.498166666666667,-0.6054,0.4145,0.005749999999999922,-1.025,68.946,0.0105,-0.2238,-0.19399999999999995,100.0,1.0,1.0,212.71,0.0,0.0,0.0,0.0,0.0,0.0,0.0,9016.0,0.0,55.0,5.0,248.17666666666668,0.0,0.0,0.0,0.0,0.0,0.0,0.0,0.0,1.407,1.407,0.0,0.0,0.0,55.0,616.79921,10000.0,85.000001,85.000001,85.000001,85.000001,395.0,0.0,0.0,0.0,1.0,166.665,52.002,52.002,47.913,47.913,34.0,-23.74,24.653333333333332,-28.183333333333334,28.535,0.0,1781.97,-0.370000000000001,100.0,28.222,28.41,43.202,43.534,0.0,1.0,100.0,0.0,0.0,0.0,0.0,3203.625,3079.2,4013.777777777778,4059.7,305.199,304.87775,315.209,314.79725,22.0265,20.6534,21.98311111111111,21.4998,314.999998,314.999998,324.999988,324.999988,99.55817142857143,99.5072,99.56511428571429,99.54635714285715,0.10024999999999995,-0.04233333333333311,-0.10816666666666667,0.12683333333333333,-0.051666666666669414,-0.04333333333332945,1.5743333333333334,1.574,38.666,30.084,38.394,35.374,55.498000000000005,35.409,58.795500000000004,52.282,53.458,34.521,57.3985,50.6415,52.616,34.06,57.285,50.065666666666665,-0.11299999999999999,-0.05400000000000005,0.10912500000000001,0.109685,0.0,215.85500000000002,215.85500000000002,212.71,212.71,0.0,0.0
29,0.0,1.0,0.0,1.0,1.0,0.0,0.0,1.0,0.0,100.0,1.0,1.1856,26.0,0.0,0.0,0.0,59.999996,0.0,26.0,26.0,26.0,26.0,0.043749999999999956,0.2642,0.008966666666666668,292.007,-2.6579,-2.725625,-1.5618,-1.5518,-178.09,215.36,190.360625,0.0,0.0,0.0,0.0,0.05833333333333335,-5.498166666666667,-5.498166666666667,-0.5992000000000001,-0.476,-0.0016250000000002096,0.8700000000000001,69.083,0.0119,-0.20897500000000002,-0.3099999999999996,100.0,1.0,1.0,212.93,0.0,0.0,0.0,0.0,0.0,0.0,0.0,9025.4,0.0,55.0,5.0,248.67000000000002,1.0,0.0,0.0,0.0,0.0,0.0,0.0,0.0,1.4579999999999984,1.4579999999999984,0.0,0.0,1.0,55.0,616.79921,10000.0,85.000001,85.000001,85.000001,85.000001,395.0,0.0,0.0,0.0,1.0,166.665,52.521,52.521,46.783,46.783,34.0,-21.5075,25.75333333333333,-28.59,32.3125,0.0,1781.92,-0.3949999999999996,100.0,28.097,28.03,43.612,43.626,0.0,1.0,100.0,0.0,0.0,0.0,0.0,2985.5,3115.5,4244.777777777777,4323.9,305.71066666666667,304.90225,314.45825,314.198,22.0356,20.659,21.993333333333332,21.5089,314.999998,314.999998,324.999988,324.999988,99.55818571428571,99.50721666666666,99.56527142857144,99.54651428571428,0.10575000000000001,-0.033666666666666734,-0.08416666666666667,0.14666666666666667,-0.04333333333332945,-0.03999999999999915,1.4906666666666668,1.4626666666666668,38.722,30.118333333333332,38.458,35.431,55.485,35.4465,58.838499999999996,52.346000000000004,53.447,34.5555,57.4385,50.703,52.602999999999994,34.093,57.322,50.12566666666667,-0.10799999999999998,-0.04899999999999993,0.10171500000000001,0.11571500000000001,0.0,216.26,216.26,212.93,212.93,0.0,0.0
30,0.0,1.0,0.0,1.0,1.0,0.0,0.0,1.0,0.0,100.0,1.0,1.1856,26.0,0.0,0.0,0.0,59.999996,0.0,26.0,26.0,26.0,26.0,0.052750000000000075,0.2593000000000001,-0.0135,291.672,-2.7667,-2.72825,-1.5439,-1.5979,-174.98000000000002,215.3625,190.33725,0.0,0.0,0.0,0.0,0.06013333333333337,-5.498166666666667,-5.498166666666667,-0.6133000000000001,0.16849999999999998,0.0004999999999999449,-0.5569999999999995,69.19800000000001,0.011600000000000001,-0.223,-0.3039999999999994,100.0,1.0,1.0,213.39,0.0,0.0,0.0,0.0,0.0,0.0,0.0,9044.8,0.0,55.0,5.0,249.08666666666664,0.0,0.0,0.0,0.0,0.0,0.0,1.0,0.0,1.5030000000000001,1.5030000000000001,0.0,0.0,0.0,55.0,616.79921,10000.0,85.000001,85.000001,85.000001,85.000001,395.0,0.0,0.0,0.0,1.0,333.33500000000004,51.315,51.315,47.623,47.623,34.0,-26.04,27.01833333333333,-27.186666666666664,29.995,0.0,1781.874,-0.4549999999999983,100.0,28.512,28.583,43.378,43.798,0.0,1.0,100.0,0.0,0.0,0.0,0.0,3418.5,3250.5,4068.6666666666665,4151.8,304.72366666666665,304.5095,314.98425,314.466,22.0438,20.664,22.002222222222223,21.5169,314.999998,314.999998,324.999988,324.999988,99.5582,99.50721666666666,99.56538571428571,99.54664285714286,0.10400000000000009,-0.03466666666666662,-0.09383333333333332,0.11950000000000001,-0.045000000000001705,-0.04333333333332945,1.518,1.5153333333333334,38.774,30.15,38.513999999999996,35.4805,55.477000000000004,35.4815,58.8725,52.4015,53.439,34.588,57.47,50.7565,52.594,34.124,57.351,50.178,-0.12049999999999994,-0.05049999999999999,0.10222500000000001,0.10342000000000001,0.0,216.62,216.63,213.39,213.39,0.0,0.0
31,0.0,1.0,0.0,1.0,1.0,0.0,0.0,1.0,0.0,100.0,1.0,1.1856,26.0,0.0,0.0,0.0,59.999996,0.0,26.0,26.0,26.0,26.0,0.026874999999999982,0.2774000000000001,0.06413333333333333,291.016,-2.7701,-2.688625,-1.6669,-1.6135000000000002,-171.45,215.3625,190.311375,0.0,0.0,0.0,0.0,0.06219999999999992,-5.498166666666667,-5.498166666666667,-0.5844,0.14649999999999996,0.012624999999999886,1.0789999999999997,69.333,0.018000000000000002,-0.20702500000000001,-0.40200000000000014,100.0,1.0,1.0,213.61666666666667,0.0,0.0,0.0,0.0,0.0,0.0,0.0,9054.4,0.0,55.0,5.0,249.57,1.0,0.0,0.0,0.0,0.0,0.0,1.0,0.0,1.5539999999999985,1.5539999999999985,0.0,0.0,1.0,55.0,616.79921,10000.0,85.000001,85.000001,85.000001,85.000001,395.0,0.0,0.0,0.0,1.0,333.33500000000004,51.559,51.559,45.807,45.807,34.0,-22.6825,25.933333333333334,-32.95333333333333,35.405,0.0,1781.822,-0.41499999999999915,100.0,28.917,28.845,43.952,44.144999999999996,0.0,1.0,100.0,0.0,0.0,0.0,0.0,3052.375,3190.0,4547.222222222223,4595.6,305.481,304.71725,313.84625,313.61725,22.0531,20.6698,22.012555555555554,21.5261,314.999998,314.999998,324.999988,324.999988,99.55821428571429,99.50721666666666,99.56554285714286,99.5468,0.11649999999999983,-0.03699999999999992,-0.08783333333333333,0.1405,-0.023333333333326323,-0.04333333333332945,1.4553333333333334,1.434,38.832,30.186,38.578,35.538,55.468,35.522,58.916,52.467,53.43,34.6255,57.5105,50.819,52.584,34.16,57.388,50.239333333333335,-0.11449999999999994,-0.05750000000000011,0.110575,0.10958500000000002,0.0,217.025,217.06,213.61666666666667,213.61666666666667,0.0,0.0
32,0.0,1.0,0.0,1.0,1.0,0.0,0.0,1.0,0.0,100.0,1.0,1.1856,26.0,0.0,0.0,0.0,59.999996,0.0,26.0,26.0,26.0,26.0,0.036375000000000046,0.24950000000000006,-0.046366666666666674,291.595,-2.7363,-2.67075,-1.6575000000000002,-1.5404,-167.91,215.365,190.286125,0.0,0.0,0.0,0.0,0.06426666666666658,-5.498166666666667,-5.498166666666667,-0.6038,-0.278,-0.0031249999999998224,-1.1509999999999998,69.462,0.022600000000000002,-0.233325,-0.3600000000000003,100.0,1.0,1.0,214.2,0.0,0.0,0.0,0.0,0.0,0.0,0.0,9079.1,0.0,55.0,5.0,250.03666666666666,0.0,0.0,0.0,0.0,0.0,0.0,1.0,0.0,1.6050000000000004,1.6050000000000004,0.0,0.0,0.0,55.0,616.79921,10000.0,85.000001,85.000001,85.000001,85.000001,395.0,0.0,0.0,0.0,1.0,333.33500000000004,51.635999999999996,51.635999999999996,46.844,46.844,34.0,-23.599999999999998,25.093333333333334,-29.126666666666665,29.355,0.0,1781.771,-0.39000000000000057,100.0,28.575,28.979,43.97,44.373999999999995,0.0,1.0,100.0,0.0,0.0,0.0,0.0,3181.5,3084.0,4128.666666666667,4091.3,305.3206666666667,304.83225,314.93525,314.75175,22.0622,20.6755,22.022777777777776,21.5353,314.999998,314.999998,324.999988,324.999988,99.55822857142857,99.50723333333333,99.56568571428572,99.54694285714285,0.1080000000000001,-0.03600000000000003,-0.095,0.137,-0.04333333333332945,-0.060000000000002274,1.5293333333333334,1.526,38.888999999999996,30.222,38.641999999999996,35.5955,55.458,35.5615,58.956,52.5305,53.42,34.6625,57.548,50.879999999999995,52.573,34.195499999999996,57.4225,50.29866666666666,-0.10949999999999993,-0.052999999999999936,0.111405,0.10529000000000001,0.0,217.43,217.445,214.2,214.2,0.0,0.0
33,0.0,1.0,0.0,1.0,1.0,0.0,0.0,1.0,0.0,100.0,1.0,1.1856,26.0,0.0,0.0,0.0,59.999996,0.0,26.0,26.0,26.0,26.0,0.052750000000000075,0.25460000000000016,-0.05473333333333334,291.855,-2.7267,-2.7005,-1.6168,-1.5803,-164.57,215.37,190.261625,0.0,0.0,0.0,0.0,0.06619999999999993,-5.498166666666667,-5.498166666666667,-0.6127,-0.12749999999999995,-0.012375000000000025,-0.44599999999999973,69.58500000000001,0.0236,-0.21995,-0.3600000000000003,100.0,1.0,1.0,214.56666666666666,0.0,0.0,0.0,0.0,0.0,0.0,0.0,9094.8,0.0,55.0,5.0,250.48000000000002,1.0,0.0,0.0,0.0,0.0,0.0,1.0,0.0,1.6529999999999987,1.6529999999999987,0.0,0.0,1.0,55.0,616.79921,10000.0,85.000001,85.000001,85.000001,85.000001,395.0,0.0,0.0,0.0,1.0,166.665,52.109,52.109,46.936,46.936,34.0,-22.5125,25.163333333333334,-29.013333333333335,29.55,0.0,1781.724,-0.4499999999999993,100.0,28.427,28.668,43.752,44.157,0.0,1.0,100.0,0.0,0.0,0.0,0.0,3096.875,3050.5,4171.666666666667,4098.1,305.633,305.02225,314.80675,314.6855,22.0707,20.6808,22.032333333333334,21.5438,314.999998,314.999998,324.999988,324.999988,99.55824285714286,99.50723333333333,99.56582857142857,99.54708571428571,0.11275000000000013,-0.030333333333333323,-0.095,0.127,-0.04999999999999716,-0.026666666666670835,1.5216666666666665,1.5190000000000001,38.942,30.255,38.702,35.6485,55.447,35.597,58.993,52.588499999999996,53.41,34.6945,57.582499999999996,50.936,52.562,34.2265,57.4535,50.35333333333333,-0.11949999999999994,-0.0475000000000001,0.11404500000000001,0.09861,0.0,217.82,217.825,214.56666666666666,214.56666666666666,0.0,0.0
34,0.0,1.0,0.0,1.0,1.0,0.0,0.0,1.0,0.0,100.0,1.0,1.1856,26.0,0.0,0.0,0.0,59.999996,0.0,26.0,26.0,26.0,26.0,0.03049999999999997,0.25429999999999997,-0.052000000000000005,291.946,-2.7492,-2.6182499999999997,-1.6364,-1.5716,-161.01999999999998,215.375,190.234,0.0,0.0,0.0,0.0,0.06826666666666659,-5.498166666666667,-5.498166666666667,-0.6316,-0.7085000000000001,0.010375000000000023,0.9249999999999998,69.717,0.0274,-0.21565,-0.4119999999999999,100.0,1.0,1.0,214.93,0.0,0.0,0.0,0.0,0.0,0.0,0.0,9110.1,0.0,55.0,5.0,250.95333333333335,0.0,0.0,0.0,0.0,0.0,0.0,1.0,0.0,1.7040000000000006,1.7040000000000006,0.0,0.0,0.0,55.0,616.79921,10000.0,85.000001,85.000001,85.000001,85.000001,395.0,0.0,0.0,0.0,1.0,166.665,52.338,52.338,47.379,47.379,34.0,-22.5,25.096666666666668,-27.876666666666665,32.0125,0.0,1781.674,-0.39000000000000057,100.0,28.271,28.183,43.668,44.106,0.0,1.0,100.0,0.0,0.0,0.0,0.0,3062.0,3104.5,4076.8888888888887,4277.1,305.5953333333333,305.06175,314.98325,314.2825,22.0797,20.6863,22.042444444444445,21.5529,314.999998,314.999998,324.999988,324.999988,99.55825714285714,99.50723333333333,99.56598571428572,99.54722857142858,0.11474999999999991,-0.02066666666666661,-0.082,0.14566666666666667,-0.021666666666668277,-0.03999999999999915,1.5270000000000001,1.5023333333333333,38.998000000000005,30.28933333333333,38.765,35.7055,55.436,35.632999999999996,59.032,52.6515,53.399,34.728,57.6185,50.9965,52.549,34.2585,57.4865,50.41266666666667,-0.10899999999999999,-0.0475000000000001,0.112195,0.10461500000000001,0.0,218.19,218.22,214.93,214.93,0.0,0.0
35,0.0,1.0,0.0,1.0,1.0,0.0,0.0,1.0,0.0,100.0,1.0,1.1856,26.0,0.0,0.0,0.0,59.999996,0.0,26.0,26.0,26.0,26.0,0.05137499999999995,0.2630000000000001,-0.057100000000000005,292.13,-2.7256,-2.605,-1.5477,-1.566,-157.25,215.38,190.203125,0.0,0.0,0.0,0.0,0.07043333333333335,-5.498166666666667,-5.498166666666667,-0.6765,-0.4595,0.005374999999999908,-0.11699999999999999,69.854,0.0274,-0.23065000000000002,-0.40200000000000014,100.0,1.0,1.0,215.44,0.0,0.0,0.0,0.0,0.0,0.0,0.0,9131.7,0.0,55.0,5.0,251.45,1.0,0.0,0.0,0.0,0.0,0.0,1.0,0.0,1.7579999999999991,1.7579999999999991,0.0,0.0,1.0,55.0,616.79921,10000.0,85.000001,85.000001,85.000001,85.000001,395.0,0.0,0.0,0.0,1.0,166.665,52.063,52.063,47.211,47.211,34.0,-22.572499999999998,27.078333333333333,-25.58,29.235,0.0,1781.62,-0.29499999999999815,100.0,27.963,28.374,43.406,43.75,0.0,1.0,100.0,0.0,0.0,0.0,0.0,3072.875,3344.1,3990.3333333333335,3967.5,305.58866666666665,304.26125,315.1145,314.9925,22.0891,20.6923,22.053,21.5624,314.999998,314.999998,324.999988,324.999988,99.55827142857143,99.50723333333333,99.56612857142858,99.5474,0.10975000000000001,-0.026000000000000023,-0.07416666666666667,0.1505,-0.03833333333332689,-0.061666666666667425,1.5546666666666666,1.557,39.057,30.326999999999998,38.832,35.765,55.422,35.6735,59.072,52.7155,53.385,34.766,57.656,51.058,52.535,34.2945,57.5205,50.47266666666667,-0.10499999999999998,-0.05950000000000011,0.10865000000000001,0.10611500000000001,0.0,218.61,218.64499999999998,215.44,215.44,0.0,0.0
