,ABS Active,ABS Enabled,AID Allow Tire Blankets,AID Auto Blip,AID Auto Clutch,AID Auto Shift,AID Fuel Rate,AID Ideal Line,AID Mech Damage,AID Stability,AID Tire Wear Rate,Air Density,Air Temp,Ballast,Best Lap Delta,Best Lap Time,Brake Bias,Brake Pos,Brake Temp FL,Brake Temp FR,Brake Temp RL,Brake Temp RR,CG Accel Lateral,CG Accel Longitudinal,CG Accel Vertical,CG Height,Camber FL,Camber FR,Camber RL,Camber RR,Car Coord X,Car Coord Y,Car Coord Z,Car Damage Front,Car Damage Left,Car Damage Rear,Car Damage Right,Car Pos Norm,Caster FL,Caster FR,Chassis Pitch Angle,Chassis Pitch Rate,Chassis Roll Angle,Chassis Roll Rate,Chassis Velocity X,Chassis Velocity Y,Chassis Velocity Z,Chassis Yaw Rate,Clutch Pos,DRS Active,DRS Available,Drive Train Speed,ERS Heat Charging,ERS Is Charging,ERS Max Energy,ERS Power Level,ERS Recovery Level,Engine Brake Setting,Engine Limiter,Engine RPM,Flags,Fuel Level,Gear,Ground Speed,HR Sample Clock,In Pit,KERS Charge,KERS Deployed Energy,KERS Input,KERS Max Energy,LR Sample Clock,Lap Invalidated,Lap Time,Lap Time2,Last Lap Time,Last Sector Time,MR Sample Clock,Max Fuel,Max Power,Max RPM,Max Sus Travel FL,Max Sus Travel FR,Max Sus Travel RL,Max Sus Travel RR,Max Torque,Max Turbo Boost,Num Tires Off Track,Penalties Enabled,Position,Raw Data Sample Rate,Ride Height FL,Ride Height FR,Ride Height RL,Ride Height RR,Road Temp,Self Align Torque FL,Self Align Torque FR,Self Align Torque RL,Self Align Torque RR,Session Lap Count,Session Time Left,Steering Angle,Surface Grip,Suspension Travel FL,Suspension Travel FR,Suspension Travel RL,Suspension Travel RR,TC Active,TC Enabled,Throttle Pos,Tire Dirt Level FL,Tire Dirt Level FR,Tire Dirt Level RL,Tire Dirt Level RR,Tire Load FL,Tire Load FR,Tire Load RL,Tire Load RR,Tire Loaded Radius FL,Tire Loaded Radius FR,Tire Loaded Radius RL,Tire Loaded Radius RR,Tire Pressure FL,Tire Pressure FR,Tire Pressure RL,Tire Pressure RR,Tire Radius FL,Tire Radius FR,Tire Radius RL,Tire Radius RR,Tire Rubber Grip FL,Tire Rubber Grip FR,Tire Rubber Grip RL,Tire Rubber Grip RR,Tire Slip Angle FL,Tire Slip Angle FR,Tire Slip Angle RL,Tire Slip Angle RR,Tire Slip Ratio FL,Tire Slip Ratio FR,Tire Slip Ratio RL,Tire Slip Ratio RR,Tire Temp Core FL,Tire Temp Core FR,Tire Temp Core RL,Tire Temp Core RR,Tire Temp Inner FL,Tire Temp Inner FR,Tire Temp Inner RL,Tire Temp Inner RR,Tire Temp Middle FL,Tire Temp Middle FR,Tire Temp Middle RL,Tire Temp Middle RR,Tire Temp Outer FL,Tire Temp Outer FR,Tire Temp Outer RL,Tire Temp Outer RR,Toe In FL,Toe In FR,Toe In RL,Toe In RR,Turbo Boost,Wheel Angular Speed FL,Wheel Angular Speed FR,Wheel Angular Speed RL,Wheel Angular Speed RR,Wind Direction,Wind Speed
0,0.0,0.0,0.0,1.0,1.0,0.0,0.0,1.0,0.0,100.0,1.0,1.1856,26.0,0.0,0.0,0.0,59.99999,0.0,26.0,26.0,26.0,26.0,-0.05133333333333334,0.31110000000000015,0.0651,293.686,-2.7195,-2.6317500000000003,-1.5285000000000002,-1.5299,-275.76,215.765,190.988125,0.0,0.0,0.0,0.0,0.0015333333333333334,-5.498166666666667,-5.498166666666667,-0.5557,1.834666666666667,-0.006888888888889166,-0.20599999999999996,65.505,-0.0351,-0.21615,0.2839999999999998,100.0,1.0,1.0,202.23666666666668,0.0,0.0,0.0,0.0,0.0,0.0,0.0,8572.0,0.0,55.0,5.0,235.78333333333333,0.0,0.0,0.0,0.0,0.0,0.0,0.0,0.0,0.0030000000000001137,0.0030000000000001137,0.0,0.0,0.0,55.0,616.79921,10000.0,85.0,85.0,85.0,85.0,395.0,0.0,0.0,0.0,1.0,20.0,51.849000000000004,51.849000000000004,49.225,49.225,34.0,-28.372500000000002,29.726,-29.7,25.86,0.0,1782.92,0.495000000000001,100.0,27.144,26.689,40.363,40.067,0.0,0.0,100.0,0.0,0.0,0.0,0.0,3189.857142857143,4086.4,4078.0,4088.4,305.008,302.273,314.926,314.68325,21.7753,20.5139,21.7778,21.3217,314.99999,314.99999,324.99998,324.99998,99.55884285714286,99.50715,99.56538571428571,99.54547142857143,0.000500000000000167,-0.09866666666666668,-0.15166666666666667,0.07783333333333332,-0.03166666666666629,-0.045000000000001705,1.556,1.5865,37.096000000000004,29.212,37.111000000000004,34.2605,56.260999999999996,34.434,59.122,51.712,54.184,33.621,57.749,50.0655,53.358000000000004,33.198499999999996,57.714,49.48866666666667,-0.03849999999999998,-0.10949999999999993,0.10757000000000001,0.10747000000000001,0.0,205.25,205.20499999999998,202.23666666666668,202.23666666666668,0.0,0.0
1,0.0,0.0,0.0,1.0,1.0,0.0,0.0,1.0,0.0,100.0,1.0,1.1856,26.0,0.0,0.0,0.0,59.999996,0.0,26.0,26.0,26.0,26.0,-0.07944444444444443,0.31889999999999996,0.2222,292.847,-2.6531,-2.70725,-1.5462,-1.3691,-272.41,215.7825,190.968125,0.0,0.0,0.0,0.0,0.0035,-5.498166666666667,-5.498166666666667,-0.4798,-1.037,-0.05233333333333334,-0.4590000000000001,65.66,-0.0385,-0.17815,1.0500000000000007,100.0,1.0,1.0,202.23666666666668,0.0,0.0,0.0,0.0,0.0,0.0,0.0,8572.1,0.0,55.0,5.0,236.34333333333333,1.0,0.0,0.0,0.0,0.0,0.0,0.0,0.0,0.053999999999998494,0.053999999999998494,0.0,0.0,1.0,55.0,616.79921,10000.0,85.000001,85.000001,85.000001,85.000001,395.0,0.0,0.0,0.0,1.0,166.665,54.275999999999996,54.275999999999996,47.882,47.882,34.0,-25.447499999999998,16.18,-36.68666666666667,31.02,0.0,1782.87,0.6950000000000003,100.0,27.293,26.92,42.43,41.99,0.0,0.0,100.0,0.0,0.0,0.0,0.0,2954.5714285714284,2469.3,4610.25,5187.1,305.884,306.9096666666667,313.551,311.75175,21.7851,20.519,21.7887,21.3309,314.999998,314.999998,324.999988,324.999988,99.55884285714286,99.50718333333333,99.56554285714286,99.54562857142857,-0.00649999999999995,-0.1343333333333332,-0.16416666666666666,0.0525,-0.04833333333333201,-0.036666666666668846,1.3409999999999997,1.3695,37.157,29.243666666666666,37.179,34.3185,56.244,34.474000000000004,59.169,51.7795,54.168,33.658,57.7935,50.129999999999995,53.341,33.2335,57.756,49.55166666666666,-0.013000000000000012,-0.1280000000000001,0.1087,0.11260500000000001,0.0,205.76,205.64,202.23666666666668,202.23666666666668,0.0,0.0
2,0.0,0.0,0.0,1.0,1.0,0.0,0.0,1.0,0.0,100.0,1.0,1.1856,26.0,0.0,0.0,0.0,59.999996,0.0,26.0,26.0,26.0,26.0,-0.10744444444444445,0.28380000000000005,-0.11093333333333333,294.159,-2.6201,-2.6790000000000003,-1.5127000000000002,-1.5308000000000002,-268.86,215.79500000000002,190.948125,0.0,0.0,0.0,0.0,0.005566666666666667,-5.498166666666667,-5.498166666666667,-0.5653,0.6223333333333334,-0.03055555555555589,1.5310000000000001,65.807,-0.058,-0.25930000000000003,1.4060000000000006,100.0,1.0,1.0,203.50666666666666,0.0,0.0,0.0,0.0,0.0,0.0,0.0,8625.9,0.0,55.0,5.0,236.87666666666667,0.0,0.0,0.0,0.0,0.0,0.0,0.0,0.0,0.10800000000000054,0.10800000000000054,0.0,0.0,0.0,55.0,616.79921,10000.0,85.000001,85.000001,85.000001,85.000001,395.0,0.0,0.0,0.0,1.0,166.665,52.49,52.49,50.858000000000004,50.858000000000004,34.0,-29.9525,19.349999999999998,-26.933333333333337,17.8675,0.0,1782.816,0.7250000000000014,100.0,28.028,27.036,41.966,41.269999999999996,0.0,0.0,100.0,0.0,0.0,0.0,0.0,3374.857142857143,2933.0,3610.5,3395.0,304.5475,305.2986666666667,316.0455,316.4585,21.7958,20.5243,21.799599999999998,21.34,314.999998,314.999998,324.999988,324.999988,99.55885714285715,99.50718333333333,99.56568571428572,99.54575714285714,-0.01574999999999993,-0.14266666666666672,-0.20316666666666666,0.025500000000000002,-0.02833333333332888,-0.06333333333333258,1.729,1.7825,37.224000000000004,29.277,37.248000000000005,34.375,56.230000000000004,34.516,59.2065,51.8345,54.153999999999996,33.697,57.828,50.183,53.326,33.271,57.7875,49.604,-0.02400000000000002,-0.129,0.102565,0.108215,0.0,206.175,206.09,203.50666666666666,203.50666666666666,0.0,0.0
3,0.0,0.0,0.0,1.0,1.0,0.0,0.0,1.0,0.0,100.0,1.0,1.1856,26.0,0.0,0.0,0.0,59.999996,0.0,26.0,26.0,26.0,26.0,-0.12711111111111106,0.2836000000000001,0.1405,293.32,-2.6433,-2.7075,-1.5047000000000001,-1.495,-265.9,215.805,190.93025,0.0,0.0,0.0,0.0,0.007266666666666668,-5.498166666666667,-5.498166666666667,-0.5038,0.6093333333333334,-0.009333333333333194,-0.6619999999999999,65.944,-0.0751,-0.18782500000000002,1.08,100.0,1.0,1.0,203.4,0.0,0.0,0.0,0.0,0.0,0.0,0.0,8621.4,0.0,55.0,5.0,237.36666666666667,1.0,0.0,0.0,0.0,0.0,0.0,0.0,0.0,0.1529999999999987,0.1529999999999987,0.0,0.0,1.0,55.0,616.79921,10000.0,85.000001,85.000001,85.000001,85.000001,395.0,0.0,0.0,0.0,1.0,333.33500000000004,53.513,53.513,47.913,47.913,34.0,-25.4625,18.982,-35.41,24.759999999999998,0.0,1782.77,0.7650000000000006,100.0,27.77,27.028,42.17,41.542,0.0,0.0,100.0,0.0,0.0,0.0,0.0,2905.714285714286,2927.3,4441.5,4261.3,306.018,305.51666666666665,313.987,314.232,21.8045,20.529,21.8089,21.3479,314.999998,314.999998,324.999988,324.999988,99.55885714285715,99.50721666666666,99.5658,99.54588571428572,-0.02124999999999999,-0.1519999999999999,-0.19166666666666665,0.03333333333333334,-0.03166666666666629,-0.05333333333332746,1.452,1.4715,37.278,29.305999999999997,37.305,34.4245,56.215,34.5545,59.2415,51.891999999999996,54.138999999999996,33.732,57.861,50.2385,53.311,33.3045,57.818,49.658,-0.015000000000000013,-0.13949999999999996,0.10487500000000001,0.10798,0.0,206.64499999999998,206.56,203.4,203.4,0.0,0.0
4,0.0,0.0,0.0,1.0,1.0,0.0,0.0,1.0,0.0,100.0,1.0,1.1856,26.0,0.0,0.0,0.0,59.999996,0.0,26.0,26.0,26.0,26.0,-0.1253333333333334,0.29720000000000013,-0.006033333333333334,293.594,-2.6725,-2.776125,-1.447,-1.6109,-262.53,215.8125,190.91075,0.0,0.0,0.0,0.0,0.009233333333333333,-5.498166666666667,-5.498166666666667,-0.5304,-0.871,-0.06955555555555559,-1.5150000000000001,66.09100000000001,-0.0853,-0.231775,1.4559999999999995,100.0,1.0,1.0,203.98000000000002,0.0,0.0,0.0,0.0,0.0,0.0,0.0,8645.9,0.0,55.0,5.0,237.9,0.0,0.0,0.0,0.0,0.0,0.0,0.0,0.0,0.20400000000000063,0.20400000000000063,0.0,0.0,0.0,55.0,616.79921,10000.0,85.000001,85.000001,85.000001,85.000001,395.0,0.0,0.0,0.0,1.0,166.665,53.345,53.345,48.706,48.706,34.0,-30.0425,18.428,-33.07333333333334,21.8475,0.0,1782.719,0.8249999999999993,100.0,27.477,26.75,42.853,41.766999999999996,0.0,0.0,100.0,0.0,0.0,0.0,0.0,3263.4285714285716,2820.2,4163.375,3800.0,305.0645,305.7076666666667,314.723,315.3335,21.8143,20.534,21.8196,21.3568,314.999998,314.999998,324.999988,324.999988,99.55885714285715,99.50723333333333,99.56595714285714,99.54602857142856,-0.03925000000000001,-0.16366666666666663,-0.224,0.0165,-0.061666666666667425,-0.021666666666668277,1.5459999999999998,1.595,37.339,29.337666666666664,37.372,34.4805,56.199,34.5955,59.2845,51.952,54.123999999999995,33.769999999999996,57.900999999999996,50.295500000000004,53.295,33.341,57.855000000000004,49.714333333333336,-0.010000000000000009,-0.13549999999999995,0.105145,0.11145500000000001,0.0,207.065,206.92000000000002,203.98000000000002,203.98000000000002,0.0,0.0
5,0.0,0.0,0.0,1.0,1.0,0.0,0.0,1.0,0.0,100.0,1.0,1.1856,26.0,0.0,0.0,0.0,59.999996,0.0,26.0,26.0,26.0,26.0,-0.1323333333333333,0.30720000000000014,-0.03183333333333333,293.854,-2.6882,-2.7435,-1.4904,-1.6175000000000002,-258.96,215.815,190.88975,0.0,0.0,0.0,0.0,0.011300000000000001,-5.498166666666667,-5.498166666666667,-0.5381,0.4186666666666667,-0.07144444444444442,-0.472,66.245,-0.0978,-0.218625,1.362,100.0,1.0,1.0,204.52666666666667,0.0,0.0,0.0,0.0,0.0,0.0,0.0,8669.2,0.0,55.0,5.0,238.45333333333332,1.0,0.0,0.0,0.0,0.0,0.0,0.0,0.0,0.2579999999999991,0.2579999999999991,0.0,0.0,1.0,55.0,616.79921,10000.0,85.000001,85.000001,85.000001,85.000001,395.0,0.0,0.0,0.0,1.0,166.665,53.497,53.497,49.347,49.347,34.0,-29.9025,18.184,-32.903333333333336,21.105,0.0,1782.666,0.5949999999999989,100.0,27.574,26.605,42.468,41.175,0.0,0.0,100.0,0.0,0.0,0.0,0.0,3236.4285714285716,2795.3,4066.875,3910.0,305.0855,305.8043333333333,314.972,315.1395,21.8248,20.5394,21.8306,21.366,314.999998,314.999998,324.999988,324.999988,99.55887142857142,99.50723333333333,99.5661,99.54617142857143,-0.03699999999999992,-0.15766666666666662,-0.22983333333333333,-0.012833333333333334,-0.061666666666667425,-0.01833333333333087,1.5594999999999999,1.6185,37.405,29.371000000000002,37.441,34.5375,56.184,34.6395,59.3255,52.0115,54.11,33.8105,57.939499999999995,50.3525,53.28,33.3795,57.8905,49.769999999999996,-0.03200000000000003,-0.1180000000000001,0.10734,0.09595000000000001,0.0,207.565,207.42000000000002,204.52666666666667,204.52666666666667,0.0,0.0
6,0.0,0.0,0.0,1.0,1.0,0.0,0.0,1.0,0.0,100.0,1.0,1.1856,26.0,0.0,0.0,0.0,59.999996,0.0,26.0,26.0,26.0,26.0,-0.15555555555555556,0.29380000000000006,0.004933333333333334,293.594,-2.6321,-2.80775,-1.5391,-1.5829,-255.98,215.8175,190.871375,0.0,0.0,0.0,0.0,0.013066666666666666,-5.498166666666667,-5.498166666666667,-0.525,0.007,-0.07299999999999995,0.673,66.376,-0.1014,-0.20247500000000002,1.154,100.0,1.0,1.0,204.7866666666667,0.0,0.0,0.0,0.0,0.0,0.0,0.0,8680.1,0.0,55.0,5.0,238.92333333333335,0.0,0.0,0.0,0.0,0.0,0.0,0.0,0.0,0.3030000000000008,0.3030000000000008,0.0,0.0,0.0,55.0,616.79921,10000.0,85.000001,85.000001,85.000001,85.000001,395.0,0.0,0.0,0.0,1.0,333.33500000000004,53.635,53.635,48.584,48.584,34.0,-28.42,19.008,-34.64,22.775,0.0,1782.62,0.615000000000002,100.0,27.587,26.334,42.763,41.253,0.0,0.0,100.0,0.0,0.0,0.0,0.0,3123.0,2882.5,4236.875,4097.8,305.2605,305.69033333333334,314.47825,314.7225,21.8335,20.5439,21.8399,21.3739,314.999998,314.999998,324.999988,324.999988,99.55887142857142,99.50726666666667,99.56622857142857,99.5463,-0.03675000000000006,-0.16366666666666663,-0.2095,0.0016666666666666668,-0.041666666666671404,-0.060000000000002274,1.5015,1.561,37.459,29.399,37.5,34.587,56.171,34.676,59.362,52.065,54.098,33.844,57.9735,50.403999999999996,53.266999999999996,33.411500000000004,57.922,49.82033333333334,-0.026000000000000023,-0.11749999999999994,0.10659,0.10856500000000001,0.0,207.95499999999998,207.85500000000002,204.7866666666667,204.7866666666667,0.0,0.0
7,0.0,0.0,0.0,1.0,1.0,0.0,0.0,1.0,0.0,100.0,1.0,1.1856,26.0,0.0,0.0,0.0,59.999996,0.0,26.0,26.0,26.0,26.0,-0.11622222222222212,0.2811000000000001,0.0064,293.488,-2.5946,-2.803875,-1.4979,-1.6303,-252.39,215.8125,190.849625,0.0,0.0,0.0,0.0,0.015133333333333335,-5.498166666666667,-5.498166666666667,-0.5348,0.07,-0.06522222222222229,1.1059999999999999,66.529,-0.10110000000000001,-0.220975,0.9579999999999993,100.0,1.0,1.0,205.32999999999998,0.0,0.0,0.0,0.0,0.0,0.0,0.0,8703.2,0.0,55.0,5.0,239.4766666666667,1.0,0.0,0.0,0.0,0.0,0.0,0.0,0.0,0.3569999999999993,0.3569999999999993,0.0,0.0,1.0,55.0,616.79921,10000.0,85.000001,85.000001,85.000001,85.000001,395.0,0.0,0.0,0.0,1.0,166.665,53.131,53.131,48.95,48.95,34.0,-26.71,20.922,-32.18333333333334,23.265,0.0,1782.566,0.10999999999999943,100.0,27.956,26.613,42.867000000000004,41.46,0.0,0.0,100.0,0.0,0.0,0.0,0.0,3146.857142857143,2937.3,4039.0,3974.1000000000004,305.1,305.48266666666666,314.94175,314.9875,21.844,20.5493,21.8511,21.3834,314.999998,314.999998,324.999988,324.999988,99.55887142857142,99.50728333333333,99.56638571428572,99.54644285714286,0.004999999999999893,-0.127,-0.21266666666666667,0.015166666666666667,-0.04333333333332945,-0.03833333333332689,1.5364999999999998,1.5725,37.525,29.433,37.569,34.646,56.156,34.7195,59.405,52.1285,54.084,33.884,58.0135,50.4645,53.253,33.45,57.959,49.879333333333335,-0.06799999999999995,-0.08099999999999996,0.10270000000000001,0.11956000000000001,0.0,208.41,208.32,205.32999999999998,205.32999999999998,0.0,0.0
8,0.0,0.0,0.0,1.0,1.0,0.0,0.0,1.0,0.0,100.0,1.0,1.1856,26.0,0.0,0.0,0.0,59.999996,0.0,26.0,26.0,26.0,26.0,-0.09544444444444444,0.2841,0.00036666666666666667,293.472,-2.6755,-2.7353750000000003,-1.4777,-1.6219999999999999,-249.19,215.8075,190.830125,0.0,0.0,0.0,0.0,0.017,-5.498166666666667,-5.498166666666667,-0.5366000000000001,-0.3586666666666667,-0.0515555555555558,0.6259999999999999,66.667,-0.0884,-0.217975,0.4939999999999998,100.0,1.0,1.0,205.68333333333334,0.0,0.0,0.0,0.0,0.0,0.0,0.0,8718.2,0.0,55.0,5.0,239.97,0.0,0.0,0.0,0.0,0.0,0.0,0.0,0.0,0.40500000000000114,0.40500000000000114,0.0,0.0,0.0,55.0,616.79921,10000.0,85.000001,85.000001,85.000001,85.000001,395.0,0.0,0.0,0.0,1.0,333.33500000000004,53.497,53.497,48.355000000000004,48.355000000000004,34.0,-25.8425,21.032,-31.689999999999998,24.747500000000002,0.0,1782.518,0.019999999999999574,100.0,27.633,26.646,42.966,41.639,0.0,0.0,100.0,0.0,0.0,0.0,0.0,3017.142857142857,2989.6,4079.25,4074.8,305.595,305.382,314.813,314.72125,21.8532,20.5541,21.861,21.3918,314.999998,314.999998,324.999988,324.999988,99.55887142857142,99.5073,99.56651428571429,99.54657142857143,0.009250000000000203,-0.1186666666666667,-0.19683333333333336,0.029166666666666667,-0.04333333333332945,-0.04833333333333201,1.5150000000000001,1.54,37.582,29.46333333333333,37.631,34.699,56.141,34.7575,59.443,52.185,54.069,33.919,58.049,50.519,53.236999999999995,33.483000000000004,57.992,49.93233333333333,-0.07099999999999995,-0.07200000000000006,0.105325,0.10408,0.0,208.815,208.76,205.68333333333334,205.68333333333334,0.0,0.0
9,0.0,0.0,0.0,1.0,1.0,0.0,0.0,1.0,0.0,100.0,1.0,1.1856,26.0,0.0,0.0,0.0,59.999996,0.0,26.0,26.0,26.0,26.0,-0.0888888888888889,0.2945,0.023200000000000002,293.259,-2.5956,-2.746625,-1.5277,-1.5795,-245.99,215.8,190.8105,0.0,0.0,0.0,0.0,0.018866666666666667,-5.498166666666667,-5.498166666666667,-0.5373,0.42833333333333334,-0.06077777777777804,0.855,66.801,-0.0738,-0.21380000000000002,0.3799999999999999,100.0,1.0,1.0,206.15333333333334,0.0,0.0,0.0,0.0,0.0,0.0,0.0,8738.0,0.0,55.0,5.0,240.45666666666668,1.0,0.0,0.0,0.0,0.0,0.0,0.0,0.0,0.4529999999999994,0.4529999999999994,0.0,0.0,1.0,55.0,616.79921,10000.0,85.000001,85.000001,85.000001,85.000001,395.0,0.0,0.0,0.0,1.0,333.33500000000004,52.826,52.826,48.935,48.935,34.0,-26.537499999999998,22.198,-30.64,24.64,0.0,1782.469,-0.14499999999999957,100.0,27.995,26.837,42.753,41.618,0.0,0.0,100.0,0.0,0.0,0.0,0.0,3233.857142857143,3011.2,4058.0,4072.0,304.8995,305.2966666666667,314.9405,314.8025,21.8625,20.5591,21.8709,21.400199999999998,314.999998,314.999998,324.999988,324.999988,99.55888571428571,99.5073,99.56665714285714,99.5467,0.027249999999999996,-0.09733333333333327,-0.17133333333333334,0.042333333333333334,-0.03499999999999659,-0.041666666666671404,1.548,1.566,37.64,29.494333333333334,37.693,34.751,56.126999999999995,34.796,59.479,52.24,54.056,33.954499999999996,58.082499999999996,50.5715,53.223,33.516999999999996,58.022999999999996,49.984,-0.08799999999999997,-0.058499999999999996,0.100635,0.10683000000000001,0.0,209.22500000000002,209.195,206.15333333333334,206.15333333333334,0.0,0.0
10,0.0,0.0,0.0,1.0,1.0,0.0,0.0,1.0,0.0,100.0,1.0,1.1856,26.0,0.0,0.0,0.0,59.999996,0.0,26.0,26.0,26.0,26.0,-0.05644444444444441,0.2921,0.021966666666666666,293.213,-2.6651,-2.713625,-1.5017,-1.5554999999999999,-242.38,215.79000000000002,190.7885,0.0,0.0,0.0,0.0,0.020966666666666668,-5.498166666666667,-5.498166666666667,-0.5255000000000001,-0.4826666666666667,-0.024222222222222367,1.7269999999999999,66.956,-0.054900000000000004,-0.21085,0.04999999999999982,100.0,1.0,1.0,206.5,0.0,0.0,0.0,0.0,0.0,0.0,0.0,8752.8,0.0,55.0,5.0,241.01,0.0,0.0,0.0,0.0,0.0,0.0,1.0,0.0,0.5069999999999979,0.5069999999999979,0.0,0.0,0.0,55.0,616.79921,10000.0,85.000001,85.000001,85.000001,85.000001,395.0,0.0,0.0,0.0,1.0,166.665,53.467,53.467,48.141,48.141,34.0,-23.8725,21.728,-30.33,27.59,0.0,1782.417,-0.259999999999998,100.0,27.809,26.788,43.015,42.086,0.0,0.0,100.0,0.0,0.0,0.0,0.0,2954.5714285714284,2965.7,4148.875,4264.1,305.7765,305.501,314.6585,314.30725,21.872799999999998,20.5646,21.8821,21.4098,314.999998,314.999998,324.999988,324.999988,99.55888571428571,99.50731666666667,99.56681428571429,99.54685714285715,0.04125000000000023,-0.09066666666666667,-0.15066666666666667,0.07083333333333333,-0.046666666666666856,-0.04333333333332945,1.5105,1.4925,37.705,29.528666666666666,37.763,34.8115,56.111000000000004,34.837,59.522,52.3055,54.041,33.992,58.123,50.6345,53.207,33.553,58.06,50.04566666666666,-0.09150000000000003,-0.0535000000000001,0.09831500000000001,0.11607,0.0,209.68,209.675,206.5,206.5,0.0,0.0
11,0.0,0.0,0.0,1.0,1.0,0.0,0.0,1.0,0.0,100.0,1.0,1.1856,26.0,0.0,0.0,0.0,59.999996,0.0,26.0,26.0,26.0,26.0,-0.04355555555555557,0.2824,-0.054533333333333336,293.64,-2.6755,-2.70675,-1.5567,-1.5299,-239.16,215.7775,190.768875,0.0,0.0,0.0,0.0,0.022600000000000002,-5.498166666666667,-5.498166666666667,-0.5545,-0.16266666666666665,-0.002666666666666817,0.6970000000000001,67.087,-0.038900000000000004,-0.22935,-0.07399999999999984,100.0,1.0,1.0,207.12,0.0,0.0,0.0,0.0,0.0,0.0,0.0,8779.1,0.0,55.0,5.0,241.48333333333335,1.0,0.0,0.0,0.0,0.0,0.0,1.0,0.0,0.5549999999999997,0.5549999999999997,0.0,0.0,1.0,55.0,616.79921,10000.0,85.000001,85.000001,85.000001,85.000001,395.0,0.0,0.0,0.0,1.0,166.665,53.238,53.238,49.179,49.179,34.0,-24.4775,23.387999999999998,-27.630000000000003,25.1625,0.0,1782.368,-0.3249999999999993,100.0,27.533,26.918,42.589,42.025999999999996,0.0,0.0,100.0,0.0,0.0,0.0,0.0,3048.714285714286,3077.9,3820.625,3956.8,305.4935,305.1116666666667,315.547,315.08875,21.8819,20.5696,21.8918,21.4183,314.999998,314.999998,324.999988,324.999988,99.5589,99.50731666666667,99.56694285714286,99.54698571428571,0.05074999999999985,-0.07366666666666677,-0.1505,0.08633333333333333,-0.045000000000001705,-0.051666666666669414,1.6,1.607,37.762,29.560000000000002,37.824,34.864,56.097,34.8735,59.5555,52.361000000000004,54.027,34.025999999999996,58.153999999999996,50.688,53.193,33.585,58.088499999999996,50.098,-0.09750000000000003,-0.052999999999999936,0.10898500000000001,0.106145,0.0,210.085,210.09,207.12,207.12,0.0,0.0
12,0.0,0.0,0.0,1.0,1.0,0.0,0.0,1.0,0.0,100.0,1.0,1.1856,26.0,0.0,0.0,0.0,59.999996,0.0,26.0,26.0,26.0,26.0,-0.02255555555555555,0.2913000000000001,0.006833333333333334,293.198,-2.6949,-2.718125,-1.5292,-1.5782,-235.93,215.76749999999998,190.74825,0.0,0.0,0.0,0.0,0.025466666666666665,-5.498166666666667,-5.498166666666667,-0.5441,0.3206666666666667,-0.00955555555555554,0.7410000000000001,67.223,-0.0207,-0.20545000000000002,-0.1979999999999995,100.0,1.0,1.0,207.39,0.0,0.0,0.0,0.0,0.0,0.0,0.0,8790.5,0.0,55.0,5.0,241.97333333333336,0.0,0.0,0.0,0.0,0.0,0.0,1.0,0.0,0.602999999999998,0.602999999999998,0.0,0.0,0.0,55.0,616.79921,10000.0,85.000001,85.000001,85.000001,85.000001,395.0,0.0,0.0,0.0,1.0,333.33500000000004,53.055,53.055,48.309,48.309,34.0,-24.2175,24.235999999999997,-29.31,28.325,0.0,1782.32,-0.3299999999999983,100.0,27.538,27.09,42.496,41.984,0.0,0.0,100.0,0.0,0.0,0.0,0.0,3078.0,3113.5,4152.5,4157.8,305.3935,304.98066666666665,314.7175,314.59525,21.891,20.5746,21.901699999999998,21.4267,314.999998,314.999998,324.999988,324.999988,99.5589,99.50733333333334,99.56707142857142,99.54712857142857,0.06800000000000006,-0.06400000000000006,-0.12716666666666668,0.098,-0.045000000000001705,-0.045000000000001705,1.54,1.5274999999999999,37.818,29.59133333333333,37.885,34.917,56.083,34.91,59.591,52.417,54.013999999999996,34.0595,58.187,50.7415,53.179,33.6175,58.119,50.150666666666666,-0.09650000000000003,-0.05449999999999999,0.112445,0.10312,0.0,210.515,210.535,207.39,207.39,0.0,0.0
13,0.0,0.0,0.0,1.0,1.0,0.0,0.0,1.0,0.0,100.0,1.0,1.1856,26.0,0.0,0.0,0.0,59.999996,0.0,26.0,26.0,26.0,26.0,0.018000000000000016,0.27470000000000017,0.045700000000000005,292.786,-2.6712,-2.714625,-1.5613000000000001,-1.5608,-232.3,215.7525,190.72525,0.0,0.0,0.0,0.0,0.0268,-5.498166666666667,-5.498166666666667,-0.538,-0.15933333333333335,-0.00755555555555576,1.262,67.374,-0.0099,-0.21352500000000002,-0.2779999999999996,100.0,1.0,1.0,207.76999999999998,0.0,0.0,0.0,0.0,0.0,0.0,0.0,8806.5,0.0,55.0,5.0,242.51999999999998,1.0,0.0,0.0,0.0,0.0,0.0,1.0,0.0,0.657,0.657,0.0,0.0,1.0,55.0,616.79921,10000.0,85.000001,85.000001,85.000001,85.000001,395.0,0.0,0.0,0.0,1.0,166.665,52.75,52.75,48.065,48.065,34.0,-22.9,25.45,-28.85333333333333,30.0125,0.0,1782.267,-0.3299999999999983,100.0,27.886,27.34,42.854,42.503,0.0,0.0,100.0,0.0,0.0,0.0,0.0,3077.0,3101.3,4142.5,4308.4,305.3845,305.0176666666667,314.695,314.22125,21.9012,20.5803,21.9128,21.4364,314.999998,314.999998,324.999988,324.999988,99.55891428571428,99.50733333333334,99.56724285714286,99.54728571428572,0.09375,-0.03133333333333321,-0.10716666666666667,0.10683333333333334,-0.03999999999999915,-0.04833333333333201,1.5044999999999997,1.4825,37.882,29.627333333333333,37.955,34.9775,56.069,34.951,59.6325,52.483000000000004,54.001000000000005,34.097,58.226,50.805,53.165,33.6535,58.1545,50.212666666666664,-0.10999999999999999,-0.03550000000000009,0.10729500000000002,0.09825,0.0,210.97500000000002,210.985,207.76999999999998,207.76999999999998,0.0,0.0
14,0.0,0.0,0.0,1.0,1.0,0.0,0.0,1.0,0.0,100.0,1.0,1.1856,26.0,0.0,0.0,0.0,59.999996,0.0,26.0,26.0,26.0,26.0,0.01633333333333331,0.28070000000000017,-0.015233333333333335,292.984,-2.6948,-2.71675,-1.5624,-1.5486,-229.06,215.7425,190.70525,0.0,0.0,0.0,0.0,0.0287,-5.498166666666667,-5.498166666666667,-0.5501,-0.10066666666666667,0.013666666666666716,1.1150000000000002,67.506,0.0027,-0.22817500000000002,-0.29000000000000004,100.0,1.0,1.0,208.26999999999998,0.0,0.0,0.0,0.0,0.0,0.0,0.0,8827.8,0.0,55.0,5.0,242.99333333333334,0.0,0.0,0.0,0.0,0.0,0.0,1.0,0.0,0.7049999999999983,0.7049999999999983,0.0,0.0,0.0,55.0,616.79921,10000.0,85.000001,85.000001,85.000001,85.000001,395.0,0.0,0.0,0.0,1.0,333.33500000000004,52.719,52.719,48.309,48.309,34.0,-22.9425,25.631999999999998,-26.839999999999996,29.4375,0.0,1782.218,-0.35999999999999943,100.0,27.817,27.48,42.719,42.615,0.0,0.0,100.0,0.0,0.0,0.0,0.0,3011.0,3155.6,3981.125,4147.0,305.5905,304.76666666666665,315.1125,314.6085,21.9102,20.5855,21.9226,21.445,314.999998,314.999998,324.999988,324.999988,99.55892857142857,99.50735,99.56737142857143,99.54741428571428,0.08400000000000007,-0.04233333333333311,-0.0975,0.129,-0.03999999999999915,-0.05833333333333002,1.5474999999999999,1.5325,37.939,29.659,38.016,35.031,56.057,34.987,59.667,52.54,53.989000000000004,34.1305,58.257999999999996,50.86,53.152,33.6855,58.1835,50.266666666666666,-0.10150000000000003,-0.050999999999999934,0.10122500000000001,0.11263000000000001,0.0,211.37,211.39499999999998,208.26999999999998,208.26999999999998,0.0,0.0
15,0.0,0.0,0.0,1.0,1.0,0.0,0.0,1.0,0.0,100.0,1.0,1.1856,26.0,0.0,0.0,0.0,59.999996,0.0,26.0,26.0,26.0,26.0,0.04066666666666685,0.2825,-0.018266666666666667,292.938,-2.7025,-2.677625,-1.5829,-1.5553,-225.62,215.73000000000002,190.6835,0.0,0.0,0.0,0.0,0.0307,-5.498166666666667,-5.498166666666667,-0.5412,0.23833333333333334,0.032444444444444276,-0.714,67.646,0.009300000000000001,-0.2104,-0.3039999999999994,100.0,1.0,1.0,208.66666666666669,0.0,0.0,0.0,0.0,0.0,0.0,0.0,8844.6,0.0,55.0,5.0,243.49666666666667,1.0,0.0,0.0,0.0,0.0,0.0,1.0,0.0,0.7560000000000002,0.7560000000000002,0.0,0.0,1.0,55.0,616.79921,10000.0,85.000001,85.000001,85.000001,85.000001,395.0,0.0,0.0,0.0,1.0,166.665,52.902,52.902,48.233000000000004,48.233000000000004,34.0,-22.68,24.462,-27.593333333333334,29.97,0.0,1782.168,-0.33999999999999986,100.0,27.652,27.744,42.493,42.883,0.0,0.0,100.0,0.0,0.0,0.0,0.0,3018.285714285714,3018.6,4061.125,4215.7,305.7645,305.01666666666665,315.013,314.32675,21.9198,20.5909,21.933,21.4541,314.999998,314.999998,324.999988,324.999988,99.55892857142857,99.50735,99.5675,99.54755714285714,0.08800000000000008,-0.036666666666666625,-0.09566666666666668,0.12133333333333333,-0.04833333333333201,-0.04333333333332945,1.54,1.5125,37.998999999999995,29.692999999999998,38.081,35.088,56.044,35.025,59.703,52.6015,53.977000000000004,34.1655,58.2915,50.919,53.138999999999996,33.719,58.214,50.324333333333335,-0.10649999999999993,-0.0475000000000001,0.096985,0.10836000000000001,0.0,211.85000000000002,211.84,208.66666666666669,208.66666666666669,0.0,0.0
16,0.0,0.0,0.0,1.0,1.0,0.0,0.0,1.0,0.0,100.0,1.0,1.1856,26.0,0.0,0.0,0.0,59.999996,0.0,26.0,26.0,26.0,26.0,0.03577777777777791,0.27470000000000017,-0.011933333333333334,292.847,-2.7629,-2.6275,-1.558,-1.5554999999999999,-222.37,215.7175,190.66275,0.0,0.0,0.0,0.0,0.032600000000000004,-5.498166666666667,-5.498166666666667,-0.556,-0.618,0.020777777777777784,-1.184,67.778,0.015700000000000002,-0.22287500000000002,-0.2239999999999993,100.0,1.0,1.0,209.05666666666667,0.0,0.0,0.0,0.0,0.0,0.0,0.0,8861.2,0.0,55.0,5.0,243.97333333333336,0.0,0.0,0.0,0.0,0.0,0.0,1.0,0.0,0.8039999999999985,0.8039999999999985,0.0,0.0,0.0,55.0,616.79921,10000.0,85.000001,85.000001,85.000001,85.000001,395.0,0.0,0.0,0.0,1.0,333.33500000000004,52.765,52.765,47.913,47.913,34.0,-24.5175,24.58,-27.28,29.56,0.0,1782.119,-0.1750000000000007,100.0,27.35,27.75,42.766,42.987,0.0,0.0,100.0,0.0,0.0,0.0,0.0,3154.0,3114.8,4075.0,4079.4,305.4515,304.81,314.96025,314.63975,21.9287,20.5961,21.9429,21.462699999999998,314.999998,314.999998,324.999988,324.999988,99.55894285714285,99.50735,99.56764285714286,99.5477,0.08375000000000021,-0.04200000000000004,-0.09283333333333334,0.1345,-0.04999999999999716,-0.036666666666668846,1.5335,1.502,38.054,29.72533333333333,38.143,35.1415,56.03,35.061,59.7395,52.658500000000004,53.963,34.199,58.325,50.974000000000004,53.123999999999995,33.751,58.245,50.37833333333333,-0.09250000000000003,-0.062000000000000055,0.10318000000000001,0.111045,0.0,212.22,212.215,209.05666666666667,209.05666666666667,0.0,0.0
17,0.0,0.0,0.0,1.0,1.0,0.0,0.0,1.0,0.0,100.0,1.0,1.1856,26.0,0.0,0.0,0.0,59.999996,0.0,26.0,26.0,26.0,26.0,0.013222222222222246,0.28290000000000015,0.0,292.587,-2.7151,-2.6185,-1.5937999999999999,-1.5205000000000002,-218.91,215.70749999999998,190.640375,0.0,0.0,0.0,0.0,0.0346,-5.498166666666667,-5.498166666666667,-0.5507000000000001,0.315,-0.0021111111111111747,0.5340000000000003,67.917,0.0125,-0.21005000000000001,-0.12600000000000033,100.0,1.0,1.0,209.47,0.0,0.0,0.0,0.0,0.0,0.0,0.0,8878.6,0.0,55.0,5.0,244.47,1.0,0.0,0.0,0.0,0.0,0.0,1.0,0.0,0.8550000000000004,0.8550000000000004,0.0,0.0,1.0,55.0,616.79921,10000.0,85.000001,85.000001,85.000001,85.000001,395.0,0.0,0.0,0.0,1.0,166.665,52.475,52.475,47.882,47.882,34.0,-23.3425,24.706,-28.846666666666664,30.2,0.0,1782.069,-0.17999999999999972,100.0,27.982,27.778,42.727000000000004,42.817,0.0,0.0,100.0,0.0,0.0,0.0,0.0,3113.4285714285716,3137.0,4238.625,4228.6,305.3505,304.92333333333335,314.599,314.44725,21.938299999999998,20.6016,21.9533,21.4717,314.999998,314.999998,324.999988,324.999988,99.55895714285714,99.50736666666667,99.56778571428572,99.54784285714285,0.0987499999999999,-0.036666666666666625,-0.08766666666666667,0.13666666666666666,-0.023333333333326323,-0.04999999999999716,1.5259999999999998,1.5145,38.114999999999995,29.759999999999998,38.208,35.198499999999996,56.018,35.1,59.7755,52.7185,53.952,34.235,58.359,51.0315,53.111999999999995,33.7855,58.2755,50.434666666666665,-0.09999999999999998,-0.0605,0.09934000000000001,0.11399500000000001,0.0,212.655,212.685,209.47,209.47,0.0,0.0
18,0.0,0.0,0.0,1.0,1.0,0.0,0.0,1.0,0.0,100.0,1.0,1.1856,26.0,0.0,0.0,0.0,59.999996,0.0,26.0,26.0,26.0,26.0,-0.0021111111111110636,0.29370000000000007,-0.007966666666666667,292.48,-2.7364,-2.6029999999999998,-1.5991,-1.4754,-215.64,215.6975,190.61925,0.0,0.0,0.0,0.0,0.036500000000000005,-5.498166666666667,-5.498166666666667,-0.5601,-0.4373333333333333,0.010555555555555651,0.9710000000000001,68.048,0.0059,-0.222,-0.10999999999999943,100.0,1.0,1.0,209.85000000000002,0.0,0.0,0.0,0.0,0.0,0.0,0.0,8894.8,0.0,55.0,5.0,244.94333333333333,0.0,0.0,0.0,0.0,0.0,0.0,1.0,0.0,0.9029999999999987,0.9029999999999987,0.0,0.0,0.0,55.0,616.79921,10000.0,85.000001,85.000001,85.000001,85.000001,395.0,0.0,0.0,0.0,1.0,333.33500000000004,52.368,52.368,47.729,47.729,34.0,-23.875,26.112000000000002,-28.756666666666668,28.61,0.0,1782.019,-0.23499999999999943,100.0,27.863,27.669,43.011,43.083,0.0,0.0,100.0,0.0,0.0,0.0,0.0,3135.142857142857,3283.9,4121.5,4229.2,305.328,304.53366666666665,314.821,314.43975,21.9473,20.6067,21.9632,21.4804,314.999998,314.999998,324.999988,324.999988,99.55897142857143,99.50736666666667,99.56792857142857,99.54797142857143,0.09450000000000003,-0.03066666666666662,-0.10183333333333333,0.11966666666666667,-0.04999999999999716,-0.03999999999999915,1.5305,1.5325,38.171,29.792,38.269999999999996,35.2525,56.006,35.1355,59.8115,52.7765,53.94,34.268,58.3925,51.0875,53.099000000000004,33.817,58.306,50.489333333333335,-0.09799999999999998,-0.05400000000000005,0.1034,0.10414000000000001,0.0,213.05,213.055,209.85000000000002,209.85000000000002,0.0,0.0
19,0.0,0.0,0.0,1.0,1.0,0.0,0.0,1.0,0.0,100.0,1.0,1.1856,26.0,0.0,0.0,0.0,59.999996,0.0,26.0,26.0,26.0,26.0,0.0032222222222222374,0.2864,0.0694,291.992,-2.6532999999999998,-2.7015000000000002,-1.528,-1.4659,-212.17000000000002,215.6875,190.596625,0.0,0.0,0.0,0.0,0.038533333333333336,-5.498166666666667,-5.498166666666667,-0.5518000000000001,0.7653333333333334,0.010888888888888948,-0.7090000000000001,68.185,0.0066,-0.21365,-0.06599999999999984,100.0,1.0,1.0,210.26,0.0,0.0,0.0,0.0,0.0,0.0,0.0,8912.1,0.0,55.0,5.0,245.43666666666667,1.0,0.0,0.0,0.0,0.0,0.0,1.0,0.0,0.9540000000000006,0.9540000000000006,0.0,0.0,1.0,55.0,616.79921,10000.0,85.000001,85.000001,85.000001,85.000001,395.0,0.0,0.0,0.0,1.0,166.665,51.772999999999996,51.772999999999996,47.501,47.501,34.0,-24.412499999999998,24.868,-29.503333333333334,29.365000000000002,0.0,1781.97,-0.16000000000000014,100.0,28.307,28.331,42.819,43.18,0.0,0.0,100.0,0.0,0.0,0.0,0.0,3222.5714285714284,3119.0,4274.125,4366.6,305.076,304.603,314.4935,314.095,21.957,20.6124,21.9736,21.4895,314.999998,314.999998,324.999988,324.999988,99.55898571428571,99.50738333333334,99.56807142857143,99.54812857142858,0.08174999999999999,-0.057666666666666755,-0.10966666666666668,0.113,-0.045000000000001705,-0.03166666666666629,1.5074999999999998,1.508,38.230999999999995,29.827333333333335,38.335,35.3095,55.994,35.176,59.847,52.8365,53.929,34.3055,58.4255,51.1455,53.087,33.853,58.3365,50.54633333333334,-0.09399999999999997,-0.06699999999999995,0.10959,0.10522500000000001,0.0,213.51,213.505,210.26,210.26,0.0,0.0
20,0.0,0.0,0.0,1.0,1.0,0.0,0.0,1.0,0.0,100.0,1.0,1.1856,26.0,0.0,0.0,0.0,59.999996,0.0,26.0,26.0,26.0,26.0,0.016666666666666607,0.26639999999999997,0.044833333333333336,292.282,-2.7449,-2.66025,-1.5348000000000002,-1.588,-208.69,215.6775,190.574125,0.0,0.0,0.0,0.0,0.04053333333333333,-5.498166666666667,-5.498166666666667,-0.5535,-1.0183333333333333,0.012444444444444258,0.5420000000000003,68.324,0.0063,-0.22265000000000001,-0.09999999999999964,100.0,1.0,1.0,210.61666666666667,0.0,0.0,0.0,0.0,0.0,0.0,0.0,8927.3,0.0,55.0,5.0,245.94,0.0,0.0,0.0,0.0,0.0,0.0,0.0,0.0,1.004999999999999,1.004999999999999,0.0,0.0,0.0,55.0,616.79921,10000.0,85.000001,85.000001,85.000001,85.000001,395.0,0.0,0.0,0.0,1.0,333.33500000000004,52.689,52.689,47.073,47.073,34.0,-23.04,24.688,-28.339999999999996,31.055,0.0,1781.917,-0.129999999999999,100.0,27.998,27.872,43.582,43.535,0.0,0.0,100.0,0.0,0.0,0.0,0.0,2981.4285714285716,3124.7,4145.875,4254.2,305.815,304.976,314.6705,314.24375,21.9664,20.6178,21.9843,21.4988,314.999998,314.999998,324.999988,324.999988,99.55898571428571,99.50738333333334,99.56821428571429,99.54827142857143,0.08300000000000018,-0.043333333333333224,-0.099,0.1225,-0.03166666666666629,-0.03499999999999659,1.464,1.4695,38.29,29.861333333333334,38.402,35.3675,55.979,35.2145,59.887,52.899,53.914,34.3405,58.463,51.2055,53.072,33.8865,58.3705,50.605333333333334,-0.08650000000000002,-0.0685,0.10449000000000001,0.10999500000000001,0.0,213.9,213.89499999999998,210.61666666666667,210.61666666666667,0.0,0.0
21,0.0,0.0,0.0,1.0,1.0,0.0,0.0,1.0,0.0,100.0,1.0,1.1856,26.0,0.0,0.0,0.0,59.999996,0.0,26.0,26.0,26.0,26.0,0.0067777777777777715,0.27960000000000007,-0.05313333333333334,292.603,-2.714,-2.6656250000000004,-1.6026,-1.5473,-205.2,215.66750000000002,190.551125,0.0,0.0,0.0,0.0,0.04256666666666667,-5.498166666666667,-5.498166666666667,-0.5751000000000001,0.3046666666666667,-0.006666666666666821,-0.839,68.457,0.0025,-0.22240000000000001,0.008000000000000007,100.0,1.0,1.0,211.2266666666667,0.0,0.0,0.0,0.0,0.0,0.0,0.0,8953.2,0.0,55.0,5.0,246.41666666666666,1.0,0.0,0.0,0.0,0.0,0.0,0.0,0.0,1.056000000000001,1.056000000000001,0.0,0.0,1.0,55.0,616.79921,10000.0,85.000001,85.000001,85.000001,85.000001,395.0,0.0,0.0,0.0,1.0,166.665,52.353,52.353,48.096000000000004,48.096000000000004,34.0,-25.162499999999998,23.848,-28.606666666666662,27.387500000000003,0.0,1781.867,-0.19000000000000128,100.0,28.018,28.046,43.01,43.179,0.0,0.0,100.0,0.0,0.0,0.0,0.0,3220.714285714286,3045.9,4079.625,3995.6000000000004,305.2115,305.05833333333334,315.0385,314.97775,21.9759,20.6234,21.9946,21.5078,314.999998,314.999998,324.999988,324.999988,99.559,99.5074,99.56835714285714,99.54841428571429,0.07450000000000001,-0.05233333333333312,-0.1125,0.11683333333333333,-0.04999999999999716,-0.03999999999999915,1.589,1.582,38.349999999999994,29.896333333333335,38.466,35.4235,55.967,35.2535,59.920500000000004,52.9565,53.902,34.3765,58.494,51.2605,53.059,33.9215,58.399,50.659333333333336,-0.08950000000000002,-0.06699999999999995,0.10986000000000001,0.107395,0.0,214.35000000000002,214.32999999999998,211.2266666666667,211.2266666666667,0.0,0.0
22,0.0,0.0,0.0,1.0,1.0,0.0,0.0,1.0,0.0,100.0,1.0,1.1856,26.0,0.0,0.0,0.0,59.999996,0.0,26.0,26.0,26.0,26.0,0.020444444444444487,0.2753000000000001,0.008466666666666667,292.236,-2.6466,-2.717625,-1.5967,-1.5336,-201.91,215.6575,190.52875,0.0,0.0,0.0,0.0,0.04446666666666667,-5.498166666666667,-5.498166666666667,-0.5567,0.12266666666666667,0.0024444444444442492,-0.35199999999999987,68.588,-0.0009000000000000001,-0.2021,-0.02200000000000024,100.0,1.0,1.0,211.45666666666668,0.0,0.0,0.0,0.0,0.0,0.0,0.0,8962.8,0.0,55.0,5.0,246.88666666666666,0.0,0.0,0.0,0.0,0.0,0.0,0.0,0.0,1.1039999999999992,1.1039999999999992,0.0,0.0,0.0,55.0,616.79921,10000.0,85.000001,85.000001,85.000001,85.000001,395.0,0.0,0.0,0.0,1.0,333.33500000000004,52.551,52.551,47.119,47.119,34.0,-22.69,23.514000000000003,-30.956666666666663,29.655,0.0,1781.818,-0.26500000000000057,100.0,28.081,28.143,43.229,43.364000000000004,0.0,0.0,100.0,0.0,0.0,0.0,0.0,3040.285714285714,2974.3,4310.625,4301.0,305.663,305.14433333333335,314.45425,314.225,21.9849,20.6286,22.0045,21.5164,314.999998,314.999998,324.999988,324.999988,99.559,99.5074,99.5685,99.54855714285715,0.08250000000000002,-0.05966666666666676,-0.11183333333333333,0.1075,-0.03999999999999915,-0.036666666666668846,1.4899999999999998,1.4895,38.405,29.928666666666665,38.528,35.4775,55.955,35.29,59.957,53.013999999999996,53.891,34.4105,58.5285,51.316,53.047,33.954,58.43,50.71333333333333,-0.09950000000000003,-0.058499999999999996,0.10468500000000001,0.105715,0.0,214.765,214.72,211.45666666666668,211.45666666666668,0.0,0.0
23,0.0,0.0,0.0,1.0,1.0,0.0,0.0,1.0,0.0,100.0,1.0,1.1856,26.0,0.0,0.0,0.0,59.999996,0.0,26.0,26.0,26.0,26.0,0.009666666666666712,0.25460000000000016,-0.015000000000000001,292.221,-2.6771,-2.667875,-1.6497000000000002,-1.5086,-198.41,215.65,190.505375,0.0,0.0,0.0,0.0,0.046533333333333336,-5.498166666666667,-5.498166666666667,-0.5747,-0.2683333333333333,0.00477777777777777,0.383,68.72200000000001,0.0014,-0.22725,-0.08799999999999919,100.0,1.0,1.0,211.96333333333334,0.0,0.0,0.0,0.0,0.0,0.0,0.0,8984.3,0.0,55.0,5.0,247.37,1.0,0.0,0.0,0.0,0.0,0.0,0.0,0.0,1.1550000000000011,1.1550000000000011,0.0,0.0,1.0,55.0,616.79921,10000.0,85.000001,85.000001,85.000001,85.000001,395.0,0.0,0.0,0.0,1.0,333.33500000000004,51.834,51.834,47.989,47.989,34.0,-24.7725,25.34,-28.736666666666665,28.0375,0.0,1781.768,-0.23999999999999844,100.0,28.374,28.072,43.36,43.498000000000005,0.0,0.0,100.0,0.0,0.0,0.0,0.0,3261.857142857143,3186.9,4039.125,4078.7,304.966,304.7536666666667,315.11575,314.84125,21.9943,20.6342,22.015,21.5257,314.999998,314.999998,324.999988,324.999988,99.55901428571428,99.5074,99.56864285714286,99.5487,0.08725000000000005,-0.044333333333333114,-0.1045,0.123,-0.051666666666669414,-0.05833333333333002,1.5379999999999998,1.5225,38.464,29.96366666666667,38.594,35.5355,55.942,35.33,59.994,53.075,53.879000000000005,34.447,58.5625,51.375,53.033,33.989,58.461,50.771,-0.09999999999999998,-0.06150000000000011,0.10640000000000001,0.10959500000000001,0.0,215.14,215.15,211.96333333333334,211.96333333333334,0.0,0.0
24,0.0,0.0,0.0,1.0,1.0,0.0,0.0,1.0,0.0,100.0,1.0,1.1856,26.0,0.0,0.0,0.0,59.999996,0.0,26.0,26.0,26.0,26.0,0.009444444444444589,0.2713000000000001,-0.03133333333333333,292.465,-2.7049,-2.673375,-1.5701,-1.5365,-194.89999999999998,215.64,190.481375,0.0,0.0,0.0,0.0,0.04856666666666667,-5.498166666666667,-5.498166666666667,-0.5833,-0.4103333333333333,0.013111111111111073,-0.09299999999999997,68.857,0.0056,-0.22087500000000002,-0.10799999999999965,100.0,1.0,1.0,212.30666666666667,0.0,0.0,0.0,0.0,0.0,0.0,0.0,8998.9,0.0,55.0,5.0,247.86,0.0,0.0,0.0,0.0,0.0,0.0,0.0,0.0,1.2059999999999995,1.2059999999999995,0.0,0.0,0.0,55.0,616.79921,10000.0,85.000001,85.000001,85.000001,85.000001,395.0,0.0,0.0,0.0,1.0,166.665,52.826,52.826,47.318,47.318,34.0,-22.91,23.296,-30.323333333333334,28.81,0.0,1781.718,-0.23499999999999943,100.0,28.016,27.973,43.287,43.474000000000004,0.0,0.0,100.0,0.0,0.0,0.0,0.0,3018.285714285714,2964.8,4268.875,4153.4,305.769,305.31,314.5145,314.57525,22.0037,20.6397,22.0254,21.5349,314.999998,314.999998,324.999988,324.999988,99.55904285714286,99.50741666666667,99.5688,99.54884285714286,0.08424999999999994,-0.04933333333333323,-0.11416666666666668,0.11483333333333333,-0.05333333333332746,-0.015000000000000568,1.5099999999999998,1.508,38.522999999999996,29.997999999999998,38.659,35.593,55.929,35.367,60.031,53.1345,53.866,34.4815,58.597,51.4325,53.019999999999996,34.022,58.492,50.827,-0.09750000000000003,-0.05950000000000011,0.10686500000000002,0.11026000000000001,0.0,215.575,215.54500000000002,212.30666666666667,212.30666666666667,0.0,0.0
25,0.0,0.0,0.0,1.0,1.0,0.0,0.0,1.0,0.0,100.0,1.0,1.1856,26.0,0.0,0.0,0.0,59.999996,0.0,26.0,26.0,26.0,26.0,0.022111111111111192,0.272,-0.042966666666666674,292.358,-2.7768,-2.63225,-1.5893000000000002,-1.5377,-191.59,215.6325,190.457625,0.0,0.0,0.0,0.0,0.050466666666666674,-5.498166666666667,-5.498166666666667,-0.6064,-0.076,0.02022222222222214,-0.9550000000000001,68.982,0.0047,-0.222175,-0.09399999999999942,100.0,1.0,1.0,212.8,0.0,0.0,0.0,0.0,0.0,0.0,0.0,9019.8,0.0,55.0,5.0,248.31,1.0,0.0,0.0,0.0,0.0,0.0,0.0,0.0,1.2540000000000013,1.2540000000000013,0.0,0.0,1.0,55.0,616.79921,10000.0,85.000001,85.000001,85.000001,85.000001,395.0,0.0,0.0,0.0,1.0,333.33500000000004,51.987,51.987,47.913,47.913,34.0,-25.675,25.834000000000003,-27.993333333333332,28.8425,0.0,1781.667,-0.28999999999999915,100.0,27.882,28.143,43.063,43.299,0.0,0.0,100.0,0.0,0.0,0.0,0.0,3291.714285714286,3235.7,3988.75,4081.6000000000004,305.0885,304.463,315.2235,314.76475,22.0124,20.645,22.0352,21.5434,314.999998,314.999998,324.999988,324.999988,99.55904285714286,99.50741666666667,99.56892857142857,99.54898571428572,0.08924999999999983,-0.03966666666666674,-0.11583333333333333,0.13083333333333336,-0.051666666666669414,-0.046666666666666856,1.5615,1.548,38.578,30.031,38.72,35.6465,55.915,35.403999999999996,60.063,53.1895,53.852999999999994,34.5155,58.6265,51.4855,53.006,34.0545,58.519,50.879,-0.10399999999999998,-0.055500000000000105,0.11357,0.12157000000000001,0.0,215.95,215.95,212.8,212.8,0.0,0.0
26,0.0,0.0,0.0,1.0,1.0,0.0,0.0,1.0,0.0,100.0,1.0,1.1856,26.0,0.0,0.0,0.0,59.999996,0.0,26.0,26.0,26.0,26.0,0.007888888888888834,0.2764,0.08276666666666667,291.26,-2.669,-2.733375,-1.6335000000000002,-1.5306000000000002,-188.07,215.6225,190.431875,0.0,0.0,0.0,0.0,0.05253333333333334,-5.498166666666667,-5.498166666666667,-0.5734,0.632,0.004111111111110954,0.6760000000000002,69.118,0.0074,-0.19817500000000002,-0.25,100.0,1.0,1.0,212.97333333333333,0.0,0.0,0.0,0.0,0.0,0.0,0.0,9027.1,0.0,55.0,5.0,248.79666666666668,0.0,0.0,0.0,0.0,0.0,0.0,0.0,0.0,1.3049999999999997,1.3049999999999997,0.0,0.0,0.0,55.0,616.79921,10000.0,85.000001,85.000001,85.000001,85.000001,395.0,0.0,0.0,0.0,1.0,333.33500000000004,51.528999999999996,51.528999999999996,46.387,46.387,34.0,-23.015,25.828,-32.8,32.7725,0.0,1781.617,-0.33999999999999986,100.0,28.907,28.597,43.574,43.612,0.0,0.0,100.0,0.0,0.0,0.0,0.0,3158.0,3159.2,4531.125,4535.5,305.172,304.74533333333335,313.89025,313.72275,22.022,20.6507,22.0457,21.5527,314.999998,314.999998,324.999988,324.999988,99.55905714285714,99.50743333333334,99.56908571428572,99.54914285714285,0.10725000000000007,-0.04366666666666674,-0.0955,0.12433333333333334,-0.054999999999999716,-0.04999999999999716,1.4465,1.4295,38.637,30.067,38.786,35.704499999999996,55.906,35.445,60.1015,53.2515,53.844,34.5535,58.6625,51.5445,52.995999999999995,34.091,58.552,50.937,-0.11199999999999999,-0.05699999999999994,0.1101,0.10382000000000001,0.0,216.405,216.405,212.97333333333333,212.97333333333333,0.0,0.0
27,0.0,0.0,0.0,1.0,1.0,0.0,0.0,1.0,0.0,100.0,1.0,1.1856,26.0,0.0,0.0,0.0,59.999996,0.0,26.0,26.0,26.0,26.0,0.027111111111111086,0.258,-0.021266666666666666,291.733,-2.693,-2.67075,-1.5782,-1.5993,-184.75,215.615,190.40875,0.0,0.0,0.0,0.0,0.05446666666666666,-5.498166666666667,-5.498166666666667,-0.5942000000000001,-0.989,0.011333333333333195,0.823,69.243,0.010700000000000001,-0.238925,-0.2839999999999998,100.0,1.0,1.0,213.45,0.0,0.0,0.0,0.0,0.0,0.0,0.0,9047.4,0.0,55.0,5.0,249.25,1.0,0.0,0.0,0.0,0.0,0.0,0.0,0.0,1.352999999999998,1.352999999999998,0.0,0.0,1.0,55.0,616.79921,10000.0,85.000001,85.000001,85.000001,85.000001,395.0,0.0,0.0,0.0,1.0,166.665,51.941,51.941,46.631,46.631,34.0,-22.015,25.79,-28.176666666666662,30.5125,0.0,1781.571,-0.29499999999999815,100.0,28.58,28.481,44.177,44.174,0.0,0.0,100.0,0.0,0.0,0.0,0.0,2995.285714285714,3208.1,4102.875,4142.7,305.67,304.708,314.82875,314.57025,22.0307,20.656,22.0557,21.5616,314.999998,314.999998,324.999988,324.999988,99.55907142857143,99.50743333333334,99.56921428571428,99.54927142857143,0.10349999999999993,-0.038999999999999924,-0.094,0.12983333333333336,-0.03999999999999915,-0.07000000000000028,1.4954999999999998,1.487,38.692,30.10033333333333,38.848,35.76,55.893,35.4815,60.1385,53.3095,53.832,34.5875,58.697,51.601,52.983000000000004,34.1235,58.5835,50.992,-0.10649999999999993,-0.058499999999999996,0.10810000000000002,0.102995,0.0,216.73000000000002,216.745,213.45,213.45,0.0,0.0
28,0.0,0.0,0.0,1.0,1.0,0.0,0.0,1.0,0.0,100.0,1.0,1.1856,26.0,0.0,0.0,0.0,59.999996,0.0,26.0,26.0,26.0,26.0,0.03400000000000003,0.25470000000000015,-0.0601,292.007,-2.681,-2.6571249999999997,-1.6242,-1.5627,-181.20999999999998,215.60750000000002,190.3835,0.0,0.0,0.0,0.0,0.0565,-5.498166666666667,-5.498166666666667,-0.6045,0.5926666666666667,-0.0009999999999998899,-0.7929999999999999,69.372,0.0119,-0.2209,-0.1479999999999997,100.0,1.0,1.0,214.00333333333333,0.0,0.0,0.0,0.0,0.0,0.0,0.0,9070.8,0.0,55.0,5.0,249.71,0.0,0.0,0.0,0.0,0.0,0.0,0.0,0.0,1.404,1.404,0.0,0.0,0.0,55.0,616.79921,10000.0,85.000001,85.000001,85.000001,85.000001,395.0,0.0,0.0,0.0,1.0,166.665,51.788,51.788,47.714,47.714,34.0,-23.75,24.57,-28.35333333333333,29.0825,0.0,1781.52,-0.375,100.0,28.509,28.591,43.413,43.768,0.0,0.0,100.0,0.0,0.0,0.0,0.0,3218.285714285714,3089.3,4060.125,4083.4,305.1575,304.8666666666667,315.13775,314.787,22.0401,20.6617,22.066,21.5707,314.999998,314.999998,324.999988,324.999988,99.55908571428571,99.50743333333334,99.56935714285714,99.54942857142858,0.10099999999999998,-0.04499999999999993,-0.10300000000000001,0.1285,-0.06333333333333258,-0.04833333333333201,1.5589999999999997,1.545,38.751000000000005,30.136,38.912,35.8165,55.882,35.5215,60.171,53.367,53.821,34.624,58.727000000000004,51.656,52.971000000000004,34.158500000000004,58.6105,51.04566666666666,-0.11049999999999993,-0.052000000000000046,0.103775,0.11102000000000001,0.0,217.2,217.18,214.00333333333333,214.00333333333333,0.0,0.0
29,0.0,0.0,0.0,1.0,1.0,0.0,0.0,1.0,0.0,100.0,1.0,1.1856,26.0,0.0,0.0,0.0,59.999996,0.0,26.0,26.0,26.0,26.0,0.03644444444444428,0.26470000000000016,0.00013333333333333334,291.702,-2.6569,-2.718,-1.5705,-1.5479,-177.67000000000002,215.6,190.357125,0.0,0.0,0.0,0.0,0.05856666666666666,-5.498166666666667,-5.498166666666667,-0.6032000000000001,-0.6436666666666666,0.001777777777777878,0.8900000000000001,69.507,0.0135,-0.21405000000000002,-0.3520000000000003,100.0,1.0,1.0,214.2,0.0,0.0,0.0,0.0,0.0,0.0,0.0,9079.2,0.0,55.0,5.0,250.2,1.0,0.0,0.0,0.0,0.0,0.0,0.0,0.0,1.4549999999999983,1.4549999999999983,0.0,0.0,1.0,55.0,616.79921,10000.0,85.000001,85.000001,85.000001,85.000001,395.0,0.0,0.0,0.0,1.0,166.665,52.139,52.139,46.585,46.585,34.0,-21.805,26.165999999999997,-28.836666666666666,31.3625,0.0,1781.468,-0.41499999999999915,100.0,28.343,28.273,43.921,43.943,0.0,0.0,100.0,0.0,0.0,0.0,0.0,3037.857142857143,3173.0,4197.625,4345.8,305.5925,304.739,314.57125,314.14275,22.0494,20.6673,22.0766,21.58,314.999998,314.999998,324.999988,324.999988,99.55908571428571,99.50745,99.56951428571429,99.54957142857143,0.1080000000000001,-0.03499999999999992,-0.0905,0.12566666666666668,-0.03833333333332689,-0.036666666666668846,1.467,1.4675,38.809,30.170666666666666,38.977999999999994,35.875,55.869,35.559,60.21,53.4285,53.808,34.659,58.7635,51.715,52.957,34.192,58.6435,51.10333333333333,-0.11099999999999999,-0.05249999999999999,0.10892500000000001,0.10137,0.0,217.565,217.555,214.2,214.2,0.0,0.0
30,0.0,0.0,0.0,1.0,1.0,0.0,0.0,1.0,0.0,100.0,1.0,1.1856,26.0,0.0,0.0,0.0,59.999996,0.0,26.0,26.0,26.0,26.0,0.029777777777777903,0.2594000000000001,0.0443,291.153,-2.7176,-2.602125,-1.5451000000000001,-1.6036000000000001,-174.32999999999998,215.595,190.332125,0.0,0.0,0.0,0.0,0.060500000000000005,-5.498166666666667,-5.498166666666667,-0.6079,0.713,0.0003333333333332966,0.5089999999999999,69.627,0.0162,-0.22112500000000002,-0.3379999999999992,100.0,1.0,1.0,214.69333333333333,0.0,0.0,0.0,0.0,0.0,0.0,0.0,9100.1,0.0,55.0,5.0,250.63333333333333,0.0,0.0,0.0,0.0,0.0,0.0,1.0,0.0,1.5030000000000001,1.5030000000000001,0.0,0.0,0.0,55.0,616.79921,10000.0,85.000001,85.000001,85.000001,85.000001,395.0,0.0,0.0,0.0,1.0,166.665,50.552,50.552,47.18,47.18,34.0,-24.9225,26.787999999999997,-26.82333333333333,31.3875,0.0,1781.421,-0.379999999999999,100.0,29.128,28.990000000000002,43.67,43.975,0.0,0.0,100.0,0.0,0.0,0.0,0.0,3362.142857142857,3342.2,4097.0,4181.7,304.5765,304.0896666666667,314.9275,314.5015,22.0584,20.6729,22.0863,21.5887,314.999998,314.999998,324.999988,324.999988,99.55911428571429,99.50745,99.56965714285714,99.54971428571429,0.11450000000000005,-0.035666666666666735,-0.08083333333333333,0.13983333333333334,-0.06499999999999773,-0.04333333333332945,1.5114999999999998,1.4935,38.864999999999995,30.205666666666666,39.039,35.9295,55.861000000000004,35.5985,60.242,53.484,53.8,34.695499999999996,58.7935,51.769,52.948,34.2265,58.67,51.156,-0.11449999999999994,-0.05699999999999994,0.103715,0.10697500000000001,0.0,217.98000000000002,217.98000000000002,214.69333333333333,214.69333333333333,0.0,0.0
31,0.0,0.0,0.0,1.0,1.0,0.0,0.0,1.0,0.0,100.0,1.0,1.1856,26.0,0.0,0.0,0.0,59.999996,0.0,26.0,26.0,26.0,26.0,0.024555555555555664,0.2579,0.016033333333333333,290.848,-2.7688,-2.629625,-1.5953,-1.4994,-170.78,215.59,190.30625,0.0,0.0,0.0,0.0,0.06256666666666666,-5.498166666666667,-5.498166666666667,-0.5869,-0.4396666666666667,0.006888888888888944,-0.9039999999999999,69.761,0.019100000000000002,-0.21780000000000002,-0.2939999999999996,100.0,1.0,1.0,214.90666666666667,0.0,0.0,0.0,0.0,0.0,0.0,0.0,9109.2,0.0,55.0,5.0,251.11333333333334,1.0,0.0,0.0,0.0,0.0,0.0,1.0,0.0,1.5539999999999985,1.5539999999999985,0.0,0.0,1.0,55.0,616.79921,10000.0,85.000001,85.000001,85.000001,85.000001,395.0,0.0,0.0,0.0,1.0,333.33500000000004,51.3,51.3,45.532,45.532,34.0,-23.8375,25.67,-30.883333333333333,31.052500000000002,0.0,1781.369,-0.41499999999999915,100.0,28.83,29.205,44.327,44.799,0.0,0.0,100.0,0.0,0.0,0.0,0.0,3188.5714285714284,3214.6,4419.625,4324.2,305.4075,304.58233333333334,314.11425,314.0535,22.0677,20.6787,22.096899999999998,21.5982,314.999998,314.999998,324.999988,324.999988,99.55911428571429,99.50745,99.5698,99.54987142857142,0.10824999999999996,-0.03766666666666674,-0.08716666666666667,0.1285,-0.030000000000001137,-0.046666666666666856,1.444,1.4184999999999999,38.923,30.241666666666667,39.106,35.9885,55.849000000000004,35.6385,60.2815,53.5475,53.79,34.7325,58.8305,51.83,52.936,34.262,58.704,51.215333333333334,-0.11849999999999994,-0.05699999999999994,0.10220000000000001,0.11296,0.0,218.345,218.37,214.90666666666667,214.90666666666667,0.0,0.0
32,0.0,0.0,0.0,1.0,1.0,0.0,0.0,1.0,0.0,100.0,1.0,1.1856,26.0,0.0,0.0,0.0,59.999996,0.0,26.0,26.0,26.0,26.0,0.02111111111111108,0.26249999999999996,-0.05043333333333334,291.245,-2.6864,-2.6870000000000003,-1.6461000000000001,-1.5584,-167.22,215.585,190.28075,0.0,0.0,0.0,0.0,0.06466666666666666,-5.498166666666667,-5.498166666666667,-0.6064,-0.17,-0.014888888888889174,0.21799999999999997,69.888,0.0227,-0.23095000000000002,-0.3860000000000001,100.0,1.0,1.0,215.45333333333332,0.0,0.0,0.0,0.0,0.0,0.0,0.0,9132.2,0.0,55.0,5.0,251.57,0.0,0.0,0.0,0.0,0.0,0.0,1.0,0.0,1.6050000000000004,1.6050000000000004,0.0,0.0,0.0,55.0,616.79921,10000.0,85.000001,85.000001,85.000001,85.000001,395.0,0.0,0.0,0.0,1.0,333.33500000000004,51.407,51.407,46.524,46.524,34.0,-22.5325,26.247999999999998,-29.006666666666664,31.175,0.0,1781.317,-0.3949999999999996,100.0,28.933,28.965,44.233000000000004,44.510000000000005,0.0,0.0,100.0,0.0,0.0,0.0,0.0,3123.857142857143,3187.3,4205.5,4273.1,305.295,304.7443333333333,314.727,314.42075,22.0771,20.6845,22.1073,21.6074,314.999998,314.999998,324.999988,324.999988,99.55914285714286,99.50746666666667,99.56995714285715,99.55001428571428,0.11575000000000024,-0.028999999999999915,-0.081,0.13766666666666666,-0.051666666666669414,-0.04333333333332945,1.5230000000000001,1.5145,38.982,30.278,39.171,36.0465,55.838,35.678,60.317,53.6065,53.778999999999996,34.769,58.863,51.8865,52.924,34.2975,58.7335,51.271,-0.11199999999999999,-0.05699999999999994,0.105075,0.10518000000000001,0.0,218.735,218.755,215.45333333333332,215.45333333333332,0.0,0.0
33,0.0,0.0,0.0,1.0,1.0,0.0,0.0,1.0,0.0,100.0,1.0,1.1856,26.0,0.0,0.0,0.0,59.999996,0.0,26.0,26.0,26.0,26.0,0.03766666666666674,0.2643,-0.055466666666666664,291.504,-2.7239,-2.68325,-1.5878,-1.5939,-163.86,215.58249999999998,190.25575,0.0,0.0,0.0,0.0,0.0666,-5.498166666666667,-5.498166666666667,-0.6145,-0.21166666666666667,-0.012555555555555653,1.053,70.009,0.0212,-0.217725,-0.3120000000000003,100.0,1.0,1.0,215.81666666666666,0.0,0.0,0.0,0.0,0.0,0.0,0.0,9147.6,0.0,55.0,5.0,252.01,1.0,0.0,0.0,0.0,0.0,0.0,1.0,0.0,1.6529999999999987,1.6529999999999987,0.0,0.0,1.0,55.0,616.79921,10000.0,85.000001,85.000001,85.000001,85.000001,395.0,0.0,0.0,0.0,1.0,333.33500000000004,51.788,51.788,46.707,46.707,34.0,-22.37,25.686,-28.14666666666666,31.4475,0.0,1781.27,-0.41999999999999815,100.0,28.781,28.746000000000002,44.121,44.347,0.0,0.0,100.0,0.0,0.0,0.0,0.0,3071.285714285714,3126.0,4137.5,4251.3,305.546,304.92133333333334,314.81325,314.416,22.0858,20.689799999999998,22.1171,21.6161,314.999998,314.999998,324.999988,324.999988,99.55915714285715,99.50746666666667,99.57008571428571,99.55015714285715,0.11500000000000021,-0.027666666666666728,-0.08766666666666667,0.13416666666666666,-0.04833333333333201,-0.05666666666667197,1.512,1.5035,39.036,30.311,39.232,36.101,55.827,35.713499999999996,60.35,53.661500000000004,53.768,34.8015,58.894,51.94,52.913,34.3285,58.760999999999996,51.32266666666666,-0.11499999999999999,-0.05249999999999999,0.10716500000000001,0.10455,0.0,219.13,219.14,215.81666666666666,215.81666666666666,0.0,0.0
34,0.0,0.0,0.0,1.0,1.0,0.0,0.0,1.0,0.0,100.0,1.0,1.1856,26.0,0.0,0.0,0.0,59.999996,0.0,26.0,26.0,26.0,26.0,0.03844444444444428,0.2663,-0.03976666666666667,291.687,-2.6634,-2.6736250000000004,-1.6473,-1.5578,-160.29,215.57999999999998,190.22775,0.0,0.0,0.0,0.0,0.06866666666666667,-5.498166666666667,-5.498166666666667,-0.6397,-0.8543333333333334,0.00922222222222202,-0.32200000000000006,70.139,0.020900000000000002,-0.222,-0.22999999999999954,100.0,1.0,1.0,216.19333333333333,0.0,0.0,0.0,0.0,0.0,0.0,0.0,9163.6,0.0,55.0,5.0,252.47333333333336,0.0,0.0,0.0,0.0,0.0,0.0,1.0,0.0,1.7040000000000006,1.7040000000000006,0.0,0.0,0.0,55.0,616.79921,10000.0,85.000001,85.000001,85.000001,85.000001,395.0,0.0,0.0,0.0,1.0,333.33500000000004,52.139,52.139,47.089,47.089,34.0,-22.455,24.044,-29.033333333333335,30.7375,0.0,1781.219,-0.41499999999999915,100.0,28.408,28.601,43.927,44.521,0.0,0.0,100.0,0.0,0.0,0.0,0.0,3129.714285714286,2979.5,4129.875,4194.6,305.51,305.176,314.898,314.45575,22.095,20.6953,22.1274,21.6255,314.999998,314.999998,324.999988,324.999988,99.55917142857143,99.50748333333334,99.57024285714286,99.55031428571428,0.1080000000000001,-0.038000000000000034,-0.092,0.137,-0.03999999999999915,-0.04833333333333201,1.5164999999999997,1.5025,39.094,30.345666666666666,39.297,36.1595,55.815,35.75,60.384,53.7225,53.756,34.835499999999996,58.9255,51.998,52.9,34.361000000000004,58.789500000000004,51.379666666666665,-0.11399999999999999,-0.05449999999999999,0.10054,0.11136000000000001,0.0,219.505,219.51999999999998,216.19333333333333,216.19333333333333,0.0,0.0
35,0.0,0.0,0.0,1.0,1.0,0.0,0.0,1.0,0.0,100.0,1.0,1.1856,26.0,0.0,0.0,0.0,59.999996,0.0,26.0,26.0,26.0,26.0,0.03844444444444428,0.2642,-0.08266666666666667,291.687,-2.721,-2.619625,-1.5399,-1.5834000000000001,-156.70999999999998,215.5775,190.197875,0.0,0.0,0.0,0.0,0.07076666666666667,-5.498166666666667,-5.498166666666667,-0.6807000000000001,-0.3446666666666667,-0.003444444444444361,-0.0129999999999999,70.266,0.0206,-0.23085,-0.3120000000000003,100.0,1.0,1.0,216.66,0.0,0.0,0.0,0.0,0.0,0.0,0.0,9183.5,0.0,55.0,5.0,252.93,1.0,0.0,0.0,0.0,0.0,0.0,1.0,0.0,1.754999999999999,1.754999999999999,0.0,0.0,1.0,55.0,616.79921,10000.0,85.000001,85.000001,85.000001,85.000001,395.0,0.0,0.0,0.0,1.0,333.33500000000004,51.62,51.62,46.677,46.677,34.0,-22.655,27.560000000000002,-26.886666666666663,29.8725,0.0,1781.168,-0.3150000000000013,100.0,28.375,28.712,43.785,43.989000000000004,0.0,0.0,100.0,0.0,0.0,0.0,0.0,3083.0,3390.0,4109.875,4054.1000000000004,305.4885,304.14366666666666,314.93575,314.94975,22.104,20.7011,22.1377,21.6346,314.999998,314.999998,324.999988,324.999988,99.55918571428572,99.50748333333334,99.57038571428572,99.55045714285714,0.11100000000000021,-0.027666666666666728,-0.085,0.14483333333333334,-0.046666666666666856,-0.046666666666666856,1.553,1.535,39.15,30.381999999999998,39.361,36.216499999999996,55.801,35.789,60.417500000000004,53.7785,53.742999999999995,34.8715,58.957,52.052,52.885,34.3955,58.817499999999995,51.43266666666666,-0.10549999999999993,-0.05950000000000011,0.101665,0.110185,0.0,219.89,219.92000000000002,216.66,216.66,0.0,0.0
36,0.0,0.0,0.0,1.0,1.0,0.0,0.0,1.0,0.0,100.0,1.0,1.1856,26.0,0.0,0.0,0.0,59.999996,0.0,26.0,26.0,26.0,26.0,0.026222222222222147,0.2632000000000001,0.05373333333333334,290.909,-2.6402,-2.667125,-1.5694,-1.5579,-153.32999999999998,215.5775,190.1685,0.0,0.0,0.0,0.0,0.07273333333333334,-5.498166666666667,-5.498166666666667,-0.6637000000000001,0.2856666666666667,-0.0474444444444444,0.07100000000000017,70.387,0.019700000000000002,-0.202275,-0.16999999999999993,100.0,1.0,1.0,216.85333333333335,0.0,0.0,0.0,0.0,0.0,0.0,0.0,9191.6,0.0,55.0,5.0,253.36666666666667,0.0,0.0,0.0,0.0,0.0,0.0,1.0,0.0,1.8030000000000008,1.8030000000000008,0.0,0.0,0.0,55.0,616.79921,10000.0,85.000001,85.000001,85.000001,85.000001,395.0,0.0,0.0,0.0,1.0,333.33500000000004,51.224000000000004,51.224000000000004,46.417,46.417,34.0,-23.0475,26.234,-29.973333333333333,33.7675,0.0,1781.118,-0.2049999999999983,100.0,28.992,28.844,43.927,44.135999999999996,0.0,0.0,100.0,0.0,0.0,0.0,0.0,3172.285714285714,3229.2,4386.5,4512.1,304.995,304.67,314.21575,313.8175,22.1128,20.7066,22.1475,21.6434,314.999998,314.999998,324.999988,324.999988,99.5592,99.50748333333334,99.57052857142857,99.5506,0.10775000000000023,-0.033333333333333215,-0.08366666666666667,0.1385,-0.03999999999999915,-0.05333333333332746,1.4554999999999998,1.4385,39.205,30.416666666666664,39.422,36.2715,55.791,35.827,60.451,53.835,53.733000000000004,34.907,58.988,52.1065,52.873999999999995,34.4295,58.8455,51.486000000000004,-0.09550000000000003,-0.06600000000000006,0.10689000000000001,0.11026000000000001,0.0,220.315,220.325,216.85333333333335,216.85333333333335,0.0,0.0
