,ABS Active,ABS Enabled,AID Allow Tire Blankets,AID Auto Blip,AID Auto Clutch,AID Auto Shift,AID Fuel Rate,AID Ideal Line,AID Mech Damage,AID Stability,AID Tire Wear Rate,Air Density,Air Temp,Ballast,Best Lap Delta,Best Lap Time,Brake Bias,Brake Pos,Brake Temp FL,Brake Temp FR,Brake Temp RL,Brake Temp RR,CG Accel Lateral,CG Accel Longitudinal,CG Accel Vertical,CG Height,Camber FL,Camber FR,Camber RL,Camber RR,Car Coord X,Car Coord Y,Car Coord Z,Car Damage Front,Car Damage Left,Car Damage Rear,Car Damage Right,Car Pos Norm,Caster FL,Caster FR,Chassis Pitch Angle,Chassis Pitch Rate,Chassis Roll Angle,Chassis Roll Rate,Chassis Velocity X,Chassis Velocity Y,Chassis Velocity Z,Chassis Yaw Rate,Clutch Pos,DRS Active,DRS Available,Drive Train Speed,ERS Heat Charging,ERS Is Charging,ERS Max Energy,ERS Power Level,ERS Recovery Level,Engine Brake Setting,Engine Limiter,Engine RPM,Flags,Fuel Level,Gear,Ground Speed,HR Sample Clock,In Pit,KERS Charge,KERS Deployed Energy,KERS Input,KERS Max Energy,LR Sample Clock,Lap Invalidated,Lap Time,Lap Time2,Last Lap Time,Last Sector Time,MR Sample Clock,Max Fuel,Max Power,Max RPM,Max Sus Travel FL,Max Sus Travel FR,Max Sus Travel RL,Max Sus Travel RR,Max Torque,Max Turbo Boost,Num Tires Off Track,Penalties Enabled,Position,Raw Data Sample Rate,Ride Height FL,Ride Height FR,Ride Height RL,Ride Height RR,Road Temp,Self Align Torque FL,Self Align Torque FR,Self Align Torque RL,Self Align Torque RR,Session Lap Count,Session Time Left,Steering Angle,Surface Grip,Suspension Travel FL,Suspension Travel FR,Suspension Travel RL,Suspension Travel RR,TC Active,TC Enabled,Throttle Pos,Tire Dirt Level FL,Tire Dirt Level FR,Tire Dirt Level RL,Tire Dirt Level RR,Tire Load FL,Tire Load FR,Tire Load RL,Tire Load RR,Tire Loaded Radius FL,Tire Loaded Radius FR,Tire Loaded Radius RL,Tire Loaded Radius RR,Tire Pressure FL,Tire Pressure FR,Tire Pressure RL,Tire Pressure RR,Tire Radius FL,Tire Radius FR,Tire Radius RL,Tire Radius RR,Tire Rubber Grip FL,Tire Rubber Grip FR,Tire Rubber Grip RL,Tire Rubber Grip RR,Tire Slip Angle FL,Tire Slip Angle FR,Tire Slip Angle RL,Tire Slip Angle RR,Tire Slip Ratio FL,Tire Slip Ratio FR,Tire Slip Ratio RL,Tire Slip Ratio RR,Tire Temp Core FL,Tire Temp Core FR,Tire Temp Core RL,Tire Temp Core RR,Tire Temp Inner FL,Tire Temp Inner FR,Tire Temp Inner RL,Tire Temp Inner RR,Tire Temp Middle FL,Tire Temp Middle FR,Tire Temp Middle RL,Tire Temp Middle RR,Tire Temp Outer FL,Tire Temp Outer FR,Tire Temp Outer RL,Tire Temp Outer RR,Toe In FL,Toe In FR,Toe In RL,Toe In RR,Turbo Boost,Wheel Angular Speed FL,Wheel Angular Speed FR,Wheel Angular Speed RL,Wheel Angular Speed RR,Wind Direction,Wind Speed
0,0.0,1.0,0.0,1.0,1.0,0.0,0.0,1.0,0.0,100.0,1.0,1.1856,26.0,0.0,0.0,0.0,59.99999,0.0,26.0,26.0,26.0,26.0,-0.019000000000000017,0.35430000000000006,0.15353333333333333,293.167,-2.8005,-2.615625,-1.5676999999999999,-1.5046666666666668,-275.76,215.43,190.987875,0.0,0.0,0.0,0.0,0.0015333333333333865,-5.498166666666667,-5.498166666666667,-0.5693,1.8625,0.008124999999999938,0.387,65.252,-0.026000000000000002,-0.22085000000000002,0.02999999999999936,100.0,1.0,1.0,201.91666666666669,0.0,0.0,0.0,0.0,0.0,0.0,0.0,9374.1,0.0,55.0,4.0,234.86666666666667,0.0,0.0,0.0,0.0,0.0,0.0,0.0,0.0,0.0030000000000001137,0.0030000000000001137,0.0,0.0,0.0,55.0,616.79921,10000.0,85.0,85.0,85.0,85.0,395.0,0.0,0.0,0.0,1.0,20.0,50.735,50.735,49.118,49.118,34.0,-30.695,33.528,-27.043333333333337,25.7875,0.0,1781.618,0.07000000000000028,100.0,27.045,27.123,40.562,40.297,0.0,1.0,100.0,0.0,0.0,0.0,0.0,3503.5714285714284,4314.8,3932.625,4067.9,304.094,301.435,315.29875,314.76575,21.7792,20.5136,21.742,21.2826,314.99999,314.99999,324.99998,324.99998,99.55891428571428,99.50716666666666,99.56394285714286,99.54384285714286,0.03699999999999992,-0.06774999999999998,-0.134,0.10299999999999998,-0.06499999999999773,-0.06499999999999773,1.7874999999999999,1.7775,37.120000000000005,29.21,36.887,34.0165,56.32,34.466499999999996,58.6425,51.18,54.236000000000004,33.646,57.2915,49.5555,53.406,33.22,57.2675,48.985,-0.07250000000000001,-0.08150000000000013,0.10606000000000002,0.11543,0.0,204.445,204.405,201.91666666666669,201.91666666666669,0.0,0.0
1,0.0,1.0,0.0,1.0,1.0,0.0,0.0,1.0,0.0,100.0,1.0,1.1856,26.0,0.0,0.0,0.0,59.999996,0.0,26.0,26.0,26.0,26.0,-0.05625000000000002,0.4104000000000001,0.18383333333333332,292.13,-2.6458,-2.6905,-1.6139999999999999,-1.52,-272.43,215.435,190.967875,0.0,0.0,0.0,0.0,0.003466666666666507,-5.498166666666667,-5.498166666666667,-0.4536,-0.9725,-0.037125000000000075,-0.28100000000000014,65.447,-0.022000000000000002,-0.15165,0.5359999999999996,100.0,1.0,1.0,201.74,0.0,0.0,0.0,0.0,0.0,0.0,0.0,9365.9,0.0,55.0,4.0,235.56666666666666,1.0,0.0,0.0,0.0,0.0,0.0,0.0,0.0,0.053999999999998494,0.053999999999998494,0.0,0.0,1.0,55.0,616.79921,10000.0,85.000001,85.000001,85.000001,85.000001,395.0,0.0,0.0,0.0,1.0,333.33500000000004,54.581,54.581,46.371,46.371,34.0,-21.3475,16.65,-39.43666666666667,38.572500000000005,0.0,1781.566,0.245000000000001,100.0,27.411,27.274,42.746,43.075,0.0,1.0,100.0,0.0,0.0,0.0,0.0,2730.285714285714,2381.4,4926.25,5714.6,306.599,307.212,312.64525,310.7945,21.789,20.5187,21.7529,21.2919,314.999998,314.999998,324.999988,324.999988,99.55892857142857,99.50718333333333,99.56411428571428,99.54401428571428,0.04225000000000012,-0.09350000000000003,-0.14566666666666667,0.07133333333333325,-0.01833333333333087,-0.02833333333332888,1.427,1.455,37.181,29.241999999999997,36.956,34.0745,56.304,34.504999999999995,58.7005,51.2605,54.22,33.6815,57.346000000000004,49.6325,53.388999999999996,33.254,57.319,49.06033333333333,-0.056499999999999995,-0.09100000000000019,0.11012000000000001,0.10759500000000001,0.0,205.01999999999998,204.995,201.74,201.74,0.0,0.0
2,0.0,1.0,0.0,1.0,1.0,0.0,0.0,1.0,0.0,100.0,1.0,1.1856,26.0,0.0,0.0,0.0,59.999996,0.0,26.0,26.0,26.0,26.0,-0.06974999999999998,0.34820000000000007,0.032633333333333334,293.823,-2.669,-2.659875,-1.5742,-1.521111111111111,-268.89,215.4375,190.948125,0.0,0.0,0.0,0.0,0.00553333333333339,-5.498166666666667,-5.498166666666667,-0.5714,0.4335,-0.009374999999999911,2.024,65.62100000000001,-0.024,-0.261,0.7220000000000013,100.0,1.0,1.0,203.47333333333333,0.0,0.0,0.0,0.0,0.0,0.0,0.0,9446.4,0.0,55.0,4.0,236.2,0.0,0.0,0.0,0.0,0.0,0.0,0.0,0.0,0.10800000000000054,0.10800000000000054,0.0,0.0,0.0,55.0,616.79921,10000.0,85.000001,85.000001,85.000001,85.000001,395.0,0.0,0.0,0.0,1.0,166.665,52.032,52.032,50.461,50.461,34.0,-28.634999999999998,22.878,-24.06666666666667,18.8325,0.0,1781.513,0.4450000000000003,100.0,27.949,27.279,42.123000000000005,41.989000000000004,0.0,1.0,100.0,0.0,0.0,0.0,0.0,3366.0,3205.8,3498.5,3360.0,304.5755,304.56233333333336,316.306,316.566,21.7995,20.5241,21.7638,21.3008,314.999998,314.999998,324.999988,324.999988,99.55892857142857,99.50718333333333,99.56427142857143,99.54415714285715,0.021749999999999936,-0.10449999999999993,-0.16666666666666666,0.07833333333333337,-0.09166666666666856,-0.08833333333333115,1.9969999999999999,2.0175,37.247,29.275333333333336,37.024,34.129999999999995,56.288,34.545500000000004,58.7465,51.3225,54.206,33.719,57.388999999999996,49.692,53.374,33.289500000000004,57.3585,49.119,-0.04600000000000004,-0.1120000000000001,0.10902500000000001,0.11477000000000001,0.0,205.59,205.525,203.47333333333333,203.47333333333333,0.0,0.0
3,0.0,1.0,0.0,1.0,1.0,0.0,0.0,1.0,0.0,100.0,1.0,1.1856,26.0,0.0,0.0,0.0,59.999996,0.0,26.0,26.0,26.0,26.0,-0.07437499999999997,0.36950000000000016,0.1285666666666667,292.984,-2.6911,-2.682125,-1.5567,-1.482222222222222,-265.74,215.44,190.929,0.0,0.0,0.0,0.0,0.0073666666666665215,-5.498166666666667,-5.498166666666667,-0.4904,0.527,0.010624999999999885,-1.436,65.803,-0.035,-0.174375,0.6140000000000008,100.0,1.0,1.0,203.24,0.0,0.0,0.0,0.0,0.0,0.0,0.0,9435.5,0.0,55.0,4.0,236.85333333333335,1.0,0.0,0.0,0.0,0.0,0.0,0.0,0.0,0.1559999999999988,0.1559999999999988,0.0,0.0,1.0,55.0,616.79921,10000.0,85.000001,85.000001,85.000001,85.000001,395.0,0.0,0.0,0.0,1.0,166.665,53.65,53.65,47.241,47.241,34.0,-23.005,20.636,-33.7,27.55,0.0,1781.465,0.5650000000000013,100.0,27.584,27.261,42.238,42.296,0.0,1.0,100.0,0.0,0.0,0.0,0.0,2795.857142857143,2922.7,4518.875,4433.9,306.409,305.49466666666666,313.79175,313.7015,21.8086,20.5291,21.773600000000002,21.3092,314.999998,314.999998,324.999988,324.999988,99.55894285714285,99.5072,99.56442857142856,99.54431428571428,0.023500000000000076,-0.10549999999999993,-0.14583333333333334,0.07266666666666666,-0.06333333333333258,-0.05333333333332746,1.581,1.6135,37.304,29.306666666666665,37.085,34.1825,56.271,34.5845,58.793,51.3955,54.189,33.754999999999995,57.4325,49.762,53.357,33.3245,57.399,49.187666666666665,-0.04249999999999998,-0.11350000000000016,0.1067,0.10205,0.0,206.19,206.135,203.24,203.24,0.0,0.0
4,0.0,1.0,0.0,1.0,1.0,0.0,0.0,1.0,0.0,100.0,1.0,1.1856,26.0,0.0,0.0,0.0,59.999996,0.0,26.0,26.0,26.0,26.0,-0.08437499999999998,0.3521000000000001,-0.0648,293.396,-2.6779,-2.7501249999999997,-1.4978,-1.593222222222222,-262.57,215.44,190.91075,0.0,0.0,0.0,0.0,0.009199999999999986,-5.498166666666667,-5.498166666666667,-0.5205000000000001,-0.996,-0.03937500000000016,0.22499999999999987,65.971,-0.0426,-0.222725,0.9339999999999993,100.0,1.0,1.0,203.98333333333335,0.0,0.0,0.0,0.0,0.0,0.0,0.0,9470.1,0.0,55.0,4.0,237.46,0.0,0.0,0.0,0.0,0.0,0.0,0.0,0.0,0.20400000000000063,0.20400000000000063,0.0,0.0,0.0,55.0,616.79921,10000.0,85.000001,85.000001,85.000001,85.000001,395.0,0.0,0.0,0.0,1.0,333.33500000000004,53.345,53.345,48.538,48.538,34.0,-26.28,20.369999999999997,-28.83,23.835,0.0,1781.416,0.625,100.0,27.662,26.922,43.028999999999996,42.439,0.0,1.0,100.0,0.0,0.0,0.0,0.0,3059.714285714286,2894.6,4033.25,3879.9,305.4855,305.65433333333334,314.95225,315.16625,21.8178,20.5338,21.7836,21.3176,314.999998,314.999998,324.999988,324.999988,99.55894285714285,99.50721666666666,99.56457142857143,99.54445714285714,0.00825000000000009,-0.119,-0.162,0.06383333333333319,-0.03833333333332689,-0.06833333333332803,1.7175,1.749,37.361000000000004,29.336,37.147999999999996,34.235,56.254999999999995,34.621,58.842,51.46,54.173,33.7885,57.478,49.824,53.341,33.356,57.4415,49.248333333333335,-0.026999999999999913,-0.12349999999999994,0.10766,0.10506000000000001,0.0,206.61,206.57999999999998,203.98333333333335,203.98333333333335,0.0,0.0
5,0.0,1.0,0.0,1.0,1.0,0.0,0.0,1.0,0.0,100.0,1.0,1.1856,26.0,0.0,0.0,0.0,59.999996,0.0,26.0,26.0,26.0,26.0,-0.07237499999999997,0.3501000000000001,-0.0362,293.671,-2.6527,-2.699125,-1.5458,-1.5776666666666668,-259.2,215.4375,190.891125,0.0,0.0,0.0,0.0,0.011166666666666547,-5.498166666666667,-5.498166666666667,-0.5324,0.5575,-0.02925000000000022,-0.3290000000000002,66.148,-0.0613,-0.2177,1.0340000000000007,100.0,1.0,1.0,204.64666666666668,0.0,0.0,0.0,0.0,0.0,0.0,0.0,9500.9,0.0,55.0,4.0,238.0966666666667,1.0,0.0,0.0,0.0,0.0,0.0,0.0,0.0,0.254999999999999,0.254999999999999,0.0,0.0,1.0,55.0,616.79921,10000.0,85.000001,85.000001,85.000001,85.000001,395.0,0.0,0.0,0.0,1.0,333.33500000000004,53.375,53.375,49.010999999999996,49.010999999999996,34.0,-26.6575,20.07,-29.856666666666662,22.2625,0.0,1781.363,0.375,100.0,27.455,26.966,42.515,41.859,0.0,1.0,100.0,0.0,0.0,0.0,0.0,3116.714285714286,2885.4,3956.25,3924.5,305.3975,305.49066666666664,315.22925,315.10675,21.8277,20.539,21.7939,21.3263,314.999998,314.999998,324.999988,324.999988,99.55894285714285,99.50723333333333,99.56472857142857,99.54461428571429,0.004750000000000032,-0.119,-0.19383333333333336,0.03483333333333327,-0.061666666666667425,-0.0899999999999963,1.771,1.8225,37.423,29.368333333333332,37.212,34.289,56.238,34.661,58.891,51.5265,54.159,33.8255,57.5215,49.891,53.325,33.394,57.482,49.31433333333334,-0.04499999999999993,-0.1030000000000002,0.10687,0.106065,0.0,207.25,207.16500000000002,204.64666666666668,204.64666666666668,0.0,0.0
6,0.0,1.0,0.0,1.0,1.0,0.0,0.0,1.0,0.0,100.0,1.0,1.1856,26.0,0.0,0.0,0.0,59.999996,0.0,26.0,26.0,26.0,26.0,-0.09175,0.357,0.04223333333333333,293.51800000000003,-2.6828,-2.7738750000000003,-1.4937,-1.5612222222222223,-256.02,215.4325,190.871625,0.0,0.0,0.0,0.0,0.013033333333333341,-5.498166666666667,-5.498166666666667,-0.5176000000000001,-0.224,-0.04762500000000003,-1.0460000000000003,66.32,-0.0649,-0.193975,0.8100000000000005,100.0,1.0,1.0,204.96666666666667,0.0,0.0,0.0,0.0,0.0,0.0,0.0,9515.7,0.0,55.0,4.0,238.71666666666667,0.0,0.0,0.0,0.0,0.0,0.0,0.0,0.0,0.3030000000000008,0.3030000000000008,0.0,0.0,0.0,55.0,616.79921,10000.0,85.000001,85.000001,85.000001,85.000001,395.0,0.0,0.0,0.0,1.0,333.33500000000004,53.909,53.909,48.294,48.294,34.0,-27.705,19.037999999999997,-32.763333333333335,23.377499999999998,0.0,1781.316,0.4349999999999987,100.0,27.138,26.618,42.673,42.032,0.0,1.0,100.0,0.0,0.0,0.0,0.0,3151.142857142857,2748.3,4296.0,4061.9,305.402,305.9533333333333,314.36875,314.70375,21.8368,20.5437,21.8038,21.334600000000002,314.999998,314.999998,324.999988,324.999988,99.55895714285714,99.50723333333333,99.56488571428571,99.54475714285714,-0.009000000000000008,-0.13249999999999995,-0.19283333333333336,0.033333333333333215,-0.054999999999999716,-0.051666666666669414,1.68,1.72,37.480000000000004,29.398,37.274,34.341499999999996,56.222,34.6975,58.9355,51.593,54.143,33.859,57.5655,49.951499999999996,53.308,33.423500000000004,57.5235,49.373,-0.04299999999999993,-0.1030000000000002,0.11411500000000001,0.10619500000000001,0.0,207.75,207.67000000000002,204.96666666666667,204.96666666666667,0.0,0.0
7,0.0,1.0,0.0,1.0,1.0,0.0,0.0,1.0,0.0,100.0,1.0,1.1856,26.0,0.0,0.0,0.0,59.999996,0.0,26.0,26.0,26.0,26.0,-0.06362499999999993,0.35740000000000016,-0.006566666666666668,293.549,-2.6885,-2.77125,-1.5474,-1.607888888888889,-252.44,215.425,190.85,0.0,0.0,0.0,0.0,0.015100000000000002,-5.498166666666667,-5.498166666666667,-0.524,0.1285,-0.03825000000000012,-0.27200000000000024,66.507,-0.0671,-0.204375,0.6219999999999999,100.0,1.0,1.0,205.61666666666667,0.0,0.0,0.0,0.0,0.0,0.0,0.0,9546.0,0.0,55.0,4.0,239.39,1.0,0.0,0.0,0.0,0.0,0.0,0.0,0.0,0.3569999999999993,0.3569999999999993,0.0,0.0,1.0,55.0,616.79921,10000.0,85.000001,85.000001,85.000001,85.000001,395.0,0.0,0.0,0.0,1.0,166.665,53.619,53.619,48.522999999999996,48.522999999999996,34.0,-26.5875,20.89,-32.38666666666666,23.405,0.0,1781.264,-0.06500000000000128,100.0,27.316,26.722,42.681,41.944,0.0,1.0,100.0,0.0,0.0,0.0,0.0,3176.142857142857,2821.7,4181.375,3965.2,305.329,305.667,314.691,314.936,21.8472,20.5492,21.8149,21.344,314.999998,314.999998,324.999988,324.999988,99.55895714285714,99.50725,99.56505714285714,99.54492857142857,0.02475000000000005,-0.10050000000000003,-0.19683333333333336,0.03649999999999998,-0.061666666666667425,-0.045000000000001705,1.7155,1.7429999999999999,37.545,29.432333333333332,37.343,34.4,56.206,34.739,58.9875,51.666,54.126999999999995,33.8975,57.614,50.021,53.292,33.460499999999996,57.5685,49.44133333333333,-0.08199999999999985,-0.06599999999999984,0.112765,0.107935,0.0,208.34,208.255,205.61666666666667,205.61666666666667,0.0,0.0
8,0.0,1.0,0.0,1.0,1.0,0.0,0.0,1.0,0.0,100.0,1.0,1.1856,26.0,0.0,0.0,0.0,59.999996,0.0,26.0,26.0,26.0,26.0,-0.05049999999999999,0.33520000000000016,-0.023466666666666667,293.61,-2.6728,-2.7145,-1.5554000000000001,-1.604888888888889,-249.04,215.41500000000002,190.829375,0.0,0.0,0.0,0.0,0.017100000000000004,-5.498166666666667,-5.498166666666667,-0.527,-0.1095,-0.0286249999999999,0.3659999999999999,66.684,-0.0579,-0.20797500000000002,0.23600000000000065,100.0,1.0,1.0,206.16,0.0,0.0,0.0,0.0,0.0,0.0,0.0,9571.1,0.0,55.0,4.0,240.02666666666667,0.0,0.0,0.0,0.0,0.0,0.0,0.0,0.0,0.40800000000000125,0.40800000000000125,0.0,0.0,0.0,55.0,616.79921,10000.0,85.000001,85.000001,85.000001,85.000001,395.0,0.0,0.0,0.0,1.0,166.665,53.711,53.711,48.325,48.325,34.0,-24.232499999999998,22.724,-29.53333333333333,25.4025,0.0,1781.213,-0.1750000000000007,100.0,27.204,26.632,42.755,41.986000000000004,0.0,1.0,100.0,0.0,0.0,0.0,0.0,2971.714285714286,3019.7,4059.0,4010.3,305.7165,305.25866666666667,314.90975,314.87975,21.8569,20.5544,21.8254,21.353,314.999998,314.999998,324.999988,324.999988,99.55895714285714,99.50726666666667,99.56521428571429,99.54508571428572,0.038000000000000034,-0.07974999999999999,-0.15733333333333335,0.0718333333333332,-0.045000000000001705,-0.05833333333333002,1.7235,1.732,37.605999999999995,29.465,37.409,34.456,56.19,34.7785,59.0355,51.7365,54.111000000000004,33.934,57.6595,50.088499999999996,53.275999999999996,33.495,57.611,49.507333333333335,-0.08399999999999985,-0.05600000000000005,0.10666500000000001,0.11785500000000002,0.0,208.85500000000002,208.835,206.16,206.16,0.0,0.0
9,0.0,1.0,0.0,1.0,1.0,0.0,0.0,1.0,0.0,100.0,1.0,1.1856,26.0,0.0,0.0,0.0,59.999996,0.0,26.0,26.0,26.0,26.0,-0.03225,0.3587,-0.012400000000000001,293.411,-2.6818,-2.7205000000000004,-1.5245000000000002,-1.5561111111111112,-246.04,215.4075,190.811,0.0,0.0,0.0,0.0,0.01883333333333337,-5.498166666666667,-5.498166666666667,-0.5256000000000001,0.146,-0.037374999999999936,-0.6619999999999999,66.84100000000001,-0.048400000000000006,-0.202375,0.17999999999999972,100.0,1.0,1.0,206.61333333333334,0.0,0.0,0.0,0.0,0.0,0.0,0.0,9592.1,0.0,55.0,4.0,240.59,1.0,0.0,0.0,0.0,0.0,0.0,0.0,0.0,0.4529999999999994,0.4529999999999994,0.0,0.0,1.0,55.0,616.79921,10000.0,85.000001,85.000001,85.000001,85.000001,395.0,0.0,0.0,0.0,1.0,333.33500000000004,53.436,53.436,48.553,48.553,34.0,-25.7875,22.296,-29.490000000000002,24.9225,0.0,1781.166,-0.3299999999999983,100.0,27.218,26.814,42.614000000000004,42.11,0.0,1.0,100.0,0.0,0.0,0.0,0.0,3178.5714285714284,2929.9,4100.875,4080.7,305.279,305.371,314.8705,314.67175,21.8655,20.559,21.834600000000002,21.3609,314.999998,314.999998,324.999988,324.999988,99.55895714285714,99.50728333333333,99.56535714285714,99.54522857142857,0.04425000000000012,-0.07699999999999996,-0.15766666666666665,0.06350000000000011,-0.03999999999999915,-0.061666666666667425,1.7125,1.733,37.659,29.494,37.466,34.5055,56.176,34.8125,59.0785,51.7975,54.099000000000004,33.965,57.699,50.147,53.262,33.525,57.647999999999996,49.565,-0.09799999999999986,-0.04700000000000015,0.09896,0.113765,0.0,209.325,209.32,206.61333333333334,206.61333333333334,0.0,0.0
10,0.0,1.0,0.0,1.0,1.0,0.0,0.0,1.0,0.0,100.0,1.0,1.1856,26.0,0.0,0.0,0.0,59.999996,0.0,26.0,26.0,26.0,26.0,-0.02587499999999998,0.35660000000000003,0.009766666666666668,293.289,-2.6773,-2.7106250000000003,-1.5562,-1.5492222222222223,-242.62,215.39499999999998,190.790125,0.0,0.0,0.0,0.0,0.02083333333333337,-5.498166666666667,-5.498166666666667,-0.5192,-0.1145,-0.015499999999999847,1.544,67.017,-0.034,-0.198875,-0.17600000000000016,100.0,1.0,1.0,207.07999999999998,0.0,0.0,0.0,0.0,0.0,0.0,0.0,9613.8,0.0,55.0,4.0,241.22666666666666,0.0,0.0,0.0,0.0,0.0,0.0,1.0,0.0,0.5040000000000013,0.5040000000000013,0.0,0.0,0.0,55.0,616.79921,10000.0,85.000001,85.000001,85.000001,85.000001,395.0,0.0,0.0,0.0,1.0,333.33500000000004,53.65,53.65,48.218,48.218,34.0,-23.445,23.46,-29.42,27.5875,0.0,1781.116,-0.46999999999999886,100.0,27.407,26.631,42.802,42.307,0.0,1.0,100.0,0.0,0.0,0.0,0.0,2971.857142857143,3003.5,4134.5,4274.8,305.696,305.345,314.708,314.2805,21.8752,20.5643,21.8451,21.3699,314.999998,314.999998,324.999988,324.999988,99.55897142857143,99.50728333333333,99.56551428571429,99.54538571428571,0.05950000000000011,-0.05625000000000002,-0.137,0.08716666666666684,-0.04833333333333201,-0.051666666666669414,1.6855,1.6965,37.72,29.526666666666664,37.532,34.562,56.162,34.85,59.126999999999995,51.869,54.085,33.9995,57.745,50.215,53.248,33.558,57.6905,49.63166666666667,-0.10050000000000003,-0.03949999999999987,0.10755,0.106425,0.0,209.88,209.865,207.07999999999998,207.07999999999998,0.0,0.0
11,0.0,1.0,0.0,1.0,1.0,0.0,0.0,1.0,0.0,100.0,1.0,1.1856,26.0,0.0,0.0,0.0,59.999996,0.0,26.0,26.0,26.0,26.0,0.010874999999999968,0.35020000000000007,-0.0422,293.579,-2.7115,-2.697625,-1.5665,-1.5203333333333333,-239.2,215.385,190.769125,0.0,0.0,0.0,0.0,0.022599999999999953,-5.498166666666667,-5.498166666666667,-0.5397000000000001,-0.365,0.00924999999999998,-0.19700000000000006,67.191,-0.0151,-0.21250000000000002,-0.33000000000000007,100.0,1.0,1.0,207.71666666666667,0.0,0.0,0.0,0.0,0.0,0.0,0.0,9643.4,0.0,55.0,4.0,241.85333333333335,1.0,0.0,0.0,0.0,0.0,0.0,1.0,0.0,0.5549999999999997,0.5549999999999997,0.0,0.0,1.0,55.0,616.79921,10000.0,85.000001,85.000001,85.000001,85.000001,395.0,0.0,0.0,0.0,1.0,333.33500000000004,53.68,53.68,48.691,48.691,34.0,-24.197499999999998,23.561999999999998,-27.130000000000003,25.884999999999998,0.0,1781.065,-0.3949999999999996,100.0,26.922,26.8,42.525,42.468,0.0,1.0,100.0,0.0,0.0,0.0,0.0,3080.4285714285716,2990.1,3963.875,4059.2,305.5945,305.21233333333333,315.19975,314.7415,21.8848,20.5695,21.8556,21.3789,314.999998,314.999998,324.999988,324.999988,99.55898571428571,99.5073,99.56567142857143,99.54554285714286,0.06600000000000006,-0.052999999999999936,-0.12433333333333334,0.09633333333333338,-0.060000000000002274,-0.04999999999999716,1.7455,1.7389999999999999,37.78,29.559666666666665,37.597,34.6185,56.147,34.887,59.1735,51.9385,54.07,34.033500000000004,57.7885,50.2825,53.232,33.591,57.7305,49.69733333333333,-0.10599999999999987,-0.040999999999999925,0.10358,0.10971000000000002,0.0,210.405,210.39,207.71666666666667,207.71666666666667,0.0,0.0
12,0.0,1.0,0.0,1.0,1.0,0.0,0.0,1.0,0.0,100.0,1.0,1.1856,26.0,0.0,0.0,0.0,59.999996,0.0,26.0,26.0,26.0,26.0,0.01287499999999997,0.3501000000000001,-0.0007,293.228,-2.7178,-2.6755,-1.5715,-1.5323333333333333,-235.97,215.3725,190.748625,0.0,0.0,0.0,0.0,0.025466666666666526,-5.498166666666667,-5.498166666666667,-0.5338,0.41300000000000003,0.01837500000000003,-0.5380000000000003,67.356,0.0025,-0.1943,-0.5199999999999996,100.0,1.0,1.0,208.18,0.0,0.0,0.0,0.0,0.0,0.0,0.0,9664.8,0.0,55.0,4.0,242.44333333333333,0.0,0.0,0.0,0.0,0.0,0.0,1.0,0.0,0.602999999999998,0.602999999999998,0.0,0.0,0.0,55.0,616.79921,10000.0,85.000001,85.000001,85.000001,85.000001,395.0,0.0,0.0,0.0,1.0,166.665,53.345,53.345,48.172,48.172,34.0,-25.7325,22.43,-27.659999999999997,28.747500000000002,0.0,1781.018,0.40500000000000114,100.0,27.058,27.191,42.352000000000004,42.494,0.0,1.0,100.0,0.0,0.0,0.0,0.0,3076.4285714285716,3054.2,4135.25,4186.2,305.5845,304.98766666666666,314.824,314.45725,21.8939,20.5747,21.8653,21.3874,314.999998,314.999998,324.999988,324.999988,99.55898571428571,99.5073,99.56581428571428,99.5457,0.03049999999999997,-0.09050000000000002,-0.10466666666666667,0.1283333333333332,-0.04999999999999716,-0.04999999999999716,1.7305,1.712,37.837,29.591666666666665,37.658,34.6715,56.134,34.923,59.217,52.0045,54.058,34.067,57.8285,50.3455,53.22,33.6225,57.768,49.75933333333333,-0.06000000000000005,-0.08300000000000018,0.107605,0.11106500000000001,0.0,210.91,210.935,208.18,208.18,0.0,0.0
13,0.0,1.0,0.0,1.0,1.0,0.0,0.0,1.0,0.0,100.0,1.0,1.1856,26.0,0.0,0.0,0.0,59.999996,0.0,26.0,26.0,26.0,26.0,0.044499999999999984,0.34640000000000004,0.019533333333333337,292.831,-2.6898999999999997,-2.7022500000000003,-1.5612,-1.549,-232.53,215.3625,190.72675,0.0,0.0,0.0,0.0,0.026666666666666505,-5.498166666666667,-5.498166666666667,-0.5274,-0.218,0.010499999999999954,1.121,67.53,0.008,-0.20047500000000001,-0.40200000000000014,100.0,1.0,1.0,208.61666666666667,0.0,0.0,0.0,0.0,0.0,0.0,0.0,9685.1,0.0,55.0,4.0,243.07333333333332,1.0,0.0,0.0,0.0,0.0,0.0,1.0,0.0,0.6539999999999999,0.6539999999999999,0.0,0.0,1.0,55.0,616.79921,10000.0,85.000001,85.000001,85.000001,85.000001,395.0,0.0,0.0,0.0,1.0,333.33500000000004,53.162,53.162,47.791,47.791,34.0,-21.3525,26.336,-27.773333333333333,30.697499999999998,0.0,1780.966,-0.4549999999999983,100.0,27.482,27.183,42.88,42.878,0.0,1.0,100.0,0.0,0.0,0.0,0.0,2999.5714285714284,3097.1,4149.25,4313.2,305.6345,305.039,314.663,314.18925,21.9035,20.5801,21.8759,21.3966,314.999998,314.999998,324.999988,324.999988,99.559,99.50731666666667,99.56598571428572,99.54585714285714,0.11824999999999997,-0.005499999999999949,-0.0995,0.13650000000000007,-0.045000000000001705,-0.04833333333333201,1.6795,1.6564999999999999,37.897,29.625666666666667,37.724000000000004,34.729,56.120999999999995,34.9615,59.266,52.0775,54.045,34.1025,57.8745,50.4155,53.205,33.657,57.8105,49.827666666666666,-0.12399999999999989,-0.01849999999999996,0.11242500000000001,0.11424500000000001,0.0,211.445,211.46,208.61666666666667,208.61666666666667,0.0,0.0
14,0.0,1.0,0.0,1.0,1.0,0.0,0.0,1.0,0.0,100.0,1.0,1.1856,26.0,0.0,0.0,0.0,59.999996,0.0,26.0,26.0,26.0,26.0,0.05425000000000013,0.34299999999999997,-0.0317,292.969,-2.6904,-2.7039999999999997,-1.5739,-1.5393333333333332,-229.07999999999998,215.35250000000002,190.70525,0.0,0.0,0.0,0.0,0.028699999999999948,-5.498166666666667,-5.498166666666667,-0.5403,-0.051000000000000004,0.02387499999999987,-0.383,67.701,0.014400000000000001,-0.21432500000000002,-0.4239999999999995,100.0,1.0,1.0,209.24333333333334,0.0,0.0,0.0,0.0,0.0,0.0,0.0,9714.2,0.0,55.0,4.0,243.69,0.0,0.0,0.0,0.0,0.0,0.0,1.0,0.0,0.7049999999999983,0.7049999999999983,0.0,0.0,0.0,55.0,616.79921,10000.0,85.000001,85.000001,85.000001,85.000001,395.0,0.0,0.0,0.0,1.0,333.33500000000004,53.055,53.055,48.08,48.08,34.0,-22.62,24.842,-26.67,28.177500000000002,0.0,1780.914,-0.5350000000000001,100.0,27.408,27.612000000000002,42.796,43.126,0.0,1.0,100.0,0.0,0.0,0.0,0.0,3071.857142857143,3000.0,4026.625,4115.9,305.609,305.106,315.063,314.60475,21.9131,20.5856,21.8863,21.4057,314.999998,314.999998,324.999988,324.999988,99.55901428571428,99.50731666666667,99.56614285714285,99.54601428571429,0.09775,-0.027249999999999996,-0.10083333333333333,0.12650000000000006,-0.04833333333333201,-0.07000000000000028,1.7305,1.721,37.957,29.659666666666666,37.789,34.786,56.108000000000004,34.999,59.312,52.147999999999996,54.033,34.1375,57.917500000000004,50.4835,53.192,33.69,57.85,49.894333333333336,-0.11699999999999999,-0.03200000000000003,0.11148000000000001,0.1039,0.0,211.98000000000002,211.99,209.24333333333334,209.24333333333334,0.0,0.0
15,0.0,1.0,0.0,1.0,1.0,0.0,0.0,1.0,0.0,100.0,1.0,1.1856,26.0,0.0,0.0,0.0,59.999996,0.0,26.0,26.0,26.0,26.0,0.05950000000000011,0.35040000000000004,-0.015700000000000002,292.786,-2.6794000000000002,-2.683,-1.5608,-1.5638888888888889,-225.82999999999998,215.345,190.684625,0.0,0.0,0.0,0.0,0.03056666666666652,-5.498166666666667,-5.498166666666667,-0.534,0.225,0.02837500000000004,-0.81,67.864,0.0221,-0.20235,-0.4560000000000004,100.0,1.0,1.0,209.69,0.0,0.0,0.0,0.0,0.0,0.0,0.0,9735.0,0.0,55.0,4.0,244.27666666666664,1.0,0.0,0.0,0.0,0.0,0.0,1.0,0.0,0.7530000000000001,0.7530000000000001,0.0,0.0,1.0,55.0,616.79921,10000.0,85.000001,85.000001,85.000001,85.000001,395.0,0.0,0.0,0.0,1.0,333.33500000000004,52.948,52.948,47.806,47.806,34.0,-22.2725,24.622,-26.953333333333333,29.27,0.0,1780.866,-0.41499999999999915,100.0,27.469,27.736,42.742000000000004,43.25,0.0,1.0,100.0,0.0,0.0,0.0,0.0,3063.714285714286,2990.2,4132.5,4153.5,305.63,305.11066666666665,314.82525,314.4745,21.9221,20.5907,21.8961,21.4144,314.999998,314.999998,324.999988,324.999988,99.55902857142857,99.50731666666667,99.5663,99.54617142857143,0.10200000000000009,-0.02674999999999994,-0.09083333333333334,0.1323333333333332,-0.054999999999999716,-0.05666666666667197,1.6995,1.698,38.013,29.692333333333334,37.851,34.84,56.096000000000004,35.035,59.355000000000004,52.2155,54.022,34.170500000000004,57.958,50.548,53.18,33.722,57.8875,49.958,-0.10850000000000004,-0.039000000000000146,0.11314500000000001,0.09944000000000001,0.0,212.47500000000002,212.5,209.69,209.69,0.0,0.0
16,0.0,1.0,0.0,1.0,1.0,0.0,0.0,1.0,0.0,100.0,1.0,1.1856,26.0,0.0,0.0,0.0,59.999996,0.0,26.0,26.0,26.0,26.0,0.05675000000000008,0.3296000000000001,-0.0066,292.648,-2.7437,-2.6285,-1.5961,-1.558888888888889,-222.16,215.335,190.66125,0.0,0.0,0.0,0.0,0.03269999999999995,-5.498166666666667,-5.498166666666667,-0.5422,-0.269,0.02287499999999998,-0.9540000000000002,68.045,0.0291,-0.21175000000000002,-0.32399999999999984,100.0,1.0,1.0,210.24,0.0,0.0,0.0,0.0,0.0,0.0,0.0,9760.5,0.0,55.0,4.0,244.92666666666668,0.0,0.0,0.0,0.0,0.0,0.0,1.0,0.0,0.8069999999999986,0.8069999999999986,0.0,0.0,0.0,55.0,616.79921,10000.0,85.000001,85.000001,85.000001,85.000001,395.0,0.0,0.0,0.0,1.0,166.665,52.689,52.689,47.577,47.577,34.0,-23.73,25.384,-27.253333333333337,28.8425,0.0,1780.814,-0.2699999999999996,100.0,27.345,27.781,42.969,43.408,0.0,1.0,100.0,0.0,0.0,0.0,0.0,3165.0,3129.7,4127.75,4060.3,305.374,304.733,314.87475,314.69275,21.9321,20.5966,21.9072,21.4241,314.999998,314.999998,324.999988,324.999988,99.55904285714286,99.50731666666667,99.56647142857143,99.54634285714286,0.10149999999999992,-0.027249999999999996,-0.0895,0.14100000000000001,-0.046666666666666856,-0.05333333333332746,1.708,1.7045,38.076,29.728666666666665,37.92,34.9005,56.081,35.075,59.406,52.291,54.007999999999996,34.207499999999996,58.004999999999995,50.6205,53.165,33.7575,57.931,50.028999999999996,-0.09899999999999998,-0.05049999999999999,0.1135,0.10351,0.0,213.03,213.04000000000002,210.24,210.24,0.0,0.0
17,0.0,1.0,0.0,1.0,1.0,0.0,0.0,1.0,0.0,100.0,1.0,1.1856,26.0,0.0,0.0,0.0,59.999996,0.0,26.0,26.0,26.0,26.0,0.0338750000000001,0.33940000000000015,0.029833333333333333,292.343,-2.6737,-2.609,-1.5592000000000001,-1.5173333333333332,-218.89,215.3275,190.64025,0.0,0.0,0.0,0.0,0.034599999999999964,-5.498166666666667,-5.498166666666667,-0.5398000000000001,0.1715,0.0031250000000000444,-1.0390000000000001,68.205,0.029500000000000002,-0.20467500000000002,-0.24399999999999977,100.0,1.0,1.0,210.67666666666668,0.0,0.0,0.0,0.0,0.0,0.0,0.0,9780.9,0.0,55.0,4.0,245.50333333333333,1.0,0.0,0.0,0.0,0.0,0.0,1.0,0.0,0.8550000000000004,0.8550000000000004,0.0,0.0,1.0,55.0,616.79921,10000.0,85.000001,85.000001,85.000001,85.000001,395.0,0.0,0.0,0.0,1.0,166.665,52.551,52.551,47.226,47.226,34.0,-22.9075,24.908,-27.886666666666663,29.2175,0.0,1780.766,-0.16999999999999815,100.0,27.585,27.902,42.954,43.418,0.0,1.0,100.0,0.0,0.0,0.0,0.0,3130.4285714285716,3122.2,4278.5,4216.1,305.3505,304.75333333333333,314.45475,314.3625,21.941,20.6019,21.9171,21.4327,314.999998,314.999998,324.999988,324.999988,99.55905714285714,99.50731666666667,99.56661428571428,99.5465,0.10175000000000001,-0.032749999999999946,-0.08516666666666667,0.13283333333333336,-0.046666666666666856,-0.054999999999999716,1.6875,1.6855,38.132,29.761666666666667,37.982,34.954499999999996,56.069,35.1115,59.45,52.3575,53.995999999999995,34.241,58.046,50.6845,53.152,33.79,57.969,50.09166666666667,-0.09399999999999986,-0.06300000000000017,0.10927500000000001,0.100375,0.0,213.53,213.57,210.67666666666668,210.67666666666668,0.0,0.0
18,0.0,1.0,0.0,1.0,1.0,0.0,0.0,1.0,0.0,100.0,1.0,1.1856,26.0,0.0,0.0,0.0,59.999996,0.0,26.0,26.0,26.0,26.0,0.047125000000000083,0.33099999999999996,0.046233333333333335,292.328,-2.6635999999999997,-2.742,-1.5407000000000002,-1.4865555555555556,-215.61,215.3225,190.619125,0.0,0.0,0.0,0.0,0.03653333333333331,-5.498166666666667,-5.498166666666667,-0.5495,-0.377,0.0016249999999999876,-0.6179999999999999,68.36500000000001,0.0253,-0.2127,-0.15399999999999991,100.0,1.0,1.0,211.14333333333332,0.0,0.0,0.0,0.0,0.0,0.0,0.0,9802.5,0.0,55.0,4.0,246.07999999999998,0.0,0.0,0.0,0.0,0.0,0.0,1.0,0.0,0.9029999999999987,0.9029999999999987,0.0,0.0,0.0,55.0,616.79921,10000.0,85.000001,85.000001,85.000001,85.000001,395.0,0.0,0.0,0.0,1.0,166.665,52.628,52.628,47.348,47.348,34.0,-23.357499999999998,25.582,-27.39666666666666,29.455,0.0,1780.718,-0.16000000000000014,100.0,27.573,27.801000000000002,43.15,43.573,0.0,1.0,100.0,0.0,0.0,0.0,0.0,3148.4285714285716,3079.9,4185.375,4281.4,305.3705,304.7923333333333,314.645,314.201,21.95,20.607,21.927,21.4414,314.999998,314.999998,324.999988,324.999988,99.55905714285714,99.50733333333334,99.56677142857143,99.54665714285714,0.09125000000000005,-0.03849999999999998,-0.09266666666666667,0.1323333333333332,-0.04833333333333201,-0.05833333333333002,1.673,1.654,38.187,29.793666666666667,38.044,35.0085,56.057,35.1465,59.4945,52.425,53.983999999999995,34.2735,58.088,50.749,53.138999999999996,33.821,58.007999999999996,50.155,-0.09050000000000002,-0.06199999999999983,0.10933000000000001,0.10806500000000001,0.0,214.04000000000002,214.015,211.14333333333332,211.14333333333332,0.0,0.0
19,0.0,1.0,0.0,1.0,1.0,0.0,0.0,1.0,0.0,100.0,1.0,1.1856,26.0,0.0,0.0,0.0,59.999996,0.0,26.0,26.0,26.0,26.0,0.04162500000000002,0.33640000000000003,0.043633333333333336,292.16,-2.6398,-2.710125,-1.5390000000000001,-1.6084444444444443,-212.12,215.3175,190.59625,0.0,0.0,0.0,0.0,0.03853333333333331,-5.498166666666667,-5.498166666666667,-0.5427000000000001,0.58,0.013749999999999929,0.8599999999999999,68.533,0.018500000000000003,-0.2039,-0.07599999999999962,100.0,1.0,1.0,211.69,0.0,0.0,0.0,0.0,0.0,0.0,0.0,9827.9,0.0,55.0,4.0,246.68333333333334,1.0,0.0,0.0,0.0,0.0,0.0,1.0,0.0,0.9540000000000006,0.9540000000000006,0.0,0.0,1.0,55.0,616.79921,10000.0,85.000001,85.000001,85.000001,85.000001,395.0,0.0,0.0,0.0,1.0,166.665,52.261,52.261,47.455,47.455,34.0,-22.2725,25.58,-26.46333333333333,31.9375,0.0,1780.666,-0.129999999999999,100.0,28.238,28.046,43.137,43.481,0.0,1.0,100.0,0.0,0.0,0.0,0.0,3035.142857142857,3138.5,4139.125,4308.4,305.4975,304.7803333333333,314.7405,314.14625,21.959600000000002,20.6126,21.9374,21.4506,314.999998,314.999998,324.999988,324.999988,99.55907142857143,99.50733333333334,99.56694285714286,99.54682857142858,0.09450000000000003,-0.04025000000000001,-0.0825,0.14416666666666678,-0.04833333333333201,-0.05666666666667197,1.684,1.6745,38.247,29.829,38.108999999999995,35.066,56.045,35.1865,59.54,52.4955,53.972,34.3105,58.1305,50.817,53.126999999999995,33.8565,58.047,50.221666666666664,-0.08450000000000002,-0.06899999999999995,0.09829500000000001,0.11761,0.0,214.57999999999998,214.59,211.69,211.69,0.0,0.0
20,0.0,1.0,0.0,1.0,1.0,0.0,0.0,1.0,0.0,100.0,1.0,1.1856,26.0,0.0,0.0,0.0,59.999996,0.0,26.0,26.0,26.0,26.0,0.03499999999999992,0.32299999999999995,-0.017833333333333336,292.252,-2.7105,-2.65525,-1.5257,-1.5905555555555557,-208.62,215.3125,190.573625,0.0,0.0,0.0,0.0,0.04056666666666653,-5.498166666666667,-5.498166666666667,-0.5436,-0.684,0.011874999999999858,-1.0230000000000001,68.702,0.0105,-0.212375,0.009999999999999787,100.0,1.0,1.0,212.17333333333335,0.0,0.0,0.0,0.0,0.0,0.0,0.0,9850.3,0.0,55.0,4.0,247.29333333333335,0.0,0.0,0.0,0.0,0.0,0.0,0.0,0.0,1.004999999999999,1.004999999999999,0.0,0.0,0.0,55.0,616.79921,10000.0,85.000001,85.000001,85.000001,85.000001,395.0,0.0,0.0,0.0,1.0,333.33500000000004,52.704,52.704,47.058,47.058,34.0,-23.607499999999998,23.904,-27.64333333333333,28.697499999999998,0.0,1780.615,-0.19000000000000128,100.0,27.72,27.993,43.591,44.016000000000005,0.0,1.0,100.0,0.0,0.0,0.0,0.0,3108.4285714285716,3026.4,4170.625,4092.1000000000004,305.5485,305.07533333333333,314.701,314.564,21.969,20.6182,21.948,21.4599,314.999998,314.999998,324.999988,324.999988,99.55908571428571,99.50735,99.5671,99.54698571428571,0.08624999999999994,-0.045499999999999985,-0.10366666666666667,0.1186666666666667,-0.05333333333332746,-0.051666666666669414,1.67,1.6644999999999999,38.306,29.863333333333333,38.175,35.1245,56.031,35.225,59.588499999999996,52.5685,53.959,34.346000000000004,58.176,50.887,53.112,33.8905,58.089,50.29,-0.09050000000000002,-0.06150000000000011,0.109905,0.10391500000000001,0.0,215.065,215.06,212.17333333333335,212.17333333333335,0.0,0.0
21,0.0,1.0,0.0,1.0,1.0,0.0,0.0,1.0,0.0,100.0,1.0,1.1856,26.0,0.0,0.0,0.0,59.999996,0.0,26.0,26.0,26.0,26.0,0.016874999999999973,0.32720000000000016,-0.04713333333333333,292.435,-2.7229,-2.62875,-1.573,-1.5350000000000001,-205.32,215.3075,190.552,0.0,0.0,0.0,0.0,0.04249999999999998,-5.498166666666667,-5.498166666666667,-0.5632,-0.035,0.0015000000000000568,-0.597,68.857,0.0064,-0.213175,0.013999999999999346,100.0,1.0,1.0,212.78333333333333,0.0,0.0,0.0,0.0,0.0,0.0,0.0,9878.6,0.0,55.0,4.0,247.85000000000002,1.0,0.0,0.0,0.0,0.0,0.0,0.0,0.0,1.0530000000000008,1.0530000000000008,0.0,0.0,1.0,55.0,616.79921,10000.0,85.000001,85.000001,85.000001,85.000001,395.0,0.0,0.0,0.0,1.0,333.33500000000004,52.521,52.521,47.638,47.638,34.0,-24.74,24.131999999999998,-27.439999999999998,27.145,0.0,1780.567,-0.21999999999999886,100.0,27.791,27.846,43.355000000000004,43.65,0.0,1.0,100.0,0.0,0.0,0.0,0.0,3213.142857142857,3084.3,4084.0,4055.3,305.2335,304.9433333333333,314.96275,314.81,21.978,20.6234,21.9578,21.4685,314.999998,314.999998,324.999988,324.999988,99.5591,99.50735,99.56725714285714,99.54714285714286,0.08450000000000002,-0.04574999999999996,-0.10716666666666667,0.11816666666666675,-0.061666666666667425,-0.05666666666667197,1.73,1.7315,38.361999999999995,29.896,38.236000000000004,35.178,56.018,35.260999999999996,59.631,52.6325,53.947,34.3795,58.215,50.948499999999996,53.099000000000004,33.9225,58.125,50.35,-0.09399999999999986,-0.05750000000000011,0.10309000000000001,0.10598,0.0,215.565,215.55,212.78333333333333,212.78333333333333,0.0,0.0
22,0.0,1.0,0.0,1.0,1.0,0.0,0.0,1.0,0.0,100.0,1.0,1.1856,26.0,0.0,0.0,0.0,59.999996,0.0,26.0,26.0,26.0,26.0,0.005624999999999991,0.33520000000000016,0.0131,291.946,-2.7604,-2.6658749999999998,-1.6042,-1.5021111111111112,-201.8,215.305,190.528,0.0,0.0,0.0,0.0,0.044533333333333314,-5.498166666666667,-5.498166666666667,-0.5483,0.095,0.010624999999999885,1.0070000000000001,69.025,0.0019,-0.1893,-0.16600000000000037,100.0,1.0,1.0,213.11666666666667,0.0,0.0,0.0,0.0,0.0,0.0,0.0,9894.1,0.0,55.0,4.0,248.45666666666665,0.0,0.0,0.0,0.0,0.0,0.0,0.0,0.0,1.1039999999999992,1.1039999999999992,0.0,0.0,0.0,55.0,616.79921,10000.0,85.000001,85.000001,85.000001,85.000001,395.0,0.0,0.0,0.0,1.0,333.33500000000004,52.521,52.521,46.722,46.722,34.0,-23.787499999999998,25.386,-29.996666666666663,30.9775,0.0,1780.515,-0.3550000000000004,100.0,28.015,27.804000000000002,43.578,43.603,0.0,1.0,100.0,0.0,0.0,0.0,0.0,3080.714285714286,3174.4,4313.0,4462.4,305.512,304.85633333333334,314.34525,313.887,21.9875,20.629,21.9683,21.4777,314.999998,314.999998,324.999988,324.999988,99.55911428571429,99.50735,99.56741428571429,99.54731428571428,0.09024999999999994,-0.038250000000000006,-0.10283333333333333,0.1303333333333332,-0.036666666666668846,-0.07499999999999574,1.6505,1.6495,38.422,29.930999999999997,38.302,35.236,56.004999999999995,35.3,59.6785,52.7035,53.934,34.4155,58.2595,51.016999999999996,53.086,33.957,58.166,50.417,-0.10099999999999998,-0.04999999999999982,0.10923500000000001,0.11295000000000001,0.0,216.09,216.095,213.11666666666667,213.11666666666667,0.0,0.0
23,0.0,1.0,0.0,1.0,1.0,0.0,0.0,1.0,0.0,100.0,1.0,1.1856,26.0,0.0,0.0,0.0,59.999996,0.0,26.0,26.0,26.0,26.0,0.02112500000000006,-0.37759999999999994,-0.007833333333333333,291.763,-2.6565,-2.684,-1.6419000000000001,-1.5425555555555557,-198.28,215.3,190.50425,0.0,0.0,0.0,0.0,0.046599999999999975,-5.498166666666667,-5.498166666666667,-0.5854,-1.5915000000000001,0.007249999999999979,-0.5659999999999998,69.035,0.0061,-0.23197500000000001,-0.2060000000000004,100.0,1.0,1.0,209.69,0.0,0.0,0.0,0.0,0.0,0.0,0.0,9767.3,0.0,55.0,0.0,248.57,1.0,0.0,0.0,0.0,0.0,0.0,0.0,0.0,1.1550000000000011,1.1550000000000011,0.0,0.0,1.0,55.0,616.79921,10000.0,85.000001,85.000001,85.000001,85.000001,395.0,0.0,0.0,0.0,1.0,333.33500000000004,51.498,51.498,47.363,47.363,34.0,-25.125,25.177999999999997,-33.406666666666666,32.265,0.0,1780.463,-0.3000000000000007,100.0,28.387999999999998,28.362000000000002,43.673,43.93,0.0,1.0,0.0,0.0,0.0,0.0,0.0,3331.4285714285716,3159.4,4154.75,4073.0,304.8095,304.671,314.80825,314.73225,21.9971,20.6346,21.9789,21.487000000000002,314.999998,314.999998,324.999988,324.999988,99.55911428571429,99.50736666666667,99.56751428571428,99.54741428571428,0.0867500000000001,-0.05025000000000002,-0.09033333333333333,0.11149999999999993,0.005000000000002558,0.0,0.00550000000000006,-0.006000000000000227,38.482,29.96633333333333,38.367999999999995,35.294,55.992000000000004,35.342,59.693,52.7435,53.922,34.454499999999996,58.2725,51.0555,53.072,33.994,58.1765,50.455333333333336,-0.10299999999999998,-0.06450000000000022,0.09581500000000001,0.09401000000000001,0.0,216.17000000000002,216.19,209.69,209.69,0.0,0.0
24,0.0,1.0,0.0,1.0,1.0,0.0,0.0,1.0,0.0,100.0,1.0,1.1856,26.0,0.0,0.0,0.0,59.999996,0.0,26.0,26.0,26.0,26.0,0.03475000000000006,0.16180000000000017,-0.022000000000000002,291.87,-2.6905,-2.64425,-1.5474999999999999,-1.5487777777777778,-194.97,215.2975,190.481375,0.0,0.0,0.0,0.0,0.04849999999999999,-5.498166666666667,-5.498166666666667,-0.6455000000000001,-0.215,0.017749999999999932,0.040999999999999925,68.946,0.0078000000000000005,-0.28775,-0.17799999999999905,100.0,1.0,1.0,212.51,0.0,0.0,0.0,0.0,0.0,0.0,0.0,9007.6,0.0,55.0,5.0,248.18666666666667,0.0,0.0,0.0,0.0,0.0,0.0,0.0,0.0,1.2029999999999994,1.2029999999999994,0.0,0.0,0.0,55.0,616.79921,10000.0,85.000001,85.000001,85.000001,85.000001,395.0,0.0,0.0,0.0,1.0,333.33500000000004,50.308,50.308,48.462,48.462,34.0,-25.869999999999997,26.444,-26.866666666666667,27.25,0.0,1780.416,-0.3150000000000013,100.0,29.349,29.344,42.887,43.152,0.0,1.0,100.0,0.0,0.0,0.0,0.0,3381.714285714286,3327.4,3899.125,3892.7,304.6795,304.1143333333333,315.384,315.231,22.0063,20.6402,21.9884,21.4953,314.999998,314.999998,324.999988,324.999988,99.55912857142857,99.50736666666667,99.56757142857143,99.54745714285714,0.08775,-0.049250000000000016,-0.106,0.11766666666666681,-0.03833333333332689,-0.03166666666666629,1.4115,1.4095,38.539,30.000999999999998,38.427,35.346000000000004,55.985,35.3795,59.683,52.754999999999995,53.915,34.489,58.2625,51.067,53.064,34.0275,58.165,50.46633333333333,-0.10399999999999987,-0.058499999999999996,0.099345,0.10556000000000001,0.0,215.845,215.845,212.51,212.51,0.0,0.0
25,0.0,1.0,0.0,1.0,1.0,0.0,0.0,1.0,0.0,100.0,1.0,1.1856,26.0,0.0,0.0,0.0,59.999996,0.0,26.0,26.0,26.0,26.0,0.030124999999999957,0.26980000000000004,0.03643333333333333,291.595,-2.6698,-2.631875,-1.5908,-1.5486666666666669,-191.45,215.29500000000002,190.456,0.0,0.0,0.0,0.0,0.05056666666666654,-5.498166666666667,-5.498166666666667,-0.6081,0.8165,0.02487499999999998,0.4159999999999999,69.078,0.0103,-0.23425,-0.2939999999999996,100.0,1.0,1.0,212.96666666666667,0.0,0.0,0.0,0.0,0.0,0.0,0.0,9026.9,0.0,55.0,5.0,248.65333333333334,1.0,0.0,0.0,0.0,0.0,0.0,0.0,0.0,1.2540000000000013,1.2540000000000013,0.0,0.0,1.0,55.0,616.79921,10000.0,85.000001,85.000001,85.000001,85.000001,395.0,0.0,0.0,0.0,1.0,166.665,51.056,51.056,47.363,47.363,34.0,-22.6375,26.408,-28.85,31.9,0.0,1780.367,-0.3299999999999983,100.0,29.197,29.134999999999998,42.991,43.147999999999996,0.0,1.0,100.0,0.0,0.0,0.0,0.0,3110.4285714285716,3284.5,4222.0,4375.3,305.312,304.456,314.594,314.06,22.0157,20.646,21.9987,21.5045,314.999998,314.999998,324.999988,324.999988,99.55914285714286,99.50736666666667,99.56771428571429,99.5476,0.10699999999999998,-0.03300000000000003,-0.08600000000000001,0.1326666666666667,-0.04833333333333201,-0.051666666666669414,1.4865,1.4795,38.598,30.037333333333336,38.492000000000004,35.4035,55.973,35.421,59.7195,52.816,53.903,34.527,58.2965,51.126,53.052,34.064,58.196,50.524,-0.10749999999999993,-0.06050000000000022,0.10427000000000002,0.10477500000000001,0.0,216.28,216.29500000000002,212.96666666666667,212.96666666666667,0.0,0.0
26,0.0,1.0,0.0,1.0,1.0,0.0,0.0,1.0,0.0,100.0,1.0,1.1856,26.0,0.0,0.0,0.0,59.999996,0.0,26.0,26.0,26.0,26.0,0.02762500000000001,0.27380000000000004,0.0345,291.336,-2.7054,-2.64725,-1.5541,-1.5553333333333332,-187.92000000000002,215.29250000000002,190.430875,0.0,0.0,0.0,0.0,0.05259999999999998,-5.498166666666667,-5.498166666666667,-0.5847,-0.01,0.009500000000000064,-0.5710000000000002,69.213,0.011600000000000001,-0.223475,-0.242,100.0,1.0,1.0,213.28333333333333,0.0,0.0,0.0,0.0,0.0,0.0,0.0,9040.4,0.0,55.0,5.0,249.14,0.0,0.0,0.0,0.0,0.0,0.0,0.0,0.0,1.3049999999999997,1.3049999999999997,0.0,0.0,0.0,55.0,616.79921,10000.0,85.000001,85.000001,85.000001,85.000001,395.0,0.0,0.0,0.0,1.0,333.33500000000004,51.3,51.3,46.89,46.89,34.0,-24.357499999999998,24.242,-30.64,31.2025,0.0,1780.314,-0.35999999999999943,100.0,29.009,29.016,43.521,43.867000000000004,0.0,1.0,100.0,0.0,0.0,0.0,0.0,3278.4285714285716,3073.5,4373.625,4363.9,305.074,305.0126666666667,314.23675,313.99175,22.0253,20.651699999999998,22.0093,21.5139,314.999998,314.999998,324.999988,324.999988,99.55917142857143,99.50738333333334,99.56785714285714,99.54775714285714,0.10175000000000001,-0.04425000000000001,-0.10400000000000001,0.1156666666666668,-0.046666666666666856,-0.046666666666666856,1.4675,1.4569999999999999,38.658,30.073,38.558,35.462,55.962,35.46,59.7605,52.879999999999995,53.893,34.5635,58.3345,51.1875,53.04,34.099000000000004,58.2305,50.58433333333333,-0.11549999999999994,-0.052000000000000046,0.10836000000000001,0.09854,0.0,216.675,216.675,213.28333333333333,213.28333333333333,0.0,0.0
27,0.0,1.0,0.0,1.0,1.0,0.0,0.0,1.0,0.0,100.0,1.0,1.1856,26.0,0.0,0.0,0.0,59.999996,0.0,26.0,26.0,26.0,26.0,0.029625000000000012,0.25250000000000017,-0.06313333333333335,291.84,-2.7582,-2.657,-1.6159,-1.5294444444444444,-184.6,215.29250000000002,190.407875,0.0,0.0,0.0,0.0,0.05453333333333332,-5.498166666666667,-5.498166666666667,-0.6039,-0.504,0.023125000000000062,-0.4780000000000002,69.336,0.013300000000000001,-0.24432500000000001,-0.20399999999999974,100.0,1.0,1.0,213.79333333333335,0.0,0.0,0.0,0.0,0.0,0.0,0.0,9061.9,0.0,55.0,5.0,249.57999999999998,1.0,0.0,0.0,0.0,0.0,0.0,0.0,0.0,1.352999999999998,1.352999999999998,0.0,0.0,1.0,55.0,616.79921,10000.0,85.000001,85.000001,85.000001,85.000001,395.0,0.0,0.0,0.0,1.0,333.33500000000004,51.727,51.727,47.012,47.012,34.0,-23.82,24.631999999999998,-28.64,29.07,0.0,1780.265,-0.3249999999999993,100.0,28.541,28.856,43.661,43.934,0.0,1.0,100.0,0.0,0.0,0.0,0.0,3134.142857142857,3122.6,4145.375,4100.9,305.5105,304.74766666666665,314.851,314.72875,22.0341,20.657,22.019199999999998,21.5227,314.999998,314.999998,324.999988,324.999988,99.55917142857143,99.5074,99.568,99.54788571428571,0.09675000000000011,-0.05149999999999999,-0.09333333333333332,0.1333333333333333,-0.04333333333332945,-0.04333333333332945,1.5354999999999999,1.532,38.713,30.106333333333332,38.620000000000005,35.5165,55.95,35.497,59.7965,52.938,53.882,34.5975,58.368,51.2435,53.028,34.1315,58.260999999999996,50.638999999999996,-0.10850000000000004,-0.06050000000000022,0.10296500000000001,0.11229000000000001,0.0,217.035,217.04000000000002,213.79333333333335,213.79333333333335,0.0,0.0
28,0.0,1.0,0.0,1.0,1.0,0.0,0.0,1.0,0.0,100.0,1.0,1.1856,26.0,0.0,0.0,0.0,59.999996,0.0,26.0,26.0,26.0,26.0,0.026874999999999982,0.27449999999999997,-0.03286666666666667,291.916,-2.6834,-2.65325,-1.6277,-1.5624444444444443,-181.06,215.29250000000002,190.382375,0.0,0.0,0.0,0.0,0.056599999999999984,-5.498166666666667,-5.498166666666667,-0.6027,0.468,0.008750000000000036,0.2749999999999999,69.46600000000001,0.013800000000000002,-0.21882500000000002,-0.36599999999999966,100.0,1.0,1.0,214.21666666666667,0.0,0.0,0.0,0.0,0.0,0.0,0.0,9079.9,0.0,55.0,5.0,250.05333333333334,0.0,0.0,0.0,0.0,0.0,0.0,0.0,0.0,1.404,1.404,0.0,0.0,0.0,55.0,616.79921,10000.0,85.000001,85.000001,85.000001,85.000001,395.0,0.0,0.0,0.0,1.0,333.33500000000004,51.819,51.819,47.241,47.241,34.0,-22.175,26.048,-28.606666666666662,30.595,0.0,1780.216,-0.3999999999999986,100.0,28.647,28.565,43.386,43.617000000000004,0.0,1.0,100.0,0.0,0.0,0.0,0.0,3053.714285714286,3205.5,4178.25,4189.3,305.5025,304.6933333333333,314.797,314.53875,22.0435,20.6628,22.0295,21.5318,314.999998,314.999998,324.999988,324.999988,99.55918571428572,99.5074,99.56814285714286,99.54804285714286,0.10925000000000007,-0.02949999999999997,-0.085,0.1393333333333333,-0.041666666666671404,-0.05833333333333002,1.539,1.522,38.772,30.142333333333333,38.684,35.574,55.938,35.536500000000004,59.8315,52.9985,53.870000000000005,34.634,58.400999999999996,51.3015,53.016,34.1665,58.2905,50.69566666666667,-0.11199999999999988,-0.04899999999999993,0.10681,0.10727,0.0,217.47,217.47500000000002,214.21666666666667,214.21666666666667,0.0,0.0
29,0.0,1.0,0.0,1.0,1.0,0.0,0.0,1.0,0.0,100.0,1.0,1.1856,26.0,0.0,0.0,0.0,59.999996,0.0,26.0,26.0,26.0,26.0,0.04800000000000004,0.2511000000000001,-0.024266666666666666,291.855,-2.7548,-2.578875,-1.6054,-1.5484444444444443,-177.51,215.29250000000002,190.356,0.0,0.0,0.0,0.0,0.058666666666666534,-5.498166666666667,-5.498166666666667,-0.6085,-0.7010000000000001,0.00024999999999986144,-0.7530000000000001,69.599,0.0171,-0.22015,-0.33000000000000007,100.0,1.0,1.0,214.51666666666665,0.0,0.0,0.0,0.0,0.0,0.0,0.0,9092.6,0.0,55.0,5.0,250.53,1.0,0.0,0.0,0.0,0.0,0.0,0.0,0.0,1.4549999999999983,1.4549999999999983,0.0,0.0,1.0,55.0,616.79921,10000.0,85.000001,85.000001,85.000001,85.000001,395.0,0.0,0.0,0.0,1.0,166.665,52.216,52.216,47.012,47.012,34.0,-24.4425,24.292,-29.47,30.97,0.0,1780.166,-0.4400000000000013,100.0,28.146,28.486,43.686,44.007999999999996,0.0,1.0,100.0,0.0,0.0,0.0,0.0,3230.857142857143,3083.8,4213.875,4243.4,305.4015,305.12666666666667,314.67075,314.28925,22.0528,20.6684,22.0401,21.5412,314.999998,314.999998,324.999988,324.999988,99.5592,99.5074,99.5683,99.5482,0.09650000000000003,-0.02674999999999994,-0.09683333333333333,0.1333333333333333,-0.03166666666666629,-0.04333333333332945,1.4965,1.476,38.83,30.177333333333333,38.75,35.632,55.926,35.574,59.8715,53.0605,53.858000000000004,34.669,58.438,51.3615,53.001999999999995,34.2,58.3245,50.754333333333335,-0.11299999999999999,-0.04150000000000009,0.10466500000000001,0.110115,0.0,217.835,217.86,214.51666666666665,214.51666666666665,0.0,0.0
30,0.0,1.0,0.0,1.0,1.0,0.0,0.0,1.0,0.0,100.0,1.0,1.1856,26.0,0.0,0.0,0.0,59.999996,0.0,26.0,26.0,26.0,26.0,0.061125000000000096,0.27270000000000016,-0.0074,291.10699999999997,-2.6353999999999997,-2.716125,-1.6517,-1.4643333333333333,-174.17000000000002,215.29250000000002,190.331,0.0,0.0,0.0,0.0,0.06059999999999999,-5.498166666666667,-5.498166666666667,-0.6086,0.838,0.004874999999999963,-0.23499999999999988,69.72,0.0194,-0.21882500000000002,-0.3700000000000001,100.0,1.0,1.0,214.98333333333335,0.0,0.0,0.0,0.0,0.0,0.0,0.0,9112.3,0.0,55.0,5.0,250.96666666666667,0.0,0.0,0.0,0.0,0.0,0.0,1.0,0.0,1.5030000000000001,1.5030000000000001,0.0,0.0,0.0,55.0,616.79921,10000.0,85.000001,85.000001,85.000001,85.000001,395.0,0.0,0.0,0.0,1.0,333.33500000000004,50.43,50.43,47.073,47.073,34.0,-24.98,28.061999999999998,-29.42,29.0925,0.0,1780.116,-0.4499999999999993,100.0,29.086,29.142,43.51,43.972,0.0,1.0,100.0,0.0,0.0,0.0,0.0,3471.142857142857,3349.7,4245.0,4214.2,304.4935,304.03633333333335,314.735,314.59775,22.061799999999998,20.674,22.0498,21.5498,314.999998,314.999998,324.999988,324.999988,99.55921428571429,99.5074,99.56844285714286,99.54832857142857,0.10875000000000012,-0.034499999999999975,-0.08616666666666667,0.13650000000000007,-0.04833333333333201,-0.05666666666667197,1.5465,1.5375,38.885999999999996,30.212333333333333,38.811,35.6865,55.918,35.613,59.905,53.1175,53.849999999999994,34.704499999999996,58.469,51.4165,52.992999999999995,34.2345,58.3525,50.808,-0.125,-0.0535000000000001,0.09942000000000001,0.11171500000000001,0.0,218.25,218.255,214.98333333333335,214.98333333333335,0.0,0.0
31,0.0,1.0,0.0,1.0,1.0,0.0,0.0,1.0,0.0,100.0,1.0,1.1856,26.0,0.0,0.0,0.0,59.999996,0.0,26.0,26.0,26.0,26.0,0.04225000000000012,0.2651000000000001,0.08116666666666666,290.634,-2.7738,-2.620125,-1.6485,-1.5403333333333333,-170.61,215.29500000000002,190.305125,0.0,0.0,0.0,0.0,0.06266666666666654,-5.498166666666667,-5.498166666666667,-0.5868,-0.3165,0.020499999999999963,0.937,69.85300000000001,0.025,-0.219725,-0.46200000000000063,100.0,1.0,1.0,215.18,0.0,0.0,0.0,0.0,0.0,0.0,0.0,9120.7,0.0,55.0,5.0,251.44666666666666,1.0,0.0,0.0,0.0,0.0,0.0,1.0,0.0,1.5539999999999985,1.5539999999999985,0.0,0.0,1.0,55.0,616.79921,10000.0,85.000001,85.000001,85.000001,85.000001,395.0,0.0,0.0,0.0,1.0,166.665,50.980000000000004,50.980000000000004,45.547,45.547,34.0,-23.255,27.918,-30.636666666666663,33.6325,0.0,1780.066,-0.46000000000000085,100.0,29.097,29.137999999999998,44.416,44.682,0.0,1.0,100.0,0.0,0.0,0.0,0.0,3145.0,3402.9,4345.875,4489.1,305.3255,304.1646666666667,314.20025,313.697,22.0711,20.6798,22.0605,21.5594,314.999998,314.999998,324.999988,324.999988,99.55922857142858,99.5074,99.56858571428572,99.54848571428572,0.11975000000000002,-0.02100000000000002,-0.07666666666666667,0.14000000000000012,-0.03166666666666629,-0.04833333333333201,1.4304999999999999,1.4249999999999998,38.944,30.249000000000002,38.878,35.746,55.907,35.653,59.946,53.183,53.84,34.742,58.5075,51.4795,52.982,34.269999999999996,58.3875,50.86966666666667,-0.11999999999999988,-0.04249999999999998,0.10467000000000001,0.10357500000000001,0.0,218.62,218.655,215.18,215.18,0.0,0.0
32,0.0,1.0,0.0,1.0,1.0,0.0,0.0,1.0,0.0,100.0,1.0,1.1856,26.0,0.0,0.0,0.0,59.999996,0.0,26.0,26.0,26.0,26.0,0.06299999999999994,0.26350000000000007,-0.017566666666666668,291.351,-2.7077999999999998,-2.6721250000000003,-1.5943,-1.616,-167.04,215.2975,190.279625,0.0,0.0,0.0,0.0,0.06476666666666653,-5.498166666666667,-5.498166666666667,-0.607,-0.368,0.0003750000000000142,-1.085,69.979,0.0286,-0.23450000000000001,-0.41999999999999993,100.0,1.0,1.0,215.73000000000002,0.0,0.0,0.0,0.0,0.0,0.0,0.0,9144.0,0.0,55.0,5.0,251.9,0.0,0.0,0.0,0.0,0.0,0.0,1.0,0.0,1.6050000000000004,1.6050000000000004,0.0,0.0,0.0,55.0,616.79921,10000.0,85.000001,85.000001,85.000001,85.000001,395.0,0.0,0.0,0.0,1.0,166.665,51.544,51.544,46.661,46.661,34.0,-22.794999999999998,25.448,-27.743333333333332,31.8575,0.0,1780.016,-0.4549999999999983,100.0,28.713,29.144,44.125,44.705,0.0,1.0,100.0,0.0,0.0,0.0,0.0,3155.5714285714284,3094.9,4104.25,4181.1,305.4115,304.86066666666665,314.90725,314.43325,22.0804,20.6856,22.0709,21.5687,314.999998,314.999998,324.999988,324.999988,99.55925714285715,99.50741666666667,99.56872857142857,99.54864285714285,0.11499999999999999,-0.02849999999999997,-0.0845,0.1443333333333332,-0.04333333333332945,-0.05333333333332746,1.5145,1.4985,39.001999999999995,30.285333333333334,38.943,35.804,55.896,35.692499999999995,59.9825,53.244,53.829,34.7785,58.5415,51.538,52.97,34.305,58.418,50.92733333333334,-0.11799999999999988,-0.04800000000000004,0.10589000000000001,0.111865,0.0,219.01999999999998,219.06,215.73000000000002,215.73000000000002,0.0,0.0
33,0.0,1.0,0.0,1.0,1.0,0.0,0.0,1.0,0.0,100.0,1.0,1.1856,26.0,0.0,0.0,0.0,59.999996,0.0,26.0,26.0,26.0,26.0,0.056499999999999995,0.26080000000000014,-0.047733333333333336,291.626,-2.7175,-2.6865,-1.5985,-1.5796666666666668,-163.68,215.3025,190.254625,0.0,0.0,0.0,0.0,0.06669999999999998,-5.498166666666667,-5.498166666666667,-0.6156,-0.17550000000000002,-0.001875000000000071,-0.2410000000000001,70.1,0.0304,-0.216725,-0.4379999999999997,100.0,1.0,1.0,216.12,0.0,0.0,0.0,0.0,0.0,0.0,0.0,9160.5,0.0,55.0,5.0,252.33666666666664,1.0,0.0,0.0,0.0,0.0,0.0,1.0,0.0,1.6529999999999987,1.6529999999999987,0.0,0.0,1.0,55.0,616.79921,10000.0,85.000001,85.000001,85.000001,85.000001,395.0,0.0,0.0,0.0,1.0,333.33500000000004,51.849000000000004,51.849000000000004,46.967,46.967,34.0,-22.83,24.86,-28.046666666666667,30.9525,0.0,1779.966,-0.46999999999999886,100.0,28.549,28.837,43.891999999999996,44.425,0.0,1.0,100.0,0.0,0.0,0.0,0.0,3167.5714285714284,3029.7,4131.125,4173.6,305.3885,305.0686666666667,314.8835,314.54725,22.0891,20.691,22.0807,21.5773,314.999998,314.999998,324.999988,324.999988,99.55927142857144,99.50741666666667,99.56887142857143,99.54878571428571,0.11824999999999997,-0.030749999999999944,-0.08766666666666667,0.14200000000000013,-0.061666666666667425,-0.03833333333332689,1.5345,1.516,39.057,30.318666666666665,39.004,35.858000000000004,55.885,35.7275,60.0165,53.3005,53.819,34.8105,58.573,51.592,52.958,34.336,58.4465,50.980000000000004,-0.11850000000000005,-0.047499999999999876,0.10814000000000001,0.11180500000000002,0.0,219.41500000000002,219.4,216.12,216.12,0.0,0.0
34,0.0,1.0,0.0,1.0,1.0,0.0,0.0,1.0,0.0,100.0,1.0,1.1856,26.0,0.0,0.0,0.0,59.999996,0.0,26.0,26.0,26.0,26.0,0.04212499999999997,0.25429999999999997,-0.09203333333333334,291.87,-2.6708,-2.67725,-1.6303,-1.5222222222222221,-160.1,215.31,190.2265,0.0,0.0,0.0,0.0,0.06876666666666653,-5.498166666666667,-5.498166666666667,-0.6413,-0.899,0.02024999999999988,0.8659999999999999,70.229,0.0324,-0.220175,-0.42799999999999905,100.0,1.0,1.0,216.47,0.0,0.0,0.0,0.0,0.0,0.0,0.0,9175.4,0.0,55.0,5.0,252.8,0.0,0.0,0.0,0.0,0.0,0.0,1.0,0.0,1.7040000000000006,1.7040000000000006,0.0,0.0,0.0,55.0,616.79921,10000.0,85.000001,85.000001,85.000001,85.000001,395.0,0.0,0.0,0.0,1.0,166.665,52.475,52.475,47.073,47.073,34.0,-20.537499999999998,25.268,-27.619999999999997,31.5025,0.0,1779.917,-0.46999999999999886,100.0,28.368,28.392,43.871,44.425,0.0,1.0,100.0,0.0,0.0,0.0,0.0,2951.5714285714284,3070.1,4109.875,4275.2,305.902,305.22833333333335,314.892,314.34275,22.0982,20.6966,22.0911,21.5866,314.999998,314.999998,324.999988,324.999988,99.55928571428572,99.50741666666667,99.56902857142857,99.54892857142858,0.12349999999999994,-0.019499999999999962,-0.07266666666666667,0.15016666666666678,-0.04333333333332945,-0.03999999999999915,1.528,1.502,39.114000000000004,30.353666666666665,39.069,35.9165,55.872,35.7635,60.0525,53.362,53.806,34.8445,58.606,51.652,52.945,34.368,58.4765,51.038333333333334,-0.11499999999999999,-0.04800000000000004,0.10451,0.10772500000000002,0.0,219.76999999999998,219.79500000000002,216.47,216.47,0.0,0.0
35,0.0,1.0,0.0,1.0,1.0,0.0,0.0,1.0,0.0,100.0,1.0,1.1856,26.0,0.0,0.0,0.0,59.999996,0.0,26.0,26.0,26.0,26.0,0.07050000000000001,0.25639999999999996,-0.062200000000000005,291.733,-2.8037,-2.6491249999999997,-1.5405,-1.5791111111111111,-156.51999999999998,215.3175,190.1965,0.0,0.0,0.0,0.0,0.07086666666666652,-5.498166666666667,-5.498166666666667,-0.6786,-0.029,-0.001875000000000071,-1.3359999999999999,70.355,0.0362,-0.22617500000000001,-0.39999999999999947,100.0,1.0,1.0,216.96,0.0,0.0,0.0,0.0,0.0,0.0,0.0,9196.2,0.0,55.0,5.0,253.25,1.0,0.0,0.0,0.0,0.0,0.0,1.0,0.0,1.754999999999999,1.754999999999999,0.0,0.0,1.0,55.0,616.79921,10000.0,85.000001,85.000001,85.000001,85.000001,395.0,0.0,0.0,0.0,1.0,333.33500000000004,51.559,51.559,46.89,46.89,34.0,-24.555,26.753999999999998,-26.043333333333337,29.79,0.0,1779.864,-0.259999999999998,100.0,28.206,28.963,43.532,43.982,0.0,1.0,100.0,0.0,0.0,0.0,0.0,3208.142857142857,3282.5,4120.0,4042.5,305.27,304.29066666666665,314.97525,314.9435,22.1072,20.7025,22.1013,21.5958,314.999998,314.999998,324.999988,324.999988,99.5593,99.50743333333334,99.56917142857142,99.54908571428571,0.10650000000000004,-0.03474999999999995,-0.07016666666666667,0.14800000000000013,-0.06666666666666998,-0.04333333333332945,1.5675,1.5565,39.17,30.390333333333334,39.132999999999996,35.9735,55.858000000000004,35.803,60.087,53.4195,53.793,34.881,58.638,51.707,52.931,34.4035,58.504999999999995,51.09233333333333,-0.10099999999999998,-0.06599999999999984,0.10017000000000001,0.10473500000000001,0.0,220.19,220.195,216.96,216.96,0.0,0.0
