,ABS Active,ABS Enabled,AID Allow Tire Blankets,AID Auto Blip,AID Auto Clutch,AID Auto Shift,AID Fuel Rate,AID Ideal Line,AID Mech Damage,AID Stability,AID Tire Wear Rate,Air Density,Air Temp,Ballast,Best Lap Delta,Best Lap Time,Brake Bias,Brake Pos,Brake Temp FL,Brake Temp FR,Brake Temp RL,Brake Temp RR,CG Accel Lateral,CG Accel Longitudinal,CG Accel Vertical,CG Height,Camber FL,Camber FR,Camber RL,Camber RR,Car Coord X,Car Coord Y,Car Coord Z,Car Damage Front,Car Damage Left,Car Damage Rear,Car Damage Right,Car Pos Norm,Caster FL,Caster FR,Chassis Pitch Angle,Chassis Pitch Rate,Chassis Roll Angle,Chassis Roll Rate,Chassis Velocity X,Chassis Velocity Y,Chassis Velocity Z,Chassis Yaw Rate,Clutch Pos,DRS Active,DRS Available,Drive Train Speed,ERS Heat Charging,ERS Is Charging,ERS Max Energy,ERS Power Level,ERS Recovery Level,Engine Brake Setting,Engine Limiter,Engine RPM,Flags,Fuel Level,Gear,Ground Speed,HR Sample Clock,In Pit,KERS Charge,KERS Deployed Energy,KERS Input,KERS Max Energy,LR Sample Clock,Lap Invalidated,Lap Time,Lap Time2,Last Lap Time,Last Sector Time,MR Sample Clock,Max Fuel,Max Power,Max RPM,Max Sus Travel FL,Max Sus Travel FR,Max Sus Travel RL,Max Sus Travel RR,Max Torque,Max Turbo Boost,Num Tires Off Track,Penalties Enabled,Position,Raw Data Sample Rate,Ride Height FL,Ride Height FR,Ride Height RL,Ride Height RR,Road Temp,Self Align Torque FL,Self Align Torque FR,Self Align Torque RL,Self Align Torque RR,Session Lap Count,Session Time Left,Steering Angle,Surface Grip,Suspension Travel FL,Suspension Travel FR,Suspension Travel RL,Suspension Travel RR,TC Active,TC Enabled,Throttle Pos,Tire Dirt Level FL,Tire Dirt Level FR,Tire Dirt Level RL,Tire Dirt Level RR,Tire Load FL,Tire Load FR,Tire Load RL,Tire Load RR,Tire Loaded Radius FL,Tire Loaded Radius FR,Tire Loaded Radius RL,Tire Loaded Radius RR,Tire Pressure FL,Tire Pressure FR,Tire Pressure RL,Tire Pressure RR,Tire Radius FL,Tire Radius FR,Tire Radius RL,Tire Radius RR,Tire Rubber Grip FL,Tire Rubber Grip FR,Tire Rubber Grip RL,Tire Rubber Grip RR,Tire Slip Angle FL,Tire Slip Angle FR,Tire Slip Angle RL,Tire Slip Angle RR,Tire Slip Ratio FL,Tire Slip Ratio FR,Tire Slip Ratio RL,Tire Slip Ratio RR,Tire Temp Core FL,Tire Temp Core FR,Tire Temp Core RL,Tire Temp Core RR,Tire Temp Inner FL,Tire Temp Inner FR,Tire Temp Inner RL,Tire Temp Inner RR,Tire Temp Middle FL,Tire Temp Middle FR,Tire Temp Middle RL,Tire Temp Middle RR,Tire Temp Outer FL,Tire Temp Outer FR,Tire Temp Outer RL,Tire Temp Outer RR,Toe In FL,Toe In FR,Toe In RL,Toe In RR,Turbo Boost,Wheel Angular Speed FL,Wheel Angular Speed FR,Wheel Angular Speed RL,Wheel Angular Speed RR,Wind Direction,Wind Speed
0,0.0,1.0,0.0,1.0,1.0,0.0,0.0,1.0,0.0,100.0,1.0,1.1856,26.0,0.0,0.0,0.0,59.99999,0.0,26.0,26.0,26.0,26.0,-0.07611111111111102,0.32620000000000005,0.07390000000000001,294.724,-2.725,-2.6723333333333334,-1.50205,-1.5507,-275.76,216.29000000000002,190.98875,0.0,0.0,0.0,0.0,0.0015666666666666051,-5.498166666666667,-5.498166666666667,-0.5669000000000001,1.3386666666666667,-0.012555555555555653,-1.084,64.07900000000001,-0.037200000000000004,-0.2222,0.9979999999999993,100.0,1.0,1.0,198.01,0.0,0.0,0.0,0.0,0.0,0.0,0.0,8392.9,0.0,55.0,4.0,230.65,0.0,0.0,0.0,0.0,0.0,0.0,0.0,0.0,0.0030000000000001137,0.0030000000000001137,0.0,0.0,0.0,55.0,616.79921,10000.0,85.0,85.0,85.0,85.0,395.0,0.0,0.0,0.0,1.0,20.0,52.979,52.979,50.766,50.766,34.0,-28.3825,24.656,-28.586666666666666,22.697499999999998,0.0,1782.946,0.7800000000000011,100.0,26.867,26.256,39.769999999999996,39.81,0.0,1.0,100.0,0.0,0.0,0.0,0.0,3158.4285714285716,3450.5,3963.625,3808.1000000000004,305.2935,303.783,315.2535,315.3315,21.782899999999998,20.5134,21.7368,21.2809,314.99999,314.99999,324.99998,324.99998,99.55901428571428,99.50718333333333,99.56302857142857,99.54324285714286,-0.012499999999999956,-0.11199999999999999,-0.1638,0.05600000000000005,-0.05833333333333002,-0.06499999999999773,1.612,1.6646666666666667,37.143,29.2085,36.855000000000004,34.006,56.305,34.474000000000004,58.238,50.837,54.223,33.6395,56.9065,49.235,53.394,33.196,56.8875,48.67366666666666,-0.008499999999999952,-0.12250000000000005,0.11039000000000002,0.10436000000000001,0.0,200.865,200.79000000000002,198.01,198.01,0.0,0.0
1,0.0,1.0,0.0,1.0,1.0,0.0,0.0,1.0,0.0,100.0,1.0,1.1856,26.0,0.0,0.0,0.0,59.999996,0.0,26.0,26.0,26.0,26.0,-0.122,0.3316000000000001,-0.0128,293.9,-2.6612999999999998,-2.7732222222222225,-1.5217,-1.538,-272.49,216.285,190.969,0.0,0.0,0.0,0.0,0.003466666666666507,-5.498166666666667,-5.498166666666667,-0.48760000000000003,-0.043666666666666666,-0.052999999999999936,-0.050000000000000044,64.241,-0.048600000000000004,-0.183975,1.3000000000000007,100.0,1.0,1.0,198.12333333333333,0.0,0.0,0.0,0.0,0.0,0.0,0.0,8397.7,0.0,55.0,4.0,231.23666666666668,1.0,0.0,0.0,0.0,0.0,0.0,0.0,0.0,0.053999999999998494,0.053999999999998494,0.0,0.0,1.0,55.0,616.79921,10000.0,85.000001,85.000001,85.000001,85.000001,395.0,0.0,0.0,0.0,1.0,333.33500000000004,54.596000000000004,54.596000000000004,48.888999999999996,48.888999999999996,34.0,-25.3275,17.148,-33.25666666666666,28.6075,0.0,1782.894,0.9450000000000003,100.0,27.049,26.382,42.193,40.772999999999996,0.0,1.0,100.0,0.0,0.0,0.0,0.0,2895.142857142857,2540.6,4254.25,4704.2,305.8795,306.7505,314.4115,313.143,21.7927,20.5184,21.7473,21.2897,314.999998,314.999998,324.999988,324.999988,99.55901428571428,99.50721666666666,99.56318571428571,99.54338571428572,-0.010750000000000037,-0.134,-0.177,0.03440000000000021,-0.021666666666668277,-0.03333333333333144,1.4143333333333334,1.4716666666666667,37.204,29.240000000000002,36.92,34.0605,56.289,34.513999999999996,58.285,50.9025,54.207,33.676,56.95,49.2975,53.378,33.231,56.9285,48.73533333333333,-0.0015000000000000568,-0.14049999999999985,0.09999000000000001,0.11044000000000001,0.0,201.34,201.24,198.12333333333333,198.12333333333333,0.0,0.0
2,0.0,1.0,0.0,1.0,1.0,0.0,0.0,1.0,0.0,100.0,1.0,1.1856,26.0,0.0,0.0,0.0,59.999996,0.0,26.0,26.0,26.0,26.0,-0.13444444444444448,0.31100000000000017,-0.009966666666666667,294.647,-2.60005,-2.8216666666666668,-1.48085,-1.6157000000000001,-269.21,216.2775,190.95075,0.0,0.0,0.0,0.0,0.00536666666666652,-5.498166666666667,-5.498166666666667,-0.5496,-0.5223333333333334,-0.06344444444444441,1.783,64.39,-0.06720000000000001,-0.248375,1.6440000000000001,100.0,1.0,1.0,199.07999999999998,0.0,0.0,0.0,0.0,0.0,0.0,0.0,8438.3,0.0,55.0,4.0,231.77666666666667,0.0,0.0,0.0,0.0,0.0,0.0,0.0,0.0,0.10500000000000043,0.10500000000000043,0.0,0.0,0.0,55.0,616.79921,10000.0,85.000001,85.000001,85.000001,85.000001,395.0,0.0,0.0,0.0,1.0,333.33500000000004,53.36,53.36,51.056,51.056,34.0,-30.439999999999998,18.978,-28.536666666666665,18.985,0.0,1782.842,0.8249999999999993,100.0,27.451999999999998,26.181,41.953,40.679,0.0,1.0,100.0,0.0,0.0,0.0,0.0,3390.4285714285716,2786.9,3700.25,3474.0,304.513,306.01025,315.72175,316.26975,21.802599999999998,20.5231,21.7574,21.2982,314.999998,314.999998,324.999988,324.999988,99.55901428571428,99.50721666666666,99.56331428571428,99.54351428571428,-0.02774999999999994,-0.14700000000000002,-0.2206,0.014399999999999968,-0.05833333333333002,-0.06666666666666998,1.6653333333333333,1.7276666666666667,37.266,29.2695,36.983999999999995,34.114,56.275,34.5495,58.324,50.9615,54.194,33.7085,56.9865,49.354,53.364,33.262,56.962,48.79066666666667,-0.006000000000000005,-0.13750000000000018,0.10576500000000001,0.110585,0.0,201.785,201.66500000000002,199.07999999999998,199.07999999999998,0.0,0.0
3,0.0,1.0,0.0,1.0,1.0,0.0,0.0,1.0,0.0,100.0,1.0,1.1856,26.0,0.0,0.0,0.0,59.999996,0.0,26.0,26.0,26.0,26.0,-0.13877777777777778,0.3256000000000001,0.07033333333333334,294.281,-2.7412,-2.699,-1.50305,-1.5784,-265.92,216.26749999999998,190.9315,0.0,0.0,0.0,0.0,0.0072666666666665325,-5.498166666666667,-5.498166666666667,-0.5128,0.51,-0.004888888888888943,0.4580000000000002,64.55,-0.0825,-0.196275,1.1679999999999993,100.0,1.0,1.0,199.24,0.0,0.0,0.0,0.0,0.0,0.0,0.0,8445.0,0.0,55.0,4.0,232.34333333333333,1.0,0.0,0.0,0.0,0.0,0.0,0.0,0.0,0.1559999999999988,0.1559999999999988,0.0,0.0,1.0,55.0,616.79921,10000.0,85.000001,85.000001,85.000001,85.000001,395.0,0.0,0.0,0.0,1.0,166.665,54.199,54.199,49.088,49.088,34.0,-25.3875,19.118,-33.78666666666666,23.9325,0.0,1782.793,0.629999999999999,100.0,27.256,26.281,41.584,40.524,0.0,1.0,100.0,0.0,0.0,0.0,0.0,2821.714285714286,2869.7,4210.875,4192.6,306.1505,305.7095,314.5115,314.4805,21.8123,20.5281,21.7674,21.3067,314.999998,314.999998,324.999988,324.999988,99.55902857142857,99.50723333333333,99.56344285714286,99.54365714285714,-0.016999999999999904,-0.13524999999999998,-0.2086,0.013000000000000123,-0.030000000000001137,-0.04833333333333201,1.5113333333333334,1.5573333333333332,37.327,29.3005,37.046,34.167,56.259,34.5895,58.363,51.024,54.179,33.746,57.0235,49.414,53.348,33.2975,56.996,48.849333333333334,-0.027499999999999858,-0.1160000000000001,0.10634500000000001,0.107255,0.0,202.315,202.22,199.24,199.24,0.0,0.0
4,0.0,1.0,0.0,1.0,1.0,0.0,0.0,1.0,0.0,100.0,1.0,1.1856,26.0,0.0,0.0,0.0,59.999996,0.0,26.0,26.0,26.0,26.0,-0.13544444444444448,0.2977000000000001,-0.019133333333333336,294.51,-2.67995,-2.7583333333333333,-1.43995,-1.5813000000000001,-262.82,216.255,190.913375,0.0,0.0,0.0,0.0,0.009066666666666556,-5.498166666666667,-5.498166666666667,-0.5402,-0.9713333333333334,-0.06755555555555581,-0.895,64.693,-0.0847,-0.23125,1.1340000000000003,100.0,1.0,1.0,199.77666666666667,0.0,0.0,0.0,0.0,0.0,0.0,0.0,8467.8,0.0,55.0,4.0,232.86666666666667,0.0,0.0,0.0,0.0,0.0,0.0,0.0,0.0,0.20400000000000063,0.20400000000000063,0.0,0.0,0.0,55.0,616.79921,10000.0,85.000001,85.000001,85.000001,85.000001,395.0,0.0,0.0,0.0,1.0,166.665,54.031,54.031,49.408,49.408,34.0,-27.29,19.782,-30.93,20.875,0.0,1782.745,0.5949999999999989,100.0,26.998,26.044,42.044,40.793,0.0,1.0,100.0,0.0,0.0,0.0,0.0,3051.5714285714284,2907.4,4068.875,3679.3,305.563,305.58,314.88275,315.64625,21.8212,20.5327,21.7771,21.314799999999998,314.999998,314.999998,324.999988,324.999988,99.55904285714286,99.50725,99.56358571428571,99.54378571428572,-0.02024999999999988,-0.139,-0.2006,0.0244000000000002,-0.07666666666666799,-0.041666666666671404,1.561,1.6273333333333335,37.382,29.3295,37.107,34.2175,56.242000000000004,34.6265,58.4035,51.081,54.162,33.7795,57.061,49.4685,53.331,33.33,57.0315,48.903,-0.02299999999999991,-0.11399999999999988,0.10954000000000001,0.10753000000000001,0.0,202.73000000000002,202.63,199.77666666666667,199.77666666666667,0.0,0.0
5,0.0,1.0,0.0,1.0,1.0,0.0,0.0,1.0,0.0,100.0,1.0,1.1856,26.0,0.0,0.0,0.0,59.999996,0.0,26.0,26.0,26.0,26.0,-0.119,0.3137000000000001,-0.0356,294.693,-2.6833,-2.815444444444444,-1.4983,-1.5889,-259.51,216.2375,190.893625,0.0,0.0,0.0,0.0,0.010999999999999899,-5.498166666666667,-5.498166666666667,-0.5383,0.47533333333333333,-0.08311111111111114,-0.32200000000000006,64.846,-0.0853,-0.21325000000000002,1.0620000000000012,100.0,1.0,1.0,200.26666666666665,0.0,0.0,0.0,0.0,0.0,0.0,0.0,8488.6,0.0,55.0,4.0,233.41666666666669,1.0,0.0,0.0,0.0,0.0,0.0,0.0,0.0,0.254999999999999,0.254999999999999,0.0,0.0,1.0,55.0,616.79921,10000.0,85.000001,85.000001,85.000001,85.000001,395.0,0.0,0.0,0.0,1.0,333.33500000000004,54.367,54.367,50.064,50.064,34.0,-27.52,18.323999999999998,-32.276666666666664,21.6675,0.0,1782.693,0.3550000000000004,100.0,27.042,26.073,41.682,40.342,0.0,1.0,100.0,0.0,0.0,0.0,0.0,3089.714285714286,2659.4,4040.25,3911.3,305.5525,306.196,315.056,315.102,21.831,20.5377,21.7872,21.3232,314.999998,314.999998,324.999988,324.999988,99.55904285714286,99.50726666666667,99.56371428571428,99.54391428571428,-0.01924999999999999,-0.14200000000000002,-0.22380000000000003,0.006399999999999961,-0.05833333333333002,-0.061666666666667425,1.581,1.625,37.444,29.360500000000002,37.17,34.269999999999996,56.227000000000004,34.665,58.444,51.1375,54.147999999999996,33.815,57.099000000000004,49.522999999999996,53.316,33.364,57.067,48.956,-0.04299999999999993,-0.10199999999999987,0.11306000000000001,0.10845500000000001,0.0,203.235,203.135,200.26666666666665,200.26666666666665,0.0,0.0
6,0.0,1.0,0.0,1.0,1.0,0.0,0.0,1.0,0.0,100.0,1.0,1.1856,26.0,0.0,0.0,0.0,59.999996,0.0,26.0,26.0,26.0,26.0,-0.10822222222222211,0.28990000000000005,-0.011466666666666668,294.479,-2.65795,-2.750222222222222,-1.5418,-1.6128,-256.4,216.2175,190.874625,0.0,0.0,0.0,0.0,0.012799999999999923,-5.498166666666667,-5.498166666666667,-0.5338,-0.07133333333333333,-0.06599999999999984,-0.4849999999999999,64.992,-0.079,-0.21250000000000002,0.806,100.0,1.0,1.0,200.66,0.0,0.0,0.0,0.0,0.0,0.0,0.0,8505.2,0.0,55.0,4.0,233.94,0.0,0.0,0.0,0.0,0.0,0.0,0.0,0.0,0.3030000000000008,0.3030000000000008,0.0,0.0,0.0,55.0,616.79921,10000.0,85.000001,85.000001,85.000001,85.000001,395.0,0.0,0.0,0.0,1.0,333.33500000000004,54.062,54.062,49.911,49.911,34.0,-27.802500000000002,19.566,-32.406666666666666,22.42,0.0,1782.645,0.15500000000000114,100.0,26.869,26.046,41.736000000000004,40.677,0.0,1.0,100.0,0.0,0.0,0.0,0.0,3173.5714285714284,2826.3,4015.25,3895.1000000000004,305.3,305.69825,315.09475,315.08025,21.8401,20.5423,21.7967,21.3313,314.999998,314.999998,324.999988,324.999988,99.55904285714286,99.50728333333333,99.56385714285715,99.54405714285714,-0.010000000000000009,-0.13,-0.2144,0.012599999999999945,-0.05833333333333002,-0.04833333333333201,1.5356666666666667,1.5746666666666667,37.501000000000005,29.389499999999998,37.230000000000004,34.321,56.212,34.7005,58.4835,51.196,54.134,33.8475,57.1355,49.579,53.301,33.394999999999996,57.1005,49.010666666666665,-0.057499999999999885,-0.08300000000000018,0.10987500000000001,0.09845500000000001,0.0,203.65,203.565,200.66,200.66,0.0,0.0
7,0.0,1.0,0.0,1.0,1.0,0.0,0.0,1.0,0.0,100.0,1.0,1.1856,26.0,0.0,0.0,0.0,59.999996,0.0,26.0,26.0,26.0,26.0,-0.08599999999999997,0.3002,0.03963333333333333,294.25,-2.7089,-2.7455555555555557,-1.5088,-1.5563,-253.07999999999998,216.195,190.854625,0.0,0.0,0.0,0.0,0.014733333333333376,-5.498166666666667,-5.498166666666667,-0.5367000000000001,-0.13,-0.049666666666666526,1.1440000000000001,65.144,-0.0659,-0.217175,0.4079999999999995,100.0,1.0,1.0,201.08333333333331,0.0,0.0,0.0,0.0,0.0,0.0,0.0,8523.2,0.0,55.0,4.0,234.49,1.0,0.0,0.0,0.0,0.0,0.0,0.0,0.0,0.3539999999999992,0.3539999999999992,0.0,0.0,1.0,55.0,616.79921,10000.0,85.000001,85.000001,85.000001,85.000001,395.0,0.0,0.0,0.0,1.0,333.33500000000004,53.864,53.864,49.789,49.789,34.0,-26.73,22.09,-29.676666666666666,24.4025,0.0,1782.593,-0.19500000000000028,100.0,27.026,25.942,41.843,40.739000000000004,0.0,1.0,100.0,0.0,0.0,0.0,0.0,3156.714285714286,2974.5,4013.0,4062.6000000000004,305.199,305.44425,315.00975,314.78075,21.8498,20.5473,21.8069,21.34,314.999998,314.999998,324.999988,324.999988,99.55904285714286,99.5073,99.564,99.54418571428572,0.027249999999999996,-0.09075,-0.1646,0.04520000000000013,-0.03166666666666629,-0.060000000000002274,1.5430000000000001,1.566,37.561,29.4205,37.293,34.375,56.196,34.738,58.524,51.257,54.119,33.882,57.174,49.6375,53.285,33.428,57.135999999999996,49.068333333333335,-0.08450000000000002,-0.05549999999999988,0.09821500000000001,0.11240000000000001,0.0,204.085,204.06,201.08333333333331,201.08333333333331,0.0,0.0
8,0.0,1.0,0.0,1.0,1.0,0.0,0.0,1.0,0.0,100.0,1.0,1.1856,26.0,0.0,0.0,0.0,59.999996,0.0,26.0,26.0,26.0,26.0,-0.04788888888888887,0.3084,-0.0439,294.403,-2.69545,-2.723777777777778,-1.56995,-1.5406,-249.75,216.17000000000002,190.8345,0.0,0.0,0.0,0.0,0.016666666666666607,-5.498166666666667,-5.498166666666667,-0.5334,-0.14366666666666666,-0.0344444444444445,-0.5009999999999999,65.29599999999999,-0.050100000000000006,-0.208375,0.05200000000000049,100.0,1.0,1.0,201.53,0.0,0.0,0.0,0.0,0.0,0.0,0.0,8542.1,0.0,55.0,4.0,235.03333333333333,0.0,0.0,0.0,0.0,0.0,0.0,0.0,0.0,0.40500000000000114,0.40500000000000114,0.0,0.0,0.0,55.0,616.79921,10000.0,85.000001,85.000001,85.000001,85.000001,395.0,0.0,0.0,0.0,1.0,333.33500000000004,54.504,54.504,49.088,49.088,34.0,-23.54,21.078,-32.096666666666664,25.155,0.0,1782.542,-0.34999999999999787,100.0,26.751,26.216,41.702,41.004,0.0,1.0,100.0,0.0,0.0,0.0,0.0,2909.0,2799.3,4216.75,4046.9,306.061,305.78625,314.63375,314.77125,21.8593,20.5524,21.817,21.3486,314.999998,314.999998,324.999988,324.999988,99.55904285714286,99.5073,99.56412857142857,99.54431428571428,0.0402499999999999,-0.07899999999999996,-0.164,0.06359999999999988,-0.045000000000001705,-0.04833333333333201,1.5550000000000002,1.5473333333333334,37.620999999999995,29.451999999999998,37.355999999999995,34.4285,56.18,34.7745,58.564,51.318,54.102999999999994,33.916,57.211,49.695499999999996,53.269,33.460499999999996,57.170500000000004,49.12533333333333,-0.09699999999999998,-0.04150000000000009,0.10791,0.10824500000000001,0.0,204.565,204.535,201.53,201.53,0.0,0.0
9,0.0,1.0,0.0,1.0,1.0,0.0,0.0,1.0,0.0,100.0,1.0,1.1856,26.0,0.0,0.0,0.0,59.999996,0.0,26.0,26.0,26.0,26.0,-0.018777777777777782,0.2984,-0.025133333333333334,294.235,-2.69955,-2.7316666666666665,-1.53125,-1.5449000000000002,-246.62,216.14499999999998,190.815125,0.0,0.0,0.0,0.0,0.01849999999999996,-5.498166666666667,-5.498166666666667,-0.5495,0.22533333333333336,-0.03633333333333333,-0.5800000000000001,65.436,-0.0308,-0.220175,-0.08799999999999919,100.0,1.0,1.0,202.09,0.0,0.0,0.0,0.0,0.0,0.0,0.0,8565.9,0.0,55.0,4.0,235.54000000000002,1.0,0.0,0.0,0.0,0.0,0.0,0.0,0.0,0.4529999999999994,0.4529999999999994,0.0,0.0,1.0,55.0,616.79921,10000.0,85.000001,85.000001,85.000001,85.000001,395.0,0.0,0.0,0.0,1.0,166.665,53.482,53.482,50.003,50.003,34.0,-26.195,23.412,-27.373333333333335,25.02,0.0,1782.495,-0.41000000000000014,100.0,26.88,26.543,41.604,41.075,0.0,1.0,100.0,0.0,0.0,0.0,0.0,3267.857142857143,2960.3,3884.25,3880.9,305.0435,305.25825,315.40275,315.1885,21.8684,20.5572,21.8265,21.3567,314.999998,314.999998,324.999988,324.999988,99.55905714285714,99.50731666666667,99.56425714285714,99.54445714285714,0.05699999999999994,-0.058250000000000024,-0.1416,0.08899999999999997,-0.04333333333332945,-0.051666666666669414,1.605,1.5913333333333335,37.677,29.4825,37.416,34.4795,56.165,34.809,58.6,51.374,54.089,33.948,57.245,49.7495,53.254999999999995,33.491,57.201499999999996,49.178,-0.10399999999999987,-0.039000000000000146,0.10355500000000001,0.107675,0.0,204.995,204.99,202.09,202.09,0.0,0.0
10,0.0,1.0,0.0,1.0,1.0,0.0,0.0,1.0,0.0,100.0,1.0,1.1856,26.0,0.0,0.0,0.0,59.999996,0.0,26.0,26.0,26.0,26.0,-0.004666666666666597,0.3115000000000001,0.03286666666666667,293.762,-2.65315,-2.724666666666667,-1.56715,-1.5334,-243.26999999999998,216.1175,190.794625,0.0,0.0,0.0,0.0,0.020433333333333303,-5.498166666666667,-5.498166666666667,-0.5175000000000001,0.191,-0.003555555555555756,1.838,65.589,-0.0126,-0.199025,-0.41600000000000037,100.0,1.0,1.0,202.33333333333331,0.0,0.0,0.0,0.0,0.0,0.0,0.0,8576.2,0.0,55.0,4.0,236.09,0.0,0.0,0.0,0.0,0.0,0.0,1.0,0.0,0.5040000000000013,0.5040000000000013,0.0,0.0,0.0,55.0,616.79921,10000.0,85.000001,85.000001,85.000001,85.000001,395.0,0.0,0.0,0.0,1.0,166.665,53.94,53.94,48.874,48.874,34.0,-21.105,23.566000000000003,-29.82,29.490000000000002,0.0,1782.444,-0.6050000000000004,100.0,27.315,26.525,41.828,41.566,0.0,1.0,100.0,0.0,0.0,0.0,0.0,2866.4285714285716,2909.1,4230.625,4301.2,305.9515,305.59975,314.4955,314.19125,21.8781,20.5623,21.8367,21.3655,314.999998,314.999998,324.999988,324.999988,99.55905714285714,99.50731666666667,99.5644,99.5446,0.09100000000000019,-0.03500000000000003,-0.1118,0.10740000000000016,-0.026666666666670835,-0.036666666666668846,1.513,1.5026666666666668,37.738,29.514499999999998,37.479,34.5345,56.153,34.8445,58.641,51.438,54.077,33.9805,57.283,49.811,53.242,33.5225,57.2365,49.23833333333333,-0.123,-0.026499999999999968,0.109215,0.101915,0.0,205.465,205.485,202.33333333333331,202.33333333333331,0.0,0.0
11,0.0,1.0,0.0,1.0,1.0,0.0,0.0,1.0,0.0,100.0,1.0,1.1856,26.0,0.0,0.0,0.0,59.999996,0.0,26.0,26.0,26.0,26.0,0.03944444444444439,0.2885,-0.0693,294.296,-2.7183,-2.696111111111111,-1.54465,-1.5149000000000001,-239.93,216.09,190.7745,0.0,0.0,0.0,0.0,0.022466666666666524,-5.498166666666667,-5.498166666666667,-0.558,-0.8003333333333333,0.03122222222222204,-0.30499999999999994,65.736,0.0074,-0.23945000000000002,-0.516,100.0,1.0,1.0,203.0,0.0,0.0,0.0,0.0,0.0,0.0,0.0,8604.4,0.0,55.0,4.0,236.62333333333333,1.0,0.0,0.0,0.0,0.0,0.0,1.0,0.0,0.5549999999999997,0.5549999999999997,0.0,0.0,1.0,55.0,616.79921,10000.0,85.000001,85.000001,85.000001,85.000001,395.0,0.0,0.0,0.0,1.0,333.33500000000004,53.757,53.757,49.85,49.85,34.0,-22.755,24.806,-24.33,26.385,0.0,1782.393,-0.5999999999999979,100.0,26.679,26.753,41.729,41.86,0.0,1.0,100.0,0.0,0.0,0.0,0.0,3036.285714285714,3011.3,3700.75,3835.2,305.73,305.1185,315.7825,315.24775,21.8874,20.5675,21.8468,21.374299999999998,314.999998,314.999998,324.999988,324.999988,99.55907142857143,99.50731666666667,99.56454285714285,99.54472857142858,0.09224999999999994,-0.027249999999999996,-0.10300000000000001,0.13259999999999983,-0.04833333333333201,-0.05333333333332746,1.6103333333333334,1.5936666666666666,37.797,29.547,37.543,34.589,56.137,34.8795,58.679,51.4995,54.062,34.013,57.3185,49.87,53.226,33.5535,57.2695,49.29633333333334,-0.119,-0.026000000000000245,0.110075,0.11385,0.0,205.875,205.91,203.0,203.0,0.0,0.0
12,0.0,1.0,0.0,1.0,1.0,0.0,0.0,1.0,0.0,100.0,1.0,1.1856,26.0,0.0,0.0,0.0,59.999996,0.0,26.0,26.0,26.0,26.0,0.05155555555555558,0.2996000000000001,-0.020233333333333336,294.174,-2.77645,-2.687555555555556,-1.54315,-1.5081,-236.76999999999998,216.0675,190.754375,0.0,0.0,0.0,0.0,0.0242,-5.498166666666667,-5.498166666666667,-0.5498000000000001,0.432,0.020000000000000018,-1.016,65.877,0.0219,-0.2049,-0.6760000000000002,100.0,1.0,1.0,203.34333333333333,0.0,0.0,0.0,0.0,0.0,0.0,0.0,8619.0,0.0,55.0,4.0,237.12666666666667,0.0,0.0,0.0,0.0,0.0,0.0,1.0,0.0,0.602999999999998,0.602999999999998,0.0,0.0,0.0,55.0,616.79921,10000.0,85.000001,85.000001,85.000001,85.000001,395.0,0.0,0.0,0.0,1.0,166.665,54.077,54.077,49.103,49.103,34.0,-22.27,24.742,-26.836666666666666,28.7725,0.0,1782.346,-0.5449999999999982,100.0,26.498,26.894,41.227000000000004,41.583,0.0,1.0,100.0,0.0,0.0,0.0,0.0,2967.142857142857,2958.8,4131.5,4048.8,305.979,305.29125,314.8435,314.78225,21.8963,20.5725,21.8562,21.3823,314.999998,314.999998,324.999988,324.999988,99.55908571428571,99.50731666666667,99.56467142857143,99.54487142857143,0.10099999999999998,-0.014000000000000012,-0.08420000000000001,0.1432,-0.051666666666669414,-0.04999999999999716,1.5743333333333334,1.538,37.852000000000004,29.578,37.601,34.6395,56.123999999999995,34.9135,58.713499999999996,51.556,54.05,34.044,57.3505,49.924,53.212,33.5835,57.2985,49.349666666666664,-0.11349999999999993,-0.022499999999999964,0.109755,0.10600000000000001,0.0,206.35500000000002,206.405,203.34333333333333,203.34333333333333,0.0,0.0
13,0.0,1.0,0.0,1.0,1.0,0.0,0.0,1.0,0.0,100.0,1.0,1.1856,26.0,0.0,0.0,0.0,59.999996,0.0,26.0,26.0,26.0,26.0,0.06066666666666687,0.29390000000000005,0.037700000000000004,293.73199999999997,-2.74475,-2.692111111111111,-1.6087,-1.4984000000000002,-233.4,216.04250000000002,190.732875,0.0,0.0,0.0,0.0,0.0260999999999999,-5.498166666666667,-5.498166666666667,-0.5403,0.07033333333333333,0.020000000000000018,0.8330000000000002,66.026,0.0315,-0.20575000000000002,-0.7620000000000005,100.0,1.0,1.0,203.73666666666668,0.0,0.0,0.0,0.0,0.0,0.0,0.0,8635.6,0.0,55.0,4.0,237.66333333333333,1.0,0.0,0.0,0.0,0.0,0.0,1.0,0.0,0.6539999999999999,0.6539999999999999,0.0,0.0,1.0,55.0,616.79921,10000.0,85.000001,85.000001,85.000001,85.000001,395.0,0.0,0.0,0.0,1.0,333.33500000000004,53.528,53.528,49.057,49.057,34.0,-20.349999999999998,27.518,-26.266666666666666,30.975,0.0,1782.294,-0.9699999999999989,100.0,26.908,26.913,41.616,41.907,0.0,1.0,100.0,0.0,0.0,0.0,0.0,2984.0,3096.5,4031.25,4228.7,305.711,305.0385,315.01825,314.408,21.9057,20.5778,21.8664,21.3912,314.999998,314.999998,324.999988,324.999988,99.5591,99.50731666666667,99.56481428571429,99.545,0.14975000000000005,0.026499999999999968,-0.067,0.15900000000000003,-0.036666666666668846,-0.045000000000001705,1.5463333333333333,1.5273333333333334,37.911,29.6115,37.665,34.695,56.111999999999995,34.95,58.753,51.6195,54.038,34.078,57.3875,49.9855,53.2,33.6155,57.332499999999996,49.409666666666666,-0.15149999999999997,0.0020000000000000018,0.11050000000000001,0.10706,0.0,206.785,206.845,203.73666666666668,203.73666666666668,0.0,0.0
14,0.0,1.0,0.0,1.0,1.0,0.0,0.0,1.0,0.0,100.0,1.0,1.1856,26.0,0.0,0.0,0.0,59.999996,0.0,26.0,26.0,26.0,26.0,0.08644444444444432,0.29510000000000014,-0.023566666666666666,293.777,-2.7337,-2.641,-1.6063,-1.5145000000000002,-230.03,216.01749999999998,190.712,0.0,0.0,0.0,0.0,0.028133333333333344,-5.498166666666667,-5.498166666666667,-0.5471,-0.22633333333333336,0.035666666666666735,0.053999999999999826,66.173,0.043300000000000005,-0.22195,-0.8539999999999992,100.0,1.0,1.0,204.2266666666667,0.0,0.0,0.0,0.0,0.0,0.0,0.0,8656.5,0.0,55.0,4.0,238.19333333333333,0.0,0.0,0.0,0.0,0.0,0.0,1.0,0.0,0.7049999999999983,0.7049999999999983,0.0,0.0,0.0,55.0,616.79921,10000.0,85.000001,85.000001,85.000001,85.000001,395.0,0.0,0.0,0.0,1.0,333.33500000000004,53.543,53.543,49.286,49.286,34.0,-21.05,25.658,-25.353333333333335,30.302500000000002,0.0,1782.241,-0.9050000000000011,100.0,26.922,27.129,41.618,42.336,0.0,1.0,100.0,0.0,0.0,0.0,0.0,3037.714285714286,2972.4,4000.875,4047.0,305.703,305.28875,315.131,314.76475,21.9151,20.5831,21.8765,21.4,314.999998,314.999998,324.999988,324.999988,99.55911428571429,99.50733333333334,99.56494285714285,99.54514285714286,0.13750000000000018,0.01750000000000007,-0.057600000000000005,0.17140000000000022,-0.03999999999999915,-0.04333333333332945,1.5776666666666666,1.5306666666666666,37.97,29.6445,37.727999999999994,34.75,56.101,34.9855,58.792,51.683,54.028,34.111,57.423,50.046,53.188,33.6475,57.3655,49.46933333333333,-0.1439999999999999,-0.000500000000000167,0.10474000000000001,0.116845,0.0,207.23000000000002,207.29000000000002,204.2266666666667,204.2266666666667,0.0,0.0
15,0.0,1.0,0.0,1.0,1.0,0.0,0.0,1.0,0.0,100.0,1.0,1.1856,26.0,0.0,0.0,0.0,59.999996,0.0,26.0,26.0,26.0,26.0,0.07577777777777794,0.2924,0.0017000000000000001,293.701,-2.7028499999999998,-2.600111111111111,-1.6092,-1.4537,-226.65,215.9975,190.690875,0.0,0.0,0.0,0.0,0.030099999999999905,-5.498166666666667,-5.498166666666667,-0.5469,0.353,0.07211111111111101,1.717,66.319,0.0546,-0.215475,-1.0360000000000005,100.0,1.0,1.0,204.71666666666667,0.0,0.0,0.0,0.0,0.0,0.0,0.0,8677.2,0.0,55.0,4.0,238.71666666666667,1.0,0.0,0.0,0.0,0.0,0.0,1.0,0.0,0.7560000000000002,0.7560000000000002,0.0,0.0,1.0,55.0,616.79921,10000.0,85.000001,85.000001,85.000001,85.000001,395.0,0.0,0.0,0.0,1.0,166.665,53.299,53.299,49.454,49.454,34.0,-19.482499999999998,27.272,-24.103333333333335,31.240000000000002,0.0,1782.193,-1.0150000000000006,100.0,27.177,27.134999999999998,41.513,42.285,0.0,1.0,100.0,0.0,0.0,0.0,0.0,2931.142857142857,3130.1,3891.5,4147.2,305.7555,304.959,315.3355,314.648,21.9244,20.5885,21.886499999999998,21.4088,314.999998,314.999998,324.999988,324.999988,99.55912857142857,99.50733333333334,99.56508571428571,99.54528571428571,0.15474999999999994,0.03200000000000003,-0.0474,0.19199999999999995,-0.03499999999999659,-0.054999999999999716,1.588,1.5336666666666665,38.028,29.677999999999997,37.791,34.805,56.09,35.022999999999996,58.8285,51.745,54.016999999999996,34.1455,57.457,50.1065,53.177,33.6805,57.3965,49.528666666666666,-0.14349999999999996,-0.0030000000000001137,0.106495,0.113515,0.0,207.69,207.78,204.71666666666667,204.71666666666667,0.0,0.0
16,0.0,1.0,0.0,1.0,1.0,0.0,0.0,1.0,0.0,100.0,1.0,1.1856,26.0,0.0,0.0,0.0,59.999996,0.0,26.0,26.0,26.0,26.0,0.10299999999999998,0.29259999999999997,0.0039000000000000003,293.716,-2.7708,-2.6228888888888893,-1.558,-1.4414,-223.47,215.98000000000002,190.670625,0.0,0.0,0.0,0.0,0.03196666666666659,-5.498166666666667,-5.498166666666667,-0.5493,-0.7526666666666666,0.07177777777777772,0.41100000000000003,66.459,0.06470000000000001,-0.212875,-1.2560000000000002,100.0,1.0,1.0,205.0233333333333,0.0,0.0,0.0,0.0,0.0,0.0,0.0,8690.2,0.0,55.0,4.0,239.22333333333333,0.0,0.0,0.0,0.0,0.0,0.0,1.0,0.0,0.8039999999999985,0.8039999999999985,0.0,0.0,0.0,55.0,616.79921,10000.0,85.000001,85.000001,85.000001,85.000001,395.0,0.0,0.0,0.0,1.0,166.665,53.894,53.894,48.096000000000004,48.096000000000004,34.0,-17.97,28.278,-23.846666666666664,30.7975,0.0,1782.144,-0.9349999999999987,100.0,26.616,27.203,41.763999999999996,42.535,0.0,1.0,100.0,0.0,0.0,0.0,0.0,2751.4285714285716,3151.3,4099.125,4082.9,306.5095,304.8605,314.7355,314.749,21.9329,20.5936,21.8961,21.4172,314.999998,314.999998,324.999988,324.999988,99.55915714285715,99.50735,99.56521428571429,99.54542857142857,0.16700000000000026,0.045500000000000096,-0.021,0.19320000000000004,-0.026666666666670835,-0.05833333333333002,1.549,1.496,38.081,29.71,37.849999999999994,34.8575,56.077,35.0585,58.865,51.8055,54.004000000000005,34.178,57.491,50.164500000000004,53.163,33.712,57.4275,49.58566666666667,-0.14900000000000002,0.0040000000000000036,0.10101500000000001,0.10267000000000001,0.0,208.095,208.175,205.0233333333333,205.0233333333333,0.0,0.0
17,0.0,1.0,0.0,1.0,1.0,0.0,0.0,1.0,0.0,100.0,1.0,1.1856,26.0,0.0,0.0,0.0,59.999996,0.0,26.0,26.0,26.0,26.0,0.1393333333333333,0.28970000000000007,-0.020233333333333336,293.51800000000003,-2.6953,-2.661666666666667,-1.5904,-1.487,-220.07,215.965,190.64875,0.0,0.0,0.0,0.0,0.03393333333333337,-5.498166666666667,-5.498166666666667,-0.5624,0.6216666666666666,0.048555555555555685,-1.103,66.601,0.07400000000000001,-0.220175,-1.146,100.0,1.0,1.0,205.60666666666668,0.0,0.0,0.0,0.0,0.0,0.0,0.0,8714.9,0.0,55.0,4.0,239.73333333333335,1.0,0.0,0.0,0.0,0.0,0.0,1.0,0.0,0.8550000000000004,0.8550000000000004,0.0,0.0,1.0,55.0,616.79921,10000.0,85.000001,85.000001,85.000001,85.000001,395.0,0.0,0.0,0.0,1.0,333.33500000000004,52.917,52.917,49.179,49.179,34.0,-19.59,28.002,-22.946666666666665,31.2725,0.0,1782.092,-0.9050000000000011,100.0,27.061,27.839,41.379,42.528,0.0,1.0,100.0,0.0,0.0,0.0,0.0,3037.5714285714284,3072.7,3925.75,4035.5,305.6625,304.7905,315.36375,314.8295,21.9422,20.5992,21.9061,21.426,314.999998,314.999998,324.999988,324.999988,99.55917142857143,99.50735,99.56535714285714,99.54557142857144,0.16425,0.040000000000000036,-0.0268,0.20399999999999996,-0.045000000000001705,-0.04999999999999716,1.5983333333333334,1.562,38.138999999999996,29.744999999999997,37.913,34.9125,56.067,35.0985,58.9005,51.867,53.995000000000005,34.2155,57.524,50.2235,53.152,33.748,57.457499999999996,49.644,-0.14250000000000007,0.0009999999999998899,0.105425,0.11300500000000001,0.0,208.56,208.655,205.60666666666668,205.60666666666668,0.0,0.0
18,0.0,1.0,0.0,1.0,1.0,0.0,0.0,1.0,0.0,100.0,1.0,1.1856,26.0,0.0,0.0,0.0,59.999996,0.0,26.0,26.0,26.0,26.0,0.15722222222222215,0.28859999999999997,0.023033333333333336,293.335,-2.6917,-2.6706666666666665,-1.54915,-1.5212,-216.87,215.9525,190.627875,0.0,0.0,0.0,0.0,0.03579999999999994,-5.498166666666667,-5.498166666666667,-0.5502,-0.435,0.056777777777777816,-0.19399999999999995,66.74000000000001,0.0751,-0.215125,-1.0520000000000005,100.0,1.0,1.0,205.8466666666667,0.0,0.0,0.0,0.0,0.0,0.0,0.0,8725.0,0.0,55.0,4.0,240.23666666666668,0.0,0.0,0.0,0.0,0.0,0.0,1.0,0.0,0.9029999999999987,0.9029999999999987,0.0,0.0,0.0,55.0,616.79921,10000.0,85.000001,85.000001,85.000001,85.000001,395.0,0.0,0.0,0.0,1.0,333.33500000000004,53.543,53.543,48.355000000000004,48.355000000000004,34.0,-17.7775,26.933999999999997,-24.186666666666664,33.2875,0.0,1782.043,-1.0650000000000013,100.0,26.909,27.631999999999998,41.825,43.052,0.0,1.0,100.0,0.0,0.0,0.0,0.0,2881.5714285714284,2962.3,4095.25,4191.6,306.1735,305.21025,314.85675,314.32275,21.9509,20.6042,21.9157,21.4345,314.999998,314.999998,324.999988,324.999988,99.55918571428572,99.50735,99.56548571428571,99.54571428571428,0.17799999999999994,0.04249999999999998,-0.0304,0.19320000000000004,-0.05666666666667197,-0.04833333333333201,1.5163333333333333,1.4673333333333334,38.193,29.7765,37.973,34.9655,56.057,35.1335,58.9385,51.9285,53.985,34.248,57.5595,50.283,53.141999999999996,33.778999999999996,57.49,49.702,-0.15749999999999997,0.00649999999999995,0.10885500000000001,0.109045,0.0,208.97500000000002,209.05,205.8466666666667,205.8466666666667,0.0,0.0
19,0.0,1.0,0.0,1.0,1.0,0.0,0.0,1.0,0.0,100.0,1.0,1.1856,26.0,0.0,0.0,0.0,59.999996,0.0,26.0,26.0,26.0,26.0,0.17722222222222217,0.2832000000000001,-0.07163333333333334,293.472,-2.7753,-2.542666666666667,-1.5561,-1.5092,-213.26,215.945,190.6045,0.0,0.0,0.0,0.0,0.037866666666666604,-5.498166666666667,-5.498166666666667,-0.5656,0.3773333333333333,0.0758888888888889,-0.3719999999999999,66.89,0.0772,-0.22360000000000002,-1.3760000000000003,100.0,1.0,1.0,206.51999999999998,0.0,0.0,0.0,0.0,0.0,0.0,0.0,8753.6,0.0,55.0,4.0,240.77333333333334,1.0,0.0,0.0,0.0,0.0,0.0,1.0,0.0,0.9570000000000007,0.9570000000000007,0.0,0.0,1.0,55.0,616.79921,10000.0,85.000001,85.000001,85.000001,85.000001,395.0,0.0,0.0,0.0,1.0,166.665,52.78,52.78,49.53,49.53,34.0,-19.585,28.416,-20.836666666666666,30.555,0.0,1781.992,-1.4050000000000011,100.0,27.094,27.928,41.497,42.951,0.0,1.0,100.0,0.0,0.0,0.0,0.0,3149.5714285714284,3133.4,3754.625,3938.6000000000004,305.4745,304.84775,315.729,315.02675,21.9607,20.6101,21.9263,21.4438,314.999998,314.999998,324.999988,324.999988,99.55921428571429,99.50736666666667,99.56564285714286,99.54585714285714,0.1967500000000002,0.0685,-0.017,0.20179999999999998,-0.03999999999999915,-0.06333333333333258,1.6186666666666665,1.57,38.254000000000005,29.813000000000002,38.039,35.024,56.048,35.1765,58.9755,51.994,53.976,34.288,57.5935,50.3465,53.131,33.817499999999995,57.521,49.76433333333333,-0.18599999999999994,0.03149999999999986,0.10856500000000001,0.10666500000000001,0.0,209.46,209.53,206.51999999999998,206.51999999999998,0.0,0.0
20,0.0,1.0,0.0,1.0,1.0,0.0,0.0,1.0,0.0,100.0,1.0,1.1856,26.0,0.0,0.0,0.0,59.999996,0.0,26.0,26.0,26.0,26.0,0.1781111111111111,0.2835000000000001,-0.020133333333333336,293.121,-2.7646,-2.5963333333333334,-1.6371,-1.3992,-210.05,215.94,190.58375,0.0,0.0,0.0,0.0,0.039766666666666506,-5.498166666666667,-5.498166666666667,-0.5396000000000001,-0.07033333333333333,0.08577777777777773,-0.43300000000000005,67.028,0.09090000000000001,-0.201525,-1.7999999999999998,100.0,1.0,1.0,206.71,0.0,0.0,0.0,0.0,0.0,0.0,0.0,8761.7,0.0,55.0,4.0,241.26999999999998,0.0,0.0,0.0,0.0,0.0,0.0,0.0,0.0,1.004999999999999,1.004999999999999,0.0,0.0,0.0,55.0,616.79921,10000.0,85.000001,85.000001,85.000001,85.000001,395.0,0.0,0.0,0.0,1.0,166.665,53.452,53.452,47.607,47.607,34.0,-16.2575,28.772,-25.246666666666666,32.58,0.0,1781.943,-1.6600000000000001,100.0,26.945,27.982,41.769,43.353,0.0,1.0,100.0,0.0,0.0,0.0,0.0,2766.4285714285716,3033.9,4308.75,4209.3,306.4915,304.9925,314.47025,314.4705,21.9693,20.6153,21.9359,21.4523,314.999998,314.999998,324.999988,324.999988,99.55922857142858,99.50736666666667,99.56577142857142,99.546,0.21174999999999988,0.08725000000000005,-0.002,0.21399999999999997,-0.02833333333332888,-0.03333333333333144,1.5323333333333333,1.4683333333333333,38.308,29.846,38.099000000000004,35.077,56.04,35.216,59.0125,52.056,53.968,34.3245,57.6285,50.406,53.122,33.8525,57.5525,49.823,-0.2015,0.05499999999999994,0.10095000000000001,0.10529500000000001,0.0,209.86,209.97500000000002,206.71,206.71,0.0,0.0
21,0.0,1.0,0.0,1.0,1.0,0.0,0.0,1.0,0.0,100.0,1.0,1.1856,26.0,0.0,0.0,0.0,59.999996,0.0,26.0,26.0,26.0,26.0,0.207888888888889,0.2772000000000001,-0.05693333333333334,293.335,-2.8035,-2.580222222222222,-1.6179999999999999,-1.4579,-206.82999999999998,215.94,190.562875,0.0,0.0,0.0,0.0,0.0416333333333333,-5.498166666666667,-5.498166666666667,-0.5835,-0.6463333333333334,0.08699999999999997,-0.7489999999999999,67.15899999999999,0.11170000000000001,-0.2406,-2.0439999999999996,100.0,1.0,1.0,207.32666666666665,0.0,0.0,0.0,0.0,0.0,0.0,0.0,8787.8,0.0,55.0,4.0,241.74666666666667,1.0,0.0,0.0,0.0,0.0,0.0,0.0,0.0,1.0530000000000008,1.0530000000000008,0.0,0.0,1.0,55.0,616.79921,10000.0,85.000001,85.000001,85.000001,85.000001,395.0,0.0,0.0,0.0,1.0,166.665,52.734,52.734,48.965,48.965,34.0,-18.505,31.122,-19.383333333333333,32.165,0.0,1781.896,-1.3999999999999986,100.0,26.737,28.001,41.757,43.429,0.0,1.0,100.0,0.0,0.0,0.0,0.0,3085.857142857143,3270.4,3695.25,3936.8,305.6745,304.3135,315.83525,315.04075,21.9778,20.6206,21.9454,21.4607,314.999998,314.999998,324.999988,324.999988,99.55925714285715,99.50738333333334,99.5659,99.54612857142857,0.21649999999999991,0.08574999999999999,0.0224,0.24960000000000004,-0.04833333333333201,-0.05833333333333002,1.6316666666666666,1.5586666666666666,38.361000000000004,29.8785,38.159,35.1295,56.03,35.2565,59.0465,52.115,53.959,34.3615,57.66,50.463,53.112,33.8885,57.581,49.879333333333335,-0.18900000000000006,0.03949999999999987,0.10701000000000001,0.107035,0.0,210.215,210.375,207.32666666666665,207.32666666666665,0.0,0.0
22,0.0,1.0,0.0,1.0,1.0,0.0,0.0,1.0,0.0,100.0,1.0,1.1856,26.0,0.0,0.0,0.0,59.999996,0.0,26.0,26.0,26.0,26.0,0.15866666666666673,0.29080000000000017,0.03056666666666667,292.908,-2.8089,-2.589444444444444,-1.6353,-1.4583000000000002,-203.39999999999998,215.9425,190.5395,0.0,0.0,0.0,0.0,0.0436333333333333,-5.498166666666667,-5.498166666666667,-0.5629000000000001,0.451,0.0774444444444442,0.7640000000000002,67.303,0.1285,-0.201375,-1.3379999999999992,100.0,1.0,1.0,207.57333333333332,0.0,0.0,0.0,0.0,0.0,0.0,0.0,8798.3,0.0,55.0,4.0,242.26,0.0,0.0,0.0,0.0,0.0,0.0,0.0,0.0,1.1039999999999992,1.1039999999999992,0.0,0.0,0.0,55.0,616.79921,10000.0,85.000001,85.000001,85.000001,85.000001,395.0,0.0,0.0,0.0,1.0,333.33500000000004,53.024,53.024,48.019,48.019,34.0,-20.09,28.323999999999998,-23.21333333333333,37.682500000000005,0.0,1781.844,0.07499999999999929,100.0,27.134,27.871000000000002,41.603,43.191,0.0,1.0,100.0,0.0,0.0,0.0,0.0,2913.857142857143,3229.3,4245.125,4389.3,305.9845,304.685,314.54575,314.05775,21.987,20.6262,21.9554,21.4696,314.999998,314.999998,324.999988,324.999988,99.55928571428572,99.5074,99.56604285714286,99.54628571428572,0.15574999999999983,0.03574999999999995,0.0286,0.26359999999999983,-0.04333333333332945,-0.051666666666669414,1.5203333333333333,1.476,38.419,29.914,38.221000000000004,35.185,56.021,35.297,59.0835,52.179,53.949,34.3995,57.694,50.5245,53.101,33.925,57.612,49.94,-0.0794999999999999,-0.06550000000000011,0.11305000000000001,0.10631000000000002,0.0,210.73000000000002,210.845,207.57333333333332,207.57333333333332,0.0,0.0
23,0.0,1.0,0.0,1.0,1.0,0.0,0.0,1.0,0.0,100.0,1.0,1.1856,26.0,0.0,0.0,0.0,59.999996,0.0,26.0,26.0,26.0,26.0,0.09600000000000009,0.28590000000000004,0.033600000000000005,292.694,-2.7542,-2.565,-1.64905,-1.4738,-199.95999999999998,215.9525,190.516375,0.0,0.0,0.0,0.0,0.045599999999999974,-5.498166666666667,-5.498166666666667,-0.5675,-0.42333333333333334,0.06288888888888877,-1.3519999999999999,67.445,0.10590000000000001,-0.21682500000000002,-0.05399999999999938,100.0,1.0,1.0,208.00333333333333,0.0,0.0,0.0,0.0,0.0,0.0,0.0,8816.6,0.0,55.0,4.0,242.77333333333334,1.0,0.0,0.0,0.0,0.0,0.0,0.0,0.0,1.1550000000000011,1.1550000000000011,0.0,0.0,1.0,55.0,616.79921,10000.0,85.000001,85.000001,85.000001,85.000001,395.0,0.0,0.0,0.0,1.0,333.33500000000004,52.643,52.643,47.791,47.791,34.0,-22.9525,25.846,-25.926666666666666,33.035,0.0,1781.791,0.625,100.0,27.042,28.067,42.007,43.57,0.0,1.0,100.0,0.0,0.0,0.0,0.0,3056.714285714286,3230.3,4218.375,4179.2,305.6265,304.4645,314.675,314.4915,21.9961,20.6318,21.9656,21.4787,314.999998,314.999998,324.999988,324.999988,99.5593,99.5074,99.5662,99.54642857142858,0.1027499999999999,-0.02400000000000002,-0.0216,0.20999999999999996,-0.051666666666669414,-0.04833333333333201,1.517,1.5023333333333333,38.476,29.948999999999998,38.285,35.242,56.007,35.335,59.1225,52.244,53.936,34.4345,57.730000000000004,50.587,53.087,33.959,57.644999999999996,50.001333333333335,-0.02499999999999991,-0.12749999999999995,0.108725,0.108075,0.0,211.19,211.19,208.00333333333333,208.00333333333333,0.0,0.0
24,0.0,1.0,0.0,1.0,1.0,0.0,0.0,1.0,0.0,100.0,1.0,1.1856,26.0,0.0,0.0,0.0,59.999996,0.0,26.0,26.0,26.0,26.0,0.02111111111111108,0.2925,-0.0407,293.06,-2.69275,-2.660111111111111,-1.56805,-1.5401,-196.51999999999998,215.9625,190.493375,0.0,0.0,0.0,0.0,0.047633333333333305,-5.498166666666667,-5.498166666666667,-0.5749000000000001,0.094,0.03777777777777769,0.2410000000000001,67.58500000000001,0.051500000000000004,-0.21887500000000001,0.7560000000000002,100.0,1.0,1.0,208.5,0.0,0.0,0.0,0.0,0.0,0.0,0.0,8837.5,0.0,55.0,4.0,243.27666666666664,0.0,0.0,0.0,0.0,0.0,0.0,0.0,0.0,1.2059999999999995,1.2059999999999995,0.0,0.0,0.0,55.0,616.79921,10000.0,85.000001,85.000001,85.000001,85.000001,395.0,0.0,0.0,0.0,1.0,166.665,53.116,53.116,48.584,48.584,34.0,-22.544999999999998,23.164,-26.173333333333336,30.4325,0.0,1781.743,0.8449999999999989,100.0,27.662,27.684,42.185,43.19,0.0,1.0,100.0,0.0,0.0,0.0,0.0,2907.5714285714284,3022.1,4022.625,4161.6,305.937,305.22075,315.00325,314.5445,22.0055,20.6373,21.9758,21.4876,314.999998,314.999998,324.999988,324.999988,99.55931428571428,99.5074,99.56634285714286,99.54658571428571,0.07100000000000017,-0.060250000000000026,-0.0724,0.1482000000000001,-0.06333333333333258,-0.036666666666668846,1.5136666666666665,1.548,38.534,29.983,38.349000000000004,35.2975,55.992999999999995,35.373,59.159,52.3055,53.923,34.47,57.763999999999996,50.6465,53.073,33.9925,57.676,50.059666666666665,-0.010999999999999899,-0.14049999999999985,0.10697500000000001,0.10602,0.0,211.685,211.61,208.5,208.5,0.0,0.0
25,0.0,1.0,0.0,1.0,1.0,0.0,0.0,1.0,0.0,100.0,1.0,1.1856,26.0,0.0,0.0,0.0,59.999996,0.0,26.0,26.0,26.0,26.0,-0.036222222222222156,0.2835000000000001,-0.08873333333333334,293.381,-2.77225,-2.6615555555555557,-1.5364499999999999,-1.5435,-193.26999999999998,215.9725,190.470625,0.0,0.0,0.0,0.0,0.04949999999999999,-5.498166666666667,-5.498166666666667,-0.6022000000000001,-1.049,0.024666666666666615,-0.03200000000000003,67.717,-0.0017000000000000001,-0.224,1.2059999999999995,100.0,1.0,1.0,208.93,0.0,0.0,0.0,0.0,0.0,0.0,0.0,8855.8,0.0,55.0,4.0,243.75333333333333,1.0,0.0,0.0,0.0,0.0,0.0,0.0,0.0,1.2540000000000013,1.2540000000000013,0.0,0.0,1.0,55.0,616.79921,10000.0,85.000001,85.000001,85.000001,85.000001,395.0,0.0,0.0,0.0,1.0,166.665,53.406,53.406,48.538,48.538,34.0,-25.535,21.972,-28.176666666666666,25.8275,0.0,1781.694,0.8900000000000006,100.0,27.264,27.281,42.536,42.877,0.0,1.0,100.0,0.0,0.0,0.0,0.0,2990.285714285714,3090.7,3965.125,3937.7,305.8975,305.1525,315.17775,315.08625,22.014,20.6422,21.9854,21.4959,314.999998,314.999998,324.999988,324.999988,99.55931428571428,99.50741666666667,99.56647142857143,99.54671428571429,0.026000000000000245,-0.09950000000000003,-0.13319999999999999,0.09520000000000017,-0.030000000000001137,-0.04999999999999716,1.536,1.587,38.587,30.014,38.409,35.349000000000004,55.974999999999994,35.408,59.196,52.361000000000004,53.906,34.501999999999995,57.7985,50.7005,53.055,34.0235,57.707,50.11233333333333,-0.0035000000000000586,-0.14349999999999996,0.10885500000000001,0.10996500000000001,0.0,212.06,211.96,208.93,208.93,0.0,0.0
26,0.0,1.0,0.0,1.0,1.0,0.0,0.0,1.0,0.0,100.0,1.0,1.1856,26.0,0.0,0.0,0.0,59.999996,0.0,26.0,26.0,26.0,26.0,-0.08877777777777784,0.2964,0.060366666666666666,292.435,-2.675,-2.749777777777778,-1.5658,-1.5723,-189.82,215.98250000000002,190.445125,0.0,0.0,0.0,0.0,0.05149999999999999,-5.498166666666667,-5.498166666666667,-0.5987,1.1260000000000001,-0.033444444444444166,-1.866,67.856,-0.0477,-0.2076,1.4979999999999993,100.0,1.0,1.0,209.32,0.0,0.0,0.0,0.0,0.0,0.0,0.0,8872.4,0.0,55.0,4.0,244.25333333333333,0.0,0.0,0.0,0.0,0.0,0.0,0.0,0.0,1.3049999999999997,1.3049999999999997,0.0,0.0,0.0,55.0,616.79921,10000.0,85.000001,85.000001,85.000001,85.000001,395.0,0.0,0.0,0.0,1.0,333.33500000000004,51.941,51.941,48.035,48.035,34.0,-29.677500000000002,21.27,-34.82666666666667,24.8125,0.0,1781.641,0.8150000000000013,100.0,28.173000000000002,27.957,42.456,42.361000000000004,0.0,1.0,100.0,0.0,0.0,0.0,0.0,3397.714285714286,3043.1,4419.25,4080.3,304.6525,304.93025,314.283,314.81725,22.0235,20.6478,21.9956,21.5045,314.999998,314.999998,324.999988,324.999988,99.55931428571428,99.50743333333334,99.56661428571428,99.54685714285715,0.005749999999999922,-0.13524999999999998,-0.1776,0.04540000000000011,-0.05833333333333002,-0.051666666666669414,1.5093333333333332,1.56,38.647,30.049,38.472,35.4035,55.961,35.451,59.2335,52.4185,53.891999999999996,34.542,57.8335,50.7555,53.04,34.062,57.7395,50.166666666666664,-0.01849999999999996,-0.14550000000000018,0.10263000000000001,0.10834,0.0,212.57,212.435,209.32,209.32,0.0,0.0
27,0.0,1.0,0.0,1.0,1.0,0.0,0.0,1.0,0.0,100.0,1.0,1.1856,26.0,0.0,0.0,0.0,59.999996,0.0,26.0,26.0,26.0,26.0,-0.11455555555555552,0.26900000000000013,0.03716666666666667,292.084,-2.67445,-2.7385555555555556,-1.52055,-1.6587,-186.35,215.99,190.420375,0.0,0.0,0.0,0.0,0.05353333333333332,-5.498166666666667,-5.498166666666667,-0.5739000000000001,-0.6873333333333334,-0.06199999999999983,0.2629999999999999,67.998,-0.0766,-0.20980000000000001,1.2699999999999996,100.0,1.0,1.0,209.57999999999998,0.0,0.0,0.0,0.0,0.0,0.0,0.0,8883.3,0.0,55.0,4.0,244.76666666666665,1.0,0.0,0.0,0.0,0.0,0.0,0.0,0.0,1.355999999999998,1.355999999999998,0.0,0.0,1.0,55.0,616.79921,10000.0,85.000001,85.000001,85.000001,85.000001,395.0,0.0,0.0,0.0,1.0,166.665,52.673,52.673,46.539,46.539,34.0,-26.805,19.768,-36.269999999999996,26.8575,0.0,1781.593,0.6550000000000011,100.0,28.472,27.648,44.075,42.953,0.0,1.0,100.0,0.0,0.0,0.0,0.0,3066.285714285714,2957.2,4426.125,4242.5,305.5905,305.44125,314.035,314.32575,22.032899999999998,20.6531,22.0062,21.5136,314.999998,314.999998,324.999988,324.999988,99.55931428571428,99.50745,99.56677142857143,99.547,-0.004249999999999865,-0.14649999999999996,-0.2002,0.028999999999999915,-0.041666666666671404,-0.046666666666666856,1.425,1.4686666666666666,38.706,30.082,38.538,35.46,55.945,35.4925,59.2795,52.482,53.876999999999995,34.5805,57.8765,50.816,53.025,34.0985,57.778999999999996,50.22566666666667,-0.028000000000000025,-0.12700000000000022,0.11249,0.10912000000000001,0.0,212.96,212.85500000000002,209.57999999999998,209.57999999999998,0.0,0.0
28,0.0,1.0,0.0,1.0,1.0,0.0,0.0,1.0,0.0,100.0,1.0,1.1856,26.0,0.0,0.0,0.0,59.999996,0.0,26.0,26.0,26.0,26.0,-0.14522222222222214,0.27049999999999996,-0.06306666666666666,292.694,-2.6475,-2.7363333333333335,-1.54545,-1.614,-183.07999999999998,215.995,190.397625,0.0,0.0,0.0,0.0,0.055433333333333334,-5.498166666666667,-5.498166666666667,-0.6138,-0.16666666666666666,-0.07144444444444442,0.25,68.124,-0.0907,-0.24155000000000001,1.3079999999999998,100.0,1.0,1.0,210.27666666666667,0.0,0.0,0.0,0.0,0.0,0.0,0.0,8912.9,0.0,55.0,4.0,245.22,0.0,0.0,0.0,0.0,0.0,0.0,0.0,0.0,1.404,1.404,0.0,0.0,0.0,55.0,616.79921,10000.0,85.000001,85.000001,85.000001,85.000001,395.0,0.0,0.0,0.0,1.0,333.33500000000004,52.2,52.2,48.706,48.706,34.0,-29.697499999999998,20.605999999999998,-30.84,22.0175,0.0,1781.543,0.5250000000000021,100.0,28.58,27.402,43.724000000000004,42.607,0.0,1.0,100.0,0.0,0.0,0.0,0.0,3316.4285714285716,3073.2,3879.75,3864.0,304.774,305.173,315.50125,315.28875,22.0418,20.6581,22.0158,21.5219,314.999998,314.999998,324.999988,324.999988,99.55932857142857,99.50746666666667,99.5669,99.54712857142857,-0.01475000000000004,-0.14549999999999996,-0.2116,0.012399999999999967,-0.046666666666666856,-0.051666666666669414,1.5803333333333334,1.629,38.760999999999996,30.113500000000002,38.599000000000004,35.5115,55.932,35.5315,59.315,52.5355,53.864999999999995,34.6165,57.91,50.868,53.010999999999996,34.132999999999996,57.81,50.275666666666666,-0.03600000000000003,-0.12049999999999983,0.10700000000000001,0.10493000000000001,0.0,213.345,213.245,210.27666666666667,210.27666666666667,0.0,0.0
29,0.0,1.0,0.0,1.0,1.0,0.0,0.0,1.0,0.0,100.0,1.0,1.1856,26.0,0.0,0.0,0.0,59.999996,0.0,26.0,26.0,26.0,26.0,-0.13377777777777777,0.2964,-0.024966666666666668,292.557,-2.68125,-2.7667777777777776,-1.4963,-1.597,-179.61,215.995,190.372125,0.0,0.0,0.0,0.0,0.057433333333333336,-5.498166666666667,-5.498166666666667,-0.5915,0.13433333333333333,-0.07466666666666644,-0.7050000000000001,68.265,-0.0965,-0.196975,1.08,100.0,1.0,1.0,210.46666666666667,0.0,0.0,0.0,0.0,0.0,0.0,0.0,8920.9,0.0,55.0,4.0,245.72666666666666,1.0,0.0,0.0,0.0,0.0,0.0,0.0,0.0,1.4549999999999983,1.4549999999999983,0.0,0.0,1.0,55.0,616.79921,10000.0,85.000001,85.000001,85.000001,85.000001,395.0,0.0,0.0,0.0,1.0,166.665,53.162,53.162,47.15,47.15,34.0,-27.285,18.636,-36.95666666666666,23.9825,0.0,1781.494,0.3249999999999993,100.0,28.277,27.362000000000002,43.637,42.495000000000005,0.0,1.0,100.0,0.0,0.0,0.0,0.0,3061.857142857143,2785.8,4446.75,4222.9,305.6675,305.7915,314.10925,314.42875,22.051099999999998,20.6634,22.026,21.5307,314.999998,314.999998,324.999988,324.999988,99.55932857142857,99.50748333333334,99.56704285714285,99.54728571428572,-0.017749999999999932,-0.15225,-0.2236,0.0,-0.046666666666666856,-0.03333333333333144,1.4746666666666668,1.5186666666666666,38.82,30.146,38.663,35.567,55.916,35.572,59.3565,52.5945,53.849999999999994,34.6535,57.949,50.924,52.995999999999995,34.1685,57.8455,50.330666666666666,-0.050999999999999934,-0.10150000000000015,0.10522500000000001,0.10498,0.0,213.79000000000002,213.695,210.46666666666667,210.46666666666667,0.0,0.0
30,0.0,1.0,0.0,1.0,1.0,0.0,0.0,1.0,0.0,100.0,1.0,1.1856,26.0,0.0,0.0,0.0,59.999996,0.0,26.0,26.0,26.0,26.0,-0.11599999999999999,0.272,-0.06166666666666667,292.419,-2.6802,-2.6673333333333336,-1.5635,-1.6282,-176.32999999999998,215.995,190.347625,0.0,0.0,0.0,0.0,0.05936666666666657,-5.498166666666667,-5.498166666666667,-0.6197,-0.453,-0.07544444444444443,-0.554,68.393,-0.0903,-0.226325,0.9479999999999995,100.0,1.0,1.0,210.9766666666667,0.0,0.0,0.0,0.0,0.0,0.0,0.0,8942.5,0.0,55.0,4.0,246.18666666666667,0.0,0.0,0.0,0.0,0.0,0.0,1.0,0.0,1.5030000000000001,1.5030000000000001,0.0,0.0,0.0,55.0,616.79921,10000.0,85.000001,85.000001,85.000001,85.000001,395.0,0.0,0.0,0.0,1.0,333.33500000000004,52.063,52.063,48.309,48.309,34.0,-31.6025,20.424,-32.5,23.6475,0.0,1781.444,0.3000000000000007,100.0,28.387,27.378,43.738,42.611000000000004,0.0,1.0,100.0,0.0,0.0,0.0,0.0,3515.714285714286,3084.7,4034.25,3955.9,304.4675,305.12475,315.09275,314.98625,22.0599,20.6684,22.0357,21.5391,314.999998,314.999998,324.999988,324.999988,99.55932857142857,99.5075,99.56718571428571,99.54741428571428,-0.012499999999999956,-0.13749999999999996,-0.2032,0.021600000000000064,-0.051666666666669414,-0.041666666666671404,1.5283333333333333,1.5596666666666668,38.875,30.177500000000002,38.723,35.6195,55.902,35.6105,59.3945,52.6505,53.836,34.689,57.9845,50.9775,52.982,34.2025,57.8785,50.382999999999996,-0.05800000000000005,-0.09949999999999992,0.09856500000000001,0.11191500000000001,0.0,214.16500000000002,214.07,210.9766666666667,210.9766666666667,0.0,0.0
31,0.0,1.0,0.0,1.0,1.0,0.0,0.0,1.0,0.0,100.0,1.0,1.1856,26.0,0.0,0.0,0.0,59.999996,0.0,26.0,26.0,26.0,26.0,-0.12477777777777777,0.2997000000000001,0.0485,291.504,-2.6595,-2.7774444444444444,-1.5774,-1.5206000000000002,-172.84,215.99,190.321625,0.0,0.0,0.0,0.0,0.06140000000000001,-5.498166666666667,-5.498166666666667,-0.5878,0.7626666666666666,-0.06377777777777771,1.2680000000000002,68.531,-0.082,-0.201125,0.6440000000000001,100.0,1.0,1.0,211.21333333333334,0.0,0.0,0.0,0.0,0.0,0.0,0.0,8952.5,0.0,55.0,4.0,246.68,1.0,0.0,0.0,0.0,0.0,0.0,1.0,0.0,1.5539999999999985,1.5539999999999985,0.0,0.0,1.0,55.0,616.79921,10000.0,85.000001,85.000001,85.000001,85.000001,395.0,0.0,0.0,0.0,1.0,166.665,51.682,51.682,46.432,46.432,34.0,-27.3925,22.392,-37.239999999999995,26.595,0.0,1781.394,0.045000000000001705,100.0,29.178,28.015,44.001,42.636,0.0,1.0,100.0,0.0,0.0,0.0,0.0,3174.142857142857,3152.6,4556.0,4508.4,305.086,304.88775,313.863,313.9235,22.0694,20.6739,22.0461,21.548000000000002,314.999998,314.999998,324.999988,324.999988,99.55932857142857,99.50751666666666,99.56734285714286,99.54755714285714,0.011249999999999982,-0.12875000000000003,-0.1872,0.03299999999999992,-0.03499999999999659,-0.06666666666666998,1.4726666666666666,1.4963333333333333,38.934,30.212,38.788,35.675,55.888999999999996,35.653999999999996,59.436,52.71,53.824,34.729,58.0235,51.0355,52.969,34.2405,57.914500000000004,50.43933333333334,-0.07099999999999995,-0.09250000000000025,0.10507000000000001,0.11352000000000001,0.0,214.61,214.56,211.21333333333334,211.21333333333334,0.0,0.0
32,0.0,1.0,0.0,1.0,1.0,0.0,0.0,1.0,0.0,100.0,1.0,1.1856,26.0,0.0,0.0,0.0,59.999996,0.0,26.0,26.0,26.0,26.0,-0.0828888888888889,0.26350000000000007,0.025066666666666668,291.84,-2.64775,-2.734888888888889,-1.56515,-1.5852000000000002,-169.34,215.98250000000002,190.296625,0.0,0.0,0.0,0.0,0.06343333333333334,-5.498166666666667,-5.498166666666667,-0.6052000000000001,-0.595,-0.07066666666666643,-1.2309999999999999,68.666,-0.0702,-0.236825,0.516,100.0,1.0,1.0,211.73000000000002,0.0,0.0,0.0,0.0,0.0,0.0,0.0,8974.4,0.0,55.0,4.0,247.17000000000002,0.0,0.0,0.0,0.0,0.0,0.0,1.0,0.0,1.6050000000000004,1.6050000000000004,0.0,0.0,0.0,55.0,616.79921,10000.0,85.000001,85.000001,85.000001,85.000001,395.0,0.0,0.0,0.0,1.0,166.665,51.804,51.804,46.89,46.89,34.0,-27.53,21.689999999999998,-32.78333333333333,24.8625,0.0,1781.344,0.045000000000001705,100.0,28.61,28.256,44.293,43.324,0.0,1.0,100.0,0.0,0.0,0.0,0.0,3251.285714285714,3068.9,4140.875,4046.7,305.0795,304.86675,314.803,314.74175,22.0786,20.6794,22.0565,21.5571,314.999998,314.999998,324.999988,324.999988,99.55932857142857,99.50753333333333,99.56748571428571,99.5477,0.01650000000000018,-0.12724999999999997,-0.18359999999999999,0.040200000000000014,-0.05833333333333002,-0.04333333333332945,1.5033333333333334,1.5166666666666666,38.992000000000004,30.246499999999997,38.852999999999994,35.732,55.873000000000005,35.695,59.4775,52.7715,53.809,34.766999999999996,58.062,51.0945,52.953,34.277,57.95,50.49666666666667,-0.0754999999999999,-0.08950000000000014,0.102025,0.11161000000000001,0.0,215.005,214.925,211.73000000000002,211.73000000000002,0.0,0.0
33,0.0,1.0,0.0,1.0,1.0,0.0,0.0,1.0,0.0,100.0,1.0,1.1856,26.0,0.0,0.0,0.0,59.999996,0.0,26.0,26.0,26.0,26.0,-0.052999999999999936,0.2674000000000001,-0.0258,292.221,-2.62155,-2.7744444444444447,-1.51715,-1.6338000000000001,-166.04,215.9725,190.2725,0.0,0.0,0.0,0.0,0.06533333333333335,-5.498166666666667,-5.498166666666667,-0.607,0.05433333333333334,-0.09211111111111148,-0.6859999999999999,68.793,-0.0589,-0.218675,0.4400000000000004,100.0,1.0,1.0,212.14,0.0,0.0,0.0,0.0,0.0,0.0,0.0,8991.9,0.0,55.0,4.0,247.62666666666667,1.0,0.0,0.0,0.0,0.0,0.0,1.0,0.0,1.6529999999999987,1.6529999999999987,0.0,0.0,1.0,55.0,616.79921,10000.0,85.000001,85.000001,85.000001,85.000001,395.0,0.0,0.0,0.0,1.0,333.33500000000004,52.46,52.46,47.485,47.485,34.0,-25.9575,20.664,-31.743333333333336,26.54,0.0,1781.294,-0.03500000000000014,100.0,28.616,28.001,43.957,43.134,0.0,1.0,100.0,0.0,0.0,0.0,0.0,3172.714285714286,2827.7,4165.75,4114.3,305.316,305.68225,314.76475,314.612,22.0874,20.6845,22.066,21.5655,314.999998,314.999998,324.999988,324.999988,99.55934285714285,99.50753333333333,99.56762857142857,99.54784285714285,0.02925000000000022,-0.10999999999999999,-0.1714,0.05020000000000002,-0.04999999999999716,-0.036666666666668846,1.4963333333333333,1.5153333333333334,39.046,30.278,38.913,35.784,55.858999999999995,35.732,59.513,52.826,53.796,34.8015,58.0955,51.1465,52.939,34.31,57.9805,50.547666666666665,-0.08399999999999985,-0.0714999999999999,0.10429000000000001,0.108825,0.0,215.4,215.36,212.14,212.14,0.0,0.0
34,0.0,1.0,0.0,1.0,1.0,0.0,0.0,1.0,0.0,100.0,1.0,1.1856,26.0,0.0,0.0,0.0,59.999996,0.0,26.0,26.0,26.0,26.0,-0.05988888888888888,0.2599,-0.04593333333333333,292.343,-2.687,-2.7176666666666667,-1.5958999999999999,-1.6239000000000001,-162.53,215.96,190.245875,0.0,0.0,0.0,0.0,0.06736666666666657,-5.498166666666667,-5.498166666666667,-0.621,-0.55,-0.06222222222222218,1.2600000000000002,68.92699999999999,-0.0459,-0.21480000000000002,0.25200000000000067,100.0,1.0,1.0,212.55666666666667,0.0,0.0,0.0,0.0,0.0,0.0,0.0,9009.5,0.0,55.0,4.0,248.11333333333334,0.0,0.0,0.0,0.0,0.0,0.0,1.0,0.0,1.7040000000000006,1.7040000000000006,0.0,0.0,0.0,55.0,616.79921,10000.0,85.000001,85.000001,85.000001,85.000001,395.0,0.0,0.0,0.0,1.0,166.665,52.551,52.551,47.714,47.714,34.0,-25.43,22.268,-31.016666666666666,27.05,0.0,1781.245,-0.09999999999999787,100.0,28.468,27.591,43.900999999999996,43.156,0.0,1.0,100.0,0.0,0.0,0.0,0.0,3113.5714285714284,3031.4,4096.375,4118.1,305.414,305.3235,314.9985,314.69525,22.0966,20.689799999999998,22.0762,21.5744,314.999998,314.999998,324.999988,324.999988,99.55934285714285,99.50755,99.56778571428572,99.54798571428572,0.045250000000000234,-0.09375,-0.1532,0.06600000000000006,-0.04333333333332945,-0.045000000000001705,1.5270000000000001,1.5406666666666666,39.104,30.311500000000002,38.976,35.84,55.844,35.7695,59.5515,52.885999999999996,53.782,34.835499999999996,58.1315,51.204,52.923,34.3425,58.0135,50.60366666666667,-0.08599999999999985,-0.07350000000000012,0.10197500000000001,0.11052500000000001,0.0,215.8,215.745,212.55666666666667,212.55666666666667,0.0,0.0
35,0.0,1.0,0.0,1.0,1.0,0.0,0.0,1.0,0.0,100.0,1.0,1.1856,26.0,0.0,0.0,0.0,59.999996,0.0,26.0,26.0,26.0,26.0,-0.039000000000000035,0.2792000000000001,-0.13433333333333333,292.786,-2.6919,-2.653777777777778,-1.6028,-1.5545,-159.01,215.9475,190.218,0.0,0.0,0.0,0.0,0.06943333333333335,-5.498166666666667,-5.498166666666667,-0.6575000000000001,-0.8743333333333334,-0.03622222222222238,-0.353,69.062,-0.0334,-0.224925,0.1479999999999997,100.0,1.0,1.0,212.98000000000002,0.0,0.0,0.0,0.0,0.0,0.0,0.0,9027.5,0.0,55.0,4.0,248.59666666666666,1.0,0.0,0.0,0.0,0.0,0.0,1.0,0.0,1.754999999999999,1.754999999999999,0.0,0.0,1.0,55.0,616.79921,10000.0,85.000001,85.000001,85.000001,85.000001,395.0,0.0,0.0,0.0,1.0,333.33500000000004,53.345,53.345,47.882,47.882,34.0,-23.759999999999998,21.192,-30.786666666666665,26.36,0.0,1781.192,-0.14499999999999957,100.0,27.924,27.467,43.483000000000004,43.201,0.0,1.0,100.0,0.0,0.0,0.0,0.0,2973.4285714285716,2900.1,4095.0,4106.5,305.958,305.59125,315.00675,314.717,22.1057,20.6951,22.0863,21.5834,314.999998,314.999998,324.999988,324.999988,99.55935714285714,99.50756666666666,99.56792857142857,99.54812857142858,0.05049999999999999,-0.08274999999999999,-0.1482,0.07299999999999995,-0.03999999999999915,-0.054999999999999716,1.5423333333333333,1.5470000000000002,39.16,30.3445,39.039,35.8965,55.828,35.806,59.5875,52.945499999999996,53.766,34.8695,58.165,51.2615,52.907,34.375,58.044,50.659666666666666,-0.09299999999999997,-0.06349999999999989,0.10687,0.10440500000000001,0.0,216.19,216.17000000000002,212.98000000000002,212.98000000000002,0.0,0.0
