,ABS Active,ABS Enabled,AID Allow Tire Blankets,AID Auto Blip,AID Auto Clutch,AID Auto Shift,AID Fuel Rate,AID Ideal Line,AID Mech Damage,AID Stability,AID Tire Wear Rate,Air Density,Air Temp,Ballast,Best Lap Delta,Best Lap Time,Brake Bias,Brake Pos,Brake Temp FL,Brake Temp FR,Brake Temp RL,Brake Temp RR,CG Accel Lateral,CG Accel Longitudinal,CG Accel Vertical,CG Height,Camber FL,Camber FR,Camber RL,Camber RR,Car Coord X,Car Coord Y,Car Coord Z,Car Damage Front,Car Damage Left,Car Damage Rear,Car Damage Right,Car Pos Norm,Caster FL,Caster FR,Chassis Pitch Angle,Chassis Pitch Rate,Chassis Roll Angle,Chassis Roll Rate,Chassis Velocity X,Chassis Velocity Y,Chassis Velocity Z,Chassis Yaw Rate,Clutch Pos,DRS Active,DRS Available,Drive Train Speed,ERS Heat Charging,ERS Is Charging,ERS Max Energy,ERS Power Level,ERS Recovery Level,Engine Brake Setting,Engine Limiter,Engine RPM,Flags,Fuel Level,Gear,Ground Speed,HR Sample Clock,In Pit,KERS Charge,KERS Deployed Energy,KERS Input,KERS Max Energy,LR Sample Clock,Lap Invalidated,Lap Time,Lap Time2,Last Lap Time,Last Sector Time,MR Sample Clock,Max Fuel,Max Power,Max RPM,Max Sus Travel FL,Max Sus Travel FR,Max Sus Travel RL,Max Sus Travel RR,Max Torque,Max Turbo Boost,Num Tires Off Track,Penalties Enabled,Position,Raw Data Sample Rate,Ride Height FL,Ride Height FR,Ride Height RL,Ride Height RR,Road Temp,Self Align Torque FL,Self Align Torque FR,Self Align Torque RL,Self Align Torque RR,Session Lap Count,Session Time Left,Steering Angle,Surface Grip,Suspension Travel FL,Suspension Travel FR,Suspension Travel RL,Suspension Travel RR,TC Active,TC Enabled,Throttle Pos,Tire Dirt Level FL,Tire Dirt Level FR,Tire Dirt Level RL,Tire Dirt Level RR,Tire Load FL,Tire Load FR,Tire Load RL,Tire Load RR,Tire Loaded Radius FL,Tire Loaded Radius FR,Tire Loaded Radius RL,Tire Loaded Radius RR,Tire Pressure FL,Tire Pressure FR,Tire Pressure RL,Tire Pressure RR,Tire Radius FL,Tire Radius FR,Tire Radius RL,Tire Radius RR,Tire Rubber Grip FL,Tire Rubber Grip FR,Tire Rubber Grip RL,Tire Rubber Grip RR,Tire Slip Angle FL,Tire Slip Angle FR,Tire Slip Angle RL,Tire Slip Angle RR,Tire Slip Ratio FL,Tire Slip Ratio FR,Tire Slip Ratio RL,Tire Slip Ratio RR,Tire Temp Core FL,Tire Temp Core FR,Tire Temp Core RL,Tire Temp Core RR,Tire Temp Inner FL,Tire Temp Inner FR,Tire Temp Inner RL,Tire Temp Inner RR,Tire Temp Middle FL,Tire Temp Middle FR,Tire Temp Middle RL,Tire Temp Middle RR,Tire Temp Outer FL,Tire Temp Outer FR,Tire Temp Outer RL,Tire Temp Outer RR,Toe In FL,Toe In FR,Toe In RL,Toe In RR,Turbo Boost,Wheel Angular Speed FL,Wheel Angular Speed FR,Wheel Angular Speed RL,Wheel Angular Speed RR,Wind Direction,Wind Speed
0,0.0,1.0,0.0,1.0,1.0,0.0,0.0,1.0,0.0,100.0,1.0,1.1856,26.0,0.0,0.0,0.0,59.99999,0.0,26.0,26.0,26.0,26.0,-0.178875,0.29610000000000003,0.024325000000000003,294.937,-2.6837,-2.7173333333333334,-1.4617,-1.5834000000000001,-275.68,216.20749999999998,190.9885,0.0,0.0,0.0,0.0,0.0015999999999999348,-5.498166666666667,-5.498166666666667,-0.5689000000000001,1.6335,-0.052000000000000046,-0.486,63.657,-0.0952,-0.2245,1.8940000000000001,100.0,1.0,1.0,196.62,0.0,0.0,0.0,0.0,0.0,0.0,0.0,8042.8,0.0,55.0,4.0,229.13666666666666,0.0,0.0,0.0,0.0,0.0,0.0,0.0,0.0,0.0030000000000001137,0.0030000000000001137,0.0,0.0,0.0,55.0,616.79921,10000.0,85.0,85.0,85.0,85.0,395.0,0.0,0.0,0.0,1.0,20.0,53.009,53.009,51.01,51.01,34.0,-31.59,21.36,-31.963333333333335,19.935000000000002,0.0,1783.277,1.3449999999999989,100.0,26.965,25.856,39.871,38.998000000000005,0.0,1.0,100.0,0.0,0.0,0.0,0.0,3224.142857142857,3415.1,3987.875,3758.5,304.937,303.9315,315.159,315.4965,21.7731,20.5108,21.7408,21.2786,314.99999,314.99999,324.99998,324.99998,99.5584,99.50711666666666,99.56302857142857,99.54295714285715,-0.07624999999999993,-0.18233333333333324,-0.23366666666666658,-0.0076666666666665995,-0.05666666666667197,-0.044285714285713595,1.5406666666666669,1.604,37.082,29.192666666666668,36.879999999999995,33.991,56.102000000000004,34.391,58.189499999999995,50.7155,54.038,33.5935,56.8655,49.12,53.22,33.185,56.853,48.56,0.0365000000000002,-0.17149999999999999,0.10818000000000001,0.10512,0.0,199.60000000000002,199.43,196.62,196.62,0.0,0.0
1,0.0,1.0,0.0,1.0,1.0,0.0,0.0,1.0,0.0,100.0,1.0,1.1856,26.0,0.0,0.0,0.0,59.999996,0.0,26.0,26.0,26.0,26.0,-0.20762499999999995,0.30200000000000005,-0.023075000000000002,294.144,-2.5989,-2.826888888888889,-1.4732,-1.5794000000000001,-272.24,216.22,190.968,0.0,0.0,0.0,0.0,0.0035999999999999366,-5.498166666666667,-5.498166666666667,-0.4909,-0.6925,-0.09975000000000023,-0.169,63.82,-0.1124,-0.19385000000000002,2.0760000000000005,100.0,1.0,1.0,196.70666666666668,0.0,0.0,0.0,0.0,0.0,0.0,0.0,8046.3,0.0,55.0,4.0,229.72333333333333,1.0,0.0,0.0,0.0,0.0,0.0,0.0,0.0,0.05699999999999861,0.05699999999999861,0.0,0.0,1.0,55.0,616.79921,10000.0,85.000001,85.000001,85.000001,85.000001,395.0,0.0,0.0,0.0,1.0,166.665,54.871,54.871,49.194,49.194,34.0,-27.9425,14.364999999999998,-37.78333333333333,25.155,0.0,1783.224,1.3249999999999993,100.0,27.168,25.853,42.214,40.333,0.0,1.0,100.0,0.0,0.0,0.0,0.0,2949.4285714285716,2430.8,4339.5,4629.0,305.7675,307.1285,314.1345,313.2935,21.7834,20.5159,21.7519,21.2878,314.999998,314.999998,324.999988,324.999988,99.55841428571429,99.50715,99.56318571428571,99.54308571428571,-0.08024999999999993,-0.20333333333333314,-0.25049999999999994,-0.028166666666666562,-0.023333333333326323,-0.0714285714285694,1.339,1.404,37.146,29.224333333333334,36.949,34.0485,56.09,34.4345,58.2395,50.782,54.027,33.6335,56.912,49.1835,53.208,33.223,56.897,48.62266666666667,0.03149999999999986,-0.17249999999999988,0.101635,0.11731500000000002,0.0,200.055,199.91,196.70666666666668,196.70499999999998,0.0,0.0
2,0.0,1.0,0.0,1.0,1.0,0.0,0.0,1.0,0.0,100.0,1.0,1.1856,26.0,0.0,0.0,0.0,59.999996,0.0,26.0,26.0,26.0,26.0,-0.22575,0.27180000000000004,-0.12935,295.059,-2.5631,-2.8626666666666667,-1.4438,-1.6401,-269.18,216.225,190.951,0.0,0.0,0.0,0.0,0.00536666666666652,-5.498166666666667,-5.498166666666667,-0.5591,-0.28150000000000003,-0.09812500000000002,2.468,63.952,-0.1264,-0.258,2.274000000000001,100.0,1.0,1.0,197.68666666666667,0.0,0.0,0.0,0.0,0.0,0.0,0.0,8086.4,0.0,55.0,4.0,230.19666666666666,0.0,0.0,0.0,0.0,0.0,0.0,0.0,0.0,0.10500000000000043,0.10500000000000043,0.0,0.0,0.0,55.0,616.79921,10000.0,85.000001,85.000001,85.000001,85.000001,395.0,0.0,0.0,0.0,1.0,333.33500000000004,53.528,53.528,51.697,51.697,34.0,-32.795,16.74666666666667,-30.15,15.945,0.0,1783.174,1.2050000000000018,100.0,27.728,25.715,41.928,39.812,0.0,1.0,100.0,0.0,0.0,0.0,0.0,3366.714285714286,2746.6,3628.75,3366.8,304.432,306.175,315.90175,316.572,21.7928,20.5201,21.7614,21.2956,314.999998,314.999998,324.999988,324.999988,99.55842857142858,99.50716666666666,99.5633,99.5432,-0.08949999999999991,-0.20566666666666666,-0.2833333333333333,-0.05066666666666664,-0.03999999999999915,-0.03142857142857025,1.637,1.6990000000000003,37.205,29.250999999999998,37.009,34.0975,56.082,34.47,58.2745,50.8315,54.019,33.666,56.945,49.2315,53.199,33.254,56.9275,48.669333333333334,0.022499999999999964,-0.16449999999999987,0.10394,0.11123000000000001,0.0,200.46,200.25,197.68666666666667,197.685,0.0,0.0
3,0.0,1.0,0.0,1.0,1.0,0.0,0.0,1.0,0.0,100.0,1.0,1.1856,26.0,0.0,0.0,0.0,59.999996,0.0,26.0,26.0,26.0,26.0,-0.21599999999999997,0.2954000000000001,0.05545,294.617,-2.6097,-2.7475555555555555,-1.4568,-1.6105,-266.1,216.22750000000002,190.932875,0.0,0.0,0.0,0.0,0.0071666666666665435,-5.498166666666667,-5.498166666666667,-0.5163,0.7105,-0.04837500000000006,0.343,64.093,-0.14100000000000001,-0.19675,1.8239999999999998,100.0,1.0,1.0,197.76666666666665,0.0,0.0,0.0,0.0,0.0,0.0,0.0,8089.6,0.0,55.0,4.0,230.70666666666668,1.0,0.0,0.0,0.0,0.0,0.0,0.0,0.0,0.1529999999999987,0.1529999999999987,0.0,0.0,1.0,55.0,616.79921,10000.0,85.000001,85.000001,85.000001,85.000001,395.0,0.0,0.0,0.0,1.0,166.665,54.428,54.428,49.484,49.484,34.0,-27.71,16.221666666666668,-37.03666666666666,20.4025,0.0,1783.129,0.9050000000000011,100.0,27.383,25.849,41.538,39.689,0.0,1.0,100.0,0.0,0.0,0.0,0.0,2918.714285714286,2756.8,4264.875,4093.2,305.9475,306.0585,314.38775,314.73825,21.8019,20.5247,21.7708,21.3035,314.999998,314.999998,324.999988,324.999988,99.55842857142858,99.50718333333333,99.56342857142857,99.54332857142857,-0.08399999999999985,-0.19866666666666677,-0.2693333333333333,-0.05049999999999999,-0.03333333333333144,-0.06571428571428584,1.46,1.5340000000000003,37.262,29.279333333333334,37.068,34.1465,56.071,34.5095,58.3105,50.8875,54.009,33.7025,56.9785,49.285,53.189,33.289,56.959,48.721666666666664,-0.0024999999999999467,-0.13900000000000023,0.10183,0.10522500000000001,0.0,200.96,200.81,197.76666666666665,197.765,0.0,0.0
4,0.0,1.0,0.0,1.0,1.0,0.0,0.0,1.0,0.0,100.0,1.0,1.1856,26.0,0.0,0.0,0.0,59.999996,0.0,26.0,26.0,26.0,26.0,-0.19025000000000003,0.2836000000000001,-0.016375,294.754,-2.6436,-2.800222222222222,-1.4021,-1.608,-262.83,216.2225,190.913625,0.0,0.0,0.0,0.0,0.009066666666666556,-5.498166666666667,-5.498166666666667,-0.5441,-0.9475,-0.10749999999999993,-1.7830000000000001,64.24000000000001,-0.1333,-0.23392500000000002,1.6099999999999994,100.0,1.0,1.0,198.2866666666667,0.0,0.0,0.0,0.0,0.0,0.0,0.0,8111.0,0.0,55.0,4.0,231.23333333333335,0.0,0.0,0.0,0.0,0.0,0.0,0.0,0.0,0.20400000000000063,0.20400000000000063,0.0,0.0,0.0,55.0,616.79921,10000.0,85.000001,85.000001,85.000001,85.000001,395.0,0.0,0.0,0.0,1.0,333.33500000000004,54.153,54.153,49.789,49.789,34.0,-30.7925,16.611666666666665,-34.61666666666666,18.0175,0.0,1783.075,0.9100000000000001,100.0,27.049,25.779,42.049,40.093,0.0,1.0,100.0,0.0,0.0,0.0,0.0,3189.714285714286,2728.1,4121.625,3606.8,305.255,305.97475,314.8205,315.79775,21.8114,20.5295,21.7811,21.312,314.999998,314.999998,324.999988,324.999988,99.55844285714285,99.50721666666666,99.56357142857142,99.54345714285714,-0.08199999999999985,-0.19866666666666677,-0.27183333333333337,-0.03933333333333333,-0.051666666666669414,-0.03857142857143003,1.4956666666666667,1.5705,37.321,29.308999999999997,37.132,34.2,56.057,34.5495,58.353,50.945,53.995999999999995,33.739,57.0185,49.34,53.175,33.324,56.996,48.775666666666666,-0.0040000000000000036,-0.14150000000000018,0.10915000000000001,0.10335000000000001,0.0,201.325,201.18,198.2866666666667,198.2875,0.0,0.0
5,0.0,1.0,0.0,1.0,1.0,0.0,0.0,1.0,0.0,100.0,1.0,1.1856,26.0,0.0,0.0,0.0,59.999996,0.0,26.0,26.0,26.0,26.0,-0.1735,0.3004,-0.019775,294.937,-2.6494,-2.852222222222222,-1.4681,-1.6089,-259.55,216.2125,190.894,0.0,0.0,0.0,0.0,0.010966666666666569,-5.498166666666667,-5.498166666666667,-0.5435,0.549,-0.11037499999999989,1.079,64.384,-0.1313,-0.21695,1.540000000000001,100.0,1.0,1.0,198.76999999999998,0.0,0.0,0.0,0.0,0.0,0.0,0.0,8130.7,0.0,55.0,4.0,231.75333333333333,1.0,0.0,0.0,0.0,0.0,0.0,0.0,0.0,0.254999999999999,0.254999999999999,0.0,0.0,1.0,55.0,616.79921,10000.0,85.000001,85.000001,85.000001,85.000001,395.0,0.0,0.0,0.0,1.0,333.33500000000004,54.459,54.459,50.461,50.461,34.0,-28.335,17.585,-33.44,19.9075,0.0,1783.025,0.5650000000000013,100.0,27.362000000000002,25.652,41.775,39.605000000000004,0.0,1.0,100.0,0.0,0.0,0.0,0.0,3034.142857142857,2683.1,3982.375,3916.4,305.5345,306.30075,315.1465,315.16225,21.8212,20.5343,21.7912,21.3202,314.999998,314.999998,324.999988,324.999988,99.55845714285714,99.50723333333333,99.5637,99.54358571428571,-0.05549999999999988,-0.17033333333333323,-0.259,-0.035833333333333384,-0.051666666666669414,-0.05571428571428072,1.5003333333333333,1.5899999999999999,37.382,29.339,37.195,34.2515,56.047,34.59,58.391999999999996,50.9985,53.986000000000004,33.775999999999996,57.055,49.391,53.164,33.359,57.03,48.82566666666666,-0.02949999999999986,-0.11149999999999993,0.10221500000000001,0.11114500000000001,0.0,201.815,201.695,198.76999999999998,198.77,0.0,0.0
6,0.0,1.0,0.0,1.0,1.0,0.0,0.0,1.0,0.0,100.0,1.0,1.1856,26.0,0.0,0.0,0.0,59.999996,0.0,26.0,26.0,26.0,26.0,-0.163875,0.26859999999999995,0.01585,294.617,-2.6239,-2.789,-1.4592,-1.6364,-256.46,216.2,190.875125,0.0,0.0,0.0,0.0,0.012766666666666593,-5.498166666666667,-5.498166666666667,-0.5377000000000001,-0.025500000000000002,-0.09262499999999996,0.9410000000000001,64.52,-0.1207,-0.21575,1.1320000000000014,100.0,1.0,1.0,199.13333333333333,0.0,0.0,0.0,0.0,0.0,0.0,0.0,8145.6,0.0,55.0,4.0,232.24666666666667,0.0,0.0,0.0,0.0,0.0,0.0,0.0,0.0,0.3030000000000008,0.3030000000000008,0.0,0.0,0.0,55.0,616.79921,10000.0,85.000001,85.000001,85.000001,85.000001,395.0,0.0,0.0,0.0,1.0,333.33500000000004,54.077,54.077,50.125,50.125,34.0,-28.244999999999997,18.953333333333333,-32.49666666666667,21.3,0.0,1782.976,0.34499999999999886,100.0,27.215,25.666,41.905,40.028,0.0,1.0,100.0,0.0,0.0,0.0,0.0,3104.857142857143,2858.6,3950.875,3917.8,305.313,305.78825,315.141,315.1105,21.8303,20.5388,21.8008,21.3283,314.999998,314.999998,324.999988,324.999988,99.55845714285714,99.50725,99.56382857142857,99.54371428571429,-0.03925000000000001,-0.15566666666666662,-0.24183333333333334,-0.02100000000000002,-0.02833333333332888,-0.05857142857143316,1.4696666666666667,1.5205000000000002,37.439,29.367333333333335,37.254999999999995,34.302,56.035,34.626,58.4295,51.0545,53.974000000000004,33.8095,57.09,49.4445,53.150999999999996,33.391,57.0625,48.878,-0.04499999999999993,-0.0950000000000002,0.10427000000000002,0.105285,0.0,202.20499999999998,202.12,199.13333333333333,199.135,0.0,0.0
7,0.0,1.0,0.0,1.0,1.0,0.0,0.0,1.0,0.0,100.0,1.0,1.1856,26.0,0.0,0.0,0.0,59.999996,0.0,26.0,26.0,26.0,26.0,-0.12624999999999997,0.2841,0.01005,294.388,-2.6832,-2.7715555555555556,-1.4823,-1.5788,-253.16,216.1825,190.85525,0.0,0.0,0.0,0.0,0.014699999999999935,-5.498166666666667,-5.498166666666667,-0.5402,-0.1485,-0.07975000000000021,-0.229,64.66499999999999,-0.1009,-0.221425,0.7780000000000005,100.0,1.0,1.0,199.5366666666667,0.0,0.0,0.0,0.0,0.0,0.0,0.0,8162.1,0.0,55.0,4.0,232.76666666666665,1.0,0.0,0.0,0.0,0.0,0.0,0.0,0.0,0.3539999999999992,0.3539999999999992,0.0,0.0,1.0,55.0,616.79921,10000.0,85.000001,85.000001,85.000001,85.000001,395.0,0.0,0.0,0.0,1.0,333.33500000000004,53.909,53.909,50.003,50.003,34.0,-29.5375,19.41166666666667,-32.75333333333333,21.9775,0.0,1782.927,-0.09499999999999886,100.0,27.079,25.886,41.885,40.394999999999996,0.0,1.0,100.0,0.0,0.0,0.0,0.0,3290.714285714286,2807.5,4067.5,3940.8,304.9685,305.794,314.94875,314.99475,21.84,20.5436,21.8109,21.3368,314.999998,314.999998,324.999988,324.999988,99.55845714285714,99.50726666666667,99.56397142857143,99.54384285714286,-0.017249999999999988,-0.1339999999999999,-0.22133333333333338,0.0030000000000001137,-0.05333333333332746,-0.03285714285714647,1.486,1.5145,37.5,29.397666666666666,37.318,34.355000000000004,56.021,34.664500000000004,58.469,51.112,53.961,33.8445,57.126999999999995,49.5,53.137,33.424,57.0965,48.932,-0.0734999999999999,-0.06199999999999983,0.10114000000000001,0.111115,0.0,202.64499999999998,202.55,199.5366666666667,199.535,0.0,0.0
8,0.0,1.0,0.0,1.0,1.0,0.0,0.0,1.0,0.0,100.0,1.0,1.1856,26.0,0.0,0.0,0.0,59.999996,0.0,26.0,26.0,26.0,26.0,-0.09699999999999998,0.2944,0.023525,294.617,-2.6678,-2.753333333333333,-1.5474999999999999,-1.5554000000000001,-249.86,216.1625,190.83525,0.0,0.0,0.0,0.0,0.016599999999999948,-5.498166666666667,-5.498166666666667,-0.5363,-0.187,-0.05437499999999984,0.909,64.809,-0.0785,-0.209575,0.1899999999999995,100.0,1.0,1.0,199.95666666666668,0.0,0.0,0.0,0.0,0.0,0.0,0.0,8179.3,0.0,55.0,4.0,233.28333333333333,0.0,0.0,0.0,0.0,0.0,0.0,0.0,0.0,0.40500000000000114,0.40500000000000114,0.0,0.0,0.0,55.0,616.79921,10000.0,85.000001,85.000001,85.000001,85.000001,395.0,0.0,0.0,0.0,1.0,333.33500000000004,54.611,54.611,49.454,49.454,34.0,-23.807499999999997,20.813333333333333,-32.54666666666667,23.8425,0.0,1782.874,-0.245000000000001,100.0,26.986,25.825,41.818,40.458,0.0,1.0,100.0,0.0,0.0,0.0,0.0,2863.5714285714284,2840.4,4125.5,4040.1000000000004,306.075,305.86175,314.787,314.8635,21.8495,20.5486,21.820999999999998,21.3453,314.999998,314.999998,324.999988,324.999988,99.55845714285714,99.50726666666667,99.5641,99.54397142857142,0.020000000000000018,-0.09566666666666679,-0.1881666666666666,0.03383333333333338,-0.03333333333333144,-0.05285714285714249,1.497,1.5035000000000003,37.559,29.428333333333335,37.381,34.408500000000004,56.004000000000005,34.701499999999996,58.5065,51.17,53.945,33.8785,57.162,49.555,53.121,33.457,57.129,48.986000000000004,-0.08699999999999997,-0.045500000000000096,0.102485,0.10274000000000001,0.0,203.055,203.035,199.95666666666668,199.95749999999998,0.0,0.0
9,0.0,1.0,0.0,1.0,1.0,0.0,0.0,1.0,0.0,100.0,1.0,1.1856,26.0,0.0,0.0,0.0,59.999996,0.0,26.0,26.0,26.0,26.0,-0.06787500000000002,0.29080000000000017,-2.5e-05,294.479,-2.6792,-2.7536666666666667,-1.5123,-1.5568,-246.75,216.14,190.816125,0.0,0.0,0.0,0.0,0.0184333333333333,-5.498166666666667,-5.498166666666667,-0.5541,0.1355,-0.05162500000000003,0.623,64.94200000000001,-0.0543,-0.223175,0.023999999999999133,100.0,1.0,1.0,200.4766666666667,0.0,0.0,0.0,0.0,0.0,0.0,0.0,8200.5,0.0,55.0,4.0,233.76,1.0,0.0,0.0,0.0,0.0,0.0,0.0,0.0,0.4529999999999994,0.4529999999999994,0.0,0.0,1.0,55.0,616.79921,10000.0,85.000001,85.000001,85.000001,85.000001,395.0,0.0,0.0,0.0,1.0,333.33500000000004,53.604,53.604,50.278,50.278,34.0,-26.145,23.235,-28.053333333333335,24.23,0.0,1782.826,-0.3200000000000003,100.0,27.017,26.165,41.595,40.555,0.0,1.0,100.0,0.0,0.0,0.0,0.0,3185.285714285714,3014.1,3834.75,3867.2,305.1355,305.2735,315.4805,315.2815,21.8585,20.5533,21.8304,21.3534,314.999998,314.999998,324.999988,324.999988,99.55847142857142,99.50728333333333,99.56422857142857,99.5441,0.040750000000000064,-0.07433333333333314,-0.16433333333333333,0.06983333333333319,-0.05333333333332746,-0.06571428571428584,1.5496666666666667,1.5470000000000002,37.614999999999995,29.458,37.44,34.4585,55.989000000000004,34.7365,58.5405,51.223,53.931,33.911,57.194,49.606,53.106,33.4875,57.158500000000004,49.036,-0.09850000000000003,-0.04300000000000015,0.10927,0.105825,0.0,203.445,203.46,200.4766666666667,200.475,0.0,0.0
10,0.0,1.0,0.0,1.0,1.0,0.0,0.0,1.0,0.0,100.0,1.0,1.1856,26.0,0.0,0.0,0.0,59.999996,0.0,26.0,26.0,26.0,26.0,-0.01937500000000003,0.2916000000000001,0.06342500000000001,293.961,-2.6428,-2.742111111111111,-1.5508000000000002,-1.5423,-243.43,216.115,190.79575,0.0,0.0,0.0,0.0,0.020333333333333314,-5.498166666666667,-5.498166666666667,-0.5211,0.342,-0.020750000000000046,0.267,65.086,-0.032100000000000004,-0.20167500000000002,-0.1899999999999995,100.0,1.0,1.0,200.72,0.0,0.0,0.0,0.0,0.0,0.0,0.0,8210.5,0.0,55.0,4.0,234.28,0.0,0.0,0.0,0.0,0.0,0.0,1.0,0.0,0.5040000000000013,0.5040000000000013,0.0,0.0,0.0,55.0,616.79921,10000.0,85.000001,85.000001,85.000001,85.000001,395.0,0.0,0.0,0.0,1.0,166.665,53.97,53.97,49.254999999999995,49.254999999999995,34.0,-23.4725,21.7,-32.053333333333335,27.76,0.0,1782.777,-0.5350000000000001,100.0,27.174,26.512999999999998,41.561,41.228,0.0,1.0,100.0,0.0,0.0,0.0,0.0,3018.285714285714,2769.7,4274.625,4198.9,305.677,305.829,314.497,314.36075,21.8681,20.5584,21.8405,21.362,314.999998,314.999998,324.999988,324.999988,99.55848571428571,99.5073,99.56435714285715,99.54422857142858,0.05774999999999997,-0.06066666666666665,-0.14916666666666656,0.08150000000000013,-0.04999999999999716,-0.048571428571428044,1.4573333333333334,1.44,37.676,29.489666666666665,37.503,34.513,55.977000000000004,34.7725,58.5785,51.283,53.919,33.944,57.2295,49.664,53.093,33.519,57.191,49.092666666666666,-0.11349999999999993,-0.025500000000000078,0.10815000000000001,0.111585,0.0,203.95,203.935,200.72,200.72,0.0,0.0
11,0.0,1.0,0.0,1.0,1.0,0.0,0.0,1.0,0.0,100.0,1.0,1.1856,26.0,0.0,0.0,0.0,59.999996,0.0,26.0,26.0,26.0,26.0,0.011374999999999913,0.27300000000000013,-0.0218,294.495,-2.703,-2.7153333333333336,-1.5283,-1.5235,-240.11,216.09,190.775875,0.0,0.0,0.0,0.0,0.022399999999999975,-5.498166666666667,-5.498166666666667,-0.5588000000000001,-0.8925000000000001,0.020874999999999977,0.857,65.225,-0.0059,-0.23945000000000002,-0.5379999999999994,100.0,1.0,1.0,201.30333333333334,0.0,0.0,0.0,0.0,0.0,0.0,0.0,8234.4,0.0,55.0,4.0,234.78333333333333,1.0,0.0,0.0,0.0,0.0,0.0,1.0,0.0,0.5549999999999997,0.5549999999999997,0.0,0.0,1.0,55.0,616.79921,10000.0,85.000001,85.000001,85.000001,85.000001,395.0,0.0,0.0,0.0,1.0,333.33500000000004,53.925,53.925,50.034,50.034,34.0,-22.22,25.025,-24.133333333333333,25.79,0.0,1782.725,-0.48999999999999844,100.0,26.817,26.357,41.692,41.441,0.0,1.0,100.0,0.0,0.0,0.0,0.0,2929.0,3063.6,3687.875,3850.8,305.898,305.13475,315.77,315.25075,21.8774,20.5634,21.8506,21.3707,314.999998,314.999998,324.999988,324.999988,99.55848571428571,99.5073,99.5645,99.54435714285714,0.08325000000000005,-0.03266666666666662,-0.09983333333333333,0.11133333333333328,-0.03499999999999659,-0.05857142857143316,1.56,1.5380000000000003,37.733999999999995,29.521333333333335,37.566,34.567,55.96,34.8075,58.615,51.342,53.903,33.976,57.263,49.7205,53.077,33.55,57.222,49.14833333333333,-0.11250000000000004,-0.028000000000000025,0.10176500000000001,0.10271000000000001,0.0,204.29000000000002,204.32999999999998,201.30333333333334,201.305,0.0,0.0
12,0.0,1.0,0.0,1.0,1.0,0.0,0.0,1.0,0.0,100.0,1.0,1.1856,26.0,0.0,0.0,0.0,59.999996,0.0,26.0,26.0,26.0,26.0,0.03237500000000004,0.29469999999999996,-0.0066,294.449,-2.7671,-2.6959999999999997,-1.5312999999999999,-1.5131999999999999,-236.97,216.0675,190.756,0.0,0.0,0.0,0.0,0.0240999999999999,-5.498166666666667,-5.498166666666667,-0.5555,0.357,0.014124999999999943,0.367,65.358,0.011300000000000001,-0.20855,-0.6639999999999997,100.0,1.0,1.0,201.66333333333333,0.0,0.0,0.0,0.0,0.0,0.0,0.0,8249.1,0.0,55.0,4.0,235.26,0.0,0.0,0.0,0.0,0.0,0.0,1.0,0.0,0.602999999999998,0.602999999999998,0.0,0.0,0.0,55.0,616.79921,10000.0,85.000001,85.000001,85.000001,85.000001,395.0,0.0,0.0,0.0,1.0,333.33500000000004,54.184,54.184,49.469,49.469,34.0,-21.3275,25.166666666666664,-26.083333333333336,28.615000000000002,0.0,1782.676,-0.4250000000000007,100.0,26.627,26.544,41.123000000000005,41.118,0.0,1.0,100.0,0.0,0.0,0.0,0.0,2860.714285714286,3027.5,4026.25,4032.3,306.1485,305.23225,315.02925,314.8915,21.8862,20.5683,21.8599,21.3787,314.999998,314.999998,324.999988,324.999988,99.5585,99.5073,99.56461428571428,99.54448571428571,0.1030000000000002,-0.016999999999999904,-0.08416666666666661,0.14100000000000001,-0.03999999999999915,-0.05857142857143316,1.5376666666666667,1.5075000000000003,37.788,29.552,37.623999999999995,34.617,55.947,34.841,58.646,51.394999999999996,53.891,34.007,57.292,49.7715,53.063,33.579499999999996,57.2485,49.19833333333334,-0.11399999999999988,-0.026000000000000245,0.11217,0.10596000000000001,0.0,204.735,204.79000000000002,201.66333333333333,201.6625,0.0,0.0
13,0.0,1.0,0.0,1.0,1.0,0.0,0.0,1.0,0.0,100.0,1.0,1.1856,26.0,0.0,0.0,0.0,59.999996,0.0,26.0,26.0,26.0,26.0,0.05962500000000004,0.2821,-0.00545,293.945,-2.7424,-2.6926666666666668,-1.5984,-1.5011,-233.64,216.04500000000002,190.7345,0.0,0.0,0.0,0.0,0.025899999999999923,-5.498166666666667,-5.498166666666667,-0.5455,0.0975,0.00912500000000005,-0.6900000000000001,65.499,0.024800000000000003,-0.210075,-0.5720000000000001,100.0,1.0,1.0,202.0366666666667,0.0,0.0,0.0,0.0,0.0,0.0,0.0,8264.4,0.0,55.0,4.0,235.76666666666665,1.0,0.0,0.0,0.0,0.0,0.0,1.0,0.0,0.6539999999999999,0.6539999999999999,0.0,0.0,1.0,55.0,616.79921,10000.0,85.000001,85.000001,85.000001,85.000001,395.0,0.0,0.0,0.0,1.0,333.33500000000004,53.589,53.589,49.408,49.408,34.0,-22.177500000000002,25.48,-27.71,29.345,0.0,1782.627,-0.8649999999999984,100.0,26.752,26.987000000000002,41.333,41.647999999999996,0.0,1.0,100.0,0.0,0.0,0.0,0.0,3092.714285714286,2960.7,4054.375,4099.6,305.5755,305.2395,315.03675,314.63975,21.8955,20.5736,21.87,21.3874,314.999998,314.999998,324.999988,324.999988,99.55851428571428,99.50731666666667,99.56475714285715,99.54461428571429,0.12225000000000019,0.002000000000000224,-0.09266666666666656,0.14266666666666672,-0.051666666666669414,-0.05142857142856627,1.4986666666666668,1.483,37.847,29.585,37.687,34.6715,55.935,34.8765,58.683,51.455,53.879000000000005,34.04,57.326499999999996,49.829,53.05,33.611,57.28,49.254999999999995,-0.1359999999999999,-0.010499999999999954,0.11570500000000002,0.10840000000000001,0.0,205.175,205.2,202.0366666666667,202.0375,0.0,0.0
14,0.0,1.0,0.0,1.0,1.0,0.0,0.0,1.0,0.0,100.0,1.0,1.1856,26.0,0.0,0.0,0.0,59.999996,0.0,26.0,26.0,26.0,26.0,0.06800000000000006,0.27480000000000016,-0.025150000000000002,294.022,-2.7285,-2.649222222222222,-1.5977999999999999,-1.517,-230.1,216.01999999999998,190.712625,0.0,0.0,0.0,0.0,0.028099999999999903,-5.498166666666667,-5.498166666666667,-0.5506,-0.20800000000000002,0.028999999999999915,0.07,65.645,0.0362,-0.226025,-0.7800000000000002,100.0,1.0,1.0,202.51,0.0,0.0,0.0,0.0,0.0,0.0,0.0,8283.7,0.0,55.0,4.0,236.29666666666668,0.0,0.0,0.0,0.0,0.0,0.0,1.0,0.0,0.7079999999999984,0.7079999999999984,0.0,0.0,0.0,55.0,616.79921,10000.0,85.000001,85.000001,85.000001,85.000001,395.0,0.0,0.0,0.0,1.0,166.665,53.696,53.696,49.622,49.622,34.0,-21.294999999999998,25.343333333333334,-26.11,29.080000000000002,0.0,1782.573,-0.8900000000000006,100.0,26.858,26.965,41.397999999999996,41.962,0.0,1.0,100.0,0.0,0.0,0.0,0.0,3035.4285714285716,2943.2,3974.625,4021.3,305.7045,305.382,315.1955,314.82925,21.9055,20.5791,21.8806,21.3967,314.999998,314.999998,324.999988,324.999988,99.55852857142857,99.50731666666667,99.5649,99.54475714285714,0.1299999999999999,0.015000000000000124,-0.07399999999999995,0.14583333333333326,-0.045000000000001705,-0.054285714285711606,1.5136666666666667,1.4780000000000002,37.909,29.619333333333334,37.754000000000005,34.729,55.923,34.914,58.721000000000004,51.519,53.867999999999995,34.074,57.3615,49.8905,53.038,33.644,57.312,49.315333333333335,-0.1379999999999999,0.0004999999999999449,0.10623500000000001,0.09888500000000001,0.0,205.61,205.675,202.51,202.51,0.0,0.0
15,0.0,1.0,0.0,1.0,1.0,0.0,0.0,1.0,0.0,100.0,1.0,1.1856,26.0,0.0,0.0,0.0,59.999996,0.0,26.0,26.0,26.0,26.0,0.06675000000000009,0.26990000000000003,0.006125,294.022,-2.6955,-2.686,-1.5916000000000001,-1.495,-227.14,216.0025,190.69425,0.0,0.0,0.0,0.0,0.02983333333333338,-5.498166666666667,-5.498166666666667,-0.5524,0.2405,0.0578749999999999,1.48,65.766,0.0492,-0.22160000000000002,-1.0379999999999994,100.0,1.0,1.0,202.93666666666667,0.0,0.0,0.0,0.0,0.0,0.0,0.0,8301.2,0.0,55.0,4.0,236.73000000000002,1.0,0.0,0.0,0.0,0.0,0.0,1.0,0.0,0.7530000000000001,0.7530000000000001,0.0,0.0,1.0,55.0,616.79921,10000.0,85.000001,85.000001,85.000001,85.000001,395.0,0.0,0.0,0.0,1.0,333.33500000000004,53.421,53.421,49.927,49.927,34.0,-20.265,27.003333333333334,-24.236666666666665,29.9225,0.0,1782.527,-0.9100000000000001,100.0,26.995,26.945,41.262,41.888,0.0,1.0,100.0,0.0,0.0,0.0,0.0,3048.0,3040.0,3896.5,4001.7,305.498,305.1775,315.355,314.94375,21.9136,20.5838,21.8894,21.4043,314.999998,314.999998,324.999988,324.999988,99.55854285714285,99.50731666666667,99.56501428571428,99.54488571428571,0.1532499999999999,0.028000000000000025,-0.05049999999999999,0.17566666666666686,-0.01666666666666572,-0.05142857142856627,1.5283333333333333,1.491,37.96,29.648666666666664,37.808,34.777,55.914,34.946,58.7505,51.571,53.858000000000004,34.104,57.388999999999996,49.941,53.028,33.6725,57.337,49.364666666666665,-0.14949999999999997,0.0,0.10454500000000001,0.10944000000000001,0.0,205.96,206.05,202.93666666666667,202.935,0.0,0.0
16,0.0,1.0,0.0,1.0,1.0,0.0,0.0,1.0,0.0,100.0,1.0,1.1856,26.0,0.0,0.0,0.0,59.999996,0.0,26.0,26.0,26.0,26.0,0.10787499999999994,0.27780000000000005,0.007275,294.037,-2.7699,-2.628222222222222,-1.552,-1.4396,-223.57999999999998,215.985,190.67175,0.0,0.0,0.0,0.0,0.03189999999999993,-5.498166666666667,-5.498166666666667,-0.5523,-0.748,0.06899999999999995,0.51,65.914,0.06420000000000001,-0.21452500000000002,-1.1720000000000006,100.0,1.0,1.0,203.26333333333332,0.0,0.0,0.0,0.0,0.0,0.0,0.0,8314.6,0.0,55.0,4.0,237.26333333333332,0.0,0.0,0.0,0.0,0.0,0.0,1.0,0.0,0.8069999999999986,0.8069999999999986,0.0,0.0,0.0,55.0,616.79921,10000.0,85.000001,85.000001,85.000001,85.000001,395.0,0.0,0.0,0.0,1.0,166.665,54.123,54.123,48.447,48.447,34.0,-18.09,27.78666666666667,-23.766666666666666,31.26,0.0,1782.475,-0.8550000000000004,100.0,26.474,26.992,41.422,42.114000000000004,0.0,1.0,100.0,0.0,0.0,0.0,0.0,2730.285714285714,3121.4,4094.875,4047.0,306.574,304.9545,314.73975,314.845,21.9232,20.5894,21.9,21.4136,314.999998,314.999998,324.999988,324.999988,99.55855714285714,99.50731666666667,99.56515714285715,99.54502857142857,0.1592500000000001,0.040000000000000036,-0.01749999999999996,0.20500000000000007,-0.046666666666666856,-0.03714285714285381,1.4883333333333333,1.4380000000000002,38.019999999999996,29.683999999999997,37.875,34.835,55.9,34.985,58.7885,51.635,53.845,34.1395,57.424,50.003,53.013,33.7065,57.3685,49.425666666666665,-0.1359999999999999,-0.0024999999999999467,0.10045000000000001,0.112585,0.0,206.41,206.49,203.26333333333332,203.265,0.0,0.0
17,0.0,1.0,0.0,1.0,1.0,0.0,0.0,1.0,0.0,100.0,1.0,1.1856,26.0,0.0,0.0,0.0,59.999996,0.0,26.0,26.0,26.0,26.0,0.13450000000000006,0.2703,-0.020725,293.854,-2.6961,-2.666666666666667,-1.5842,-1.4822,-220.22,215.97,190.65,0.0,0.0,0.0,0.0,0.03383333333333338,-5.498166666666667,-5.498166666666667,-0.5685,0.5905,0.04712499999999986,-1.137,66.048,0.06810000000000001,-0.2257,-1.0339999999999998,100.0,1.0,1.0,203.81666666666666,0.0,0.0,0.0,0.0,0.0,0.0,0.0,8337.1,0.0,55.0,4.0,237.74666666666667,1.0,0.0,0.0,0.0,0.0,0.0,1.0,0.0,0.8580000000000005,0.8580000000000005,0.0,0.0,1.0,55.0,616.79921,10000.0,85.000001,85.000001,85.000001,85.000001,395.0,0.0,0.0,0.0,1.0,166.665,53.04,53.04,49.667,49.667,34.0,-19.6425,28.048333333333332,-22.906666666666666,30.587500000000002,0.0,1782.424,-0.8949999999999996,100.0,26.863,27.637,40.996,42.067,0.0,1.0,100.0,0.0,0.0,0.0,0.0,3052.285714285714,3084.7,3874.25,3994.5,305.6045,304.7485,315.49075,314.926,21.9324,20.5949,21.9098,21.4222,314.999998,314.999998,324.999988,324.999988,99.55857142857143,99.50731666666667,99.56527142857144,99.54517142857142,0.16575000000000006,0.036666666666666625,-0.031166666666666565,0.19533333333333336,-0.04999999999999716,-0.044285714285713595,1.5406666666666669,1.52,38.077,29.718333333333334,37.936,34.888999999999996,55.89,35.024,58.820499999999996,51.6935,53.835,34.176,57.454,50.059,53.001999999999995,33.7415,57.3955,49.48133333333333,-0.14250000000000007,-0.0034999999999998366,0.10510000000000001,0.10680500000000001,0.0,206.865,206.925,203.81666666666666,203.815,0.0,0.0
18,0.0,1.0,0.0,1.0,1.0,0.0,0.0,1.0,0.0,100.0,1.0,1.1856,26.0,0.0,0.0,0.0,59.999996,0.0,26.0,26.0,26.0,26.0,0.11949999999999994,0.28570000000000007,0.064275,293.472,-2.685,-2.6821111111111113,-1.5348000000000002,-1.5222,-217.24,215.95749999999998,190.630625,0.0,0.0,0.0,0.0,0.035566666666666524,-5.498166666666667,-5.498166666666667,-0.5521,-0.2455,0.05074999999999985,1.2710000000000001,66.17099999999999,0.0692,-0.21530000000000002,-0.9139999999999997,100.0,1.0,1.0,203.9766666666667,0.0,0.0,0.0,0.0,0.0,0.0,0.0,8343.8,0.0,55.0,4.0,238.19,0.0,0.0,0.0,0.0,0.0,0.0,1.0,0.0,0.9029999999999987,0.9029999999999987,0.0,0.0,0.0,55.0,616.79921,10000.0,85.000001,85.000001,85.000001,85.000001,395.0,0.0,0.0,0.0,1.0,166.665,53.589,53.589,48.584,48.584,34.0,-18.4775,27.126666666666665,-23.943333333333335,34.7025,0.0,1782.378,-0.5300000000000011,100.0,26.983,27.279,41.573,42.46,0.0,1.0,100.0,0.0,0.0,0.0,0.0,2808.142857142857,3070.6,4098.5,4305.3,306.177,305.04675,314.75625,314.11525,21.9404,20.5996,21.9187,21.43,314.999998,314.999998,324.999988,324.999988,99.5586,99.50733333333334,99.5654,99.54528571428571,0.15100000000000025,0.022333333333333094,-0.022833333333333372,0.19500000000000006,-0.041666666666671404,-0.054285714285711606,1.455,1.3975,38.128,29.747666666666667,37.992000000000004,34.938,55.879999999999995,35.0565,58.8535,51.7485,53.826,34.2055,57.4845,50.112,52.992000000000004,33.769999999999996,57.4235,49.533,-0.12250000000000005,-0.028500000000000192,0.10898500000000001,0.105135,0.0,207.25,207.3,203.9766666666667,203.97750000000002,0.0,0.0
19,0.0,1.0,0.0,1.0,1.0,0.0,0.0,1.0,0.0,100.0,1.0,1.1856,26.0,0.0,0.0,0.0,59.999996,0.0,26.0,26.0,26.0,26.0,0.10912499999999992,0.2519,-0.026625000000000003,293.671,-2.7142,-2.691222222222222,-1.5339,-1.5236,-213.86,215.9475,190.60875,0.0,0.0,0.0,0.0,0.03753333333333331,-5.498166666666667,-5.498166666666667,-0.5712,0.0615,0.052875000000000005,-1.0030000000000001,66.304,0.0658,-0.232275,-0.5120000000000005,100.0,1.0,1.0,204.56,0.0,0.0,0.0,0.0,0.0,0.0,0.0,8367.6,0.0,55.0,4.0,238.67000000000002,1.0,0.0,0.0,0.0,0.0,0.0,1.0,0.0,0.9540000000000006,0.9540000000000006,0.0,0.0,1.0,55.0,616.79921,10000.0,85.000001,85.000001,85.000001,85.000001,395.0,0.0,0.0,0.0,1.0,333.33500000000004,52.979,52.979,49.484,49.484,34.0,-22.612499999999997,26.285,-22.71,30.395,0.0,1782.325,-0.03999999999999915,100.0,26.93,27.637999999999998,41.371,42.509,0.0,1.0,100.0,0.0,0.0,0.0,0.0,3124.4285714285716,3068.6,3847.25,3930.1000000000004,305.4955,304.84,315.49325,315.00475,21.9496,20.6051,21.9287,21.4388,314.999998,314.999998,324.999988,324.999988,99.55861428571428,99.50733333333334,99.56554285714286,99.54542857142857,0.11275000000000013,-0.007333333333333192,-0.04049999999999998,0.1861666666666668,-0.03166666666666629,-0.03714285714285381,1.5083333333333333,1.48,38.185,29.781666666666666,38.054,34.992,55.867000000000004,35.0955,58.888,51.8105,53.813,34.242,57.516999999999996,50.172,52.977999999999994,33.805,57.453,49.592,-0.08250000000000002,-0.05900000000000016,0.10765000000000001,0.10869500000000001,0.0,207.655,207.70499999999998,204.56,204.56,0.0,0.0
20,0.0,1.0,0.0,1.0,1.0,0.0,0.0,1.0,0.0,100.0,1.0,1.1856,26.0,0.0,0.0,0.0,59.999996,0.0,26.0,26.0,26.0,26.0,0.07099999999999995,0.2653000000000001,0.015550000000000001,293.411,-2.7276,-2.635,-1.544,-1.5641,-210.48000000000002,215.94,190.58675,0.0,0.0,0.0,0.0,0.03949999999999998,-5.498166666666667,-5.498166666666667,-0.5438000000000001,0.093,0.04475000000000007,0.62,66.441,0.047,-0.2049,-0.03799999999999937,100.0,1.0,1.0,204.82666666666665,0.0,0.0,0.0,0.0,0.0,0.0,0.0,8378.4,0.0,55.0,4.0,239.16,0.0,0.0,0.0,0.0,0.0,0.0,0.0,0.0,1.004999999999999,1.004999999999999,0.0,0.0,0.0,55.0,616.79921,10000.0,85.000001,85.000001,85.000001,85.000001,395.0,0.0,0.0,0.0,1.0,333.33500000000004,53.543,53.543,48.309,48.309,34.0,-20.7375,24.573333333333334,-26.450000000000003,32.675,0.0,1782.276,0.125,100.0,27.243,27.433,41.735,42.551,0.0,1.0,100.0,0.0,0.0,0.0,0.0,2812.714285714286,3041.7,4215.25,4178.4,306.2495,305.25775,314.57,314.48,21.9588,20.610500000000002,21.9387,21.447499999999998,314.999998,314.999998,324.999988,324.999988,99.55862857142857,99.50733333333334,99.56567142857143,99.54555714285715,0.10175000000000001,-0.020999999999999908,-0.052166666666666583,0.17233333333333323,-0.03999999999999915,-0.03714285714285381,1.4446666666666668,1.4290000000000003,38.242999999999995,29.815333333333335,38.117000000000004,35.047,55.855000000000004,35.129999999999995,58.922,51.8675,53.802,34.2735,57.5485,50.227000000000004,52.966,33.835499999999996,57.4815,49.646,-0.06400000000000006,-0.08300000000000018,0.10213000000000001,0.11350500000000001,0.0,208.14,208.10000000000002,204.82666666666665,204.825,0.0,0.0
21,0.0,1.0,0.0,1.0,1.0,0.0,0.0,1.0,0.0,100.0,1.0,1.1856,26.0,0.0,0.0,0.0,59.999996,0.0,26.0,26.0,26.0,26.0,0.015625,0.2641,-0.06475,293.73199999999997,-2.7476,-2.642666666666667,-1.5579,-1.5614,-207.29,215.9325,190.56625,0.0,0.0,0.0,0.0,0.04136666666666655,-5.498166666666667,-5.498166666666667,-0.5818,-0.893,0.023374999999999924,-0.28300000000000003,66.566,0.024900000000000002,-0.24080000000000001,0.2579999999999991,100.0,1.0,1.0,205.36666666666667,0.0,0.0,0.0,0.0,0.0,0.0,0.0,8400.5,0.0,55.0,4.0,239.61333333333334,1.0,0.0,0.0,0.0,0.0,0.0,0.0,0.0,1.0530000000000008,1.0530000000000008,0.0,0.0,1.0,55.0,616.79921,10000.0,85.000001,85.000001,85.000001,85.000001,395.0,0.0,0.0,0.0,1.0,333.33500000000004,53.253,53.253,49.179,49.179,34.0,-23.497500000000002,25.09,-25.14333333333333,27.2325,0.0,1782.227,0.20500000000000185,100.0,27.007,27.191,42.033,42.527,0.0,1.0,100.0,0.0,0.0,0.0,0.0,3035.5714285714284,3172.9,3823.625,3827.2,305.678,304.82475,315.537,315.339,21.9673,20.6155,21.9482,21.4558,314.999998,314.999998,324.999988,324.999988,99.55862857142857,99.50735,99.5658,99.54568571428571,0.08349999999999991,-0.04066666666666663,-0.08850000000000002,0.1343333333333332,-0.041666666666671404,-0.057142857142849834,1.5173333333333332,1.521,38.296,29.846666666666664,38.176,35.0985,55.84,35.164,58.9555,51.922,53.787,34.3055,57.579499999999996,50.2795,52.951,33.8655,57.51,49.69766666666666,-0.05600000000000005,-0.08950000000000014,0.102665,0.105395,0.0,208.47,208.445,205.36666666666667,205.365,0.0,0.0
22,0.0,1.0,0.0,1.0,1.0,0.0,0.0,1.0,0.0,100.0,1.0,1.1856,26.0,0.0,0.0,0.0,59.999996,0.0,26.0,26.0,26.0,26.0,-0.005499999999999949,0.2812000000000001,0.01675,293.457,-2.7241,-2.675777777777778,-1.5556,-1.5238,-203.89,215.9275,190.54325,0.0,0.0,0.0,0.0,0.043333333333333335,-5.498166666666667,-5.498166666666667,-0.5696,0.598,-0.009250000000000203,-0.87,66.7,0.0024000000000000002,-0.20500000000000002,0.4540000000000006,100.0,1.0,1.0,205.67333333333335,0.0,0.0,0.0,0.0,0.0,0.0,0.0,8413.1,0.0,55.0,4.0,240.09333333333336,0.0,0.0,0.0,0.0,0.0,0.0,0.0,0.0,1.1039999999999992,1.1039999999999992,0.0,0.0,0.0,55.0,616.79921,10000.0,85.000001,85.000001,85.000001,85.000001,395.0,0.0,0.0,0.0,1.0,166.665,53.329,53.329,48.798,48.798,34.0,-25.057499999999997,22.278333333333336,-30.4,27.7375,0.0,1782.178,0.1750000000000007,100.0,27.274,27.297,41.723,42.059,0.0,1.0,100.0,0.0,0.0,0.0,0.0,3139.142857142857,2909.6,4293.125,4099.5,305.456,305.42625,314.5375,314.721,21.9767,20.6208,21.9581,21.4643,314.999998,314.999998,324.999988,324.999988,99.55864285714286,99.50735,99.56592857142857,99.54582857142857,0.06174999999999997,-0.06466666666666665,-0.11483333333333334,0.1060000000000001,-0.06499999999999773,-0.05571428571428072,1.4616666666666667,1.4845000000000002,38.354,29.88,38.238,35.152,55.827,35.201,58.9895,51.9775,53.775,34.3395,57.611,50.332499999999996,52.938,33.8985,57.5385,49.75,-0.0625,-0.08599999999999985,0.10515000000000001,0.10666,0.0,208.95499999999998,208.91,205.67333333333335,205.6725,0.0,0.0
23,0.0,1.0,0.0,1.0,1.0,0.0,0.0,1.0,0.0,100.0,1.0,1.1856,26.0,0.0,0.0,0.0,59.999996,0.0,26.0,26.0,26.0,26.0,-0.02862500000000001,0.2573000000000001,0.0,293.243,-2.7772,-2.6482222222222225,-1.5863,-1.5244,-200.48000000000002,215.92000000000002,190.52025,0.0,0.0,0.0,0.0,0.04530000000000001,-5.498166666666667,-5.498166666666667,-0.5687,-0.449,-0.0017499999999999183,0.463,66.834,-0.0129,-0.21452500000000002,0.3760000000000012,100.0,1.0,1.0,206.04000000000002,0.0,0.0,0.0,0.0,0.0,0.0,0.0,8428.1,0.0,55.0,4.0,240.57666666666665,1.0,0.0,0.0,0.0,0.0,0.0,0.0,0.0,1.1550000000000011,1.1550000000000011,0.0,0.0,1.0,55.0,616.79921,10000.0,85.000001,85.000001,85.000001,85.000001,395.0,0.0,0.0,0.0,1.0,333.33500000000004,53.162,53.162,48.37,48.37,34.0,-24.68,23.606666666666666,-30.423333333333336,27.9525,0.0,1782.124,0.14000000000000057,100.0,27.409,27.098,42.379,42.255,0.0,1.0,100.0,0.0,0.0,0.0,0.0,3050.285714285714,3140.9,4129.5,4140.5,305.615,304.97525,314.7905,314.608,21.9859,20.6261,21.9683,21.4731,314.999998,314.999998,324.999988,324.999988,99.55864285714286,99.50735,99.56605714285715,99.54595714285715,0.06550000000000011,-0.06866666666666665,-0.12816666666666665,0.10183333333333322,-0.023333333333326323,-0.05571428571428072,1.437,1.4675000000000002,38.412,29.913,38.302,35.207,55.812,35.239,59.027,52.037,53.760999999999996,34.3745,57.646,50.39,52.923,33.9315,57.570499999999996,49.806,-0.06899999999999995,-0.08800000000000008,0.108295,0.112795,0.0,209.325,209.3,206.04000000000002,206.04000000000002,0.0,0.0
24,0.0,1.0,0.0,1.0,1.0,0.0,0.0,1.0,0.0,100.0,1.0,1.1856,26.0,0.0,0.0,0.0,59.999996,0.0,26.0,26.0,26.0,26.0,-0.03325,0.2742,-0.025775000000000003,293.35,-2.6414999999999997,-2.7176666666666667,-1.6209,-1.5067,-197.07,215.9125,190.4975,0.0,0.0,0.0,0.0,0.04730000000000001,-5.498166666666667,-5.498166666666667,-0.5799000000000001,0.216,-0.01362500000000022,-0.526,66.965,-0.0213,-0.22465000000000002,0.4399999999999995,100.0,1.0,1.0,206.51666666666665,0.0,0.0,0.0,0.0,0.0,0.0,0.0,8447.6,0.0,55.0,4.0,241.04666666666668,0.0,0.0,0.0,0.0,0.0,0.0,0.0,0.0,1.2059999999999995,1.2059999999999995,0.0,0.0,0.0,55.0,616.79921,10000.0,85.000001,85.000001,85.000001,85.000001,395.0,0.0,0.0,0.0,1.0,166.665,53.116,53.116,48.935,48.935,34.0,-24.8475,21.578333333333333,-31.313333333333333,25.747500000000002,0.0,1782.075,0.10000000000000142,100.0,27.713,27.318,42.259,42.243,0.0,1.0,100.0,0.0,0.0,0.0,0.0,3119.714285714286,2883.1,4128.625,4055.4,305.441,305.48725,314.918,314.85675,21.9953,20.6314,21.9784,21.4818,314.999998,314.999998,324.999988,324.999988,99.55865714285714,99.50736666666667,99.5662,99.54608571428571,0.047250000000000014,-0.08633333333333315,-0.14449999999999996,0.08066666666666666,-0.051666666666669414,-0.034285714285715585,1.488,1.5060000000000002,38.47,29.946333333333335,38.364999999999995,35.2615,55.799,35.277,59.062,52.0935,53.748000000000005,34.4095,57.6785,50.4445,52.909,33.9655,57.6005,49.85933333333333,-0.0714999999999999,-0.08400000000000007,0.09864,0.10827500000000001,0.0,209.765,209.695,206.51666666666665,206.515,0.0,0.0
25,0.0,1.0,0.0,1.0,1.0,0.0,0.0,1.0,0.0,100.0,1.0,1.1856,26.0,0.0,0.0,0.0,59.999996,0.0,26.0,26.0,26.0,26.0,-0.027249999999999996,0.2594000000000001,-0.117125,293.747,-2.7444,-2.6927777777777777,-1.5135,-1.5561,-193.85,215.905,190.475125,0.0,0.0,0.0,0.0,0.04916666666666658,-5.498166666666667,-5.498166666666667,-0.5978,-0.9005,0.0006249999999998757,-0.337,67.089,-0.025400000000000002,-0.22375,0.3460000000000001,100.0,1.0,1.0,206.86333333333334,0.0,0.0,0.0,0.0,0.0,0.0,0.0,8461.7,0.0,55.0,4.0,241.49666666666667,1.0,0.0,0.0,0.0,0.0,0.0,0.0,0.0,1.2540000000000013,1.2540000000000013,0.0,0.0,1.0,55.0,616.79921,10000.0,85.000001,85.000001,85.000001,85.000001,395.0,0.0,0.0,0.0,1.0,333.33500000000004,53.879,53.879,48.766999999999996,48.766999999999996,34.0,-23.810000000000002,21.60333333333333,-29.033333333333335,25.8375,0.0,1782.026,0.054999999999999716,100.0,27.282,26.945,42.445,42.213,0.0,1.0,100.0,0.0,0.0,0.0,0.0,2905.0,2888.9,4003.0,3976.4,306.1665,305.55675,315.127,314.94375,22.0038,20.6362,21.9879,21.49,314.999998,314.999998,324.999988,324.999988,99.55865714285714,99.50736666666667,99.56632857142857,99.54622857142857,0.04200000000000026,-0.07933333333333326,-0.14700000000000002,0.07716666666666683,-0.046666666666666856,-0.02571428571428669,1.4853333333333334,1.4875000000000003,38.524,29.976666666666667,38.424,35.313,55.783,35.3105,59.0965,52.147,53.732,34.4405,57.710499999999996,50.4955,52.893,33.995,57.6295,49.909666666666666,-0.07250000000000001,-0.07399999999999984,0.106605,0.10519,0.0,210.10500000000002,210.06,206.86333333333334,206.8625,0.0,0.0
26,0.0,1.0,0.0,1.0,1.0,0.0,0.0,1.0,0.0,100.0,1.0,1.1856,26.0,0.0,0.0,0.0,59.999996,0.0,26.0,26.0,26.0,26.0,-0.039874999999999994,0.2634000000000001,0.022825,293.045,-2.685,-2.749111111111111,-1.5766,-1.5524,-190.43,215.89499999999998,190.45,0.0,0.0,0.0,0.0,0.05116666666666658,-5.498166666666667,-5.498166666666667,-0.6109,0.84,-0.01725000000000021,-0.161,67.219,-0.026600000000000002,-0.21785000000000002,0.2919999999999998,100.0,1.0,1.0,207.34333333333333,0.0,0.0,0.0,0.0,0.0,0.0,0.0,8481.4,0.0,55.0,4.0,241.96,0.0,0.0,0.0,0.0,0.0,0.0,0.0,0.0,1.3049999999999997,1.3049999999999997,0.0,0.0,0.0,55.0,616.79921,10000.0,85.000001,85.000001,85.000001,85.000001,395.0,0.0,0.0,0.0,1.0,333.33500000000004,52.17,52.17,48.965,48.965,34.0,-26.307499999999997,25.308333333333334,-29.696666666666665,26.817500000000003,0.0,1781.976,0.0,100.0,27.88,27.482,42.133,41.798,0.0,1.0,100.0,0.0,0.0,0.0,0.0,3274.857142857143,3220.1,4044.625,3994.6000000000004,304.8455,304.526,315.10175,315.02575,22.0131,20.6417,21.997799999999998,21.4986,314.999998,314.999998,324.999988,324.999988,99.55867142857143,99.50738333333334,99.56647142857143,99.54635714285715,0.060249999999999915,-0.07299999999999995,-0.1406666666666666,0.10000000000000009,-0.045000000000001705,-0.04285714285714448,1.514,1.5115000000000003,38.582,30.010666666666665,38.486000000000004,35.3665,55.769,35.3505,59.129,52.201499999999996,53.719,34.4775,57.741,50.548,52.879000000000005,34.03,57.657,49.961,-0.07800000000000007,-0.07699999999999996,0.10953500000000001,0.11588500000000002,0.0,210.54000000000002,210.49,207.34333333333333,207.3425,0.0,0.0
27,0.0,1.0,0.0,1.0,1.0,0.0,0.0,1.0,0.0,100.0,1.0,1.1856,26.0,0.0,0.0,0.0,59.999996,0.0,26.0,26.0,26.0,26.0,-0.034499999999999975,0.2732000000000001,0.07680000000000001,292.404,-2.7108,-2.706,-1.5477,-1.6145,-187.2,215.885,190.42675,0.0,0.0,0.0,0.0,0.05303333333333338,-5.498166666666667,-5.498166666666667,-0.5734,-0.0475,-0.022250000000000103,0.901,67.345,-0.0264,-0.20405,0.18599999999999994,100.0,1.0,1.0,207.44333333333333,0.0,0.0,0.0,0.0,0.0,0.0,0.0,8485.6,0.0,55.0,4.0,242.41666666666666,1.0,0.0,0.0,0.0,0.0,0.0,0.0,0.0,1.352999999999998,1.352999999999998,0.0,0.0,1.0,55.0,616.79921,10000.0,85.000001,85.000001,85.000001,85.000001,395.0,0.0,0.0,0.0,1.0,333.33500000000004,52.887,52.887,47.211,47.211,34.0,-23.1525,23.025,-32.946666666666665,31.055,0.0,1781.926,-0.14000000000000057,100.0,28.227,27.627,43.086,42.588,0.0,1.0,100.0,0.0,0.0,0.0,0.0,2945.4285714285716,3005.3,4413.875,4436.0,305.7845,305.40225,314.062,313.8335,22.0218,20.6468,22.0075,21.5071,314.999998,314.999998,324.999988,324.999988,99.55867142857143,99.5074,99.5666,99.54648571428571,0.06974999999999998,-0.06633333333333313,-0.13149999999999995,0.08099999999999996,-0.026666666666670835,-0.05571428571428072,1.381,1.3820000000000001,38.635999999999996,30.042666666666666,38.547,35.419,55.757,35.387,59.167,52.2585,53.708,34.510999999999996,57.7765,50.603,52.866,34.062,57.689499999999995,50.01466666666666,-0.08999999999999986,-0.0674999999999999,0.09885000000000001,0.106315,0.0,210.925,210.89499999999998,207.44333333333333,207.445,0.0,0.0
28,0.0,1.0,0.0,1.0,1.0,0.0,0.0,1.0,0.0,100.0,1.0,1.1856,26.0,0.0,0.0,0.0,59.999996,0.0,26.0,26.0,26.0,26.0,-0.01937500000000003,0.24140000000000006,-0.085675,293.182,-2.7054,-2.6878888888888888,-1.59,-1.5648,-183.76,215.875,190.403,0.0,0.0,0.0,0.0,0.05503333333333338,-5.498166666666667,-5.498166666666667,-0.6151,-0.628,-0.024875000000000203,-0.686,67.471,-0.021,-0.2479,0.1039999999999992,100.0,1.0,1.0,208.13,0.0,0.0,0.0,0.0,0.0,0.0,0.0,8513.7,0.0,55.0,4.0,242.87,0.0,0.0,0.0,0.0,0.0,0.0,0.0,0.0,1.404,1.404,0.0,0.0,0.0,55.0,616.79921,10000.0,85.000001,85.000001,85.000001,85.000001,395.0,0.0,0.0,0.0,1.0,333.33500000000004,52.689,52.689,48.888999999999996,48.888999999999996,34.0,-26.1375,23.248333333333335,-27.616666666666667,25.3425,0.0,1781.876,-0.1750000000000007,100.0,27.727,27.612000000000002,42.991,42.686,0.0,1.0,100.0,0.0,0.0,0.0,0.0,3239.0,3016.1,3777.625,3855.5,305.2425,305.13625,315.66775,315.32975,22.0309,20.6522,22.0176,21.5159,314.999998,314.999998,324.999988,324.999988,99.55867142857143,99.5074,99.56672857142857,99.54662857142857,0.052999999999999936,-0.06600000000000006,-0.1423333333333333,0.09033333333333338,-0.05666666666667197,-0.03285714285714647,1.5330000000000001,1.5405000000000002,38.693,30.076,38.61,35.474000000000004,55.742000000000004,35.4245,59.202,52.315,53.694,34.545500000000004,57.809,50.657,52.851,34.0955,57.7195,50.06766666666667,-0.08999999999999986,-0.058499999999999996,0.10758000000000001,0.10463000000000001,0.0,211.28,211.26,208.13,208.13,0.0,0.0
29,0.0,1.0,0.0,1.0,1.0,0.0,0.0,1.0,0.0,100.0,1.0,1.1856,26.0,0.0,0.0,0.0,59.999996,0.0,26.0,26.0,26.0,26.0,-0.023749999999999938,0.2694000000000001,-0.0132,293.03,-2.6663,-2.698777777777778,-1.5672000000000001,-1.5455,-180.32,215.8625,190.37775,0.0,0.0,0.0,0.0,0.05703333333333338,-5.498166666666667,-5.498166666666667,-0.5979,0.53,-0.019874999999999865,0.986,67.601,-0.0161,-0.202575,-0.019999999999999574,100.0,1.0,1.0,208.40333333333334,0.0,0.0,0.0,0.0,0.0,0.0,0.0,8524.8,0.0,55.0,4.0,243.33666666666664,1.0,0.0,0.0,0.0,0.0,0.0,0.0,0.0,1.4549999999999983,1.4549999999999983,0.0,0.0,1.0,55.0,616.79921,10000.0,85.000001,85.000001,85.000001,85.000001,395.0,0.0,0.0,0.0,1.0,333.33500000000004,53.192,53.192,48.126,48.126,34.0,-22.2225,23.483333333333334,-29.956666666666663,29.03,0.0,1781.826,-0.28000000000000114,100.0,27.908,27.348,42.643,42.352000000000004,0.0,1.0,100.0,0.0,0.0,0.0,0.0,2903.857142857143,3017.1,4204.75,4211.6,305.922,305.296,314.71325,314.531,22.04,20.6575,22.0276,21.5245,314.999998,314.999998,324.999988,324.999988,99.5587,99.50741666666667,99.56687142857143,99.54675714285715,0.07399999999999984,-0.05800000000000005,-0.11783333333333335,0.10666666666666669,-0.026666666666670835,-0.05142857142856627,1.486,1.4625,38.75,30.109666666666666,38.673,35.5285,55.729,35.462,59.2355,52.3705,53.681,34.58,57.8405,50.711,52.838,34.128,57.7475,50.12,-0.09099999999999997,-0.05900000000000016,0.104675,0.10625000000000001,0.0,211.715,211.70499999999998,208.40333333333334,208.4025,0.0,0.0
30,0.0,1.0,0.0,1.0,1.0,0.0,0.0,1.0,0.0,100.0,1.0,1.1856,26.0,0.0,0.0,0.0,59.999996,0.0,26.0,26.0,26.0,26.0,0.012499999999999956,0.2549000000000001,-0.0441,293.015,-2.7497,-2.7407777777777778,-1.5426,-1.546,-176.87,215.85250000000002,190.352125,0.0,0.0,0.0,0.0,0.05903333333333338,-5.498166666666667,-5.498166666666667,-0.6203000000000001,-0.73,-0.017125000000000057,-0.762,67.73,-0.0066,-0.2268,-0.09999999999999964,100.0,1.0,1.0,208.79666666666668,0.0,0.0,0.0,0.0,0.0,0.0,0.0,8540.8,0.0,55.0,4.0,243.80333333333334,0.0,0.0,0.0,0.0,0.0,0.0,1.0,0.0,1.5060000000000002,1.5060000000000002,0.0,0.0,0.0,55.0,616.79921,10000.0,85.000001,85.000001,85.000001,85.000001,395.0,0.0,0.0,0.0,1.0,166.665,52.902,52.902,48.615,48.615,34.0,-25.92,23.15,-27.58,27.745,0.0,1781.775,-0.245000000000001,100.0,27.539,27.512,42.811,42.769,0.0,1.0,100.0,0.0,0.0,0.0,0.0,3255.285714285714,2937.5,3959.25,4049.4,305.3025,305.306,315.243,314.78425,22.049,20.6629,22.0378,21.5334,314.999998,314.999998,324.999988,324.999988,99.5587,99.50741666666667,99.56701428571428,99.5469,0.0677500000000002,-0.06466666666666665,-0.11549999999999994,0.10433333333333339,-0.06833333333332803,-0.034285714285715585,1.4666666666666668,1.4695,38.806,30.143,38.736000000000004,35.584,55.714,35.498,59.272,52.429,53.667,34.6135,57.874,50.766999999999996,52.823,34.1605,57.7785,50.175,-0.09349999999999992,-0.05900000000000016,0.10397500000000001,0.10042000000000001,0.0,212.09,212.06,208.79666666666668,208.79500000000002,0.0,0.0
31,0.0,1.0,0.0,1.0,1.0,0.0,0.0,1.0,0.0,100.0,1.0,1.1856,26.0,0.0,0.0,0.0,59.999996,0.0,26.0,26.0,26.0,26.0,-0.004249999999999976,0.2512000000000001,-0.014750000000000001,292.297,-2.6694,-2.731222222222222,-1.6099,-1.4698,-173.41,215.84,190.32625,0.0,0.0,0.0,0.0,0.0610666666666666,-5.498166666666667,-5.498166666666667,-0.5987,0.931,-0.01462500000000011,1.309,67.857,0.0008,-0.206325,-0.14999999999999947,100.0,1.0,1.0,209.16,0.0,0.0,0.0,0.0,0.0,0.0,0.0,8555.8,0.0,55.0,4.0,244.25666666666666,1.0,0.0,0.0,0.0,0.0,0.0,1.0,0.0,1.5569999999999986,1.5569999999999986,0.0,0.0,1.0,55.0,616.79921,10000.0,85.000001,85.000001,85.000001,85.000001,395.0,0.0,0.0,0.0,1.0,166.665,52.002,52.002,47.653,47.653,34.0,-23.134999999999998,25.928333333333335,-31.27,28.88,0.0,1781.724,-0.29499999999999815,100.0,28.612000000000002,28.076,42.842,42.662,0.0,1.0,100.0,0.0,0.0,0.0,0.0,3077.0,3177.6,4313.375,4253.0,305.3875,304.86625,314.49925,314.5605,22.0583,20.6685,22.0478,21.5422,314.999998,314.999998,324.999988,324.999988,99.55871428571429,99.50743333333334,99.56715714285714,99.54702857142857,0.09025000000000016,-0.04033333333333311,-0.1113333333333334,0.12033333333333318,-0.03499999999999659,-0.060000000000002274,1.4526666666666668,1.4595000000000002,38.864000000000004,30.178333333333335,38.799,35.6385,55.704,35.538,59.306,52.4855,53.658,34.65,57.906,50.8215,52.812,34.195499999999996,57.8075,50.228,-0.09899999999999998,-0.05750000000000011,0.10662,0.10869500000000001,0.0,212.505,212.51999999999998,209.16,209.16,0.0,0.0
32,0.0,1.0,0.0,1.0,1.0,0.0,0.0,1.0,0.0,100.0,1.0,1.1856,26.0,0.0,0.0,0.0,59.999996,0.0,26.0,26.0,26.0,26.0,0.018000000000000016,0.24930000000000008,0.035425000000000005,292.038,-2.7094,-2.607333333333333,-1.5622,-1.5983,-169.94,215.8275,190.301375,0.0,0.0,0.0,0.0,0.0630666666666666,-5.498166666666667,-5.498166666666667,-0.6027,-0.5845,-0.012875000000000192,-0.9420000000000001,67.985,0.007,-0.232275,-0.12799999999999923,100.0,1.0,1.0,209.51333333333332,0.0,0.0,0.0,0.0,0.0,0.0,0.0,8570.1,0.0,55.0,4.0,244.72,0.0,0.0,0.0,0.0,0.0,0.0,1.0,0.0,1.6080000000000005,1.6080000000000005,0.0,0.0,0.0,55.0,616.79921,10000.0,85.000001,85.000001,85.000001,85.000001,395.0,0.0,0.0,0.0,1.0,166.665,51.849000000000004,51.849000000000004,47.18,47.18,34.0,-24.35,25.448333333333334,-29.07,30.435,0.0,1781.673,-0.3000000000000007,100.0,28.042,28.326,43.373000000000005,43.439,0.0,1.0,100.0,0.0,0.0,0.0,0.0,3182.857142857143,3251.1,4139.0,4160.4,305.259,304.41725,314.8605,314.5395,22.0673,20.6741,22.0581,21.5512,314.999998,314.999998,324.999988,324.999988,99.55872857142857,99.50743333333334,99.56728571428572,99.54718571428572,0.08725000000000005,-0.04699999999999993,-0.10916666666666663,0.12216666666666676,-0.05333333333332746,-0.03714285714285381,1.45,1.439,38.92,30.213,38.863,35.695,55.691,35.576,59.3435,52.545500000000004,53.644999999999996,34.6855,57.9415,50.8795,52.799,34.229,57.8395,50.285,-0.10149999999999992,-0.05750000000000011,0.09985500000000001,0.11235,0.0,212.875,212.86,209.51333333333332,209.5125,0.0,0.0
33,0.0,1.0,0.0,1.0,1.0,0.0,0.0,1.0,0.0,100.0,1.0,1.1856,26.0,0.0,0.0,0.0,59.999996,0.0,26.0,26.0,26.0,26.0,0.0016249999999999876,0.26550000000000007,-0.04245,292.419,-2.6755,-2.7256666666666667,-1.626,-1.5103,-166.88,215.8175,190.27925,0.0,0.0,0.0,0.0,0.0648333333333333,-5.498166666666667,-5.498166666666667,-0.6117,0.1535,-0.03575000000000017,0.342,68.096,0.0079,-0.227275,-0.20399999999999974,100.0,1.0,1.0,209.90666666666667,0.0,0.0,0.0,0.0,0.0,0.0,0.0,8586.3,0.0,55.0,4.0,245.11666666666667,1.0,0.0,0.0,0.0,0.0,0.0,1.0,0.0,1.6529999999999987,1.6529999999999987,0.0,0.0,1.0,55.0,616.79921,10000.0,85.000001,85.000001,85.000001,85.000001,395.0,0.0,0.0,0.0,1.0,333.33500000000004,52.414,52.414,47.76,47.76,34.0,-22.3975,25.098333333333333,-29.32,29.47,0.0,1781.626,-0.33999999999999986,100.0,28.215,28.08,43.120000000000005,43.117000000000004,0.0,1.0,100.0,0.0,0.0,0.0,0.0,3059.0,3061.4,4167.375,4217.9,305.4805,305.1135,314.82125,314.56125,22.0753,20.6789,22.067,21.559,314.999998,314.999998,324.999988,324.999988,99.55872857142857,99.50743333333334,99.5674,99.5473,0.10400000000000009,-0.03600000000000003,-0.09450000000000003,0.12433333333333318,-0.03833333333332689,-0.04142857142856826,1.4683333333333333,1.4685000000000001,38.97,30.243333333333332,38.918,35.7435,55.681,35.609,59.373,52.595,53.635,34.7155,57.9685,50.927,52.788,34.257999999999996,57.864,50.33166666666666,-0.10450000000000004,-0.05449999999999999,0.10643000000000001,0.10511500000000001,0.0,213.21,213.215,209.90666666666667,209.9075,0.0,0.0
34,0.0,1.0,0.0,1.0,1.0,0.0,0.0,1.0,0.0,100.0,1.0,1.1856,26.0,0.0,0.0,0.0,59.999996,0.0,26.0,26.0,26.0,26.0,0.020750000000000046,0.2411000000000001,-0.024625,292.648,-2.731,-2.702,-1.5663,-1.5857,-163.41,215.805,190.25325,0.0,0.0,0.0,0.0,0.06686666666666652,-5.498166666666667,-5.498166666666667,-0.6207,-0.517,-0.024875000000000203,0.08,68.22200000000001,0.0108,-0.2172,-0.14999999999999947,100.0,1.0,1.0,210.28,0.0,0.0,0.0,0.0,0.0,0.0,0.0,8601.6,0.0,55.0,4.0,245.57333333333332,0.0,0.0,0.0,0.0,0.0,0.0,1.0,0.0,1.7040000000000006,1.7040000000000006,0.0,0.0,0.0,55.0,616.79921,10000.0,85.000001,85.000001,85.000001,85.000001,395.0,0.0,0.0,0.0,1.0,333.33500000000004,52.795,52.795,48.019,48.019,34.0,-23.4075,23.601666666666667,-28.603333333333335,30.095,0.0,1781.576,-0.33500000000000085,100.0,27.815,27.942,43.006,43.237,0.0,1.0,100.0,0.0,0.0,0.0,0.0,3094.142857142857,2946.2,4060.0,4116.2,305.6105,305.38175,315.00025,314.6185,22.0843,20.6842,22.076999999999998,21.5678,314.999998,314.999998,324.999988,324.999988,99.55874285714286,99.50745,99.56755714285714,99.54742857142857,0.09324999999999983,-0.04400000000000004,-0.11099999999999999,0.12616666666666676,-0.046666666666666856,-0.028571428571432023,1.456,1.4485000000000001,39.027,30.276666666666664,38.980999999999995,35.799,55.668,35.6435,59.407,52.6525,53.622,34.7475,58.0,50.982,52.774,34.2885,57.8925,50.385333333333335,-0.10549999999999993,-0.0495000000000001,0.11117,0.11110500000000001,0.0,213.60000000000002,213.595,210.28,210.28,0.0,0.0
35,0.0,1.0,0.0,1.0,1.0,0.0,0.0,1.0,0.0,100.0,1.0,1.1856,26.0,0.0,0.0,0.0,59.999996,0.0,26.0,26.0,26.0,26.0,0.021374999999999922,0.24480000000000013,-0.071075,293.015,-2.7536,-2.627666666666667,-1.6311,-1.516,-159.72,215.79500000000002,190.22425,0.0,0.0,0.0,0.0,0.06899999999999995,-5.498166666666667,-5.498166666666667,-0.6552,-0.812,0.003374999999999906,-0.187,68.355,0.0167,-0.22775,-0.2079999999999993,100.0,1.0,1.0,210.72,0.0,0.0,0.0,0.0,0.0,0.0,0.0,8619.5,0.0,55.0,4.0,246.05,1.0,0.0,0.0,0.0,0.0,0.0,1.0,0.0,1.7579999999999991,1.7579999999999991,0.0,0.0,1.0,55.0,616.79921,10000.0,85.000001,85.000001,85.000001,85.000001,395.0,0.0,0.0,0.0,1.0,166.665,53.177,53.177,48.477000000000004,48.477000000000004,34.0,-22.2875,23.28333333333333,-28.216666666666665,28.3275,0.0,1781.523,-0.3049999999999997,100.0,27.618,27.721,42.706,43.217,0.0,1.0,100.0,0.0,0.0,0.0,0.0,2958.0,2939.7,3994.0,4064.4,305.927,305.391,315.23475,314.82275,22.0937,20.6899,22.0876,21.5772,314.999998,314.999998,324.999988,324.999988,99.55875714285715,99.50745,99.5677,99.54758571428572,0.0987499999999999,-0.03533333333333322,-0.10216666666666663,0.12383333333333324,-0.03333333333333144,-0.04999999999999716,1.4923333333333333,1.4820000000000002,39.086,30.311999999999998,39.047,35.8575,55.653999999999996,35.68,59.4405,52.713,53.608999999999995,34.7815,58.0315,51.041,52.76,34.321,57.920500000000004,50.44266666666667,-0.10149999999999992,-0.04850000000000021,0.10722500000000001,0.10249000000000001,0.0,213.995,214.005,210.72,210.72,0.0,0.0
36,0.0,1.0,0.0,1.0,1.0,0.0,0.0,1.0,0.0,100.0,1.0,1.1856,26.0,0.0,0.0,0.0,59.999996,0.0,26.0,26.0,26.0,26.0,0.0012499999999999734,0.26370000000000005,-0.061250000000000006,292.877,-2.7264,-2.638111111111111,-1.6042,-1.504,-156.64,215.785,190.198375,0.0,0.0,0.0,0.0,0.07079999999999997,-5.498166666666667,-5.498166666666667,-0.6899000000000001,-0.34700000000000003,-0.010874999999999968,0.01,68.465,0.0236,-0.23342500000000002,-0.3360000000000003,100.0,1.0,1.0,211.10000000000002,0.0,0.0,0.0,0.0,0.0,0.0,0.0,8635.1,0.0,55.0,4.0,246.45,0.0,0.0,0.0,0.0,0.0,0.0,1.0,0.0,1.8030000000000008,1.8030000000000008,0.0,0.0,0.0,55.0,616.79921,10000.0,85.000001,85.000001,85.000001,85.000001,395.0,0.0,0.0,0.0,1.0,333.33500000000004,52.505,52.505,48.126,48.126,34.0,-22.8825,26.906666666666666,-26.726666666666667,27.3,0.0,1781.478,-0.19000000000000128,100.0,27.606,27.85,42.639,42.727000000000004,0.0,1.0,100.0,0.0,0.0,0.0,0.0,3047.5714285714284,3317.8,3936.625,3904.0,305.5985,304.376,315.247,315.23,22.1015,20.6948,22.0963,21.5849,314.999998,314.999998,324.999988,324.999988,99.55877142857143,99.50745,99.56781428571429,99.5477,0.09949999999999992,-0.03066666666666662,-0.08650000000000002,0.13600000000000012,-0.051666666666669414,-0.048571428571428044,1.5073333333333332,1.5055,39.134,30.342666666666666,39.102000000000004,35.9055,55.64,35.7125,59.4695,52.7605,53.596000000000004,34.8115,58.058,51.0865,52.745999999999995,34.35,57.9445,50.48733333333333,-0.09250000000000003,-0.06400000000000006,0.10909,0.10267000000000001,0.0,214.34,214.345,211.10000000000002,211.10000000000002,0.0,0.0
