,ABS Active,ABS Enabled,AID Allow Tire Blankets,AID Auto Blip,AID Auto Clutch,AID Auto Shift,AID Fuel Rate,AID Ideal Line,AID Mech Damage,AID Stability,AID Tire Wear Rate,Air Density,Air Temp,Ballast,Best Lap Delta,Best Lap Time,Brake Bias,Brake Pos,Brake Temp FL,Brake Temp FR,Brake Temp RL,Brake Temp RR,CG Accel Lateral,CG Accel Longitudinal,CG Accel Vertical,CG Height,Camber FL,Camber FR,Camber RL,Camber RR,Car Coord X,Car Coord Y,Car Coord Z,Car Damage Front,Car Damage Left,Car Damage Rear,Car Damage Right,Car Pos Norm,Caster FL,Caster FR,Chassis Pitch Angle,Chassis Pitch Rate,Chassis Roll Angle,Chassis Roll Rate,Chassis Velocity X,Chassis Velocity Y,Chassis Velocity Z,Chassis Yaw Rate,Clutch Pos,DRS Active,DRS Available,Drive Train Speed,ERS Heat Charging,ERS Is Charging,ERS Max Energy,ERS Power Level,ERS Recovery Level,Engine Brake Setting,Engine Limiter,Engine RPM,Flags,Fuel Level,Gear,Ground Speed,HR Sample Clock,In Pit,KERS Charge,KERS Deployed Energy,KERS Input,KERS Max Energy,LR Sample Clock,Lap Invalidated,Lap Time,Lap Time2,Last Lap Time,Last Sector Time,MR Sample Clock,Max Fuel,Max Power,Max RPM,Max Sus Travel FL,Max Sus Travel FR,Max Sus Travel RL,Max Sus Travel RR,Max Torque,Max Turbo Boost,Num Tires Off Track,Penalties Enabled,Position,Raw Data Sample Rate,Ride Height FL,Ride Height FR,Ride Height RL,Ride Height RR,Road Temp,Self Align Torque FL,Self Align Torque FR,Self Align Torque RL,Self Align Torque RR,Session Lap Count,Session Time Left,Steering Angle,Surface Grip,Suspension Travel FL,Suspension Travel FR,Suspension Travel RL,Suspension Travel RR,TC Active,TC Enabled,Throttle Pos,Tire Dirt Level FL,Tire Dirt Level FR,Tire Dirt Level RL,Tire Dirt Level RR,Tire Load FL,Tire Load FR,Tire Load RL,Tire Load RR,Tire Loaded Radius FL,Tire Loaded Radius FR,Tire Loaded Radius RL,Tire Loaded Radius RR,Tire Pressure FL,Tire Pressure FR,Tire Pressure RL,Tire Pressure RR,Tire Radius FL,Tire Radius FR,Tire Radius RL,Tire Radius RR,Tire Rubber Grip FL,Tire Rubber Grip FR,Tire Rubber Grip RL,Tire Rubber Grip RR,Tire Slip Angle FL,Tire Slip Angle FR,Tire Slip Angle RL,Tire Slip Angle RR,Tire Slip Ratio FL,Tire Slip Ratio FR,Tire Slip Ratio RL,Tire Slip Ratio RR,Tire Temp Core FL,Tire Temp Core FR,Tire Temp Core RL,Tire Temp Core RR,Tire Temp Inner FL,Tire Temp Inner FR,Tire Temp Inner RL,Tire Temp Inner RR,Tire Temp Middle FL,Tire Temp Middle FR,Tire Temp Middle RL,Tire Temp Middle RR,Tire Temp Outer FL,Tire Temp Outer FR,Tire Temp Outer RL,Tire Temp Outer RR,Toe In FL,Toe In FR,Toe In RL,Toe In RR,Turbo Boost,Wheel Angular Speed FL,Wheel Angular Speed FR,Wheel Angular Speed RL,Wheel Angular Speed RR,Wind Direction,Wind Speed
0,0.0,1.0,0.0,1.0,1.0,0.0,0.0,1.0,0.0,100.0,1.0,1.1856,26.0,0.0,0.0,0.0,59.99999,0.0,26.0,26.0,26.0,26.0,-0.10077777777777785,0.26,0.07187500000000001,294.037,-2.7084,-2.674444444444444,-1.5068000000000001,-1.5689,-275.76,216.285,190.988125,0.0,0.0,0.0,0.0,0.0015333333333333865,-5.498166666666667,-5.498166666666667,-0.5574,0.7030000000000001,-0.019874999999999865,-0.41800000000000015,65.544,-0.055400000000000005,-0.220175,1.17,100.0,1.0,1.0,202.09666666666666,0.0,0.0,0.0,0.0,0.0,0.0,0.0,7794.3,0.0,55.0,5.0,235.93333333333334,0.0,0.0,0.0,0.0,0.0,0.0,0.0,0.0,0.0030000000000001137,0.0030000000000001137,0.0,0.0,0.0,55.0,616.79921,10000.0,85.0,85.0,85.0,85.0,395.0,0.0,0.0,0.0,1.0,20.0,52.612,52.612,49.866,49.866,34.0,-27.8675,23.155,-30.683333333333334,23.65,0.0,1780.002,0.8900000000000006,100.0,27.514,26.748,40.793,40.459,0.0,1.0,100.0,0.0,0.0,0.0,0.0,3110.285714285714,3423.8,3989.125,3915.7,305.4175,303.999,315.127,315.0525,21.7864,20.5185,21.7482,21.284399999999998,314.99999,314.99999,324.99998,324.99998,99.55921428571429,99.5073,99.56435714285715,99.544,-0.014999999999999902,-0.1363333333333332,-0.18166666666666664,0.039166666666666794,-0.051666666666669414,-0.05833333333333002,1.417,1.4569999999999999,37.165,29.240666666666666,36.926,34.0275,56.446,34.5655,58.829499999999996,51.2795,54.345,33.7125,57.4675,49.647,53.504000000000005,33.257999999999996,57.439,49.07333333333334,-0.010499999999999954,-0.14300000000000002,0.10501,0.11078,0.0,205.39499999999998,205.29000000000002,202.0966666666667,202.095,0.0,0.0
1,0.0,1.0,0.0,1.0,1.0,0.0,0.0,1.0,0.0,100.0,1.0,1.1856,26.0,0.0,0.0,0.0,59.999996,0.0,26.0,26.0,26.0,26.0,-0.136,0.25950000000000006,0.22260000000000002,292.923,-2.6318,-2.7808888888888887,-1.50705,-1.5611,-272.42,216.285,190.96775,0.0,0.0,0.0,0.0,0.0034999999999999476,-5.498166666666667,-5.498166666666667,-0.5,-0.178,-0.07212500000000022,-0.758,65.67,-0.068,-0.19315000000000002,1.5419999999999998,100.0,1.0,1.0,202.15,0.0,0.0,0.0,0.0,0.0,0.0,0.0,7796.4,0.0,55.0,5.0,236.38666666666666,1.0,0.0,0.0,0.0,0.0,0.0,0.0,0.0,0.053999999999998494,0.053999999999998494,0.0,0.0,1.0,55.0,616.79921,10000.0,85.000001,85.000001,85.000001,85.000001,395.0,0.0,0.0,0.0,1.0,333.33500000000004,53.299,53.299,48.248,48.248,34.0,-28.525,17.201666666666668,-37.083333333333336,28.3525,0.0,1779.95,0.9600000000000009,100.0,27.847,27.08,42.576,41.319,0.0,1.0,100.0,0.0,0.0,0.0,0.0,3195.857142857143,2660.4,4475.875,4698.4,305.135,306.32675,313.90425,313.1545,21.7964,20.5238,21.7589,21.2933,314.999998,314.999998,324.999988,324.999988,99.55922857142858,99.50731666666667,99.56448571428571,99.54412857142857,-0.02499999999999991,-0.16199999999999992,-0.19799999999999995,0.01550000000000007,-0.013333333333328312,-0.03166666666666629,1.2495,1.3279999999999998,37.227999999999994,29.273333333333333,36.992999999999995,34.0835,56.431,34.609,58.869,51.3375,54.331,33.7525,57.5045,49.7025,53.489000000000004,33.2965,57.4735,49.128,-0.006000000000000005,-0.15149999999999997,0.10159000000000001,0.112765,0.0,205.79000000000002,205.685,202.15,202.15,0.0,0.0
2,0.0,1.0,0.0,1.0,1.0,0.0,0.0,1.0,0.0,100.0,1.0,1.1856,26.0,0.0,0.0,0.0,59.999996,0.0,26.0,26.0,26.0,26.0,-0.16833333333333333,0.2218,-0.07992500000000001,293.701,-2.5845,-2.8113333333333332,-1.47405,-1.6221999999999999,-269.07,216.2775,190.949,0.0,0.0,0.0,0.0,0.005433333333333401,-5.498166666666667,-5.498166666666667,-0.5551,-0.23800000000000002,-0.06199999999999983,2.566,65.785,-0.0833,-0.264975,1.6579999999999995,100.0,1.0,1.0,202.94666666666666,0.0,0.0,0.0,0.0,0.0,0.0,0.0,7827.2,0.0,55.0,5.0,236.80333333333334,0.0,0.0,0.0,0.0,0.0,0.0,0.0,0.0,0.10500000000000043,0.10500000000000043,0.0,0.0,0.0,55.0,616.79921,10000.0,85.000001,85.000001,85.000001,85.000001,395.0,0.0,0.0,0.0,1.0,333.33500000000004,52.292,52.292,50.308,50.308,34.0,-30.47,19.549999999999997,-30.123333333333335,20.185,0.0,1779.898,0.7699999999999996,100.0,28.586,26.926000000000002,42.686,41.207,0.0,1.0,100.0,0.0,0.0,0.0,0.0,3361.142857142857,2955.4,3734.875,3614.2,304.4415,305.5125,315.6445,315.93375,21.8066,20.5287,21.7694,21.3021,314.999998,314.999998,324.999988,324.999988,99.55922857142858,99.50735,99.56461428571428,99.54425714285715,-0.03349999999999986,-0.1633333333333331,-0.23349999999999993,0.004166666666666652,-0.04999999999999716,-0.06333333333333258,1.4845,1.523,37.292,29.304333333333332,37.059,34.138,56.419,34.6485,58.9025,51.39,54.319,33.789,57.536,49.7535,53.477000000000004,33.331,57.501999999999995,49.17766666666667,-0.011499999999999955,-0.14250000000000007,0.101305,0.11224500000000001,0.0,206.15,206.0,202.94666666666666,202.9475,0.0,0.0
3,0.0,1.0,0.0,1.0,1.0,0.0,0.0,1.0,0.0,100.0,1.0,1.1856,26.0,0.0,0.0,0.0,59.999996,0.0,26.0,26.0,26.0,26.0,-0.15822222222222215,0.24730000000000008,-0.040275000000000005,293.51800000000003,-2.7187,-2.6973333333333334,-1.4997500000000001,-1.5958999999999999,-265.71,216.26749999999998,190.9295,0.0,0.0,0.0,0.0,0.007399999999999962,-5.498166666666667,-5.498166666666667,-0.5171,0.5616666666666666,-0.019750000000000156,-0.931,65.90899999999999,-0.0969,-0.20822500000000002,1.33,100.0,1.0,1.0,203.06333333333333,0.0,0.0,0.0,0.0,0.0,0.0,0.0,7831.6,0.0,55.0,5.0,237.24666666666667,1.0,0.0,0.0,0.0,0.0,0.0,0.0,0.0,0.1559999999999988,0.1559999999999988,0.0,0.0,1.0,55.0,616.79921,10000.0,85.000001,85.000001,85.000001,85.000001,395.0,0.0,0.0,0.0,1.0,166.665,53.421,53.421,48.416,48.416,34.0,-26.455,17.43166666666667,-36.123333333333335,23.6675,0.0,1779.85,0.6750000000000007,100.0,28.095,27.158,42.261,41.19,0.0,1.0,100.0,0.0,0.0,0.0,0.0,2902.285714285714,2782.7,4324.125,4164.4,305.976,305.7785,314.32875,314.48075,21.8165,20.5339,21.7797,21.3109,314.999998,314.999998,324.999988,324.999988,99.55922857142858,99.50736666666667,99.56474285714286,99.54438571428571,-0.030000000000000027,-0.16633333333333322,-0.22083333333333333,-0.0038333333333333552,-0.046666666666666856,-0.046666666666666856,1.3519999999999999,1.4155,37.352999999999994,29.337,37.123000000000005,34.193,56.403,34.6915,58.9355,51.446,54.304,33.8285,57.5665,49.807,53.461,33.369,57.53,49.230333333333334,-0.03249999999999997,-0.12349999999999994,0.09874500000000001,0.106325,0.0,206.535,206.44,203.06333333333333,203.0625,0.0,0.0
4,0.0,1.0,0.0,1.0,1.0,0.0,0.0,1.0,0.0,100.0,1.0,1.1856,26.0,0.0,0.0,0.0,59.999996,0.0,26.0,26.0,26.0,26.0,-0.15011111111111108,0.21940000000000004,-0.012950000000000001,293.625,-2.6572,-2.7425555555555556,-1.5229,-1.5983,-262.54,216.255,190.910875,0.0,0.0,0.0,0.0,0.009233333333333316,-5.498166666666667,-5.498166666666667,-0.5488000000000001,-0.8306666666666667,-0.08199999999999985,-1.819,66.021,-0.09530000000000001,-0.24147500000000002,1.2040000000000006,100.0,1.0,1.0,203.50666666666666,0.0,0.0,0.0,0.0,0.0,0.0,0.0,7848.7,0.0,55.0,5.0,237.65333333333334,0.0,0.0,0.0,0.0,0.0,0.0,0.0,0.0,0.20400000000000063,0.20400000000000063,0.0,0.0,0.0,55.0,616.79921,10000.0,85.000001,85.000001,85.000001,85.000001,395.0,0.0,0.0,0.0,1.0,166.665,52.933,52.933,48.813,48.813,34.0,-29.935000000000002,18.55333333333333,-34.61333333333333,21.285,0.0,1779.801,0.6600000000000001,100.0,27.852,26.971,42.693,41.313,0.0,1.0,100.0,0.0,0.0,0.0,0.0,3268.0,2887.0,4129.0,3686.1,305.0535,305.49825,314.734,315.61825,21.8257,20.5387,21.7896,21.3192,314.999998,314.999998,324.999988,324.999988,99.55924285714286,99.50738333333334,99.56487142857142,99.5445,-0.03849999999999998,-0.16599999999999993,-0.22516666666666663,0.01416666666666666,-0.04333333333332945,-0.03833333333332689,1.395,1.432,37.411,29.366999999999997,37.185,34.245,56.387,34.7305,58.97,51.4965,54.288,33.865,57.5985,49.8555,53.445,33.4035,57.5595,49.27766666666667,-0.02849999999999997,-0.125,0.11100000000000002,0.10722000000000001,0.0,206.825,206.72,203.50666666666666,203.505,0.0,0.0
5,0.0,1.0,0.0,1.0,1.0,0.0,0.0,1.0,0.0,100.0,1.0,1.1856,26.0,0.0,0.0,0.0,59.999996,0.0,26.0,26.0,26.0,26.0,-0.14733333333333332,0.25540000000000007,-0.0175,293.686,-2.661,-2.7733333333333334,-1.5009000000000001,-1.5902,-259.17,216.2375,190.8905,0.0,0.0,0.0,0.0,0.011199999999999988,-5.498166666666667,-5.498166666666667,-0.5448000000000001,0.4416666666666667,-0.08762500000000006,1.126,66.14,-0.09570000000000001,-0.22437500000000002,1.1479999999999997,100.0,1.0,1.0,203.84333333333333,0.0,0.0,0.0,0.0,0.0,0.0,0.0,7861.8,0.0,55.0,5.0,238.07999999999998,1.0,0.0,0.0,0.0,0.0,0.0,0.0,0.0,0.254999999999999,0.254999999999999,0.0,0.0,1.0,55.0,616.79921,10000.0,85.000001,85.000001,85.000001,85.000001,395.0,0.0,0.0,0.0,1.0,333.33500000000004,53.207,53.207,49.24,49.24,34.0,-27.7175,18.93166666666667,-33.69,23.2175,0.0,1779.749,0.18499999999999872,100.0,28.162,26.743,42.515,40.858000000000004,0.0,1.0,100.0,0.0,0.0,0.0,0.0,3122.0,2856.5,4104.5,4052.2,305.259,305.8105,314.83225,314.8325,21.8358,20.5438,21.8,21.3278,314.999998,314.999998,324.999988,324.999988,99.55924285714286,99.5074,99.565,99.54462857142858,-0.013500000000000068,-0.1519999999999999,-0.21750000000000003,0.006666666666666599,-0.05333333333332746,-0.046666666666666856,1.383,1.4405000000000001,37.474000000000004,29.399,37.25,34.299,56.373000000000005,34.7725,59.004,51.5475,54.275999999999996,33.903,57.6305,49.9045,53.431,33.4405,57.588499999999996,49.32566666666666,-0.052999999999999936,-0.10650000000000004,0.102705,0.10783500000000001,0.0,207.26,207.14,203.84333333333333,203.845,0.0,0.0
6,0.0,1.0,0.0,1.0,1.0,0.0,0.0,1.0,0.0,100.0,1.0,1.1856,26.0,0.0,0.0,0.0,59.999996,0.0,26.0,26.0,26.0,26.0,-0.1283333333333333,0.23880000000000012,0.008450000000000001,293.564,-2.6286,-2.7474444444444446,-1.54545,-1.6242,-255.99,216.22,190.871375,0.0,0.0,0.0,0.0,0.013033333333333341,-5.498166666666667,-5.498166666666667,-0.5396000000000001,0.084,-0.06700000000000017,1.002,66.252,-0.0917,-0.22485000000000002,0.7960000000000012,100.0,1.0,1.0,204.18,0.0,0.0,0.0,0.0,0.0,0.0,0.0,7874.7,0.0,55.0,5.0,238.48333333333335,0.0,0.0,0.0,0.0,0.0,0.0,0.0,0.0,0.3030000000000008,0.3030000000000008,0.0,0.0,0.0,55.0,616.79921,10000.0,85.000001,85.000001,85.000001,85.000001,395.0,0.0,0.0,0.0,1.0,333.33500000000004,52.963,52.963,49.103,49.103,34.0,-27.1475,21.174999999999997,-33.123333333333335,23.8775,0.0,1779.702,0.019999999999999574,100.0,28.0,26.789,42.559,41.164,0.0,1.0,100.0,0.0,0.0,0.0,0.0,3145.285714285714,3002.4,4035.5,3993.1000000000004,305.1765,305.3155,314.979,314.9335,21.8452,20.5487,21.8099,21.336199999999998,314.999998,314.999998,324.999988,324.999988,99.55925714285715,99.50741666666667,99.56511428571429,99.54474285714285,-0.0004999999999999449,-0.1206666666666667,-0.2081666666666666,0.01649999999999996,-0.02499999999999858,-0.041666666666671404,1.3945,1.426,37.532,29.429333333333332,37.312,34.3515,56.358000000000004,34.8105,59.036500000000004,51.6,54.262,33.938,57.6605,49.955,53.417,33.474000000000004,57.6165,49.375,-0.06699999999999995,-0.07350000000000012,0.10081000000000001,0.10407500000000001,0.0,207.56,207.485,204.18,204.18,0.0,0.0
7,0.0,1.0,0.0,1.0,1.0,0.0,0.0,1.0,0.0,100.0,1.0,1.1856,26.0,0.0,0.0,0.0,59.999996,0.0,26.0,26.0,26.0,26.0,-0.09511111111111104,0.23310000000000008,0.0137,293.274,-2.6066,-2.7344444444444447,-1.5046,-1.5709,-252.61,216.195,190.850875,0.0,0.0,0.0,0.0,0.014999999999999902,-5.498166666666667,-5.498166666666667,-0.5429,-0.067,-0.058250000000000135,-0.30400000000000027,66.37,-0.07200000000000001,-0.2316,0.4299999999999997,100.0,1.0,1.0,204.5,0.0,0.0,0.0,0.0,0.0,0.0,0.0,7887.1,0.0,55.0,5.0,238.91,1.0,0.0,0.0,0.0,0.0,0.0,0.0,0.0,0.3539999999999992,0.3539999999999992,0.0,0.0,1.0,55.0,616.79921,10000.0,85.000001,85.000001,85.000001,85.000001,395.0,0.0,0.0,0.0,1.0,333.33500000000004,52.643,52.643,49.132999999999996,49.132999999999996,34.0,-28.0675,21.58833333333333,-32.28666666666666,24.145,0.0,1779.65,-0.21499999999999986,100.0,27.918,26.996,42.51,41.511,0.0,1.0,100.0,0.0,0.0,0.0,0.0,3347.285714285714,2958.5,4093.75,4023.4,304.6815,305.292,314.851,314.8045,21.8551,20.5539,21.8203,21.3451,314.999998,314.999998,324.999988,324.999988,99.55925714285715,99.50743333333334,99.56524285714286,99.54487142857143,0.016000000000000014,-0.10333333333333328,-0.1908333333333333,0.02833333333333332,-0.046666666666666856,-0.030000000000001137,1.394,1.399,37.595,29.461666666666666,37.376999999999995,34.407,56.343,34.8495,59.070499999999996,51.655,54.247,33.9745,57.692499999999995,50.0075,53.400999999999996,33.5085,57.6455,49.42666666666666,-0.08850000000000002,-0.05699999999999994,0.10291000000000002,0.101375,0.0,207.925,207.865,204.5,204.5,0.0,0.0
8,0.0,1.0,0.0,1.0,1.0,0.0,0.0,1.0,0.0,100.0,1.0,1.1856,26.0,0.0,0.0,0.0,59.999996,0.0,26.0,26.0,26.0,26.0,-0.053444444444444406,0.24360000000000004,0.039875,293.488,-2.6783,-2.7190000000000003,-1.49255,-1.5509,-249.22,216.17000000000002,190.830375,0.0,0.0,0.0,0.0,0.016966666666666574,-5.498166666666667,-5.498166666666667,-0.5425,-0.49933333333333335,-0.034250000000000114,0.9750000000000001,66.489,-0.0506,-0.22212500000000002,-0.06400000000000006,100.0,1.0,1.0,204.80666666666667,0.0,0.0,0.0,0.0,0.0,0.0,0.0,7899.0,0.0,55.0,5.0,239.33666666666664,0.0,0.0,0.0,0.0,0.0,0.0,0.0,0.0,0.40500000000000114,0.40500000000000114,0.0,0.0,0.0,55.0,616.79921,10000.0,85.000001,85.000001,85.000001,85.000001,395.0,0.0,0.0,0.0,1.0,333.33500000000004,53.497,53.497,48.309,48.309,34.0,-23.235,22.57333333333333,-31.343333333333334,27.485,0.0,1779.599,-0.34999999999999787,100.0,27.661,26.858,42.574,41.551,0.0,1.0,100.0,0.0,0.0,0.0,0.0,2927.5714285714284,3006.9,4156.625,4194.7,305.896,305.33125,314.616,314.4625,21.8648,20.5591,21.8307,21.354,314.999998,314.999998,324.999988,324.999988,99.55925714285715,99.50743333333334,99.56538571428571,99.545,0.05250000000000021,-0.08066666666666666,-0.15916666666666657,0.07099999999999995,-0.02833333333332888,-0.054999999999999716,1.3655,1.3575,37.655,29.494333333333334,37.442,34.4625,56.326,34.888,59.104,51.7095,54.230999999999995,34.0095,57.7235,50.06,53.385,33.542500000000004,57.674,49.478,-0.10749999999999993,-0.046499999999999986,0.106675,0.10730500000000001,0.0,208.25,208.255,204.80666666666667,204.8075,0.0,0.0
9,0.0,1.0,0.0,1.0,1.0,0.0,0.0,1.0,0.0,100.0,1.0,1.1856,26.0,0.0,0.0,0.0,59.999996,0.0,26.0,26.0,26.0,26.0,-0.01766666666666661,0.2369000000000001,-0.0227,293.259,-2.6833,-2.7185555555555556,-1.5504,-1.551,-245.82999999999998,216.14249999999998,190.809375,0.0,0.0,0.0,0.0,0.018933333333333358,-5.498166666666667,-5.498166666666667,-0.5511,0.622,-0.03587499999999988,-0.496,66.60300000000001,-0.028200000000000003,-0.2273,-0.11799999999999855,100.0,1.0,1.0,205.29000000000002,0.0,0.0,0.0,0.0,0.0,0.0,0.0,7917.6,0.0,55.0,5.0,239.75,1.0,0.0,0.0,0.0,0.0,0.0,0.0,0.0,0.4559999999999995,0.4559999999999995,0.0,0.0,1.0,55.0,616.79921,10000.0,85.000001,85.000001,85.000001,85.000001,395.0,0.0,0.0,0.0,1.0,166.665,52.260999999999996,52.260999999999996,49.515,49.515,34.0,-26.8825,23.64666666666667,-28.96,26.4725,0.0,1779.549,-0.46000000000000085,100.0,27.968,27.455,42.108000000000004,41.647,0.0,1.0,100.0,0.0,0.0,0.0,0.0,3384.4285714285716,3013.9,3964.5,4006.7,304.6515,305.064,315.23225,314.88075,21.8747,20.5645,21.841,21.3628,314.999998,314.999998,324.999988,324.999988,99.55927142857144,99.50745,99.5655,99.54511428571429,0.06349999999999989,-0.06266666666666665,-0.13983333333333337,0.08266666666666667,-0.04999999999999716,-0.04833333333333201,1.423,1.4085,37.717,29.528,37.507,34.5175,56.313,34.9275,59.1345,51.763,54.218,34.046,57.7515,50.1115,53.370999999999995,33.5775,57.699,49.528333333333336,-0.11149999999999993,-0.04150000000000009,0.10853000000000002,0.10823,0.0,208.635,208.63,205.29000000000002,205.29250000000002,0.0,0.0
10,0.0,1.0,0.0,1.0,1.0,0.0,0.0,1.0,0.0,100.0,1.0,1.1856,26.0,0.0,0.0,0.0,59.999996,0.0,26.0,26.0,26.0,26.0,-0.0015555555555555323,0.23829999999999996,0.009000000000000001,293.045,-2.654,-2.7023333333333333,-1.5838,-1.5354,-242.63,216.1175,190.789875,0.0,0.0,0.0,0.0,0.02079999999999993,-5.498166666666667,-5.498166666666667,-0.5271,-0.23900000000000002,0.00649999999999995,0.3859999999999999,66.71600000000001,-0.0088,-0.214225,-0.42799999999999905,100.0,1.0,1.0,205.44333333333333,0.0,0.0,0.0,0.0,0.0,0.0,0.0,7923.5,0.0,55.0,5.0,240.15333333333334,0.0,0.0,0.0,0.0,0.0,0.0,1.0,0.0,0.5040000000000013,0.5040000000000013,0.0,0.0,0.0,55.0,616.79921,10000.0,85.000001,85.000001,85.000001,85.000001,395.0,0.0,0.0,0.0,1.0,333.33500000000004,53.268,53.268,47.958,47.958,34.0,-21.75,22.555,-32.47333333333333,29.61,0.0,1779.499,-0.5999999999999979,100.0,27.846,27.441,42.472,42.358000000000004,0.0,1.0,100.0,0.0,0.0,0.0,0.0,2941.0,2864.5,4348.125,4248.4,305.9285,305.561,314.2815,314.2215,21.8839,20.5694,21.8509,21.371299999999998,314.999998,314.999998,324.999988,324.999988,99.55927142857144,99.50745,99.56564285714286,99.54524285714285,0.08524999999999983,-0.05166666666666675,-0.1243333333333334,0.10050000000000003,-0.03166666666666629,-0.026666666666670835,1.3379999999999999,1.323,37.775,29.558999999999997,37.568,34.571,56.3,34.964,59.169,51.821,54.206,34.08,57.783500000000004,50.167,53.358000000000004,33.6095,57.7285,49.583,-0.12649999999999995,-0.03200000000000003,0.109505,0.10946000000000002,0.0,208.95499999999998,208.97,205.44333333333333,205.4425,0.0,0.0
11,0.0,1.0,0.0,1.0,1.0,0.0,0.0,1.0,0.0,100.0,1.0,1.1856,26.0,0.0,0.0,0.0,59.999996,0.0,26.0,26.0,26.0,26.0,0.02822222222222215,0.21520000000000006,-0.06265,293.64,-2.7069,-2.684333333333333,-1.5495,-1.5182,-239.22,216.09,190.769375,0.0,0.0,0.0,0.0,0.022599999999999953,-5.498166666666667,-5.498166666666667,-0.5686,-0.34400000000000003,0.035374999999999934,0.532,66.828,0.0109,-0.24780000000000002,-0.6079999999999988,100.0,1.0,1.0,206.05,0.0,0.0,0.0,0.0,0.0,0.0,0.0,7946.8,0.0,55.0,5.0,240.56,1.0,0.0,0.0,0.0,0.0,0.0,1.0,0.0,0.5549999999999997,0.5549999999999997,0.0,0.0,1.0,55.0,616.79921,10000.0,85.000001,85.000001,85.000001,85.000001,395.0,0.0,0.0,0.0,1.0,333.33500000000004,52.734,52.734,49.576,49.576,34.0,-21.9625,26.625,-23.256666666666668,27.18,0.0,1779.449,-0.6849999999999987,100.0,27.616,27.472,42.117000000000004,42.272999999999996,0.0,1.0,100.0,0.0,0.0,0.0,0.0,3005.857142857143,3197.6,3629.25,3872.5,305.6475,304.685,315.981,315.23275,21.8935,20.5749,21.8612,21.3802,314.999998,314.999998,324.999988,324.999988,99.55928571428572,99.50745,99.56574285714285,99.54537142857143,0.10749999999999993,-0.01966666666666672,-0.08050000000000002,0.133,-0.03833333333332689,-0.054999999999999716,1.4795,1.466,37.834,29.592666666666666,37.632999999999996,34.6265,56.286,34.999,59.196,51.8715,54.193,34.1125,57.8085,50.216,53.344,33.641,57.751,49.631,-0.12549999999999994,-0.03200000000000003,0.09911500000000001,0.10382500000000001,0.0,209.26,209.31,206.05,206.05,0.0,0.0
12,0.0,1.0,0.0,1.0,1.0,0.0,0.0,1.0,0.0,100.0,1.0,1.1856,26.0,0.0,0.0,0.0,59.999996,0.0,26.0,26.0,26.0,26.0,0.046666666666666856,0.246,0.0029000000000000002,293.198,-2.7602,-2.683,-1.5482,-1.518,-236.01,216.065,190.74875,0.0,0.0,0.0,0.0,0.025466666666666526,-5.498166666666667,-5.498166666666667,-0.5548000000000001,0.28733333333333333,0.02024999999999988,0.538,66.938,0.027100000000000003,-0.215125,-0.7360000000000007,100.0,1.0,1.0,206.20333333333332,0.0,0.0,0.0,0.0,0.0,0.0,0.0,7952.8,0.0,55.0,5.0,240.95666666666665,0.0,0.0,0.0,0.0,0.0,0.0,1.0,0.0,0.602999999999998,0.602999999999998,0.0,0.0,0.0,55.0,616.79921,10000.0,85.000001,85.000001,85.000001,85.000001,395.0,0.0,0.0,0.0,1.0,333.33500000000004,52.856,52.856,48.385999999999996,48.385999999999996,34.0,-21.9725,27.128333333333334,-26.913333333333334,31.5825,0.0,1779.402,-0.6750000000000007,100.0,27.473,27.568,41.944,42.081,0.0,1.0,100.0,0.0,0.0,0.0,0.0,3011.857142857143,3190.3,4131.125,4190.1,305.6545,304.73825,314.75625,314.4965,21.9025,20.58,21.8709,21.3886,314.999998,314.999998,324.999988,324.999988,99.5593,99.50746666666667,99.56587142857143,99.5455,0.11949999999999994,-0.004999999999999893,-0.0685,0.15799999999999992,-0.03499999999999659,-0.06499999999999773,1.3955,1.363,37.891,29.625,37.693,34.6785,56.274,35.0345,59.225,51.923,54.181,34.144999999999996,57.835499999999996,50.265,53.331,33.6725,57.775,49.67933333333333,-0.125,-0.028000000000000025,0.10132000000000001,0.11010500000000001,0.0,209.625,209.695,206.20333333333332,206.20499999999998,0.0,0.0
13,0.0,1.0,0.0,1.0,1.0,0.0,0.0,1.0,0.0,100.0,1.0,1.1856,26.0,0.0,0.0,0.0,59.999996,0.0,26.0,26.0,26.0,26.0,0.0705555555555557,0.23399999999999999,0.03005,292.786,-2.7374,-2.6723333333333334,-1.61715,-1.5039,-232.6,216.04000000000002,190.727125,0.0,0.0,0.0,0.0,0.026633333333333398,-5.498166666666667,-5.498166666666667,-0.5478000000000001,-0.033666666666666664,0.01912500000000006,-0.5790000000000002,67.054,0.0371,-0.2225,-0.7639999999999993,100.0,1.0,1.0,206.51333333333332,0.0,0.0,0.0,0.0,0.0,0.0,0.0,7964.7,0.0,55.0,5.0,241.37,1.0,0.0,0.0,0.0,0.0,0.0,1.0,0.0,0.6539999999999999,0.6539999999999999,0.0,0.0,1.0,55.0,616.79921,10000.0,85.000001,85.000001,85.000001,85.000001,395.0,0.0,0.0,0.0,1.0,333.33500000000004,52.429,52.429,48.355000000000004,48.355000000000004,34.0,-22.1275,26.89,-28.619999999999997,31.505000000000003,0.0,1779.351,-0.879999999999999,100.0,27.674,27.951999999999998,42.075,42.682,0.0,1.0,100.0,0.0,0.0,0.0,0.0,3170.142857142857,3084.1,4192.375,4238.9,305.3275,304.8685,314.68875,314.2765,21.9121,20.5856,21.8813,21.3976,314.999998,314.999998,324.999988,324.999988,99.55931428571428,99.50746666666667,99.566,99.54562857142857,0.13750000000000018,0.01100000000000012,-0.0731666666666666,0.14700000000000002,-0.04833333333333201,-0.02833333333332888,1.376,1.3395000000000001,37.951,29.659666666666666,37.757999999999996,34.735,56.263,35.072,59.2575,51.980000000000004,54.171,34.1795,57.8655,50.320499999999996,53.32,33.7055,57.802,49.733666666666664,-0.14400000000000002,-0.008499999999999952,0.11071500000000001,0.099345,0.0,209.98000000000002,210.01999999999998,206.51333333333332,206.5125,0.0,0.0
14,0.0,1.0,0.0,1.0,1.0,0.0,0.0,1.0,0.0,100.0,1.0,1.1856,26.0,0.0,0.0,0.0,59.999996,0.0,26.0,26.0,26.0,26.0,0.07577777777777794,0.23520000000000008,-0.012150000000000001,293.015,-2.7329,-2.6213333333333333,-1.6240999999999999,-1.5087,-229.17000000000002,216.01749999999998,190.706,0.0,0.0,0.0,0.0,0.0286333333333334,-5.498166666666667,-5.498166666666667,-0.5575,-0.159,0.050999999999999934,1.4849999999999999,67.166,0.0492,-0.23722500000000002,-0.9499999999999993,100.0,1.0,1.0,206.93,0.0,0.0,0.0,0.0,0.0,0.0,0.0,7980.9,0.0,55.0,5.0,241.77666666666664,0.0,0.0,0.0,0.0,0.0,0.0,1.0,0.0,0.7049999999999983,0.7049999999999983,0.0,0.0,0.0,55.0,616.79921,10000.0,85.000001,85.000001,85.000001,85.000001,395.0,0.0,0.0,0.0,1.0,333.33500000000004,52.521,52.521,48.569,48.569,34.0,-20.13,28.013333333333335,-25.53,32.5925,0.0,1779.299,-0.6950000000000003,100.0,27.799,27.841,42.134,42.783,0.0,1.0,100.0,0.0,0.0,0.0,0.0,2941.714285714286,3248.1,3941.875,4181.8,305.8095,304.572,315.2145,314.51275,21.9217,20.5911,21.8917,21.4067,314.999998,314.999998,324.999988,324.999988,99.55932857142857,99.50746666666667,99.56612857142858,99.54575714285714,0.14524999999999988,0.015666666666666718,-0.05133333333333334,0.1821666666666668,-0.03999999999999915,-0.060000000000002274,1.413,1.3735,38.010999999999996,29.694333333333333,37.823,34.7915,56.253,35.109,59.288,52.036500000000004,54.161,34.2145,57.8935,50.375,53.309,33.739,57.8275,49.787,-0.135,-0.019500000000000073,0.10207500000000001,0.11080000000000001,0.0,210.31,210.38,206.93,206.9325,0.0,0.0
15,0.0,1.0,0.0,1.0,1.0,0.0,0.0,1.0,0.0,100.0,1.0,1.1856,26.0,0.0,0.0,0.0,59.999996,0.0,26.0,26.0,26.0,26.0,0.07655555555555571,0.22940000000000005,-0.004200000000000001,293.03,-2.705,-2.579777777777778,-1.6172,-1.4550999999999998,-225.95,215.9975,190.68575,0.0,0.0,0.0,0.0,0.03049999999999997,-5.498166666666667,-5.498166666666667,-0.5505,0.35633333333333334,0.07487500000000002,1.0499999999999998,67.273,0.059000000000000004,-0.2217,-0.8120000000000012,100.0,1.0,1.0,207.25,0.0,0.0,0.0,0.0,0.0,0.0,0.0,7993.2,0.0,55.0,5.0,242.16,1.0,0.0,0.0,0.0,0.0,0.0,1.0,0.0,0.7530000000000001,0.7530000000000001,0.0,0.0,1.0,55.0,616.79921,10000.0,85.000001,85.000001,85.000001,85.000001,395.0,0.0,0.0,0.0,1.0,333.33500000000004,52.643,52.643,48.706,48.706,34.0,-19.88,26.688333333333333,-24.990000000000002,32.4825,0.0,1779.252,-0.35999999999999943,100.0,27.82,27.887999999999998,41.925,42.785,0.0,1.0,100.0,0.0,0.0,0.0,0.0,2862.714285714286,3216.0,3925.75,4298.6,306.002,304.65675,315.26975,314.26175,21.9307,20.5963,21.9013,21.4151,314.999998,314.999998,324.999988,324.999988,99.55934285714285,99.50746666666667,99.56624285714285,99.54587142857143,0.13149999999999995,0.0003333333333332966,-0.044166666666666576,0.1745000000000001,-0.036666666666668846,-0.07166666666666544,1.3975,1.3744999999999998,38.067,29.727,37.882999999999996,34.8445,56.242000000000004,35.1445,59.315,52.0895,54.150999999999996,34.247,57.9185,50.426,53.298,33.7705,57.8495,49.83733333333333,-0.10949999999999993,-0.04200000000000004,0.106175,0.10036500000000001,0.0,210.675,210.74,207.25,207.2525,0.0,0.0
16,0.0,1.0,0.0,1.0,1.0,0.0,0.0,1.0,0.0,100.0,1.0,1.1856,26.0,0.0,0.0,0.0,59.999996,0.0,26.0,26.0,26.0,26.0,0.07622222222222219,0.2238,-0.031325,293.121,-2.751,-2.6215555555555556,-1.5481500000000001,-1.4630999999999998,-222.51,215.97750000000002,190.663875,0.0,0.0,0.0,0.0,0.03249999999999997,-5.498166666666667,-5.498166666666667,-0.5660000000000001,-0.7073333333333334,0.04987499999999989,-1.1139999999999999,67.386,0.060200000000000004,-0.23225,-0.4139999999999997,100.0,1.0,1.0,207.57333333333332,0.0,0.0,0.0,0.0,0.0,0.0,0.0,8005.6,0.0,55.0,5.0,242.57,0.0,0.0,0.0,0.0,0.0,0.0,1.0,0.0,0.8039999999999985,0.8039999999999985,0.0,0.0,0.0,55.0,616.79921,10000.0,85.000001,85.000001,85.000001,85.000001,395.0,0.0,0.0,0.0,1.0,333.33500000000004,52.826,52.826,48.218,48.218,34.0,-22.08,25.26833333333333,-24.736666666666665,30.4125,0.0,1779.2,-0.004999999999999005,100.0,27.293,28.014,42.24,42.935,0.0,1.0,100.0,0.0,0.0,0.0,0.0,2997.5714285714284,3125.0,3988.125,4052.4,305.888,304.758,315.1275,314.775,21.94,20.6019,21.9117,21.4241,314.999998,314.999998,324.999988,324.999988,99.55935714285714,99.50748333333334,99.56637142857143,99.54601428571429,0.1070000000000002,-0.026999999999999913,-0.047666666666666635,0.1725000000000001,-0.03833333333332689,-0.03166666666666629,1.389,1.3715,38.125,29.761666666666667,37.948,34.900999999999996,56.227000000000004,35.182,59.347,52.144999999999996,54.135999999999996,34.2815,57.948,50.4795,53.282,33.804,57.8765,49.89,-0.07999999999999996,-0.07800000000000007,0.10353000000000001,0.10322,0.0,211.0,211.015,207.57333333333332,207.5725,0.0,0.0
17,0.0,1.0,0.0,1.0,1.0,0.0,0.0,1.0,0.0,100.0,1.0,1.1856,26.0,0.0,0.0,0.0,59.999996,0.0,26.0,26.0,26.0,26.0,0.025222222222222257,0.2310000000000001,-0.0563,292.953,-2.734,-2.5941111111111113,-1.60565,-1.5255999999999998,-219.07,215.96,190.6415,0.0,0.0,0.0,0.0,0.034499999999999975,-5.498166666666667,-5.498166666666667,-0.5605,0.5640000000000001,0.015625,0.2689999999999999,67.497,0.0413,-0.21725,0.009999999999999787,100.0,1.0,1.0,207.94,0.0,0.0,0.0,0.0,0.0,0.0,0.0,8019.8,0.0,55.0,5.0,242.96666666666667,1.0,0.0,0.0,0.0,0.0,0.0,1.0,0.0,0.8550000000000004,0.8550000000000004,0.0,0.0,1.0,55.0,616.79921,10000.0,85.000001,85.000001,85.000001,85.000001,395.0,0.0,0.0,0.0,1.0,333.33500000000004,52.567,52.567,48.553,48.553,34.0,-22.5475,24.373333333333335,-27.663333333333334,30.8075,0.0,1779.149,0.045000000000001705,100.0,28.007,28.034,42.1,42.661,0.0,1.0,100.0,0.0,0.0,0.0,0.0,3031.285714285714,3069.2,4122.625,4130.3,305.6195,305.16225,314.85875,314.661,21.9496,20.6075,21.922,21.433,314.999998,314.999998,324.999988,324.999988,99.55937142857142,99.50748333333334,99.5665,99.54614285714285,0.10424999999999995,-0.023666666666666725,-0.0698333333333333,0.15266666666666673,-0.04833333333333201,-0.04833333333333201,1.395,1.3824999999999998,38.185,29.796666666666667,38.012,34.9565,56.215,35.221000000000004,59.3755,52.1995,54.125,34.318,57.9745,50.532,53.269999999999996,33.838499999999996,57.9,49.94133333333333,-0.07099999999999995,-0.07950000000000013,0.10724500000000001,0.10421000000000001,0.0,211.425,211.39499999999998,207.94,207.94,0.0,0.0
18,0.0,1.0,0.0,1.0,1.0,0.0,0.0,1.0,0.0,100.0,1.0,1.1856,26.0,0.0,0.0,0.0,59.999996,0.0,26.0,26.0,26.0,26.0,0.0011111111111110628,0.22160000000000002,-0.061775000000000004,292.953,-2.7484,-2.589,-1.60425,-1.4607999999999999,-215.82999999999998,215.945,190.620625,0.0,0.0,0.0,0.0,0.03639999999999999,-5.498166666666667,-5.498166666666667,-0.5658000000000001,-0.589,0.021625000000000005,0.933,67.604,0.019100000000000002,-0.228475,0.2400000000000002,100.0,1.0,1.0,208.24333333333334,0.0,0.0,0.0,0.0,0.0,0.0,0.0,8031.4,0.0,55.0,5.0,243.35000000000002,0.0,0.0,0.0,0.0,0.0,0.0,1.0,0.0,0.9029999999999987,0.9029999999999987,0.0,0.0,0.0,55.0,616.79921,10000.0,85.000001,85.000001,85.000001,85.000001,395.0,0.0,0.0,0.0,1.0,333.33500000000004,52.658,52.658,48.309,48.309,34.0,-23.2425,24.52,-28.236666666666665,27.6025,0.0,1779.101,-0.019999999999999574,100.0,27.845,27.717,42.612,42.906,0.0,1.0,100.0,0.0,0.0,0.0,0.0,3030.5714285714284,3178.1,4024.375,4078.1000000000004,305.69,304.91225,315.05125,314.8225,21.9585,20.6126,21.9318,21.4416,314.999998,314.999998,324.999988,324.999988,99.55938571428571,99.50748333333334,99.56662857142857,99.54625714285714,0.08899999999999997,-0.04033333333333311,-0.09450000000000003,0.1186666666666667,-0.041666666666671404,-0.054999999999999716,1.3785,1.4005,38.241,29.828666666666663,38.074,35.01,56.202,35.2555,59.4065,52.252,54.111999999999995,34.35,58.003,50.583,53.256,33.8695,57.926,49.99133333333333,-0.07450000000000001,-0.07850000000000001,0.09992500000000001,0.09478,0.0,211.70499999999998,211.675,208.24333333333334,208.2425,0.0,0.0
19,0.0,1.0,0.0,1.0,1.0,0.0,0.0,1.0,0.0,100.0,1.0,1.1856,26.0,0.0,0.0,0.0,59.999996,0.0,26.0,26.0,26.0,26.0,-0.009444444444444478,0.2390000000000001,0.01435,292.45,-2.7114,-2.5860000000000003,-1.60915,-1.4529999999999998,-212.38,215.9275,190.598125,0.0,0.0,0.0,0.0,0.03839999999999999,-5.498166666666667,-5.498166666666667,-0.5637,0.8210000000000001,0.016124999999999945,-0.6400000000000001,67.713,0.0056,-0.22257500000000002,0.25,100.0,1.0,1.0,208.61,0.0,0.0,0.0,0.0,0.0,0.0,0.0,8045.6,0.0,55.0,5.0,243.74333333333334,1.0,0.0,0.0,0.0,0.0,0.0,1.0,0.0,0.9540000000000006,0.9540000000000006,0.0,0.0,1.0,55.0,616.79921,10000.0,85.000001,85.000001,85.000001,85.000001,395.0,0.0,0.0,0.0,1.0,333.33500000000004,51.712,51.712,48.385999999999996,48.385999999999996,34.0,-25.745,24.081666666666667,-30.32,27.372500000000002,0.0,1779.05,0.010000000000001563,100.0,28.3,28.243000000000002,42.353,42.766,0.0,1.0,100.0,0.0,0.0,0.0,0.0,3292.5714285714284,3180.0,4158.625,4149.4,304.9355,304.5995,314.86025,314.6615,21.9682,20.6183,21.9421,21.450499999999998,314.999998,314.999998,324.999988,324.999988,99.5594,99.5075,99.56674285714286,99.5464,0.07725000000000026,-0.05899999999999994,-0.11683333333333334,0.10549999999999993,-0.036666666666668846,-0.04833333333333201,1.4064999999999999,1.405,38.301,29.863999999999997,38.138,35.0655,56.191,35.296,59.4355,52.3055,54.101,34.387,58.0305,50.6345,53.244,33.905,57.95,50.042,-0.08350000000000002,-0.07950000000000013,0.10660000000000001,0.10245000000000001,0.0,212.065,212.055,208.61,208.60750000000002,0.0,0.0
20,0.0,1.0,0.0,1.0,1.0,0.0,0.0,1.0,0.0,100.0,1.0,1.1856,26.0,0.0,0.0,0.0,59.999996,0.0,26.0,26.0,26.0,26.0,-0.02255555555555555,0.2258,0.018725000000000002,292.511,-2.7458,-2.662111111111111,-1.5808499999999999,-1.4735,-208.93,215.9125,190.575875,0.0,0.0,0.0,0.0,0.04039999999999999,-5.498166666666667,-5.498166666666667,-0.5568000000000001,-0.9746666666666667,0.010499999999999954,0.4590000000000001,67.826,-0.0025,-0.2233,0.13200000000000145,100.0,1.0,1.0,208.79333333333335,0.0,0.0,0.0,0.0,0.0,0.0,0.0,8052.7,0.0,55.0,5.0,244.15333333333334,0.0,0.0,0.0,0.0,0.0,0.0,0.0,0.0,1.004999999999999,1.004999999999999,0.0,0.0,0.0,55.0,616.79921,10000.0,85.000001,85.000001,85.000001,85.000001,395.0,0.0,0.0,0.0,1.0,333.33500000000004,52.887,52.887,47.089,47.089,34.0,-22.755,23.299999999999997,-31.173333333333336,30.325000000000003,0.0,1778.998,0.07499999999999929,100.0,27.985,27.847,43.224000000000004,43.091,0.0,1.0,100.0,0.0,0.0,0.0,0.0,2891.0,3075.6,4256.5,4315.1,306.1045,305.129,314.4305,314.201,21.9775,20.6237,21.9527,21.459600000000002,314.999998,314.999998,324.999988,324.999988,99.5594,99.5075,99.56688571428572,99.54652857142857,0.06925000000000026,-0.06633333333333313,-0.11149999999999993,0.12183333333333324,-0.03999999999999915,-0.05833333333333002,1.3185,1.3235000000000001,38.36,29.898333333333333,38.204,35.1225,56.175,35.334,59.4705,52.362,54.086,34.4225,58.0625,50.689,53.227999999999994,33.939,57.9795,50.095666666666666,-0.07150000000000001,-0.08099999999999996,0.10418000000000001,0.11435500000000001,0.0,212.39499999999998,212.375,208.79333333333335,208.79250000000002,0.0,0.0
21,0.0,1.0,0.0,1.0,1.0,0.0,0.0,1.0,0.0,100.0,1.0,1.1856,26.0,0.0,0.0,0.0,59.999996,0.0,26.0,26.0,26.0,26.0,-0.027555555555555555,0.21660000000000013,-0.06670000000000001,292.877,-2.6494999999999997,-2.7254444444444443,-1.5904,-1.5491,-205.67000000000002,215.89499999999998,190.5545,0.0,0.0,0.0,0.0,0.042300000000000004,-5.498166666666667,-5.498166666666667,-0.5883,0.316,-0.012750000000000039,0.07600000000000007,67.926,-0.0115,-0.2394,0.2699999999999996,100.0,1.0,1.0,209.35000000000002,0.0,0.0,0.0,0.0,0.0,0.0,0.0,8074.2,0.0,55.0,5.0,244.51333333333332,1.0,0.0,0.0,0.0,0.0,0.0,0.0,0.0,1.0530000000000008,1.0530000000000008,0.0,0.0,1.0,55.0,616.79921,10000.0,85.000001,85.000001,85.000001,85.000001,395.0,0.0,0.0,0.0,1.0,333.33500000000004,52.109,52.109,48.874,48.874,34.0,-24.2425,24.723333333333333,-27.586666666666666,26.322499999999998,0.0,1778.951,-0.00999999999999801,100.0,28.338,27.948999999999998,42.719,42.726,0.0,1.0,100.0,0.0,0.0,0.0,0.0,3141.5714285714284,3124.0,3883.75,3887.6000000000004,305.199,304.89375,315.47275,315.2595,21.9865,20.629,21.9622,21.4679,314.999998,314.999998,324.999988,324.999988,99.55941428571428,99.5075,99.567,99.54664285714286,0.07224999999999993,-0.058666666666666645,-0.11666666666666659,0.10283333333333333,-0.051666666666669414,-0.04833333333333201,1.444,1.444,38.416,29.930999999999997,38.263999999999996,35.1745,56.162,35.3715,59.496,52.4095,54.073,34.457,58.0865,50.735,53.215,33.9725,58.0005,50.14066666666667,-0.07750000000000001,-0.07899999999999996,0.10523500000000001,0.10797500000000002,0.0,212.715,212.695,209.35000000000002,209.35250000000002,0.0,0.0
22,0.0,1.0,0.0,1.0,1.0,0.0,0.0,1.0,0.0,100.0,1.0,1.1856,26.0,0.0,0.0,0.0,59.999996,0.0,26.0,26.0,26.0,26.0,-0.01777777777777778,0.2097,0.04515,292.267,-2.6304,-2.731,-1.52955,-1.5888,-202.2,215.8775,190.530875,0.0,0.0,0.0,0.0,0.044300000000000006,-5.498166666666667,-5.498166666666667,-0.5659000000000001,0.16033333333333336,-0.01112499999999983,-0.347,68.038,-0.0154,-0.21527500000000002,0.27800000000000047,100.0,1.0,1.0,209.49333333333334,0.0,0.0,0.0,0.0,0.0,0.0,0.0,8079.7,0.0,55.0,5.0,244.91666666666666,0.0,0.0,0.0,0.0,0.0,0.0,0.0,0.0,1.1039999999999992,1.1039999999999992,0.0,0.0,0.0,55.0,616.79921,10000.0,85.000001,85.000001,85.000001,85.000001,395.0,0.0,0.0,0.0,1.0,333.33500000000004,52.063,52.063,47.592,47.592,34.0,-24.5,23.68333333333333,-31.406666666666666,29.1525,0.0,1778.899,-0.08999999999999986,100.0,28.297,28.137999999999998,43.01,42.907,0.0,1.0,100.0,0.0,0.0,0.0,0.0,3178.857142857143,3058.1,4226.875,4195.0,305.253,304.93275,314.58625,314.40275,21.9961,20.6345,21.9727,21.477,314.999998,314.999998,324.999988,324.999988,99.55941428571428,99.50751666666666,99.56714285714285,99.54677142857143,0.06574999999999998,-0.07533333333333325,-0.13749999999999996,0.08616666666666672,-0.05333333333332746,-0.03999999999999915,1.3315,1.329,38.474999999999994,29.965333333333334,38.329,35.231,56.149,35.41,59.5295,52.464,54.061,34.493,58.117,50.7875,53.201,34.007,58.0285,50.192,-0.09150000000000003,-0.07450000000000001,0.10697500000000001,0.10321500000000002,0.0,213.095,213.03,209.49333333333334,209.4925,0.0,0.0
23,0.0,1.0,0.0,1.0,1.0,0.0,0.0,1.0,0.0,100.0,1.0,1.1856,26.0,0.0,0.0,0.0,59.999996,0.0,26.0,26.0,26.0,26.0,-0.0013333333333332975,0.20110000000000006,-0.035725,292.374,-2.6648,-2.6773333333333333,-1.51145,-1.6045,-198.51999999999998,215.86,190.50625,0.0,0.0,0.0,0.0,0.046466666666666545,-5.498166666666667,-5.498166666666667,-0.5836,-0.3773333333333333,-0.011624999999999996,-0.6760000000000002,68.152,-0.014100000000000001,-0.24147500000000002,0.2140000000000004,100.0,1.0,1.0,209.91666666666669,0.0,0.0,0.0,0.0,0.0,0.0,0.0,8096.0,0.0,55.0,5.0,245.32666666666665,1.0,0.0,0.0,0.0,0.0,0.0,0.0,0.0,1.1580000000000013,1.1580000000000013,0.0,0.0,1.0,55.0,616.79921,10000.0,85.000001,85.000001,85.000001,85.000001,395.0,0.0,0.0,0.0,1.0,166.665,51.788,51.788,48.400999999999996,48.400999999999996,34.0,-26.3875,23.151666666666667,-28.18,27.6725,0.0,1778.847,-0.134999999999998,100.0,28.392,28.2,43.187,43.188,0.0,1.0,100.0,0.0,0.0,0.0,0.0,3376.714285714286,3034.8,3954.25,3961.8,304.787,305.04775,315.20475,314.9145,22.0061,20.6403,21.9837,21.4866,314.999998,314.999998,324.999988,324.999988,99.55942857142857,99.50753333333333,99.56727142857143,99.5469,0.0677500000000002,-0.07066666666666666,-0.12849999999999995,0.09400000000000008,-0.04999999999999716,-0.03499999999999659,1.3725,1.3855,38.538,30.002000000000002,38.397999999999996,35.291,56.134,35.451499999999996,59.5625,52.522,54.047,34.5315,58.147999999999996,50.8435,53.186,34.0435,58.0565,50.24666666666667,-0.09199999999999997,-0.07000000000000006,0.10418500000000001,0.10902,0.0,213.39499999999998,213.38,209.91666666666669,209.91750000000002,0.0,0.0
24,0.0,1.0,0.0,1.0,1.0,0.0,0.0,1.0,0.0,100.0,1.0,1.1856,26.0,0.0,0.0,0.0,59.999996,0.0,26.0,26.0,26.0,26.0,-0.02388888888888885,0.22419999999999995,-0.050925000000000005,292.664,-2.6714,-2.703555555555556,-1.5523,-1.5432,-195.45,215.8425,190.4855,0.0,0.0,0.0,0.0,0.04823333333333335,-5.498166666666667,-5.498166666666667,-0.5850000000000001,-0.27566666666666667,0.0017499999999999183,1.0,68.249,-0.0123,-0.22537500000000002,0.02200000000000024,100.0,1.0,1.0,210.16333333333333,0.0,0.0,0.0,0.0,0.0,0.0,0.0,8105.5,0.0,55.0,5.0,245.67333333333335,0.0,0.0,0.0,0.0,0.0,0.0,0.0,0.0,1.2029999999999994,1.2029999999999994,0.0,0.0,0.0,55.0,616.79921,10000.0,85.000001,85.000001,85.000001,85.000001,395.0,0.0,0.0,0.0,1.0,166.665,52.765,52.765,47.882,47.882,34.0,-22.412499999999998,22.98,-30.166666666666664,28.645,0.0,1778.803,-0.21499999999999986,100.0,28.38,27.829,43.067,42.975,0.0,1.0,100.0,0.0,0.0,0.0,0.0,2938.4285714285716,2964.9,4217.625,4118.3,305.8215,305.43925,314.64675,314.709,22.0144,20.6451,21.9928,21.4945,314.999998,314.999998,324.999988,324.999988,99.55944285714286,99.50753333333333,99.56738571428572,99.54702857142857,0.07774999999999999,-0.06033333333333313,-0.11466666666666658,0.10683333333333334,-0.03333333333333144,-0.04333333333332945,1.383,1.3735,38.59,30.032,38.455,35.3405,56.120999999999995,35.4845,59.589,52.569,54.035,34.562,58.1725,50.8885,53.174,34.073,58.0785,50.291,-0.09499999999999997,-0.06350000000000011,0.10244500000000001,0.10650000000000001,0.0,213.7,213.685,210.16333333333333,210.16250000000002,0.0,0.0
25,0.0,1.0,0.0,1.0,1.0,0.0,0.0,1.0,0.0,100.0,1.0,1.1856,26.0,0.0,0.0,0.0,59.999996,0.0,26.0,26.0,26.0,26.0,0.007000000000000117,0.20640000000000014,-0.0671,292.77,-2.6793,-2.6851111111111114,-1.5764,-1.5393,-191.97,215.8225,190.460625,0.0,0.0,0.0,0.0,0.05026666666666657,-5.498166666666667,-5.498166666666667,-0.6206,-0.3313333333333333,0.010000000000000009,-0.7429999999999999,68.355,-0.0082,-0.23777500000000001,-0.07200000000000095,100.0,1.0,1.0,210.60000000000002,0.0,0.0,0.0,0.0,0.0,0.0,0.0,8122.3,0.0,55.0,5.0,246.05666666666667,1.0,0.0,0.0,0.0,0.0,0.0,0.0,0.0,1.2540000000000013,1.2540000000000013,0.0,0.0,1.0,55.0,616.79921,10000.0,85.000001,85.000001,85.000001,85.000001,395.0,0.0,0.0,0.0,1.0,333.33500000000004,52.138999999999996,52.138999999999996,48.400999999999996,48.400999999999996,34.0,-24.3875,25.086666666666666,-27.979999999999997,26.58,0.0,1778.75,-0.259999999999998,100.0,28.066,28.084,42.81,42.831,0.0,1.0,100.0,0.0,0.0,0.0,0.0,3154.4285714285716,3165.1,3902.25,3929.6000000000004,305.403,304.6395,315.40425,315.144,22.023699999999998,20.6506,22.0031,21.5034,314.999998,314.999998,324.999988,324.999988,99.55944285714286,99.50753333333333,99.56751428571428,99.54715714285715,0.0717500000000002,-0.05466666666666664,-0.1223333333333334,0.10116666666666685,-0.03166666666666629,-0.03999999999999915,1.4244999999999999,1.4264999999999999,38.647999999999996,30.066333333333333,38.519,35.3965,56.105000000000004,35.5225,59.618,52.6205,54.019999999999996,34.597,58.1995,50.938,53.158,34.1065,58.1025,50.339333333333336,-0.09999999999999998,-0.05600000000000005,0.107795,0.10508,0.0,214.01,214.01,210.60000000000002,210.60000000000002,0.0,0.0
26,0.0,1.0,0.0,1.0,1.0,0.0,0.0,1.0,0.0,100.0,1.0,1.1856,26.0,0.0,0.0,0.0,59.999996,0.0,26.0,26.0,26.0,26.0,0.0043333333333333,0.22250000000000014,0.07435,291.534,-2.7164,-2.714444444444444,-1.6211,-1.5314999999999999,-188.28,215.8025,190.4335,0.0,0.0,0.0,0.0,0.0524,-5.498166666666667,-5.498166666666667,-0.5848,0.8653333333333334,-0.007000000000000117,-0.6419999999999999,68.47,0.0006000000000000001,-0.20900000000000002,-0.08200000000000074,100.0,1.0,1.0,210.74666666666667,0.0,0.0,0.0,0.0,0.0,0.0,0.0,8128.0,0.0,55.0,5.0,246.47,0.0,0.0,0.0,0.0,0.0,0.0,0.0,0.0,1.3079999999999998,1.3079999999999998,0.0,0.0,0.0,55.0,616.79921,10000.0,85.000001,85.000001,85.000001,85.000001,395.0,0.0,0.0,0.0,1.0,166.665,51.269999999999996,51.269999999999996,46.982,46.982,34.0,-24.73,24.884999999999998,-33.906666666666666,31.655,0.0,1778.697,-0.3150000000000013,100.0,28.895,28.852,43.002,43.133,0.0,1.0,100.0,0.0,0.0,0.0,0.0,3272.142857142857,3099.6,4499.0,4385.7,305.0125,304.72375,314.0565,314.011,22.0339,20.6567,22.014,21.512999999999998,314.999998,314.999998,324.999988,324.999988,99.55945714285714,99.50755,99.56767142857143,99.5473,0.09699999999999998,-0.05499999999999994,-0.11399999999999999,0.11733333333333329,-0.046666666666666856,-0.03333333333333144,1.3005,1.3119999999999998,38.712,30.104666666666667,38.588,35.456,56.095,35.566,59.6515,52.6775,54.009,34.637,58.2305,50.9935,53.146,34.144999999999996,58.1305,50.39366666666667,-0.11149999999999993,-0.06350000000000011,0.10281000000000001,0.113695,0.0,214.425,214.405,210.74666666666667,210.7475,0.0,0.0
27,0.0,1.0,0.0,1.0,1.0,0.0,0.0,1.0,0.0,100.0,1.0,1.1856,26.0,0.0,0.0,0.0,59.999996,0.0,26.0,26.0,26.0,26.0,0.0014444444444445814,0.2036,0.028,291.733,-2.6875,-2.676555555555556,-1.6173000000000002,-1.5988,-185.19,215.7875,190.412,0.0,0.0,0.0,0.0,0.054199999999999915,-5.498166666666667,-5.498166666666667,-0.5981000000000001,-1.0263333333333333,0.00374999999999992,0.764,68.565,0.006900000000000001,-0.2449,-0.24399999999999977,100.0,1.0,1.0,211.04333333333335,0.0,0.0,0.0,0.0,0.0,0.0,0.0,8139.5,0.0,55.0,5.0,246.81333333333333,1.0,0.0,0.0,0.0,0.0,0.0,0.0,0.0,1.352999999999998,1.352999999999998,0.0,0.0,1.0,55.0,616.79921,10000.0,85.000001,85.000001,85.000001,85.000001,395.0,0.0,0.0,0.0,1.0,333.33500000000004,51.772999999999996,51.772999999999996,47.012,47.012,34.0,-22.6325,25.615000000000002,-30.103333333333335,32.0475,0.0,1778.652,-0.34999999999999787,100.0,28.688,28.483,43.821,43.752,0.0,1.0,100.0,0.0,0.0,0.0,0.0,3058.5714285714284,3192.6,4130.75,4264.3,305.4675,304.764,314.739,314.221,22.0421,20.6617,22.0234,21.5212,314.999998,314.999998,324.999988,324.999988,99.55947142857143,99.50756666666666,99.56778571428572,99.54741428571428,0.10099999999999998,-0.04066666666666663,-0.10116666666666663,0.12366666666666681,-0.054999999999999716,-0.03333333333333144,1.312,1.3159999999999998,38.763,30.135333333333335,38.646,35.5075,56.083,35.5995,59.6815,52.728,53.998000000000005,34.6685,58.2585,51.042,53.134,34.175,58.1555,50.441,-0.10649999999999993,-0.05449999999999999,0.103135,0.105535,0.0,214.64499999999998,214.65,211.04333333333335,211.04500000000002,0.0,0.0
28,0.0,1.0,0.0,1.0,1.0,0.0,0.0,1.0,0.0,100.0,1.0,1.1856,26.0,0.0,0.0,0.0,59.999996,0.0,26.0,26.0,26.0,26.0,0.03133333333333321,0.2076,-0.048100000000000004,292.267,-2.7038,-2.6718888888888888,-1.56455,-1.5638999999999998,-181.69,215.76749999999998,190.38725,0.0,0.0,0.0,0.0,0.05623333333333336,-5.498166666666667,-5.498166666666667,-0.6165,0.5006666666666667,-0.007874999999999854,-0.5699999999999998,68.668,0.0137,-0.236775,-0.2579999999999991,100.0,1.0,1.0,211.55,0.0,0.0,0.0,0.0,0.0,0.0,0.0,8159.0,0.0,55.0,5.0,247.18333333333334,0.0,0.0,0.0,0.0,0.0,0.0,0.0,0.0,1.404,1.404,0.0,0.0,0.0,55.0,616.79921,10000.0,85.000001,85.000001,85.000001,85.000001,395.0,0.0,0.0,0.0,1.0,166.665,51.727000000000004,51.727000000000004,48.141,48.141,34.0,-24.38,24.845,-27.673333333333332,28.4725,0.0,1778.602,-0.40500000000000114,100.0,28.534,28.569,43.071,43.31,0.0,1.0,100.0,0.0,0.0,0.0,0.0,3249.714285714286,3072.9,3991.25,3985.2,305.123,304.90975,315.203,315.01875,22.0515,20.6673,22.0335,21.53,314.999998,314.999998,324.999988,324.999988,99.55948571428571,99.50756666666666,99.56791428571428,99.54754285714286,0.09675000000000011,-0.038000000000000034,-0.10250000000000004,0.12166666666666681,-0.03333333333333144,-0.05666666666667197,1.4084999999999999,1.4055,38.822,30.170666666666666,38.709,35.5625,56.071,35.638,59.708,52.7785,53.986999999999995,34.704,58.283,51.0905,53.122,34.209,58.177,50.48833333333333,-0.11049999999999993,-0.05049999999999999,0.111945,0.10169500000000001,0.0,215.005,215.01999999999998,211.55,211.55,0.0,0.0
29,0.0,1.0,0.0,1.0,1.0,0.0,0.0,1.0,0.0,100.0,1.0,1.1856,26.0,0.0,0.0,0.0,59.999996,0.0,26.0,26.0,26.0,26.0,0.028444444444444272,0.20999999999999996,0.0229,291.84,-2.6688,-2.614,-1.5683,-1.5463,-177.98000000000002,215.7475,190.359625,0.0,0.0,0.0,0.0,0.05840000000000001,-5.498166666666667,-5.498166666666667,-0.6106,-0.6813333333333333,0.002874999999999961,-0.5110000000000001,68.783,0.021,-0.22025,-0.34999999999999964,100.0,1.0,1.0,211.7,0.0,0.0,0.0,0.0,0.0,0.0,0.0,8164.8,0.0,55.0,5.0,247.59666666666666,1.0,0.0,0.0,0.0,0.0,0.0,0.0,0.0,1.4579999999999984,1.4579999999999984,0.0,0.0,1.0,55.0,616.79921,10000.0,85.000001,85.000001,85.000001,85.000001,395.0,0.0,0.0,0.0,1.0,166.665,51.894999999999996,51.894999999999996,46.906,46.906,34.0,-22.7275,26.085,-30.196666666666665,31.3275,0.0,1778.548,-0.4349999999999987,100.0,28.185,28.364,43.316,43.596000000000004,0.0,1.0,100.0,0.0,0.0,0.0,0.0,3151.285714285714,3236.9,4288.75,4247.5,305.393,304.52075,314.452,314.29875,22.0612,20.6732,22.0445,21.5397,314.999998,314.999998,324.999988,324.999988,99.5595,99.50756666666666,99.56804285714286,99.54768571428572,0.10775000000000023,-0.02966666666666673,-0.09433333333333338,0.1273333333333333,-0.036666666666668846,-0.03166666666666629,1.3295,1.3115,38.882999999999996,30.207666666666668,38.778,35.623,56.057,35.6765,59.7415,52.8365,53.973,34.7395,58.314,51.1465,53.107,34.2435,58.205,50.54333333333334,-0.11049999999999993,-0.04849999999999999,0.10261,0.10835000000000002,0.0,215.32999999999998,215.335,211.7,211.7,0.0,0.0
30,0.0,1.0,0.0,1.0,1.0,0.0,0.0,1.0,0.0,100.0,1.0,1.1856,26.0,0.0,0.0,0.0,59.999996,0.0,26.0,26.0,26.0,26.0,0.03988888888888886,0.21120000000000005,0.019700000000000002,291.473,-2.7225,-2.738777777777778,-1.5451000000000001,-1.496,-174.88,215.73250000000002,190.3365,0.0,0.0,0.0,0.0,0.06019999999999992,-5.498166666666667,-5.498166666666667,-0.6214000000000001,0.561,0.005249999999999977,0.5129999999999999,68.874,0.025,-0.23370000000000002,-0.5139999999999993,100.0,1.0,1.0,212.06,0.0,0.0,0.0,0.0,0.0,0.0,0.0,8178.7,0.0,55.0,5.0,247.92333333333335,0.0,0.0,0.0,0.0,0.0,0.0,1.0,0.0,1.5030000000000001,1.5030000000000001,0.0,0.0,0.0,55.0,616.79921,10000.0,85.000001,85.000001,85.000001,85.000001,395.0,0.0,0.0,0.0,1.0,333.33500000000004,50.812,50.812,47.287,47.287,34.0,-24.12,29.721666666666664,-27.046666666666667,32.2175,0.0,1778.501,-0.4450000000000003,100.0,28.879,28.931,43.164,43.487,0.0,1.0,100.0,0.0,0.0,0.0,0.0,3293.0,3467.8,4104.625,4316.0,304.9565,303.9185,314.85725,314.3055,22.0696,20.6784,22.0535,21.5477,314.999998,314.999998,324.999988,324.999988,99.55951428571429,99.50756666666666,99.56815714285715,99.5478,0.11575000000000024,-0.021666666666666723,-0.07333333333333336,0.1543333333333332,-0.026666666666670835,-0.05333333333332746,1.381,1.3595000000000002,38.935,30.240000000000002,38.834,35.673,56.048,35.712,59.766,52.8835,53.965,34.7725,58.3365,51.192,53.098,34.275,58.225,50.587666666666664,-0.11699999999999999,-0.044499999999999984,0.106825,0.108075,0.0,215.61,215.67000000000002,212.06,212.06,0.0,0.0
31,0.0,1.0,0.0,1.0,1.0,0.0,0.0,1.0,0.0,100.0,1.0,1.1856,26.0,0.0,0.0,0.0,59.999996,0.0,26.0,26.0,26.0,26.0,0.04355555555555557,0.2148000000000001,0.0545,291.26,-2.7424,-2.615222222222222,-1.6251,-1.488,-171.37,215.7175,190.31075,0.0,0.0,0.0,0.0,0.06223333333333336,-5.498166666666667,-5.498166666666667,-0.5939,-0.19366666666666665,0.009749999999999925,-1.072,68.98,0.0291,-0.222675,-0.35999999999999943,100.0,1.0,1.0,212.24,0.0,0.0,0.0,0.0,0.0,0.0,0.0,8185.6,0.0,55.0,5.0,248.30666666666667,1.0,0.0,0.0,0.0,0.0,0.0,1.0,0.0,1.5539999999999985,1.5539999999999985,0.0,0.0,1.0,55.0,616.79921,10000.0,85.000001,85.000001,85.000001,85.000001,395.0,0.0,0.0,0.0,1.0,333.33500000000004,51.605000000000004,51.605000000000004,46.143,46.143,34.0,-22.2275,25.035,-32.00333333333333,32.365,0.0,1778.451,-0.4450000000000003,100.0,28.744,29.149,43.597,44.278,0.0,1.0,100.0,0.0,0.0,0.0,0.0,3056.0,3111.3,4485.5,4365.7,305.701,304.769,314.11775,313.90775,22.0789,20.6842,22.0639,21.5569,314.999998,314.999998,324.999988,324.999988,99.55952857142857,99.50758333333333,99.5683,99.54792857142857,0.11624999999999996,-0.030999999999999917,-0.08283333333333331,0.13883333333333336,-0.041666666666671404,-0.02833333333332888,1.309,1.301,38.992999999999995,30.276,38.899,35.731,56.038,35.7505,59.7985,52.9405,53.955,34.8085,58.367,51.247,53.087,34.3095,58.251999999999995,50.641666666666666,-0.11649999999999994,-0.05049999999999999,0.10594,0.10895500000000001,0.0,215.95499999999998,215.965,212.24,212.24,0.0,0.0
32,0.0,1.0,0.0,1.0,1.0,0.0,0.0,1.0,0.0,100.0,1.0,1.1856,26.0,0.0,0.0,0.0,59.999996,0.0,26.0,26.0,26.0,26.0,0.0387777777777778,0.20320000000000005,-0.071175,291.855,-2.7283,-2.6771111111111114,-1.66245,-1.5946,-167.85,215.7025,190.28575,0.0,0.0,0.0,0.0,0.06429999999999991,-5.498166666666667,-5.498166666666667,-0.6146,-0.08233333333333333,-0.007249999999999979,-0.0129999999999999,69.081,0.030600000000000002,-0.24000000000000002,-0.4479999999999986,100.0,1.0,1.0,212.76,0.0,0.0,0.0,0.0,0.0,0.0,0.0,8205.6,0.0,55.0,5.0,248.67000000000002,0.0,0.0,0.0,0.0,0.0,0.0,1.0,0.0,1.6050000000000004,1.6050000000000004,0.0,0.0,0.0,55.0,616.79921,10000.0,85.000001,85.000001,85.000001,85.000001,395.0,0.0,0.0,0.0,1.0,166.665,51.453,51.453,47.409,47.409,34.0,-22.11,26.85,-27.123333333333335,31.427500000000002,0.0,1778.4,-0.5,100.0,28.745,28.98,43.574,44.0,0.0,1.0,100.0,0.0,0.0,0.0,0.0,3094.142857142857,3197.3,3985.5,4067.5,305.4645,304.657,315.284,314.887,22.0881,20.69,22.0741,21.566,314.999998,314.999998,324.999988,324.999988,99.55954285714286,99.50758333333333,99.56841428571428,99.54807142857143,0.12650000000000006,-0.01633333333333331,-0.06799999999999995,0.15866666666666673,-0.021666666666668277,-0.04333333333332945,1.411,1.3915,39.051,30.312333333333335,38.963,35.7875,56.025999999999996,35.789500000000004,59.827,52.993,53.944,34.844,58.3935,51.2975,53.074,34.344,58.2755,50.691,-0.11849999999999994,-0.04849999999999999,0.101955,0.10577,0.0,216.25,216.265,212.76,212.76,0.0,0.0
33,0.0,1.0,0.0,1.0,1.0,0.0,0.0,1.0,0.0,100.0,1.0,1.1856,26.0,0.0,0.0,0.0,59.999996,0.0,26.0,26.0,26.0,26.0,0.04355555555555557,0.2168000000000001,-0.086175,291.87,-2.6743,-2.666888888888889,-1.6108,-1.5821,-164.53,215.6875,190.261125,0.0,0.0,0.0,0.0,0.06619999999999993,-5.498166666666667,-5.498166666666667,-0.6207,-0.138,-0.012125000000000163,1.013,69.179,0.032100000000000004,-0.22745,-0.4239999999999995,100.0,1.0,1.0,212.98666666666668,0.0,0.0,0.0,0.0,0.0,0.0,0.0,8214.4,0.0,55.0,5.0,249.02333333333334,1.0,0.0,0.0,0.0,0.0,0.0,1.0,0.0,1.6529999999999987,1.6529999999999987,0.0,0.0,1.0,55.0,616.79921,10000.0,85.000001,85.000001,85.000001,85.000001,395.0,0.0,0.0,0.0,1.0,333.33500000000004,51.834,51.834,47.287,47.287,34.0,-20.9,25.881666666666668,-27.763333333333335,31.995,0.0,1778.35,-0.5300000000000011,100.0,28.677,28.794,43.461,43.915,0.0,1.0,100.0,0.0,0.0,0.0,0.0,3003.0,3121.0,4117.75,4176.0,305.6285,304.95575,314.89875,314.59375,22.0968,20.6952,22.0837,21.5745,314.999998,314.999998,324.999988,324.999988,99.55955714285714,99.50758333333333,99.56854285714286,99.54818571428571,0.12875000000000014,-0.01766666666666672,-0.06899999999999995,0.14916666666666667,-0.03166666666666629,-0.04833333333333201,1.3855,1.3545,39.105000000000004,30.345,39.022999999999996,35.841,56.016,35.823,59.854,53.043,53.934,34.8755,58.4185,51.3455,53.063,34.374,58.298,50.73833333333333,-0.11849999999999994,-0.04400000000000004,0.09418000000000001,0.10741500000000001,0.0,216.57,216.57999999999998,212.98666666666668,212.985,0.0,0.0
34,0.0,1.0,0.0,1.0,1.0,0.0,0.0,1.0,0.0,100.0,1.0,1.1856,26.0,0.0,0.0,0.0,59.999996,0.0,26.0,26.0,26.0,26.0,0.052000000000000046,0.19520000000000004,-0.055475000000000003,292.084,-2.7578,-2.6,-1.6434000000000002,-1.5255999999999998,-161.0,215.675,190.23375,0.0,0.0,0.0,0.0,0.06826666666666659,-5.498166666666667,-5.498166666666667,-0.6437,-0.8383333333333334,0.01662499999999989,-0.05799999999999983,69.282,0.033100000000000004,-0.228725,-0.3620000000000001,100.0,1.0,1.0,213.3,0.0,0.0,0.0,0.0,0.0,0.0,0.0,8226.5,0.0,55.0,5.0,249.39666666666665,0.0,0.0,0.0,0.0,0.0,0.0,1.0,0.0,1.7040000000000006,1.7040000000000006,0.0,0.0,0.0,55.0,616.79921,10000.0,85.000001,85.000001,85.000001,85.000001,395.0,0.0,0.0,0.0,1.0,333.33500000000004,52.17,52.17,47.913,47.913,34.0,-22.445,24.276666666666667,-27.78,31.8475,0.0,1778.3,-0.5449999999999982,100.0,28.274,28.674,43.265,44.059,0.0,1.0,100.0,0.0,0.0,0.0,0.0,3127.142857142857,3007.0,3999.0,4228.7,305.5915,305.27125,315.2445,314.375,22.1059,20.7007,22.093899999999998,21.5836,314.999998,314.999998,324.999988,324.999988,99.55957142857143,99.50758333333333,99.56868571428572,99.54832857142857,0.1259999999999999,-0.0173333333333332,-0.07983333333333331,0.14900000000000002,-0.05333333333332746,-0.051666666666669414,1.3679999999999999,1.3515000000000001,39.162,30.379666666666665,39.087,35.8975,56.003,35.858000000000004,59.882,53.097,53.922,34.908,58.444,51.3975,53.051,34.405,58.320499999999996,50.789,-0.125,-0.03849999999999998,0.10305500000000001,0.10841500000000001,0.0,216.875,216.9,213.3,213.3,0.0,0.0
35,0.0,1.0,0.0,1.0,1.0,0.0,0.0,1.0,0.0,100.0,1.0,1.1856,26.0,0.0,0.0,0.0,59.999996,0.0,26.0,26.0,26.0,26.0,0.02722222222222226,0.2076,-0.062125,292.206,-2.7997,-2.5918888888888887,-1.6365500000000002,-1.4885,-157.45999999999998,215.6625,190.20475,0.0,0.0,0.0,0.0,0.07033333333333336,-5.498166666666667,-5.498166666666667,-0.6873,-0.675,0.0129999999999999,-0.10199999999999987,69.384,0.036000000000000004,-0.24205000000000002,-0.5380000000000003,100.0,1.0,1.0,213.66666666666669,0.0,0.0,0.0,0.0,0.0,0.0,0.0,8240.7,0.0,55.0,5.0,249.76333333333332,1.0,0.0,0.0,0.0,0.0,0.0,1.0,0.0,1.754999999999999,1.754999999999999,0.0,0.0,1.0,55.0,616.79921,10000.0,85.000001,85.000001,85.000001,85.000001,395.0,0.0,0.0,0.0,1.0,166.665,51.956,51.956,47.333,47.333,34.0,-21.905,27.7,-27.696666666666665,28.965,0.0,1778.251,-0.4499999999999993,100.0,28.171,28.554000000000002,43.077,43.614000000000004,0.0,1.0,100.0,0.0,0.0,0.0,0.0,2993.285714285714,3349.5,4101.875,3975.5,305.7725,304.274,314.993,315.10075,22.1149,20.7064,22.1039,21.5926,314.999998,314.999998,324.999988,324.999988,99.5596,99.50758333333333,99.56881428571428,99.54845714285715,0.12700000000000022,-0.009666666666666712,-0.0665,0.15366666666666684,-0.03999999999999915,-0.041666666666671404,1.4095,1.396,39.218,30.415,39.15,35.954,55.989000000000004,35.8945,59.908500000000004,53.1485,53.909,34.942,58.4685,51.4475,53.036,34.4375,58.342,50.837666666666664,-0.12049999999999994,-0.04249999999999998,0.10707000000000001,0.09871,0.0,217.15,217.20499999999998,213.66666666666669,213.66750000000002,0.0,0.0
