,ABS Active,ABS Enabled,AID Allow Tire Blankets,AID Auto Blip,AID Auto Clutch,AID Auto Shift,AID Fuel Rate,AID Ideal Line,AID Mech Damage,AID Stability,AID Tire Wear Rate,Air Density,Air Temp,Ballast,Best Lap Delta,Best Lap Time,Brake Bias,Brake Pos,Brake Temp FL,Brake Temp FR,Brake Temp RL,Brake Temp RR,CG Accel Lateral,CG Accel Longitudinal,CG Accel Vertical,CG Height,Camber FL,Camber FR,Camber RL,Camber RR,Car Coord X,Car Coord Y,Car Coord Z,Car Damage Front,Car Damage Left,Car Damage Rear,Car Damage Right,Car Pos Norm,Caster FL,Caster FR,Chassis Pitch Angle,Chassis Pitch Rate,Chassis Roll Angle,Chassis Roll Rate,Chassis Velocity X,Chassis Velocity Y,Chassis Velocity Z,Chassis Yaw Rate,Clutch Pos,DRS Active,DRS Available,Drive Train Speed,ERS Heat Charging,ERS Is Charging,ERS Max Energy,ERS Power Level,ERS Recovery Level,Engine Brake Setting,Engine Limiter,Engine RPM,Flags,Fuel Level,Gear,Ground Speed,HR Sample Clock,In Pit,KERS Charge,KERS Deployed Energy,KERS Input,KERS Max Energy,LR Sample Clock,Lap Invalidated,Lap Time,Lap Time2,Last Lap Time,Last Sector Time,MR Sample Clock,Max Fuel,Max Power,Max RPM,Max Sus Travel FL,Max Sus Travel FR,Max Sus Travel RL,Max Sus Travel RR,Max Torque,Max Turbo Boost,Num Tires Off Track,Penalties Enabled,Position,Raw Data Sample Rate,Ride Height FL,Ride Height FR,Ride Height RL,Ride Height RR,Road Temp,Self Align Torque FL,Self Align Torque FR,Self Align Torque RL,Self Align Torque RR,Session Lap Count,Session Time Left,Steering Angle,Surface Grip,Suspension Travel FL,Suspension Travel FR,Suspension Travel RL,Suspension Travel RR,TC Active,TC Enabled,Throttle Pos,Tire Dirt Level FL,Tire Dirt Level FR,Tire Dirt Level RL,Tire Dirt Level RR,Tire Load FL,Tire Load FR,Tire Load RL,Tire Load RR,Tire Loaded Radius FL,Tire Loaded Radius FR,Tire Loaded Radius RL,Tire Loaded Radius RR,Tire Pressure FL,Tire Pressure FR,Tire Pressure RL,Tire Pressure RR,Tire Radius FL,Tire Radius FR,Tire Radius RL,Tire Radius RR,Tire Rubber Grip FL,Tire Rubber Grip FR,Tire Rubber Grip RL,Tire Rubber Grip RR,Tire Slip Angle FL,Tire Slip Angle FR,Tire Slip Angle RL,Tire Slip Angle RR,Tire Slip Ratio FL,Tire Slip Ratio FR,Tire Slip Ratio RL,Tire Slip Ratio RR,Tire Temp Core FL,Tire Temp Core FR,Tire Temp Core RL,Tire Temp Core RR,Tire Temp Inner FL,Tire Temp Inner FR,Tire Temp Inner RL,Tire Temp Inner RR,Tire Temp Middle FL,Tire Temp Middle FR,Tire Temp Middle RL,Tire Temp Middle RR,Tire Temp Outer FL,Tire Temp Outer FR,Tire Temp Outer RL,Tire Temp Outer RR,Toe In FL,Toe In FR,Toe In RL,Toe In RR,Turbo Boost,Wheel Angular Speed FL,Wheel Angular Speed FR,Wheel Angular Speed RL,Wheel Angular Speed RR,Wind Direction,Wind Speed
0,0.0,1.0,0.0,1.0,1.0,0.0,0.0,1.0,0.0,100.0,1.0,1.1856,26.0,0.0,0.0,0.0,59.99999,0.0,26.0,26.0,26.0,26.0,-0.06999999999999995,0.21440000000000015,0.0158,293.991,-2.7284,-2.6501428571428574,-1.5243,-1.5526,-275.76,216.29500000000002,190.988,0.0,0.0,0.0,0.0,0.0015333333333333334,-5.498166666666667,-5.498166666666667,-0.5571,0.7725,-0.0016666666666669272,-1.1360000000000001,65.554,-0.029900000000000003,-0.22060000000000002,1.0120000000000005,100.0,1.0,1.0,202.01666666666665,0.0,0.0,0.0,0.0,0.0,0.0,0.0,7555.6,0.0,55.0,5.0,235.97,0.0,0.0,0.0,0.0,0.0,0.0,0.0,0.0,0.0030000000000001137,0.0030000000000001137,0.0,0.0,0.0,55.0,616.79921,10000.0,85.0,85.0,85.0,85.0,395.0,0.0,0.0,0.0,1.0,20.0,52.582,52.582,49.835,49.835,34.0,-27.1775,23.96,-29.826666666666668,25.2375,0.0,1782.535,0.8350000000000009,100.0,27.351,27.015,40.552,40.733000000000004,0.0,1.0,100.0,0.0,0.0,0.0,0.0,3100.285714285714,3411.0,4016.125,3913.9,305.4775,303.95175,315.098,315.0235,21.777,20.5121,21.740099999999998,21.2818,314.99999,314.99999,324.99998,324.99998,99.55881428571429,99.50715,99.56412857142857,99.54408571428571,0.0024999999999999467,-0.11399999999999999,-0.15183333333333335,0.07116666666666667,-0.03499999999999659,-0.030000000000001137,1.3703333333333334,1.4055,37.105999999999995,29.200666666666663,36.876000000000005,34.010999999999996,56.275,34.4465,58.7425,51.2815,54.193,33.622,57.387,49.6515,53.364,33.189,57.3615,49.07833333333333,-0.0129999999999999,-0.1339999999999999,0.09744000000000001,0.1121,0.0,205.43,205.325,202.01666666666665,202.01749999999998,0.0,0.0
1,0.0,1.0,0.0,1.0,1.0,0.0,0.0,1.0,0.0,100.0,1.0,1.1856,26.0,0.0,0.0,0.0,59.999996,0.0,26.0,26.0,26.0,26.0,-0.10133333333333339,0.2491000000000001,0.19063333333333332,292.847,-2.6348,-2.759,-1.526,-1.5476,-272.22,216.29000000000002,190.9665,0.0,0.0,0.0,0.0,0.0036000000000000003,-5.498166666666667,-5.498166666666667,-0.5053,-0.6385000000000001,-0.05266666666666664,-0.6890000000000001,65.67699999999999,-0.051500000000000004,-0.20485,1.4060000000000006,100.0,1.0,1.0,202.07333333333332,0.0,0.0,0.0,0.0,0.0,0.0,0.0,7557.7,0.0,55.0,5.0,236.41666666666669,1.0,0.0,0.0,0.0,0.0,0.0,0.0,0.0,0.05699999999999861,0.05699999999999861,0.0,0.0,1.0,55.0,616.79921,10000.0,85.000001,85.000001,85.000001,85.000001,395.0,0.0,0.0,0.0,1.0,166.665,53.146,53.146,48.309,48.309,34.0,-27.6675,18.563333333333333,-35.96333333333333,29.825,0.0,1782.484,0.8449999999999989,100.0,27.803,27.288,42.365,41.706,0.0,1.0,100.0,0.0,0.0,0.0,0.0,3169.4285714285716,2739.4,4420.375,4712.4,305.257,306.09775,313.98225,313.0955,21.7875,20.5177,21.7515,21.2913,314.999998,314.999998,324.999988,324.999988,99.55882857142858,99.50718333333333,99.56427142857143,99.54421428571429,-0.011749999999999927,-0.13624999999999998,-0.1775,0.035333333333333335,-0.03833333333332689,-0.051666666666669414,1.2026666666666666,1.2555,37.172,29.235333333333333,36.947,34.070499999999996,56.259,34.4915,58.782,51.341499999999996,54.178,33.6635,57.4245,49.709,53.347,33.229,57.3955,49.135,-0.008999999999999897,-0.137,0.10382500000000001,0.106105,0.0,205.825,205.71,202.07333333333332,202.0725,0.0,0.0
2,0.0,1.0,0.0,1.0,1.0,0.0,0.0,1.0,0.0,100.0,1.0,1.1856,26.0,0.0,0.0,0.0,59.999996,0.0,26.0,26.0,26.0,26.0,-0.12711111111111106,0.22330000000000005,-0.030333333333333334,293.671,-2.6054,-2.7884285714285717,-1.49015,-1.605,-269.06,216.2825,190.949,0.0,0.0,0.0,0.0,0.005433333333333333,-5.498166666666667,-5.498166666666667,-0.5598000000000001,-0.23449999999999993,-0.046666666666666856,1.5099999999999998,65.778,-0.0679,-0.268775,1.5200000000000005,100.0,1.0,1.0,202.84333333333333,0.0,0.0,0.0,0.0,0.0,0.0,0.0,7586.5,0.0,55.0,5.0,236.78,0.0,0.0,0.0,0.0,0.0,0.0,0.0,0.0,0.10500000000000043,0.10500000000000043,0.0,0.0,0.0,55.0,616.79921,10000.0,85.000001,85.000001,85.000001,85.000001,395.0,0.0,0.0,0.0,1.0,166.665,52.124,52.124,50.415,50.415,34.0,-30.612499999999997,19.57333333333333,-29.723333333333333,20.130000000000003,0.0,1782.435,0.8049999999999997,100.0,28.454,27.266,42.347,41.35,0.0,1.0,100.0,0.0,0.0,0.0,0.0,3424.142857142857,2932.0,3736.25,3593.9,304.412,305.467,315.66175,315.96625,21.7971,20.5224,21.7613,21.2995,314.999998,314.999998,324.999988,324.999988,99.55882857142858,99.50718333333333,99.56438571428572,99.54432857142857,-0.022749999999999937,-0.15625,-0.215,0.007333333333333333,-0.045000000000001705,-0.046666666666666856,1.4233333333333333,1.4809999999999999,37.232,29.264666666666663,37.007999999999996,34.122,56.247,34.5285,58.8115,51.3885,54.166,33.698,57.451499999999996,49.754,53.335,33.2615,57.420500000000004,49.179,-0.02200000000000002,-0.13949999999999996,0.105925,0.10221000000000001,0.0,206.11,205.965,202.84333333333333,202.845,0.0,0.0
3,0.0,1.0,0.0,1.0,1.0,0.0,0.0,1.0,0.0,100.0,1.0,1.1856,26.0,0.0,0.0,0.0,59.999996,0.0,26.0,26.0,26.0,26.0,-0.13811111111111107,0.24330000000000007,-0.039933333333333335,293.472,-2.7234,-2.6877142857142857,-1.5069,-1.5881,-265.9,216.26999999999998,190.930625,0.0,0.0,0.0,0.0,0.007266666666666668,-5.498166666666667,-5.498166666666667,-0.5219,0.704,-0.01100000000000012,-0.8369999999999997,65.887,-0.0789,-0.2134,1.2120000000000006,100.0,1.0,1.0,202.92000000000002,0.0,0.0,0.0,0.0,0.0,0.0,0.0,7589.4,0.0,55.0,5.0,237.16666666666669,1.0,0.0,0.0,0.0,0.0,0.0,0.0,0.0,0.1529999999999987,0.1529999999999987,0.0,0.0,1.0,55.0,616.79921,10000.0,85.000001,85.000001,85.000001,85.000001,395.0,0.0,0.0,0.0,1.0,166.665,53.162,53.162,48.522999999999996,48.522999999999996,34.0,-26.645,18.2,-36.06666666666666,24.692500000000003,0.0,1782.387,0.7050000000000018,100.0,28.158,27.369,42.019,41.192,0.0,1.0,100.0,0.0,0.0,0.0,0.0,2925.4285714285716,2812.9,4326.875,4136.8,305.8855,305.673,314.3165,314.56,21.8065,20.5273,21.771,21.3077,314.999998,314.999998,324.999988,324.999988,99.55882857142858,99.50721666666666,99.5645,99.54444285714285,-0.027000000000000024,-0.15049999999999997,-0.21333333333333335,0.0175,-0.05333333333332746,-0.030000000000001137,1.309,1.3625,37.29,29.295333333333332,37.069,34.173,56.232,34.5695,58.8405,51.4385,54.152,33.7355,57.4785,49.8025,53.32,33.2975,57.445,49.22666666666667,-0.020999999999999908,-0.12300000000000022,0.105495,0.11612000000000001,0.0,206.485,206.35500000000002,202.92000000000002,202.92000000000002,0.0,0.0
4,0.0,1.0,0.0,1.0,1.0,0.0,0.0,1.0,0.0,100.0,1.0,1.1856,26.0,0.0,0.0,0.0,59.999996,0.0,26.0,26.0,26.0,26.0,-0.1527777777777778,0.22520000000000007,-0.0176,293.594,-2.6617,-2.7341428571428574,-1.52945,-1.5899,-262.54,216.2575,190.91075,0.0,0.0,0.0,0.0,0.009233333333333333,-5.498166666666667,-5.498166666666667,-0.553,-0.9415,-0.07088888888888878,-0.7169999999999996,65.998,-0.0801,-0.24702500000000002,1.1060000000000008,100.0,1.0,1.0,203.33666666666667,0.0,0.0,0.0,0.0,0.0,0.0,0.0,7604.9,0.0,55.0,5.0,237.57,0.0,0.0,0.0,0.0,0.0,0.0,0.0,0.0,0.20400000000000063,0.20400000000000063,0.0,0.0,0.0,55.0,616.79921,10000.0,85.000001,85.000001,85.000001,85.000001,395.0,0.0,0.0,0.0,1.0,333.33500000000004,52.795,52.795,48.92,48.92,34.0,-28.755,20.16,-32.89666666666667,21.665,0.0,1782.335,0.6600000000000001,100.0,28.005,26.979,42.63,41.296,0.0,1.0,100.0,0.0,0.0,0.0,0.0,3194.0,3015.3,4047.5,3704.7,305.1615,305.2705,314.8595,315.591,21.8162,20.5324,21.7816,21.3165,314.999998,314.999998,324.999988,324.999988,99.55884285714286,99.50723333333333,99.56462857142857,99.54455714285714,-0.02474999999999994,-0.14474999999999993,-0.19866666666666666,0.02016666666666667,-0.041666666666671404,-0.02833333333332888,1.3483333333333334,1.4015,37.351,29.327333333333335,37.135,34.228,56.214,34.611,58.875,51.4905,54.135,33.774,57.5105,49.8525,53.303,33.3345,57.4745,49.275666666666666,-0.021499999999999853,-0.129,0.102055,0.10375000000000001,0.0,206.76,206.66,203.33666666666667,203.335,0.0,0.0
5,0.0,1.0,0.0,1.0,1.0,0.0,0.0,1.0,0.0,100.0,1.0,1.1856,26.0,0.0,0.0,0.0,59.999996,0.0,26.0,26.0,26.0,26.0,-0.12088888888888893,0.22910000000000008,-0.0309,293.655,-2.6706,-2.758714285714286,-1.506,-1.5815000000000001,-259.17,216.2375,190.8905,0.0,0.0,0.0,0.0,0.0112,-5.498166666666667,-5.498166666666667,-0.5479,0.40549999999999997,-0.08199999999999985,-0.2759999999999998,66.108,-0.0855,-0.22765000000000002,1.1460000000000008,100.0,1.0,1.0,203.65,0.0,0.0,0.0,0.0,0.0,0.0,0.0,7616.7,0.0,55.0,5.0,237.96666666666667,1.0,0.0,0.0,0.0,0.0,0.0,0.0,0.0,0.254999999999999,0.254999999999999,0.0,0.0,1.0,55.0,616.79921,10000.0,85.000001,85.000001,85.000001,85.000001,395.0,0.0,0.0,0.0,1.0,333.33500000000004,53.101,53.101,49.316,49.316,34.0,-28.5925,18.543333333333333,-33.31333333333333,22.947499999999998,0.0,1782.283,0.39000000000000057,100.0,28.03,27.055,42.283,40.998000000000005,0.0,1.0,100.0,0.0,0.0,0.0,0.0,3215.4285714285716,2776.3,4145.5,3989.3,305.1545,305.8885,314.79025,314.9125,21.8262,20.5375,21.7919,21.3251,314.999998,314.999998,324.999988,324.999988,99.55884285714286,99.50723333333333,99.56475714285715,99.54468571428572,-0.015249999999999986,-0.14725,-0.20066666666666666,0.006666666666666667,-0.03499999999999659,-0.04833333333333201,1.3626666666666667,1.3795,37.414,29.359666666666666,37.2,34.282,56.2,34.6525,58.907,51.54,54.122,33.812,57.5405,49.9,53.289,33.371,57.5015,49.322,-0.04849999999999999,-0.10599999999999987,0.094755,0.10915000000000001,0.0,207.14,207.06,203.65,203.65,0.0,0.0
6,0.0,1.0,0.0,1.0,1.0,0.0,0.0,1.0,0.0,100.0,1.0,1.1856,26.0,0.0,0.0,0.0,59.999996,0.0,26.0,26.0,26.0,26.0,-0.10255555555555551,0.21720000000000006,-0.012233333333333334,293.533,-2.6378,-2.7357142857142858,-1.54995,-1.6175000000000002,-255.99,216.2175,190.87125,0.0,0.0,0.0,0.0,0.013033333333333334,-5.498166666666667,-5.498166666666667,-0.5426,0.06599999999999995,-0.06344444444444441,-0.516,66.212,-0.08510000000000001,-0.22820000000000001,0.8720000000000008,100.0,1.0,1.0,203.96666666666667,0.0,0.0,0.0,0.0,0.0,0.0,0.0,7628.5,0.0,55.0,5.0,238.34333333333336,0.0,0.0,0.0,0.0,0.0,0.0,0.0,0.0,0.3030000000000008,0.3030000000000008,0.0,0.0,0.0,55.0,616.79921,10000.0,85.000001,85.000001,85.000001,85.000001,395.0,0.0,0.0,0.0,1.0,333.33500000000004,52.841,52.841,49.149,49.149,34.0,-28.0475,20.383333333333333,-33.22333333333333,23.42,0.0,1782.235,-0.030000000000001137,100.0,27.875,27.076,42.366,41.283,0.0,1.0,100.0,0.0,0.0,0.0,0.0,3250.857142857143,2920.5,4078.375,3932.6000000000004,305.0415,305.3785,314.9375,314.999,21.8356,20.5424,21.8017,21.3335,314.999998,314.999998,324.999988,324.999988,99.55884285714286,99.50725,99.56487142857142,99.5448,-0.0007500000000000284,-0.12624999999999997,-0.19883333333333333,0.011833333333333335,-0.03833333333332689,-0.03333333333333144,1.3526666666666665,1.362,37.472,29.39,37.260999999999996,34.3345,56.186,34.691,58.9375,51.5905,54.108000000000004,33.847,57.569,49.948499999999996,53.274,33.4045,57.5275,49.36933333333333,-0.07299999999999995,-0.07750000000000012,0.093655,0.104135,0.0,207.46,207.37,203.96666666666667,203.9675,0.0,0.0
7,0.0,1.0,0.0,1.0,1.0,0.0,0.0,1.0,0.0,100.0,1.0,1.1856,26.0,0.0,0.0,0.0,59.999996,0.0,26.0,26.0,26.0,26.0,-0.07299999999999995,0.21720000000000006,0.020900000000000002,293.304,-2.6111,-2.7261428571428574,-1.51115,-1.6176000000000001,-252.41,216.1925,190.84975,0.0,0.0,0.0,0.0,0.015133333333333335,-5.498166666666667,-5.498166666666667,-0.5457000000000001,-0.02200000000000002,-0.05122222222222206,-0.16500000000000004,66.328,-0.0703,-0.23597500000000002,0.41999999999999993,100.0,1.0,1.0,204.3,0.0,0.0,0.0,0.0,0.0,0.0,0.0,7641.0,0.0,55.0,5.0,238.76333333333332,1.0,0.0,0.0,0.0,0.0,0.0,0.0,0.0,0.3569999999999993,0.3569999999999993,0.0,0.0,1.0,55.0,616.79921,10000.0,85.000001,85.000001,85.000001,85.000001,395.0,0.0,0.0,0.0,1.0,166.665,52.536,52.536,49.194,49.194,34.0,-27.2475,21.99666666666667,-31.976666666666667,24.73,0.0,1782.184,-0.259999999999998,100.0,27.964,27.124,42.367000000000004,41.536,0.0,1.0,100.0,0.0,0.0,0.0,0.0,3313.714285714286,2983.8,4060.25,3988.5,304.776,305.20325,314.9315,314.84,21.8461,20.5479,21.8128,21.3429,314.999998,314.999998,324.999988,324.999988,99.55884285714286,99.50726666666667,99.565,99.54492857142857,0.02774999999999994,-0.09699999999999998,-0.18516666666666667,0.02716666666666667,-0.051666666666669414,-0.061666666666667425,1.347,1.343,37.538,29.424333333333333,37.33,34.393,56.17,34.7325,58.972,51.6465,54.093,33.8855,57.6005,50.001999999999995,53.259,33.4415,57.5565,49.422333333333334,-0.09749999999999992,-0.051000000000000156,0.09625,0.096085,0.0,207.8,207.755,204.3,204.3,0.0,0.0
8,0.0,1.0,0.0,1.0,1.0,0.0,0.0,1.0,0.0,100.0,1.0,1.1856,26.0,0.0,0.0,0.0,59.999996,0.0,26.0,26.0,26.0,26.0,-0.04533333333333334,0.22599999999999998,0.03203333333333333,293.533,-2.6936,-2.7142857142857144,-1.49455,-1.5715000000000001,-249.03,216.16750000000002,190.829125,0.0,0.0,0.0,0.0,0.0171,-5.498166666666667,-5.498166666666667,-0.547,-0.5920000000000001,-0.03122222222222204,0.7410000000000005,66.439,-0.047900000000000005,-0.2272,-0.11399999999999988,100.0,1.0,1.0,204.58333333333331,0.0,0.0,0.0,0.0,0.0,0.0,0.0,7651.6,0.0,55.0,5.0,239.15666666666667,0.0,0.0,0.0,0.0,0.0,0.0,0.0,0.0,0.40800000000000125,0.40800000000000125,0.0,0.0,0.0,55.0,616.79921,10000.0,85.000001,85.000001,85.000001,85.000001,395.0,0.0,0.0,0.0,1.0,166.665,53.375,53.375,48.477000000000004,48.477000000000004,34.0,-23.315,22.851666666666667,-30.54,28.045,0.0,1782.133,-0.35999999999999943,100.0,27.678,26.96,42.493,41.582,0.0,1.0,100.0,0.0,0.0,0.0,0.0,2939.0,3028.4,4080.75,4127.4,305.8835,305.25775,314.7735,314.5595,21.8557,20.5531,21.8232,21.3517,314.999998,314.999998,324.999988,324.999988,99.55884285714286,99.50728333333333,99.56512857142857,99.54505714285715,0.055500000000000105,-0.07750000000000001,-0.1525,0.0825,-0.03333333333333144,-0.03499999999999659,1.3243333333333334,1.3325,37.598,29.456666666666663,37.394999999999996,34.448499999999996,56.153999999999996,34.771,59.0035,51.699,54.077,33.921,57.629999999999995,50.0525,53.242,33.4755,57.583,49.471666666666664,-0.10250000000000004,-0.047499999999999876,0.101235,0.10853000000000002,0.0,208.10000000000002,208.095,204.58333333333331,204.58249999999998,0.0,0.0
9,0.0,1.0,0.0,1.0,1.0,0.0,0.0,1.0,0.0,100.0,1.0,1.1856,26.0,0.0,0.0,0.0,59.999996,0.0,26.0,26.0,26.0,26.0,-0.01633333333333331,0.2169000000000001,-0.016366666666666665,293.32,-2.6852,-2.717714285714286,-1.5397500000000002,-1.5511000000000001,-246.04,216.14249999999998,190.81075,0.0,0.0,0.0,0.0,0.018833333333333334,-5.498166666666667,-5.498166666666667,-0.5555,0.5125,-0.035222222222222044,-0.42300000000000004,66.533,-0.0297,-0.23185,-0.11000000000000032,100.0,1.0,1.0,205.0,0.0,0.0,0.0,0.0,0.0,0.0,0.0,7667.1,0.0,55.0,5.0,239.49666666666667,1.0,0.0,0.0,0.0,0.0,0.0,0.0,0.0,0.4529999999999994,0.4529999999999994,0.0,0.0,1.0,55.0,616.79921,10000.0,85.000001,85.000001,85.000001,85.000001,395.0,0.0,0.0,0.0,1.0,333.33500000000004,52.246,52.246,49.591,49.591,34.0,-26.57,23.75333333333333,-29.28333333333333,26.825000000000003,0.0,1782.086,-0.509999999999998,100.0,27.934,27.478,42.012,41.593,0.0,1.0,100.0,0.0,0.0,0.0,0.0,3382.857142857143,3032.2,3947.5,3968.5,304.656,305.00725,315.2535,314.97825,21.8644,20.5578,21.8322,21.3595,314.999998,314.999998,324.999988,324.999988,99.55885714285715,99.50728333333333,99.56524285714286,99.54517142857142,0.07024999999999992,-0.06399999999999995,-0.14816666666666667,0.09316666666666668,-0.060000000000002274,-0.036666666666668846,1.379,1.371,37.652,29.486333333333334,37.451,34.497,56.143,34.806,59.0285,51.744,54.067,33.9535,57.653,50.096000000000004,53.231,33.506,57.604,49.513999999999996,-0.119,-0.04300000000000015,0.10980500000000001,0.11585500000000001,0.0,208.41500000000002,208.4,205.0,204.9975,0.0,0.0
10,0.0,1.0,0.0,1.0,1.0,0.0,0.0,1.0,0.0,100.0,1.0,1.1856,26.0,0.0,0.0,0.0,59.999996,0.0,26.0,26.0,26.0,26.0,0.0012222222222222356,0.2117,0.045700000000000005,293.076,-2.6538,-2.702,-1.586,-1.5310000000000001,-242.64,216.115,190.79,0.0,0.0,0.0,0.0,0.020800000000000003,-5.498166666666667,-5.498166666666667,-0.5285000000000001,-0.31800000000000006,0.006666666666666599,1.8180000000000005,66.643,-0.0085,-0.21695,-0.5279999999999996,100.0,1.0,1.0,205.13,0.0,0.0,0.0,0.0,0.0,0.0,0.0,7672.0,0.0,55.0,5.0,239.89666666666665,0.0,0.0,0.0,0.0,0.0,0.0,1.0,0.0,0.5040000000000013,0.5040000000000013,0.0,0.0,0.0,55.0,616.79921,10000.0,85.000001,85.000001,85.000001,85.000001,395.0,0.0,0.0,0.0,1.0,333.33500000000004,53.192,53.192,48.096000000000004,48.096000000000004,34.0,-20.74,23.98166666666667,-31.226666666666667,30.4675,0.0,1782.035,-0.6099999999999994,100.0,27.998,27.326999999999998,42.447,42.201,0.0,1.0,100.0,0.0,0.0,0.0,0.0,2853.5714285714284,2984.7,4262.875,4312.6,306.0395,305.3825,314.3945,314.15125,21.8741,20.5631,21.8427,21.3685,314.999998,314.999998,324.999988,324.999988,99.55887142857142,99.5073,99.56535714285714,99.54528571428571,0.09600000000000009,-0.037250000000000005,-0.11016666666666668,0.10683333333333334,-0.036666666666668846,-0.045000000000001705,1.305,1.2850000000000001,37.713,29.519333333333336,37.516999999999996,34.5535,56.131,34.8435,59.0615,51.8,54.055,33.988,57.6835,50.1495,53.218,33.539,57.6315,49.56666666666666,-0.127,-0.028000000000000025,0.11042,0.10670500000000001,0.0,208.735,208.765,205.13,205.13,0.0,0.0
11,0.0,1.0,0.0,1.0,1.0,0.0,0.0,1.0,0.0,100.0,1.0,1.1856,26.0,0.0,0.0,0.0,59.999996,0.0,26.0,26.0,26.0,26.0,0.053444444444444406,0.20930000000000004,-0.09463333333333335,293.64,-2.7095,-2.6808571428571426,-1.54975,-1.5163,-239.24,216.0875,190.7695,0.0,0.0,0.0,0.0,0.022600000000000002,-5.498166666666667,-5.498166666666667,-0.5716,-0.35450000000000004,0.033333333333333215,-0.5750000000000002,66.748,0.0114,-0.250925,-0.5539999999999994,100.0,1.0,1.0,205.72333333333333,0.0,0.0,0.0,0.0,0.0,0.0,0.0,7694.2,0.0,55.0,5.0,240.27333333333334,1.0,0.0,0.0,0.0,0.0,0.0,1.0,0.0,0.5549999999999997,0.5549999999999997,0.0,0.0,1.0,55.0,616.79921,10000.0,85.000001,85.000001,85.000001,85.000001,395.0,0.0,0.0,0.0,1.0,166.665,52.643,52.643,49.652,49.652,34.0,-22.91,25.423333333333332,-24.116666666666667,26.942500000000003,0.0,1781.985,-0.5749999999999993,100.0,27.566,27.686,42.009,42.274,0.0,1.0,100.0,0.0,0.0,0.0,0.0,3096.857142857143,3105.4,3643.5,3823.7,305.53,304.7965,315.97225,315.3155,21.883499999999998,20.5685,21.852899999999998,21.3774,314.999998,314.999998,324.999988,324.999988,99.55887142857142,99.5073,99.56548571428571,99.54541428571429,0.09975,-0.031749999999999945,-0.09316666666666668,0.1325,-0.03333333333333144,-0.03833333333332689,1.4203333333333332,1.4175,37.772,29.553333333333335,37.581,34.609,56.116,34.881,59.088499999999996,51.852000000000004,54.042,34.0225,57.7085,50.1995,53.204,33.5725,57.653999999999996,49.616,-0.12250000000000005,-0.03049999999999997,0.10085000000000001,0.110325,0.0,209.015,209.055,205.72333333333333,205.7225,0.0,0.0
12,0.0,1.0,0.0,1.0,1.0,0.0,0.0,1.0,0.0,100.0,1.0,1.1856,26.0,0.0,0.0,0.0,59.999996,0.0,26.0,26.0,26.0,26.0,0.03977777777777791,0.21460000000000012,0.010766666666666667,293.121,-2.7575,-2.6797142857142857,-1.546,-1.5208000000000002,-235.82999999999998,216.0625,190.747625,0.0,0.0,0.0,0.0,0.025466666666666665,-5.498166666666667,-5.498166666666667,-0.5574,0.26049999999999995,0.01966666666666672,0.5920000000000005,66.857,0.0273,-0.21857500000000002,-0.7299999999999995,100.0,1.0,1.0,205.86666666666667,0.0,0.0,0.0,0.0,0.0,0.0,0.0,7699.6,0.0,55.0,5.0,240.66666666666666,0.0,0.0,0.0,0.0,0.0,0.0,1.0,0.0,0.6059999999999981,0.6059999999999981,0.0,0.0,0.0,55.0,616.79921,10000.0,85.000001,85.000001,85.000001,85.000001,395.0,0.0,0.0,0.0,1.0,166.665,52.658,52.658,48.400999999999996,48.400999999999996,34.0,-22.2775,27.009999999999998,-26.93,31.63,0.0,1781.934,-0.4450000000000003,100.0,27.603,27.68,41.935,42.069,0.0,1.0,100.0,0.0,0.0,0.0,0.0,3029.0,3206.8,4125.75,4186.0,305.599,304.68225,314.763,314.5035,21.893,20.573999999999998,21.8632,21.3863,314.999998,314.999998,324.999988,324.999988,99.5589,99.5073,99.56561428571429,99.54552857142858,0.11499999999999999,-0.01100000000000001,-0.06566666666666668,0.155,-0.045000000000001705,-0.07000000000000028,1.3343333333333334,1.3145,37.831,29.587666666666664,37.644999999999996,34.664,56.104,34.919,59.118,51.903999999999996,54.03,34.0575,57.7355,50.25,53.191,33.606,57.6785,49.665333333333336,-0.11399999999999988,-0.03600000000000003,0.10799500000000001,0.10428000000000001,0.0,209.375,209.445,205.86666666666667,205.8675,0.0,0.0
13,0.0,1.0,0.0,1.0,1.0,0.0,0.0,1.0,0.0,100.0,1.0,1.1856,26.0,0.0,0.0,0.0,59.999996,0.0,26.0,26.0,26.0,26.0,0.07366666666666677,0.20100000000000007,0.0539,292.77,-2.7321999999999997,-2.676285714285714,-1.6162,-1.5052,-232.62,216.04000000000002,190.72725,0.0,0.0,0.0,0.0,0.026633333333333332,-5.498166666666667,-5.498166666666667,-0.5506,0.0034999999999999476,0.021777777777777896,1.077,66.958,0.0362,-0.225325,-0.8839999999999995,100.0,1.0,1.0,206.14666666666668,0.0,0.0,0.0,0.0,0.0,0.0,0.0,7710.0,0.0,55.0,5.0,241.02666666666664,1.0,0.0,0.0,0.0,0.0,0.0,1.0,0.0,0.6539999999999999,0.6539999999999999,0.0,0.0,1.0,55.0,616.79921,10000.0,85.000001,85.000001,85.000001,85.000001,395.0,0.0,0.0,0.0,1.0,166.665,52.338,52.338,48.400999999999996,48.400999999999996,34.0,-20.974999999999998,27.891666666666666,-27.623333333333335,33.379999999999995,0.0,1781.887,-0.8550000000000004,100.0,27.913,27.856,42.137,42.503,0.0,1.0,100.0,0.0,0.0,0.0,0.0,3069.714285714286,3195.7,4116.0,4312.3,305.4395,304.7065,314.78775,314.1925,21.9021,20.5792,21.873,21.3948,314.999998,314.999998,324.999988,324.999988,99.5589,99.50731666666667,99.56572857142856,99.54565714285714,0.14874999999999994,0.013000000000000123,-0.059833333333333336,0.16816666666666666,-0.021666666666668277,-0.04999999999999716,1.313,1.298,37.888,29.619999999999997,37.706,34.7175,56.095,34.954499999999996,59.1465,51.9565,54.021,34.0905,57.762,50.3005,53.181,33.6375,57.702,49.714666666666666,-0.14849999999999985,-0.008500000000000174,0.110655,0.107855,0.0,209.685,209.75,206.14666666666668,206.14499999999998,0.0,0.0
14,0.0,1.0,0.0,1.0,1.0,0.0,0.0,1.0,0.0,100.0,1.0,1.1856,26.0,0.0,0.0,0.0,59.999996,0.0,26.0,26.0,26.0,26.0,0.09800000000000009,0.21900000000000008,-0.017133333333333334,293.03,-2.7374,-2.613857142857143,-1.6242,-1.5071,-229.2,216.015,190.706125,0.0,0.0,0.0,0.0,0.0286,-5.498166666666667,-5.498166666666667,-0.5596,-0.19850000000000012,0.048555555555555685,-0.022999999999999687,67.063,0.050100000000000006,-0.24045000000000002,-0.9539999999999997,100.0,1.0,1.0,206.5233333333333,0.0,0.0,0.0,0.0,0.0,0.0,0.0,7724.2,0.0,55.0,5.0,241.40666666666667,0.0,0.0,0.0,0.0,0.0,0.0,1.0,0.0,0.7049999999999983,0.7049999999999983,0.0,0.0,0.0,55.0,616.79921,10000.0,85.000001,85.000001,85.000001,85.000001,395.0,0.0,0.0,0.0,1.0,166.665,52.504999999999995,52.504999999999995,48.676,48.676,34.0,-20.7825,27.189999999999998,-26.176666666666666,31.0725,0.0,1781.835,-0.9149999999999991,100.0,27.634,28.035,41.997,42.803,0.0,1.0,100.0,0.0,0.0,0.0,0.0,3064.0,3143.4,3983.125,4114.4,305.633,304.715,315.17675,314.597,21.9116,20.5847,21.8833,21.4038,314.999998,314.999998,324.999988,324.999988,99.55892857142857,99.50731666666667,99.56584285714285,99.54577142857143,0.14874999999999994,0.017249999999999988,-0.05566666666666666,0.1595,-0.03833333333332689,-0.046666666666666856,1.3643333333333334,1.3375,37.948,29.654333333333334,37.771,34.774,56.085,34.992,59.1755,52.010999999999996,54.010999999999996,34.1255,57.789,50.353,53.17,33.671,57.726,49.766333333333336,-0.1519999999999999,-0.0045000000000001705,0.10722500000000001,0.10276,0.0,209.98000000000002,210.075,206.5233333333333,206.525,0.0,0.0
15,0.0,1.0,0.0,1.0,1.0,0.0,0.0,1.0,0.0,100.0,1.0,1.1856,26.0,0.0,0.0,0.0,59.999996,0.0,26.0,26.0,26.0,26.0,0.11499999999999999,0.20860000000000012,-0.037233333333333334,293.06,-2.7099,-2.5741428571428573,-1.62295,-1.4489,-225.98,215.9975,190.686,0.0,0.0,0.0,0.0,0.030500000000000003,-5.498166666666667,-5.498166666666667,-0.5533,0.32799999999999996,0.07877777777777784,0.009000000000000341,67.162,0.0635,-0.225775,-1.096,100.0,1.0,1.0,206.84,0.0,0.0,0.0,0.0,0.0,0.0,0.0,7736.0,0.0,55.0,5.0,241.76,1.0,0.0,0.0,0.0,0.0,0.0,1.0,0.0,0.7530000000000001,0.7530000000000001,0.0,0.0,1.0,55.0,616.79921,10000.0,85.000001,85.000001,85.000001,85.000001,395.0,0.0,0.0,0.0,1.0,166.665,52.582,52.582,48.813,48.813,34.0,-19.5875,27.138333333333335,-24.926666666666666,32.6875,0.0,1781.787,-0.9400000000000013,100.0,27.716,28.123,41.781,42.837,0.0,1.0,100.0,0.0,0.0,0.0,0.0,2945.0,3126.2,3931.625,4240.4,305.9175,304.7545,315.3085,314.331,21.9206,20.5899,21.8929,21.4122,314.999998,314.999998,324.999988,324.999988,99.55894285714285,99.50731666666667,99.56595714285714,99.5459,0.15100000000000002,0.02825000000000011,-0.03983333333333334,0.18383333333333335,-0.046666666666666856,-0.03333333333333144,1.3693333333333335,1.3265,38.004000000000005,29.686999999999998,37.83,34.826499999999996,56.076,35.0285,59.201,52.0615,54.003,34.159,57.8125,50.402,53.161,33.7035,57.7465,49.81466666666667,-0.14649999999999985,-0.0024999999999999467,0.104715,0.108865,0.0,210.32,210.385,206.84,206.84,0.0,0.0
16,0.0,1.0,0.0,1.0,1.0,0.0,0.0,1.0,0.0,100.0,1.0,1.1856,26.0,0.0,0.0,0.0,59.999996,0.0,26.0,26.0,26.0,26.0,0.11955555555555564,0.1996,-0.0055000000000000005,293.106,-2.7607,-2.6088571428571425,-1.56165,-1.4459,-222.55,215.97750000000002,190.664125,0.0,0.0,0.0,0.0,0.03246666666666667,-5.498166666666667,-5.498166666666667,-0.5697,-0.8225,0.07099999999999995,0.29000000000000004,67.268,0.0747,-0.234825,-1.2400000000000002,100.0,1.0,1.0,207.13,0.0,0.0,0.0,0.0,0.0,0.0,0.0,7746.8,0.0,55.0,5.0,242.14333333333335,0.0,0.0,0.0,0.0,0.0,0.0,1.0,0.0,0.8039999999999985,0.8039999999999985,0.0,0.0,0.0,55.0,616.79921,10000.0,85.000001,85.000001,85.000001,85.000001,395.0,0.0,0.0,0.0,1.0,166.665,52.734,52.734,48.294,48.294,34.0,-18.857499999999998,29.1,-22.903333333333332,32.629999999999995,0.0,1781.736,-0.8499999999999979,100.0,27.397,28.032,42.093,42.913,0.0,1.0,100.0,0.0,0.0,0.0,0.0,2878.285714285714,3279.5,3898.25,4121.3,306.1245,304.4595,315.2735,314.64625,21.9298,20.5955,21.9032,21.4213,314.999998,314.999998,324.999988,324.999988,99.55895714285714,99.50731666666667,99.5661,99.54602857142856,0.16700000000000004,0.03600000000000003,-0.017333333333333333,0.20600000000000002,-0.03166666666666629,-0.04999999999999716,1.3546666666666667,1.3285,38.061,29.721666666666664,37.894999999999996,34.882999999999996,56.063,35.068,59.231,52.116,53.989999999999995,34.195499999999996,57.84,50.454499999999996,53.147,33.7385,57.771,49.86666666666667,-0.14300000000000002,-0.0129999999999999,0.10452,0.11009000000000001,0.0,210.60000000000002,210.695,207.13,207.1275,0.0,0.0
17,0.0,1.0,0.0,1.0,1.0,0.0,0.0,1.0,0.0,100.0,1.0,1.1856,26.0,0.0,0.0,0.0,59.999996,0.0,26.0,26.0,26.0,26.0,0.13722222222222213,0.20910000000000006,-0.018866666666666667,292.938,-2.7662,-2.5605714285714285,-1.63425,-1.4948000000000001,-219.12,215.9625,190.641875,0.0,0.0,0.0,0.0,0.03446666666666667,-5.498166666666667,-5.498166666666667,-0.5649000000000001,0.5625,0.04699999999999993,-0.782,67.37100000000001,0.0758,-0.221775,-1.0419999999999998,100.0,1.0,1.0,207.47,0.0,0.0,0.0,0.0,0.0,0.0,0.0,7759.5,0.0,55.0,5.0,242.51333333333332,1.0,0.0,0.0,0.0,0.0,0.0,1.0,0.0,0.8550000000000004,0.8550000000000004,0.0,0.0,1.0,55.0,616.79921,10000.0,85.000001,85.000001,85.000001,85.000001,395.0,0.0,0.0,0.0,1.0,333.33500000000004,52.429,52.429,48.66,48.66,34.0,-19.7775,26.518333333333334,-25.65,33.2175,0.0,1781.684,-0.9549999999999983,100.0,27.743,28.501,41.656,42.911,0.0,1.0,100.0,0.0,0.0,0.0,0.0,3069.5714285714284,3047.1,4109.625,4136.1,305.6895,305.06175,314.95975,314.57875,21.9393,20.6012,21.9134,21.4302,314.999998,314.999998,324.999988,324.999988,99.55898571428571,99.50731666666667,99.56621428571428,99.54614285714285,0.1775,0.037250000000000005,-0.026833333333333334,0.19983333333333334,-0.04999999999999716,-0.023333333333326323,1.376,1.3185,38.120999999999995,29.757333333333335,37.958,34.939,56.055,35.1085,59.2575,52.1695,53.982,34.2335,57.864,50.506,53.138,33.7745,57.792500000000004,49.917,-0.15300000000000002,-0.008000000000000007,0.10375500000000001,0.11037500000000001,0.0,210.97500000000002,211.04000000000002,207.47,207.47,0.0,0.0
18,0.0,1.0,0.0,1.0,1.0,0.0,0.0,1.0,0.0,100.0,1.0,1.1856,26.0,0.0,0.0,0.0,59.999996,0.0,26.0,26.0,26.0,26.0,0.13977777777777778,0.20650000000000013,-0.08713333333333334,292.953,-2.7953,-2.5388571428571427,-1.6471,-1.4186,-215.88,215.9525,190.620875,0.0,0.0,0.0,0.0,0.03636666666666667,-5.498166666666667,-5.498166666666667,-0.5695,-0.6045,0.06800000000000006,-0.08899999999999952,67.469,0.07590000000000001,-0.23355,-1.1719999999999997,100.0,1.0,1.0,207.74666666666667,0.0,0.0,0.0,0.0,0.0,0.0,0.0,7769.9,0.0,55.0,5.0,242.87,0.0,0.0,0.0,0.0,0.0,0.0,1.0,0.0,0.9029999999999987,0.9029999999999987,0.0,0.0,0.0,55.0,616.79921,10000.0,85.000001,85.000001,85.000001,85.000001,395.0,0.0,0.0,0.0,1.0,333.33500000000004,52.582,52.582,48.431,48.431,34.0,-19.2975,28.143333333333334,-24.89,30.9975,0.0,1781.636,-1.245000000000001,100.0,27.514,28.298000000000002,42.088,43.349000000000004,0.0,1.0,100.0,0.0,0.0,0.0,0.0,3016.285714285714,3167.7,3968.625,4076.5,305.8975,304.76675,315.24425,314.756,21.9481,20.6064,21.923099999999998,21.4388,314.999998,314.999998,324.999988,324.999988,99.559,99.50733333333334,99.56632857142857,99.54627142857143,0.1845000000000001,0.05425000000000013,-0.02766666666666667,0.18966666666666665,-0.021666666666668277,-0.051666666666669414,1.3736666666666666,1.332,38.176,29.79,38.019,34.9925,56.046,35.1455,59.2855,52.222,53.974000000000004,34.2675,57.8905,50.557,53.128,33.8075,57.816,49.967,-0.17149999999999999,0.01550000000000007,0.104715,0.10126,0.0,211.22500000000002,211.31,207.74666666666667,207.7475,0.0,0.0
19,0.0,1.0,0.0,1.0,1.0,0.0,0.0,1.0,0.0,100.0,1.0,1.1856,26.0,0.0,0.0,0.0,59.999996,0.0,26.0,26.0,26.0,26.0,0.13744444444444426,0.2128000000000001,0.002266666666666667,292.48,-2.7638,-2.5292857142857144,-1.6630500000000001,-1.3976000000000002,-212.44,215.945,190.5985,0.0,0.0,0.0,0.0,0.03836666666666667,-5.498166666666667,-5.498166666666667,-0.5674,0.8435,0.08311111111111114,0.952,67.571,0.0855,-0.22667500000000002,-1.6100000000000003,100.0,1.0,1.0,208.10666666666668,0.0,0.0,0.0,0.0,0.0,0.0,0.0,7783.3,0.0,55.0,5.0,243.23333333333335,1.0,0.0,0.0,0.0,0.0,0.0,1.0,0.0,0.9540000000000006,0.9540000000000006,0.0,0.0,1.0,55.0,616.79921,10000.0,85.000001,85.000001,85.000001,85.000001,395.0,0.0,0.0,0.0,1.0,333.33500000000004,51.605000000000004,51.605000000000004,48.507999999999996,48.507999999999996,34.0,-18.215,31.388333333333332,-24.23,33.58,0.0,1781.584,-1.4899999999999984,100.0,28.124,28.617,41.832,43.185,0.0,1.0,100.0,0.0,0.0,0.0,0.0,3061.285714285714,3387.4,3983.375,4251.9,305.464,304.11875,315.2365,314.458,21.9576,20.6122,21.9332,21.4478,314.999998,314.999998,324.999988,324.999988,99.55904285714286,99.50733333333334,99.56644285714286,99.5464,0.21649999999999991,0.07950000000000013,-0.011,0.21733333333333335,-0.046666666666666856,-0.04333333333332945,1.401,1.3365,38.235,29.826333333333334,38.083,35.0485,56.04,35.189,59.3115,52.2755,53.967,34.308,57.914,50.609,53.121,33.8465,57.837,50.01833333333333,-0.19300000000000006,0.03400000000000003,0.110475,0.10118,0.0,211.585,211.67000000000002,208.10666666666668,208.10500000000002,0.0,0.0
20,0.0,1.0,0.0,1.0,1.0,0.0,0.0,1.0,0.0,100.0,1.0,1.1856,26.0,0.0,0.0,0.0,59.999996,0.0,26.0,26.0,26.0,26.0,0.197888888888889,0.2015,-0.05436666666666667,292.587,-2.8239,-2.580714285714286,-1.6505,-1.3974,-208.99,215.94,190.576375,0.0,0.0,0.0,0.0,0.04036666666666667,-5.498166666666667,-5.498166666666667,-0.5593,-0.8660000000000001,0.09299999999999997,-0.4009999999999998,67.676,0.1032,-0.2275,-2.012,100.0,1.0,1.0,208.25333333333333,0.0,0.0,0.0,0.0,0.0,0.0,0.0,7788.9,0.0,55.0,5.0,243.61333333333334,0.0,0.0,0.0,0.0,0.0,0.0,0.0,0.0,1.004999999999999,1.004999999999999,0.0,0.0,0.0,55.0,616.79921,10000.0,85.000001,85.000001,85.000001,85.000001,395.0,0.0,0.0,0.0,1.0,333.33500000000004,52.872,52.872,47.226,47.226,34.0,-15.579999999999998,30.08833333333333,-24.403333333333332,36.042500000000004,0.0,1781.533,-1.7199999999999989,100.0,27.448,28.598,42.241,43.794,0.0,1.0,100.0,0.0,0.0,0.0,0.0,2747.5714285714284,3130.3,4205.375,4355.3,306.6345,304.73925,314.63925,314.0285,21.9668,20.6179,21.9436,21.457,314.999998,314.999998,324.999988,324.999988,99.55905714285714,99.50735,99.56658571428571,99.54652857142857,0.23625000000000007,0.09875000000000012,0.018333333333333333,0.23083333333333333,-0.041666666666671404,-0.036666666666668846,1.329,1.2375,38.293,29.861666666666665,38.147999999999996,35.106,56.031,35.232,59.343,52.333,53.958,34.3475,57.943,50.664500000000004,53.11,33.8845,57.863,50.073,-0.21699999999999986,0.056499999999999995,0.099275,0.09960000000000001,0.0,211.845,211.99,208.25333333333333,208.255,0.0,0.0
21,0.0,1.0,0.0,1.0,1.0,0.0,0.0,1.0,0.0,100.0,1.0,1.1856,26.0,0.0,0.0,0.0,59.999996,0.0,26.0,26.0,26.0,26.0,0.24122222222222223,0.19500000000000006,-0.0819,292.923,-2.7529,-2.6208571428571426,-1.67915,-1.4572,-205.74,215.9425,190.555,0.0,0.0,0.0,0.0,0.04226666666666667,-5.498166666666667,-5.498166666666667,-0.5953,0.28700000000000003,0.09066666666666667,-0.7149999999999999,67.769,0.12090000000000001,-0.2474,-2.226,100.0,1.0,1.0,208.81,0.0,0.0,0.0,0.0,0.0,0.0,0.0,7809.7,0.0,55.0,5.0,243.94666666666666,1.0,0.0,0.0,0.0,0.0,0.0,0.0,0.0,1.0530000000000008,1.0530000000000008,0.0,0.0,1.0,55.0,616.79921,10000.0,85.000001,85.000001,85.000001,85.000001,395.0,0.0,0.0,0.0,1.0,333.33500000000004,51.879999999999995,51.879999999999995,49.149,49.149,34.0,-16.57,32.44833333333333,-20.333333333333336,33.9775,0.0,1781.486,-1.370000000000001,100.0,27.606,28.84,41.58,43.524,0.0,1.0,100.0,0.0,0.0,0.0,0.0,3062.0,3271.5,3716.875,3979.3,305.6075,304.23025,315.91075,314.9955,21.9756,20.6233,21.953,21.4654,314.999998,314.999998,324.999988,324.999988,99.55908571428571,99.50736666666667,99.56668571428571,99.54665714285714,0.24775000000000014,0.10650000000000004,0.030166666666666668,0.2623333333333333,-0.045000000000001705,-0.03999999999999915,1.4553333333333334,1.3639999999999999,38.347,29.896,38.206,35.158500000000004,56.025,35.275,59.365,52.3825,53.952,34.3875,57.963,50.7125,53.103,33.923,57.8805,50.120333333333335,-0.20999999999999996,0.04349999999999987,0.10455,0.1068,0.0,212.135,212.29000000000002,208.81,208.8125,0.0,0.0
22,0.0,1.0,0.0,1.0,1.0,0.0,0.0,1.0,0.0,100.0,1.0,1.1856,26.0,0.0,0.0,0.0,59.999996,0.0,26.0,26.0,26.0,26.0,0.20233333333333325,0.19320000000000004,0.048,292.313,-2.7414,-2.6157142857142857,-1.6176,-1.4988000000000001,-202.07999999999998,215.9475,190.530125,0.0,0.0,0.0,0.0,0.0444,-5.498166666666667,-5.498166666666667,-0.5701,0.14849999999999997,0.09533333333333327,-0.5579999999999998,67.878,0.1373,-0.22135000000000002,-1.3839999999999995,100.0,1.0,1.0,208.92666666666668,0.0,0.0,0.0,0.0,0.0,0.0,0.0,7814.0,0.0,55.0,5.0,244.34333333333336,0.0,0.0,0.0,0.0,0.0,0.0,0.0,0.0,1.1069999999999993,1.1069999999999993,0.0,0.0,0.0,55.0,616.79921,10000.0,85.000001,85.000001,85.000001,85.000001,395.0,0.0,0.0,0.0,1.0,166.665,51.941,51.941,47.745,47.745,34.0,-19.4775,28.673333333333332,-22.509999999999998,38.155,0.0,1781.434,-0.134999999999998,100.0,27.646,28.947,41.834,43.824,0.0,1.0,100.0,0.0,0.0,0.0,0.0,2966.0,3242.2,4109.5,4296.2,305.86,304.255,314.872,314.13925,21.9854,20.6295,21.9639,21.475,314.999998,314.999998,324.999988,324.999988,99.55911428571429,99.50736666666667,99.56682857142857,99.5468,0.16500000000000004,0.022250000000000103,0.03283333333333334,0.2565,-0.03833333333332689,-0.041666666666671404,1.3166666666666667,1.2770000000000001,38.409,29.934333333333335,38.274,35.219,56.016,35.321,59.3965,52.443,53.944,34.4295,57.992,50.7705,53.093,33.963499999999996,57.906,50.17766666666667,-0.09999999999999987,-0.06150000000000011,0.10091000000000001,0.11182,0.0,212.505,212.625,208.92666666666668,208.925,0.0,0.0
23,0.0,1.0,0.0,1.0,1.0,0.0,0.0,1.0,0.0,100.0,1.0,1.1856,26.0,0.0,0.0,0.0,59.999996,0.0,26.0,26.0,26.0,26.0,0.12644444444444436,0.19450000000000012,0.0196,292.343,-2.7521,-2.6134285714285714,-1.57855,-1.5329000000000002,-198.82,215.96,190.508375,0.0,0.0,0.0,0.0,0.04626666666666667,-5.498166666666667,-5.498166666666667,-0.5861000000000001,-0.4655,0.07088888888888878,-1.496,67.974,0.11670000000000001,-0.245925,-0.19399999999999995,100.0,1.0,1.0,209.24,0.0,0.0,0.0,0.0,0.0,0.0,0.0,7825.7,0.0,55.0,5.0,244.68666666666667,1.0,0.0,0.0,0.0,0.0,0.0,0.0,0.0,1.1550000000000011,1.1550000000000011,0.0,0.0,1.0,55.0,616.79921,10000.0,85.000001,85.000001,85.000001,85.000001,395.0,0.0,0.0,0.0,1.0,166.665,51.849000000000004,51.849000000000004,48.218,48.218,34.0,-23.515,25.656666666666666,-23.513333333333332,34.754999999999995,0.0,1781.385,0.629999999999999,100.0,27.734,28.844,42.126,43.964,0.0,1.0,100.0,0.0,0.0,0.0,0.0,3196.4285714285716,3156.8,4028.875,4091.1000000000004,305.332,304.58575,315.01975,314.56175,21.9941,20.634900000000002,21.9736,21.4836,314.999998,314.999998,324.999988,324.999988,99.55911428571429,99.50738333333334,99.56694285714286,99.54691428571428,0.11375000000000002,-0.026000000000000023,-0.0051666666666666675,0.2225,-0.03333333333333144,-0.036666666666668846,1.3196666666666665,1.3025,38.463,29.968333333333334,38.335,35.2725,56.004999999999995,35.358000000000004,59.4235,52.496,53.933,34.464,58.0165,50.822,53.081,33.997,57.928,50.228,-0.03200000000000003,-0.1299999999999999,0.10418500000000001,0.10827,0.0,212.825,212.85500000000002,209.24,209.24,0.0,0.0
24,0.0,1.0,0.0,1.0,1.0,0.0,0.0,1.0,0.0,100.0,1.0,1.1856,26.0,0.0,0.0,0.0,59.999996,0.0,26.0,26.0,26.0,26.0,0.04422222222222216,0.21030000000000015,-0.0010666666666666667,292.755,-2.7337,-2.6401428571428576,-1.5895000000000001,-1.5331000000000001,-195.55,215.9725,190.48625,0.0,0.0,0.0,0.0,0.04816666666666667,-5.498166666666667,-5.498166666666667,-0.5869,-0.21450000000000014,0.04755555555555557,-0.8399999999999999,68.068,0.0659,-0.2272,0.7879999999999994,100.0,1.0,1.0,209.54000000000002,0.0,0.0,0.0,0.0,0.0,0.0,0.0,7836.9,0.0,55.0,5.0,245.02666666666664,0.0,0.0,0.0,0.0,0.0,0.0,0.0,0.0,1.2029999999999994,1.2029999999999994,0.0,0.0,0.0,55.0,616.79921,10000.0,85.000001,85.000001,85.000001,85.000001,395.0,0.0,0.0,0.0,1.0,166.665,52.719,52.719,48.096000000000004,48.096000000000004,34.0,-23.27,21.561666666666667,-29.066666666666666,30.6625,0.0,1781.337,1.0150000000000006,100.0,27.9,28.403,42.194,43.544,0.0,1.0,100.0,0.0,0.0,0.0,0.0,2968.142857142857,2931.7,4267.75,4016.3,305.9085,305.374,314.59825,314.8595,22.0028,20.6401,21.9832,21.492,314.999998,314.999998,324.999988,324.999988,99.55912857142857,99.50738333333334,99.56705714285714,99.54704285714286,0.07075000000000009,-0.07950000000000002,-0.074,0.16283333333333336,-0.061666666666667425,-0.03833333333332689,1.3206666666666667,1.354,38.516999999999996,30.000666666666667,38.394999999999996,35.325,55.992000000000004,35.394,59.449,52.5445,53.92,34.4975,58.04,50.869,53.068,34.028999999999996,57.948499999999996,50.27433333333333,-0.0020000000000000018,-0.1615000000000002,0.10998000000000001,0.10966000000000001,0.0,213.19,213.13,209.54000000000002,209.54000000000002,0.0,0.0
25,0.0,1.0,0.0,1.0,1.0,0.0,0.0,1.0,0.0,100.0,1.0,1.1856,26.0,0.0,0.0,0.0,59.999996,0.0,26.0,26.0,26.0,26.0,-0.041888888888888864,0.1887000000000001,-0.07953333333333334,292.786,-2.6999,-2.665,-1.56745,-1.5459,-192.07999999999998,215.9875,190.4615,0.0,0.0,0.0,0.0,0.0502,-5.498166666666667,-5.498166666666667,-0.626,-0.4315,0.025333333333333208,-0.4790000000000001,68.167,0.0018000000000000002,-0.244125,1.38,100.0,1.0,1.0,209.94,0.0,0.0,0.0,0.0,0.0,0.0,0.0,7851.9,0.0,55.0,5.0,245.38333333333333,1.0,0.0,0.0,0.0,0.0,0.0,0.0,0.0,1.2540000000000013,1.2540000000000013,0.0,0.0,1.0,55.0,616.79921,10000.0,85.000001,85.000001,85.000001,85.000001,395.0,0.0,0.0,0.0,1.0,333.33500000000004,51.987,51.987,48.584,48.584,34.0,-26.325,23.52,-28.10666666666667,26.2075,0.0,1781.284,1.0599999999999987,100.0,28.01,28.142,42.508,42.931,0.0,1.0,100.0,0.0,0.0,0.0,0.0,3133.714285714286,3280.2,3882.5,3868.6000000000004,305.3065,304.4385,315.38725,315.295,22.0119,20.6456,21.9934,21.500799999999998,314.999998,314.999998,324.999988,324.999988,99.55914285714286,99.5074,99.56718571428571,99.54717142857143,0.031500000000000083,-0.10449999999999993,-0.12416666666666668,0.1005,-0.04333333333332945,-0.03999999999999915,1.3643333333333334,1.4015,38.574,30.035333333333334,38.459,35.379999999999995,55.974000000000004,35.434,59.4765,52.594,53.903,34.535,58.0655,50.917,53.05,34.0645,57.971000000000004,50.321333333333335,0.00749999999999984,-0.16999999999999993,0.09889,0.10996500000000001,0.0,213.5,213.37,209.94,209.94,0.0,0.0
26,0.0,1.0,0.0,1.0,1.0,0.0,0.0,1.0,0.0,100.0,1.0,1.1856,26.0,0.0,0.0,0.0,59.999996,0.0,26.0,26.0,26.0,26.0,-0.09999999999999998,0.20500000000000007,0.0614,291.687,-2.6628,-2.6891428571428575,-1.49735,-1.6081,-188.6,216.0,190.435875,0.0,0.0,0.0,0.0,0.05223333333333334,-5.498166666666667,-5.498166666666667,-0.5911000000000001,1.0165,-0.04466666666666663,-1.573,68.269,-0.055400000000000005,-0.21295,1.734,100.0,1.0,1.0,210.08666666666667,0.0,0.0,0.0,0.0,0.0,0.0,0.0,7857.4,0.0,55.0,5.0,245.74666666666667,0.0,0.0,0.0,0.0,0.0,0.0,0.0,0.0,1.3049999999999997,1.3049999999999997,0.0,0.0,0.0,55.0,616.79921,10000.0,85.000001,85.000001,85.000001,85.000001,395.0,0.0,0.0,0.0,1.0,166.665,51.163,51.163,47.394,47.394,34.0,-29.744999999999997,20.38,-36.48,26.240000000000002,0.0,1781.235,0.9250000000000007,100.0,29.102,28.655,43.043,42.775999999999996,0.0,1.0,100.0,0.0,0.0,0.0,0.0,3375.0,3059.5,4449.0,4189.9,304.6425,304.934,314.08675,314.4525,22.0215,20.6513,22.0037,21.5097,314.999998,314.999998,324.999988,324.999988,99.55914285714286,99.50741666666667,99.56731428571429,99.54728571428572,-0.0007500000000000284,-0.14474999999999993,-0.19366666666666665,0.02766666666666667,-0.030000000000001137,-0.045000000000001705,1.2443333333333335,1.3105,38.635,30.070999999999998,38.522999999999996,35.4355,55.961,35.4795,59.5075,52.644,53.891,34.576499999999996,58.0945,50.9655,53.037,34.1045,57.997,50.36866666666667,-0.010499999999999954,-0.1575000000000002,0.10894500000000001,0.10523500000000001,0.0,213.865,213.73000000000002,210.08666666666667,210.0875,0.0,0.0
27,0.0,1.0,0.0,1.0,1.0,0.0,0.0,1.0,0.0,100.0,1.0,1.1856,26.0,0.0,0.0,0.0,59.999996,0.0,26.0,26.0,26.0,26.0,-0.14177777777777778,0.19040000000000012,0.053000000000000005,291.779,-2.6686,-2.729285714285714,-1.5324,-1.6049,-185.32,216.01,190.412875,0.0,0.0,0.0,0.0,0.05413333333333334,-5.498166666666667,-5.498166666666667,-0.5995,-1.1425,-0.06977777777777794,-0.8739999999999997,68.363,-0.0859,-0.24455000000000002,1.5979999999999999,100.0,1.0,1.0,210.34333333333333,0.0,0.0,0.0,0.0,0.0,0.0,0.0,7867.0,0.0,55.0,5.0,246.08666666666664,1.0,0.0,0.0,0.0,0.0,0.0,0.0,0.0,1.352999999999998,1.352999999999998,0.0,0.0,1.0,55.0,616.79921,10000.0,85.000001,85.000001,85.000001,85.000001,395.0,0.0,0.0,0.0,1.0,333.33500000000004,51.743,51.743,47.028,47.028,34.0,-30.612499999999997,18.42833333333333,-37.29666666666667,24.035,0.0,1781.186,0.7850000000000001,100.0,28.908,28.276,44.255,43.207,0.0,1.0,100.0,0.0,0.0,0.0,0.0,3358.857142857143,2914.5,4306.875,4087.0,304.821,305.50975,314.3565,314.6755,22.0304,20.6564,22.0138,21.5183,314.999998,314.999998,324.999988,324.999988,99.55914285714286,99.50743333333334,99.56744285714285,99.54741428571428,-0.02674999999999994,-0.17074999999999996,-0.22366666666666665,0.0021666666666666666,-0.04333333333332945,-0.041666666666671404,1.2530000000000001,1.325,38.69,30.102333333333334,38.586,35.4895,55.947,35.519,59.5415,52.694,53.876999999999995,34.613,58.126,51.0135,53.022,34.1395,58.025999999999996,50.415333333333336,-0.020499999999999963,-0.14250000000000007,0.10519,0.10351,0.0,214.10000000000002,213.965,210.34333333333333,210.3425,0.0,0.0
28,0.0,1.0,0.0,1.0,1.0,0.0,0.0,1.0,0.0,100.0,1.0,1.1856,26.0,0.0,0.0,0.0,59.999996,0.0,26.0,26.0,26.0,26.0,-0.16633333333333333,0.20090000000000008,-0.06466666666666666,292.313,-2.5939,-2.7645714285714287,-1.54115,-1.6162,-181.82999999999998,216.01749999999998,190.388125,0.0,0.0,0.0,0.0,0.05616666666666666,-5.498166666666667,-5.498166666666667,-0.6205,0.508,-0.08077777777777806,0.4740000000000002,68.459,-0.1073,-0.24147500000000002,1.4900000000000002,100.0,1.0,1.0,210.82,0.0,0.0,0.0,0.0,0.0,0.0,0.0,7884.8,0.0,55.0,5.0,246.43,0.0,0.0,0.0,0.0,0.0,0.0,0.0,0.0,1.404,1.404,0.0,0.0,0.0,55.0,616.79921,10000.0,85.000001,85.000001,85.000001,85.000001,395.0,0.0,0.0,0.0,1.0,166.665,51.727000000000004,51.727000000000004,48.141,48.141,34.0,-29.3125,19.61,-34.72,22.34,0.0,1781.136,0.620000000000001,100.0,29.297,27.989,43.719,42.424,0.0,1.0,100.0,0.0,0.0,0.0,0.0,3253.142857142857,2999.2,4118.625,3923.9,304.861,305.29075,314.8955,315.231,22.0399,20.6618,22.0239,21.527,314.999998,314.999998,324.999988,324.999988,99.55915714285715,99.50745,99.56757142857143,99.54754285714286,-0.02949999999999997,-0.16425,-0.2205,-0.0033333333333333335,-0.051666666666669414,-0.03333333333333144,1.346,1.3995,38.75,30.136333333333333,38.649,35.544,55.934,35.5625,59.569,52.7405,53.864999999999995,34.653,58.1515,51.058,53.009,34.178,58.049,50.459,-0.030000000000000027,-0.12849999999999984,0.097725,0.10614000000000001,0.0,214.435,214.29000000000002,210.82,210.82,0.0,0.0
29,0.0,1.0,0.0,1.0,1.0,0.0,0.0,1.0,0.0,100.0,1.0,1.1856,26.0,0.0,0.0,0.0,59.999996,0.0,26.0,26.0,26.0,26.0,-0.17522222222222217,0.20090000000000008,0.0035666666666666668,292.053,-2.6262,-2.7007142857142856,-1.5299,-1.6178000000000001,-178.13,216.01999999999998,190.360625,0.0,0.0,0.0,0.0,0.058300000000000005,-5.498166666666667,-5.498166666666667,-0.6145,-0.7655000000000001,-0.0853333333333337,0.7330000000000005,68.565,-0.11170000000000001,-0.22340000000000002,1.1879999999999997,100.0,1.0,1.0,210.97,0.0,0.0,0.0,0.0,0.0,0.0,0.0,7890.4,0.0,55.0,5.0,246.81666666666666,1.0,0.0,0.0,0.0,0.0,0.0,0.0,0.0,1.4579999999999984,1.4579999999999984,0.0,0.0,1.0,55.0,616.79921,10000.0,85.000001,85.000001,85.000001,85.000001,395.0,0.0,0.0,0.0,1.0,166.665,52.063,52.063,47.272,47.272,34.0,-29.46,19.685000000000002,-36.93333333333334,24.4925,0.0,1781.082,0.46000000000000085,100.0,28.904,27.548000000000002,44.129,42.516,0.0,1.0,100.0,0.0,0.0,0.0,0.0,3291.0,3082.4,4311.5,4149.5,304.945,305.2525,314.3585,314.61825,22.0499,20.6674,22.0349,21.5365,314.999998,314.999998,324.999988,324.999988,99.55915714285715,99.50748333333334,99.5677,99.54767142857143,-0.022749999999999937,-0.15849999999999997,-0.2195,0.0003333333333333333,-0.02833333333332888,-0.05333333333332746,1.2823333333333333,1.32,38.812,30.171,38.718,35.603,55.918,35.6065,59.6045,52.794,53.849999999999994,34.6935,58.185,51.1095,52.992999999999995,34.216499999999996,58.079,50.509,-0.045499999999999874,-0.11100000000000021,0.100955,0.10986000000000001,0.0,214.715,214.625,210.97,210.9675,0.0,0.0
30,0.0,1.0,0.0,1.0,1.0,0.0,0.0,1.0,0.0,100.0,1.0,1.1856,26.0,0.0,0.0,0.0,59.999996,0.0,26.0,26.0,26.0,26.0,-0.14477777777777778,0.20300000000000007,0.012433333333333333,291.672,-2.5385,-2.6891428571428575,-1.5356,-1.558,-175.04,216.01999999999998,190.337625,0.0,0.0,0.0,0.0,0.0601,-5.498166666666667,-5.498166666666667,-0.6256,0.736,-0.08677777777777784,-0.5289999999999999,68.649,-0.10590000000000001,-0.2369,1.0940000000000003,100.0,1.0,1.0,211.34333333333333,0.0,0.0,0.0,0.0,0.0,0.0,0.0,7904.4,0.0,55.0,5.0,247.12,0.0,0.0,0.0,0.0,0.0,0.0,1.0,0.0,1.5030000000000001,1.5030000000000001,0.0,0.0,0.0,55.0,616.79921,10000.0,85.000001,85.000001,85.000001,85.000001,395.0,0.0,0.0,0.0,1.0,333.33500000000004,50.69,50.69,47.684,47.684,34.0,-30.875,20.333333333333332,-35.96666666666667,22.725,0.0,1781.036,0.3200000000000003,100.0,29.527,28.431,43.79,42.42,0.0,1.0,100.0,0.0,0.0,0.0,0.0,3512.857142857143,3122.4,4230.125,4058.9,304.2395,304.63875,314.7165,314.91475,22.0585,20.6723,22.044,21.5443,314.999998,314.999998,324.999988,324.999988,99.55917142857143,99.5075,99.56781428571429,99.54778571428571,-0.02124999999999999,-0.15925,-0.22516666666666665,-0.0003333333333333333,-0.060000000000002274,-0.03833333333332689,1.3316666666666666,1.3665,38.864999999999995,30.201999999999998,38.775,35.652,55.908,35.646,59.629999999999995,52.8365,53.841,34.7305,58.209,51.1505,52.983000000000004,34.2515,58.101,50.549,-0.05499999999999994,-0.10899999999999999,0.102595,0.11402500000000002,0.0,215.015,214.9,211.34333333333333,211.345,0.0,0.0
31,0.0,1.0,0.0,1.0,1.0,0.0,0.0,1.0,0.0,100.0,1.0,1.1856,26.0,0.0,0.0,0.0,59.999996,0.0,26.0,26.0,26.0,26.0,-0.12255555555555553,0.1845000000000001,0.026033333333333332,291.489,-2.6207,-2.7735714285714286,-1.54925,-1.5610000000000002,-171.54,216.015,190.312,0.0,0.0,0.0,0.0,0.06213333333333334,-5.498166666666667,-5.498166666666667,-0.5972000000000001,-0.3460000000000001,-0.07511111111111157,0.484,68.749,-0.0936,-0.226075,0.7279999999999998,100.0,1.0,1.0,211.48000000000002,0.0,0.0,0.0,0.0,0.0,0.0,0.0,7909.5,0.0,55.0,5.0,247.47666666666666,1.0,0.0,0.0,0.0,0.0,0.0,1.0,0.0,1.5539999999999985,1.5539999999999985,0.0,0.0,1.0,55.0,616.79921,10000.0,85.000001,85.000001,85.000001,85.000001,395.0,0.0,0.0,0.0,1.0,333.33500000000004,51.575,51.575,46.539,46.539,34.0,-26.732499999999998,20.983333333333334,-36.61,26.0475,0.0,1780.985,0.1999999999999993,100.0,29.511,28.353,44.524,43.098,0.0,1.0,100.0,0.0,0.0,0.0,0.0,3134.0,3079.8,4355.25,4267.1,305.331,305.19475,314.34725,314.22875,22.068,20.6778,22.0545,21.5535,314.999998,314.999998,324.999988,324.999988,99.55917142857143,99.5075,99.56795714285714,99.54791428571428,0.004750000000000032,-0.14500000000000002,-0.198,0.02266666666666667,-0.006666666666667709,-0.06666666666666998,1.2309999999999999,1.2735,38.925,30.236333333333334,38.84,35.709,55.894,35.69,59.664500000000004,52.8895,53.828,34.7705,58.241,51.201499999999996,52.969,34.29,58.129999999999995,50.59866666666667,-0.0665,-0.10150000000000015,0.09931500000000001,0.110935,0.0,215.285,215.24,211.48000000000002,211.47750000000002,0.0,0.0
32,0.0,1.0,0.0,1.0,1.0,0.0,0.0,1.0,0.0,100.0,1.0,1.1856,26.0,0.0,0.0,0.0,59.999996,0.0,26.0,26.0,26.0,26.0,-0.08966666666666656,0.18330000000000002,-0.05913333333333334,291.946,-2.6474,-2.7314285714285718,-1.5112,-1.6685,-168.03,216.0075,190.287,0.0,0.0,0.0,0.0,0.06416666666666666,-5.498166666666667,-5.498166666666667,-0.6225,-0.1180000000000001,-0.09755555555555562,-1.13,68.843,-0.07780000000000001,-0.24752500000000002,0.6420000000000003,100.0,1.0,1.0,211.96333333333334,0.0,0.0,0.0,0.0,0.0,0.0,0.0,7927.6,0.0,55.0,5.0,247.81333333333333,0.0,0.0,0.0,0.0,0.0,0.0,1.0,0.0,1.6050000000000004,1.6050000000000004,0.0,0.0,0.0,55.0,616.79921,10000.0,85.000001,85.000001,85.000001,85.000001,395.0,0.0,0.0,0.0,1.0,333.33500000000004,51.422,51.422,47.653,47.653,34.0,-28.935000000000002,20.93333333333333,-32.16666666666667,25.0775,0.0,1780.934,0.15000000000000213,100.0,29.137999999999998,28.508,44.202,42.971000000000004,0.0,1.0,100.0,0.0,0.0,0.0,0.0,3395.142857142857,2999.5,4038.75,3960.6000000000004,304.746,305.17475,315.11775,315.101,22.0774,20.6834,22.0647,21.5624,314.999998,314.999998,324.999988,324.999988,99.55917142857143,99.50753333333333,99.56808571428571,99.54802857142857,0.014000000000000012,-0.12924999999999998,-0.19333333333333336,0.02733333333333333,-0.061666666666667425,-0.030000000000001137,1.3453333333333335,1.361,38.983999999999995,30.271,38.905,35.765,55.879000000000005,35.7325,59.694,52.9375,53.813,34.81,58.2685,51.2475,52.954,34.328,58.155,50.64366666666667,-0.0754999999999999,-0.09200000000000008,0.105785,0.10165,0.0,215.575,215.5,211.96333333333334,211.965,0.0,0.0
33,0.0,1.0,0.0,1.0,1.0,0.0,0.0,1.0,0.0,100.0,1.0,1.1856,26.0,0.0,0.0,0.0,59.999996,0.0,26.0,26.0,26.0,26.0,-0.09044444444444444,0.17989999999999995,-0.03203333333333333,291.916,-2.5899,-2.7525714285714287,-1.55085,-1.6129,-164.51999999999998,215.9975,190.260875,0.0,0.0,0.0,0.0,0.06623333333333334,-5.498166666666667,-5.498166666666667,-0.6187,-0.11549999999999994,-0.09366666666666656,1.3950000000000005,68.94,-0.0655,-0.2258,0.5300000000000002,100.0,1.0,1.0,212.15666666666667,0.0,0.0,0.0,0.0,0.0,0.0,0.0,7934.9,0.0,55.0,5.0,248.16666666666666,1.0,0.0,0.0,0.0,0.0,0.0,1.0,0.0,1.6559999999999988,1.6559999999999988,0.0,0.0,1.0,55.0,616.79921,10000.0,85.000001,85.000001,85.000001,85.000001,395.0,0.0,0.0,0.0,1.0,166.665,51.865,51.865,47.44,47.44,34.0,-25.724999999999998,21.465,-33.879999999999995,26.942500000000003,0.0,1780.884,0.010000000000001563,100.0,29.212,28.116,44.087,42.928,0.0,1.0,100.0,0.0,0.0,0.0,0.0,3178.4285714285716,2968.8,4229.125,4151.5,305.078,305.459,314.61,314.62625,22.0868,20.6888,22.075,21.5713,314.999998,314.999998,324.999988,324.999988,99.55917142857143,99.50753333333333,99.56821428571429,99.54815714285715,0.03574999999999995,-0.10924999999999996,-0.17383333333333334,0.046,-0.030000000000001137,-0.051666666666669414,1.2923333333333333,1.32,39.043,30.304666666666666,38.969,35.821,55.864999999999995,35.772,59.7235,52.987,53.8,34.846000000000004,58.2965,51.295,52.94,34.3625,58.1795,50.68966666666667,-0.08250000000000002,-0.08199999999999985,0.10664000000000001,0.10839000000000001,0.0,215.85500000000002,215.825,212.15666666666667,212.1575,0.0,0.0
34,0.0,1.0,0.0,1.0,1.0,0.0,0.0,1.0,0.0,100.0,1.0,1.1856,26.0,0.0,0.0,0.0,59.999996,0.0,26.0,26.0,26.0,26.0,-0.07433333333333336,0.19920000000000004,-0.03976666666666667,292.297,-2.6458,-2.7807142857142857,-1.52675,-1.5907,-161.20999999999998,215.985,190.2355,0.0,0.0,0.0,0.0,0.06813333333333334,-5.498166666666667,-5.498166666666667,-0.6446000000000001,-0.7355,-0.05788888888888888,1.2240000000000002,69.031,-0.0521,-0.236325,0.3100000000000005,100.0,1.0,1.0,212.45,0.0,0.0,0.0,0.0,0.0,0.0,0.0,7945.8,0.0,55.0,5.0,248.49333333333334,0.0,0.0,0.0,0.0,0.0,0.0,1.0,0.0,1.7040000000000006,1.7040000000000006,0.0,0.0,0.0,55.0,616.79921,10000.0,85.000001,85.000001,85.000001,85.000001,395.0,0.0,0.0,0.0,1.0,333.33500000000004,52.353,52.353,47.867,47.867,34.0,-24.7375,21.845,-30.96333333333333,27.515,0.0,1780.834,-0.05000000000000071,100.0,28.83,27.887999999999998,43.893,43.032,0.0,1.0,100.0,0.0,0.0,0.0,0.0,3053.0,2948.5,4001.75,4149.4,305.501,305.44225,315.0795,314.63575,22.0956,20.6938,22.084600000000002,21.5798,314.999998,314.999998,324.999988,324.999988,99.55917142857143,99.50755,99.56834285714285,99.54828571428571,0.041749999999999954,-0.10399999999999998,-0.16616666666666666,0.06416666666666668,-0.03333333333333144,-0.045000000000001705,1.3279999999999998,1.3395000000000001,39.097,30.336666666666666,39.028999999999996,35.8735,55.849999999999994,35.8085,59.75,53.034,53.785,34.879999999999995,58.321,51.3405,52.925,34.3945,58.201499999999996,50.734,-0.08299999999999996,-0.0754999999999999,0.10952,0.10499000000000001,0.0,216.125,216.085,212.45,212.45,0.0,0.0
35,0.0,1.0,0.0,1.0,1.0,0.0,0.0,1.0,0.0,100.0,1.0,1.1856,26.0,0.0,0.0,0.0,59.999996,0.0,26.0,26.0,26.0,26.0,-0.0464444444444444,0.19169999999999998,-0.17613333333333334,292.725,-2.7383,-2.6724285714285716,-1.60805,-1.5725,-157.68,215.97,190.20675,0.0,0.0,0.0,0.0,0.0702,-5.498166666666667,-5.498166666666667,-0.6879000000000001,-0.7675000000000001,-0.050666666666666416,-0.7400000000000002,69.125,-0.039,-0.24215,0.20000000000000018,100.0,1.0,1.0,212.82999999999998,0.0,0.0,0.0,0.0,0.0,0.0,0.0,7960.0,0.0,55.0,5.0,248.83333333333334,1.0,0.0,0.0,0.0,0.0,0.0,1.0,0.0,1.754999999999999,1.754999999999999,0.0,0.0,1.0,55.0,616.79921,10000.0,85.000001,85.000001,85.000001,85.000001,395.0,0.0,0.0,0.0,1.0,166.665,52.414,52.414,47.989,47.989,34.0,-24.8075,23.23166666666667,-31.126666666666665,24.9725,0.0,1780.785,-0.07000000000000028,100.0,28.389,27.929000000000002,43.35,42.851,0.0,1.0,100.0,0.0,0.0,0.0,0.0,3046.4285714285716,3090.5,4036.375,3799.5,305.711,304.9615,315.19325,315.51425,22.1047,20.6993,22.0946,21.5887,314.999998,314.999998,324.999988,324.999988,99.55918571428572,99.50756666666666,99.56847142857143,99.54841428571429,0.052750000000000075,-0.07824999999999993,-0.15116666666666667,0.077,-0.04333333333332945,-0.02499999999999858,1.3756666666666666,1.3725,39.153999999999996,30.370333333333335,39.091,35.929,55.833,35.846000000000004,59.7755,53.082,53.769999999999996,34.914500000000004,58.3445,51.3865,52.908,34.428,58.2225,50.778999999999996,-0.09149999999999991,-0.06099999999999994,0.10403000000000001,0.10852500000000001,0.0,216.39499999999998,216.36,212.82999999999998,212.82999999999998,0.0,0.0
