,ABS Active,ABS Enabled,AID Allow Tire Blankets,AID Auto Blip,AID Auto Clutch,AID Auto Shift,AID Fuel Rate,AID Ideal Line,AID Mech Damage,AID Stability,AID Tire Wear Rate,Air Density,Air Temp,Ballast,Best Lap Delta,Best Lap Time,Brake Bias,Brake Pos,Brake Temp FL,Brake Temp FR,Brake Temp RL,Brake Temp RR,CG Accel Lateral,CG Accel Longitudinal,CG Accel Vertical,CG Height,Camber FL,Camber FR,Camber RL,Camber RR,Car Coord X,Car Coord Y,Car Coord Z,Car Damage Front,Car Damage Left,Car Damage Rear,Car Damage Right,Car Pos Norm,Caster FL,Caster FR,Chassis Pitch Angle,Chassis Pitch Rate,Chassis Roll Angle,Chassis Roll Rate,Chassis Velocity X,Chassis Velocity Y,Chassis Velocity Z,Chassis Yaw Rate,Clutch Pos,DRS Active,DRS Available,Drive Train Speed,ERS Heat Charging,ERS Is Charging,ERS Max Energy,ERS Power Level,ERS Recovery Level,Engine Brake Setting,Engine Limiter,Engine RPM,Flags,Fuel Level,Gear,Ground Speed,HR Sample Clock,In Pit,KERS Charge,KERS Deployed Energy,KERS Input,KERS Max Energy,LR Sample Clock,Lap Invalidated,Lap Time,Lap Time2,Last Lap Time,Last Sector Time,MR Sample Clock,Max Fuel,Max Power,Max RPM,Max Sus Travel FL,Max Sus Travel FR,Max Sus Travel RL,Max Sus Travel RR,Max Torque,Max Turbo Boost,Num Tires Off Track,Penalties Enabled,Position,Raw Data Sample Rate,Ride Height FL,Ride Height FR,Ride Height RL,Ride Height RR,Road Temp,Self Align Torque FL,Self Align Torque FR,Self Align Torque RL,Self Align Torque RR,Session Lap Count,Session Time Left,Steering Angle,Surface Grip,Suspension Travel FL,Suspension Travel FR,Suspension Travel RL,Suspension Travel RR,TC Active,TC Enabled,Throttle Pos,Tire Dirt Level FL,Tire Dirt Level FR,Tire Dirt Level RL,Tire Dirt Level RR,Tire Load FL,Tire Load FR,Tire Load RL,Tire Load RR,Tire Loaded Radius FL,Tire Loaded Radius FR,Tire Loaded Radius RL,Tire Loaded Radius RR,Tire Pressure FL,Tire Pressure FR,Tire Pressure RL,Tire Pressure RR,Tire Radius FL,Tire Radius FR,Tire Radius RL,Tire Radius RR,Tire Rubber Grip FL,Tire Rubber Grip FR,Tire Rubber Grip RL,Tire Rubber Grip RR,Tire Slip Angle FL,Tire Slip Angle FR,Tire Slip Angle RL,Tire Slip Angle RR,Tire Slip Ratio FL,Tire Slip Ratio FR,Tire Slip Ratio RL,Tire Slip Ratio RR,Tire Temp Core FL,Tire Temp Core FR,Tire Temp Core RL,Tire Temp Core RR,Tire Temp Inner FL,Tire Temp Inner FR,Tire Temp Inner RL,Tire Temp Inner RR,Tire Temp Middle FL,Tire Temp Middle FR,Tire Temp Middle RL,Tire Temp Middle RR,Tire Temp Outer FL,Tire Temp Outer FR,Tire Temp Outer RL,Tire Temp Outer RR,Toe In FL,Toe In FR,Toe In RL,Toe In RR,Turbo Boost,Wheel Angular Speed FL,Wheel Angular Speed FR,Wheel Angular Speed RL,Wheel Angular Speed RR,Wind Direction,Wind Speed
0,0.0,0.0,0.0,1.0,1.0,0.0,0.0,1.0,0.0,100.0,1.0,1.1856,26.0,0.0,0.0,0.0,59.99999,0.0,26.0,26.0,26.0,26.0,-0.025555555555555554,0.3054000000000001,0.08586666666666666,293.411,-2.7436,-2.6262222222222222,-1.5310000000000001,-1.5117,-275.65,215.6275,190.9875,0.0,0.0,0.0,0.0,0.0016,-5.498166666666667,-5.498166666666667,-0.5558000000000001,1.682,-0.004444444444444251,-0.09799999999999986,65.513,-0.0307,-0.216875,0.10999999999999943,100.0,1.0,1.0,202.27666666666667,0.0,0.0,0.0,0.0,0.0,0.0,0.0,8573.7,0.0,55.0,5.0,235.81666666666666,0.0,0.0,0.0,0.0,0.0,0.0,0.0,0.0,0.0030000000000001137,0.0030000000000001137,0.0,0.0,0.0,55.0,616.79921,10000.0,85.0,85.0,85.0,85.0,395.0,0.0,0.0,0.0,1.0,20.0,51.315,51.315,48.874,48.874,34.0,-28.6825,32.174,-28.5,25.947499999999998,0.0,1783.214,0.41499999999999915,100.0,27.122,26.904,40.483000000000004,40.117000000000004,0.0,0.0,100.0,0.0,0.0,0.0,0.0,3265.285714285714,4270.4,4025.75,4088.5,304.8095,301.617,315.01675,314.66675,21.7471,20.4994,21.698777777777778,21.2216,314.99999,314.99999,324.99998,324.99998,99.55761428571428,99.50681666666667,99.56288571428571,99.54192857142857,0.015249999999999986,-0.08466666666666656,-0.13916666666666666,0.08483333333333333,-0.05666666666667197,-0.07833333333332604,1.5906666666666667,1.577,36.919,29.121333333333332,36.617999999999995,33.6355,55.822,34.251,58.3035,50.5225,53.784,33.480000000000004,56.978,48.942,52.982,33.093,56.972,48.39266666666666,-0.04499999999999993,-0.0990000000000002,0.10684,0.1057,0.0,205.26,205.255,202.27666666666667,202.27666666666667,0.0,0.0
1,0.0,0.0,0.0,1.0,1.0,0.0,0.0,1.0,0.0,100.0,1.0,1.1856,26.0,0.0,0.0,0.0,59.999996,0.0,26.0,26.0,26.0,26.0,-0.09477777777777785,0.30120000000000013,0.13743333333333332,292.526,-2.6558,-2.705222222222222,-1.5493000000000001,-1.3813,-272.11,215.6325,190.96625,0.0,0.0,0.0,0.0,0.0036666666666666666,-5.498166666666667,-5.498166666666667,-0.48190000000000005,-1.8033333333333332,-0.049555555555555575,-0.3129999999999997,65.68,-0.0307,-0.190275,0.798,100.0,1.0,1.0,202.2266666666667,0.0,0.0,0.0,0.0,0.0,0.0,0.0,8571.6,0.0,55.0,5.0,236.41333333333333,1.0,0.0,0.0,0.0,0.0,0.0,0.0,0.0,0.05699999999999861,0.05699999999999861,0.0,0.0,1.0,55.0,616.79921,10000.0,85.000001,85.000001,85.000001,85.000001,395.0,0.0,0.0,0.0,1.0,166.665,54.291,54.291,47.638,47.638,34.0,-23.3875,17.081999999999997,-37.01,31.2075,0.0,1783.16,0.46999999999999886,100.0,27.407,26.944,42.422,43.171,0.0,0.0,100.0,0.0,0.0,0.0,0.0,2865.714285714286,2480.0,4697.375,5102.700000000001,306.067,306.90825,313.216,311.79825,21.7574,20.5047,21.710333333333335,21.2314,314.999998,314.999998,324.999988,324.999988,99.55761428571428,99.50683333333333,99.56304285714286,99.54208571428572,0.027499999999999858,-0.10799999999999998,-0.15,0.057,-0.04333333333332945,-0.02833333333332888,1.3066666666666666,1.335,36.983999999999995,29.154,36.689,33.696,55.806,34.292,58.3565,50.6,53.768,33.518,57.0275,49.016,52.965,33.1295,57.0185,48.465666666666664,-0.038000000000000034,-0.11149999999999993,0.10369500000000001,0.10705,0.0,205.76,205.69,202.2266666666667,202.2266666666667,0.0,0.0
2,0.0,0.0,0.0,1.0,1.0,0.0,0.0,1.0,0.0,100.0,1.0,1.1856,26.0,0.0,0.0,0.0,59.999996,0.0,26.0,26.0,26.0,26.0,-0.09799999999999998,0.2982,0.03503333333333333,293.991,-2.6425,-2.6544444444444446,-1.5354,-1.5088,-268.76,215.6325,190.947375,0.0,0.0,0.0,0.0,0.005633333333333334,-5.498166666666667,-5.498166666666667,-0.5701,0.6013333333333334,-0.006888888888889166,2.043,65.815,-0.0379,-0.2612,0.9800000000000004,100.0,1.0,1.0,203.58333333333331,0.0,0.0,0.0,0.0,0.0,0.0,0.0,8629.2,0.0,55.0,5.0,236.90666666666667,0.0,0.0,0.0,0.0,0.0,0.0,0.0,0.0,0.10800000000000054,0.10800000000000054,0.0,0.0,0.0,55.0,616.79921,10000.0,85.000001,85.000001,85.000001,85.000001,395.0,0.0,0.0,0.0,1.0,166.665,52.185,52.185,50.766,50.766,34.0,-28.5825,21.509999999999998,-25.383333333333333,18.845,0.0,1783.11,0.5700000000000003,100.0,28.073,27.287,41.854,41.54,0.0,0.0,100.0,0.0,0.0,0.0,0.0,3317.714285714286,3129.8,3518.625,3432.8,304.7155,304.82475,316.2425,316.35025,21.7675,20.5098,21.720555555555556,21.2396,314.999998,314.999998,324.999988,324.999988,99.55761428571428,99.50683333333333,99.56318571428571,99.54221428571428,0.006000000000000227,-0.1193333333333334,-0.1805,0.050333333333333334,-0.05833333333333002,-0.06666666666666998,1.741,1.782,37.047,29.186333333333334,36.753,33.748,55.793,34.333,58.3935,50.6525,53.756,33.5555,57.062,49.0665,52.952,33.1655,57.05,48.51533333333333,-0.038000000000000034,-0.11949999999999994,0.10635000000000001,0.10656500000000001,0.0,206.2,206.125,203.58333333333331,203.58333333333331,0.0,0.0
3,0.0,0.0,0.0,1.0,1.0,0.0,0.0,1.0,0.0,100.0,1.0,1.1856,26.0,0.0,0.0,0.0,59.999996,0.0,26.0,26.0,26.0,26.0,-0.07555555555555549,0.2921,0.030500000000000003,293.121,-2.6586,-2.6879999999999997,-1.5171000000000001,-1.4857,-265.79,215.6325,190.929375,0.0,0.0,0.0,0.0,0.007333333333333333,-5.498166666666667,-5.498166666666667,-0.5027,0.7316666666666667,0.00022222222222212373,-1.954,65.95400000000001,-0.0511,-0.187275,0.8740000000000006,100.0,1.0,1.0,203.41,0.0,0.0,0.0,0.0,0.0,0.0,0.0,8621.8,0.0,55.0,5.0,237.40333333333334,1.0,0.0,0.0,0.0,0.0,0.0,0.0,0.0,0.1529999999999987,0.1529999999999987,0.0,0.0,1.0,55.0,616.79921,10000.0,85.000001,85.000001,85.000001,85.000001,395.0,0.0,0.0,0.0,1.0,333.33500000000004,53.391,53.391,47.699,47.699,34.0,-24.6525,19.33,-34.32,26.485,0.0,1783.065,0.6950000000000003,100.0,27.768,27.457,42.019999999999996,41.9,0.0,0.0,100.0,0.0,0.0,0.0,0.0,2877.142857142857,2847.5,4497.125,4293.5,306.14,305.56175,313.87975,314.04875,21.7761,20.514499999999998,21.729666666666667,21.2475,314.999998,314.999998,324.999988,324.999988,99.55761428571428,99.50685,99.5633,99.54234285714286,-0.005749999999999922,-0.1286666666666666,-0.16033333333333336,0.06316666666666666,-0.036666666666668846,-0.03999999999999915,1.441,1.486,37.099999999999994,29.215333333333334,36.81,33.797,55.778,34.3715,58.431,50.7145,53.741,33.591,57.097,49.126,52.937,33.199,57.082,48.574,-0.018000000000000016,-0.12300000000000022,0.096945,0.114335,0.0,206.65,206.57,203.41,203.41,0.0,0.0
4,0.0,0.0,0.0,1.0,1.0,0.0,0.0,1.0,0.0,100.0,1.0,1.1856,26.0,0.0,0.0,0.0,59.999996,0.0,26.0,26.0,26.0,26.0,-0.11866666666666659,0.2964,-0.0519,293.35,-2.6489,-2.763111111111111,-1.4599,-1.6027,-262.43,215.63,190.909875,0.0,0.0,0.0,0.0,0.009300000000000001,-5.498166666666667,-5.498166666666667,-0.5314,-0.9056666666666666,-0.05444444444444452,0.16800000000000015,66.1,-0.0623,-0.23290000000000002,1.1760000000000002,100.0,1.0,1.0,204.00666666666666,0.0,0.0,0.0,0.0,0.0,0.0,0.0,8647.2,0.0,55.0,5.0,237.93,0.0,0.0,0.0,0.0,0.0,0.0,0.0,0.0,0.20400000000000063,0.20400000000000063,0.0,0.0,0.0,55.0,616.79921,10000.0,85.000001,85.000001,85.000001,85.000001,395.0,0.0,0.0,0.0,1.0,166.665,53.009,53.009,48.615,48.615,34.0,-27.4025,20.16,-30.866666666666667,23.2375,0.0,1783.014,0.6750000000000007,100.0,27.846,26.955,42.900999999999996,42.008,0.0,0.0,100.0,0.0,0.0,0.0,0.0,3141.4285714285716,2936.2,4087.125,3862.2,305.202,305.52375,314.79875,315.1955,21.785800000000002,20.5195,21.740333333333332,21.2563,314.999998,314.999998,324.999988,324.999988,99.55762857142857,99.50686666666667,99.56344285714286,99.54248571428572,-0.004750000000000032,-0.1356666666666666,-0.1885,0.041,-0.054999999999999716,-0.041666666666671404,1.548,1.605,37.162,29.247,36.876999999999995,33.852000000000004,55.762,34.412,58.476,50.7785,53.726,33.628,57.138999999999996,49.187,52.921,33.2345,57.1215,48.63333333333333,-0.020999999999999908,-0.12950000000000017,0.1097,0.10732000000000001,0.0,207.07999999999998,206.98000000000002,204.00666666666666,204.00666666666666,0.0,0.0
5,0.0,0.0,0.0,1.0,1.0,0.0,0.0,1.0,0.0,100.0,1.0,1.1856,26.0,0.0,0.0,0.0,59.999996,0.0,26.0,26.0,26.0,26.0,-0.11977777777777776,0.2865,-0.030500000000000003,293.655,-2.6618,-2.7203333333333335,-1.5165000000000002,-1.5894,-258.85,215.6225,190.888875,0.0,0.0,0.0,0.0,0.011366666666666667,-5.498166666666667,-5.498166666666667,-0.5392,0.5670000000000001,-0.04466666666666663,0.7480000000000002,66.254,-0.07730000000000001,-0.2235,1.0820000000000007,100.0,1.0,1.0,204.57333333333332,0.0,0.0,0.0,0.0,0.0,0.0,0.0,8671.1,0.0,55.0,5.0,238.48333333333335,1.0,0.0,0.0,0.0,0.0,0.0,0.0,0.0,0.2579999999999991,0.2579999999999991,0.0,0.0,1.0,55.0,616.79921,10000.0,85.000001,85.000001,85.000001,85.000001,395.0,0.0,0.0,0.0,1.0,166.665,53.177,53.177,49.149,49.149,34.0,-26.71,20.387999999999998,-30.786666666666665,22.795,0.0,1782.96,0.3049999999999997,100.0,27.862000000000002,26.833,42.502,41.416,0.0,0.0,100.0,0.0,0.0,0.0,0.0,3059.0,2974.1,3957.0,3986.7,305.375,305.39175,315.1695,314.971,21.7963,20.525,21.75122222222222,21.2654,314.999998,314.999998,324.999988,324.999988,99.55762857142857,99.50688333333333,99.5636,99.54262857142857,-0.0024999999999999467,-0.1286666666666666,-0.20066666666666666,0.0205,-0.03999999999999915,-0.04833333333333201,1.5733333333333333,1.6215,37.227000000000004,29.281,36.945,33.909,55.748000000000005,34.456,58.519,50.8425,53.712,33.669,57.1795,49.2485,52.906,33.2735,57.158500000000004,48.693666666666665,-0.04349999999999987,-0.10749999999999993,0.10007,0.10712,0.0,207.59,207.48000000000002,204.57333333333332,204.57333333333332,0.0,0.0
6,0.0,0.0,0.0,1.0,1.0,0.0,0.0,1.0,0.0,100.0,1.0,1.1856,26.0,0.0,0.0,0.0,59.999996,0.0,26.0,26.0,26.0,26.0,-0.11377777777777776,0.30469999999999997,0.0269,293.457,-2.6492,-2.7854444444444444,-1.5124,-1.5708,-255.87,215.615,190.870625,0.0,0.0,0.0,0.0,0.0131,-5.498166666666667,-5.498166666666667,-0.5251,-0.10266666666666667,-0.061333333333333684,-0.9390000000000001,66.385,-0.0784,-0.20342500000000002,0.9100000000000001,100.0,1.0,1.0,204.81,0.0,0.0,0.0,0.0,0.0,0.0,0.0,8681.2,0.0,55.0,5.0,238.95666666666668,0.0,0.0,0.0,0.0,0.0,0.0,0.0,0.0,0.3030000000000008,0.3030000000000008,0.0,0.0,0.0,55.0,616.79921,10000.0,85.000001,85.000001,85.000001,85.000001,395.0,0.0,0.0,0.0,1.0,166.665,53.589,53.589,48.400999999999996,48.400999999999996,34.0,-28.285,18.89,-34.18666666666667,23.3975,0.0,1782.916,0.33999999999999986,100.0,27.423000000000002,26.7,42.649,41.682,0.0,0.0,100.0,0.0,0.0,0.0,0.0,3198.714285714286,2768.5,4304.25,4039.3,305.23,305.8575,314.326,314.73725,21.8048,20.5294,21.760444444444445,21.2732,314.999998,314.999998,324.999988,324.999988,99.55762857142857,99.5069,99.56372857142857,99.54275714285714,-0.018000000000000016,-0.1436666666666666,-0.1975,0.021666666666666667,-0.054999999999999716,-0.07333333333333059,1.5106666666666668,1.54,37.28,29.308999999999997,37.003,33.957499999999996,55.733999999999995,34.4915,58.558,50.9,53.699,33.701499999999996,57.2155,49.303,52.891999999999996,33.3045,57.192499999999995,48.74733333333333,-0.04049999999999998,-0.10000000000000009,0.10518500000000001,0.10547500000000001,0.0,207.97500000000002,207.9,204.81,204.81,0.0,0.0
7,0.0,0.0,0.0,1.0,1.0,0.0,0.0,1.0,0.0,100.0,1.0,1.1856,26.0,0.0,0.0,0.0,59.999996,0.0,26.0,26.0,26.0,26.0,-0.09344444444444444,0.2856000000000001,-0.0071333333333333335,293.457,-2.6121,-2.7856666666666667,-1.5655000000000001,-1.6152000000000002,-252.48,215.60500000000002,190.850125,0.0,0.0,0.0,0.0,0.015066666666666666,-5.498166666666667,-5.498166666666667,-0.5329,0.10466666666666667,-0.047555555555555795,1.1290000000000004,66.53,-0.0771,-0.216925,0.6760000000000002,100.0,1.0,1.0,205.33333333333331,0.0,0.0,0.0,0.0,0.0,0.0,0.0,8703.3,0.0,55.0,5.0,239.4766666666667,1.0,0.0,0.0,0.0,0.0,0.0,0.0,0.0,0.3539999999999992,0.3539999999999992,0.0,0.0,1.0,55.0,616.79921,10000.0,85.000001,85.000001,85.000001,85.000001,395.0,0.0,0.0,0.0,1.0,333.33500000000004,53.207,53.207,48.782,48.782,34.0,-25.55,21.694,-31.89333333333333,23.875,0.0,1782.862,-0.02499999999999858,100.0,27.838,26.747,42.765,41.652,0.0,0.0,100.0,0.0,0.0,0.0,0.0,3087.714285714286,2950.7,4058.0,3996.2,305.3135,305.43675,314.91025,314.89575,21.8146,20.5346,21.770888888888887,21.282,314.999998,314.999998,324.999988,324.999988,99.55764285714285,99.50691666666667,99.56387142857143,99.54288571428572,0.020999999999999908,-0.10666666666666658,-0.1875,0.029166666666666667,-0.04833333333333201,-0.061666666666667425,1.5473333333333334,1.577,37.342,29.341,37.068,34.0125,55.72,34.5325,58.6005,50.963499999999996,53.686,33.739,57.254999999999995,49.364,52.878,33.3405,57.229,48.806666666666665,-0.07499999999999996,-0.07450000000000001,0.09881500000000001,0.107145,0.0,208.39499999999998,208.35000000000002,205.33333333333331,205.33333333333331,0.0,0.0
8,0.0,0.0,0.0,1.0,1.0,0.0,0.0,1.0,0.0,100.0,1.0,1.1856,26.0,0.0,0.0,0.0,59.999996,0.0,26.0,26.0,26.0,26.0,-0.06766666666666665,0.2905,-0.016466666666666668,293.549,-2.6945,-2.716555555555556,-1.5426,-1.6057000000000001,-248.88,215.59,190.82825,0.0,0.0,0.0,0.0,0.017166666666666667,-5.498166666666667,-5.498166666666667,-0.5372,-0.179,-0.035222222222222044,0.38500000000000023,66.68299999999999,-0.06330000000000001,-0.2189,0.3000000000000007,100.0,1.0,1.0,205.8,0.0,0.0,0.0,0.0,0.0,0.0,0.0,8723.1,0.0,55.0,5.0,240.03,0.0,0.0,0.0,0.0,0.0,0.0,0.0,0.0,0.40800000000000125,0.40800000000000125,0.0,0.0,0.0,55.0,616.79921,10000.0,85.000001,85.000001,85.000001,85.000001,395.0,0.0,0.0,0.0,1.0,166.665,53.375,53.375,48.538,48.538,34.0,-25.3125,22.7,-30.316666666666666,24.8925,0.0,1782.81,-0.15500000000000114,100.0,27.475,26.817,42.719,41.794,0.0,0.0,100.0,0.0,0.0,0.0,0.0,3029.857142857143,3041.6,4009.75,4003.3,305.578,305.1825,315.0235,314.87125,21.8248,20.5401,21.782,21.2914,314.999998,314.999998,324.999988,324.999988,99.55764285714285,99.50691666666667,99.56401428571428,99.54304285714285,0.028249999999999886,-0.08533333333333337,-0.17016666666666666,0.050333333333333334,-0.03833333333332689,-0.054999999999999716,1.5470000000000002,1.577,37.405,29.375666666666667,37.137,34.0715,55.704,34.5755,58.644999999999996,51.0315,53.67,33.778,57.2965,49.429,52.861999999999995,33.3775,57.2675,48.870666666666665,-0.08399999999999985,-0.059499999999999886,0.10679000000000001,0.09871500000000001,0.0,208.85500000000002,208.825,205.8,205.8,0.0,0.0
9,0.0,0.0,0.0,1.0,1.0,0.0,0.0,1.0,0.0,100.0,1.0,1.1856,26.0,0.0,0.0,0.0,59.999996,0.0,26.0,26.0,26.0,26.0,-0.05077777777777781,0.29500000000000015,0.017166666666666667,293.259,-2.618,-2.727222222222222,-1.5471,-1.5641,-245.68,215.575,190.808625,0.0,0.0,0.0,0.0,0.019033333333333336,-5.498166666666667,-5.498166666666667,-0.5328,0.328,-0.04233333333333311,0.8380000000000001,66.819,-0.0494,-0.20972500000000002,0.08399999999999963,100.0,1.0,1.0,206.2,0.0,0.0,0.0,0.0,0.0,0.0,0.0,8740.1,0.0,55.0,5.0,240.51999999999998,1.0,0.0,0.0,0.0,0.0,0.0,0.0,0.0,0.4559999999999995,0.4559999999999995,0.0,0.0,1.0,55.0,616.79921,10000.0,85.000001,85.000001,85.000001,85.000001,395.0,0.0,0.0,0.0,1.0,166.665,52.979,52.979,48.676,48.676,34.0,-24.665,23.184,-30.07,26.625,0.0,1782.762,-0.33500000000000085,100.0,27.789,26.938,42.641,41.853,0.0,0.0,100.0,0.0,0.0,0.0,0.0,3125.714285714286,3043.0,4064.625,4132.1,305.2345,305.18875,314.9235,314.60325,21.8339,20.545,21.791777777777778,21.2997,314.999998,314.999998,324.999988,324.999988,99.55764285714285,99.50693333333334,99.56415714285714,99.54317142857143,0.05074999999999985,-0.07599999999999996,-0.15483333333333335,0.0755,-0.03999999999999915,-0.06833333333332803,1.5516666666666667,1.553,37.462,29.406333333333336,37.199,34.123,55.691,34.6125,58.684,51.091,53.658,33.8125,57.333,49.486000000000004,52.849000000000004,33.4105,57.301,48.92633333333333,-0.09999999999999987,-0.04850000000000021,0.107865,0.11145500000000001,0.0,209.275,209.275,206.2,206.2,0.0,0.0
10,0.0,0.0,0.0,1.0,1.0,0.0,0.0,1.0,0.0,100.0,1.0,1.1856,26.0,0.0,0.0,0.0,59.999996,0.0,26.0,26.0,26.0,26.0,-0.022222222222222143,0.2982,0.015933333333333334,293.152,-2.6768,-2.7024444444444446,-1.5093,-1.5472000000000001,-242.47,215.56,190.789,0.0,0.0,0.0,0.0,0.020900000000000002,-5.498166666666667,-5.498166666666667,-0.5271,-0.2876666666666667,-0.014444444444444482,1.657,66.955,-0.0324,-0.20975000000000002,-0.19399999999999995,100.0,1.0,1.0,206.53,0.0,0.0,0.0,0.0,0.0,0.0,0.0,8754.0,0.0,55.0,5.0,241.01,0.0,0.0,0.0,0.0,0.0,0.0,1.0,0.0,0.5040000000000013,0.5040000000000013,0.0,0.0,0.0,55.0,616.79921,10000.0,85.000001,85.000001,85.000001,85.000001,395.0,0.0,0.0,0.0,1.0,333.33500000000004,53.329,53.329,48.263999999999996,48.263999999999996,34.0,-23.395,23.172,-28.746666666666666,28.36,0.0,1782.714,-0.36499999999999844,100.0,27.713,26.91,42.817,42.217,0.0,0.0,100.0,0.0,0.0,0.0,0.0,2975.4285714285716,3018.6,4106.75,4269.3,305.6845,305.30275,314.74925,314.26075,21.8429,20.5499,21.801666666666666,21.3082,314.999998,314.999998,324.999988,324.999988,99.55764285714285,99.50695,99.5643,99.54331428571429,0.06099999999999994,-0.06499999999999995,-0.12683333333333333,0.08883333333333333,-0.036666666666668846,-0.05666666666667197,1.5233333333333334,1.5125,37.518,29.436999999999998,37.26,34.176,55.679,34.6485,58.724000000000004,51.1525,53.647,33.8455,57.3705,49.545500000000004,52.837,33.442,57.335499999999996,48.98466666666667,-0.10499999999999998,-0.045500000000000096,0.09765000000000001,0.10702500000000001,0.0,209.69,209.685,206.53,206.53,0.0,0.0
11,0.0,0.0,0.0,1.0,1.0,0.0,0.0,1.0,0.0,100.0,1.0,1.1856,26.0,0.0,0.0,0.0,59.999996,0.0,26.0,26.0,26.0,26.0,-0.001777777777777767,0.28659999999999997,-0.05823333333333334,293.472,-2.6929,-2.6897777777777776,-1.5687,-1.5192,-239.05,215.54250000000002,190.768125,0.0,0.0,0.0,0.0,0.022600000000000002,-5.498166666666667,-5.498166666666667,-0.5505,-0.245,0.00822222222222213,-0.4129999999999998,67.09700000000001,-0.0145,-0.224675,-0.266,100.0,1.0,1.0,207.10000000000002,0.0,0.0,0.0,0.0,0.0,0.0,0.0,8778.2,0.0,55.0,5.0,241.51999999999998,1.0,0.0,0.0,0.0,0.0,0.0,1.0,0.0,0.5549999999999997,0.5549999999999997,0.0,0.0,1.0,55.0,616.79921,10000.0,85.000001,85.000001,85.000001,85.000001,395.0,0.0,0.0,0.0,1.0,333.33500000000004,53.223,53.223,48.874,48.874,34.0,-24.4175,23.345999999999997,-27.603333333333335,25.96,0.0,1782.661,-0.634999999999998,100.0,27.263,27.162,42.441,42.346000000000004,0.0,0.0,100.0,0.0,0.0,0.0,0.0,3113.142857142857,3016.4,3912.375,4010.4,305.478,305.111,315.3185,314.845,21.8524,20.5552,21.812,21.317,314.999998,314.999998,324.999988,324.999988,99.55765714285714,99.50695,99.56444285714285,99.54344285714286,0.06400000000000006,-0.06299999999999994,-0.12983333333333336,0.09366666666666668,-0.051666666666669414,-0.05666666666667197,1.5933333333333333,1.582,37.578,29.47,37.325,34.2315,55.666,34.6875,58.7625,51.216499999999996,53.634,33.881,57.4065,49.6065,52.823,33.476,57.3685,49.044666666666664,-0.10949999999999993,-0.039000000000000146,0.10927,0.09722000000000001,0.0,210.12,210.12,207.10000000000002,207.10000000000002,0.0,0.0
12,0.0,0.0,0.0,1.0,1.0,0.0,0.0,1.0,0.0,100.0,1.0,1.1856,26.0,0.0,0.0,0.0,59.999996,0.0,26.0,26.0,26.0,26.0,0.006000000000000005,0.29110000000000014,0.0099,293.106,-2.7239,-2.6804444444444444,-1.5473,-1.5369000000000002,-235.82,215.525,190.7475,0.0,0.0,0.0,0.0,0.025466666666666665,-5.498166666666667,-5.498166666666667,-0.5407000000000001,0.386,0.011777777777777887,-0.6269999999999998,67.232,0.0019,-0.20467500000000002,-0.29799999999999915,100.0,1.0,1.0,207.42666666666668,0.0,0.0,0.0,0.0,0.0,0.0,0.0,8792.1,0.0,55.0,5.0,242.00333333333333,0.0,0.0,0.0,0.0,0.0,0.0,1.0,0.0,0.602999999999998,0.602999999999998,0.0,0.0,0.0,55.0,616.79921,10000.0,85.000001,85.000001,85.000001,85.000001,395.0,0.0,0.0,0.0,1.0,333.33500000000004,52.979,52.979,48.218,48.218,34.0,-25.5225,22.926,-28.626666666666665,28.765,0.0,1782.613,0.21499999999999986,100.0,27.355,27.443,42.299,42.344,0.0,0.0,100.0,0.0,0.0,0.0,0.0,3114.857142857143,3063.1,4152.75,4162.3,305.454,304.9495,314.76275,314.4875,21.8614,20.5603,21.821666666666665,21.3254,314.999998,314.999998,324.999988,324.999988,99.55767142857142,99.50695,99.56458571428571,99.5436,0.04574999999999996,-0.08166666666666655,-0.11083333333333333,0.11583333333333333,-0.03499999999999659,-0.061666666666667425,1.5363333333333333,1.5275,37.634,29.502000000000002,37.385999999999996,34.284,55.653,34.7265,58.8025,51.281,53.622,33.917,57.4435,49.6685,52.81,33.5105,57.4025,49.105000000000004,-0.06549999999999989,-0.08450000000000024,0.107285,0.1101,0.0,210.535,210.575,207.42666666666668,207.42666666666668,0.0,0.0
13,0.0,0.0,0.0,1.0,1.0,0.0,0.0,1.0,0.0,100.0,1.0,1.1856,26.0,0.0,0.0,0.0,59.999996,0.0,26.0,26.0,26.0,26.0,0.02922222222222226,0.28590000000000004,0.02886666666666667,292.77,-2.6886,-2.695777777777778,-1.5766,-1.5453000000000001,-232.39,215.51,190.725875,0.0,0.0,0.0,0.0,0.02676666666666667,-5.498166666666667,-5.498166666666667,-0.5374,-0.225,0.009666666666666712,1.21,67.375,0.0088,-0.21327500000000002,-0.44599999999999973,100.0,1.0,1.0,207.7866666666667,0.0,0.0,0.0,0.0,0.0,0.0,0.0,8807.3,0.0,55.0,5.0,242.51999999999998,1.0,0.0,0.0,0.0,0.0,0.0,1.0,0.0,0.6539999999999999,0.6539999999999999,0.0,0.0,1.0,55.0,616.79921,10000.0,85.000001,85.000001,85.000001,85.000001,395.0,0.0,0.0,0.0,1.0,333.33500000000004,52.811,52.811,47.989,47.989,34.0,-21.775,26.084000000000003,-27.563333333333336,31.1025,0.0,1782.564,-0.5300000000000011,100.0,27.768,27.438,42.76,42.714,0.0,0.0,100.0,0.0,0.0,0.0,0.0,3021.5714285714284,3129.2,4104.375,4302.1,305.5525,304.926,314.75575,314.19025,21.871,20.5657,21.83222222222222,21.3345,314.999998,314.999998,324.999988,324.999988,99.55768571428571,99.50696666666667,99.56471428571429,99.54372857142857,0.11224999999999996,-0.01866666666666661,-0.08666666666666667,0.134,-0.05333333333332746,-0.04833333333333201,1.5336666666666665,1.4955,37.694,29.536,37.451,34.3405,55.643,34.7625,58.842,51.3435,53.611999999999995,33.9505,57.480000000000004,49.7285,52.799,33.542500000000004,57.4365,49.164,-0.123,-0.03049999999999997,0.09778,0.11106,0.0,210.985,211.0,207.7866666666667,207.7866666666667,0.0,0.0
14,0.0,0.0,0.0,1.0,1.0,0.0,0.0,1.0,0.0,100.0,1.0,1.1856,26.0,0.0,0.0,0.0,59.999996,0.0,26.0,26.0,26.0,26.0,0.03577777777777791,0.27760000000000007,-0.025066666666666668,293.015,-2.7072,-2.703444444444444,-1.5733000000000001,-1.5352999999999999,-228.75,215.4925,190.70325,0.0,0.0,0.0,0.0,0.02886666666666667,-5.498166666666667,-5.498166666666667,-0.5502,-0.010333333333333335,0.027222222222222037,0.9380000000000002,67.522,0.0204,-0.2248,-0.5460000000000003,100.0,1.0,1.0,208.35000000000002,0.0,0.0,0.0,0.0,0.0,0.0,0.0,8831.2,0.0,55.0,5.0,243.05,0.0,0.0,0.0,0.0,0.0,0.0,1.0,0.0,0.7079999999999984,0.7079999999999984,0.0,0.0,0.0,55.0,616.79921,10000.0,85.000001,85.000001,85.000001,85.000001,395.0,0.0,0.0,0.0,1.0,166.665,52.811,52.811,48.385999999999996,48.385999999999996,34.0,-21.5975,25.892,-25.586666666666666,30.4325,0.0,1782.51,-0.46499999999999986,100.0,27.733,27.63,42.593,42.785,0.0,0.0,100.0,0.0,0.0,0.0,0.0,2965.5714285714284,3126.6,3941.0,4157.0,305.727,304.88725,315.2025,314.54575,21.8811,20.5715,21.843222222222224,21.344,314.999998,314.999998,324.999988,324.999988,99.5577,99.50696666666667,99.56487142857142,99.54388571428571,0.10924999999999985,-0.025666666666666615,-0.07883333333333332,0.15116666666666667,-0.02833333333332888,-0.07000000000000028,1.576,1.5325,37.757,29.572,37.519999999999996,34.4,55.631,34.803,58.8835,51.412,53.599999999999994,33.988,57.5185,49.7945,52.786,33.578,57.4715,49.22866666666667,-0.11399999999999988,-0.04349999999999987,0.10573500000000001,0.10545,0.0,211.405,211.465,208.35000000000002,208.35000000000002,0.0,0.0
15,0.0,0.0,0.0,1.0,1.0,0.0,0.0,1.0,0.0,100.0,1.0,1.1856,26.0,0.0,0.0,0.0,59.999996,0.0,26.0,26.0,26.0,26.0,0.04733333333333323,0.2821,-0.014866666666666667,292.908,-2.7068,-2.6735555555555557,-1.5843,-1.5519,-225.71,215.48000000000002,190.684,0.0,0.0,0.0,0.0,0.03066666666666667,-5.498166666666667,-5.498166666666667,-0.5427000000000001,0.21566666666666667,0.03511111111111109,-0.7759999999999998,67.646,0.028300000000000002,-0.21230000000000002,-0.42799999999999905,100.0,1.0,1.0,208.68,0.0,0.0,0.0,0.0,0.0,0.0,0.0,8845.2,0.0,55.0,5.0,243.5,1.0,0.0,0.0,0.0,0.0,0.0,1.0,0.0,0.7530000000000001,0.7530000000000001,0.0,0.0,1.0,55.0,616.79921,10000.0,85.000001,85.000001,85.000001,85.000001,395.0,0.0,0.0,0.0,1.0,166.665,52.811,52.811,48.157,48.157,34.0,-22.525,24.664,-27.22,30.4125,0.0,1782.465,-0.384999999999998,100.0,27.552,27.858,42.388,42.944,0.0,0.0,100.0,0.0,0.0,0.0,0.0,3051.4285714285716,3017.3,4085.25,4169.0,305.658,305.01675,314.92125,314.40275,21.889499999999998,20.5764,21.852333333333334,21.3519,314.999998,314.999998,324.999988,324.999988,99.55771428571428,99.50696666666667,99.565,99.54402857142857,0.09925000000000006,-0.030333333333333323,-0.08416666666666667,0.1395,-0.04833333333333201,-0.061666666666667425,1.541,1.516,37.809,29.602333333333334,37.577,34.4495,55.620999999999995,34.837,58.918,51.47,53.59,34.019,57.5505,49.85,52.775999999999996,33.608000000000004,57.501,49.28333333333333,-0.10399999999999987,-0.04700000000000015,0.10683500000000001,0.10469500000000001,0.0,211.82999999999998,211.86,208.68,208.68,0.0,0.0
16,0.0,0.0,0.0,1.0,1.0,0.0,0.0,1.0,0.0,100.0,1.0,1.1856,26.0,0.0,0.0,0.0,59.999996,0.0,26.0,26.0,26.0,26.0,0.042888888888888976,0.27580000000000005,0.0002,292.74,-2.7631,-2.6224444444444446,-1.5615999999999999,-1.55,-222.25,215.465,190.662,0.0,0.0,0.0,0.0,0.03266666666666667,-5.498166666666667,-5.498166666666667,-0.5551,-0.432,0.026000000000000023,0.26900000000000013,67.786,0.030000000000000002,-0.22455,-0.3799999999999999,100.0,1.0,1.0,209.0966666666667,0.0,0.0,0.0,0.0,0.0,0.0,0.0,8862.8,0.0,55.0,5.0,244.00333333333333,0.0,0.0,0.0,0.0,0.0,0.0,1.0,0.0,0.8039999999999985,0.8039999999999985,0.0,0.0,0.0,55.0,616.79921,10000.0,85.000001,85.000001,85.000001,85.000001,395.0,0.0,0.0,0.0,1.0,333.33500000000004,52.536,52.536,47.913,47.913,34.0,-22.7975,26.738,-25.45,30.56,0.0,1782.412,-0.34499999999999886,100.0,27.558,27.776,42.72,43.028999999999996,0.0,0.0,100.0,0.0,0.0,0.0,0.0,3066.5714285714284,3246.3,4018.625,4103.0,305.4965,304.55025,314.98975,314.62375,21.899,20.5819,21.86277777777778,21.361,314.999998,314.999998,324.999988,324.999988,99.55772857142857,99.50696666666667,99.56514285714286,99.54417142857143,0.11149999999999993,-0.014666666666666606,-0.06483333333333333,0.156,-0.041666666666671404,-0.060000000000002274,1.5576666666666665,1.5130000000000001,37.867999999999995,29.636666666666667,37.643,34.506,55.608000000000004,34.878,58.961,51.539,53.578,34.057,57.5905,49.916,52.762,33.644,57.5375,49.348333333333336,-0.10250000000000004,-0.05049999999999999,0.10275500000000001,0.10633000000000001,0.0,212.24,212.26,209.0966666666667,209.0966666666667,0.0,0.0
17,0.0,0.0,0.0,1.0,1.0,0.0,0.0,1.0,0.0,100.0,1.0,1.1856,26.0,0.0,0.0,0.0,59.999996,0.0,26.0,26.0,26.0,26.0,0.03499999999999992,0.29190000000000005,0.0267,292.419,-2.6361,-2.603888888888889,-1.6044,-1.5116,-218.79,215.4525,190.63975,0.0,0.0,0.0,0.0,0.03466666666666667,-5.498166666666667,-5.498166666666667,-0.5501,0.221,0.0043333333333333,-1.063,67.926,0.0296,-0.213975,-0.2860000000000005,100.0,1.0,1.0,209.4766666666667,0.0,0.0,0.0,0.0,0.0,0.0,0.0,8879.0,0.0,55.0,5.0,244.50333333333333,1.0,0.0,0.0,0.0,0.0,0.0,1.0,0.0,0.8550000000000004,0.8550000000000004,0.0,0.0,1.0,55.0,616.79921,10000.0,85.000001,85.000001,85.000001,85.000001,395.0,0.0,0.0,0.0,1.0,333.33500000000004,52.292,52.292,47.592,47.592,34.0,-22.9875,24.978,-28.986666666666665,30.4775,0.0,1782.362,-0.22499999999999787,100.0,27.746,28.051000000000002,42.609,43.088,0.0,0.0,100.0,0.0,0.0,0.0,0.0,3172.285714285714,3120.0,4321.375,4208.0,305.215,304.755,314.431,314.3855,21.9085,20.5874,21.87322222222222,21.37,314.999998,314.999998,324.999988,324.999988,99.55772857142857,99.50698333333334,99.56528571428571,99.54431428571428,0.09975000000000023,-0.029333333333333322,-0.07683333333333334,0.14483333333333334,-0.06499999999999773,-0.051666666666669414,1.5286666666666666,1.493,37.928,29.671333333333333,37.707,34.562,55.598,34.914500000000004,58.998,51.6,53.568,34.091,57.625,49.9745,52.751000000000005,33.677,57.5695,49.40566666666666,-0.09349999999999992,-0.058499999999999996,0.098225,0.11295000000000001,0.0,212.7,212.71,209.4766666666667,209.4766666666667,0.0,0.0
18,0.0,0.0,0.0,1.0,1.0,0.0,0.0,1.0,0.0,100.0,1.0,1.1856,26.0,0.0,0.0,0.0,59.999996,0.0,26.0,26.0,26.0,26.0,0.03544444444444439,0.27690000000000015,0.04776666666666667,292.358,-2.659,-2.731777777777778,-1.5062,-1.4741,-215.53,215.4425,190.618625,0.0,0.0,0.0,0.0,0.03656666666666667,-5.498166666666667,-5.498166666666667,-0.5598000000000001,-0.37033333333333335,0.0086666666666666,-0.46799999999999997,68.057,0.0219,-0.22445,-0.10799999999999965,100.0,1.0,1.0,209.86333333333334,0.0,0.0,0.0,0.0,0.0,0.0,0.0,8895.3,0.0,55.0,5.0,244.97666666666666,0.0,0.0,0.0,0.0,0.0,0.0,1.0,0.0,0.9029999999999987,0.9029999999999987,0.0,0.0,0.0,55.0,616.79921,10000.0,85.000001,85.000001,85.000001,85.000001,395.0,0.0,0.0,0.0,1.0,333.33500000000004,52.277,52.277,47.592,47.592,34.0,-23.015,26.13,-27.676666666666666,29.6625,0.0,1782.314,-0.28500000000000014,100.0,27.707,27.973,42.799,43.254,0.0,0.0,100.0,0.0,0.0,0.0,0.0,3162.0,3141.5,4161.25,4249.5,305.298,304.56625,314.67025,314.25675,21.9175,20.5926,21.883,21.3785,314.999998,314.999998,324.999988,324.999988,99.55774285714286,99.50698333333334,99.56542857142857,99.54444285714285,0.10075000000000012,-0.038000000000000034,-0.09683333333333333,0.13233333333333336,-0.03833333333332689,-0.05666666666667197,1.5013333333333332,1.5010000000000001,37.983999999999995,29.703666666666663,37.769,34.6155,55.586,34.9505,59.036,51.661500000000004,53.557,34.124,57.6605,50.034,52.739000000000004,33.7085,57.602000000000004,49.46366666666667,-0.09799999999999986,-0.059499999999999886,0.10525000000000001,0.11274,0.0,213.07,213.09,209.86333333333334,209.86333333333334,0.0,0.0
19,0.0,0.0,0.0,1.0,1.0,0.0,0.0,1.0,0.0,100.0,1.0,1.1856,26.0,0.0,0.0,0.0,59.999996,0.0,26.0,26.0,26.0,26.0,0.042444444444444285,0.26859999999999995,0.05443333333333334,292.175,-2.6535,-2.703666666666667,-1.5312000000000001,-1.6,-212.05,215.43,190.595875,0.0,0.0,0.0,0.0,0.0386,-5.498166666666667,-5.498166666666667,-0.5515,0.6173333333333334,0.0173333333333332,0.6320000000000001,68.193,0.013600000000000001,-0.2147,-0.17600000000000016,100.0,1.0,1.0,210.30666666666667,0.0,0.0,0.0,0.0,0.0,0.0,0.0,8914.1,0.0,55.0,5.0,245.47,1.0,0.0,0.0,0.0,0.0,0.0,1.0,0.0,0.9540000000000006,0.9540000000000006,0.0,0.0,1.0,55.0,616.79921,10000.0,85.000001,85.000001,85.000001,85.000001,395.0,0.0,0.0,0.0,1.0,333.33500000000004,52.002,52.002,47.714,47.714,34.0,-22.5475,25.746,-27.526666666666664,32.385000000000005,0.0,1782.262,-0.2749999999999986,100.0,28.359,28.233,42.839,43.215,0.0,0.0,100.0,0.0,0.0,0.0,0.0,3057.285714285714,3155.6,4121.625,4318.6,305.411,304.70975,314.768,314.08225,21.9271,20.5982,21.893333333333334,21.3876,314.999998,314.999998,324.999988,324.999988,99.55775714285714,99.50698333333334,99.56557142857143,99.5446,0.09549999999999992,-0.039000000000000035,-0.092,0.137,-0.045000000000001705,-0.05833333333333002,1.483,1.4865,38.044,29.738666666666667,37.833,34.6725,55.576,34.991,59.074,51.7265,53.547,34.161,57.696,50.096000000000004,52.727999999999994,33.744,57.634,49.525,-0.09749999999999992,-0.06349999999999989,0.10790000000000001,0.108115,0.0,213.54000000000002,213.54000000000002,210.30666666666667,210.30666666666667,0.0,0.0
20,0.0,0.0,0.0,1.0,1.0,0.0,0.0,1.0,0.0,100.0,1.0,1.1856,26.0,0.0,0.0,0.0,59.999996,0.0,26.0,26.0,26.0,26.0,0.028111111111111198,0.2651000000000001,-0.009166666666666667,292.343,-2.7229,-2.643111111111111,-1.5363,-1.5856,-208.57,215.42000000000002,190.573375,0.0,0.0,0.0,0.0,0.040600000000000004,-5.498166666666667,-5.498166666666667,-0.5537000000000001,-0.7653333333333334,0.011555555555555541,-0.9049999999999998,68.332,0.01,-0.2243,-0.047999999999999154,100.0,1.0,1.0,210.69666666666666,0.0,0.0,0.0,0.0,0.0,0.0,0.0,8930.7,0.0,55.0,5.0,245.96666666666667,0.0,0.0,0.0,0.0,0.0,0.0,0.0,0.0,1.004999999999999,1.004999999999999,0.0,0.0,0.0,55.0,616.79921,10000.0,85.000001,85.000001,85.000001,85.000001,395.0,0.0,0.0,0.0,1.0,333.33500000000004,52.521,52.521,47.318,47.318,34.0,-23.615,23.802,-28.556666666666665,29.1275,0.0,1782.212,-0.3000000000000007,100.0,27.828,28.1,43.329,43.723,0.0,0.0,100.0,0.0,0.0,0.0,0.0,3116.0,3034.2,4155.0,4063.1000000000004,305.5095,305.05175,314.71475,314.6085,21.9364,20.6037,21.90388888888889,21.3968,314.999998,314.999998,324.999988,324.999988,99.55777142857143,99.507,99.56571428571428,99.54474285714285,0.08999999999999986,-0.04699999999999993,-0.10733333333333334,0.11966666666666667,-0.03833333333332689,-0.03999999999999915,1.5046666666666666,1.499,38.102000000000004,29.773,37.899,34.7295,55.564,35.0295,59.1165,51.792500000000004,53.535,34.1965,57.7355,50.1595,52.715,33.778,57.670500000000004,49.58733333333333,-0.09850000000000003,-0.053999999999999826,0.10839000000000001,0.10864000000000001,0.0,213.93,213.92000000000002,210.69666666666666,210.69666666666666,0.0,0.0
21,0.0,0.0,0.0,1.0,1.0,0.0,0.0,1.0,0.0,100.0,1.0,1.1856,26.0,0.0,0.0,0.0,59.999996,0.0,26.0,26.0,26.0,26.0,0.013111111111111073,0.2639,-0.04646666666666667,292.526,-2.7201,-2.6614444444444443,-1.5703,-1.5268000000000002,-205.07999999999998,215.41,190.5505,0.0,0.0,0.0,0.0,0.042633333333333336,-5.498166666666667,-5.498166666666667,-0.5730000000000001,0.065,0.006222222222222129,0.637,68.46600000000001,0.0082,-0.222725,-0.19399999999999995,100.0,1.0,1.0,211.23333333333335,0.0,0.0,0.0,0.0,0.0,0.0,0.0,8953.3,0.0,55.0,5.0,246.45,1.0,0.0,0.0,0.0,0.0,0.0,0.0,0.0,1.056000000000001,1.056000000000001,0.0,0.0,1.0,55.0,616.79921,10000.0,85.000001,85.000001,85.000001,85.000001,395.0,0.0,0.0,0.0,1.0,166.665,52.307,52.307,47.989,47.989,34.0,-23.48,25.978,-27.04,28.6575,0.0,1782.162,-0.3049999999999997,100.0,28.051000000000002,27.846,43.034,43.236000000000004,0.0,0.0,100.0,0.0,0.0,0.0,0.0,3110.142857142857,3212.4,4014.625,4077.9,305.3485,304.70725,315.06975,314.7795,21.9457,20.6092,21.91411111111111,21.4057,314.999998,314.999998,324.999988,324.999988,99.55778571428571,99.507,99.56585714285714,99.54488571428571,0.09650000000000025,-0.032333333333333325,-0.0955,0.13383333333333333,-0.054999999999999716,-0.051666666666669414,1.5533333333333332,1.5565,38.161,29.807666666666666,37.963,34.7855,55.552,35.0685,59.1535,51.8545,53.524,34.2325,57.769999999999996,50.219,52.703,33.812,57.702,49.64566666666666,-0.10050000000000003,-0.053999999999999826,0.10722500000000001,0.110975,0.0,214.35500000000002,214.35500000000002,211.23333333333335,211.23333333333335,0.0,0.0
22,0.0,0.0,0.0,1.0,1.0,0.0,0.0,1.0,0.0,100.0,1.0,1.1856,26.0,0.0,0.0,0.0,59.999996,0.0,26.0,26.0,26.0,26.0,0.011222222222222245,0.28370000000000006,-0.0023333333333333335,292.16,-2.7615,-2.628222222222222,-1.6029,-1.5256,-201.79,215.4025,190.528125,0.0,0.0,0.0,0.0,0.044533333333333334,-5.498166666666667,-5.498166666666667,-0.5579000000000001,0.07666666666666667,0.01344444444444437,1.0680000000000005,68.596,0.0105,-0.20022500000000001,-0.2920000000000007,100.0,1.0,1.0,211.4766666666667,0.0,0.0,0.0,0.0,0.0,0.0,0.0,8963.7,0.0,55.0,5.0,246.91666666666666,0.0,0.0,0.0,0.0,0.0,0.0,0.0,0.0,1.1039999999999992,1.1039999999999992,0.0,0.0,0.0,55.0,616.79921,10000.0,85.000001,85.000001,85.000001,85.000001,395.0,0.0,0.0,0.0,1.0,333.33500000000004,52.46,52.46,47.15,47.15,34.0,-23.232499999999998,25.247999999999998,-29.63,31.2175,0.0,1782.112,-0.34499999999999886,100.0,28.07,27.927,43.178,43.3,0.0,0.0,100.0,0.0,0.0,0.0,0.0,3053.857142857143,3176.8,4260.5,4402.1,305.584,304.85175,314.45375,314.01075,21.9545,20.6145,21.924,21.4142,314.999998,314.999998,324.999988,324.999988,99.5578,99.50701666666667,99.566,99.54502857142857,0.09775,-0.03366666666666662,-0.09283333333333334,0.12533333333333332,-0.030000000000001137,-0.060000000000002274,1.5070000000000001,1.4905,38.216,29.840333333333334,38.025,34.839,55.541,35.105000000000004,59.192,51.9155,53.513,34.2665,57.8055,50.2775,52.691,33.8445,57.7345,49.703,-0.10450000000000004,-0.053999999999999826,0.104455,0.108475,0.0,214.76,214.785,211.4766666666667,211.4766666666667,0.0,0.0
23,0.0,0.0,0.0,1.0,1.0,0.0,0.0,1.0,0.0,100.0,1.0,1.1856,26.0,0.0,0.0,0.0,59.999996,0.0,26.0,26.0,26.0,26.0,0.017111111111111077,0.25970000000000004,-0.016766666666666666,292.007,-2.669,-2.677666666666667,-1.6429,-1.5006,-198.29,215.39249999999998,190.5045,0.0,0.0,0.0,0.0,0.0466,-5.498166666666667,-5.498166666666667,-0.5719000000000001,-0.22,0.01011111111111096,-0.7239999999999998,68.73,0.0137,-0.22357500000000002,-0.18799999999999972,100.0,1.0,1.0,211.95,0.0,0.0,0.0,0.0,0.0,0.0,0.0,8983.8,0.0,55.0,5.0,247.4,1.0,0.0,0.0,0.0,0.0,0.0,0.0,0.0,1.1550000000000011,1.1550000000000011,0.0,0.0,1.0,55.0,616.79921,10000.0,85.000001,85.000001,85.000001,85.000001,395.0,0.0,0.0,0.0,1.0,333.33500000000004,51.926,51.926,47.47,47.47,34.0,-24.235,24.954,-30.27,29.1275,0.0,1782.062,-0.33999999999999986,100.0,28.193,28.259999999999998,43.287,43.662,0.0,0.0,100.0,0.0,0.0,0.0,0.0,3246.142857142857,3083.7,4226.75,4158.9,304.9985,304.84475,314.65775,314.52075,21.9638,20.6201,21.934444444444445,21.4234,314.999998,314.999998,324.999988,324.999988,99.55781428571429,99.50701666666667,99.56614285714285,99.54517142857142,0.09399999999999986,-0.03966666666666663,-0.1045,0.13116666666666665,-0.046666666666666856,-0.03833333333332689,1.5286666666666666,1.5150000000000001,38.274,29.875333333333334,38.09,34.8965,55.53,35.144999999999996,59.232,51.981,53.503,34.303,57.843,50.3405,52.68,33.879999999999995,57.7685,49.76433333333333,-0.10299999999999998,-0.05549999999999988,0.10938500000000001,0.11089500000000001,0.0,215.155,215.175,211.95,211.95,0.0,0.0
24,0.0,0.0,0.0,1.0,1.0,0.0,0.0,1.0,0.0,100.0,1.0,1.1856,26.0,0.0,0.0,0.0,59.999996,0.0,26.0,26.0,26.0,26.0,0.03433333333333333,0.2682,-0.014033333333333335,292.404,-2.6923,-2.660333333333333,-1.5528,-1.5543,-194.99,215.385,190.482,0.0,0.0,0.0,0.0,0.0485,-5.498166666666667,-5.498166666666667,-0.5840000000000001,-0.34933333333333333,0.018333333333333313,-0.2290000000000001,68.857,0.0149,-0.22162500000000002,-0.22599999999999998,100.0,1.0,1.0,212.33333333333331,0.0,0.0,0.0,0.0,0.0,0.0,0.0,9000.1,0.0,55.0,5.0,247.86,0.0,0.0,0.0,0.0,0.0,0.0,0.0,0.0,1.2029999999999994,1.2029999999999994,0.0,0.0,0.0,55.0,616.79921,10000.0,85.000001,85.000001,85.000001,85.000001,395.0,0.0,0.0,0.0,1.0,166.665,52.689,52.689,47.363,47.363,34.0,-22.5025,24.13,-28.746666666666666,29.615000000000002,0.0,1782.016,-0.3550000000000004,100.0,27.982,28.044,43.239000000000004,43.616,0.0,0.0,100.0,0.0,0.0,0.0,0.0,3041.714285714286,3001.3,4200.375,4122.2,305.693,305.173,314.622,314.57575,21.9725,20.6252,21.944222222222223,21.4319,314.999998,314.999998,324.999988,324.999988,99.55782857142857,99.50701666666667,99.56628571428571,99.54531428571428,0.09600000000000009,-0.03466666666666662,-0.09983333333333333,0.13033333333333336,-0.046666666666666856,-0.04333333333332945,1.5123333333333333,1.5045,38.328,29.907666666666664,38.150999999999996,34.9495,55.519,35.1805,59.269,52.0405,53.492000000000004,34.336,57.876999999999995,50.397999999999996,52.668,33.911,57.8,49.821,-0.10650000000000004,-0.04499999999999993,0.09938000000000001,0.10985,0.0,215.565,215.565,212.33333333333331,212.33333333333331,0.0,0.0
25,0.0,0.0,0.0,1.0,1.0,0.0,0.0,1.0,0.0,100.0,1.0,1.1856,26.0,0.0,0.0,0.0,59.999996,0.0,26.0,26.0,26.0,26.0,0.021333333333333426,0.26780000000000004,-0.014633333333333335,292.16,-2.7557,-2.6375555555555557,-1.5988,-1.5452,-191.48000000000002,215.3775,190.45675,0.0,0.0,0.0,0.0,0.05053333333333333,-5.498166666666667,-5.498166666666667,-0.6014,0.054,0.031444444444444386,0.3160000000000003,68.99000000000001,0.0137,-0.21860000000000002,-0.274,100.0,1.0,1.0,212.79333333333335,0.0,0.0,0.0,0.0,0.0,0.0,0.0,9019.5,0.0,55.0,5.0,248.34,1.0,0.0,0.0,0.0,0.0,0.0,0.0,0.0,1.2540000000000013,1.2540000000000013,0.0,0.0,1.0,55.0,616.79921,10000.0,85.000001,85.000001,85.000001,85.000001,395.0,0.0,0.0,0.0,1.0,166.665,51.804,51.804,47.714,47.714,34.0,-24.315,27.57,-26.926666666666666,29.85,0.0,1781.965,-0.36499999999999844,100.0,28.041,28.117,43.072,43.375,0.0,0.0,100.0,0.0,0.0,0.0,0.0,3214.0,3359.0,4006.875,4173.2,305.118,304.218,315.11625,314.52125,21.9817,20.6309,21.954444444444444,21.441,314.999998,314.999998,324.999988,324.999988,99.55784285714286,99.50701666666667,99.56642857142857,99.54545714285715,0.10424999999999995,-0.02400000000000002,-0.08616666666666667,0.13383333333333333,-0.05333333333332746,-0.05666666666667197,1.5416666666666665,1.546,38.385999999999996,29.942999999999998,38.215,35.006,55.507,35.2195,59.306,52.1035,53.480000000000004,34.372,57.912,50.4585,52.655,33.946,57.8315,49.879999999999995,-0.11050000000000004,-0.047499999999999876,0.10308,0.10524000000000001,0.0,215.98000000000002,215.99,212.79333333333335,212.79333333333335,0.0,0.0
26,0.0,0.0,0.0,1.0,1.0,0.0,0.0,1.0,0.0,100.0,1.0,1.1856,26.0,0.0,0.0,0.0,59.999996,0.0,26.0,26.0,26.0,26.0,0.025111111111111084,0.27049999999999996,0.0702,291.367,-2.7104,-2.6528888888888886,-1.5554000000000001,-1.5529000000000002,-187.75,215.3725,190.42975,0.0,0.0,0.0,0.0,0.052700000000000004,-5.498166666666667,-5.498166666666667,-0.5728,0.22766666666666666,0.014111111111110963,0.8679999999999999,69.134,0.0158,-0.2019,-0.2999999999999998,100.0,1.0,1.0,213.02666666666667,0.0,0.0,0.0,0.0,0.0,0.0,0.0,9029.5,0.0,55.0,5.0,248.85666666666668,0.0,0.0,0.0,0.0,0.0,0.0,0.0,0.0,1.3079999999999998,1.3079999999999998,0.0,0.0,0.0,55.0,616.79921,10000.0,85.000001,85.000001,85.000001,85.000001,395.0,0.0,0.0,0.0,1.0,166.665,51.682,51.682,46.585,46.585,34.0,-23.169999999999998,25.924,-29.973333333333333,33.565,0.0,1781.91,-0.40500000000000114,100.0,28.759,28.5,43.591,43.823,0.0,0.0,100.0,0.0,0.0,0.0,0.0,3160.285714285714,3179.9,4411.875,4480.9,305.216,304.849,314.0735,313.738,21.9917,20.637,21.965555555555554,21.4508,314.999998,314.999998,324.999988,324.999988,99.55784285714286,99.50703333333334,99.56658571428571,99.54562857142857,0.11149999999999993,-0.02400000000000002,-0.084,0.13966666666666666,-0.036666666666668846,-0.041666666666671404,1.4536666666666667,1.4315,38.448,29.981,38.285,35.067,55.498000000000005,35.2625,59.35,52.173500000000004,53.471000000000004,34.411500000000004,57.9525,50.525999999999996,52.644999999999996,33.9835,57.869,49.946,-0.11749999999999994,-0.04200000000000026,0.10099000000000001,0.114015,0.0,216.43,216.45499999999998,213.02666666666667,213.02666666666667,0.0,0.0
27,0.0,0.0,0.0,1.0,1.0,0.0,0.0,1.0,0.0,100.0,1.0,1.1856,26.0,0.0,0.0,0.0,59.999996,0.0,26.0,26.0,26.0,26.0,0.04133333333333322,0.25270000000000015,-0.043000000000000003,291.824,-2.761,-2.660555555555556,-1.6194000000000002,-1.5328,-184.63,215.3675,190.408,0.0,0.0,0.0,0.0,0.054533333333333336,-5.498166666666667,-5.498166666666667,-0.5954,-0.843,0.02211111111111097,-0.5590000000000002,69.25,0.017400000000000002,-0.236525,-0.3120000000000003,100.0,1.0,1.0,213.51,0.0,0.0,0.0,0.0,0.0,0.0,0.0,9049.9,0.0,55.0,5.0,249.27333333333334,1.0,0.0,0.0,0.0,0.0,0.0,0.0,0.0,1.352999999999998,1.352999999999998,0.0,0.0,1.0,55.0,616.79921,10000.0,85.000001,85.000001,85.000001,85.000001,395.0,0.0,0.0,0.0,1.0,333.33500000000004,51.956,51.956,46.677,46.677,34.0,-23.6325,25.448,-28.666666666666664,28.925,0.0,1781.864,-0.41000000000000014,100.0,28.267,28.637,43.884,44.167,0.0,0.0,100.0,0.0,0.0,0.0,0.0,3139.285714285714,3125.7,4159.75,4099.0,305.516,304.738,314.78075,314.68875,21.9999,20.6419,21.974888888888888,21.4589,314.999998,314.999998,324.999988,324.999988,99.55785714285715,99.50703333333334,99.56671428571428,99.54575714285714,0.10150000000000015,-0.03300000000000003,-0.08883333333333333,0.12733333333333333,-0.04999999999999716,-0.05833333333333002,1.522,1.502,38.498999999999995,30.012,38.343,35.1185,55.488,35.297,59.385999999999996,52.231,53.461,34.4435,57.9865,50.581,52.634,34.013999999999996,57.8995,50.0,-0.11450000000000005,-0.04400000000000004,0.09937000000000001,0.10974,0.0,216.76,216.76999999999998,213.51,213.51,0.0,0.0
28,0.0,0.0,0.0,1.0,1.0,0.0,0.0,1.0,0.0,100.0,1.0,1.1856,26.0,0.0,0.0,0.0,59.999996,0.0,26.0,26.0,26.0,26.0,0.03255555555555567,0.27160000000000006,-0.0327,291.962,-2.6846,-2.6525555555555558,-1.6314000000000002,-1.5599,-181.1,215.3625,190.382625,0.0,0.0,0.0,0.0,0.05656666666666667,-5.498166666666667,-5.498166666666667,-0.6002000000000001,0.545,0.0076666666666667105,0.29400000000000004,69.38,0.022000000000000002,-0.21760000000000002,-0.44399999999999995,100.0,1.0,1.0,214.0,0.0,0.0,0.0,0.0,0.0,0.0,0.0,9070.7,0.0,55.0,5.0,249.74333333333334,0.0,0.0,0.0,0.0,0.0,0.0,0.0,0.0,1.404,1.404,0.0,0.0,0.0,55.0,616.79921,10000.0,85.000001,85.000001,85.000001,85.000001,395.0,0.0,0.0,0.0,1.0,333.33500000000004,51.865,51.865,47.348,47.348,34.0,-22.0475,26.168,-27.776666666666664,30.2725,0.0,1781.812,-0.41000000000000014,100.0,28.541,28.482,43.407,43.718,0.0,0.0,100.0,0.0,0.0,0.0,0.0,3055.142857142857,3209.7,4098.375,4147.5,305.4775,304.66775,314.9545,314.6195,22.0092,20.6477,21.98511111111111,21.4679,314.999998,314.999998,324.999988,324.999988,99.55787142857143,99.50705,99.56687142857143,99.5459,0.11275000000000013,-0.02733333333333332,-0.0815,0.14283333333333334,-0.03999999999999915,-0.05833333333333002,1.5523333333333333,1.54,38.558,30.048000000000002,38.407,35.1745,55.477000000000004,35.339,59.4245,52.297,53.451,34.4825,58.0215,50.6445,52.622,34.0515,57.9315,50.062,-0.11399999999999988,-0.04999999999999982,0.109045,0.10661500000000002,0.0,217.185,217.22,214.0,214.0,0.0,0.0
29,0.0,0.0,0.0,1.0,1.0,0.0,0.0,1.0,0.0,100.0,1.0,1.1856,26.0,0.0,0.0,0.0,59.999996,0.0,26.0,26.0,26.0,26.0,0.03600000000000003,0.2722,-0.019233333333333335,291.794,-2.7557,-2.581444444444444,-1.6092,-1.5452,-177.35,215.35750000000002,190.35475,0.0,0.0,0.0,0.0,0.05876666666666667,-5.498166666666667,-5.498166666666667,-0.6058,-0.7226666666666667,0.006444444444444253,0.8439999999999999,69.522,0.023100000000000002,-0.214925,-0.3799999999999999,100.0,1.0,1.0,214.29333333333335,0.0,0.0,0.0,0.0,0.0,0.0,0.0,9083.1,0.0,55.0,5.0,250.25333333333333,1.0,0.0,0.0,0.0,0.0,0.0,0.0,0.0,1.4579999999999984,1.4579999999999984,0.0,0.0,1.0,55.0,616.79921,10000.0,85.000001,85.000001,85.000001,85.000001,395.0,0.0,0.0,0.0,1.0,166.665,52.17,52.17,46.921,46.921,34.0,-23.0225,26.144,-28.463333333333335,32.43,0.0,1781.76,-0.495000000000001,100.0,28.243,28.224,43.83,44.019999999999996,0.0,0.0,100.0,0.0,0.0,0.0,0.0,3132.5714285714284,3248.7,4139.75,4318.1,305.467,304.811,314.7515,314.1715,22.019,20.6536,21.996222222222222,21.4777,314.999998,314.999998,324.999988,324.999988,99.55788571428572,99.50705,99.56701428571428,99.54605714285714,0.11500000000000021,-0.013666666666666605,-0.08683333333333333,0.153,-0.03499999999999659,-0.051666666666669414,1.4993333333333334,1.483,38.619,30.085,38.476,35.236,55.465,35.376999999999995,59.4655,52.3625,53.439,34.5175,58.06,50.707499999999996,52.61,34.085,57.966499999999996,50.123333333333335,-0.11499999999999999,-0.04200000000000026,0.10995,0.11157,0.0,217.60000000000002,217.625,214.29333333333335,214.29333333333335,0.0,0.0
30,0.0,0.0,0.0,1.0,1.0,0.0,0.0,1.0,0.0,100.0,1.0,1.1856,26.0,0.0,0.0,0.0,59.999996,0.0,26.0,26.0,26.0,26.0,0.04644444444444429,0.2654000000000001,0.015366666666666666,291.10699999999997,-2.7314,-2.642333333333333,-1.6455000000000002,-1.4605000000000001,-174.01,215.35500000000002,190.32975,0.0,0.0,0.0,0.0,0.060700000000000004,-5.498166666666667,-5.498166666666667,-0.6046,0.907,0.010999999999999899,0.7570000000000001,69.643,0.0236,-0.215725,-0.4900000000000002,100.0,1.0,1.0,214.74,0.0,0.0,0.0,0.0,0.0,0.0,0.0,9102.1,0.0,55.0,5.0,250.68666666666667,0.0,0.0,0.0,0.0,0.0,0.0,1.0,0.0,1.5060000000000002,1.5060000000000002,0.0,0.0,0.0,55.0,616.79921,10000.0,85.000001,85.000001,85.000001,85.000001,395.0,0.0,0.0,0.0,1.0,166.665,50.613,50.613,46.875,46.875,34.0,-23.8725,28.055999999999997,-28.89,30.3825,0.0,1781.712,-0.5150000000000006,100.0,29.145,29.039,43.583,43.925,0.0,0.0,100.0,0.0,0.0,0.0,0.0,3271.142857142857,3364.9,4241.875,4321.4,304.775,304.012,314.67875,314.3585,22.028,20.6592,22.00588888888889,21.4863,314.999998,314.999998,324.999988,324.999988,99.5579,99.50705,99.56715714285714,99.5462,0.12449999999999983,-0.021333333333333315,-0.07666666666666667,0.14533333333333334,-0.04833333333333201,-0.06499999999999773,1.536,1.5245,38.675,30.119666666666667,38.537,35.289500000000004,55.458,35.4165,59.5005,52.422,53.433,34.5535,58.0925,50.7645,52.602000000000004,34.1195,57.996,50.17966666666666,-0.1259999999999999,-0.04150000000000009,0.10468000000000001,0.10494500000000001,0.0,218.005,218.04000000000002,214.74,214.74,0.0,0.0
31,0.0,0.0,0.0,1.0,1.0,0.0,0.0,1.0,0.0,100.0,1.0,1.1856,26.0,0.0,0.0,0.0,59.999996,0.0,26.0,26.0,26.0,26.0,0.047666666666666746,0.2570000000000001,0.07633333333333334,290.726,-2.7086,-2.6163333333333334,-1.6496,-1.5369000000000002,-170.45,215.35250000000002,190.304,0.0,0.0,0.0,0.0,0.06276666666666667,-5.498166666666667,-5.498166666666667,-0.5870000000000001,-0.4013333333333333,0.018777777777777782,-0.6189999999999998,69.776,0.0258,-0.220925,-0.39200000000000035,100.0,1.0,1.0,214.9766666666667,0.0,0.0,0.0,0.0,0.0,0.0,0.0,9112.0,0.0,55.0,5.0,251.16666666666666,1.0,0.0,0.0,0.0,0.0,0.0,1.0,0.0,1.5569999999999986,1.5569999999999986,0.0,0.0,1.0,55.0,616.79921,10000.0,85.000001,85.000001,85.000001,85.000001,395.0,0.0,0.0,0.0,1.0,166.665,51.025,51.025,45.624,45.624,34.0,-22.785,26.984,-30.89,31.935,0.0,1781.66,-0.495000000000001,100.0,28.842,29.28,44.274,44.828,0.0,0.0,100.0,0.0,0.0,0.0,0.0,3179.857142857143,3318.2,4348.75,4346.4,305.2555,304.2305,314.2655,313.94525,22.037399999999998,20.665,22.016555555555556,21.4958,314.999998,314.999998,324.999988,324.999988,99.55791428571429,99.50705,99.5673,99.54635714285715,0.12150000000000016,-0.027666666666666617,-0.0835,0.13266666666666665,-0.03999999999999915,-0.03999999999999915,1.4366666666666668,1.435,38.733000000000004,30.156,38.602999999999994,35.3485,55.449,35.4565,59.543,52.49,53.424,34.591,58.132,50.83,52.592,34.155,58.0325,50.24333333333333,-0.12199999999999989,-0.045500000000000096,0.09908,0.11045,0.0,218.41,218.405,214.9766666666667,214.9766666666667,0.0,0.0
32,0.0,0.0,0.0,1.0,1.0,0.0,0.0,1.0,0.0,100.0,1.0,1.1856,26.0,0.0,0.0,0.0,59.999996,0.0,26.0,26.0,26.0,26.0,0.0665555555555557,0.26370000000000005,-0.015300000000000001,291.321,-2.7093,-2.670888888888889,-1.5953,-1.6142,-167.1,215.35250000000002,190.28,0.0,0.0,0.0,0.0,0.06473333333333334,-5.498166666666667,-5.498166666666667,-0.606,-0.3396666666666667,0.0020000000000000018,-1.024,69.895,0.027100000000000003,-0.23265000000000002,-0.44200000000000017,100.0,1.0,1.0,215.48333333333335,0.0,0.0,0.0,0.0,0.0,0.0,0.0,9133.5,0.0,55.0,5.0,251.60000000000002,0.0,0.0,0.0,0.0,0.0,0.0,1.0,0.0,1.6050000000000004,1.6050000000000004,0.0,0.0,0.0,55.0,616.79921,10000.0,85.000001,85.000001,85.000001,85.000001,395.0,0.0,0.0,0.0,1.0,166.665,51.544,51.544,46.585,46.585,34.0,-22.287499999999998,25.787999999999997,-27.096666666666664,32.3,0.0,1781.612,-0.5249999999999986,100.0,28.664,29.119,44.086,44.688,0.0,0.0,100.0,0.0,0.0,0.0,0.0,3153.857142857143,3105.0,4115.75,4225.1,305.4015,304.82025,314.85075,314.30075,22.0461,20.6704,22.026222222222223,21.5044,314.999998,314.999998,324.999988,324.999988,99.55794285714286,99.50705,99.56745714285714,99.5465,0.1262500000000002,-0.022333333333333316,-0.07050000000000001,0.147,-0.04999999999999716,-0.046666666666666856,1.5230000000000001,1.506,38.788,30.189999999999998,38.664,35.403,55.44,35.494,59.5785,52.55,53.415,34.6255,58.165,50.8875,52.582,34.188,58.062,50.29966666666667,-0.12749999999999995,-0.044500000000000206,0.10075500000000001,0.11186000000000001,0.0,218.765,218.78,215.48333333333335,215.48333333333335,0.0,0.0
33,0.0,0.0,0.0,1.0,1.0,0.0,0.0,1.0,0.0,100.0,1.0,1.1856,26.0,0.0,0.0,0.0,59.999996,0.0,26.0,26.0,26.0,26.0,0.05866666666666687,0.25780000000000003,-0.04513333333333333,291.58,-2.7372,-2.6863333333333332,-1.5993,-1.5795,-163.74,215.35500000000002,190.255,0.0,0.0,0.0,0.0,0.06666666666666667,-5.498166666666667,-5.498166666666667,-0.6151,-0.21633333333333335,-0.002000000000000224,-0.28100000000000014,70.017,0.0292,-0.216375,-0.45399999999999974,100.0,1.0,1.0,215.86666666666667,0.0,0.0,0.0,0.0,0.0,0.0,0.0,9149.7,0.0,55.0,5.0,252.03333333333336,1.0,0.0,0.0,0.0,0.0,0.0,1.0,0.0,1.6529999999999987,1.6529999999999987,0.0,0.0,1.0,55.0,616.79921,10000.0,85.000001,85.000001,85.000001,85.000001,395.0,0.0,0.0,0.0,1.0,166.665,51.865,51.865,46.951,46.951,34.0,-22.9225,25.03,-27.783333333333335,30.67,0.0,1781.565,-0.5350000000000001,100.0,28.515,28.865000000000002,43.876,44.425,0.0,0.0,100.0,0.0,0.0,0.0,0.0,3175.0,3031.9,4138.75,4177.2,305.393,305.05825,314.84275,314.5065,22.0547,20.6757,22.036,21.512999999999998,314.999998,314.999998,324.999988,324.999988,99.55795714285715,99.50706666666666,99.56758571428571,99.54664285714286,0.12075000000000014,-0.027000000000000024,-0.0805,0.137,-0.04333333333332945,-0.051666666666669414,1.5276666666666667,1.5235,38.842,30.223333333333336,38.725,35.4565,55.43,35.5295,59.6135,52.6085,53.406,34.658,58.1975,50.944,52.571,34.2195,58.091499999999996,50.35466666666667,-0.12050000000000005,-0.04700000000000015,0.10788,0.10152000000000001,0.0,219.14499999999998,219.16,215.86666666666667,215.86666666666667,0.0,0.0
34,0.0,0.0,0.0,1.0,1.0,0.0,0.0,1.0,0.0,100.0,1.0,1.1856,26.0,0.0,0.0,0.0,59.999996,0.0,26.0,26.0,26.0,26.0,0.04755555555555557,0.2511000000000001,-0.09093333333333334,291.824,-2.6691,-2.671555555555556,-1.6317,-1.5232999999999999,-160.17000000000002,215.35750000000002,190.227,0.0,0.0,0.0,0.0,0.06873333333333334,-5.498166666666667,-5.498166666666667,-0.6409,-0.8290000000000001,0.019555555555555548,0.9180000000000001,70.146,0.0347,-0.22105000000000002,-0.5039999999999996,100.0,1.0,1.0,216.21666666666667,0.0,0.0,0.0,0.0,0.0,0.0,0.0,9164.7,0.0,55.0,5.0,252.5,0.0,0.0,0.0,0.0,0.0,0.0,1.0,0.0,1.7040000000000006,1.7040000000000006,0.0,0.0,0.0,55.0,616.79921,10000.0,85.000001,85.000001,85.000001,85.000001,395.0,0.0,0.0,0.0,1.0,166.665,52.382999999999996,52.382999999999996,47.043,47.043,34.0,-20.5275,25.107999999999997,-27.983333333333334,31.455000000000002,0.0,1781.514,-0.509999999999998,100.0,28.373,28.437,43.856,44.405,0.0,0.0,100.0,0.0,0.0,0.0,0.0,2965.285714285714,3022.6,4106.875,4280.7,305.8305,305.1905,314.88175,314.34675,22.0638,20.6813,22.046333333333333,21.5223,314.999998,314.999998,324.999988,324.999988,99.55797142857143,99.50706666666666,99.56772857142857,99.54678571428572,0.12650000000000006,-0.016666666666666607,-0.08,0.15066666666666667,-0.05666666666667197,-0.03166666666666629,1.532,1.5110000000000001,38.899,30.258333333333333,38.79,35.513999999999996,55.419,35.566,59.650999999999996,52.673,53.394999999999996,34.692,58.2325,51.0055,52.559,34.2515,58.123,50.415333333333336,-0.11650000000000005,-0.04200000000000026,0.10883000000000001,0.11184000000000001,0.0,219.51999999999998,219.535,216.21666666666667,216.21666666666667,0.0,0.0
35,0.0,0.0,0.0,1.0,1.0,0.0,0.0,1.0,0.0,100.0,1.0,1.1856,26.0,0.0,0.0,0.0,59.999996,0.0,26.0,26.0,26.0,26.0,0.0725555555555557,0.2431000000000001,-0.05876666666666667,291.733,-2.8105,-2.6451111111111114,-1.5457,-1.5737999999999999,-156.59,215.36,190.197125,0.0,0.0,0.0,0.0,0.07083333333333335,-5.498166666666667,-5.498166666666667,-0.6777000000000001,-0.059000000000000004,0.003444444444444361,-1.302,70.272,0.0383,-0.22592500000000001,-0.4320000000000004,100.0,1.0,1.0,216.71,0.0,0.0,0.0,0.0,0.0,0.0,0.0,9185.5,0.0,55.0,5.0,252.95333333333335,1.0,0.0,0.0,0.0,0.0,0.0,1.0,0.0,1.754999999999999,1.754999999999999,0.0,0.0,1.0,55.0,616.79921,10000.0,85.000001,85.000001,85.000001,85.000001,395.0,0.0,0.0,0.0,1.0,166.665,51.635999999999996,51.635999999999996,46.829,46.829,34.0,-23.8275,27.256,-26.056666666666665,30.09,0.0,1781.463,-0.3150000000000013,100.0,28.121,28.942,43.536,44.028999999999996,0.0,0.0,100.0,0.0,0.0,0.0,0.0,3179.4285714285716,3292.6,4102.125,4042.2,305.351,304.24975,314.9955,314.918,22.0728,20.6872,22.056555555555555,21.5313,314.999998,314.999998,324.999988,324.999988,99.55798571428572,99.50706666666666,99.56788571428571,99.54694285714285,0.11799999999999988,-0.024333333333333318,-0.07216666666666667,0.157,-0.05833333333333002,-0.041666666666671404,1.5723333333333334,1.569,38.955,30.294666666666664,38.854,35.571,55.407,35.606,59.687,52.733000000000004,53.382999999999996,34.729,58.2655,51.0635,52.547,34.287,58.153,50.472,-0.10949999999999993,-0.05750000000000011,0.09943,0.11002500000000001,0.0,219.925,219.945,216.71,216.71,0.0,0.0
