,ABS Active,ABS Enabled,AID Allow Tire Blankets,AID Auto Blip,AID Auto Clutch,AID Auto Shift,AID Fuel Rate,AID Ideal Line,AID Mech Damage,AID Stability,AID Tire Wear Rate,Air Density,Air Temp,Ballast,Best Lap Delta,Best Lap Time,Brake Bias,Brake Pos,Brake Temp FL,Brake Temp FR,Brake Temp RL,Brake Temp RR,CG Accel Lateral,CG Accel Longitudinal,CG Accel Vertical,CG Height,Camber FL,Camber FR,Camber RL,Camber RR,Car Coord X,Car Coord Y,Car Coord Z,Car Damage Front,Car Damage Left,Car Damage Rear,Car Damage Right,Car Pos Norm,Caster FL,Caster FR,Chassis Pitch Angle,Chassis Pitch Rate,Chassis Roll Angle,Chassis Roll Rate,Chassis Velocity X,Chassis Velocity Y,Chassis Velocity Z,Chassis Yaw Rate,Clutch Pos,DRS Active,DRS Available,Drive Train Speed,ERS Heat Charging,ERS Is Charging,ERS Max Energy,ERS Power Level,ERS Recovery Level,Engine Brake Setting,Engine Limiter,Engine RPM,Flags,Fuel Level,Gear,Ground Speed,HR Sample Clock,In Pit,KERS Charge,KERS Deployed Energy,KERS Input,KERS Max Energy,LR Sample Clock,Lap Invalidated,Lap Time,Lap Time2,Last Lap Time,Last Sector Time,MR Sample Clock,Max Fuel,Max Power,Max RPM,Max Sus Travel FL,Max Sus Travel FR,Max Sus Travel RL,Max Sus Travel RR,Max Torque,Max Turbo Boost,Num Tires Off Track,Penalties Enabled,Position,Raw Data Sample Rate,Ride Height FL,Ride Height FR,Ride Height RL,Ride Height RR,Road Temp,Self Align Torque FL,Self Align Torque FR,Self Align Torque RL,Self Align Torque RR,Session Lap Count,Session Time Left,Steering Angle,Surface Grip,Suspension Travel FL,Suspension Travel FR,Suspension Travel RL,Suspension Travel RR,TC Active,TC Enabled,Throttle Pos,Tire Dirt Level FL,Tire Dirt Level FR,Tire Dirt Level RL,Tire Dirt Level RR,Tire Load FL,Tire Load FR,Tire Load RL,Tire Load RR,Tire Loaded Radius FL,Tire Loaded Radius FR,Tire Loaded Radius RL,Tire Loaded Radius RR,Tire Pressure FL,Tire Pressure FR,Tire Pressure RL,Tire Pressure RR,Tire Radius FL,Tire Radius FR,Tire Radius RL,Tire Radius RR,Tire Rubber Grip FL,Tire Rubber Grip FR,Tire Rubber Grip RL,Tire Rubber Grip RR,Tire Slip Angle FL,Tire Slip Angle FR,Tire Slip Angle RL,Tire Slip Angle RR,Tire Slip Ratio FL,Tire Slip Ratio FR,Tire Slip Ratio RL,Tire Slip Ratio RR,Tire Temp Core FL,Tire Temp Core FR,Tire Temp Core RL,Tire Temp Core RR,Tire Temp Inner FL,Tire Temp Inner FR,Tire Temp Inner RL,Tire Temp Inner RR,Tire Temp Middle FL,Tire Temp Middle FR,Tire Temp Middle RL,Tire Temp Middle RR,Tire Temp Outer FL,Tire Temp Outer FR,Tire Temp Outer RL,Tire Temp Outer RR,Toe In FL,Toe In FR,Toe In RL,Toe In RR,Turbo Boost,Wheel Angular Speed FL,Wheel Angular Speed FR,Wheel Angular Speed RL,Wheel Angular Speed RR,Wind Direction,Wind Speed
0,0.0,1.0,0.0,1.0,1.0,0.0,0.0,1.0,0.0,100.0,1.0,1.1856,26.0,0.0,0.0,0.0,59.99999,0.0,26.0,26.0,26.0,26.0,-0.07550000000000001,0.30469999999999997,0.06696666666666666,293.976,-2.7162,-2.6611111111111114,-1.5155,-1.5601,-275.49,216.29000000000002,190.9865,0.0,0.0,0.0,0.0,0.0017000000000000001,-5.498166666666667,-5.498166666666667,-0.5443,1.2033333333333336,-0.010777777777777775,-0.827,65.504,-0.040100000000000004,-0.20965,0.9580000000000002,100.0,1.0,1.0,202.23666666666668,0.0,0.0,0.0,0.0,0.0,0.0,0.0,8572.1,0.0,55.0,5.0,235.78,0.0,0.0,0.0,0.0,0.0,0.0,0.0,0.0,0.006000000000000227,0.006000000000000227,0.0,0.0,0.0,55.0,616.79921,10000.0,85.0,85.0,85.0,85.0,395.0,0.0,0.0,0.0,1.0,20.0,52.75,52.75,49.393,49.393,34.0,-25.785,23.591666666666665,-30.619999999999997,24.810000000000002,0.0,1783.629,0.7899999999999991,100.0,27.548000000000002,26.994,40.623,40.521,0.0,1.0,100.0,0.0,0.0,0.0,0.0,2968.4285714285716,3391.7,4125.5,3975.6000000000004,305.832,304.0466666666667,314.78833333333336,314.91225,21.7783,20.5087,21.7466,21.2861,314.99999,314.99999,324.99998,324.99998,99.55891428571428,99.50706666666666,99.56424285714286,99.54418571428572,0.0023333333333335204,-0.12,-0.165,0.06566666666666676,-0.061666666666667425,-0.02499999999999858,1.5576666666666665,1.5893333333333333,37.114000000000004,29.179333333333332,36.916,34.038,56.269,34.399,58.7525,51.2775,54.192,33.584,57.396,49.6525,53.366,33.1565,57.367,49.08233333333334,-0.020999999999999908,-0.13600000000000012,0.10732000000000001,0.10951000000000001,0.0,205.285,205.155,202.23666666666668,202.23666666666668,0.0,0.0
1,0.0,1.0,0.0,1.0,1.0,0.0,0.0,1.0,0.0,100.0,1.0,1.1856,26.0,0.0,0.0,0.0,59.999996,0.0,26.0,26.0,26.0,26.0,-0.10775000000000001,0.3276000000000001,0.23096666666666665,292.984,-2.6277,-2.7764444444444445,-1.5192,-1.5577,-272.15,216.285,190.96625,0.0,0.0,0.0,0.0,0.003633333333333334,-5.498166666666667,-5.498166666666667,-0.5009,-0.6856666666666666,-0.06477777777777805,-1.078,65.658,-0.0538,-0.19612500000000002,1.3680000000000003,100.0,1.0,1.0,202.40666666666667,0.0,0.0,0.0,0.0,0.0,0.0,0.0,8579.3,0.0,55.0,5.0,236.33666666666667,1.0,0.0,0.0,0.0,0.0,0.0,0.0,0.0,0.05699999999999861,0.05699999999999861,0.0,0.0,1.0,55.0,616.79921,10000.0,85.000001,85.000001,85.000001,85.000001,395.0,0.0,0.0,0.0,1.0,333.33500000000004,53.436,53.436,48.325,48.325,34.0,-27.494999999999997,18.358333333333334,-35.12,29.0025,0.0,1783.577,0.9050000000000011,100.0,27.611,26.928,42.684,41.67,0.0,1.0,100.0,0.0,0.0,0.0,0.0,3178.714285714286,2713.0,4359.875,4690.1,305.2435,306.176,314.1893333333333,313.14975,21.7882,20.5138,21.7574,21.295099999999998,314.999998,314.999998,324.999988,324.999988,99.55892857142857,99.50708333333333,99.56438571428572,99.54434285714285,-0.007333333333333192,-0.1403333333333333,-0.19383333333333336,0.03600000000000003,-0.05833333333333002,-0.03499999999999659,1.4093333333333333,1.4653333333333334,37.176,29.211,36.983999999999995,34.0945,56.253,34.44,58.799,51.3435,54.176,33.6215,57.439499999999995,49.716,53.35,33.192499999999995,57.4075,49.144333333333336,-0.008999999999999897,-0.1459999999999999,0.10656500000000001,0.11204000000000001,0.0,205.745,205.60500000000002,202.40666666666667,202.40666666666667,0.0,0.0
2,0.0,1.0,0.0,1.0,1.0,0.0,0.0,1.0,0.0,100.0,1.0,1.1856,26.0,0.0,0.0,0.0,59.999996,0.0,26.0,26.0,26.0,26.0,-0.12724999999999997,0.3014000000000001,-0.036033333333333334,293.655,-2.6107,-2.7864444444444443,-1.4946000000000002,-1.6000999999999999,-268.6,216.2775,190.946375,0.0,0.0,0.0,0.0,0.0057,-5.498166666666667,-5.498166666666667,-0.546,0.3633333333333333,-0.04211111111111121,1.6830000000000003,65.809,-0.07540000000000001,-0.249125,1.612,100.0,1.0,1.0,203.32,0.0,0.0,0.0,0.0,0.0,0.0,0.0,8617.9,0.0,55.0,5.0,236.88,0.0,0.0,0.0,0.0,0.0,0.0,0.0,0.0,0.11100000000000065,0.11100000000000065,0.0,0.0,0.0,55.0,616.79921,10000.0,85.000001,85.000001,85.000001,85.000001,395.0,0.0,0.0,0.0,1.0,166.665,52.46,52.46,50.095,50.095,34.0,-30.205,19.796666666666667,-29.24666666666667,20.2575,0.0,1783.525,0.6649999999999991,100.0,28.296,26.988,42.527,41.3,0.0,1.0,100.0,0.0,0.0,0.0,0.0,3338.5714285714284,2953.5,3736.0,3802.2,304.6695,305.3426666666667,315.698,315.453,21.7991,20.519,21.7685,21.3043,314.999998,314.999998,324.999988,324.999988,99.55892857142857,99.5071,99.56454285714285,99.54448571428571,-0.032333333333333325,-0.15600000000000003,-0.22383333333333336,-0.0044999999999999485,-0.054999999999999716,-0.051666666666669414,1.6276666666666666,1.6896666666666667,37.244,29.244,37.053,34.152,56.239999999999995,34.482,58.8405,51.405,54.164,33.66,57.478,49.7745,53.337,33.2295,57.443,49.202333333333335,-0.01949999999999985,-0.13100000000000023,0.104635,0.100625,0.0,206.215,206.07999999999998,203.32,203.32,0.0,0.0
3,0.0,1.0,0.0,1.0,1.0,0.0,0.0,1.0,0.0,100.0,1.0,1.1856,26.0,0.0,0.0,0.0,59.999996,0.0,26.0,26.0,26.0,26.0,-0.134625,0.3114000000000001,-0.056,293.488,-2.7236,-2.694888888888889,-1.5061,-1.5957,-265.44,216.265,190.927875,0.0,0.0,0.0,0.0,0.007566666666666668,-5.498166666666667,-5.498166666666667,-0.5085000000000001,0.23433333333333328,-0.016777777777778002,-1.174,65.952,-0.08900000000000001,-0.201125,1.267999999999999,100.0,1.0,1.0,203.46666666666667,0.0,0.0,0.0,0.0,0.0,0.0,0.0,8624.2,0.0,55.0,5.0,237.39666666666668,1.0,0.0,0.0,0.0,0.0,0.0,0.0,0.0,0.15899999999999892,0.15899999999999892,0.0,0.0,1.0,55.0,616.79921,10000.0,85.000001,85.000001,85.000001,85.000001,395.0,0.0,0.0,0.0,1.0,166.665,53.696,53.696,48.096000000000004,48.096000000000004,34.0,-25.91,17.53,-35.48,24.12,0.0,1783.476,0.6350000000000016,100.0,27.88,27.012,42.458,41.483000000000004,0.0,1.0,100.0,0.0,0.0,0.0,0.0,2842.4285714285716,2767.6,4340.75,4210.5,306.172,305.83733333333333,314.2753333333333,314.33575,21.8082,20.5239,21.7783,21.3127,314.999998,314.999998,324.999988,324.999988,99.55892857142857,99.50713333333333,99.56467142857143,99.54461428571429,-0.03266666666666662,-0.16000000000000003,-0.2145,0.006166666666666654,-0.02833333333332888,-0.041666666666671404,1.4733333333333334,1.5406666666666666,37.301,29.27433333333333,37.114000000000004,34.204499999999996,56.224000000000004,34.522,58.8785,51.465,54.149,33.697,57.513999999999996,49.832499999999996,53.321,33.2645,57.4765,49.259,-0.02499999999999991,-0.121,0.10282000000000001,0.10546000000000001,0.0,206.635,206.55,203.46666666666667,203.46666666666667,0.0,0.0
4,0.0,1.0,0.0,1.0,1.0,0.0,0.0,1.0,0.0,100.0,1.0,1.1856,26.0,0.0,0.0,0.0,59.999996,0.0,26.0,26.0,26.0,26.0,-0.138625,0.2793000000000001,-0.017533333333333335,293.671,-2.6598,-2.7455555555555557,-1.5229,-1.5996,-262.27,216.2525,190.90925,0.0,0.0,0.0,0.0,0.0094,-5.498166666666667,-5.498166666666667,-0.5456,-0.6713333333333333,-0.08211111111111125,-1.604,66.089,-0.0888,-0.23717500000000002,1.1620000000000008,100.0,1.0,1.0,204.05,0.0,0.0,0.0,0.0,0.0,0.0,0.0,8648.9,0.0,55.0,5.0,237.89333333333332,0.0,0.0,0.0,0.0,0.0,0.0,0.0,0.0,0.20700000000000074,0.20700000000000074,0.0,0.0,0.0,55.0,616.79921,10000.0,85.000001,85.000001,85.000001,85.000001,395.0,0.0,0.0,0.0,1.0,166.665,53.024,53.024,48.888999999999996,48.888999999999996,34.0,-30.08,19.248333333333335,-33.00333333333334,20.655,0.0,1783.428,0.6050000000000004,100.0,27.675,26.849,42.772,41.418,0.0,1.0,100.0,0.0,0.0,0.0,0.0,3307.4285714285716,2885.2,4080.125,3666.4,304.9275,305.494,314.86066666666665,315.68375,21.8173,20.5287,21.7882,21.320999999999998,314.999998,314.999998,324.999988,324.999988,99.55892857142857,99.50713333333333,99.56481428571429,99.54474285714285,-0.03166666666666673,-0.14933333333333332,-0.21966666666666665,0.015833333333333366,-0.046666666666666856,-0.04833333333333201,1.5710000000000002,1.611,37.358000000000004,29.304333333333332,37.176,34.256,56.208,34.561,58.919,51.521,54.132999999999996,33.733000000000004,57.5515,49.885999999999996,53.304,33.299,57.5115,49.31133333333334,-0.027499999999999858,-0.1200000000000001,0.11391000000000001,0.11149500000000001,0.0,207.04500000000002,206.95,204.05,204.05,0.0,0.0
5,0.0,1.0,0.0,1.0,1.0,0.0,0.0,1.0,0.0,100.0,1.0,1.1856,26.0,0.0,0.0,0.0,59.999996,0.0,26.0,26.0,26.0,26.0,-0.14600000000000002,0.30380000000000007,-0.011000000000000001,293.594,-2.6704,-2.7683333333333335,-1.5088,-1.5866,-258.89,216.235,190.888875,0.0,0.0,0.0,0.0,0.011366666666666667,-5.498166666666667,-5.498166666666667,-0.5341,0.41266666666666674,-0.08055555555555571,1.161,66.237,-0.08900000000000001,-0.211825,1.017999999999999,100.0,1.0,1.0,204.42333333333335,0.0,0.0,0.0,0.0,0.0,0.0,0.0,8664.7,0.0,55.0,5.0,238.42000000000002,1.0,0.0,0.0,0.0,0.0,0.0,0.0,0.0,0.2579999999999991,0.2579999999999991,0.0,0.0,1.0,55.0,616.79921,10000.0,85.000001,85.000001,85.000001,85.000001,395.0,0.0,0.0,0.0,1.0,333.33500000000004,53.467,53.467,48.888999999999996,48.888999999999996,34.0,-27.3475,19.345,-33.31,23.23,0.0,1783.375,0.20500000000000185,100.0,27.913,26.589,42.656,41.131,0.0,1.0,100.0,0.0,0.0,0.0,0.0,3094.142857142857,2854.6,4160.875,4112.2,305.345,305.80466666666666,314.6836666666667,314.68375,21.8273,20.5338,21.7986,21.3297,314.999998,314.999998,324.999988,324.999988,99.55894285714285,99.50715,99.56494285714285,99.54488571428571,-0.009666666666666712,-0.1403333333333333,-0.21066666666666667,0.00883333333333347,-0.045000000000001705,-0.051666666666669414,1.536,1.5733333333333333,37.421,29.336,37.241,34.3105,56.194,34.602000000000004,58.96,51.58,54.120000000000005,33.7705,57.59,49.942499999999995,53.29,33.335,57.547,49.36633333333333,-0.05699999999999994,-0.10199999999999987,0.10300500000000001,0.10684,0.0,207.525,207.445,204.42333333333335,204.42333333333335,0.0,0.0
6,0.0,1.0,0.0,1.0,1.0,0.0,0.0,1.0,0.0,100.0,1.0,1.1856,26.0,0.0,0.0,0.0,59.999996,0.0,26.0,26.0,26.0,26.0,-0.11862499999999998,0.29610000000000003,0.0038333333333333336,293.427,-2.6369,-2.798222222222222,-1.5525,-1.5827,-255.71,216.215,190.8695,0.0,0.0,0.0,0.0,0.0132,-5.498166666666667,-5.498166666666667,-0.5307000000000001,0.08499999999999996,-0.061555555555555586,0.913,66.374,-0.0857,-0.21455000000000002,0.7379999999999995,100.0,1.0,1.0,204.8466666666667,0.0,0.0,0.0,0.0,0.0,0.0,0.0,8682.7,0.0,55.0,5.0,238.91666666666669,0.0,0.0,0.0,0.0,0.0,0.0,0.0,0.0,0.30600000000000094,0.30600000000000094,0.0,0.0,0.0,55.0,616.79921,10000.0,85.000001,85.000001,85.000001,85.000001,395.0,0.0,0.0,0.0,1.0,333.33500000000004,53.162,53.162,48.706,48.706,34.0,-26.3275,21.53333333333333,-32.68666666666667,23.53,0.0,1783.327,-0.03500000000000014,100.0,27.852,26.731,42.764,41.481,0.0,1.0,100.0,0.0,0.0,0.0,0.0,3091.0,2971.0,4077.375,4055.8,305.3075,305.3546666666667,314.8743333333333,314.813,21.8365,20.5386,21.8085,21.3381,314.999998,314.999998,324.999988,324.999988,99.55894285714285,99.50716666666666,99.56508571428571,99.54501428571429,0.0086666666666666,-0.118,-0.202,0.022166666666666668,-0.045000000000001705,-0.04999999999999716,1.5313333333333334,1.5626666666666666,37.477999999999994,29.366333333333333,37.303,34.363,56.179,34.6405,58.9985,51.638999999999996,54.105999999999995,33.806,57.626,49.999,53.275999999999996,33.3685,57.5805,49.42166666666667,-0.07050000000000001,-0.07850000000000001,0.10412500000000001,0.10518000000000001,0.0,207.925,207.85000000000002,204.8466666666667,204.84666666666666,0.0,0.0
7,0.0,1.0,0.0,1.0,1.0,0.0,0.0,1.0,0.0,100.0,1.0,1.1856,26.0,0.0,0.0,0.0,59.999996,0.0,26.0,26.0,26.0,26.0,-0.07762499999999994,0.2802,0.03486666666666667,293.289,-2.6098,-2.755,-1.5146000000000002,-1.6244,-252.12,216.1875,190.847875,0.0,0.0,0.0,0.0,0.015300000000000001,-5.498166666666667,-5.498166666666667,-0.5341,0.11433333333333318,-0.04933333333333367,1.173,66.529,-0.06720000000000001,-0.223475,0.30799999999999983,100.0,1.0,1.0,205.31666666666666,0.0,0.0,0.0,0.0,0.0,0.0,0.0,8702.6,0.0,55.0,5.0,239.47333333333333,1.0,0.0,0.0,0.0,0.0,0.0,0.0,0.0,0.35999999999999943,0.35999999999999943,0.0,0.0,1.0,55.0,616.79921,10000.0,85.000001,85.000001,85.000001,85.000001,395.0,0.0,0.0,0.0,1.0,166.665,52.887,52.887,48.843,48.843,34.0,-25.4375,22.696666666666665,-30.5,25.6425,0.0,1783.275,-0.21999999999999886,100.0,27.977,26.836,42.787,41.748000000000005,0.0,1.0,100.0,0.0,0.0,0.0,0.0,3134.4285714285716,3007.6,4007.375,4052.2,305.131,305.22266666666667,315.003,314.7745,21.847,20.5441,21.8196,21.3475,314.999998,314.999998,324.999988,324.999988,99.55894285714285,99.50718333333333,99.56524285714286,99.54517142857142,0.03533333333333344,-0.08833333333333337,-0.17866666666666667,0.05049999999999999,-0.03333333333333144,-0.05333333333332746,1.5270000000000001,1.5470000000000002,37.543,29.400333333333336,37.372,34.422,56.163,34.6825,59.042,51.704499999999996,54.091,33.8445,57.6665,50.0615,53.26,33.4055,57.618,49.483000000000004,-0.09399999999999986,-0.05500000000000016,0.09867000000000001,0.10656500000000001,0.0,208.37,208.35000000000002,205.31666666666666,205.31666666666666,0.0,0.0
8,0.0,1.0,0.0,1.0,1.0,0.0,0.0,1.0,0.0,100.0,1.0,1.1856,26.0,0.0,0.0,0.0,59.999996,0.0,26.0,26.0,26.0,26.0,-0.03200000000000003,0.2815000000000001,-0.036833333333333336,293.488,-2.7025,-2.717777777777778,-1.4995,-1.5723,-248.72,216.1625,190.82725,0.0,0.0,0.0,0.0,0.017266666666666666,-5.498166666666667,-5.498166666666667,-0.5376000000000001,-0.5800000000000001,-0.03200000000000003,-0.5269999999999999,66.675,-0.0459,-0.21755000000000002,-0.047999999999999154,100.0,1.0,1.0,205.69,0.0,0.0,0.0,0.0,0.0,0.0,0.0,8718.4,0.0,55.0,5.0,240.0,0.0,0.0,0.0,0.0,0.0,0.0,0.0,0.0,0.41100000000000136,0.41100000000000136,0.0,0.0,0.0,55.0,616.79921,10000.0,85.000001,85.000001,85.000001,85.000001,395.0,0.0,0.0,0.0,1.0,166.665,53.574,53.574,48.294,48.294,34.0,-24.7225,22.485,-29.67,26.075000000000003,0.0,1783.224,-0.3550000000000004,100.0,27.338,26.915,42.665,41.984,0.0,1.0,100.0,0.0,0.0,0.0,0.0,3026.857142857143,2937.9,4114.0,4065.5,305.7775,305.36566666666664,314.7823333333333,314.64475,21.8565,20.5492,21.83,21.3564,314.999998,314.999998,324.999988,324.999988,99.55895714285714,99.5072,99.56538571428571,99.5453,0.03833333333333311,-0.07233333333333336,-0.14816666666666667,0.06566666666666676,-0.04833333333333201,-0.03166666666666629,1.533,1.5136666666666665,37.602999999999994,29.432666666666666,37.438,34.4775,56.147,34.7205,59.083,51.766,54.075,33.8795,57.704499999999996,50.121,53.242999999999995,33.439499999999995,57.653,49.541,-0.10499999999999998,-0.04200000000000026,0.10363000000000001,0.10492000000000001,0.0,208.82,208.79000000000002,205.69,205.69,0.0,0.0
9,0.0,1.0,0.0,1.0,1.0,0.0,0.0,1.0,0.0,100.0,1.0,1.1856,26.0,0.0,0.0,0.0,59.999996,0.0,26.0,26.0,26.0,26.0,-0.03512499999999996,0.28469999999999995,0.03536666666666667,293.137,-2.6852,-2.7214444444444443,-1.5554000000000001,-1.5519,-245.72,216.1375,190.808625,0.0,0.0,0.0,0.0,0.019,-5.498166666666667,-5.498166666666667,-0.5412,0.6816666666666669,-0.03111111111111109,0.7989999999999999,66.8,-0.027,-0.215375,-0.19200000000000017,100.0,1.0,1.0,206.19,0.0,0.0,0.0,0.0,0.0,0.0,0.0,8739.7,0.0,55.0,5.0,240.45,1.0,0.0,0.0,0.0,0.0,0.0,0.0,0.0,0.4559999999999995,0.4559999999999995,0.0,0.0,1.0,55.0,616.79921,10000.0,85.000001,85.000001,85.000001,85.000001,395.0,0.0,0.0,0.0,1.0,333.33500000000004,52.429,52.429,49.21,49.21,34.0,-25.5075,24.471666666666664,-28.240000000000002,26.747500000000002,0.0,1783.178,-0.495000000000001,100.0,27.969,27.203,42.378,41.877,0.0,1.0,100.0,0.0,0.0,0.0,0.0,3284.142857142857,3097.5,3988.125,4085.1000000000004,304.792,304.976,315.16766666666666,314.756,21.8652,20.554,21.8391,21.3642,314.999998,314.999998,324.999988,324.999988,99.55895714285714,99.5072,99.56551428571429,99.54542857142857,0.07799999999999985,-0.05666666666666664,-0.1325,0.09000000000000008,-0.041666666666671404,-0.046666666666666856,1.58,1.5763333333333334,37.658,29.462333333333333,37.494,34.5265,56.135999999999996,34.7555,59.1155,51.819,54.064,33.912,57.735,50.172,53.232,33.4705,57.6805,49.591,-0.11549999999999994,-0.040999999999999925,0.11131500000000001,0.107675,0.0,209.22,209.215,206.19,206.19,0.0,0.0
10,0.0,1.0,0.0,1.0,1.0,0.0,0.0,1.0,0.0,100.0,1.0,1.1856,26.0,0.0,0.0,0.0,59.999996,0.0,26.0,26.0,26.0,26.0,0.01187500000000008,0.29600000000000004,-0.014700000000000001,293.03,-2.6662,-2.7030000000000003,-1.5382,-1.5318,-242.31,216.11,190.787875,0.0,0.0,0.0,0.0,0.021,-5.498166666666667,-5.498166666666667,-0.5195000000000001,-0.5036666666666667,0.008777777777777773,0.3460000000000001,66.947,-0.0067,-0.20845,-0.45999999999999996,100.0,1.0,1.0,206.43666666666667,0.0,0.0,0.0,0.0,0.0,0.0,0.0,8750.1,0.0,55.0,5.0,240.98000000000002,0.0,0.0,0.0,0.0,0.0,0.0,1.0,0.0,0.5069999999999979,0.5069999999999979,0.0,0.0,0.0,55.0,616.79921,10000.0,85.000001,85.000001,85.000001,85.000001,395.0,0.0,0.0,0.0,1.0,333.33500000000004,53.513,53.513,47.653,47.653,34.0,-21.28,23.023333333333333,-30.46333333333333,29.0125,0.0,1783.127,-0.6099999999999994,100.0,27.655,27.34,42.777,42.713,0.0,1.0,100.0,0.0,0.0,0.0,0.0,2876.0,2866.9,4289.0,4258.2,306.1285,305.56266666666664,314.36966666666666,314.18675,21.8749,20.5592,21.8496,21.3733,314.999998,314.999998,324.999988,324.999988,99.55897142857143,99.50721666666666,99.56565714285715,99.54557142857144,0.0853333333333337,-0.03966666666666663,-0.12,0.10099999999999998,-0.060000000000002274,-0.03999999999999915,1.483,1.4826666666666668,37.718,29.495333333333335,37.56,34.5835,56.122,34.792500000000004,59.1575,51.8845,54.052,33.946,57.774,50.2345,53.218,33.5025,57.717,49.65233333333333,-0.12199999999999989,-0.020999999999999908,0.10536000000000001,0.106105,0.0,209.655,209.67000000000002,206.43666666666667,206.43666666666667,0.0,0.0
11,0.0,1.0,0.0,1.0,1.0,0.0,0.0,1.0,0.0,100.0,1.0,1.1856,26.0,0.0,0.0,0.0,59.999996,0.0,26.0,26.0,26.0,26.0,0.02499999999999991,0.2845,-0.07126666666666667,293.533,-2.7063,-2.6855555555555557,-1.5904,-1.5219,-238.89,216.085,190.767125,0.0,0.0,0.0,0.0,0.022600000000000002,-5.498166666666667,-5.498166666666667,-0.561,-0.10699999999999998,0.03433333333333333,0.30000000000000004,67.086,0.0092,-0.235375,-0.6079999999999997,100.0,1.0,1.0,207.16666666666669,0.0,0.0,0.0,0.0,0.0,0.0,0.0,8781.0,0.0,55.0,5.0,241.48000000000002,1.0,0.0,0.0,0.0,0.0,0.0,1.0,0.0,0.5579999999999998,0.5579999999999998,0.0,0.0,1.0,55.0,616.79921,10000.0,85.000001,85.000001,85.000001,85.000001,395.0,0.0,0.0,0.0,1.0,333.33500000000004,52.856,52.856,49.254999999999995,49.254999999999995,34.0,-21.9775,26.441666666666666,-24.02666666666667,27.1225,0.0,1783.076,-0.7850000000000001,100.0,27.534,27.427,42.284,42.522999999999996,0.0,1.0,100.0,0.0,0.0,0.0,0.0,2995.857142857143,3179.5,3697.0,3892.8,305.6775,304.7303333333333,315.86633333333333,315.19525,21.8845,20.5647,21.8599,21.3823,314.999998,314.999998,324.999988,324.999988,99.55898571428571,99.50721666666666,99.5658,99.54571428571428,0.10499999999999998,-0.020333333333333314,-0.09,0.14200000000000013,-0.02833333333332888,-0.05333333333332746,1.653,1.6360000000000001,37.778,29.529,37.623999999999995,34.638999999999996,56.108000000000004,34.83,59.192499999999995,51.945,54.038,33.981,57.8065,50.293,53.204,33.536500000000004,57.7465,49.709666666666664,-0.12549999999999994,-0.028000000000000025,0.10659500000000001,0.11178,0.0,210.05,210.095,207.16666666666669,207.16666666666669,0.0,0.0
12,0.0,1.0,0.0,1.0,1.0,0.0,0.0,1.0,0.0,100.0,1.0,1.1856,26.0,0.0,0.0,0.0,59.999996,0.0,26.0,26.0,26.0,26.0,0.042874999999999996,0.2825,0.020933333333333335,292.908,-2.7591,-2.683666666666667,-1.5552000000000001,-1.5263,-235.67000000000002,216.06,190.746375,0.0,0.0,0.0,0.0,0.025466666666666665,-5.498166666666667,-5.498166666666667,-0.545,0.27866666666666684,0.01855555555555566,0.565,67.223,0.0269,-0.205925,-0.7800000000000002,100.0,1.0,1.0,207.35333333333335,0.0,0.0,0.0,0.0,0.0,0.0,0.0,8788.9,0.0,55.0,5.0,241.97,0.0,0.0,0.0,0.0,0.0,0.0,1.0,0.0,0.6059999999999981,0.6059999999999981,0.0,0.0,0.0,55.0,616.79921,10000.0,85.000001,85.000001,85.000001,85.000001,395.0,0.0,0.0,0.0,1.0,166.665,52.811,52.811,47.897,47.897,34.0,-22.395,26.488333333333333,-27.023333333333326,31.4225,0.0,1783.029,-0.4450000000000003,100.0,27.472,27.566,42.344,42.451,0.0,1.0,100.0,0.0,0.0,0.0,0.0,3034.5714285714284,3198.2,4176.625,4246.7,305.5765,304.70533333333333,314.642,314.35175,21.8935,20.5698,21.8696,21.3907,314.999998,314.999998,324.999988,324.999988,99.55898571428571,99.50721666666666,99.56592857142857,99.54585714285714,0.11366666666666658,-0.022333333333333316,-0.07266666666666667,0.15516666666666667,-0.01666666666666572,-0.046666666666666856,1.5386666666666666,1.5066666666666668,37.834,29.561333333333334,37.685,34.6915,56.096000000000004,34.866,59.2295,52.0035,54.027,34.013999999999996,57.841,50.349000000000004,53.191,33.568,57.778,49.765,-0.11599999999999988,-0.04150000000000009,0.11391000000000001,0.10398500000000001,0.0,210.48000000000002,210.555,207.35333333333335,207.35333333333335,0.0,0.0
13,0.0,1.0,0.0,1.0,1.0,0.0,0.0,1.0,0.0,100.0,1.0,1.1856,26.0,0.0,0.0,0.0,59.999996,0.0,26.0,26.0,26.0,26.0,0.076125,0.272,0.038033333333333336,292.572,-2.7391,-2.672888888888889,-1.5895000000000001,-1.5093,-232.24,216.035,190.724625,0.0,0.0,0.0,0.0,0.02686666666666667,-5.498166666666667,-5.498166666666667,-0.5388000000000001,-0.09799999999999998,0.019888888888888845,-0.44199999999999995,67.36500000000001,0.0375,-0.21545,-0.8300000000000001,100.0,1.0,1.0,207.74333333333334,0.0,0.0,0.0,0.0,0.0,0.0,0.0,8805.5,0.0,55.0,5.0,242.48666666666668,1.0,0.0,0.0,0.0,0.0,0.0,1.0,0.0,0.657,0.657,0.0,0.0,1.0,55.0,616.79921,10000.0,85.000001,85.000001,85.000001,85.000001,395.0,0.0,0.0,0.0,1.0,333.33500000000004,52.505,52.505,47.897,47.897,34.0,-22.072499999999998,26.871666666666666,-27.47,31.6125,0.0,1782.977,-0.8499999999999979,100.0,27.638,27.894,42.474000000000004,43.058,0.0,1.0,100.0,0.0,0.0,0.0,0.0,3159.285714285714,3084.9,4203.75,4288.6,305.3545,304.865,314.6193333333333,314.14575,21.9032,20.5753,21.8801,21.3998,314.999998,314.999998,324.999988,324.999988,99.559,99.50721666666666,99.56607142857143,99.546,0.137,0.010333333333333306,-0.06666666666666668,0.14916666666666667,-0.045000000000001705,-0.045000000000001705,1.514,1.4613333333333334,37.894999999999996,29.595666666666666,37.751000000000005,34.749,56.086,34.903999999999996,59.269,52.0685,54.016999999999996,34.0495,57.8775,50.411500000000004,53.181,33.602000000000004,57.8115,49.826,-0.14649999999999985,-0.008500000000000174,0.10407500000000001,0.104885,0.0,210.925,210.99,207.74333333333334,207.74333333333334,0.0,0.0
14,0.0,1.0,0.0,1.0,1.0,0.0,0.0,1.0,0.0,100.0,1.0,1.1856,26.0,0.0,0.0,0.0,59.999996,0.0,26.0,26.0,26.0,26.0,0.09099999999999997,0.2833000000000001,-0.006833333333333334,292.801,-2.7328,-2.6158888888888887,-1.5986,-1.5103,-228.8,216.0125,190.703375,0.0,0.0,0.0,0.0,0.02886666666666667,-5.498166666666667,-5.498166666666667,-0.5493,-0.11499999999999999,0.05366666666666675,1.3090000000000002,67.504,0.0505,-0.22792500000000002,-1.0199999999999996,100.0,1.0,1.0,208.26333333333332,0.0,0.0,0.0,0.0,0.0,0.0,0.0,8827.6,0.0,55.0,5.0,242.99,0.0,0.0,0.0,0.0,0.0,0.0,1.0,0.0,0.7079999999999984,0.7079999999999984,0.0,0.0,0.0,55.0,616.79921,10000.0,85.000001,85.000001,85.000001,85.000001,395.0,0.0,0.0,0.0,1.0,333.33500000000004,52.612,52.612,48.126,48.126,34.0,-19.474999999999998,28.518333333333334,-23.89333333333333,32.49,0.0,1782.925,-0.9600000000000009,100.0,27.693,27.865000000000002,42.518,43.186,0.0,1.0,100.0,0.0,0.0,0.0,0.0,2922.0,3269.1,3931.0,4222.2,305.8655,304.49,315.21933333333334,314.41025,21.9128,20.5808,21.8904,21.4089,314.999998,314.999998,324.999988,324.999988,99.55902857142857,99.50723333333333,99.56622857142857,99.54614285714285,0.15733333333333333,0.023666666666666725,-0.0375,0.1851666666666667,-0.036666666666668846,-0.04999999999999716,1.5633333333333335,1.5226666666666666,37.955,29.630333333333333,37.815,34.806,56.075,34.9445,59.3085,52.135999999999996,54.006,34.0865,57.914,50.4765,53.169,33.638,57.845,49.88966666666666,-0.1499999999999999,-0.004999999999999893,0.10280500000000001,0.11934000000000002,0.0,211.345,211.43,208.26333333333332,208.26333333333332,0.0,0.0
15,0.0,1.0,0.0,1.0,1.0,0.0,0.0,1.0,0.0,100.0,1.0,1.1856,26.0,0.0,0.0,0.0,59.999996,0.0,26.0,26.0,26.0,26.0,0.12137500000000001,0.29100000000000015,0.017400000000000002,292.801,-2.7459,-2.572222222222222,-1.6276000000000002,-1.4518,-225.55,215.9925,190.683,0.0,0.0,0.0,0.0,0.03073333333333333,-5.498166666666667,-5.498166666666667,-0.5392,0.2530000000000001,0.08444444444444432,0.8840000000000001,67.637,0.0637,-0.20795000000000002,-1.2220000000000004,100.0,1.0,1.0,208.65,0.0,0.0,0.0,0.0,0.0,0.0,0.0,8843.9,0.0,55.0,5.0,243.46333333333334,1.0,0.0,0.0,0.0,0.0,0.0,1.0,0.0,0.7560000000000002,0.7560000000000002,0.0,0.0,1.0,55.0,616.79921,10000.0,85.000001,85.000001,85.000001,85.000001,395.0,0.0,0.0,0.0,1.0,333.33500000000004,52.811,52.811,48.111,48.111,34.0,-17.9675,28.566666666666666,-23.560000000000002,34.1225,0.0,1782.877,-0.9649999999999999,100.0,27.674,27.931,42.262,43.302,0.0,1.0,100.0,0.0,0.0,0.0,0.0,2792.5714285714284,3240.0,3936.875,4405.0,306.2845,304.57366666666667,315.242,313.99,21.9218,20.5861,21.9001,21.4175,314.999998,314.999998,324.999988,324.999988,99.55904285714286,99.50723333333333,99.56634285714286,99.54628571428572,0.17233333333333345,0.04066666666666685,-0.023,0.19850000000000012,-0.026666666666670835,-0.06333333333333258,1.562,1.5030000000000001,38.010999999999996,29.663,37.876000000000005,34.8595,56.067,34.979,59.34,52.192499999999995,53.998000000000005,34.1185,57.9435,50.531,53.159,33.6685,57.8715,49.943333333333335,-0.15500000000000003,0.0024999999999999467,0.10008500000000001,0.10959500000000001,0.0,211.76999999999998,211.845,208.65,208.65,0.0,0.0
16,0.0,1.0,0.0,1.0,1.0,0.0,0.0,1.0,0.0,100.0,1.0,1.1856,26.0,0.0,0.0,0.0,59.999996,0.0,26.0,26.0,26.0,26.0,0.11875000000000013,0.2714000000000001,0.0009333333333333334,292.755,-2.8016,-2.583111111111111,-1.5979999999999999,-1.5157,-221.9,215.9725,190.659625,0.0,0.0,0.0,0.0,0.03286666666666667,-5.498166666666667,-5.498166666666667,-0.5640000000000001,-0.6366666666666667,0.06822222222222218,0.07699999999999996,67.78399999999999,0.0762,-0.22765000000000002,-1.2279999999999998,100.0,1.0,1.0,209.12666666666667,0.0,0.0,0.0,0.0,0.0,0.0,0.0,8864.1,0.0,55.0,5.0,243.99666666666667,0.0,0.0,0.0,0.0,0.0,0.0,1.0,0.0,0.8099999999999987,0.8099999999999987,0.0,0.0,0.0,55.0,616.79921,10000.0,85.000001,85.000001,85.000001,85.000001,395.0,0.0,0.0,0.0,1.0,166.665,52.444,52.444,48.035,48.035,34.0,-20.105,29.89,-22.75,33.1175,0.0,1782.825,-0.8649999999999984,100.0,27.409,28.048000000000002,42.481,43.413,0.0,1.0,100.0,0.0,0.0,0.0,0.0,3023.142857142857,3356.9,3886.75,4129.4,305.7565,304.25966666666665,315.34066666666666,314.59225,21.9316,20.592,21.9111,21.4271,314.999998,314.999998,324.999988,324.999988,99.55905714285714,99.50723333333333,99.5665,99.54644285714286,0.17100000000000026,0.04200000000000004,-0.021500000000000002,0.21266666666666678,-0.041666666666671404,-0.060000000000002274,1.5653333333333332,1.529,38.072,29.7,37.945,34.9195,56.053,35.0215,59.381,52.2595,53.985,34.158,57.9815,50.5955,53.144999999999996,33.7065,57.906,50.00666666666667,-0.14300000000000002,-0.010499999999999954,0.107575,0.11620000000000001,0.0,212.18,212.285,209.12666666666667,209.12666666666667,0.0,0.0
17,0.0,1.0,0.0,1.0,1.0,0.0,0.0,1.0,0.0,100.0,1.0,1.1856,26.0,0.0,0.0,0.0,59.999996,0.0,26.0,26.0,26.0,26.0,0.11650000000000005,0.2835000000000001,-0.007033333333333333,292.389,-2.7616,-2.5674444444444444,-1.6401,-1.4769,-218.64,215.96,190.638375,0.0,0.0,0.0,0.0,0.03476666666666667,-5.498166666666667,-5.498166666666667,-0.5498000000000001,0.4886666666666668,0.049222222222222056,0.863,67.916,0.0806,-0.206675,-1.186,100.0,1.0,1.0,209.45666666666668,0.0,0.0,0.0,0.0,0.0,0.0,0.0,8878.1,0.0,55.0,5.0,244.46666666666667,1.0,0.0,0.0,0.0,0.0,0.0,1.0,0.0,0.8580000000000005,0.8580000000000005,0.0,0.0,1.0,55.0,616.79921,10000.0,85.000001,85.000001,85.000001,85.000001,395.0,0.0,0.0,0.0,1.0,166.665,52.383,52.383,47.684,47.684,34.0,-19.0875,28.536666666666665,-25.68,34.4375,0.0,1782.777,-0.9800000000000004,100.0,27.885,28.279,42.343,43.389,0.0,1.0,100.0,0.0,0.0,0.0,0.0,2997.5714285714284,3192.1,4239.5,4347.6,305.702,304.75466666666665,314.584,314.172,21.9405,20.5974,21.9208,21.4357,314.999998,314.999998,324.999988,324.999988,99.55908571428571,99.50723333333333,99.56662857142857,99.54658571428571,0.18500000000000005,0.05400000000000005,-0.0175,0.20750000000000002,-0.05333333333332746,-0.05666666666667197,1.536,1.492,38.128,29.733666666666664,38.004999999999995,34.973,56.046,35.0605,59.4155,52.3185,53.977000000000004,34.194,58.0135,50.6525,53.137,33.741,57.935,50.063,-0.15049999999999986,-0.0045000000000001705,0.11267,0.10951500000000002,0.0,212.64499999999998,212.72500000000002,209.45666666666668,209.45666666666668,0.0,0.0
18,0.0,1.0,0.0,1.0,1.0,0.0,0.0,1.0,0.0,100.0,1.0,1.1856,26.0,0.0,0.0,0.0,59.999996,0.0,26.0,26.0,26.0,26.0,0.12387499999999996,0.2744,0.0020666666666666667,292.419,-2.7958,-2.538444444444444,-1.6575000000000002,-1.4211,-215.38,215.9475,190.617375,0.0,0.0,0.0,0.0,0.03666666666666667,-5.498166666666667,-5.498166666666667,-0.5605,-0.507,0.07499999999999996,1.044,68.04599999999999,0.08270000000000001,-0.223725,-1.2999999999999998,100.0,1.0,1.0,209.88,0.0,0.0,0.0,0.0,0.0,0.0,0.0,8896.1,0.0,55.0,5.0,244.93666666666667,0.0,0.0,0.0,0.0,0.0,0.0,1.0,0.0,0.9059999999999988,0.9059999999999988,0.0,0.0,0.0,55.0,616.79921,10000.0,85.000001,85.000001,85.000001,85.000001,395.0,0.0,0.0,0.0,1.0,166.665,52.277,52.277,47.653,47.653,34.0,-18.61,30.83,-24.119999999999997,32.875,0.0,1782.729,-1.2249999999999979,100.0,27.645,28.157,42.634,43.757,0.0,1.0,100.0,0.0,0.0,0.0,0.0,2991.142857142857,3393.1,4002.0,4251.9,305.8015,304.18233333333336,315.11033333333336,314.363,21.9493,20.6027,21.9307,21.4444,314.999998,314.999998,324.999988,324.999988,99.5591,99.50725,99.56677142857143,99.54672857142857,0.20033333333333347,0.06600000000000006,-0.017166666666666667,0.2108333333333332,-0.03833333333332689,-0.05666666666667197,1.5656666666666665,1.5156666666666667,38.183,29.766666666666666,38.067,35.0275,56.037,35.0985,59.452,52.379999999999995,53.969,34.229,58.0475,50.7115,53.126999999999995,33.7745,57.966,50.121,-0.17149999999999999,0.011500000000000066,0.102355,0.10995,0.0,212.99,213.10000000000002,209.88,209.88,0.0,0.0
19,0.0,1.0,0.0,1.0,1.0,0.0,0.0,1.0,0.0,100.0,1.0,1.1856,26.0,0.0,0.0,0.0,59.999996,0.0,26.0,26.0,26.0,26.0,0.16812500000000008,0.28659999999999997,0.046933333333333334,291.916,-2.7197,-2.522222222222222,-1.6745999999999999,-1.4036,-211.89999999999998,215.94,190.59475,0.0,0.0,0.0,0.0,0.03866666666666667,-5.498166666666667,-5.498166666666667,-0.5499,0.8143333333333334,0.0838888888888889,-0.43199999999999994,68.184,0.0908,-0.211325,-1.5839999999999996,100.0,1.0,1.0,210.2733333333333,0.0,0.0,0.0,0.0,0.0,0.0,0.0,8912.7,0.0,55.0,5.0,245.43,1.0,0.0,0.0,0.0,0.0,0.0,1.0,0.0,0.9570000000000007,0.9570000000000007,0.0,0.0,1.0,55.0,616.79921,10000.0,85.000001,85.000001,85.000001,85.000001,395.0,0.0,0.0,0.0,1.0,333.33500000000004,51.650999999999996,51.650999999999996,47.424,47.424,34.0,-18.1175,31.031666666666666,-25.086666666666666,35.2025,0.0,1782.677,-1.5,100.0,27.956,28.822,42.283,43.882,0.0,1.0,100.0,0.0,0.0,0.0,0.0,3094.285714285714,3326.6,4211.125,4429.7,305.4735,304.112,314.72066666666666,313.927,21.9588,20.6085,21.9409,21.4535,314.999998,314.999998,324.999988,324.999988,99.55912857142857,99.50726666666667,99.56691428571429,99.54687142857144,0.2120000000000002,0.08099999999999996,-0.003,0.22433333333333327,-0.04999999999999716,-0.04999999999999716,1.544,1.4843333333333333,38.242000000000004,29.803333333333335,38.131,35.0845,56.031,35.143,59.4875,52.4445,53.963,34.2705,58.08,50.7735,53.119,33.814,57.9955,50.182,-0.19500000000000006,0.038999999999999924,0.1018,0.11839500000000001,0.0,213.46,213.555,210.2733333333333,210.2733333333333,0.0,0.0
20,0.0,1.0,0.0,1.0,1.0,0.0,0.0,1.0,0.0,100.0,1.0,1.1856,26.0,0.0,0.0,0.0,59.999996,0.0,26.0,26.0,26.0,26.0,0.21687499999999993,0.2734000000000001,0.04556666666666667,292.328,-2.8233,-2.5826666666666664,-1.6092,-1.5133,-208.42000000000002,215.9375,190.572375,0.0,0.0,0.0,0.0,0.0407,-5.498166666666667,-5.498166666666667,-0.5565,-1.2566666666666668,0.09777777777777774,0.542,68.322,0.1039,-0.2232,-2.0420000000000007,100.0,1.0,1.0,210.62,0.0,0.0,0.0,0.0,0.0,0.0,0.0,8927.5,0.0,55.0,5.0,245.93333333333334,0.0,0.0,0.0,0.0,0.0,0.0,0.0,0.0,1.0079999999999991,1.0079999999999991,0.0,0.0,0.0,55.0,616.79921,10000.0,85.000001,85.000001,85.000001,85.000001,395.0,0.0,0.0,0.0,1.0,333.33500000000004,52.75,52.75,46.982,46.982,34.0,-15.489999999999998,32.04833333333333,-22.18,37.42,0.0,1782.626,-1.8049999999999997,100.0,27.426,28.384999999999998,42.835,44.301,0.0,1.0,100.0,0.0,0.0,0.0,0.0,2777.714285714286,3292.9,4041.375,4338.4,306.4885,304.441,314.9146666666667,313.9995,21.9678,20.6142,21.9514,21.4629,314.999998,314.999998,324.999988,324.999988,99.55915714285715,99.50726666666667,99.56705714285714,99.54701428571428,0.24466666666666637,0.10933333333333328,0.018333333333333333,0.24516666666666675,-0.04333333333332945,-0.045000000000001705,1.5173333333333334,1.4446666666666668,38.299,29.83866666666667,38.196,35.143,56.021,35.1865,59.5275,52.510999999999996,53.953,34.3105,58.1175,50.838,53.108000000000004,33.853,58.0295,50.245333333333335,-0.21350000000000002,0.06149999999999989,0.11003500000000001,0.10928500000000001,0.0,213.805,213.95499999999998,210.62,210.62,0.0,0.0
21,0.0,1.0,0.0,1.0,1.0,0.0,0.0,1.0,0.0,100.0,1.0,1.1856,26.0,0.0,0.0,0.0,59.999996,0.0,26.0,26.0,26.0,26.0,0.19862500000000005,0.2714000000000001,-0.05343333333333334,292.603,-2.7464,-2.6262222222222222,-1.6784,-1.4687999999999999,-205.14,215.94,190.550625,0.0,0.0,0.0,0.0,0.0426,-5.498166666666667,-5.498166666666667,-0.5792,0.5190000000000001,0.08722222222222209,0.349,68.446,0.1255,-0.2255,-2.2079999999999993,100.0,1.0,1.0,211.23666666666668,0.0,0.0,0.0,0.0,0.0,0.0,0.0,8953.5,0.0,55.0,5.0,246.38,1.0,0.0,0.0,0.0,0.0,0.0,0.0,0.0,1.056000000000001,1.056000000000001,0.0,0.0,1.0,55.0,616.79921,10000.0,85.000001,85.000001,85.000001,85.000001,395.0,0.0,0.0,0.0,1.0,333.33500000000004,52.2,52.2,48.218,48.218,34.0,-17.259999999999998,31.463333333333335,-20.36,35.1,0.0,1782.578,-0.8150000000000013,100.0,27.716,28.637999999999998,42.075,43.913,0.0,1.0,100.0,0.0,0.0,0.0,0.0,2896.285714285714,3306.1,3910.0,4127.4,305.947,304.311,315.42,314.68775,21.9765,20.6197,21.9609,21.4714,314.999998,314.999998,324.999988,324.999988,99.55918571428572,99.50728333333333,99.56718571428571,99.54715714285715,0.20900000000000007,0.07866666666666666,0.044333333333333336,0.27,-0.046666666666666856,-0.051666666666669414,1.634,1.5406666666666666,38.352999999999994,29.872999999999998,38.256,35.196,56.015,35.230000000000004,59.558,52.5695,53.947,34.351,58.1455,50.894,53.101,33.8915,58.0545,50.300333333333334,-0.16249999999999987,0.0024999999999999467,0.10998500000000001,0.1068,0.0,214.235,214.385,211.23666666666668,211.23666666666668,0.0,0.0
22,0.0,1.0,0.0,1.0,1.0,0.0,0.0,1.0,0.0,100.0,1.0,1.1856,26.0,0.0,0.0,0.0,59.999996,0.0,26.0,26.0,26.0,26.0,0.16737500000000005,0.27,-0.0027333333333333333,292.175,-2.7397,-2.6215555555555556,-1.6696,-1.4613999999999998,-201.64999999999998,215.9475,190.527,0.0,0.0,0.0,0.0,0.04463333333333333,-5.498166666666667,-5.498166666666667,-0.5575,0.07666666666666666,0.0868888888888888,-0.8109999999999999,68.58500000000001,0.1323,-0.2073,-0.9320000000000004,100.0,1.0,1.0,211.44333333333333,0.0,0.0,0.0,0.0,0.0,0.0,0.0,8962.4,0.0,55.0,5.0,246.88,0.0,0.0,0.0,0.0,0.0,0.0,0.0,0.0,1.1069999999999993,1.1069999999999993,0.0,0.0,0.0,55.0,616.79921,10000.0,85.000001,85.000001,85.000001,85.000001,395.0,0.0,0.0,0.0,1.0,333.33500000000004,52.414,52.414,47.165,47.165,34.0,-19.785,26.983333333333334,-23.796666666666667,36.58,0.0,1782.526,0.21499999999999986,100.0,27.589,28.825,42.412,44.269999999999996,0.0,1.0,100.0,0.0,0.0,0.0,0.0,2891.857142857143,3136.4,4197.25,4374.0,306.122,304.6093333333333,314.714,314.01175,21.9858,20.6255,21.9713,21.4807,314.999998,314.999998,324.999988,324.999988,99.5592,99.5073,99.56734285714286,99.54731428571428,0.1419999999999999,0.007333333333333414,0.02066666666666667,0.24150000000000005,-0.06499999999999773,-0.03999999999999915,1.518,1.4683333333333333,38.411,29.909333333333336,38.321,35.254,56.004000000000005,35.271,59.5975,52.635999999999996,53.937,34.388999999999996,58.182,50.9585,53.09,33.9285,58.088,50.36333333333333,-0.06800000000000006,-0.08950000000000014,0.10139500000000001,0.10770500000000001,0.0,214.71,214.76999999999998,211.44333333333333,211.44333333333333,0.0,0.0
23,0.0,1.0,0.0,1.0,1.0,0.0,0.0,1.0,0.0,100.0,1.0,1.1856,26.0,0.0,0.0,0.0,59.999996,0.0,26.0,26.0,26.0,26.0,0.07075000000000009,0.24660000000000015,-0.015700000000000002,292.175,-2.7398,-2.602555555555556,-1.5708,-1.5545,-198.14,215.95749999999998,190.5035,0.0,0.0,0.0,0.0,0.04666666666666667,-5.498166666666667,-5.498166666666667,-0.5770000000000001,-0.22666666666666657,0.05800000000000005,-0.03300000000000003,68.719,0.0932,-0.23292500000000002,0.32399999999999984,100.0,1.0,1.0,211.98666666666668,0.0,0.0,0.0,0.0,0.0,0.0,0.0,8985.4,0.0,55.0,5.0,247.36333333333334,1.0,0.0,0.0,0.0,0.0,0.0,0.0,0.0,1.1580000000000013,1.1580000000000013,0.0,0.0,1.0,55.0,616.79921,10000.0,85.000001,85.000001,85.000001,85.000001,395.0,0.0,0.0,0.0,1.0,166.665,51.682,51.682,48.218,48.218,34.0,-24.025,25.858333333333334,-23.02666666666667,32.072500000000005,0.0,1782.478,0.7950000000000017,100.0,28.18,28.576,42.805,44.251999999999995,0.0,1.0,100.0,0.0,0.0,0.0,0.0,3145.0,3260.9,3866.0,4002.5,305.2115,304.50966666666665,315.37766666666664,314.889,21.9951,20.6313,21.9817,21.4899,314.999998,314.999998,324.999988,324.999988,99.55921428571429,99.5073,99.56748571428571,99.54745714285714,0.09699999999999998,-0.03433333333333333,-0.034166666666666665,0.2058333333333333,-0.041666666666671404,-0.04833333333333201,1.5376666666666665,1.5456666666666665,38.469,29.945666666666668,38.385999999999996,35.312,55.992000000000004,35.311,59.634,52.7,53.925,34.426,58.216,51.0205,53.076,33.964,58.119,50.42433333333334,-0.01749999999999985,-0.14000000000000012,0.10762000000000001,0.11044500000000002,0.0,215.15,215.12,211.98666666666668,211.98666666666668,0.0,0.0
24,0.0,1.0,0.0,1.0,1.0,0.0,0.0,1.0,0.0,100.0,1.0,1.1856,26.0,0.0,0.0,0.0,59.999996,0.0,26.0,26.0,26.0,26.0,-0.007624999999999993,0.2775000000000001,-0.10126666666666667,292.435,-2.7365,-2.6402222222222225,-1.5897000000000001,-1.5191,-194.84,215.9675,190.481,0.0,0.0,0.0,0.0,0.048600000000000004,-5.498166666666667,-5.498166666666667,-0.5802,-0.5813333333333333,0.03944444444444439,0.5800000000000001,68.84700000000001,0.0379,-0.21860000000000002,0.9740000000000002,100.0,1.0,1.0,212.26666666666665,0.0,0.0,0.0,0.0,0.0,0.0,0.0,8997.3,0.0,55.0,5.0,247.82,0.0,0.0,0.0,0.0,0.0,0.0,0.0,0.0,1.2059999999999995,1.2059999999999995,0.0,0.0,0.0,55.0,616.79921,10000.0,85.000001,85.000001,85.000001,85.000001,395.0,0.0,0.0,0.0,1.0,166.665,52.917,52.917,47.134,47.134,34.0,-22.905,22.128333333333334,-29.64333333333333,29.3225,0.0,1782.429,0.9149999999999991,100.0,27.966,28.141,43.101,43.846000000000004,0.0,1.0,100.0,0.0,0.0,0.0,0.0,2857.5714285714284,3016.6,4268.875,4148.2,306.12,305.29633333333334,314.40866666666665,314.622,22.0038,20.636499999999998,21.9916,21.4985,314.999998,314.999998,324.999988,324.999988,99.55922857142858,99.5073,99.56761428571428,99.5476,0.05866666666666642,-0.07833333333333337,-0.09233333333333334,0.13250000000000006,-0.04833333333333201,-0.04333333333332945,1.4886666666666666,1.517,38.524,29.978,38.447,35.3655,55.977999999999994,35.3475,59.670500000000004,52.757999999999996,53.911,34.46,58.25,51.076,53.062,33.9965,58.1495,50.479,-0.008000000000000007,-0.15050000000000008,0.10894000000000001,0.113295,0.0,215.57999999999998,215.5,212.26666666666665,212.26666666666665,0.0,0.0
25,0.0,1.0,0.0,1.0,1.0,0.0,0.0,1.0,0.0,100.0,1.0,1.1856,26.0,0.0,0.0,0.0,59.999996,0.0,26.0,26.0,26.0,26.0,-0.050875000000000004,0.27059999999999995,-0.04323333333333333,292.343,-2.7664,-2.635111111111111,-1.5728,-1.5528,-191.32999999999998,215.98000000000002,190.455625,0.0,0.0,0.0,0.0,0.050633333333333336,-5.498166666666667,-5.498166666666667,-0.6129,0.09166666666666679,0.00477777777777777,-1.955,68.979,-0.023100000000000002,-0.22587500000000002,1.482000000000001,100.0,1.0,1.0,212.82333333333332,0.0,0.0,0.0,0.0,0.0,0.0,0.0,9020.8,0.0,55.0,5.0,248.29666666666668,1.0,0.0,0.0,0.0,0.0,0.0,0.0,0.0,1.256999999999998,1.256999999999998,0.0,0.0,1.0,55.0,616.79921,10000.0,85.000001,85.000001,85.000001,85.000001,395.0,0.0,0.0,0.0,1.0,333.33500000000004,51.849000000000004,51.849000000000004,48.004,48.004,34.0,-29.3875,22.196666666666665,-30.04,25.08,0.0,1782.376,0.8900000000000006,100.0,28.044,28.282,43.01,43.344,0.0,1.0,100.0,0.0,0.0,0.0,0.0,3344.142857142857,3196.5,4022.875,3941.2,304.95,304.571,315.14666666666665,315.08525,22.0132,20.6421,22.0019,21.5075,314.999998,314.999998,324.999988,324.999988,99.55922857142858,99.50731666666667,99.56777142857143,99.54775714285714,0.015333333333333421,-0.11466666666666658,-0.15666666666666665,0.07816666666666672,-0.054999999999999716,-0.04833333333333201,1.5606666666666666,1.603,38.583,30.012999999999998,38.512,35.4215,55.961,35.39,59.706,52.8165,53.894999999999996,34.499,58.283,51.1325,53.045,34.034,58.1795,50.534,-0.008000000000000007,-0.14849999999999985,0.10047500000000001,0.11676500000000001,0.0,216.0,215.88,212.82333333333332,212.82333333333332,0.0,0.0
26,0.0,1.0,0.0,1.0,1.0,0.0,0.0,1.0,0.0,100.0,1.0,1.1856,26.0,0.0,0.0,0.0,59.999996,0.0,26.0,26.0,26.0,26.0,-0.12624999999999997,0.28459999999999996,0.048100000000000004,291.138,-2.6693,-2.7605555555555554,-1.5852,-1.5865,-187.6,215.9925,190.428375,0.0,0.0,0.0,0.0,0.0528,-5.498166666666667,-5.498166666666667,-0.5679000000000001,0.4816666666666667,-0.056111111111111445,-1.249,69.124,-0.0703,-0.19542500000000002,1.516,100.0,1.0,1.0,212.96333333333334,0.0,0.0,0.0,0.0,0.0,0.0,0.0,9026.8,0.0,55.0,5.0,248.81666666666666,0.0,0.0,0.0,0.0,0.0,0.0,0.0,0.0,1.311,1.311,0.0,0.0,0.0,55.0,616.79921,10000.0,85.000001,85.000001,85.000001,85.000001,395.0,0.0,0.0,0.0,1.0,166.665,51.605000000000004,51.605000000000004,46.021,46.021,34.0,-28.98,19.546666666666667,-39.95,26.5875,0.0,1782.324,0.7050000000000018,100.0,29.144,28.566,44.143,43.5,0.0,1.0,100.0,0.0,0.0,0.0,0.0,3278.857142857143,2907.8,4715.375,4440.4,304.9275,305.38666666666666,313.49333333333334,313.88975,22.023600000000002,20.6481,22.0131,21.5172,314.999998,314.999998,324.999988,324.999988,99.55924285714286,99.50733333333334,99.56792857142857,99.54791428571428,-0.0043333333333333,-0.15233333333333332,-0.19883333333333333,0.017833333333333368,-0.045000000000001705,-0.03499999999999659,1.4033333333333333,1.4643333333333333,38.647,30.050333333333334,38.582,35.4825,55.947,35.4375,59.751999999999995,52.8815,53.881,34.543,58.326,51.195,53.03,34.076,58.219,50.595333333333336,-0.026999999999999913,-0.13649999999999984,0.10663,0.10609,0.0,216.49,216.35500000000002,212.96333333333334,212.96333333333334,0.0,0.0
27,0.0,1.0,0.0,1.0,1.0,0.0,0.0,1.0,0.0,100.0,1.0,1.1856,26.0,0.0,0.0,0.0,59.999996,0.0,26.0,26.0,26.0,26.0,-0.143625,0.25280000000000014,-0.0216,291.672,-2.6155,-2.7494444444444444,-1.5602,-1.6707,-184.49,216.0,190.40675,0.0,0.0,0.0,0.0,0.0546,-5.498166666666667,-5.498166666666667,-0.5991000000000001,-1.0716666666666668,-0.06766666666666676,0.5900000000000001,69.24000000000001,-0.0917,-0.244175,1.3800000000000008,100.0,1.0,1.0,213.48000000000002,0.0,0.0,0.0,0.0,0.0,0.0,0.0,9048.6,0.0,55.0,5.0,249.23666666666668,1.0,0.0,0.0,0.0,0.0,0.0,0.0,0.0,1.355999999999998,1.355999999999998,0.0,0.0,1.0,55.0,616.79921,10000.0,85.000001,85.000001,85.000001,85.000001,395.0,0.0,0.0,0.0,1.0,166.665,51.788,51.788,46.768,46.768,34.0,-28.415,20.52,-34.589999999999996,24.525,0.0,1782.279,0.6400000000000006,100.0,29.118,28.042,44.899,43.655,0.0,1.0,100.0,0.0,0.0,0.0,0.0,3202.714285714286,3085.5,4144.625,3998.8,305.0435,305.10633333333334,314.7216666666667,314.9055,22.032,20.6528,22.0226,21.5253,314.999998,314.999998,324.999988,324.999988,99.55924285714286,99.50735,99.56805714285714,99.54804285714286,-0.016999999999999904,-0.15300000000000002,-0.2165,0.020333333333333314,-0.030000000000001137,-0.06833333333332803,1.4813333333333334,1.5296666666666665,38.7,30.08,38.641,35.533500000000004,55.933,35.475,59.79,52.9355,53.867999999999995,34.5775,58.3615,51.2465,53.016999999999996,34.109,58.251999999999995,50.64566666666666,-0.028000000000000025,-0.13149999999999995,0.10749,0.11123500000000001,0.0,216.775,216.66500000000002,213.48000000000002,213.48000000000002,0.0,0.0
28,0.0,1.0,0.0,1.0,1.0,0.0,0.0,1.0,0.0,100.0,1.0,1.1856,26.0,0.0,0.0,0.0,59.999996,0.0,26.0,26.0,26.0,26.0,-0.15449999999999997,0.2593000000000001,-0.053266666666666664,291.901,-2.6275,-2.7414444444444444,-1.5326,-1.6351,-180.74,216.0025,190.37975,0.0,0.0,0.0,0.0,0.0568,-5.498166666666667,-5.498166666666667,-0.598,0.6766666666666667,-0.07766666666666655,0.6580000000000001,69.377,-0.1085,-0.21050000000000002,1.306000000000001,100.0,1.0,1.0,213.97,0.0,0.0,0.0,0.0,0.0,0.0,0.0,9069.4,0.0,55.0,5.0,249.73000000000002,0.0,0.0,0.0,0.0,0.0,0.0,0.0,0.0,1.4100000000000001,1.4100000000000001,0.0,0.0,0.0,55.0,616.79921,10000.0,85.000001,85.000001,85.000001,85.000001,395.0,0.0,0.0,0.0,1.0,166.665,51.91,51.91,47.318,47.318,34.0,-28.2825,19.553333333333335,-35.37,23.192500000000003,0.0,1782.225,0.46000000000000085,100.0,29.272,27.942,44.28,43.021,0.0,1.0,100.0,0.0,0.0,0.0,0.0,3186.714285714286,2980.0,4242.5,4106.1,305.035,305.38666666666666,314.64933333333335,314.7575,22.0423,20.6586,22.0335,21.5348,314.999998,314.999998,324.999988,324.999988,99.55925714285715,99.50736666666667,99.56822857142858,99.5482,-0.013333333333333197,-0.15633333333333332,-0.22733333333333336,-0.006166666666666654,-0.060000000000002274,-0.04999999999999716,1.504,1.5613333333333332,38.763999999999996,30.116333333333333,38.709,35.5925,55.919,35.5215,59.829499999999996,52.9955,53.855000000000004,34.6205,58.3985,51.3045,53.001999999999995,34.15,58.2855,50.70166666666667,-0.04949999999999988,-0.11949999999999994,0.11051000000000001,0.10375000000000001,0.0,217.255,217.15,213.97,213.97,0.0,0.0
29,0.0,1.0,0.0,1.0,1.0,0.0,0.0,1.0,0.0,100.0,1.0,1.1856,26.0,0.0,0.0,0.0,59.999996,0.0,26.0,26.0,26.0,26.0,-0.13487499999999997,0.2542,0.019533333333333337,291.534,-2.5724,-2.7991111111111113,-1.5357,-1.6167,-177.41,216.005,190.354875,0.0,0.0,0.0,0.0,0.05873333333333334,-5.498166666666667,-5.498166666666667,-0.6081,-0.7173333333333334,-0.07877777777777784,0.7510000000000001,69.504,-0.1058,-0.21965,1.017999999999999,100.0,1.0,1.0,214.22,0.0,0.0,0.0,0.0,0.0,0.0,0.0,9079.9,0.0,55.0,5.0,250.18666666666667,1.0,0.0,0.0,0.0,0.0,0.0,0.0,0.0,1.4579999999999984,1.4579999999999984,0.0,0.0,1.0,55.0,616.79921,10000.0,85.000001,85.000001,85.000001,85.000001,395.0,0.0,0.0,0.0,1.0,333.33500000000004,51.697,51.697,46.677,46.677,34.0,-28.6925,20.863333333333333,-34.74666666666666,24.9325,0.0,1782.175,0.3500000000000014,100.0,29.025,27.809,44.774,43.249,0.0,1.0,100.0,0.0,0.0,0.0,0.0,3305.714285714286,3087.7,4239.5,4179.4,304.768,304.9696666666667,314.464,314.53925,22.0512,20.6637,22.0435,21.5435,314.999998,314.999998,324.999988,324.999988,99.55925714285715,99.5074,99.56837142857142,99.54832857142857,-0.009333333333333194,-0.15933333333333333,-0.20516666666666666,0.016666666666666607,-0.030000000000001137,-0.04833333333333201,1.4706666666666668,1.5056666666666667,38.82,30.148,38.772,35.647,55.903999999999996,35.5615,59.8705,53.053,53.841,34.657,58.437,51.359,52.986999999999995,34.185,58.321,50.75533333333333,-0.05800000000000005,-0.11149999999999993,0.092575,0.11772,0.0,217.57999999999998,217.505,214.22,214.22,0.0,0.0
30,0.0,1.0,0.0,1.0,1.0,0.0,0.0,1.0,0.0,100.0,1.0,1.1856,26.0,0.0,0.0,0.0,59.999996,0.0,26.0,26.0,26.0,26.0,-0.12175000000000002,0.25770000000000004,0.06636666666666667,291.122,-2.6302,-2.6864444444444446,-1.4795,-1.6928,-174.07,216.0,190.33,0.0,0.0,0.0,0.0,0.06066666666666667,-5.498166666666667,-5.498166666666667,-0.602,0.8016666666666667,-0.07844444444444454,0.909,69.626,-0.0989,-0.21607500000000002,0.9139999999999997,100.0,1.0,1.0,214.63666666666666,0.0,0.0,0.0,0.0,0.0,0.0,0.0,9097.7,0.0,55.0,5.0,250.62333333333333,0.0,0.0,0.0,0.0,0.0,0.0,1.0,0.0,1.5060000000000002,1.5060000000000002,0.0,0.0,0.0,55.0,616.79921,10000.0,85.000001,85.000001,85.000001,85.000001,395.0,0.0,0.0,0.0,1.0,166.665,50.934,50.934,46.906,46.906,34.0,-29.46,20.358333333333334,-34.81,26.512500000000003,0.0,1782.129,0.20500000000000185,100.0,29.864,28.448,44.601,43.227000000000004,0.0,1.0,100.0,0.0,0.0,0.0,0.0,3415.857142857143,3061.4,4306.375,4233.8,304.423,305.0973333333333,314.379,314.36525,22.0605,20.669,22.0533,21.5521,314.999998,314.999998,324.999988,324.999988,99.55925714285715,99.5074,99.56851428571429,99.54847142857143,0.01100000000000012,-0.1413333333333333,-0.21033333333333334,0.016833333333333478,-0.041666666666671404,-0.05666666666667197,1.462,1.4983333333333333,38.878,30.181333333333335,38.833,35.7005,55.893,35.605000000000004,59.907,53.1085,53.831,34.697,58.471000000000004,51.4125,52.976,34.2235,58.352000000000004,50.80733333333333,-0.07250000000000001,-0.10000000000000009,0.10226500000000001,0.107175,0.0,218.0,217.94,214.63666666666666,214.63666666666666,0.0,0.0
31,0.0,1.0,0.0,1.0,1.0,0.0,0.0,1.0,0.0,100.0,1.0,1.1856,26.0,0.0,0.0,0.0,59.999996,0.0,26.0,26.0,26.0,26.0,-0.11512500000000003,0.26639999999999997,-0.014966666666666666,291.031,-2.7009,-2.6622222222222223,-1.5267,-1.6659,-170.51999999999998,215.995,190.30425,0.0,0.0,0.0,0.0,0.06273333333333334,-5.498166666666667,-5.498166666666667,-0.5919,-0.635,-0.07311111111111135,-0.782,69.758,-0.08070000000000001,-0.22265000000000001,0.5579999999999998,100.0,1.0,1.0,214.94666666666666,0.0,0.0,0.0,0.0,0.0,0.0,0.0,9110.9,0.0,55.0,5.0,251.10000000000002,1.0,0.0,0.0,0.0,0.0,0.0,1.0,0.0,1.5569999999999986,1.5569999999999986,0.0,0.0,1.0,55.0,616.79921,10000.0,85.000001,85.000001,85.000001,85.000001,395.0,0.0,0.0,0.0,1.0,166.665,51.483000000000004,51.483000000000004,45.624,45.624,34.0,-28.6475,19.84,-36.14333333333333,26.572499999999998,0.0,1782.079,0.14499999999999957,100.0,29.356,28.672,45.143,43.955,0.0,1.0,100.0,0.0,0.0,0.0,0.0,3268.5714285714284,3047.3,4445.25,4221.3,305.163,305.17833333333334,314.052,314.43125,22.0699,20.674599999999998,22.064,21.5614,314.999998,314.999998,324.999988,324.999988,99.55925714285715,99.50743333333334,99.56867142857143,99.54862857142857,0.002000000000000224,-0.14500000000000002,-0.1965,0.02633333333333332,-0.03166666666666629,-0.01999999999999602,1.4543333333333333,1.4806666666666666,38.937,30.21633333333333,38.9,35.759,55.878,35.6485,59.951,53.170500000000004,53.816,34.7375,58.5125,51.472,52.961,34.262,58.3905,50.86533333333333,-0.0734999999999999,-0.09549999999999992,0.10523500000000001,0.10386000000000001,0.0,218.35500000000002,218.29500000000002,214.94666666666666,214.94666666666666,0.0,0.0
32,0.0,1.0,0.0,1.0,1.0,0.0,0.0,1.0,0.0,100.0,1.0,1.1856,26.0,0.0,0.0,0.0,59.999996,0.0,26.0,26.0,26.0,26.0,-0.09275,0.2704,-0.009233333333333333,291.199,-2.6093,-2.701777777777778,-1.5937999999999999,-1.5724,-166.75,215.985,190.277,0.0,0.0,0.0,0.0,0.06493333333333334,-5.498166666666667,-5.498166666666667,-0.609,0.23733333333333317,-0.09388888888888891,-0.788,69.892,-0.0675,-0.22762500000000002,0.5820000000000007,100.0,1.0,1.0,215.4766666666667,0.0,0.0,0.0,0.0,0.0,0.0,0.0,9133.3,0.0,55.0,5.0,251.58333333333334,0.0,0.0,0.0,0.0,0.0,0.0,1.0,0.0,1.6110000000000007,1.6110000000000007,0.0,0.0,0.0,55.0,616.79921,10000.0,85.000001,85.000001,85.000001,85.000001,395.0,0.0,0.0,0.0,1.0,166.665,51.254,51.254,46.57,46.57,34.0,-27.802500000000002,21.058333333333334,-34.839999999999996,25.9,0.0,1782.024,0.019999999999999574,100.0,29.37,28.684,44.704,43.721000000000004,0.0,1.0,100.0,0.0,0.0,0.0,0.0,3355.5714285714284,3013.1,4325.625,4204.2,304.714,305.1263333333333,314.4823333333333,314.5275,22.08,20.6806,22.075,21.5711,314.999998,314.999998,324.999988,324.999988,99.55927142857144,99.50745,99.56882857142857,99.54877142857143,0.026333333333333098,-0.1223333333333334,-0.18633333333333335,0.04616666666666669,-0.051666666666669414,-0.04833333333333201,1.5206666666666666,1.5386666666666666,39.0,30.253666666666668,38.969,35.819,55.863,35.6945,59.991,53.232,53.802,34.78,58.5495,51.531,52.946,34.3025,58.4245,50.922666666666665,-0.07800000000000007,-0.08700000000000019,0.10632000000000001,0.11099500000000001,0.0,218.815,218.74,215.4766666666667,215.4766666666667,0.0,0.0
33,0.0,1.0,0.0,1.0,1.0,0.0,0.0,1.0,0.0,100.0,1.0,1.1856,26.0,0.0,0.0,0.0,59.999996,0.0,26.0,26.0,26.0,26.0,-0.08699999999999997,0.26780000000000004,-0.02946666666666667,291.397,-2.6525,-2.7527777777777778,-1.5309,-1.5854,-163.6,215.975,190.253375,0.0,0.0,0.0,0.0,0.06676666666666667,-5.498166666666667,-5.498166666666667,-0.611,-0.405,-0.07877777777777784,1.436,70.007,-0.0603,-0.21565,0.33399999999999963,100.0,1.0,1.0,215.75666666666666,0.0,0.0,0.0,0.0,0.0,0.0,0.0,9145.1,0.0,55.0,5.0,252.0,1.0,0.0,0.0,0.0,0.0,0.0,1.0,0.0,1.6559999999999988,1.6559999999999988,0.0,0.0,1.0,55.0,616.79921,10000.0,85.000001,85.000001,85.000001,85.000001,395.0,0.0,0.0,0.0,1.0,166.665,51.879999999999995,51.879999999999995,46.448,46.448,34.0,-25.5125,22.421666666666667,-33.06666666666666,27.5325,0.0,1781.979,-0.08999999999999986,100.0,29.215,28.235,44.761,43.748000000000005,0.0,1.0,100.0,0.0,0.0,0.0,0.0,3152.0,3021.1,4266.5,4307.4,305.302,305.28833333333336,314.41833333333335,314.27975,22.0882,20.6854,22.0843,21.5792,314.999998,314.999998,324.999988,324.999988,99.55927142857144,99.50745,99.56895714285714,99.5489,0.04400000000000004,-0.09699999999999998,-0.17033333333333334,0.05499999999999994,-0.054999999999999716,-0.051666666666669414,1.4796666666666667,1.494,39.051,30.283666666666665,39.027,35.87,55.849999999999994,35.7295,60.0255,53.285,53.789,34.812,58.582,51.582,52.933,34.3335,58.454,50.97233333333333,-0.09149999999999991,-0.07050000000000001,0.10552500000000001,0.10297500000000001,0.0,219.14,219.11,215.75666666666666,215.75666666666666,0.0,0.0
34,0.0,1.0,0.0,1.0,1.0,0.0,0.0,1.0,0.0,100.0,1.0,1.1856,26.0,0.0,0.0,0.0,59.999996,0.0,26.0,26.0,26.0,26.0,-0.05874999999999997,0.2499,-0.07963333333333335,291.946,-2.6699,-2.7335555555555557,-1.6019999999999999,-1.6040999999999999,-159.81,215.9625,190.223875,0.0,0.0,0.0,0.0,0.06896666666666666,-5.498166666666667,-5.498166666666667,-0.6465000000000001,-0.757,-0.04488888888888898,1.0350000000000001,70.142,-0.0436,-0.226275,0.266,100.0,1.0,1.0,216.25666666666666,0.0,0.0,0.0,0.0,0.0,0.0,0.0,9166.3,0.0,55.0,5.0,252.48666666666668,0.0,0.0,0.0,0.0,0.0,0.0,1.0,0.0,1.7100000000000009,1.7100000000000009,0.0,0.0,0.0,55.0,616.79921,10000.0,85.000001,85.000001,85.000001,85.000001,395.0,0.0,0.0,0.0,1.0,166.665,52.322,52.322,47.379,47.379,34.0,-24.5825,22.265,-30.623333333333335,27.42,0.0,1781.925,-0.06500000000000128,100.0,28.858,27.998,44.393,43.813,0.0,1.0,100.0,0.0,0.0,0.0,0.0,3030.4285714285716,2978.8,4056.875,4132.1,305.512,305.374,315.049,314.6685,22.098,20.6911,22.0953,21.589,314.999998,314.999998,324.999988,324.999988,99.55928571428572,99.50746666666667,99.56912857142858,99.54907142857142,0.04733333333333345,-0.08933333333333338,-0.149,0.07600000000000007,-0.03333333333333144,-0.06499999999999773,1.5243333333333333,1.537,39.111999999999995,30.319666666666667,39.096000000000004,35.931,55.833,35.7705,60.0635,53.348,53.774,34.85,58.6175,51.6425,52.916,34.3695,58.486,51.031333333333336,-0.08599999999999985,-0.06999999999999984,0.09801000000000001,0.11149500000000001,0.0,219.525,219.515,216.25666666666666,216.25666666666666,0.0,0.0
35,0.0,1.0,0.0,1.0,1.0,0.0,0.0,1.0,0.0,100.0,1.0,1.1856,26.0,0.0,0.0,0.0,59.999996,0.0,26.0,26.0,26.0,26.0,-0.053625000000000034,0.24160000000000004,-0.05873333333333334,291.748,-2.674,-2.684333333333333,-1.5673,-1.612,-156.44,215.9475,190.195375,0.0,0.0,0.0,0.0,0.0709,-5.498166666666667,-5.498166666666667,-0.6855,-0.34466666666666657,-0.05033333333333356,-0.038000000000000034,70.262,-0.032100000000000004,-0.228825,0.09600000000000009,100.0,1.0,1.0,216.68666666666667,0.0,0.0,0.0,0.0,0.0,0.0,0.0,9184.6,0.0,55.0,5.0,252.91666666666666,1.0,0.0,0.0,0.0,0.0,0.0,1.0,0.0,1.7579999999999991,1.7579999999999991,0.0,0.0,1.0,55.0,616.79921,10000.0,85.000001,85.000001,85.000001,85.000001,395.0,0.0,0.0,0.0,1.0,166.665,51.498,51.498,46.997,46.997,34.0,-25.5525,25.518333333333334,-29.443333333333328,26.950000000000003,0.0,1781.877,-0.06500000000000128,100.0,28.666,28.344,44.119,43.455,0.0,1.0,100.0,0.0,0.0,0.0,0.0,3200.0,3354.1,4008.375,3958.2,305.1525,304.281,315.09066666666666,315.089,22.1065,20.6965,22.105,21.5975,314.999998,314.999998,324.999988,324.999988,99.55928571428572,99.50748333333334,99.56925714285714,99.5492,0.05866666666666642,-0.07799999999999996,-0.14266666666666666,0.09400000000000008,-0.036666666666668846,-0.05833333333333002,1.545,1.5566666666666666,39.165,30.353,39.156,35.984,55.817,35.809,60.097,53.400999999999996,53.759,34.8855,58.6485,51.6935,52.900999999999996,34.4035,58.5145,51.081,-0.09149999999999991,-0.07050000000000001,0.10573500000000001,0.11232,0.0,219.9,219.905,216.68666666666667,216.68666666666667,0.0,0.0
