,ABS Active,ABS Enabled,AID Allow Tire Blankets,AID Auto Blip,AID Auto Clutch,AID Auto Shift,AID Fuel Rate,AID Ideal Line,AID Mech Damage,AID Stability,AID Tire Wear Rate,Air Density,Air Temp,Ballast,Best Lap Delta,Best Lap Time,Brake Bias,Brake Pos,Brake Temp FL,Brake Temp FR,Brake Temp RL,Brake Temp RR,CG Accel Lateral,CG Accel Longitudinal,CG Accel Vertical,CG Height,Camber FL,Camber FR,Camber RL,Camber RR,Car Coord X,Car Coord Y,Car Coord Z,Car Damage Front,Car Damage Left,Car Damage Rear,Car Damage Right,Car Pos Norm,Caster FL,Caster FR,Chassis Pitch Angle,Chassis Pitch Rate,Chassis Roll Angle,Chassis Roll Rate,Chassis Velocity X,Chassis Velocity Y,Chassis Velocity Z,Chassis Yaw Rate,Clutch Pos,DRS Active,DRS Available,Drive Train Speed,ERS Heat Charging,ERS Is Charging,ERS Max Energy,ERS Power Level,ERS Recovery Level,Engine Brake Setting,Engine Limiter,Engine RPM,Flags,Fuel Level,Gear,Ground Speed,HR Sample Clock,In Pit,KERS Charge,KERS Deployed Energy,KERS Input,KERS Max Energy,LR Sample Clock,Lap Invalidated,Lap Time,Lap Time2,Last Lap Time,Last Sector Time,MR Sample Clock,Max Fuel,Max Power,Max RPM,Max Sus Travel FL,Max Sus Travel FR,Max Sus Travel RL,Max Sus Travel RR,Max Torque,Max Turbo Boost,Num Tires Off Track,Penalties Enabled,Position,Raw Data Sample Rate,Ride Height FL,Ride Height FR,Ride Height RL,Ride Height RR,Road Temp,Self Align Torque FL,Self Align Torque FR,Self Align Torque RL,Self Align Torque RR,Session Lap Count,Session Time Left,Steering Angle,Surface Grip,Suspension Travel FL,Suspension Travel FR,Suspension Travel RL,Suspension Travel RR,TC Active,TC Enabled,Throttle Pos,Tire Dirt Level FL,Tire Dirt Level FR,Tire Dirt Level RL,Tire Dirt Level RR,Tire Load FL,Tire Load FR,Tire Load RL,Tire Load RR,Tire Loaded Radius FL,Tire Loaded Radius FR,Tire Loaded Radius RL,Tire Loaded Radius RR,Tire Pressure FL,Tire Pressure FR,Tire Pressure RL,Tire Pressure RR,Tire Radius FL,Tire Radius FR,Tire Radius RL,Tire Radius RR,Tire Rubber Grip FL,Tire Rubber Grip FR,Tire Rubber Grip RL,Tire Rubber Grip RR,Tire Slip Angle FL,Tire Slip Angle FR,Tire Slip Angle RL,Tire Slip Angle RR,Tire Slip Ratio FL,Tire Slip Ratio FR,Tire Slip Ratio RL,Tire Slip Ratio RR,Tire Temp Core FL,Tire Temp Core FR,Tire Temp Core RL,Tire Temp Core RR,Tire Temp Inner FL,Tire Temp Inner FR,Tire Temp Inner RL,Tire Temp Inner RR,Tire Temp Middle FL,Tire Temp Middle FR,Tire Temp Middle RL,Tire Temp Middle RR,Tire Temp Outer FL,Tire Temp Outer FR,Tire Temp Outer RL,Tire Temp Outer RR,Toe In FL,Toe In FR,Toe In RL,Toe In RR,Turbo Boost,Wheel Angular Speed FL,Wheel Angular Speed FR,Wheel Angular Speed RL,Wheel Angular Speed RR,Wind Direction,Wind Speed
0,0.0,1.0,0.0,1.0,1.0,0.0,0.0,1.0,0.0,100.0,1.0,1.1856,26.0,0.0,0.0,0.0,59.99999,0.0,26.0,26.0,26.0,26.0,-0.04588888888888887,0.35040000000000004,0.08887500000000001,293.198,-2.746,-2.62275,-1.5388000000000002,-1.5177,-275.76,215.6825,190.987625,0.0,0.0,0.0,0.0,0.0015333333333333334,-5.498166666666667,-5.498166666666667,-0.5675,1.752,-0.0016666666666669272,-0.03600000000000003,65.535,-0.0334,-0.2218,0.2760000000000007,100.0,1.0,1.0,202.64333333333332,0.0,0.0,0.0,0.0,0.0,0.0,0.0,9137.6,0.0,55.0,5.0,235.89333333333332,0.0,0.0,0.0,0.0,0.0,0.0,0.0,0.0,0.0030000000000001137,0.0030000000000001137,0.0,0.0,0.0,55.0,616.79921,10000.0,85.0,85.0,85.0,85.0,395.0,0.0,0.0,0.0,1.0,20.0,50.949,50.949,49.025999999999996,49.025999999999996,34.0,-30.677500000000002,31.016,-27.669999999999998,24.98,0.0,1783.727,0.4450000000000003,100.0,27.215,27.083,40.771,40.489000000000004,0.0,1.0,100.0,0.0,0.0,0.0,0.0,3423.285714285714,4254.0,3961.75,4009.3,304.32,301.7075,315.2385,314.90375,21.7788,20.5144,21.7628,21.3017,314.99999,314.99999,324.99998,324.99998,99.55931428571428,99.50718333333333,99.56575714285714,99.54514285714286,0.008500000000000174,-0.09999999999999987,-0.14516666666666667,0.08800000000000008,-0.07000000000000028,-0.060000000000002274,1.737,1.7305,37.117999999999995,29.215,37.018,34.135999999999996,56.46,34.4695,59.292,51.709,54.369,33.6385,57.920500000000004,50.051,53.536,33.198,57.8965,49.464333333333336,-0.03849999999999998,-0.11299999999999999,0.10919000000000001,0.11703000000000001,0.0,205.335,205.285,202.64333333333332,202.64333333333332,0.0,0.0
1,0.0,1.0,0.0,1.0,1.0,0.0,0.0,1.0,0.0,100.0,1.0,1.1856,26.0,0.0,0.0,0.0,59.999996,0.0,26.0,26.0,26.0,26.0,-0.08999999999999997,0.3739000000000001,0.205025,292.206,-2.6543,-2.696625,-1.55755,-1.3746,-272.41,215.6975,190.967625,0.0,0.0,0.0,0.0,0.0035,-5.498166666666667,-5.498166666666667,-0.4636,-0.8605,-0.04499999999999993,-0.30600000000000005,65.71600000000001,-0.0379,-0.165875,0.8920000000000003,100.0,1.0,1.0,202.53,0.0,0.0,0.0,0.0,0.0,0.0,0.0,9132.5,0.0,55.0,5.0,236.54000000000002,1.0,0.0,0.0,0.0,0.0,0.0,0.0,0.0,0.053999999999998494,0.053999999999998494,0.0,0.0,1.0,55.0,616.79921,10000.0,85.000001,85.000001,85.000001,85.000001,395.0,0.0,0.0,0.0,1.0,333.33500000000004,54.23,54.23,46.86,46.86,34.0,-23.4675,16.034,-38.80666666666667,31.5175,0.0,1783.674,0.5150000000000006,100.0,27.628,27.284,42.717,42.893,0.0,1.0,100.0,0.0,0.0,0.0,0.0,2817.0,2421.6,4839.875,5354.200000000001,306.2475,307.0585,312.9195,311.273,21.7888,20.5195,21.7739,21.3111,314.999998,314.999998,324.999988,324.999988,99.55932857142857,99.50721666666666,99.56592857142857,99.5453,0.01200000000000001,-0.1253333333333333,-0.16333333333333333,0.044333333333333336,-0.04833333333333201,-0.03999999999999915,1.4034999999999997,1.426,37.18,29.247,37.087,34.1945,56.443,34.5095,59.3455,51.784,54.352999999999994,33.6755,57.9705,50.1225,53.519,33.2335,57.9435,49.534666666666666,-0.03249999999999997,-0.11850000000000005,0.11223000000000001,0.10067500000000001,0.0,205.9,205.82,202.53,202.53,0.0,0.0
2,0.0,1.0,0.0,1.0,1.0,0.0,0.0,1.0,0.0,100.0,1.0,1.1856,26.0,0.0,0.0,0.0,59.999996,0.0,26.0,26.0,26.0,26.0,-0.09944444444444445,0.31820000000000004,-0.262,293.884,-2.6257,-2.667875,-1.5259,-1.5292,-268.86,215.71,190.947875,0.0,0.0,0.0,0.0,0.005566666666666667,-5.498166666666667,-5.498166666666667,-0.5663,0.6074999999999999,-0.020777777777778006,1.943,65.882,-0.047400000000000005,-0.26465,1.146,100.0,1.0,1.0,204.07999999999998,0.0,0.0,0.0,0.0,0.0,0.0,0.0,9202.4,0.0,55.0,5.0,237.14,0.0,0.0,0.0,0.0,0.0,0.0,0.0,0.0,0.10800000000000054,0.10800000000000054,0.0,0.0,0.0,55.0,616.79921,10000.0,85.000001,85.000001,85.000001,85.000001,395.0,0.0,0.0,0.0,1.0,166.665,52.216,52.216,50.568,50.568,34.0,-29.11,19.875999999999998,-25.14,18.3375,0.0,1783.622,0.7050000000000018,100.0,28.277,27.313,42.292,41.799,0.0,1.0,100.0,0.0,0.0,0.0,0.0,3289.285714285714,3003.0,3529.5,3362.1,304.6655,305.08,316.233,316.55425,21.7994,20.5249,21.785,21.3202,314.999998,314.999998,324.999988,324.999988,99.55932857142857,99.50723333333333,99.56607142857143,99.54544285714286,-0.010999999999999899,-0.1403333333333332,-0.1888333333333334,0.055500000000000105,-0.03999999999999915,-0.03333333333333144,1.8849999999999998,1.9325,37.247,29.2805,37.156,34.2515,56.427,34.551,59.3885,51.8435,54.337,33.714,58.0105,50.18,53.503,33.2705,57.9805,49.590666666666664,-0.020499999999999963,-0.13000000000000012,0.105035,0.11698000000000001,0.0,206.4,206.29000000000002,204.07999999999998,204.07999999999998,0.0,0.0
3,0.0,1.0,0.0,1.0,1.0,0.0,0.0,1.0,0.0,100.0,1.0,1.1856,26.0,0.0,0.0,0.0,59.999996,0.0,26.0,26.0,26.0,26.0,-0.10799999999999998,0.34320000000000017,0.037325000000000004,293.076,-2.6476,-2.698625,-1.5100500000000001,-1.496,-265.69,215.72,190.92875,0.0,0.0,0.0,0.0,0.0074,-5.498166666666667,-5.498166666666667,-0.4968,0.7869999999999999,-0.008333333333333304,-1.693,66.05,-0.06430000000000001,-0.182175,1.0119999999999996,100.0,1.0,1.0,203.92666666666668,0.0,0.0,0.0,0.0,0.0,0.0,0.0,9195.5,0.0,55.0,5.0,237.74333333333334,1.0,0.0,0.0,0.0,0.0,0.0,0.0,0.0,0.1559999999999988,0.1559999999999988,0.0,0.0,1.0,55.0,616.79921,10000.0,85.000001,85.000001,85.000001,85.000001,395.0,0.0,0.0,0.0,1.0,166.665,53.467,53.467,47.485,47.485,34.0,-24.98,18.448,-35.4,24.455,0.0,1783.573,0.740000000000002,100.0,27.826,27.344,42.346000000000004,41.99,0.0,1.0,100.0,0.0,0.0,0.0,0.0,2898.4285714285716,2810.7,4535.625,4257.3,306.0725,305.6935,313.8085,314.191,21.8087,20.5298,21.7949,21.3287,314.999998,314.999998,324.999988,324.999988,99.55932857142857,99.50723333333333,99.56622857142857,99.5456,-0.010499999999999954,-0.1456666666666666,-0.1858333333333334,0.03649999999999998,-0.03499999999999659,-0.036666666666668846,1.568,1.6025,37.304,29.311500000000002,37.218,34.3045,56.41,34.592,59.431,51.9105,54.321,33.7515,58.0505,50.244,53.486000000000004,33.3065,58.016999999999996,49.653666666666666,-0.025000000000000022,-0.13400000000000012,0.10525000000000001,0.10933000000000001,0.0,206.965,206.85500000000002,203.92666666666668,203.92666666666668,0.0,0.0
4,0.0,1.0,0.0,1.0,1.0,0.0,0.0,1.0,0.0,100.0,1.0,1.1856,26.0,0.0,0.0,0.0,59.999996,0.0,26.0,26.0,26.0,26.0,-0.1052222222222221,0.3467,-0.001475,293.274,-2.6765499999999998,-2.7668749999999998,-1.4581,-1.6097000000000001,-262.52,215.725,190.910375,0.0,0.0,0.0,0.0,0.009233333333333333,-5.498166666666667,-5.498166666666667,-0.5254,-1.024,-0.06122222222222229,-1.134,66.208,-0.07540000000000001,-0.22475,1.388,100.0,1.0,1.0,204.57666666666665,0.0,0.0,0.0,0.0,0.0,0.0,0.0,9224.7,0.0,55.0,5.0,238.31333333333333,0.0,0.0,0.0,0.0,0.0,0.0,0.0,0.0,0.20400000000000063,0.20400000000000063,0.0,0.0,0.0,55.0,616.79921,10000.0,85.000001,85.000001,85.000001,85.000001,395.0,0.0,0.0,0.0,1.0,333.33500000000004,53.146,53.146,48.325,48.325,34.0,-29.447499999999998,18.608,-31.89,22.125,0.0,1783.524,0.8449999999999989,100.0,27.739,27.031,43.13,42.256,0.0,1.0,100.0,0.0,0.0,0.0,0.0,3216.5714285714284,2823.4,4169.875,3831.2,305.195,305.74675,314.681,315.261,21.818,20.5345,21.8051,21.3372,314.999998,314.999998,324.999988,324.999988,99.55932857142857,99.50725,99.56637142857143,99.54574285714286,-0.03574999999999995,-0.15700000000000003,-0.20450000000000002,0.026000000000000023,-0.030000000000001137,-0.04999999999999716,1.641,1.7005,37.363,29.341,37.282,34.3575,56.394,34.6295,59.476,51.9715,54.306,33.786500000000004,58.0925,50.3025,53.47,33.3395,58.0565,49.711333333333336,-0.008499999999999952,-0.14100000000000001,0.108435,0.11046500000000001,0.0,207.38,207.285,204.57666666666665,204.57666666666665,0.0,0.0
5,0.0,1.0,0.0,1.0,1.0,0.0,0.0,1.0,0.0,100.0,1.0,1.1856,26.0,0.0,0.0,0.0,59.999996,0.0,26.0,26.0,26.0,26.0,-0.1541111111111111,0.33550000000000013,-0.032150000000000005,293.533,-2.69395,-2.733,-1.5043,-1.6129,-259.14,215.73000000000002,190.8905,0.0,0.0,0.0,0.0,0.0112,-5.498166666666667,-5.498166666666667,-0.5369,0.5329999999999999,-0.058555555555555916,0.692,66.373,-0.0903,-0.22087500000000002,1.2960000000000003,100.0,1.0,1.0,205.19333333333333,0.0,0.0,0.0,0.0,0.0,0.0,0.0,9252.6,0.0,55.0,5.0,238.91,1.0,0.0,0.0,0.0,0.0,0.0,0.0,0.0,0.254999999999999,0.254999999999999,0.0,0.0,1.0,55.0,616.79921,10000.0,85.000001,85.000001,85.000001,85.000001,395.0,0.0,0.0,0.0,1.0,333.33500000000004,53.192,53.192,48.996,48.996,34.0,-28.435000000000002,19.658,-31.263333333333335,21.815,0.0,1783.472,0.3550000000000004,100.0,27.911,26.764,42.842,41.562,0.0,1.0,100.0,0.0,0.0,0.0,0.0,3140.142857142857,2939.7,3996.875,3952.6000000000004,305.1845,305.507,315.09625,315.08075,21.8281,20.5397,21.8157,21.3459,314.999998,314.999998,324.999988,324.999988,99.55934285714285,99.50726666666667,99.56652857142858,99.54588571428572,-0.01849999999999996,-0.14266666666666672,-0.21766666666666656,0.007500000000000062,-0.05333333333332746,-0.04999999999999716,1.6945000000000001,1.751,37.426,29.372999999999998,37.348,34.412,56.379000000000005,34.6715,59.5195,52.033500000000004,54.292,33.825,58.1335,50.362,53.455,33.3765,58.0945,49.769333333333336,-0.03149999999999997,-0.11250000000000004,0.107645,0.106425,0.0,207.95,207.835,205.19333333333333,205.19333333333333,0.0,0.0
6,0.0,1.0,0.0,1.0,1.0,0.0,0.0,1.0,0.0,100.0,1.0,1.1856,26.0,0.0,0.0,0.0,59.999996,0.0,26.0,26.0,26.0,26.0,-0.15522222222222215,0.3477000000000001,0.004725,293.381,-2.6351,-2.802625,-1.5499,-1.5846,-255.95,215.73000000000002,190.871,0.0,0.0,0.0,0.0,0.013066666666666666,-5.498166666666667,-5.498166666666667,-0.5174,-0.008999999999999897,-0.07177777777777772,0.633,66.53399999999999,-0.0955,-0.196775,1.0380000000000003,100.0,1.0,1.0,205.49666666666667,0.0,0.0,0.0,0.0,0.0,0.0,0.0,9266.3,0.0,55.0,5.0,239.48666666666668,0.0,0.0,0.0,0.0,0.0,0.0,0.0,0.0,0.3030000000000008,0.3030000000000008,0.0,0.0,0.0,55.0,616.79921,10000.0,85.000001,85.000001,85.000001,85.000001,395.0,0.0,0.0,0.0,1.0,333.33500000000004,53.711,53.711,48.141,48.141,34.0,-27.5875,19.322000000000003,-34.833333333333336,23.365000000000002,0.0,1783.424,0.5199999999999996,100.0,27.617,26.414,43.062,41.674,0.0,1.0,100.0,0.0,0.0,0.0,0.0,3087.5714285714284,2855.8,4292.375,4128.5,305.373,305.7875,314.327,314.63225,21.8375,20.5445,21.8258,21.3544,314.999998,314.999998,324.999988,324.999988,99.55934285714285,99.5073,99.56668571428571,99.54604285714285,-0.02499999999999991,-0.14900000000000002,-0.2101666666666666,0.015000000000000124,-0.045000000000001705,-0.05333333333332746,1.6135000000000002,1.658,37.483999999999995,29.403,37.411,34.465,56.363,34.712,59.5665,52.1,54.277,33.862,58.177,50.4255,53.439,33.412,58.135,49.83166666666666,-0.03149999999999997,-0.11299999999999999,0.11024,0.106645,0.0,208.435,208.335,205.49666666666667,205.49666666666667,0.0,0.0
7,0.0,1.0,0.0,1.0,1.0,0.0,0.0,1.0,0.0,100.0,1.0,1.1856,26.0,0.0,0.0,0.0,59.999996,0.0,26.0,26.0,26.0,26.0,-0.11444444444444446,0.3207,-0.0092,293.442,-2.6015,-2.7978750000000003,-1.50465,-1.6298,-252.35,215.72750000000002,190.849375,0.0,0.0,0.0,0.0,0.015166666666666667,-5.498166666666667,-5.498166666666667,-0.5265000000000001,0.10949999999999993,-0.059555555555555806,1.068,66.709,-0.0947,-0.21102500000000002,0.8680000000000003,100.0,1.0,1.0,206.12333333333333,0.0,0.0,0.0,0.0,0.0,0.0,0.0,9294.5,0.0,55.0,5.0,240.11666666666667,1.0,0.0,0.0,0.0,0.0,0.0,0.0,0.0,0.3569999999999993,0.3569999999999993,0.0,0.0,1.0,55.0,616.79921,10000.0,85.000001,85.000001,85.000001,85.000001,395.0,0.0,0.0,0.0,1.0,166.665,53.345,53.345,48.644999999999996,48.644999999999996,34.0,-26.61,20.792,-31.78,22.5125,0.0,1783.372,0.03999999999999915,100.0,27.815,26.534,43.08,41.759,0.0,1.0,100.0,0.0,0.0,0.0,0.0,3097.285714285714,2923.5,4045.5,3984.7,305.257,305.53275,314.926,314.9565,21.8481,20.5499,21.8371,21.3639,314.999998,314.999998,324.999988,324.999988,99.55935714285714,99.50731666666667,99.56684285714286,99.5462,-0.00275000000000003,-0.1256666666666666,-0.21450000000000002,0.0076666666666667105,-0.03999999999999915,-0.05833333333333002,1.6705,1.6965,37.55,29.436999999999998,37.482,34.5245,56.348,34.7525,59.6115,52.165,54.262,33.9,58.219,50.488,53.424,33.448,58.174,49.89266666666666,-0.0645,-0.08250000000000002,0.11266500000000002,0.10308500000000001,0.0,208.95499999999998,208.89,206.12333333333333,206.12333333333333,0.0,0.0
8,0.0,1.0,0.0,1.0,1.0,0.0,0.0,1.0,0.0,100.0,1.0,1.1856,26.0,0.0,0.0,0.0,59.999996,0.0,26.0,26.0,26.0,26.0,-0.07833333333333337,0.3378000000000001,-0.018375000000000002,293.488,-2.68665,-2.730375,-1.48615,-1.6209,-248.94,215.7225,190.828625,0.0,0.0,0.0,0.0,0.017133333333333334,-5.498166666666667,-5.498166666666667,-0.5293,-0.31599999999999984,-0.05033333333333356,-0.9040000000000001,66.876,-0.08120000000000001,-0.20965,0.5140000000000002,100.0,1.0,1.0,206.57999999999998,0.0,0.0,0.0,0.0,0.0,0.0,0.0,9315.1,0.0,55.0,5.0,240.72,0.0,0.0,0.0,0.0,0.0,0.0,0.0,0.0,0.40800000000000125,0.40800000000000125,0.0,0.0,0.0,55.0,616.79921,10000.0,85.000001,85.000001,85.000001,85.000001,395.0,0.0,0.0,0.0,1.0,166.665,53.635,53.635,48.218,48.218,34.0,-27.049999999999997,20.472,-30.926666666666666,23.305,0.0,1783.321,-0.015000000000000568,100.0,27.249,26.72,43.046,41.989000000000004,0.0,1.0,100.0,0.0,0.0,0.0,0.0,3129.0,2897.1,4094.25,3993.5,305.445,305.476,314.8565,314.84075,21.8578,20.5551,21.8478,21.3729,314.999998,314.999998,324.999988,324.999988,99.55935714285714,99.50731666666667,99.567,99.54634285714286,0.003249999999999975,-0.11766666666666681,-0.1911666666666666,0.02083333333333348,-0.04333333333332945,-0.054999999999999716,1.6480000000000001,1.675,37.611000000000004,29.469,37.549,34.581,56.331,34.792500000000004,59.6565,52.231,54.245999999999995,33.9365,58.2615,50.551,53.407,33.483000000000004,58.213499999999996,49.95433333333334,-0.07550000000000001,-0.06899999999999995,0.10522500000000001,0.10051500000000001,0.0,209.45,209.41,206.57999999999998,206.57999999999998,0.0,0.0
9,0.0,1.0,0.0,1.0,1.0,0.0,0.0,1.0,0.0,100.0,1.0,1.1856,26.0,0.0,0.0,0.0,59.999996,0.0,26.0,26.0,26.0,26.0,-0.08177777777777784,0.3207,0.017650000000000002,293.243,-2.60455,-2.7432499999999997,-1.5384,-1.5755,-245.93,215.715,190.810125,0.0,0.0,0.0,0.0,0.0189,-5.498166666666667,-5.498166666666667,-0.5278,0.36450000000000005,-0.053999999999999826,0.841,67.02,-0.0687,-0.20365,0.30600000000000005,100.0,1.0,1.0,207.05,0.0,0.0,0.0,0.0,0.0,0.0,0.0,9336.2,0.0,55.0,5.0,241.24,1.0,0.0,0.0,0.0,0.0,0.0,0.0,0.0,0.4529999999999994,0.4529999999999994,0.0,0.0,1.0,55.0,616.79921,10000.0,85.000001,85.000001,85.000001,85.000001,395.0,0.0,0.0,0.0,1.0,333.33500000000004,53.085,53.085,48.615,48.615,34.0,-25.815,22.116,-30.72,24.8825,0.0,1783.274,-0.21000000000000085,100.0,27.751,26.682,42.93,41.86,0.0,1.0,100.0,0.0,0.0,0.0,0.0,3185.857142857143,3014.4,4067.25,4129.6,305.054,305.28375,314.9075,314.6475,21.8666,20.5597,21.8572,21.3809,314.999998,314.999998,324.999988,324.999988,99.55935714285714,99.50733333333334,99.56712857142857,99.54647142857142,0.03474999999999984,-0.09966666666666679,-0.1788333333333334,0.04833333333333334,-0.046666666666666856,-0.04999999999999716,1.6600000000000001,1.6815,37.666,29.497999999999998,37.607,34.6305,56.318,34.828,59.695,52.288,54.233999999999995,33.9695,58.2975,50.606,53.394,33.5145,58.2465,50.007999999999996,-0.09050000000000002,-0.06299999999999994,0.10680500000000001,0.108365,0.0,209.925,209.86,207.05,207.05,0.0,0.0
10,0.0,1.0,0.0,1.0,1.0,0.0,0.0,1.0,0.0,100.0,1.0,1.1856,26.0,0.0,0.0,0.0,59.999996,0.0,26.0,26.0,26.0,26.0,-0.04466666666666663,0.3319000000000001,-0.005525,293.137,-2.6715999999999998,-2.7145,-1.50195,-1.5598,-242.51,215.70499999999998,190.78925,0.0,0.0,0.0,0.0,0.020900000000000002,-5.498166666666667,-5.498166666666667,-0.5189,-0.3900000000000001,-0.029555555555555557,0.09799999999999998,67.187,-0.049300000000000004,-0.202275,0.04800000000000004,100.0,1.0,1.0,207.43666666666667,0.0,0.0,0.0,0.0,0.0,0.0,0.0,9353.7,0.0,55.0,5.0,241.84,0.0,0.0,0.0,0.0,0.0,0.0,1.0,0.0,0.5040000000000013,0.5040000000000013,0.0,0.0,0.0,55.0,616.79921,10000.0,85.000001,85.000001,85.000001,85.000001,395.0,0.0,0.0,0.0,1.0,333.33500000000004,53.574,53.574,47.974000000000004,47.974000000000004,34.0,-25.105,20.912,-31.393333333333334,26.197499999999998,0.0,1783.224,-0.25,100.0,27.519,26.85,43.062,42.379,0.0,1.0,100.0,0.0,0.0,0.0,0.0,3084.4285714285716,2850.7,4244.25,4200.1,305.5635,305.655,314.51775,314.365,21.8763,20.5649,21.8679,21.39,314.999998,314.999998,324.999988,324.999988,99.55935714285714,99.50735,99.56728571428572,99.54664285714286,0.03725000000000023,-0.09233333333333316,-0.16700000000000004,0.06099999999999994,-0.060000000000002274,-0.045000000000001705,1.6189999999999998,1.627,37.727000000000004,29.5305,37.674,34.6875,56.303,34.8665,59.7405,52.3555,54.219,34.0045,58.34,50.670500000000004,53.379000000000005,33.548500000000004,58.286,50.071333333333335,-0.09950000000000003,-0.05499999999999994,0.11157,0.10892,0.0,210.41500000000002,210.385,207.43666666666667,207.43666666666667,0.0,0.0
11,0.0,1.0,0.0,1.0,1.0,0.0,0.0,1.0,0.0,100.0,1.0,1.1856,26.0,0.0,0.0,0.0,59.999996,0.0,26.0,26.0,26.0,26.0,-0.03555555555555556,0.3124,-0.0507,293.472,-2.67705,-2.706375,-1.5601,-1.5309,-239.07999999999998,215.695,190.76825,0.0,0.0,0.0,0.0,0.022600000000000002,-5.498166666666667,-5.498166666666667,-0.5459,-0.15100000000000025,0.0,0.866,67.34700000000001,-0.031900000000000005,-0.2189,-0.10199999999999987,100.0,1.0,1.0,208.12333333333333,0.0,0.0,0.0,0.0,0.0,0.0,0.0,9384.7,0.0,55.0,5.0,242.41666666666666,1.0,0.0,0.0,0.0,0.0,0.0,1.0,0.0,0.5549999999999997,0.5549999999999997,0.0,0.0,1.0,55.0,616.79921,10000.0,85.000001,85.000001,85.000001,85.000001,395.0,0.0,0.0,0.0,1.0,333.33500000000004,53.345,53.345,48.798,48.798,34.0,-23.9625,23.756,-27.009999999999998,25.447499999999998,0.0,1783.173,-0.46499999999999986,100.0,27.444,26.842,42.812,42.304,0.0,1.0,100.0,0.0,0.0,0.0,0.0,3029.0,3088.2,3873.625,4029.2,305.554,305.08075,315.40525,314.90125,21.886,20.5702,21.8784,21.3991,314.999998,314.999998,324.999988,324.999988,99.55937142857142,99.50735,99.56745714285714,99.54678571428572,0.05874999999999986,-0.06699999999999995,-0.1356666666666666,0.08800000000000008,-0.03999999999999915,-0.05666666666667197,1.709,1.703,37.787,29.563499999999998,37.739999999999995,34.744,56.287,34.905,59.7815,52.421,54.204,34.0405,58.378,50.733000000000004,53.363,33.582499999999996,58.3215,50.132666666666665,-0.09650000000000003,-0.046499999999999986,0.10684500000000001,0.10956500000000001,0.0,210.875,210.89,208.12333333333333,208.12333333333333,0.0,0.0
12,0.0,1.0,0.0,1.0,1.0,0.0,0.0,1.0,0.0,100.0,1.0,1.1856,26.0,0.0,0.0,0.0,59.999996,0.0,26.0,26.0,26.0,26.0,-0.019444444444444486,0.3296000000000001,0.01025,293.06,-2.70445,-2.7036249999999997,-1.53625,-1.5544,-235.84,215.685,190.747625,0.0,0.0,0.0,0.0,0.025466666666666665,-5.498166666666667,-5.498166666666667,-0.5363,0.351,-0.0031111111111110645,0.724,67.502,-0.0155,-0.19775,-0.21799999999999997,100.0,1.0,1.0,208.46666666666667,0.0,0.0,0.0,0.0,0.0,0.0,0.0,9400.2,0.0,55.0,5.0,242.97333333333336,0.0,0.0,0.0,0.0,0.0,0.0,1.0,0.0,0.602999999999998,0.602999999999998,0.0,0.0,0.0,55.0,616.79921,10000.0,85.000001,85.000001,85.000001,85.000001,395.0,0.0,0.0,0.0,1.0,166.665,53.162,53.162,48.035,48.035,34.0,-24.2475,24.4,-28.496666666666666,28.810000000000002,0.0,1783.126,-0.3249999999999993,100.0,27.463,27.064,42.704,42.28,0.0,1.0,100.0,0.0,0.0,0.0,0.0,3049.714285714286,3124.5,4160.125,4220.3,305.4835,304.9485,314.69625,314.4515,21.8951,20.5753,21.8883,21.4076,314.999998,314.999998,324.999988,324.999988,99.55938571428571,99.50736666666667,99.56758571428571,99.54694285714285,0.06300000000000017,-0.05933333333333324,-0.11783333333333335,0.11333333333333329,-0.04333333333332945,-0.05333333333332746,1.653,1.638,37.844,29.5955,37.802,34.7975,56.272999999999996,34.9415,59.8215,52.483000000000004,54.19,34.074,58.416,50.792500000000004,53.349000000000004,33.615,58.356,50.191,-0.09050000000000002,-0.05400000000000005,0.11091000000000001,0.11153500000000001,0.0,211.37,211.39,208.46666666666667,208.46666666666667,0.0,0.0
13,0.0,1.0,0.0,1.0,1.0,0.0,0.0,1.0,0.0,100.0,1.0,1.1856,26.0,0.0,0.0,0.0,59.999996,0.0,26.0,26.0,26.0,26.0,0.01722222222222225,0.32620000000000005,0.027700000000000002,292.679,-2.6782,-2.7106250000000003,-1.5647,-1.5609000000000002,-232.39,215.6725,190.72575,0.0,0.0,0.0,0.0,0.02676666666666667,-5.498166666666667,-5.498166666666667,-0.531,-0.20199999999999996,-0.008000000000000007,-0.381,67.66499999999999,-0.0058000000000000005,-0.20550000000000002,-0.20599999999999996,100.0,1.0,1.0,208.88333333333333,0.0,0.0,0.0,0.0,0.0,0.0,0.0,9418.9,0.0,55.0,5.0,243.56,1.0,0.0,0.0,0.0,0.0,0.0,1.0,0.0,0.6539999999999999,0.6539999999999999,0.0,0.0,1.0,55.0,616.79921,10000.0,85.000001,85.000001,85.000001,85.000001,395.0,0.0,0.0,0.0,1.0,333.33500000000004,52.872,52.872,47.76,47.76,34.0,-23.935,24.114,-29.966666666666665,28.7375,0.0,1783.075,-0.46000000000000085,100.0,27.61,27.427,42.935,42.851,0.0,1.0,100.0,0.0,0.0,0.0,0.0,3171.142857142857,2993.7,4247.625,4256.1,305.2905,305.168,314.52025,314.245,21.9048,20.5807,21.899,21.4169,314.999998,314.999998,324.999988,324.999988,99.55938571428571,99.50736666666667,99.56775714285715,99.54708571428571,0.08550000000000013,-0.044333333333333114,-0.12116666666666664,0.09916666666666685,-0.05333333333332746,-0.054999999999999716,1.6084999999999998,1.611,37.905,29.6295,37.869,34.8555,56.259,34.980000000000004,59.8665,52.551,54.177,34.1095,58.457499999999996,50.858000000000004,53.335,33.649,58.3945,50.254999999999995,-0.10799999999999998,-0.03750000000000009,0.11042500000000001,0.108795,0.0,211.885,211.88,208.88333333333333,208.88333333333333,0.0,0.0
14,0.0,1.0,0.0,1.0,1.0,0.0,0.0,1.0,0.0,100.0,1.0,1.1856,26.0,0.0,0.0,0.0,59.999996,0.0,26.0,26.0,26.0,26.0,0.016222222222222138,0.3147,-0.015875,292.801,-2.69695,-2.714,-1.5689000000000002,-1.5482,-228.94,215.6625,190.70425,0.0,0.0,0.0,0.0,0.02876666666666667,-5.498166666666667,-5.498166666666667,-0.544,-0.06499999999999995,0.017222222222222028,1.07,67.825,0.002,-0.22035000000000002,-0.3039999999999998,100.0,1.0,1.0,209.46666666666667,0.0,0.0,0.0,0.0,0.0,0.0,0.0,9445.3,0.0,55.0,5.0,244.13666666666666,0.0,0.0,0.0,0.0,0.0,0.0,1.0,0.0,0.7049999999999983,0.7049999999999983,0.0,0.0,0.0,55.0,616.79921,10000.0,85.000001,85.000001,85.000001,85.000001,395.0,0.0,0.0,0.0,1.0,333.33500000000004,52.765,52.765,48.004,48.004,34.0,-22.669999999999998,25.676000000000002,-26.853333333333335,28.725,0.0,1783.023,-0.41000000000000014,100.0,27.816,27.545,42.995000000000005,42.938,0.0,1.0,100.0,0.0,0.0,0.0,0.0,2998.714285714286,3142.3,3992.0,4184.7,305.632,304.82325,315.08875,314.5085,21.9145,20.586199999999998,21.9096,21.426099999999998,314.999998,314.999998,324.999988,324.999988,99.5594,99.50736666666667,99.56791428571428,99.54724285714286,0.08850000000000025,-0.03733333333333322,-0.10383333333333333,0.11949999999999994,-0.054999999999999716,-0.060000000000002274,1.6604999999999999,1.6545,37.965,29.6635,37.935,34.913,56.245999999999995,35.0185,59.908500000000004,52.618,54.164,34.144999999999996,58.4965,50.922,53.321,33.683,58.43,50.318,-0.10250000000000004,-0.04299999999999993,0.10518500000000001,0.10355,0.0,212.365,212.375,209.46666666666667,209.46666666666667,0.0,0.0
15,0.0,1.0,0.0,1.0,1.0,0.0,0.0,1.0,0.0,100.0,1.0,1.1856,26.0,0.0,0.0,0.0,59.999996,0.0,26.0,26.0,26.0,26.0,0.031777777777777905,0.31800000000000006,0.01895,292.725,-2.69585,-2.683125,-1.58285,-1.5607,-225.68,215.6525,190.68375,0.0,0.0,0.0,0.0,0.03066666666666667,-5.498166666666667,-5.498166666666667,-0.536,0.2629999999999999,0.03311111111111109,0.714,67.976,0.008400000000000001,-0.20522500000000002,-0.3660000000000001,100.0,1.0,1.0,209.89666666666668,0.0,0.0,0.0,0.0,0.0,0.0,0.0,9464.7,0.0,55.0,5.0,244.68,1.0,0.0,0.0,0.0,0.0,0.0,1.0,0.0,0.7530000000000001,0.7530000000000001,0.0,0.0,1.0,55.0,616.79921,10000.0,85.000001,85.000001,85.000001,85.000001,395.0,0.0,0.0,0.0,1.0,333.33500000000004,52.872,52.872,47.882,47.882,34.0,-21.615,25.152,-26.98,30.810000000000002,0.0,1782.975,-0.33500000000000085,100.0,27.836,27.635,42.853,43.045,0.0,1.0,100.0,0.0,0.0,0.0,0.0,2928.5714285714284,3112.3,4047.875,4295.7,305.8515,304.9055,314.9735,314.211,21.9236,20.5913,21.9195,21.4348,314.999998,314.999998,324.999988,324.999988,99.55941428571428,99.50738333333334,99.56805714285714,99.5474,0.0987499999999999,-0.03699999999999992,-0.09250000000000003,0.13483333333333336,-0.03333333333333144,-0.060000000000002274,1.6425,1.6280000000000001,38.022,29.695999999999998,37.997,34.9675,56.233000000000004,35.055,59.947,52.681,54.152,34.1785,58.5325,50.983000000000004,53.308,33.715,58.463,50.37766666666667,-0.10549999999999993,-0.04849999999999999,0.10427000000000002,0.11518,0.0,212.84,212.865,209.89666666666668,209.89666666666668,0.0,0.0
16,0.0,1.0,0.0,1.0,1.0,0.0,0.0,1.0,0.0,100.0,1.0,1.1856,26.0,0.0,0.0,0.0,59.999996,0.0,26.0,26.0,26.0,26.0,0.030888888888888966,0.3154000000000001,-0.012925,292.572,-2.75805,-2.630625,-1.56,-1.5618,-222.21,215.64249999999998,190.6615,0.0,0.0,0.0,0.0,0.03266666666666667,-5.498166666666667,-5.498166666666667,-0.5499,-0.5140000000000002,0.018000000000000016,-1.266,68.136,0.0149,-0.217925,-0.246,100.0,1.0,1.0,210.38,0.0,0.0,0.0,0.0,0.0,0.0,0.0,9486.5,0.0,55.0,5.0,245.25666666666666,0.0,0.0,0.0,0.0,0.0,0.0,1.0,0.0,0.8039999999999985,0.8039999999999985,0.0,0.0,0.0,55.0,616.79921,10000.0,85.000001,85.000001,85.000001,85.000001,395.0,0.0,0.0,0.0,1.0,333.33500000000004,52.597,52.597,47.562,47.562,34.0,-24.56,24.89,-27.646666666666665,28.3475,0.0,1782.924,-0.22500000000000142,100.0,27.468,27.846,43.07,43.332,0.0,1.0,100.0,0.0,0.0,0.0,0.0,3182.285714285714,3127.6,4115.5,4075.6000000000004,305.3535,304.75775,314.85775,314.64425,21.9331,20.5968,21.9302,21.4441,314.999998,314.999998,324.999988,324.999988,99.55942857142857,99.50738333333334,99.5682,99.54755714285714,0.08824999999999994,-0.03833333333333311,-0.10166666666666657,0.121,-0.06499999999999773,-0.03166666666666629,1.6404999999999998,1.639,38.082,29.7305,38.063,35.0255,56.218,35.093,59.9905,52.748,54.138,34.214,58.573,51.0475,53.292,33.749,58.5005,50.440666666666665,-0.09450000000000003,-0.05800000000000005,0.1097,0.10548,0.0,213.32,213.32,210.38,210.38,0.0,0.0
17,0.0,1.0,0.0,1.0,1.0,0.0,0.0,1.0,0.0,100.0,1.0,1.1856,26.0,0.0,0.0,0.0,59.999996,0.0,26.0,26.0,26.0,26.0,0.011111111111111072,0.32930000000000015,0.028875,292.191,-2.71615,-2.6161250000000003,-1.59995,-1.5248,-218.51999999999998,215.6325,190.63775,0.0,0.0,0.0,0.0,0.034833333333333334,-5.498166666666667,-5.498166666666667,-0.5422,0.23750000000000004,-0.005666666666666931,-0.823,68.304,0.0182,-0.20417500000000002,-0.13600000000000012,100.0,1.0,1.0,210.82666666666665,0.0,0.0,0.0,0.0,0.0,0.0,0.0,9506.5,0.0,55.0,5.0,245.86333333333334,1.0,0.0,0.0,0.0,0.0,0.0,1.0,0.0,0.8580000000000005,0.8580000000000005,0.0,0.0,1.0,55.0,616.79921,10000.0,85.000001,85.000001,85.000001,85.000001,395.0,0.0,0.0,0.0,1.0,166.665,52.368,52.368,47.18,47.18,34.0,-24.8825,23.990000000000002,-30.993333333333336,29.6175,0.0,1782.871,-0.14000000000000057,100.0,27.88,27.933,43.037,43.261,0.0,1.0,100.0,0.0,0.0,0.0,0.0,3233.0,3076.9,4421.75,4282.8,305.159,304.915,314.20575,314.2365,21.9434,20.6027,21.9414,21.4538,314.999998,314.999998,324.999988,324.999988,99.55944285714286,99.5074,99.56837142857142,99.54772857142858,0.08375000000000021,-0.04600000000000004,-0.10733333333333339,0.12216666666666676,-0.06499999999999773,-0.03833333333332689,1.63,1.613,38.147,29.767,38.134,35.0865,56.205,35.1345,60.0355,52.817499999999995,54.125,34.251999999999995,58.615,51.1145,53.278999999999996,33.786,58.539,50.50633333333333,-0.08750000000000002,-0.06400000000000006,0.11472,0.10550000000000001,0.0,213.88,213.86,210.82666666666665,210.82666666666665,0.0,0.0
18,0.0,1.0,0.0,1.0,1.0,0.0,0.0,1.0,0.0,100.0,1.0,1.1856,26.0,0.0,0.0,0.0,59.999996,0.0,26.0,26.0,26.0,26.0,0.020777777777777784,0.32899999999999996,0.0398,292.145,-2.6569,-2.7338750000000003,-1.50855,-1.4815,-215.24,215.625,190.6165,0.0,0.0,0.0,0.0,0.03673333333333333,-5.498166666666667,-5.498166666666667,-0.5546,-0.3620000000000001,0.005444444444444363,-0.4730000000000001,68.453,0.013900000000000001,-0.219025,-0.029999999999999805,100.0,1.0,1.0,211.30333333333334,0.0,0.0,0.0,0.0,0.0,0.0,0.0,9528.1,0.0,55.0,5.0,246.4,0.0,0.0,0.0,0.0,0.0,0.0,1.0,0.0,0.9059999999999988,0.9059999999999988,0.0,0.0,0.0,55.0,616.79921,10000.0,85.000001,85.000001,85.000001,85.000001,395.0,0.0,0.0,0.0,1.0,166.665,52.216,52.216,47.211,47.211,34.0,-24.2075,25.884,-27.89,29.1325,0.0,1782.824,-0.16499999999999915,100.0,27.806,27.943,43.263,43.484,0.0,1.0,100.0,0.0,0.0,0.0,0.0,3198.857142857143,3159.8,4190.375,4252.3,305.1975,304.512,314.6265,314.28925,21.9525,20.6079,21.9514,21.4626,314.999998,314.999998,324.999988,324.999988,99.55944285714286,99.5074,99.56851428571429,99.54787142857143,0.08099999999999996,-0.048666666666666636,-0.10433333333333339,0.1286666666666667,-0.04333333333332945,-0.041666666666671404,1.6109999999999998,1.6135,38.203,29.799500000000002,38.196,35.1415,56.191,35.170500000000004,60.0755,52.881,54.111999999999995,34.2855,58.6525,51.1755,53.265,33.818,58.573499999999996,50.566,-0.08850000000000002,-0.0645,0.10916000000000001,0.10949,0.0,214.3,214.275,211.30333333333334,211.30333333333334,0.0,0.0
19,0.0,1.0,0.0,1.0,1.0,0.0,0.0,1.0,0.0,100.0,1.0,1.1856,26.0,0.0,0.0,0.0,59.999996,0.0,26.0,26.0,26.0,26.0,0.028000000000000025,0.3167,0.04195,291.962,-2.6496,-2.70775,-1.5317,-1.607,-211.75,215.615,190.593625,0.0,0.0,0.0,0.0,0.03876666666666667,-5.498166666666667,-5.498166666666667,-0.5418000000000001,0.615,0.01388888888888884,0.731,68.61,0.0071,-0.205275,-0.08399999999999963,100.0,1.0,1.0,211.76333333333332,0.0,0.0,0.0,0.0,0.0,0.0,0.0,9548.8,0.0,55.0,5.0,246.96333333333334,1.0,0.0,0.0,0.0,0.0,0.0,1.0,0.0,0.9570000000000007,0.9570000000000007,0.0,0.0,1.0,55.0,616.79921,10000.0,85.000001,85.000001,85.000001,85.000001,395.0,0.0,0.0,0.0,1.0,166.665,52.094,52.094,47.302,47.302,34.0,-22.4025,25.304000000000002,-27.963333333333335,31.22,0.0,1782.772,-0.16499999999999915,100.0,28.468,28.182000000000002,43.272,43.508,0.0,1.0,100.0,0.0,0.0,0.0,0.0,3045.4285714285716,3124.5,4184.5,4366.7,305.4615,304.8215,314.63225,313.99225,21.9623,20.613599999999998,21.962,21.471899999999998,314.999998,314.999998,324.999988,324.999988,99.55945714285714,99.5074,99.56868571428572,99.54802857142857,0.09575000000000022,-0.043333333333333224,-0.09883333333333333,0.1146666666666667,-0.041666666666671404,-0.03833333333332689,1.5949999999999998,1.6025,38.263999999999996,29.835,38.262,35.1995,56.179,35.211,60.1165,52.948,54.101,34.323,58.6905,51.2395,53.253,33.8535,58.6085,50.629333333333335,-0.09450000000000003,-0.062000000000000055,0.10685000000000001,0.10198000000000002,0.0,214.82999999999998,214.805,211.76333333333332,211.76333333333332,0.0,0.0
20,0.0,1.0,0.0,1.0,1.0,0.0,0.0,1.0,0.0,100.0,1.0,1.1856,26.0,0.0,0.0,0.0,59.999996,0.0,26.0,26.0,26.0,26.0,0.0067777777777777715,0.29600000000000004,-0.00835,292.145,-2.7438,-2.661875,-1.53695,-1.5926,-208.45,215.60750000000002,190.572375,0.0,0.0,0.0,0.0,0.04066666666666667,-5.498166666666667,-5.498166666666667,-0.5495,-0.9415,0.010888888888888948,0.46799999999999997,68.758,0.0043,-0.21865,-0.03799999999999981,100.0,1.0,1.0,212.19666666666666,0.0,0.0,0.0,0.0,0.0,0.0,0.0,9568.4,0.0,55.0,5.0,247.5,0.0,0.0,0.0,0.0,0.0,0.0,0.0,0.0,1.004999999999999,1.004999999999999,0.0,0.0,0.0,55.0,616.79921,10000.0,85.000001,85.000001,85.000001,85.000001,395.0,0.0,0.0,0.0,1.0,166.665,52.567,52.567,46.906,46.906,34.0,-23.3875,24.625999999999998,-27.853333333333335,29.435000000000002,0.0,1782.725,-0.14999999999999858,100.0,28.021,27.891,43.865,43.877,0.0,1.0,100.0,0.0,0.0,0.0,0.0,3028.4285714285716,3135.3,4123.75,4174.9,305.6515,304.9345,314.731,314.4415,21.9712,20.6188,21.9721,21.4808,314.999998,314.999998,324.999988,324.999988,99.55947142857143,99.50741666666667,99.56882857142857,99.54818571428571,0.08550000000000013,-0.047666666666666746,-0.10416666666666663,0.1146666666666667,-0.05833333333333002,-0.041666666666671404,1.6029999999999998,1.5965,38.32,29.866999999999997,38.326,35.254999999999995,56.165,35.247,60.158500000000004,53.0115,54.087,34.3565,58.730000000000004,51.301,53.238,33.885999999999996,58.6445,50.68933333333334,-0.08999999999999997,-0.06499999999999995,0.10943000000000001,0.10254500000000001,0.0,215.25,215.235,212.19666666666666,212.19666666666666,0.0,0.0
21,0.0,1.0,0.0,1.0,1.0,0.0,0.0,1.0,0.0,100.0,1.0,1.1856,26.0,0.0,0.0,0.0,59.999996,0.0,26.0,26.0,26.0,26.0,0.00811111111111118,0.3134000000000001,-0.0335,292.282,-2.71165,-2.66575,-1.5814,-1.5413999999999999,-204.94,215.6,190.549125,0.0,0.0,0.0,0.0,0.04273333333333333,-5.498166666666667,-5.498166666666667,-0.5663,0.2749999999999999,-0.006666666666666821,-0.7130000000000001,68.911,-0.00030000000000000003,-0.21327500000000002,0.0019999999999997797,100.0,1.0,1.0,212.82333333333332,0.0,0.0,0.0,0.0,0.0,0.0,0.0,9596.6,0.0,55.0,5.0,248.04666666666668,1.0,0.0,0.0,0.0,0.0,0.0,0.0,0.0,1.056000000000001,1.056000000000001,0.0,0.0,1.0,55.0,616.79921,10000.0,85.000001,85.000001,85.000001,85.000001,395.0,0.0,0.0,0.0,1.0,166.665,52.277,52.277,47.546,47.546,34.0,-25.06,24.208,-29.146666666666665,27.35,0.0,1782.673,-0.23000000000000043,100.0,28.047,28.02,43.362,43.522999999999996,0.0,1.0,100.0,0.0,0.0,0.0,0.0,3232.5714285714284,3088.0,4141.25,4071.1000000000004,305.169,304.90875,314.855,314.79375,21.9808,20.624299999999998,21.982599999999998,21.49,314.999998,314.999998,324.999988,324.999988,99.55948571428571,99.50741666666667,99.56898571428572,99.54832857142857,0.07900000000000018,-0.05333333333333323,-0.12449999999999994,0.11250000000000004,-0.05666666666667197,-0.06333333333333258,1.6669999999999998,1.665,38.379999999999995,29.902,38.391,35.3125,56.152,35.286500000000004,60.198,53.075,54.074,34.393,58.7665,51.362,53.224000000000004,33.921,58.678,50.749,-0.09499999999999997,-0.05899999999999994,0.10803000000000001,0.10371000000000001,0.0,215.735,215.745,212.82333333333332,212.82333333333332,0.0,0.0
22,0.0,1.0,0.0,1.0,1.0,0.0,0.0,1.0,0.0,100.0,1.0,1.1856,26.0,0.0,0.0,0.0,59.999996,0.0,26.0,26.0,26.0,26.0,0.004888888888888943,0.3227,-0.008725,292.007,-2.7723,-2.62975,-1.6029,-1.537,-201.63,215.5925,190.52675,0.0,0.0,0.0,0.0,0.04463333333333333,-5.498166666666667,-5.498166666666667,-0.5504,-0.0015000000000000568,0.004111111111110954,-0.506,69.06,-0.0037,-0.1945,-0.023999999999999577,100.0,1.0,1.0,213.10000000000002,0.0,0.0,0.0,0.0,0.0,0.0,0.0,9609.0,0.0,55.0,5.0,248.58333333333334,0.0,0.0,0.0,0.0,0.0,0.0,0.0,0.0,1.1039999999999992,1.1039999999999992,0.0,0.0,0.0,55.0,616.79921,10000.0,85.000001,85.000001,85.000001,85.000001,395.0,0.0,0.0,0.0,1.0,166.665,52.597,52.597,46.768,46.768,34.0,-24.4975,23.294,-31.343333333333334,29.8625,0.0,1782.626,-0.29499999999999815,100.0,28.018,28.091,43.558,43.701,0.0,1.0,100.0,0.0,0.0,0.0,0.0,3122.857142857143,3029.1,4346.625,4378.5,305.5865,305.14425,314.36075,314.00925,21.9898,20.6296,21.9927,21.4988,314.999998,314.999998,324.999988,324.999988,99.5595,99.50743333333334,99.56914285714285,99.54848571428572,0.0794999999999999,-0.05366666666666675,-0.12049999999999994,0.10683333333333334,-0.054999999999999716,-0.04833333333333201,1.5945,1.595,38.436,29.935000000000002,38.454,35.3675,56.138999999999996,35.323499999999996,60.239,53.1385,54.062,34.427,58.805,51.423,53.211,33.9535,58.713499999999996,50.80866666666667,-0.10499999999999998,-0.052999999999999936,0.10801500000000001,0.106715,0.0,216.19,216.18,213.10000000000002,213.10000000000002,0.0,0.0
23,0.0,1.0,0.0,1.0,1.0,0.0,0.0,1.0,0.0,100.0,1.0,1.1856,26.0,0.0,0.0,0.0,59.999996,0.0,26.0,26.0,26.0,26.0,-0.012777777777777777,0.31479999999999997,0.00715,291.824,-2.64405,-2.668125,-1.654,-1.5134,-198.1,215.585,190.503,0.0,0.0,0.0,0.0,0.046700000000000005,-5.498166666666667,-5.498166666666667,-0.5676,-0.17799999999999994,0.00533333333333319,0.594,69.213,-0.0021000000000000003,-0.21905000000000002,-0.11399999999999988,100.0,1.0,1.0,213.66333333333333,0.0,0.0,0.0,0.0,0.0,0.0,0.0,9634.5,0.0,55.0,5.0,249.13333333333333,1.0,0.0,0.0,0.0,0.0,0.0,0.0,0.0,1.1550000000000011,1.1550000000000011,0.0,0.0,1.0,55.0,616.79921,10000.0,85.000001,85.000001,85.000001,85.000001,395.0,0.0,0.0,0.0,1.0,333.33500000000004,51.804,51.804,47.272,47.272,34.0,-23.87,25.394,-29.353333333333335,28.165,0.0,1782.574,-0.2749999999999986,100.0,28.486,28.137999999999998,43.782,43.858000000000004,0.0,1.0,100.0,0.0,0.0,0.0,0.0,3199.285714285714,3191.5,4163.625,4190.2,304.9995,304.73875,314.79175,314.54775,21.999299999999998,20.6352,22.0034,21.5082,314.999998,314.999998,324.999988,324.999988,99.5595,99.50743333333334,99.5693,99.54864285714285,0.09175000000000022,-0.04400000000000004,-0.10350000000000004,0.11583333333333323,-0.03499999999999659,-0.04999999999999716,1.6524999999999999,1.6435,38.495999999999995,29.9705,38.521,35.4265,56.126000000000005,35.363,60.281,53.2055,54.05,34.463499999999996,58.844,51.4875,53.198,33.989,58.749,50.87166666666667,-0.10599999999999998,-0.05699999999999994,0.10461500000000001,0.10873500000000001,0.0,216.64,216.655,213.66333333333333,213.66333333333333,0.0,0.0
24,0.0,1.0,0.0,1.0,1.0,0.0,0.0,1.0,0.0,100.0,1.0,1.1856,26.0,0.0,0.0,0.0,59.999996,0.0,26.0,26.0,26.0,26.0,0.007111111111111068,0.3178000000000001,-0.038200000000000005,292.13,-2.69895,-2.677125,-1.5406,-1.5683,-194.76999999999998,215.5775,190.48025,0.0,0.0,0.0,0.0,0.048633333333333334,-5.498166666666667,-5.498166666666667,-0.5776,-0.47950000000000026,0.01444444444444426,1.181,69.358,0.0028,-0.214425,-0.1639999999999997,100.0,1.0,1.0,214.06666666666666,0.0,0.0,0.0,0.0,0.0,0.0,0.0,9652.7,0.0,55.0,5.0,249.65666666666667,0.0,0.0,0.0,0.0,0.0,0.0,0.0,0.0,1.2029999999999994,1.2029999999999994,0.0,0.0,0.0,55.0,616.79921,10000.0,85.000001,85.000001,85.000001,85.000001,395.0,0.0,0.0,0.0,1.0,333.33500000000004,52.704,52.704,46.906,46.906,34.0,-22.2175,24.524,-28.21,29.835,0.0,1782.525,-0.23499999999999943,100.0,28.238,27.9,43.806,43.838,0.0,1.0,100.0,0.0,0.0,0.0,0.0,2946.5714285714284,3091.5,4196.5,4217.9,305.83,305.09675,314.5725,314.4345,22.0082,20.6404,22.0134,21.5171,314.999998,314.999998,324.999988,324.999988,99.55951428571429,99.50743333333334,99.56944285714286,99.54878571428571,0.08899999999999997,-0.043333333333333224,-0.09983333333333333,0.12516666666666687,-0.061666666666667425,-0.03833333333332689,1.6204999999999998,1.613,38.551,30.002499999999998,38.584,35.4815,56.113,35.399,60.321,53.266999999999996,54.037,34.4965,58.881,51.5465,53.184,34.0205,58.783,50.92966666666666,-0.09599999999999997,-0.055500000000000105,0.103275,0.10748,0.0,217.13,217.09,214.06666666666666,214.06666666666666,0.0,0.0
25,0.0,1.0,0.0,1.0,1.0,0.0,0.0,1.0,0.0,100.0,1.0,1.1856,26.0,0.0,0.0,0.0,59.999996,0.0,26.0,26.0,26.0,26.0,0.018888888888888955,0.3096000000000001,-0.024175000000000002,291.84,-2.7439,-2.6305,-1.62975,-1.5390000000000001,-191.23000000000002,215.57,190.454625,0.0,0.0,0.0,0.0,0.0507,-5.498166666666667,-5.498166666666667,-0.5959,0.15399999999999991,0.017555555555555546,-1.0390000000000001,69.51,0.0051,-0.212625,-0.10999999999999988,100.0,1.0,1.0,214.61666666666667,0.0,0.0,0.0,0.0,0.0,0.0,0.0,9677.5,0.0,55.0,5.0,250.20333333333335,1.0,0.0,0.0,0.0,0.0,0.0,0.0,0.0,1.2540000000000013,1.2540000000000013,0.0,0.0,1.0,55.0,616.79921,10000.0,85.000001,85.000001,85.000001,85.000001,395.0,0.0,0.0,0.0,1.0,333.33500000000004,51.635999999999996,51.635999999999996,47.348,47.348,34.0,-26.2025,25.526,-28.496666666666666,28.2775,0.0,1782.473,-0.28000000000000114,100.0,28.106,28.309,43.512,43.738,0.0,1.0,100.0,0.0,0.0,0.0,0.0,3365.714285714286,3273.0,4096.5,4130.2,304.827,304.324,315.00375,314.60725,22.0176,20.6461,22.024,21.5263,314.999998,314.999998,324.999988,324.999988,99.55952857142857,99.50745,99.56961428571428,99.54897142857143,0.08650000000000002,-0.05466666666666664,-0.10683333333333334,0.11949999999999994,-0.041666666666671404,-0.05666666666667197,1.6680000000000001,1.6545,38.61,30.038,38.65,35.539500000000004,56.098,35.441,60.363,53.335499999999996,54.022999999999996,34.536,58.92,51.6125,53.169,34.058,58.8185,50.994,-0.10599999999999998,-0.0665,0.10622000000000001,0.10957000000000001,0.0,217.575,217.575,214.61666666666667,214.61666666666667,0.0,0.0
26,0.0,1.0,0.0,1.0,1.0,0.0,0.0,1.0,0.0,100.0,1.0,1.1856,26.0,0.0,0.0,0.0,59.999996,0.0,26.0,26.0,26.0,26.0,0.014333333333333309,0.3134000000000001,0.089975,290.955,-2.6999,-2.658875,-1.5564,-1.6069,-187.68,215.565,190.428875,0.0,0.0,0.0,0.0,0.05276666666666666,-5.498166666666667,-5.498166666666667,-0.5644,0.31800000000000006,0.006555555555555648,0.884,69.666,0.0068000000000000005,-0.193225,-0.21399999999999952,100.0,1.0,1.0,214.83333333333331,0.0,0.0,0.0,0.0,0.0,0.0,0.0,9687.3,0.0,55.0,5.0,250.76333333333332,0.0,0.0,0.0,0.0,0.0,0.0,0.0,0.0,1.3049999999999997,1.3049999999999997,0.0,0.0,0.0,55.0,616.79921,10000.0,85.000001,85.000001,85.000001,85.000001,395.0,0.0,0.0,0.0,1.0,166.665,51.575,51.575,45.897999999999996,45.897999999999996,34.0,-23.7,24.964,-31.656666666666666,34.065,0.0,1782.424,-0.33500000000000085,100.0,28.98,28.627,44.172,44.196,0.0,1.0,100.0,0.0,0.0,0.0,0.0,3166.285714285714,3160.7,4518.375,4562.8,305.214,304.92375,313.8395,313.565,22.0272,20.6519,22.0348,21.535899999999998,314.999998,314.999998,324.999988,324.999988,99.55954285714286,99.50745,99.56977142857143,99.54911428571428,0.09850000000000003,-0.043333333333333224,-0.10383333333333333,0.12916666666666687,-0.03166666666666629,-0.07666666666666799,1.5390000000000001,1.5345,38.67,30.0745,38.717,35.599000000000004,56.088,35.4795,60.405,53.4,54.013,34.5715,58.9595,51.6745,53.158,34.092,58.855000000000004,51.055,-0.10699999999999998,-0.05899999999999994,0.11522500000000001,0.10606000000000002,0.0,218.065,218.11,214.83333333333331,214.83333333333331,0.0,0.0
27,0.0,1.0,0.0,1.0,1.0,0.0,0.0,1.0,0.0,100.0,1.0,1.1856,26.0,0.0,0.0,0.0,59.999996,0.0,26.0,26.0,26.0,26.0,0.011777777777777887,0.2893000000000001,-0.0623,291.504,-2.7406,-2.675875,-1.6145,-1.5513,-184.34,215.5575,190.405625,0.0,0.0,0.0,0.0,0.054700000000000006,-5.498166666666667,-5.498166666666667,-0.5924,-0.9455,0.010222222222222133,0.743,69.806,0.0114,-0.234875,-0.31999999999999984,100.0,1.0,1.0,215.43666666666667,0.0,0.0,0.0,0.0,0.0,0.0,0.0,9714.5,0.0,55.0,5.0,251.27333333333334,1.0,0.0,0.0,0.0,0.0,0.0,0.0,0.0,1.352999999999998,1.352999999999998,0.0,0.0,1.0,55.0,616.79921,10000.0,85.000001,85.000001,85.000001,85.000001,395.0,0.0,0.0,0.0,1.0,333.33500000000004,51.819,51.819,46.295,46.295,34.0,-23.25,26.228,-27.773333333333333,28.6525,0.0,1782.375,-0.3049999999999997,100.0,28.649,28.57,44.582,44.541,0.0,1.0,100.0,0.0,0.0,0.0,0.0,3060.714285714286,3218.7,4063.875,4128.8,305.5735,304.65825,314.867,314.697,22.036,20.6572,22.045,21.5448,314.999998,314.999998,324.999988,324.999988,99.55955714285714,99.50746666666667,99.56991428571429,99.54927142857143,0.09525000000000006,-0.03266666666666662,-0.09199999999999997,0.12316666666666687,-0.03166666666666629,-0.03333333333333144,1.624,1.63,38.724999999999994,30.108,38.781,35.6555,56.075,35.5165,60.446,53.463,54.001000000000005,34.6055,58.998,51.735,53.144999999999996,34.125,58.89,51.114,-0.10350000000000004,-0.0515000000000001,0.107395,0.09401000000000001,0.0,218.45,218.46,215.43666666666667,215.43666666666667,0.0,0.0
28,0.0,1.0,0.0,1.0,1.0,0.0,0.0,1.0,0.0,100.0,1.0,1.1856,26.0,0.0,0.0,0.0,59.999996,0.0,26.0,26.0,26.0,26.0,0.009000000000000119,0.30479999999999996,-0.027100000000000003,291.534,-2.67525,-2.66025,-1.62865,-1.5777999999999999,-180.56,215.5525,190.37825,0.0,0.0,0.0,0.0,0.056900000000000006,-5.498166666666667,-5.498166666666667,-0.5922000000000001,0.5874999999999999,0.0012222222222222356,0.607,69.965,0.0165,-0.204525,-0.31000000000000005,100.0,1.0,1.0,215.96,0.0,0.0,0.0,0.0,0.0,0.0,0.0,9738.1,0.0,55.0,5.0,251.84,0.0,0.0,0.0,0.0,0.0,0.0,0.0,0.0,1.407,1.407,0.0,0.0,0.0,55.0,616.79921,10000.0,85.000001,85.000001,85.000001,85.000001,395.0,0.0,0.0,0.0,1.0,166.665,51.91,51.91,46.494,46.494,34.0,-21.835,25.59,-29.47,30.515,0.0,1782.322,-0.3299999999999983,100.0,28.759,28.561,43.982,44.15,0.0,1.0,100.0,0.0,0.0,0.0,0.0,3004.0,3174.0,4278.25,4266.2,305.61,304.77025,314.56375,314.39675,22.0461,20.6633,22.0561,21.5547,314.999998,314.999998,324.999988,324.999988,99.55955714285714,99.50746666666667,99.57008571428571,99.54944285714285,0.1070000000000002,-0.03533333333333322,-0.09366666666666656,0.131,-0.026666666666670835,-0.06666666666666998,1.6435,1.6355,38.788,30.146,38.851,35.717,56.062,35.559,60.487,53.5305,53.989000000000004,34.6445,59.036,51.8,53.132,34.1625,58.9245,51.17733333333334,-0.10799999999999998,-0.05899999999999994,0.11159500000000001,0.100455,0.0,219.0,219.005,215.96,215.96,0.0,0.0
29,0.0,1.0,0.0,1.0,1.0,0.0,0.0,1.0,0.0,100.0,1.0,1.1856,26.0,0.0,0.0,0.0,59.999996,0.0,26.0,26.0,26.0,26.0,0.04122222222222227,0.30000000000000004,-0.01835,291.443,-2.749,-2.582875,-1.61075,-1.5551,-177.2,215.5475,190.353125,0.0,0.0,0.0,0.0,0.05883333333333334,-5.498166666666667,-5.498166666666667,-0.6002000000000001,-0.7200000000000002,0.002555555555555644,0.8069999999999999,70.108,0.0188,-0.2102,-0.29000000000000004,100.0,1.0,1.0,216.28333333333333,0.0,0.0,0.0,0.0,0.0,0.0,0.0,9752.7,0.0,55.0,5.0,252.36,1.0,0.0,0.0,0.0,0.0,0.0,0.0,0.0,1.4549999999999983,1.4549999999999983,0.0,0.0,1.0,55.0,616.79921,10000.0,85.000001,85.000001,85.000001,85.000001,395.0,0.0,0.0,0.0,1.0,333.33500000000004,52.032,52.032,46.494,46.494,34.0,-23.3875,25.218,-27.756666666666664,32.072500000000005,0.0,1782.273,-0.3500000000000014,100.0,28.474,28.401,44.358000000000004,44.468,0.0,1.0,100.0,0.0,0.0,0.0,0.0,3154.142857142857,3212.7,4161.75,4354.0,305.4315,304.92825,314.7275,314.117,22.0549,20.6686,22.0663,21.5637,314.999998,314.999998,324.999988,324.999988,99.55957142857143,99.50748333333334,99.57024285714286,99.5496,0.10924999999999985,-0.028000000000000025,-0.0771666666666666,0.14516666666666667,-0.041666666666671404,-0.061666666666667425,1.596,1.578,38.843,30.179000000000002,38.914,35.772999999999996,56.049,35.595,60.528,53.5945,53.976,34.678,59.0745,51.8615,53.117999999999995,34.1945,58.9595,51.23733333333333,-0.10799999999999998,-0.055500000000000105,0.10206000000000001,0.11167,0.0,219.41500000000002,219.425,216.28333333333333,216.28333333333333,0.0,0.0
30,0.0,1.0,0.0,1.0,1.0,0.0,0.0,1.0,0.0,100.0,1.0,1.1856,26.0,0.0,0.0,0.0,59.999996,0.0,26.0,26.0,26.0,26.0,0.028444444444444272,0.2921,0.013925,290.771,-2.676,-2.59725,-1.6473499999999999,-1.4739,-173.82999999999998,215.54250000000002,190.328,0.0,0.0,0.0,0.0,0.0608,-5.498166666666667,-5.498166666666667,-0.5952000000000001,0.9199999999999999,0.004222222222222127,0.8180000000000001,70.247,0.0181,-0.20785,-0.33999999999999986,100.0,1.0,1.0,216.79333333333335,0.0,0.0,0.0,0.0,0.0,0.0,0.0,9775.6,0.0,55.0,5.0,252.85666666666668,0.0,0.0,0.0,0.0,0.0,0.0,1.0,0.0,1.5030000000000001,1.5030000000000001,0.0,0.0,0.0,55.0,616.79921,10000.0,85.000001,85.000001,85.000001,85.000001,395.0,0.0,0.0,0.0,1.0,166.665,50.629,50.629,46.265,46.265,34.0,-23.215,26.618,-29.966666666666665,30.122500000000002,0.0,1782.227,-0.384999999999998,100.0,29.411,29.213,44.172,44.445,0.0,1.0,100.0,0.0,0.0,0.0,0.0,3239.714285714286,3308.1,4326.0,4326.9,304.8905,304.26525,314.501,314.379,22.0641,20.6743,22.0763,21.5726,314.999998,314.999998,324.999988,324.999988,99.5596,99.50748333333334,99.5704,99.54974285714286,0.121,-0.02966666666666673,-0.09033333333333338,0.1433333333333333,-0.03499999999999659,-0.06333333333333258,1.6275,1.62,38.9,30.214,38.977000000000004,35.8285,56.041,35.6345,60.5655,53.656,53.969,34.715,59.1095,51.920500000000004,53.108999999999995,34.230000000000004,58.991,51.29533333333333,-0.11699999999999999,-0.05750000000000011,0.10845500000000001,0.11177500000000001,0.0,219.86,219.89,216.79333333333335,216.79333333333335,0.0,0.0
31,0.0,1.0,0.0,1.0,1.0,0.0,0.0,1.0,0.0,100.0,1.0,1.1856,26.0,0.0,0.0,0.0,59.999996,0.0,26.0,26.0,26.0,26.0,0.030444444444444274,0.2885,0.038125,290.436,-2.6949,-2.6258749999999997,-1.64445,-1.5056,-170.25,215.54000000000002,190.302125,0.0,0.0,0.0,0.0,0.0629,-5.498166666666667,-5.498166666666667,-0.5844,-0.3799999999999999,0.0067777777777777715,-0.899,70.398,0.0204,-0.217225,-0.3039999999999998,100.0,1.0,1.0,217.12,0.0,0.0,0.0,0.0,0.0,0.0,0.0,9790.3,0.0,55.0,5.0,253.40333333333334,1.0,0.0,0.0,0.0,0.0,0.0,1.0,0.0,1.5539999999999985,1.5539999999999985,0.0,0.0,1.0,55.0,616.79921,10000.0,85.000001,85.000001,85.000001,85.000001,395.0,0.0,0.0,0.0,1.0,333.33500000000004,50.766,50.766,45.227000000000004,45.227000000000004,34.0,-23.315,26.906,-30.396666666666665,30.14,0.0,1782.173,-0.3949999999999996,100.0,29.044,29.465,44.845,45.227000000000004,0.0,1.0,100.0,0.0,0.0,0.0,0.0,3237.0,3330.4,4335.125,4270.1,305.096,304.19275,314.34525,314.193,22.0735,20.6801,22.0872,21.5823,314.999998,314.999998,324.999988,324.999988,99.55961428571429,99.50748333333334,99.57055714285714,99.54992857142857,0.11775000000000002,-0.03433333333333333,-0.08899999999999997,0.13016666666666676,-0.04999999999999716,-0.046666666666666856,1.569,1.554,38.96,30.250999999999998,39.045,35.8895,56.028999999999996,35.678,60.613,53.7295,53.957,34.754999999999995,59.1535,51.9915,53.097,34.2685,59.0315,51.364333333333335,-0.12249999999999994,-0.056499999999999995,0.10639000000000001,0.10866,0.0,220.32,220.32,217.12,217.12,0.0,0.0
32,0.0,1.0,0.0,1.0,1.0,0.0,0.0,1.0,0.0,100.0,1.0,1.1856,26.0,0.0,0.0,0.0,59.999996,0.0,26.0,26.0,26.0,26.0,0.04788888888888887,0.29290000000000016,-0.031975,291.0,-2.6853,-2.692,-1.5843,-1.6354000000000002,-166.64999999999998,215.5375,190.27625,0.0,0.0,0.0,0.0,0.06496666666666667,-5.498166666666667,-5.498166666666667,-0.6021000000000001,-0.26049999999999995,-0.014777777777777779,0.31899999999999995,70.544,0.021400000000000002,-0.22737500000000002,-0.35399999999999965,100.0,1.0,1.0,217.67333333333335,0.0,0.0,0.0,0.0,0.0,0.0,0.0,9815.3,0.0,55.0,5.0,253.93,0.0,0.0,0.0,0.0,0.0,0.0,1.0,0.0,1.6050000000000004,1.6050000000000004,0.0,0.0,0.0,55.0,616.79921,10000.0,85.000001,85.000001,85.000001,85.000001,395.0,0.0,0.0,0.0,1.0,333.33500000000004,51.407,51.407,46.234,46.234,34.0,-21.8375,26.009999999999998,-26.919999999999998,32.3375,0.0,1782.123,-0.375,100.0,29.089,29.084,44.688,44.96,0.0,1.0,100.0,0.0,0.0,0.0,0.0,3065.0,3185.6,4093.0,4285.8,305.4535,304.75025,314.869,314.228,22.083,20.6859,22.0979,21.5918,314.999998,314.999998,324.999988,324.999988,99.55962857142858,99.5075,99.57071428571429,99.55007142857143,0.12075000000000014,-0.03466666666666662,-0.07916666666666661,0.14100000000000001,-0.030000000000001137,-0.051666666666669414,1.6164999999999998,1.607,39.018,30.287,39.111999999999995,35.948499999999996,56.018,35.715,60.6505,53.7915,53.946,34.789500000000004,59.1885,52.051,53.085,34.3015,59.0635,51.422666666666665,-0.11399999999999999,-0.05800000000000005,0.10480500000000001,0.110155,0.0,220.75,220.79000000000002,217.67333333333335,217.67333333333335,0.0,0.0
33,0.0,1.0,0.0,1.0,1.0,0.0,0.0,1.0,0.0,100.0,1.0,1.1856,26.0,0.0,0.0,0.0,59.999996,0.0,26.0,26.0,26.0,26.0,0.045666666666666744,0.29059999999999997,-0.059375000000000004,291.245,-2.7081,-2.646,-1.6583999999999999,-1.593,-163.05,215.535,190.24925,0.0,0.0,0.0,0.0,0.06706666666666666,-5.498166666666667,-5.498166666666667,-0.611,-0.21550000000000002,-0.009333333333333194,-0.14900000000000002,70.691,0.018500000000000003,-0.208625,-0.2160000000000002,100.0,1.0,1.0,218.14333333333335,0.0,0.0,0.0,0.0,0.0,0.0,0.0,9836.6,0.0,55.0,5.0,254.46,1.0,0.0,0.0,0.0,0.0,0.0,1.0,0.0,1.6559999999999988,1.6559999999999988,0.0,0.0,1.0,55.0,616.79921,10000.0,85.000001,85.000001,85.000001,85.000001,395.0,0.0,0.0,0.0,1.0,166.665,51.666,51.666,46.463,46.463,34.0,-23.39,24.747999999999998,-29.576666666666664,30.605,0.0,1782.074,-0.4450000000000003,100.0,28.737000000000002,28.898,44.385,44.815,0.0,1.0,100.0,0.0,0.0,0.0,0.0,3193.5714285714284,3073.6,4217.125,4206.3,305.322,304.986,314.76625,314.43225,22.0924,20.6916,22.1085,21.6012,314.999998,314.999998,324.999988,324.999988,99.55962857142858,99.5075,99.57088571428571,99.55024285714286,0.10850000000000026,-0.033333333333333215,-0.09616666666666662,0.13366666666666682,-0.045000000000001705,-0.05333333333332746,1.617,1.6175,39.077,30.322499999999998,39.178,36.0075,56.006,35.753,60.691,53.856,53.935,34.8245,59.226,52.113,53.072,34.335,59.097,51.483000000000004,-0.11299999999999999,-0.04800000000000004,0.10612,0.117055,0.0,221.22,221.24,218.14333333333335,218.14333333333332,0.0,0.0
34,0.0,1.0,0.0,1.0,1.0,0.0,0.0,1.0,0.0,100.0,1.0,1.1856,26.0,0.0,0.0,0.0,59.999996,0.0,26.0,26.0,26.0,26.0,0.03544444444444439,0.2953000000000001,-0.05745,291.428,-2.7513,-2.6096250000000003,-1.6328,-1.5316,-159.64999999999998,215.535,190.222375,0.0,0.0,0.0,0.0,0.06903333333333334,-5.498166666666667,-5.498166666666667,-0.6392,-0.9130000000000003,0.01200000000000001,-0.31099999999999994,70.831,0.0201,-0.21695,-0.32799999999999985,100.0,1.0,1.0,218.52666666666664,0.0,0.0,0.0,0.0,0.0,0.0,0.0,9853.8,0.0,55.0,5.0,254.96,0.0,0.0,0.0,0.0,0.0,0.0,1.0,0.0,1.7040000000000006,1.7040000000000006,0.0,0.0,0.0,55.0,616.79921,10000.0,85.000001,85.000001,85.000001,85.000001,395.0,0.0,0.0,0.0,1.0,333.33500000000004,52.185,52.185,46.448,46.448,34.0,-22.5,24.336,-29.39,30.18,0.0,1782.025,-0.4450000000000003,100.0,28.412,28.57,44.277,44.894000000000005,0.0,1.0,100.0,0.0,0.0,0.0,0.0,3036.285714285714,3071.3,4197.125,4260.1,305.6845,304.95,314.74475,314.33275,22.1011,20.6969,22.1186,21.6102,314.999998,314.999998,324.999988,324.999988,99.55965714285715,99.5075,99.57102857142857,99.5504,0.11025000000000018,-0.03633333333333311,-0.10099999999999998,0.13250000000000006,-0.04999999999999716,-0.05333333333332746,1.621,1.6059999999999999,39.132,30.356,39.241,36.0635,55.992999999999995,35.7875,60.7285,53.9185,53.922,34.8565,59.260999999999996,52.173500000000004,53.059,34.366,59.129,51.542,-0.118,-0.0475000000000001,0.11215000000000001,0.10766500000000001,0.0,221.63,221.64499999999998,218.52666666666664,218.52666666666667,0.0,0.0
35,0.0,1.0,0.0,1.0,1.0,0.0,0.0,1.0,0.0,100.0,1.0,1.1856,26.0,0.0,0.0,0.0,59.999996,0.0,26.0,26.0,26.0,26.0,0.03288888888888897,0.28900000000000015,-0.0942,291.412,-2.80715,-2.623125,-1.61985,-1.5265,-156.04,215.535,190.191875,0.0,0.0,0.0,0.0,0.07113333333333334,-5.498166666666667,-5.498166666666667,-0.6741,0.014000000000000012,-0.010777777777777775,-0.31699999999999995,70.975,0.0269,-0.2185,-0.3999999999999999,100.0,1.0,1.0,219.08666666666664,0.0,0.0,0.0,0.0,0.0,0.0,0.0,9879.0,0.0,55.0,5.0,255.48000000000002,1.0,0.0,0.0,0.0,0.0,0.0,1.0,0.0,1.754999999999999,1.754999999999999,0.0,0.0,1.0,55.0,616.79921,10000.0,85.000001,85.000001,85.000001,85.000001,395.0,0.0,0.0,0.0,1.0,333.33500000000004,51.453,51.453,46.387,46.387,34.0,-24.0475,27.822,-26.596666666666664,29.085,0.0,1781.972,-0.1999999999999993,100.0,28.477,28.903,44.115,44.307,0.0,1.0,100.0,0.0,0.0,0.0,0.0,3147.714285714286,3430.7,4037.5,4091.9,305.4885,303.9935,315.08775,314.79725,22.1103,20.7029,22.1292,21.6195,314.999998,314.999998,324.999988,324.999988,99.55965714285715,99.5075,99.57118571428572,99.55055714285714,0.10524999999999984,-0.03200000000000003,-0.07883333333333331,0.14616666666666678,-0.046666666666666856,-0.054999999999999716,1.6760000000000002,1.653,39.189,30.393,39.307,36.122,55.979,35.8285,60.766999999999996,53.980000000000004,53.909,34.8945,59.297,52.2325,53.044,34.402,59.161500000000004,51.599666666666664,-0.09850000000000003,-0.06750000000000012,0.11291000000000001,0.10304500000000001,0.0,222.075,222.115,219.08666666666664,219.08666666666667,0.0,0.0
36,0.0,1.0,0.0,1.0,1.0,0.0,0.0,1.0,0.0,100.0,1.0,1.1856,26.0,0.0,0.0,0.0,59.999996,0.0,26.0,26.0,26.0,26.0,0.035555555555555785,0.29600000000000004,-0.0027,290.878,-2.6421,-2.716625,-1.63875,-1.5564,-152.63,215.5375,190.162125,0.0,0.0,0.0,0.0,0.07313333333333334,-5.498166666666667,-5.498166666666667,-0.6561,-0.22150000000000025,-0.05077777777777781,0.15100000000000002,71.116,0.0224,-0.19385000000000002,-0.12199999999999989,100.0,1.0,1.0,219.24,0.0,0.0,0.0,0.0,0.0,0.0,0.0,9886.0,0.0,55.0,5.0,255.98666666666668,0.0,0.0,0.0,0.0,0.0,0.0,1.0,0.0,1.8030000000000008,1.8030000000000008,0.0,0.0,0.0,55.0,616.79921,10000.0,85.000001,85.000001,85.000001,85.000001,395.0,0.0,0.0,0.0,1.0,333.33500000000004,52.078,52.078,45.501999999999995,45.501999999999995,34.0,-20.162499999999998,24.29,-31.943333333333335,34.485,0.0,1781.925,-0.16999999999999815,100.0,28.993,28.826,44.482,44.753,0.0,1.0,100.0,0.0,0.0,0.0,0.0,2854.4285714285716,2986.9,4558.375,4574.2,305.99,305.211,313.9215,313.60325,22.1191,20.7084,22.1393,21.6286,314.999998,314.999998,324.999988,324.999988,99.55967142857143,99.50751666666666,99.57134285714285,99.55071428571429,0.11299999999999999,-0.04133333333333322,-0.08316666666666661,0.14766666666666683,-0.060000000000002274,-0.045000000000001705,1.5310000000000001,1.5295,39.244,30.427500000000002,39.370999999999995,36.1785,55.968,35.866,60.8075,54.044,53.897999999999996,34.929,59.3345,52.2945,53.033,34.4355,59.195499999999996,51.66,-0.09650000000000003,-0.06950000000000012,0.10623,0.11893500000000001,0.0,222.555,222.555,219.24,219.24,0.0,0.0
