,ABS Active,ABS Enabled,AID Allow Tire Blankets,AID Auto Blip,AID Auto Clutch,AID Auto Shift,AID Fuel Rate,AID Ideal Line,AID Mech Damage,AID Stability,AID Tire Wear Rate,Air Density,Air Temp,Ballast,Best Lap Delta,Best Lap Time,Brake Bias,Brake Pos,Brake Temp FL,Brake Temp FR,Brake Temp RL,Brake Temp RR,CG Accel Lateral,CG Accel Longitudinal,CG Accel Vertical,CG Height,Camber FL,Camber FR,Camber RL,Camber RR,Car Coord X,Car Coord Y,Car Coord Z,Car Damage Front,Car Damage Left,Car Damage Rear,Car Damage Right,Car Pos Norm,Caster FL,Caster FR,Chassis Pitch Angle,Chassis Pitch Rate,Chassis Roll Angle,Chassis Roll Rate,Chassis Velocity X,Chassis Velocity Y,Chassis Velocity Z,Chassis Yaw Rate,Clutch Pos,DRS Active,DRS Available,Drive Train Speed,ERS Heat Charging,ERS Is Charging,ERS Max Energy,ERS Power Level,ERS Recovery Level,Engine Brake Setting,Engine Limiter,Engine RPM,Flags,Fuel Level,Gear,Ground Speed,HR Sample Clock,In Pit,KERS Charge,KERS Deployed Energy,KERS Input,KERS Max Energy,LR Sample Clock,Lap Invalidated,Lap Time,Lap Time2,Last Lap Time,Last Sector Time,MR Sample Clock,Max Fuel,Max Power,Max RPM,Max Sus Travel FL,Max Sus Travel FR,Max Sus Travel RL,Max Sus Travel RR,Max Torque,Max Turbo Boost,Num Tires Off Track,Penalties Enabled,Position,Raw Data Sample Rate,Ride Height FL,Ride Height FR,Ride Height RL,Ride Height RR,Road Temp,Self Align Torque FL,Self Align Torque FR,Self Align Torque RL,Self Align Torque RR,Session Lap Count,Session Time Left,Steering Angle,Surface Grip,Suspension Travel FL,Suspension Travel FR,Suspension Travel RL,Suspension Travel RR,TC Active,TC Enabled,Throttle Pos,Tire Dirt Level FL,Tire Dirt Level FR,Tire Dirt Level RL,Tire Dirt Level RR,Tire Load FL,Tire Load FR,Tire Load RL,Tire Load RR,Tire Loaded Radius FL,Tire Loaded Radius FR,Tire Loaded Radius RL,Tire Loaded Radius RR,Tire Pressure FL,Tire Pressure FR,Tire Pressure RL,Tire Pressure RR,Tire Radius FL,Tire Radius FR,Tire Radius RL,Tire Radius RR,Tire Rubber Grip FL,Tire Rubber Grip FR,Tire Rubber Grip RL,Tire Rubber Grip RR,Tire Slip Angle FL,Tire Slip Angle FR,Tire Slip Angle RL,Tire Slip Angle RR,Tire Slip Ratio FL,Tire Slip Ratio FR,Tire Slip Ratio RL,Tire Slip Ratio RR,Tire Temp Core FL,Tire Temp Core FR,Tire Temp Core RL,Tire Temp Core RR,Tire Temp Inner FL,Tire Temp Inner FR,Tire Temp Inner RL,Tire Temp Inner RR,Tire Temp Middle FL,Tire Temp Middle FR,Tire Temp Middle RL,Tire Temp Middle RR,Tire Temp Outer FL,Tire Temp Outer FR,Tire Temp Outer RL,Tire Temp Outer RR,Toe In FL,Toe In FR,Toe In RL,Toe In RR,Turbo Boost,Wheel Angular Speed FL,Wheel Angular Speed FR,Wheel Angular Speed RL,Wheel Angular Speed RR,Wind Direction,Wind Speed
0,0.0,1.0,0.0,1.0,1.0,0.0,0.0,1.0,0.0,100.0,1.0,1.1856,26.0,0.0,0.0,0.0,59.99999,0.0,26.0,26.0,26.0,26.0,-0.03211111111111109,0.29110000000000014,0.14500000000000002,293.564,-2.7489,-2.6262222222222222,-1.5314,-1.5068,-275.71,215.6375,190.987875,0.0,0.0,0.0,0.0,0.0015666666666666667,-5.498166666666667,-5.498166666666667,-0.5763,1.866,-0.0015000000000000568,-0.05800000000000005,64.644,-0.03079999999999994,-0.23062500000000002,0.1720000000000006,100.0,1.0,1.0,199.7,0.0,0.0,0.0,0.0,0.0,0.0,0.0,8464.5,0.0,55.0,5.0,232.68666666666667,0.0,0.0,0.0,0.0,0.0,0.0,0.0,0.0,0.0030000000000001137,0.0030000000000001137,0.0,0.0,0.0,55.0,616.79921,10000.0,85.0,85.0,85.0,85.0,395.0,0.0,0.0,0.0,1.0,20.0,50.949,50.949,49.591,49.591,34.0,-30.4825,32.778,-27.843333333333334,24.48,0.0,1783.957,0.40500000000000114,100.0,27.016,26.936,40.135,39.827,0.0,1.0,100.0,0.0,0.0,0.0,0.0,3448.142857142857,4302.5,3906.5,3976.5,304.298,301.456,315.3883333333333,315.00775,21.7825,20.5093,21.8041,21.3298,314.99999,314.99999,324.99998,324.99998,99.55944285714286,99.50706666666666,99.56768571428572,99.54598571428572,0.01766666666666694,-0.08066666666666666,-0.14916666666666667,0.07733333333333325,-0.045000000000001705,-0.036666666666668846,1.6053333333333333,1.6219999999999999,37.141,29.183,37.275999999999996,34.311,56.515,34.391,59.865,52.003,54.427,33.576499999999996,58.487,50.321,53.6,33.1485,58.4755,49.719,-0.05349999999999988,-0.09549999999999992,0.10747000000000001,0.10641,0.0,202.57,202.54000000000002,199.7,199.7,0.0,0.0
1,0.0,1.0,0.0,1.0,1.0,0.0,0.0,1.0,0.0,100.0,1.0,1.1856,26.0,0.0,0.0,0.0,59.999996,0.0,26.0,26.0,26.0,26.0,-0.09177777777777785,0.32620000000000005,0.19063333333333332,292.725,-2.6583,-2.700333333333333,-1.5533000000000001,-1.373,-272.22,215.64,190.967,0.0,0.0,0.0,0.0,0.0036000000000000003,-5.498166666666667,-5.498166666666667,-0.4751,-1.6036666666666668,-0.04512500000000008,-0.353,64.81700000000001,-0.031200000000000006,-0.18305000000000002,0.8060000000000009,100.0,1.0,1.0,199.58333333333331,0.0,0.0,0.0,0.0,0.0,0.0,0.0,8459.6,0.0,55.0,5.0,233.30666666666667,1.0,0.0,0.0,0.0,0.0,0.0,0.0,0.0,0.05699999999999861,0.05699999999999861,0.0,0.0,1.0,55.0,616.79921,10000.0,85.000001,85.000001,85.000001,85.000001,395.0,0.0,0.0,0.0,1.0,166.665,54.581,54.581,47.668,47.668,34.0,-22.4225,16.371999999999996,-37.43,31.205000000000002,0.0,1783.904,0.41000000000000014,100.0,27.405,26.941,42.232,42.899,0.0,1.0,100.0,0.0,0.0,0.0,0.0,2743.857142857143,2396.6,4719.5,5169.3,306.4855,307.175,313.20733333333334,311.69775,21.7929,20.514499999999998,21.8158,21.3397,314.999998,314.999998,324.999988,324.999988,99.55945714285714,99.50708333333333,99.56784285714286,99.54614285714285,0.021333333333333204,-0.10799999999999998,-0.15166666666666667,0.052166666666666694,-0.030000000000001137,-0.04999999999999716,1.3026666666666666,1.3335,37.206,29.215666666666664,37.349000000000004,34.373,56.495999999999995,34.431,59.912,52.0745,54.41,33.6135,58.531,50.38966666666666,53.581,33.184,58.5165,49.78633333333333,-0.03649999999999998,-0.10199999999999987,0.10355500000000001,0.10705500000000001,0.0,203.11,203.03,199.58333333333331,199.58333333333331,0.0,0.0
2,0.0,1.0,0.0,1.0,1.0,0.0,0.0,1.0,0.0,100.0,1.0,1.1856,26.0,0.0,0.0,0.0,59.999996,0.0,26.0,26.0,26.0,26.0,-0.09888888888888892,0.27080000000000015,-0.25483333333333336,294.373,-2.6348,-2.6611111111111114,-1.524,-1.5147,-268.91,215.64249999999998,190.948625,0.0,0.0,0.0,0.0,0.005533333333333334,-5.498166666666667,-5.498166666666667,-0.5775,0.6799999999999999,-0.014124999999999943,1.904,64.956,-0.03799999999999992,-0.2728,0.9620000000000015,100.0,1.0,1.0,201.00666666666666,0.0,0.0,0.0,0.0,0.0,0.0,0.0,8520.0,0.0,55.0,5.0,233.81,0.0,0.0,0.0,0.0,0.0,0.0,0.0,0.0,0.10800000000000054,0.10800000000000054,0.0,0.0,0.0,55.0,616.79921,10000.0,85.000001,85.000001,85.000001,85.000001,395.0,0.0,0.0,0.0,1.0,166.665,52.338,52.338,51.269999999999996,51.269999999999996,34.0,-28.07,21.066,-24.089999999999996,18.177500000000002,0.0,1783.852,0.5450000000000017,100.0,28.0,27.185,41.559,41.254,0.0,1.0,100.0,0.0,0.0,0.0,0.0,3255.5714285714284,3033.7,3453.0,3314.4,304.7675,304.96933333333334,316.4463333333333,316.69125,21.8029,20.5195,21.8263,21.3481,314.999998,314.999998,324.999988,324.999988,99.55945714285714,99.5071,99.56797142857143,99.54627142857143,0.006666666666666821,-0.11699999999999999,-0.169,0.0535000000000001,-0.05833333333333002,-0.04833333333333201,1.778,1.805,37.268,29.247,37.414,34.4255,56.480999999999995,34.4695,59.9435,52.1215,54.394999999999996,33.649,58.5605,50.435,53.566,33.218,58.543,49.831,-0.03649999999999998,-0.11149999999999993,0.10353000000000001,0.10719000000000001,0.0,203.565,203.43,201.00666666666666,201.00666666666666,0.0,0.0
3,0.0,1.0,0.0,1.0,1.0,0.0,0.0,1.0,0.0,100.0,1.0,1.1856,26.0,0.0,0.0,0.0,59.999996,0.0,26.0,26.0,26.0,26.0,-0.0875555555555555,0.35319999999999996,0.10143333333333335,293.549,-2.661,-2.691222222222222,-1.5124,-1.4781,-265.98,215.64,190.930875,0.0,0.0,0.0,0.0,0.007233333333333333,-5.498166666666667,-5.498166666666667,-0.5069,0.7270000000000001,0.0040000000000000036,-1.1720000000000002,65.099,-0.04899999999999993,-0.18887500000000002,0.7439999999999998,100.0,1.0,1.0,200.80666666666667,0.0,0.0,0.0,0.0,0.0,0.0,0.0,8511.5,0.0,55.0,5.0,234.32333333333332,1.0,0.0,0.0,0.0,0.0,0.0,0.0,0.0,0.1529999999999987,0.1529999999999987,0.0,0.0,1.0,55.0,616.79921,10000.0,85.000001,85.000001,85.000001,85.000001,395.0,0.0,0.0,0.0,1.0,166.665,53.696,53.696,48.218,48.218,34.0,-23.4875,19.74,-33.74,25.925,0.0,1783.808,0.7149999999999999,100.0,27.57,27.097,41.605000000000004,41.476,0.0,1.0,100.0,0.0,0.0,0.0,0.0,2817.5714285714284,2908.1,4419.375,4293.8,306.329,305.53766666666667,314.0686666666667,314.1,21.8115,20.5241,21.8356,21.356,314.999998,314.999998,324.999988,324.999988,99.55945714285714,99.5071,99.56811428571429,99.5464,0.010333333333333083,-0.1266666666666666,-0.16366666666666665,0.055333333333333234,-0.041666666666671404,-0.05833333333333002,1.4543333333333333,1.4975,37.322,29.276,37.472,34.475,56.465,34.5065,59.9755,52.1775,54.379999999999995,33.6835,58.59,50.489,53.55,33.251,58.57,49.884,-0.03299999999999992,-0.12349999999999994,0.10986000000000001,0.102735,0.0,204.035,203.95499999999998,200.80666666666667,200.80666666666667,0.0,0.0
4,0.0,1.0,0.0,1.0,1.0,0.0,0.0,1.0,0.0,100.0,1.0,1.1856,26.0,0.0,0.0,0.0,59.999996,0.0,26.0,26.0,26.0,26.0,-0.09233333333333338,0.31310000000000016,-0.012133333333333333,293.854,-2.6915,-2.7564444444444445,-1.4606,-1.5902,-262.66,215.6375,190.91175,0.0,0.0,0.0,0.0,0.009166666666666667,-5.498166666666667,-5.498166666666667,-0.5323,-0.9826666666666667,-0.04999999999999982,-1.0220000000000002,65.249,-0.054299999999999904,-0.231,1.1739999999999995,100.0,1.0,1.0,201.42666666666668,0.0,0.0,0.0,0.0,0.0,0.0,0.0,8537.7,0.0,55.0,5.0,234.86666666666667,0.0,0.0,0.0,0.0,0.0,0.0,0.0,0.0,0.20400000000000063,0.20400000000000063,0.0,0.0,0.0,55.0,616.79921,10000.0,85.000001,85.000001,85.000001,85.000001,395.0,0.0,0.0,0.0,1.0,333.33500000000004,53.452,53.452,49.179,49.179,34.0,-28.307499999999997,19.034,-30.516666666666666,22.765,0.0,1783.755,0.7699999999999996,100.0,27.423000000000002,26.838,42.369,41.697,0.0,1.0,100.0,0.0,0.0,0.0,0.0,3159.142857142857,2808.7,4064.0,3797.9,305.376,305.7896666666667,314.957,315.35375,21.8212,20.5291,21.8464,21.3649,314.999998,314.999998,324.999988,324.999988,99.55945714285714,99.50711666666666,99.56824285714286,99.54652857142857,-0.020000000000000018,-0.1403333333333333,-0.18533333333333335,0.04183333333333339,-0.05666666666667197,-0.03999999999999915,1.53,1.5945,37.382999999999996,29.306666666666665,37.54,34.531,56.447,34.545500000000004,60.015,52.2355,54.361999999999995,33.719,58.626999999999995,50.544333333333334,53.532,33.285,58.6045,49.93833333333333,-0.0129999999999999,-0.13050000000000006,0.10819000000000001,0.10774,0.0,204.43,204.32999999999998,201.42666666666668,201.42666666666668,0.0,0.0
5,0.0,1.0,0.0,1.0,1.0,0.0,0.0,1.0,0.0,100.0,1.0,1.1856,26.0,0.0,0.0,0.0,59.999996,0.0,26.0,26.0,26.0,26.0,-0.0982222222222221,0.3017000000000001,-0.03236666666666667,294.128,-2.7186,-2.718,-1.5106000000000002,-1.5897000000000001,-259.13,215.6325,190.891,0.0,0.0,0.0,0.0,0.011233333333333333,-5.498166666666667,-5.498166666666667,-0.5438000000000001,0.5456666666666667,-0.045250000000000234,-0.5010000000000001,65.406,-0.07169999999999999,-0.226525,1.2379999999999995,100.0,1.0,1.0,202.01999999999998,0.0,0.0,0.0,0.0,0.0,0.0,0.0,8562.9,0.0,55.0,5.0,235.43333333333334,1.0,0.0,0.0,0.0,0.0,0.0,0.0,0.0,0.2579999999999991,0.2579999999999991,0.0,0.0,1.0,55.0,616.79921,10000.0,85.000001,85.000001,85.000001,85.000001,395.0,0.0,0.0,0.0,1.0,166.665,53.497,53.497,49.774,49.774,34.0,-28.735,19.128,-30.689999999999998,22.245,0.0,1783.702,0.3249999999999993,100.0,27.377,26.706,41.963,41.065,0.0,1.0,100.0,0.0,0.0,0.0,0.0,3178.0,2839.1,3942.125,3875.1000000000004,305.259,305.64233333333334,315.29633333333334,315.235,21.831699999999998,20.5344,21.8575,21.3741,314.999998,314.999998,324.999988,324.999988,99.55947142857143,99.50713333333333,99.56838571428571,99.54667142857143,-0.0173333333333332,-0.1373333333333333,-0.20666666666666667,0.024666666666666837,-0.05833333333333002,-0.051666666666669414,1.5936666666666666,1.6435,37.448,29.340333333333334,37.608999999999995,34.588499999999996,56.43,34.588,60.052,52.293,54.346000000000004,33.7585,58.661,50.599666666666664,53.515,33.3225,58.6355,49.992666666666665,-0.03499999999999992,-0.11050000000000004,0.10774500000000001,0.114735,0.0,204.97,204.85000000000002,202.01999999999998,202.01999999999998,0.0,0.0
6,0.0,1.0,0.0,1.0,1.0,0.0,0.0,1.0,0.0,100.0,1.0,1.1856,26.0,0.0,0.0,0.0,59.999996,0.0,26.0,26.0,26.0,26.0,-0.11977777777777776,0.3055000000000001,0.0322,293.945,-2.6555,-2.790111111111111,-1.5521,-1.5646,-255.99,215.6225,190.871875,0.0,0.0,0.0,0.0,0.013033333333333334,-5.498166666666667,-5.498166666666667,-0.5268,-0.122,-0.06062499999999993,-0.9750000000000001,65.551,-0.07619999999999993,-0.20350000000000001,0.9359999999999999,100.0,1.0,1.0,202.27666666666667,0.0,0.0,0.0,0.0,0.0,0.0,0.0,8573.7,0.0,55.0,5.0,235.95333333333332,0.0,0.0,0.0,0.0,0.0,0.0,0.0,0.0,0.30600000000000094,0.30600000000000094,0.0,0.0,0.0,55.0,616.79921,10000.0,85.000001,85.000001,85.000001,85.000001,395.0,0.0,0.0,0.0,1.0,166.665,54.001,54.001,48.888999999999996,48.888999999999996,34.0,-27.83,18.836,-34.71666666666666,22.759999999999998,0.0,1783.654,0.35999999999999943,100.0,27.067,26.408,42.185,41.237,0.0,1.0,100.0,0.0,0.0,0.0,0.0,3157.4285714285716,2723.8,4293.875,4000.4,305.3725,306.01533333333333,314.43666666666667,314.879,21.8408,20.5391,21.8676,21.3825,314.999998,314.999998,324.999988,324.999988,99.55947142857143,99.50715,99.56852857142857,99.5468,-0.016000000000000014,-0.1363333333333333,-0.20033333333333334,0.01649999999999996,-0.03499999999999659,-0.05666666666667197,1.5163333333333333,1.548,37.504999999999995,29.369333333333334,37.672,34.641,56.414,34.6245,60.0875,52.3485,54.331,33.7915,58.6945,50.653,53.498999999999995,33.3545,58.666,50.045,-0.04349999999999987,-0.10050000000000026,0.103025,0.10982000000000001,0.0,205.38,205.315,202.27666666666667,202.27666666666667,0.0,0.0
7,0.0,1.0,0.0,1.0,1.0,0.0,0.0,1.0,0.0,100.0,1.0,1.1856,26.0,0.0,0.0,0.0,59.999996,0.0,26.0,26.0,26.0,26.0,-0.07622222222222219,0.2935000000000001,-0.0028,293.93,-2.6228,-2.7843333333333335,-1.5082,-1.6098,-252.84,215.6125,190.852875,0.0,0.0,0.0,0.0,0.014866666666666667,-5.498166666666667,-5.498166666666667,-0.5367000000000001,0.08733333333333326,-0.049875000000000114,-0.349,65.69,-0.07569999999999999,-0.21930000000000002,0.798,100.0,1.0,1.0,202.7866666666667,0.0,0.0,0.0,0.0,0.0,0.0,0.0,8595.4,0.0,55.0,5.0,236.45666666666668,1.0,0.0,0.0,0.0,0.0,0.0,0.0,0.0,0.3539999999999992,0.3539999999999992,0.0,0.0,1.0,55.0,616.79921,10000.0,85.000001,85.000001,85.000001,85.000001,395.0,0.0,0.0,0.0,1.0,333.33500000000004,53.528,53.528,49.362,49.362,34.0,-26.7875,20.724,-31.376666666666665,22.755000000000003,0.0,1783.606,-0.05000000000000071,100.0,27.326999999999998,26.553,42.199,41.294,0.0,1.0,100.0,0.0,0.0,0.0,0.0,3188.0,2844.1,4049.375,3909.5,305.2115,305.57966666666664,315.022,315.09875,21.8501,20.5439,21.8775,21.3909,314.999998,314.999998,324.999988,324.999988,99.55947142857143,99.50716666666666,99.56865714285715,99.54694285714285,0.011666666666666714,-0.11299999999999999,-0.196,0.018333333333333313,-0.04833333333333201,-0.036666666666668846,1.5556666666666668,1.5705,37.563,29.39933333333333,37.735,34.693,56.399,34.661500000000004,60.122,52.4025,54.317,33.826,58.726,50.705,53.483999999999995,33.387,58.695,50.095666666666666,-0.0754999999999999,-0.0714999999999999,0.102135,0.09929500000000001,0.0,205.82,205.72500000000002,202.7866666666667,202.7866666666667,0.0,0.0
8,0.0,1.0,0.0,1.0,1.0,0.0,0.0,1.0,0.0,100.0,1.0,1.1856,26.0,0.0,0.0,0.0,59.999996,0.0,26.0,26.0,26.0,26.0,-0.06077777777777782,0.2985,0.004933333333333334,294.006,-2.6985,-2.7221111111111114,-1.4903,-1.6015,-249.48,215.60000000000002,190.8325,0.0,0.0,0.0,0.0,0.016833333333333336,-5.498166666666667,-5.498166666666667,-0.5361,-0.21766666666666656,-0.03312500000000007,0.6539999999999999,65.84,-0.06219999999999992,-0.217225,0.2699999999999996,100.0,1.0,1.0,203.19666666666666,0.0,0.0,0.0,0.0,0.0,0.0,0.0,8612.8,0.0,55.0,5.0,236.99333333333334,0.0,0.0,0.0,0.0,0.0,0.0,0.0,0.0,0.40500000000000114,0.40500000000000114,0.0,0.0,0.0,55.0,616.79921,10000.0,85.000001,85.000001,85.000001,85.000001,395.0,0.0,0.0,0.0,1.0,333.33500000000004,53.879,53.879,48.996,48.996,34.0,-24.72,21.828,-29.57,26.04,0.0,1783.555,-0.08500000000000085,100.0,27.147,26.4,42.292,41.338,0.0,1.0,100.0,0.0,0.0,0.0,0.0,2960.285714285714,2984.0,4010.625,4053.1000000000004,305.7525,305.3863333333333,315.0296666666667,314.7855,21.8598,20.549,21.8881,21.3999,314.999998,314.999998,324.999988,324.999988,99.55948571428571,99.50718333333333,99.5688,99.54707142857143,0.02833333333333332,-0.09499999999999997,-0.167,0.0645,-0.05333333333332746,-0.03999999999999915,1.5443333333333333,1.553,37.623999999999995,29.430999999999997,37.801,34.749,56.382,34.7,60.158500000000004,52.461,54.3,33.861000000000004,58.7605,50.76133333333333,53.467,33.421,58.726,50.150666666666666,-0.07850000000000001,-0.06400000000000006,0.10834500000000001,0.11296500000000001,0.0,206.265,206.21,203.19666666666666,203.19666666666666,0.0,0.0
9,0.0,1.0,0.0,1.0,1.0,0.0,0.0,1.0,0.0,100.0,1.0,1.1856,26.0,0.0,0.0,0.0,59.999996,0.0,26.0,26.0,26.0,26.0,-0.039000000000000035,0.29600000000000004,-0.011533333333333333,293.839,-2.628,-2.729,-1.5409000000000002,-1.5542,-246.12,215.585,190.811875,0.0,0.0,0.0,0.0,0.0188,-5.498166666666667,-5.498166666666667,-0.5371,0.2310000000000001,-0.04312499999999986,-0.579,65.987,-0.04999999999999993,-0.212925,0.21799999999999997,100.0,1.0,1.0,203.68333333333334,0.0,0.0,0.0,0.0,0.0,0.0,0.0,8633.4,0.0,55.0,5.0,237.52666666666667,1.0,0.0,0.0,0.0,0.0,0.0,0.0,0.0,0.4559999999999995,0.4559999999999995,0.0,0.0,1.0,55.0,616.79921,10000.0,85.000001,85.000001,85.000001,85.000001,395.0,0.0,0.0,0.0,1.0,166.665,53.482,53.482,49.316,49.316,34.0,-25.75,21.938,-29.916666666666664,24.6725,0.0,1783.504,-0.3049999999999997,100.0,27.192,26.676000000000002,42.083,41.443,0.0,1.0,100.0,0.0,0.0,0.0,0.0,3198.5714285714284,2903.3,4039.625,4002.4,305.209,305.4533333333333,315.05033333333336,314.89725,21.8696,20.5541,21.898699999999998,21.4088,314.999998,314.999998,324.999988,324.999988,99.55948571428571,99.50718333333333,99.56894285714286,99.54721428571429,0.03833333333333311,-0.08166666666666655,-0.15983333333333336,0.05800000000000005,-0.06499999999999773,-0.045000000000001705,1.566,1.5655000000000001,37.685,29.46333333333333,37.867000000000004,34.805,56.366,34.738,60.1935,52.518,54.285,33.8965,58.793,50.816,53.452,33.454499999999996,58.756,50.20466666666667,-0.09499999999999997,-0.04850000000000021,0.09981500000000001,0.10785000000000002,0.0,206.72500000000002,206.69,203.68333333333334,203.68333333333334,0.0,0.0
10,0.0,1.0,0.0,1.0,1.0,0.0,0.0,1.0,0.0,100.0,1.0,1.1856,26.0,0.0,0.0,0.0,59.999996,0.0,26.0,26.0,26.0,26.0,-0.038000000000000034,0.30069999999999997,0.0082,293.73199999999997,-2.678,-2.713222222222222,-1.4991,-1.5433,-242.75,215.5675,190.79125,0.0,0.0,0.0,0.0,0.020733333333333336,-5.498166666666667,-5.498166666666667,-0.5276000000000001,-0.17866666666666664,-0.018124999999999947,1.695,66.137,-0.03489999999999993,-0.207675,-0.08999999999999986,100.0,1.0,1.0,204.04333333333335,0.0,0.0,0.0,0.0,0.0,0.0,0.0,8648.6,0.0,55.0,5.0,238.06333333333333,0.0,0.0,0.0,0.0,0.0,0.0,1.0,0.0,0.5069999999999979,0.5069999999999979,0.0,0.0,0.0,55.0,616.79921,10000.0,85.000001,85.000001,85.000001,85.000001,395.0,0.0,0.0,0.0,1.0,166.665,53.833,53.833,48.859,48.859,34.0,-23.2575,22.48,-29.126666666666665,27.375,0.0,1783.454,-0.370000000000001,100.0,27.361,26.502,42.311,41.705,0.0,1.0,100.0,0.0,0.0,0.0,0.0,2936.4285714285716,2950.7,4093.0,4204.9,305.811,305.536,314.829,314.47775,21.8794,20.5592,21.9093,21.4178,314.999998,314.999998,324.999988,324.999988,99.5595,99.5072,99.56908571428572,99.54734285714285,0.05600000000000005,-0.06833333333333336,-0.13916666666666666,0.08233333333333337,-0.030000000000001137,-0.061666666666667425,1.5233333333333334,1.532,37.745999999999995,29.495333333333335,37.933,34.8615,56.351,34.775,60.230000000000004,52.5775,54.271,33.9305,58.827,50.873333333333335,53.436,33.4875,58.787,50.260666666666665,-0.10149999999999992,-0.044500000000000206,0.105065,0.10595500000000001,0.0,207.14499999999998,207.16500000000002,204.04333333333335,204.04333333333335,0.0,0.0
11,0.0,1.0,0.0,1.0,1.0,0.0,0.0,1.0,0.0,100.0,1.0,1.1856,26.0,0.0,0.0,0.0,59.999996,0.0,26.0,26.0,26.0,26.0,-0.0038888888888889417,0.2882,-0.05403333333333334,294.067,-2.6952,-2.6998888888888892,-1.5594999999999999,-1.5145,-239.37,215.55,190.770625,0.0,0.0,0.0,0.0,0.022600000000000002,-5.498166666666667,-5.498166666666667,-0.5513,-0.33466666666666667,0.0058749999999998526,-0.2929999999999999,66.282,-0.01849999999999996,-0.224675,-0.24200000000000088,100.0,1.0,1.0,204.62333333333333,0.0,0.0,0.0,0.0,0.0,0.0,0.0,8673.3,0.0,55.0,5.0,238.58333333333331,1.0,0.0,0.0,0.0,0.0,0.0,1.0,0.0,0.5579999999999998,0.5579999999999998,0.0,0.0,1.0,55.0,616.79921,10000.0,85.000001,85.000001,85.000001,85.000001,395.0,0.0,0.0,0.0,1.0,166.665,53.757,53.757,49.484,49.484,34.0,-23.985,23.218,-27.39333333333333,25.265,0.0,1783.403,-0.5449999999999982,100.0,26.885,26.713,42.021,41.872,0.0,1.0,100.0,0.0,0.0,0.0,0.0,3078.142857142857,2953.0,3870.625,3935.6000000000004,305.604,305.32866666666666,315.459,315.07725,21.889,20.5644,21.9198,21.4268,314.999998,314.999998,324.999988,324.999988,99.5595,99.5072,99.56922857142857,99.5475,0.06700000000000017,-0.05366666666666664,-0.1355,0.09333333333333327,-0.05666666666667197,-0.04999999999999716,1.5986666666666667,1.596,37.806,29.52766666666667,37.998999999999995,34.917500000000004,56.335,34.812,60.2635,52.6355,54.256,33.9645,58.858000000000004,50.929,53.42,33.519999999999996,58.815,50.315333333333335,-0.10949999999999993,-0.03100000000000014,0.11214,0.10571000000000001,0.0,207.60000000000002,207.595,204.62333333333333,204.62333333333333,0.0,0.0
12,0.0,1.0,0.0,1.0,1.0,0.0,0.0,1.0,0.0,100.0,1.0,1.1856,26.0,0.0,0.0,0.0,59.999996,0.0,26.0,26.0,26.0,26.0,-0.0043333333333333,0.2963,-0.012400000000000001,293.793,-2.7188,-2.7044444444444444,-1.5372,-1.5575,-236.39,215.535,190.751625,0.0,0.0,0.0,0.0,0.0244,-5.498166666666667,-5.498166666666667,-0.5466,0.3686666666666667,0.007874999999999854,0.876,66.411,-0.0008999999999999009,-0.20747500000000002,-0.41799999999999926,100.0,1.0,1.0,204.97,0.0,0.0,0.0,0.0,0.0,0.0,0.0,8687.9,0.0,55.0,5.0,239.05,0.0,0.0,0.0,0.0,0.0,0.0,1.0,0.0,0.602999999999998,0.602999999999998,0.0,0.0,0.0,55.0,616.79921,10000.0,85.000001,85.000001,85.000001,85.000001,395.0,0.0,0.0,0.0,1.0,333.33500000000004,53.497,53.497,48.996,48.996,34.0,-23.8675,24.208,-27.016666666666666,28.5325,0.0,1783.357,-0.4499999999999993,100.0,27.102,26.782,41.894,41.721000000000004,0.0,1.0,100.0,0.0,0.0,0.0,0.0,3006.5714285714284,3084.9,4040.875,4062.1000000000004,305.611,305.076,315.00966666666665,314.8415,21.8974,20.5691,21.929,21.4347,314.999998,314.999998,324.999988,324.999988,99.55951428571429,99.50721666666666,99.56935714285714,99.54761428571429,0.06533333333333369,-0.05566666666666664,-0.10133333333333333,0.12566666666666682,-0.04333333333332945,-0.05333333333332746,1.5753333333333335,1.554,37.858999999999995,29.557000000000002,38.056,34.967,56.322,34.845,60.293,52.6865,54.244,33.995,58.8855,50.978,53.407,33.549,58.84,50.36333333333333,-0.09599999999999986,-0.05449999999999999,0.10679000000000001,0.11023000000000001,0.0,208.005,208.03,204.97,204.97,0.0,0.0
13,0.0,1.0,0.0,1.0,1.0,0.0,0.0,1.0,0.0,100.0,1.0,1.1856,26.0,0.0,0.0,0.0,59.999996,0.0,26.0,26.0,26.0,26.0,0.042888888888888976,0.29910000000000014,0.025733333333333334,293.335,-2.7004,-2.6946666666666665,-1.5715,-1.5457,-233.0,215.51999999999998,190.730125,0.0,0.0,0.0,0.0,0.0264,-5.498166666666667,-5.498166666666667,-0.5375,-0.1313333333333333,0.007249999999999979,-0.43799999999999994,66.559,0.008599999999999941,-0.20925000000000002,-0.3379999999999992,100.0,1.0,1.0,205.31666666666666,0.0,0.0,0.0,0.0,0.0,0.0,0.0,8702.7,0.0,55.0,5.0,239.57999999999998,1.0,0.0,0.0,0.0,0.0,0.0,1.0,0.0,0.6539999999999999,0.6539999999999999,0.0,0.0,1.0,55.0,616.79921,10000.0,85.000001,85.000001,85.000001,85.000001,395.0,0.0,0.0,0.0,1.0,333.33500000000004,53.299,53.299,48.538,48.538,34.0,-22.715,24.86,-29.25,29.53,0.0,1783.305,-0.5949999999999989,100.0,27.15,27.163,42.108000000000004,42.25,0.0,1.0,100.0,0.0,0.0,0.0,0.0,3113.4285714285716,2973.0,4185.125,4165.2,305.465,305.23533333333336,314.6976666666667,314.4835,21.907,20.5744,21.9396,21.4439,314.999998,314.999998,324.999988,324.999988,99.55952857142857,99.50721666666666,99.56948571428572,99.54775714285714,0.10633333333333361,-0.01633333333333331,-0.1075,0.1246666666666667,-0.03999999999999915,-0.05666666666667197,1.504,1.5085,37.919,29.590333333333334,38.123000000000005,35.024,56.309,34.882,60.329499999999996,52.747,54.230000000000004,34.028999999999996,58.919,51.036,53.393,33.5815,58.8705,50.42033333333333,-0.127,-0.020999999999999908,0.10371000000000001,0.11110500000000001,0.0,208.46,208.47,205.31666666666666,205.31666666666666,0.0,0.0
14,0.0,1.0,0.0,1.0,1.0,0.0,0.0,1.0,0.0,100.0,1.0,1.1856,26.0,0.0,0.0,0.0,59.999996,0.0,26.0,26.0,26.0,26.0,0.04733333333333323,0.2854000000000001,-0.007233333333333333,293.518,-2.7135,-2.711222222222222,-1.5639,-1.5324,-229.4,215.5025,190.707875,0.0,0.0,0.0,0.0,0.0285,-5.498166666666667,-5.498166666666667,-0.551,-0.10399999999999998,0.02024999999999988,-0.345,66.711,0.02059999999999995,-0.2252,-0.484,100.0,1.0,1.0,205.87333333333333,0.0,0.0,0.0,0.0,0.0,0.0,0.0,8726.2,0.0,55.0,5.0,240.13,0.0,0.0,0.0,0.0,0.0,0.0,1.0,0.0,0.7079999999999984,0.7079999999999984,0.0,0.0,0.0,55.0,616.79921,10000.0,85.000001,85.000001,85.000001,85.000001,395.0,0.0,0.0,0.0,1.0,166.665,53.207,53.207,48.843,48.843,34.0,-22.6875,24.862000000000002,-26.60333333333333,28.2975,0.0,1783.253,-0.4400000000000013,100.0,27.178,27.343,42.071,42.366,0.0,1.0,100.0,0.0,0.0,0.0,0.0,3070.714285714286,3009.0,3989.5,4029.1000000000004,305.6085,305.059,315.17533333333336,314.83925,21.9171,20.5801,21.9508,21.4535,314.999998,314.999998,324.999988,324.999988,99.55952857142857,99.50721666666666,99.56962857142857,99.54791428571428,0.10099999999999998,-0.03066666666666662,-0.09366666666666668,0.1303333333333332,-0.04999999999999716,-0.046666666666666856,1.558,1.546,37.982,29.625666666666667,38.192,35.0845,56.295,34.921,60.365,52.8095,54.217,34.065,58.952,51.096666666666664,53.379000000000005,33.616,58.9,50.47966666666667,-0.11199999999999988,-0.040999999999999925,0.10882000000000001,0.10022,0.0,208.92000000000002,208.94,205.87333333333333,205.87333333333333,0.0,0.0
15,0.0,1.0,0.0,1.0,1.0,0.0,0.0,1.0,0.0,100.0,1.0,1.1856,26.0,0.0,0.0,0.0,59.999996,0.0,26.0,26.0,26.0,26.0,0.03644444444444428,0.29510000000000014,0.016366666666666665,293.335,-2.706,-2.6253333333333333,-1.5759,-1.4849999999999999,-226.39,215.4875,190.688875,0.0,0.0,0.0,0.0,0.03026666666666667,-5.498166666666667,-5.498166666666667,-0.5459,0.2693333333333332,0.03699999999999992,1.089,66.839,0.027800000000000047,-0.21432500000000002,-0.5279999999999987,100.0,1.0,1.0,206.21666666666667,0.0,0.0,0.0,0.0,0.0,0.0,0.0,8740.7,0.0,55.0,5.0,240.59,1.0,0.0,0.0,0.0,0.0,0.0,1.0,0.0,0.7530000000000001,0.7530000000000001,0.0,0.0,1.0,55.0,616.79921,10000.0,85.000001,85.000001,85.000001,85.000001,395.0,0.0,0.0,0.0,1.0,333.33500000000004,53.116,53.116,48.737,48.737,34.0,-21.4525,26.194000000000003,-25.83333333333333,31.035,0.0,1783.205,-0.36499999999999844,100.0,27.365,27.247,41.992000000000004,42.28,0.0,1.0,100.0,0.0,0.0,0.0,0.0,2948.285714285714,3182.9,3994.75,4273.1,305.7685,304.745,315.1073333333333,314.3435,21.9255,20.5849,21.96,21.4615,314.999998,314.999998,324.999988,324.999988,99.55954285714286,99.50721666666666,99.56977142857143,99.54804285714286,0.10966666666666658,-0.013666666666666605,-0.07200000000000001,0.15549999999999997,-0.05333333333332746,-0.06499999999999773,1.5503333333333333,1.5190000000000001,38.035,29.655666666666665,38.25,35.1345,56.282,34.9555,60.396,52.8655,54.205,34.097,58.981,51.150666666666666,53.366,33.647,58.926,50.532666666666664,-0.10050000000000003,-0.040000000000000036,0.10532000000000001,0.107035,0.0,209.32999999999998,209.35500000000002,206.21666666666667,206.21666666666667,0.0,0.0
16,0.0,1.0,0.0,1.0,1.0,0.0,0.0,1.0,0.0,100.0,1.0,1.1856,26.0,0.0,0.0,0.0,59.999996,0.0,26.0,26.0,26.0,26.0,0.03699999999999992,0.2741,0.014933333333333335,293.32,-2.7742,-2.6275555555555554,-1.5598,-1.5391,-222.78,215.4725,190.665875,0.0,0.0,0.0,0.0,0.03236666666666667,-5.498166666666667,-5.498166666666667,-0.5524,-0.495,0.03275000000000006,0.21299999999999997,66.991,0.02629999999999999,-0.21960000000000002,-0.3360000000000003,100.0,1.0,1.0,206.64666666666668,0.0,0.0,0.0,0.0,0.0,0.0,0.0,8759.0,0.0,55.0,5.0,241.14,0.0,0.0,0.0,0.0,0.0,0.0,1.0,0.0,0.8069999999999986,0.8069999999999986,0.0,0.0,0.0,55.0,616.79921,10000.0,85.000001,85.000001,85.000001,85.000001,395.0,0.0,0.0,0.0,1.0,166.665,53.268,53.268,48.355000000000004,48.355000000000004,34.0,-22.335,26.09,-26.409999999999997,30.545,0.0,1783.153,-0.35999999999999943,100.0,27.026,27.267,42.231,42.514,0.0,1.0,100.0,0.0,0.0,0.0,0.0,2978.857142857143,3188.6,4019.375,4168.4,305.789,304.75166666666667,315.023,314.50425,21.9355,20.5906,21.9712,21.4712,314.999998,314.999998,324.999988,324.999988,99.55955714285714,99.50723333333333,99.56991428571429,99.54818571428571,0.10633333333333361,-0.01733333333333331,-0.08116666666666668,0.14600000000000013,-0.036666666666668846,-0.054999999999999716,1.5266666666666666,1.51,38.097,29.691333333333333,38.32,35.195,56.266999999999996,34.9925,60.431,52.9255,54.19,34.1315,59.013,51.208666666666666,53.351,33.68,58.955,50.589666666666666,-0.09599999999999986,-0.04600000000000026,0.10817500000000001,0.10921000000000002,0.0,209.78,209.805,206.64666666666668,206.64666666666668,0.0,0.0
17,0.0,1.0,0.0,1.0,1.0,0.0,0.0,1.0,0.0,100.0,1.0,1.1856,26.0,0.0,0.0,0.0,59.999996,0.0,26.0,26.0,26.0,26.0,0.023777777777777898,0.2865,-0.0018333333333333333,293.243,-2.7323,-2.616,-1.5972,-1.5057,-219.56,215.4625,190.64525,0.0,0.0,0.0,0.0,0.03423333333333333,-5.498166666666667,-5.498166666666667,-0.5531,0.19599999999999995,0.006999999999999895,0.30199999999999994,67.125,0.02069999999999994,-0.21215,-0.32200000000000095,100.0,1.0,1.0,207.10666666666668,0.0,0.0,0.0,0.0,0.0,0.0,0.0,8778.4,0.0,55.0,5.0,241.62,1.0,0.0,0.0,0.0,0.0,0.0,1.0,0.0,0.8550000000000004,0.8550000000000004,0.0,0.0,1.0,55.0,616.79921,10000.0,85.000001,85.000001,85.000001,85.000001,395.0,0.0,0.0,0.0,1.0,166.665,53.07,53.07,48.507999999999996,48.507999999999996,34.0,-22.5475,25.704,-27.333333333333336,30.085,0.0,1783.106,-0.35999999999999943,100.0,27.349,27.372,42.14,42.431,0.0,1.0,100.0,0.0,0.0,0.0,0.0,3048.0,3135.5,4115.875,4145.9,305.5665,304.95666666666665,314.87533333333334,314.64675,21.9444,20.5957,21.981099999999998,21.4797,314.999998,314.999998,324.999988,324.999988,99.55957142857143,99.50723333333333,99.57004285714285,99.54832857142857,0.1073333333333335,-0.01100000000000001,-0.078,0.15416666666666679,-0.01999999999999602,-0.07333333333333059,1.55,1.536,38.153,29.723333333333336,38.382,35.248,56.254999999999995,35.028,60.4615,52.980000000000004,54.179,34.164,59.042,51.260999999999996,53.338,33.711,58.981,50.641,-0.10599999999999987,-0.0405000000000002,0.10866500000000001,0.11796500000000001,0.0,210.2,210.245,207.10666666666668,207.10666666666668,0.0,0.0
18,0.0,1.0,0.0,1.0,1.0,0.0,0.0,1.0,0.0,100.0,1.0,1.1856,26.0,0.0,0.0,0.0,59.999996,0.0,26.0,26.0,26.0,26.0,0.025666666666666726,0.28100000000000014,0.0053,293.106,-2.7444,-2.609,-1.5872000000000002,-1.4696,-216.13,215.45,190.623125,0.0,0.0,0.0,0.0,0.0362,-5.498166666666667,-5.498166666666667,-0.558,-0.397,0.0058749999999998526,-0.4850000000000001,67.268,0.01649999999999996,-0.21605000000000002,-0.16000000000000014,100.0,1.0,1.0,207.48666666666668,0.0,0.0,0.0,0.0,0.0,0.0,0.0,8794.6,0.0,55.0,5.0,242.13666666666666,0.0,0.0,0.0,0.0,0.0,0.0,1.0,0.0,0.9059999999999988,0.9059999999999988,0.0,0.0,0.0,55.0,616.79921,10000.0,85.000001,85.000001,85.000001,85.000001,395.0,0.0,0.0,0.0,1.0,166.665,53.055,53.055,48.325,48.325,34.0,-24.02,24.762,-28.883333333333333,28.4325,0.0,1783.054,-0.3200000000000003,100.0,27.183,27.392,42.272,42.687,0.0,1.0,100.0,0.0,0.0,0.0,0.0,3161.714285714286,3090.9,4176.5,4157.4,305.421,304.9483333333333,314.77633333333335,314.56275,21.9538,20.6011,21.9917,21.4888,314.999998,314.999998,324.999988,324.999988,99.55957142857143,99.50723333333333,99.57018571428571,99.54845714285715,0.09366666666666656,-0.026666666666666616,-0.09933333333333333,0.12766666666666682,-0.04333333333332945,-0.05333333333332746,1.5153333333333334,1.532,38.211,29.756666666666668,38.448,35.3055,56.241,35.064,60.497,53.039500000000004,54.165,34.1975,59.0745,51.318333333333335,53.324,33.743,59.0105,50.69733333333333,-0.09650000000000003,-0.04300000000000015,0.10708000000000001,0.10562,0.0,210.655,210.64499999999998,207.48666666666668,207.48666666666668,0.0,0.0
19,0.0,1.0,0.0,1.0,1.0,0.0,0.0,1.0,0.0,100.0,1.0,1.1856,26.0,0.0,0.0,0.0,59.999996,0.0,26.0,26.0,26.0,26.0,0.006444444444444475,0.2863,0.05163333333333334,292.633,-2.6618,-2.599,-1.6016,-1.4571,-212.89999999999998,215.44,190.601875,0.0,0.0,0.0,0.0,0.0381,-5.498166666666667,-5.498166666666667,-0.5608000000000001,0.5896666666666668,0.011500000000000066,-0.45999999999999996,67.4,0.016100000000000003,-0.217175,-0.18599999999999994,100.0,1.0,1.0,207.93333333333334,0.0,0.0,0.0,0.0,0.0,0.0,0.0,8813.5,0.0,55.0,5.0,242.61333333333334,1.0,0.0,0.0,0.0,0.0,0.0,1.0,0.0,0.9540000000000006,0.9540000000000006,0.0,0.0,1.0,55.0,616.79921,10000.0,85.000001,85.000001,85.000001,85.000001,395.0,0.0,0.0,0.0,1.0,166.665,52.032,52.032,48.37,48.37,34.0,-24.7175,25.658,-29.206666666666663,27.79,0.0,1783.007,-0.245000000000001,100.0,27.756,27.806,42.207,42.64,0.0,1.0,100.0,0.0,0.0,0.0,0.0,3272.142857142857,3248.6,4171.5,4200.4,304.8955,304.37466666666666,314.8283333333333,314.50775,21.9628,20.6063,22.0015,21.4974,314.999998,314.999998,324.999988,324.999988,99.5596,99.50723333333333,99.57031428571429,99.5486,0.08733333333333348,-0.03966666666666663,-0.105,0.11283333333333334,-0.05833333333333002,-0.046666666666666856,1.5366666666666666,1.53,38.268,29.78933333333333,38.509,35.3585,56.229,35.1005,60.5275,53.094,54.153999999999996,34.231,59.103,51.371,53.312,33.7755,59.036,50.749,-0.09149999999999991,-0.0535000000000001,0.10938,0.09857,0.0,211.075,211.07999999999998,207.93333333333334,207.93333333333334,0.0,0.0
20,0.0,1.0,0.0,1.0,1.0,0.0,0.0,1.0,0.0,100.0,1.0,1.1856,26.0,0.0,0.0,0.0,59.999996,0.0,26.0,26.0,26.0,26.0,0.015333333333333421,0.2884,0.07333333333333333,292.572,-2.7521,-2.664777777777778,-1.5291000000000001,-1.5794,-209.45999999999998,215.43,190.579625,0.0,0.0,0.0,0.0,0.040100000000000004,-5.498166666666667,-5.498166666666667,-0.5464,-0.5443333333333333,0.016000000000000014,0.8220000000000001,67.544,0.015700000000000047,-0.2136,-0.20599999999999952,100.0,1.0,1.0,208.19,0.0,0.0,0.0,0.0,0.0,0.0,0.0,8824.4,0.0,55.0,5.0,243.13333333333333,0.0,0.0,0.0,0.0,0.0,0.0,0.0,0.0,1.004999999999999,1.004999999999999,0.0,0.0,0.0,55.0,616.79921,10000.0,85.000001,85.000001,85.000001,85.000001,395.0,0.0,0.0,0.0,1.0,333.33500000000004,53.055,53.055,47.333,47.333,34.0,-22.115,24.794,-28.519999999999996,32.792500000000004,0.0,1782.955,-0.22499999999999787,100.0,27.637,27.57,42.914,43.045,0.0,1.0,100.0,0.0,0.0,0.0,0.0,2933.0,3092.7,4255.125,4419.6,305.8935,305.03866666666664,314.413,313.8185,21.9722,20.6117,22.0122,21.5067,314.999998,314.999998,324.999988,324.999988,99.55961428571429,99.50723333333333,99.57047142857142,99.54874285714286,0.09866666666666646,-0.03533333333333333,-0.08650000000000001,0.1273333333333333,-0.051666666666669414,-0.045000000000001705,1.4556666666666667,1.447,38.326,29.823,38.576,35.4165,56.215,35.138,60.564,53.1555,54.14,34.266,59.137,51.43,53.297,33.809,59.067,50.807,-0.09399999999999986,-0.05750000000000011,0.10611500000000001,0.10380500000000001,0.0,211.495,211.51999999999998,208.19,208.19,0.0,0.0
21,0.0,1.0,0.0,1.0,1.0,0.0,0.0,1.0,0.0,100.0,1.0,1.1856,26.0,0.0,0.0,0.0,59.999996,0.0,26.0,26.0,26.0,26.0,0.014888888888888951,0.2811000000000001,-0.05303333333333334,293.228,-2.6782,-2.712777777777778,-1.6078999999999999,-1.5314999999999999,-206.22,215.42000000000002,190.558625,0.0,0.0,0.0,0.0,0.04196666666666667,-5.498166666666667,-5.498166666666667,-0.5741,-0.21266666666666656,0.007624999999999993,0.353,67.673,0.010900000000000132,-0.22920000000000001,-0.1739999999999995,100.0,1.0,1.0,208.83333333333331,0.0,0.0,0.0,0.0,0.0,0.0,0.0,8851.7,0.0,55.0,5.0,243.59333333333336,1.0,0.0,0.0,0.0,0.0,0.0,0.0,0.0,1.0530000000000008,1.0530000000000008,0.0,0.0,1.0,55.0,616.79921,10000.0,85.000001,85.000001,85.000001,85.000001,395.0,0.0,0.0,0.0,1.0,166.665,53.04,53.04,48.66,48.66,34.0,-22.2075,24.982,-26.366666666666667,27.815,0.0,1782.908,-0.2699999999999996,100.0,27.587,27.472,42.632,42.861000000000004,0.0,1.0,100.0,0.0,0.0,0.0,0.0,3023.285714285714,3054.2,3935.0,3991.5,305.6265,305.1236666666667,315.31533333333334,314.99525,21.981,20.6168,22.022,21.5152,314.999998,314.999998,324.999988,324.999988,99.55961428571429,99.50725,99.5706,99.54888571428572,0.0993333333333335,-0.03366666666666662,-0.08716666666666667,0.1306666666666667,-0.03499999999999659,-0.07000000000000028,1.5779999999999998,1.581,38.382,29.855,38.637,35.47,56.201,35.1735,60.5935,53.2085,54.126999999999995,34.298500000000004,59.164500000000004,51.48133333333333,53.283,33.84,59.092,50.85733333333333,-0.09699999999999998,-0.05149999999999988,0.10284000000000001,0.10646000000000001,0.0,211.885,211.92000000000002,208.83333333333331,208.83333333333331,0.0,0.0
22,0.0,1.0,0.0,1.0,1.0,0.0,0.0,1.0,0.0,100.0,1.0,1.1856,26.0,0.0,0.0,0.0,59.999996,0.0,26.0,26.0,26.0,26.0,0.033222222222222264,0.2741,-0.0027,292.892,-2.6795999999999998,-2.720666666666667,-1.5927,-1.569,-202.76,215.41,190.53525,0.0,0.0,0.0,0.0,0.044000000000000004,-5.498166666666667,-5.498166666666667,-0.5619000000000001,0.41966666666666685,0.007500000000000062,-0.43599999999999994,67.814,0.008000000000000007,-0.2028,-0.11399999999999899,100.0,1.0,1.0,209.18,0.0,0.0,0.0,0.0,0.0,0.0,0.0,8866.3,0.0,55.0,5.0,244.10000000000002,0.0,0.0,0.0,0.0,0.0,0.0,0.0,0.0,1.1039999999999992,1.1039999999999992,0.0,0.0,0.0,55.0,616.79921,10000.0,85.000001,85.000001,85.000001,85.000001,395.0,0.0,0.0,0.0,1.0,333.33500000000004,52.902,52.902,48.004,48.004,34.0,-22.8025,24.448,-29.82666666666666,28.5825,0.0,1782.856,-0.34499999999999886,100.0,27.629,27.754,42.489000000000004,42.849000000000004,0.0,1.0,100.0,0.0,0.0,0.0,0.0,3069.714285714286,2983.6,4228.5,4095.4,305.6025,305.175,314.68266666666665,314.71375,21.9905,20.6223,22.0325,21.5243,314.999998,314.999998,324.999988,324.999988,99.55962857142858,99.50725,99.57074285714286,99.54902857142856,0.09233333333333338,-0.03700000000000003,-0.10833333333333334,0.11299999999999999,-0.030000000000001137,-0.046666666666666856,1.5263333333333335,1.529,38.441,29.889,38.703,35.5265,56.188,35.211,60.626999999999995,53.266,54.114999999999995,34.333,59.195499999999996,51.537,53.269999999999996,33.8735,59.12,50.91166666666666,-0.10699999999999998,-0.04600000000000026,0.10280500000000001,0.108475,0.0,212.35500000000002,212.365,209.18,209.18,0.0,0.0
23,0.0,1.0,0.0,1.0,1.0,0.0,0.0,1.0,0.0,100.0,1.0,1.1856,26.0,0.0,0.0,0.0,59.999996,0.0,26.0,26.0,26.0,26.0,0.025222222222222257,0.26170000000000004,-0.03156666666666667,292.755,-2.763,-2.669888888888889,-1.5514000000000001,-1.5817,-199.3,215.4,190.511875,0.0,0.0,0.0,0.0,0.046,-5.498166666666667,-5.498166666666667,-0.5694,-0.478,0.015249999999999986,0.517,67.953,0.009100000000000108,-0.2197,-0.24600000000000044,100.0,1.0,1.0,209.58333333333331,0.0,0.0,0.0,0.0,0.0,0.0,0.0,8883.5,0.0,55.0,5.0,244.60333333333335,1.0,0.0,0.0,0.0,0.0,0.0,0.0,0.0,1.1550000000000011,1.1550000000000011,0.0,0.0,1.0,55.0,616.79921,10000.0,85.000001,85.000001,85.000001,85.000001,395.0,0.0,0.0,0.0,1.0,333.33500000000004,52.719,52.719,48.019,48.019,34.0,-23.16,25.65,-26.46666666666666,30.57,0.0,1782.804,-0.3249999999999993,100.0,27.711,27.707,42.927,43.137,0.0,1.0,100.0,0.0,0.0,0.0,0.0,3049.142857142857,3152.1,3983.125,4161.3,305.6385,304.877,315.119,314.569,21.9999,20.6278,22.0431,21.5336,314.999998,314.999998,324.999988,324.999988,99.55964285714286,99.50726666666667,99.57088571428571,99.54917142857143,0.0983333333333336,-0.029000000000000026,-0.08933333333333333,0.13583333333333325,-0.03333333333333144,-0.060000000000002274,1.5226666666666666,1.5045,38.5,29.923666666666666,38.769,35.585,56.174,35.249,60.6625,53.326499999999996,54.102000000000004,34.368,59.228,51.595,53.254999999999995,33.907,59.1495,50.968666666666664,-0.10250000000000004,-0.04899999999999993,0.10016000000000001,0.11379500000000001,0.0,212.755,212.78,209.58333333333331,209.58333333333331,0.0,0.0
24,0.0,1.0,0.0,1.0,1.0,0.0,0.0,1.0,0.0,100.0,1.0,1.1856,26.0,0.0,0.0,0.0,59.999996,0.0,26.0,26.0,26.0,26.0,0.012555555555555653,0.27670000000000017,-0.05316666666666667,292.923,-2.6895,-2.6884444444444444,-1.6277,-1.5319,-196.03,215.39249999999998,190.48975,0.0,0.0,0.0,0.0,0.047900000000000005,-5.498166666666667,-5.498166666666667,-0.5810000000000001,-0.136,0.015249999999999986,0.8049999999999999,68.083,0.011400000000000077,-0.221,-0.25399999999999956,100.0,1.0,1.0,210.03333333333333,0.0,0.0,0.0,0.0,0.0,0.0,0.0,8902.6,0.0,55.0,5.0,245.07,0.0,0.0,0.0,0.0,0.0,0.0,0.0,0.0,1.2029999999999994,1.2029999999999994,0.0,0.0,0.0,55.0,616.79921,10000.0,85.000001,85.000001,85.000001,85.000001,395.0,0.0,0.0,0.0,1.0,333.33500000000004,52.902,52.902,48.431,48.431,34.0,-22.2525,24.644,-27.89666666666666,29.2975,0.0,1782.757,-0.370000000000001,100.0,27.873,27.557,42.766,43.107,0.0,1.0,100.0,0.0,0.0,0.0,0.0,3018.714285714286,3026.0,4069.875,4098.8,305.6025,305.236,315.06166666666667,314.773,22.0089,20.6329,22.053,21.5422,314.999998,314.999998,324.999988,324.999988,99.55965714285715,99.50726666666667,99.57102857142857,99.54931428571429,0.10133333333333372,-0.02966666666666662,-0.09016666666666667,0.13916666666666666,-0.04333333333332945,-0.046666666666666856,1.5586666666666666,1.5405,38.555,29.955333333333336,38.831,35.6385,56.162,35.284,60.693,53.3805,54.09,34.4005,59.2565,51.647666666666666,53.242999999999995,33.938,59.175,51.019999999999996,-0.10050000000000003,-0.045500000000000096,0.10723,0.11171500000000001,0.0,213.16500000000002,213.175,210.03333333333333,210.03333333333333,0.0,0.0
25,0.0,1.0,0.0,1.0,1.0,0.0,0.0,1.0,0.0,100.0,1.0,1.1856,26.0,0.0,0.0,0.0,59.999996,0.0,26.0,26.0,26.0,26.0,0.023222222222222255,0.2804,-0.05803333333333334,293.015,-2.7611,-2.650444444444444,-1.5721,-1.5217,-192.35,215.385,190.463625,0.0,0.0,0.0,0.0,0.05003333333333333,-5.498166666666667,-5.498166666666667,-0.6017,-0.32833333333333337,0.028999999999999915,0.608,68.229,0.016900000000000137,-0.219275,-0.3699999999999992,100.0,1.0,1.0,210.48333333333335,0.0,0.0,0.0,0.0,0.0,0.0,0.0,8921.6,0.0,55.0,5.0,245.59666666666666,1.0,0.0,0.0,0.0,0.0,0.0,0.0,0.0,1.256999999999998,1.256999999999998,0.0,0.0,1.0,55.0,616.79921,10000.0,85.000001,85.000001,85.000001,85.000001,395.0,0.0,0.0,0.0,1.0,166.665,52.948,52.948,48.126,48.126,34.0,-22.58,26.046,-26.54,29.080000000000002,0.0,1782.704,-0.33999999999999986,100.0,27.48,27.512999999999998,42.724000000000004,42.897,0.0,1.0,100.0,0.0,0.0,0.0,0.0,3011.857142857143,3203.5,3975.25,4078.5,305.761,304.7083333333333,315.178,314.826,22.0187,20.6386,22.0641,21.5518,314.999998,314.999998,324.999988,324.999988,99.55965714285715,99.50726666666667,99.57117142857143,99.54945714285714,0.10366666666666635,-0.027666666666666617,-0.08983333333333333,0.14183333333333326,-0.05833333333333002,-0.05833333333333002,1.5546666666666666,1.545,38.617000000000004,29.991333333333333,38.9,35.699,56.146,35.323,60.728,53.441,54.075,34.4365,59.289500000000004,51.705666666666666,53.226,33.9725,59.204,51.077,-0.10399999999999987,-0.04999999999999982,0.11420500000000001,0.107325,0.0,213.615,213.63,210.48333333333335,210.48333333333335,0.0,0.0
26,0.0,1.0,0.0,1.0,1.0,0.0,0.0,1.0,0.0,100.0,1.0,1.1856,26.0,0.0,0.0,0.0,59.999996,0.0,26.0,26.0,26.0,26.0,0.027555555555555777,0.2821,0.05153333333333334,292.114,-2.6919,-2.6386666666666665,-1.6108,-1.5231,-189.07,215.3775,190.43975,0.0,0.0,0.0,0.0,0.05193333333333334,-5.498166666666667,-5.498166666666667,-0.5851000000000001,0.7650000000000001,0.01662499999999989,0.46699999999999997,68.35900000000001,0.019400000000000084,-0.20285,-0.33999999999999986,100.0,1.0,1.0,210.7866666666667,0.0,0.0,0.0,0.0,0.0,0.0,0.0,8934.5,0.0,55.0,5.0,246.06333333333333,0.0,0.0,0.0,0.0,0.0,0.0,0.0,0.0,1.3049999999999997,1.3049999999999997,0.0,0.0,0.0,55.0,616.79921,10000.0,85.000001,85.000001,85.000001,85.000001,395.0,0.0,0.0,0.0,1.0,166.665,51.743,51.743,47.684,47.684,34.0,-23.2725,27.208,-28.949999999999996,31.6225,0.0,1782.656,-0.3550000000000004,100.0,28.244,28.128,42.699,42.949,0.0,1.0,100.0,0.0,0.0,0.0,0.0,3176.857142857143,3316.3,4245.25,4328.0,305.097,304.347,314.65066666666667,314.225,22.0277,20.644,22.073999999999998,21.5605,314.999998,314.999998,324.999988,324.999988,99.55967142857143,99.50728333333333,99.57131428571428,99.5496,0.11066666666666647,-0.023333333333333317,-0.0815,0.1423333333333332,-0.04833333333333201,-0.05833333333333002,1.4926666666666666,1.4775,38.673,30.025,38.962,35.753,56.135999999999996,35.3605,60.7595,53.496,54.065,34.4715,59.318,51.759,53.215,34.006,59.230000000000004,51.129333333333335,-0.10749999999999993,-0.052000000000000046,0.10256000000000001,0.10814000000000001,0.0,214.035,214.075,210.7866666666667,210.7866666666667,0.0,0.0
27,0.0,1.0,0.0,1.0,1.0,0.0,0.0,1.0,0.0,100.0,1.0,1.1856,26.0,0.0,0.0,0.0,59.999996,0.0,26.0,26.0,26.0,26.0,0.025666666666666726,0.27500000000000013,0.0391,291.977,-2.7085,-2.667,-1.5815000000000001,-1.6053,-185.79,215.3725,190.416625,0.0,0.0,0.0,0.0,0.05386666666666667,-5.498166666666667,-5.498166666666667,-0.5838,-0.7556666666666667,0.022750000000000048,1.024,68.489,0.02080000000000015,-0.223725,-0.33200000000000074,100.0,1.0,1.0,211.08666666666667,0.0,0.0,0.0,0.0,0.0,0.0,0.0,8947.2,0.0,55.0,5.0,246.53333333333336,1.0,0.0,0.0,0.0,0.0,0.0,0.0,0.0,1.352999999999998,1.352999999999998,0.0,0.0,1.0,55.0,616.79921,10000.0,85.000001,85.000001,85.000001,85.000001,395.0,0.0,0.0,0.0,1.0,333.33500000000004,52.382999999999996,52.382999999999996,47.043,47.043,34.0,-21.7525,25.77,-29.106666666666662,33.07,0.0,1782.607,-0.375,100.0,28.192,28.073,43.51,43.689,0.0,1.0,100.0,0.0,0.0,0.0,0.0,3010.714285714286,3157.0,4221.0,4372.8,305.624,304.951,314.5246666666667,313.97625,22.0365,20.6492,22.0841,21.5694,314.999998,314.999998,324.999988,324.999988,99.55968571428572,99.50728333333333,99.57144285714286,99.54974285714286,0.1160000000000001,-0.024333333333333318,-0.08866666666666667,0.1343333333333332,-0.02833333333332888,-0.06666666666666998,1.4606666666666666,1.464,38.727999999999994,30.057666666666666,39.025,35.8085,56.123999999999995,35.396,60.7945,53.5545,54.053,34.504,59.351,51.815,53.203,34.037,59.2595,51.184,-0.10999999999999988,-0.05149999999999988,0.10615500000000001,0.108075,0.0,214.4,214.435,211.08666666666667,211.08666666666667,0.0,0.0
28,0.0,1.0,0.0,1.0,1.0,0.0,0.0,1.0,0.0,100.0,1.0,1.1856,26.0,0.0,0.0,0.0,59.999996,0.0,26.0,26.0,26.0,26.0,0.02288888888888896,0.2783,-0.04833333333333333,292.496,-2.7295,-2.6582222222222223,-1.5825,-1.542,-182.09,215.3675,190.390375,0.0,0.0,0.0,0.0,0.056,-5.498166666666667,-5.498166666666667,-0.6088,0.238,0.016750000000000043,0.251,68.629,0.019100000000000117,-0.22985,-0.3260000000000005,100.0,1.0,1.0,211.74666666666667,0.0,0.0,0.0,0.0,0.0,0.0,0.0,8975.2,0.0,55.0,5.0,247.04000000000002,0.0,0.0,0.0,0.0,0.0,0.0,0.0,0.0,1.407,1.407,0.0,0.0,0.0,55.0,616.79921,10000.0,85.000001,85.000001,85.000001,85.000001,395.0,0.0,0.0,0.0,1.0,166.665,52.2,52.2,48.096000000000004,48.096000000000004,34.0,-22.8275,26.427999999999997,-25.880000000000003,28.88,0.0,1782.554,-0.4349999999999987,100.0,28.092,28.133,43.022999999999996,43.336,0.0,1.0,100.0,0.0,0.0,0.0,0.0,3117.285714285714,3200.7,3935.75,4068.7,305.385,304.68333333333334,315.306,314.847,22.0463,20.6552,22.0951,21.579,314.999998,314.999998,324.999988,324.999988,99.5597,99.5073,99.5716,99.54988571428571,0.11466666666666647,-0.021333333333333315,-0.0815,0.13516666666666666,-0.03999999999999915,-0.05333333333332746,1.566,1.565,38.789,30.094666666666665,39.094,35.869,56.111000000000004,35.4365,60.827,53.6135,54.04,34.542,59.381,51.87233333333333,53.189,34.073499999999996,59.286,51.24,-0.11349999999999993,-0.04249999999999998,0.10504000000000001,0.10708000000000001,0.0,214.85500000000002,214.89499999999998,211.74666666666667,211.74666666666667,0.0,0.0
29,0.0,1.0,0.0,1.0,1.0,0.0,0.0,1.0,0.0,100.0,1.0,1.1856,26.0,0.0,0.0,0.0,59.999996,0.0,26.0,26.0,26.0,26.0,0.04044444444444428,0.27470000000000017,-0.006200000000000001,292.236,-2.745,-2.624111111111111,-1.5963,-1.5461,-178.79,215.3625,190.366,0.0,0.0,0.0,0.0,0.05793333333333334,-5.498166666666667,-5.498166666666667,-0.5964,-0.29633333333333334,0.006124999999999936,0.773,68.76,0.02100000000000013,-0.203825,-0.42600000000000016,100.0,1.0,1.0,211.95,0.0,0.0,0.0,0.0,0.0,0.0,0.0,8983.8,0.0,55.0,5.0,247.50666666666666,1.0,0.0,0.0,0.0,0.0,0.0,0.0,0.0,1.4549999999999983,1.4549999999999983,0.0,0.0,1.0,55.0,616.79921,10000.0,85.000001,85.000001,85.000001,85.000001,395.0,0.0,0.0,0.0,1.0,333.33500000000004,52.719,52.719,46.997,46.997,34.0,-21.5875,25.985999999999997,-29.64333333333333,32.2175,0.0,1782.504,-0.4549999999999983,100.0,27.878,27.855,43.216,43.434,0.0,1.0,100.0,0.0,0.0,0.0,0.0,2979.0,3179.1,4307.0,4322.2,305.7905,304.8736666666667,314.4003333333333,314.23275,22.055,20.6603,22.105,21.587699999999998,314.999998,314.999998,324.999988,324.999988,99.55971428571429,99.5073,99.57174285714285,99.55002857142857,0.11966666666666637,-0.015666666666666607,-0.08483333333333333,0.14600000000000013,-0.046666666666666856,-0.05333333333332746,1.4816666666666667,1.4615,38.844,30.127000000000002,39.156,35.9235,56.098,35.471000000000004,60.8595,53.669,54.028,34.573499999999996,59.411500000000004,51.925666666666665,53.176,34.104,59.3135,51.29233333333333,-0.12050000000000005,-0.040999999999999925,0.11385,0.11071500000000001,0.0,215.25,215.285,211.95,211.95,0.0,0.0
30,0.0,1.0,0.0,1.0,1.0,0.0,0.0,1.0,0.0,100.0,1.0,1.1856,26.0,0.0,0.0,0.0,59.999996,0.0,26.0,26.0,26.0,26.0,0.039111111111111097,0.2862,-0.035,292.068,-2.7791,-2.7236666666666665,-1.5474,-1.4931999999999999,-175.28,215.36,190.339875,0.0,0.0,0.0,0.0,0.05996666666666667,-5.498166666666667,-5.498166666666667,-0.6157,0.06099999999999994,0.006624999999999881,-0.552,68.893,0.025800000000000045,-0.22432500000000002,-0.47199999999999953,100.0,1.0,1.0,212.44333333333333,0.0,0.0,0.0,0.0,0.0,0.0,0.0,9004.7,0.0,55.0,5.0,247.99,0.0,0.0,0.0,0.0,0.0,0.0,1.0,0.0,1.5060000000000002,1.5060000000000002,0.0,0.0,0.0,55.0,616.79921,10000.0,85.000001,85.000001,85.000001,85.000001,395.0,0.0,0.0,0.0,1.0,166.665,51.894999999999996,51.894999999999996,47.867,47.867,34.0,-25.11,26.724,-26.836666666666666,29.9925,0.0,1782.454,-0.46000000000000085,100.0,28.159,28.362000000000002,43.109,43.608000000000004,0.0,1.0,100.0,0.0,0.0,0.0,0.0,3333.142857142857,3176.5,4067.25,4253.7,305.0325,304.7873333333333,315.0176666666667,314.405,22.0643,20.666,22.1155,21.597,314.999998,314.999998,324.999988,324.999988,99.55972857142856,99.5073,99.57188571428571,99.55018571428572,0.10866666666666669,-0.021666666666666612,-0.08633333333333333,0.13516666666666666,-0.05666666666667197,-0.046666666666666856,1.5266666666666666,1.526,38.902,30.162666666666667,39.222,35.981,56.087,35.5095,60.8925,53.727000000000004,54.016999999999996,34.609,59.4415,51.982,53.164,34.138,59.3405,51.34733333333333,-0.11999999999999988,-0.039000000000000146,0.110365,0.10336000000000001,0.0,215.68,215.7,212.44333333333333,212.44333333333333,0.0,0.0
31,0.0,1.0,0.0,1.0,1.0,0.0,0.0,1.0,0.0,100.0,1.0,1.1856,26.0,0.0,0.0,0.0,59.999996,0.0,26.0,26.0,26.0,26.0,0.03600000000000003,0.27700000000000014,0.04866666666666667,291.397,-2.7782999999999998,-2.684555555555556,-1.6679,-1.6042,-171.76,215.35750000000002,190.313875,0.0,0.0,0.0,0.0,0.062,-5.498166666666667,-5.498166666666667,-0.5845,0.3703333333333332,0.018249999999999877,1.033,69.029,0.028200000000000003,-0.203375,-0.44200000000000017,100.0,1.0,1.0,212.7266666666667,0.0,0.0,0.0,0.0,0.0,0.0,0.0,9016.7,0.0,55.0,5.0,248.47333333333336,1.0,0.0,0.0,0.0,0.0,0.0,1.0,0.0,1.5569999999999986,1.5569999999999986,0.0,0.0,1.0,55.0,616.79921,10000.0,85.000001,85.000001,85.000001,85.000001,395.0,0.0,0.0,0.0,1.0,166.665,51.697,51.697,46.371,46.371,34.0,-22.49,26.595999999999997,-31.226666666666667,34.665,0.0,1782.404,-0.4299999999999997,100.0,28.681,28.685000000000002,43.539,43.938,0.0,1.0,100.0,0.0,0.0,0.0,0.0,3052.714285714286,3200.2,4466.25,4490.3,305.469,304.65933333333334,314.12333333333333,313.94,22.0737,20.6718,22.1261,21.6064,314.999998,314.999998,324.999988,324.999988,99.55974285714285,99.5073,99.57202857142858,99.55032857142857,0.12333333333333352,-0.023666666666666614,-0.07150000000000001,0.14966666666666684,-0.026666666666670835,-0.060000000000002274,1.4683333333333333,1.459,38.961,30.198666666666668,39.288,36.04,56.076,35.5495,60.927,53.787,54.007,34.646,59.474000000000004,52.03966666666666,53.153,34.173,59.3695,51.403999999999996,-0.11349999999999993,-0.04850000000000021,0.104285,0.10347,0.0,216.095,216.14,212.7266666666667,212.7266666666667,0.0,0.0
32,0.0,1.0,0.0,1.0,1.0,0.0,0.0,1.0,0.0,100.0,1.0,1.1856,26.0,0.0,0.0,0.0,59.999996,0.0,26.0,26.0,26.0,26.0,0.04066666666666685,0.2612000000000001,-0.0005333333333333334,291.656,-2.7473,-2.6415555555555557,-1.6693,-1.5847,-168.45,215.35500000000002,190.29025,0.0,0.0,0.0,0.0,0.06393333333333334,-5.498166666666667,-5.498166666666667,-0.6013000000000001,-0.44799999999999995,0.009874999999999856,0.17499999999999993,69.153,0.03049999999999997,-0.232375,-0.49600000000000044,100.0,1.0,1.0,213.2266666666667,0.0,0.0,0.0,0.0,0.0,0.0,0.0,9037.8,0.0,55.0,5.0,248.92333333333335,0.0,0.0,0.0,0.0,0.0,0.0,1.0,0.0,1.6050000000000004,1.6050000000000004,0.0,0.0,0.0,55.0,616.79921,10000.0,85.000001,85.000001,85.000001,85.000001,395.0,0.0,0.0,0.0,1.0,333.33500000000004,51.650999999999996,51.650999999999996,46.768,46.768,34.0,-22.2075,27.118,-28.356666666666662,31.1,0.0,1782.354,-0.46499999999999986,100.0,28.502,28.72,43.870000000000005,44.275999999999996,0.0,1.0,100.0,0.0,0.0,0.0,0.0,3076.5714285714284,3259.6,4088.75,4115.2,305.447,304.51433333333335,314.89566666666667,314.6815,22.0824,20.6772,22.1361,21.6152,314.999998,314.999998,324.999988,324.999988,99.55975714285714,99.50731666666667,99.57217142857142,99.55047142857143,0.12700000000000022,-0.014666666666666606,-0.07683333333333334,0.15149999999999997,-0.045000000000001705,-0.04999999999999716,1.517,1.499,39.015,30.232333333333333,39.351,36.095,56.065,35.586,60.959,53.8435,53.995999999999995,34.68,59.5035,52.094,53.14,34.2055,59.396,51.457,-0.11650000000000005,-0.044500000000000206,0.11222000000000001,0.10418500000000001,0.0,216.46,216.5,213.2266666666667,213.2266666666667,0.0,0.0
33,0.0,1.0,0.0,1.0,1.0,0.0,0.0,1.0,0.0,100.0,1.0,1.1856,26.0,0.0,0.0,0.0,59.999996,0.0,26.0,26.0,26.0,26.0,0.06977777777777794,0.26780000000000004,-0.0344,292.023,-2.6925,-2.6964444444444444,-1.6215000000000002,-1.5725,-164.92000000000002,215.35500000000002,190.264375,0.0,0.0,0.0,0.0,0.066,-5.498166666666667,-5.498166666666667,-0.6131,-0.1143333333333334,-0.006000000000000227,-0.5409999999999999,69.285,0.03259999999999996,-0.222675,-0.43599999999999994,100.0,1.0,1.0,213.64666666666668,0.0,0.0,0.0,0.0,0.0,0.0,0.0,9055.7,0.0,55.0,5.0,249.4,1.0,0.0,0.0,0.0,0.0,0.0,1.0,0.0,1.6559999999999988,1.6559999999999988,0.0,0.0,1.0,55.0,616.79921,10000.0,85.000001,85.000001,85.000001,85.000001,395.0,0.0,0.0,0.0,1.0,166.665,52.231,52.231,47.195,47.195,34.0,-21.48,25.607999999999997,-28.019999999999996,30.72,0.0,1782.305,-0.5150000000000006,100.0,28.231,28.541,43.488,44.047,0.0,1.0,100.0,0.0,0.0,0.0,0.0,3075.857142857143,3049.6,4144.75,4106.3,305.6075,305.01033333333334,314.87166666666667,314.6885,22.0915,20.6828,22.1466,21.6244,314.999998,314.999998,324.999988,324.999988,99.55977142857142,99.50731666666667,99.57231428571428,99.55061428571429,0.12766666666666637,-0.01866666666666661,-0.07866666666666668,0.14983333333333326,-0.054999999999999716,-0.046666666666666856,1.5363333333333333,1.5150000000000001,39.072,30.267333333333333,39.416,36.1525,56.053,35.623,60.991,53.9,53.985,34.714,59.533,52.148666666666664,53.128,34.2385,59.4225,51.510333333333335,-0.12250000000000005,-0.0405000000000002,0.10754000000000001,0.11379000000000002,0.0,216.885,216.9,213.64666666666668,213.64666666666668,0.0,0.0
34,0.0,1.0,0.0,1.0,1.0,0.0,0.0,1.0,0.0,100.0,1.0,1.1856,26.0,0.0,0.0,0.0,59.999996,0.0,26.0,26.0,26.0,26.0,0.06422222222222218,0.27059999999999995,-0.07346666666666667,292.297,-2.7597,-2.615666666666667,-1.5927,-1.5338,-161.59,215.35750000000002,190.238875,0.0,0.0,0.0,0.0,0.06793333333333335,-5.498166666666667,-5.498166666666667,-0.6256,-0.6513333333333333,0.012124999999999941,-0.22199999999999998,69.41,0.03380000000000005,-0.212875,-0.4399999999999995,100.0,1.0,1.0,213.99,0.0,0.0,0.0,0.0,0.0,0.0,0.0,9070.3,0.0,55.0,5.0,249.85000000000002,0.0,0.0,0.0,0.0,0.0,0.0,1.0,0.0,1.7040000000000006,1.7040000000000006,0.0,0.0,0.0,55.0,616.79921,10000.0,85.000001,85.000001,85.000001,85.000001,395.0,0.0,0.0,0.0,1.0,333.33500000000004,52.841,52.841,47.638,47.638,34.0,-22.365,23.735999999999997,-27.21666666666666,31.3325,0.0,1782.256,-0.47499999999999787,100.0,27.889,28.195999999999998,43.387,44.047,0.0,1.0,100.0,0.0,0.0,0.0,0.0,3052.4285714285716,2950.0,4055.75,4265.1,305.8125,305.4456666666667,315.0643333333333,314.31525,22.1001,20.6879,22.156399999999998,21.6331,314.999998,314.999998,324.999988,324.999988,99.55978571428571,99.50731666666667,99.57245714285715,99.55075714285714,0.11333333333333373,-0.02066666666666661,-0.0825,0.14283333333333337,-0.03499999999999659,-0.046666666666666856,1.5150000000000001,1.4945,39.126000000000005,30.299666666666667,39.478,36.207,56.04,35.6565,61.0215,53.954499999999996,53.973,34.7455,59.5615,52.20133333333334,53.114999999999995,34.2685,59.4475,51.562,-0.11699999999999999,-0.039000000000000146,0.11137000000000001,0.11082000000000002,0.0,217.255,217.285,213.99,213.99,0.0,0.0
35,0.0,1.0,0.0,1.0,1.0,0.0,0.0,1.0,0.0,100.0,1.0,1.1856,26.0,0.0,0.0,0.0,59.999996,0.0,26.0,26.0,26.0,26.0,0.06377777777777793,0.2701,-0.09246666666666667,292.389,-2.7419000000000002,-2.591111111111111,-1.6399,-1.4889999999999999,-157.84,215.36,190.20825,0.0,0.0,0.0,0.0,0.07010000000000001,-5.498166666666667,-5.498166666666667,-0.6717000000000001,-0.6666666666666667,0.014874999999999972,-1.116,69.549,0.03400000000000003,-0.22762500000000002,-0.48799999999999955,100.0,1.0,1.0,214.48666666666668,0.0,0.0,0.0,0.0,0.0,0.0,0.0,9091.3,0.0,55.0,5.0,250.35000000000002,1.0,0.0,0.0,0.0,0.0,0.0,1.0,0.0,1.7579999999999991,1.7579999999999991,0.0,0.0,1.0,55.0,616.79921,10000.0,85.000001,85.000001,85.000001,85.000001,395.0,0.0,0.0,0.0,1.0,166.665,52.521,52.521,47.18,47.18,34.0,-22.0675,26.254,-27.366666666666667,28.555,0.0,1782.203,-0.384999999999998,100.0,27.588,28.255,43.141,43.772999999999996,0.0,1.0,100.0,0.0,0.0,0.0,0.0,3026.142857142857,3238.0,4122.625,4010.6000000000004,305.882,304.432,315.00733333333335,314.993,22.1096,20.6939,22.1674,21.6429,314.999998,314.999998,324.999988,324.999988,99.5598,99.50731666666667,99.57261428571428,99.55091428571428,0.11166666666666636,-0.023333333333333317,-0.06883333333333333,0.15100000000000002,-0.04833333333333201,-0.051666666666669414,1.5673333333333335,1.5575,39.185,30.336666666666666,39.546,36.268,56.025,35.695499999999996,61.054,54.0145,53.958,34.7815,59.591,52.25933333333333,53.099000000000004,34.303,59.4735,51.61833333333333,-0.10499999999999998,-0.0495000000000001,0.10339000000000001,0.107505,0.0,217.675,217.71,214.48666666666668,214.48666666666668,0.0,0.0
