,ABS Active,ABS Enabled,AID Allow Tire Blankets,AID Auto Blip,AID Auto Clutch,AID Auto Shift,AID Fuel Rate,AID Ideal Line,AID Mech Damage,AID Stability,AID Tire Wear Rate,Air Density,Air Temp,Ballast,Best Lap Delta,Best Lap Time,Brake Bias,Brake Pos,Brake Temp FL,Brake Temp FR,Brake Temp RL,Brake Temp RR,CG Accel Lateral,CG Accel Longitudinal,CG Accel Vertical,CG Height,Camber FL,Camber FR,Camber RL,Camber RR,Car Coord X,Car Coord Y,Car Coord Z,Car Damage Front,Car Damage Left,Car Damage Rear,Car Damage Right,Car Pos Norm,Caster FL,Caster FR,Chassis Pitch Angle,Chassis Pitch Rate,Chassis Roll Angle,Chassis Roll Rate,Chassis Velocity X,Chassis Velocity Y,Chassis Velocity Z,Chassis Yaw Rate,Clutch Pos,DRS Active,DRS Available,Drive Train Speed,ERS Heat Charging,ERS Is Charging,ERS Max Energy,ERS Power Level,ERS Recovery Level,Engine Brake Setting,Engine Limiter,Engine RPM,Flags,Fuel Level,Gear,Ground Speed,HR Sample Clock,In Pit,KERS Charge,KERS Deployed Energy,KERS Input,KERS Max Energy,LR Sample Clock,Lap Invalidated,Lap Time,Lap Time2,Last Lap Time,Last Sector Time,MR Sample Clock,Max Fuel,Max Power,Max RPM,Max Sus Travel FL,Max Sus Travel FR,Max Sus Travel RL,Max Sus Travel RR,Max Torque,Max Turbo Boost,Num Tires Off Track,Penalties Enabled,Position,Raw Data Sample Rate,Ride Height FL,Ride Height FR,Ride Height RL,Ride Height RR,Road Temp,Self Align Torque FL,Self Align Torque FR,Self Align Torque RL,Self Align Torque RR,Session Lap Count,Session Time Left,Steering Angle,Surface Grip,Suspension Travel FL,Suspension Travel FR,Suspension Travel RL,Suspension Travel RR,TC Active,TC Enabled,Throttle Pos,Tire Dirt Level FL,Tire Dirt Level FR,Tire Dirt Level RL,Tire Dirt Level RR,Tire Load FL,Tire Load FR,Tire Load RL,Tire Load RR,Tire Loaded Radius FL,Tire Loaded Radius FR,Tire Loaded Radius RL,Tire Loaded Radius RR,Tire Pressure FL,Tire Pressure FR,Tire Pressure RL,Tire Pressure RR,Tire Radius FL,Tire Radius FR,Tire Radius RL,Tire Radius RR,Tire Rubber Grip FL,Tire Rubber Grip FR,Tire Rubber Grip RL,Tire Rubber Grip RR,Tire Slip Angle FL,Tire Slip Angle FR,Tire Slip Angle RL,Tire Slip Angle RR,Tire Slip Ratio FL,Tire Slip Ratio FR,Tire Slip Ratio RL,Tire Slip Ratio RR,Tire Temp Core FL,Tire Temp Core FR,Tire Temp Core RL,Tire Temp Core RR,Tire Temp Inner FL,Tire Temp Inner FR,Tire Temp Inner RL,Tire Temp Inner RR,Tire Temp Middle FL,Tire Temp Middle FR,Tire Temp Middle RL,Tire Temp Middle RR,Tire Temp Outer FL,Tire Temp Outer FR,Tire Temp Outer RL,Tire Temp Outer RR,Toe In FL,Toe In FR,Toe In RL,Toe In RR,Turbo Boost,Wheel Angular Speed FL,Wheel Angular Speed FR,Wheel Angular Speed RL,Wheel Angular Speed RR,Wind Direction,Wind Speed
0,0.0,1.0,0.0,1.0,1.0,0.0,0.0,1.0,0.0,100.0,1.0,1.1856,26.0,0.0,0.0,0.0,59.99999,0.0,26.0,26.0,26.0,26.0,-0.05111111111111111,0.2792000000000001,0.1096,293.289,-2.7414,-2.6285,-1.5328,-1.5145,-275.75,215.6575,190.98775,0.0,0.0,0.0,0.0,0.0015333333333333334,-5.498166666666667,-5.498166666666667,-0.5753,1.7636666666666667,-0.0045000000000001705,0.010999999999999899,65.214,-0.0317,-0.23085,0.2140000000000004,100.0,1.0,1.0,201.43666666666667,0.0,0.0,0.0,0.0,0.0,0.0,0.0,8538.1,0.0,55.0,5.0,234.74,0.0,0.0,0.0,0.0,0.0,0.0,0.0,0.0,0.0030000000000001137,0.0030000000000001137,0.0,0.0,0.0,55.0,616.79921,10000.0,85.0,85.0,85.0,85.0,395.0,0.0,0.0,0.0,1.0,20.0,50.781,50.781,49.316,49.316,34.0,-31.02,32.294,-28.2,25.015,0.0,1783.67,0.46499999999999986,100.0,27.231,27.111,40.532,40.219,0.0,1.0,100.0,0.0,0.0,0.0,0.0,3478.285714285714,4275.6,3926.125,3973.9,304.1715,301.58866666666665,315.3235,314.98875,21.774,20.5142,21.7597,21.2924,314.99999,314.99999,324.99998,324.99998,99.559,99.50725,99.56555714285714,99.54464285714286,0.011666666666666714,-0.08433333333333315,-0.15166666666666667,0.08583333333333333,-0.06833333333332803,-0.03333333333333144,1.5933333333333333,1.6166666666666667,37.088,29.214,36.998000000000005,34.0775,56.364999999999995,34.475,59.2035,51.5095,54.287,33.658,57.841,49.86,53.463,33.232,57.8245,49.27466666666667,-0.045499999999999985,-0.10099999999999998,0.11447000000000002,0.11001000000000001,0.0,204.35500000000002,204.315,201.43666666666667,201.43666666666667,0.0,0.0
1,0.0,1.0,0.0,1.0,1.0,0.0,0.0,1.0,0.0,100.0,1.0,1.1856,26.0,0.0,0.0,0.0,59.999996,0.0,26.0,26.0,26.0,26.0,-0.08111111111111102,0.3569,0.183975,292.358,-2.6577,-2.694875,-1.5553,-1.3688,-272.42,215.66,190.96775,0.0,0.0,0.0,0.0,0.0035,-5.498166666666667,-5.498166666666667,-0.46790000000000004,-0.8226666666666667,-0.0442499999999999,-0.1070000000000002,65.374,-0.0316,-0.169375,0.8179999999999996,100.0,1.0,1.0,201.29000000000002,0.0,0.0,0.0,0.0,0.0,0.0,0.0,8532.0,0.0,55.0,5.0,235.31333333333333,1.0,0.0,0.0,0.0,0.0,0.0,0.0,0.0,0.053999999999998494,0.053999999999998494,0.0,0.0,1.0,55.0,616.79921,10000.0,85.000001,85.000001,85.000001,85.000001,395.0,0.0,0.0,0.0,1.0,166.665,54.26,54.26,47.104,47.104,34.0,-22.6025,16.19,-38.07666666666667,33.2475,0.0,1783.621,0.46999999999999886,100.0,27.668,27.312,42.433,42.553,0.0,1.0,100.0,0.0,0.0,0.0,0.0,2771.5714285714284,2412.0,4827.125,5416.700000000001,306.375,307.0946666666667,312.944,311.1295,21.7839,20.5193,21.770699999999998,21.3017,314.999998,314.999998,324.999988,324.999988,99.559,99.50726666666667,99.56571428571428,99.54478571428571,0.024333333333333318,-0.11733333333333329,-0.14516666666666667,0.05683333333333334,-0.015000000000000568,-0.026666666666670835,1.2946666666666666,1.321,37.149,29.2455,37.067,34.1355,56.349000000000004,34.5145,59.2515,51.5785,54.271,33.6945,57.8855,49.926,53.446,33.266999999999996,57.866,49.339666666666666,-0.03949999999999998,-0.11549999999999994,0.10046000000000001,0.11092,0.0,204.835,204.76,201.29000000000002,201.29000000000002,0.0,0.0
2,0.0,1.0,0.0,1.0,1.0,0.0,0.0,1.0,0.0,100.0,1.0,1.1856,26.0,0.0,0.0,0.0,59.999996,0.0,26.0,26.0,26.0,26.0,-0.09399999999999997,0.27490000000000014,-0.25217500000000004,293.991,-2.6261,-2.662,-1.5246,-1.5222,-268.89,215.66,190.948125,0.0,0.0,0.0,0.0,0.005533333333333334,-5.498166666666667,-5.498166666666667,-0.5757,0.5823333333333334,-0.018749999999999822,1.887,65.52,-0.038200000000000005,-0.274325,1.0259999999999998,100.0,1.0,1.0,202.71,0.0,0.0,0.0,0.0,0.0,0.0,0.0,8592.2,0.0,55.0,5.0,235.84333333333333,0.0,0.0,0.0,0.0,0.0,0.0,0.0,0.0,0.10800000000000054,0.10800000000000054,0.0,0.0,0.0,55.0,616.79921,10000.0,85.000001,85.000001,85.000001,85.000001,395.0,0.0,0.0,0.0,1.0,166.665,52.016999999999996,52.016999999999996,50.858000000000004,50.858000000000004,34.0,-28.7825,20.958,-24.703333333333333,18.58,0.0,1783.567,0.615000000000002,100.0,28.301000000000002,27.41,41.963,41.587,0.0,1.0,100.0,0.0,0.0,0.0,0.0,3297.4285714285716,3046.0,3488.375,3325.6,304.6415,304.9343333333333,316.336,316.64225,21.7945,20.5247,21.7817,21.3108,314.999998,314.999998,324.999988,324.999988,99.559,99.50728333333333,99.56585714285714,99.54492857142857,-0.0016666666666667052,-0.12166666666666681,-0.176,0.06066666666666667,-0.05333333333332746,-0.05333333333332746,1.7763333333333335,1.814,37.215,29.279,37.135,34.192,56.333,34.556,59.2885,51.6335,54.256,33.7325,57.92,49.979,53.43,33.3035,57.8975,49.391666666666666,-0.02949999999999997,-0.11850000000000005,0.10326500000000001,0.10855000000000001,0.0,205.3,205.19,202.71,202.71,0.0,0.0
3,0.0,1.0,0.0,1.0,1.0,0.0,0.0,1.0,0.0,100.0,1.0,1.1856,26.0,0.0,0.0,0.0,59.999996,0.0,26.0,26.0,26.0,26.0,-0.09299999999999997,0.32230000000000003,0.082225,293.228,-2.6546,-2.690375,-1.5155,-1.4833,-265.93,215.66,190.930375,0.0,0.0,0.0,0.0,0.007266666666666668,-5.498166666666667,-5.498166666666667,-0.5069,0.7693333333333334,0.0015000000000000568,-1.0590000000000002,65.66,-0.0521,-0.19045,0.8420000000000005,100.0,1.0,1.0,202.52666666666667,0.0,0.0,0.0,0.0,0.0,0.0,0.0,8584.3,0.0,55.0,5.0,236.34333333333333,1.0,0.0,0.0,0.0,0.0,0.0,0.0,0.0,0.1529999999999987,0.1529999999999987,0.0,0.0,1.0,55.0,616.79921,10000.0,85.000001,85.000001,85.000001,85.000001,395.0,0.0,0.0,0.0,1.0,333.33500000000004,53.345,53.345,47.867,47.867,34.0,-23.93,20.124000000000002,-34.120000000000005,25.377499999999998,0.0,1783.521,0.7100000000000009,100.0,27.872,27.355,41.972,41.725,0.0,1.0,100.0,0.0,0.0,0.0,0.0,2849.4285714285716,2928.8,4422.5,4297.3,306.219,305.473,314.0345,314.08125,21.8031,20.5293,21.7909,21.3187,314.999998,314.999998,324.999988,324.999988,99.55901428571428,99.5073,99.56598571428572,99.54505714285715,0.006000000000000227,-0.1213333333333333,-0.1685,0.044,-0.03999999999999915,-0.046666666666666856,1.45,1.4993333333333334,37.269,29.308500000000002,37.193,34.2415,56.317,34.5935,59.3225,51.691,54.241,33.766999999999996,57.951499999999996,50.0345,53.415,33.3365,57.9265,49.446333333333335,-0.03200000000000003,-0.121,0.10987000000000001,0.11001500000000002,0.0,205.75,205.675,202.52666666666667,202.52666666666667,0.0,0.0
4,0.0,1.0,0.0,1.0,1.0,0.0,0.0,1.0,0.0,100.0,1.0,1.1856,26.0,0.0,0.0,0.0,59.999996,0.0,26.0,26.0,26.0,26.0,-0.11122222222222211,0.3015000000000001,-0.040625,293.457,-2.6501,-2.760125,-1.4602,-1.5991,-262.38,215.6575,190.90975,0.0,0.0,0.0,0.0,0.009333333333333334,-5.498166666666667,-5.498166666666667,-0.5345,-0.986,-0.05262499999999992,0.038999999999999924,65.81700000000001,-0.0613,-0.23465,1.1959999999999997,100.0,1.0,1.0,203.16333333333333,0.0,0.0,0.0,0.0,0.0,0.0,0.0,8611.4,0.0,55.0,5.0,236.91,0.0,0.0,0.0,0.0,0.0,0.0,0.0,0.0,0.20700000000000074,0.20700000000000074,0.0,0.0,0.0,55.0,616.79921,10000.0,85.000001,85.000001,85.000001,85.000001,395.0,0.0,0.0,0.0,1.0,166.665,53.04,53.04,48.798,48.798,34.0,-27.2425,19.875999999999998,-30.516666666666666,22.805,0.0,1783.468,0.754999999999999,100.0,27.871,26.963,42.785,41.933,0.0,1.0,100.0,0.0,0.0,0.0,0.0,3115.5714285714284,2927.4,4067.375,3832.6000000000004,305.326,305.557,314.87675,315.289,21.8134,20.5347,21.8023,21.3281,314.999998,314.999998,324.999988,324.999988,99.55901428571428,99.50731666666667,99.56612857142858,99.5452,-0.008000000000000007,-0.1399999999999999,-0.18466666666666667,0.0345,-0.02833333333332888,-0.04333333333332945,1.542,1.5733333333333333,37.333,29.3415,37.263999999999996,34.301,56.298,34.6355,59.367,51.754999999999995,54.223,33.8055,57.993,50.0955,53.396,33.3735,57.965,49.506,-0.014000000000000012,-0.13749999999999996,0.10771000000000001,0.10375000000000001,0.0,206.175,206.065,203.16333333333333,203.16333333333333,0.0,0.0
5,0.0,1.0,0.0,1.0,1.0,0.0,0.0,1.0,0.0,100.0,1.0,1.1856,26.0,0.0,0.0,0.0,59.999996,0.0,26.0,26.0,26.0,26.0,-0.12744444444444447,0.29280000000000017,-0.03935,293.747,-2.7044,-2.72225,-1.509,-1.5976,-259.22,215.65,190.89125,0.0,0.0,0.0,0.0,0.011166666666666668,-5.498166666666667,-5.498166666666667,-0.5445,0.5356666666666666,-0.04712499999999986,0.885,65.95400000000001,-0.07680000000000001,-0.229975,1.1560000000000006,100.0,1.0,1.0,203.68333333333334,0.0,0.0,0.0,0.0,0.0,0.0,0.0,8633.4,0.0,55.0,5.0,237.40333333333334,1.0,0.0,0.0,0.0,0.0,0.0,0.0,0.0,0.254999999999999,0.254999999999999,0.0,0.0,1.0,55.0,616.79921,10000.0,85.000001,85.000001,85.000001,85.000001,395.0,0.0,0.0,0.0,1.0,333.33500000000004,53.116,53.116,49.408,49.408,34.0,-27.715,20.52,-30.153333333333336,22.637500000000003,0.0,1783.419,0.5450000000000017,100.0,27.874,26.848,42.432,41.337,0.0,1.0,100.0,0.0,0.0,0.0,0.0,3114.5714285714284,2966.1,3927.125,3915.4,305.2555,305.42566666666664,315.26325,315.17175,21.8227,20.5395,21.8121,21.3363,314.999998,314.999998,324.999988,324.999988,99.55901428571428,99.50731666666667,99.56625714285714,99.54532857142857,-0.00533333333333319,-0.12399999999999989,-0.1965,0.025500000000000002,-0.02833333333332888,-0.05333333333332746,1.5886666666666667,1.6336666666666666,37.391999999999996,29.372,37.326,34.352000000000004,56.284,34.674,59.4025,51.808,54.209,33.841,58.025999999999996,50.1465,53.382,33.4075,57.9955,49.556,-0.03500000000000003,-0.11149999999999993,0.10164500000000001,0.11395500000000001,0.0,206.64499999999998,206.54500000000002,203.68333333333334,203.68333333333334,0.0,0.0
6,0.0,1.0,0.0,1.0,1.0,0.0,0.0,1.0,0.0,100.0,1.0,1.1856,26.0,0.0,0.0,0.0,59.999996,0.0,26.0,26.0,26.0,26.0,-0.11988888888888893,0.29810000000000003,-0.0074,293.64,-2.6471999999999998,-2.78825,-1.5548000000000002,-1.5689000000000002,-256.05,215.64249999999998,190.871875,0.0,0.0,0.0,0.0,0.013000000000000001,-5.498166666666667,-5.498166666666667,-0.5253,-0.06933333333333333,-0.05712500000000009,0.5760000000000001,66.096,-0.0821,-0.20395000000000002,0.9199999999999999,100.0,1.0,1.0,203.93,0.0,0.0,0.0,0.0,0.0,0.0,0.0,8643.9,0.0,55.0,5.0,237.91333333333333,0.0,0.0,0.0,0.0,0.0,0.0,0.0,0.0,0.3030000000000008,0.3030000000000008,0.0,0.0,0.0,55.0,616.79921,10000.0,85.000001,85.000001,85.000001,85.000001,395.0,0.0,0.0,0.0,1.0,333.33500000000004,53.711,53.711,48.522999999999996,48.522999999999996,34.0,-26.5975,19.988,-33.526666666666664,24.285,0.0,1783.371,0.3200000000000003,100.0,27.514,26.519,42.586,41.441,0.0,1.0,100.0,0.0,0.0,0.0,0.0,3053.285714285714,2849.6,4243.625,4094.0,305.4915,305.7986666666667,314.44975,314.709,21.8319,20.5443,21.8221,21.3447,314.999998,314.999998,324.999988,324.999988,99.55902857142857,99.50733333333334,99.5664,99.54545714285715,-0.006999999999999895,-0.1276666666666666,-0.1835,0.0325,-0.03333333333333144,-0.05333333333332746,1.5150000000000001,1.529,37.449,29.4015,37.388,34.4045,56.268,34.711,59.4405,51.866,54.194,33.8755,58.0615,50.202,53.366,33.44,58.028,49.61033333333333,-0.041999999999999926,-0.09749999999999992,0.09831000000000001,0.11783,0.0,207.075,207.01,203.93,203.93,0.0,0.0
7,0.0,1.0,0.0,1.0,1.0,0.0,0.0,1.0,0.0,100.0,1.0,1.1856,26.0,0.0,0.0,0.0,59.999996,0.0,26.0,26.0,26.0,26.0,-0.07377777777777783,0.2896000000000001,-0.003075,293.594,-2.6177,-2.78275,-1.5110000000000001,-1.6155,-252.68,215.63,190.8515,0.0,0.0,0.0,0.0,0.014966666666666666,-5.498166666666667,-5.498166666666667,-0.5359,0.06433333333333333,-0.0521250000000002,-0.375,66.241,-0.0825,-0.22060000000000002,0.8120000000000012,100.0,1.0,1.0,204.46,0.0,0.0,0.0,0.0,0.0,0.0,0.0,8666.3,0.0,55.0,5.0,238.44,1.0,0.0,0.0,0.0,0.0,0.0,0.0,0.0,0.3539999999999992,0.3539999999999992,0.0,0.0,1.0,55.0,616.79921,10000.0,85.000001,85.000001,85.000001,85.000001,395.0,0.0,0.0,0.0,1.0,333.33500000000004,53.238,53.238,48.996,48.996,34.0,-27.115,20.872,-32.129999999999995,23.177500000000002,0.0,1783.319,-0.06500000000000128,100.0,27.605,26.821,42.506,41.578,0.0,1.0,100.0,0.0,0.0,0.0,0.0,3213.285714285714,2855.4,4098.625,3933.7,305.1325,305.54566666666665,314.882,315.01975,21.8418,20.5494,21.8327,21.3537,314.999998,314.999998,324.999988,324.999988,99.55902857142857,99.50735,99.56654285714286,99.5456,0.0086666666666666,-0.1116666666666668,-0.1995,0.022833333333333334,-0.06499999999999773,-0.051666666666669414,1.5366666666666666,1.5833333333333335,37.512,29.433500000000002,37.454,34.460499999999996,56.253,34.751,59.4795,51.926,54.18,33.912,58.098,50.2595,53.351,33.475,58.062,49.666666666666664,-0.07750000000000001,-0.07050000000000001,0.09882,0.1097,0.0,207.53,207.45,204.46,204.46,0.0,0.0
8,0.0,1.0,0.0,1.0,1.0,0.0,0.0,1.0,0.0,100.0,1.0,1.1856,26.0,0.0,0.0,0.0,59.999996,0.0,26.0,26.0,26.0,26.0,-0.07811111111111102,0.2863,-0.0022500000000000003,293.686,-2.6929,-2.72025,-1.4889000000000001,-1.6058,-249.3,215.6175,190.831,0.0,0.0,0.0,0.0,0.016933333333333335,-5.498166666666667,-5.498166666666667,-0.5369,-0.20500000000000002,-0.036375000000000046,0.6099999999999999,66.388,-0.06810000000000001,-0.21960000000000002,0.2859999999999996,100.0,1.0,1.0,204.87333333333333,0.0,0.0,0.0,0.0,0.0,0.0,0.0,8683.8,0.0,55.0,5.0,238.97,0.0,0.0,0.0,0.0,0.0,0.0,0.0,0.0,0.40500000000000114,0.40500000000000114,0.0,0.0,0.0,55.0,616.79921,10000.0,85.000001,85.000001,85.000001,85.000001,395.0,0.0,0.0,0.0,1.0,333.33500000000004,53.574,53.574,48.676,48.676,34.0,-24.78,22.206,-30.193333333333335,25.545,0.0,1783.268,-0.14499999999999957,100.0,27.425,26.657,42.601,41.583,0.0,1.0,100.0,0.0,0.0,0.0,0.0,2989.714285714286,3012.4,4023.875,4054.1000000000004,305.658,305.2916666666667,314.98125,314.76775,21.8516,20.5546,21.8432,21.3626,314.999998,314.999998,324.999988,324.999988,99.55904285714286,99.50736666666667,99.56668571428571,99.54574285714286,0.03299999999999992,-0.09166666666666679,-0.1775,0.05266666666666667,-0.05333333333332746,-0.045000000000001705,1.5403333333333333,1.5446666666666666,37.573,29.466,37.519999999999996,34.5165,56.236999999999995,34.7905,59.519,51.9865,54.164,33.948,58.1345,50.317499999999995,53.334,33.5095,58.0955,49.72366666666667,-0.08799999999999997,-0.056499999999999995,0.10702,0.10855500000000001,0.0,207.95499999999998,207.91500000000002,204.87333333333333,204.87333333333333,0.0,0.0
9,0.0,1.0,0.0,1.0,1.0,0.0,0.0,1.0,0.0,100.0,1.0,1.1856,26.0,0.0,0.0,0.0,59.999996,0.0,26.0,26.0,26.0,26.0,-0.05899999999999994,0.2904,0.0126,293.564,-2.6155,-2.7344999999999997,-1.5408,-1.5622,-246.11,215.60250000000002,190.8115,0.0,0.0,0.0,0.0,0.0188,-5.498166666666667,-5.498166666666667,-0.5361,0.2666666666666667,-0.044624999999999915,0.831,66.525,-0.0509,-0.212725,0.0779999999999994,100.0,1.0,1.0,205.32,0.0,0.0,0.0,0.0,0.0,0.0,0.0,8702.7,0.0,55.0,5.0,239.46,1.0,0.0,0.0,0.0,0.0,0.0,0.0,0.0,0.4529999999999994,0.4529999999999994,0.0,0.0,1.0,55.0,616.79921,10000.0,85.000001,85.000001,85.000001,85.000001,395.0,0.0,0.0,0.0,1.0,333.33500000000004,53.238,53.238,49.042,49.042,34.0,-25.21,22.848,-29.556666666666665,26.137500000000003,0.0,1783.221,-0.3099999999999987,100.0,27.576999999999998,26.71,42.424,41.561,0.0,1.0,100.0,0.0,0.0,0.0,0.0,3133.142857142857,3013.3,4025.125,4076.5,305.222,305.29833333333335,315.00275,314.77325,21.8609,20.5595,21.8531,21.371,314.999998,314.999998,324.999988,324.999988,99.55904285714286,99.50736666666667,99.56682857142857,99.54587142857143,0.03933333333333344,-0.07899999999999996,-0.15216666666666667,0.07583333333333334,-0.04333333333332945,-0.051666666666669414,1.5536666666666665,1.5673333333333335,37.631,29.497,37.582,34.569,56.223,34.827,59.5545,52.042500000000004,54.15,33.982,58.168,50.3715,53.32,33.542,58.126,49.775999999999996,-0.09050000000000002,-0.052999999999999936,0.10747500000000001,0.11021500000000001,0.0,208.37,208.35500000000002,205.32,205.32,0.0,0.0
10,0.0,1.0,0.0,1.0,1.0,0.0,0.0,1.0,0.0,100.0,1.0,1.1856,26.0,0.0,0.0,0.0,59.999996,0.0,26.0,26.0,26.0,26.0,-0.024111111111111083,0.29790000000000005,0.0021000000000000003,293.411,-2.6806,-2.7045000000000003,-1.5048,-1.5453000000000001,-242.71,215.585,190.79075,0.0,0.0,0.0,0.0,0.020766666666666666,-5.498166666666667,-5.498166666666667,-0.5269,-0.242,-0.020000000000000018,0.1419999999999999,66.672,-0.0322,-0.20865,-0.06599999999999984,100.0,1.0,1.0,205.66333333333333,0.0,0.0,0.0,0.0,0.0,0.0,0.0,8717.3,0.0,55.0,5.0,239.99,0.0,0.0,0.0,0.0,0.0,0.0,1.0,0.0,0.5040000000000013,0.5040000000000013,0.0,0.0,0.0,55.0,616.79921,10000.0,85.000001,85.000001,85.000001,85.000001,395.0,0.0,0.0,0.0,1.0,333.33500000000004,53.543,53.543,48.538,48.538,34.0,-24.669999999999998,21.762,-30.236666666666665,26.627499999999998,0.0,1783.17,-0.35999999999999943,100.0,27.389,26.895,42.480000000000004,42.068,0.0,1.0,100.0,0.0,0.0,0.0,0.0,3082.285714285714,2872.0,4182.5,4171.0,305.5645,305.57966666666664,314.675,314.44575,21.8707,20.5647,21.8637,21.3801,314.999998,314.999998,324.999988,324.999988,99.55904285714286,99.50738333333334,99.56695714285715,99.54601428571429,0.04933333333333367,-0.07366666666666677,-0.14516666666666667,0.06933333333333333,-0.05833333333333002,-0.06333333333333258,1.5093333333333332,1.5166666666666666,37.692,29.5295,37.647999999999996,34.6255,56.208,34.8645,59.594,52.1045,54.137,34.0165,58.204499999999996,50.4305,53.305,33.575,58.1595,49.83433333333333,-0.09850000000000003,-0.04499999999999993,0.10151,0.10192000000000001,0.0,208.825,208.81,205.66333333333333,205.66333333333333,0.0,0.0
11,0.0,1.0,0.0,1.0,1.0,0.0,0.0,1.0,0.0,100.0,1.0,1.1856,26.0,0.0,0.0,0.0,59.999996,0.0,26.0,26.0,26.0,26.0,-0.01100000000000001,0.28269999999999995,-0.048475000000000004,293.73199999999997,-2.6889,-2.7,-1.5630000000000002,-1.5183,-239.31,215.5675,190.769875,0.0,0.0,0.0,0.0,0.022600000000000002,-5.498166666666667,-5.498166666666667,-0.551,-0.2693333333333333,0.00924999999999998,0.9869999999999999,66.814,-0.0182,-0.225475,-0.27200000000000024,100.0,1.0,1.0,206.24,0.0,0.0,0.0,0.0,0.0,0.0,0.0,8741.8,0.0,55.0,5.0,240.50333333333333,1.0,0.0,0.0,0.0,0.0,0.0,1.0,0.0,0.5549999999999997,0.5549999999999997,0.0,0.0,1.0,55.0,616.79921,10000.0,85.000001,85.000001,85.000001,85.000001,395.0,0.0,0.0,0.0,1.0,333.33500000000004,53.452,53.452,49.132999999999996,49.132999999999996,34.0,-23.037499999999998,24.951999999999998,-26.616666666666667,26.427500000000002,0.0,1783.12,-0.3999999999999986,100.0,27.3,26.826,42.335,42.067,0.0,1.0,100.0,0.0,0.0,0.0,0.0,2988.142857142857,3085.2,3863.25,4016.2,305.678,305.098,315.41175,314.923,21.8804,20.57,21.8742,21.3891,314.999998,314.999998,324.999988,324.999988,99.55905714285714,99.5074,99.56711428571428,99.54615714285714,0.07466666666666644,-0.035666666666666735,-0.11733333333333333,0.10433333333333333,-0.051666666666669414,-0.05333333333332746,1.5893333333333333,1.591,37.751999999999995,29.5625,37.714,34.682,56.193,34.9015,59.6295,52.165,54.122,34.051,58.238,50.489,53.29,33.608000000000004,58.19,49.891666666666666,-0.10899999999999999,-0.03400000000000003,0.10604000000000001,0.10595500000000001,0.0,209.25,209.245,206.24,206.24,0.0,0.0
12,0.0,1.0,0.0,1.0,1.0,0.0,0.0,1.0,0.0,100.0,1.0,1.1856,26.0,0.0,0.0,0.0,59.999996,0.0,26.0,26.0,26.0,26.0,0.011555555555555541,0.2922,0.008025000000000001,293.381,-2.7254,-2.684125,-1.5446,-1.534,-235.89,215.55,190.74825,0.0,0.0,0.0,0.0,0.025466666666666665,-5.498166666666667,-5.498166666666667,-0.5439,0.36133333333333334,0.009749999999999925,-0.5859999999999999,66.959,-0.0021000000000000003,-0.20595000000000002,-0.3439999999999994,100.0,1.0,1.0,206.60333333333335,0.0,0.0,0.0,0.0,0.0,0.0,0.0,8757.1,0.0,55.0,5.0,241.01999999999998,0.0,0.0,0.0,0.0,0.0,0.0,1.0,0.0,0.6059999999999981,0.6059999999999981,0.0,0.0,0.0,55.0,616.79921,10000.0,85.000001,85.000001,85.000001,85.000001,395.0,0.0,0.0,0.0,1.0,166.665,53.207,53.207,48.553,48.553,34.0,-24.575,23.677999999999997,-28.123333333333335,28.5975,0.0,1783.069,-0.46000000000000085,100.0,27.183,27.26,42.079,42.129,0.0,1.0,100.0,0.0,0.0,0.0,0.0,3108.5714285714284,3050.7,4132.25,4131.7,305.486,304.9963333333333,314.83975,314.59525,21.89,20.5754,21.8846,21.3981,314.999998,314.999998,324.999988,324.999988,99.55905714285714,99.5074,99.56724285714286,99.5463,0.06700000000000017,-0.06166666666666676,-0.10666666666666667,0.11916666666666667,-0.051666666666669414,-0.046666666666666856,1.5553333333333335,1.5403333333333333,37.813,29.5965,37.778999999999996,34.738,56.179,34.939499999999995,59.666,52.2255,54.108999999999995,34.085499999999996,58.2715,50.547,53.275999999999996,33.6415,58.221000000000004,49.94866666666667,-0.09799999999999998,-0.05400000000000005,0.102665,0.10677,0.0,209.7,209.72500000000002,206.60333333333335,206.60333333333335,0.0,0.0
13,0.0,1.0,0.0,1.0,1.0,0.0,0.0,1.0,0.0,100.0,1.0,1.1856,26.0,0.0,0.0,0.0,59.999996,0.0,26.0,26.0,26.0,26.0,0.04011111111111121,0.28900000000000015,0.026775,293.03,-2.6962,-2.696625,-1.5749,-1.5413000000000001,-232.68,215.5325,190.727875,0.0,0.0,0.0,0.0,0.026600000000000002,-5.498166666666667,-5.498166666666667,-0.5376000000000001,-0.168,0.006124999999999936,-0.4700000000000002,67.094,0.0085,-0.211125,-0.36799999999999944,100.0,1.0,1.0,206.94333333333333,0.0,0.0,0.0,0.0,0.0,0.0,0.0,8771.5,0.0,55.0,5.0,241.51,1.0,0.0,0.0,0.0,0.0,0.0,1.0,0.0,0.6539999999999999,0.6539999999999999,0.0,0.0,1.0,55.0,616.79921,10000.0,85.000001,85.000001,85.000001,85.000001,395.0,0.0,0.0,0.0,1.0,166.665,53.009,53.009,48.248,48.248,34.0,-23.025,24.8,-28.89,29.9325,0.0,1783.021,-0.5,100.0,27.395,27.441,42.379,42.555,0.0,1.0,100.0,0.0,0.0,0.0,0.0,3135.142857142857,2992.4,4196.25,4204.0,305.4015,305.172,314.65025,314.37475,21.8991,20.5805,21.8946,21.4067,314.999998,314.999998,324.999988,324.999988,99.55907142857143,99.5074,99.56738571428572,99.54644285714286,0.10266666666666646,-0.02400000000000002,-0.09933333333333333,0.12616666666666668,-0.046666666666666856,-0.051666666666669414,1.5233333333333334,1.496,37.869,29.628,37.841,34.7915,56.167,34.975,59.7025,52.2845,54.097,34.118,58.3055,50.604,53.263,33.6725,58.2515,50.004333333333335,-0.119,-0.02950000000000008,0.10561500000000001,0.10976500000000002,0.0,210.115,210.13,206.94333333333333,206.94333333333333,0.0,0.0
14,0.0,1.0,0.0,1.0,1.0,0.0,0.0,1.0,0.0,100.0,1.0,1.1856,26.0,0.0,0.0,0.0,59.999996,0.0,26.0,26.0,26.0,26.0,0.030888888888888966,0.2825,-0.022125000000000002,293.167,-2.7082,-2.707125,-1.57,-1.5365,-229.25,215.515,190.706625,0.0,0.0,0.0,0.0,0.0286,-5.498166666666667,-5.498166666666667,-0.5507000000000001,-0.07166666666666667,0.025125000000000064,1.126,67.236,0.018600000000000002,-0.226225,-0.5179999999999998,100.0,1.0,1.0,207.46333333333334,0.0,0.0,0.0,0.0,0.0,0.0,0.0,8793.6,0.0,55.0,5.0,242.01999999999998,0.0,0.0,0.0,0.0,0.0,0.0,1.0,0.0,0.7049999999999983,0.7049999999999983,0.0,0.0,0.0,55.0,616.79921,10000.0,85.000001,85.000001,85.000001,85.000001,395.0,0.0,0.0,0.0,1.0,333.33500000000004,52.902,52.902,48.538,48.538,34.0,-21.88,26.296,-25.89,29.6975,0.0,1782.969,-0.48499999999999943,100.0,27.593,27.468,42.435,42.592,0.0,1.0,100.0,0.0,0.0,0.0,0.0,2980.5714285714284,3142.3,3949.625,4124.9,305.683,304.82866666666666,315.1895,314.655,21.9087,20.586,21.9051,21.4158,314.999998,314.999998,324.999988,324.999988,99.55908571428571,99.5074,99.56752857142857,99.54658571428571,0.10599999999999987,-0.02066666666666661,-0.083,0.14183333333333334,-0.02833333333332888,-0.06666666666666998,1.566,1.5383333333333333,37.929,29.662,37.907,34.8485,56.153999999999996,35.0125,59.7385,52.346000000000004,54.085,34.153,58.339,50.663,53.25,33.706,58.2825,50.062333333333335,-0.11199999999999999,-0.03400000000000003,0.10731500000000001,0.10465,0.0,210.53,210.575,207.46333333333334,207.46333333333334,0.0,0.0
15,0.0,1.0,0.0,1.0,1.0,0.0,0.0,1.0,0.0,100.0,1.0,1.1856,26.0,0.0,0.0,0.0,59.999996,0.0,26.0,26.0,26.0,26.0,0.04899999999999993,0.2670000000000001,0.0176,292.999,-2.7053,-2.678375,-1.5845,-1.5488,-226.01999999999998,215.5,190.686125,0.0,0.0,0.0,0.0,0.03046666666666667,-5.498166666666667,-5.498166666666667,-0.5444,0.266,0.040750000000000064,0.887,67.369,0.027,-0.21402500000000002,-0.5760000000000005,100.0,1.0,1.0,207.83333333333331,0.0,0.0,0.0,0.0,0.0,0.0,0.0,8809.2,0.0,55.0,5.0,242.5,1.0,0.0,0.0,0.0,0.0,0.0,1.0,0.0,0.7530000000000001,0.7530000000000001,0.0,0.0,1.0,55.0,616.79921,10000.0,85.000001,85.000001,85.000001,85.000001,395.0,0.0,0.0,0.0,1.0,333.33500000000004,52.856,52.856,48.325,48.325,34.0,-21.294999999999998,26.394,-26.0,31.642500000000002,0.0,1782.922,-0.35999999999999943,100.0,27.646,27.618,42.316,42.72,0.0,1.0,100.0,0.0,0.0,0.0,0.0,2935.5714285714284,3141.9,4014.875,4248.2,305.812,304.80466666666666,315.04525,314.32825,21.9177,20.5911,21.915,21.4243,314.999998,314.999998,324.999988,324.999988,99.5591,99.5074,99.56765714285714,99.54672857142857,0.11066666666666647,-0.0129999999999999,-0.068,0.15066666666666667,-0.045000000000001705,-0.04833333333333201,1.5253333333333334,1.4966666666666666,37.986000000000004,29.694499999999998,37.969,34.902,56.143,35.0475,59.772,52.403999999999996,54.074,34.1855,58.3705,50.719,53.238,33.737,58.3105,50.117333333333335,-0.10699999999999998,-0.04299999999999993,0.10688500000000001,0.102885,0.0,210.97,211.0,207.83333333333331,207.83333333333331,0.0,0.0
16,0.0,1.0,0.0,1.0,1.0,0.0,0.0,1.0,0.0,100.0,1.0,1.1856,26.0,0.0,0.0,0.0,59.999996,0.0,26.0,26.0,26.0,26.0,0.05333333333333323,0.2773000000000001,-0.000125,292.923,-2.774,-2.6185,-1.5645,-1.5442,-222.57999999999998,215.4875,190.66425,0.0,0.0,0.0,0.0,0.03246666666666667,-5.498166666666667,-5.498166666666667,-0.5529000000000001,-0.49933333333333335,0.03137499999999993,-1.1600000000000001,67.511,0.0285,-0.22207500000000002,-0.274,100.0,1.0,1.0,208.23000000000002,0.0,0.0,0.0,0.0,0.0,0.0,0.0,8826.1,0.0,55.0,5.0,243.01333333333332,0.0,0.0,0.0,0.0,0.0,0.0,1.0,0.0,0.8039999999999985,0.8039999999999985,0.0,0.0,0.0,55.0,616.79921,10000.0,85.000001,85.000001,85.000001,85.000001,395.0,0.0,0.0,0.0,1.0,333.33500000000004,52.811,52.811,47.989,47.989,34.0,-23.5325,25.422,-27.083333333333336,29.6725,0.0,1782.87,-0.33500000000000085,100.0,27.203,27.774,42.445,43.009,0.0,1.0,100.0,0.0,0.0,0.0,0.0,3122.142857142857,3123.4,4101.875,4090.9,305.529,304.765,314.88475,314.595,21.9271,20.5966,21.9255,21.4335,314.999998,314.999998,324.999988,324.999988,99.55911428571429,99.50741666666667,99.5678,99.54685714285715,0.1030000000000002,-0.022666666666666613,-0.08283333333333333,0.13983333333333334,-0.03999999999999915,-0.04333333333332945,1.5326666666666666,1.5243333333333333,38.044,29.729,38.035,34.9595,56.128,35.085,59.81,52.466,54.06,34.22,58.405,50.778999999999996,53.223,33.7705,58.3425,50.176,-0.10199999999999998,-0.04800000000000004,0.10236,0.11209500000000001,0.0,211.375,211.41500000000002,208.23000000000002,208.23000000000002,0.0,0.0
17,0.0,1.0,0.0,1.0,1.0,0.0,0.0,1.0,0.0,100.0,1.0,1.1856,26.0,0.0,0.0,0.0,59.999996,0.0,26.0,26.0,26.0,26.0,0.023333333333333428,0.29080000000000017,0.00775,292.725,-2.7294,-2.610125,-1.6026,-1.5093,-219.13,215.4725,190.642125,0.0,0.0,0.0,0.0,0.03446666666666667,-5.498166666666667,-5.498166666666667,-0.552,0.19833333333333333,0.008750000000000036,0.28800000000000003,67.651,0.0238,-0.21385,-0.30799999999999894,100.0,1.0,1.0,208.67666666666668,0.0,0.0,0.0,0.0,0.0,0.0,0.0,8845.1,0.0,55.0,5.0,243.51333333333332,1.0,0.0,0.0,0.0,0.0,0.0,1.0,0.0,0.8550000000000004,0.8550000000000004,0.0,0.0,1.0,55.0,616.79921,10000.0,85.000001,85.000001,85.000001,85.000001,395.0,0.0,0.0,0.0,1.0,333.33500000000004,52.567,52.567,47.989,47.989,34.0,-22.905,25.956,-27.92,30.665,0.0,1782.818,-0.3299999999999983,100.0,27.688,27.728,42.467,42.819,0.0,1.0,100.0,0.0,0.0,0.0,0.0,3095.0,3196.2,4178.625,4205.0,305.4125,304.74133333333333,314.69175,314.47825,21.9366,20.6022,21.936,21.4426,314.999998,314.999998,324.999988,324.999988,99.55912857142857,99.50741666666667,99.56794285714285,99.547,0.1080000000000001,-0.018333333333333313,-0.07666666666666667,0.15216666666666667,-0.036666666666668846,-0.07333333333333059,1.5366666666666666,1.5143333333333335,38.104,29.7635,38.099999999999994,35.016,56.116,35.1235,59.8455,52.5265,54.048,34.2555,58.4385,50.8375,53.211,33.8045,58.3725,50.233333333333334,-0.10350000000000004,-0.052999999999999936,0.10539000000000001,0.11762500000000001,0.0,211.82999999999998,211.865,208.67666666666668,208.67666666666668,0.0,0.0
18,0.0,1.0,0.0,1.0,1.0,0.0,0.0,1.0,0.0,100.0,1.0,1.1856,26.0,0.0,0.0,0.0,59.999996,0.0,26.0,26.0,26.0,26.0,0.014333333333333309,0.29000000000000004,0.017175,292.587,-2.7352,-2.606875,-1.5931000000000002,-1.4752,-215.88,215.4625,190.621,0.0,0.0,0.0,0.0,0.03636666666666667,-5.498166666666667,-5.498166666666667,-0.5588000000000001,-0.378,0.00924999999999998,0.919,67.783,0.018500000000000003,-0.21925,-0.2060000000000004,100.0,1.0,1.0,209.04000000000002,0.0,0.0,0.0,0.0,0.0,0.0,0.0,8860.4,0.0,55.0,5.0,243.99,0.0,0.0,0.0,0.0,0.0,0.0,1.0,0.0,0.9029999999999987,0.9029999999999987,0.0,0.0,0.0,55.0,616.79921,10000.0,85.000001,85.000001,85.000001,85.000001,395.0,0.0,0.0,0.0,1.0,333.33500000000004,52.504999999999995,52.504999999999995,47.836,47.836,34.0,-23.447499999999998,26.258,-28.056666666666665,29.9125,0.0,1782.77,-0.33500000000000085,100.0,27.69,27.603,42.735,42.962,0.0,1.0,100.0,0.0,0.0,0.0,0.0,3114.4285714285716,3267.0,4157.5,4264.9,305.3895,304.59566666666666,314.73025,314.34875,21.9455,20.6073,21.9459,21.4512,314.999998,314.999998,324.999988,324.999988,99.55914285714286,99.50743333333334,99.56808571428571,99.54714285714286,0.09966666666666635,-0.02400000000000002,-0.08416666666666667,0.137,-0.046666666666666856,-0.060000000000002274,1.5293333333333334,1.5093333333333332,38.159,29.7955,38.162,35.07,56.104,35.158,59.881,52.585,54.036,34.2875,58.4715,50.893,53.198,33.835,58.4025,50.288333333333334,-0.09699999999999998,-0.052999999999999936,0.105995,0.10745500000000001,0.0,212.245,212.255,209.04000000000002,209.04000000000002,0.0,0.0
19,0.0,1.0,0.0,1.0,1.0,0.0,0.0,1.0,0.0,100.0,1.0,1.1856,26.0,0.0,0.0,0.0,59.999996,0.0,26.0,26.0,26.0,26.0,0.031888888888888856,0.2862,0.0847,292.206,-2.6593999999999998,-2.70125,-1.5288,-1.4605000000000001,-212.42000000000002,215.45,190.598375,0.0,0.0,0.0,0.0,0.03836666666666667,-5.498166666666667,-5.498166666666667,-0.5554,0.6413333333333334,0.01475000000000004,-0.6590000000000003,67.922,0.014100000000000001,-0.21735000000000002,-0.16199999999999992,100.0,1.0,1.0,209.45666666666668,0.0,0.0,0.0,0.0,0.0,0.0,0.0,8878.1,0.0,55.0,5.0,244.49,1.0,0.0,0.0,0.0,0.0,0.0,1.0,0.0,0.9540000000000006,0.9540000000000006,0.0,0.0,1.0,55.0,616.79921,10000.0,85.000001,85.000001,85.000001,85.000001,395.0,0.0,0.0,0.0,1.0,333.33500000000004,51.894999999999996,51.894999999999996,47.836,47.836,34.0,-23.7475,25.344,-28.466666666666665,30.0325,0.0,1782.719,-0.28999999999999915,100.0,28.096,28.25,42.566,43.099000000000004,0.0,1.0,100.0,0.0,0.0,0.0,0.0,3208.0,3141.5,4197.125,4369.7,305.1225,304.558,314.6775,314.06525,21.9551,20.6129,21.9564,21.4603,314.999998,314.999998,324.999988,324.999988,99.55915714285715,99.50743333333334,99.56822857142858,99.54728571428572,0.0950000000000002,-0.05066666666666664,-0.10200000000000001,0.12583333333333332,-0.04333333333332945,-0.041666666666671404,1.5036666666666667,1.5046666666666666,38.22,29.831,38.227000000000004,35.126999999999995,56.092,35.198,59.916,52.646,54.025,34.3245,58.504,50.952,53.186,33.8705,58.4325,50.346000000000004,-0.10299999999999998,-0.0645,0.0985,0.11246,0.0,212.69,212.7,209.45666666666668,209.45666666666668,0.0,0.0
20,0.0,1.0,0.0,1.0,1.0,0.0,0.0,1.0,0.0,100.0,1.0,1.1856,26.0,0.0,0.0,0.0,59.999996,0.0,26.0,26.0,26.0,26.0,0.03344444444444439,0.2639,0.002275,292.465,-2.7543,-2.652875,-1.5372,-1.5815000000000001,-208.75,215.4375,190.57475,0.0,0.0,0.0,0.0,0.0405,-5.498166666666667,-5.498166666666667,-0.5538000000000001,-0.8166666666666667,0.014624999999999888,-0.9860000000000002,68.07,0.0108,-0.22407500000000002,-0.08999999999999986,100.0,1.0,1.0,209.87333333333333,0.0,0.0,0.0,0.0,0.0,0.0,0.0,8895.8,0.0,55.0,5.0,245.02333333333334,0.0,0.0,0.0,0.0,0.0,0.0,0.0,0.0,1.0079999999999991,1.0079999999999991,0.0,0.0,0.0,55.0,616.79921,10000.0,85.000001,85.000001,85.000001,85.000001,395.0,0.0,0.0,0.0,1.0,166.665,52.658,52.658,47.424,47.424,34.0,-23.84,23.828,-28.689999999999998,29.6625,0.0,1782.667,-0.28500000000000014,100.0,27.706,28.018,43.138,43.583,0.0,1.0,100.0,0.0,0.0,0.0,0.0,3114.714285714286,3020.0,4176.625,4112.7,305.5715,305.0833333333333,314.68525,314.50275,21.9651,20.6187,21.9676,21.4701,314.999998,314.999998,324.999988,324.999988,99.55917142857143,99.50743333333334,99.56838571428571,99.54744285714285,0.08999999999999986,-0.045666666666666744,-0.10383333333333333,0.12066666666666667,-0.045000000000001705,-0.045000000000001705,1.4783333333333333,1.4856666666666667,38.282,29.866999999999997,38.298,35.188,56.077,35.2375,59.957,52.7125,54.010999999999996,34.361,58.542500000000004,51.016,53.17,33.9055,58.467,50.40866666666666,-0.10250000000000004,-0.05449999999999999,0.10434,0.10354000000000001,0.0,213.115,213.12,209.87333333333333,209.87333333333333,0.0,0.0
21,0.0,1.0,0.0,1.0,1.0,0.0,0.0,1.0,0.0,100.0,1.0,1.1856,26.0,0.0,0.0,0.0,59.999996,0.0,26.0,26.0,26.0,26.0,0.0011111111111110628,0.27590000000000003,-0.07287500000000001,292.831,-2.724,-2.661375,-1.6108,-1.5363,-205.69,215.43,190.55475,0.0,0.0,0.0,0.0,0.042300000000000004,-5.498166666666667,-5.498166666666667,-0.5749000000000001,-0.06966666666666667,0.007249999999999979,0.472,68.189,0.0063,-0.22760000000000002,-0.16600000000000037,100.0,1.0,1.0,210.4,0.0,0.0,0.0,0.0,0.0,0.0,0.0,8918.1,0.0,55.0,5.0,245.45333333333335,1.0,0.0,0.0,0.0,0.0,0.0,0.0,0.0,1.0530000000000008,1.0530000000000008,0.0,0.0,1.0,55.0,616.79921,10000.0,85.000001,85.000001,85.000001,85.000001,395.0,0.0,0.0,0.0,1.0,333.33500000000004,52.612,52.612,48.325,48.325,34.0,-23.009999999999998,25.198,-27.243333333333332,27.815,0.0,1782.62,-0.34999999999999787,100.0,27.895,27.758,42.885,43.124,0.0,1.0,100.0,0.0,0.0,0.0,0.0,3080.5714285714284,3119.6,3985.75,4009.4,305.457,305.014,315.1775,314.949,21.973399999999998,20.6236,21.9768,21.4781,314.999998,314.999998,324.999988,324.999988,99.55917142857143,99.50745,99.5685,99.54757142857143,0.10199999999999987,-0.02966666666666673,-0.0945,0.1255,-0.03999999999999915,-0.05833333333333002,1.565,1.5653333333333332,38.334,29.8975,38.355000000000004,35.238,56.066,35.2715,59.987,52.763999999999996,54.0,34.391999999999996,58.57,51.0655,53.158,33.9355,58.492,50.45733333333334,-0.10499999999999998,-0.0515000000000001,0.10083500000000001,0.106245,0.0,213.49,213.515,210.4,210.4,0.0,0.0
22,0.0,1.0,0.0,1.0,1.0,0.0,0.0,1.0,0.0,100.0,1.0,1.1856,26.0,0.0,0.0,0.0,59.999996,0.0,26.0,26.0,26.0,26.0,0.01633333333333331,0.27849999999999997,-0.004025,292.435,-2.7616,-2.628875,-1.5997,-1.525,-202.0,215.41750000000002,190.529625,0.0,0.0,0.0,0.0,0.04443333333333333,-5.498166666666667,-5.498166666666667,-0.5589000000000001,0.115,0.011874999999999858,0.9869999999999999,68.336,0.007,-0.200625,-0.2860000000000005,100.0,1.0,1.0,210.69333333333333,0.0,0.0,0.0,0.0,0.0,0.0,0.0,8930.5,0.0,55.0,5.0,245.98000000000002,0.0,0.0,0.0,0.0,0.0,0.0,0.0,0.0,1.1069999999999993,1.1069999999999993,0.0,0.0,0.0,55.0,616.79921,10000.0,85.000001,85.000001,85.000001,85.000001,395.0,0.0,0.0,0.0,1.0,166.665,52.704,52.704,47.394,47.394,34.0,-22.69,24.951999999999998,-29.406666666666666,30.9925,0.0,1782.568,-0.384999999999998,100.0,27.969,27.807,42.999,43.117000000000004,0.0,1.0,100.0,0.0,0.0,0.0,0.0,3004.857142857143,3130.9,4235.625,4349.9,305.7675,305.00466666666665,314.54575,314.179,21.9835,20.6295,21.9879,21.4878,314.999998,314.999998,324.999988,324.999988,99.55918571428572,99.50745,99.56865714285715,99.54772857142858,0.09966666666666635,-0.030333333333333323,-0.0935,0.12933333333333336,-0.04999999999999716,-0.04999999999999716,1.508,1.4923333333333333,38.397,29.9345,38.425,35.2985,56.052,35.3115,60.0265,52.8285,53.986999999999995,34.4295,58.6065,51.1275,53.144,33.971000000000004,58.5255,50.518,-0.10849999999999993,-0.04800000000000004,0.10701500000000001,0.11038500000000001,0.0,213.97500000000002,213.985,210.69333333333333,210.69333333333333,0.0,0.0
23,0.0,1.0,0.0,1.0,1.0,0.0,0.0,1.0,0.0,100.0,1.0,1.1856,26.0,0.0,0.0,0.0,59.999996,0.0,26.0,26.0,26.0,26.0,0.0043333333333333,0.2613000000000001,-0.016475,292.328,-2.7563,-2.667875,-1.6426,-1.4986000000000002,-198.72,215.41,190.507625,0.0,0.0,0.0,0.0,0.04633333333333333,-5.498166666666667,-5.498166666666667,-0.5724,-0.3486666666666667,0.013624999999999998,0.4829999999999999,68.463,0.008400000000000001,-0.22275,-0.23799999999999955,100.0,1.0,1.0,211.15666666666667,0.0,0.0,0.0,0.0,0.0,0.0,0.0,8950.2,0.0,55.0,5.0,246.44333333333333,1.0,0.0,0.0,0.0,0.0,0.0,0.0,0.0,1.1550000000000011,1.1550000000000011,0.0,0.0,1.0,55.0,616.79921,10000.0,85.000001,85.000001,85.000001,85.000001,395.0,0.0,0.0,0.0,1.0,166.665,52.138999999999996,52.138999999999996,47.852000000000004,47.852000000000004,34.0,-24.355,25.95,-28.633333333333333,29.1825,0.0,1782.52,-0.3550000000000004,100.0,28.09,27.984,43.182,43.414,0.0,1.0,100.0,0.0,0.0,0.0,0.0,3190.0,3193.2,4069.875,4145.3,305.1955,304.739,315.00925,314.65875,21.9924,20.6348,21.9979,21.4965,314.999998,314.999998,324.999988,324.999988,99.5592,99.50745,99.5688,99.54787142857143,0.09866666666666646,-0.03133333333333321,-0.09866666666666668,0.13633333333333333,-0.03833333333332689,-0.06666666666666998,1.5426666666666666,1.5156666666666667,38.453,29.9675,38.486999999999995,35.353,56.04,35.348,60.061,52.8865,53.974999999999994,34.463,58.638999999999996,51.184,53.132,34.0035,58.5545,50.573,-0.10849999999999993,-0.04800000000000004,0.106465,0.11525500000000001,0.0,214.34,214.36,211.15666666666667,211.15666666666667,0.0,0.0
24,0.0,1.0,0.0,1.0,1.0,0.0,0.0,1.0,0.0,100.0,1.0,1.1856,26.0,0.0,0.0,0.0,59.999996,0.0,26.0,26.0,26.0,26.0,0.009444444444444589,0.278,-0.04855,292.511,-2.6863,-2.668375,-1.6360000000000001,-1.5331000000000001,-195.43,215.4025,190.485125,0.0,0.0,0.0,0.0,0.04826666666666667,-5.498166666666667,-5.498166666666667,-0.5827,-0.226,0.017874999999999863,0.9809999999999999,68.592,0.012700000000000001,-0.221675,-0.3099999999999996,100.0,1.0,1.0,211.53,0.0,0.0,0.0,0.0,0.0,0.0,0.0,8966.0,0.0,55.0,5.0,246.9,0.0,0.0,0.0,0.0,0.0,0.0,0.0,0.0,1.2029999999999994,1.2029999999999994,0.0,0.0,0.0,55.0,616.79921,10000.0,85.000001,85.000001,85.000001,85.000001,395.0,0.0,0.0,0.0,1.0,166.665,52.734,52.734,47.607,47.607,34.0,-21.8725,24.682000000000002,-29.599999999999998,29.525000000000002,0.0,1782.472,-0.370000000000001,100.0,28.084,27.809,43.132,43.39,0.0,1.0,100.0,0.0,0.0,0.0,0.0,2974.857142857143,3061.2,4221.0,4160.6,305.709,305.15866666666665,314.6505,314.60575,22.0013,20.64,22.0078,21.5051,314.999998,314.999998,324.999988,324.999988,99.55921428571429,99.50746666666667,99.56892857142857,99.548,0.10133333333333372,-0.03166666666666673,-0.09366666666666668,0.13233333333333336,-0.03333333333333144,-0.04999999999999716,1.5373333333333332,1.533,38.507999999999996,30.0,38.548,35.407,56.028,35.382999999999996,60.095,52.9435,53.964,34.4955,58.67,51.2385,53.120000000000005,34.0345,58.583,50.626666666666665,-0.10050000000000003,-0.045500000000000096,0.10709500000000001,0.107005,0.0,214.74,214.755,211.53,211.53,0.0,0.0
25,0.0,1.0,0.0,1.0,1.0,0.0,0.0,1.0,0.0,100.0,1.0,1.1856,26.0,0.0,0.0,0.0,59.999996,0.0,26.0,26.0,26.0,26.0,0.045666666666666744,0.2661,-0.0302,292.511,-2.7615,-2.640625,-1.5765,-1.5229,-191.92000000000002,215.39249999999998,190.46025,0.0,0.0,0.0,0.0,0.050300000000000004,-5.498166666666667,-5.498166666666667,-0.6017,-0.19133333333333336,0.028249999999999886,-0.722,68.727,0.013800000000000002,-0.21915,-0.22599999999999998,100.0,1.0,1.0,211.99666666666667,0.0,0.0,0.0,0.0,0.0,0.0,0.0,8985.7,0.0,55.0,5.0,247.39,1.0,0.0,0.0,0.0,0.0,0.0,0.0,0.0,1.2540000000000013,1.2540000000000013,0.0,0.0,1.0,55.0,616.79921,10000.0,85.000001,85.000001,85.000001,85.000001,395.0,0.0,0.0,0.0,1.0,333.33500000000004,52.322,52.322,47.897,47.897,34.0,-24.6675,25.908,-26.823333333333338,28.835,0.0,1782.419,-0.3949999999999996,100.0,27.65,28.012999999999998,42.915,43.307,0.0,1.0,100.0,0.0,0.0,0.0,0.0,3231.4285714285716,3201.0,4017.25,4087.2,305.2875,304.5853333333333,315.13275,314.735,22.0106,20.6455,22.0182,21.5142,314.999998,314.999998,324.999988,324.999988,99.55922857142858,99.50746666666667,99.56908571428572,99.54814285714286,0.09566666666666634,-0.03200000000000003,-0.089,0.13333333333333336,-0.061666666666667425,-0.045000000000001705,1.5466666666666666,1.5446666666666666,38.567,30.0345,38.614000000000004,35.464,56.013999999999996,35.421,60.129999999999995,53.0025,53.95,34.5305,58.7025,51.295500000000004,53.105000000000004,34.068,58.6125,50.68233333333333,-0.10649999999999993,-0.04849999999999999,0.098085,0.11674500000000002,0.0,215.16,215.15,211.99666666666667,211.99666666666667,0.0,0.0
26,0.0,1.0,0.0,1.0,1.0,0.0,0.0,1.0,0.0,100.0,1.0,1.1856,26.0,0.0,0.0,0.0,59.999996,0.0,26.0,26.0,26.0,26.0,0.03744444444444439,0.28700000000000014,0.05235,291.534,-2.6921,-2.7193750000000003,-1.5573000000000001,-1.5302,-188.20999999999998,215.385,190.433125,0.0,0.0,0.0,0.0,0.05243333333333334,-5.498166666666667,-5.498166666666667,-0.5761000000000001,0.5116666666666667,0.015125000000000055,-0.7690000000000001,68.87100000000001,0.0135,-0.20120000000000002,-0.2779999999999996,100.0,1.0,1.0,212.24666666666667,0.0,0.0,0.0,0.0,0.0,0.0,0.0,8996.3,0.0,55.0,5.0,247.91,0.0,0.0,0.0,0.0,0.0,0.0,0.0,0.0,1.3079999999999998,1.3079999999999998,0.0,0.0,0.0,55.0,616.79921,10000.0,85.000001,85.000001,85.000001,85.000001,395.0,0.0,0.0,0.0,1.0,166.665,51.788,51.788,46.722,46.722,34.0,-23.52,25.002000000000002,-31.023333333333333,32.315,0.0,1782.367,-0.4250000000000007,100.0,28.485,28.642,43.196,43.67,0.0,1.0,100.0,0.0,0.0,0.0,0.0,3216.285714285714,3029.5,4494.125,4439.0,305.187,304.974,313.967,313.859,22.0208,20.6516,22.0294,21.524,314.999998,314.999998,324.999988,324.999988,99.55922857142858,99.50748333333334,99.56924285714285,99.54831428571428,0.1073333333333335,-0.03633333333333311,-0.09233333333333334,0.13133333333333336,-0.045000000000001705,-0.04833333333333201,1.4676666666666667,1.4563333333333333,38.629999999999995,30.072499999999998,38.684,35.525,56.003,35.463,60.169,53.068,53.94,34.5695,58.739,51.359,53.093,34.1055,58.6455,50.74433333333333,-0.11849999999999994,-0.04299999999999993,0.10318000000000001,0.11443500000000001,0.0,215.63,215.64499999999998,212.24666666666667,212.24666666666667,0.0,0.0
27,0.0,1.0,0.0,1.0,1.0,0.0,0.0,1.0,0.0,100.0,1.0,1.1856,26.0,0.0,0.0,0.0,59.999996,0.0,26.0,26.0,26.0,26.0,0.033333333333333215,0.25160000000000005,-0.008125,291.809,-2.7066,-2.65875,-1.5867,-1.6076000000000001,-185.11,215.38,190.4115,0.0,0.0,0.0,0.0,0.05423333333333334,-5.498166666666667,-5.498166666666667,-0.5905,-0.838,0.023749999999999938,0.8420000000000001,68.989,0.0172,-0.233625,-0.3979999999999997,100.0,1.0,1.0,212.67666666666668,0.0,0.0,0.0,0.0,0.0,0.0,0.0,9014.6,0.0,55.0,5.0,248.33666666666664,1.0,0.0,0.0,0.0,0.0,0.0,0.0,0.0,1.352999999999998,1.352999999999998,0.0,0.0,1.0,55.0,616.79921,10000.0,85.000001,85.000001,85.000001,85.000001,395.0,0.0,0.0,0.0,1.0,333.33500000000004,52.016999999999996,52.016999999999996,46.768,46.768,34.0,-21.84,26.322,-28.316666666666663,31.4575,0.0,1782.322,-0.3999999999999986,100.0,28.411,28.409,43.859,44.078,0.0,1.0,100.0,0.0,0.0,0.0,0.0,2986.857142857143,3219.6,4124.375,4175.2,305.686,304.64666666666665,314.768,314.479,22.029,20.6566,22.0388,21.5323,314.999998,314.999998,324.999988,324.999988,99.55925714285715,99.50748333333334,99.56937142857143,99.54844285714286,0.10899999999999999,-0.02733333333333321,-0.09033333333333333,0.13916666666666666,-0.04999999999999716,-0.054999999999999716,1.486,1.472,38.681,30.104,38.742999999999995,35.577,55.992000000000004,35.497,60.203,53.1235,53.929,34.6005,58.771,51.412,53.082,34.1355,58.6745,50.79666666666667,-0.10799999999999998,-0.0495000000000001,0.10805000000000001,0.10652,0.0,215.95,215.985,212.67666666666668,212.67666666666668,0.0,0.0
28,0.0,1.0,0.0,1.0,1.0,0.0,0.0,1.0,0.0,100.0,1.0,1.1856,26.0,0.0,0.0,0.0,59.999996,0.0,26.0,26.0,26.0,26.0,0.02644444444444427,0.26270000000000016,-0.046075000000000005,292.16,-2.6908,-2.6496250000000003,-1.6320999999999999,-1.557,-181.38,215.375,190.384875,0.0,0.0,0.0,0.0,0.05643333333333334,-5.498166666666667,-5.498166666666667,-0.6039,0.49033333333333334,0.014000000000000012,0.3839999999999999,69.128,0.021500000000000002,-0.22110000000000002,-0.4079999999999995,100.0,1.0,1.0,213.25666666666666,0.0,0.0,0.0,0.0,0.0,0.0,0.0,9039.1,0.0,55.0,5.0,248.83333333333334,0.0,0.0,0.0,0.0,0.0,0.0,0.0,0.0,1.407,1.407,0.0,0.0,0.0,55.0,616.79921,10000.0,85.000001,85.000001,85.000001,85.000001,395.0,0.0,0.0,0.0,1.0,166.665,51.956,51.956,47.699,47.699,34.0,-21.9275,26.114,-27.21333333333333,30.1325,0.0,1782.268,-0.4349999999999987,100.0,28.42,28.379,43.275,43.663,0.0,1.0,100.0,0.0,0.0,0.0,0.0,3066.714285714286,3204.5,4021.125,4115.7,305.4475,304.69866666666667,315.16775,314.726,22.038899999999998,20.6627,22.0498,21.5419,314.999998,314.999998,324.999988,324.999988,99.55927142857144,99.50748333333334,99.56951428571429,99.5486,0.11966666666666637,-0.026666666666666616,-0.08333333333333333,0.14633333333333334,-0.036666666666668846,-0.05666666666667197,1.5613333333333332,1.5426666666666666,38.742999999999995,30.1415,38.811,35.637,55.980000000000004,35.538,60.238,53.185,53.917,34.6385,58.8035,51.4715,53.068,34.1715,58.703,50.85466666666667,-0.11299999999999999,-0.04849999999999999,0.10828000000000002,0.11023000000000001,0.0,216.41,216.43,213.25666666666666,213.25666666666666,0.0,0.0
29,0.0,1.0,0.0,1.0,1.0,0.0,0.0,1.0,0.0,100.0,1.0,1.1856,26.0,0.0,0.0,0.0,59.999996,0.0,26.0,26.0,26.0,26.0,0.05511111111111111,0.26570000000000005,0.006175,291.885,-2.6694,-2.7135,-1.5723,-1.542,-178.06,215.37,190.360125,0.0,0.0,0.0,0.0,0.058366666666666664,-5.498166666666667,-5.498166666666667,-0.5994,-0.5096666666666667,0.008375000000000021,0.756,69.256,0.022000000000000002,-0.2096,-0.39399999999999924,100.0,1.0,1.0,213.44,0.0,0.0,0.0,0.0,0.0,0.0,0.0,9046.9,0.0,55.0,5.0,249.29666666666668,1.0,0.0,0.0,0.0,0.0,0.0,0.0,0.0,1.4549999999999983,1.4549999999999983,0.0,0.0,1.0,55.0,616.79921,10000.0,85.000001,85.000001,85.000001,85.000001,395.0,0.0,0.0,0.0,1.0,333.33500000000004,52.368,52.368,46.646,46.646,34.0,-21.0025,26.544,-28.21,32.8425,0.0,1782.218,-0.48999999999999844,100.0,28.133,28.218,43.659,43.829,0.0,1.0,100.0,0.0,0.0,0.0,0.0,2977.4285714285716,3144.3,4236.5,4357.9,305.746,304.81533333333334,314.50925,314.12675,22.0476,20.6679,22.0598,21.5507,314.999998,314.999998,324.999988,324.999988,99.55928571428572,99.50748333333334,99.56965714285714,99.54874285714286,0.11866666666666648,-0.01866666666666661,-0.07516666666666667,0.15183333333333335,-0.036666666666668846,-0.061666666666667425,1.4893333333333334,1.452,38.797,30.174500000000002,38.873999999999995,35.692,55.967,35.573,60.274,53.243,53.905,34.671,58.837,51.5275,53.055,34.203,58.7335,50.909333333333336,-0.11449999999999994,-0.043500000000000094,0.10680500000000001,0.11042500000000001,0.0,216.78,216.815,213.44,213.44,0.0,0.0
30,0.0,1.0,0.0,1.0,1.0,0.0,0.0,1.0,0.0,100.0,1.0,1.1856,26.0,0.0,0.0,0.0,59.999996,0.0,26.0,26.0,26.0,26.0,0.06166666666666676,0.2501,-0.010475,291.382,-2.7663,-2.7190000000000003,-1.5497,-1.5965,-174.51999999999998,215.365,190.33375,0.0,0.0,0.0,0.0,0.0604,-5.498166666666667,-5.498166666666667,-0.6118,0.5036666666666667,0.00550000000000006,-0.4159999999999999,69.386,0.025500000000000002,-0.223025,-0.4579999999999993,100.0,1.0,1.0,213.98333333333335,0.0,0.0,0.0,0.0,0.0,0.0,0.0,9069.9,0.0,55.0,5.0,249.76333333333332,0.0,0.0,0.0,0.0,0.0,0.0,1.0,0.0,1.5060000000000002,1.5060000000000002,0.0,0.0,0.0,55.0,616.79921,10000.0,85.000001,85.000001,85.000001,85.000001,395.0,0.0,0.0,0.0,1.0,166.665,50.629,50.629,47.592,47.592,34.0,-26.2925,28.79,-26.516666666666666,30.2175,0.0,1782.168,-0.47499999999999787,100.0,28.82,28.875,43.423,43.959,0.0,1.0,100.0,0.0,0.0,0.0,0.0,3510.142857142857,3373.9,4024.875,4083.2,304.407,304.0706666666667,315.12525,314.68325,22.0571,20.6738,22.0702,21.5599,314.999998,314.999998,324.999988,324.999988,99.5593,99.5075,99.5698,99.54888571428572,0.1166666666666667,-0.021666666666666723,-0.08750000000000001,0.138,-0.04999999999999716,-0.06499999999999773,1.5356666666666667,1.5273333333333334,38.857,30.211,38.939,35.7495,55.958,35.613,60.308,53.303,53.896,34.708,58.868,51.585,53.045,34.238,58.762,50.966,-0.12749999999999995,-0.04400000000000004,0.11105000000000001,0.10465,0.0,217.20499999999998,217.235,213.98333333333335,213.98333333333335,0.0,0.0
31,0.0,1.0,0.0,1.0,1.0,0.0,0.0,1.0,0.0,100.0,1.0,1.1856,26.0,0.0,0.0,0.0,59.999996,0.0,26.0,26.0,26.0,26.0,0.053888888888888875,0.2681,0.08522500000000001,290.833,-2.7775,-2.6233750000000002,-1.6482999999999999,-1.5354999999999999,-170.98000000000002,215.3625,190.307875,0.0,0.0,0.0,0.0,0.06246666666666666,-5.498166666666667,-5.498166666666667,-0.5849,-0.24566666666666667,0.02287499999999998,1.077,69.521,0.030100000000000002,-0.21407500000000002,-0.44399999999999995,100.0,1.0,1.0,214.15,0.0,0.0,0.0,0.0,0.0,0.0,0.0,9077.0,0.0,55.0,5.0,250.24666666666667,1.0,0.0,0.0,0.0,0.0,0.0,1.0,0.0,1.5569999999999986,1.5569999999999986,0.0,0.0,1.0,55.0,616.79921,10000.0,85.000001,85.000001,85.000001,85.000001,395.0,0.0,0.0,0.0,1.0,166.665,51.422,51.422,45.578,45.578,34.0,-22.3525,27.208,-30.71,34.980000000000004,0.0,1782.118,-0.46499999999999986,100.0,28.913,28.974,44.207,44.552,0.0,1.0,100.0,0.0,0.0,0.0,0.0,3061.5714285714284,3324.3,4416.5,4569.3,305.59,304.444,314.0375,313.48825,22.0664,20.6796,22.0809,21.5694,314.999998,314.999998,324.999988,324.999988,99.55931428571428,99.5075,99.56995714285715,99.54902857142856,0.1243333333333334,-0.018999999999999906,-0.0675,0.14983333333333335,-0.04333333333332945,-0.03833333333332689,1.4323333333333332,1.4056666666666666,38.915,30.247500000000002,39.006,35.8085,55.948,35.6525,60.3475,53.367,53.885999999999996,34.7445,58.905,51.647,53.034,34.2735,58.795500000000004,51.025999999999996,-0.119,-0.0515000000000001,0.09964500000000001,0.11178,0.0,217.61,217.64499999999998,214.15,214.15,0.0,0.0
32,0.0,1.0,0.0,1.0,1.0,0.0,0.0,1.0,0.0,100.0,1.0,1.1856,26.0,0.0,0.0,0.0,59.999996,0.0,26.0,26.0,26.0,26.0,0.036555555555555674,0.25460000000000016,-0.0656,291.458,-2.7387,-2.66825,-1.6654,-1.5381,-167.64,215.3625,190.284125,0.0,0.0,0.0,0.0,0.0644,-5.498166666666667,-5.498166666666667,-0.604,-0.25,0.0058749999999998526,0.18500000000000005,69.641,0.0324,-0.23217500000000002,-0.5039999999999996,100.0,1.0,1.0,214.72333333333333,0.0,0.0,0.0,0.0,0.0,0.0,0.0,9101.3,0.0,55.0,5.0,250.68,0.0,0.0,0.0,0.0,0.0,0.0,1.0,0.0,1.6050000000000004,1.6050000000000004,0.0,0.0,0.0,55.0,616.79921,10000.0,85.000001,85.000001,85.000001,85.000001,395.0,0.0,0.0,0.0,1.0,333.33500000000004,51.59,51.59,46.692,46.692,34.0,-22.1575,26.872,-28.12,31.1225,0.0,1782.068,-0.48499999999999943,100.0,28.73,28.947,44.082,44.507000000000005,0.0,1.0,100.0,0.0,0.0,0.0,0.0,3086.142857142857,3195.5,4119.5,4212.2,305.477,304.729,314.92475,314.5575,22.0751,20.685,22.0908,21.5781,314.999998,314.999998,324.999988,324.999988,99.55932857142857,99.5075,99.5701,99.54917142857143,0.12633333333333363,-0.011333333333333195,-0.07366666666666667,0.15283333333333335,-0.04333333333332945,-0.061666666666667425,1.5386666666666666,1.517,38.969,30.2815,39.067,35.8635,55.937,35.689499999999995,60.379999999999995,53.423500000000004,53.876000000000005,34.778999999999996,58.935,51.701499999999996,53.022999999999996,34.306,58.8225,51.07933333333334,-0.11549999999999994,-0.04200000000000004,0.10981,0.10583000000000001,0.0,217.97,218.0,214.72333333333333,214.72333333333333,0.0,0.0
33,0.0,1.0,0.0,1.0,1.0,0.0,0.0,1.0,0.0,100.0,1.0,1.1856,26.0,0.0,0.0,0.0,59.999996,0.0,26.0,26.0,26.0,26.0,0.05333333333333323,0.25270000000000015,-0.07525,291.718,-2.732,-2.689875,-1.5958,-1.5765,-164.29,215.3625,190.259375,0.0,0.0,0.0,0.0,0.06636666666666667,-5.498166666666667,-5.498166666666667,-0.6132000000000001,-0.17400000000000002,-0.0016250000000002096,0.8479999999999999,69.763,0.0324,-0.21855000000000002,-0.5259999999999998,100.0,1.0,1.0,215.09333333333333,0.0,0.0,0.0,0.0,0.0,0.0,0.0,9117.1,0.0,55.0,5.0,251.12,1.0,0.0,0.0,0.0,0.0,0.0,1.0,0.0,1.6529999999999987,1.6529999999999987,0.0,0.0,1.0,55.0,616.79921,10000.0,85.000001,85.000001,85.000001,85.000001,395.0,0.0,0.0,0.0,1.0,166.665,51.971000000000004,51.971000000000004,46.829,46.829,34.0,-21.3075,26.398,-27.32,31.645,0.0,1782.022,-0.5,100.0,28.563,28.68,43.883,44.278999999999996,0.0,1.0,100.0,0.0,0.0,0.0,0.0,3024.714285714286,3135.3,4109.0,4188.7,305.6835,304.87533333333334,314.87325,314.5675,22.0838,20.6904,22.1006,21.5868,314.999998,314.999998,324.999988,324.999988,99.55934285714285,99.5075,99.57024285714286,99.54931428571429,0.1323333333333334,-0.014666666666666606,-0.07583333333333334,0.15516666666666665,-0.03499999999999659,-0.051666666666669414,1.5323333333333333,1.5143333333333335,39.024,30.314500000000002,39.129000000000005,35.917500000000004,55.926,35.724000000000004,60.4125,53.4795,53.864999999999995,34.811,58.965,51.754999999999995,53.010999999999996,34.337,58.8495,51.132,-0.123,-0.04200000000000004,0.10745500000000001,0.11468500000000001,0.0,218.35500000000002,218.385,215.09333333333333,215.09333333333333,0.0,0.0
34,0.0,1.0,0.0,1.0,1.0,0.0,0.0,1.0,0.0,100.0,1.0,1.1856,26.0,0.0,0.0,0.0,59.999996,0.0,26.0,26.0,26.0,26.0,0.052444444444444294,0.2613000000000001,-0.050925000000000005,291.824,-2.6779,-2.6035,-1.6464,-1.5655000000000001,-160.73000000000002,215.365,190.231625,0.0,0.0,0.0,0.0,0.06843333333333335,-5.498166666666667,-5.498166666666667,-0.6343,-0.758,0.01662499999999989,-0.3900000000000001,69.894,0.0334,-0.218725,-0.38200000000000056,100.0,1.0,1.0,215.45666666666668,0.0,0.0,0.0,0.0,0.0,0.0,0.0,9132.4,0.0,55.0,5.0,251.59333333333336,0.0,0.0,0.0,0.0,0.0,0.0,1.0,0.0,1.7040000000000006,1.7040000000000006,0.0,0.0,0.0,55.0,616.79921,10000.0,85.000001,85.000001,85.000001,85.000001,395.0,0.0,0.0,0.0,1.0,333.33500000000004,52.185,52.185,47.195,47.195,34.0,-21.765,24.84,-28.029999999999998,31.6975,0.0,1781.969,-0.495000000000001,100.0,28.151,28.44,43.657,44.415,0.0,1.0,100.0,0.0,0.0,0.0,0.0,3103.5714285714284,3077.3,4137.75,4196.4,305.4655,304.99,314.91175,314.4245,22.0929,20.6959,22.111,21.5961,314.999998,314.999998,324.999988,324.999988,99.55935714285714,99.5075,99.57038571428572,99.54947142857142,0.1246666666666667,-0.022333333333333316,-0.07366666666666667,0.15233333333333335,-0.02833333333332888,-0.05666666666667197,1.526,1.4969999999999999,39.081,30.3495,39.194,35.9755,55.914,35.7605,60.4465,53.5405,53.852999999999994,34.8445,58.997,51.814,52.998000000000005,34.369,58.8775,51.18933333333334,-0.121,-0.04249999999999998,0.10322,0.11617500000000001,0.0,218.74,218.76999999999998,215.45666666666668,215.45666666666668,0.0,0.0
35,0.0,1.0,0.0,1.0,1.0,0.0,0.0,1.0,0.0,100.0,1.0,1.1856,26.0,0.0,0.0,0.0,59.999996,0.0,26.0,26.0,26.0,26.0,0.06133333333333324,0.24460000000000015,-0.0616,292.038,-2.8152,-2.58075,-1.5463,-1.5657,-156.95,215.3675,190.2005,0.0,0.0,0.0,0.0,0.07063333333333334,-5.498166666666667,-5.498166666666667,-0.6768000000000001,-0.2793333333333333,0.004750000000000032,-1.263,70.029,0.0361,-0.22690000000000002,-0.4739999999999993,100.0,1.0,1.0,215.98333333333335,0.0,0.0,0.0,0.0,0.0,0.0,0.0,9154.7,0.0,55.0,5.0,252.07999999999998,1.0,0.0,0.0,0.0,0.0,0.0,1.0,0.0,1.7579999999999991,1.7579999999999991,0.0,0.0,1.0,55.0,616.79921,10000.0,85.000001,85.000001,85.000001,85.000001,395.0,0.0,0.0,0.0,1.0,166.665,51.91,51.91,47.165,47.165,34.0,-24.005,26.084,-25.799999999999997,28.655,0.0,1781.917,-0.3150000000000013,100.0,27.937,28.667,43.393,43.915,0.0,1.0,100.0,0.0,0.0,0.0,0.0,3154.285714285714,3244.1,4053.25,3896.2,305.442,304.313,315.1325,315.18,22.1025,20.7021,22.1219,21.6058,314.999998,314.999998,324.999988,324.999988,99.55937142857142,99.50751666666666,99.57052857142857,99.54962857142857,0.10966666666666658,-0.02933333333333321,-0.07316666666666667,0.15116666666666667,-0.03999999999999915,-0.06333333333333258,1.562,1.554,39.141,30.387999999999998,39.262,36.036,55.899,35.8005,60.4815,53.6005,53.839,34.8815,59.028999999999996,51.872,52.983000000000004,34.4045,58.9065,51.24633333333333,-0.10299999999999998,-0.05600000000000005,0.10732000000000001,0.10231000000000001,0.0,219.16500000000002,219.2,215.98333333333335,215.98333333333335,0.0,0.0
36,0.0,1.0,0.0,1.0,1.0,0.0,0.0,1.0,0.0,100.0,1.0,1.1856,26.0,0.0,0.0,0.0,59.999996,0.0,26.0,26.0,26.0,26.0,0.036222222222222156,0.27049999999999996,0.004125,291.183,-2.7816,-2.6498749999999998,-1.6525,-1.5819,-153.59,215.3725,190.17125,0.0,0.0,0.0,0.0,0.07256666666666667,-5.498166666666667,-5.498166666666667,-0.6628000000000001,0.25433333333333336,-0.036125000000000185,-1.4929999999999999,70.153,0.0323,-0.20225,-0.21799999999999908,100.0,1.0,1.0,216.15,0.0,0.0,0.0,0.0,0.0,0.0,0.0,9161.7,0.0,55.0,5.0,252.52333333333334,0.0,0.0,0.0,0.0,0.0,0.0,1.0,0.0,1.806000000000001,1.806000000000001,0.0,0.0,0.0,55.0,616.79921,10000.0,85.000001,85.000001,85.000001,85.000001,395.0,0.0,0.0,0.0,1.0,166.665,51.513999999999996,51.513999999999996,46.692,46.692,34.0,-25.0875,25.266,-31.116666666666664,33.7325,0.0,1781.869,-0.3000000000000007,100.0,28.537,28.842,43.491,44.105000000000004,0.0,1.0,100.0,0.0,0.0,0.0,0.0,3348.0,3101.0,4455.75,4396.7,304.9285,304.8673333333333,314.1385,313.98425,22.1113,20.7076,22.1318,21.6145,314.999998,314.999998,324.999988,324.999988,99.55938571428571,99.50751666666666,99.57068571428572,99.54977142857143,0.11500000000000021,-0.028999999999999915,-0.0735,0.148,-0.05666666666667197,-0.03999999999999915,1.4536666666666667,1.4453333333333334,39.195,30.4225,39.324,36.091,55.888999999999996,35.8375,60.5145,53.658,53.83,34.916,59.06,51.9275,52.972,34.4375,58.9345,51.300333333333334,-0.10949999999999993,-0.06550000000000011,0.10449000000000001,0.10643000000000001,0.0,219.57999999999998,219.59,216.15,216.15,0.0,0.0
