,ABS Active,ABS Enabled,AID Allow Tire Blankets,AID Auto Blip,AID Auto Clutch,AID Auto Shift,AID Fuel Rate,AID Ideal Line,AID Mech Damage,AID Stability,AID Tire Wear Rate,Air Density,Air Temp,Ballast,Best Lap Delta,Best Lap Time,Brake Bias,Brake Pos,Brake Temp FL,Brake Temp FR,Brake Temp RL,Brake Temp RR,CG Accel Lateral,CG Accel Longitudinal,CG Accel Vertical,CG Height,Camber FL,Camber FR,Camber RL,Camber RR,Car Coord X,Car Coord Y,Car Coord Z,Car Damage Front,Car Damage Left,Car Damage Rear,Car Damage Right,Car Pos Norm,Caster FL,Caster FR,Chassis Pitch Angle,Chassis Pitch Rate,Chassis Roll Angle,Chassis Roll Rate,Chassis Velocity X,Chassis Velocity Y,Chassis Velocity Z,Chassis Yaw Rate,Clutch Pos,DRS Active,DRS Available,Drive Train Speed,ERS Heat Charging,ERS Is Charging,ERS Max Energy,ERS Power Level,ERS Recovery Level,Engine Brake Setting,Engine Limiter,Engine RPM,Flags,Fuel Level,Gear,Ground Speed,HR Sample Clock,In Pit,KERS Charge,KERS Deployed Energy,KERS Input,KERS Max Energy,LR Sample Clock,Lap Invalidated,Lap Time,Lap Time2,Last Lap Time,Last Sector Time,MR Sample Clock,Max Fuel,Max Power,Max RPM,Max Sus Travel FL,Max Sus Travel FR,Max Sus Travel RL,Max Sus Travel RR,Max Torque,Max Turbo Boost,Num Tires Off Track,Penalties Enabled,Position,Raw Data Sample Rate,Ride Height FL,Ride Height FR,Ride Height RL,Ride Height RR,Road Temp,Self Align Torque FL,Self Align Torque FR,Self Align Torque RL,Self Align Torque RR,Session Lap Count,Session Time Left,Steering Angle,Surface Grip,Suspension Travel FL,Suspension Travel FR,Suspension Travel RL,Suspension Travel RR,TC Active,TC Enabled,Throttle Pos,Tire Dirt Level FL,Tire Dirt Level FR,Tire Dirt Level RL,Tire Dirt Level RR,Tire Load FL,Tire Load FR,Tire Load RL,Tire Load RR,Tire Loaded Radius FL,Tire Loaded Radius FR,Tire Loaded Radius RL,Tire Loaded Radius RR,Tire Pressure FL,Tire Pressure FR,Tire Pressure RL,Tire Pressure RR,Tire Radius FL,Tire Radius FR,Tire Radius RL,Tire Radius RR,Tire Rubber Grip FL,Tire Rubber Grip FR,Tire Rubber Grip RL,Tire Rubber Grip RR,Tire Slip Angle FL,Tire Slip Angle FR,Tire Slip Angle RL,Tire Slip Angle RR,Tire Slip Ratio FL,Tire Slip Ratio FR,Tire Slip Ratio RL,Tire Slip Ratio RR,Tire Temp Core FL,Tire Temp Core FR,Tire Temp Core RL,Tire Temp Core RR,Tire Temp Inner FL,Tire Temp Inner FR,Tire Temp Inner RL,Tire Temp Inner RR,Tire Temp Middle FL,Tire Temp Middle FR,Tire Temp Middle RL,Tire Temp Middle RR,Tire Temp Outer FL,Tire Temp Outer FR,Tire Temp Outer RL,Tire Temp Outer RR,Toe In FL,Toe In FR,Toe In RL,Toe In RR,Turbo Boost,Wheel Angular Speed FL,Wheel Angular Speed FR,Wheel Angular Speed RL,Wheel Angular Speed RR,Wind Direction,Wind Speed
0,0.0,1.0,0.0,1.0,1.0,0.0,0.0,1.0,0.0,100.0,1.0,1.1856,26.0,0.0,0.0,0.0,59.99999,0.0,26.0,26.0,26.0,26.0,-0.0965555555555555,0.3549,0.03086666666666667,294.037,-2.7032,-2.683125,-1.5037,-1.572,-275.65,216.2825,190.9875,0.0,0.0,0.0,0.0,0.0016,-5.498166666666667,-5.498166666666667,-0.5543,1.5325,-0.024125000000000174,-0.7070000000000001,65.23400000000001,-0.055200000000000006,-0.21235,1.1080000000000005,100.0,1.0,1.0,201.87333333333333,0.0,0.0,0.0,0.0,0.0,0.0,0.0,9372.2,0.0,55.0,4.0,234.80333333333334,0.0,0.0,0.0,0.0,0.0,0.0,0.0,0.0,0.0030000000000001137,0.0030000000000001137,0.0,0.0,0.0,55.0,616.79921,10000.0,85.0,85.0,85.0,85.0,395.0,0.0,0.0,0.0,1.0,20.0,52.582,52.582,49.728,49.728,34.0,-28.2875,24.25,-29.643333333333334,22.4925,0.0,1783.954,0.8399999999999999,100.0,27.418,26.471,40.745000000000005,40.447,0.0,1.0,100.0,0.0,0.0,0.0,0.0,3134.5714285714284,3496.0,4049.875,3873.8,305.284,303.6515,315.03975,315.19425,21.7765,20.5103,21.7593,21.2983,314.99999,314.99999,324.99998,324.99998,99.5588,99.50716666666666,99.56448571428571,99.54425714285715,-0.018333333333333313,-0.13,-0.1854,0.04740000000000011,-0.054999999999999716,-0.060000000000002274,1.7856666666666667,1.8145,37.102999999999994,29.189666666666668,36.995000000000005,34.114,56.263,34.4155,58.789500000000004,51.27766666666666,54.187,33.605000000000004,57.4385,49.65133333333333,53.361,33.1835,57.4135,49.077666666666666,-0.008000000000000007,-0.1339999999999999,0.10438000000000001,0.11292,0.0,204.435,204.335,201.87333333333333,201.87333333333333,0.0,0.0
1,0.0,1.0,0.0,1.0,1.0,0.0,0.0,1.0,0.0,100.0,1.0,1.1856,26.0,0.0,0.0,0.0,59.999996,0.0,26.0,26.0,26.0,26.0,-0.12211111111111106,0.3981000000000001,0.21926666666666667,293.106,-2.6305,-2.782375,-1.5216,-1.5594999999999999,-272.32,216.2775,190.967375,0.0,0.0,0.0,0.0,0.0035333333333333336,-5.498166666666667,-5.498166666666667,-0.4776,-0.3195,-0.06587500000000013,-0.815,65.425,-0.0682,-0.1728,1.4760000000000009,100.0,1.0,1.0,201.99,0.0,0.0,0.0,0.0,0.0,0.0,0.0,9377.6,0.0,55.0,4.0,235.49,1.0,0.0,0.0,0.0,0.0,0.0,0.0,0.0,0.053999999999998494,0.053999999999998494,0.0,0.0,1.0,55.0,616.79921,10000.0,85.000001,85.000001,85.000001,85.000001,395.0,0.0,0.0,0.0,1.0,333.33500000000004,54.184,54.184,47.836,47.836,34.0,-26.947499999999998,16.747999999999998,-35.93333333333334,28.3375,0.0,1783.902,0.9000000000000021,100.0,27.317,26.645,43.049,41.668,0.0,1.0,100.0,0.0,0.0,0.0,0.0,3050.0,2564.6,4424.375,4808.8,305.609,306.663,314.02975,312.86825,21.7864,20.5154,21.7701,21.307299999999998,314.999998,314.999998,324.999988,324.999988,99.55881428571429,99.50718333333333,99.56467142857143,99.54442857142857,-0.02499999999999991,-0.15366666666666662,-0.20839999999999992,0.021600000000000064,-0.03499999999999659,-0.03999999999999915,1.5386666666666666,1.6165,37.165,29.221333333333334,37.063,34.170500000000004,56.248000000000005,34.457,58.845,51.352000000000004,54.172,33.6435,57.4905,49.72266666666667,53.346000000000004,33.22,57.4625,49.147333333333336,-0.0029999999999998916,-0.1419999999999999,0.10695,0.11001500000000002,0.0,204.99,204.89499999999998,201.99,201.99,0.0,0.0
2,0.0,1.0,0.0,1.0,1.0,0.0,0.0,1.0,0.0,100.0,1.0,1.1856,26.0,0.0,0.0,0.0,59.999996,0.0,26.0,26.0,26.0,26.0,-0.14511111111111108,0.34420000000000006,-0.0036666666666666666,293.884,-2.6002,-2.810125,-1.4839,-1.6173000000000002,-268.78,216.2725,190.947625,0.0,0.0,0.0,0.0,0.0056,-5.498166666666667,-5.498166666666667,-0.5397000000000001,-0.14400000000000002,-0.057250000000000245,2.02,65.60900000000001,-0.0816,-0.23955,1.6500000000000004,100.0,1.0,1.0,203.14,0.0,0.0,0.0,0.0,0.0,0.0,0.0,9430.9,0.0,55.0,4.0,236.15666666666667,0.0,0.0,0.0,0.0,0.0,0.0,0.0,0.0,0.10800000000000054,0.10800000000000054,0.0,0.0,0.0,55.0,616.79921,10000.0,85.000001,85.000001,85.000001,85.000001,395.0,0.0,0.0,0.0,1.0,166.665,52.887,52.887,50.11,50.11,34.0,-30.8525,19.099999999999998,-28.486666666666665,19.02,0.0,1783.849,0.745000000000001,100.0,27.956,26.569,42.811,41.385,0.0,1.0,100.0,0.0,0.0,0.0,0.0,3370.857142857143,2887.3,3715.875,3664.9,304.5755,305.66125,315.73225,315.80775,21.7972,20.5205,21.7811,21.3165,314.999998,314.999998,324.999988,324.999988,99.55881428571429,99.5072,99.56482857142858,99.5446,-0.04133333333333322,-0.16266666666666663,-0.236,-0.00039999999999995595,-0.060000000000002274,-0.07499999999999574,1.8513333333333333,1.92,37.232,29.253333333333334,37.132,34.228,56.235,34.497,58.894,51.42166666666667,54.16,33.6805,57.536500000000004,49.78933333333333,53.332,33.254999999999995,57.5055,49.212666666666664,-0.011500000000000066,-0.13600000000000012,0.10595500000000001,0.10580500000000001,0.0,205.57,205.435,203.14,203.14,0.0,0.0
3,0.0,1.0,0.0,1.0,1.0,0.0,0.0,1.0,0.0,100.0,1.0,1.1856,26.0,0.0,0.0,0.0,59.999996,0.0,26.0,26.0,26.0,26.0,-0.14533333333333331,0.3669,-0.019833333333333335,293.564,-2.7315,-2.699875,-1.509,-1.5953,-265.63,216.2625,190.929,0.0,0.0,0.0,0.0,0.0074333333333333335,-5.498166666666667,-5.498166666666667,-0.5007,0.5650000000000001,-0.014250000000000096,-0.9339999999999999,65.78399999999999,-0.0955,-0.188725,1.3279999999999994,100.0,1.0,1.0,203.31666666666666,0.0,0.0,0.0,0.0,0.0,0.0,0.0,9439.0,0.0,55.0,4.0,236.7866666666667,1.0,0.0,0.0,0.0,0.0,0.0,0.0,0.0,0.1559999999999988,0.1559999999999988,0.0,0.0,1.0,55.0,616.79921,10000.0,85.000001,85.000001,85.000001,85.000001,395.0,0.0,0.0,0.0,1.0,166.665,53.955,53.955,48.035,48.035,34.0,-26.4025,17.712,-35.42333333333333,23.5,0.0,1783.8,0.629999999999999,100.0,27.56,26.754,42.489000000000004,41.465,0.0,1.0,100.0,0.0,0.0,0.0,0.0,2869.285714285714,2761.1,4352.75,4238.2,306.0905,305.848,314.2635,314.29325,21.8064,20.5253,21.7909,21.3248,314.999998,314.999998,324.999988,324.999988,99.55881428571429,99.50721666666666,99.56497142857143,99.54474285714285,-0.03633333333333311,-0.15533333333333332,-0.22660000000000002,0.0027999999999999137,-0.06833333333332803,-0.046666666666666856,1.6346666666666665,1.7025000000000001,37.29,29.28333333333333,37.193,34.28,56.22,34.536500000000004,58.939,51.489333333333335,54.144999999999996,33.717,57.579,49.854,53.317,33.29,57.545,49.275999999999996,-0.027499999999999858,-0.1200000000000001,0.10054500000000001,0.118845,0.0,206.155,206.01999999999998,203.31666666666666,203.31666666666666,0.0,0.0
4,0.0,1.0,0.0,1.0,1.0,0.0,0.0,1.0,0.0,100.0,1.0,1.1856,26.0,0.0,0.0,0.0,59.999996,0.0,26.0,26.0,26.0,26.0,-0.14588888888888885,0.3418000000000001,-0.011966666666666667,293.747,-2.6633,-2.7495000000000003,-1.5267,-1.6006,-262.47,216.2475,190.9105,0.0,0.0,0.0,0.0,0.009266666666666668,-5.498166666666667,-5.498166666666667,-0.5312,-0.8155,-0.08174999999999999,-1.936,65.95400000000001,-0.0946,-0.223275,1.2140000000000004,100.0,1.0,1.0,203.93666666666667,0.0,0.0,0.0,0.0,0.0,0.0,0.0,9467.9,0.0,55.0,4.0,237.4,0.0,0.0,0.0,0.0,0.0,0.0,0.0,0.0,0.20400000000000063,0.20400000000000063,0.0,0.0,0.0,55.0,616.79921,10000.0,85.000001,85.000001,85.000001,85.000001,395.0,0.0,0.0,0.0,1.0,333.33500000000004,53.589,53.589,48.553,48.553,34.0,-29.4775,18.62,-32.67666666666666,19.985,0.0,1783.752,0.6050000000000004,100.0,27.302,26.529,42.92,41.587,0.0,1.0,100.0,0.0,0.0,0.0,0.0,3237.4285714285716,2826.3,4160.25,3712.3,305.15,305.686,314.6645,315.54875,21.8155,20.5301,21.8009,21.3331,314.999998,314.999998,324.999988,324.999988,99.55882857142858,99.50723333333333,99.56512857142857,99.54488571428571,-0.03433333333333333,-0.15433333333333332,-0.21120000000000005,0.006000000000000005,-0.054999999999999716,-0.05666666666667197,1.7266666666666666,1.7885,37.347,29.312666666666665,37.256,34.332,56.203,34.575,58.987,51.553666666666665,54.129000000000005,33.7525,57.624,49.91566666666667,53.3,33.324,57.587,49.336666666666666,-0.024499999999999966,-0.11500000000000021,0.10740000000000001,0.10743000000000001,0.0,206.60000000000002,206.505,203.93666666666667,203.93666666666667,0.0,0.0
5,0.0,1.0,0.0,1.0,1.0,0.0,0.0,1.0,0.0,100.0,1.0,1.1856,26.0,0.0,0.0,0.0,59.999996,0.0,26.0,26.0,26.0,26.0,-0.14411111111111108,0.36460000000000004,-0.020966666666666668,293.823,-2.6687,-2.779,-1.506,-1.5934,-259.1,216.23000000000002,190.89025,0.0,0.0,0.0,0.0,0.011233333333333333,-5.498166666666667,-5.498166666666667,-0.5268,0.4325,-0.08512500000000012,1.1840000000000002,66.133,-0.09570000000000001,-0.203075,1.072000000000001,100.0,1.0,1.0,204.49666666666667,0.0,0.0,0.0,0.0,0.0,0.0,0.0,9493.9,0.0,55.0,4.0,238.0366666666667,1.0,0.0,0.0,0.0,0.0,0.0,0.0,0.0,0.254999999999999,0.254999999999999,0.0,0.0,1.0,55.0,616.79921,10000.0,85.000001,85.000001,85.000001,85.000001,395.0,0.0,0.0,0.0,1.0,333.33500000000004,53.894,53.894,48.95,48.95,34.0,-27.3425,18.984,-32.29666666666667,22.4,0.0,1783.699,0.15500000000000114,100.0,27.617,26.248,42.733000000000004,41.153,0.0,1.0,100.0,0.0,0.0,0.0,0.0,3063.0,2804.1,4135.5,4072.6000000000004,305.443,305.9795,314.7585,314.78925,21.825499999999998,20.5351,21.8113,21.3418,314.999998,314.999998,324.999988,324.999988,99.55882857142858,99.50725,99.56528571428571,99.54504285714286,-0.018333333333333313,-0.14100000000000001,-0.21539999999999992,0.010399999999999965,-0.03333333333333144,-0.06666666666666998,1.7333333333333334,1.7770000000000001,37.409,29.34433333333333,37.321,34.385999999999996,56.189,34.6155,59.0355,51.61933333333333,54.116,33.789,57.6695,49.97833333333333,53.286,33.359,57.6295,49.397999999999996,-0.05049999999999999,-0.09399999999999986,0.101995,0.11448000000000001,0.0,207.21,207.11,204.49666666666667,204.49666666666667,0.0,0.0
6,0.0,1.0,0.0,1.0,1.0,0.0,0.0,1.0,0.0,100.0,1.0,1.1856,26.0,0.0,0.0,0.0,59.999996,0.0,26.0,26.0,26.0,26.0,-0.1223333333333334,0.3824000000000001,0.012066666666666668,293.594,-2.6385,-2.7508749999999997,-1.5521,-1.5849,-255.92,216.2125,190.870875,0.0,0.0,0.0,0.0,0.013066666666666666,-5.498166666666667,-5.498166666666667,-0.5206000000000001,0.121,-0.0638749999999999,0.9180000000000001,66.30199999999999,-0.0897,-0.201,0.7620000000000005,100.0,1.0,1.0,204.97,0.0,0.0,0.0,0.0,0.0,0.0,0.0,9515.8,0.0,55.0,4.0,238.65333333333334,0.0,0.0,0.0,0.0,0.0,0.0,0.0,0.0,0.3030000000000008,0.3030000000000008,0.0,0.0,0.0,55.0,616.79921,10000.0,85.000001,85.000001,85.000001,85.000001,395.0,0.0,0.0,0.0,1.0,333.33500000000004,53.558,53.558,48.615,48.615,34.0,-26.447499999999998,20.88,-31.793333333333333,23.177500000000002,0.0,1783.651,0.0,100.0,27.49,26.338,42.867000000000004,41.525999999999996,0.0,1.0,100.0,0.0,0.0,0.0,0.0,3095.714285714286,2964.0,4089.25,4061.7,305.327,305.4355,314.8565,314.8105,21.834699999999998,20.5399,21.8212,21.3502,314.999998,314.999998,324.999988,324.999988,99.55884285714286,99.50726666666667,99.56544285714286,99.54518571428571,0.006000000000000227,-0.121,-0.20079999999999998,0.026599999999999957,-0.07333333333333059,-0.06833333333332803,1.7293333333333334,1.74,37.467,29.374000000000002,37.382999999999996,34.4385,56.174,34.653,59.082,51.686,54.102000000000004,33.824,57.7125,50.042,53.272,33.3925,57.67,49.46,-0.07250000000000001,-0.07699999999999996,0.105175,0.11445500000000002,0.0,207.71,207.61,204.97,204.97,0.0,0.0
7,0.0,1.0,0.0,1.0,1.0,0.0,0.0,1.0,0.0,100.0,1.0,1.1856,26.0,0.0,0.0,0.0,59.999996,0.0,26.0,26.0,26.0,26.0,-0.07966666666666666,0.36129999999999995,0.0489,293.335,-2.6123,-2.741625,-1.5134,-1.627,-252.34,216.1875,190.84925,0.0,0.0,0.0,0.0,0.015166666666666667,-5.498166666666667,-5.498166666666667,-0.5244,0.002,-0.0521250000000002,1.158,66.491,-0.0717,-0.211925,0.33999999999999986,100.0,1.0,1.0,205.53333333333333,0.0,0.0,0.0,0.0,0.0,0.0,0.0,9542.0,0.0,55.0,4.0,239.33333333333331,1.0,0.0,0.0,0.0,0.0,0.0,0.0,0.0,0.3569999999999993,0.3569999999999993,0.0,0.0,1.0,55.0,616.79921,10000.0,85.000001,85.000001,85.000001,85.000001,395.0,0.0,0.0,0.0,1.0,166.665,53.238,53.238,48.706,48.706,34.0,-25.895,22.352,-30.563333333333333,24.9675,0.0,1783.6,-0.23000000000000043,100.0,27.632,26.465,42.914,41.821,0.0,1.0,100.0,0.0,0.0,0.0,0.0,3152.142857142857,3008.0,4051.5,4086.3,305.0725,305.25575,314.892,314.6785,21.8451,20.5453,21.8323,21.3596,314.999998,314.999998,324.999988,324.999988,99.55884285714286,99.50728333333333,99.56561428571429,99.54535714285714,0.02933333333333321,-0.09299999999999997,-0.1886,0.04440000000000022,-0.046666666666666856,-0.054999999999999716,1.7093333333333334,1.7185000000000001,37.532,29.408,37.452,34.4975,56.158,34.694,59.1335,51.76,54.087,33.8615,57.760999999999996,50.113,53.256,33.4285,57.715,49.529666666666664,-0.08999999999999986,-0.05600000000000005,0.11099500000000001,0.110835,0.0,208.26,208.21,205.53333333333333,205.53333333333333,0.0,0.0
8,0.0,1.0,0.0,1.0,1.0,0.0,0.0,1.0,0.0,100.0,1.0,1.1856,26.0,0.0,0.0,0.0,59.999996,0.0,26.0,26.0,26.0,26.0,-0.03511111111111109,0.35850000000000004,-0.03546666666666667,293.579,-2.7034,-2.7197500000000003,-1.4986000000000002,-1.5759,-248.94,216.16,190.82875,0.0,0.0,0.0,0.0,0.017133333333333334,-5.498166666666667,-5.498166666666667,-0.5267000000000001,-0.5065000000000001,-0.03412499999999996,-0.41100000000000003,66.669,-0.0511,-0.20425000000000001,0.012000000000000455,100.0,1.0,1.0,206.01333333333332,0.0,0.0,0.0,0.0,0.0,0.0,0.0,9564.2,0.0,55.0,4.0,239.97333333333336,0.0,0.0,0.0,0.0,0.0,0.0,0.0,0.0,0.40800000000000125,0.40800000000000125,0.0,0.0,0.0,55.0,616.79921,10000.0,85.000001,85.000001,85.000001,85.000001,395.0,0.0,0.0,0.0,1.0,166.665,54.062,54.062,48.035,48.035,34.0,-24.0075,21.884,-29.463333333333335,25.8925,0.0,1783.549,-0.379999999999999,100.0,27.065,26.589,42.804,42.044,0.0,1.0,100.0,0.0,0.0,0.0,0.0,2953.4285714285716,2882.9,4173.0,4107.9,305.9465,305.5345,314.63875,314.54675,21.8547,20.5504,21.8428,21.3686,314.999998,314.999998,324.999988,324.999988,99.55884285714286,99.50728333333333,99.56577142857142,99.54551428571429,0.04033333333333333,-0.07599999999999996,-0.14879999999999993,0.06899999999999995,-0.04833333333333201,-0.05333333333332746,1.7023333333333333,1.698,37.592,29.439999999999998,37.516999999999996,34.5535,56.141,34.732,59.182,51.82966666666667,54.07,33.8965,57.806,50.17933333333333,53.239,33.462,57.757,49.59466666666667,-0.10450000000000004,-0.040000000000000036,0.099775,0.114415,0.0,208.8,208.78,206.01333333333332,206.01333333333332,0.0,0.0
9,0.0,1.0,0.0,1.0,1.0,0.0,0.0,1.0,0.0,100.0,1.0,1.1856,26.0,0.0,0.0,0.0,59.999996,0.0,26.0,26.0,26.0,26.0,-0.030777777777777793,0.3520000000000001,0.0281,293.259,-2.6884,-2.7268749999999997,-1.556,-1.5578,-245.94,216.1375,190.81,0.0,0.0,0.0,0.0,0.0189,-5.498166666666667,-5.498166666666667,-0.5334,0.5675,-0.033250000000000224,0.679,66.82300000000001,-0.0333,-0.205025,-0.16000000000000014,100.0,1.0,1.0,206.63,0.0,0.0,0.0,0.0,0.0,0.0,0.0,9592.9,0.0,55.0,4.0,240.52666666666664,1.0,0.0,0.0,0.0,0.0,0.0,0.0,0.0,0.4529999999999994,0.4529999999999994,0.0,0.0,1.0,55.0,616.79921,10000.0,85.000001,85.000001,85.000001,85.000001,395.0,0.0,0.0,0.0,1.0,333.33500000000004,52.811,52.811,49.010999999999996,49.010999999999996,34.0,-25.7075,24.672,-27.716666666666665,26.5425,0.0,1783.502,-0.5249999999999986,100.0,27.625,26.873,42.549,41.972,0.0,1.0,100.0,0.0,0.0,0.0,0.0,3258.4285714285716,3084.3,3977.5,4088.1000000000004,304.883,305.021,315.16,314.74775,21.8633,20.5551,21.8519,21.3764,314.999998,314.999998,324.999988,324.999988,99.55884285714286,99.5073,99.56591428571429,99.54565714285714,0.06899999999999995,-0.04999999999999993,-0.1382,0.09800000000000009,-0.03999999999999915,-0.06499999999999773,1.7570000000000001,1.751,37.644999999999996,29.46933333333333,37.574,34.6025,56.129000000000005,34.7665,59.221000000000004,51.88966666666666,54.059,33.9285,57.843,50.237,53.226,33.492,57.791,49.65133333333333,-0.11299999999999999,-0.03299999999999992,0.10848500000000001,0.11467500000000001,0.0,209.26,209.28,206.63,206.63,0.0,0.0
10,0.0,1.0,0.0,1.0,1.0,0.0,0.0,1.0,0.0,100.0,1.0,1.1856,26.0,0.0,0.0,0.0,59.999996,0.0,26.0,26.0,26.0,26.0,-0.001777777777777767,0.3520000000000001,0.0018666666666666669,292.999,-2.6616,-2.713875,-1.5324,-1.5405,-242.51999999999998,216.11,190.78925,0.0,0.0,0.0,0.0,0.020866666666666665,-5.498166666666667,-5.498166666666667,-0.5078,-0.337,0.002375000000000016,0.379,67.002,-0.011000000000000001,-0.19445,-0.4560000000000004,100.0,1.0,1.0,206.92666666666668,0.0,0.0,0.0,0.0,0.0,0.0,0.0,9606.8,0.0,55.0,4.0,241.17333333333335,0.0,0.0,0.0,0.0,0.0,0.0,1.0,0.0,0.5040000000000013,0.5040000000000013,0.0,0.0,0.0,55.0,616.79921,10000.0,85.000001,85.000001,85.000001,85.000001,395.0,0.0,0.0,0.0,1.0,333.33500000000004,53.802,53.802,47.409,47.409,34.0,-21.225,22.634,-30.426666666666666,28.7675,0.0,1783.451,-0.6400000000000006,100.0,27.45,27.039,42.917,42.795,0.0,1.0,100.0,0.0,0.0,0.0,0.0,2887.0,2836.7,4367.875,4297.1,306.095,305.65125,314.177,314.10075,21.8729,20.5603,21.8625,21.3855,314.999998,314.999998,324.999988,324.999988,99.55885714285715,99.5073,99.56607142857143,99.54581428571429,0.08800000000000008,-0.04533333333333334,-0.12239999999999995,0.09979999999999989,-0.051666666666669414,-0.046666666666666856,1.655,1.6285,37.706,29.502000000000002,37.641,34.6595,56.116,34.803,59.2715,51.963,54.046,33.962,57.89,50.30733333333333,53.213,33.5245,57.8345,49.72,-0.129,-0.02300000000000013,0.10231000000000001,0.10441500000000001,0.0,209.81,209.82999999999998,206.92666666666668,206.92666666666668,0.0,0.0
11,0.0,1.0,0.0,1.0,1.0,0.0,0.0,1.0,0.0,100.0,1.0,1.1856,26.0,0.0,0.0,0.0,59.999996,0.0,26.0,26.0,26.0,26.0,0.030777777777777793,0.3358000000000001,-0.07596666666666667,293.579,-2.7111,-2.689875,-1.5932,-1.5261,-239.1,216.08249999999998,190.7685,0.0,0.0,0.0,0.0,0.022600000000000002,-5.498166666666667,-5.498166666666667,-0.5505,-0.2455,0.03400000000000003,0.45999999999999996,67.172,0.01,-0.226275,-0.6499999999999995,100.0,1.0,1.0,207.8,0.0,0.0,0.0,0.0,0.0,0.0,0.0,9647.2,0.0,55.0,4.0,241.78666666666666,1.0,0.0,0.0,0.0,0.0,0.0,1.0,0.0,0.5549999999999997,0.5549999999999997,0.0,0.0,1.0,55.0,616.79921,10000.0,85.000001,85.000001,85.000001,85.000001,395.0,0.0,0.0,0.0,1.0,333.33500000000004,53.223,53.223,49.072,49.072,34.0,-21.84,26.364,-23.296666666666667,26.747500000000002,0.0,1783.4,-0.7199999999999989,100.0,27.261,27.133,42.559,42.717,0.0,1.0,100.0,0.0,0.0,0.0,0.0,2975.857142857143,3155.0,3693.75,3914.5,305.7335,304.817,315.86975,315.13725,21.8824,20.5657,21.872799999999998,21.3945,314.999998,314.999998,324.999988,324.999988,99.55887142857142,99.50731666666667,99.56622857142857,99.54597142857143,0.10499999999999998,-0.01733333333333331,-0.08760000000000001,0.14259999999999984,-0.03833333333332689,-0.054999999999999716,1.8243333333333334,1.7955,37.765,29.535666666666664,37.705,34.7155,56.101,34.8405,59.314,52.032,54.032,33.9965,57.93,50.373333333333335,53.198,33.5575,57.8715,49.784666666666666,-0.11850000000000005,-0.02400000000000002,0.10409,0.11158000000000001,0.0,210.305,210.35000000000002,207.8,207.8,0.0,0.0
12,0.0,1.0,0.0,1.0,1.0,0.0,0.0,1.0,0.0,100.0,1.0,1.1856,26.0,0.0,0.0,0.0,59.999996,0.0,26.0,26.0,26.0,26.0,0.039111111111111097,0.34930000000000017,0.006966666666666668,293.03,-2.7624,-2.6885000000000003,-1.5538,-1.5271,-235.87,216.0575,190.74775,0.0,0.0,0.0,0.0,0.025466666666666665,-5.498166666666667,-5.498166666666667,-0.5351,0.302,0.01912500000000006,0.5429999999999999,67.339,0.027600000000000003,-0.193,-0.7579999999999991,100.0,1.0,1.0,208.07333333333332,0.0,0.0,0.0,0.0,0.0,0.0,0.0,9659.9,0.0,55.0,4.0,242.38333333333333,0.0,0.0,0.0,0.0,0.0,0.0,1.0,0.0,0.602999999999998,0.602999999999998,0.0,0.0,0.0,55.0,616.79921,10000.0,85.000001,85.000001,85.000001,85.000001,395.0,0.0,0.0,0.0,1.0,166.665,53.253,53.253,47.745,47.745,34.0,-22.14,26.698,-26.443333333333335,31.052500000000002,0.0,1783.353,-0.6600000000000001,100.0,27.153,27.235,42.494,42.618,0.0,1.0,100.0,0.0,0.0,0.0,0.0,2992.857142857143,3163.3,4185.125,4250.2,305.7065,304.82075,314.628,314.35325,21.8914,20.5709,21.8826,21.403,314.999998,314.999998,324.999988,324.999988,99.55888571428571,99.50731666666667,99.56638571428572,99.54611428571428,0.1120000000000001,-0.010000000000000009,-0.07339999999999991,0.16199999999999992,-0.030000000000001137,-0.041666666666671404,1.7026666666666666,1.6760000000000002,37.821,29.567666666666668,37.766,34.7685,56.089,34.876,59.358000000000004,52.098,54.019999999999996,34.0295,57.9705,50.43666666666667,53.185,33.589,57.9095,49.847,-0.11250000000000004,-0.027000000000000135,0.112115,0.10934,0.0,210.85500000000002,210.89,208.07333333333332,208.07333333333332,0.0,0.0
13,0.0,1.0,0.0,1.0,1.0,0.0,0.0,1.0,0.0,100.0,1.0,1.1856,26.0,0.0,0.0,0.0,59.999996,0.0,26.0,26.0,26.0,26.0,0.07766666666666677,0.3501000000000001,0.03576666666666667,292.587,-2.7418,-2.6797500000000003,-1.6233,-1.5451000000000001,-232.43,216.0325,190.725875,0.0,0.0,0.0,0.0,0.02673333333333333,-5.498166666666667,-5.498166666666667,-0.5277000000000001,-0.083,0.01924999999999999,-0.45799999999999996,67.514,0.034800000000000005,-0.20035,-0.71,100.0,1.0,1.0,208.5233333333333,0.0,0.0,0.0,0.0,0.0,0.0,0.0,9680.8,0.0,55.0,4.0,243.01666666666665,1.0,0.0,0.0,0.0,0.0,0.0,1.0,0.0,0.6539999999999999,0.6539999999999999,0.0,0.0,1.0,55.0,616.79921,10000.0,85.000001,85.000001,85.000001,85.000001,395.0,0.0,0.0,0.0,1.0,333.33500000000004,52.872,52.872,47.653,47.653,34.0,-21.765,26.618,-27.856666666666666,31.725,0.0,1783.302,-0.884999999999998,100.0,27.356,27.628,42.644,43.230000000000004,0.0,1.0,100.0,0.0,0.0,0.0,0.0,3137.857142857143,3055.6,4264.0,4315.9,305.422,304.963,314.51175,314.08425,21.901,20.5763,21.8931,21.4122,314.999998,314.999998,324.999988,324.999988,99.5589,99.50731666666667,99.56654285714286,99.54628571428572,0.14033333333333342,0.010000000000000009,-0.0693999999999999,0.15399999999999991,-0.041666666666671404,-0.05833333333333002,1.6743333333333332,1.6535,37.881,29.602,37.832,34.826,56.078,34.914,59.4055,52.171,54.01,34.064499999999995,58.015,50.507,53.173,33.6225,57.9505,49.91566666666667,-0.14900000000000002,-0.006000000000000227,0.10515500000000001,0.11174,0.0,211.375,211.44,208.5233333333333,208.5233333333333,0.0,0.0
14,0.0,1.0,0.0,1.0,1.0,0.0,0.0,1.0,0.0,100.0,1.0,1.1856,26.0,0.0,0.0,0.0,59.999996,0.0,26.0,26.0,26.0,26.0,0.0798888888888889,0.3407,-0.015600000000000001,292.801,-2.7355,-2.623125,-1.6337000000000002,-1.5149,-228.99,216.01,190.704625,0.0,0.0,0.0,0.0,0.028733333333333333,-5.498166666666667,-5.498166666666667,-0.5387000000000001,-0.136,0.052000000000000046,1.384,67.685,0.0482,-0.2162,-1.0520000000000005,100.0,1.0,1.0,209.15666666666667,0.0,0.0,0.0,0.0,0.0,0.0,0.0,9710.2,0.0,55.0,4.0,243.63333333333333,0.0,0.0,0.0,0.0,0.0,0.0,1.0,0.0,0.7049999999999983,0.7049999999999983,0.0,0.0,0.0,55.0,616.79921,10000.0,85.000001,85.000001,85.000001,85.000001,395.0,0.0,0.0,0.0,1.0,333.33500000000004,52.917,52.917,47.852000000000004,47.852000000000004,34.0,-19.4975,28.172,-24.653333333333336,31.775000000000002,0.0,1783.25,-0.9749999999999979,100.0,27.475,27.567,42.707,43.343,0.0,1.0,100.0,0.0,0.0,0.0,0.0,2911.4285714285716,3240.0,4006.625,4249.9,305.9005,304.58625,315.064,314.34675,21.9105,20.5818,21.9035,21.4213,314.999998,314.999998,324.999988,324.999988,99.55892857142857,99.50731666666667,99.5667,99.54644285714286,0.15533333333333355,0.02066666666666661,-0.04620000000000002,0.18040000000000012,-0.041666666666671404,-0.061666666666667425,1.7396666666666667,1.6945000000000001,37.941,29.636666666666667,37.897,34.8835,56.068,34.952,59.451,52.242666666666665,54.0,34.0995,58.0575,50.576,53.162,33.6565,57.9895,49.983333333333334,-0.14749999999999996,-0.0034999999999998366,0.10513000000000002,0.112445,0.0,211.89499999999998,211.965,209.15666666666667,209.15666666666667,0.0,0.0
15,0.0,1.0,0.0,1.0,1.0,0.0,0.0,1.0,0.0,100.0,1.0,1.1856,26.0,0.0,0.0,0.0,59.999996,0.0,26.0,26.0,26.0,26.0,0.11177777777777775,0.34299999999999997,0.006733333333333333,292.816,-2.7131,-2.577375,-1.6319,-1.4568,-225.73,215.99,190.68425,0.0,0.0,0.0,0.0,0.030633333333333332,-5.498166666666667,-5.498166666666667,-0.5302,0.3145,0.08162500000000006,1.117,67.846,0.0637,-0.19840000000000002,-1.2379999999999995,100.0,1.0,1.0,209.65333333333334,0.0,0.0,0.0,0.0,0.0,0.0,0.0,9733.3,0.0,55.0,4.0,244.21,1.0,0.0,0.0,0.0,0.0,0.0,1.0,0.0,0.7530000000000001,0.7530000000000001,0.0,0.0,1.0,55.0,616.79921,10000.0,85.000001,85.000001,85.000001,85.000001,395.0,0.0,0.0,0.0,1.0,333.33500000000004,53.085,53.085,47.928,47.928,34.0,-17.912499999999998,28.342,-23.623333333333335,33.5525,0.0,1783.202,-0.9649999999999999,100.0,27.514,27.679000000000002,42.503,43.454,0.0,1.0,100.0,0.0,0.0,0.0,0.0,2782.0,3215.9,3972.125,4411.7,306.2575,304.652,315.16125,313.9855,21.9195,20.5871,21.9132,21.4299,314.999998,314.999998,324.999988,324.999988,99.55894285714285,99.50731666666667,99.56685714285715,99.54661428571428,0.16599999999999993,0.04033333333333333,-0.03059999999999996,0.20100000000000007,-0.041666666666671404,-0.054999999999999716,1.7303333333333333,1.675,37.997,29.669333333333334,37.958,34.937,56.058,34.989,59.492,52.31066666666666,53.989999999999995,34.1335,58.0955,50.641333333333336,53.152,33.689,58.0245,50.047666666666665,-0.14749999999999996,-0.0015000000000000568,0.10623500000000001,0.11686,0.0,212.4,212.495,209.65333333333334,209.65333333333334,0.0,0.0
16,0.0,1.0,0.0,1.0,1.0,0.0,0.0,1.0,0.0,100.0,1.0,1.1856,26.0,0.0,0.0,0.0,59.999996,0.0,26.0,26.0,26.0,26.0,0.13722222222222213,0.32889999999999997,-0.052566666666666664,292.801,-2.8093,-2.610125,-1.6048,-1.4574,-222.26999999999998,215.9725,190.662125,0.0,0.0,0.0,0.0,0.032633333333333334,-5.498166666666667,-5.498166666666667,-0.5498000000000001,-0.7195,0.06837499999999985,-0.989,68.018,0.0763,-0.21327500000000002,-1.1660000000000004,100.0,1.0,1.0,210.16333333333333,0.0,0.0,0.0,0.0,0.0,0.0,0.0,9756.9,0.0,55.0,4.0,244.82999999999998,0.0,0.0,0.0,0.0,0.0,0.0,1.0,0.0,0.8039999999999985,0.8039999999999985,0.0,0.0,0.0,55.0,616.79921,10000.0,85.000001,85.000001,85.000001,85.000001,395.0,0.0,0.0,0.0,1.0,333.33500000000004,53.04,53.04,47.607,47.607,34.0,-20.215,28.218,-22.976666666666667,31.4775,0.0,1783.15,-0.9050000000000011,100.0,26.99,27.917,42.701,43.69,0.0,1.0,100.0,0.0,0.0,0.0,0.0,2984.0,3170.3,3998.875,4177.5,305.9715,304.61275,315.13675,314.4645,21.9287,20.5927,21.9237,21.4391,314.999998,314.999998,324.999988,324.999988,99.55895714285714,99.50733333333334,99.56701428571428,99.54677142857143,0.16033333333333344,0.035666666666666735,-0.02100000000000002,0.20040000000000013,-0.04333333333332945,-0.07333333333333059,1.725,1.683,38.054,29.704,38.022999999999996,34.9945,56.045,35.0285,59.539,52.382333333333335,53.977000000000004,34.17,58.1395,50.71,53.138,33.724000000000004,58.065,50.11533333333333,-0.14449999999999985,-0.0045000000000001705,0.09870000000000001,0.10524000000000001,0.0,212.905,213.0,210.16333333333333,210.16333333333333,0.0,0.0
17,0.0,1.0,0.0,1.0,1.0,0.0,0.0,1.0,0.0,100.0,1.0,1.1856,26.0,0.0,0.0,0.0,59.999996,0.0,26.0,26.0,26.0,26.0,0.12488888888888883,0.35319999999999996,0.021466666666666665,292.374,-2.77,-2.565875,-1.6439,-1.4781,-218.59,215.95499999999998,190.638,0.0,0.0,0.0,0.0,0.034800000000000005,-5.498166666666667,-5.498166666666667,-0.539,0.4465,0.04712499999999986,-0.6819999999999999,68.19800000000001,0.0805,-0.19337500000000002,-1.1239999999999997,100.0,1.0,1.0,210.66666666666669,0.0,0.0,0.0,0.0,0.0,0.0,0.0,9780.3,0.0,55.0,4.0,245.47666666666666,1.0,0.0,0.0,0.0,0.0,0.0,1.0,0.0,0.8580000000000005,0.8580000000000005,0.0,0.0,1.0,55.0,616.79921,10000.0,85.000001,85.000001,85.000001,85.000001,395.0,0.0,0.0,0.0,1.0,166.665,52.673,52.673,47.379,47.379,34.0,-20.035,27.148,-26.076666666666664,33.605000000000004,0.0,1783.098,-1.0,100.0,27.46,28.181,42.485,43.702,0.0,1.0,100.0,0.0,0.0,0.0,0.0,3092.4285714285716,3085.1,4332.0,4333.0,305.609,304.92075,314.438,314.133,21.9388,20.5987,21.9347,21.4488,314.999998,314.999998,324.999988,324.999988,99.55898571428571,99.50733333333334,99.56718571428571,99.54694285714285,0.17700000000000005,0.04133333333333322,-0.024599999999999955,0.20700000000000007,-0.054999999999999716,-0.05666666666667197,1.697,1.6560000000000001,38.117999999999995,29.741666666666667,38.092,35.055,56.036,35.0725,59.586,52.458,53.969,34.210499999999996,58.183,50.783,53.128,33.763,58.105000000000004,50.187,-0.15349999999999997,-0.00550000000000006,0.10653000000000001,0.11421,0.0,213.5,213.585,210.66666666666669,210.66666666666669,0.0,0.0
18,0.0,1.0,0.0,1.0,1.0,0.0,0.0,1.0,0.0,100.0,1.0,1.1856,26.0,0.0,0.0,0.0,59.999996,0.0,26.0,26.0,26.0,26.0,0.13855555555555576,0.34840000000000004,-0.010333333333333333,292.297,-2.8014,-2.5395000000000003,-1.6616,-1.4254,-215.31,215.945,190.616875,0.0,0.0,0.0,0.0,0.0367,-5.498166666666667,-5.498166666666667,-0.5505,-0.5195,0.07125000000000004,-0.23299999999999998,68.358,0.0839,-0.211575,-1.282,100.0,1.0,1.0,211.18,0.0,0.0,0.0,0.0,0.0,0.0,0.0,9804.1,0.0,55.0,4.0,246.05333333333334,0.0,0.0,0.0,0.0,0.0,0.0,1.0,0.0,0.9059999999999988,0.9059999999999988,0.0,0.0,0.0,55.0,616.79921,10000.0,85.000001,85.000001,85.000001,85.000001,395.0,0.0,0.0,0.0,1.0,166.665,52.475,52.475,47.302,47.302,34.0,-20.21,29.766,-24.866666666666667,32.129999999999995,0.0,1783.05,-1.2399999999999984,100.0,27.25,28.101,42.829,44.107,0.0,1.0,100.0,0.0,0.0,0.0,0.0,3113.0,3303.3,4102.0,4239.6,305.6,304.28575,314.93225,314.33725,21.9476,20.604,21.9446,21.4576,314.999998,314.999998,324.999988,324.999988,99.559,99.50735,99.56734285714286,99.5471,0.18199999999999994,0.057333333333333236,-0.030399999999999983,0.21140000000000003,-0.06333333333333258,-0.07166666666666544,1.7333333333333334,1.6875,38.173,29.775,38.153999999999996,35.1095,56.025999999999996,35.1105,59.6295,52.52733333333333,53.959,34.246,58.2235,50.849666666666664,53.117,33.797,58.1425,50.25233333333333,-0.16799999999999993,0.016000000000000014,0.11462000000000001,0.11201000000000001,0.0,213.95499999999998,214.055,211.18,211.18,0.0,0.0
19,0.0,1.0,0.0,1.0,1.0,0.0,0.0,1.0,0.0,100.0,1.0,1.1856,26.0,0.0,0.0,0.0,59.999996,0.0,26.0,26.0,26.0,26.0,0.16388888888888897,0.3581000000000001,0.03176666666666667,291.885,-2.7745,-2.5246250000000003,-1.6785,-1.4060000000000001,-212.03,215.9375,190.5955,0.0,0.0,0.0,0.0,0.0386,-5.498166666666667,-5.498166666666667,-0.5403,0.835,0.08424999999999994,-0.384,68.516,0.0944,-0.1991,-1.596,100.0,1.0,1.0,211.65666666666667,0.0,0.0,0.0,0.0,0.0,0.0,0.0,9826.3,0.0,55.0,4.0,246.62,1.0,0.0,0.0,0.0,0.0,0.0,1.0,0.0,0.9540000000000006,0.9540000000000006,0.0,0.0,1.0,55.0,616.79921,10000.0,85.000001,85.000001,85.000001,85.000001,395.0,0.0,0.0,0.0,1.0,166.665,51.894999999999996,51.894999999999996,47.18,47.18,34.0,-18.625,30.614,-24.653333333333336,34.182500000000005,0.0,1783.003,-1.4749999999999979,100.0,27.742,28.599,42.555,44.114000000000004,0.0,1.0,100.0,0.0,0.0,0.0,0.0,3122.285714285714,3314.6,4219.25,4446.0,305.4525,304.153,314.7085,313.8995,21.9566,20.6095,21.9544,21.4662,314.999998,314.999998,324.999988,324.999988,99.55901428571428,99.50735,99.56748571428571,99.54725714285715,0.21566666666666645,0.07366666666666677,-0.006199999999999983,0.21999999999999997,-0.051666666666669414,-0.05833333333333002,1.7293333333333334,1.6764999999999999,38.229,29.809333333333335,38.215,35.164,56.021,35.1525,59.670500000000004,52.595333333333336,53.954,34.285,58.2615,50.915333333333336,53.11,33.834,58.177,50.317,-0.1915,0.02949999999999986,0.10634,0.10527,0.0,214.48000000000002,214.57999999999998,211.65666666666667,211.65666666666667,0.0,0.0
20,0.0,1.0,0.0,1.0,1.0,0.0,0.0,1.0,0.0,100.0,1.0,1.1856,26.0,0.0,0.0,0.0,59.999996,0.0,26.0,26.0,26.0,26.0,0.17966666666666686,0.3338000000000001,0.0494,292.099,-2.8291,-2.58125,-1.6117,-1.5224,-208.53,215.935,190.572875,0.0,0.0,0.0,0.0,0.040633333333333334,-5.498166666666667,-5.498166666666667,-0.5439,-1.229,0.0951249999999999,0.42500000000000004,68.686,0.1092,-0.20965,-1.79,100.0,1.0,1.0,212.05333333333334,0.0,0.0,0.0,0.0,0.0,0.0,0.0,9844.6,0.0,55.0,4.0,247.23666666666668,0.0,0.0,0.0,0.0,0.0,0.0,0.0,0.0,1.004999999999999,1.004999999999999,0.0,0.0,0.0,55.0,616.79921,10000.0,85.000001,85.000001,85.000001,85.000001,395.0,0.0,0.0,0.0,1.0,166.665,52.917,52.917,46.432,46.432,34.0,-17.1275,30.226,-21.729999999999997,37.96,0.0,1782.951,-0.8000000000000007,100.0,27.351,28.296,43.248000000000005,44.702,0.0,1.0,100.0,0.0,0.0,0.0,0.0,2764.5714285714284,3271.1,4116.5,4409.8,306.527,304.51075,314.73375,313.81875,21.9658,20.6152,21.965,21.4757,314.999998,314.999998,324.999988,324.999988,99.55905714285714,99.50736666666667,99.56765714285714,99.54742857142857,0.20266666666666655,0.07099999999999995,0.028000000000000025,0.2532000000000001,-0.03333333333333144,-0.07000000000000028,1.6576666666666666,1.5939999999999999,38.286,29.844666666666665,38.281,35.223,56.01,35.1945,59.7185,52.67066666666666,53.943,34.324,58.3065,50.988,53.098,33.872,58.2185,50.388333333333335,-0.15599999999999992,0.0040000000000000036,0.10714000000000001,0.10959500000000001,0.0,214.93,215.07999999999998,212.05333333333334,212.05333333333334,0.0,0.0
21,0.0,1.0,0.0,1.0,1.0,0.0,0.0,1.0,0.0,100.0,1.0,1.1856,26.0,0.0,0.0,0.0,59.999996,0.0,26.0,26.0,26.0,26.0,0.13166666666666682,0.34210000000000007,-0.06923333333333334,292.435,-2.7346,-2.643625,-1.6659000000000002,-1.4929000000000001,-205.23000000000002,215.935,190.551125,0.0,0.0,0.0,0.0,0.04256666666666667,-5.498166666666667,-5.498166666666667,-0.5688,0.503,0.06525000000000003,-0.135,68.838,0.1177,-0.214675,-1.202,100.0,1.0,1.0,212.80333333333334,0.0,0.0,0.0,0.0,0.0,0.0,0.0,9879.5,0.0,55.0,4.0,247.78333333333336,1.0,0.0,0.0,0.0,0.0,0.0,0.0,0.0,1.0530000000000008,1.0530000000000008,0.0,0.0,1.0,55.0,616.79921,10000.0,85.000001,85.000001,85.000001,85.000001,395.0,0.0,0.0,0.0,1.0,166.665,52.368,52.368,47.836,47.836,34.0,-19.9,28.526,-21.833333333333336,32.5025,0.0,1782.904,0.05999999999999872,100.0,27.717,28.432000000000002,42.606,44.211,0.0,1.0,100.0,0.0,0.0,0.0,0.0,2951.714285714286,3247.2,3982.125,4088.5,305.7855,304.4865,315.2515,314.779,21.9746,20.6207,21.9746,21.4842,314.999998,314.999998,324.999988,324.999988,99.55907142857143,99.50736666666667,99.5678,99.54758571428572,0.15366666666666662,0.01966666666666672,0.009600000000000053,0.23819999999999997,-0.051666666666669414,-0.06333333333333258,1.7976666666666667,1.7505000000000002,38.341,29.878999999999998,38.341,35.2765,56.0,35.2345,59.7565,52.73566666666667,53.934,34.361000000000004,58.341499999999996,51.050666666666665,53.088,33.9075,58.2505,50.449666666666666,-0.08499999999999996,-0.0754999999999999,0.10784500000000001,0.10607000000000001,0.0,215.48000000000002,215.555,212.80333333333334,212.80333333333334,0.0,0.0
22,0.0,1.0,0.0,1.0,1.0,0.0,0.0,1.0,0.0,100.0,1.0,1.1856,26.0,0.0,0.0,0.0,59.999996,0.0,26.0,26.0,26.0,26.0,0.10477777777777786,0.3417000000000001,0.019333333333333334,291.916,-2.7098,-2.651,-1.6495000000000002,-1.4948000000000001,-201.70999999999998,215.94,190.527125,0.0,0.0,0.0,0.0,0.0446,-5.498166666666667,-5.498166666666667,-0.5461,0.0965,0.05725000000000002,-0.7030000000000001,69.009,0.0944,-0.194225,0.043999999999999595,100.0,1.0,1.0,213.07,0.0,0.0,0.0,0.0,0.0,0.0,0.0,9891.9,0.0,55.0,4.0,248.39666666666665,0.0,0.0,0.0,0.0,0.0,0.0,0.0,0.0,1.1039999999999992,1.1039999999999992,0.0,0.0,0.0,55.0,616.79921,10000.0,85.000001,85.000001,85.000001,85.000001,395.0,0.0,0.0,0.0,1.0,166.665,52.46,52.46,46.631,46.631,34.0,-21.79,25.032,-26.793333333333333,33.629999999999995,0.0,1782.852,0.5549999999999997,100.0,27.735,28.573999999999998,43.116,44.441,0.0,1.0,100.0,0.0,0.0,0.0,0.0,2959.0,3084.4,4293.125,4373.7,305.913,304.78275,314.4835,314.02525,21.984,20.6264,21.9852,21.4936,314.999998,314.999998,324.999988,324.999988,99.55908571428571,99.50736666666667,99.56797142857143,99.54775714285714,0.10066666666666668,-0.03366666666666662,-0.03700000000000003,0.1936,-0.05833333333333002,-0.036666666666668846,1.6573333333333333,1.6484999999999999,38.4,29.915,38.408,35.335,55.988,35.274,59.805,52.809,53.922,34.3975,58.387,51.121,53.075,33.942499999999995,58.292,50.519,-0.03200000000000003,-0.11799999999999988,0.108865,0.11159000000000001,0.0,216.035,216.035,213.07,213.07,0.0,0.0
23,0.0,1.0,0.0,1.0,1.0,0.0,0.0,1.0,0.0,100.0,1.0,1.1856,26.0,0.0,0.0,0.0,59.999996,0.0,26.0,26.0,26.0,26.0,0.021777777777777896,-0.377,-0.0262,291.977,-2.7124,-2.631875,-1.5509,-1.5819,-198.19,215.945,190.503625,0.0,0.0,0.0,0.0,0.04663333333333333,-5.498166666666667,-5.498166666666667,-0.5738,-1.178,0.030124999999999957,-0.04699999999999993,69.082,0.0443,-0.228775,0.7760000000000007,100.0,1.0,1.0,209.83333333333331,0.0,0.0,0.0,0.0,0.0,0.0,1.0,9900.7,0.0,55.0,0.0,248.73666666666668,1.0,0.0,0.0,0.0,0.0,0.0,0.0,0.0,1.1550000000000011,1.1550000000000011,0.0,0.0,1.0,55.0,616.79921,10000.0,85.000001,85.000001,85.000001,85.000001,395.0,0.0,0.0,0.0,1.0,333.33500000000004,51.59,51.59,47.928,47.928,34.0,-25.46,24.799999999999997,-28.733333333333334,33.067499999999995,0.0,1782.8,0.6999999999999993,100.0,28.306,28.346,43.435,44.312,0.0,1.0,0.0,0.0,0.0,0.0,0.0,3239.285714285714,3235.9,3865.75,3957.8,304.9575,304.62225,315.35675,314.976,21.9934,20.6321,21.9958,21.5029,314.999998,314.999998,324.999988,324.999988,99.5591,99.50738333333334,99.56808571428571,99.54788571428571,0.07699999999999996,-0.058666666666666645,-0.07439999999999991,0.1354000000000002,0.011666666666670267,-0.0049999999999954525,0.013333333333333308,0.006000000000000005,38.459,29.950666666666663,38.474000000000004,35.393,55.974999999999994,35.314499999999995,59.8315,52.86266666666667,53.909,34.435,58.411500000000004,51.172666666666665,53.061,33.9785,58.3135,50.56966666666666,-0.02400000000000002,-0.1339999999999999,0.09982500000000001,0.09480500000000001,0.0,216.35000000000002,216.325,209.83333333333331,209.83333333333331,0.0,0.0
24,0.0,1.0,0.0,1.0,1.0,0.0,0.0,1.0,0.0,100.0,1.0,1.1856,26.0,0.0,0.0,0.0,59.999996,0.0,26.0,26.0,26.0,26.0,-0.05522222222222217,0.15600000000000014,-0.0692,292.007,-2.6911,-2.65825,-1.5636999999999999,-1.5372,-194.88,215.95,190.480875,0.0,0.0,0.0,0.0,0.04856666666666667,-5.498166666666667,-5.498166666666667,-0.6337,-0.552,0.013125000000000053,0.6380000000000001,68.997,-0.001,-0.27705,0.9939999999999998,100.0,1.0,1.0,212.45666666666668,0.0,0.0,0.0,0.0,0.0,0.0,0.0,8194.0,0.0,55.0,5.0,248.37,0.0,0.0,0.0,0.0,0.0,0.0,0.0,0.0,1.2029999999999994,1.2029999999999994,0.0,0.0,0.0,55.0,616.79921,10000.0,85.000001,85.000001,85.000001,85.000001,395.0,0.0,0.0,0.0,1.0,333.33500000000004,50.888,50.888,48.111,48.111,34.0,-26.71,24.188,-29.906666666666666,25.71,0.0,1782.751,0.6999999999999993,100.0,29.185,28.843,43.053,43.293,0.0,1.0,100.0,0.0,0.0,0.0,0.0,3229.714285714286,3323.3,4034.375,3855.2,304.9665,304.31125,315.0315,315.382,22.0025,20.6376,22.0054,21.5112,314.999998,314.999998,324.999988,324.999988,99.5591,99.5074,99.56814285714286,99.54794285714286,0.043333333333333446,-0.09599999999999997,-0.13260000000000005,0.09420000000000006,-0.046666666666666856,-0.05833333333333002,1.3406666666666667,1.3765,38.516,29.984666666666666,38.534,35.445,55.963,35.3555,59.827,52.878,53.897999999999996,34.4725,58.406,51.188,53.049,34.0145,58.3065,50.585,-0.026499999999999968,-0.13850000000000007,0.106715,0.10172500000000001,0.0,216.035,215.95,212.45666666666668,212.45666666666668,0.0,0.0
25,0.0,1.0,0.0,1.0,1.0,0.0,0.0,1.0,0.0,100.0,1.0,1.1856,26.0,0.0,0.0,0.0,59.999996,0.0,26.0,26.0,26.0,26.0,-0.08566666666666656,0.20640000000000014,-0.020800000000000003,291.855,-2.7314,-2.6492500000000003,-1.5573000000000001,-1.5639,-191.14999999999998,215.95749999999998,190.453875,0.0,0.0,0.0,0.0,0.05073333333333333,-5.498166666666667,-5.498166666666667,-0.6157,0.7105,-0.009875000000000078,-0.31299999999999994,69.105,-0.044000000000000004,-0.2363,1.1799999999999997,100.0,1.0,1.0,212.79333333333335,0.0,0.0,0.0,0.0,0.0,0.0,0.0,8206.9,0.0,55.0,5.0,248.76,1.0,0.0,0.0,0.0,0.0,0.0,0.0,0.0,1.256999999999998,1.256999999999998,0.0,0.0,1.0,55.0,616.79921,10000.0,85.000001,85.000001,85.000001,85.000001,395.0,0.0,0.0,0.0,1.0,166.665,51.178,51.178,47.714,47.714,34.0,-27.715,22.41,-32.45666666666666,26.9825,0.0,1782.699,0.615000000000002,100.0,29.16,28.817,43.141,42.897999999999996,0.0,1.0,100.0,0.0,0.0,0.0,0.0,3234.5714285714284,3227.3,4152.25,4167.9,305.063,304.6535,314.766,314.5825,22.0126,20.6436,22.0164,21.520699999999998,314.999998,314.999998,324.999988,324.999988,99.55911428571429,99.5074,99.56828571428571,99.54808571428572,0.027000000000000135,-0.11466666666666658,-0.16300000000000003,0.06159999999999988,-0.030000000000001137,-0.03166666666666629,1.3386666666666667,1.3685,38.579,30.022666666666666,38.602000000000004,35.5045,55.948,35.4025,59.858000000000004,52.932,53.882999999999996,34.5165,58.435,51.24033333333333,53.034,34.0565,58.332499999999996,50.635999999999996,-0.04049999999999998,-0.13249999999999984,0.10960500000000001,0.11105500000000001,0.0,216.42000000000002,216.32999999999998,212.79333333333335,212.79333333333335,0.0,0.0
26,0.0,1.0,0.0,1.0,1.0,0.0,0.0,1.0,0.0,100.0,1.0,1.1856,26.0,0.0,0.0,0.0,59.999996,0.0,26.0,26.0,26.0,26.0,-0.11044444444444446,0.21110000000000007,0.05926666666666667,291.153,-2.6595,-2.76075,-1.5848,-1.5833,-187.82999999999998,215.96,190.43,0.0,0.0,0.0,0.0,0.05266666666666667,-5.498166666666667,-5.498166666666667,-0.5826,0.324,-0.052750000000000075,0.30800000000000005,69.20400000000001,-0.06720000000000001,-0.21635000000000001,1.1020000000000003,100.0,1.0,1.0,212.94666666666666,0.0,0.0,0.0,0.0,0.0,0.0,0.0,8212.9,0.0,55.0,5.0,249.11333333333334,0.0,0.0,0.0,0.0,0.0,0.0,0.0,0.0,1.3049999999999997,1.3049999999999997,0.0,0.0,0.0,55.0,616.79921,10000.0,85.000001,85.000001,85.000001,85.000001,395.0,0.0,0.0,0.0,1.0,333.33500000000004,51.086,51.086,46.494,46.494,34.0,-27.84,21.354,-37.70333333333333,27.87,0.0,1782.65,0.4349999999999987,100.0,29.651,28.705,44.083,43.225,0.0,1.0,100.0,0.0,0.0,0.0,0.0,3254.0,3075.0,4526.5,4382.7,304.9055,305.03075,313.89025,314.13425,22.0217,20.6489,22.0264,21.5294,314.999998,314.999998,324.999988,324.999988,99.55911428571429,99.50743333333334,99.56841428571428,99.54821428571428,0.016666666666666607,-0.137,-0.18120000000000003,0.04180000000000006,-0.02833333333332888,-0.036666666666668846,1.2913333333333332,1.3385,38.635999999999996,30.055666666666667,38.665,35.559,55.935,35.4445,59.8915,52.983333333333334,53.870999999999995,34.555,58.466,51.28966666666666,53.021,34.0935,58.3605,50.684,-0.04800000000000004,-0.12250000000000005,0.10264000000000001,0.109115,0.0,216.73000000000002,216.62,212.94666666666666,212.94666666666666,0.0,0.0
27,0.0,1.0,0.0,1.0,1.0,0.0,0.0,1.0,0.0,100.0,1.0,1.1856,26.0,0.0,0.0,0.0,59.999996,0.0,26.0,26.0,26.0,26.0,-0.09977777777777785,0.20250000000000012,-0.0371,291.702,-2.6188,-2.737875,-1.5631,-1.6601,-184.51,215.9625,190.406875,0.0,0.0,0.0,0.0,0.0546,-5.498166666666667,-5.498166666666667,-0.6111,-0.8265,-0.05887500000000001,0.8240000000000001,69.3,-0.079,-0.2564,0.9740000000000002,100.0,1.0,1.0,213.35333333333335,0.0,0.0,0.0,0.0,0.0,0.0,0.0,8228.5,0.0,55.0,5.0,249.46,1.0,0.0,0.0,0.0,0.0,0.0,0.0,0.0,1.352999999999998,1.352999999999998,0.0,0.0,1.0,55.0,616.79921,10000.0,85.000001,85.000001,85.000001,85.000001,395.0,0.0,0.0,0.0,1.0,333.33500000000004,51.437,51.437,47.104,47.104,34.0,-26.91,21.619999999999997,-33.3,25.5925,0.0,1782.602,0.33999999999999986,100.0,29.347,28.365000000000002,44.546,43.416,0.0,1.0,100.0,0.0,0.0,0.0,0.0,3194.4285714285716,3122.4,4101.125,3988.5,305.055,304.97975,314.84575,314.9535,22.0307,20.6541,22.0365,21.5381,314.999998,314.999998,324.999988,324.999988,99.55911428571429,99.50743333333334,99.56854285714286,99.54832857142857,0.016999999999999904,-0.1323333333333333,-0.18620000000000003,0.03520000000000012,-0.041666666666671404,-0.051666666666669414,1.3436666666666666,1.383,38.692,30.088,38.727999999999994,35.613,55.921,35.485,59.924,53.033,53.858000000000004,34.592,58.496,51.33733333333333,53.006,34.129,58.388,50.730333333333334,-0.058499999999999996,-0.11100000000000021,0.099305,0.10687500000000001,0.0,216.965,216.88,213.35333333333335,213.35333333333335,0.0,0.0
28,0.0,1.0,0.0,1.0,1.0,0.0,0.0,1.0,0.0,100.0,1.0,1.1856,26.0,0.0,0.0,0.0,59.999996,0.0,26.0,26.0,26.0,26.0,-0.10111111111111104,0.20090000000000008,-0.044666666666666674,291.824,-2.6536,-2.7185,-1.5162,-1.6174,-180.97,215.96,190.381375,0.0,0.0,0.0,0.0,0.056666666666666664,-5.498166666666667,-5.498166666666667,-0.6084,0.5660000000000001,-0.06499999999999995,-0.7,69.401,-0.0815,-0.22410000000000002,0.8720000000000008,100.0,1.0,1.0,213.70333333333332,0.0,0.0,0.0,0.0,0.0,0.0,0.0,8242.0,0.0,55.0,5.0,249.82,0.0,0.0,0.0,0.0,0.0,0.0,0.0,0.0,1.404,1.404,0.0,0.0,0.0,55.0,616.79921,10000.0,85.000001,85.000001,85.000001,85.000001,395.0,0.0,0.0,0.0,1.0,166.665,51.483000000000004,51.483000000000004,47.668,47.668,34.0,-29.0275,20.47,-34.32333333333334,24.9525,0.0,1782.552,0.23499999999999943,100.0,29.232,28.42,43.886,43.021,0.0,1.0,100.0,0.0,0.0,0.0,0.0,3343.714285714286,2960.6,4200.875,4087.6000000000004,304.7585,305.27775,314.77725,314.73225,22.0403,20.6597,22.0467,21.547,314.999998,314.999998,324.999988,324.999988,99.55911428571429,99.50745,99.56868571428572,99.54845714285715,0.005666666666666931,-0.13,-0.20639999999999992,0.02059999999999995,-0.04833333333333201,-0.041666666666671404,1.358,1.3865,38.751999999999995,30.122666666666667,38.792,35.669,55.907,35.528,59.9525,53.08266666666667,53.844,34.632,58.522999999999996,51.385,52.992000000000004,34.167,58.411500000000004,50.777,-0.06800000000000006,-0.0950000000000002,0.11074,0.10604500000000001,0.0,217.32,217.235,213.70333333333332,213.70333333333332,0.0,0.0
29,0.0,1.0,0.0,1.0,1.0,0.0,0.0,1.0,0.0,100.0,1.0,1.1856,26.0,0.0,0.0,0.0,59.999996,0.0,26.0,26.0,26.0,26.0,-0.09288888888888891,0.19230000000000014,0.0135,291.611,-2.5930999999999997,-2.771125,-1.5521,-1.5951,-177.22,215.95499999999998,190.3535,0.0,0.0,0.0,0.0,0.05883333333333334,-5.498166666666667,-5.498166666666667,-0.6213000000000001,-0.6635,-0.06174999999999997,-0.5740000000000001,69.509,-0.0717,-0.23697500000000002,0.6340000000000003,100.0,1.0,1.0,213.94666666666666,0.0,0.0,0.0,0.0,0.0,0.0,0.0,8251.5,0.0,55.0,5.0,250.21666666666667,1.0,0.0,0.0,0.0,0.0,0.0,0.0,0.0,1.4579999999999984,1.4579999999999984,0.0,0.0,1.0,55.0,616.79921,10000.0,85.000001,85.000001,85.000001,85.000001,395.0,0.0,0.0,0.0,1.0,166.665,51.437,51.437,47.104,47.104,34.0,-28.4925,21.316,-33.989999999999995,25.9025,0.0,1782.498,0.16000000000000014,100.0,29.012,28.369,44.3,43.325,0.0,1.0,100.0,0.0,0.0,0.0,0.0,3379.0,3018.4,4193.375,4101.3,304.7225,305.02925,314.66775,314.66675,22.0503,20.6655,22.0579,21.5568,314.999998,314.999998,324.999988,324.999988,99.55911428571429,99.50748333333334,99.56882857142857,99.5486,0.010000000000000231,-0.1336666666666666,-0.1846,0.038999999999999924,-0.054999999999999716,-0.030000000000001137,1.327,1.35,38.814,30.159333333333336,38.861999999999995,35.730000000000004,55.89,35.5725,59.9885,53.138666666666666,53.828,34.673,58.5565,51.439,52.975,34.206,58.442499999999995,50.82966666666667,-0.0694999999999999,-0.0950000000000002,0.103025,0.11260500000000001,0.0,217.61,217.55,213.94666666666666,213.94666666666666,0.0,0.0
30,0.0,1.0,0.0,1.0,1.0,0.0,0.0,1.0,0.0,100.0,1.0,1.1856,26.0,0.0,0.0,0.0,59.999996,0.0,26.0,26.0,26.0,26.0,-0.08155555555555549,0.19720000000000004,0.0671,291.153,-2.6492,-2.661,-1.4936,-1.6515,-174.09,215.95,190.330125,0.0,0.0,0.0,0.0,0.06066666666666667,-5.498166666666667,-5.498166666666667,-0.6117,0.8275,-0.05774999999999997,0.8800000000000001,69.59700000000001,-0.0632,-0.2272,0.54,100.0,1.0,1.0,214.23000000000002,0.0,0.0,0.0,0.0,0.0,0.0,0.0,8262.4,0.0,55.0,5.0,250.53,0.0,0.0,0.0,0.0,0.0,0.0,1.0,0.0,1.5030000000000001,1.5030000000000001,0.0,0.0,0.0,55.0,616.79921,10000.0,85.000001,85.000001,85.000001,85.000001,395.0,0.0,0.0,0.0,1.0,166.665,50.629,50.629,47.195,47.195,34.0,-28.0975,22.008,-32.870000000000005,28.665,0.0,1782.453,0.05000000000000071,100.0,29.917,28.822,44.16,43.207,0.0,1.0,100.0,0.0,0.0,0.0,0.0,3400.0,3126.6,4251.125,4223.7,304.47,304.885,314.5245,314.4035,22.059,20.6706,22.0671,21.564799999999998,314.999998,314.999998,324.999988,324.999988,99.55912857142857,99.50748333333334,99.56894285714286,99.54871428571428,0.04066666666666663,-0.10999999999999999,-0.16779999999999995,0.056400000000000006,-0.026666666666670835,-0.054999999999999716,1.322,1.3285,38.867999999999995,30.191,38.919,35.7805,55.879999999999995,35.6125,60.015,53.184,53.819,34.7095,58.581,51.48266666666667,52.965,34.2415,58.464,50.87233333333333,-0.08650000000000002,-0.08349999999999991,0.09885000000000001,0.115985,0.0,217.91500000000002,217.875,214.23000000000002,214.23000000000002,0.0,0.0
31,0.0,1.0,0.0,1.0,1.0,0.0,0.0,1.0,0.0,100.0,1.0,1.1856,26.0,0.0,0.0,0.0,59.999996,0.0,26.0,26.0,26.0,26.0,-0.06066666666666665,0.20189999999999997,-0.0142,291.031,-2.7221,-2.635875,-1.5446,-1.6444,-170.54,215.94,190.304375,0.0,0.0,0.0,0.0,0.06273333333333334,-5.498166666666667,-5.498166666666667,-0.6012000000000001,-0.6575,-0.04999999999999982,-0.742,69.699,-0.0506,-0.23292500000000002,0.32200000000000095,100.0,1.0,1.0,214.46,0.0,0.0,0.0,0.0,0.0,0.0,0.0,8271.2,0.0,55.0,5.0,250.89666666666665,1.0,0.0,0.0,0.0,0.0,0.0,1.0,0.0,1.5539999999999985,1.5539999999999985,0.0,0.0,1.0,55.0,616.79921,10000.0,85.000001,85.000001,85.000001,85.000001,395.0,0.0,0.0,0.0,1.0,166.665,51.178,51.178,45.897999999999996,45.897999999999996,34.0,-27.3975,21.85,-34.403333333333336,29.5075,0.0,1782.403,-0.03999999999999915,100.0,29.375,29.009999999999998,44.72,43.95,0.0,1.0,100.0,0.0,0.0,0.0,0.0,3267.285714285714,3132.2,4385.0,4213.7,305.1665,304.907,314.199,314.456,22.0684,20.6762,22.0777,21.5742,314.999998,314.999998,324.999988,324.999988,99.55912857142857,99.5075,99.56908571428572,99.54885714285714,0.034666666666666845,-0.10833333333333339,-0.15800000000000003,0.07520000000000016,-0.026666666666670835,-0.03333333333333144,1.3106666666666666,1.321,38.928,30.226666666666667,38.986000000000004,35.839,55.864999999999995,35.655,60.05,53.239,53.805,34.749,58.6135,51.535333333333334,52.95,34.278999999999996,58.4935,50.92366666666667,-0.08999999999999986,-0.08150000000000013,0.09853500000000001,0.11910000000000001,0.0,218.17000000000002,218.15,214.46,214.46,0.0,0.0
32,0.0,1.0,0.0,1.0,1.0,0.0,0.0,1.0,0.0,100.0,1.0,1.1856,26.0,0.0,0.0,0.0,59.999996,0.0,26.0,26.0,26.0,26.0,-0.04755555555555557,0.20660000000000012,-0.017833333333333336,291.153,-2.6248,-2.739625,-1.6083,-1.5542,-166.76999999999998,215.93,190.277125,0.0,0.0,0.0,0.0,0.0649,-5.498166666666667,-5.498166666666667,-0.6174000000000001,0.20650000000000002,-0.07512499999999989,-0.924,69.803,-0.042100000000000005,-0.23852500000000001,0.27000000000000046,100.0,1.0,1.0,214.86666666666667,0.0,0.0,0.0,0.0,0.0,0.0,0.0,8286.9,0.0,55.0,5.0,251.26999999999998,0.0,0.0,0.0,0.0,0.0,0.0,1.0,0.0,1.6080000000000005,1.6080000000000005,0.0,0.0,0.0,55.0,616.79921,10000.0,85.000001,85.000001,85.000001,85.000001,395.0,0.0,0.0,0.0,1.0,166.665,50.995,50.995,46.707,46.707,34.0,-26.747500000000002,23.024,-34.230000000000004,27.4225,0.0,1782.348,-0.129999999999999,100.0,29.442,29.052,44.368,43.766,0.0,1.0,100.0,0.0,0.0,0.0,0.0,3343.285714285714,3049.9,4309.875,4230.0,304.75,304.99375,314.525,314.4935,22.0785,20.6823,22.0887,21.5839,314.999998,314.999998,324.999988,324.999988,99.55914285714286,99.50751666666666,99.56922857142857,99.549,0.049666666666666526,-0.09133333333333338,-0.15759999999999996,0.06380000000000008,-0.04333333333332945,-0.036666666666668846,1.3433333333333333,1.3679999999999999,38.991,30.264666666666663,39.054,35.899,55.852000000000004,35.7,60.0805,53.29266666666666,53.792,34.7905,58.641999999999996,51.58733333333333,52.936,34.319,58.519,50.974333333333334,-0.09499999999999997,-0.07399999999999984,0.105895,0.10608500000000001,0.0,218.53,218.49,214.86666666666667,214.86666666666667,0.0,0.0
33,0.0,1.0,0.0,1.0,1.0,0.0,0.0,1.0,0.0,100.0,1.0,1.1856,26.0,0.0,0.0,0.0,59.999996,0.0,26.0,26.0,26.0,26.0,-0.0441111111111111,0.20230000000000015,-0.0359,291.397,-2.6678,-2.73225,-1.5425,-1.6298,-163.63,215.91750000000002,190.253625,0.0,0.0,0.0,0.0,0.06673333333333334,-5.498166666666667,-5.498166666666667,-0.6207,-0.421,-0.061875000000000124,1.451,69.892,-0.0333,-0.22735000000000002,0.13600000000000012,100.0,1.0,1.0,215.08666666666667,0.0,0.0,0.0,0.0,0.0,0.0,0.0,8295.4,0.0,55.0,5.0,251.59,1.0,0.0,0.0,0.0,0.0,0.0,1.0,0.0,1.6529999999999987,1.6529999999999987,0.0,0.0,1.0,55.0,616.79921,10000.0,85.000001,85.000001,85.000001,85.000001,395.0,0.0,0.0,0.0,1.0,166.665,51.59,51.59,46.707,46.707,34.0,-24.8875,23.275999999999996,-31.939999999999998,30.69,0.0,1782.303,-0.16999999999999815,100.0,29.328,28.598,44.42,43.792,0.0,1.0,100.0,0.0,0.0,0.0,0.0,3144.714285714286,3064.5,4233.25,4281.1,305.324,305.14225,314.53775,314.3385,22.0868,20.6872,22.0979,21.592,314.999998,314.999998,324.999988,324.999988,99.55914285714286,99.50753333333333,99.56934285714286,99.54911428571428,0.06000000000000005,-0.08166666666666655,-0.14,0.09179999999999988,-0.045000000000001705,-0.045000000000001705,1.3316666666666666,1.334,39.042,30.294666666666664,39.112,35.95,55.84,35.734,60.1075,53.339,53.781,34.822,58.667500000000004,51.63166666666667,52.924,34.349000000000004,58.5415,51.01766666666667,-0.09699999999999998,-0.07050000000000001,0.10502500000000001,0.11426000000000001,0.0,218.785,218.765,215.08666666666664,215.08666666666667,0.0,0.0
34,0.0,1.0,0.0,1.0,1.0,0.0,0.0,1.0,0.0,100.0,1.0,1.1856,26.0,0.0,0.0,0.0,59.999996,0.0,26.0,26.0,26.0,26.0,-0.04155555555555557,0.18630000000000013,-0.061000000000000006,291.931,-2.6871,-2.71225,-1.6152000000000002,-1.5830000000000002,-159.85,215.905,190.22425,0.0,0.0,0.0,0.0,0.06893333333333335,-5.498166666666667,-5.498166666666667,-0.6553,-0.734,-0.025875000000000092,0.9020000000000001,69.99600000000001,-0.0247,-0.23672500000000002,0.06799999999999962,100.0,1.0,1.0,215.48333333333335,0.0,0.0,0.0,0.0,0.0,0.0,0.0,8310.7,0.0,55.0,5.0,251.96666666666667,0.0,0.0,0.0,0.0,0.0,0.0,1.0,0.0,1.7070000000000007,1.7070000000000007,0.0,0.0,0.0,55.0,616.79921,10000.0,85.000001,85.000001,85.000001,85.000001,395.0,0.0,0.0,0.0,1.0,166.665,52.032,52.032,47.592,47.592,34.0,-23.740000000000002,23.344,-30.45,28.5325,0.0,1782.25,-0.21000000000000085,100.0,28.915,28.279,44.01,43.771,0.0,1.0,100.0,0.0,0.0,0.0,0.0,3027.5714285714284,3049.7,4023.0,4134.0,305.5205,305.1535,315.14075,314.6685,22.0966,20.693,22.1088,21.6017,314.999998,314.999998,324.999988,324.999988,99.55915714285715,99.50753333333333,99.56948571428572,99.54925714285714,0.07033333333333358,-0.07399999999999995,-0.13439999999999996,0.0895999999999999,-0.036666666666668846,-0.03833333333332689,1.3633333333333333,1.3679999999999999,39.104,30.331333333333333,39.18,36.010999999999996,55.825,35.775,60.135999999999996,53.394333333333336,53.766,34.86,58.694,51.685,52.909,34.385,58.565,51.06966666666666,-0.09299999999999997,-0.06550000000000011,0.10798,0.10608000000000001,0.0,219.095,219.06,215.48333333333335,215.48333333333335,0.0,0.0
35,0.0,1.0,0.0,1.0,1.0,0.0,0.0,1.0,0.0,100.0,1.0,1.1856,26.0,0.0,0.0,0.0,59.999996,0.0,26.0,26.0,26.0,26.0,-0.027111111111111086,0.19290000000000007,-0.07146666666666666,291.809,-2.6837999999999997,-2.670375,-1.5904,-1.6004,-156.49,215.89249999999998,190.195875,0.0,0.0,0.0,0.0,0.0709,-5.498166666666667,-5.498166666666667,-0.6935,-0.34700000000000003,-0.039000000000000146,0.10099999999999998,70.088,-0.011300000000000001,-0.24025000000000002,-0.1039999999999992,100.0,1.0,1.0,215.82,0.0,0.0,0.0,0.0,0.0,0.0,0.0,8323.7,0.0,55.0,5.0,252.29666666666668,1.0,0.0,0.0,0.0,0.0,0.0,1.0,0.0,1.754999999999999,1.754999999999999,0.0,0.0,1.0,55.0,616.79921,10000.0,85.000001,85.000001,85.000001,85.000001,395.0,0.0,0.0,0.0,1.0,166.665,51.331,51.331,47.241,47.241,34.0,-24.735,26.214,-28.933333333333334,27.9325,0.0,1782.201,-0.09999999999999787,100.0,28.748,28.591,43.792,43.357,0.0,1.0,100.0,0.0,0.0,0.0,0.0,3187.0,3377.7,3988.875,3929.7,305.1785,304.21525,315.13825,315.16725,22.1052,20.6984,22.1185,21.6102,314.999998,314.999998,324.999988,324.999988,99.55917142857143,99.50755,99.56961428571428,99.54937142857143,0.07666666666666666,-0.06433333333333335,-0.1157999999999999,0.10919999999999996,-0.030000000000001137,-0.05333333333332746,1.3826666666666667,1.396,39.157,30.365000000000002,39.24,36.064,55.81,35.8125,60.162,53.43933333333334,53.751999999999995,34.8945,58.718,51.72866666666667,52.894,34.418,58.586,51.11233333333333,-0.09099999999999997,-0.07200000000000006,0.10885500000000001,0.10178000000000001,0.0,219.36,219.37,215.82,215.82,0.0,0.0
