,ABS Active,ABS Enabled,AID Allow Tire Blankets,AID Auto Blip,AID Auto Clutch,AID Auto Shift,AID Fuel Rate,AID Ideal Line,AID Mech Damage,AID Stability,AID Tire Wear Rate,Air Density,Air Temp,Ballast,Best Lap Delta,Best Lap Time,Brake Bias,Brake Pos,Brake Temp FL,Brake Temp FR,Brake Temp RL,Brake Temp RR,CG Accel Lateral,CG Accel Longitudinal,CG Accel Vertical,CG Height,Camber FL,Camber FR,Camber RL,Camber RR,Car Coord X,Car Coord Y,Car Coord Z,Car Damage Front,Car Damage Left,Car Damage Rear,Car Damage Right,Car Pos Norm,Caster FL,Caster FR,Chassis Pitch Angle,Chassis Pitch Rate,Chassis Roll Angle,Chassis Roll Rate,Chassis Velocity X,Chassis Velocity Y,Chassis Velocity Z,Chassis Yaw Rate,Clutch Pos,DRS Active,DRS Available,Drive Train Speed,ERS Heat Charging,ERS Is Charging,ERS Max Energy,ERS Power Level,ERS Recovery Level,Engine Brake Setting,Engine Limiter,Engine RPM,Flags,Fuel Level,Gear,Ground Speed,HR Sample Clock,In Pit,KERS Charge,KERS Deployed Energy,KERS Input,KERS Max Energy,LR Sample Clock,Lap Invalidated,Lap Time,Lap Time2,Last Lap Time,Last Sector Time,MR Sample Clock,Max Fuel,Max Power,Max RPM,Max Sus Travel FL,Max Sus Travel FR,Max Sus Travel RL,Max Sus Travel RR,Max Torque,Max Turbo Boost,Num Tires Off Track,Penalties Enabled,Position,Raw Data Sample Rate,Ride Height FL,Ride Height FR,Ride Height RL,Ride Height RR,Road Temp,Self Align Torque FL,Self Align Torque FR,Self Align Torque RL,Self Align Torque RR,Session Lap Count,Session Time Left,Steering Angle,Surface Grip,Suspension Travel FL,Suspension Travel FR,Suspension Travel RL,Suspension Travel RR,TC Active,TC Enabled,Throttle Pos,Tire Dirt Level FL,Tire Dirt Level FR,Tire Dirt Level RL,Tire Dirt Level RR,Tire Load FL,Tire Load FR,Tire Load RL,Tire Load RR,Tire Loaded Radius FL,Tire Loaded Radius FR,Tire Loaded Radius RL,Tire Loaded Radius RR,Tire Pressure FL,Tire Pressure FR,Tire Pressure RL,Tire Pressure RR,Tire Radius FL,Tire Radius FR,Tire Radius RL,Tire Radius RR,Tire Rubber Grip FL,Tire Rubber Grip FR,Tire Rubber Grip RL,Tire Rubber Grip RR,Tire Slip Angle FL,Tire Slip Angle FR,Tire Slip Angle RL,Tire Slip Angle RR,Tire Slip Ratio FL,Tire Slip Ratio FR,Tire Slip Ratio RL,Tire Slip Ratio RR,Tire Temp Core FL,Tire Temp Core FR,Tire Temp Core RL,Tire Temp Core RR,Tire Temp Inner FL,Tire Temp Inner FR,Tire Temp Inner RL,Tire Temp Inner RR,Tire Temp Middle FL,Tire Temp Middle FR,Tire Temp Middle RL,Tire Temp Middle RR,Tire Temp Outer FL,Tire Temp Outer FR,Tire Temp Outer RL,Tire Temp Outer RR,Toe In FL,Toe In FR,Toe In RL,Toe In RR,Turbo Boost,Wheel Angular Speed FL,Wheel Angular Speed FR,Wheel Angular Speed RL,Wheel Angular Speed RR,Wind Direction,Wind Speed
0,0.0,0.0,0.0,1.0,1.0,0.0,0.0,1.0,0.0,100.0,1.0,1.1856,26.0,0.0,0.0,0.0,59.99999,0.0,26.0,26.0,26.0,26.0,-0.128,0.2975000000000001,0.05413333333333334,294.128,-2.6834,-2.698375,-1.48555,-1.586888888888889,-275.68,216.2775,190.987625,0.0,0.0,0.0,0.0,0.0016,-5.498166666666667,-5.498166666666667,-0.5479,0.9953333333333334,-0.04112500000000008,-0.351,65.508,-0.08489999999999998,-0.21097500000000002,1.3420000000000005,100.0,1.0,1.0,202.28333333333333,0.0,0.0,0.0,0.0,0.0,0.0,0.0,8574.1,0.0,55.0,5.0,235.8,0.0,0.0,0.0,0.0,0.0,0.0,0.0,0.0,0.0030000000000001137,0.0030000000000001137,0.0,0.0,0.0,55.0,616.79921,10000.0,85.0,85.0,85.0,85.0,395.0,0.0,0.0,0.0,1.0,20.0,52.917,52.917,49.683,49.683,34.0,-28.085,21.63,-31.806666666666665,22.3,0.0,1782.002,0.9499999999999993,100.0,27.661,26.464,40.936,40.102000000000004,0.0,0.0,100.0,0.0,0.0,0.0,0.0,3040.285714285714,3341.7,4071.5,3949.0,305.6025,304.22975,314.8636666666667,314.92675,21.7422,20.4837,21.611,21.1499,314.99999,314.99999,324.99998,324.99998,99.55774285714286,99.50625,99.55941428571428,99.53914285714286,-0.04475000000000007,-0.16000000000000003,-0.20679999999999998,0.014799999999999924,-0.06333333333333258,-0.036666666666668846,1.549,1.623,36.888999999999996,29.023,36.069,33.187,55.852000000000004,34.009,57.1575,49.588,53.792,33.2325,55.8705,48.0465,52.971000000000004,32.8305,55.8685,47.50666666666667,-0.0015000000000000568,-0.14250000000000007,0.10631000000000002,0.11036000000000001,0.0,205.32,205.16500000000002,202.28333333333333,202.28333333333333,0.0,0.0
1,0.0,0.0,0.0,1.0,1.0,0.0,0.0,1.0,0.0,100.0,1.0,1.1856,26.0,0.0,0.0,0.0,59.999996,0.0,26.0,26.0,26.0,26.0,-0.15525,0.31710000000000016,0.1637,293.03,-2.6023,-2.7969999999999997,-1.49695,-1.573,-272.33,216.2775,190.967375,0.0,0.0,0.0,0.0,0.0035333333333333336,-5.498166666666667,-5.498166666666667,-0.4985,-0.47066666666666657,-0.08537499999999998,-0.635,65.663,-0.09019999999999995,-0.191725,1.654,100.0,1.0,1.0,202.42666666666668,0.0,0.0,0.0,0.0,0.0,0.0,0.0,8580.1,0.0,55.0,5.0,236.35666666666668,1.0,0.0,0.0,0.0,0.0,0.0,0.0,0.0,0.053999999999998494,0.053999999999998494,0.0,0.0,1.0,55.0,616.79921,10000.0,85.000001,85.000001,85.000001,85.000001,395.0,0.0,0.0,0.0,1.0,166.665,53.482,53.482,48.325,48.325,34.0,-29.6675,16.669999999999998,-36.46,26.715,0.0,1781.952,1.0700000000000003,100.0,27.742,26.767,42.825,41.192,0.0,0.0,100.0,0.0,0.0,0.0,0.0,3214.714285714286,2647.9,4384.125,4670.2,305.0905,306.3895,314.03633333333335,313.14925,21.7521,20.4887,21.621555555555556,21.1587,314.999998,314.999998,324.999988,324.999988,99.55775714285714,99.50626666666666,99.55955714285714,99.53928571428571,-0.05499999999999994,-0.1765,-0.21999999999999997,-0.0010000000000000009,-0.045000000000001705,-0.05666666666667197,1.4130000000000003,1.474,36.951,29.054499999999997,36.135,33.242,55.84,34.053,57.210499999999996,49.658500000000004,53.78,33.272999999999996,55.92,48.114,52.958,32.8695,55.915,47.57266666666666,0.006000000000000227,-0.14900000000000002,0.10854000000000001,0.11732000000000001,0.0,205.75,205.63,202.42666666666668,202.42666666666668,0.0,0.0
2,0.0,0.0,0.0,1.0,1.0,0.0,0.0,1.0,0.0,100.0,1.0,1.1856,26.0,0.0,0.0,0.0,59.999996,0.0,26.0,26.0,26.0,26.0,-0.16600000000000004,0.29590000000000005,-0.024766666666666666,293.655,-2.5814,-2.8165,-1.47195,-1.625888888888889,-268.78,216.2725,190.947375,0.0,0.0,0.0,0.0,0.0056,-5.498166666666667,-5.498166666666667,-0.5479,0.125,-0.06875000000000009,1.9020000000000001,65.813,-0.10199999999999998,-0.2509,1.8520000000000003,100.0,1.0,1.0,203.36333333333334,0.0,0.0,0.0,0.0,0.0,0.0,0.0,8619.9,0.0,55.0,5.0,236.9,0.0,0.0,0.0,0.0,0.0,0.0,0.0,0.0,0.10800000000000054,0.10800000000000054,0.0,0.0,0.0,55.0,616.79921,10000.0,85.000001,85.000001,85.000001,85.000001,395.0,0.0,0.0,0.0,1.0,166.665,52.444,52.444,50.125,50.125,34.0,-32.0425,18.337999999999997,-30.6,19.08,0.0,1781.897,0.8599999999999994,100.0,28.45,26.877,42.751,41.074,0.0,0.0,100.0,0.0,0.0,0.0,0.0,3417.0,2880.8,3769.875,3709.7,304.4095,305.6175,315.54466666666667,315.6355,21.7629,20.4938,21.632444444444445,21.1677,314.999998,314.999998,324.999988,324.999988,99.55775714285714,99.50628333333333,99.55971428571429,99.53944285714286,-0.06074999999999986,-0.1835,-0.254,-0.022199999999999998,-0.08166666666667055,-0.041666666666671404,1.6303333333333336,1.7055,37.018,29.086,36.203,33.298,55.831,34.097,57.2585,49.7265,53.771,33.3135,55.965,48.179,52.948,32.908,55.957499999999996,47.63633333333333,-0.006000000000000005,-0.14500000000000002,0.10890000000000001,0.10951500000000002,0.0,206.265,206.065,203.36333333333334,203.36333333333334,0.0,0.0
3,0.0,0.0,0.0,1.0,1.0,0.0,0.0,1.0,0.0,100.0,1.0,1.1856,26.0,0.0,0.0,0.0,59.999996,0.0,26.0,26.0,26.0,26.0,-0.16662500000000002,0.3166,0.06986666666666666,293.427,-2.7068,-2.713,-1.4953,-1.606,-265.82,216.265,190.93,0.0,0.0,0.0,0.0,0.007333333333333333,-5.498166666666667,-5.498166666666667,-0.5107,0.405,-0.026250000000000107,0.395,65.94800000000001,-0.11209999999999998,-0.20017500000000002,1.4160000000000004,100.0,1.0,1.0,203.48000000000002,0.0,0.0,0.0,0.0,0.0,0.0,0.0,8624.8,0.0,55.0,5.0,237.38333333333333,1.0,0.0,0.0,0.0,0.0,0.0,0.0,0.0,0.1529999999999987,0.1529999999999987,0.0,0.0,1.0,55.0,616.79921,10000.0,85.000001,85.000001,85.000001,85.000001,395.0,0.0,0.0,0.0,1.0,333.33500000000004,53.482,53.482,48.218,48.218,34.0,-26.765,17.858,-35.71,23.19,0.0,1781.851,0.6799999999999997,100.0,28.121,26.814,42.6,41.124,0.0,0.0,100.0,0.0,0.0,0.0,0.0,2888.857142857143,2869.6,4276.75,4222.7,305.9425,305.70125,314.2903333333333,314.33525,21.7716,20.4983,21.641555555555556,21.1753,314.999998,314.999998,324.999988,324.999988,99.55777142857143,99.50631666666666,99.55982857142857,99.53955714285715,-0.04299999999999993,-0.16974999999999996,-0.23439999999999994,-0.010600000000000054,-0.01999999999999602,-0.10166666666666657,1.4966666666666666,1.5725,37.072,29.113999999999997,36.26,33.3455,55.819,34.1365,57.2995,49.7875,53.759,33.3495,56.003,48.2375,52.936,32.942499999999995,55.993,47.693666666666665,-0.02499999999999991,-0.125,0.10663,0.10759,0.0,206.65,206.555,203.48000000000002,203.48000000000002,0.0,0.0
4,0.0,0.0,0.0,1.0,1.0,0.0,0.0,1.0,0.0,100.0,1.0,1.1856,26.0,0.0,0.0,0.0,59.999996,0.0,26.0,26.0,26.0,26.0,-0.16137499999999994,0.2642,-0.025433333333333336,293.594,-2.6456,-2.756625,-1.5157500000000002,-1.6097777777777778,-262.45,216.2525,190.91025,0.0,0.0,0.0,0.0,0.009300000000000001,-5.498166666666667,-5.498166666666667,-0.5432,-0.775,-0.0923750000000001,-1.7320000000000002,66.094,-0.10859999999999992,-0.23567500000000002,1.3239999999999998,100.0,1.0,1.0,204.04666666666668,0.0,0.0,0.0,0.0,0.0,0.0,0.0,8648.7,0.0,55.0,5.0,237.91,0.0,0.0,0.0,0.0,0.0,0.0,0.0,0.0,0.20400000000000063,0.20400000000000063,0.0,0.0,0.0,55.0,616.79921,10000.0,85.000001,85.000001,85.000001,85.000001,395.0,0.0,0.0,0.0,1.0,333.33500000000004,53.07,53.07,48.691,48.691,34.0,-30.2125,18.136,-34.05,19.945,0.0,1781.8,0.6750000000000007,100.0,27.846,26.789,42.906,41.316,0.0,0.0,100.0,0.0,0.0,0.0,0.0,3269.0,2854.9,4135.625,3683.1,305.0185,305.5855,314.6623333333333,315.577,21.7812,20.5032,21.652,21.1839,314.999998,314.999998,324.999988,324.999988,99.55777142857143,99.50633333333333,99.55998571428572,99.5397,-0.047250000000000014,-0.17325000000000002,-0.23120000000000007,-0.0043999999999999595,-0.05333333333332746,-0.036666666666668846,1.5636666666666668,1.6175,37.132999999999996,29.145,36.325,33.3995,55.803,34.1795,57.3485,49.8535,53.745000000000005,33.3895,56.049,48.3005,52.921,32.9805,56.036500000000004,47.75566666666667,-0.020499999999999963,-0.12700000000000022,0.10066000000000001,0.10770500000000001,0.0,207.075,206.94,204.04666666666668,204.04666666666668,0.0,0.0
5,0.0,0.0,0.0,1.0,1.0,0.0,0.0,1.0,0.0,100.0,1.0,1.1856,26.0,0.0,0.0,0.0,59.999996,0.0,26.0,26.0,26.0,26.0,-0.16012499999999996,0.29710000000000014,-0.0018333333333333333,293.625,-2.6532,-2.7828749999999998,-1.4975,-1.5987777777777779,-259.08,216.2375,190.889875,0.0,0.0,0.0,0.0,0.011233333333333333,-5.498166666666667,-5.498166666666667,-0.5369,0.4526666666666668,-0.09425000000000017,1.181,66.241,-0.10719999999999996,-0.2155,1.1479999999999997,100.0,1.0,1.0,204.47,0.0,0.0,0.0,0.0,0.0,0.0,0.0,8666.7,0.0,55.0,5.0,238.43666666666667,1.0,0.0,0.0,0.0,0.0,0.0,0.0,0.0,0.254999999999999,0.254999999999999,0.0,0.0,1.0,55.0,616.79921,10000.0,85.000001,85.000001,85.000001,85.000001,395.0,0.0,0.0,0.0,1.0,166.665,53.391,53.391,48.996,48.996,34.0,-28.145,19.018,-33.88666666666666,22.7275,0.0,1781.751,0.19500000000000028,100.0,28.075,26.54,42.725,40.913,0.0,0.0,100.0,0.0,0.0,0.0,0.0,3118.5714285714284,2836.5,4140.625,4077.8,305.253,305.86575,314.68266666666665,314.71325,21.7912,20.5082,21.662222222222223,21.1923,314.999998,314.999998,324.999988,324.999988,99.55778571428571,99.50635,99.56012857142858,99.53982857142857,-0.02675000000000005,-0.14749999999999996,-0.2317999999999999,0.0030000000000001137,-0.026666666666670835,-0.05666666666667197,1.5533333333333337,1.603,37.195,29.176499999999997,36.388999999999996,33.452,55.791,34.222,57.394999999999996,49.917500000000004,53.733999999999995,33.4285,56.0925,48.3615,52.909,33.0175,56.0775,47.815,-0.04949999999999988,-0.09750000000000014,0.10672500000000001,0.11472,0.0,207.54500000000002,207.445,204.47,204.47,0.0,0.0
6,0.0,0.0,0.0,1.0,1.0,0.0,0.0,1.0,0.0,100.0,1.0,1.1856,26.0,0.0,0.0,0.0,59.999996,0.0,26.0,26.0,26.0,26.0,-0.13674999999999993,0.3003,0.0098,293.442,-2.6243,-2.754,-1.54335,-1.591777777777778,-255.89,216.2175,190.870625,0.0,0.0,0.0,0.0,0.0131,-5.498166666666667,-5.498166666666667,-0.531,0.1180000000000001,-0.07212500000000022,1.023,66.379,-0.09939999999999993,-0.214975,0.8279999999999994,100.0,1.0,1.0,204.87333333333333,0.0,0.0,0.0,0.0,0.0,0.0,0.0,8683.8,0.0,55.0,5.0,238.93666666666667,0.0,0.0,0.0,0.0,0.0,0.0,0.0,0.0,0.3030000000000008,0.3030000000000008,0.0,0.0,0.0,55.0,616.79921,10000.0,85.000001,85.000001,85.000001,85.000001,395.0,0.0,0.0,0.0,1.0,333.33500000000004,53.085,53.085,48.737,48.737,34.0,-27.4125,20.68,-33.013333333333335,23.09,0.0,1781.701,0.03500000000000014,100.0,27.934,26.662,42.845,41.317,0.0,0.0,100.0,0.0,0.0,0.0,0.0,3136.142857142857,2972.5,4068.5,4035.9,305.1845,305.39975,314.843,314.8125,21.8005,20.512999999999998,21.672,21.2006,314.999998,314.999998,324.999988,324.999988,99.55778571428571,99.50636666666666,99.56025714285714,99.53997142857143,-0.010000000000000009,-0.128,-0.21539999999999992,0.015000000000000124,-0.05666666666667197,-0.05833333333333002,1.5533333333333337,1.5665,37.253,29.206,36.45,33.5035,55.778999999999996,34.2615,57.439499999999995,49.9815,53.721000000000004,33.4645,56.134,48.4225,52.896,33.052,56.116,47.87533333333333,-0.0645,-0.07799999999999985,0.10063000000000001,0.11246500000000001,0.0,207.965,207.865,204.87333333333333,204.87333333333333,0.0,0.0
7,0.0,0.0,0.0,1.0,1.0,0.0,0.0,1.0,0.0,100.0,1.0,1.1856,26.0,0.0,0.0,0.0,59.999996,0.0,26.0,26.0,26.0,26.0,-0.09899999999999998,0.2873000000000001,0.011300000000000001,293.167,-2.6031,-2.739125,-1.50645,-1.5783333333333334,-252.51,216.195,190.850125,0.0,0.0,0.0,0.0,0.015066666666666666,-5.498166666666667,-5.498166666666667,-0.5337000000000001,-0.04266666666666663,-0.06162500000000026,-0.22399999999999998,66.525,-0.07819999999999994,-0.222525,0.4220000000000006,100.0,1.0,1.0,205.29000000000002,0.0,0.0,0.0,0.0,0.0,0.0,0.0,8701.4,0.0,55.0,5.0,239.46,1.0,0.0,0.0,0.0,0.0,0.0,0.0,0.0,0.3539999999999992,0.3539999999999992,0.0,0.0,1.0,55.0,616.79921,10000.0,85.000001,85.000001,85.000001,85.000001,395.0,0.0,0.0,0.0,1.0,166.665,52.795,52.795,48.782,48.782,34.0,-27.73,21.406,-32.25666666666666,23.77,0.0,1781.651,-0.21000000000000085,100.0,27.844,26.856,42.805,41.684,0.0,0.0,100.0,0.0,0.0,0.0,0.0,3322.285714285714,2941.8,4100.5,4066.1000000000004,304.734,305.32875,314.7746666666667,314.6365,21.810299999999998,20.5181,21.682333333333332,21.2093,314.999998,314.999998,324.999988,324.999988,99.55778571428571,99.50636666666666,99.56041428571429,99.54011428571428,0.01725000000000021,-0.10524999999999995,-0.20199999999999996,0.0244000000000002,-0.06333333333333258,-0.04999999999999716,1.5366666666666666,1.553,37.314,29.238,36.513999999999996,33.558,55.765,34.302,57.486,50.0495,53.708,33.501999999999995,56.178,48.4875,52.882,33.0875,56.1565,47.93866666666666,-0.09299999999999997,-0.052000000000000046,0.10823,0.102495,0.0,208.4,208.34,205.29000000000002,205.29000000000002,0.0,0.0
8,0.0,0.0,0.0,1.0,1.0,0.0,0.0,1.0,0.0,100.0,1.0,1.1856,26.0,0.0,0.0,0.0,59.999996,0.0,26.0,26.0,26.0,26.0,-0.04849999999999999,0.29390000000000005,0.0417,293.411,-2.6874000000000002,-2.7258750000000003,-1.49225,-1.5582222222222222,-249.11,216.17000000000002,190.829625,0.0,0.0,0.0,0.0,0.017033333333333334,-5.498166666666667,-5.498166666666667,-0.5342,-0.5526666666666666,-0.039000000000000146,0.895,66.67099999999999,-0.053199999999999914,-0.212625,-0.08000000000000007,100.0,1.0,1.0,205.67000000000002,0.0,0.0,0.0,0.0,0.0,0.0,0.0,8717.5,0.0,55.0,5.0,239.98666666666668,0.0,0.0,0.0,0.0,0.0,0.0,0.0,0.0,0.40500000000000114,0.40500000000000114,0.0,0.0,0.0,55.0,616.79921,10000.0,85.000001,85.000001,85.000001,85.000001,395.0,0.0,0.0,0.0,1.0,333.33500000000004,53.68,53.68,48.05,48.05,34.0,-23.6575,22.628,-30.426666666666662,26.5725,0.0,1781.598,-0.3249999999999993,100.0,27.54,26.682,42.863,41.759,0.0,0.0,100.0,0.0,0.0,0.0,0.0,2928.5714285714284,2987.9,4141.875,4178.9,305.9005,305.3815,314.569,314.40025,21.8199,20.5232,21.692555555555554,21.218,314.999998,314.999998,324.999988,324.999988,99.5578,99.50638333333333,99.56055714285715,99.54025714285714,0.04300000000000015,-0.07650000000000001,-0.15779999999999994,0.06659999999999999,-0.045000000000001705,-0.045000000000001705,1.532,1.5305,37.373999999999995,29.2695,36.579,33.6125,55.748999999999995,34.341499999999996,57.532,50.1165,53.693,33.538,56.2205,48.5515,52.866,33.1225,56.197,48.001666666666665,-0.09899999999999998,-0.04349999999999987,0.10998000000000001,0.10586500000000001,0.0,208.81,208.785,205.67000000000002,205.67000000000002,0.0,0.0
9,0.0,0.0,0.0,1.0,1.0,0.0,0.0,1.0,0.0,100.0,1.0,1.1856,26.0,0.0,0.0,0.0,59.999996,0.0,26.0,26.0,26.0,26.0,-0.015375000000000028,0.28669999999999995,-0.021566666666666668,293.091,-2.6835,-2.721125,-1.5526499999999999,-1.5567777777777778,-245.7,216.14249999999998,190.8085,0.0,0.0,0.0,0.0,0.019033333333333336,-5.498166666666667,-5.498166666666667,-0.5398000000000001,0.687,-0.03687500000000021,-0.31600000000000006,66.813,-0.029999999999999916,-0.21430000000000002,-0.09200000000000053,100.0,1.0,1.0,206.25,0.0,0.0,0.0,0.0,0.0,0.0,0.0,8742.2,0.0,55.0,5.0,240.49666666666667,1.0,0.0,0.0,0.0,0.0,0.0,0.0,0.0,0.4559999999999995,0.4559999999999995,0.0,0.0,1.0,55.0,616.79921,10000.0,85.000001,85.000001,85.000001,85.000001,395.0,0.0,0.0,0.0,1.0,166.665,52.414,52.414,49.118,49.118,34.0,-27.0175,23.54,-29.003333333333337,26.490000000000002,0.0,1781.55,-0.4450000000000003,100.0,27.884,27.326999999999998,42.399,41.912,0.0,0.0,100.0,0.0,0.0,0.0,0.0,3375.5714285714284,2990.5,4021.0,4054.4,304.654,305.1275,315.07533333333333,314.72425,21.8297,20.5285,21.702666666666666,21.2267,314.999998,314.999998,324.999988,324.999988,99.5578,99.5064,99.5607,99.5404,0.05900000000000016,-0.0605,-0.14359999999999995,0.08720000000000017,-0.061666666666667425,-0.04833333333333201,1.5659999999999998,1.567,37.436,29.302999999999997,36.641999999999996,33.6665,55.736999999999995,34.382,57.5745,50.1825,53.682,33.5755,56.2605,48.615,52.854,33.158,56.2335,48.06366666666666,-0.11199999999999988,-0.04150000000000009,0.10680500000000001,0.10893000000000001,0.0,209.26999999999998,209.275,206.25,206.25,0.0,0.0
10,0.0,0.0,0.0,1.0,1.0,0.0,0.0,1.0,0.0,100.0,1.0,1.1856,26.0,0.0,0.0,0.0,59.999996,0.0,26.0,26.0,26.0,26.0,0.0,0.2921,-0.002266666666666667,292.908,-2.6604,-2.702875,-1.5319500000000001,-1.5375555555555558,-242.49,216.1175,190.789,0.0,0.0,0.0,0.0,0.020900000000000002,-5.498166666666667,-5.498166666666667,-0.5168,-0.3736666666666666,0.002375000000000016,0.31099999999999994,66.951,-0.009399999999999964,-0.20520000000000002,-0.45199999999999996,100.0,1.0,1.0,206.45666666666668,0.0,0.0,0.0,0.0,0.0,0.0,0.0,8750.9,0.0,55.0,5.0,240.99666666666667,0.0,0.0,0.0,0.0,0.0,0.0,1.0,0.0,0.5040000000000013,0.5040000000000013,0.0,0.0,0.0,55.0,616.79921,10000.0,85.000001,85.000001,85.000001,85.000001,395.0,0.0,0.0,0.0,1.0,166.665,53.421,53.421,47.546,47.546,34.0,-21.41,22.558,-30.923333333333332,29.105,0.0,1781.501,-0.5799999999999983,100.0,27.744,27.324,42.809,42.677,0.0,0.0,100.0,0.0,0.0,0.0,0.0,2905.857142857143,2861.1,4332.875,4265.4,306.021,305.5625,314.20166666666665,314.11,21.8388,20.5333,21.712444444444444,21.2351,314.999998,314.999998,324.999988,324.999988,99.55781428571429,99.5064,99.56084285714286,99.54052857142857,0.08725000000000005,-0.05049999999999999,-0.124,0.10000000000000009,-0.04333333333332945,-0.06333333333333258,1.4903333333333335,1.47,37.492000000000004,29.3335,36.703,33.7195,55.726,34.417500000000004,57.6195,50.2495,53.671,33.6085,56.302,48.679,52.842,33.189499999999995,56.2725,48.126666666666665,-0.12549999999999994,-0.03100000000000014,0.10505,0.104705,0.0,209.67000000000002,209.7,206.45666666666668,206.45666666666668,0.0,0.0
11,0.0,0.0,0.0,1.0,1.0,0.0,0.0,1.0,0.0,100.0,1.0,1.1856,26.0,0.0,0.0,0.0,59.999996,0.0,26.0,26.0,26.0,26.0,0.02825000000000011,0.27280000000000015,-0.06786666666666667,293.472,-2.7038,-2.689375,-1.58735,-1.5255555555555558,-239.07999999999998,216.09,190.76825,0.0,0.0,0.0,0.0,0.022600000000000002,-5.498166666666667,-5.498166666666667,-0.5606,-0.279,0.03112500000000007,0.381,67.09,0.0121,-0.23725000000000002,-0.6399999999999997,100.0,1.0,1.0,207.19,0.0,0.0,0.0,0.0,0.0,0.0,0.0,8782.0,0.0,55.0,5.0,241.49666666666667,1.0,0.0,0.0,0.0,0.0,0.0,1.0,0.0,0.5549999999999997,0.5549999999999997,0.0,0.0,1.0,55.0,616.79921,10000.0,85.000001,85.000001,85.000001,85.000001,395.0,0.0,0.0,0.0,1.0,333.33500000000004,52.811,52.811,49.21,49.21,34.0,-21.912499999999998,26.342,-23.856666666666662,26.88,0.0,1781.448,-0.6400000000000006,100.0,27.613,27.415,42.396,42.533,0.0,0.0,100.0,0.0,0.0,0.0,0.0,3004.0,3182.2,3685.5,3884.2,305.647,304.71475,315.836,315.14925,21.8482,20.5387,21.722555555555555,21.2439,314.999998,314.999998,324.999988,324.999988,99.55782857142857,99.50641666666667,99.56097142857143,99.54067142857143,0.10725000000000007,-0.02400000000000002,-0.08860000000000001,0.1352,-0.054999999999999716,-0.06666666666666998,1.6466666666666665,1.6075,37.551,29.366999999999997,36.766,33.774,55.712,34.4565,57.6605,50.316,53.658,33.6445,56.34,48.7425,52.828,33.224000000000004,56.3075,48.18933333333334,-0.125,-0.028500000000000192,0.109075,0.10452,0.0,210.075,210.125,207.19,207.19,0.0,0.0
12,0.0,0.0,0.0,1.0,1.0,0.0,0.0,1.0,0.0,100.0,1.0,1.1856,26.0,0.0,0.0,0.0,59.999996,0.0,26.0,26.0,26.0,26.0,0.05537499999999995,0.28980000000000006,0.0344,292.877,-2.7602,-2.68025,-1.5550000000000002,-1.525777777777778,-235.65,216.0625,190.74625,0.0,0.0,0.0,0.0,0.025466666666666665,-5.498166666666667,-5.498166666666667,-0.5457000000000001,0.2829999999999999,0.01574999999999993,-0.883,67.235,0.029300000000000104,-0.2064,-0.6420000000000003,100.0,1.0,1.0,207.41,0.0,0.0,0.0,0.0,0.0,0.0,0.0,8791.4,0.0,55.0,5.0,242.01666666666665,0.0,0.0,0.0,0.0,0.0,0.0,1.0,0.0,0.6059999999999981,0.6059999999999981,0.0,0.0,0.0,55.0,616.79921,10000.0,85.000001,85.000001,85.000001,85.000001,395.0,0.0,0.0,0.0,1.0,166.665,52.75,52.75,47.897,47.897,34.0,-23.127499999999998,26.183999999999997,-27.796666666666667,30.5825,0.0,1781.399,-0.6699999999999982,100.0,27.352,27.747,42.228,42.528,0.0,0.0,100.0,0.0,0.0,0.0,0.0,3142.285714285714,3101.9,4232.875,4172.1,305.423,304.811,314.534,314.3965,21.8577,20.5441,21.732777777777777,21.2526,314.999998,314.999998,324.999988,324.999988,99.55784285714286,99.50641666666667,99.56111428571428,99.54081428571429,0.11350000000000016,-0.011749999999999927,-0.0816,0.1504000000000001,-0.04999999999999716,-0.03333333333333144,1.5443333333333333,1.509,37.611000000000004,29.4005,36.83,33.829,55.701,34.4955,57.704499999999996,50.3835,53.647,33.6805,56.3815,48.807,52.816,33.2585,56.346000000000004,48.253,-0.129,-0.026000000000000245,0.107935,0.11429500000000001,0.0,210.54500000000002,210.60000000000002,207.41,207.41,0.0,0.0
13,0.0,0.0,0.0,1.0,1.0,0.0,0.0,1.0,0.0,100.0,1.0,1.1856,26.0,0.0,0.0,0.0,59.999996,0.0,26.0,26.0,26.0,26.0,0.07250000000000001,0.28600000000000003,0.03926666666666667,292.526,-2.7384,-2.6721250000000003,-1.62235,-1.51,-232.42000000000002,216.04000000000002,190.72575,0.0,0.0,0.0,0.0,0.02673333333333333,-5.498166666666667,-5.498166666666667,-0.5377000000000001,-0.03533333333333333,0.01912500000000006,-0.526,67.369,0.037800000000000056,-0.21277500000000002,-0.7679999999999998,100.0,1.0,1.0,207.76333333333332,0.0,0.0,0.0,0.0,0.0,0.0,0.0,8806.4,0.0,55.0,5.0,242.5,1.0,0.0,0.0,0.0,0.0,0.0,1.0,0.0,0.6539999999999999,0.6539999999999999,0.0,0.0,1.0,55.0,616.79921,10000.0,85.000001,85.000001,85.000001,85.000001,395.0,0.0,0.0,0.0,1.0,333.33500000000004,52.49,52.49,47.836,47.836,34.0,-21.83,26.688,-28.233333333333334,31.045,0.0,1781.349,-0.870000000000001,100.0,27.647,27.905,42.444,43.03,0.0,0.0,100.0,0.0,0.0,0.0,0.0,3160.0,3080.6,4239.75,4289.7,305.339,304.865,314.5113333333333,314.084,21.8668,20.5493,21.742444444444445,21.2611,314.999998,314.999998,324.999988,324.999988,99.55785714285715,99.50641666666667,99.56124285714286,99.54095714285714,0.1422500000000002,0.007000000000000117,-0.0686,0.14100000000000001,-0.04999999999999716,-0.07000000000000028,1.5190000000000001,1.4849999999999999,37.667,29.433,36.89,33.8815,55.692,34.5325,57.747,50.45,53.638,33.7145,56.420500000000004,48.871,52.806,33.291,56.382,48.315666666666665,-0.14749999999999996,-0.007000000000000117,0.10464000000000001,0.10032500000000001,0.0,210.95499999999998,211.01,207.76333333333332,207.76333333333332,0.0,0.0
14,0.0,0.0,0.0,1.0,1.0,0.0,0.0,1.0,0.0,100.0,1.0,1.1856,26.0,0.0,0.0,0.0,59.999996,0.0,26.0,26.0,26.0,26.0,0.078125,0.28290000000000015,-0.01,292.786,-2.7344,-2.619375,-1.6299000000000001,-1.5116666666666667,-228.98,216.01749999999998,190.7045,0.0,0.0,0.0,0.0,0.028733333333333333,-5.498166666666667,-5.498166666666667,-0.5478000000000001,-0.15066666666666662,0.05187499999999989,1.392,67.508,0.0504,-0.22762500000000002,-1.0420000000000007,100.0,1.0,1.0,208.2866666666667,0.0,0.0,0.0,0.0,0.0,0.0,0.0,8828.5,0.0,55.0,5.0,243.00333333333333,0.0,0.0,0.0,0.0,0.0,0.0,1.0,0.0,0.7049999999999983,0.7049999999999983,0.0,0.0,0.0,55.0,616.79921,10000.0,85.000001,85.000001,85.000001,85.000001,395.0,0.0,0.0,0.0,1.0,166.665,52.628,52.628,48.08,48.08,34.0,-19.787499999999998,28.586,-24.843333333333334,31.900000000000002,0.0,1781.3,-0.9499999999999993,100.0,27.704,27.808,42.506,43.155,0.0,0.0,100.0,0.0,0.0,0.0,0.0,2933.285714285714,3257.2,3975.0,4216.9,305.819,304.52025,315.081,314.36375,21.8764,20.5547,21.752555555555556,21.27,314.999998,314.999998,324.999988,324.999988,99.55787142857143,99.50641666666667,99.5614,99.5411,0.15200000000000014,0.02750000000000008,-0.04359999999999997,0.1764000000000001,-0.03833333333332689,-0.05666666666667197,1.5750000000000002,1.539,37.727000000000004,29.467,36.954,33.9375,55.683,34.5715,57.79,50.519,53.629000000000005,33.7505,56.460499999999996,48.9375,52.796,33.326,56.419,48.381,-0.15100000000000002,-0.0015000000000000568,0.10885500000000001,0.11123000000000001,0.0,211.375,211.44,208.2866666666667,208.2866666666667,0.0,0.0
15,0.0,0.0,0.0,1.0,1.0,0.0,0.0,1.0,0.0,100.0,1.0,1.1856,26.0,0.0,0.0,0.0,59.999996,0.0,26.0,26.0,26.0,26.0,0.1140000000000001,0.2873000000000001,0.008,292.847,-2.7096999999999998,-2.575875,-1.63055,-1.4522222222222223,-225.74,215.9975,190.68425,0.0,0.0,0.0,0.0,0.030633333333333332,-5.498166666666667,-5.498166666666667,-0.5395,0.31899999999999995,0.08337499999999998,1.126,67.641,0.0656000000000001,-0.208625,-1.2299999999999995,100.0,1.0,1.0,208.67666666666668,0.0,0.0,0.0,0.0,0.0,0.0,0.0,8845.1,0.0,55.0,5.0,243.48000000000002,1.0,0.0,0.0,0.0,0.0,0.0,1.0,0.0,0.7530000000000001,0.7530000000000001,0.0,0.0,1.0,55.0,616.79921,10000.0,85.000001,85.000001,85.000001,85.000001,395.0,0.0,0.0,0.0,1.0,333.33500000000004,52.811,52.811,48.187,48.187,34.0,-17.732499999999998,28.352,-23.986666666666665,33.7375,0.0,1781.251,-0.9499999999999993,100.0,27.68,27.874,42.228,43.191,0.0,0.0,100.0,0.0,0.0,0.0,0.0,2799.0,3228.0,3934.625,4382.8,306.1935,304.60325,315.1956666666667,313.9895,21.8853,20.5599,21.76211111111111,21.2784,314.999998,314.999998,324.999988,324.999988,99.55788571428572,99.50641666666667,99.56152857142857,99.54124285714286,0.17300000000000004,0.03825000000000012,-0.03179999999999994,0.19720000000000004,-0.045000000000001705,-0.051666666666669414,1.5670000000000002,1.518,37.783,29.499499999999998,37.013,33.99,55.675,34.6095,57.8285,50.5845,53.620999999999995,33.7855,56.4965,49.0005,52.787,33.3595,56.452,48.443,-0.15249999999999986,-0.0009999999999998899,0.11107500000000001,0.11456500000000001,0.0,211.785,211.87,208.67666666666668,208.67666666666668,0.0,0.0
16,0.0,0.0,0.0,1.0,1.0,0.0,0.0,1.0,0.0,100.0,1.0,1.1856,26.0,0.0,0.0,0.0,59.999996,0.0,26.0,26.0,26.0,26.0,0.13424999999999998,0.27459999999999996,-0.050333333333333334,292.847,-2.809,-2.605875,-1.6016,-1.4524444444444444,-222.28,215.98000000000002,190.662125,0.0,0.0,0.0,0.0,0.032633333333333334,-5.498166666666667,-5.498166666666667,-0.5595,-0.733,0.0685,-1.0470000000000002,67.781,0.07869999999999999,-0.22440000000000002,-1.1899999999999995,100.0,1.0,1.0,209.10000000000002,0.0,0.0,0.0,0.0,0.0,0.0,0.0,8862.9,0.0,55.0,5.0,243.98333333333335,0.0,0.0,0.0,0.0,0.0,0.0,1.0,0.0,0.8039999999999985,0.8039999999999985,0.0,0.0,0.0,55.0,616.79921,10000.0,85.000001,85.000001,85.000001,85.000001,395.0,0.0,0.0,0.0,1.0,333.33500000000004,52.78,52.78,47.852000000000004,47.852000000000004,34.0,-19.9,28.35,-23.61,31.795,0.0,1781.199,-0.870000000000001,100.0,27.171,28.121000000000002,42.419,43.415,0.0,0.0,100.0,0.0,0.0,0.0,0.0,2996.285714285714,3181.0,3972.625,4136.5,305.925,304.56575,315.142,314.50025,21.8945,20.5654,21.772333333333332,21.2873,314.999998,314.999998,324.999988,324.999988,99.5579,99.50641666666667,99.56167142857143,99.54138571428571,0.16975000000000007,0.037250000000000005,-0.02839999999999998,0.20240000000000014,-0.030000000000001137,-0.05833333333333002,1.5816666666666666,1.5335,37.84,29.534,37.077,34.046,55.663,34.65,57.873,50.653999999999996,53.608999999999995,33.823,56.5375,49.067,52.774,33.3955,56.49,48.51233333333333,-0.14849999999999985,-0.007000000000000117,0.11336,0.10977500000000001,0.0,212.17000000000002,212.26999999999998,209.10000000000002,209.10000000000002,0.0,0.0
17,0.0,0.0,0.0,1.0,1.0,0.0,0.0,1.0,0.0,100.0,1.0,1.1856,26.0,0.0,0.0,0.0,59.999996,0.0,26.0,26.0,26.0,26.0,0.11475000000000013,0.2772000000000001,-0.0235,292.526,-2.766,-2.564625,-1.63995,-1.4725555555555556,-218.82,215.965,190.639625,0.0,0.0,0.0,0.0,0.03466666666666667,-5.498166666666667,-5.498166666666667,-0.5506,0.5553333333333332,0.050999999999999934,0.754,67.92,0.07850000000000001,-0.20652500000000001,-1.146,100.0,1.0,1.0,209.51666666666665,0.0,0.0,0.0,0.0,0.0,0.0,0.0,8880.6,0.0,55.0,5.0,244.48000000000002,1.0,0.0,0.0,0.0,0.0,0.0,1.0,0.0,0.8550000000000004,0.8550000000000004,0.0,0.0,1.0,55.0,616.79921,10000.0,85.000001,85.000001,85.000001,85.000001,395.0,0.0,0.0,0.0,1.0,166.665,52.444,52.444,47.867,47.867,34.0,-19.1275,28.262,-25.026666666666664,34.285,0.0,1781.15,-0.9800000000000004,100.0,27.81,28.259999999999998,42.245000000000005,43.284,0.0,0.0,100.0,0.0,0.0,0.0,0.0,2980.142857142857,3168.7,4168.0,4314.7,305.7475,304.8,314.72,314.2015,21.904,20.5711,21.782444444444444,21.2962,314.999998,314.999998,324.999988,324.999988,99.55792857142858,99.50643333333333,99.56181428571429,99.54154285714286,0.18150000000000022,0.05325000000000002,-0.018000000000000016,0.21520000000000006,-0.03833333333332689,-0.060000000000002274,1.5653333333333337,1.5185,37.9,29.569499999999998,37.14,34.1015,55.656,34.692499999999995,57.914,50.723,53.602999999999994,33.8625,56.576,49.132999999999996,52.766,33.433,56.525,48.57366666666667,-0.15300000000000002,-0.0024999999999999467,0.10565500000000001,0.111515,0.0,212.64499999999998,212.75,209.51666666666665,209.51666666666665,0.0,0.0
18,0.0,0.0,0.0,1.0,1.0,0.0,0.0,1.0,0.0,100.0,1.0,1.1856,26.0,0.0,0.0,0.0,59.999996,0.0,26.0,26.0,26.0,26.0,0.12200000000000011,0.27259999999999995,-0.028300000000000002,292.511,-2.7962,-2.541125,-1.65365,-1.422,-215.56,215.9525,190.6185,0.0,0.0,0.0,0.0,0.036533333333333334,-5.498166666666667,-5.498166666666667,-0.5586,-0.5506666666666666,0.0734999999999999,1.146,68.05,0.07899999999999996,-0.22125,-1.2539999999999996,100.0,1.0,1.0,209.90666666666667,0.0,0.0,0.0,0.0,0.0,0.0,0.0,8897.1,0.0,55.0,5.0,244.95333333333335,0.0,0.0,0.0,0.0,0.0,0.0,1.0,0.0,0.9029999999999987,0.9029999999999987,0.0,0.0,0.0,55.0,616.79921,10000.0,85.000001,85.000001,85.000001,85.000001,395.0,0.0,0.0,0.0,1.0,333.33500000000004,52.46,52.46,47.714,47.714,34.0,-18.79,30.588,-23.813333333333333,32.415,0.0,1781.101,-1.2349999999999994,100.0,27.576,28.088,42.556,43.71,0.0,0.0,100.0,0.0,0.0,0.0,0.0,2966.142857142857,3350.3,4008.625,4221.9,305.8625,304.3345,315.03366666666665,314.37775,21.9127,20.5763,21.79211111111111,21.3047,314.999998,314.999998,324.999988,324.999988,99.55794285714286,99.50645,99.56195714285714,99.54168571428572,0.19174999999999986,0.07150000000000012,-0.011799999999999922,0.20879999999999987,-0.04333333333332945,-0.06333333333333258,1.5696666666666665,1.5265,37.954,29.602,37.201,34.1545,55.647999999999996,34.7315,57.9555,50.79,53.595,33.8985,56.6145,49.1975,52.757,33.468,56.561,48.637,-0.16649999999999987,0.01949999999999985,0.10241000000000001,0.112655,0.0,213.01,213.115,209.90666666666667,209.90666666666667,0.0,0.0
19,0.0,0.0,0.0,1.0,1.0,0.0,0.0,1.0,0.0,100.0,1.0,1.1856,26.0,0.0,0.0,0.0,59.999996,0.0,26.0,26.0,26.0,26.0,0.14375000000000004,0.28700000000000014,0.025366666666666666,292.007,-2.773,-2.522125,-1.6720000000000002,-1.403,-212.09,215.945,190.595875,0.0,0.0,0.0,0.0,0.03856666666666667,-5.498166666666667,-5.498166666666667,-0.552,0.8186666666666669,0.08174999999999999,-0.556,68.187,0.09200000000000008,-0.2122,-1.4799999999999995,100.0,1.0,1.0,210.33333333333331,0.0,0.0,0.0,0.0,0.0,0.0,0.0,8915.2,0.0,55.0,5.0,245.44333333333333,1.0,0.0,0.0,0.0,0.0,0.0,1.0,0.0,0.9540000000000006,0.9540000000000006,0.0,0.0,1.0,55.0,616.79921,10000.0,85.000001,85.000001,85.000001,85.000001,395.0,0.0,0.0,0.0,1.0,333.33500000000004,51.650999999999996,51.650999999999996,47.607,47.607,34.0,-20.5175,29.274,-24.979999999999997,34.045,0.0,1781.049,-0.9149999999999991,100.0,27.951,28.771,42.236000000000004,43.79,0.0,0.0,100.0,0.0,0.0,0.0,0.0,3142.142857142857,3319.5,4165.0,4366.3,305.3805,304.12675,314.7803333333333,314.0325,21.9221,20.5821,21.802222222222223,21.3137,314.999998,314.999998,324.999988,324.999988,99.55797142857143,99.50645,99.5621,99.54182857142857,0.17675000000000018,0.042750000000000066,-0.010399999999999965,0.21740000000000004,-0.054999999999999716,-0.051666666666669414,1.5699999999999998,1.508,38.013,29.637999999999998,37.263999999999996,34.210499999999996,55.641999999999996,34.775999999999996,57.9965,50.859,53.589,33.939499999999995,56.652,49.2645,52.75,33.5075,56.5955,48.702666666666666,-0.15349999999999997,-0.010000000000000231,0.11107500000000001,0.10654500000000001,0.0,213.485,213.57999999999998,210.33333333333331,210.33333333333331,0.0,0.0
20,0.0,0.0,0.0,1.0,1.0,0.0,0.0,1.0,0.0,100.0,1.0,1.1856,26.0,0.0,0.0,0.0,59.999996,0.0,26.0,26.0,26.0,26.0,0.11662499999999998,0.278,0.037233333333333334,292.297,-2.8125999999999998,-2.594875,-1.5875,-1.5338888888888889,-208.6,215.94,190.573625,0.0,0.0,0.0,0.0,0.040600000000000004,-5.498166666666667,-5.498166666666667,-0.5526,-1.1563333333333334,0.07325000000000004,0.11499999999999999,68.327,0.09889999999999999,-0.2197,-0.9299999999999997,100.0,1.0,1.0,210.62666666666667,0.0,0.0,0.0,0.0,0.0,0.0,0.0,8927.7,0.0,55.0,5.0,245.95,0.0,0.0,0.0,0.0,0.0,0.0,0.0,0.0,1.004999999999999,1.004999999999999,0.0,0.0,0.0,55.0,616.79921,10000.0,85.000001,85.000001,85.000001,85.000001,395.0,0.0,0.0,0.0,1.0,166.665,52.856,52.856,46.814,46.814,34.0,-19.6675,27.198,-24.096666666666664,36.5,0.0,1781.0,0.03999999999999915,100.0,27.503,28.227,42.949,44.082,0.0,0.0,100.0,0.0,0.0,0.0,0.0,2812.142857142857,3221.5,4146.625,4357.8,306.365,304.655,314.59366666666665,313.87725,21.9312,20.587699999999998,21.812555555555555,21.3229,314.999998,314.999998,324.999988,324.999988,99.55798571428572,99.50645,99.56224285714286,99.54197142857143,0.14349999999999996,0.008000000000000007,-0.008799999999999919,0.22020000000000017,-0.03999999999999915,-0.06499999999999773,1.5016666666666665,1.4595,38.07,29.673000000000002,37.329,34.268,55.629999999999995,34.816,58.042500000000004,50.9315,53.577,33.9765,56.695,49.334,52.736999999999995,33.543,56.635,48.771,-0.08499999999999996,-0.0754999999999999,0.11235,0.10525500000000002,0.0,213.875,213.95499999999998,210.62666666666667,210.62666666666667,0.0,0.0
21,0.0,0.0,0.0,1.0,1.0,0.0,0.0,1.0,0.0,100.0,1.0,1.1856,26.0,0.0,0.0,0.0,59.999996,0.0,26.0,26.0,26.0,26.0,0.06812499999999999,0.27990000000000004,-0.0707,292.679,-2.7079,-2.66825,-1.6365,-1.51,-205.32,215.94,190.552,0.0,0.0,0.0,0.0,0.0425,-5.498166666666667,-5.498166666666667,-0.5787,0.45300000000000007,0.038999999999999924,-0.05800000000000005,68.451,0.07740000000000014,-0.2263,-0.12600000000000033,100.0,1.0,1.0,211.2733333333333,0.0,0.0,0.0,0.0,0.0,0.0,0.0,8955.1,0.0,55.0,5.0,246.39666666666665,1.0,0.0,0.0,0.0,0.0,0.0,0.0,0.0,1.0530000000000008,1.0530000000000008,0.0,0.0,1.0,55.0,616.79921,10000.0,85.000001,85.000001,85.000001,85.000001,395.0,0.0,0.0,0.0,1.0,166.665,52.246,52.246,48.355000000000004,48.355000000000004,34.0,-21.915,26.497999999999998,-23.97,30.0425,0.0,1780.952,0.33000000000000185,100.0,27.951,28.287,42.414,43.547,0.0,0.0,100.0,0.0,0.0,0.0,0.0,3009.0,3204.3,3950.75,3990.3,305.5945,304.6175,315.26666666666665,314.96175,21.94,20.593,21.822,21.3311,314.999998,314.999998,324.999988,324.999988,99.558,99.50646666666667,99.56237142857142,99.54212857142858,0.11149999999999993,-0.022749999999999937,-0.032399999999999984,0.18799999999999994,-0.03999999999999915,-0.07499999999999574,1.6083333333333334,1.611,38.125,29.706,37.388,34.3195,55.620000000000005,34.854,58.0785,50.9925,53.568,34.012,56.729,49.3925,52.727000000000004,33.577,56.666,48.829,-0.052999999999999936,-0.10599999999999987,0.09942000000000001,0.11225500000000001,0.0,214.325,214.34,211.2733333333333,211.2733333333333,0.0,0.0
22,0.0,0.0,0.0,1.0,1.0,0.0,0.0,1.0,0.0,100.0,1.0,1.1856,26.0,0.0,0.0,0.0,59.999996,0.0,26.0,26.0,26.0,26.0,0.043625000000000025,0.26849999999999996,0.028,292.084,-2.6779,-2.68325,-1.61775,-1.563,-201.82999999999998,215.94,190.528125,0.0,0.0,0.0,0.0,0.044533333333333334,-5.498166666666667,-5.498166666666667,-0.5566,0.139,0.027125000000000066,-0.8220000000000001,68.59,0.03720000000000012,-0.20450000000000002,0.572000000000001,100.0,1.0,1.0,211.48000000000002,0.0,0.0,0.0,0.0,0.0,0.0,0.0,8963.9,0.0,55.0,5.0,246.89666666666665,0.0,0.0,0.0,0.0,0.0,0.0,0.0,0.0,1.1039999999999992,1.1039999999999992,0.0,0.0,0.0,55.0,616.79921,10000.0,85.000001,85.000001,85.000001,85.000001,395.0,0.0,0.0,0.0,1.0,333.33500000000004,52.260999999999996,52.260999999999996,47.104,47.104,34.0,-23.3125,23.854,-30.200000000000003,30.6325,0.0,1780.899,0.4349999999999987,100.0,28.007,28.424,42.947,43.729,0.0,0.0,100.0,0.0,0.0,0.0,0.0,3048.5714285714284,3060.9,4277.375,4241.6,305.617,304.839,314.46933333333334,314.22575,21.9494,20.5986,21.832333333333334,21.3402,314.999998,314.999998,324.999988,324.999988,99.55802857142857,99.50646666666667,99.56252857142857,99.54227142857142,0.07624999999999993,-0.0635,-0.09739999999999993,0.12880000000000003,-0.061666666666667425,-0.026666666666670835,1.4803333333333337,1.514,38.184,29.741,37.452,34.376,55.608000000000004,34.8945,58.124,51.062,53.556,34.0495,56.771,49.459,52.714,33.613,56.705,48.894333333333336,-0.04600000000000004,-0.1160000000000001,0.10668000000000001,0.10659,0.0,214.79000000000002,214.72,211.48000000000002,211.48000000000002,0.0,0.0
23,0.0,0.0,0.0,1.0,1.0,0.0,0.0,1.0,0.0,100.0,1.0,1.1856,26.0,0.0,0.0,0.0,59.999996,0.0,26.0,26.0,26.0,26.0,-0.01287499999999997,0.246,-0.014533333333333336,292.038,-2.6784,-2.6651249999999997,-1.5211999999999999,-1.6003333333333334,-198.32999999999998,215.94,190.504625,0.0,0.0,0.0,0.0,0.04656666666666667,-5.498166666666667,-5.498166666666667,-0.5747,-0.357,0.0016249999999999876,0.22399999999999998,68.724,0.0014000000000000679,-0.231525,0.7520000000000007,100.0,1.0,1.0,211.98000000000002,0.0,0.0,0.0,0.0,0.0,0.0,0.0,8985.0,0.0,55.0,5.0,247.38,1.0,0.0,0.0,0.0,0.0,0.0,0.0,0.0,1.1550000000000011,1.1550000000000011,0.0,0.0,1.0,55.0,616.79921,10000.0,85.000001,85.000001,85.000001,85.000001,395.0,0.0,0.0,0.0,1.0,166.665,51.682,51.682,47.989,47.989,34.0,-26.1375,23.366,-27.380000000000003,27.465,0.0,1780.85,0.4800000000000004,100.0,28.521,28.165,43.432,43.716,0.0,0.0,100.0,0.0,0.0,0.0,0.0,3274.857142857143,3156.0,3972.125,4006.8,304.799,304.8455,315.0423333333333,314.813,21.9588,20.6041,21.842666666666666,21.3492,314.999998,314.999998,324.999988,324.999988,99.55802857142857,99.50646666666667,99.56267142857143,99.54241428571429,0.06300000000000017,-0.08274999999999999,-0.11599999999999999,0.09759999999999991,-0.03999999999999915,-0.05666666666667197,1.508,1.539,38.242999999999995,29.776,37.516999999999996,34.4325,55.595,34.9365,58.168,51.129999999999995,53.544,34.088,56.812,49.5245,52.701,33.6495,56.7425,48.958333333333336,-0.04899999999999993,-0.11549999999999994,0.108105,0.098905,0.0,215.175,215.135,211.98000000000002,211.98000000000002,0.0,0.0
24,0.0,0.0,0.0,1.0,1.0,0.0,0.0,1.0,0.0,100.0,1.0,1.1856,26.0,0.0,0.0,0.0,59.999996,0.0,26.0,26.0,26.0,26.0,-0.058374999999999955,0.2856000000000001,-0.082,292.343,-2.6878,-2.6875,-1.55765,-1.552,-195.01999999999998,215.94,190.482125,0.0,0.0,0.0,0.0,0.0485,-5.498166666666667,-5.498166666666667,-0.5784,-0.5373333333333333,-0.00012500000000015277,0.921,68.852,-0.02429999999999999,-0.2174,0.7799999999999994,100.0,1.0,1.0,212.3,0.0,0.0,0.0,0.0,0.0,0.0,0.0,8998.6,0.0,55.0,5.0,247.83666666666664,0.0,0.0,0.0,0.0,0.0,0.0,0.0,0.0,1.2029999999999994,1.2029999999999994,0.0,0.0,0.0,55.0,616.79921,10000.0,85.000001,85.000001,85.000001,85.000001,395.0,0.0,0.0,0.0,1.0,333.33500000000004,52.841,52.841,47.058,47.058,34.0,-23.8925,21.28,-32.11,26.837500000000002,0.0,1780.801,0.41000000000000014,100.0,28.379,27.859,43.583,43.448,0.0,0.0,100.0,0.0,0.0,0.0,0.0,2926.857142857143,2965.2,4292.5,4127.5,305.8905,305.46425,314.28566666666666,314.62125,21.9676,20.6092,21.852333333333334,21.357599999999998,314.999998,314.999998,324.999988,324.999988,99.55802857142857,99.50648333333334,99.56281428571428,99.54255714285715,0.039750000000000174,-0.09824999999999995,-0.14500000000000002,0.08120000000000016,-0.03999999999999915,-0.06833333333332803,1.5096666666666665,1.5335,38.298,29.807000000000002,37.577,34.485,55.582,34.974000000000004,58.21,51.1915,53.531,34.123,56.851,49.5835,52.688,33.6835,56.778999999999996,49.016333333333336,-0.04200000000000004,-0.11399999999999988,0.10407000000000001,0.11316500000000002,0.0,215.585,215.51999999999998,212.3,212.3,0.0,0.0
25,0.0,0.0,0.0,1.0,1.0,0.0,0.0,1.0,0.0,100.0,1.0,1.1856,26.0,0.0,0.0,0.0,59.999996,0.0,26.0,26.0,26.0,26.0,-0.08262499999999995,0.26639999999999997,-0.06623333333333334,292.252,-2.737,-2.66275,-1.5585,-1.568,-191.3,215.94,190.455375,0.0,0.0,0.0,0.0,0.050633333333333336,-5.498166666666667,-5.498166666666667,-0.612,0.09666666666666668,-0.012875000000000192,-0.31099999999999994,68.991,-0.04509999999999992,-0.224775,0.7919999999999998,100.0,1.0,1.0,212.87666666666667,0.0,0.0,0.0,0.0,0.0,0.0,0.0,9023.1,0.0,55.0,5.0,248.34333333333336,1.0,0.0,0.0,0.0,0.0,0.0,0.0,0.0,1.256999999999998,1.256999999999998,0.0,0.0,1.0,55.0,616.79921,10000.0,85.000001,85.000001,85.000001,85.000001,395.0,0.0,0.0,0.0,1.0,166.665,51.712,51.712,47.928,47.928,34.0,-28.4525,23.372,-29.560000000000002,25.1025,0.0,1780.748,0.370000000000001,100.0,28.376,27.985,43.382,43.034,0.0,0.0,100.0,0.0,0.0,0.0,0.0,3296.0,3285.7,3966.5,3984.5,304.889,304.46325,315.17633333333333,314.96225,21.9775,20.615,21.86311111111111,21.3669,314.999998,314.999998,324.999988,324.999988,99.55804285714285,99.5065,99.56297142857143,99.54271428571428,0.02475000000000005,-0.10649999999999993,-0.16059999999999997,0.0686,-0.05333333333332746,-0.05833333333333002,1.5703333333333336,1.5905,38.36,29.8435,37.644999999999996,34.543,55.565,35.019999999999996,58.2545,51.259,53.515,34.165,56.8925,49.647999999999996,52.671,33.7235,56.817,49.07966666666667,-0.052999999999999936,-0.10950000000000015,0.10464000000000001,0.10616500000000001,0.0,216.015,215.945,212.87666666666667,212.87666666666667,0.0,0.0
26,0.0,0.0,0.0,1.0,1.0,0.0,0.0,1.0,0.0,100.0,1.0,1.1856,26.0,0.0,0.0,0.0,59.999996,0.0,26.0,26.0,26.0,26.0,-0.09899999999999998,0.27390000000000003,0.07193333333333334,291.138,-2.6714,-2.7586250000000003,-1.5937999999999999,-1.5747777777777778,-187.99,215.9375,190.431,0.0,0.0,0.0,0.0,0.052566666666666664,-5.498166666666667,-5.498166666666667,-0.5701,0.7836666666666667,-0.043874999999999886,0.45199999999999996,69.12,-0.05459999999999998,-0.19445,0.7460000000000004,100.0,1.0,1.0,213.00333333333333,0.0,0.0,0.0,0.0,0.0,0.0,0.0,9028.4,0.0,55.0,5.0,248.80333333333334,0.0,0.0,0.0,0.0,0.0,0.0,0.0,0.0,1.3049999999999997,1.3049999999999997,0.0,0.0,0.0,55.0,616.79921,10000.0,85.000001,85.000001,85.000001,85.000001,395.0,0.0,0.0,0.0,1.0,333.33500000000004,51.361000000000004,51.361000000000004,46.173,46.173,34.0,-26.695,22.226,-36.63333333333333,28.62,0.0,1780.699,0.19000000000000128,100.0,29.312,28.48,44.018,43.266,0.0,0.0,100.0,0.0,0.0,0.0,0.0,3215.285714285714,3088.8,4576.625,4473.4,304.9875,304.9445,313.7063333333333,313.8135,21.9867,20.6203,21.873,21.3754,314.999998,314.999998,324.999988,324.999988,99.55804285714285,99.50651666666667,99.56311428571429,99.54285714285714,0.03699999999999992,-0.11924999999999997,-0.16500000000000004,0.05400000000000005,-0.041666666666671404,-0.05333333333332746,1.4376666666666664,1.466,38.417,29.877000000000002,37.706,34.5965,55.555,35.0625,58.299,51.3225,53.504999999999995,34.204499999999996,56.9345,49.709,52.66,33.760999999999996,56.856,49.13933333333333,-0.06600000000000006,-0.10850000000000026,0.10724500000000001,0.107615,0.0,216.45499999999998,216.375,213.00333333333333,213.00333333333333,0.0,0.0
27,0.0,0.0,0.0,1.0,1.0,0.0,0.0,1.0,0.0,100.0,1.0,1.1856,26.0,0.0,0.0,0.0,59.999996,0.0,26.0,26.0,26.0,26.0,-0.05899999999999994,0.2513000000000001,-0.0358,291.626,-2.641,-2.723875,-1.5835,-1.6483333333333332,-184.45999999999998,215.9325,190.4065,0.0,0.0,0.0,0.0,0.05463333333333334,-5.498166666666667,-5.498166666666667,-0.5985,-1.0553333333333332,-0.04700000000000015,-0.554,69.252,-0.05809999999999993,-0.243925,0.6340000000000003,100.0,1.0,1.0,213.5366666666667,0.0,0.0,0.0,0.0,0.0,0.0,0.0,9051.0,0.0,55.0,5.0,249.28333333333336,1.0,0.0,0.0,0.0,0.0,0.0,0.0,0.0,1.355999999999998,1.355999999999998,0.0,0.0,1.0,55.0,616.79921,10000.0,85.000001,85.000001,85.000001,85.000001,395.0,0.0,0.0,0.0,1.0,166.665,51.772999999999996,51.772999999999996,46.692,46.692,34.0,-26.5225,21.722,-32.28333333333333,26.1,0.0,1780.649,0.08000000000000185,100.0,28.829,28.36,44.668,43.897,0.0,0.0,100.0,0.0,0.0,0.0,0.0,3248.0,3027.7,4114.0,3978.8,305.0895,305.074,314.7373333333333,314.82825,21.9961,20.6257,21.883444444444443,21.3846,314.999998,314.999998,324.999988,324.999988,99.55805714285714,99.50653333333334,99.56325714285714,99.543,0.035499999999999865,-0.11375000000000002,-0.17259999999999998,0.05879999999999996,-0.04999999999999716,-0.03499999999999659,1.505,1.5205,38.476,29.911,37.772,34.6535,55.54,35.1045,58.347,51.3905,53.492000000000004,34.243,56.979,49.774,52.644999999999996,33.798,56.8975,49.202333333333335,-0.08399999999999985,-0.08800000000000008,0.09886500000000001,0.11585000000000001,0.0,216.79000000000002,216.72,213.5366666666667,213.5366666666667,0.0,0.0
28,0.0,0.0,0.0,1.0,1.0,0.0,0.0,1.0,0.0,100.0,1.0,1.1856,26.0,0.0,0.0,0.0,59.999996,0.0,26.0,26.0,26.0,26.0,-0.056499999999999995,0.26480000000000015,-0.05313333333333334,291.855,-2.6724,-2.7055,-1.53515,-1.606111111111111,-181.13,215.925,190.382625,0.0,0.0,0.0,0.0,0.05656666666666667,-5.498166666666667,-5.498166666666667,-0.599,0.6476666666666668,-0.045500000000000096,-0.538,69.374,-0.05729999999999991,-0.21702500000000002,0.5500000000000007,100.0,1.0,1.0,214.00666666666666,0.0,0.0,0.0,0.0,0.0,0.0,0.0,9071.0,0.0,55.0,5.0,249.72,0.0,0.0,0.0,0.0,0.0,0.0,0.0,0.0,1.404,1.404,0.0,0.0,0.0,55.0,616.79921,10000.0,85.000001,85.000001,85.000001,85.000001,395.0,0.0,0.0,0.0,1.0,333.33500000000004,51.727000000000004,51.727000000000004,47.501,47.501,34.0,-27.545,21.302,-31.253333333333337,25.785,0.0,1780.599,0.0,100.0,28.92,28.337,43.977000000000004,43.397999999999996,0.0,0.0,100.0,0.0,0.0,0.0,0.0,3319.142857142857,2983.1,4086.5,4086.2,304.896,305.1875,314.92533333333336,314.71075,22.0051,20.6309,21.893,21.3929,314.999998,314.999998,324.999988,324.999988,99.55805714285714,99.50655,99.56341428571429,99.54315714285714,0.03474999999999984,-0.11124999999999996,-0.17720000000000002,0.054400000000000004,-0.02833333333332888,-0.05333333333332746,1.5420000000000003,1.5685,38.532,29.9435,37.831,34.7055,55.528,35.1475,58.3875,51.4535,53.480000000000004,34.2825,57.016999999999996,49.8345,52.632999999999996,33.836,56.932,49.26166666666667,-0.08499999999999996,-0.08400000000000007,0.10761000000000001,0.11139500000000001,0.0,217.21,217.175,214.00666666666666,214.00666666666666,0.0,0.0
29,0.0,0.0,0.0,1.0,1.0,0.0,0.0,1.0,0.0,100.0,1.0,1.1856,26.0,0.0,0.0,0.0,59.999996,0.0,26.0,26.0,26.0,26.0,-0.06812499999999999,0.25970000000000004,0.0159,291.458,-2.6155,-2.761125,-1.57165,-1.5813333333333333,-177.59,215.91750000000002,190.35625,0.0,0.0,0.0,0.0,0.05863333333333334,-5.498166666666667,-5.498166666666667,-0.6039,-0.7283333333333333,-0.039750000000000174,0.829,69.508,-0.04709999999999992,-0.215,0.18200000000000038,100.0,1.0,1.0,214.2266666666667,0.0,0.0,0.0,0.0,0.0,0.0,0.0,9080.3,0.0,55.0,5.0,250.20333333333335,1.0,0.0,0.0,0.0,0.0,0.0,0.0,0.0,1.4549999999999983,1.4549999999999983,0.0,0.0,1.0,55.0,616.79921,10000.0,85.000001,85.000001,85.000001,85.000001,395.0,0.0,0.0,0.0,1.0,333.33500000000004,51.772999999999996,51.772999999999996,46.417,46.417,34.0,-25.585,23.9,-32.519999999999996,27.9075,0.0,1780.548,-0.08999999999999986,100.0,28.706,28.059,44.45,43.604,0.0,0.0,100.0,0.0,0.0,0.0,0.0,3200.714285714286,3155.3,4234.0,4271.0,305.0735,304.7245,314.403,314.24925,22.014499999999998,20.6364,21.903444444444446,21.402,314.999998,314.999998,324.999988,324.999988,99.55805714285714,99.50655,99.56355714285715,99.54328571428572,0.04600000000000026,-0.09475,-0.15439999999999998,0.06659999999999999,-0.054999999999999716,-0.03999999999999915,1.4740000000000002,1.476,38.59,29.9775,37.896,34.7625,55.513999999999996,35.186,58.432,51.516999999999996,53.466,34.318,57.0585,49.8955,52.617999999999995,33.87,56.971000000000004,49.321333333333335,-0.08949999999999991,-0.07350000000000012,0.1086,0.10846000000000001,0.0,217.59,217.54500000000002,214.2266666666667,214.2266666666667,0.0,0.0
30,0.0,0.0,0.0,1.0,1.0,0.0,0.0,1.0,0.0,100.0,1.0,1.1856,26.0,0.0,0.0,0.0,59.999996,0.0,26.0,26.0,26.0,26.0,-0.04662500000000003,0.2651000000000001,0.05856666666666666,291.016,-2.6756,-2.6411249999999997,-1.51515,-1.6377777777777778,-174.25,215.9075,190.33125,0.0,0.0,0.0,0.0,0.060566666666666664,-5.498166666666667,-5.498166666666667,-0.6043000000000001,0.772,-0.03762500000000024,0.743,69.63,-0.0361999999999999,-0.218125,0.1739999999999995,100.0,1.0,1.0,214.67000000000002,0.0,0.0,0.0,0.0,0.0,0.0,0.0,9099.1,0.0,55.0,5.0,250.64333333333335,0.0,0.0,0.0,0.0,0.0,0.0,1.0,0.0,1.5030000000000001,1.5030000000000001,0.0,0.0,0.0,55.0,616.79921,10000.0,85.000001,85.000001,85.000001,85.000001,395.0,0.0,0.0,0.0,1.0,333.33500000000004,50.735,50.735,46.829,46.829,34.0,-26.865000000000002,23.552,-30.78666666666666,29.5625,0.0,1780.502,-0.129999999999999,100.0,29.536,28.833,44.202,43.68,0.0,0.0,100.0,0.0,0.0,0.0,0.0,3368.5714285714284,3188.5,4230.75,4266.9,304.5305,304.669,314.516,314.212,22.023600000000002,20.6418,21.91311111111111,21.4105,314.999998,314.999998,324.999988,324.999988,99.55807142857142,99.50656666666667,99.5637,99.54342857142858,0.06625000000000014,-0.08250000000000002,-0.14039999999999997,0.08240000000000003,-0.061666666666667425,-0.04833333333333201,1.4809999999999999,1.4889999999999999,38.647,30.011,37.957,34.8155,55.504999999999995,35.228,58.4715,51.579,53.458,34.357,57.0955,49.954499999999996,52.608999999999995,33.907,57.004999999999995,49.379,-0.10199999999999987,-0.06899999999999995,0.10450500000000001,0.10926500000000001,0.0,217.99,217.98000000000002,214.67000000000002,214.67000000000002,0.0,0.0
31,0.0,0.0,0.0,1.0,1.0,0.0,0.0,1.0,0.0,100.0,1.0,1.1856,26.0,0.0,0.0,0.0,59.999996,0.0,26.0,26.0,26.0,26.0,-0.031749999999999945,0.24619999999999997,0.0009000000000000001,290.97,-2.7453,-2.614875,-1.60425,-1.6305555555555558,-170.69,215.89499999999998,190.3055,0.0,0.0,0.0,0.0,0.06263333333333335,-5.498166666666667,-5.498166666666667,-0.5882000000000001,-0.5263333333333333,-0.03000000000000025,-0.8220000000000001,69.762,-0.023799999999999932,-0.217875,0.017999999999998906,100.0,1.0,1.0,214.96666666666667,0.0,0.0,0.0,0.0,0.0,0.0,0.0,9111.7,0.0,55.0,5.0,251.11666666666667,1.0,0.0,0.0,0.0,0.0,0.0,1.0,0.0,1.5539999999999985,1.5539999999999985,0.0,0.0,1.0,55.0,616.79921,10000.0,85.000001,85.000001,85.000001,85.000001,395.0,0.0,0.0,0.0,1.0,166.665,51.513999999999996,51.513999999999996,45.441,45.441,34.0,-25.695,22.799999999999997,-33.77333333333333,29.6675,0.0,1780.451,-0.15500000000000114,100.0,29.046,28.973,44.742000000000004,44.44,0.0,0.0,100.0,0.0,0.0,0.0,0.0,3192.714285714286,3111.5,4469.875,4221.4,305.392,304.94875,313.98966666666666,314.385,22.032899999999998,20.6474,21.923555555555556,21.4197,314.999998,314.999998,324.999988,324.999988,99.55808571428571,99.50658333333334,99.56385714285715,99.54358571428571,0.06125000000000025,-0.07799999999999996,-0.132,0.0928,-0.03999999999999915,-0.045000000000001705,1.467,1.464,38.706,30.0465,38.022999999999996,34.873,55.492000000000004,35.269999999999996,58.519,51.6475,53.446,34.396,57.14,50.0205,52.596000000000004,33.9445,57.046,49.443666666666665,-0.09850000000000003,-0.06599999999999984,0.099085,0.111695,0.0,218.37,218.36,214.96666666666667,214.96666666666667,0.0,0.0
32,0.0,0.0,0.0,1.0,1.0,0.0,0.0,1.0,0.0,100.0,1.0,1.1856,26.0,0.0,0.0,0.0,59.999996,0.0,26.0,26.0,26.0,26.0,-0.03149999999999997,0.2572000000000001,-0.054900000000000004,291.229,-2.6766,-2.725,-1.6273,-1.541,-167.13,215.885,190.279875,0.0,0.0,0.0,0.0,0.06470000000000001,-5.498166666666667,-5.498166666666667,-0.6066,0.15300000000000002,-0.05312500000000009,0.17599999999999993,69.889,-0.016999999999999904,-0.22685000000000002,-0.009999999999999787,100.0,1.0,1.0,215.5233333333333,0.0,0.0,0.0,0.0,0.0,0.0,0.0,9135.3,0.0,55.0,5.0,251.57333333333332,0.0,0.0,0.0,0.0,0.0,0.0,1.0,0.0,1.6050000000000004,1.6050000000000004,0.0,0.0,0.0,55.0,616.79921,10000.0,85.000001,85.000001,85.000001,85.000001,395.0,0.0,0.0,0.0,1.0,166.665,51.254,51.254,46.555,46.555,34.0,-24.465,25.025999999999996,-30.513333333333335,28.5375,0.0,1780.4,-0.23000000000000043,100.0,29.2,28.831,44.489000000000004,44.117000000000004,0.0,0.0,100.0,0.0,0.0,0.0,0.0,3234.0,3153.4,4204.5,4191.6,305.0035,304.82075,314.695,314.572,22.0422,20.6531,21.933888888888887,21.4287,314.999998,314.999998,324.999988,324.999988,99.55808571428571,99.50658333333334,99.564,99.54372857142857,0.09050000000000002,-0.058250000000000024,-0.11839999999999995,0.10919999999999996,-0.04999999999999716,-0.041666666666671404,1.5493333333333337,1.54,38.763999999999996,30.082,38.087,34.9295,55.480999999999995,35.3125,58.5605,51.7125,53.435,34.435,57.1785,50.082499999999996,52.584,33.982,57.0815,49.504,-0.10850000000000004,-0.06400000000000006,0.105995,0.10609500000000001,0.0,218.78,218.745,215.5233333333333,215.5233333333333,0.0,0.0
33,0.0,0.0,0.0,1.0,1.0,0.0,0.0,1.0,0.0,100.0,1.0,1.1856,26.0,0.0,0.0,0.0,59.999996,0.0,26.0,26.0,26.0,26.0,-0.010874999999999968,0.2563,-0.022933333333333337,291.351,-2.6939,-2.710875,-1.56365,-1.615,-163.57,215.8725,190.253125,0.0,0.0,0.0,0.0,0.06676666666666667,-5.498166666666667,-5.498166666666667,-0.6119,-0.46299999999999997,-0.04537499999999994,0.09399999999999997,70.019,-0.005899999999999905,-0.2152,-0.02400000000000002,100.0,1.0,1.0,215.81666666666666,0.0,0.0,0.0,0.0,0.0,0.0,0.0,9147.7,0.0,55.0,5.0,252.04333333333335,1.0,0.0,0.0,0.0,0.0,0.0,1.0,0.0,1.6559999999999988,1.6559999999999988,0.0,0.0,1.0,55.0,616.79921,10000.0,85.000001,85.000001,85.000001,85.000001,395.0,0.0,0.0,0.0,1.0,166.665,51.788,51.788,46.463,46.463,34.0,-24.96,22.95,-30.53333333333333,29.7075,0.0,1780.349,-0.21000000000000085,100.0,28.848,28.66,44.375,44.236000000000004,0.0,0.0,100.0,0.0,0.0,0.0,0.0,3199.5714285714284,2990.1,4242.625,4256.3,305.3165,305.211,314.49333333333334,314.26325,22.0515,20.6586,21.944222222222223,21.4378,314.999998,314.999998,324.999988,324.999988,99.5581,99.5066,99.56415714285714,99.54388571428571,0.07050000000000001,-0.07299999999999995,-0.12219999999999998,0.0935999999999999,-0.041666666666671404,-0.03999999999999915,1.5026666666666664,1.4954999999999998,38.822,30.116500000000002,38.150999999999996,34.9865,55.469,35.3515,58.6035,51.778999999999996,53.423,34.471000000000004,57.219,50.146,52.572,34.016,57.119,49.56633333333333,-0.09799999999999986,-0.06599999999999984,0.111045,0.105635,0.0,219.16500000000002,219.14499999999998,215.81666666666666,215.81666666666666,0.0,0.0
34,0.0,0.0,0.0,1.0,1.0,0.0,0.0,1.0,0.0,100.0,1.0,1.1856,26.0,0.0,0.0,0.0,59.999996,0.0,26.0,26.0,26.0,26.0,-0.012375000000000025,0.2509000000000001,-0.07093333333333333,291.656,-2.7088,-2.6654999999999998,-1.6272,-1.5733333333333333,-160.2,215.86,190.226875,0.0,0.0,0.0,0.0,0.06873333333333334,-5.498166666666667,-5.498166666666667,-0.6416000000000001,-0.7793333333333333,-0.0129999999999999,-0.06299999999999994,70.14,0.00039999999999995595,-0.2248,-0.02799999999999958,100.0,1.0,1.0,216.24333333333334,0.0,0.0,0.0,0.0,0.0,0.0,0.0,9165.8,0.0,55.0,5.0,252.47666666666666,0.0,0.0,0.0,0.0,0.0,0.0,1.0,0.0,1.7040000000000006,1.7040000000000006,0.0,0.0,0.0,55.0,616.79921,10000.0,85.000001,85.000001,85.000001,85.000001,395.0,0.0,0.0,0.0,1.0,333.33500000000004,51.971000000000004,51.971000000000004,47.256,47.256,34.0,-24.2925,23.63,-29.586666666666666,28.805,0.0,1780.3,-0.21499999999999986,100.0,28.576,28.391,44.103,44.298,0.0,0.0,100.0,0.0,0.0,0.0,0.0,3171.285714285714,3029.9,4071.5,4159.8,305.2075,305.14275,314.97333333333336,314.45525,22.0601,20.6638,21.953777777777777,21.4464,314.999998,314.999998,324.999988,324.999988,99.5581,99.5066,99.5643,99.54402857142857,0.08850000000000025,-0.053749999999999964,-0.1197999999999999,0.10400000000000009,-0.05666666666667197,-0.03999999999999915,1.5273333333333334,1.5234999999999999,38.876000000000005,30.1485,38.211,35.04,55.457,35.3875,58.6415,51.841,53.412,34.5045,57.2545,50.206,52.559,34.048,57.150999999999996,49.625,-0.10250000000000004,-0.058499999999999996,0.10261,0.103285,0.0,219.525,219.515,216.24333333333334,216.24333333333334,0.0,0.0
35,0.0,0.0,0.0,1.0,1.0,0.0,0.0,1.0,0.0,100.0,1.0,1.1856,26.0,0.0,0.0,0.0,59.999996,0.0,26.0,26.0,26.0,26.0,-0.0040000000000000036,0.24880000000000013,-0.0524,291.702,-2.6999,-2.6414999999999997,-1.6076000000000001,-1.5923333333333334,-156.62,215.8475,190.197,0.0,0.0,0.0,0.0,0.0708,-5.498166666666667,-5.498166666666667,-0.6822,-0.43866666666666665,-0.02475000000000005,-0.16199999999999992,70.267,0.006599999999999939,-0.2283,-0.14200000000000035,100.0,1.0,1.0,216.7,0.0,0.0,0.0,0.0,0.0,0.0,0.0,9185.2,0.0,55.0,5.0,252.93333333333334,1.0,0.0,0.0,0.0,0.0,0.0,1.0,0.0,1.754999999999999,1.754999999999999,0.0,0.0,1.0,55.0,616.79921,10000.0,85.000001,85.000001,85.000001,85.000001,395.0,0.0,0.0,0.0,1.0,166.665,51.575,51.575,46.814,46.814,34.0,-23.9375,26.52,-28.22,28.392500000000002,0.0,1780.25,-0.14999999999999858,100.0,28.473,28.486,43.929,43.769999999999996,0.0,0.0,100.0,0.0,0.0,0.0,0.0,3147.714285714286,3367.4,4037.0,3973.9,305.305,304.20475,314.953,314.982,22.069,20.6695,21.964,21.4553,314.999998,314.999998,324.999988,324.999988,99.55811428571428,99.5066,99.56444285714285,99.54417142857143,0.08924999999999983,-0.04999999999999993,-0.10339999999999994,0.12640000000000007,-0.051666666666669414,-0.03499999999999659,1.5580000000000003,1.5525,38.931,30.183999999999997,38.275,35.0955,55.442,35.428,58.682,51.903999999999996,53.397999999999996,34.5415,57.292,50.2665,52.544,34.084,57.1855,49.684,-0.09299999999999997,-0.07200000000000006,0.10565000000000001,0.10629000000000001,0.0,219.91500000000002,219.89499999999998,216.7,216.7,0.0,0.0
