,ABS Active,ABS Enabled,AID Allow Tire Blankets,AID Auto Blip,AID Auto Clutch,AID Auto Shift,AID Fuel Rate,AID Ideal Line,AID Mech Damage,AID Stability,AID Tire Wear Rate,Air Density,Air Temp,Ballast,Best Lap Delta,Best Lap Time,Brake Bias,Brake Pos,Brake Temp FL,Brake Temp FR,Brake Temp RL,Brake Temp RR,CG Accel Lateral,CG Accel Longitudinal,CG Accel Vertical,CG Height,Camber FL,Camber FR,Camber RL,Camber RR,Car Coord X,Car Coord Y,Car Coord Z,Car Damage Front,Car Damage Left,Car Damage Rear,Car Damage Right,Car Pos Norm,Caster FL,Caster FR,Chassis Pitch Angle,Chassis Pitch Rate,Chassis Roll Angle,Chassis Roll Rate,Chassis Velocity X,Chassis Velocity Y,Chassis Velocity Z,Chassis Yaw Rate,Clutch Pos,DRS Active,DRS Available,Drive Train Speed,ERS Heat Charging,ERS Is Charging,ERS Max Energy,ERS Power Level,ERS Recovery Level,Engine Brake Setting,Engine Limiter,Engine RPM,Flags,Fuel Level,Gear,Ground Speed,HR Sample Clock,In Pit,KERS Charge,KERS Deployed Energy,KERS Input,KERS Max Energy,LR Sample Clock,Lap Invalidated,Lap Time,Lap Time2,Last Lap Time,Last Sector Time,MR Sample Clock,Max Fuel,Max Power,Max RPM,Max Sus Travel FL,Max Sus Travel FR,Max Sus Travel RL,Max Sus Travel RR,Max Torque,Max Turbo Boost,Num Tires Off Track,Penalties Enabled,Position,Raw Data Sample Rate,Ride Height FL,Ride Height FR,Ride Height RL,Ride Height RR,Road Temp,Self Align Torque FL,Self Align Torque FR,Self Align Torque RL,Self Align Torque RR,Session Lap Count,Session Time Left,Steering Angle,Surface Grip,Suspension Travel FL,Suspension Travel FR,Suspension Travel RL,Suspension Travel RR,TC Active,TC Enabled,Throttle Pos,Tire Dirt Level FL,Tire Dirt Level FR,Tire Dirt Level RL,Tire Dirt Level RR,Tire Load FL,Tire Load FR,Tire Load RL,Tire Load RR,Tire Loaded Radius FL,Tire Loaded Radius FR,Tire Loaded Radius RL,Tire Loaded Radius RR,Tire Pressure FL,Tire Pressure FR,Tire Pressure RL,Tire Pressure RR,Tire Radius FL,Tire Radius FR,Tire Radius RL,Tire Radius RR,Tire Rubber Grip FL,Tire Rubber Grip FR,Tire Rubber Grip RL,Tire Rubber Grip RR,Tire Slip Angle FL,Tire Slip Angle FR,Tire Slip Angle RL,Tire Slip Angle RR,Tire Slip Ratio FL,Tire Slip Ratio FR,Tire Slip Ratio RL,Tire Slip Ratio RR,Tire Temp Core FL,Tire Temp Core FR,Tire Temp Core RL,Tire Temp Core RR,Tire Temp Inner FL,Tire Temp Inner FR,Tire Temp Inner RL,Tire Temp Inner RR,Tire Temp Middle FL,Tire Temp Middle FR,Tire Temp Middle RL,Tire Temp Middle RR,Tire Temp Outer FL,Tire Temp Outer FR,Tire Temp Outer RL,Tire Temp Outer RR,Toe In FL,Toe In FR,Toe In RL,Toe In RR,Turbo Boost,Wheel Angular Speed FL,Wheel Angular Speed FR,Wheel Angular Speed RL,Wheel Angular Speed RR,Wind Direction,Wind Speed
0,0.0,0.0,0.0,1.0,1.0,0.0,0.0,1.0,0.0,100.0,1.0,1.1856,26.0,0.0,0.0,0.0,59.99999,0.0,26.0,26.0,26.0,26.0,-0.03966666666666663,0.31110000000000015,0.193825,293.73199999999997,-2.7864,-2.6411,-1.5430000000000001,-1.5155,-275.63,215.5225,190.98775,0.0,0.0,0.0,0.0,0.0016333333333333332,-5.498166666666667,-5.498166666666667,-0.5582,1.745,-0.014874999999999972,-0.8940000000000001,65.521,-0.04719999999999991,-0.2199,0.0,100.0,1.0,1.0,202.29333333333335,0.0,0.0,0.0,0.0,0.0,0.0,0.0,8574.5,0.0,55.0,5.0,235.8466666666667,0.0,0.0,0.0,0.0,0.0,0.0,0.0,0.0,0.0030000000000001137,0.0030000000000001137,0.0,0.0,0.0,55.0,616.79921,10000.0,85.0,85.0,85.0,85.0,395.0,0.0,0.0,0.0,1.0,20.0,51.453,51.453,49.254999999999995,49.254999999999995,34.0,-30.112499999999997,31.586666666666666,-30.27,24.3825,0.0,1783.473,0.3000000000000007,100.0,26.878,26.724,40.061,39.644999999999996,0.0,0.0,100.0,0.0,0.0,0.0,0.0,3343.857142857143,4258.9,4080.0,4016.9,304.6865,301.61566666666664,314.9555,314.804,21.7717,20.5015,21.752299999999998,21.298000000000002,314.99999,314.99999,324.99998,324.99998,99.55881428571429,99.50685,99.56451428571428,99.54458571428572,0.007333333333333414,-0.09633333333333316,-0.16,0.06183333333333334,-0.03999999999999915,-0.051666666666669414,1.5510000000000002,1.5795,37.073,29.134333333333334,36.952,34.1125,56.257,34.204,58.811,51.325,54.168,33.3975,57.448499999999996,49.707499999999996,53.33,32.97,57.4155,49.14633333333333,-0.06299999999999994,-0.09050000000000002,0.11103,0.09923000000000001,0.0,205.3,205.285,202.29333333333335,202.29333333333335,190.01251,21.04372
1,0.0,0.0,0.0,1.0,1.0,0.0,0.0,1.0,0.0,100.0,1.0,1.1856,26.0,0.0,0.0,0.0,59.999996,0.0,26.0,26.0,26.0,26.0,-0.06311111111111112,0.33120000000000016,0.155525,292.908,-2.6869,-2.7174,-1.5841,-1.3783,-272.28,215.525,190.96775,0.0,0.0,0.0,0.0,0.0035666666666666668,-5.498166666666667,-5.498166666666667,-0.4758,-1.5175,-0.056624999999999925,-0.027000000000000135,65.681,-0.035599999999999965,-0.178925,0.556,100.0,1.0,1.0,202.21333333333334,0.0,0.0,0.0,0.0,0.0,0.0,0.0,8571.1,0.0,55.0,5.0,236.42000000000002,1.0,0.0,0.0,0.0,0.0,0.0,0.0,0.0,0.053999999999998494,0.053999999999998494,0.0,0.0,1.0,55.0,616.79921,10000.0,85.000001,85.000001,85.000001,85.000001,395.0,0.0,0.0,0.0,1.0,333.33500000000004,54.825,54.825,47.867,47.867,34.0,-23.5625,16.328333333333333,-38.156666666666666,33.0075,0.0,1783.422,0.4450000000000003,100.0,27.126,26.605,42.092,42.349000000000004,0.0,0.0,100.0,0.0,0.0,0.0,0.0,2799.714285714286,2409.4,4742.555555555556,5321.6,306.2805,307.137,313.125,311.26425,21.781399999999998,20.5064,21.7632,21.3072,314.999998,314.999998,324.999988,324.999988,99.55882857142858,99.50686666666667,99.56465714285714,99.54472857142858,0.012333333333333307,-0.11633333333333318,-0.15016666666666667,0.0585,-0.03333333333333144,-0.04333333333332945,1.2806666666666666,1.3175,37.134,29.164666666666665,37.019999999999996,34.17,56.238,34.242,58.86,51.3945,54.150999999999996,33.4325,57.4945,49.774,53.313,33.004,57.458,49.211666666666666,-0.03249999999999997,-0.10899999999999999,0.10275500000000001,0.108075,0.0,205.765,205.72,202.21333333333334,202.21333333333334,190.012512,21.04372
2,0.0,0.0,0.0,1.0,1.0,0.0,0.0,1.0,0.0,100.0,1.0,1.1856,26.0,0.0,0.0,0.0,59.999996,0.0,26.0,26.0,26.0,26.0,-0.07644444444444443,0.29690000000000016,-0.097025,294.464,-2.6671,-2.6667,-1.5587,-1.5148000000000001,-268.93,215.5275,190.948875,0.0,0.0,0.0,0.0,0.005533333333333334,-5.498166666666667,-5.498166666666667,-0.5773,0.64,-0.017125000000000057,1.5780000000000003,65.818,-0.038999999999999924,-0.27045,0.8479999999999999,100.0,1.0,1.0,203.64666666666668,0.0,0.0,0.0,0.0,0.0,0.0,0.0,8631.8,0.0,55.0,5.0,236.91666666666669,0.0,0.0,0.0,0.0,0.0,0.0,0.0,0.0,0.10500000000000043,0.10500000000000043,0.0,0.0,0.0,55.0,616.79921,10000.0,85.000001,85.000001,85.000001,85.000001,395.0,0.0,0.0,0.0,1.0,333.33500000000004,52.49,52.49,51.3,51.3,34.0,-29.83,21.09,-25.356666666666666,18.07,0.0,1783.371,0.5649999999999995,100.0,27.724,27.04,41.458,41.147,0.0,0.0,100.0,0.0,0.0,0.0,0.0,3339.714285714286,3066.1,3476.5555555555557,3340.2,304.654,304.8546666666667,316.3785,316.60825,21.7915,20.5114,21.7734,21.3156,314.999998,314.999998,324.999988,324.999988,99.55882857142858,99.50688333333333,99.56478571428572,99.54485714285714,-0.010999999999999899,-0.12366666666666681,-0.1875,0.04766666666666666,-0.046666666666666856,-0.07333333333333059,1.78,1.823,37.197,29.195999999999998,37.084,34.2225,56.224000000000004,34.282,58.8945,51.444,54.137,33.4695,57.527,49.8215,53.298,33.039,57.488,49.25866666666667,-0.03049999999999997,-0.11450000000000005,0.11029000000000001,0.10106000000000001,0.0,206.20499999999998,206.155,203.64666666666668,203.64666666666668,190.012512,21.04372
3,0.0,0.0,0.0,1.0,1.0,0.0,0.0,1.0,0.0,100.0,1.0,1.1856,26.0,0.0,0.0,0.0,59.999996,0.0,26.0,26.0,26.0,26.0,-0.07833333333333337,0.3063,-0.0181,293.549,-2.6829,-2.6976,-1.5378,-1.4835,-265.76,215.5275,190.929625,0.0,0.0,0.0,0.0,0.007366666666666667,-5.498166666666667,-5.498166666666667,-0.502,0.638,-0.003375000000000128,-2.271,65.969,-0.0532999999999999,-0.18795,0.7999999999999998,100.0,1.0,1.0,203.42000000000002,0.0,0.0,0.0,0.0,0.0,0.0,0.0,8622.2,0.0,55.0,5.0,237.45666666666668,1.0,0.0,0.0,0.0,0.0,0.0,0.0,0.0,0.1529999999999987,0.1529999999999987,0.0,0.0,1.0,55.0,616.79921,10000.0,85.000001,85.000001,85.000001,85.000001,395.0,0.0,0.0,0.0,1.0,166.665,53.864,53.864,48.111000000000004,48.111000000000004,34.0,-24.625,19.12833333333333,-35.07666666666667,25.6675,0.0,1783.324,0.6400000000000006,100.0,27.406,27.087,41.621,41.573,0.0,0.0,100.0,0.0,0.0,0.0,0.0,2853.714285714286,2812.8,4505.222222222223,4287.1,306.2455,305.667,313.8795,314.04825,21.8006,20.5163,21.7832,21.323999999999998,314.999998,314.999998,324.999988,324.999988,99.55882857142858,99.5069,99.56492857142857,99.545,-0.007333333333333192,-0.129,-0.16733333333333333,0.048,-0.013333333333328312,-0.046666666666666856,1.451,1.479,37.254000000000005,29.226666666666667,37.144999999999996,34.275,56.207,34.322,58.933,51.507,54.120000000000005,33.5065,57.5625,49.882,53.281,33.0745,57.5205,49.31766666666667,-0.025000000000000022,-0.123,0.10219500000000001,0.1072,0.0,206.685,206.655,203.42000000000002,203.42000000000002,190.012512,21.04372
4,0.0,0.0,0.0,1.0,1.0,0.0,0.0,1.0,0.0,100.0,1.0,1.1856,26.0,0.0,0.0,0.0,59.999996,0.0,26.0,26.0,26.0,26.0,-0.08066666666666666,0.28180000000000005,-0.0034750000000000002,293.961,-2.6671,-2.7621,-1.4751,-1.5994000000000002,-262.2,215.525,190.909125,0.0,0.0,0.0,0.0,0.009433333333333334,-5.498166666666667,-5.498166666666667,-0.5335,-0.796,-0.05774999999999997,-0.7469999999999999,66.125,-0.06559999999999999,-0.237325,1.120000000000001,100.0,1.0,1.0,204.13,0.0,0.0,0.0,0.0,0.0,0.0,0.0,8652.3,0.0,55.0,5.0,238.01999999999998,0.0,0.0,0.0,0.0,0.0,0.0,0.0,0.0,0.20700000000000074,0.20700000000000074,0.0,0.0,0.0,55.0,616.79921,10000.0,85.000001,85.000001,85.000001,85.000001,395.0,0.0,0.0,0.0,1.0,166.665,53.589,53.589,49.271,49.271,34.0,-28.2175,19.299999999999997,-30.973333333333333,22.4475,0.0,1783.269,0.620000000000001,100.0,27.329,26.653,42.435,41.619,0.0,0.0,100.0,0.0,0.0,0.0,0.0,3197.714285714286,2811.1,4060.3333333333335,3776.0,305.2155,305.76666666666665,314.949,315.407,21.811,20.5215,21.7945,21.3333,314.999998,314.999998,324.999988,324.999988,99.55884285714286,99.50691666666667,99.56508571428571,99.54512857142858,-0.012333333333333307,-0.1356666666666666,-0.19483333333333336,0.036166666666666666,-0.06333333333333258,-0.04833333333333201,1.5626666666666666,1.593,37.319,29.259666666666668,37.216,34.3335,56.189,34.3645,58.9785,51.57,54.104,33.545500000000004,57.605000000000004,49.942499999999995,53.263,33.112,57.56,49.376999999999995,-0.03400000000000003,-0.123,0.10501500000000001,0.11217,0.0,207.16,207.05,204.13,204.13,190.012512,21.04372
5,0.0,0.0,0.0,1.0,1.0,0.0,0.0,1.0,0.0,100.0,1.0,1.1856,26.0,0.0,0.0,0.0,59.999996,0.0,26.0,26.0,26.0,26.0,-0.10577777777777786,0.29580000000000006,-0.036875000000000005,294.281,-2.6387,-2.7472000000000003,-1.5244,-1.5807,-258.82,215.51999999999998,190.889375,0.0,0.0,0.0,0.0,0.0114,-5.498166666666667,-5.498166666666667,-0.5372,0.59,-0.040999999999999925,0.7560000000000002,66.273,-0.08339999999999992,-0.220775,0.9579999999999993,100.0,1.0,1.0,204.65333333333334,0.0,0.0,0.0,0.0,0.0,0.0,0.0,8674.5,0.0,55.0,5.0,238.55,1.0,0.0,0.0,0.0,0.0,0.0,0.0,0.0,0.2579999999999991,0.2579999999999991,0.0,0.0,1.0,55.0,616.79921,10000.0,85.000001,85.000001,85.000001,85.000001,395.0,0.0,0.0,0.0,1.0,166.665,53.848,53.848,49.728,49.728,34.0,-26.155,20.101666666666667,-30.036666666666665,22.65,0.0,1783.219,0.2900000000000009,100.0,27.387999999999998,26.367,42.047,40.994,0.0,0.0,100.0,0.0,0.0,0.0,0.0,2979.0,2922.2,3900.1111111111113,3953.6000000000004,305.634,305.528,315.33575,315.09125,21.8209,20.5266,21.8048,21.342,314.999998,314.999998,324.999988,324.999988,99.55884285714286,99.50693333333334,99.56521428571429,99.54527142857143,-0.014333333333333309,-0.1316666666666666,-0.19716666666666666,0.024333333333333332,-0.061666666666667425,-0.030000000000001137,1.6033333333333335,1.6235,37.381,29.291333333333334,37.28,34.3875,56.173,34.405,59.0165,51.6275,54.088,33.583,57.6405,49.9975,53.248000000000005,33.147999999999996,57.593,49.431,-0.03849999999999998,-0.10149999999999992,0.10380500000000001,0.11182,0.0,207.635,207.54500000000002,204.65333333333334,204.65333333333334,190.012512,21.04372
6,0.0,0.0,0.0,1.0,1.0,0.0,0.0,1.0,0.0,100.0,1.0,1.1856,26.0,0.0,0.0,0.0,59.999996,0.0,26.0,26.0,26.0,26.0,-0.09877777777777785,0.2966,0.01905,294.067,-2.7046,-2.7952,-1.4717,-1.5682,-255.84,215.515,190.871125,0.0,0.0,0.0,0.0,0.013133333333333335,-5.498166666666667,-5.498166666666667,-0.5257000000000001,-0.21599999999999997,-0.06400000000000006,-1.0899999999999999,66.407,-0.08449999999999991,-0.203075,0.8440000000000003,100.0,1.0,1.0,204.88,0.0,0.0,0.0,0.0,0.0,0.0,0.0,8684.1,0.0,55.0,5.0,239.03333333333333,0.0,0.0,0.0,0.0,0.0,0.0,0.0,0.0,0.3030000000000008,0.3030000000000008,0.0,0.0,0.0,55.0,616.79921,10000.0,85.000001,85.000001,85.000001,85.000001,395.0,0.0,0.0,0.0,1.0,333.33500000000004,54.199,54.199,49.042,49.042,34.0,-28.905,18.61333333333333,-33.83,22.5625,0.0,1783.172,0.3049999999999997,100.0,26.942,26.173000000000002,42.199,41.204,0.0,0.0,100.0,0.0,0.0,0.0,0.0,3185.0,2717.2,4260.0,4006.7,305.305,306.00866666666667,314.462,314.84275,21.8295,20.531,21.8141,21.3498,314.999998,314.999998,324.999988,324.999988,99.55884285714286,99.50693333333334,99.56535714285714,99.5454,-0.02499999999999991,-0.14266666666666672,-0.20883333333333334,0.011,-0.05666666666667197,-0.03499999999999659,1.4976666666666667,1.5554999999999999,37.434,29.318666666666665,37.338,34.436,56.158,34.44,59.0535,51.682,54.074,33.615,57.675,50.0495,53.233000000000004,33.1785,57.625,49.482,-0.041999999999999926,-0.09699999999999998,0.10929000000000001,0.100345,0.0,208.035,207.95,204.88,204.88,190.012512,21.04372
7,0.0,0.0,0.0,1.0,1.0,0.0,0.0,1.0,0.0,100.0,1.0,1.1856,26.0,0.0,0.0,0.0,59.999996,0.0,26.0,26.0,26.0,26.0,-0.08766666666666656,0.29100000000000015,-0.014275000000000001,294.022,-2.6124,-2.7967,-1.5241,-1.6137000000000001,-252.45,215.505,190.8505,0.0,0.0,0.0,0.0,0.0151,-5.498166666666667,-5.498166666666667,-0.5338,0.09550000000000003,-0.052000000000000046,1.2060000000000004,66.553,-0.08749999999999991,-0.2162,0.6539999999999999,100.0,1.0,1.0,205.42333333333335,0.0,0.0,0.0,0.0,0.0,0.0,0.0,8707.1,0.0,55.0,5.0,239.56,1.0,0.0,0.0,0.0,0.0,0.0,0.0,0.0,0.3539999999999992,0.3539999999999992,0.0,0.0,1.0,55.0,616.79921,10000.0,85.000001,85.000001,85.000001,85.000001,395.0,0.0,0.0,0.0,1.0,166.665,53.802,53.802,49.286,49.286,34.0,-25.5975,21.21333333333333,-31.68,23.41,0.0,1783.122,-0.09499999999999886,100.0,27.454,26.27,42.343,41.127,0.0,0.0,100.0,0.0,0.0,0.0,0.0,3052.857142857143,2901.3,4066.3333333333335,3950.8,305.434,305.603,314.90825,315.04675,21.8394,20.536,21.8246,21.3586,314.999998,314.999998,324.999988,324.999988,99.55884285714286,99.50695,99.56548571428571,99.54554285714286,0.011666666666666714,-0.1096666666666668,-0.1945,0.025666666666666667,-0.05666666666667197,-0.05833333333333002,1.5683333333333334,1.565,37.495999999999995,29.35033333333333,37.403999999999996,34.491,56.143,34.4805,59.0935,51.7415,54.06,33.6525,57.7125,50.1065,53.218,33.214,57.6595,49.53766666666667,-0.07799999999999996,-0.0665,0.107365,0.10862500000000001,0.0,208.47500000000002,208.42000000000002,205.42333333333335,205.42333333333335,190.012512,21.04372
8,0.0,0.0,0.0,1.0,1.0,0.0,0.0,1.0,0.0,100.0,1.0,1.1856,26.0,0.0,0.0,0.0,59.999996,0.0,26.0,26.0,26.0,26.0,-0.0401111111111111,0.2975000000000001,-0.031875,294.022,-2.6978,-2.7229,-1.5393,-1.6052,-249.05,215.4925,190.829875,0.0,0.0,0.0,0.0,0.017066666666666667,-5.498166666666667,-5.498166666666667,-0.5378000000000001,-0.15900000000000003,-0.04237499999999983,-1.04,66.7,-0.07519999999999993,-0.2202,0.30600000000000005,100.0,1.0,1.0,205.86333333333334,0.0,0.0,0.0,0.0,0.0,0.0,0.0,8725.9,0.0,55.0,5.0,240.09,0.0,0.0,0.0,0.0,0.0,0.0,0.0,0.0,0.40500000000000114,0.40500000000000114,0.0,0.0,0.0,55.0,616.79921,10000.0,85.000001,85.000001,85.000001,85.000001,395.0,0.0,0.0,0.0,1.0,333.33500000000004,53.833,53.833,49.057,49.057,34.0,-26.63,20.755,-30.65,23.9325,0.0,1783.07,-0.16000000000000014,100.0,27.029,26.585,42.265,41.405,0.0,0.0,100.0,0.0,0.0,0.0,0.0,3102.4285714285716,2892.2,4038.8888888888887,3905.8,305.517,305.47133333333335,315.0375,315.0685,21.849,20.5412,21.835,21.3675,314.999998,314.999998,324.999988,324.999988,99.55884285714286,99.50696666666667,99.56564285714286,99.54568571428571,0.009333333333333194,-0.10833333333333317,-0.17550000000000002,0.043833333333333335,-0.046666666666666856,-0.054999999999999716,1.561,1.576,37.557,29.382333333333335,37.469,34.5465,56.126000000000005,34.5205,59.1335,51.8025,54.044,33.689,57.75,50.165,53.201,33.2495,57.694,49.595,-0.08450000000000002,-0.05499999999999994,0.097295,0.10773500000000001,0.0,208.92000000000002,208.885,205.86333333333334,205.86333333333334,190.012512,21.04372
9,0.0,0.0,0.0,1.0,1.0,0.0,0.0,1.0,0.0,100.0,1.0,1.1856,26.0,0.0,0.0,0.0,59.999996,0.0,26.0,26.0,26.0,26.0,-0.02644444444444438,0.28700000000000014,-0.0055000000000000005,293.762,-2.6183,-2.7366,-1.5058,-1.5626,-245.84,215.48000000000002,190.810125,0.0,0.0,0.0,0.0,0.018933333333333337,-5.498166666666667,-5.498166666666667,-0.5349,0.19499999999999995,-0.051124999999999865,-0.601,66.838,-0.06140000000000001,-0.21330000000000002,0.10600000000000076,100.0,1.0,1.0,206.2733333333333,0.0,0.0,0.0,0.0,0.0,0.0,0.0,8743.2,0.0,55.0,5.0,240.58666666666667,1.0,0.0,0.0,0.0,0.0,0.0,0.0,0.0,0.4529999999999994,0.4529999999999994,0.0,0.0,1.0,55.0,616.79921,10000.0,85.000001,85.000001,85.000001,85.000001,395.0,0.0,0.0,0.0,1.0,333.33500000000004,53.482,53.482,49.149,49.149,34.0,-25.88,21.799999999999997,-30.4,24.8475,0.0,1783.021,-0.35999999999999943,100.0,27.273,26.683,42.214,41.479,0.0,0.0,100.0,0.0,0.0,0.0,0.0,3201.857142857143,2899.8,4075.5555555555557,4021.0,305.203,305.462,314.93825,314.83075,21.8582,20.546,21.8448,21.375799999999998,314.999998,314.999998,324.999988,324.999988,99.55885714285715,99.50696666666667,99.56577142857142,99.54581428571429,0.033666666666666956,-0.08599999999999985,-0.1705,0.05533333333333334,-0.04833333333333201,-0.041666666666671404,1.5443333333333333,1.5514999999999999,37.614000000000004,29.412333333333336,37.53,34.5985,56.111999999999995,34.5575,59.171,51.8585,54.03,33.7235,57.7845,50.219,53.187,33.282,57.7265,49.647666666666666,-0.09799999999999998,-0.045500000000000096,0.10310000000000001,0.10611000000000001,0.0,209.32999999999998,209.325,206.2733333333333,206.2733333333333,190.012512,21.04372
10,0.0,0.0,0.0,1.0,1.0,0.0,0.0,1.0,0.0,100.0,1.0,1.1856,26.0,0.0,0.0,0.0,59.999996,0.0,26.0,26.0,26.0,26.0,-0.009444444444444478,0.2924,-0.002,293.686,-2.6812,-2.7104,-1.545,-1.5461,-242.23,215.465,190.788125,0.0,0.0,0.0,0.0,0.021033333333333334,-5.498166666666667,-5.498166666666667,-0.5307000000000001,-0.31200000000000006,-0.02312499999999984,-0.10699999999999976,66.993,-0.04149999999999998,-0.21357500000000001,-0.16600000000000037,100.0,1.0,1.0,206.67333333333335,0.0,0.0,0.0,0.0,0.0,0.0,0.0,8760.1,0.0,55.0,5.0,241.14666666666665,0.0,0.0,0.0,0.0,0.0,0.0,1.0,0.0,0.5069999999999979,0.5069999999999979,0.0,0.0,0.0,55.0,616.79921,10000.0,85.000001,85.000001,85.000001,85.000001,395.0,0.0,0.0,0.0,1.0,166.665,53.772,53.772,48.874,48.874,34.0,-24.8475,21.851666666666667,-29.973333333333333,26.785,0.0,1782.969,-0.379999999999999,100.0,27.18,26.666,42.297,41.838,0.0,0.0,100.0,0.0,0.0,0.0,0.0,3072.5714285714284,2893.6,4112.888888888889,4144.9,305.6065,305.49833333333333,314.85325,314.48725,21.8685,20.5514,21.8559,21.3853,314.999998,314.999998,324.999988,324.999988,99.55885714285715,99.50698333333334,99.56592857142857,99.54595714285715,0.04233333333333311,-0.07766666666666677,-0.14366666666666666,0.07566666666666667,-0.07000000000000028,-0.03999999999999915,1.5316666666666667,1.5225,37.678,29.446333333333335,37.599000000000004,34.658,56.096000000000004,34.598,59.213499999999996,51.924,54.015,33.760999999999996,57.8245,50.282,53.171,33.318,57.763,49.70933333333333,-0.10549999999999993,-0.03950000000000009,0.10094,0.10756500000000001,0.0,209.81,209.805,206.67333333333335,206.67333333333335,190.012512,21.04372
11,0.0,0.0,0.0,1.0,1.0,0.0,0.0,1.0,0.0,100.0,1.0,1.1856,26.0,0.0,0.0,0.0,59.999996,0.0,26.0,26.0,26.0,26.0,0.010000000000000009,0.29610000000000003,-0.046025,293.976,-2.6864,-2.7049000000000003,-1.5546,-1.5213,-239.01,215.4525,190.768375,0.0,0.0,0.0,0.0,0.022600000000000002,-5.498166666666667,-5.498166666666667,-0.551,-0.2815000000000001,-0.0007500000000000284,-0.32699999999999996,67.129,-0.0240999999999999,-0.22495,-0.32399999999999984,100.0,1.0,1.0,207.19333333333333,0.0,0.0,0.0,0.0,0.0,0.0,0.0,8782.2,0.0,55.0,5.0,241.63666666666666,1.0,0.0,0.0,0.0,0.0,0.0,1.0,0.0,0.5549999999999997,0.5549999999999997,0.0,0.0,1.0,55.0,616.79921,10000.0,85.000001,85.000001,85.000001,85.000001,395.0,0.0,0.0,0.0,1.0,333.33500000000004,53.726,53.726,49.362,49.362,34.0,-24.505,22.868333333333332,-27.849999999999998,25.6575,0.0,1782.921,-0.33000000000000007,100.0,26.923000000000002,26.701,42.075,41.837,0.0,0.0,100.0,0.0,0.0,0.0,0.0,3097.857142857143,2971.8,3908.5555555555557,3986.1000000000004,305.537,305.26166666666666,315.34725,314.93475,21.8775,20.5563,21.8656,21.3937,314.999998,314.999998,324.999988,324.999988,99.55887142857142,99.50698333333334,99.56605714285715,99.5461,0.05733333333333368,-0.06766666666666676,-0.1385,0.08966666666666667,-0.036666666666668846,-0.03833333333332689,1.583,1.5745,37.733999999999995,29.477,37.66,34.710499999999996,56.081,34.634,59.2485,51.981,54.001000000000005,33.7935,57.857,50.3365,53.156,33.3495,57.792500000000004,49.763,-0.09950000000000003,-0.04150000000000009,0.11023500000000001,0.10125,0.0,210.2,210.20499999999998,207.19333333333333,207.19333333333333,190.012512,21.04372
12,0.0,0.0,0.0,1.0,1.0,0.0,0.0,1.0,0.0,100.0,1.0,1.1856,26.0,0.0,0.0,0.0,59.999996,0.0,26.0,26.0,26.0,26.0,0.006666666666666599,0.2922,0.006,293.625,-2.7252,-2.6898,-1.5396,-1.5329000000000002,-235.78,215.44,190.74775,0.0,0.0,0.0,0.0,0.025466666666666665,-5.498166666666667,-5.498166666666667,-0.543,0.37749999999999995,0.006750000000000034,-0.6259999999999999,67.265,-0.00869999999999993,-0.2066,-0.3639999999999999,100.0,1.0,1.0,207.54333333333335,0.0,0.0,0.0,0.0,0.0,0.0,0.0,8796.9,0.0,55.0,5.0,242.12666666666667,0.0,0.0,0.0,0.0,0.0,0.0,1.0,0.0,0.602999999999998,0.602999999999998,0.0,0.0,0.0,55.0,616.79921,10000.0,85.000001,85.000001,85.000001,85.000001,395.0,0.0,0.0,0.0,1.0,333.33500000000004,53.436,53.436,48.798,48.798,34.0,-26.072499999999998,22.205,-28.273333333333333,28.2425,0.0,1782.872,0.3149999999999995,100.0,27.043,27.043,41.909,41.854,0.0,0.0,100.0,0.0,0.0,0.0,0.0,3080.4285714285716,3030.5,4100.111111111111,4144.2,305.574,305.054,314.91275,314.56125,21.8866,20.5613,21.8753,21.402,314.999998,314.999998,324.999988,324.999988,99.55887142857142,99.507,99.5662,99.54622857142857,0.024666666666666615,-0.09399999999999986,-0.1165,0.11083333333333333,-0.060000000000002274,-0.04333333333332945,1.5576666666666665,1.5434999999999999,37.791,29.508333333333333,37.721000000000004,34.7625,56.068,34.67,59.283500000000004,52.038,53.988,33.8275,57.89,50.3915,53.143,33.3815,57.823,49.81666666666666,-0.0635,-0.08000000000000007,0.10978,0.10956500000000001,0.0,210.66,210.66500000000002,207.54333333333335,207.54333333333335,190.012512,21.04372
13,0.0,0.0,0.0,1.0,1.0,0.0,0.0,1.0,0.0,100.0,1.0,1.1856,26.0,0.0,0.0,0.0,59.999996,0.0,26.0,26.0,26.0,26.0,0.04400000000000004,0.2874000000000001,0.008175,293.335,-2.6936999999999998,-2.7034000000000002,-1.5667,-1.5437,-232.15,215.425,190.724875,0.0,0.0,0.0,0.0,0.0269,-5.498166666666667,-5.498166666666667,-0.5398000000000001,-0.2945,0.0009999999999998899,-0.4710000000000001,67.419,-0.0041999999999999815,-0.2165,-0.3520000000000003,100.0,1.0,1.0,207.95,0.0,0.0,0.0,0.0,0.0,0.0,0.0,8814.2,0.0,55.0,5.0,242.68,1.0,0.0,0.0,0.0,0.0,0.0,1.0,0.0,0.657,0.657,0.0,0.0,1.0,55.0,616.79921,10000.0,85.000001,85.000001,85.000001,85.000001,395.0,0.0,0.0,0.0,1.0,166.665,53.314,53.314,48.599000000000004,48.599000000000004,34.0,-23.15,23.97,-28.78,28.7925,0.0,1782.819,-0.46999999999999886,100.0,27.242,27.198999999999998,42.275999999999996,42.337,0.0,0.0,100.0,0.0,0.0,0.0,0.0,3100.5714285714284,2975.1,4113.111111111111,4185.5,305.5195,305.22833333333335,314.84425,314.416,21.8967,20.567,21.8864,21.4116,314.999998,314.999998,324.999988,324.999988,99.55888571428571,99.50701666666667,99.56635714285714,99.54638571428572,0.09166666666666634,-0.04200000000000004,-0.11233333333333333,0.10816666666666667,-0.05333333333332746,-0.04333333333332945,1.5156666666666667,1.5175,37.855000000000004,29.543333333333333,37.79,34.8225,56.054,34.711,59.3255,52.105000000000004,53.974999999999994,33.865,57.929,50.4555,53.128,33.417500000000004,57.859,49.879333333333335,-0.11599999999999999,-0.033500000000000085,0.10227000000000001,0.11181500000000001,0.0,211.11,211.135,207.95,207.95,190.012512,21.04372
14,0.0,0.0,0.0,1.0,1.0,0.0,0.0,1.0,0.0,100.0,1.0,1.1856,26.0,0.0,0.0,0.0,59.999996,0.0,26.0,26.0,26.0,26.0,0.053888888888888875,0.28310000000000013,-0.0358,293.549,-2.7069,-2.7166,-1.5615,-1.5387,-228.91,215.41250000000002,190.70475,0.0,0.0,0.0,0.0,0.028800000000000003,-5.498166666666667,-5.498166666666667,-0.5507000000000001,-0.016000000000000014,0.015125000000000055,-0.4249999999999998,67.55199999999999,0.0044999999999999485,-0.225275,-0.46999999999999975,100.0,1.0,1.0,208.45333333333332,0.0,0.0,0.0,0.0,0.0,0.0,0.0,8835.6,0.0,55.0,5.0,243.15666666666667,0.0,0.0,0.0,0.0,0.0,0.0,1.0,0.0,0.7049999999999983,0.7049999999999983,0.0,0.0,0.0,55.0,616.79921,10000.0,85.000001,85.000001,85.000001,85.000001,395.0,0.0,0.0,0.0,1.0,333.33500000000004,53.329,53.329,48.95,48.95,34.0,-23.315,24.295,-26.753333333333334,27.8925,0.0,1782.77,-0.5099999999999998,100.0,27.228,27.312,42.177,42.335,0.0,0.0,100.0,0.0,0.0,0.0,0.0,3067.857142857143,2966.6,3961.5555555555557,4051.5,305.618,305.206,315.23075,314.77275,21.9058,20.572,21.8961,21.420099999999998,314.999998,314.999998,324.999988,324.999988,99.5589,99.50701666666667,99.56648571428572,99.54651428571428,0.08400000000000007,-0.035666666666666735,-0.10400000000000001,0.11800000000000001,-0.04833333333333201,-0.051666666666669414,1.5779999999999998,1.562,37.911,29.575,37.851,34.8755,56.041,34.7465,59.3605,52.162,53.963,33.897999999999996,57.9615,50.5105,53.114999999999995,33.449,57.8885,49.93333333333334,-0.11349999999999993,-0.03400000000000003,0.10757000000000001,0.107755,0.0,211.525,211.54000000000002,208.45333333333332,208.45333333333332,190.012512,21.04372
15,0.0,0.0,0.0,1.0,1.0,0.0,0.0,1.0,0.0,100.0,1.0,1.1856,26.0,0.0,0.0,0.0,59.999996,0.0,26.0,26.0,26.0,26.0,0.06311111111111112,0.29100000000000015,-0.021500000000000002,293.472,-2.698,-2.6944,-1.5683,-1.5565,-225.66,215.4025,190.68425,0.0,0.0,0.0,0.0,0.03066666666666667,-5.498166666666667,-5.498166666666667,-0.5429,0.1865,0.02562500000000001,-0.7749999999999999,67.686,0.011900000000000022,-0.21257500000000001,-0.4720000000000004,100.0,1.0,1.0,208.81666666666666,0.0,0.0,0.0,0.0,0.0,0.0,0.0,8851.0,0.0,55.0,5.0,243.64333333333335,1.0,0.0,0.0,0.0,0.0,0.0,1.0,0.0,0.7530000000000001,0.7530000000000001,0.0,0.0,1.0,55.0,616.79921,10000.0,85.000001,85.000001,85.000001,85.000001,395.0,0.0,0.0,0.0,1.0,333.33500000000004,53.391,53.391,48.752,48.752,34.0,-22.68,23.83833333333333,-27.15,29.2175,0.0,1782.721,-0.34499999999999886,100.0,27.223,27.401,42.063,42.427,0.0,0.0,100.0,0.0,0.0,0.0,0.0,3035.0,2945.2,4064.6666666666665,4093.2,305.7165,305.2583333333333,314.99475,314.629,21.9148,20.5771,21.9058,21.4286,314.999998,314.999998,324.999988,324.999988,99.55891428571428,99.50701666666667,99.56662857142857,99.54665714285714,0.0903333333333336,-0.03766666666666674,-0.09166666666666667,0.129,-0.06333333333333258,-0.04333333333332945,1.5556666666666668,1.5305,37.967,29.606666666666666,37.911,34.9285,56.028,34.7845,59.3975,52.2245,53.95,33.933,57.996,50.570499999999996,53.101,33.483000000000004,57.92,49.992,-0.10849999999999993,-0.04150000000000009,0.09931000000000001,0.10837000000000001,0.0,211.965,211.97500000000002,208.81666666666666,208.81666666666666,190.012512,21.04372
16,0.0,0.0,0.0,1.0,1.0,0.0,0.0,1.0,0.0,100.0,1.0,1.1856,26.0,0.0,0.0,0.0,59.999996,0.0,26.0,26.0,26.0,26.0,0.04255555555555568,0.27380000000000004,0.0009000000000000001,293.243,-2.7555,-2.6412,-1.5458,-1.5538,-222.21,215.39,190.66225,0.0,0.0,0.0,0.0,0.03266666666666667,-5.498166666666667,-5.498166666666667,-0.554,-0.3554999999999999,0.01924999999999999,0.28400000000000025,67.82900000000001,0.011700000000000044,-0.22495,-0.32200000000000006,100.0,1.0,1.0,209.24666666666667,0.0,0.0,0.0,0.0,0.0,0.0,0.0,8869.2,0.0,55.0,5.0,244.15666666666667,0.0,0.0,0.0,0.0,0.0,0.0,1.0,0.0,0.8039999999999985,0.8039999999999985,0.0,0.0,0.0,55.0,616.79921,10000.0,85.000001,85.000001,85.000001,85.000001,395.0,0.0,0.0,0.0,1.0,333.33500000000004,52.979,52.979,48.431,48.431,34.0,-23.134999999999998,25.814999999999998,-26.13,29.22,0.0,1782.672,-0.3550000000000004,100.0,27.283,27.359,42.370000000000005,42.516999999999996,0.0,0.0,100.0,0.0,0.0,0.0,0.0,3059.142857142857,3193.9,3998.4444444444443,4051.9,305.524,304.71566666666666,315.06325,314.78875,21.9242,20.5825,21.9163,21.4376,314.999998,314.999998,324.999988,324.999988,99.55892857142857,99.50701666666667,99.56677142857143,99.5468,0.10066666666666668,-0.028999999999999915,-0.085,0.138,-0.01666666666666572,-0.04833333333333201,1.5510000000000002,1.5265,38.025999999999996,29.640666666666668,37.977000000000004,34.985,56.013999999999996,34.821,59.434,52.2825,53.937,33.966499999999996,58.03,50.6265,53.087,33.515,57.951,50.047,-0.10449999999999993,-0.04849999999999999,0.10501500000000001,0.10315,0.0,212.36,212.375,209.24666666666667,209.24666666666667,190.012512,21.04372
17,0.0,0.0,0.0,1.0,1.0,0.0,0.0,1.0,0.0,100.0,1.0,1.1856,26.0,0.0,0.0,0.0,59.999996,0.0,26.0,26.0,26.0,26.0,0.03922222222222227,0.28059999999999996,0.02025,293.015,-2.6228,-2.7319,-1.538,-1.5203,-218.54,215.38,190.638625,0.0,0.0,0.0,0.0,0.034800000000000005,-5.498166666666667,-5.498166666666667,-0.5504,0.17049999999999998,-0.0073750000000001315,0.3839999999999999,67.979,0.011700000000000044,-0.21730000000000002,-0.34999999999999964,100.0,1.0,1.0,209.65666666666667,0.0,0.0,0.0,0.0,0.0,0.0,0.0,8886.6,0.0,55.0,5.0,244.69333333333333,1.0,0.0,0.0,0.0,0.0,0.0,1.0,0.0,0.8580000000000005,0.8580000000000005,0.0,0.0,1.0,55.0,616.79921,10000.0,85.000001,85.000001,85.000001,85.000001,395.0,0.0,0.0,0.0,1.0,166.665,52.994,52.994,48.157,48.157,34.0,-22.037499999999998,25.008333333333333,-27.759999999999998,30.1075,0.0,1782.619,-0.22499999999999964,100.0,27.58,27.461,42.427,42.501,0.0,0.0,100.0,0.0,0.0,0.0,0.0,2994.285714285714,3069.5,4139.222222222223,4238.4,305.608,304.952,314.71925,314.41275,21.9343,20.5883,21.9272,21.4471,314.999998,314.999998,324.999988,324.999988,99.55894285714285,99.50703333333334,99.56691428571429,99.54695714285714,0.08800000000000008,-0.04366666666666674,-0.09366666666666668,0.133,-0.041666666666671404,-0.051666666666669414,1.5126666666666666,1.508,38.089,29.677,38.045,35.0445,56.0,34.862,59.474000000000004,52.347,53.923,34.0045,58.067,50.6885,53.073,33.5515,57.985,50.10766666666667,-0.09499999999999997,-0.058499999999999996,0.10738,0.10530500000000001,0.0,212.845,212.865,209.65666666666667,209.65666666666667,190.012512,21.04372
18,0.0,0.0,0.0,1.0,1.0,0.0,0.0,1.0,0.0,100.0,1.0,1.1856,26.0,0.0,0.0,0.0,59.999996,0.0,26.0,26.0,26.0,26.0,0.045222222222222275,0.28490000000000015,0.05595,292.953,-2.6488,-2.7546,-1.5255,-1.4828999999999999,-215.48000000000002,215.3725,190.61875,0.0,0.0,0.0,0.0,0.0366,-5.498166666666667,-5.498166666666667,-0.5604,-0.367,-0.004750000000000032,-0.5,68.10300000000001,0.010000000000000009,-0.22517500000000001,-0.21799999999999908,100.0,1.0,1.0,210.01666666666665,0.0,0.0,0.0,0.0,0.0,0.0,0.0,8901.8,0.0,55.0,5.0,245.14333333333335,0.0,0.0,0.0,0.0,0.0,0.0,1.0,0.0,0.9029999999999987,0.9029999999999987,0.0,0.0,0.0,55.0,616.79921,10000.0,85.000001,85.000001,85.000001,85.000001,395.0,0.0,0.0,0.0,1.0,166.665,52.887,52.887,48.248,48.248,34.0,-23.8425,24.888333333333335,-27.723333333333333,29.177500000000002,0.0,1782.573,-0.16999999999999993,100.0,27.398,27.509999999999998,42.480000000000004,42.748000000000005,0.0,0.0,100.0,0.0,0.0,0.0,0.0,3136.142857142857,3046.8,4109.555555555556,4215.1,305.402,304.899,314.83475,314.37575,21.9427,20.593,21.9364,21.4551,314.999998,314.999998,324.999988,324.999988,99.55894285714285,99.50703333333334,99.56704285714285,99.54708571428571,0.07433333333333358,-0.050000000000000044,-0.10316666666666667,0.1265,-0.061666666666667425,-0.045000000000001705,1.5293333333333334,1.5045,38.141999999999996,29.706333333333333,38.102999999999994,35.0945,55.988,34.894999999999996,59.507999999999996,52.400999999999996,53.912,34.035,58.099000000000004,50.7405,53.06,33.581,58.013999999999996,50.15866666666666,-0.09050000000000002,-0.05950000000000011,0.105575,0.109185,0.0,213.245,213.23000000000002,210.01666666666665,210.01666666666665,190.012512,21.04372
19,0.0,0.0,0.0,1.0,1.0,0.0,0.0,1.0,0.0,100.0,1.0,1.1856,26.0,0.0,0.0,0.0,59.999996,0.0,26.0,26.0,26.0,26.0,0.049555555555555575,0.2692000000000001,-0.005425,292.862,-2.6385,-2.7145,-1.5265,-1.6044,-211.8,215.365,190.59475,0.0,0.0,0.0,0.0,0.038733333333333335,-5.498166666666667,-5.498166666666667,-0.5508000000000001,0.534,0.00374999999999992,-0.7719999999999998,68.25,0.0034000000000000696,-0.21395,-0.05799999999999983,100.0,1.0,1.0,210.50666666666666,0.0,0.0,0.0,0.0,0.0,0.0,0.0,8922.7,0.0,55.0,5.0,245.67333333333335,1.0,0.0,0.0,0.0,0.0,0.0,1.0,0.0,0.9570000000000007,0.9570000000000007,0.0,0.0,1.0,55.0,616.79921,10000.0,85.000001,85.000001,85.000001,85.000001,395.0,0.0,0.0,0.0,1.0,166.665,52.689,52.689,48.37,48.37,34.0,-23.32,23.33,-28.256666666666664,29.377499999999998,0.0,1782.52,-0.16499999999999915,100.0,27.889,27.928,42.432,42.832,0.0,0.0,100.0,0.0,0.0,0.0,0.0,3105.857142857143,2935.8,4125.444444444444,4119.4,305.484,305.24,314.8555,314.53575,21.9528,20.5989,21.9473,21.4647,314.999998,314.999998,324.999988,324.999988,99.55895714285714,99.50705,99.5672,99.54722857142858,0.07866666666666644,-0.05466666666666664,-0.11166666666666668,0.11266666666666668,-0.061666666666667425,-0.04999999999999716,1.522,1.524,38.205,29.742666666666665,38.171,35.153999999999996,55.974000000000004,34.9375,59.5465,52.466,53.899,34.0745,58.1345,50.803,53.047,33.6185,58.047,50.21966666666667,-0.09050000000000002,-0.06099999999999994,0.10350000000000001,0.10479500000000001,0.0,213.735,213.715,210.50666666666666,210.50666666666666,190.012512,21.04372
20,0.0,0.0,0.0,1.0,1.0,0.0,0.0,1.0,0.0,100.0,1.0,1.1856,26.0,0.0,0.0,0.0,59.999996,0.0,26.0,26.0,26.0,26.0,0.04222222222222216,0.25560000000000005,-0.023625,292.862,-2.7041,-2.6579,-1.5106000000000002,-1.5891000000000002,-208.51999999999998,215.35750000000002,190.5735,0.0,0.0,0.0,0.0,0.040633333333333334,-5.498166666666667,-5.498166666666667,-0.5556,-0.724,0.0029999999999998916,-0.871,68.382,-0.0011999999999999789,-0.22610000000000002,-0.013999999999999346,100.0,1.0,1.0,210.89666666666668,0.0,0.0,0.0,0.0,0.0,0.0,0.0,8939.1,0.0,55.0,5.0,246.14666666666665,0.0,0.0,0.0,0.0,0.0,0.0,0.0,0.0,1.004999999999999,1.004999999999999,0.0,0.0,0.0,55.0,616.79921,10000.0,85.000001,85.000001,85.000001,85.000001,395.0,0.0,0.0,0.0,1.0,333.33500000000004,52.948,52.948,47.897,47.897,34.0,-23.7975,23.22,-28.163333333333334,28.1725,0.0,1782.471,-0.17499999999999893,100.0,27.576999999999998,27.725,43.007,43.225,0.0,0.0,100.0,0.0,0.0,0.0,0.0,3101.0,2993.0,4091.5555555555557,3995.0,305.568,305.186,314.89425,314.81825,21.9617,20.6039,21.9572,21.473300000000002,314.999998,314.999998,324.999988,324.999988,99.55897142857143,99.50705,99.56734285714286,99.54737142857142,0.07866666666666644,-0.05499999999999994,-0.11666666666666667,0.11166666666666668,-0.05833333333333002,-0.036666666666668846,1.5016666666666667,1.5065,38.26,29.77466666666667,38.233000000000004,35.208,55.96,34.9735,59.584,52.525,53.885,34.1075,58.17,50.8595,53.033,33.6505,58.079,50.275333333333336,-0.08950000000000002,-0.0605,0.10819500000000001,0.111295,0.0,214.10500000000002,214.075,210.89666666666668,210.89666666666668,190.012512,21.04372
21,0.0,0.0,0.0,1.0,1.0,0.0,0.0,1.0,0.0,100.0,1.0,1.1856,26.0,0.0,0.0,0.0,59.999996,0.0,26.0,26.0,26.0,26.0,0.02066666666666661,0.2761,-0.047650000000000005,293.03,-2.7207,-2.6725,-1.5586,-1.5297,-205.23000000000002,215.35000000000002,190.552,0.0,0.0,0.0,0.0,0.04256666666666667,-5.498166666666667,-5.498166666666667,-0.5739000000000001,0.013000000000000012,-0.006000000000000227,-0.6930000000000001,68.511,-0.005499999999999949,-0.225075,-0.043999999999999595,100.0,1.0,1.0,211.39,0.0,0.0,0.0,0.0,0.0,0.0,0.0,8960.0,0.0,55.0,5.0,246.61,1.0,0.0,0.0,0.0,0.0,0.0,0.0,0.0,1.0530000000000008,1.0530000000000008,0.0,0.0,1.0,55.0,616.79921,10000.0,85.000001,85.000001,85.000001,85.000001,395.0,0.0,0.0,0.0,1.0,333.33500000000004,52.811,52.811,48.507999999999996,48.507999999999996,34.0,-25.16,23.711666666666666,-27.99,26.2775,0.0,1782.422,-0.2599999999999998,100.0,27.618,27.576999999999998,42.707,42.838,0.0,0.0,100.0,0.0,0.0,0.0,0.0,3200.142857142857,3044.6,4020.5555555555557,3985.4,305.27,305.05533333333335,315.12775,314.99,21.9705,20.6091,21.9669,21.4817,314.999998,314.999998,324.999988,324.999988,99.55897142857143,99.50705,99.56747142857142,99.54751428571429,0.07166666666666677,-0.05666666666666664,-0.11950000000000001,0.09966666666666667,-0.04999999999999716,-0.05833333333333002,1.5693333333333332,1.5645,38.316,29.806666666666665,38.293,35.260999999999996,55.947,35.01,59.6175,52.58,53.873000000000005,34.1415,58.201,50.9125,53.019,33.6825,58.107,50.327333333333335,-0.09699999999999998,-0.052000000000000046,0.10799500000000001,0.10387,0.0,214.485,214.505,211.39,211.39,190.012512,21.04372
22,0.0,0.0,0.0,1.0,1.0,0.0,0.0,1.0,0.0,100.0,1.0,1.1856,26.0,0.0,0.0,0.0,59.999996,0.0,26.0,26.0,26.0,26.0,0.011222222222222245,0.27890000000000015,0.019,292.603,-2.7559,-2.6776,-1.5886,-1.5304,-201.73000000000002,215.345,190.528125,0.0,0.0,0.0,0.0,0.0446,-5.498166666666667,-5.498166666666667,-0.5588000000000001,0.05499999999999994,0.00275000000000003,1.0979999999999999,68.651,-0.008299999999999974,-0.2019,-0.21999999999999975,100.0,1.0,1.0,211.65666666666667,0.0,0.0,0.0,0.0,0.0,0.0,0.0,8971.3,0.0,55.0,5.0,247.11333333333334,0.0,0.0,0.0,0.0,0.0,0.0,0.0,0.0,1.1039999999999992,1.1039999999999992,0.0,0.0,0.0,55.0,616.79921,10000.0,85.000001,85.000001,85.000001,85.000001,395.0,0.0,0.0,0.0,1.0,166.665,52.841,52.841,47.668,47.668,34.0,-24.02,24.91,-30.233333333333334,30.6125,0.0,1782.373,-0.34499999999999886,100.0,27.823999999999998,27.503,42.914,42.823,0.0,0.0,100.0,0.0,0.0,0.0,0.0,3063.714285714286,3134.3,4239.444444444444,4367.3,305.565,304.98566666666665,314.5265,314.12925,21.98,20.6145,21.9773,21.4908,314.999998,314.999998,324.999988,324.999988,99.55898571428571,99.50706666666666,99.56761428571428,99.54765714285715,0.08000000000000007,-0.04266666666666663,-0.11083333333333333,0.11883333333333333,-0.01833333333333087,-0.07000000000000028,1.501,1.5005,38.375,29.840666666666664,38.358000000000004,35.317499999999995,55.934,35.049,59.656,52.641,53.86,34.177,58.237,50.971000000000004,53.004999999999995,33.717,58.14,50.38466666666667,-0.10050000000000003,-0.046499999999999986,0.11235500000000001,0.10783000000000001,0.0,214.93,214.95,211.65666666666667,211.65666666666667,190.012512,21.04372
23,0.0,0.0,0.0,1.0,1.0,0.0,0.0,1.0,0.0,100.0,1.0,1.1856,26.0,0.0,0.0,0.0,59.999996,0.0,26.0,26.0,26.0,26.0,0.006666666666666599,0.27700000000000014,0.019425,292.496,-2.6565,-2.6992000000000003,-1.6287,-1.5393,-198.01999999999998,215.3375,190.50325,0.0,0.0,0.0,0.0,0.046733333333333335,-5.498166666666667,-5.498166666666667,-0.5739000000000001,-0.2590000000000001,0.0026249999999998774,0.7469999999999999,68.79599999999999,-0.00539999999999996,-0.226775,-0.274,100.0,1.0,1.0,212.14,0.0,0.0,0.0,0.0,0.0,0.0,0.0,8991.8,0.0,55.0,5.0,247.63666666666666,1.0,0.0,0.0,0.0,0.0,0.0,0.0,0.0,1.1580000000000013,1.1580000000000013,0.0,0.0,1.0,55.0,616.79921,10000.0,85.000001,85.000001,85.000001,85.000001,395.0,0.0,0.0,0.0,1.0,166.665,52.551,52.551,47.806,47.806,34.0,-23.4075,24.72,-29.96,29.3075,0.0,1782.319,-0.3149999999999995,100.0,28.056,27.683,43.103,43.081,0.0,0.0,100.0,0.0,0.0,0.0,0.0,3095.4285714285716,3107.7,4199.0,4206.8,305.33,304.963,314.66925,314.5015,21.99,20.6204,21.9884,21.5005,314.999998,314.999998,324.999988,324.999988,99.559,99.50706666666666,99.56778571428572,99.54781428571428,0.08400000000000007,-0.04966666666666675,-0.1045,0.11733333333333333,-0.04333333333332945,-0.05666666666667197,1.5246666666666666,1.508,38.437,29.877333333333333,38.427,35.378,55.92,35.0905,59.6965,52.7065,53.846000000000004,34.2155,58.2745,51.034,52.991,33.754,58.1745,50.446333333333335,-0.09850000000000003,-0.052999999999999936,0.10929000000000001,0.11103500000000001,0.0,215.365,215.39,212.14,212.14,190.012512,21.04372
24,0.0,0.0,0.0,1.0,1.0,0.0,0.0,1.0,0.0,100.0,1.0,1.1856,26.0,0.0,0.0,0.0,59.999996,0.0,26.0,26.0,26.0,26.0,0.02877777777777779,0.27990000000000004,-0.033325,292.923,-2.7054,-2.678,-1.5373999999999999,-1.5568,-194.92000000000002,215.33249999999998,190.482,0.0,0.0,0.0,0.0,0.04853333333333333,-5.498166666666667,-5.498166666666667,-0.5858,-0.367,0.006999999999999895,-0.27700000000000014,68.916,-0.0024999999999999467,-0.22385000000000002,-0.21399999999999952,100.0,1.0,1.0,212.52666666666667,0.0,0.0,0.0,0.0,0.0,0.0,0.0,9008.2,0.0,55.0,5.0,248.07333333333332,0.0,0.0,0.0,0.0,0.0,0.0,0.0,0.0,1.2029999999999994,1.2029999999999994,0.0,0.0,0.0,55.0,616.79921,10000.0,85.000001,85.000001,85.000001,85.000001,395.0,0.0,0.0,0.0,1.0,333.33500000000004,53.162,53.162,47.958,47.958,34.0,-23.34,23.025,-28.863333333333333,27.8125,0.0,1782.272,-0.29499999999999993,100.0,27.698,27.599,42.923,43.074,0.0,0.0,100.0,0.0,0.0,0.0,0.0,3032.142857142857,2946.0,4141.777777777777,4064.2,305.7655,305.35266666666666,314.786,314.75475,21.9982,20.6251,21.9975,21.508499999999998,314.999998,314.999998,324.999988,324.999988,99.559,99.50706666666666,99.5679,99.54794285714286,0.07566666666666677,-0.05333333333333323,-0.11783333333333333,0.10533333333333333,-0.046666666666666856,-0.05333333333332746,1.5413333333333332,1.525,38.489000000000004,29.907,38.483999999999995,35.428,55.907,35.1235,59.729,52.759,53.834,34.2465,58.305,51.085,52.977999999999994,33.783,58.202,50.495666666666665,-0.10199999999999998,-0.0515000000000001,0.11145000000000001,0.10304,0.0,215.73000000000002,215.755,212.52666666666667,212.52666666666667,190.012512,21.04372
25,0.0,0.0,0.0,1.0,1.0,0.0,0.0,1.0,0.0,100.0,1.0,1.1856,26.0,0.0,0.0,0.0,59.999996,0.0,26.0,26.0,26.0,26.0,0.022777777777777786,0.2721,-0.00555,292.633,-2.68,-2.662,-1.5792000000000002,-1.5554999999999999,-191.41,215.3275,190.45675,0.0,0.0,0.0,0.0,0.0506,-5.498166666666667,-5.498166666666667,-0.602,0.126,0.014874999999999972,0.3599999999999999,69.05199999999999,0.0004999999999999449,-0.2189,-0.24799999999999933,100.0,1.0,1.0,212.99333333333334,0.0,0.0,0.0,0.0,0.0,0.0,0.0,9028.0,0.0,55.0,5.0,248.55666666666667,1.0,0.0,0.0,0.0,0.0,0.0,0.0,0.0,1.2540000000000013,1.2540000000000013,0.0,0.0,1.0,55.0,616.79921,10000.0,85.000001,85.000001,85.000001,85.000001,395.0,0.0,0.0,0.0,1.0,333.33500000000004,52.246,52.246,48.233000000000004,48.233000000000004,34.0,-24.0125,26.35333333333333,-27.09,28.875,0.0,1782.22,-0.3349999999999991,100.0,27.846,27.692,42.805,42.819,0.0,0.0,100.0,0.0,0.0,0.0,0.0,3176.4285714285716,3293.6,4011.222222222222,4116.5,305.131,304.42833333333334,315.1425,314.7005,22.0075,20.6307,22.0078,21.5175,314.999998,314.999998,324.999988,324.999988,99.55901428571428,99.50708333333333,99.56805714285714,99.54808571428572,0.0903333333333336,-0.04233333333333311,-0.09566666666666668,0.1215,-0.03166666666666629,-0.06833333333332803,1.5583333333333333,1.547,38.547,29.941666666666666,38.549,35.4845,55.891999999999996,35.163,59.765,52.818,53.82,34.2825,58.338,51.1415,52.963,33.818,58.2325,50.55133333333333,-0.10050000000000003,-0.05249999999999999,0.10005000000000001,0.10176,0.0,216.16,216.18,212.99333333333334,212.99333333333334,190.012512,21.04372
26,0.0,0.0,0.0,1.0,1.0,0.0,0.0,1.0,0.0,100.0,1.0,1.1856,26.0,0.0,0.0,0.0,59.999996,0.0,26.0,26.0,26.0,26.0,0.03133333333333321,0.2782,0.06225,291.794,-2.7044,-2.6699,-1.5451000000000001,-1.5564,-187.67000000000002,215.325,190.429625,0.0,0.0,0.0,0.0,0.05276666666666666,-5.498166666666667,-5.498166666666667,-0.5740000000000001,0.16349999999999998,0.00649999999999995,1.0010000000000003,69.19800000000001,-0.0004999999999999449,-0.205075,-0.2839999999999998,100.0,1.0,1.0,213.23666666666668,0.0,0.0,0.0,0.0,0.0,0.0,0.0,9038.4,0.0,55.0,5.0,249.08333333333334,0.0,0.0,0.0,0.0,0.0,0.0,0.0,0.0,1.3079999999999998,1.3079999999999998,0.0,0.0,0.0,55.0,616.79921,10000.0,85.000001,85.000001,85.000001,85.000001,395.0,0.0,0.0,0.0,1.0,166.665,52.032,52.032,47.089,47.089,34.0,-23.815,25.3,-29.836666666666666,32.4,0.0,1782.168,-0.3849999999999998,100.0,28.53,28.087,43.363,43.374,0.0,0.0,100.0,0.0,0.0,0.0,0.0,3149.4285714285716,3165.8,4351.555555555556,4440.2,305.2575,304.8913333333333,314.2375,313.8715,22.0176,20.6367,22.0189,21.5273,314.999998,314.999998,324.999988,324.999988,99.55902857142857,99.5071,99.56821428571429,99.54824285714285,0.09366666666666656,-0.038999999999999924,-0.09283333333333334,0.1245,-0.006666666666667709,-0.041666666666671404,1.451,1.4344999999999999,38.61,29.979,38.617999999999995,35.546,55.881,35.2055,59.8065,52.8845,53.809,34.322,58.376999999999995,51.2055,52.951,33.856,58.268,50.614,-0.10749999999999993,-0.0495000000000001,0.10075,0.11138500000000001,0.0,216.61,216.63,213.23666666666668,213.23666666666668,190.012512,21.04372
27,0.0,0.0,0.0,1.0,1.0,0.0,0.0,1.0,0.0,100.0,1.0,1.1856,26.0,0.0,0.0,0.0,59.999996,0.0,26.0,26.0,26.0,26.0,0.031444444444444386,0.2591000000000001,-0.048225000000000004,292.282,-2.7544,-2.6759,-1.605,-1.5376,-184.56,215.3225,190.408,0.0,0.0,0.0,0.0,0.054566666666666666,-5.498166666666667,-5.498166666666667,-0.597,-0.7670000000000001,0.011500000000000066,-0.5869999999999997,69.315,0.0019000000000000128,-0.23865,-0.28799999999999937,100.0,1.0,1.0,213.73333333333335,0.0,0.0,0.0,0.0,0.0,0.0,0.0,9059.3,0.0,55.0,5.0,249.50666666666666,1.0,0.0,0.0,0.0,0.0,0.0,0.0,0.0,1.352999999999998,1.352999999999998,0.0,0.0,1.0,55.0,616.79921,10000.0,85.000001,85.000001,85.000001,85.000001,395.0,0.0,0.0,0.0,1.0,166.665,52.414,52.414,47.241,47.241,34.0,-24.07,24.174999999999997,-29.323333333333334,28.122500000000002,0.0,1782.123,-0.3849999999999998,100.0,28.031,28.231,43.589,43.699,0.0,0.0,100.0,0.0,0.0,0.0,0.0,3127.142857142857,3065.1,4141.111111111111,4053.5,305.5425,304.93233333333336,314.8525,314.837,22.0258,20.6416,22.0282,21.5355,314.999998,314.999998,324.999988,324.999988,99.55904285714286,99.5071,99.56834285714285,99.54837142857143,0.08800000000000008,-0.052999999999999936,-0.10916666666666668,0.11916666666666667,-0.04333333333332945,-0.04999999999999716,1.5296666666666665,1.5225,38.661,30.009666666666668,38.676,35.597,55.869,35.24,59.841,52.9385,53.798,34.354,58.409,51.2575,52.938,33.8865,58.297,50.66466666666666,-0.11149999999999993,-0.050000000000000044,0.10308500000000001,0.10696000000000001,0.0,216.945,216.97500000000002,213.73333333333335,213.73333333333335,190.012512,21.04372
28,0.0,0.0,0.0,1.0,1.0,0.0,0.0,1.0,0.0,100.0,1.0,1.1856,26.0,0.0,0.0,0.0,59.999996,0.0,26.0,26.0,26.0,26.0,0.033777777777777906,0.27459999999999996,-0.0431,292.435,-2.6814,-2.6687000000000003,-1.6175000000000002,-1.5643,-181.01999999999998,215.32,190.3825,0.0,0.0,0.0,0.0,0.05663333333333334,-5.498166666666667,-5.498166666666667,-0.6007,0.538,0.0017499999999999183,0.351,69.44800000000001,0.0048000000000001375,-0.216125,-0.3979999999999997,100.0,1.0,1.0,214.20666666666668,0.0,0.0,0.0,0.0,0.0,0.0,0.0,9079.4,0.0,55.0,5.0,249.98666666666668,0.0,0.0,0.0,0.0,0.0,0.0,0.0,0.0,1.404,1.404,0.0,0.0,0.0,55.0,616.79921,10000.0,85.000001,85.000001,85.000001,85.000001,395.0,0.0,0.0,0.0,1.0,166.665,52.414,52.414,47.714,47.714,34.0,-22.275,25.575,-28.016666666666666,29.6575,0.0,1782.072,-0.40499999999999936,100.0,28.23,28.034,43.143,43.266,0.0,0.0,100.0,0.0,0.0,0.0,0.0,3025.285714285714,3154.8,4121.666666666667,4108.1,305.5805,304.847,314.94975,314.7525,22.0352,20.6472,22.0385,21.5445,314.999998,314.999998,324.999988,324.999988,99.55905714285714,99.5071,99.56848571428571,99.54852857142858,0.10099999999999998,-0.032333333333333325,-0.08866666666666667,0.136,-0.05333333333332746,-0.061666666666667425,1.5763333333333334,1.54,38.72,30.045,38.739999999999995,35.653,55.855999999999995,35.2795,59.875,52.997,53.786,34.3905,58.441,51.3135,52.925,33.9215,58.3255,50.71966666666667,-0.11149999999999993,-0.04849999999999999,0.1033,0.11073000000000001,0.0,217.405,217.42000000000002,214.20666666666668,214.20666666666668,190.012512,21.04372
29,0.0,0.0,0.0,1.0,1.0,0.0,0.0,1.0,0.0,100.0,1.0,1.1856,26.0,0.0,0.0,0.0,59.999996,0.0,26.0,26.0,26.0,26.0,0.057333333333333236,0.2601,-0.022600000000000002,292.328,-2.7556,-2.5929,-1.5964,-1.5474,-177.47,215.3175,190.356125,0.0,0.0,0.0,0.0,0.0587,-5.498166666666667,-5.498166666666667,-0.6045,-0.7335,-0.005125000000000046,-0.8199999999999998,69.584,0.00649999999999995,-0.21457500000000002,-0.33999999999999986,100.0,1.0,1.0,214.48000000000002,0.0,0.0,0.0,0.0,0.0,0.0,0.0,9091.1,0.0,55.0,5.0,250.47666666666666,1.0,0.0,0.0,0.0,0.0,0.0,0.0,0.0,1.4549999999999983,1.4549999999999983,0.0,0.0,1.0,55.0,616.79921,10000.0,85.000001,85.000001,85.000001,85.000001,395.0,0.0,0.0,0.0,1.0,166.665,52.795,52.795,47.394,47.394,34.0,-24.555,23.561666666666667,-29.553333333333335,30.295,0.0,1782.021,-0.4499999999999993,100.0,27.711,27.974,43.414,43.65,0.0,0.0,100.0,0.0,0.0,0.0,0.0,3205.857142857143,3038.1,4197.222222222223,4220.9,305.4785,305.265,314.71725,314.351,22.0444,20.6527,22.049,21.5538,314.999998,314.999998,324.999988,324.999988,99.55905714285714,99.50711666666666,99.56862857142858,99.54867142857142,0.08866666666666667,-0.03699999999999992,-0.10383333333333333,0.1245,-0.041666666666671404,-0.04333333333332945,1.4969999999999999,1.47,38.778,30.079333333333334,38.806,35.711,55.842,35.317,59.914500000000004,53.0585,53.772,34.4255,58.4775,51.373,52.911,33.955,58.359,50.77766666666667,-0.10949999999999993,-0.040999999999999925,0.10523,0.10647500000000001,0.0,217.8,217.8,214.48000000000002,214.48000000000002,190.012512,21.04372
30,0.0,0.0,0.0,1.0,1.0,0.0,0.0,1.0,0.0,100.0,1.0,1.1856,26.0,0.0,0.0,0.0,59.999996,0.0,26.0,26.0,26.0,26.0,0.016555555555555657,0.28190000000000004,0.02715,291.55,-2.7237999999999998,-2.6608,-1.6416,-1.4652,-173.92000000000002,215.3175,190.329625,0.0,0.0,0.0,0.0,0.06076666666666666,-5.498166666666667,-5.498166666666667,-0.6043000000000001,0.9095,0.0006249999999998757,0.7970000000000002,69.715,0.009300000000000086,-0.21655000000000002,-0.4500000000000002,100.0,1.0,1.0,214.95333333333332,0.0,0.0,0.0,0.0,0.0,0.0,0.0,9111.1,0.0,55.0,5.0,250.94666666666666,0.0,0.0,0.0,0.0,0.0,0.0,1.0,0.0,1.5060000000000002,1.5060000000000002,0.0,0.0,0.0,55.0,616.79921,10000.0,85.000001,85.000001,85.000001,85.000001,395.0,0.0,0.0,0.0,1.0,166.665,51.132,51.132,47.287,47.287,34.0,-24.6325,26.933333333333334,-30.0,29.57,0.0,1781.97,-0.5150000000000006,100.0,28.848,28.589,43.294,43.479,0.0,0.0,100.0,0.0,0.0,0.0,0.0,3250.714285714286,3299.1,4264.777777777777,4305.6,304.847,304.23633333333333,314.644,314.4,22.054,20.6585,22.0593,21.5629,314.999998,314.999998,324.999988,324.999988,99.55908571428571,99.50711666666666,99.56878571428571,99.54881428571429,0.10266666666666646,-0.03600000000000003,-0.09466666666666668,0.13083333333333336,-0.03499999999999659,-0.06833333333332803,1.5366666666666666,1.534,38.837,30.115666666666666,38.870999999999995,35.768,55.833,35.3585,59.9495,53.1185,53.763,34.463499999999996,58.5105,51.4305,52.900999999999996,33.9915,58.388999999999996,50.833666666666666,-0.119,-0.04499999999999993,0.10634,0.10756,0.0,218.22,218.265,214.95333333333332,214.95333333333332,190.012512,21.04372
31,0.0,0.0,0.0,1.0,1.0,0.0,0.0,1.0,0.0,100.0,1.0,1.1856,26.0,0.0,0.0,0.0,59.999996,0.0,26.0,26.0,26.0,26.0,0.03577777777777791,0.2553000000000001,0.06955,291.199,-2.6987,-2.6387,-1.6373,-1.5421,-170.57,215.3175,190.305375,0.0,0.0,0.0,0.0,0.0627,-5.498166666666667,-5.498166666666667,-0.5860000000000001,-0.33550000000000013,0.012499999999999956,1.008,69.842,0.01110000000000011,-0.219275,-0.4639999999999995,100.0,1.0,1.0,215.17333333333335,0.0,0.0,0.0,0.0,0.0,0.0,0.0,9120.4,0.0,55.0,5.0,251.40666666666667,1.0,0.0,0.0,0.0,0.0,0.0,1.0,0.0,1.5539999999999985,1.5539999999999985,0.0,0.0,1.0,55.0,616.79921,10000.0,85.000001,85.000001,85.000001,85.000001,395.0,0.0,0.0,0.0,1.0,333.33500000000004,51.544,51.544,46.066,46.066,34.0,-22.0675,27.286666666666665,-30.54,33.182500000000005,0.0,1781.92,-0.5099999999999998,100.0,28.721,28.666,44.085,44.219,0.0,0.0,100.0,0.0,0.0,0.0,0.0,3059.0,3343.3,4295.555555555556,4420.8,305.435,304.34833333333336,314.32275,313.8805,22.0627,20.663899999999998,22.0693,21.5718,314.999998,314.999998,324.999988,324.999988,99.55908571428571,99.50713333333333,99.56892857142857,99.54897142857143,0.11766666666666659,-0.025666666666666726,-0.08666666666666667,0.14250000000000002,-0.03333333333333144,-0.046666666666666856,1.4433333333333334,1.421,38.891999999999996,30.14933333333333,38.933,35.824,55.822,35.396,59.988,53.179,53.753,34.4985,58.546,51.489,52.89,34.025,58.4215,50.89066666666667,-0.12549999999999994,-0.04499999999999993,0.10508,0.11776500000000001,0.0,218.60000000000002,218.63,215.17333333333335,215.17333333333335,190.012512,21.04372
32,0.0,0.0,0.0,1.0,1.0,0.0,0.0,1.0,0.0,100.0,1.0,1.1856,26.0,0.0,0.0,0.0,59.999996,0.0,26.0,26.0,26.0,26.0,0.07600000000000007,0.25780000000000003,-0.020300000000000002,291.901,-2.7033,-2.6874000000000002,-1.5824,-1.6159,-167.0,215.32,190.279875,0.0,0.0,0.0,0.0,0.06476666666666667,-5.498166666666667,-5.498166666666667,-0.6068,-0.3534999999999999,-0.006625000000000103,-1.052,69.971,0.01330000000000009,-0.23345000000000002,-0.4139999999999997,100.0,1.0,1.0,215.73333333333335,0.0,0.0,0.0,0.0,0.0,0.0,0.0,9144.1,0.0,55.0,5.0,251.87,0.0,0.0,0.0,0.0,0.0,0.0,1.0,0.0,1.6050000000000004,1.6050000000000004,0.0,0.0,0.0,55.0,616.79921,10000.0,85.000001,85.000001,85.000001,85.000001,395.0,0.0,0.0,0.0,1.0,166.665,52.109,52.109,47.195,47.195,34.0,-22.7425,24.884999999999998,-27.456666666666663,31.192500000000003,0.0,1781.872,-0.48499999999999943,100.0,28.329,28.663,43.747,44.177,0.0,0.0,100.0,0.0,0.0,0.0,0.0,3124.714285714286,3040.4,4069.1111111111113,4155.6,305.5035,305.02933333333334,314.9985,314.5095,22.072,20.6696,22.0797,21.581,314.999998,314.999998,324.999988,324.999988,99.5591,99.50713333333333,99.56907142857143,99.54911428571428,0.10899999999999999,-0.03266666666666662,-0.0895,0.13833333333333334,-0.041666666666671404,-0.045000000000001705,1.5333333333333334,1.521,38.95,30.184666666666665,38.998000000000005,35.8815,55.81,35.4355,60.024,53.239,53.741,34.535,58.579499999999996,51.5465,52.876999999999995,34.06,58.451499999999996,50.947,-0.12149999999999994,-0.03699999999999992,0.10083500000000001,0.11494000000000001,0.0,218.985,219.015,215.73333333333335,215.73333333333335,190.012512,21.04372
33,0.0,0.0,0.0,1.0,1.0,0.0,0.0,1.0,0.0,100.0,1.0,1.1856,26.0,0.0,0.0,0.0,59.999996,0.0,26.0,26.0,26.0,26.0,0.05600000000000005,0.26460000000000017,-0.049875,292.191,-2.7141,-2.7015000000000002,-1.5852,-1.5831,-163.64,215.3225,190.254875,0.0,0.0,0.0,0.0,0.06673333333333334,-5.498166666666667,-5.498166666666667,-0.6161,-0.19450000000000012,-0.01175000000000015,-0.36099999999999977,70.094,0.015900000000000025,-0.217375,-0.4679999999999991,100.0,1.0,1.0,216.13333333333333,0.0,0.0,0.0,0.0,0.0,0.0,0.0,9161.1,0.0,55.0,5.0,252.31333333333333,1.0,0.0,0.0,0.0,0.0,0.0,1.0,0.0,1.6529999999999987,1.6529999999999987,0.0,0.0,1.0,55.0,616.79921,10000.0,85.000001,85.000001,85.000001,85.000001,395.0,0.0,0.0,0.0,1.0,166.665,52.383,52.383,47.531,47.531,34.0,-23.259999999999998,24.29,-28.196666666666665,29.7275,0.0,1781.823,-0.4900000000000002,100.0,28.168,28.343,43.527,43.896,0.0,0.0,100.0,0.0,0.0,0.0,0.0,3154.142857142857,2969.8,4096.555555555556,4113.1,305.435,305.252,314.97475,314.69975,22.0807,20.6748,22.0894,21.5896,314.999998,314.999998,324.999988,324.999988,99.55911428571429,99.50713333333333,99.56921428571428,99.54925714285714,0.10499999999999998,-0.033666666666666734,-0.10083333333333333,0.12833333333333335,-0.054999999999999716,-0.05833333333333002,1.546,1.527,39.004000000000005,30.217666666666666,39.059,35.935,55.798,35.471000000000004,60.057,53.294,53.730000000000004,34.567499999999995,58.6105,51.5995,52.864999999999995,34.091,58.4795,50.999,-0.12249999999999994,-0.04249999999999998,0.11299500000000001,0.10378000000000001,0.0,219.39499999999998,219.405,216.13333333333333,216.13333333333333,190.012512,21.04372
34,0.0,0.0,0.0,1.0,1.0,0.0,0.0,1.0,0.0,100.0,1.0,1.1856,26.0,0.0,0.0,0.0,59.999996,0.0,26.0,26.0,26.0,26.0,0.05355555555555558,0.2693000000000001,-0.09242500000000001,292.404,-2.6653000000000002,-2.6932,-1.6164,-1.5248,-160.06,215.3275,190.22675,0.0,0.0,0.0,0.0,0.0688,-5.498166666666667,-5.498166666666667,-0.6415000000000001,-0.8740000000000001,0.011249999999999982,0.9809999999999999,70.226,0.01890000000000014,-0.220025,-0.45199999999999996,100.0,1.0,1.0,216.49666666666667,0.0,0.0,0.0,0.0,0.0,0.0,0.0,9176.4,0.0,55.0,5.0,252.78666666666666,0.0,0.0,0.0,0.0,0.0,0.0,1.0,0.0,1.7040000000000006,1.7040000000000006,0.0,0.0,0.0,55.0,616.79921,10000.0,85.000001,85.000001,85.000001,85.000001,395.0,0.0,0.0,0.0,1.0,333.33500000000004,53.009,53.009,47.607,47.607,34.0,-20.7975,24.691666666666666,-27.593333333333334,30.745,0.0,1781.771,-0.48499999999999943,100.0,28.012999999999998,27.896,43.524,43.902,0.0,0.0,100.0,0.0,0.0,0.0,0.0,2928.5714285714284,3025.3,4074.4444444444443,4222.8,305.963,305.366,314.98325,314.47975,22.0897,20.6803,22.0998,21.5989,314.999998,314.999998,324.999988,324.999988,99.55912857142857,99.50713333333333,99.56935714285714,99.54941428571429,0.11166666666666636,-0.02633333333333332,-0.08116666666666668,0.14400000000000002,-0.03333333333333144,-0.04833333333333201,1.5253333333333334,1.5015,39.061,30.251666666666665,39.124,35.993,55.784,35.507,60.0925,53.355000000000004,53.717,34.601,58.6435,51.658,52.851,34.1235,58.509,51.056,-0.11599999999999999,-0.04299999999999993,0.105135,0.10819000000000001,0.0,219.76,219.8,216.49666666666667,216.49666666666667,190.012512,21.04372
35,0.0,0.0,0.0,1.0,1.0,0.0,0.0,1.0,0.0,100.0,1.0,1.1856,26.0,0.0,0.0,0.0,59.999996,0.0,26.0,26.0,26.0,26.0,0.056333333333333346,0.26270000000000016,-0.0746,292.145,-2.7965,-2.6698,-1.5277,-1.5835,-156.26999999999998,215.33249999999998,190.194875,0.0,0.0,0.0,0.0,0.07100000000000001,-5.498166666666667,-5.498166666666667,-0.6776,0.046499999999999986,-0.009749999999999925,-0.22199999999999998,70.362,0.01770000000000005,-0.2235,-0.4139999999999997,100.0,1.0,1.0,216.99,0.0,0.0,0.0,0.0,0.0,0.0,0.0,9197.5,0.0,55.0,5.0,253.27666666666664,1.0,0.0,0.0,0.0,0.0,0.0,1.0,0.0,1.7579999999999991,1.7579999999999991,0.0,0.0,1.0,55.0,616.79921,10000.0,85.000001,85.000001,85.000001,85.000001,395.0,0.0,0.0,0.0,1.0,166.665,52.078,52.078,47.256,47.256,34.0,-23.6375,27.453333333333333,-26.333333333333336,30.255000000000003,0.0,1781.718,-0.3349999999999991,100.0,28.01,28.365000000000002,43.281,43.448,0.0,0.0,100.0,0.0,0.0,0.0,0.0,3072.142857142857,3329.6,4083.4444444444443,4085.2,305.513,304.30566666666664,315.0205,314.882,22.0993,20.6864,22.110599999999998,21.6084,314.999998,314.999998,324.999988,324.999988,99.55914285714286,99.50713333333333,99.56952857142858,99.54955714285714,0.10233333333333361,-0.02833333333333332,-0.08316666666666667,0.14916666666666667,-0.041666666666671404,-0.06499999999999773,1.562,1.554,39.120999999999995,30.29,39.191,36.053,55.769,35.5495,60.1285,53.415,53.702,34.6405,58.677,51.716,52.835,34.161,58.539,51.11233333333333,-0.10449999999999993,-0.05449999999999999,0.10891500000000001,0.11116500000000001,0.0,220.2,220.235,216.99,216.99,190.012512,21.04372
