,ABS Active,ABS Enabled,AID Allow Tire Blankets,AID Auto Blip,AID Auto Clutch,AID Auto Shift,AID Fuel Rate,AID Ideal Line,AID Mech Damage,AID Stability,AID Tire Wear Rate,Air Density,Air Temp,Ballast,Best Lap Delta,Best Lap Time,Brake Bias,Brake Pos,Brake Temp FL,Brake Temp FR,Brake Temp RL,Brake Temp RR,CG Accel Lateral,CG Accel Longitudinal,CG Accel Vertical,CG Height,Camber FL,Camber FR,Camber RL,Camber RR,Car Coord X,Car Coord Y,Car Coord Z,Car Damage Front,Car Damage Left,Car Damage Rear,Car Damage Right,Car Pos Norm,Caster FL,Caster FR,Chassis Pitch Angle,Chassis Pitch Rate,Chassis Roll Angle,Chassis Roll Rate,Chassis Velocity X,Chassis Velocity Y,Chassis Velocity Z,Chassis Yaw Rate,Clutch Pos,DRS Active,DRS Available,Drive Train Speed,ERS Heat Charging,ERS Is Charging,ERS Max Energy,ERS Power Level,ERS Recovery Level,Engine Brake Setting,Engine Limiter,Engine RPM,Flags,Fuel Level,Gear,Ground Speed,HR Sample Clock,In Pit,KERS Charge,KERS Deployed Energy,KERS Input,KERS Max Energy,LR Sample Clock,Lap Invalidated,Lap Time,Lap Time2,Last Lap Time,Last Sector Time,MR Sample Clock,Max Fuel,Max Power,Max RPM,Max Sus Travel FL,Max Sus Travel FR,Max Sus Travel RL,Max Sus Travel RR,Max Torque,Max Turbo Boost,Num Tires Off Track,Penalties Enabled,Position,Raw Data Sample Rate,Ride Height FL,Ride Height FR,Ride Height RL,Ride Height RR,Road Temp,Self Align Torque FL,Self Align Torque FR,Self Align Torque RL,Self Align Torque RR,Session Lap Count,Session Time Left,Steering Angle,Surface Grip,Suspension Travel FL,Suspension Travel FR,Suspension Travel RL,Suspension Travel RR,TC Active,TC Enabled,Throttle Pos,Tire Dirt Level FL,Tire Dirt Level FR,Tire Dirt Level RL,Tire Dirt Level RR,Tire Load FL,Tire Load FR,Tire Load RL,Tire Load RR,Tire Loaded Radius FL,Tire Loaded Radius FR,Tire Loaded Radius RL,Tire Loaded Radius RR,Tire Pressure FL,Tire Pressure FR,Tire Pressure RL,Tire Pressure RR,Tire Radius FL,Tire Radius FR,Tire Radius RL,Tire Radius RR,Tire Rubber Grip FL,Tire Rubber Grip FR,Tire Rubber Grip RL,Tire Rubber Grip RR,Tire Slip Angle FL,Tire Slip Angle FR,Tire Slip Angle RL,Tire Slip Angle RR,Tire Slip Ratio FL,Tire Slip Ratio FR,Tire Slip Ratio RL,Tire Slip Ratio RR,Tire Temp Core FL,Tire Temp Core FR,Tire Temp Core RL,Tire Temp Core RR,Tire Temp Inner FL,Tire Temp Inner FR,Tire Temp Inner RL,Tire Temp Inner RR,Tire Temp Middle FL,Tire Temp Middle FR,Tire Temp Middle RL,Tire Temp Middle RR,Tire Temp Outer FL,Tire Temp Outer FR,Tire Temp Outer RL,Tire Temp Outer RR,Toe In FL,Toe In FR,Toe In RL,Toe In RR,Turbo Boost,Wheel Angular Speed FL,Wheel Angular Speed FR,Wheel Angular Speed RL,Wheel Angular Speed RR,Wind Direction,Wind Speed
0,0.0,0.0,0.0,1.0,1.0,0.0,0.0,1.0,0.0,100.0,1.0,1.1856,26.0,0.0,0.0,0.0,59.99999,0.0,26.0,26.0,26.0,26.0,-0.069,0.28800000000000003,0.000275,294.571,-2.722,-2.6665,-1.51025,-1.5539,-275.68,216.3025,190.988125,0.0,0.0,0.0,0.0,0.0015999999999999348,-5.498166666666667,-5.498166666666667,-0.552,1.0325,-0.011777777777777665,-1.1469999999999998,65.556,-0.045399999999999996,-0.21645,0.9960000000000004,100.0,1.0,1.0,202.46,0.0,0.0,0.0,0.0,0.0,0.0,0.0,8581.5,0.0,55.0,5.0,235.96666666666667,0.0,0.0,0.0,0.0,0.0,0.0,0.0,0.0,0.0030000000000001137,0.0030000000000001137,0.0,0.0,0.0,55.0,616.79921,10000.0,85.0,85.0,85.0,85.0,395.0,0.0,0.0,0.0,1.0,20.0,53.268,53.268,50.262,50.262,34.0,-26.5075,22.63,-29.846666666666664,23.759999999999998,0.0,1783.052,0.8000000000000007,100.0,27.187,26.6,40.179,40.105000000000004,0.0,0.0,100.0,0.0,0.0,0.0,0.0,2967.5714285714284,3298.5,4031.4444444444443,3902.9,305.8745,304.28766666666667,315.07425,315.06075,21.773699999999998,20.5004,21.7561,21.2934,314.99999,314.99999,324.99998,324.99998,99.55878571428572,99.50678333333333,99.56471428571429,99.54445714285714,-0.016999999999999904,-0.1266666666666667,-0.17016666666666658,0.05716666666666681,-0.051666666666669414,-0.044285714285713595,1.564,1.603,37.086,29.127499999999998,36.976,34.0835,56.251999999999995,34.1835,58.897,51.298,54.163,33.373,57.534,49.6785,53.327,32.941,57.503,49.11566666666667,-0.013000000000000012,-0.13549999999999995,0.10314000000000001,0.11447000000000002,0.0,205.43,205.335,202.46,202.46,190.01251,21.04372
1,0.0,0.0,0.0,1.0,1.0,0.0,0.0,1.0,0.0,100.0,1.0,1.1856,26.0,0.0,0.0,0.0,59.999996,0.0,26.0,26.0,26.0,26.0,-0.10966666666666668,0.3176000000000001,-0.008125,293.427,-2.6289,-2.7821249999999997,-1.5112,-1.5527000000000002,-272.33,216.2975,190.96775,0.0,0.0,0.0,0.0,0.0035333333333333883,-5.498166666666667,-5.498166666666667,-0.5003000000000001,-0.21350000000000002,-0.0645555555555557,-0.2559999999999998,65.712,-0.06429999999999991,-0.1957,1.3780000000000001,100.0,1.0,1.0,202.6,0.0,0.0,0.0,0.0,0.0,0.0,0.0,8587.4,0.0,55.0,5.0,236.53333333333333,1.0,0.0,0.0,0.0,0.0,0.0,0.0,0.0,0.053999999999998494,0.053999999999998494,0.0,0.0,1.0,55.0,616.79921,10000.0,85.000001,85.000001,85.000001,85.000001,395.0,0.0,0.0,0.0,1.0,333.33500000000004,53.833,53.833,48.751999999999995,48.751999999999995,34.0,-26.9375,17.744999999999997,-33.873333333333335,28.2125,0.0,1783.0,0.9050000000000011,100.0,27.544,26.681,42.354,41.07,0.0,0.0,100.0,0.0,0.0,0.0,0.0,3043.4285714285716,2672.5,4312.222222222223,4679.4,305.454,306.325,314.26175,313.22225,21.7836,20.5054,21.7668,21.3023,314.999998,314.999998,324.999988,324.999988,99.55878571428572,99.50681666666667,99.56487142857142,99.54461428571429,-0.020750000000000046,-0.14900000000000002,-0.1808333333333334,0.02750000000000008,-0.07833333333332604,-0.030000000000001137,1.4180000000000001,1.4775,37.147999999999996,29.159,37.042,34.1395,56.236000000000004,34.2255,58.942,51.3625,54.147999999999996,33.411500000000004,57.576,49.74,53.311,32.978,57.542500000000004,49.17633333333333,-0.006000000000000005,-0.14250000000000007,0.09981500000000001,0.10813,0.0,205.91500000000002,205.78,202.60000000000002,202.6,190.012512,21.04372
2,0.0,0.0,0.0,1.0,1.0,0.0,0.0,1.0,0.0,100.0,1.0,1.1856,26.0,0.0,0.0,0.0,59.999996,0.0,26.0,26.0,26.0,26.0,-0.13722222222222222,0.2977000000000001,-0.016125,294.052,-2.5944,-2.81225,-1.47295,-1.617,-268.98,216.28750000000002,190.948875,0.0,0.0,0.0,0.0,0.005499999999999949,-5.498166666666667,-5.498166666666667,-0.5483,-0.11299999999999999,-0.06222222222222218,1.8010000000000002,65.857,-0.08409999999999995,-0.255325,1.5860000000000003,100.0,1.0,1.0,203.48333333333335,0.0,0.0,0.0,0.0,0.0,0.0,0.0,8624.9,0.0,55.0,5.0,237.05666666666667,0.0,0.0,0.0,0.0,0.0,0.0,0.0,0.0,0.10500000000000043,0.10500000000000043,0.0,0.0,0.0,55.0,616.79921,10000.0,85.000001,85.000001,85.000001,85.000001,395.0,0.0,0.0,0.0,1.0,333.33500000000004,52.826,52.826,50.507,50.507,34.0,-30.875,19.174999999999997,-29.38,19.3475,0.0,1782.948,0.7100000000000009,100.0,28.062,26.637,42.368,41.0,0.0,0.0,100.0,0.0,0.0,0.0,0.0,3394.0,2851.8,3774.1111111111113,3632.2,304.499,305.7216666666667,315.57275,315.87725,21.7938,20.5102,21.7773,21.311,314.999998,314.999998,324.999988,324.999988,99.5588,99.50683333333333,99.56501428571428,99.54474285714285,-0.03774999999999995,-0.15533333333333332,-0.22516666666666663,-0.005166666666666653,-0.06833333333332803,-0.06428571428571672,1.6465,1.683,37.211,29.189,37.108000000000004,34.194,56.224000000000004,34.2645,58.982,51.420500000000004,54.135999999999996,33.4475,57.613,49.796,53.298,33.0125,57.577,49.231,-0.021499999999999964,-0.1260000000000001,0.09938000000000001,0.1077,0.0,206.35500000000002,206.23000000000002,203.48333333333335,203.48333333333335,190.012512,21.04372
3,0.0,0.0,0.0,1.0,1.0,0.0,0.0,1.0,0.0,100.0,1.0,1.1856,26.0,0.0,0.0,0.0,59.999996,0.0,26.0,26.0,26.0,26.0,-0.13411111111111113,0.32230000000000003,-0.0582,293.9,-2.7253,-2.69925,-1.50045,-1.5918999999999999,-265.81,216.2775,190.9305,0.0,0.0,0.0,0.0,0.007333333333333303,-5.498166666666667,-5.498166666666667,-0.5112,0.609,-0.016777777777778002,-0.847,66.002,-0.09999999999999998,-0.20422500000000002,1.2439999999999998,100.0,1.0,1.0,203.65666666666667,0.0,0.0,0.0,0.0,0.0,0.0,0.0,8632.3,0.0,55.0,5.0,237.57666666666665,1.0,0.0,0.0,0.0,0.0,0.0,0.0,0.0,0.1529999999999987,0.1529999999999987,0.0,0.0,1.0,55.0,616.79921,10000.0,85.000001,85.000001,85.000001,85.000001,395.0,0.0,0.0,0.0,1.0,333.33500000000004,53.925,53.925,48.676,48.676,34.0,-26.22,17.41166666666667,-35.04,23.4025,0.0,1782.9,0.629999999999999,100.0,27.71,26.765,42.054,40.987,0.0,0.0,100.0,0.0,0.0,0.0,0.0,2845.857142857143,2748.6,4290.777777777777,4146.3,306.123,305.88033333333334,314.409,314.53025,21.803,20.515,21.787,21.3193,314.999998,314.999998,324.999988,324.999988,99.5588,99.50685,99.56515714285715,99.54488571428571,-0.038000000000000034,-0.16066666666666674,-0.22099999999999997,0.0033333333333334103,-0.04999999999999716,-0.047142857142851824,1.5110000000000001,1.549,37.268,29.2185,37.169,34.2455,56.207,34.3075,59.021,51.483000000000004,54.120999999999995,33.487,57.6495,49.856,53.282,33.0505,57.6105,49.29,-0.030000000000000027,-0.11149999999999993,0.10161500000000001,0.11822500000000001,0.0,206.825,206.695,203.65666666666667,203.65666666666667,190.012512,21.04372
4,0.0,0.0,0.0,1.0,1.0,0.0,0.0,1.0,0.0,100.0,1.0,1.1856,26.0,0.0,0.0,0.0,59.999996,0.0,26.0,26.0,26.0,26.0,-0.13633333333333333,0.29000000000000004,-0.0227,294.083,-2.6542,-2.760125,-1.5117500000000001,-1.6028,-262.24,216.2625,190.9095,0.0,0.0,0.0,0.0,0.009399999999999964,-5.498166666666667,-5.498166666666667,-0.5461,-0.665,-0.0903333333333336,-1.645,66.15899999999999,-0.10189999999999999,-0.237875,1.1820000000000004,100.0,1.0,1.0,204.2733333333333,0.0,0.0,0.0,0.0,0.0,0.0,0.0,8658.4,0.0,55.0,5.0,238.14333333333332,0.0,0.0,0.0,0.0,0.0,0.0,0.0,0.0,0.20700000000000074,0.20700000000000074,0.0,0.0,0.0,55.0,616.79921,10000.0,85.000001,85.000001,85.000001,85.000001,395.0,0.0,0.0,0.0,1.0,166.665,53.436,53.436,49.332,49.332,34.0,-30.1525,18.64666666666667,-32.72333333333333,19.755,0.0,1782.848,0.5749999999999993,100.0,27.448,26.514,42.479,40.995000000000005,0.0,0.0,100.0,0.0,0.0,0.0,0.0,3282.285714285714,2828.8,4066.0,3627.9,305.0,305.6736666666667,314.902,315.78625,21.8131,20.5202,21.7982,21.3286,314.999998,314.999998,324.999988,324.999988,99.55881428571429,99.50686666666667,99.5653,99.54502857142857,-0.04049999999999998,-0.1563333333333332,-0.21950000000000003,0.0018333333333333535,-0.06666666666666998,-0.057142857142849834,1.5655000000000001,1.626,37.332,29.2515,37.239000000000004,34.304,56.19,34.3495,59.0635,51.5415,54.104,33.5255,57.689499999999995,49.912,53.265,33.087,57.6475,49.34466666666667,-0.03300000000000003,-0.1140000000000001,0.10160500000000001,0.10320000000000001,0.0,207.24,207.13,204.2733333333333,204.2733333333333,190.012512,21.04372
5,0.0,0.0,0.0,1.0,1.0,0.0,0.0,1.0,0.0,100.0,1.0,1.1856,26.0,0.0,0.0,0.0,59.999996,0.0,26.0,26.0,26.0,26.0,-0.12777777777777777,0.3238000000000001,-0.021725,294.083,-2.6665,-2.778875,-1.4959,-1.5903,-259.07,216.245,190.89025,0.0,0.0,0.0,0.0,0.011266666666666536,-5.498166666666667,-5.498166666666667,-0.5371,0.401,-0.09255555555555572,-0.2469999999999999,66.299,-0.1046999999999999,-0.2156,1.1440000000000001,100.0,1.0,1.0,204.65,0.0,0.0,0.0,0.0,0.0,0.0,0.0,8674.4,0.0,55.0,5.0,238.64666666666668,1.0,0.0,0.0,0.0,0.0,0.0,0.0,0.0,0.254999999999999,0.254999999999999,0.0,0.0,1.0,55.0,616.79921,10000.0,85.000001,85.000001,85.000001,85.000001,395.0,0.0,0.0,0.0,1.0,166.665,53.833,53.833,49.438,49.438,34.0,-28.725,17.97833333333333,-34.08,21.3525,0.0,1782.8,0.15500000000000114,100.0,27.554000000000002,26.405,42.269,40.76,0.0,0.0,100.0,0.0,0.0,0.0,0.0,3180.285714285714,2712.5,4161.777777777777,3980.9,305.265,306.09066666666666,314.7555,314.93875,21.822499999999998,20.5249,21.808,21.3368,314.999998,314.999998,324.999988,324.999988,99.55881428571429,99.50688333333333,99.56544285714286,99.54515714285715,-0.028249999999999886,-0.15333333333333332,-0.23099999999999998,-0.011666666666666603,-0.03833333333332689,-0.04999999999999716,1.5284999999999997,1.5945,37.39,29.2805,37.3,34.355000000000004,56.178,34.388,59.1015,51.596000000000004,54.092,33.561,57.725,49.9645,53.251999999999995,33.121,57.6805,49.39566666666666,-0.057499999999999996,-0.09549999999999992,0.10790000000000001,0.10876500000000001,0.0,207.72500000000002,207.64,204.65,204.65,190.012512,21.04372
6,0.0,0.0,0.0,1.0,1.0,0.0,0.0,1.0,0.0,100.0,1.0,1.1856,26.0,0.0,0.0,0.0,59.999996,0.0,26.0,26.0,26.0,26.0,-0.11711111111111111,0.2896000000000001,0.004825,293.854,-2.6307,-2.814,-1.5413999999999999,-1.5866,-255.68,216.2225,190.86975,0.0,0.0,0.0,0.0,0.01323333333333332,-5.498166666666667,-5.498166666666667,-0.5318,0.11199999999999999,-0.07077777777777783,0.96,66.44800000000001,-0.09909999999999997,-0.2162,0.6639999999999997,100.0,1.0,1.0,205.10000000000002,0.0,0.0,0.0,0.0,0.0,0.0,0.0,8693.4,0.0,55.0,5.0,239.18333333333334,0.0,0.0,0.0,0.0,0.0,0.0,0.0,0.0,0.30600000000000094,0.30600000000000094,0.0,0.0,0.0,55.0,616.79921,10000.0,85.000001,85.000001,85.000001,85.000001,395.0,0.0,0.0,0.0,1.0,166.665,53.528,53.528,49.149,49.149,34.0,-26.43,21.151666666666667,-33.14666666666666,22.8425,0.0,1782.749,0.015000000000000568,100.0,27.617,26.368,42.471000000000004,41.041,0.0,0.0,100.0,0.0,0.0,0.0,0.0,3081.4285714285716,2929.4,4062.222222222222,4005.8,305.3335,305.4873333333333,314.915,314.94525,21.8323,20.5299,21.8185,21.3457,314.999998,314.999998,324.999988,324.999988,99.55881428571429,99.5069,99.56558571428572,99.5453,0.0027500000000002522,-0.12166666666666681,-0.21883333333333332,0.016166666666666663,-0.03999999999999915,-0.05142857142856627,1.5465,1.5855,37.452,29.311999999999998,37.366,34.4105,56.162,34.4285,59.1425,51.658,54.078,33.5985,57.7635,50.0235,53.236999999999995,33.157,57.716,49.45333333333333,-0.07399999999999995,-0.0685,0.11325500000000001,0.109145,0.0,208.135,208.09,205.10000000000002,205.1,190.012512,21.04372
7,0.0,0.0,0.0,1.0,1.0,0.0,0.0,1.0,0.0,100.0,1.0,1.1856,26.0,0.0,0.0,0.0,59.999996,0.0,26.0,26.0,26.0,26.0,-0.09533333333333333,0.2916000000000001,0.047525000000000005,293.594,-2.6036,-2.745125,-1.50045,-1.573,-252.49,216.2,190.8505,0.0,0.0,0.0,0.0,0.015066666666666562,-5.498166666666667,-5.498166666666667,-0.5351,-0.012499999999999956,-0.058555555555555916,1.1520000000000001,66.587,-0.07989999999999997,-0.22440000000000002,0.31400000000000006,100.0,1.0,1.0,205.48333333333335,0.0,0.0,0.0,0.0,0.0,0.0,0.0,8709.6,0.0,55.0,5.0,239.68333333333334,1.0,0.0,0.0,0.0,0.0,0.0,0.0,0.0,0.3539999999999992,0.3539999999999992,0.0,0.0,1.0,55.0,616.79921,10000.0,85.000001,85.000001,85.000001,85.000001,395.0,0.0,0.0,0.0,1.0,166.665,53.192,53.192,49.254999999999995,49.254999999999995,34.0,-26.415,22.026666666666667,-31.02,24.8275,0.0,1782.701,-0.17999999999999972,100.0,27.689,26.414,42.536,41.266,0.0,0.0,100.0,0.0,0.0,0.0,0.0,3197.0,3016.7,4018.3333333333335,4096.7,304.959,305.27933333333334,314.969,314.70875,21.8416,20.5346,21.8284,21.3541,314.999998,314.999998,324.999988,324.999988,99.55882857142858,99.50691666666667,99.56571428571428,99.54542857142857,0.02450000000000019,-0.10199999999999987,-0.19233333333333336,0.0431666666666668,-0.03833333333332689,-0.04999999999999716,1.5434999999999999,1.5525,37.51,29.3415,37.427,34.463,56.147999999999996,34.466,59.1805,51.7155,54.064,33.632999999999996,57.799,50.0785,53.222,33.19,57.749,49.507666666666665,-0.08899999999999997,-0.05499999999999994,0.10766,0.11318500000000001,0.0,208.56,208.53,205.48333333333335,205.48333333333335,190.012512,21.04372
8,0.0,0.0,0.0,1.0,1.0,0.0,0.0,1.0,0.0,100.0,1.0,1.1856,26.0,0.0,0.0,0.0,59.999996,0.0,26.0,26.0,26.0,26.0,-0.03422222222222222,0.28690000000000015,0.024875,293.945,-2.6917,-2.732,-1.4848,-1.5791,-248.89,216.1725,190.82875,0.0,0.0,0.0,0.0,0.017166666666666552,-5.498166666666667,-5.498166666666667,-0.5375,-0.6160000000000001,-0.04111111111111132,0.7809999999999997,66.743,-0.05989999999999995,-0.217125,-0.07200000000000006,100.0,1.0,1.0,205.92000000000002,0.0,0.0,0.0,0.0,0.0,0.0,0.0,8728.2,0.0,55.0,5.0,240.24666666666667,0.0,0.0,0.0,0.0,0.0,0.0,0.0,0.0,0.40800000000000125,0.40800000000000125,0.0,0.0,0.0,55.0,616.79921,10000.0,85.000001,85.000001,85.000001,85.000001,395.0,0.0,0.0,0.0,1.0,166.665,54.062,54.062,48.676,48.676,34.0,-23.5575,22.235,-29.673333333333336,26.7825,0.0,1782.647,-0.34999999999999964,100.0,27.201,26.37,42.501,41.411,0.0,0.0,100.0,0.0,0.0,0.0,0.0,2930.4285714285716,2970.2,4064.5555555555557,4093.1000000000004,305.9565,305.4683333333333,314.82375,314.6555,21.8518,20.54,21.8395,21.3635,314.999998,314.999998,324.999988,324.999988,99.55882857142858,99.50693333333334,99.56587142857143,99.54557142857144,0.045500000000000096,-0.08299999999999996,-0.15783333333333338,0.07650000000000001,-0.054999999999999716,-0.06571428571428584,1.525,1.527,37.574,29.375,37.497,34.522,56.129000000000005,34.507,59.223,51.78,54.046,33.671,57.838499999999996,50.1405,53.204,33.226,57.785,49.568,-0.10449999999999993,-0.045500000000000096,0.11042,0.11731000000000001,0.0,209.03,209.035,205.92000000000002,205.92000000000002,190.012512,21.04372
9,0.0,0.0,0.0,1.0,1.0,0.0,0.0,1.0,0.0,100.0,1.0,1.1856,26.0,0.0,0.0,0.0,59.999996,0.0,26.0,26.0,26.0,26.0,-0.016555555555555556,0.29469999999999996,-0.0216,293.61,-2.6818,-2.733,-1.54315,-1.5558,-245.88,216.1475,190.810125,0.0,0.0,0.0,0.0,0.018933333333333358,-5.498166666666667,-5.498166666666667,-0.5433,0.5905,-0.04355555555555579,-0.45500000000000007,66.87,-0.041999999999999926,-0.218475,-0.12399999999999967,100.0,1.0,1.0,206.43666666666667,0.0,0.0,0.0,0.0,0.0,0.0,0.0,8750.0,0.0,55.0,5.0,240.70333333333332,1.0,0.0,0.0,0.0,0.0,0.0,0.0,0.0,0.4529999999999994,0.4529999999999994,0.0,0.0,1.0,55.0,616.79921,10000.0,85.000001,85.000001,85.000001,85.000001,395.0,0.0,0.0,0.0,1.0,166.665,52.856,52.856,49.652,49.652,34.0,-27.16,23.011666666666667,-28.723333333333333,25.015,0.0,1782.602,-0.4900000000000002,100.0,27.531,26.933,42.073,41.459,0.0,0.0,100.0,0.0,0.0,0.0,0.0,3358.714285714286,2961.5,3962.222222222222,3981.5,304.727,305.231,315.24025,314.94975,21.860500000000002,20.5446,21.8486,21.371299999999998,314.999998,314.999998,324.999988,324.999988,99.55884285714286,99.50693333333334,99.566,99.5457,0.052000000000000046,-0.06933333333333325,-0.15100000000000002,0.06899999999999995,-0.03833333333332689,-0.034285714285715585,1.58,1.579,37.628,29.404,37.553,34.570499999999996,56.117000000000004,34.542,59.254999999999995,51.832499999999996,54.035,33.703,57.8685,50.1905,53.192,33.257,57.8125,49.617,-0.11249999999999993,-0.03849999999999998,0.10671000000000001,0.10405500000000001,0.0,209.425,209.425,206.43666666666667,206.43666666666667,190.012512,21.04372
10,0.0,0.0,0.0,1.0,1.0,0.0,0.0,1.0,0.0,100.0,1.0,1.1856,26.0,0.0,0.0,0.0,59.999996,0.0,26.0,26.0,26.0,26.0,0.012444444444444445,0.28669999999999995,-0.018775,293.442,-2.6624,-2.713,-1.5249000000000001,-1.5354,-242.26999999999998,216.12,190.788125,0.0,0.0,0.0,0.0,0.02103333333333335,-5.498166666666667,-5.498166666666667,-0.5202,-0.532,-0.00044444444444424747,0.3810000000000002,67.027,-0.01959999999999995,-0.2096,-0.476,100.0,1.0,1.0,206.69666666666666,0.0,0.0,0.0,0.0,0.0,0.0,0.0,8761.1,0.0,55.0,5.0,241.26999999999998,0.0,0.0,0.0,0.0,0.0,0.0,1.0,0.0,0.5069999999999979,0.5069999999999979,0.0,0.0,0.0,55.0,616.79921,10000.0,85.000001,85.000001,85.000001,85.000001,395.0,0.0,0.0,0.0,1.0,166.665,53.94,53.94,48.096000000000004,48.096000000000004,34.0,-21.3975,22.251666666666665,-30.32,28.6125,0.0,1782.548,-0.5999999999999996,100.0,27.415,26.944,42.528999999999996,42.272999999999996,0.0,0.0,100.0,0.0,0.0,0.0,0.0,2856.4285714285716,2825.7,4267.888888888889,4212.8,306.1845,305.69533333333334,314.42575,314.30375,21.8709,20.5501,21.8597,21.381,314.999998,314.999998,324.999988,324.999988,99.55884285714286,99.50695,99.56614285714285,99.54584285714286,0.07725000000000026,-0.05233333333333312,-0.1256666666666666,0.09850000000000003,-0.04833333333333201,-0.05571428571428072,1.5,1.4685,37.693,29.438000000000002,37.623000000000005,34.631,56.102000000000004,34.5815,59.299,51.9005,54.021,33.7395,57.9095,50.2555,53.177,33.2915,57.8505,49.681,-0.12749999999999995,-0.02400000000000002,0.105605,0.114555,0.0,209.905,209.93,206.69666666666666,206.69666666666666,190.012512,21.04372
11,0.0,0.0,0.0,1.0,1.0,0.0,0.0,1.0,0.0,100.0,1.0,1.1856,26.0,0.0,0.0,0.0,59.999996,0.0,26.0,26.0,26.0,26.0,0.02588888888888889,0.2744,-0.06965,293.945,-2.6999,-2.700875,-1.5782500000000002,-1.526,-238.84,216.0925,190.76725,0.0,0.0,0.0,0.0,0.022599999999999953,-5.498166666666667,-5.498166666666667,-0.5622,-0.10699999999999998,0.02388888888888885,0.1770000000000005,67.168,0.00019999999999997797,-0.236275,-0.7060000000000004,100.0,1.0,1.0,207.45,0.0,0.0,0.0,0.0,0.0,0.0,0.0,8793.0,0.0,55.0,5.0,241.77666666666664,1.0,0.0,0.0,0.0,0.0,0.0,1.0,0.0,0.5579999999999998,0.5579999999999998,0.0,0.0,1.0,55.0,616.79921,10000.0,85.000001,85.000001,85.000001,85.000001,395.0,0.0,0.0,0.0,1.0,166.665,53.253,53.253,49.728,49.728,34.0,-22.169999999999998,25.973333333333333,-24.34,26.3575,0.0,1782.498,-0.6549999999999994,100.0,27.335,27.069,42.016,42.091,0.0,0.0,100.0,0.0,0.0,0.0,0.0,2985.285714285714,3136.4,3683.777777777778,3840.9,305.718,304.86266666666666,315.907,315.32725,21.8804,20.5554,21.87,21.3899,314.999998,314.999998,324.999988,324.999988,99.55885714285715,99.50695,99.56628571428571,99.54598571428572,0.09650000000000025,-0.024666666666666615,-0.10250000000000004,0.13283333333333336,-0.04833333333333201,-0.06857142857143117,1.6465,1.6225,37.751999999999995,29.471,37.687,34.687,56.087,34.62,59.333,51.96,54.006,33.775,57.941,50.3135,53.161,33.3255,57.879,49.73733333333333,-0.125,-0.02300000000000013,0.11318500000000001,0.106465,0.0,210.315,210.375,207.45,207.45,190.012512,21.04372
12,0.0,0.0,0.0,1.0,1.0,0.0,0.0,1.0,0.0,100.0,1.0,1.1856,26.0,0.0,0.0,0.0,59.999996,0.0,26.0,26.0,26.0,26.0,0.046,0.29259999999999997,0.019575000000000002,293.304,-2.7507,-2.69875,-1.54345,-1.5286,-235.62,216.0675,190.7465,0.0,0.0,0.0,0.0,0.025466666666666526,-5.498166666666667,-5.498166666666667,-0.5459,0.28700000000000003,0.00955555555555554,0.6660000000000004,67.307,0.017800000000000038,-0.207375,-0.7400000000000002,100.0,1.0,1.0,207.62333333333333,0.0,0.0,0.0,0.0,0.0,0.0,0.0,8800.4,0.0,55.0,5.0,242.27666666666664,0.0,0.0,0.0,0.0,0.0,0.0,1.0,0.0,0.6059999999999981,0.6059999999999981,0.0,0.0,0.0,55.0,616.79921,10000.0,85.000001,85.000001,85.000001,85.000001,395.0,0.0,0.0,0.0,1.0,166.665,53.177,53.177,48.34,48.34,34.0,-22.445,26.54,-27.433333333333334,30.240000000000002,0.0,1782.449,-0.6449999999999996,100.0,27.274,27.228,42.086,42.048,0.0,0.0,100.0,0.0,0.0,0.0,0.0,3020.0,3155.8,4161.111111111111,4196.9,305.617,304.83733333333333,314.6825,314.48375,21.8894,20.5605,21.8798,21.3983,314.999998,314.999998,324.999988,324.999988,99.55887142857142,99.50695,99.56642857142857,99.54612857142857,0.1080000000000001,-0.014000000000000012,-0.08583333333333332,0.14116666666666666,-0.03999999999999915,-0.04571428571428271,1.5394999999999999,1.52,37.808,29.503,37.748999999999995,34.7395,56.074,34.6555,59.3695,52.0175,53.994,33.808,57.975,50.3685,53.147999999999996,33.3575,57.9105,49.791666666666664,-0.123,-0.025500000000000078,0.11434500000000002,0.10559,0.0,210.76,210.82,207.62333333333333,207.62333333333333,190.012512,21.04372
13,0.0,0.0,0.0,1.0,1.0,0.0,0.0,1.0,0.0,100.0,1.0,1.1856,26.0,0.0,0.0,0.0,59.999996,0.0,26.0,26.0,26.0,26.0,0.07311111111111111,0.2894000000000001,0.040100000000000004,292.953,-2.7352,-2.681625,-1.5799,-1.5098,-232.18,216.04250000000002,190.72475,0.0,0.0,0.0,0.0,0.026899999999999924,-5.498166666666667,-5.498166666666667,-0.5395,-0.10699999999999998,0.014111111111110963,-0.4939999999999998,67.451,0.027200000000000113,-0.21707500000000002,-0.7939999999999996,100.0,1.0,1.0,208.01999999999998,0.0,0.0,0.0,0.0,0.0,0.0,0.0,8817.1,0.0,55.0,5.0,242.79666666666668,1.0,0.0,0.0,0.0,0.0,0.0,1.0,0.0,0.657,0.657,0.0,0.0,1.0,55.0,616.79921,10000.0,85.000001,85.000001,85.000001,85.000001,395.0,0.0,0.0,0.0,1.0,166.665,52.872,52.872,48.325,48.325,34.0,-22.3,26.118333333333332,-27.523333333333333,30.4125,0.0,1782.398,-0.8200000000000003,100.0,27.411,27.596,42.222,42.696,0.0,0.0,100.0,0.0,0.0,0.0,0.0,3141.4285714285716,3043.2,4171.222222222223,4250.0,305.41,304.99733333333336,314.70525,314.24675,21.899,20.5659,21.8902,21.4075,314.999998,314.999998,324.999988,324.999988,99.55888571428571,99.50695,99.56657142857142,99.54627142857143,0.12775000000000025,0.0,-0.07550000000000001,0.13650000000000007,-0.03833333333332689,-0.04285714285714448,1.5145,1.503,37.869,29.5365,37.814,34.7965,56.063,34.6935,59.408500000000004,52.0815,53.983000000000004,33.843,58.010999999999996,50.43,53.137,33.391,57.9435,49.852000000000004,-0.14400000000000002,-0.008499999999999952,0.10395000000000001,0.10046500000000001,0.0,211.195,211.235,208.01999999999998,208.01999999999998,190.012512,21.04372
14,0.0,0.0,0.0,1.0,1.0,0.0,0.0,1.0,0.0,100.0,1.0,1.1856,26.0,0.0,0.0,0.0,59.999996,0.0,26.0,26.0,26.0,26.0,0.09477777777777778,0.276,-0.007500000000000001,293.213,-2.7268,-2.63025,-1.5871,-1.5136,-228.74,216.01999999999998,190.703375,0.0,0.0,0.0,0.0,0.028899999999999926,-5.498166666666667,-5.498166666666667,-0.5496,-0.10099999999999998,0.04522222222222205,1.21,67.592,0.03859999999999997,-0.22942500000000002,-1.0380000000000003,100.0,1.0,1.0,208.55333333333334,0.0,0.0,0.0,0.0,0.0,0.0,0.0,8839.8,0.0,55.0,5.0,243.30333333333334,0.0,0.0,0.0,0.0,0.0,0.0,1.0,0.0,0.7079999999999984,0.7079999999999984,0.0,0.0,0.0,55.0,616.79921,10000.0,85.000001,85.000001,85.000001,85.000001,395.0,0.0,0.0,0.0,1.0,166.665,52.994,52.994,48.538,48.538,34.0,-19.7175,27.856666666666666,-24.623333333333335,31.435000000000002,0.0,1782.347,-0.9399999999999995,100.0,27.465,27.528,42.243,42.78,0.0,0.0,100.0,0.0,0.0,0.0,0.0,2903.4285714285716,3221.7,3917.4444444444443,4177.0,305.921,304.63733333333334,315.2595,314.5265,21.9085,20.5713,21.9006,21.4165,314.999998,314.999998,324.999988,324.999988,99.5589,99.50696666666667,99.56671428571428,99.54641428571429,0.14674999999999994,0.01633333333333331,-0.05816666666666659,0.1721666666666668,-0.041666666666671404,-0.04999999999999716,1.5709999999999997,1.5265,37.928,29.5705,37.879000000000005,34.8535,56.052,34.7315,59.445,52.1445,53.973,33.878,58.045,50.4905,53.125,33.4245,57.9745,49.911,-0.14700000000000002,-0.00649999999999995,0.10931500000000001,0.112475,0.0,211.625,211.69,208.55333333333334,208.55333333333334,190.012512,21.04372
15,0.0,0.0,0.0,1.0,1.0,0.0,0.0,1.0,0.0,100.0,1.0,1.1856,26.0,0.0,0.0,0.0,59.999996,0.0,26.0,26.0,26.0,26.0,0.11922222222222223,0.2893000000000001,-0.04925,293.259,-2.7106,-2.5835,-1.6192000000000002,-1.4551,-225.69,216.0,190.684375,0.0,0.0,0.0,0.0,0.03066666666666651,-5.498166666666667,-5.498166666666667,-0.5402,0.2985,0.07288888888888878,-0.21599999999999975,67.718,0.050899999999999945,-0.21152500000000002,-1.1339999999999995,100.0,1.0,1.0,208.92666666666668,0.0,0.0,0.0,0.0,0.0,0.0,0.0,8855.6,0.0,55.0,5.0,243.75666666666666,1.0,0.0,0.0,0.0,0.0,0.0,1.0,0.0,0.7530000000000001,0.7530000000000001,0.0,0.0,1.0,55.0,616.79921,10000.0,85.000001,85.000001,85.000001,85.000001,395.0,0.0,0.0,0.0,1.0,166.665,53.223,53.223,48.629999999999995,48.629999999999995,34.0,-19.0775,26.415,-25.136666666666663,31.705,0.0,1782.302,-0.9849999999999994,100.0,27.341,27.687,41.927,42.911,0.0,0.0,100.0,0.0,0.0,0.0,0.0,2857.5714285714284,3081.7,3958.1111111111113,4285.3,306.1885,304.889,315.252,314.2135,21.9169,20.5761,21.9097,21.4245,314.999998,314.999998,324.999988,324.999988,99.55891428571428,99.50696666666667,99.56682857142857,99.54654285714285,0.14674999999999994,0.01966666666666672,-0.05449999999999999,0.1725000000000001,-0.04999999999999716,-0.04142857142856826,1.5545,1.523,37.980000000000004,29.6005,37.936,34.9035,56.043,34.765,59.4765,52.1995,53.963,33.909,58.074,50.544,53.114999999999995,33.454499999999996,58.0005,49.96366666666667,-0.15249999999999997,0.0024999999999999467,0.10727500000000001,0.108935,0.0,212.04000000000002,212.085,208.92666666666668,208.92666666666668,190.012512,21.04372
16,0.0,0.0,0.0,1.0,1.0,0.0,0.0,1.0,0.0,100.0,1.0,1.1856,26.0,0.0,0.0,0.0,59.999996,0.0,26.0,26.0,26.0,26.0,0.13322222222222224,0.28390000000000004,-0.0658,293.213,-2.7988,-2.59675,-1.5866,-1.5191,-222.03,215.98250000000002,190.661,0.0,0.0,0.0,0.0,0.03279999999999994,-5.498166666666667,-5.498166666666667,-0.5633,-0.6620000000000001,0.057777777777777706,-1.0619999999999998,67.868,0.06289999999999996,-0.227075,-1.1799999999999997,100.0,1.0,1.0,209.39,0.0,0.0,0.0,0.0,0.0,0.0,0.0,8875.2,0.0,55.0,5.0,244.3,0.0,0.0,0.0,0.0,0.0,0.0,1.0,0.0,0.8069999999999986,0.8069999999999986,0.0,0.0,0.0,55.0,616.79921,10000.0,85.000001,85.000001,85.000001,85.000001,395.0,0.0,0.0,0.0,1.0,166.665,52.979,52.979,48.416,48.416,34.0,-20.6825,27.905,-23.006666666666664,31.6725,0.0,1782.248,-0.8900000000000006,100.0,27.021,27.78,42.162,43.039,0.0,0.0,100.0,0.0,0.0,0.0,0.0,3041.857142857143,3191.0,3921.0,4057.3,305.8275,304.6053333333333,315.30475,314.7245,21.9266,20.5819,21.9208,21.4341,314.999998,314.999998,324.999988,324.999988,99.55892857142857,99.50696666666667,99.567,99.5467,0.1572499999999999,0.028000000000000025,-0.026833333333333376,0.19566666666666688,-0.04333333333332945,-0.048571428571428044,1.5819999999999999,1.5374999999999999,38.041,29.637,38.004999999999995,34.963499999999996,56.028,34.8065,59.5165,52.2655,53.949,33.9475,58.1115,50.6075,53.099000000000004,33.4915,58.035,50.025999999999996,-0.14649999999999996,-0.007000000000000117,0.101775,0.11151000000000001,0.0,212.445,212.53,209.39,209.39,190.012512,21.04372
17,0.0,0.0,0.0,1.0,1.0,0.0,0.0,1.0,0.0,100.0,1.0,1.1856,26.0,0.0,0.0,0.0,59.999996,0.0,26.0,26.0,26.0,26.0,0.12711111111111112,0.28869999999999996,0.007975000000000001,292.908,-2.7613,-2.577375,-1.62745,-1.4798,-218.76999999999998,215.9675,190.639625,0.0,0.0,0.0,0.0,0.03466666666666651,-5.498166666666667,-5.498166666666667,-0.5508000000000001,0.513,0.03744444444444439,-0.6839999999999997,68.001,0.06669999999999998,-0.20720000000000002,-1.12,100.0,1.0,1.0,209.75333333333333,0.0,0.0,0.0,0.0,0.0,0.0,0.0,8890.7,0.0,55.0,5.0,244.77333333333334,1.0,0.0,0.0,0.0,0.0,0.0,1.0,0.0,0.8550000000000004,0.8550000000000004,0.0,0.0,1.0,55.0,616.79921,10000.0,85.000001,85.000001,85.000001,85.000001,395.0,0.0,0.0,0.0,1.0,333.33500000000004,52.826,52.826,48.248,48.248,34.0,-20.4625,26.435,-26.373333333333335,32.475,0.0,1782.199,-0.9900000000000002,100.0,27.447,28.064,41.963,43.012,0.0,0.0,100.0,0.0,0.0,0.0,0.0,3088.285714285714,3028.0,4235.666666666667,4225.4,305.621,305.10066666666665,314.68475,314.4105,21.9355,20.5872,21.9305,21.4426,314.999998,314.999998,324.999988,324.999988,99.55895714285714,99.50696666666667,99.56712857142857,99.54684285714286,0.16449999999999987,0.03633333333333333,-0.03749999999999998,0.18999999999999995,-0.051666666666669414,-0.060000000000002274,1.5554999999999999,1.5005,38.097,29.6695,38.065,35.0165,56.019,34.845,59.55,52.324,53.941,33.983000000000004,58.1425,50.6635,53.09,33.5255,58.063,50.081,-0.14949999999999997,0.0,0.10791500000000001,0.11005500000000001,0.0,212.9,212.985,209.75333333333333,209.75333333333333,190.012512,21.04372
18,0.0,0.0,0.0,1.0,1.0,0.0,0.0,1.0,0.0,100.0,1.0,1.1856,26.0,0.0,0.0,0.0,59.999996,0.0,26.0,26.0,26.0,26.0,0.12266666666666667,0.27470000000000017,-0.0005,292.816,-2.7928,-2.552125,-1.6466,-1.4236,-215.3,215.95499999999998,190.61725,0.0,0.0,0.0,0.0,0.036699999999999955,-5.498166666666667,-5.498166666666667,-0.5615,-0.4750000000000001,0.06699999999999995,1.0670000000000002,68.141,0.06980000000000008,-0.225525,-1.3179999999999996,100.0,1.0,1.0,210.2,0.0,0.0,0.0,0.0,0.0,0.0,0.0,8909.5,0.0,55.0,5.0,245.28,0.0,0.0,0.0,0.0,0.0,0.0,1.0,0.0,0.9059999999999988,0.9059999999999988,0.0,0.0,0.0,55.0,616.79921,10000.0,85.000001,85.000001,85.000001,85.000001,395.0,0.0,0.0,0.0,1.0,166.665,52.643,52.643,48.08,48.08,34.0,-19.377499999999998,30.236666666666668,-24.153333333333332,32.09,0.0,1782.149,-1.209999999999999,100.0,27.387,27.825,42.387,43.352000000000004,0.0,0.0,100.0,0.0,0.0,0.0,0.0,2990.4285714285716,3354.6,3975.8888888888887,4201.0,305.7955,304.2986666666667,315.1805,314.49425,21.9448,20.5927,21.9409,21.4518,314.999998,314.999998,324.999988,324.999988,99.55897142857143,99.50698333333334,99.56727142857143,99.54698571428571,0.18175000000000008,0.05900000000000016,-0.024499999999999966,0.2038333333333333,-0.03833333333332689,-0.0714285714285694,1.564,1.5145,38.155,29.704,38.131,35.074,56.009,34.885,59.588,52.3885,53.931,34.019999999999996,58.178,50.7255,53.079,33.561,58.095,50.141999999999996,-0.17149999999999999,0.01849999999999996,0.10656500000000001,0.11097000000000001,0.0,213.3,213.39499999999998,210.2,210.2,190.012512,21.04372
19,0.0,0.0,0.0,1.0,1.0,0.0,0.0,1.0,0.0,100.0,1.0,1.1856,26.0,0.0,0.0,0.0,59.999996,0.0,26.0,26.0,26.0,26.0,0.14855555555555555,0.2885,0.038650000000000004,292.389,-2.7634,-2.540375,-1.66185,-1.4045,-212.01999999999998,215.9475,190.596,0.0,0.0,0.0,0.0,0.03859999999999997,-5.498166666666667,-5.498166666666667,-0.551,0.8594999999999999,0.07766666666666677,0.9340000000000002,68.272,0.07950000000000013,-0.21180000000000002,-1.6739999999999995,100.0,1.0,1.0,210.57999999999998,0.0,0.0,0.0,0.0,0.0,0.0,0.0,8925.7,0.0,55.0,5.0,245.75,1.0,0.0,0.0,0.0,0.0,0.0,1.0,0.0,0.9540000000000006,0.9540000000000006,0.0,0.0,1.0,55.0,616.79921,10000.0,85.000001,85.000001,85.000001,85.000001,395.0,0.0,0.0,0.0,1.0,333.33500000000004,52.063,52.063,47.958,47.958,34.0,-18.4675,31.198333333333334,-24.286666666666665,34.475,0.0,1782.1,-1.4649999999999999,100.0,27.853,28.294,42.109,43.324,0.0,0.0,100.0,0.0,0.0,0.0,0.0,3018.714285714286,3365.2,4110.888888888889,4422.7,305.5895,304.167,314.91275,314.0275,21.9537,20.598,21.9506,21.4604,314.999998,314.999998,324.999988,324.999988,99.559,99.50698333333334,99.5674,99.54712857142857,0.20425000000000004,0.07766666666666655,-0.005499999999999949,0.21583333333333332,-0.061666666666667425,-0.03999999999999915,1.5684999999999998,1.501,38.211,29.738,38.191,35.1275,56.001999999999995,34.926,59.6205,52.4475,53.924,34.058,58.208,50.783,53.071,33.598,58.122,50.19833333333334,-0.18899999999999995,0.03500000000000003,0.100805,0.10587500000000001,0.0,213.735,213.85000000000002,210.57999999999998,210.57999999999998,190.012512,21.04372
20,0.0,0.0,0.0,1.0,1.0,0.0,0.0,1.0,0.0,100.0,1.0,1.1856,26.0,0.0,0.0,0.0,59.999996,0.0,26.0,26.0,26.0,26.0,0.18922222222222224,0.27390000000000003,0.041125,292.786,-2.8225,-2.5942499999999997,-1.596,-1.5197,-208.32999999999998,215.945,190.57225,0.0,0.0,0.0,0.0,0.0407333333333334,-5.498166666666667,-5.498166666666667,-0.5581,-1.2734999999999999,0.08533333333333326,0.3360000000000003,68.42099999999999,0.09860000000000002,-0.226,-1.8839999999999995,100.0,1.0,1.0,210.95,0.0,0.0,0.0,0.0,0.0,0.0,0.0,8941.3,0.0,55.0,5.0,246.29000000000002,0.0,0.0,0.0,0.0,0.0,0.0,0.0,0.0,1.0079999999999991,1.0079999999999991,0.0,0.0,0.0,55.0,616.79921,10000.0,85.000001,85.000001,85.000001,85.000001,395.0,0.0,0.0,0.0,1.0,166.665,53.177,53.177,47.501,47.501,34.0,-18.0775,29.616666666666667,-22.22,35.6875,0.0,1782.047,-0.8900000000000006,100.0,27.17,27.984,42.58,43.852000000000004,0.0,0.0,100.0,0.0,0.0,0.0,0.0,2784.5714285714284,3240.4,3998.4444444444443,4277.8,306.467,304.60266666666666,315.015,314.19075,21.9633,20.6039,21.9617,21.4703,314.999998,314.999998,324.999988,324.999988,99.55901428571428,99.507,99.56755714285714,99.54728571428572,0.18049999999999988,0.061666666666666536,0.008333333333333304,0.22533333333333339,-0.05333333333332746,-0.044285714285713595,1.5230000000000001,1.4655,38.271,29.7745,38.260999999999996,35.189,55.989999999999995,34.97,59.662,52.5175,53.912,34.099000000000004,58.2465,50.85,53.058,33.637,58.1575,50.26433333333333,-0.15200000000000002,0.0050000000000000044,0.11289500000000001,0.09451000000000001,0.0,214.125,214.26,210.95,210.95,190.012512,21.04372
21,0.0,0.0,0.0,1.0,1.0,0.0,0.0,1.0,0.0,100.0,1.0,1.1856,26.0,0.0,0.0,0.0,59.999996,0.0,26.0,26.0,26.0,26.0,0.16333333333333336,0.2815000000000001,-0.07112500000000001,293.076,-2.7321,-2.650875,-1.6507,-1.4893,-205.25,215.945,190.551875,0.0,0.0,0.0,0.0,0.04253333333333331,-5.498166666666667,-5.498166666666667,-0.5798,0.5055000000000001,0.055777777777777704,-1.2690000000000001,68.53999999999999,0.10840000000000005,-0.22717500000000002,-1.1559999999999997,100.0,1.0,1.0,211.55666666666667,0.0,0.0,0.0,0.0,0.0,0.0,0.0,8967.1,0.0,55.0,5.0,246.71333333333334,1.0,0.0,0.0,0.0,0.0,0.0,0.0,0.0,1.0530000000000008,1.0530000000000008,0.0,0.0,1.0,55.0,616.79921,10000.0,85.000001,85.000001,85.000001,85.000001,395.0,0.0,0.0,0.0,1.0,333.33500000000004,52.612,52.612,48.737,48.737,34.0,-21.455,26.493333333333332,-22.130000000000003,31.810000000000002,0.0,1782.001,0.10000000000000142,100.0,27.413,28.289,41.894,43.438,0.0,0.0,100.0,0.0,0.0,0.0,0.0,3040.4285714285716,3114.8,3931.0,3979.3,305.697,304.718,315.4135,315.017,21.9716,20.609,21.9706,21.4782,314.999998,314.999998,324.999988,324.999988,99.55904285714286,99.507,99.56768571428572,99.54741428571428,0.12875000000000014,-0.0040000000000000036,0.0028333333333334654,0.23016666666666685,-0.05666666666667197,-0.0357142857142847,1.637,1.5935,38.322,29.805999999999997,38.316,35.2385,55.980999999999995,35.0065,59.69,52.57,53.903,34.132999999999996,58.2725,50.9005,53.048,33.6695,58.1805,50.314,-0.07999999999999996,-0.08050000000000002,0.10870500000000001,0.10112,0.0,214.555,214.625,211.55666666666667,211.55666666666667,190.012512,21.04372
22,0.0,0.0,0.0,1.0,1.0,0.0,0.0,1.0,0.0,100.0,1.0,1.1856,26.0,0.0,0.0,0.0,59.999996,0.0,26.0,26.0,26.0,26.0,0.08622222222222223,0.2811000000000001,0.006925000000000001,292.572,-2.7054,-2.664625,-1.6327,-1.4924,-201.55,215.95,190.526625,0.0,0.0,0.0,0.0,0.04469999999999996,-5.498166666666667,-5.498166666666667,-0.5569000000000001,0.010000000000000009,0.04833333333333312,-0.847,68.689,0.07830000000000004,-0.20670000000000002,0.18400000000000016,100.0,1.0,1.0,211.78,0.0,0.0,0.0,0.0,0.0,0.0,0.0,8976.5,0.0,55.0,5.0,247.25,0.0,0.0,0.0,0.0,0.0,0.0,0.0,0.0,1.1069999999999993,1.1069999999999993,0.0,0.0,0.0,55.0,616.79921,10000.0,85.000001,85.000001,85.000001,85.000001,395.0,0.0,0.0,0.0,1.0,166.665,52.872,52.872,47.501,47.501,34.0,-22.232499999999998,23.698333333333334,-27.276666666666664,32.322500000000005,0.0,1781.948,0.6950000000000003,100.0,27.523,28.261,42.495000000000005,43.652,0.0,0.0,100.0,0.0,0.0,0.0,0.0,2924.4285714285716,3017.5,4223.666666666667,4304.3,306.023,305.0006666666667,314.66175,314.18825,21.9815,20.6149,21.9817,21.4879,314.999998,314.999998,324.999988,324.999988,99.55905714285714,99.50701666666667,99.56782857142858,99.54757142857143,0.08099999999999996,-0.05333333333333323,-0.047666666666666635,0.16749999999999998,-0.046666666666666856,-0.04571428571428271,1.4865,1.4915,38.384,29.843,38.385999999999996,35.2995,55.967,35.048,59.7315,52.6375,53.89,34.1715,58.311,50.966,53.033,33.707,58.2155,50.37833333333333,-0.023499999999999965,-0.13050000000000006,0.10163000000000001,0.10423500000000001,0.0,215.075,215.05,211.78,211.78,190.012512,21.04372
23,0.0,0.0,0.0,1.0,1.0,0.0,0.0,1.0,0.0,100.0,1.0,1.1856,26.0,0.0,0.0,0.0,59.999996,0.0,26.0,26.0,26.0,26.0,0.027444444444444445,0.24260000000000015,-0.033775,292.542,-2.7043,-2.645625,-1.5321,-1.5834000000000001,-198.24,215.95499999999998,190.5045,0.0,0.0,0.0,0.0,0.046599999999999975,-5.498166666666667,-5.498166666666667,-0.5758,-0.22399999999999998,0.016000000000000014,-1.3079999999999998,68.81700000000001,0.02750000000000008,-0.233375,0.9539999999999997,100.0,1.0,1.0,212.29000000000002,0.0,0.0,0.0,0.0,0.0,0.0,0.0,8998.2,0.0,55.0,5.0,247.71333333333334,1.0,0.0,0.0,0.0,0.0,0.0,0.0,0.0,1.1550000000000011,1.1550000000000011,0.0,0.0,1.0,55.0,616.79921,10000.0,85.000001,85.000001,85.000001,85.000001,395.0,0.0,0.0,0.0,1.0,333.33500000000004,52.124,52.124,48.522999999999996,48.522999999999996,34.0,-26.6325,22.493333333333332,-26.74,27.875,0.0,1781.898,0.8150000000000013,100.0,27.979,28.156,42.833,43.644999999999996,0.0,0.0,100.0,0.0,0.0,0.0,0.0,3288.285714285714,3040.5,3957.5555555555557,3914.4,304.9305,305.008,315.219,315.051,21.9904,20.6201,21.9916,21.4966,314.999998,314.999998,324.999988,324.999988,99.55905714285714,99.50701666666667,99.56797142857143,99.54771428571429,0.05624999999999991,-0.08133333333333326,-0.10683333333333334,0.1260000000000001,-0.04999999999999716,-0.03857142857143003,1.5339999999999998,1.5525,38.44,29.875999999999998,38.447,35.3535,55.953,35.087,59.766,52.696,53.876000000000005,34.207,58.343,51.0225,53.019,33.741,58.2445,50.43333333333334,-0.01649999999999996,-0.14149999999999996,0.10876500000000001,0.11214500000000001,0.0,215.47500000000002,215.38,212.29000000000002,212.29000000000002,190.012512,21.04372
24,0.0,0.0,0.0,1.0,1.0,0.0,0.0,1.0,0.0,100.0,1.0,1.1856,26.0,0.0,0.0,0.0,59.999996,0.0,26.0,26.0,26.0,26.0,-0.04711111111111112,0.28290000000000015,0.00365,292.831,-2.7001,-2.68425,-1.55365,-1.5469,-194.94,215.9625,190.482,0.0,0.0,0.0,0.0,0.04853333333333332,-5.498166666666667,-5.498166666666667,-0.5785,-0.504,-0.00044444444444424747,-0.375,68.946,-0.02169999999999994,-0.21655000000000002,1.2060000000000004,100.0,1.0,1.0,212.58666666666667,0.0,0.0,0.0,0.0,0.0,0.0,0.0,9010.7,0.0,55.0,5.0,248.18,0.0,0.0,0.0,0.0,0.0,0.0,0.0,0.0,1.2029999999999994,1.2029999999999994,0.0,0.0,0.0,55.0,616.79921,10000.0,85.000001,85.000001,85.000001,85.000001,395.0,0.0,0.0,0.0,1.0,166.665,53.329,53.329,47.516,47.516,34.0,-25.2775,19.701666666666668,-32.7,26.002499999999998,0.0,1781.852,0.8099999999999987,100.0,27.818,27.683,43.09,43.244,0.0,0.0,100.0,0.0,0.0,0.0,0.0,2988.142857142857,2839.4,4342.888888888889,4038.4,305.8695,305.733,314.31075,314.85975,21.999299999999998,20.6251,22.0014,21.5051,314.999998,314.999998,324.999988,324.999988,99.55905714285714,99.50703333333334,99.56811428571429,99.54785714285714,0.01750000000000007,-0.1146666666666667,-0.14949999999999997,0.07816666666666672,-0.046666666666666856,-0.034285714285715585,1.501,1.536,38.495999999999995,29.907,38.509,35.4065,55.937,35.124,59.8025,52.752,53.861999999999995,34.2415,58.376999999999995,51.076,53.004000000000005,33.774,58.2755,50.486000000000004,-0.013000000000000012,-0.137,0.09733000000000001,0.1164,0.0,215.89,215.79000000000002,212.58666666666667,212.58666666666667,190.012512,21.04372
25,0.0,0.0,0.0,1.0,1.0,0.0,0.0,1.0,0.0,100.0,1.0,1.1856,26.0,0.0,0.0,0.0,59.999996,0.0,26.0,26.0,26.0,26.0,-0.08588888888888889,0.26270000000000016,-0.046375,292.709,-2.7383,-2.6727499999999997,-1.5443,-1.5723,-191.20999999999998,215.9675,190.455125,0.0,0.0,0.0,0.0,0.05069999999999997,-5.498166666666667,-5.498166666666667,-0.6125,0.15849999999999997,-0.02488888888888896,-1.754,69.088,-0.0673999999999999,-0.22540000000000002,1.3720000000000008,100.0,1.0,1.0,213.19,0.0,0.0,0.0,0.0,0.0,0.0,0.0,9036.3,0.0,55.0,5.0,248.69,1.0,0.0,0.0,0.0,0.0,0.0,0.0,0.0,1.256999999999998,1.256999999999998,0.0,0.0,1.0,55.0,616.79921,10000.0,85.000001,85.000001,85.000001,85.000001,395.0,0.0,0.0,0.0,1.0,166.665,52.139,52.139,48.447,48.447,34.0,-30.8325,21.13,-31.413333333333334,22.740000000000002,0.0,1781.798,0.7149999999999999,100.0,27.982,27.768,43.003,42.688,0.0,0.0,100.0,0.0,0.0,0.0,0.0,3389.714285714286,3134.6,4002.4444444444443,3892.3,304.791,304.7626666666667,315.20075,315.2155,22.0093,20.6309,22.0123,21.514499999999998,314.999998,314.999998,324.999988,324.999988,99.55907142857143,99.50705,99.56827142857144,99.548,-0.011749999999999927,-0.1356666666666666,-0.19666666666666666,0.03316666666666679,-0.06833333333332803,-0.05571428571428072,1.5590000000000002,1.6105,38.558,29.942999999999998,38.577,35.4655,55.919,35.1695,59.8405,52.8125,53.844,34.283500000000004,58.412,51.134,52.985,33.8145,58.3075,50.54266666666666,-0.020000000000000018,-0.13149999999999995,0.11176000000000001,0.10529000000000001,0.0,216.35500000000002,216.22500000000002,213.19,213.19,190.012512,21.04372
26,0.0,0.0,0.0,1.0,1.0,0.0,0.0,1.0,0.0,100.0,1.0,1.1856,26.0,0.0,0.0,0.0,59.999996,0.0,26.0,26.0,26.0,26.0,-0.1348888888888889,0.2933000000000001,0.0658,291.626,-2.6557,-2.7821249999999997,-1.5669,-1.5934,-187.89,215.97,190.430875,0.0,0.0,0.0,0.0,0.05263333333333331,-5.498166666666667,-5.498166666666667,-0.5698,0.7075,-0.07200000000000006,-1.213,69.219,-0.09209999999999996,-0.19555,1.3260000000000005,100.0,1.0,1.0,213.31,0.0,0.0,0.0,0.0,0.0,0.0,0.0,9041.4,0.0,55.0,5.0,249.16,0.0,0.0,0.0,0.0,0.0,0.0,0.0,0.0,1.3049999999999997,1.3049999999999997,0.0,0.0,0.0,55.0,616.79921,10000.0,85.000001,85.000001,85.000001,85.000001,395.0,0.0,0.0,0.0,1.0,333.33500000000004,51.91,51.91,46.631,46.631,34.0,-29.932499999999997,19.133333333333333,-40.10333333333333,24.945,0.0,1781.748,0.5199999999999996,100.0,28.931,28.145,43.82,42.863,0.0,0.0,100.0,0.0,0.0,0.0,0.0,3341.857142857143,2876.6,4657.888888888889,4324.5,304.8135,305.44233333333335,313.6545,314.1585,22.0184,20.6361,22.0224,21.5231,314.999998,314.999998,324.999988,324.999988,99.55907142857143,99.50706666666666,99.56841428571428,99.54814285714286,-0.01649999999999996,-0.16199999999999992,-0.21916666666666662,0.0030000000000001137,-0.04999999999999716,-0.05142857142856627,1.4234999999999998,1.4835,38.614999999999995,29.9755,38.64,35.5195,55.907,35.2125,59.881,52.869,53.833,34.323,58.45,51.189,52.973,33.852000000000004,58.3425,50.596000000000004,-0.04049999999999998,-0.12050000000000005,0.11183000000000001,0.10969000000000001,0.0,216.78,216.66500000000002,213.31,213.31,190.012512,21.04372
27,0.0,0.0,0.0,1.0,1.0,0.0,0.0,1.0,0.0,100.0,1.0,1.1856,26.0,0.0,0.0,0.0,59.999996,0.0,26.0,26.0,26.0,26.0,-0.11644444444444445,0.24029999999999996,-0.020300000000000002,292.068,-2.6142,-2.760375,-1.5492,-1.6722000000000001,-184.57,215.97,190.40775,0.0,0.0,0.0,0.0,0.05456666666666654,-5.498166666666667,-5.498166666666667,-0.5978,-1.0895000000000001,-0.07877777777777784,-0.6959999999999997,69.344,-0.0998,-0.24355000000000002,1.1260000000000003,100.0,1.0,1.0,213.8,0.0,0.0,0.0,0.0,0.0,0.0,0.0,9062.3,0.0,55.0,5.0,249.61333333333334,1.0,0.0,0.0,0.0,0.0,0.0,0.0,0.0,1.352999999999998,1.352999999999998,0.0,0.0,1.0,55.0,616.79921,10000.0,85.000001,85.000001,85.000001,85.000001,395.0,0.0,0.0,0.0,1.0,166.665,52.2,52.2,47.15,47.15,34.0,-29.509999999999998,19.12833333333333,-34.67,23.19,0.0,1781.702,0.46000000000000085,100.0,28.698,27.797,44.614000000000004,43.292,0.0,0.0,100.0,0.0,0.0,0.0,0.0,3297.285714285714,2932.1,4171.666666666667,3936.4,304.946,305.389,314.7305,314.99075,22.0274,20.6411,22.0324,21.5318,314.999998,314.999998,324.999988,324.999988,99.55907142857143,99.50708333333333,99.56855714285714,99.54828571428571,-0.026249999999999885,-0.16500000000000004,-0.21899999999999997,0.0006666666666665932,-0.051666666666669414,-0.03999999999999915,1.4914999999999998,1.529,38.671,30.0065,38.703,35.574,55.891999999999996,35.2525,59.9215,52.9265,53.819,34.3605,58.488,51.2435,52.958,33.8875,58.378,50.64933333333333,-0.04249999999999998,-0.11450000000000005,0.102885,0.106315,0.0,217.10500000000002,216.995,213.8,213.8,190.012512,21.04372
28,0.0,0.0,0.0,1.0,1.0,0.0,0.0,1.0,0.0,100.0,1.0,1.1856,26.0,0.0,0.0,0.0,59.999996,0.0,26.0,26.0,26.0,26.0,-0.127,0.2761,-0.04995,292.297,-2.6368,-2.74925,-1.498,-1.6323,-181.03,215.9675,190.38225,0.0,0.0,0.0,0.0,0.05663333333333331,-5.498166666666667,-5.498166666666667,-0.6001000000000001,0.6855,-0.07955555555555582,0.819,69.476,-0.10629999999999995,-0.215425,1.016,100.0,1.0,1.0,214.31,0.0,0.0,0.0,0.0,0.0,0.0,0.0,9083.8,0.0,55.0,5.0,250.08666666666664,0.0,0.0,0.0,0.0,0.0,0.0,0.0,0.0,1.404,1.404,0.0,0.0,0.0,55.0,616.79921,10000.0,85.000001,85.000001,85.000001,85.000001,395.0,0.0,0.0,0.0,1.0,166.665,52.231,52.231,47.928,47.928,34.0,-28.45,19.898333333333333,-32.736666666666665,23.7225,0.0,1781.651,0.28000000000000114,100.0,29.0,27.593,43.996,42.647,0.0,0.0,100.0,0.0,0.0,0.0,0.0,3228.714285714286,2979.0,4120.555555555556,4070.9,304.9965,305.411,314.91775,314.84225,22.037,20.6465,22.0427,21.5408,314.999998,314.999998,324.999988,324.999988,99.55908571428571,99.5071,99.56871428571428,99.54842857142857,-0.008249999999999869,-0.14866666666666672,-0.21133333333333337,0.010166666666666657,-0.03333333333333144,-0.05571428571428072,1.5474999999999999,1.574,38.730999999999995,30.0405,38.766999999999996,35.6295,55.878,35.2965,59.957,52.9825,53.806,34.4005,58.5215,51.2975,52.945,33.926,58.408,50.70166666666667,-0.055499999999999994,-0.10450000000000004,0.10613500000000001,0.11323000000000001,0.0,217.54500000000002,217.45499999999998,214.31,214.31,190.012512,21.04372
29,0.0,0.0,0.0,1.0,1.0,0.0,0.0,1.0,0.0,100.0,1.0,1.1856,26.0,0.0,0.0,0.0,59.999996,0.0,26.0,26.0,26.0,26.0,-0.10133333333333333,0.2652000000000001,0.047125,291.962,-2.5861,-2.7971250000000003,-1.53735,-1.6069,-177.48000000000002,215.96,190.355875,0.0,0.0,0.0,0.0,0.058699999999999974,-5.498166666666667,-5.498166666666667,-0.6075,-0.77,-0.07699999999999996,-0.637,69.612,-0.10009999999999997,-0.219275,0.7000000000000002,100.0,1.0,1.0,214.56333333333333,0.0,0.0,0.0,0.0,0.0,0.0,0.0,9094.6,0.0,55.0,5.0,250.57999999999998,1.0,0.0,0.0,0.0,0.0,0.0,0.0,0.0,1.4549999999999983,1.4549999999999983,0.0,0.0,1.0,55.0,616.79921,10000.0,85.000001,85.000001,85.000001,85.000001,395.0,0.0,0.0,0.0,1.0,166.665,52.17,52.17,47.058,47.058,34.0,-28.7625,20.53333333333333,-35.870000000000005,24.325,0.0,1781.6,0.09499999999999886,100.0,28.512,27.637999999999998,44.289,43.022999999999996,0.0,0.0,100.0,0.0,0.0,0.0,0.0,3353.4285714285716,2977.1,4284.0,4108.1,304.8075,305.146,314.442,314.63925,22.0463,20.6518,22.0534,21.55,314.999998,314.999998,324.999988,324.999988,99.55908571428571,99.50711666666666,99.56887142857143,99.54857142857144,-0.003249999999999975,-0.1499999999999999,-0.22050000000000003,0.015833333333333366,-0.04333333333332945,-0.047142857142851824,1.471,1.5045,38.79,30.0735,38.834,35.6875,55.861000000000004,35.338,59.9995,53.043,53.79,34.439,58.561,51.3555,52.928,33.963,58.445,50.757999999999996,-0.07550000000000001,-0.08550000000000013,0.11099500000000001,0.11390000000000002,0.0,217.91500000000002,217.845,214.56333333333333,214.56333333333333,190.012512,21.04372
30,0.0,0.0,0.0,1.0,1.0,0.0,0.0,1.0,0.0,100.0,1.0,1.1856,26.0,0.0,0.0,0.0,59.999996,0.0,26.0,26.0,26.0,26.0,-0.08955555555555555,0.2712000000000001,0.021325,291.519,-2.6443,-2.6799999999999997,-1.48085,-1.6622,-174.13,215.9525,190.330875,0.0,0.0,0.0,0.0,0.06063333333333332,-5.498166666666667,-5.498166666666667,-0.6032000000000001,0.8734999999999999,-0.07544444444444443,-0.641,69.736,-0.08819999999999995,-0.2182,0.5979999999999999,100.0,1.0,1.0,214.99333333333334,0.0,0.0,0.0,0.0,0.0,0.0,0.0,9112.7,0.0,55.0,5.0,251.02333333333334,0.0,0.0,0.0,0.0,0.0,0.0,1.0,0.0,1.5030000000000001,1.5030000000000001,0.0,0.0,0.0,55.0,616.79921,10000.0,85.000001,85.000001,85.000001,85.000001,395.0,0.0,0.0,0.0,1.0,333.33500000000004,51.285,51.285,47.363,47.363,34.0,-29.86,19.923333333333332,-34.2,25.1175,0.0,1781.551,0.0,100.0,29.38,28.395,44.13,43.072,0.0,0.0,100.0,0.0,0.0,0.0,0.0,3473.714285714286,2948.7,4299.111111111111,4130.9,304.401,305.24266666666665,314.479,314.54125,22.0555,20.6571,22.0632,21.5585,314.999998,314.999998,324.999988,324.999988,99.55908571428571,99.50713333333333,99.56901428571429,99.54871428571428,0.013250000000000206,-0.1343333333333332,-0.20399999999999996,0.012333333333333307,-0.04333333333332945,-0.03857142857143003,1.4819999999999998,1.5115,38.847,30.1065,38.894999999999996,35.741,55.849999999999994,35.3805,60.0345,53.098,53.778999999999996,34.4785,58.594,51.408,52.916,34.0005,58.4745,50.809666666666665,-0.08899999999999997,-0.07800000000000007,0.11143000000000002,0.10110500000000001,0.0,218.34,218.285,214.99333333333334,214.99333333333334,190.012512,21.04372
31,0.0,0.0,0.0,1.0,1.0,0.0,0.0,1.0,0.0,100.0,1.0,1.1856,26.0,0.0,0.0,0.0,59.999996,0.0,26.0,26.0,26.0,26.0,-0.07366666666666667,0.2619,0.008975,291.443,-2.7107,-2.6622500000000002,-1.52805,-1.6557,-170.57,215.94,190.305125,0.0,0.0,0.0,0.0,0.06269999999999998,-5.498166666666667,-5.498166666666667,-0.5903,-0.764,-0.06266666666666643,0.6859999999999999,69.87,-0.06879999999999997,-0.22015,0.23399999999999999,100.0,1.0,1.0,215.30666666666667,0.0,0.0,0.0,0.0,0.0,0.0,0.0,9126.0,0.0,55.0,5.0,251.50333333333333,1.0,0.0,0.0,0.0,0.0,0.0,1.0,0.0,1.5539999999999985,1.5539999999999985,0.0,0.0,1.0,55.0,616.79921,10000.0,85.000001,85.000001,85.000001,85.000001,395.0,0.0,0.0,0.0,1.0,333.33500000000004,51.91,51.91,45.99,45.99,34.0,-26.525,21.80833333333333,-33.13333333333333,27.8475,0.0,1781.5,-0.03500000000000014,100.0,29.093,28.186,44.874,43.641,0.0,0.0,100.0,0.0,0.0,0.0,0.0,3149.285714285714,3146.9,4339.888888888889,4233.4,305.401,305.065,314.21325,314.47025,22.064799999999998,20.6626,22.073900000000002,21.5679,314.999998,314.999998,324.999988,324.999988,99.55908571428571,99.50715,99.56917142857142,99.54887142857143,0.028999999999999915,-0.11266666666666669,-0.15666666666666662,0.050999999999999934,-0.05666666666667197,-0.04285714285714448,1.452,1.4655,38.905,30.141,38.962,35.7995,55.834,35.4235,60.077,53.1595,53.763999999999996,34.518,58.634,51.4675,52.900999999999996,34.038,58.5115,50.867333333333335,-0.08799999999999997,-0.08000000000000007,0.09541000000000001,0.10569500000000001,0.0,218.70499999999998,218.66500000000002,215.30666666666667,215.30666666666667,190.012512,21.04372
32,0.0,0.0,0.0,1.0,1.0,0.0,0.0,1.0,0.0,100.0,1.0,1.1856,26.0,0.0,0.0,0.0,59.999996,0.0,26.0,26.0,26.0,26.0,-0.05344444444444445,0.26960000000000006,-0.037975,291.641,-2.653,-2.75725,-1.597,-1.5607,-167.01,215.9275,190.279375,0.0,0.0,0.0,0.0,0.06476666666666653,-5.498166666666667,-5.498166666666667,-0.609,0.16049999999999998,-0.08455555555555572,-0.899,69.999,-0.056400000000000006,-0.22865000000000002,0.23600000000000065,100.0,1.0,1.0,215.84333333333333,0.0,0.0,0.0,0.0,0.0,0.0,0.0,9148.9,0.0,55.0,5.0,251.96666666666667,0.0,0.0,0.0,0.0,0.0,0.0,1.0,0.0,1.6050000000000004,1.6050000000000004,0.0,0.0,0.0,55.0,616.79921,10000.0,85.000001,85.000001,85.000001,85.000001,395.0,0.0,0.0,0.0,1.0,333.33500000000004,51.605,51.605,47.043,47.043,34.0,-27.665,22.136666666666667,-32.92666666666666,26.0425,0.0,1781.448,-0.1349999999999998,100.0,28.975,28.484,44.358000000000004,43.498000000000005,0.0,0.0,100.0,0.0,0.0,0.0,0.0,3368.5714285714284,2987.9,4241.666666666667,4136.5,304.783,305.1956666666667,314.70375,314.7335,22.0743,20.6682,22.0843,21.576999999999998,314.999998,314.999998,324.999988,324.999988,99.5591,99.50716666666666,99.56931428571428,99.54901428571429,0.03825000000000012,-0.10299999999999998,-0.1668333333333334,0.06316666666666682,-0.046666666666666856,-0.04571428571428271,1.5430000000000001,1.5445,38.964,30.176000000000002,39.027,35.8565,55.819,35.4685,60.1155,53.221000000000004,53.75,34.5595,58.67,51.5265,52.885999999999996,34.078,58.544,50.92466666666667,-0.09350000000000003,-0.0685,0.10408500000000001,0.11054000000000001,0.0,219.10500000000002,219.07999999999998,215.84333333333333,215.84333333333333,190.012512,21.04372
33,0.0,0.0,0.0,1.0,1.0,0.0,0.0,1.0,0.0,100.0,1.0,1.1856,26.0,0.0,0.0,0.0,59.999996,0.0,26.0,26.0,26.0,26.0,-0.041444444444444443,0.27080000000000015,-0.030475000000000002,291.763,-2.6698,-2.744625,-1.5338,-1.6341999999999999,-163.64999999999998,215.9125,190.254125,0.0,0.0,0.0,0.0,0.06673333333333331,-5.498166666666667,-5.498166666666667,-0.6119,-0.41700000000000004,-0.07233333333333336,0.15700000000000003,70.123,-0.0464,-0.216925,0.1739999999999995,100.0,1.0,1.0,216.12333333333333,0.0,0.0,0.0,0.0,0.0,0.0,0.0,9160.7,0.0,55.0,5.0,252.41666666666666,1.0,0.0,0.0,0.0,0.0,0.0,1.0,0.0,1.6529999999999987,1.6529999999999987,0.0,0.0,1.0,55.0,616.79921,10000.0,85.000001,85.000001,85.000001,85.000001,395.0,0.0,0.0,0.0,1.0,333.33500000000004,52.231,52.231,46.844,46.844,34.0,-26.0025,21.575,-32.35333333333334,28.310000000000002,0.0,1781.401,-0.20999999999999908,100.0,28.736,28.198,44.304,43.615,0.0,0.0,100.0,0.0,0.0,0.0,0.0,3206.857142857143,2911.6,4281.222222222223,4227.8,305.295,305.46433333333334,314.48675,314.3945,22.083,20.6732,22.0942,21.5857,314.999998,314.999998,324.999988,324.999988,99.5591,99.50718333333333,99.56945714285715,99.54914285714285,0.04349999999999987,-0.09733333333333327,-0.15666666666666662,0.0665,-0.03166666666666629,-0.05571428571428072,1.4834999999999998,1.4989999999999999,39.019,30.2075,39.088,35.9105,55.806,35.5025,60.149,53.274,53.738,34.591,58.701,51.577,52.873000000000005,34.108000000000004,58.5725,50.974000000000004,-0.09850000000000003,-0.06099999999999994,0.10873000000000001,0.109405,0.0,219.47500000000002,219.47500000000002,216.12333333333333,216.12333333333333,190.012512,21.04372
34,0.0,0.0,0.0,1.0,1.0,0.0,0.0,1.0,0.0,100.0,1.0,1.1856,26.0,0.0,0.0,0.0,59.999996,0.0,26.0,26.0,26.0,26.0,-0.035666666666666666,0.26270000000000016,-0.054725,292.191,-2.6831,-2.7270000000000003,-1.60125,-1.5895000000000001,-160.07,215.8975,190.22625,0.0,0.0,0.0,0.0,0.06879999999999997,-5.498166666666667,-5.498166666666667,-0.6443,-0.716,-0.034777777777777796,1.1219999999999999,70.253,-0.03539999999999999,-0.2273,-0.016000000000000014,100.0,1.0,1.0,216.59333333333333,0.0,0.0,0.0,0.0,0.0,0.0,0.0,9180.7,0.0,55.0,5.0,252.88333333333333,0.0,0.0,0.0,0.0,0.0,0.0,1.0,0.0,1.7040000000000006,1.7040000000000006,0.0,0.0,0.0,55.0,616.79921,10000.0,85.000001,85.000001,85.000001,85.000001,395.0,0.0,0.0,0.0,1.0,333.33500000000004,52.505,52.505,47.76,47.76,34.0,-23.9175,23.231666666666666,-29.933333333333334,27.355,0.0,1781.35,-0.254999999999999,100.0,28.573,27.747,43.984,43.596000000000004,0.0,0.0,100.0,0.0,0.0,0.0,0.0,3038.4285714285716,3009.7,4029.777777777778,4144.2,305.4595,305.27566666666667,315.1035,314.631,22.0923,20.6786,22.1045,21.5949,314.999998,314.999998,324.999988,324.999988,99.55911428571429,99.50718333333333,99.56961428571428,99.5493,0.06850000000000023,-0.07099999999999995,-0.14100000000000001,0.07766666666666677,-0.03999999999999915,-0.06714285714285495,1.5385,1.553,39.077,30.241500000000002,39.153,35.9685,55.791,35.541,60.1835,53.3335,53.723,34.6265,58.7335,51.6345,52.857,34.141999999999996,58.602000000000004,51.03,-0.10499999999999998,-0.05049999999999999,0.10343000000000001,0.10509,0.0,219.875,219.86,216.59333333333336,216.59333333333333,190.012512,21.04372
35,0.0,0.0,0.0,1.0,1.0,0.0,0.0,1.0,0.0,100.0,1.0,1.1856,26.0,0.0,0.0,0.0,59.999996,0.0,26.0,26.0,26.0,26.0,-0.0007777777777777778,0.25029999999999997,-0.064025,292.206,-2.6859,-2.6805000000000003,-1.5852,-1.6016,-156.48000000000002,215.8825,190.19625,0.0,0.0,0.0,0.0,0.07089999999999996,-5.498166666666667,-5.498166666666667,-0.6846,-0.29200000000000004,-0.04644444444444451,-0.9790000000000001,70.381,-0.019100000000000006,-0.230275,-0.16600000000000037,100.0,1.0,1.0,217.06666666666666,0.0,0.0,0.0,0.0,0.0,0.0,0.0,9200.6,0.0,55.0,5.0,253.34666666666666,1.0,0.0,0.0,0.0,0.0,0.0,1.0,0.0,1.754999999999999,1.754999999999999,0.0,0.0,1.0,55.0,616.79921,10000.0,85.000001,85.000001,85.000001,85.000001,395.0,0.0,0.0,0.0,1.0,166.665,52.016999999999996,52.016999999999996,47.44,47.44,34.0,-25.465,24.865000000000002,-28.849999999999998,26.655,0.0,1781.3,-0.1399999999999988,100.0,28.205,28.195,43.673,43.192,0.0,0.0,100.0,0.0,0.0,0.0,0.0,3212.285714285714,3232.8,4019.3333333333335,3911.1000000000004,305.2215,304.50233333333335,315.1135,315.18825,22.101399999999998,20.6842,22.1148,21.604,314.999998,314.999998,324.999988,324.999988,99.55911428571429,99.5072,99.56975714285714,99.54944285714285,0.0625,-0.07133333333333325,-0.1273333333333333,0.09949999999999992,-0.041666666666671404,-0.04571428571428271,1.5699999999999998,1.572,39.132999999999996,30.2765,39.218,36.025,55.774,35.5805,60.218,53.388999999999996,53.707,34.663,58.766,51.688,52.841,34.1775,58.631,51.082,-0.09299999999999997,-0.06750000000000012,0.10725000000000001,0.10798,0.0,220.265,220.265,217.06666666666666,217.06666666666666,190.012512,21.04372
