,ABS Active,ABS Enabled,AID Allow Tire Blankets,AID Auto Blip,AID Auto Clutch,AID Auto Shift,AID Fuel Rate,AID Ideal Line,AID Mech Damage,AID Stability,AID Tire Wear Rate,Air Density,Air Temp,Ballast,Best Lap Delta,Best Lap Time,Brake Bias,Brake Pos,Brake Temp FL,Brake Temp FR,Brake Temp RL,Brake Temp RR,CG Accel Lateral,CG Accel Longitudinal,CG Accel Vertical,CG Height,Camber FL,Camber FR,Camber RL,Camber RR,Car Coord X,Car Coord Y,Car Coord Z,Car Damage Front,Car Damage Left,Car Damage Rear,Car Damage Right,Car Pos Norm,Caster FL,Caster FR,Chassis Pitch Angle,Chassis Pitch Rate,Chassis Roll Angle,Chassis Roll Rate,Chassis Velocity X,Chassis Velocity Y,Chassis Velocity Z,Chassis Yaw Rate,Clutch Pos,DRS Active,DRS Available,Drive Train Speed,ERS Heat Charging,ERS Is Charging,ERS Max Energy,ERS Power Level,ERS Recovery Level,Engine Brake Setting,Engine Limiter,Engine RPM,Flags,Fuel Level,Gear,Ground Speed,HR Sample Clock,In Pit,KERS Charge,KERS Deployed Energy,KERS Input,KERS Max Energy,LR Sample Clock,Lap Invalidated,Lap Time,Lap Time2,Last Lap Time,Last Sector Time,MR Sample Clock,Max Fuel,Max Power,Max RPM,Max Sus Travel FL,Max Sus Travel FR,Max Sus Travel RL,Max Sus Travel RR,Max Torque,Max Turbo Boost,Num Tires Off Track,Penalties Enabled,Position,Raw Data Sample Rate,Ride Height FL,Ride Height FR,Ride Height RL,Ride Height RR,Road Temp,Self Align Torque FL,Self Align Torque FR,Self Align Torque RL,Self Align Torque RR,Session Lap Count,Session Time Left,Steering Angle,Surface Grip,Suspension Travel FL,Suspension Travel FR,Suspension Travel RL,Suspension Travel RR,TC Active,TC Enabled,Throttle Pos,Tire Dirt Level FL,Tire Dirt Level FR,Tire Dirt Level RL,Tire Dirt Level RR,Tire Load FL,Tire Load FR,Tire Load RL,Tire Load RR,Tire Loaded Radius FL,Tire Loaded Radius FR,Tire Loaded Radius RL,Tire Loaded Radius RR,Tire Pressure FL,Tire Pressure FR,Tire Pressure RL,Tire Pressure RR,Tire Radius FL,Tire Radius FR,Tire Radius RL,Tire Radius RR,Tire Rubber Grip FL,Tire Rubber Grip FR,Tire Rubber Grip RL,Tire Rubber Grip RR,Tire Slip Angle FL,Tire Slip Angle FR,Tire Slip Angle RL,Tire Slip Angle RR,Tire Slip Ratio FL,Tire Slip Ratio FR,Tire Slip Ratio RL,Tire Slip Ratio RR,Tire Temp Core FL,Tire Temp Core FR,Tire Temp Core RL,Tire Temp Core RR,Tire Temp Inner FL,Tire Temp Inner FR,Tire Temp Inner RL,Tire Temp Inner RR,Tire Temp Middle FL,Tire Temp Middle FR,Tire Temp Middle RL,Tire Temp Middle RR,Tire Temp Outer FL,Tire Temp Outer FR,Tire Temp Outer RL,Tire Temp Outer RR,Toe In FL,Toe In FR,Toe In RL,Toe In RR,Turbo Boost,Wheel Angular Speed FL,Wheel Angular Speed FR,Wheel Angular Speed RL,Wheel Angular Speed RR,Wind Direction,Wind Speed
0,0.0,0.0,0.0,1.0,1.0,0.0,0.0,1.0,0.0,100.0,1.0,1.1856,26.0,0.0,0.0,0.0,59.99999,0.0,26.0,26.0,26.0,26.0,-0.11177777777777777,0.2948000000000002,0.000475,294.434,-2.6893,-2.6974,-1.48205,-1.5805,-275.6,216.29250000000002,190.9875,0.0,0.0,0.0,0.0,0.0016333333333333332,-5.498166666666667,-5.498166666666667,-0.5497000000000001,1.5665,-0.04237499999999983,-1.039,65.548,-0.07329999999999992,-0.21675,1.177999999999999,100.0,1.0,1.0,202.39333333333332,0.0,0.0,0.0,0.0,0.0,0.0,0.0,8578.8,0.0,55.0,5.0,235.94333333333333,0.0,0.0,0.0,0.0,0.0,0.0,0.0,0.0,0.006000000000000227,0.006000000000000227,0.0,0.0,0.0,55.0,616.79921,10000.0,85.0,85.0,85.0,85.0,395.0,0.0,0.0,0.0,1.0,20.0,53.116,53.116,50.018,50.018,34.0,-28.935000000000002,21.506666666666668,-32.11333333333333,22.3425,0.0,1783.588,0.9000000000000004,100.0,27.252,26.519,40.378,39.793,0.0,0.0,100.0,0.0,0.0,0.0,0.0,3093.714285714286,3256.4,4177.333333333333,3909.7,305.386,304.364,314.72425,315.06175,21.7744,20.500799999999998,21.7552,21.2963,314.99999,314.99999,324.99998,324.99998,99.55891428571428,99.50688333333333,99.56481428571429,99.54458571428572,-0.04733333333333323,-0.15166666666666662,-0.19466666666666665,0.020166666666666666,-0.03999999999999915,-0.05833333333333002,1.5414999999999999,1.6,37.09,29.13,36.97,34.1015,56.293,34.2315,58.928,51.334,54.202,33.417,57.5635,49.715,53.364000000000004,32.9825,57.533,49.153666666666666,0.0030000000000001137,-0.137,0.10435000000000001,0.10799,0.0,205.42000000000002,205.345,202.39333333333332,202.39333333333332,190.01251,21.04372
1,0.0,0.0,0.0,1.0,1.0,0.0,0.0,1.0,0.0,100.0,1.0,1.1856,26.0,0.0,0.0,0.0,59.999996,0.0,26.0,26.0,26.0,26.0,-0.1348888888888889,0.30590000000000006,-0.000125,293.533,-2.6155,-2.7975,-1.505,-1.5681,-272.05,216.29000000000002,190.96625,0.0,0.0,0.0,0.0,0.0037,-5.498166666666667,-5.498166666666667,-0.4963,-0.6595,-0.07900000000000018,-0.5550000000000002,65.714,-0.08519999999999994,-0.197725,1.4939999999999998,100.0,1.0,1.0,202.6,0.0,0.0,0.0,0.0,0.0,0.0,0.0,8587.4,0.0,55.0,5.0,236.5366666666667,1.0,0.0,0.0,0.0,0.0,0.0,0.0,0.0,0.05999999999999872,0.05999999999999872,0.0,0.0,1.0,55.0,616.79921,10000.0,85.000001,85.000001,85.000001,85.000001,395.0,0.0,0.0,0.0,1.0,166.665,54.169,54.169,48.751999999999995,48.751999999999995,34.0,-27.4575,16.57333333333333,-34.16666666666667,27.5225,0.0,1783.535,0.9800000000000004,100.0,27.394,26.369,42.818,41.157,0.0,0.0,100.0,0.0,0.0,0.0,0.0,3023.5714285714284,2619.7,4202.0,4686.2,305.545,306.49275,314.55175,313.16125,21.785,20.506,21.7666,21.3058,314.999998,314.999998,324.999988,324.999988,99.55892857142857,99.50691666666667,99.56497142857143,99.54474285714285,-0.04299999999999993,-0.17333333333333312,-0.2091666666666666,0.011666666666666714,-0.02499999999999858,-0.045000000000001705,1.42,1.492,37.156,29.162333333333336,37.041,34.161500000000004,56.278,34.275,58.976,51.4035,54.188,33.457,57.6085,49.782,53.349000000000004,33.021,57.575,49.219,0.0050000000000001155,-0.15050000000000008,0.10496000000000001,0.10679000000000001,0.0,205.9,205.79000000000002,202.60000000000002,202.6,190.012512,21.04372
2,0.0,0.0,0.0,1.0,1.0,0.0,0.0,1.0,0.0,100.0,1.0,1.1856,26.0,0.0,0.0,0.0,59.999996,0.0,26.0,26.0,26.0,26.0,-0.15222222222222223,0.30079999999999996,-0.0172,294.128,-2.5855,-2.8243,-1.46495,-1.6237,-268.7,216.285,190.947375,0.0,0.0,0.0,0.0,0.005666666666666667,-5.498166666666667,-5.498166666666667,-0.5446,0.14049999999999996,-0.07212500000000022,1.7759999999999998,65.858,-0.10349999999999993,-0.24422500000000003,1.7739999999999991,100.0,1.0,1.0,203.49,0.0,0.0,0.0,0.0,0.0,0.0,0.0,8625.2,0.0,55.0,5.0,237.06,0.0,0.0,0.0,0.0,0.0,0.0,0.0,0.0,0.11100000000000065,0.11100000000000065,0.0,0.0,0.0,55.0,616.79921,10000.0,85.000001,85.000001,85.000001,85.000001,395.0,0.0,0.0,0.0,1.0,166.665,52.979,52.979,50.522,50.522,34.0,-31.6475,18.445,-30.703333333333333,18.555,0.0,1783.484,0.8000000000000007,100.0,28.008,26.433,42.462,40.755,0.0,0.0,100.0,0.0,0.0,0.0,0.0,3387.857142857143,2842.1,3760.222222222222,3691.8,304.5135,305.75175,315.6335,315.73975,21.7952,20.5108,21.777,21.3144,314.999998,314.999998,324.999988,324.999988,99.55892857142857,99.50693333333334,99.56511428571429,99.54488571428571,-0.058333333333333126,-0.17466666666666675,-0.2613333333333333,-0.03149999999999997,-0.061666666666667425,-0.01999999999999602,1.638,1.7000000000000002,37.22,29.192333333333334,37.105999999999995,34.215,56.266999999999996,34.314499999999995,59.0145,51.46,54.177,33.4935,57.6445,49.836,53.338,33.0555,57.6085,49.272,-0.008000000000000007,-0.13349999999999995,0.11316500000000002,0.09910000000000001,0.0,206.385,206.2,203.49,203.49,190.012512,21.04372
3,0.0,0.0,0.0,1.0,1.0,0.0,0.0,1.0,0.0,100.0,1.0,1.1856,26.0,0.0,0.0,0.0,59.999996,0.0,26.0,26.0,26.0,26.0,-0.15755555555555556,0.30200000000000005,0.0809,293.854,-2.7121,-2.7192,-1.49015,-1.6038999999999999,-265.73,216.275,190.93,0.0,0.0,0.0,0.0,0.007366666666666667,-5.498166666666667,-5.498166666666667,-0.5086,0.32499999999999996,-0.03049999999999997,0.48099999999999987,65.995,-0.11359999999999992,-0.20022500000000001,1.2599999999999998,100.0,1.0,1.0,203.62333333333333,0.0,0.0,0.0,0.0,0.0,0.0,0.0,8630.8,0.0,55.0,5.0,237.54666666666668,1.0,0.0,0.0,0.0,0.0,0.0,0.0,0.0,0.1559999999999988,0.1559999999999988,0.0,0.0,1.0,55.0,616.79921,10000.0,85.000001,85.000001,85.000001,85.000001,395.0,0.0,0.0,0.0,1.0,166.665,53.986,53.986,48.569,48.569,34.0,-26.6175,17.756666666666668,-35.43,23.2775,0.0,1783.438,0.6100000000000012,100.0,27.688,26.402,42.394999999999996,40.804,0.0,0.0,100.0,0.0,0.0,0.0,0.0,2871.714285714286,2850.1,4240.222222222223,4232.3,306.001,305.774,314.4405,314.37875,21.8039,20.5152,21.7862,21.3222,314.999998,314.999998,324.999988,324.999988,99.55894285714285,99.50695,99.56524285714286,99.54501428571429,-0.04233333333333311,-0.16999999999999993,-0.2353333333333334,-0.013499999999999956,-0.02833333333332888,-0.051666666666669414,1.4789999999999999,1.5215,37.275,29.22,37.164,34.263999999999996,56.251999999999995,34.355000000000004,59.0525,51.5195,54.164,33.531,57.6805,49.893,53.323,33.091499999999996,57.6415,49.328,-0.03049999999999997,-0.11749999999999994,0.10931500000000001,0.10968000000000001,0.0,206.78,206.68,203.62333333333333,203.62333333333333,190.012512,21.04372
4,0.0,0.0,0.0,1.0,1.0,0.0,0.0,1.0,0.0,100.0,1.0,1.1856,26.0,0.0,0.0,0.0,59.999996,0.0,26.0,26.0,26.0,26.0,-0.16355555555555554,0.2964,-0.052275,294.159,-2.6397,-2.7732,-1.50245,-1.6132,-262.16,216.26,190.909125,0.0,0.0,0.0,0.0,0.009466666666666668,-5.498166666666667,-5.498166666666667,-0.5451,-0.702,-0.09775,-0.45599999999999996,66.151,-0.10909999999999997,-0.23852500000000001,1.1679999999999993,100.0,1.0,1.0,204.26999999999998,0.0,0.0,0.0,0.0,0.0,0.0,0.0,8658.2,0.0,55.0,5.0,238.11333333333334,0.0,0.0,0.0,0.0,0.0,0.0,0.0,0.0,0.21000000000000085,0.21000000000000085,0.0,0.0,0.0,55.0,616.79921,10000.0,85.000001,85.000001,85.000001,85.000001,395.0,0.0,0.0,0.0,1.0,111.11,53.513,53.513,49.393,49.393,34.0,-29.825,18.82,-32.303333333333335,19.9025,0.0,1783.386,0.6300000000000008,100.0,27.544,26.228,42.663,40.839,0.0,0.0,100.0,0.0,0.0,0.0,0.0,3223.714285714286,2909.5,3996.222222222222,3630.3,305.0305,305.61275,315.00875,315.8015,21.8143,20.5205,21.7974,21.3315,314.999998,314.999998,324.999988,324.999988,99.55894285714285,99.50696666666667,99.5654,99.54515714285715,-0.04600000000000004,-0.16566666666666663,-0.22750000000000004,0.002666666666666595,-0.03333333333333144,-0.05333333333332746,1.5885,1.6295000000000002,37.339,29.252666666666666,37.233999999999995,34.322,56.236000000000004,34.3975,59.0945,51.578,54.147999999999996,33.5695,57.72,49.949,53.307,33.1285,57.6785,49.382666666666665,-0.02400000000000002,-0.11850000000000005,0.11024500000000001,0.10672500000000001,0.0,207.215,207.12,204.26999999999998,204.26999999999998,190.012512,21.04372
5,0.0,0.0,0.0,1.0,1.0,0.0,0.0,1.0,0.0,100.0,1.0,1.1856,26.0,0.0,0.0,0.0,59.999996,0.0,26.0,26.0,26.0,26.0,-0.13011111111111112,0.2965,-0.010075,294.098,-2.6621,-2.7879,-1.4909,-1.5957,-258.79,216.2425,190.888625,0.0,0.0,0.0,0.0,0.011433333333333334,-5.498166666666667,-5.498166666666667,-0.5344,0.3195,-0.09787500000000016,-0.16599999999999993,66.3,-0.10799999999999998,-0.21177500000000002,1.112,100.0,1.0,1.0,204.62666666666667,0.0,0.0,0.0,0.0,0.0,0.0,0.0,8673.3,0.0,55.0,5.0,238.65,1.0,0.0,0.0,0.0,0.0,0.0,0.0,0.0,0.26099999999999923,0.26099999999999923,0.0,0.0,1.0,55.0,616.79921,10000.0,85.000001,85.000001,85.000001,85.000001,395.0,0.0,0.0,0.0,1.0,111.11,53.94,53.94,49.362,49.362,34.0,-28.9925,18.03,-34.483333333333334,21.065,0.0,1783.335,0.29499999999999993,100.0,27.493,26.244,42.338,40.673,0.0,0.0,100.0,0.0,0.0,0.0,0.0,3191.142857142857,2709.6,4195.888888888889,4003.8,305.2345,306.106,314.6645,314.87825,21.8243,20.5254,21.8078,21.3402,314.999998,314.999998,324.999988,324.999988,99.55895714285714,99.50698333333334,99.56554285714286,99.54528571428571,-0.03266666666666662,-0.15300000000000002,-0.23416666666666663,-0.021666666666666612,-0.05333333333332746,-0.05833333333333002,1.535,1.5945,37.402,29.283666666666665,37.299,34.376,56.223,34.438,59.1355,51.635999999999996,54.135,33.607,57.757999999999996,50.0045,53.294,33.164,57.714,49.437,-0.04849999999999999,-0.09299999999999997,0.105965,0.10023000000000001,0.0,207.74,207.64499999999998,204.62666666666667,204.62666666666667,190.012512,21.04372
6,0.0,0.0,0.0,1.0,1.0,0.0,0.0,1.0,0.0,100.0,1.0,1.1856,26.0,0.0,0.0,0.0,59.999996,0.0,26.0,26.0,26.0,26.0,-0.11866666666666667,0.27790000000000004,0.009300000000000001,293.93,-2.626,-2.7651,-1.5354999999999999,-1.5899,-255.8,216.225,190.8705,0.0,0.0,0.0,0.0,0.013166666666666667,-5.498166666666667,-5.498166666666667,-0.5315,0.09999999999999998,-0.07537500000000019,0.996,66.43,-0.10039999999999993,-0.21457500000000002,0.7379999999999995,100.0,1.0,1.0,205.06,0.0,0.0,0.0,0.0,0.0,0.0,0.0,8691.7,0.0,55.0,5.0,239.12,0.0,0.0,0.0,0.0,0.0,0.0,0.0,0.0,0.30600000000000094,0.30600000000000094,0.0,0.0,0.0,55.0,616.79921,10000.0,85.000001,85.000001,85.000001,85.000001,395.0,0.0,0.0,0.0,1.0,166.665,53.589,53.589,49.254999999999995,49.254999999999995,34.0,-27.275,20.494999999999997,-32.46,22.715,0.0,1783.291,0.11500000000000021,100.0,27.576999999999998,26.25,42.493,40.929,0.0,0.0,100.0,0.0,0.0,0.0,0.0,3101.142857142857,2947.0,4051.222222222222,4000.9,305.273,305.503,314.9465,314.9615,21.833,20.5298,21.817,21.348,314.999998,314.999998,324.999988,324.999988,99.55895714285714,99.507,99.56567142857143,99.54541428571429,-0.014000000000000012,-0.1293333333333333,-0.20733333333333337,0.012166666666666659,-0.045000000000001705,-0.06333333333333258,1.5365,1.5665,37.456,29.311333333333334,37.357,34.425,56.21,34.474000000000004,59.1715,51.6905,54.123000000000005,33.6405,57.7915,50.0565,53.28,33.196,57.745,49.48766666666667,-0.0595,-0.08250000000000002,0.10615000000000001,0.11558000000000002,0.0,208.115,208.05,205.06,205.06,190.012512,21.04372
7,0.0,0.0,0.0,1.0,1.0,0.0,0.0,1.0,0.0,100.0,1.0,1.1856,26.0,0.0,0.0,0.0,59.999996,0.0,26.0,26.0,26.0,26.0,-0.06544444444444444,0.28300000000000014,0.002925,293.823,-2.6104,-2.7663,-1.50135,-1.6244,-252.01,216.1975,190.84775,0.0,0.0,0.0,0.0,0.015366666666666666,-5.498166666666667,-5.498166666666667,-0.5344,0.05399999999999994,-0.05975000000000019,-0.20999999999999996,66.596,-0.08489999999999998,-0.22462500000000002,0.4139999999999997,100.0,1.0,1.0,205.54333333333335,0.0,0.0,0.0,0.0,0.0,0.0,0.0,8712.3,0.0,55.0,5.0,239.71666666666667,1.0,0.0,0.0,0.0,0.0,0.0,0.0,0.0,0.36299999999999955,0.36299999999999955,0.0,0.0,1.0,55.0,616.79921,10000.0,85.000001,85.000001,85.000001,85.000001,395.0,0.0,0.0,0.0,1.0,111.11,53.421,53.421,49.393,49.393,34.0,-26.65,20.848333333333333,-31.293333333333333,23.7275,0.0,1783.233,-0.25,100.0,27.498,26.544,42.374,41.3,0.0,0.0,100.0,0.0,0.0,0.0,0.0,3200.714285714286,2855.0,4017.5555555555557,3954.0,305.1115,305.53925,315.0445,314.938,21.844,20.5355,21.8287,21.358,314.999998,314.999998,324.999988,324.999988,99.55895714285714,99.50701666666667,99.56582857142857,99.54557142857144,0.016999999999999904,-0.10833333333333317,-0.19899999999999995,0.02516666666666678,-0.05833333333333002,-0.060000000000002274,1.5305,1.5465,37.525,29.346666666666664,37.43,34.4875,56.193,34.5185,59.216499999999996,51.759,54.107,33.681,57.8335,50.122,53.263,33.235,57.783500000000004,49.55166666666666,-0.10150000000000003,-0.0475000000000001,0.10526,0.109035,0.0,208.60000000000002,208.56,205.54333333333335,205.54333333333335,190.012512,21.04372
8,0.0,0.0,0.0,1.0,1.0,0.0,0.0,1.0,0.0,100.0,1.0,1.1856,26.0,0.0,0.0,0.0,59.999996,0.0,26.0,26.0,26.0,26.0,-0.042222222222222223,0.29290000000000016,0.027700000000000002,293.991,-2.6896,-2.7368,-1.4822,-1.5802,-249.01,216.175,190.8295,0.0,0.0,0.0,0.0,0.0171,-5.498166666666667,-5.498166666666667,-0.5364,-0.5940000000000001,-0.043874999999999886,0.8250000000000002,66.727,-0.06489999999999996,-0.2156,-0.08200000000000074,100.0,1.0,1.0,205.85666666666668,0.0,0.0,0.0,0.0,0.0,0.0,0.0,8725.5,0.0,55.0,5.0,240.19,0.0,0.0,0.0,0.0,0.0,0.0,0.0,0.0,0.40800000000000125,0.40800000000000125,0.0,0.0,0.0,55.0,616.79921,10000.0,85.000001,85.000001,85.000001,85.000001,395.0,0.0,0.0,0.0,1.0,166.665,54.153,54.153,48.66,48.66,34.0,-23.8425,22.093333333333334,-29.873333333333335,26.335,0.0,1783.189,-0.3550000000000004,100.0,27.163,26.287,42.455,41.308,0.0,0.0,100.0,0.0,0.0,0.0,0.0,2913.5714285714284,2949.2,4098.666666666667,4110.3,305.958,305.5155,314.73325,314.61075,21.8524,20.5399,21.8379,21.3658,314.999998,314.999998,324.999988,324.999988,99.55895714285714,99.50701666666667,99.56595714285714,99.54568571428571,0.03533333333333344,-0.08333333333333326,-0.15649999999999997,0.06433333333333335,-0.045000000000001705,-0.07000000000000028,1.526,1.5194999999999999,37.578,29.374666666666666,37.486999999999995,34.536500000000004,56.177,34.5525,59.251999999999995,51.8125,54.091,33.712,57.867,50.173500000000004,53.248000000000005,33.265,57.814499999999995,49.602000000000004,-0.10050000000000003,-0.03750000000000009,0.09947,0.11216000000000001,0.0,208.985,208.98000000000002,205.85666666666668,205.85666666666668,190.012512,21.04372
9,0.0,0.0,0.0,1.0,1.0,0.0,0.0,1.0,0.0,100.0,1.0,1.1856,26.0,0.0,0.0,0.0,59.999996,0.0,26.0,26.0,26.0,26.0,-0.01377777777777778,0.29690000000000016,-0.01195,293.594,-2.6207,-2.7342,-1.54035,-1.5575,-245.6,216.1475,190.808375,0.0,0.0,0.0,0.0,0.019066666666666666,-5.498166666666667,-5.498166666666667,-0.5404,0.736,-0.04400000000000004,-0.33599999999999985,66.87100000000001,-0.042099999999999915,-0.21575,-0.1459999999999999,100.0,1.0,1.0,206.42000000000002,0.0,0.0,0.0,0.0,0.0,0.0,0.0,8749.4,0.0,55.0,5.0,240.70666666666668,1.0,0.0,0.0,0.0,0.0,0.0,0.0,0.0,0.45899999999999963,0.45899999999999963,0.0,0.0,1.0,55.0,616.79921,10000.0,85.000001,85.000001,85.000001,85.000001,395.0,0.0,0.0,0.0,1.0,111.11,52.902,52.902,49.667,49.667,34.0,-26.177500000000002,22.706666666666667,-29.0,25.46,0.0,1783.137,-0.5250000000000004,100.0,27.587,26.905,42.012,41.422,0.0,0.0,100.0,0.0,0.0,0.0,0.0,3326.4285714285716,2940.3,4022.6666666666665,4026.1000000000004,304.743,305.29225,315.1325,314.858,21.8622,20.5452,21.848300000000002,21.3747,314.999998,314.999998,324.999988,324.999988,99.55897142857143,99.50703333333334,99.5661,99.54584285714286,0.05600000000000005,-0.07266666666666666,-0.14833333333333332,0.07099999999999995,-0.06666666666666998,-0.06333333333333258,1.592,1.576,37.638999999999996,29.407666666666664,37.552,34.591499999999996,56.163,34.592,59.2885,51.872,54.078,33.749,57.900999999999996,50.2305,53.233999999999995,33.3,57.8455,49.657666666666664,-0.11449999999999994,-0.034499999999999975,0.106855,0.10524000000000001,0.0,209.46,209.445,206.42000000000002,206.42000000000002,190.012512,21.04372
10,0.0,0.0,0.0,1.0,1.0,0.0,0.0,1.0,0.0,100.0,1.0,1.1856,26.0,0.0,0.0,0.0,59.999996,0.0,26.0,26.0,26.0,26.0,0.005222222222222223,0.2932000000000001,-0.012975,293.472,-2.6581,-2.713,-1.52275,-1.5369000000000002,-242.39,216.12,190.788875,0.0,0.0,0.0,0.0,0.020966666666666668,-5.498166666666667,-5.498166666666667,-0.5186000000000001,-0.43999999999999995,-0.0027500000000002522,0.3719999999999999,67.011,-0.021499999999999964,-0.2074,-0.46999999999999975,100.0,1.0,1.0,206.64333333333332,0.0,0.0,0.0,0.0,0.0,0.0,0.0,8758.8,0.0,55.0,5.0,241.21,0.0,0.0,0.0,0.0,0.0,0.0,1.0,0.0,0.5069999999999979,0.5069999999999979,0.0,0.0,0.0,55.0,616.79921,10000.0,85.000001,85.000001,85.000001,85.000001,395.0,0.0,0.0,0.0,1.0,166.665,53.986,53.986,48.111,48.111,34.0,-21.7075,22.056666666666665,-30.64,28.32,0.0,1783.088,-0.5999999999999996,100.0,27.391,26.906,42.469,42.201,0.0,0.0,100.0,0.0,0.0,0.0,0.0,2865.714285714286,2810.3,4290.888888888889,4220.1,306.155,305.74175,314.36575,314.2895,21.871299999999998,20.55,21.8582,21.3833,314.999998,314.999998,324.999988,324.999988,99.55898571428571,99.50705,99.56624285714285,99.54597142857143,0.07033333333333358,-0.05366666666666675,-0.12783333333333335,0.09349999999999992,-0.041666666666671404,-0.04833333333333201,1.4935,1.4925000000000002,37.696,29.437666666666665,37.614000000000004,34.6455,56.149,34.6265,59.3275,51.9325,54.066,33.7805,57.9375,50.2885,53.22,33.3305,57.879,49.714666666666666,-0.123,-0.02200000000000002,0.10704500000000002,0.10948500000000001,0.0,209.845,209.88,206.64333333333332,206.64333333333332,190.012512,21.04372
11,0.0,0.0,0.0,1.0,1.0,0.0,0.0,1.0,0.0,100.0,1.0,1.1856,26.0,0.0,0.0,0.0,59.999996,0.0,26.0,26.0,26.0,26.0,0.02822222222222222,0.2751000000000001,-0.0683,293.991,-2.702,-2.7011,-1.57745,-1.5263,-238.97,216.095,190.768125,0.0,0.0,0.0,0.0,0.022600000000000002,-5.498166666666667,-5.498166666666667,-0.5625,-0.1975,0.02475000000000005,0.30100000000000016,67.152,-0.0006999999999999229,-0.23795000000000002,-0.6699999999999999,100.0,1.0,1.0,207.39333333333332,0.0,0.0,0.0,0.0,0.0,0.0,0.0,8790.7,0.0,55.0,5.0,241.72,1.0,0.0,0.0,0.0,0.0,0.0,1.0,0.0,0.5579999999999998,0.5579999999999998,0.0,0.0,1.0,55.0,616.79921,10000.0,85.000001,85.000001,85.000001,85.000001,395.0,0.0,0.0,0.0,1.0,166.665,53.268,53.268,49.774,49.774,34.0,-22.3875,25.816666666666666,-24.123333333333335,26.4525,0.0,1783.037,-0.5949999999999989,100.0,27.286,27.016,42.008,42.018,0.0,0.0,100.0,0.0,0.0,0.0,0.0,2983.285714285714,3138.0,3662.6666666666665,3851.1000000000004,305.7195,304.8635,315.95375,315.29775,21.8808,20.5553,21.8685,21.3922,314.999998,314.999998,324.999988,324.999988,99.55898571428571,99.50705,99.56637142857143,99.54611428571428,0.09133333333333349,-0.028666666666666618,-0.10199999999999998,0.13283333333333336,-0.060000000000002274,-0.04999999999999716,1.654,1.624,37.754999999999995,29.471,37.678,34.701,56.134,34.664500000000004,59.362,51.992,54.051,33.8155,57.9695,50.346000000000004,53.205,33.364,57.908500000000004,49.771,-0.12,-0.031500000000000083,0.11220500000000001,0.10609500000000001,0.0,210.265,210.305,207.39333333333332,207.39333333333332,190.012512,21.04372
12,0.0,0.0,0.0,1.0,1.0,0.0,0.0,1.0,0.0,100.0,1.0,1.1856,26.0,0.0,0.0,0.0,59.999996,0.0,26.0,26.0,26.0,26.0,0.06155555555555556,0.2881,0.037475,293.35,-2.753,-2.6955,-1.5417,-1.5305,-235.54,216.0675,190.746,0.0,0.0,0.0,0.0,0.025466666666666665,-5.498166666666667,-5.498166666666667,-0.5458000000000001,0.2965,0.005624999999999991,-0.8159999999999998,67.3,0.015600000000000058,-0.20750000000000002,-0.6159999999999997,100.0,1.0,1.0,207.60000000000002,0.0,0.0,0.0,0.0,0.0,0.0,0.0,8799.5,0.0,55.0,5.0,242.24666666666667,0.0,0.0,0.0,0.0,0.0,0.0,1.0,0.0,0.6089999999999982,0.6089999999999982,0.0,0.0,0.0,55.0,616.79921,10000.0,85.000001,85.000001,85.000001,85.000001,395.0,0.0,0.0,0.0,1.0,166.665,53.177,53.177,48.37,48.37,34.0,-23.4875,25.689999999999998,-28.226666666666663,29.950000000000003,0.0,1782.988,-0.5849999999999991,100.0,27.081,27.354,41.945,42.087,0.0,0.0,100.0,0.0,0.0,0.0,0.0,3134.285714285714,3052.6,4234.555555555556,4138.0,305.4495,304.97575,314.5915,314.5455,21.8904,20.5607,21.8789,21.4011,314.999998,314.999998,324.999988,324.999988,99.559,99.50705,99.56652857142858,99.54625714285714,0.10266666666666646,-0.015333333333333199,-0.09166666666666656,0.14100000000000001,-0.041666666666671404,-0.04333333333332945,1.53,1.501,37.815,29.504333333333335,37.742999999999995,34.757,56.120000000000005,34.7025,59.4005,52.053,54.037,33.851,58.0055,50.4045,53.191,33.3975,57.9415,49.82833333333333,-0.124,-0.022499999999999964,0.101735,0.11228500000000001,0.0,210.74,210.775,207.60000000000002,207.60000000000002,190.012512,21.04372
13,0.0,0.0,0.0,1.0,1.0,0.0,0.0,1.0,0.0,100.0,1.0,1.1856,26.0,0.0,0.0,0.0,59.999996,0.0,26.0,26.0,26.0,26.0,0.08211111111111112,0.27849999999999997,0.053200000000000004,293.015,-2.7339,-2.6889,-1.5792000000000002,-1.5115,-232.1,216.04250000000002,190.72425,0.0,0.0,0.0,0.0,0.026933333333333333,-5.498166666666667,-5.498166666666667,-0.5402,-0.1080000000000001,0.016999999999999904,1.104,67.444,0.02520000000000011,-0.217875,-0.8959999999999999,100.0,1.0,1.0,208.00666666666666,0.0,0.0,0.0,0.0,0.0,0.0,0.0,8816.6,0.0,55.0,5.0,242.76666666666665,1.0,0.0,0.0,0.0,0.0,0.0,1.0,0.0,0.6600000000000001,0.6600000000000001,0.0,0.0,1.0,55.0,616.79921,10000.0,85.000001,85.000001,85.000001,85.000001,395.0,0.0,0.0,0.0,1.0,111.11,52.887,52.887,48.400999999999996,48.400999999999996,34.0,-21.325,27.251666666666665,-26.53,32.525,0.0,1782.936,-0.8249999999999993,100.0,27.55,27.392,42.292,42.515,0.0,0.0,100.0,0.0,0.0,0.0,0.0,3034.5714285714284,3145.7,4079.777777777778,4324.2,305.5475,304.8605,314.843,314.15575,21.9001,20.5661,21.8894,21.4102,314.999998,314.999998,324.999988,324.999988,99.55901428571428,99.50705,99.56667142857142,99.5464,0.13433333333333364,0.007333333333333414,-0.06933333333333336,0.1645000000000001,-0.01999999999999602,-0.05833333333333002,1.5275,1.4889999999999999,37.876000000000005,29.538333333333334,37.808,34.814,56.108999999999995,34.74,59.439499999999995,52.117,54.027,33.8855,58.0415,50.466,53.179,33.431,57.974000000000004,49.888666666666666,-0.14449999999999996,-0.007000000000000117,0.10752500000000001,0.11131500000000001,0.0,211.16500000000002,211.22500000000002,208.00666666666666,208.00666666666666,190.012512,21.04372
14,0.0,0.0,0.0,1.0,1.0,0.0,0.0,1.0,0.0,100.0,1.0,1.1856,26.0,0.0,0.0,0.0,59.999996,0.0,26.0,26.0,26.0,26.0,0.10477777777777778,0.29080000000000017,-0.011475,293.274,-2.732,-2.6247,-1.58905,-1.5124,-228.66,216.01999999999998,190.703,0.0,0.0,0.0,0.0,0.028933333333333332,-5.498166666666667,-5.498166666666667,-0.5495,-0.11850000000000005,0.04312499999999986,-0.254,67.58500000000001,0.03750000000000009,-0.2288,-0.984,100.0,1.0,1.0,208.52666666666667,0.0,0.0,0.0,0.0,0.0,0.0,0.0,8838.7,0.0,55.0,5.0,243.28,0.0,0.0,0.0,0.0,0.0,0.0,1.0,0.0,0.7109999999999985,0.7109999999999985,0.0,0.0,0.0,55.0,616.79921,10000.0,85.000001,85.000001,85.000001,85.000001,395.0,0.0,0.0,0.0,1.0,111.11,53.055,53.055,48.584,48.584,34.0,-20.7675,26.808333333333334,-25.49,30.305,0.0,1782.885,-0.9450000000000003,100.0,27.246,27.645,42.126,42.814,0.0,0.0,100.0,0.0,0.0,0.0,0.0,3003.5714285714284,3124.8,3956.6666666666665,4127.4,305.8155,304.76,315.2295,314.573,21.9097,20.5715,21.8997,21.4193,314.999998,314.999998,324.999988,324.999988,99.55904285714286,99.50705,99.56681428571429,99.54654285714285,0.13666666666666671,0.010000000000000231,-0.07033333333333336,0.15766666666666684,-0.060000000000002274,-0.03833333333332689,1.5645,1.5365000000000002,37.936,29.572,37.873000000000005,34.8705,56.098,34.778,59.4755,52.1795,54.016,33.920500000000004,58.075,50.525999999999996,53.167,33.4645,58.004999999999995,49.94766666666666,-0.14500000000000002,-0.0050000000000001155,0.10576500000000001,0.10324000000000001,0.0,211.595,211.65,208.52666666666667,208.52666666666667,190.012512,21.04372
15,0.0,0.0,0.0,1.0,1.0,0.0,0.0,1.0,0.0,100.0,1.0,1.1856,26.0,0.0,0.0,0.0,59.999996,0.0,26.0,26.0,26.0,26.0,0.10855555555555556,0.2924,0.0135,293.289,-2.7079,-2.5912,-1.61295,-1.4549,-225.61,216.0025,190.683875,0.0,0.0,0.0,0.0,0.0307,-5.498166666666667,-5.498166666666667,-0.54,0.25949999999999995,0.074125,1.032,67.711,0.0504,-0.20950000000000002,-1.202,100.0,1.0,1.0,208.89333333333332,0.0,0.0,0.0,0.0,0.0,0.0,0.0,8854.2,0.0,55.0,5.0,243.73000000000002,1.0,0.0,0.0,0.0,0.0,0.0,1.0,0.0,0.7560000000000002,0.7560000000000002,0.0,0.0,1.0,55.0,616.79921,10000.0,85.000001,85.000001,85.000001,85.000001,395.0,0.0,0.0,0.0,1.0,111.11,53.268,53.268,48.615,48.615,34.0,-18.085,27.525,-24.246666666666666,32.7275,0.0,1782.841,-0.9949999999999992,100.0,27.41,27.505,41.983000000000004,42.765,0.0,0.0,100.0,0.0,0.0,0.0,0.0,2767.5714285714284,3180.3,3914.1111111111113,4367.9,306.3115,304.76725,315.2985,314.092,21.9181,20.5763,21.9088,21.4273,314.999998,314.999998,324.999988,324.999988,99.55905714285714,99.50705,99.56694285714286,99.54667142857143,0.15733333333333333,0.02666666666666684,-0.044166666666666576,0.17866666666666675,-0.03999999999999915,-0.07000000000000028,1.563,1.5110000000000001,37.988,29.602,37.93,34.920500000000004,56.088,34.8115,59.507,52.235,54.006,33.951499999999996,58.104,50.579499999999996,53.156,33.4945,58.031,50.00033333333333,-0.15449999999999997,0.0030000000000000027,0.09989,0.11173000000000001,0.0,211.995,212.09,208.89333333333332,208.89333333333332,190.012512,21.04372
16,0.0,0.0,0.0,1.0,1.0,0.0,0.0,1.0,0.0,100.0,1.0,1.1856,26.0,0.0,0.0,0.0,59.999996,0.0,26.0,26.0,26.0,26.0,0.129,0.26360000000000006,-0.056675,293.32,-2.7989,-2.5965,-1.58635,-1.4577,-222.16,215.98250000000002,190.661875,0.0,0.0,0.0,0.0,0.0327,-5.498166666666667,-5.498166666666667,-0.5626,-0.7065000000000001,0.05774999999999997,-1.065,67.85300000000001,0.06269999999999998,-0.22765000000000002,-1.186,100.0,1.0,1.0,209.33666666666667,0.0,0.0,0.0,0.0,0.0,0.0,0.0,8873.0,0.0,55.0,5.0,244.24,0.0,0.0,0.0,0.0,0.0,0.0,1.0,0.0,0.8069999999999986,0.8069999999999986,0.0,0.0,0.0,55.0,616.79921,10000.0,85.000001,85.000001,85.000001,85.000001,395.0,0.0,0.0,0.0,1.0,166.665,53.146,53.146,48.431,48.431,34.0,-20.565,27.621666666666666,-23.393333333333334,31.225,0.0,1782.788,-0.8900000000000006,100.0,26.934,27.738,42.139,42.954,0.0,0.0,100.0,0.0,0.0,0.0,0.0,3005.142857142857,3154.6,3929.222222222222,4091.5,305.9055,304.69825,315.3055,314.679,21.9273,20.5818,21.9192,21.4364,314.999998,314.999998,324.999988,324.999988,99.55905714285714,99.50706666666666,99.56707142857142,99.54682857142858,0.15366666666666662,0.02933333333333321,-0.033333333333333326,0.19566666666666688,-0.046666666666666856,-0.045000000000001705,1.5705,1.5165000000000002,38.046,29.636333333333333,37.995000000000005,34.9775,56.074,34.8505,59.545,52.2975,53.992999999999995,33.9875,58.138999999999996,50.6395,53.141999999999996,33.528999999999996,58.063,50.059333333333335,-0.14700000000000002,-0.0040000000000000036,0.09768500000000001,0.111975,0.0,212.39,212.485,209.33666666666667,209.33666666666667,190.012512,21.04372
17,0.0,0.0,0.0,1.0,1.0,0.0,0.0,1.0,0.0,100.0,1.0,1.1856,26.0,0.0,0.0,0.0,59.999996,0.0,26.0,26.0,26.0,26.0,0.12955555555555553,0.2883,0.0245,292.816,-2.7626,-2.5768,-1.6299000000000001,-1.4774,-218.49,215.9675,190.637875,0.0,0.0,0.0,0.0,0.034833333333333334,-5.498166666666667,-5.498166666666667,-0.549,0.44999999999999996,0.03937499999999994,-0.609,68.002,0.06580000000000008,-0.2058,-1.0820000000000007,100.0,1.0,1.0,209.72333333333333,0.0,0.0,0.0,0.0,0.0,0.0,0.0,8889.4,0.0,55.0,5.0,244.78,1.0,0.0,0.0,0.0,0.0,0.0,1.0,0.0,0.8610000000000007,0.8610000000000007,0.0,0.0,1.0,55.0,616.79921,10000.0,85.000001,85.000001,85.000001,85.000001,395.0,0.0,0.0,0.0,1.0,111.11,52.856,52.856,48.08,48.08,34.0,-20.445,26.786666666666665,-26.946666666666665,32.955,0.0,1782.736,-0.9749999999999996,100.0,27.408,27.981,41.947,42.995000000000005,0.0,0.0,100.0,0.0,0.0,0.0,0.0,3087.714285714286,3055.0,4304.777777777777,4287.4,305.6205,305.009,314.5025,314.24325,21.9374,20.587699999999998,21.9302,21.4459,314.999998,314.999998,324.999988,324.999988,99.55908571428571,99.50706666666666,99.56722857142857,99.54697142857142,0.16500000000000004,0.038000000000000256,-0.03533333333333333,0.18683333333333318,-0.03999999999999915,-0.036666666666668846,1.5265,1.484,38.108999999999995,29.673333333333332,38.064,35.037,56.064,34.893,59.582499999999996,52.363,53.983999999999995,34.027,58.174,50.703,53.131,33.567,58.095,50.12133333333333,-0.15349999999999997,0.0030000000000000027,0.10325000000000001,0.11202500000000001,0.0,212.91,212.965,209.72333333333333,209.72333333333333,190.012512,21.04372
18,0.0,0.0,0.0,1.0,1.0,0.0,0.0,1.0,0.0,100.0,1.0,1.1856,26.0,0.0,0.0,0.0,59.999996,0.0,26.0,26.0,26.0,26.0,0.14333333333333334,0.28590000000000004,-0.00795,292.816,-2.7972,-2.5471,-1.6492,-1.4213,-215.22,215.95749999999998,190.61675,0.0,0.0,0.0,0.0,0.03673333333333333,-5.498166666666667,-5.498166666666667,-0.5629000000000001,-0.48950000000000005,0.06862499999999994,-0.2559999999999998,68.134,0.06530000000000014,-0.22512500000000002,-1.2479999999999993,100.0,1.0,1.0,210.16666666666669,0.0,0.0,0.0,0.0,0.0,0.0,0.0,8908.2,0.0,55.0,5.0,245.25333333333333,0.0,0.0,0.0,0.0,0.0,0.0,1.0,0.0,0.9089999999999989,0.9089999999999989,0.0,0.0,0.0,55.0,616.79921,10000.0,85.000001,85.000001,85.000001,85.000001,395.0,0.0,0.0,0.0,1.0,166.665,52.643,52.643,48.096000000000004,48.096000000000004,34.0,-20.3125,29.42,-25.323333333333334,31.0275,0.0,1782.685,-1.3100000000000005,100.0,27.172,27.928,42.256,43.399,0.0,0.0,100.0,0.0,0.0,0.0,0.0,3101.4285714285716,3282.3,4030.0,4171.4,305.6285,304.3445,315.10475,314.50975,21.9462,20.5929,21.94,21.4546,314.999998,314.999998,324.999988,324.999988,99.55911428571429,99.50706666666666,99.56737142857143,99.54712857142857,0.17666666666666675,0.05266666666666664,-0.04066666666666663,0.18816666666666682,-0.051666666666669414,-0.036666666666668846,1.5675,1.528,38.164,29.705666666666666,38.125,35.091499999999996,56.054,34.9335,59.62,52.4275,53.973,34.064499999999995,58.209,50.765,53.120000000000005,33.603,58.1265,50.18233333333333,-0.1775,0.020000000000000018,0.10271000000000001,0.108615,0.0,213.285,213.35000000000002,210.16666666666669,210.16666666666669,190.012512,21.04372
19,0.0,0.0,0.0,1.0,1.0,0.0,0.0,1.0,0.0,100.0,1.0,1.1856,26.0,0.0,0.0,0.0,59.999996,0.0,26.0,26.0,26.0,26.0,0.17744444444444446,0.29059999999999997,0.06380000000000001,292.358,-2.7173,-2.6476,-1.5832000000000002,-1.4038,-211.54,215.95,190.592875,0.0,0.0,0.0,0.0,0.038900000000000004,-5.498166666666667,-5.498166666666667,-0.5451,0.7375,0.07712499999999989,-0.6320000000000001,68.282,0.07650000000000001,-0.20902500000000002,-1.67,100.0,1.0,1.0,210.54666666666668,0.0,0.0,0.0,0.0,0.0,0.0,0.0,8924.3,0.0,55.0,5.0,245.78666666666666,1.0,0.0,0.0,0.0,0.0,0.0,1.0,0.0,0.963000000000001,0.963000000000001,0.0,0.0,1.0,55.0,616.79921,10000.0,85.000001,85.000001,85.000001,85.000001,395.0,0.0,0.0,0.0,1.0,111.11,52.368,52.368,47.775,47.775,34.0,-17.982499999999998,29.66,-24.366666666666664,35.25,0.0,1782.634,-1.5600000000000005,100.0,27.626,28.465,42.064,43.536,0.0,0.0,100.0,0.0,0.0,0.0,0.0,3009.142857142857,3150.1,4177.555555555556,4500.2,305.7425,304.5645,314.717,313.7235,21.9562,20.5989,21.9509,21.4643,314.999998,314.999998,324.999988,324.999988,99.55912857142857,99.50708333333333,99.56751428571428,99.54727142857143,0.20100000000000007,0.06433333333333335,-0.015000000000000013,0.20966666666666667,-0.03999999999999915,-0.04833333333333201,1.521,1.4580000000000002,38.227000000000004,29.743333333333332,38.193,35.152,56.047,34.9765,59.655,52.491,53.966,34.1045,58.241,50.826499999999996,53.111999999999995,33.6415,58.1555,50.242666666666665,-0.1955,0.040999999999999925,0.108685,0.11216000000000001,0.0,213.755,213.89,210.54666666666668,210.54666666666668,190.012512,21.04372
20,0.0,0.0,0.0,1.0,1.0,0.0,0.0,1.0,0.0,100.0,1.0,1.1856,26.0,0.0,0.0,0.0,59.999996,0.0,26.0,26.0,26.0,26.0,0.16355555555555554,0.27270000000000016,0.00995,292.862,-2.8172,-2.599,-1.5887,-1.5258,-208.05,215.9475,190.5705,0.0,0.0,0.0,0.0,0.0409,-5.498166666666667,-5.498166666666667,-0.5630000000000001,-1.2915,0.0774999999999999,0.02200000000000024,68.422,0.09440000000000004,-0.230475,-1.5939999999999994,100.0,1.0,1.0,210.98666666666668,0.0,0.0,0.0,0.0,0.0,0.0,0.0,8942.9,0.0,55.0,5.0,246.29333333333335,0.0,0.0,0.0,0.0,0.0,0.0,0.0,0.0,1.0139999999999993,1.0139999999999993,0.0,0.0,0.0,55.0,616.79921,10000.0,85.000001,85.000001,85.000001,85.000001,395.0,0.0,0.0,0.0,1.0,111.11,53.055,53.055,47.775,47.775,34.0,-19.072499999999998,28.65833333333333,-21.823333333333338,34.5475,0.0,1782.583,-0.375,100.0,27.179,27.931,42.59,43.839,0.0,0.0,100.0,0.0,0.0,0.0,0.0,2849.285714285714,3247.9,3938.1111111111113,4165.3,306.2685,304.57275,315.18225,314.46475,21.9653,20.6045,21.9615,21.4736,314.999998,314.999998,324.999988,324.999988,99.55915714285715,99.5071,99.56767142857143,99.54742857142857,0.16700000000000026,0.035666666666666735,0.0040000000000000036,0.22533333333333339,-0.04333333333332945,-0.05833333333333002,1.5525,1.4849999999999999,38.283,29.778,38.259,35.21,56.033,35.016999999999996,59.6935,52.5555,53.954,34.141999999999996,58.277,50.8885,53.098,33.6775,58.1885,50.304,-0.12249999999999994,-0.02750000000000008,0.10867,0.10089000000000001,0.0,214.125,214.25,210.98666666666668,210.98666666666668,190.012512,21.04372
21,0.0,0.0,0.0,1.0,1.0,0.0,0.0,1.0,0.0,100.0,1.0,1.1856,26.0,0.0,0.0,0.0,59.999996,0.0,26.0,26.0,26.0,26.0,0.10933333333333332,0.2821,-0.072475,293.091,-2.7209,-2.6614,-1.6405500000000002,-1.4964,-205.18,215.9475,190.551375,0.0,0.0,0.0,0.0,0.04256666666666667,-5.498166666666667,-5.498166666666667,-0.5772,0.5249999999999999,0.04525000000000001,-0.041999999999999815,68.532,0.09509999999999996,-0.22575,-0.8659999999999997,100.0,1.0,1.0,211.52666666666667,0.0,0.0,0.0,0.0,0.0,0.0,0.0,8965.8,0.0,55.0,5.0,246.69,1.0,0.0,0.0,0.0,0.0,0.0,0.0,0.0,1.056000000000001,1.056000000000001,0.0,0.0,1.0,55.0,616.79921,10000.0,85.000001,85.000001,85.000001,85.000001,395.0,0.0,0.0,0.0,1.0,166.665,52.704,52.704,48.737,48.737,34.0,-20.615,26.763333333333335,-22.45,31.475,0.0,1782.538,0.08999999999999986,100.0,27.56,28.045,41.991,43.278999999999996,0.0,0.0,100.0,0.0,0.0,0.0,0.0,2949.142857142857,3183.3,3933.5555555555557,4000.3,305.7885,304.68825,315.36825,315.0025,21.973,20.6092,21.9698,21.481,314.999998,314.999998,324.999988,324.999988,99.55917142857143,99.5071,99.56778571428572,99.54755714285714,0.13333333333333375,-0.010333333333333306,-0.004166666666666652,0.21716666666666673,-0.051666666666669414,-0.07000000000000028,1.626,1.5845000000000002,38.331,29.807333333333332,38.311,35.256,56.024,35.052,59.722,52.6075,53.944,34.1745,58.3035,50.9385,53.088,33.709,58.212,50.353,-0.07799999999999996,-0.08299999999999996,0.1024,0.10672000000000001,0.0,214.54500000000002,214.61,211.52666666666667,211.52666666666667,190.012512,21.04372
22,0.0,0.0,0.0,1.0,1.0,0.0,0.0,1.0,0.0,100.0,1.0,1.1856,26.0,0.0,0.0,0.0,59.999996,0.0,26.0,26.0,26.0,26.0,0.07255555555555555,0.27590000000000003,-0.0054,292.603,-2.6911,-2.6786,-1.62375,-1.4993,-201.47,215.95,190.526125,0.0,0.0,0.0,0.0,0.04473333333333333,-5.498166666666667,-5.498166666666667,-0.5568000000000001,-0.04200000000000004,0.04237500000000005,0.6230000000000002,68.682,0.059700000000000086,-0.20622500000000002,0.2160000000000002,100.0,1.0,1.0,211.75,0.0,0.0,0.0,0.0,0.0,0.0,0.0,8975.3,0.0,55.0,5.0,247.22666666666666,0.0,0.0,0.0,0.0,0.0,0.0,0.0,0.0,1.1099999999999994,1.1099999999999994,0.0,0.0,0.0,55.0,616.79921,10000.0,85.000001,85.000001,85.000001,85.000001,395.0,0.0,0.0,0.0,1.0,111.11,52.933,52.933,47.501,47.501,34.0,-21.0775,24.573333333333334,-26.943333333333335,33.1,0.0,1782.487,0.5300000000000011,100.0,27.716,27.979,42.679,43.463,0.0,0.0,100.0,0.0,0.0,0.0,0.0,2816.285714285714,3107.5,4168.111111111111,4340.6,306.161,304.925,314.708,314.12875,21.9829,20.615099999999998,21.9809,21.4907,314.999998,314.999998,324.999988,324.999988,99.55918571428572,99.5071,99.56794285714285,99.5477,0.08866666666666667,-0.04899999999999993,-0.05049999999999999,0.1751666666666667,-0.03999999999999915,-0.04833333333333201,1.4945,1.4965000000000002,38.393,29.844,38.381,35.317,56.01,35.091499999999996,59.7615,52.6715,53.931,34.211,58.34,51.0005,53.073,33.744,58.245,50.413333333333334,-0.03200000000000003,-0.11749999999999994,0.10547500000000001,0.109795,0.0,215.035,215.025,211.75,211.75,190.012512,21.04372
23,0.0,0.0,0.0,1.0,1.0,0.0,0.0,1.0,0.0,100.0,1.0,1.1856,26.0,0.0,0.0,0.0,59.999996,0.0,26.0,26.0,26.0,26.0,0.014888888888888889,0.24409999999999998,-0.052325,292.603,-2.6924,-2.6572,-1.6478000000000002,-1.5896,-197.95999999999998,215.95499999999998,190.502625,0.0,0.0,0.0,0.0,0.04676666666666667,-5.498166666666667,-5.498166666666667,-0.5765,-0.04899999999999993,0.006624999999999881,-1.076,68.81700000000001,0.013400000000000079,-0.23175,0.8660000000000005,100.0,1.0,1.0,212.32333333333332,0.0,0.0,0.0,0.0,0.0,0.0,0.0,8999.6,0.0,55.0,5.0,247.71333333333334,1.0,0.0,0.0,0.0,0.0,0.0,0.0,0.0,1.1610000000000014,1.1610000000000014,0.0,0.0,1.0,55.0,616.79921,10000.0,85.000001,85.000001,85.000001,85.000001,395.0,0.0,0.0,0.0,1.0,111.11,52.124,52.124,48.584,48.584,34.0,-26.927500000000002,22.325,-29.123333333333335,26.17,0.0,1782.434,0.6500000000000004,100.0,28.089,28.075,42.868,43.485,0.0,0.0,100.0,0.0,0.0,0.0,0.0,3284.714285714286,3026.8,4014.3333333333335,3847.6000000000004,304.946,305.05325,315.23075,315.24825,21.9923,20.6206,21.9914,21.4999,314.999998,314.999998,324.999988,324.999988,99.55918571428572,99.50711666666666,99.56808571428571,99.54785714285714,0.046333333333333115,-0.08499999999999996,-0.12016666666666664,0.10333333333333328,-0.06666666666666998,-0.03166666666666629,1.5474999999999999,1.5790000000000002,38.452,29.878666666666668,38.446,35.374,55.995999999999995,35.132,59.798,52.7325,53.917,34.2485,58.374,51.059,53.059,33.78,58.275999999999996,50.470666666666666,-0.028000000000000025,-0.1260000000000001,0.10693000000000001,0.10641500000000001,0.0,215.49,215.4,212.32333333333332,212.32333333333332,190.012512,21.04372
24,0.0,0.0,0.0,1.0,1.0,0.0,0.0,1.0,0.0,100.0,1.0,1.1856,26.0,0.0,0.0,0.0,59.999996,0.0,26.0,26.0,26.0,26.0,-0.03955555555555556,0.2773000000000001,-0.084175,292.847,-2.6955,-2.6897,-1.55335,-1.5478,-194.86,215.96,190.481625,0.0,0.0,0.0,0.0,0.04856666666666667,-5.498166666666667,-5.498166666666667,-0.5795,-0.607,0.0006249999999998757,0.7570000000000001,68.94,-0.024399999999999977,-0.21825,0.9479999999999995,100.0,1.0,1.0,212.56333333333333,0.0,0.0,0.0,0.0,0.0,0.0,0.0,9009.8,0.0,55.0,5.0,248.15333333333334,0.0,0.0,0.0,0.0,0.0,0.0,0.0,0.0,1.2059999999999995,1.2059999999999995,0.0,0.0,0.0,55.0,616.79921,10000.0,85.000001,85.000001,85.000001,85.000001,395.0,0.0,0.0,0.0,1.0,166.665,53.375,53.375,47.577,47.577,34.0,-23.785,20.718333333333334,-31.753333333333334,26.47,0.0,1782.39,0.620000000000001,100.0,27.96,27.506999999999998,43.192,43.106,0.0,0.0,100.0,0.0,0.0,0.0,0.0,2886.5714285714284,2924.4,4266.111111111111,4091.8,306.038,305.59625,314.418,314.76875,22.0006,20.6253,22.0007,21.5078,314.999998,314.999998,324.999988,324.999988,99.5592,99.50713333333333,99.56821428571429,99.54798571428572,0.03400000000000025,-0.10433333333333317,-0.1416666666666666,0.08000000000000007,-0.05333333333332746,-0.03999999999999915,1.4875,1.533,38.504000000000005,29.908,38.504000000000005,35.424,55.980000000000004,35.1665,59.832499999999996,52.785,53.903,34.2805,58.406,51.1095,53.044,33.8105,58.3055,50.52033333333333,-0.030000000000000027,-0.1260000000000001,0.10198000000000002,0.10782000000000001,0.0,215.865,215.76,212.56333333333333,212.56333333333333,190.012512,21.04372
25,0.0,0.0,0.0,1.0,1.0,0.0,0.0,1.0,0.0,100.0,1.0,1.1856,26.0,0.0,0.0,0.0,59.999996,0.0,26.0,26.0,26.0,26.0,-0.06388888888888888,0.2713000000000001,-0.0483,292.77,-2.7438,-2.6696999999999997,-1.5486499999999999,-1.5675,-191.35,215.9625,190.45625,0.0,0.0,0.0,0.0,0.050633333333333336,-5.498166666666667,-5.498166666666667,-0.6126,0.08950000000000002,-0.020000000000000018,-1.574,69.07300000000001,-0.05819999999999992,-0.22610000000000002,1.1180000000000003,100.0,1.0,1.0,213.14333333333332,0.0,0.0,0.0,0.0,0.0,0.0,0.0,9034.4,0.0,55.0,5.0,248.63666666666666,1.0,0.0,0.0,0.0,0.0,0.0,0.0,0.0,1.256999999999998,1.256999999999998,0.0,0.0,1.0,55.0,616.79921,10000.0,85.000001,85.000001,85.000001,85.000001,395.0,0.0,0.0,0.0,1.0,166.665,52.292,52.292,48.431,48.431,34.0,-29.865000000000002,21.05166666666667,-30.48,23.7825,0.0,1782.338,0.5850000000000009,100.0,27.892,27.731,42.965,42.699,0.0,0.0,100.0,0.0,0.0,0.0,0.0,3354.714285714286,3128.5,3992.777777777778,3898.1000000000004,304.914,304.79375,315.21675,315.201,22.009999999999998,20.6307,22.011,21.5168,314.999998,314.999998,324.999988,324.999988,99.5592,99.50713333333333,99.56835714285714,99.54812857142858,0.0023333333333335204,-0.1353333333333333,-0.17866666666666664,0.05483333333333329,-0.05333333333332746,-0.03166666666666629,1.571,1.608,38.562,29.942,38.569,35.480000000000004,55.963,35.2095,59.868,52.842,53.885999999999996,34.32,58.439499999999995,51.164,53.025999999999996,33.8485,58.335499999999996,50.57366666666667,-0.03200000000000003,-0.13149999999999995,0.10503000000000001,0.11553000000000001,0.0,216.28,216.17000000000002,213.14333333333332,213.14333333333332,190.012512,21.04372
26,0.0,0.0,0.0,1.0,1.0,0.0,0.0,1.0,0.0,100.0,1.0,1.1856,26.0,0.0,0.0,0.0,59.999996,0.0,26.0,26.0,26.0,26.0,-0.106,0.274,0.054075000000000005,291.595,-2.6632,-2.7781,-1.5749,-1.5877,-187.61,215.965,190.428875,0.0,0.0,0.0,0.0,0.0528,-5.498166666666667,-5.498166666666667,-0.5674,0.47550000000000003,-0.06437500000000007,-1.005,69.22,-0.07989999999999997,-0.19565000000000002,1.056000000000001,100.0,1.0,1.0,213.27666666666667,0.0,0.0,0.0,0.0,0.0,0.0,0.0,9040.0,0.0,55.0,5.0,249.16333333333336,0.0,0.0,0.0,0.0,0.0,0.0,0.0,0.0,1.311,1.311,0.0,0.0,0.0,55.0,616.79921,10000.0,85.000001,85.000001,85.000001,85.000001,395.0,0.0,0.0,0.0,1.0,111.11,52.078,52.078,46.463,46.463,34.0,-28.4925,19.656666666666666,-39.36,26.865000000000002,0.0,1782.285,0.3849999999999998,100.0,28.85,28.096,43.889,42.987,0.0,0.0,100.0,0.0,0.0,0.0,0.0,3259.285714285714,2865.9,4681.111111111111,4424.8,304.983,305.51825,313.579,313.9295,22.0203,20.6366,22.0223,21.5265,314.999998,314.999998,324.999988,324.999988,99.5592,99.50715,99.56851428571429,99.54828571428571,0.0006666666666665932,-0.14500000000000002,-0.19933333333333336,0.023166666666666558,-0.061666666666667425,-0.051666666666669414,1.4244999999999999,1.4449999999999998,38.626999999999995,29.978666666666665,38.64,35.5405,55.949,35.2565,59.913,52.9065,53.872,34.3635,58.4815,51.226,53.012,33.89,58.3745,50.634,-0.055499999999999994,-0.11050000000000004,0.10537,0.10927500000000001,0.0,216.78,216.67000000000002,213.27666666666667,213.27666666666667,190.012512,21.04372
27,0.0,0.0,0.0,1.0,1.0,0.0,0.0,1.0,0.0,100.0,1.0,1.1856,26.0,0.0,0.0,0.0,59.999996,0.0,26.0,26.0,26.0,26.0,-0.09588888888888888,0.2572000000000001,-0.026875,292.16,-2.6177,-2.7557,-1.5561500000000001,-1.6627,-184.49,215.965,190.40725,0.0,0.0,0.0,0.0,0.0546,-5.498166666666667,-5.498166666666667,-0.5987,-1.0575,-0.06712499999999988,0.758,69.337,-0.08609999999999995,-0.24445,0.8560000000000008,100.0,1.0,1.0,213.8,0.0,0.0,0.0,0.0,0.0,0.0,0.0,9062.2,0.0,55.0,5.0,249.59,1.0,0.0,0.0,0.0,0.0,0.0,0.0,0.0,1.355999999999998,1.355999999999998,0.0,0.0,1.0,55.0,616.79921,10000.0,85.000001,85.000001,85.000001,85.000001,395.0,0.0,0.0,0.0,1.0,111.11,52.292,52.292,47.241,47.241,34.0,-27.310000000000002,21.10666666666667,-32.88333333333333,24.725,0.0,1782.241,0.3049999999999997,100.0,28.740000000000002,27.634999999999998,44.557,43.221000000000004,0.0,0.0,100.0,0.0,0.0,0.0,0.0,3158.285714285714,3056.4,4093.3333333333335,3979.1000000000004,305.1755,305.19125,314.8525,314.96025,22.0287,20.6413,22.0318,21.5347,314.999998,314.999998,324.999988,324.999988,99.5592,99.50716666666666,99.56865714285715,99.54841428571429,-0.0016666666666667052,-0.1353333333333333,-0.1941666666666666,0.02933333333333321,-0.03999999999999915,-0.051666666666669414,1.4885,1.533,38.679,30.008,38.699,35.592,55.934,35.2935,59.95,52.9595,53.858999999999995,34.397999999999996,58.516,51.277,52.997,33.9225,58.4065,50.68366666666667,-0.05699999999999994,-0.10349999999999993,0.10059000000000001,0.11499000000000001,0.0,217.05,216.99,213.8,213.8,190.012512,21.04372
28,0.0,0.0,0.0,1.0,1.0,0.0,0.0,1.0,0.0,100.0,1.0,1.1856,26.0,0.0,0.0,0.0,59.999996,0.0,26.0,26.0,26.0,26.0,-0.09522222222222224,0.27780000000000005,-0.05235,292.374,-2.6531,-2.7356,-1.5079500000000001,-1.6219999999999999,-180.95,215.9625,190.381875,0.0,0.0,0.0,0.0,0.056666666666666664,-5.498166666666667,-5.498166666666667,-0.5975,0.6745,-0.06862499999999994,-0.5539999999999998,69.47,-0.09029999999999994,-0.21382500000000002,0.8339999999999996,100.0,1.0,1.0,214.2866666666667,0.0,0.0,0.0,0.0,0.0,0.0,0.0,9082.9,0.0,55.0,5.0,250.06333333333333,0.0,0.0,0.0,0.0,0.0,0.0,0.0,0.0,1.407,1.407,0.0,0.0,0.0,55.0,616.79921,10000.0,85.000001,85.000001,85.000001,85.000001,395.0,0.0,0.0,0.0,1.0,166.665,52.322,52.322,47.974000000000004,47.974000000000004,34.0,-28.77,19.706666666666667,-33.22666666666666,23.622500000000002,0.0,1782.187,0.10999999999999943,100.0,28.662,27.756,43.761,42.762,0.0,0.0,100.0,0.0,0.0,0.0,0.0,3286.857142857143,2888.9,4155.333333333333,4035.7,304.9225,305.5025,314.88775,314.8735,22.0383,20.6467,22.042,21.5436,314.999998,314.999998,324.999988,324.999988,99.55921428571429,99.50718333333333,99.56881428571428,99.54857142857144,-0.0016666666666667052,-0.1379999999999999,-0.21166666666666656,0.014000000000000012,-0.04833333333333201,-0.05833333333333002,1.5285,1.568,38.739999999999995,30.041666666666664,38.763,35.6475,55.918,35.338499999999996,59.9875,53.0195,53.844,34.439499999999995,58.551,51.3345,52.982,33.9625,58.438,50.739666666666665,-0.07450000000000001,-0.08850000000000002,0.11028,0.10552,0.0,217.515,217.465,214.2866666666667,214.2866666666667,190.012512,21.04372
29,0.0,0.0,0.0,1.0,1.0,0.0,0.0,1.0,0.0,100.0,1.0,1.1856,26.0,0.0,0.0,0.0,59.999996,0.0,26.0,26.0,26.0,26.0,-0.07355555555555555,0.2670000000000001,0.014225000000000002,292.13,-2.6004,-2.7856,-1.5463,-1.5958999999999999,-177.2,215.95499999999998,190.353875,0.0,0.0,0.0,0.0,0.05883333333333334,-5.498166666666667,-5.498166666666667,-0.6092000000000001,-0.7030000000000001,-0.06537499999999996,-0.569,69.613,-0.07839999999999991,-0.221175,0.4820000000000002,100.0,1.0,1.0,214.58666666666667,0.0,0.0,0.0,0.0,0.0,0.0,0.0,9095.6,0.0,55.0,5.0,250.58333333333334,1.0,0.0,0.0,0.0,0.0,0.0,0.0,0.0,1.4609999999999985,1.4609999999999985,0.0,0.0,1.0,55.0,616.79921,10000.0,85.000001,85.000001,85.000001,85.000001,395.0,0.0,0.0,0.0,1.0,166.665,52.322,52.322,47.333,47.333,34.0,-28.32,20.795,-32.843333333333334,25.0825,0.0,1782.134,0.120000000000001,100.0,28.372,27.663,44.156,43.088,0.0,0.0,100.0,0.0,0.0,0.0,0.0,3317.714285714286,2949.6,4192.222222222223,4105.2,304.9145,305.25275,314.6705,314.654,22.0483,20.6523,22.0533,21.5534,314.999998,314.999998,324.999988,324.999988,99.55921428571429,99.50721666666666,99.56897142857143,99.54871428571428,0.0016666666666669272,-0.1353333333333333,-0.17899999999999994,0.03400000000000003,-0.054999999999999716,-0.05333333333332746,1.492,1.5110000000000001,38.802,30.076999999999998,38.833,35.7085,55.900999999999996,35.3795,60.028999999999996,53.08,53.828,34.477000000000004,58.59,51.3925,52.965,33.9985,58.474000000000004,50.796,-0.07099999999999995,-0.08299999999999996,0.09947500000000001,0.11009500000000001,0.0,217.92000000000002,217.85500000000002,214.58666666666667,214.58666666666667,190.012512,21.04372
30,0.0,0.0,0.0,1.0,1.0,0.0,0.0,1.0,0.0,100.0,1.0,1.1856,26.0,0.0,0.0,0.0,59.999996,0.0,26.0,26.0,26.0,26.0,-0.06977777777777777,0.2550000000000001,-0.006175,291.626,-2.6585,-2.7668,-1.49025,-1.6513,-173.85,215.9475,190.328875,0.0,0.0,0.0,0.0,0.0608,-5.498166666666667,-5.498166666666667,-0.6002000000000001,0.8005,-0.0625,-0.5,69.737,-0.07079999999999997,-0.21457500000000002,0.54,100.0,1.0,1.0,215.01,0.0,0.0,0.0,0.0,0.0,0.0,0.0,9113.5,0.0,55.0,5.0,251.02666666666664,0.0,0.0,0.0,0.0,0.0,0.0,1.0,0.0,1.5090000000000003,1.5090000000000003,0.0,0.0,0.0,55.0,616.79921,10000.0,85.000001,85.000001,85.000001,85.000001,395.0,0.0,0.0,0.0,1.0,166.665,51.361,51.361,47.44,47.44,34.0,-28.9675,21.79,-33.18666666666667,26.0925,0.0,1782.087,-0.04499999999999993,100.0,29.272,28.418,43.963,43.144,0.0,0.0,100.0,0.0,0.0,0.0,0.0,3440.285714285714,3014.3,4280.888888888889,4083.7,304.5235,305.20925,314.5245,314.663,22.0574,20.6576,22.0631,21.562,314.999998,314.999998,324.999988,324.999988,99.55921428571429,99.50721666666666,99.56911428571429,99.54885714285714,0.02733333333333343,-0.11633333333333318,-0.1861666666666666,0.040000000000000036,-0.06499999999999773,-0.02833333333332888,1.4889999999999999,1.5025,38.858999999999995,30.11,38.894,35.7625,55.89,35.4215,60.0635,53.135,53.817,34.5155,58.6225,51.445499999999996,52.953,34.0355,58.5035,50.84766666666667,-0.08650000000000002,-0.08150000000000013,0.10296000000000001,0.10679500000000001,0.0,218.34,218.29000000000002,215.01,215.01,190.012512,21.04372
31,0.0,0.0,0.0,1.0,1.0,0.0,0.0,1.0,0.0,100.0,1.0,1.1856,26.0,0.0,0.0,0.0,59.999996,0.0,26.0,26.0,26.0,26.0,-0.05288888888888889,0.25480000000000014,0.0108,291.397,-2.7204,-2.6531,-1.53695,-1.646,-170.29,215.9375,190.303125,0.0,0.0,0.0,0.0,0.06286666666666667,-5.498166666666667,-5.498166666666667,-0.5947,-0.6819999999999999,-0.05312500000000009,0.6230000000000002,69.87100000000001,-0.057499999999999996,-0.226525,0.15399999999999991,100.0,1.0,1.0,215.32666666666665,0.0,0.0,0.0,0.0,0.0,0.0,0.0,9126.8,0.0,55.0,5.0,251.50666666666666,1.0,0.0,0.0,0.0,0.0,0.0,1.0,0.0,1.5599999999999987,1.5599999999999987,0.0,0.0,1.0,55.0,616.79921,10000.0,85.000001,85.000001,85.000001,85.000001,395.0,0.0,0.0,0.0,1.0,111.11,51.682,51.682,46.219,46.219,34.0,-26.5225,23.11333333333333,-32.7,28.895,0.0,1782.035,-0.08999999999999986,100.0,28.996,28.286,44.709,43.677,0.0,0.0,100.0,0.0,0.0,0.0,0.0,3195.285714285714,3239.7,4245.111111111111,4277.1,305.233,304.72925,314.457,314.363,22.0668,20.6632,22.0738,21.5714,314.999998,314.999998,324.999988,324.999988,99.55922857142858,99.50723333333333,99.56927142857143,99.549,0.04266666666666685,-0.09933333333333327,-0.16349999999999998,0.0668333333333333,-0.041666666666671404,-0.054999999999999716,1.459,1.4735,38.918,30.145,38.961,35.821,55.873999999999995,35.464,60.1055,53.197,53.802,34.555,58.661500000000004,51.504999999999995,52.937,34.073499999999996,58.539500000000004,50.906,-0.09299999999999997,-0.07000000000000006,0.10831500000000001,0.10667000000000001,0.0,218.70499999999998,218.675,215.32666666666665,215.32666666666665,190.012512,21.04372
32,0.0,0.0,0.0,1.0,1.0,0.0,0.0,1.0,0.0,100.0,1.0,1.1856,26.0,0.0,0.0,0.0,59.999996,0.0,26.0,26.0,26.0,26.0,-0.06188888888888889,0.26360000000000006,-0.038275,291.641,-2.6535,-2.7553,-1.6001500000000002,-1.5575999999999999,-166.94,215.9275,190.278875,0.0,0.0,0.0,0.0,0.0648,-5.498166666666667,-5.498166666666667,-0.6077,0.21650000000000003,-0.07774999999999999,0.27200000000000024,69.992,-0.04469999999999996,-0.22767500000000002,0.09200000000000053,100.0,1.0,1.0,215.80666666666667,0.0,0.0,0.0,0.0,0.0,0.0,0.0,9147.3,0.0,55.0,5.0,251.94333333333333,0.0,0.0,0.0,0.0,0.0,0.0,1.0,0.0,1.6080000000000005,1.6080000000000005,0.0,0.0,0.0,55.0,616.79921,10000.0,85.000001,85.000001,85.000001,85.000001,395.0,0.0,0.0,0.0,1.0,166.665,51.697,51.697,47.012,47.012,34.0,-25.945,23.325,-32.553333333333335,26.8575,0.0,1781.988,-0.09999999999999964,100.0,29.05,28.326999999999998,44.329,43.462,0.0,0.0,100.0,0.0,0.0,0.0,0.0,3248.0,3078.9,4235.444444444444,4205.1,304.9665,305.074,314.674,314.61225,22.0757,20.6684,22.0836,21.58,314.999998,314.999998,324.999988,324.999988,99.55922857142858,99.50725,99.5694,99.54914285714285,0.05600000000000005,-0.08866666666666667,-0.15716666666666657,0.07033333333333336,-0.03833333333332689,-0.05833333333333002,1.528,1.5430000000000001,38.973,30.177666666666667,39.022,35.8745,55.861000000000004,35.504,60.138999999999996,53.251,53.79,34.592,58.6935,51.557,52.924,34.1085,58.568,50.95666666666666,-0.09350000000000003,-0.07699999999999996,0.10994000000000001,0.09838000000000001,0.0,219.09,219.085,215.80666666666667,215.80666666666667,190.012512,21.04372
33,0.0,0.0,0.0,1.0,1.0,0.0,0.0,1.0,0.0,100.0,1.0,1.1856,26.0,0.0,0.0,0.0,59.999996,0.0,26.0,26.0,26.0,26.0,-0.035222222222222224,0.2662,-0.02365,291.885,-2.6712,-2.7452,-1.5382,-1.631,-163.57,215.91750000000002,190.25375,0.0,0.0,0.0,0.0,0.06676666666666667,-5.498166666666667,-5.498166666666667,-0.6125,-0.45799999999999996,-0.06637499999999985,1.4009999999999998,70.116,-0.03599999999999992,-0.21715,0.10600000000000076,100.0,1.0,1.0,216.11666666666667,0.0,0.0,0.0,0.0,0.0,0.0,0.0,9160.5,0.0,55.0,5.0,252.39333333333335,1.0,0.0,0.0,0.0,0.0,0.0,1.0,0.0,1.6559999999999988,1.6559999999999988,0.0,0.0,1.0,55.0,616.79921,10000.0,85.000001,85.000001,85.000001,85.000001,395.0,0.0,0.0,0.0,1.0,111.11,52.322,52.322,47.012,47.012,34.0,-24.794999999999998,22.83833333333333,-31.076666666666664,29.560000000000002,0.0,1781.941,-0.16499999999999915,100.0,28.783,27.968,44.278,43.522999999999996,0.0,0.0,100.0,0.0,0.0,0.0,0.0,3106.714285714286,3006.5,4185.888888888889,4263.2,305.4475,305.3275,314.625,314.3795,22.0845,20.6735,22.0934,21.5886,314.999998,314.999998,324.999988,324.999988,99.55922857142858,99.50726666666667,99.56955714285715,99.54927142857143,0.05433333333333357,-0.08199999999999985,-0.14533333333333331,0.08633333333333337,-0.04999999999999716,-0.051666666666669414,1.4865,1.4929999999999999,39.028,30.209333333333333,39.084,35.929,55.847,35.54,60.1745,53.3075,53.775999999999996,34.6255,58.7265,51.611000000000004,52.91,34.1405,58.5985,51.009,-0.09399999999999997,-0.0665,0.10990000000000001,0.11359500000000002,0.0,219.48000000000002,219.435,216.11666666666667,216.11666666666667,190.012512,21.04372
34,0.0,0.0,0.0,1.0,1.0,0.0,0.0,1.0,0.0,100.0,1.0,1.1856,26.0,0.0,0.0,0.0,59.999996,0.0,26.0,26.0,26.0,26.0,-0.034333333333333334,0.25849999999999995,-0.0741,292.358,-2.6904,-2.7237,-1.6104500000000002,-1.5853000000000002,-159.78,215.9025,190.224125,0.0,0.0,0.0,0.0,0.06896666666666666,-5.498166666666667,-5.498166666666667,-0.6477,-0.7605,-0.031625000000000014,0.911,70.254,-0.030200000000000005,-0.22617500000000001,0.03200000000000092,100.0,1.0,1.0,216.62,0.0,0.0,0.0,0.0,0.0,0.0,0.0,9181.7,0.0,55.0,5.0,252.88666666666666,0.0,0.0,0.0,0.0,0.0,0.0,1.0,0.0,1.7100000000000009,1.7100000000000009,0.0,0.0,0.0,55.0,616.79921,10000.0,85.000001,85.000001,85.000001,85.000001,395.0,0.0,0.0,0.0,1.0,166.665,52.734,52.734,47.76,47.76,34.0,-23.31,22.991666666666667,-30.033333333333335,27.43,0.0,1781.885,-0.21999999999999886,100.0,28.469,27.71,43.9,43.544,0.0,0.0,100.0,0.0,0.0,0.0,0.0,2970.0,2995.4,4031.777777777778,4118.1,305.704,305.336,315.11825,314.707,22.0942,20.6792,22.1044,21.598399999999998,314.999998,314.999998,324.999988,324.999988,99.55924285714286,99.50726666666667,99.56971428571428,99.54944285714285,0.06833333333333336,-0.07200000000000006,-0.14100000000000001,0.08299999999999996,-0.046666666666666856,-0.03499999999999659,1.5405,1.533,39.089,30.245333333333335,39.152,35.99,55.83,35.5805,60.211,53.37,53.760999999999996,34.6625,58.7605,51.6715,52.894,34.176,58.629,51.068,-0.09599999999999997,-0.0625,0.10374000000000001,0.10676500000000001,0.0,219.875,219.85000000000002,216.62,216.62,190.012512,21.04372
35,0.0,0.0,0.0,1.0,1.0,0.0,0.0,1.0,0.0,100.0,1.0,1.1856,26.0,0.0,0.0,0.0,59.999996,0.0,26.0,26.0,26.0,26.0,0.005333333333333333,0.25460000000000016,-0.040575,292.221,-2.6868,-2.6816,-1.5823,-1.6025,-156.2,215.89,190.19375,0.0,0.0,0.0,0.0,0.07106666666666667,-5.498166666666667,-5.498166666666667,-0.6851,-0.1140000000000001,-0.04837500000000006,-1.077,70.382,-0.020399999999999974,-0.22755,-0.04999999999999982,100.0,1.0,1.0,217.08666666666664,0.0,0.0,0.0,0.0,0.0,0.0,0.0,9201.6,0.0,55.0,5.0,253.35000000000002,1.0,0.0,0.0,0.0,0.0,0.0,1.0,0.0,1.7609999999999992,1.7609999999999992,0.0,0.0,1.0,55.0,616.79921,10000.0,85.000001,85.000001,85.000001,85.000001,395.0,0.0,0.0,0.0,1.0,166.665,51.894999999999996,51.894999999999996,47.485,47.485,34.0,-25.825,25.046666666666667,-28.643333333333334,26.575,0.0,1781.834,-0.14499999999999957,100.0,28.151,28.253,43.589,43.16,0.0,0.0,100.0,0.0,0.0,0.0,0.0,3247.0,3266.0,3989.1111111111113,3898.5,305.1605,304.3805,315.20475,315.2335,22.1033,20.6849,22.1147,21.6074,314.999998,314.999998,324.999988,324.999988,99.55925714285715,99.50728333333333,99.56985714285715,99.54958571428571,0.06066666666666665,-0.07466666666666666,-0.1293333333333333,0.10016666666666674,-0.04999999999999716,-0.05333333333332746,1.565,1.5710000000000002,39.144999999999996,30.28033333333333,39.217,36.0465,55.814,35.621,60.246,53.425,53.745000000000005,34.7,58.793,51.7245,52.876999999999995,34.212,58.658,51.11966666666667,-0.09399999999999997,-0.06350000000000011,0.10667000000000001,0.11107500000000001,0.0,220.28,220.265,217.08666666666664,217.08666666666667,190.012512,21.04372
