,ABS Active,ABS Enabled,AID Allow Tire Blankets,AID Auto Blip,AID Auto Clutch,AID Auto Shift,AID Fuel Rate,AID Ideal Line,AID Mech Damage,AID Stability,AID Tire Wear Rate,Air Density,Air Temp,Ballast,Best Lap Delta,Best Lap Time,Brake Bias,Brake Pos,Brake Temp FL,Brake Temp FR,Brake Temp RL,Brake Temp RR,CG Accel Lateral,CG Accel Longitudinal,CG Accel Vertical,CG Height,Camber FL,Camber FR,Camber RL,Camber RR,Car Coord X,Car Coord Y,Car Coord Z,Car Damage Front,Car Damage Left,Car Damage Rear,Car Damage Right,Car Pos Norm,Caster FL,Caster FR,Chassis Pitch Angle,Chassis Pitch Rate,Chassis Roll Angle,Chassis Roll Rate,Chassis Velocity X,Chassis Velocity Y,Chassis Velocity Z,Chassis Yaw Rate,Clutch Pos,DRS Active,DRS Available,Drive Train Speed,ERS Heat Charging,ERS Is Charging,ERS Max Energy,ERS Power Level,ERS Recovery Level,Engine Brake Setting,Engine Limiter,Engine RPM,Flags,Fuel Level,Gear,Ground Speed,HR Sample Clock,In Pit,KERS Charge,KERS Deployed Energy,KERS Input,KERS Max Energy,LR Sample Clock,Lap Invalidated,Lap Time,Lap Time2,Last Lap Time,Last Sector Time,MR Sample Clock,Max Fuel,Max Power,Max RPM,Max Sus Travel FL,Max Sus Travel FR,Max Sus Travel RL,Max Sus Travel RR,Max Torque,Max Turbo Boost,Num Tires Off Track,Penalties Enabled,Position,Raw Data Sample Rate,Ride Height FL,Ride Height FR,Ride Height RL,Ride Height RR,Road Temp,Self Align Torque FL,Self Align Torque FR,Self Align Torque RL,Self Align Torque RR,Session Lap Count,Session Time Left,Steering Angle,Surface Grip,Suspension Travel FL,Suspension Travel FR,Suspension Travel RL,Suspension Travel RR,TC Active,TC Enabled,Throttle Pos,Tire Dirt Level FL,Tire Dirt Level FR,Tire Dirt Level RL,Tire Dirt Level RR,Tire Load FL,Tire Load FR,Tire Load RL,Tire Load RR,Tire Loaded Radius FL,Tire Loaded Radius FR,Tire Loaded Radius RL,Tire Loaded Radius RR,Tire Pressure FL,Tire Pressure FR,Tire Pressure RL,Tire Pressure RR,Tire Radius FL,Tire Radius FR,Tire Radius RL,Tire Radius RR,Tire Rubber Grip FL,Tire Rubber Grip FR,Tire Rubber Grip RL,Tire Rubber Grip RR,Tire Slip Angle FL,Tire Slip Angle FR,Tire Slip Angle RL,Tire Slip Angle RR,Tire Slip Ratio FL,Tire Slip Ratio FR,Tire Slip Ratio RL,Tire Slip Ratio RR,Tire Temp Core FL,Tire Temp Core FR,Tire Temp Core RL,Tire Temp Core RR,Tire Temp Inner FL,Tire Temp Inner FR,Tire Temp Inner RL,Tire Temp Inner RR,Tire Temp Middle FL,Tire Temp Middle FR,Tire Temp Middle RL,Tire Temp Middle RR,Tire Temp Outer FL,Tire Temp Outer FR,Tire Temp Outer RL,Tire Temp Outer RR,Toe In FL,Toe In FR,Toe In RL,Toe In RR,Turbo Boost,Wheel Angular Speed FL,Wheel Angular Speed FR,Wheel Angular Speed RL,Wheel Angular Speed RR,Wind Direction,Wind Speed
0,0.0,0.0,0.0,1.0,1.0,0.0,0.0,1.0,0.0,100.0,1.0,1.1856,26.0,0.0,0.0,0.0,59.99999,0.0,26.0,26.0,26.0,26.0,-0.04399999999999993,0.29269999999999996,0.1691666666666667,294.25,-2.7141,-2.5017,-1.5121,-1.5398,-275.62,215.9025,190.98775,0.0,0.0,0.0,0.0,0.0016333333333333755,-5.498166666666667,-5.498166666666667,-0.5514,1.4040000000000001,-0.02499999999999991,-1.158,65.538,-0.05459999999999998,-0.21235,0.6020000000000003,100.0,1.0,1.0,202.39,0.0,0.0,0.0,0.0,0.0,0.0,0.0,8578.6,0.0,55.0,5.0,235.90666666666667,0.0,0.0,0.0,0.0,0.0,0.0,0.0,0.0,0.0030000000000001137,0.0030000000000001137,0.0,0.0,0.0,55.0,616.79921,10000.0,85.0,85.0,85.0,85.0,395.0,0.0,0.0,0.0,1.0,20.0,52.521,52.521,49.698,49.698,34.0,-29.6575,24.186666666666667,-30.465,23.752499999999998,0.0,1783.608,0.615000000000002,100.0,26.642,26.394,40.213,39.82,0.0,0.0,100.0,0.0,0.0,0.0,0.0,3260.0,3683.8,4059.5555555555557,3909.3,304.9753333333333,302.9175,314.98425,315.07725,21.7715,20.4956,21.758,21.3035,314.99999,314.99999,324.99998,324.99998,99.55875714285715,99.50668333333333,99.56487142857142,99.54482857142857,-0.01949999999999985,-0.123,-0.17666666666666664,0.05950000000000011,-0.045000000000001705,-0.06666666666666998,1.5665,1.589,37.072,29.09733333333333,36.986999999999995,34.1465,56.233000000000004,34.1235,58.934,51.426,54.147,33.323499999999996,57.569,49.8015,53.311,32.8985,57.537,49.237,-0.024499999999999966,-0.10899999999999999,0.10871000000000001,0.11746000000000001,0.0,205.37,205.325,202.39,202.39,190.01251,21.04372
1,0.0,0.0,0.0,1.0,1.0,0.0,0.0,1.0,0.0,100.0,1.0,1.1856,26.0,0.0,0.0,0.0,59.999996,0.0,26.0,26.0,26.0,26.0,-0.12944444444444447,0.3224,0.0332,293.396,-2.6481,-2.7247,-1.5351,-1.3761,-272.28,215.9075,190.967625,0.0,0.0,0.0,0.0,0.003566666666666607,-5.498166666666667,-5.498166666666667,-0.4823,-0.9565,-0.06199999999999983,0.01499999999999968,65.69800000000001,-0.06129999999999991,-0.184225,1.0899999999999999,100.0,1.0,1.0,202.38333333333333,0.0,0.0,0.0,0.0,0.0,0.0,0.0,8578.3,0.0,55.0,5.0,236.48000000000002,1.0,0.0,0.0,0.0,0.0,0.0,0.0,0.0,0.053999999999998494,0.053999999999998494,0.0,0.0,1.0,55.0,616.79921,10000.0,85.000001,85.000001,85.000001,85.000001,395.0,0.0,0.0,0.0,1.0,166.665,54.703,54.703,48.431,48.431,34.0,-25.2975,15.886666666666667,-36.765,27.8075,0.0,1783.558,0.7199999999999989,100.0,27.11,26.397,42.228,41.703,0.0,0.0,100.0,0.0,0.0,0.0,0.0,2892.75,2435.8,4529.111111111111,4948.3,305.928,307.01425,313.701,312.39,21.781399999999998,20.5005,21.7688,21.3126,314.999998,314.999998,324.999988,324.999988,99.55875714285715,99.5067,99.56502857142857,99.54498571428572,-0.01475000000000004,-0.13866666666666672,-0.18233333333333335,0.030999999999999917,-0.03499999999999659,-0.02833333333332888,1.3544999999999998,1.3955,37.134,29.128,37.055,34.2035,56.217,34.1635,58.981,51.4925,54.131,33.3605,57.6135,49.8655,53.295,32.934,57.5785,49.29966666666667,-0.013499999999999956,-0.12549999999999994,0.10234000000000001,0.11082000000000002,0.0,205.84,205.735,202.38333333333333,202.38333333333333,190.012512,21.04372
2,0.0,0.0,0.0,1.0,1.0,0.0,0.0,1.0,0.0,100.0,1.0,1.1856,26.0,0.0,0.0,0.0,59.999996,0.0,26.0,26.0,26.0,26.0,-0.12488888888888894,0.29510000000000014,-0.11016666666666668,294.586,-2.612,-2.7843999999999998,-1.4978,-1.6303,-268.92,215.91,190.948875,0.0,0.0,0.0,0.0,0.00553333333333339,-5.498166666666667,-5.498166666666667,-0.5597,0.2685,-0.046250000000000124,1.532,65.837,-0.07139999999999991,-0.25875000000000004,1.4239999999999995,100.0,1.0,1.0,203.60000000000002,0.0,0.0,0.0,0.0,0.0,0.0,0.0,8629.9,0.0,55.0,5.0,236.98666666666668,0.0,0.0,0.0,0.0,0.0,0.0,0.0,0.0,0.10500000000000043,0.10500000000000043,0.0,0.0,0.0,55.0,616.79921,10000.0,85.000001,85.000001,85.000001,85.000001,395.0,0.0,0.0,0.0,1.0,166.665,53.055,53.055,51.163,51.163,34.0,-30.8625,19.560000000000002,-27.49,18.7075,0.0,1783.507,0.7850000000000001,100.0,27.666,26.458,41.894,40.924,0.0,0.0,100.0,0.0,0.0,0.0,0.0,3376.75,2901.3,3604.6666666666665,3399.1,304.54566666666665,305.52425,316.02875,316.53125,21.7915,20.5054,21.7792,21.3211,314.999998,314.999998,324.999988,324.999988,99.55875714285715,99.50671666666666,99.56515714285715,99.54511428571429,-0.03749999999999987,-0.15066666666666673,-0.21933333333333338,0.020333333333333314,-0.051666666666669414,-0.07166666666666544,1.71,1.764,37.197,29.158666666666665,37.120000000000005,34.2565,56.204,34.2035,59.018,51.545500000000004,54.119,33.3975,57.647999999999996,49.916,53.282,32.9695,57.6105,49.349333333333334,-0.009499999999999953,-0.1280000000000001,0.10704000000000001,0.11600500000000001,0.0,206.29500000000002,206.18,203.60000000000002,203.6,190.012512,21.04372
3,0.0,0.0,0.0,1.0,1.0,0.0,0.0,1.0,0.0,100.0,1.0,1.1856,26.0,0.0,0.0,0.0,59.999996,0.0,26.0,26.0,26.0,26.0,-0.13144444444444447,0.2895000000000001,-0.02926666666666667,293.884,-2.639,-2.7237,-1.4904,-1.5836000000000001,-265.76,215.9075,190.93,0.0,0.0,0.0,0.0,0.0073666666666665215,-5.498166666666667,-5.498166666666667,-0.5034000000000001,0.6665,-0.02450000000000019,-1.529,65.985,-0.08999999999999997,-0.1902,1.2200000000000006,100.0,1.0,1.0,203.57333333333332,0.0,0.0,0.0,0.0,0.0,0.0,0.0,8628.7,0.0,55.0,5.0,237.51333333333332,1.0,0.0,0.0,0.0,0.0,0.0,0.0,0.0,0.1529999999999987,0.1529999999999987,0.0,0.0,1.0,55.0,616.79921,10000.0,85.000001,85.000001,85.000001,85.000001,395.0,0.0,0.0,0.0,1.0,333.33500000000004,54.062,54.062,48.462,48.462,34.0,-26.74,17.485,-36.1175,24.1525,0.0,1783.458,0.8049999999999997,100.0,27.336,26.656,41.908,41.052,0.0,0.0,100.0,0.0,0.0,0.0,0.0,2959.75,2746.3,4419.888888888889,4146.3,305.9243333333333,305.89575,314.09025,314.53225,21.8006,20.5102,21.789,21.3294,314.999998,314.999998,324.999988,324.999988,99.55875714285715,99.50673333333333,99.5653,99.54524285714285,-0.04349999999999987,-0.1633333333333331,-0.21666666666666656,0.017000000000000126,-0.05666666666667197,-0.04833333333333201,1.4794999999999998,1.51,37.254000000000005,29.188333333333333,37.182,34.3085,56.189,34.2445,59.0555,51.6055,54.105000000000004,33.435,57.683,49.9735,53.266,33.0055,57.6425,49.406,-0.01200000000000001,-0.13000000000000012,0.10282500000000001,0.10851500000000001,0.0,206.785,206.675,203.57333333333332,203.57333333333332,190.012512,21.04372
4,0.0,0.0,0.0,1.0,1.0,0.0,0.0,1.0,0.0,100.0,1.0,1.1856,26.0,0.0,0.0,0.0,59.999996,0.0,26.0,26.0,26.0,26.0,-0.13988888888888895,0.3138000000000001,0.0001666666666666667,294.083,-2.6623,-2.7982,-1.4294,-1.5965,-262.19,215.9025,190.909375,0.0,0.0,0.0,0.0,0.009433333333333294,-5.498166666666667,-5.498166666666667,-0.5349,-0.7955,-0.0847500000000001,-1.3980000000000001,66.143,-0.09929999999999994,-0.23340000000000002,1.484,100.0,1.0,1.0,204.16666666666669,0.0,0.0,0.0,0.0,0.0,0.0,0.0,8653.8,0.0,55.0,5.0,238.08666666666667,0.0,0.0,0.0,0.0,0.0,0.0,0.0,0.0,0.20700000000000074,0.20700000000000074,0.0,0.0,0.0,55.0,616.79921,10000.0,85.000001,85.000001,85.000001,85.000001,395.0,0.0,0.0,0.0,1.0,166.665,53.757,53.757,49.149,49.149,34.0,-31.095,17.741666666666667,-33.0475,19.55,0.0,1783.406,0.7950000000000017,100.0,27.157,26.259,42.548,41.187,0.0,0.0,100.0,0.0,0.0,0.0,0.0,3289.0,2785.7,4170.0,3689.5,304.9703333333333,305.81125,314.704,315.60475,21.811,20.5154,21.8004,21.3388,314.999998,314.999998,324.999988,324.999988,99.55877142857143,99.50675,99.56544285714286,99.5454,-0.05899999999999994,-0.17933333333333312,-0.22966666666666657,-0.01100000000000001,-0.05833333333333002,-0.04333333333332945,1.5705,1.6225,37.319,29.221,37.251999999999995,34.367,56.172,34.2885,59.101,51.669,54.089,33.4755,57.7255,50.0345,53.25,33.044,57.6825,49.465333333333334,-0.0050000000000000044,-0.13600000000000012,0.10288000000000001,0.102735,0.0,207.195,207.095,204.16666666666669,204.16666666666669,190.012512,21.04372
5,0.0,0.0,0.0,1.0,1.0,0.0,0.0,1.0,0.0,100.0,1.0,1.1856,26.0,0.0,0.0,0.0,59.999996,0.0,26.0,26.0,26.0,26.0,-0.1403333333333333,0.30900000000000016,-0.0251,294.281,-2.6804,-2.7637,-1.5057,-1.6224,-259.01,215.89499999999998,190.890375,0.0,0.0,0.0,0.0,0.011299999999999977,-5.498166666666667,-5.498166666666667,-0.5374,0.4045,-0.08462499999999995,-0.5,66.282,-0.10959999999999992,-0.217425,1.4339999999999993,100.0,1.0,1.0,204.65333333333334,0.0,0.0,0.0,0.0,0.0,0.0,0.0,8674.4,0.0,55.0,5.0,238.58333333333331,1.0,0.0,0.0,0.0,0.0,0.0,0.0,0.0,0.254999999999999,0.254999999999999,0.0,0.0,1.0,55.0,616.79921,10000.0,85.000001,85.000001,85.000001,85.000001,395.0,0.0,0.0,0.0,1.0,166.665,53.97,53.97,49.713,49.713,34.0,-30.235,17.17833333333333,-33.925,21.0975,0.0,1783.358,0.46999999999999886,100.0,27.282,26.165,42.225,40.708,0.0,0.0,100.0,0.0,0.0,0.0,0.0,3223.375,2742.4,4069.777777777778,3894.8,305.1286666666667,305.9705,314.9845,315.1675,21.8204,20.52,21.810200000000002,21.346899999999998,314.999998,314.999998,324.999988,324.999988,99.55877142857143,99.50678333333333,99.56558571428572,99.54552857142858,-0.05049999999999999,-0.17799999999999994,-0.24883333333333335,-0.011499999999999955,-0.036666666666668846,-0.05833333333333002,1.572,1.6275,37.376999999999995,29.25,37.313,34.418,56.16,34.328,59.138,51.722,54.077,33.512,57.76,50.085499999999996,53.236999999999995,33.079,57.714,49.51533333333333,-0.02749999999999997,-0.12250000000000005,0.10818000000000001,0.115945,0.0,207.66500000000002,207.555,204.65333333333334,204.65333333333334,190.012512,21.04372
6,0.0,0.0,0.0,1.0,1.0,0.0,0.0,1.0,0.0,100.0,1.0,1.1856,26.0,0.0,0.0,0.0,59.999996,0.0,26.0,26.0,26.0,26.0,-0.14400000000000002,0.2873000000000001,0.011533333333333333,293.976,-2.6231999999999998,-2.8216,-1.5284,-1.5886,-255.63,215.8825,190.869625,0.0,0.0,0.0,0.0,0.013266666666666538,-5.498166666666667,-5.498166666666667,-0.5249,-0.0495,-0.08262500000000017,0.9009999999999998,66.431,-0.11419999999999997,-0.204325,1.096,100.0,1.0,1.0,204.99,0.0,0.0,0.0,0.0,0.0,0.0,0.0,8688.7,0.0,55.0,5.0,239.12333333333333,0.0,0.0,0.0,0.0,0.0,0.0,0.0,0.0,0.30600000000000094,0.30600000000000094,0.0,0.0,0.0,55.0,616.79921,10000.0,85.000001,85.000001,85.000001,85.000001,395.0,0.0,0.0,0.0,1.0,166.665,54.031,54.031,48.92,48.92,34.0,-27.745,18.93166666666667,-34.705,22.695,0.0,1783.306,0.40500000000000114,100.0,27.396,25.992,42.564,40.899,0.0,0.0,100.0,0.0,0.0,0.0,0.0,3077.375,2821.7,4214.333333333333,4059.7,305.36466666666666,305.87,314.52025,314.81,21.8302,20.5249,21.8207,21.3557,314.999998,314.999998,324.999988,324.999988,99.55878571428572,99.50678333333333,99.56572857142856,99.54565714285714,-0.03275000000000006,-0.1563333333333332,-0.21850000000000003,0.0033333333333334103,-0.05833333333333002,-0.036666666666668846,1.5070000000000001,1.5554999999999999,37.439,29.281,37.379999999999995,34.473,56.144999999999996,34.3695,59.18,51.783,54.063,33.55,57.799,50.1435,53.223,33.115,57.7505,49.572,-0.03949999999999998,-0.10299999999999998,0.09886,0.11690500000000001,0.0,208.135,208.015,204.99,204.99,190.012512,21.04372
7,0.0,0.0,0.0,1.0,1.0,0.0,0.0,1.0,0.0,100.0,1.0,1.1856,26.0,0.0,0.0,0.0,59.999996,0.0,26.0,26.0,26.0,26.0,-0.12122222222222212,0.27300000000000013,0.014100000000000001,293.884,-2.5945,-2.813,-1.4898,-1.6317,-252.44,215.8675,190.850375,0.0,0.0,0.0,0.0,0.015100000000000002,-5.498166666666667,-5.498166666666667,-0.5352,0.0315,-0.07062500000000016,1.005,66.569,-0.11169999999999991,-0.22262500000000002,0.8560000000000008,100.0,1.0,1.0,205.47,0.0,0.0,0.0,0.0,0.0,0.0,0.0,8709.2,0.0,55.0,5.0,239.62,1.0,0.0,0.0,0.0,0.0,0.0,0.0,0.0,0.3539999999999992,0.3539999999999992,0.0,0.0,1.0,55.0,616.79921,10000.0,85.000001,85.000001,85.000001,85.000001,395.0,0.0,0.0,0.0,1.0,166.665,53.497,53.497,49.393,49.393,34.0,-27.38,20.531666666666666,-32.285,22.36,0.0,1783.258,0.02500000000000213,100.0,27.667,26.252,42.555,41.066,0.0,0.0,100.0,0.0,0.0,0.0,0.0,3149.875,2911.5,4005.4444444444443,3951.8,305.127,305.541,315.01525,315.0305,21.8396,20.5297,21.8307,21.364,314.999998,314.999998,324.999988,324.999988,99.55878571428572,99.5068,99.56587142857143,99.54578571428571,-0.011249999999999982,-0.1336666666666666,-0.22383333333333333,0.001000000000000112,-0.03333333333333144,-0.04999999999999716,1.5354999999999999,1.5875,37.497,29.310333333333332,37.442,34.525,56.132,34.408500000000004,59.218,51.84,54.051,33.586,57.835,50.198,53.209,33.1495,57.783500000000004,49.62533333333333,-0.07299999999999995,-0.07400000000000007,0.105815,0.11168000000000002,0.0,208.54000000000002,208.465,205.47,205.47,190.012512,21.04372
8,0.0,0.0,0.0,1.0,1.0,0.0,0.0,1.0,0.0,100.0,1.0,1.1856,26.0,0.0,0.0,0.0,59.999996,0.0,26.0,26.0,26.0,26.0,-0.0788888888888889,0.28570000000000007,-0.009433333333333334,293.945,-2.6787,-2.7426,-1.471,-1.6218,-249.04,215.85,190.829625,0.0,0.0,0.0,0.0,0.017100000000000004,-5.498166666666667,-5.498166666666667,-0.537,-0.383,-0.060125000000000206,-0.7749999999999999,66.718,-0.09429999999999994,-0.21885000000000002,0.4239999999999995,100.0,1.0,1.0,205.86333333333334,0.0,0.0,0.0,0.0,0.0,0.0,0.0,8725.8,0.0,55.0,5.0,240.15333333333334,0.0,0.0,0.0,0.0,0.0,0.0,0.0,0.0,0.40500000000000114,0.40500000000000114,0.0,0.0,0.0,55.0,616.79921,10000.0,85.000001,85.000001,85.000001,85.000001,395.0,0.0,0.0,0.0,1.0,166.665,53.955,53.955,48.843,48.843,34.0,-27.115,19.858333333333334,-32.0325,23.42,0.0,1783.207,-0.07000000000000028,100.0,27.124,26.417,42.539,41.298,0.0,0.0,100.0,0.0,0.0,0.0,0.0,3100.625,2846.7,4096.555555555556,3973.7,305.531,305.63825,314.84025,314.8855,21.8493,20.5347,21.8412,21.3729,314.999998,314.999998,324.999988,324.999988,99.55878571428572,99.50681666666667,99.56601428571429,99.54594285714286,-0.007249999999999979,-0.125,-0.2061666666666666,0.016666666666666607,-0.04333333333332945,-0.05333333333332746,1.525,1.5474999999999999,37.558,29.341666666666665,37.507,34.5805,56.114999999999995,34.448499999999996,59.259,51.9,54.035,33.623,57.873,50.2555,53.193,33.185,57.819,49.681333333333335,-0.07999999999999996,-0.06299999999999994,0.10683000000000001,0.10494500000000001,0.0,208.96,208.92000000000002,205.86333333333334,205.86333333333334,190.012512,21.04372
9,0.0,0.0,0.0,1.0,1.0,0.0,0.0,1.0,0.0,100.0,1.0,1.1856,26.0,0.0,0.0,0.0,59.999996,0.0,26.0,26.0,26.0,26.0,-0.06633333333333336,0.29390000000000005,0.02436666666666667,293.716,-2.5986,-2.753,-1.5222,-1.5763,-245.63,215.82999999999998,190.80875,0.0,0.0,0.0,0.0,0.019066666666666565,-5.498166666666667,-5.498166666666667,-0.5354,0.5105000000000001,-0.06225000000000014,0.9480000000000004,66.863,-0.07450000000000001,-0.212375,0.20399999999999974,100.0,1.0,1.0,206.36666666666667,0.0,0.0,0.0,0.0,0.0,0.0,0.0,8747.1,0.0,55.0,5.0,240.67666666666668,1.0,0.0,0.0,0.0,0.0,0.0,0.0,0.0,0.4559999999999995,0.4559999999999995,0.0,0.0,1.0,55.0,616.79921,10000.0,85.000001,85.000001,85.000001,85.000001,395.0,0.0,0.0,0.0,1.0,166.665,53.284,53.284,49.408,49.408,34.0,-26.18,22.195,-30.4225,25.525,0.0,1783.156,-0.23000000000000043,100.0,27.693,26.473,42.346000000000004,41.18,0.0,0.0,100.0,0.0,0.0,0.0,0.0,3178.75,2978.7,4042.6666666666665,4077.7,305.06333333333333,305.38425,315.01175,314.783,21.8592,20.5398,21.8516,21.3817,314.999998,314.999998,324.999988,324.999988,99.55878571428572,99.50683333333333,99.56615714285714,99.54607142857142,0.02375000000000016,-0.09199999999999986,-0.17399999999999993,0.06066666666666687,-0.05333333333332746,-0.046666666666666856,1.5619999999999998,1.576,37.620000000000005,29.374000000000002,37.572,34.635999999999996,56.101,34.4895,59.2975,51.959,54.021,33.6605,57.909,50.312,53.178,33.2205,57.852000000000004,49.736666666666665,-0.09150000000000003,-0.05249999999999999,0.10229,0.11804500000000001,0.0,209.445,209.4,206.36666666666667,206.36666666666667,190.012512,21.04372
10,0.0,0.0,0.0,1.0,1.0,0.0,0.0,1.0,0.0,100.0,1.0,1.1856,26.0,0.0,0.0,0.0,59.999996,0.0,26.0,26.0,26.0,26.0,-0.03933333333333333,0.29100000000000015,-0.02626666666666667,293.686,-2.6741,-2.7149,-1.4976,-1.5491000000000001,-242.22,215.8075,190.788,0.0,0.0,0.0,0.0,0.021066666666666567,-5.498166666666667,-5.498166666666667,-0.527,-0.562,-0.02737500000000015,0.13999999999999968,67.011,-0.054199999999999915,-0.21305000000000002,-0.05999999999999961,100.0,1.0,1.0,206.68666666666667,0.0,0.0,0.0,0.0,0.0,0.0,0.0,8760.7,0.0,55.0,5.0,241.21,0.0,0.0,0.0,0.0,0.0,0.0,1.0,0.0,0.5069999999999979,0.5069999999999979,0.0,0.0,0.0,55.0,616.79921,10000.0,85.000001,85.000001,85.000001,85.000001,395.0,0.0,0.0,0.0,1.0,166.665,53.94,53.94,48.629999999999995,48.629999999999995,34.0,-24.515,20.788333333333334,-31.59,25.880000000000003,0.0,1783.105,-0.35999999999999943,100.0,27.293,26.587,42.536,41.783,0.0,0.0,100.0,0.0,0.0,0.0,0.0,3012.625,2838.1,4175.777777777777,4152.7,305.7726666666667,305.696,314.68525,314.4565,21.8689,20.5449,21.8622,21.3908,314.999998,314.999998,324.999988,324.999988,99.5588,99.50685,99.5663,99.54621428571429,0.035499999999999865,-0.09266666666666667,-0.1748333333333334,0.055500000000000105,-0.04333333333332945,-0.041666666666671404,1.5124999999999997,1.511,37.681,29.40533333333333,37.638999999999996,34.692499999999995,56.085,34.5275,59.338499999999996,52.0215,54.006,33.695499999999996,57.9475,50.372,53.162,33.2545,57.8875,49.79533333333333,-0.10250000000000004,-0.04249999999999998,0.11336,0.10143500000000001,0.0,209.85500000000002,209.845,206.68666666666667,206.68666666666667,190.012512,21.04372
11,0.0,0.0,0.0,1.0,1.0,0.0,0.0,1.0,0.0,100.0,1.0,1.1856,26.0,0.0,0.0,0.0,59.999996,0.0,26.0,26.0,26.0,26.0,-0.017888888888888843,0.28669999999999995,-0.048633333333333334,294.052,-2.6768,-2.712,-1.5492,-1.5245000000000002,-238.79,215.785,190.767125,0.0,0.0,0.0,0.0,0.022599999999999953,-5.498166666666667,-5.498166666666667,-0.5559000000000001,0.006500000000000001,-0.0031249999999998224,0.6870000000000003,67.152,-0.035699999999999954,-0.2278,-0.24399999999999977,100.0,1.0,1.0,207.33666666666667,0.0,0.0,0.0,0.0,0.0,0.0,0.0,8788.2,0.0,55.0,5.0,241.72,1.0,0.0,0.0,0.0,0.0,0.0,1.0,0.0,0.5579999999999998,0.5579999999999998,0.0,0.0,1.0,55.0,616.79921,10000.0,85.000001,85.000001,85.000001,85.000001,395.0,0.0,0.0,0.0,1.0,166.665,53.589,53.589,49.622,49.622,34.0,-23.6675,24.261666666666667,-26.482499999999998,25.5425,0.0,1783.054,-0.48999999999999844,100.0,27.214,26.634,42.134,41.605000000000004,0.0,0.0,100.0,0.0,0.0,0.0,0.0,3014.25,3068.7,3811.4444444444443,3964.5,305.59633333333335,305.12275,315.60325,315.06925,21.8785,20.5501,21.8725,21.3997,314.999998,314.999998,324.999988,324.999988,99.5588,99.50685,99.56644285714286,99.54635714285715,0.06274999999999986,-0.052000000000000046,-0.13183333333333336,0.09499999999999997,-0.02499999999999858,-0.04833333333333201,1.612,1.6115,37.739999999999995,29.438000000000002,37.703,34.748,56.069,34.5665,59.3735,52.0805,53.991,33.7315,57.980000000000004,50.429,53.147,33.2885,57.917500000000004,49.851333333333336,-0.10949999999999993,-0.03249999999999997,0.10467000000000001,0.110295,0.0,210.28,210.29500000000002,207.33666666666667,207.33666666666667,190.012512,21.04372
12,0.0,0.0,0.0,1.0,1.0,0.0,0.0,1.0,0.0,100.0,1.0,1.1856,26.0,0.0,0.0,0.0,59.999996,0.0,26.0,26.0,26.0,26.0,0.011888888888888838,0.29669999999999996,0.017,293.594,-2.7087,-2.7077999999999998,-1.5275,-1.5476,-235.76999999999998,215.765,190.747625,0.0,0.0,0.0,0.0,0.025466666666666526,-5.498166666666667,-5.498166666666667,-0.5439,0.333,-0.008999999999999897,-0.6400000000000001,67.282,-0.020499999999999963,-0.20575000000000002,-0.26399999999999935,100.0,1.0,1.0,207.57999999999998,0.0,0.0,0.0,0.0,0.0,0.0,0.0,8798.6,0.0,55.0,5.0,242.18333333333334,0.0,0.0,0.0,0.0,0.0,0.0,1.0,0.0,0.602999999999998,0.602999999999998,0.0,0.0,0.0,55.0,616.79921,10000.0,85.000001,85.000001,85.000001,85.000001,395.0,0.0,0.0,0.0,1.0,333.33500000000004,53.467,53.467,48.691,48.691,34.0,-24.71,23.39666666666667,-29.134999999999998,27.4775,0.0,1783.008,-0.41999999999999815,100.0,27.074,26.977,42.016,41.758,0.0,0.0,100.0,0.0,0.0,0.0,0.0,3124.125,2998.6,4177.666666666667,4103.4,305.436,305.16025,314.729,314.6675,21.8869,20.5547,21.8817,21.4075,314.999998,314.999998,324.999988,324.999988,99.55881428571429,99.50685,99.56657142857142,99.54648571428571,0.0637500000000002,-0.06166666666666676,-0.12266666666666659,0.09683333333333333,-0.046666666666666856,-0.04999999999999716,1.544,1.5255,37.793,29.467,37.760999999999996,34.797,56.056,34.6005,59.4075,52.134,53.977999999999994,33.763,58.012,50.480000000000004,53.132999999999996,33.319,57.9465,49.90133333333333,-0.10649999999999993,-0.04200000000000004,0.10297500000000001,0.10615000000000001,0.0,210.695,210.70499999999998,207.57999999999998,207.57999999999998,190.012512,21.04372
13,0.0,0.0,0.0,1.0,1.0,0.0,0.0,1.0,0.0,100.0,1.0,1.1856,26.0,0.0,0.0,0.0,59.999996,0.0,26.0,26.0,26.0,26.0,0.027666666666666728,0.27449999999999997,0.0246,293.228,-2.6833,-2.7117,-1.5606,-1.5493000000000001,-232.13,215.74,190.724625,0.0,0.0,0.0,0.0,0.026899999999999924,-5.498166666666667,-5.498166666666667,-0.5389,-0.2165,-0.007124999999999826,-0.536,67.435,-0.007399999999999962,-0.2156,-0.34999999999999964,100.0,1.0,1.0,207.98000000000002,0.0,0.0,0.0,0.0,0.0,0.0,0.0,8815.5,0.0,55.0,5.0,242.73666666666668,1.0,0.0,0.0,0.0,0.0,0.0,1.0,0.0,0.657,0.657,0.0,0.0,1.0,55.0,616.79921,10000.0,85.000001,85.000001,85.000001,85.000001,395.0,0.0,0.0,0.0,1.0,166.665,53.207,53.207,48.538,48.538,34.0,-23.7975,23.939999999999998,-29.1025,28.997500000000002,0.0,1782.956,-0.47499999999999787,100.0,27.356,27.21,42.318,42.315,0.0,0.0,100.0,0.0,0.0,0.0,0.0,3132.875,2976.0,4159.333333333333,4203.8,305.4116666666667,305.21225,314.73675,314.3695,21.897100000000002,20.5603,21.8929,21.4172,314.999998,314.999998,324.999988,324.999988,99.55882857142858,99.50686666666667,99.56672857142857,99.54664285714286,0.08150000000000013,-0.044333333333333114,-0.11249999999999993,0.10650000000000004,-0.054999999999999716,-0.051666666666669414,1.5139999999999998,1.5015,37.857,29.502333333333333,37.83,34.8575,56.042,34.6415,59.4495,52.2005,53.965,33.8005,58.0505,50.544,53.119,33.355000000000004,57.9825,49.964,-0.11499999999999999,-0.038999999999999924,0.10472500000000001,0.10498,0.0,211.16500000000002,211.18,207.98000000000002,207.98000000000002,190.012512,21.04372
14,0.0,0.0,0.0,1.0,1.0,0.0,0.0,1.0,0.0,100.0,1.0,1.1856,26.0,0.0,0.0,0.0,59.999996,0.0,26.0,26.0,26.0,26.0,0.033777777777777906,0.28990000000000005,-0.020333333333333335,293.472,-2.7033,-2.7193,-1.5606,-1.5405,-228.69,215.7175,190.703375,0.0,0.0,0.0,0.0,0.028899999999999926,-5.498166666666667,-5.498166666666667,-0.5511,-0.0475,0.016750000000000043,1.12,67.577,0.0032000000000000917,-0.22790000000000002,-0.4739999999999993,100.0,1.0,1.0,208.51666666666665,0.0,0.0,0.0,0.0,0.0,0.0,0.0,8838.3,0.0,55.0,5.0,243.24666666666667,0.0,0.0,0.0,0.0,0.0,0.0,1.0,0.0,0.7079999999999984,0.7079999999999984,0.0,0.0,0.0,55.0,616.79921,10000.0,85.000001,85.000001,85.000001,85.000001,395.0,0.0,0.0,0.0,1.0,166.665,53.253,53.253,48.874,48.874,34.0,-22.0875,25.428333333333335,-25.884999999999998,29.105,0.0,1782.903,-0.495000000000001,100.0,27.459,27.218,42.301,42.275,0.0,0.0,100.0,0.0,0.0,0.0,0.0,2952.625,3096.2,3916.6666666666665,4123.2,305.76933333333335,304.97525,315.27525,314.6645,21.9067,20.5657,21.9033,21.4262,314.999998,314.999998,324.999988,324.999988,99.55884285714286,99.50686666666667,99.56685714285715,99.54678571428572,0.09399999999999986,-0.033333333333333215,-0.09183333333333332,0.13116666666666688,-0.03999999999999915,-0.04333333333332945,1.572,1.5574999999999999,37.917,29.535333333333334,37.894999999999996,34.9135,56.028999999999996,34.6795,59.486,52.2615,53.952,33.836,58.085,50.6025,53.105000000000004,33.3885,58.0135,50.02133333333333,-0.11399999999999999,-0.03400000000000003,0.10314500000000001,0.11374500000000001,0.0,211.57999999999998,211.63,208.51666666666665,208.51666666666665,190.012512,21.04372
15,0.0,0.0,0.0,1.0,1.0,0.0,0.0,1.0,0.0,100.0,1.0,1.1856,26.0,0.0,0.0,0.0,59.999996,0.0,26.0,26.0,26.0,26.0,0.05088888888888898,0.28669999999999995,0.008333333333333333,293.427,-2.7039999999999997,-2.6851000000000003,-1.5781,-1.5479,-225.44,215.695,190.682875,0.0,0.0,0.0,0.0,0.03079999999999994,-5.498166666666667,-5.498166666666667,-0.542,0.215,0.035374999999999934,0.5300000000000002,67.711,0.011200000000000099,-0.210325,-0.5620000000000003,100.0,1.0,1.0,208.89,0.0,0.0,0.0,0.0,0.0,0.0,0.0,8854.1,0.0,55.0,5.0,243.73000000000002,1.0,0.0,0.0,0.0,0.0,0.0,1.0,0.0,0.7560000000000002,0.7560000000000002,0.0,0.0,1.0,55.0,616.79921,10000.0,85.000001,85.000001,85.000001,85.000001,395.0,0.0,0.0,0.0,1.0,166.665,53.36,53.36,48.721000000000004,48.721000000000004,34.0,-21.1025,25.388333333333335,-26.285,30.8525,0.0,1782.857,-0.4349999999999987,100.0,27.428,27.268,42.118,42.394999999999996,0.0,0.0,100.0,0.0,0.0,0.0,0.0,2875.875,3071.2,3979.222222222222,4231.3,306.0203333333333,305.04325,315.146,314.36825,21.9157,20.5707,21.913,21.4347,314.999998,314.999998,324.999988,324.999988,99.55884285714286,99.50686666666667,99.567,99.54691428571428,0.10150000000000015,-0.021333333333333204,-0.08283333333333331,0.14000000000000012,-0.04333333333332945,-0.03999999999999915,1.5415,1.5165,37.973,29.567,37.956,34.967,56.016,34.7155,59.519999999999996,52.32,53.94,33.869,58.1165,50.659,53.093,33.420500000000004,58.042,50.07666666666667,-0.10749999999999993,-0.03649999999999998,0.10709,0.100315,0.0,212.025,212.05,208.89,208.89,190.012512,21.04372
16,0.0,0.0,0.0,1.0,1.0,0.0,0.0,1.0,0.0,100.0,1.0,1.1856,26.0,0.0,0.0,0.0,59.999996,0.0,26.0,26.0,26.0,26.0,0.049555555555555575,0.2764,-0.016233333333333336,293.304,-2.763,-2.6357,-1.5513,-1.5510000000000002,-221.99,215.675,190.66075,0.0,0.0,0.0,0.0,0.03279999999999994,-5.498166666666667,-5.498166666666667,-0.5593,-0.446,0.017874999999999863,-1.1400000000000001,67.85300000000001,0.01859999999999995,-0.22705,-0.3379999999999992,100.0,1.0,1.0,209.33666666666667,0.0,0.0,0.0,0.0,0.0,0.0,0.0,8873.0,0.0,55.0,5.0,244.24,0.0,0.0,0.0,0.0,0.0,0.0,1.0,0.0,0.8069999999999986,0.8069999999999986,0.0,0.0,0.0,55.0,616.79921,10000.0,85.000001,85.000001,85.000001,85.000001,395.0,0.0,0.0,0.0,1.0,166.665,52.979,52.979,48.569,48.569,34.0,-24.7725,24.990000000000002,-26.7375,28.48,0.0,1782.805,-0.3200000000000003,100.0,27.079,27.475,42.293,42.591,0.0,0.0,100.0,0.0,0.0,0.0,0.0,3192.5,3124.6,3998.1111111111113,3983.9,305.3546666666667,304.79,315.12275,314.9085,21.9251,20.5761,21.9235,21.4438,314.999998,314.999998,324.999988,324.999988,99.55885714285715,99.50688333333333,99.56714285714285,99.54707142857143,0.08550000000000013,-0.03533333333333322,-0.09750000000000003,0.13600000000000012,-0.03999999999999915,-0.041666666666671404,1.5539999999999998,1.548,38.032,29.600666666666665,38.022,35.0235,56.001000000000005,34.7535,59.5585,52.3805,53.926,33.9045,58.1525,50.7175,53.077,33.454499999999996,58.075,50.13366666666667,-0.09799999999999998,-0.05249999999999999,0.11326000000000001,0.10785000000000002,0.0,212.425,212.445,209.33666666666667,209.33666666666667,190.012512,21.04372
17,0.0,0.0,0.0,1.0,1.0,0.0,0.0,1.0,0.0,100.0,1.0,1.1856,26.0,0.0,0.0,0.0,59.999996,0.0,26.0,26.0,26.0,26.0,0.026000000000000023,0.3017000000000001,0.0304,292.831,-2.721,-2.6222,-1.5902,-1.5135,-218.51999999999998,215.655,190.638375,0.0,0.0,0.0,0.0,0.03483333333333338,-5.498166666666667,-5.498166666666667,-0.5493,0.226,0.0003750000000000142,0.6920000000000002,67.995,0.01670000000000016,-0.211425,-0.3200000000000003,100.0,1.0,1.0,209.67333333333335,0.0,0.0,0.0,0.0,0.0,0.0,0.0,8887.3,0.0,55.0,5.0,244.75,1.0,0.0,0.0,0.0,0.0,0.0,1.0,0.0,0.8580000000000005,0.8580000000000005,0.0,0.0,1.0,55.0,616.79921,10000.0,85.000001,85.000001,85.000001,85.000001,395.0,0.0,0.0,0.0,1.0,166.665,52.826,52.826,48.035,48.035,34.0,-23.1575,25.226666666666667,-28.5675,30.9675,0.0,1782.755,-0.29499999999999815,100.0,27.646,27.446,42.381,42.489000000000004,0.0,0.0,100.0,0.0,0.0,0.0,0.0,3092.375,3149.6,4287.444444444444,4288.5,305.407,304.873,314.44225,314.30525,21.9347,20.5816,21.9339,21.4528,314.999998,314.999998,324.999988,324.999988,99.55887142857142,99.50688333333333,99.56728571428572,99.54721428571429,0.10000000000000009,-0.028000000000000025,-0.07466666666666666,0.14266666666666672,-0.026666666666670835,-0.06833333333332803,1.5150000000000001,1.502,38.092,29.634666666666668,38.087,35.08,55.989000000000004,34.792500000000004,59.5955,52.4415,53.914,33.9405,58.187,50.775999999999996,53.065,33.489,58.1065,50.19133333333333,-0.10050000000000003,-0.0515000000000001,0.09924500000000001,0.11069500000000002,0.0,212.885,212.935,209.67333333333335,209.67333333333335,190.012512,21.04372
18,0.0,0.0,0.0,1.0,1.0,0.0,0.0,1.0,0.0,100.0,1.0,1.1856,26.0,0.0,0.0,0.0,59.999996,0.0,26.0,26.0,26.0,26.0,0.02733333333333321,0.28180000000000005,0.023200000000000002,292.847,-2.6631,-2.602,-1.5947,-1.4696,-215.45999999999998,215.64,190.6185,0.0,0.0,0.0,0.0,0.036599999999999966,-5.498166666666667,-5.498166666666667,-0.5613,-0.388,0.007624999999999993,-0.48199999999999976,68.118,0.011600000000000055,-0.22487500000000002,-0.20399999999999974,100.0,1.0,1.0,210.07999999999998,0.0,0.0,0.0,0.0,0.0,0.0,0.0,8904.6,0.0,55.0,5.0,245.19666666666666,0.0,0.0,0.0,0.0,0.0,0.0,1.0,0.0,0.9029999999999987,0.9029999999999987,0.0,0.0,0.0,55.0,616.79921,10000.0,85.000001,85.000001,85.000001,85.000001,395.0,0.0,0.0,0.0,1.0,333.33500000000004,52.658,52.658,48.111,48.111,34.0,-23.7475,25.171666666666667,-28.865,28.627499999999998,0.0,1782.708,-0.3299999999999983,100.0,27.383,27.546,42.5,42.791,0.0,0.0,100.0,0.0,0.0,0.0,0.0,3185.375,3191.8,4164.111111111111,4166.8,305.2336666666667,304.62075,314.786,314.5115,21.943,20.5863,21.9432,21.4608,314.999998,314.999998,324.999988,324.999988,99.55888571428571,99.50688333333333,99.56741428571429,99.54734285714285,0.08999999999999986,-0.03733333333333322,-0.10050000000000003,0.1280000000000001,-0.04999999999999716,-0.02833333333332888,1.533,1.513,38.144,29.66433333333333,38.144999999999996,35.129999999999995,55.977000000000004,34.826,59.629,52.496,53.902,33.971000000000004,58.218,50.8285,53.052,33.5185,58.135,50.242666666666665,-0.10199999999999998,-0.04849999999999999,0.10740000000000001,0.10873500000000001,0.0,213.255,213.26999999999998,210.07999999999998,210.07999999999998,190.012512,21.04372
19,0.0,0.0,0.0,1.0,1.0,0.0,0.0,1.0,0.0,100.0,1.0,1.1856,26.0,0.0,0.0,0.0,59.999996,0.0,26.0,26.0,26.0,26.0,0.03155555555555578,0.2915000000000001,0.06746666666666666,292.511,-2.6564,-2.7104,-1.525,-1.5958999999999999,-211.98000000000002,215.6225,190.595875,0.0,0.0,0.0,0.0,0.0386333333333333,-5.498166666666667,-5.498166666666667,-0.5501,0.7075,0.014874999999999972,0.8049999999999997,68.258,0.007800000000000029,-0.2131,-0.28200000000000003,100.0,1.0,1.0,210.49333333333334,0.0,0.0,0.0,0.0,0.0,0.0,0.0,8922.0,0.0,55.0,5.0,245.7,1.0,0.0,0.0,0.0,0.0,0.0,1.0,0.0,0.9540000000000006,0.9540000000000006,0.0,0.0,1.0,55.0,616.79921,10000.0,85.000001,85.000001,85.000001,85.000001,395.0,0.0,0.0,0.0,1.0,166.665,52.399,52.399,48.035,48.035,34.0,-22.345,25.35333333333333,-27.974999999999998,32.435,0.0,1782.659,-0.3099999999999987,100.0,28.105,27.854,42.525,42.795,0.0,0.0,100.0,0.0,0.0,0.0,0.0,3034.75,3132.2,4149.222222222223,4375.4,305.48333333333335,304.7665,314.71825,313.9715,21.9526,20.5918,21.9535,21.4699,314.999998,314.999998,324.999988,324.999988,99.5589,99.5069,99.56757142857143,99.54748571428571,0.09650000000000025,-0.04466666666666663,-0.09933333333333338,0.1286666666666667,-0.036666666666668846,-0.06333333333333258,1.5034999999999998,1.486,38.204,29.698666666666668,38.21,35.187,55.965,34.866,59.665,52.557,53.891,34.0085,58.2515,50.8875,53.04,33.554,58.1655,50.300333333333334,-0.10449999999999993,-0.05899999999999994,0.10524000000000001,0.10819500000000001,0.0,213.72500000000002,213.76,210.49333333333334,210.49333333333334,190.012512,21.04372
20,0.0,0.0,0.0,1.0,1.0,0.0,0.0,1.0,0.0,100.0,1.0,1.1856,26.0,0.0,0.0,0.0,59.999996,0.0,26.0,26.0,26.0,26.0,0.04066666666666685,0.26990000000000003,-0.0106,292.786,-2.7538,-2.6622,-1.5306000000000002,-1.5830000000000002,-208.5,215.60500000000002,190.573375,0.0,0.0,0.0,0.0,0.04066666666666652,-5.498166666666667,-5.498166666666667,-0.5564,-0.981,0.009624999999999995,-1.06,68.398,0.00670000000000015,-0.22740000000000002,-0.18599999999999994,100.0,1.0,1.0,210.9,0.0,0.0,0.0,0.0,0.0,0.0,0.0,8939.3,0.0,55.0,5.0,246.20666666666665,0.0,0.0,0.0,0.0,0.0,0.0,0.0,0.0,1.004999999999999,1.004999999999999,0.0,0.0,0.0,55.0,616.79921,10000.0,85.000001,85.000001,85.000001,85.000001,395.0,0.0,0.0,0.0,1.0,333.33500000000004,53.024,53.024,47.745,47.745,34.0,-23.9575,23.80166666666667,-28.2775,29.255000000000003,0.0,1782.606,-0.23999999999999844,100.0,27.48,27.713,43.037,43.303,0.0,0.0,100.0,0.0,0.0,0.0,0.0,3095.25,2997.7,4126.444444444444,4059.8,305.643,305.15475,314.8025,314.63525,21.9619,20.5972,21.9641,21.4791,314.999998,314.999998,324.999988,324.999988,99.5589,99.5069,99.56771428571429,99.54762857142858,0.08250000000000002,-0.04299999999999993,-0.10633333333333339,0.12149999999999994,-0.046666666666666856,-0.04833333333333201,1.4865,1.4875,38.262,29.732333333333333,38.275999999999996,35.2445,55.95,34.9045,59.704499999999996,52.6195,53.876999999999995,34.0435,58.2885,50.9475,53.025,33.588,58.1995,50.35933333333333,-0.09650000000000003,-0.05449999999999999,0.10899500000000001,0.1028,0.0,214.12,214.13,210.9,210.9,190.012512,21.04372
21,0.0,0.0,0.0,1.0,1.0,0.0,0.0,1.0,0.0,100.0,1.0,1.1856,26.0,0.0,0.0,0.0,59.999996,0.0,26.0,26.0,26.0,26.0,0.010222222222222133,0.26990000000000003,-0.049,293.03,-2.7155,-2.6737,-1.5719,-1.5298,-205.0,215.5875,190.550375,0.0,0.0,0.0,0.0,0.04266666666666652,-5.498166666666667,-5.498166666666667,-0.5743,0.2785,-0.003375000000000128,0.5840000000000005,68.53399999999999,0.005900000000000016,-0.22235000000000002,-0.242,100.0,1.0,1.0,211.47,0.0,0.0,0.0,0.0,0.0,0.0,0.0,8963.5,0.0,55.0,5.0,246.69333333333333,1.0,0.0,0.0,0.0,0.0,0.0,0.0,0.0,1.056000000000001,1.056000000000001,0.0,0.0,1.0,55.0,616.79921,10000.0,85.000001,85.000001,85.000001,85.000001,395.0,0.0,0.0,0.0,1.0,166.665,52.795,52.795,48.507999999999996,48.507999999999996,34.0,-23.509999999999998,25.235,-27.0875,27.752499999999998,0.0,1782.557,-0.259999999999998,100.0,27.809,27.52,42.662,42.745000000000005,0.0,0.0,100.0,0.0,0.0,0.0,0.0,3084.0,3145.7,4013.222222222222,4026.0,305.436,304.9165,315.11075,314.95775,21.9714,20.6026,21.9744,21.488,314.999998,314.999998,324.999988,324.999988,99.55892857142857,99.50691666666667,99.56785714285714,99.54777142857142,0.08975,-0.03733333333333322,-0.09799999999999998,0.12400000000000011,-0.03833333333332689,-0.06499999999999773,1.5735000000000001,1.5635,38.321,29.766333333333336,38.34,35.3005,55.937,34.9435,59.739,52.6775,53.864000000000004,34.079499999999996,58.320499999999996,51.003,53.010999999999996,33.6225,58.2285,50.413666666666664,-0.09999999999999998,-0.050000000000000044,0.10710000000000001,0.10816500000000001,0.0,214.56,214.59,211.47,211.47,190.012512,21.04372
22,0.0,0.0,0.0,1.0,1.0,0.0,0.0,1.0,0.0,100.0,1.0,1.1856,26.0,0.0,0.0,0.0,59.999996,0.0,26.0,26.0,26.0,26.0,0.019333333333333425,0.2833000000000001,-0.0211,292.557,-2.7814,-2.6307,-1.5984,-1.5244,-201.51,215.5725,190.5265,0.0,0.0,0.0,0.0,0.0447333333333334,-5.498166666666667,-5.498166666666667,-0.5578000000000001,-0.073,0.007125000000000048,-0.5589999999999997,68.674,0.0045999999999999375,-0.2031,-0.23599999999999977,100.0,1.0,1.0,211.71333333333334,0.0,0.0,0.0,0.0,0.0,0.0,0.0,8973.7,0.0,55.0,5.0,247.2,0.0,0.0,0.0,0.0,0.0,0.0,0.0,0.0,1.1069999999999993,1.1069999999999993,0.0,0.0,0.0,55.0,616.79921,10000.0,85.000001,85.000001,85.000001,85.000001,395.0,0.0,0.0,0.0,1.0,166.665,52.887,52.887,47.546,47.546,34.0,-24.1725,23.546666666666667,-30.4425,30.09,0.0,1782.504,-0.3049999999999997,100.0,27.658,27.785,42.859,43.099000000000004,0.0,0.0,100.0,0.0,0.0,0.0,0.0,3109.0,3020.0,4285.111111111111,4328.3,305.60966666666667,305.152,314.51025,314.12825,21.9808,20.608,21.9849,21.4972,314.999998,314.999998,324.999988,324.999988,99.55892857142857,99.50691666666667,99.568,99.54791428571428,0.08650000000000002,-0.045666666666666744,-0.10633333333333339,0.11349999999999993,-0.03499999999999659,-0.051666666666669414,1.491,1.4915,38.379999999999995,29.800333333333334,38.406,35.3575,55.923,34.982,59.78,52.739,53.852000000000004,34.1155,58.3565,51.0625,52.998000000000005,33.659,58.2615,50.47533333333333,-0.10399999999999998,-0.04800000000000004,0.10897000000000001,0.10347500000000001,0.0,215.0,215.01999999999998,211.71333333333334,211.71333333333334,190.012512,21.04372
23,0.0,0.0,0.0,1.0,1.0,0.0,0.0,1.0,0.0,100.0,1.0,1.1856,26.0,0.0,0.0,0.0,59.999996,0.0,26.0,26.0,26.0,26.0,0.010777777777777775,0.2771000000000001,0.006366666666666666,292.526,-2.6479,-2.6947,-1.6469,-1.5021,-198.0,215.5575,190.503,0.0,0.0,0.0,0.0,0.04676666666666651,-5.498166666666667,-5.498166666666667,-0.5753,-0.155,0.006124999999999936,0.6740000000000004,68.81,0.008000000000000007,-0.22817500000000002,-0.3179999999999996,100.0,1.0,1.0,212.2266666666667,0.0,0.0,0.0,0.0,0.0,0.0,0.0,8995.5,0.0,55.0,5.0,247.69,1.0,0.0,0.0,0.0,0.0,0.0,0.0,0.0,1.1580000000000013,1.1580000000000013,0.0,0.0,1.0,55.0,616.79921,10000.0,85.000001,85.000001,85.000001,85.000001,395.0,0.0,0.0,0.0,1.0,166.665,52.338,52.338,48.065,48.065,34.0,-22.982499999999998,25.58,-28.912499999999998,28.33,0.0,1782.455,-0.3000000000000007,100.0,28.12,27.785,43.025999999999996,43.16,0.0,0.0,100.0,0.0,0.0,0.0,0.0,3125.625,3132.6,4115.666666666667,4132.2,305.2223333333333,304.87075,314.8965,314.69825,21.9903,20.613599999999998,21.9954,21.5064,314.999998,314.999998,324.999988,324.999988,99.55894285714285,99.50691666666667,99.56814285714286,99.54807142857143,0.09825000000000017,-0.033333333333333215,-0.09583333333333333,0.12349999999999994,-0.04999999999999716,-0.06333333333333258,1.5505,1.5414999999999999,38.439,29.834666666666664,38.471000000000004,35.415,55.911,35.0215,59.814499999999995,52.8,53.839,34.152,58.391,51.1215,52.985,33.692,58.292500000000004,50.529333333333334,-0.09999999999999998,-0.050999999999999934,0.09996000000000001,0.10506000000000001,0.0,215.41500000000002,215.435,212.2266666666667,212.2266666666667,190.012512,21.04372
24,0.0,0.0,0.0,1.0,1.0,0.0,0.0,1.0,0.0,100.0,1.0,1.1856,26.0,0.0,0.0,0.0,59.999996,0.0,26.0,26.0,26.0,26.0,0.024777777777777787,0.2714000000000001,-0.045866666666666674,292.877,-2.7102,-2.6789,-1.5342,-1.5541,-194.69,215.54250000000002,190.480375,0.0,0.0,0.0,0.0,0.048666666666666525,-5.498166666666667,-5.498166666666667,-0.5852,-0.47700000000000004,0.018249999999999877,1.146,68.94,0.00770000000000004,-0.22125,-0.29000000000000004,100.0,1.0,1.0,212.59,0.0,0.0,0.0,0.0,0.0,0.0,0.0,9010.9,0.0,55.0,5.0,248.15333333333334,0.0,0.0,0.0,0.0,0.0,0.0,0.0,0.0,1.2059999999999995,1.2059999999999995,0.0,0.0,0.0,55.0,616.79921,10000.0,85.000001,85.000001,85.000001,85.000001,395.0,0.0,0.0,0.0,1.0,166.665,53.207,53.207,47.836,47.836,34.0,-21.544999999999998,24.35333333333333,-27.2675,29.64,0.0,1782.407,-0.3150000000000013,100.0,27.788,27.524,43.013,43.098,0.0,0.0,100.0,0.0,0.0,0.0,0.0,2888.5,3055.4,4092.4444444444443,4158.0,306.00866666666667,305.1985,314.83075,314.58575,21.999,20.6186,22.0052,21.5149,314.999998,314.999998,324.999988,324.999988,99.55895714285714,99.50693333333334,99.56828571428571,99.54821428571428,0.09525000000000006,-0.040000000000000036,-0.09233333333333338,0.12650000000000006,-0.061666666666667425,-0.046666666666666856,1.5234999999999999,1.509,38.494,29.866333333333333,38.532,35.4685,55.897999999999996,35.0565,59.849000000000004,52.8565,53.827,34.1845,58.423,51.1755,52.971000000000004,33.723,58.322,50.58266666666667,-0.10499999999999998,-0.050999999999999934,0.10411000000000001,0.10021000000000001,0.0,215.815,215.815,212.59,212.59,190.012512,21.04372
25,0.0,0.0,0.0,1.0,1.0,0.0,0.0,1.0,0.0,100.0,1.0,1.1856,26.0,0.0,0.0,0.0,59.999996,0.0,26.0,26.0,26.0,26.0,0.028999999999999915,0.2742,-0.017766666666666667,292.633,-2.7505,-2.6509,-1.5864,-1.5342,-191.38,215.53,190.4565,0.0,0.0,0.0,0.0,0.05059999999999998,-5.498166666666667,-5.498166666666667,-0.6044,0.0525,0.02200000000000002,0.17799999999999994,69.06700000000001,0.0050000000000001155,-0.22082500000000002,-0.2999999999999998,100.0,1.0,1.0,213.05,0.0,0.0,0.0,0.0,0.0,0.0,0.0,9030.5,0.0,55.0,5.0,248.61333333333334,1.0,0.0,0.0,0.0,0.0,0.0,0.0,0.0,1.2540000000000013,1.2540000000000013,0.0,0.0,1.0,55.0,616.79921,10000.0,85.000001,85.000001,85.000001,85.000001,395.0,0.0,0.0,0.0,1.0,333.33500000000004,52.2,52.2,48.263999999999996,48.263999999999996,34.0,-24.53,27.02,-26.8875,28.935000000000002,0.0,1782.357,-0.3949999999999996,100.0,27.762,27.767,42.744,42.925,0.0,0.0,100.0,0.0,0.0,0.0,0.0,3215.125,3313.4,3978.1111111111113,4107.5,305.129,304.366,315.233,314.71475,22.0078,20.6238,22.0149,21.5235,314.999998,314.999998,324.999988,324.999988,99.55895714285714,99.50693333333334,99.56841428571428,99.54834285714286,0.09850000000000003,-0.028999999999999915,-0.09599999999999997,0.13016666666666676,-0.036666666666668846,-0.046666666666666856,1.5665,1.5514999999999999,38.548,29.898666666666664,38.593,35.5215,55.884,35.0935,59.8815,52.912,53.814,34.2185,58.453,51.229,52.958,33.756,58.349000000000004,50.635,-0.10649999999999993,-0.04699999999999993,0.106435,0.10837000000000001,0.0,216.195,216.215,213.05,213.05,190.012512,21.04372
26,0.0,0.0,0.0,1.0,1.0,0.0,0.0,1.0,0.0,100.0,1.0,1.1856,26.0,0.0,0.0,0.0,59.999996,0.0,26.0,26.0,26.0,26.0,0.03844444444444428,0.26870000000000016,0.0656,291.748,-2.7146,-2.6579,-1.5505,-1.5531000000000001,-187.44,215.51749999999998,190.427875,0.0,0.0,0.0,0.0,0.05289999999999995,-5.498166666666667,-5.498166666666667,-0.5725,0.1445,0.006249999999999867,-0.714,69.22,0.0040999999999999925,-0.2049,-0.28200000000000003,100.0,1.0,1.0,213.29333333333335,0.0,0.0,0.0,0.0,0.0,0.0,0.0,9040.7,0.0,55.0,5.0,249.16666666666666,0.0,0.0,0.0,0.0,0.0,0.0,0.0,0.0,1.311,1.311,0.0,0.0,0.0,55.0,616.79921,10000.0,85.000001,85.000001,85.000001,85.000001,395.0,0.0,0.0,0.0,1.0,111.11,52.094,52.094,46.799,46.799,34.0,-23.49,24.11,-31.44,31.62,0.0,1782.302,-0.47499999999999787,100.0,28.387,28.409,43.326,43.614000000000004,0.0,0.0,100.0,0.0,0.0,0.0,0.0,3143.875,3031.3,4455.0,4371.8,305.3503333333333,305.08825,314.0685,313.962,22.0184,20.6301,22.026699999999998,21.5338,314.999998,314.999998,324.999988,324.999988,99.55898571428571,99.50693333333334,99.56858571428572,99.54851428571429,0.10024999999999995,-0.04133333333333322,-0.10616666666666663,0.11883333333333335,-0.051666666666669414,-0.045000000000001705,1.4514999999999998,1.421,38.614999999999995,29.938000000000002,38.667,35.5865,55.872,35.1385,59.9255,52.9825,53.803,34.2605,58.494,51.2965,52.945,33.796,58.3865,50.701,-0.12,-0.04249999999999998,0.10609,0.10868000000000001,0.0,216.70499999999998,216.72,213.29333333333335,213.29333333333335,190.012512,21.04372
27,0.0,0.0,0.0,1.0,1.0,0.0,0.0,1.0,0.0,100.0,1.0,1.1856,26.0,0.0,0.0,0.0,59.999996,0.0,26.0,26.0,26.0,26.0,0.05022222222222217,0.24770000000000003,-0.04133333333333333,292.267,-2.7536,-2.6767000000000003,-1.6044,-1.5390000000000001,-184.53,215.5075,190.40775,0.0,0.0,0.0,0.0,0.05459999999999998,-5.498166666666667,-5.498166666666667,-0.5973,-0.895,0.009874999999999856,-0.6029999999999998,69.33,0.007600000000000051,-0.2401,-0.347999999999999,100.0,1.0,1.0,213.76666666666665,0.0,0.0,0.0,0.0,0.0,0.0,0.0,9060.8,0.0,55.0,5.0,249.56,1.0,0.0,0.0,0.0,0.0,0.0,0.0,0.0,1.352999999999998,1.352999999999998,0.0,0.0,1.0,55.0,616.79921,10000.0,85.000001,85.000001,85.000001,85.000001,395.0,0.0,0.0,0.0,1.0,333.33500000000004,52.414,52.414,47.165,47.165,34.0,-23.72,24.423333333333332,-29.215,28.115000000000002,0.0,1782.258,-0.41000000000000014,100.0,28.035,28.315,43.627,43.817,0.0,0.0,100.0,0.0,0.0,0.0,0.0,3110.875,3066.0,4141.888888888889,4016.0,305.618,304.93125,314.852,314.928,22.026,20.6346,22.0354,21.5414,314.999998,314.999998,324.999988,324.999988,99.55898571428571,99.50695,99.56871428571428,99.54864285714285,0.09175000000000022,-0.04699999999999993,-0.10616666666666663,0.12400000000000011,-0.06333333333333258,-0.021666666666668277,1.5190000000000001,1.5135,38.663,29.96633333333333,38.721000000000004,35.634,55.861000000000004,35.171,59.957,53.0325,53.792,34.29,58.5235,51.345,52.933,33.824,58.4135,50.748333333333335,-0.11349999999999993,-0.052000000000000046,0.10469500000000001,0.10613,0.0,217.015,216.995,213.76666666666665,213.76666666666665,190.012512,21.04372
28,0.0,0.0,0.0,1.0,1.0,0.0,0.0,1.0,0.0,100.0,1.0,1.1856,26.0,0.0,0.0,0.0,59.999996,0.0,26.0,26.0,26.0,26.0,0.03766666666666674,0.2791000000000001,-0.04,292.389,-2.6817,-2.6651,-1.6185,-1.5655999999999999,-180.99,215.4975,190.38225,0.0,0.0,0.0,0.0,0.05663333333333331,-5.498166666666667,-5.498166666666667,-0.6026,0.604,0.003249999999999975,0.4710000000000001,69.462,0.010399999999999965,-0.21795,-0.44200000000000017,100.0,1.0,1.0,214.26666666666665,0.0,0.0,0.0,0.0,0.0,0.0,0.0,9082.0,0.0,55.0,5.0,250.03666666666666,0.0,0.0,0.0,0.0,0.0,0.0,0.0,0.0,1.404,1.404,0.0,0.0,0.0,55.0,616.79921,10000.0,85.000001,85.000001,85.000001,85.000001,395.0,0.0,0.0,0.0,1.0,166.665,52.292,52.292,47.867,47.867,34.0,-21.9,25.696666666666665,-27.5525,29.795,0.0,1782.209,-0.46000000000000085,100.0,28.295,28.115000000000002,43.102000000000004,43.317,0.0,0.0,100.0,0.0,0.0,0.0,0.0,3043.75,3163.2,4083.3333333333335,4127.5,305.5183333333333,304.81525,315.05525,314.73575,22.0354,20.6402,22.0456,21.5505,314.999998,314.999998,324.999988,324.999988,99.559,99.50695,99.56885714285714,99.54878571428571,0.11375000000000002,-0.03066666666666662,-0.08416666666666661,0.13749999999999996,-0.04333333333332945,-0.05833333333333002,1.5564999999999998,1.5614999999999999,38.721000000000004,30.001333333333335,38.785,35.6905,55.849000000000004,35.210499999999996,59.99,53.0905,53.781,34.326499999999996,58.554,51.400999999999996,52.921,33.8595,58.441,50.803,-0.118,-0.043500000000000094,0.10419500000000001,0.108465,0.0,217.45,217.47500000000002,214.26666666666665,214.26666666666665,190.012512,21.04372
29,0.0,0.0,0.0,1.0,1.0,0.0,0.0,1.0,0.0,100.0,1.0,1.1856,26.0,0.0,0.0,0.0,59.999996,0.0,26.0,26.0,26.0,26.0,0.06022222222222218,0.26480000000000015,-0.009300000000000001,292.297,-2.6682,-2.7198,-1.5667,-1.5427,-177.44,215.4875,190.355875,0.0,0.0,0.0,0.0,0.058699999999999974,-5.498166666666667,-5.498166666666667,-0.6055,-0.6995,-0.0011250000000000426,-0.8119999999999998,69.598,0.01330000000000009,-0.21605000000000002,-0.42799999999999905,100.0,1.0,1.0,214.51666666666665,0.0,0.0,0.0,0.0,0.0,0.0,0.0,9092.6,0.0,55.0,5.0,250.52666666666664,1.0,0.0,0.0,0.0,0.0,0.0,0.0,0.0,1.4549999999999983,1.4549999999999983,0.0,0.0,1.0,55.0,616.79921,10000.0,85.000001,85.000001,85.000001,85.000001,395.0,0.0,0.0,0.0,1.0,166.665,52.704,52.704,47.302,47.302,34.0,-22.5625,24.491666666666667,-28.63,30.1025,0.0,1782.158,-0.5,100.0,27.797,28.075,43.412,43.688,0.0,0.0,100.0,0.0,0.0,0.0,0.0,3097.875,2977.9,4163.888888888889,4228.6,305.618,305.161,314.74825,314.335,22.0446,20.6457,22.0561,21.5597,314.999998,314.999998,324.999988,324.999988,99.55901428571428,99.50695,99.56901428571429,99.54892857142858,0.09925000000000006,-0.03600000000000003,-0.09816666666666662,0.12166666666666681,-0.041666666666671404,-0.045000000000001705,1.4975,1.48,38.778999999999996,30.035666666666664,38.851,35.7485,55.835,35.248,60.028999999999996,53.1525,53.766999999999996,34.3615,58.5905,51.460499999999996,52.907,33.8925,58.474000000000004,50.861000000000004,-0.11499999999999999,-0.03849999999999998,0.10725000000000001,0.10763500000000001,0.0,217.82999999999998,217.85000000000002,214.51666666666665,214.51666666666665,190.012512,21.04372
30,0.0,0.0,0.0,1.0,1.0,0.0,0.0,1.0,0.0,100.0,1.0,1.1856,26.0,0.0,0.0,0.0,59.999996,0.0,26.0,26.0,26.0,26.0,0.06411111111111101,0.26380000000000003,0.013766666666666667,291.702,-2.6844,-2.6052,-1.6348,-1.5955,-174.1,215.47750000000002,190.330875,0.0,0.0,0.0,0.0,0.06063333333333332,-5.498166666666667,-5.498166666666667,-0.6059,0.8615,-0.0006249999999998757,-0.504,69.721,0.017400000000000082,-0.218675,-0.484,100.0,1.0,1.0,215.01666666666665,0.0,0.0,0.0,0.0,0.0,0.0,0.0,9113.8,0.0,55.0,5.0,250.97,0.0,0.0,0.0,0.0,0.0,0.0,1.0,0.0,1.5030000000000001,1.5030000000000001,0.0,0.0,0.0,55.0,616.79921,10000.0,85.000001,85.000001,85.000001,85.000001,395.0,0.0,0.0,0.0,1.0,333.33500000000004,51.056,51.056,47.562,47.562,34.0,-24.615,25.746666666666666,-29.335,29.0275,0.0,1782.108,-0.4400000000000013,100.0,28.718,28.787,43.165,43.614000000000004,0.0,0.0,100.0,0.0,0.0,0.0,0.0,3332.875,3233.1,4200.0,4028.5,304.74,304.31225,314.8725,314.8305,22.0536,20.6512,22.0658,21.5684,314.999998,314.999998,324.999988,324.999988,99.55902857142857,99.50696666666667,99.56914285714285,99.54907142857142,0.10650000000000004,-0.040000000000000036,-0.09599999999999997,0.12400000000000011,-0.046666666666666856,-0.045000000000001705,1.5339999999999998,1.5255,38.835,30.069666666666667,38.912,35.802,55.827,35.287,60.0615,53.2085,53.759,34.3975,58.6205,51.513999999999996,52.897999999999996,33.9275,58.501,50.913666666666664,-0.12,-0.04499999999999993,0.11128500000000001,0.10008500000000001,0.0,218.235,218.26,215.01666666666665,215.01666666666665,190.012512,21.04372
31,0.0,0.0,0.0,1.0,1.0,0.0,0.0,1.0,0.0,100.0,1.0,1.1856,26.0,0.0,0.0,0.0,59.999996,0.0,26.0,26.0,26.0,26.0,0.042333333333333334,0.2531000000000001,0.04716666666666667,291.229,-2.7706,-2.636,-1.6373,-1.4931,-170.54,215.4725,190.305,0.0,0.0,0.0,0.0,0.06273333333333331,-5.498166666666667,-5.498166666666667,-0.5882000000000001,-0.374,0.011125000000000052,0.7599999999999998,69.856,0.02110000000000012,-0.22087500000000002,-0.484,100.0,1.0,1.0,215.23666666666668,0.0,0.0,0.0,0.0,0.0,0.0,0.0,9123.1,0.0,55.0,5.0,251.45666666666665,1.0,0.0,0.0,0.0,0.0,0.0,1.0,0.0,1.5539999999999985,1.5539999999999985,0.0,0.0,1.0,55.0,616.79921,10000.0,85.000001,85.000001,85.000001,85.000001,395.0,0.0,0.0,0.0,1.0,333.33500000000004,51.528999999999996,51.528999999999996,46.143,46.143,34.0,-22.88,27.393333333333334,-29.662499999999998,31.7325,0.0,1782.057,-0.5,100.0,28.654,28.704,44.056,44.296,0.0,0.0,100.0,0.0,0.0,0.0,0.0,3112.375,3347.6,4257.222222222223,4356.2,305.43233333333336,304.3325,314.42825,314.06225,22.0629,20.6569,22.0765,21.5778,314.999998,314.999998,324.999988,324.999988,99.55904285714286,99.50696666666667,99.5693,99.54922857142857,0.12075000000000014,-0.023333333333333206,-0.07766666666666666,0.14216666666666677,-0.02499999999999858,-0.04833333333333201,1.4525000000000001,1.442,38.893,30.105333333333334,38.977999999999994,35.861,55.816,35.3275,60.1015,53.2725,53.748000000000005,34.435,58.658,51.576,52.885,33.963,58.5355,50.97366666666667,-0.11849999999999994,-0.043500000000000094,0.10625000000000001,0.104395,0.0,218.625,218.66,215.23666666666668,215.23666666666668,190.012512,21.04372
32,0.0,0.0,0.0,1.0,1.0,0.0,0.0,1.0,0.0,100.0,1.0,1.1856,26.0,0.0,0.0,0.0,59.999996,0.0,26.0,26.0,26.0,26.0,0.06588888888888889,0.2703,-0.0115,291.763,-2.7031,-2.69,-1.5805,-1.6198000000000001,-166.98000000000002,215.465,190.2795,0.0,0.0,0.0,0.0,0.06479999999999997,-5.498166666666667,-5.498166666666667,-0.6058,-0.2905,-0.010375000000000245,-1.0299999999999998,69.986,0.022699999999999942,-0.23155,-0.4679999999999991,100.0,1.0,1.0,215.76,0.0,0.0,0.0,0.0,0.0,0.0,0.0,9145.3,0.0,55.0,5.0,251.92000000000002,0.0,0.0,0.0,0.0,0.0,0.0,1.0,0.0,1.6050000000000004,1.6050000000000004,0.0,0.0,0.0,55.0,616.79921,10000.0,85.000001,85.000001,85.000001,85.000001,395.0,0.0,0.0,0.0,1.0,166.665,52.032,52.032,47.028,47.028,34.0,-22.8,25.178333333333335,-27.6675,32.0925,0.0,1782.007,-0.48999999999999844,100.0,28.353,28.695,43.786,44.257999999999996,0.0,0.0,100.0,0.0,0.0,0.0,0.0,3143.0,3057.5,4118.0,4211.9,305.44166666666666,304.96725,314.87575,314.3715,22.0721,20.6625,22.0869,21.587,314.999998,314.999998,324.999988,324.999988,99.55905714285714,99.50696666666667,99.56944285714286,99.54937142857143,0.11149999999999993,-0.030000000000000027,-0.08550000000000002,0.14366666666666683,-0.04999999999999716,-0.03833333333332689,1.5244999999999997,1.5095,38.951,30.140666666666668,39.043,35.919,55.804,35.3665,60.137,53.332,53.736999999999995,34.471000000000004,58.691,51.6335,52.873000000000005,33.998,58.565,51.03,-0.12149999999999994,-0.04699999999999993,0.10450000000000001,0.112615,0.0,219.04000000000002,219.055,215.76,215.76,190.012512,21.04372
33,0.0,0.0,0.0,1.0,1.0,0.0,0.0,1.0,0.0,100.0,1.0,1.1856,26.0,0.0,0.0,0.0,59.999996,0.0,26.0,26.0,26.0,26.0,0.05866666666666687,0.26260000000000017,-0.06693333333333334,292.084,-2.7133,-2.6615,-1.5866,-1.5828,-163.39999999999998,215.4625,190.252875,0.0,0.0,0.0,0.0,0.06686666666666652,-5.498166666666667,-5.498166666666667,-0.6158,-0.20350000000000001,-0.008249999999999869,1.0739999999999998,70.116,0.0242,-0.216475,-0.5,100.0,1.0,1.0,216.19,0.0,0.0,0.0,0.0,0.0,0.0,0.0,9163.6,0.0,55.0,5.0,252.39,1.0,0.0,0.0,0.0,0.0,0.0,1.0,0.0,1.6559999999999988,1.6559999999999988,0.0,0.0,1.0,55.0,616.79921,10000.0,85.000001,85.000001,85.000001,85.000001,395.0,0.0,0.0,0.0,1.0,166.665,52.338,52.338,47.485,47.485,34.0,-21.91,25.608333333333334,-26.6925,31.37,0.0,1781.956,-0.48999999999999844,100.0,28.352,28.246000000000002,43.637,43.941,0.0,0.0,100.0,0.0,0.0,0.0,0.0,3038.125,3113.2,4029.1111111111113,4173.2,305.60133333333334,305.06625,315.051,314.56225,22.0813,20.668,22.0972,21.5962,314.999998,314.999998,324.999988,324.999988,99.55907142857143,99.50696666666667,99.5696,99.54952857142857,0.11799999999999988,-0.018000000000000016,-0.07850000000000001,0.14983333333333326,-0.026666666666670835,-0.05666666666667197,1.5339999999999998,1.519,39.007999999999996,30.175333333333334,39.108000000000004,35.976,55.792,35.403999999999996,60.172,53.391,53.724999999999994,34.506,58.7235,51.69,52.86,34.031,58.594,51.085,-0.11749999999999994,-0.040999999999999925,0.10983000000000001,0.1067,0.0,219.435,219.47500000000002,216.19,216.19,190.012512,21.04372
34,0.0,0.0,0.0,1.0,1.0,0.0,0.0,1.0,0.0,100.0,1.0,1.1856,26.0,0.0,0.0,0.0,59.999996,0.0,26.0,26.0,26.0,26.0,0.06811111111111101,0.26970000000000005,-0.07053333333333334,292.297,-2.6726,-2.6845,-1.6219000000000001,-1.5184,-159.82,215.45749999999998,190.224625,0.0,0.0,0.0,0.0,0.0689333333333334,-5.498166666666667,-5.498166666666667,-0.6439,-0.9075,0.013249999999999984,-0.23999999999999977,70.247,0.026900000000000146,-0.22210000000000002,-0.5060000000000002,100.0,1.0,1.0,216.54666666666668,0.0,0.0,0.0,0.0,0.0,0.0,0.0,9178.7,0.0,55.0,5.0,252.86333333333334,0.0,0.0,0.0,0.0,0.0,0.0,1.0,0.0,1.7070000000000007,1.7070000000000007,0.0,0.0,0.0,55.0,616.79921,10000.0,85.000001,85.000001,85.000001,85.000001,395.0,0.0,0.0,0.0,1.0,166.665,52.795,52.795,47.546,47.546,34.0,-21.665,24.886666666666667,-27.9525,29.9325,0.0,1781.906,-0.4549999999999983,100.0,27.854,28.041,43.423,44.084,0.0,0.0,100.0,0.0,0.0,0.0,0.0,3062.75,3020.5,4117.222222222223,4170.0,305.73266666666666,305.212,314.93625,314.555,22.0904,20.6735,22.107599999999998,21.6054,314.999998,314.999998,324.999988,324.999988,99.55908571428571,99.50698333333334,99.56974285714286,99.54967142857143,0.11450000000000005,-0.023666666666666725,-0.08199999999999996,0.13766666666666683,-0.04999999999999716,-0.045000000000001705,1.533,1.5035,39.065,30.209333333333333,39.173,36.034,55.778,35.4405,60.207,53.451499999999996,53.712,34.539500000000004,58.756,51.748,52.846000000000004,34.0635,58.623,51.141999999999996,-0.11849999999999994,-0.03849999999999998,0.10423,0.10528000000000001,0.0,219.82999999999998,219.86,216.54666666666668,216.54666666666668,190.012512,21.04372
35,0.0,0.0,0.0,1.0,1.0,0.0,0.0,1.0,0.0,100.0,1.0,1.1856,26.0,0.0,0.0,0.0,59.999996,0.0,26.0,26.0,26.0,26.0,0.07933333333333326,0.26990000000000003,-0.03706666666666667,292.221,-2.7333,-2.6597,-1.6202,-1.5754000000000001,-156.45,215.45749999999998,190.196375,0.0,0.0,0.0,0.0,0.07089999999999996,-5.498166666666667,-5.498166666666667,-0.6778000000000001,-0.1285,-0.004249999999999865,-1.295,70.368,0.02960000000000007,-0.22512500000000002,-0.476,100.0,1.0,1.0,217.00666666666666,0.0,0.0,0.0,0.0,0.0,0.0,0.0,9198.1,0.0,55.0,5.0,253.3,1.0,0.0,0.0,0.0,0.0,0.0,1.0,0.0,1.754999999999999,1.754999999999999,0.0,0.0,1.0,55.0,616.79921,10000.0,85.000001,85.000001,85.000001,85.000001,395.0,0.0,0.0,0.0,1.0,333.33500000000004,52.216,52.216,47.15,47.15,34.0,-23.3725,26.903333333333336,-27.165,29.5425,0.0,1781.857,-0.28000000000000114,100.0,27.717,28.456,43.224000000000004,43.612,0.0,0.0,100.0,0.0,0.0,0.0,0.0,3118.5,3264.5,4064.1111111111113,4039.7,305.543,304.33575,315.0075,314.958,22.0988,20.6789,22.1173,21.614,314.999998,314.999998,324.999988,324.999988,99.5591,99.50698333333334,99.56987142857143,99.54981428571429,0.09975000000000023,-0.02933333333333321,-0.07699999999999996,0.14400000000000013,-0.051666666666669414,-0.051666666666669414,1.5735000000000001,1.553,39.117999999999995,30.243000000000002,39.233000000000004,36.0875,55.763999999999996,35.478,60.2385,53.504,53.699,34.5745,58.785,51.799,52.832,34.097,58.6495,51.19166666666666,-0.09999999999999998,-0.05449999999999999,0.10638,0.101565,0.0,220.23000000000002,220.24,217.00666666666666,217.00666666666666,190.012512,21.04372
