,ABS Active,ABS Enabled,AID Allow Tire Blankets,AID Auto Blip,AID Auto Clutch,AID Auto Shift,AID Fuel Rate,AID Ideal Line,AID Mech Damage,AID Stability,AID Tire Wear Rate,Air Density,Air Temp,Ballast,Best Lap Delta,Best Lap Time,Brake Bias,Brake Pos,Brake Temp FL,Brake Temp FR,Brake Temp RL,Brake Temp RR,CG Accel Lateral,CG Accel Longitudinal,CG Accel Vertical,CG Height,Camber FL,Camber FR,Camber RL,Camber RR,Car Coord X,Car Coord Y,Car Coord Z,Car Damage Front,Car Damage Left,Car Damage Rear,Car Damage Right,Car Pos Norm,Caster FL,Caster FR,Chassis Pitch Angle,Chassis Pitch Rate,Chassis Roll Angle,Chassis Roll Rate,Chassis Velocity X,Chassis Velocity Y,Chassis Velocity Z,Chassis Yaw Rate,Clutch Pos,DRS Active,DRS Available,Drive Train Speed,ERS Heat Charging,ERS Is Charging,ERS Max Energy,ERS Power Level,ERS Recovery Level,Engine Brake Setting,Engine Limiter,Engine RPM,Flags,Fuel Level,Gear,Ground Speed,HR Sample Clock,In Pit,KERS Charge,KERS Deployed Energy,KERS Input,KERS Max Energy,LR Sample Clock,Lap Invalidated,Lap Time,Lap Time2,Last Lap Time,Last Sector Time,MR Sample Clock,Max Fuel,Max Power,Max RPM,Max Sus Travel FL,Max Sus Travel FR,Max Sus Travel RL,Max Sus Travel RR,Max Torque,Max Turbo Boost,Num Tires Off Track,Penalties Enabled,Position,Raw Data Sample Rate,Ride Height FL,Ride Height FR,Ride Height RL,Ride Height RR,Road Temp,Self Align Torque FL,Self Align Torque FR,Self Align Torque RL,Self Align Torque RR,Session Lap Count,Session Time Left,Steering Angle,Surface Grip,Suspension Travel FL,Suspension Travel FR,Suspension Travel RL,Suspension Travel RR,TC Active,TC Enabled,Throttle Pos,Tire Dirt Level FL,Tire Dirt Level FR,Tire Dirt Level RL,Tire Dirt Level RR,Tire Load FL,Tire Load FR,Tire Load RL,Tire Load RR,Tire Loaded Radius FL,Tire Loaded Radius FR,Tire Loaded Radius RL,Tire Loaded Radius RR,Tire Pressure FL,Tire Pressure FR,Tire Pressure RL,Tire Pressure RR,Tire Radius FL,Tire Radius FR,Tire Radius RL,Tire Radius RR,Tire Rubber Grip FL,Tire Rubber Grip FR,Tire Rubber Grip RL,Tire Rubber Grip RR,Tire Slip Angle FL,Tire Slip Angle FR,Tire Slip Angle RL,Tire Slip Angle RR,Tire Slip Ratio FL,Tire Slip Ratio FR,Tire Slip Ratio RL,Tire Slip Ratio RR,Tire Temp Core FL,Tire Temp Core FR,Tire Temp Core RL,Tire Temp Core RR,Tire Temp Inner FL,Tire Temp Inner FR,Tire Temp Inner RL,Tire Temp Inner RR,Tire Temp Middle FL,Tire Temp Middle FR,Tire Temp Middle RL,Tire Temp Middle RR,Tire Temp Outer FL,Tire Temp Outer FR,Tire Temp Outer RL,Tire Temp Outer RR,Toe In FL,Toe In FR,Toe In RL,Toe In RR,Turbo Boost,Wheel Angular Speed FL,Wheel Angular Speed FR,Wheel Angular Speed RL,Wheel Angular Speed RR,Wind Direction,Wind Speed
0,0.0,0.0,0.0,1.0,1.0,0.0,0.0,1.0,0.0,100.0,1.0,1.1856,26.0,0.0,0.0,0.0,59.99999,0.0,26.0,26.0,26.0,26.0,-0.03466666666666662,0.3043,0.205075,293.747,-2.7407,-2.486625,-1.5178,-1.5171000000000001,-275.47,215.63,190.98675,0.0,0.0,0.0,0.0,0.0017000000000000001,-5.498166666666667,-5.498166666666667,-0.5543,1.7035,-0.018444444444444485,-1.439,65.52799999999999,-0.043399999999999994,-0.2179,0.1620000000000008,100.0,1.0,1.0,202.34,0.0,0.0,0.0,0.0,0.0,0.0,0.0,8576.5,0.0,55.0,5.0,235.87,0.0,0.0,0.0,0.0,0.0,0.0,0.0,0.0,0.006000000000000227,0.006000000000000227,0.0,0.0,0.0,55.0,616.79921,10000.0,85.0,85.0,85.0,85.0,395.0,0.0,0.0,0.0,1.0,20.0,51.483000000000004,51.483000000000004,49.118,49.118,34.0,-30.105,27.17,-29.4925,23.985,0.0,1783.366,0.370000000000001,100.0,26.813,26.957,40.159,39.738,0.0,0.0,100.0,0.0,0.0,0.0,0.0,3334.857142857143,3977.6000000000004,4063.5555555555557,3957.5,304.732,301.819,315.0005,314.9555,21.7551,20.5005,21.765,21.3054,314.99999,314.99999,324.99998,324.99998,99.55784285714286,99.50683333333333,99.56511428571429,99.54487142857143,-0.00550000000000006,-0.11033333333333317,-0.15649999999999997,0.06233333333333335,-0.06333333333333258,-0.046666666666666856,1.58,1.581,36.969,29.128,37.031,34.158500000000004,55.906,34.178,59.0165,51.4195,53.849000000000004,33.388999999999996,57.6505,49.797,53.032,32.9785,57.6205,49.23433333333333,-0.04699999999999993,-0.09749999999999992,0.11183000000000001,0.10246000000000001,0.0,205.32999999999998,205.29000000000002,202.34,202.34,190.01251,21.04372
1,0.0,0.0,0.0,1.0,1.0,0.0,0.0,1.0,0.0,100.0,1.0,1.1856,26.0,0.0,0.0,0.0,59.999996,0.0,26.0,26.0,26.0,26.0,-0.09377777777777785,0.3134000000000001,0.146825,292.984,-2.6497,-2.717625,-1.5372,-1.384,-272.12,215.6325,190.96675,0.0,0.0,0.0,0.0,0.0036666666666666666,-5.498166666666667,-5.498166666666667,-0.48400000000000004,-1.71,-0.05733333333333368,-0.20699999999999985,65.689,-0.04509999999999992,-0.19160000000000002,0.8060000000000009,100.0,1.0,1.0,202.26,0.0,0.0,0.0,0.0,0.0,0.0,0.0,8573.1,0.0,55.0,5.0,236.44666666666666,1.0,0.0,0.0,0.0,0.0,0.0,0.0,0.0,0.05699999999999861,0.05699999999999861,0.0,0.0,1.0,55.0,616.79921,10000.0,85.000001,85.000001,85.000001,85.000001,395.0,0.0,0.0,0.0,1.0,333.33500000000004,54.687,54.687,48.157,48.157,34.0,-23.849999999999998,16.59,-37.405,30.165,0.0,1783.313,0.45500000000000185,100.0,27.191,26.605,42.081,42.653999999999996,0.0,0.0,100.0,0.0,0.0,0.0,0.0,2850.4285714285716,2438.0,4681.333333333333,5074.0,306.112,307.04525,313.2915,311.9195,21.7648,20.5053,21.7759,21.3146,314.999998,314.999998,324.999988,324.999988,99.55784285714286,99.50685,99.56527142857144,99.54502857142857,0.010250000000000092,-0.11499999999999999,-0.16166666666666663,0.045666666666666744,-0.036666666666668846,-0.013333333333328312,1.2995,1.3585,37.03,29.157666666666664,37.099999999999994,34.216499999999996,55.888,34.217,59.067,51.493,53.832,33.425,57.6975,49.8675,53.013999999999996,33.0135,57.664500000000004,49.303333333333335,-0.03400000000000003,-0.10549999999999993,0.10659500000000001,0.11041500000000001,0.0,205.81,205.695,202.26,202.26,190.012512,21.04372
2,0.0,0.0,0.0,1.0,1.0,0.0,0.0,1.0,0.0,100.0,1.0,1.1856,26.0,0.0,0.0,0.0,59.999996,0.0,26.0,26.0,26.0,26.0,-0.10677777777777786,0.27580000000000005,-0.11080000000000001,294.556,-2.6435,-2.661625,-1.528,-1.5029,-268.57,215.635,190.94675,0.0,0.0,0.0,0.0,0.005733333333333334,-5.498166666666667,-5.498166666666667,-0.5672,1.099,-0.0067777777777777715,2.471,65.83500000000001,-0.054099999999999926,-0.2581,0.9920000000000009,100.0,1.0,1.0,203.65666666666667,0.0,0.0,0.0,0.0,0.0,0.0,0.0,8632.3,0.0,55.0,5.0,236.9766666666667,0.0,0.0,0.0,0.0,0.0,0.0,0.0,0.0,0.11100000000000065,0.11100000000000065,0.0,0.0,0.0,55.0,616.79921,10000.0,85.000001,85.000001,85.000001,85.000001,395.0,0.0,0.0,0.0,1.0,166.665,52.795,52.795,51.285,51.285,34.0,-27.6525,20.336,-25.6375,18.965,0.0,1783.261,0.5599999999999987,100.0,27.896,26.879,41.4,40.903,0.0,0.0,100.0,0.0,0.0,0.0,0.0,3157.4285714285716,3060.0,3513.0,3468.0,305.034,305.03675,316.28675,316.31825,21.7754,20.5106,21.7868,21.3234,314.999998,314.999998,324.999988,324.999988,99.55785714285715,99.50686666666667,99.56541428571428,99.54515714285715,-0.004249999999999865,-0.1353333333333333,-0.1901666666666666,0.04933333333333323,-0.045000000000001705,-0.060000000000002274,1.7405,1.7815,37.096000000000004,29.191333333333333,37.167,34.2715,55.875,34.2585,59.101,51.5415,53.82,33.463499999999996,57.729,49.914,53.001000000000005,33.05,57.6935,49.349333333333334,-0.03700000000000003,-0.11850000000000005,0.10305,0.11256000000000001,0.0,206.28,206.19,203.65666666666667,203.65666666666667,190.012512,21.04372
3,0.0,0.0,0.0,1.0,1.0,0.0,0.0,1.0,0.0,100.0,1.0,1.1856,26.0,0.0,0.0,0.0,59.999996,0.0,26.0,26.0,26.0,26.0,-0.0932222222222222,0.30000000000000004,-0.032100000000000004,293.686,-2.6486,-2.709625,-1.4969000000000001,-1.4951,-265.6,215.635,190.928875,0.0,0.0,0.0,0.0,0.0074666666666666675,-5.498166666666667,-5.498166666666667,-0.5027,0.4655,-0.01622222222222236,-2.245,65.976,-0.06489999999999996,-0.19062500000000002,0.822000000000001,100.0,1.0,1.0,203.48333333333335,0.0,0.0,0.0,0.0,0.0,0.0,0.0,8624.8,0.0,55.0,5.0,237.48666666666668,1.0,0.0,0.0,0.0,0.0,0.0,0.0,0.0,0.1559999999999988,0.1559999999999988,0.0,0.0,1.0,55.0,616.79921,10000.0,85.000001,85.000001,85.000001,85.000001,395.0,0.0,0.0,0.0,1.0,166.665,53.894,53.894,48.248,48.248,34.0,-25.485,18.278,-34.662499999999994,24.627499999999998,0.0,1783.216,0.6799999999999997,100.0,27.373,26.969,41.748000000000005,41.447,0.0,0.0,100.0,0.0,0.0,0.0,0.0,2920.4285714285716,2769.7,4487.555555555556,4149.6,306.047,305.8205,313.92425,314.39825,21.7838,20.5151,21.796,21.3313,314.999998,314.999998,324.999988,324.999988,99.55785714285715,99.50688333333333,99.56554285714286,99.54528571428571,-0.019749999999999934,-0.1443333333333332,-0.17499999999999993,0.04499999999999993,-0.02499999999999858,-0.051666666666669414,1.466,1.4929999999999999,37.149,29.219666666666665,37.224999999999994,34.321,55.858999999999995,34.296,59.137,51.6005,53.805,33.498,57.763,49.9705,52.985,33.083,57.7245,49.404666666666664,-0.02200000000000002,-0.1260000000000001,0.104895,0.10840000000000001,0.0,206.72,206.63,203.48333333333335,203.48333333333335,190.012512,21.04372
4,0.0,0.0,0.0,1.0,1.0,0.0,0.0,1.0,0.0,100.0,1.0,1.1856,26.0,0.0,0.0,0.0,59.999996,0.0,26.0,26.0,26.0,26.0,-0.10599999999999998,0.2936000000000001,-0.03485,294.022,-2.6481,-2.7813749999999997,-1.4466,-1.6028,-262.24,215.63,190.9095,0.0,0.0,0.0,0.0,0.0094,-5.498166666666667,-5.498166666666667,-0.5333,-0.8220000000000001,-0.061555555555555586,0.40200000000000014,66.125,-0.07489999999999997,-0.2353,1.1720000000000006,100.0,1.0,1.0,204.12666666666667,0.0,0.0,0.0,0.0,0.0,0.0,0.0,8652.1,0.0,55.0,5.0,238.01666666666665,0.0,0.0,0.0,0.0,0.0,0.0,0.0,0.0,0.20700000000000074,0.20700000000000074,0.0,0.0,0.0,55.0,616.79921,10000.0,85.000001,85.000001,85.000001,85.000001,395.0,0.0,0.0,0.0,1.0,166.665,53.696,53.696,49.301,49.301,34.0,-27.63,19.604,-31.072499999999998,22.55,0.0,1783.165,0.6400000000000006,100.0,27.386,26.367,42.487,41.352000000000004,0.0,0.0,100.0,0.0,0.0,0.0,0.0,3109.5714285714284,2897.8,4037.4444444444443,3826.5,305.292,305.65975,314.94925,315.331,21.7935,20.5201,21.8067,21.3402,314.999998,314.999998,324.999988,324.999988,99.55785714285715,99.5069,99.56568571428572,99.54542857142857,-0.018000000000000016,-0.14500000000000002,-0.20399999999999996,0.03133333333333321,-0.030000000000001137,-0.041666666666671404,1.5314999999999999,1.5979999999999999,37.209,29.250333333333334,37.292,34.376,55.843,34.3365,59.179,51.6595,53.79,33.535,57.8025,50.0275,52.969,33.1185,57.760999999999996,49.46033333333334,-0.020499999999999963,-0.12400000000000011,0.10763500000000001,0.10721000000000001,0.0,207.13,207.04500000000002,204.12666666666667,204.12666666666667,190.012512,21.04372
5,0.0,0.0,0.0,1.0,1.0,0.0,0.0,1.0,0.0,100.0,1.0,1.1856,26.0,0.0,0.0,0.0,59.999996,0.0,26.0,26.0,26.0,26.0,-0.09499999999999997,0.2915000000000001,-0.0415,294.281,-2.6641,-2.733625,-1.5015,-1.5973000000000002,-258.86,215.625,190.889625,0.0,0.0,0.0,0.0,0.011366666666666667,-5.498166666666667,-5.498166666666667,-0.5387000000000001,0.5295,-0.05655555555555569,-0.6520000000000001,66.271,-0.08899999999999997,-0.22182500000000002,1.1760000000000002,100.0,1.0,1.0,204.65333333333334,0.0,0.0,0.0,0.0,0.0,0.0,0.0,8674.5,0.0,55.0,5.0,238.54666666666668,1.0,0.0,0.0,0.0,0.0,0.0,0.0,0.0,0.2579999999999991,0.2579999999999991,0.0,0.0,1.0,55.0,616.79921,10000.0,85.000001,85.000001,85.000001,85.000001,395.0,0.0,0.0,0.0,1.0,333.33500000000004,53.833,53.833,49.789,49.789,34.0,-28.095,19.002,-31.48,21.585,0.0,1783.112,0.3099999999999987,100.0,27.242,26.409,42.019,40.923,0.0,0.0,100.0,0.0,0.0,0.0,0.0,3144.285714285714,2809.8,3970.3333333333335,3883.7,305.3135,305.72625,315.21375,315.19825,21.8033,20.5251,21.817,21.3488,314.999998,314.999998,324.999988,324.999988,99.55785714285715,99.50691666666667,99.56582857142857,99.54555714285715,-0.020999999999999908,-0.1383333333333332,-0.21933333333333338,0.005833333333333357,-0.061666666666667425,-0.03499999999999659,1.5825,1.615,37.271,29.281666666666666,37.357,34.43,55.829,34.378,59.216499999999996,51.717,53.775999999999996,33.573,57.8375,50.082,52.955,33.155,57.7935,49.513999999999996,-0.04349999999999998,-0.09650000000000003,0.10891500000000001,0.10462500000000001,0.0,207.63,207.525,204.65333333333334,204.65333333333334,190.012512,21.04372
6,0.0,0.0,0.0,1.0,1.0,0.0,0.0,1.0,0.0,100.0,1.0,1.1856,26.0,0.0,0.0,0.0,59.999996,0.0,26.0,26.0,26.0,26.0,-0.11511111111111105,0.2954000000000001,0.022425,294.067,-2.6467,-2.8057499999999997,-1.4977,-1.5737999999999999,-255.67,215.6175,190.870125,0.0,0.0,0.0,0.0,0.013233333333333335,-5.498166666666667,-5.498166666666667,-0.5261,-0.18599999999999994,-0.07122222222222208,-0.835,66.414,-0.09289999999999998,-0.204325,0.9580000000000002,100.0,1.0,1.0,204.90666666666667,0.0,0.0,0.0,0.0,0.0,0.0,0.0,8685.3,0.0,55.0,5.0,239.06,0.0,0.0,0.0,0.0,0.0,0.0,0.0,0.0,0.30600000000000094,0.30600000000000094,0.0,0.0,0.0,55.0,616.79921,10000.0,85.000001,85.000001,85.000001,85.000001,395.0,0.0,0.0,0.0,1.0,333.33500000000004,54.184,54.184,49.025999999999996,49.025999999999996,34.0,-28.3825,18.476,-34.19,22.7425,0.0,1783.065,0.35999999999999943,100.0,27.002,26.129,42.271,41.074,0.0,0.0,100.0,0.0,0.0,0.0,0.0,3164.857142857143,2708.5,4260.666666666667,4008.7,305.29,306.039,314.4615,314.84225,21.8124,20.5297,21.826999999999998,21.3571,314.999998,314.999998,324.999988,324.999988,99.55785714285715,99.50693333333334,99.56595714285714,99.54568571428571,-0.02774999999999994,-0.14666666666666672,-0.21066666666666656,0.01200000000000001,-0.06333333333333258,-0.054999999999999716,1.5225,1.543,37.327,29.310666666666666,37.419,34.482,55.814,34.4155,59.256,51.774,53.762,33.6075,57.874,50.137,52.94,33.1875,57.8275,49.56766666666667,-0.04149999999999998,-0.09749999999999992,0.10125500000000001,0.11332500000000001,0.0,208.06,207.97500000000002,204.90666666666667,204.90666666666667,190.012512,21.04372
7,0.0,0.0,0.0,1.0,1.0,0.0,0.0,1.0,0.0,100.0,1.0,1.1856,26.0,0.0,0.0,0.0,59.999996,0.0,26.0,26.0,26.0,26.0,-0.08144444444444443,0.2903,-0.018500000000000003,294.067,-2.6654,-2.79375,-1.5569000000000002,-1.6143,-252.07999999999998,215.60500000000002,190.84825,0.0,0.0,0.0,0.0,0.015300000000000001,-5.498166666666667,-5.498166666666667,-0.5341,0.09199999999999997,-0.055888888888888655,-0.31000000000000005,66.569,-0.09319999999999995,-0.216625,0.6539999999999999,100.0,1.0,1.0,205.48333333333335,0.0,0.0,0.0,0.0,0.0,0.0,0.0,8709.7,0.0,55.0,5.0,239.61666666666667,1.0,0.0,0.0,0.0,0.0,0.0,0.0,0.0,0.35999999999999943,0.35999999999999943,0.0,0.0,1.0,55.0,616.79921,10000.0,85.000001,85.000001,85.000001,85.000001,395.0,0.0,0.0,0.0,1.0,166.665,53.833,53.833,49.271,49.271,34.0,-27.255,19.968,-33.832499999999996,22.225,0.0,1783.012,-0.06500000000000128,100.0,27.3,26.439,42.298,41.175,0.0,0.0,100.0,0.0,0.0,0.0,0.0,3155.4285714285716,2785.9,4103.333333333333,3887.5,305.3405,305.785,314.89225,315.137,21.8228,20.5351,21.8381,21.3665,314.999998,314.999998,324.999988,324.999988,99.55787142857143,99.50695,99.56611428571429,99.54584285714286,0.000500000000000167,-0.1213333333333333,-0.22250000000000003,0.010333333333333306,-0.036666666666668846,-0.046666666666666856,1.546,1.584,37.391999999999996,29.34433333333333,37.488,34.5405,55.8,34.4585,59.2975,51.8375,53.748000000000005,33.647,57.913,50.1975,52.925,33.2255,57.8635,49.627,-0.07850000000000001,-0.06899999999999995,0.11198500000000002,0.10510000000000001,0.0,208.53,208.46,205.48333333333335,205.48333333333335,190.012512,21.04372
8,0.0,0.0,0.0,1.0,1.0,0.0,0.0,1.0,0.0,100.0,1.0,1.1856,26.0,0.0,0.0,0.0,59.999996,0.0,26.0,26.0,26.0,26.0,-0.07188888888888889,0.29190000000000005,-0.02765,294.052,-2.6873,-2.73475,-1.526,-1.6113,-248.68,215.59,190.827625,0.0,0.0,0.0,0.0,0.0173,-5.498166666666667,-5.498166666666667,-0.5394,-0.16949999999999998,-0.047555555555555795,0.40700000000000003,66.71600000000001,-0.07819999999999994,-0.221,0.3179999999999996,100.0,1.0,1.0,205.91666666666669,0.0,0.0,0.0,0.0,0.0,0.0,0.0,8728.1,0.0,55.0,5.0,240.15,0.0,0.0,0.0,0.0,0.0,0.0,0.0,0.0,0.41100000000000136,0.41100000000000136,0.0,0.0,0.0,55.0,616.79921,10000.0,85.000001,85.000001,85.000001,85.000001,395.0,0.0,0.0,0.0,1.0,166.665,53.802,53.802,49.103,49.103,34.0,-25.6325,21.47,-30.395,24.4525,0.0,1782.961,-0.134999999999998,100.0,27.201,26.414,42.393,41.230000000000004,0.0,0.0,100.0,0.0,0.0,0.0,0.0,3035.285714285714,2982.3,3989.3333333333335,3945.4,305.561,305.379,315.0975,315.052,21.8324,20.5402,21.8486,21.3754,314.999998,314.999998,324.999988,324.999988,99.55787142857143,99.50696666666667,99.56625714285714,99.54598571428572,0.02024999999999988,-0.10666666666666669,-0.18166666666666664,0.0491666666666668,-0.045000000000001705,-0.051666666666669414,1.566,1.582,37.453,29.375999999999998,37.553,34.596000000000004,55.783,34.4985,59.337,51.897999999999996,53.733000000000004,33.684,57.95,50.256,52.909,33.260999999999996,57.8975,49.68366666666667,-0.08399999999999996,-0.06099999999999994,0.10423500000000001,0.11753500000000001,0.0,208.965,208.92000000000002,205.91666666666669,205.91666666666669,190.012512,21.04372
9,0.0,0.0,0.0,1.0,1.0,0.0,0.0,1.0,0.0,100.0,1.0,1.1856,26.0,0.0,0.0,0.0,59.999996,0.0,26.0,26.0,26.0,26.0,-0.03400000000000003,0.2983,-0.009000000000000001,293.777,-2.6139,-2.740125,-1.5337,-1.5641,-245.68,215.5775,190.809125,0.0,0.0,0.0,0.0,0.019033333333333336,-5.498166666666667,-5.498166666666667,-0.5352,0.2905,-0.05411111111111122,-0.5899999999999999,66.846,-0.0655,-0.21332500000000001,0.10999999999999943,100.0,1.0,1.0,206.2866666666667,0.0,0.0,0.0,0.0,0.0,0.0,0.0,8743.8,0.0,55.0,5.0,240.61333333333334,1.0,0.0,0.0,0.0,0.0,0.0,0.0,0.0,0.4559999999999995,0.4559999999999995,0.0,0.0,1.0,55.0,616.79921,10000.0,85.000001,85.000001,85.000001,85.000001,395.0,0.0,0.0,0.0,1.0,333.33500000000004,53.436,53.436,49.271,49.271,34.0,-26.1675,21.817999999999998,-30.61,24.2725,0.0,1782.914,-0.33500000000000085,100.0,27.347,26.679000000000002,42.219,41.378,0.0,0.0,100.0,0.0,0.0,0.0,0.0,3216.714285714286,2893.7,4077.3333333333335,4034.6000000000004,305.141,305.47725,314.98275,314.79975,21.841,20.5447,21.8578,21.3832,314.999998,314.999998,324.999988,324.999988,99.55787142857143,99.50696666666667,99.56638571428572,99.5461,0.029749999999999943,-0.08499999999999996,-0.16949999999999998,0.04266666666666685,-0.04833333333333201,-0.05333333333332746,1.5565,1.564,37.507,29.404333333333334,37.611000000000004,34.644999999999996,55.771,34.533500000000004,59.3715,51.9505,53.721000000000004,33.716,57.982,50.3065,52.897,33.2915,57.9265,49.733000000000004,-0.10099999999999998,-0.038999999999999924,0.10254,0.10379500000000001,0.0,209.37,209.34,206.2866666666667,206.2866666666667,190.012512,21.04372
10,0.0,0.0,0.0,1.0,1.0,0.0,0.0,1.0,0.0,100.0,1.0,1.1856,26.0,0.0,0.0,0.0,59.999996,0.0,26.0,26.0,26.0,26.0,-0.02111111111111108,0.2977000000000001,0.012375,293.686,-2.6717,-2.718125,-1.4967000000000001,-1.5474999999999999,-242.26999999999998,215.56,190.788375,0.0,0.0,0.0,0.0,0.021033333333333334,-5.498166666666667,-5.498166666666667,-0.53,-0.3205,-0.02300000000000013,1.633,66.993,-0.04379999999999995,-0.213225,-0.21999999999999975,100.0,1.0,1.0,206.65666666666667,0.0,0.0,0.0,0.0,0.0,0.0,0.0,8759.5,0.0,55.0,5.0,241.14333333333335,0.0,0.0,0.0,0.0,0.0,0.0,1.0,0.0,0.5069999999999979,0.5069999999999979,0.0,0.0,0.0,55.0,616.79921,10000.0,85.000001,85.000001,85.000001,85.000001,395.0,0.0,0.0,0.0,1.0,333.33500000000004,53.787,53.787,48.813,48.813,34.0,-23.53,22.694000000000003,-29.1675,27.615000000000002,0.0,1782.864,-0.36499999999999844,100.0,27.391,26.5,42.456,41.671,0.0,0.0,100.0,0.0,0.0,0.0,0.0,2952.285714285714,2973.2,4069.777777777778,4229.9,305.759,305.45275,314.86875,314.3955,21.8507,20.5498,21.8683,21.3922,314.999998,314.999998,324.999988,324.999988,99.55788571428572,99.50698333333334,99.56654285714286,99.54624285714286,0.05125000000000002,-0.06966666666666677,-0.14533333333333331,0.08133333333333326,-0.061666666666667425,-0.046666666666666856,1.531,1.5245,37.567,29.436333333333334,37.677,34.701499999999996,55.756,34.5715,59.411,52.0125,53.707,33.751,58.019,50.3655,52.882,33.325,57.961,49.791,-0.09799999999999998,-0.03699999999999992,0.10902,0.10851000000000001,0.0,209.79500000000002,209.805,206.65666666666667,206.65666666666667,190.012512,21.04372
11,0.0,0.0,0.0,1.0,1.0,0.0,0.0,1.0,0.0,100.0,1.0,1.1856,26.0,0.0,0.0,0.0,59.999996,0.0,26.0,26.0,26.0,26.0,0.011555555555555541,0.27870000000000017,-0.052625000000000005,293.991,-2.6885,-2.70575,-1.5545,-1.5199,-238.85,215.54500000000002,190.767375,0.0,0.0,0.0,0.0,0.022600000000000002,-5.498166666666667,-5.498166666666667,-0.5527000000000001,-0.18799999999999994,0.0,-0.45500000000000007,67.136,-0.025799999999999934,-0.2262,-0.28799999999999937,100.0,1.0,1.0,207.23666666666668,0.0,0.0,0.0,0.0,0.0,0.0,0.0,8784.0,0.0,55.0,5.0,241.66,1.0,0.0,0.0,0.0,0.0,0.0,1.0,0.0,0.5579999999999998,0.5579999999999998,0.0,0.0,1.0,55.0,616.79921,10000.0,85.000001,85.000001,85.000001,85.000001,395.0,0.0,0.0,0.0,1.0,333.33500000000004,53.68,53.68,49.438,49.438,34.0,-24.32,23.514000000000003,-27.5825,25.572499999999998,0.0,1782.812,-0.5249999999999986,100.0,26.951,26.728,42.057,41.803,0.0,0.0,100.0,0.0,0.0,0.0,0.0,3095.0,2987.3,3882.222222222222,3983.0,305.5365,305.2,315.42275,314.94925,21.8603,20.555,21.8786,21.4011,314.999998,314.999998,324.999988,324.999988,99.55788571428572,99.50698333333334,99.56668571428571,99.5464,0.06150000000000011,-0.05600000000000005,-0.13783333333333336,0.08966666666666678,-0.03999999999999915,-0.046666666666666856,1.5815000000000001,1.5825,37.626999999999995,29.469,37.742000000000004,34.757,55.742000000000004,34.6095,59.447,52.0725,53.693,33.786500000000004,58.0525,50.423,52.867000000000004,33.3585,57.9915,49.84766666666667,-0.10949999999999993,-0.03499999999999992,0.10979000000000001,0.101305,0.0,210.23000000000002,210.245,207.23666666666668,207.23666666666668,190.012512,21.04372
12,0.0,0.0,0.0,1.0,1.0,0.0,0.0,1.0,0.0,100.0,1.0,1.1856,26.0,0.0,0.0,0.0,59.999996,0.0,26.0,26.0,26.0,26.0,0.021222222222222253,0.2895000000000001,0.011225,293.579,-2.7165,-2.69725,-1.5338,-1.5401,-235.62,215.5275,190.74675,0.0,0.0,0.0,0.0,0.025466666666666665,-5.498166666666667,-5.498166666666667,-0.5418000000000001,0.373,-0.0007777777777779882,-0.7210000000000001,67.272,-0.009499999999999953,-0.20495000000000002,-0.3179999999999996,100.0,1.0,1.0,207.56333333333333,0.0,0.0,0.0,0.0,0.0,0.0,0.0,8797.8,0.0,55.0,5.0,242.15333333333334,0.0,0.0,0.0,0.0,0.0,0.0,1.0,0.0,0.6059999999999981,0.6059999999999981,0.0,0.0,0.0,55.0,616.79921,10000.0,85.000001,85.000001,85.000001,85.000001,395.0,0.0,0.0,0.0,1.0,166.665,53.467,53.467,48.706,48.706,34.0,-24.3375,23.724,-28.4525,27.77,0.0,1782.766,-0.41499999999999915,100.0,27.056,27.032,41.987,41.854,0.0,0.0,100.0,0.0,0.0,0.0,0.0,3094.0,3015.2,4141.333333333333,4137.9,305.5285,305.09925,314.821,314.57625,21.8693,20.56,21.8884,21.4095,314.999998,314.999998,324.999988,324.999988,99.5579,99.507,99.56681428571429,99.54652857142857,0.06725000000000003,-0.055333333333333234,-0.11316666666666664,0.09866666666666668,-0.06333333333333258,-0.04833333333333201,1.537,1.5245,37.683,29.5,37.803,34.8095,55.729,34.646,59.4825,52.129,53.681,33.82,58.085499999999996,50.4775,52.854,33.391,58.0215,49.900999999999996,-0.10699999999999998,-0.04249999999999998,0.10714000000000001,0.10133500000000001,0.0,210.66500000000002,210.695,207.56333333333333,207.56333333333333,190.012512,21.04372
13,0.0,0.0,0.0,1.0,1.0,0.0,0.0,1.0,0.0,100.0,1.0,1.1856,26.0,0.0,0.0,0.0,59.999996,0.0,26.0,26.0,26.0,26.0,0.027555555555555777,0.2924,0.027425,293.304,-2.6869,-2.710875,-1.5655000000000001,-1.5474,-232.19,215.5125,190.725125,0.0,0.0,0.0,0.0,0.0269,-5.498166666666667,-5.498166666666667,-0.5386000000000001,-0.258,0.0016666666666667052,1.1139999999999999,67.418,-0.0013999999999999568,-0.2155,-0.4119999999999999,100.0,1.0,1.0,207.93333333333334,0.0,0.0,0.0,0.0,0.0,0.0,0.0,8813.6,0.0,55.0,5.0,242.67333333333335,1.0,0.0,0.0,0.0,0.0,0.0,1.0,0.0,0.657,0.657,0.0,0.0,1.0,55.0,616.79921,10000.0,85.000001,85.000001,85.000001,85.000001,395.0,0.0,0.0,0.0,1.0,333.33500000000004,53.314,53.314,48.569,48.569,34.0,-22.294999999999998,25.214,-27.925,30.1475,0.0,1782.714,-0.46000000000000085,100.0,27.432,27.006,42.416,42.205,0.0,0.0,100.0,0.0,0.0,0.0,0.0,2994.5714285714284,3082.8,4061.5555555555557,4273.5,305.641,305.07625,314.89,314.294,21.8788,20.5653,21.8989,21.4186,314.999998,314.999998,324.999988,324.999988,99.55791428571429,99.507,99.56695714285715,99.54667142857143,0.09375,-0.03166666666666673,-0.10333333333333339,0.1206666666666667,-0.03166666666666629,-0.051666666666669414,1.529,1.5105,37.742000000000004,29.53333333333333,37.867999999999995,34.866,55.716,34.684,59.5215,52.192,53.668,33.855000000000004,58.122,50.538,52.841,33.4245,58.055,49.96033333333334,-0.11449999999999994,-0.03249999999999997,0.10543500000000001,0.10855000000000001,0.0,211.10500000000002,211.12,207.93333333333334,207.93333333333334,190.012512,21.04372
14,0.0,0.0,0.0,1.0,1.0,0.0,0.0,1.0,0.0,100.0,1.0,1.1856,26.0,0.0,0.0,0.0,59.999996,0.0,26.0,26.0,26.0,26.0,0.055333333333333234,0.28900000000000015,-0.03475,293.564,-2.7085,-2.71375,-1.5618,-1.538,-228.74,215.495,190.70375,0.0,0.0,0.0,0.0,0.028900000000000002,-5.498166666666667,-5.498166666666667,-0.5514,-0.038999999999999924,0.015555555555555545,-0.38900000000000023,67.559,0.008000000000000007,-0.22640000000000002,-0.4639999999999995,100.0,1.0,1.0,208.4766666666667,0.0,0.0,0.0,0.0,0.0,0.0,0.0,8836.6,0.0,55.0,5.0,243.18333333333334,0.0,0.0,0.0,0.0,0.0,0.0,1.0,0.0,0.7079999999999984,0.7079999999999984,0.0,0.0,0.0,55.0,616.79921,10000.0,85.000001,85.000001,85.000001,85.000001,395.0,0.0,0.0,0.0,1.0,333.33500000000004,53.329,53.329,48.95,48.95,34.0,-23.0775,24.21,-26.68,28.2025,0.0,1782.662,-0.46499999999999986,100.0,27.242,27.333,42.159,42.354,0.0,0.0,100.0,0.0,0.0,0.0,0.0,3057.285714285714,2971.8,3962.6666666666665,4052.7,305.648,305.19,315.23025,314.77225,21.8883,20.5707,21.9093,21.427599999999998,314.999998,314.999998,324.999988,324.999988,99.55792857142858,99.50701666666667,99.5671,99.54681428571429,0.08775000000000022,-0.03833333333333311,-0.10233333333333339,0.12383333333333324,-0.051666666666669414,-0.04333333333332945,1.581,1.5575,37.802,29.566666666666666,37.933,34.9225,55.704,34.722,59.558,52.2525,53.657,33.89,58.156,50.5965,52.828,33.458,58.086,50.01733333333333,-0.11149999999999993,-0.03499999999999992,0.10920500000000001,0.10269,0.0,211.54500000000002,211.57,208.4766666666667,208.4766666666667,190.012512,21.04372
15,0.0,0.0,0.0,1.0,1.0,0.0,0.0,1.0,0.0,100.0,1.0,1.1856,26.0,0.0,0.0,0.0,59.999996,0.0,26.0,26.0,26.0,26.0,0.06433333333333335,0.27570000000000006,-0.02715,293.488,-2.7048,-2.686,-1.5735000000000001,-1.5519,-225.5,215.48250000000002,190.68325,0.0,0.0,0.0,0.0,0.03076666666666667,-5.498166666666667,-5.498166666666667,-0.5433,0.1765,0.028444444444444272,-0.843,67.694,0.015000000000000124,-0.212375,-0.47799999999999976,100.0,1.0,1.0,208.8466666666667,0.0,0.0,0.0,0.0,0.0,0.0,0.0,8852.3,0.0,55.0,5.0,243.66666666666666,1.0,0.0,0.0,0.0,0.0,0.0,1.0,0.0,0.7560000000000002,0.7560000000000002,0.0,0.0,1.0,55.0,616.79921,10000.0,85.000001,85.000001,85.000001,85.000001,395.0,0.0,0.0,0.0,1.0,333.33500000000004,53.391,53.391,48.737,48.737,34.0,-22.595,23.758,-27.5275,29.6375,0.0,1782.615,-0.36499999999999844,100.0,27.194,27.418,42.016999999999996,42.453,0.0,0.0,100.0,0.0,0.0,0.0,0.0,3010.857142857143,2949.8,4048.8888888888887,4111.2,305.7925,305.24275,315.04025,314.58275,21.897199999999998,20.5757,21.9191,21.4361,314.999998,314.999998,324.999988,324.999988,99.55792857142858,99.50701666666667,99.56724285714286,99.54695714285714,0.08850000000000025,-0.03933333333333322,-0.09950000000000003,0.13450000000000006,-0.054999999999999716,-0.03833333333332689,1.547,1.526,37.857,29.598333333333336,37.994,34.9755,55.692,34.757999999999996,59.592,52.311,53.644999999999996,33.923,58.1875,50.6525,52.816,33.4895,58.115,50.07233333333333,-0.10399999999999998,-0.040999999999999925,0.10912000000000001,0.10609,0.0,211.98000000000002,211.985,208.8466666666667,208.8466666666667,190.012512,21.04372
16,0.0,0.0,0.0,1.0,1.0,0.0,0.0,1.0,0.0,100.0,1.0,1.1856,26.0,0.0,0.0,0.0,59.999996,0.0,26.0,26.0,26.0,26.0,0.03788888888888886,0.27249999999999996,-0.0024000000000000002,293.289,-2.7543,-2.643375,-1.5459,-1.5544,-222.04,215.4675,190.661125,0.0,0.0,0.0,0.0,0.03276666666666667,-5.498166666666667,-5.498166666666667,-0.556,-0.3400000000000001,0.01766666666666672,0.19300000000000006,67.836,0.018000000000000016,-0.22560000000000002,-0.36599999999999966,100.0,1.0,1.0,209.2866666666667,0.0,0.0,0.0,0.0,0.0,0.0,0.0,8870.8,0.0,55.0,5.0,244.18,0.0,0.0,0.0,0.0,0.0,0.0,1.0,0.0,0.8069999999999986,0.8069999999999986,0.0,0.0,0.0,55.0,616.79921,10000.0,85.000001,85.000001,85.000001,85.000001,395.0,0.0,0.0,0.0,1.0,333.33500000000004,52.979,52.979,48.553,48.553,34.0,-23.505,26.105999999999998,-25.8725,29.255,0.0,1782.563,-0.3049999999999997,100.0,27.256,27.326999999999998,42.349000000000004,42.479,0.0,0.0,100.0,0.0,0.0,0.0,0.0,3094.142857142857,3212.8,3970.0,4031.6000000000004,305.4625,304.684,315.124,314.864,21.9065,20.5811,21.9296,21.4452,314.999998,314.999998,324.999988,324.999988,99.55794285714286,99.50701666666667,99.56737142857143,99.5471,0.09750000000000014,-0.025666666666666726,-0.08383333333333332,0.14366666666666683,-0.03833333333332689,-0.05333333333332746,1.547,1.5375,37.915,29.632333333333335,38.06,35.032,55.678,34.7965,59.629999999999995,52.372,53.632,33.9585,58.223,50.7115,52.802,33.5235,58.1475,50.129999999999995,-0.10050000000000003,-0.050999999999999934,0.11031,0.10924,0.0,212.38,212.425,209.2866666666667,209.2866666666667,190.012512,21.04372
17,0.0,0.0,0.0,1.0,1.0,0.0,0.0,1.0,0.0,100.0,1.0,1.1856,26.0,0.0,0.0,0.0,59.999996,0.0,26.0,26.0,26.0,26.0,0.056333333333333346,0.2772000000000001,0.035775,292.969,-2.6258,-2.728625,-1.4951,-1.5762,-218.37,215.45499999999998,190.6375,0.0,0.0,0.0,0.0,0.0349,-5.498166666666667,-5.498166666666667,-0.5499,0.12749999999999995,-0.0025555555555558662,0.6520000000000001,67.986,0.015300000000000091,-0.2159,-0.33200000000000074,100.0,1.0,1.0,209.67333333333335,0.0,0.0,0.0,0.0,0.0,0.0,0.0,8887.2,0.0,55.0,5.0,244.72,1.0,0.0,0.0,0.0,0.0,0.0,1.0,0.0,0.8610000000000007,0.8610000000000007,0.0,0.0,1.0,55.0,616.79921,10000.0,85.000001,85.000001,85.000001,85.000001,395.0,0.0,0.0,0.0,1.0,166.665,52.979,52.979,48.096000000000004,48.096000000000004,34.0,-21.465,25.286,-27.125,31.7725,0.0,1782.511,-0.21499999999999986,100.0,27.6,27.496,42.438,42.552,0.0,0.0,100.0,0.0,0.0,0.0,0.0,2982.285714285714,3072.6,4158.111111111111,4251.3,305.638,304.96675,314.6735,314.32225,21.9165,20.5869,21.9406,21.4547,314.999998,314.999998,324.999988,324.999988,99.55795714285715,99.50701666666667,99.56752857142857,99.54724285714286,0.09975000000000023,-0.03633333333333311,-0.08933333333333338,0.1443333333333332,-0.041666666666671404,-0.05833333333333002,1.5030000000000001,1.4889999999999999,37.977999999999994,29.668333333333333,38.129000000000005,35.092,55.666,34.8375,59.6695,52.4365,53.620000000000005,33.997,58.2595,50.7735,52.788,33.56,58.181,50.190666666666665,-0.09299999999999997,-0.05600000000000005,0.10855000000000001,0.11257,0.0,212.875,212.89499999999998,209.67333333333335,209.67333333333335,190.012512,21.04372
18,0.0,0.0,0.0,1.0,1.0,0.0,0.0,1.0,0.0,100.0,1.0,1.1856,26.0,0.0,0.0,0.0,59.999996,0.0,26.0,26.0,26.0,26.0,0.04255555555555568,0.2854000000000001,0.050825,292.938,-2.6569,-2.744125,-1.4955,-1.5796999999999999,-215.31,215.445,190.617625,0.0,0.0,0.0,0.0,0.0367,-5.498166666666667,-5.498166666666667,-0.5621,-0.35050000000000003,0.0014444444444443594,-0.637,68.11,0.00990000000000002,-0.227225,-0.13200000000000056,100.0,1.0,1.0,210.04666666666668,0.0,0.0,0.0,0.0,0.0,0.0,0.0,8903.2,0.0,55.0,5.0,245.17000000000002,0.0,0.0,0.0,0.0,0.0,0.0,1.0,0.0,0.9059999999999988,0.9059999999999988,0.0,0.0,0.0,55.0,616.79921,10000.0,85.000001,85.000001,85.000001,85.000001,395.0,0.0,0.0,0.0,1.0,333.33500000000004,52.841,52.841,48.294,48.294,34.0,-23.97,24.944000000000003,-26.634999999999998,29.9025,0.0,1782.464,-0.21499999999999986,100.0,27.407,27.603,42.459,42.789,0.0,0.0,100.0,0.0,0.0,0.0,0.0,3134.5714285714284,3055.6,4082.1111111111113,4161.1,305.4015,304.8685,314.911,314.3925,21.9247,20.5916,21.9499,21.4628,314.999998,314.999998,324.999988,324.999988,99.55797142857143,99.50703333333334,99.56767142857143,99.54737142857142,0.07275000000000009,-0.048666666666666636,-0.09333333333333338,0.1200000000000001,-0.03833333333332689,-0.07000000000000028,1.5150000000000001,1.5095,38.03,29.697666666666667,38.187,35.1425,55.653999999999996,34.871,59.7025,52.4905,53.608999999999995,34.0275,58.2905,50.8255,52.775999999999996,33.5895,58.209,50.242,-0.08699999999999997,-0.06299999999999994,0.09943500000000001,0.10872000000000001,0.0,213.25,213.265,210.04666666666668,210.04666666666668,190.012512,21.04372
19,0.0,0.0,0.0,1.0,1.0,0.0,0.0,1.0,0.0,100.0,1.0,1.1856,26.0,0.0,0.0,0.0,59.999996,0.0,26.0,26.0,26.0,26.0,0.0407777777777778,0.2782,-0.004,292.847,-2.652,-2.714875,-1.5179,-1.6035,-211.63,215.4325,190.593625,0.0,0.0,0.0,0.0,0.03883333333333333,-5.498166666666667,-5.498166666666667,-0.5491,0.5115000000000001,0.004555555555555646,-0.8959999999999999,68.257,0.00029999999999996696,-0.21252500000000002,-0.05799999999999894,100.0,1.0,1.0,210.53,0.0,0.0,0.0,0.0,0.0,0.0,0.0,8923.6,0.0,55.0,5.0,245.69666666666666,1.0,0.0,0.0,0.0,0.0,0.0,1.0,0.0,0.9600000000000009,0.9600000000000009,0.0,0.0,1.0,55.0,616.79921,10000.0,85.000001,85.000001,85.000001,85.000001,395.0,0.0,0.0,0.0,1.0,166.665,52.734,52.734,48.309,48.309,34.0,-23.41,23.198,-28.8525,29.345,0.0,1782.412,-0.25,100.0,27.896,27.951,42.433,42.877,0.0,0.0,100.0,0.0,0.0,0.0,0.0,3096.4285714285716,2916.6,4152.888888888889,4118.6,305.514,305.3005,314.79425,314.5355,21.9348,20.5975,21.9609,21.4724,314.999998,314.999998,324.999988,324.999988,99.55797142857143,99.50703333333334,99.56781428571429,99.54752857142857,0.07699999999999996,-0.05366666666666675,-0.11966666666666659,0.11016666666666675,-0.03999999999999915,-0.05333333333332746,1.505,1.4985,38.093,29.734,38.254999999999995,35.203,55.641,34.913,59.7405,52.555,53.597,34.0665,58.326,50.8875,52.763,33.627,58.241,50.30266666666667,-0.09599999999999997,-0.050999999999999934,0.108035,0.10790500000000001,0.0,213.73000000000002,213.75,210.53,210.53,190.012512,21.04372
20,0.0,0.0,0.0,1.0,1.0,0.0,0.0,1.0,0.0,100.0,1.0,1.1856,26.0,0.0,0.0,0.0,59.999996,0.0,26.0,26.0,26.0,26.0,0.0367777777777778,0.2574000000000001,-0.025675,292.923,-2.7201,-2.6580000000000004,-1.5513,-1.5876000000000001,-208.35,215.425,190.5725,0.0,0.0,0.0,0.0,0.04073333333333334,-5.498166666666667,-5.498166666666667,-0.5605,-0.7655000000000001,0.005222222222222239,-0.815,68.389,-0.0015999999999999348,-0.22875,-0.04600000000000026,100.0,1.0,1.0,210.92333333333335,0.0,0.0,0.0,0.0,0.0,0.0,0.0,8940.3,0.0,55.0,5.0,246.17333333333335,0.0,0.0,0.0,0.0,0.0,0.0,0.0,0.0,1.0079999999999991,1.0079999999999991,0.0,0.0,0.0,55.0,616.79921,10000.0,85.000001,85.000001,85.000001,85.000001,395.0,0.0,0.0,0.0,1.0,333.33500000000004,52.948,52.948,47.989,47.989,34.0,-24.33,23.118,-28.2975,27.885,0.0,1782.362,-0.23000000000000043,100.0,27.53,27.681,42.97,43.192,0.0,0.0,100.0,0.0,0.0,0.0,0.0,3110.285714285714,3003.0,4083.5555555555557,3971.2,305.537,305.155,314.93875,314.92375,21.9435,20.6025,21.9708,21.4811,314.999998,314.999998,324.999988,324.999988,99.55798571428572,99.50705,99.56795714285714,99.54767142857143,0.07125000000000004,-0.05966666666666676,-0.11083333333333334,0.1136666666666668,-0.02833333333332888,-0.04999999999999716,1.5110000000000001,1.531,38.147,29.765666666666668,38.318,35.257,55.626999999999995,34.951499999999996,59.7795,52.617,53.583,34.102000000000004,58.3625,50.947,52.748999999999995,33.661,58.2745,50.36066666666667,-0.09450000000000003,-0.058499999999999996,0.103925,0.115345,0.0,214.09,214.11,210.92333333333335,210.92333333333335,190.012512,21.04372
21,0.0,0.0,0.0,1.0,1.0,0.0,0.0,1.0,0.0,100.0,1.0,1.1856,26.0,0.0,0.0,0.0,59.999996,0.0,26.0,26.0,26.0,26.0,0.02666666666666684,0.2693000000000001,-0.038425,293.03,-2.7217000000000002,-2.6725000000000003,-1.5594999999999999,-1.5282,-205.06,215.41500000000002,190.55075,0.0,0.0,0.0,0.0,0.042633333333333336,-5.498166666666667,-5.498166666666667,-0.5739000000000001,0.10799999999999998,-0.005111111111111288,-0.7050000000000001,68.518,-0.0045999999999999375,-0.22337500000000002,-0.12799999999999923,100.0,1.0,1.0,211.40666666666667,0.0,0.0,0.0,0.0,0.0,0.0,0.0,8960.8,0.0,55.0,5.0,246.63666666666666,1.0,0.0,0.0,0.0,0.0,0.0,0.0,0.0,1.056000000000001,1.056000000000001,0.0,0.0,1.0,55.0,616.79921,10000.0,85.000001,85.000001,85.000001,85.000001,395.0,0.0,0.0,0.0,1.0,333.33500000000004,52.78,52.78,48.492,48.492,34.0,-24.915,24.076,-27.8975,26.72,0.0,1782.314,-0.28500000000000014,100.0,27.614,27.612000000000002,42.644,42.812,0.0,0.0,100.0,0.0,0.0,0.0,0.0,3197.142857142857,3053.8,4037.5555555555557,4000.8,305.269,305.02425,315.09675,314.959,21.9524,20.6076,21.9805,21.4896,314.999998,314.999998,324.999988,324.999988,99.558,99.50705,99.56808571428571,99.5478,0.07699999999999996,-0.050000000000000044,-0.11449999999999994,0.1056666666666668,-0.060000000000002274,-0.03833333333332689,1.5675,1.557,38.202,29.797666666666665,38.378,35.3095,55.616,34.9855,59.81,52.6685,53.572,34.1335,58.391,50.9965,52.738,33.691,58.3005,50.409333333333336,-0.10099999999999998,-0.05049999999999999,0.10524000000000001,0.10152000000000001,0.0,214.53,214.51,211.40666666666667,211.40666666666667,190.012512,21.04372
22,0.0,0.0,0.0,1.0,1.0,0.0,0.0,1.0,0.0,100.0,1.0,1.1856,26.0,0.0,0.0,0.0,59.999996,0.0,26.0,26.0,26.0,26.0,0.006000000000000005,0.2901,0.014625,292.557,-2.7567,-2.643125,-1.5648,-1.528,-201.57,215.405,190.527,0.0,0.0,0.0,0.0,0.044666666666666674,-5.498166666666667,-5.498166666666667,-0.5587,0.012499999999999956,0.004555555555555646,1.042,68.658,-0.0043999999999999595,-0.202825,-0.24600000000000044,100.0,1.0,1.0,211.66,0.0,0.0,0.0,0.0,0.0,0.0,0.0,8971.4,0.0,55.0,5.0,247.14,0.0,0.0,0.0,0.0,0.0,0.0,0.0,0.0,1.1069999999999993,1.1069999999999993,0.0,0.0,0.0,55.0,616.79921,10000.0,85.000001,85.000001,85.000001,85.000001,395.0,0.0,0.0,0.0,1.0,333.33500000000004,52.795,52.795,47.607,47.607,34.0,-23.925,24.9,-29.36,30.465,0.0,1782.263,-0.3299999999999983,100.0,27.807,27.524,42.939,42.868,0.0,0.0,100.0,0.0,0.0,0.0,0.0,3068.285714285714,3150.5,4214.111111111111,4392.9,305.5345,304.92425,314.5575,314.06825,21.9618,20.6131,21.991,21.4987,314.999998,314.999998,324.999988,324.999988,99.558,99.50705,99.56824285714286,99.54795714285714,0.08375000000000021,-0.03933333333333322,-0.10466666666666657,0.11183333333333323,-0.03999999999999915,-0.05666666666667197,1.5115,1.4914999999999998,38.260999999999996,29.831666666666663,38.444,35.3665,55.604,35.0245,59.8485,52.7295,53.56,34.1695,58.4265,51.0555,52.724999999999994,33.7255,58.333,50.46666666666667,-0.10250000000000004,-0.046499999999999986,0.10190500000000001,0.110585,0.0,214.96,214.965,211.66,211.66,190.012512,21.04372
23,0.0,0.0,0.0,1.0,1.0,0.0,0.0,1.0,0.0,100.0,1.0,1.1856,26.0,0.0,0.0,0.0,59.999996,0.0,26.0,26.0,26.0,26.0,0.010222222222222133,0.27170000000000005,0.012125,292.496,-2.6555999999999997,-2.7,-1.6283,-1.5069,-197.85,215.3975,190.502125,0.0,0.0,0.0,0.0,0.04683333333333333,-5.498166666666667,-5.498166666666667,-0.5738,-0.23849999999999993,0.0014444444444443594,0.7709999999999999,68.803,-0.00029999999999996696,-0.226525,-0.3020000000000005,100.0,1.0,1.0,212.16333333333333,0.0,0.0,0.0,0.0,0.0,0.0,0.0,8992.8,0.0,55.0,5.0,247.66,1.0,0.0,0.0,0.0,0.0,0.0,0.0,0.0,1.1610000000000014,1.1610000000000014,0.0,0.0,1.0,55.0,616.79921,10000.0,85.000001,85.000001,85.000001,85.000001,395.0,0.0,0.0,0.0,1.0,166.665,52.567,52.567,47.76,47.76,34.0,-22.8975,24.848,-29.8725,29.1625,0.0,1782.211,-0.3200000000000003,100.0,28.071,27.668,43.133,43.112,0.0,0.0,100.0,0.0,0.0,0.0,0.0,3079.285714285714,3098.6,4208.222222222223,4203.2,305.3755,304.993,314.6535,314.5165,21.9717,20.6189,22.0021,21.5084,314.999998,314.999998,324.999988,324.999988,99.55802857142857,99.50706666666666,99.56838571428571,99.54811428571429,0.09200000000000008,-0.044333333333333114,-0.10116666666666663,0.12433333333333318,-0.04333333333332945,-0.046666666666666856,1.5195,1.5145,38.323,29.868000000000002,38.513,35.4275,55.59,35.0665,59.888,52.794,53.548,34.208,58.463499999999996,51.1175,52.711,33.7625,58.3665,50.52766666666667,-0.10599999999999998,-0.05899999999999994,0.10907000000000001,0.10826500000000001,0.0,215.385,215.4,212.16333333333333,212.16333333333333,190.012512,21.04372
24,0.0,0.0,0.0,1.0,1.0,0.0,0.0,1.0,0.0,100.0,1.0,1.1856,26.0,0.0,0.0,0.0,59.999996,0.0,26.0,26.0,26.0,26.0,0.038999999999999924,0.28100000000000014,-0.04515,292.938,-2.7073,-2.6967499999999998,-1.5403,-1.5544,-194.76,215.39,190.480875,0.0,0.0,0.0,0.0,0.048633333333333334,-5.498166666666667,-5.498166666666667,-0.5857,-0.39250000000000007,0.00955555555555554,-0.19100000000000028,68.923,0.0017000000000000348,-0.222425,-0.22999999999999954,100.0,1.0,1.0,212.55333333333334,0.0,0.0,0.0,0.0,0.0,0.0,0.0,9009.3,0.0,55.0,5.0,248.09666666666666,0.0,0.0,0.0,0.0,0.0,0.0,0.0,0.0,1.2059999999999995,1.2059999999999995,0.0,0.0,0.0,55.0,616.79921,10000.0,85.000001,85.000001,85.000001,85.000001,395.0,0.0,0.0,0.0,1.0,333.33500000000004,53.207,53.207,47.958,47.958,34.0,-23.035,23.436,-28.1925,28.155,0.0,1782.164,-0.3299999999999983,100.0,27.631,27.58,42.958,43.094,0.0,0.0,100.0,0.0,0.0,0.0,0.0,3025.5714285714284,2947.6,4121.222222222223,4072.4,305.7805,305.3065,314.8465,314.739,21.98,20.6236,22.0113,21.5164,314.999998,314.999998,324.999988,324.999988,99.55802857142857,99.50706666666666,99.56851428571429,99.54822857142857,0.08199999999999985,-0.04899999999999993,-0.10799999999999998,0.11216666666666675,-0.05333333333332746,-0.041666666666671404,1.5455,1.5325,38.375,29.897666666666666,38.57,35.4775,55.579,35.0995,59.92,52.8465,53.537,34.2385,58.493,51.168,52.699,33.7915,58.3935,50.577,-0.10150000000000003,-0.04899999999999993,0.10621000000000001,0.1101,0.0,215.755,215.775,212.55333333333334,212.55333333333334,190.012512,21.04372
25,0.0,0.0,0.0,1.0,1.0,0.0,0.0,1.0,0.0,100.0,1.0,1.1856,26.0,0.0,0.0,0.0,59.999996,0.0,26.0,26.0,26.0,26.0,0.0434444444444444,0.276,-0.012100000000000001,292.603,-2.6865,-2.669375,-1.5829,-1.5505,-191.03,215.3825,190.454,0.0,0.0,0.0,0.0,0.050800000000000005,-5.498166666666667,-5.498166666666667,-0.6006,0.26049999999999995,0.014666666666666606,-1.0030000000000001,69.066,0.0032000000000000917,-0.21785000000000002,-0.2599999999999998,100.0,1.0,1.0,213.0366666666667,0.0,0.0,0.0,0.0,0.0,0.0,0.0,9029.9,0.0,55.0,5.0,248.61,1.0,0.0,0.0,0.0,0.0,0.0,0.0,0.0,1.259999999999998,1.259999999999998,0.0,0.0,1.0,55.0,616.79921,10000.0,85.000001,85.000001,85.000001,85.000001,395.0,0.0,0.0,0.0,1.0,166.665,52.246,52.246,48.126,48.126,34.0,-24.6675,25.490000000000002,-28.1925,28.44,0.0,1782.112,-0.36499999999999844,100.0,27.718,27.91,42.691,42.894999999999996,0.0,0.0,100.0,0.0,0.0,0.0,0.0,3252.5714285714284,3185.2,4081.222222222222,4081.2,305.084,304.5195,315.03475,314.73,21.9898,20.6295,22.022199999999998,21.526,314.999998,314.999998,324.999988,324.999988,99.55804285714285,99.50706666666666,99.56868571428572,99.5484,0.08725000000000005,-0.047666666666666746,-0.10633333333333339,0.11933333333333329,-0.04999999999999716,-0.04333333333332945,1.5565,1.555,38.436,29.934333333333335,38.638999999999996,35.5375,55.565,35.141,59.9565,52.909,53.522999999999996,34.277,58.527,51.228,52.685,33.8285,58.4245,50.635999999999996,-0.10549999999999993,-0.05600000000000005,0.103675,0.10788,0.0,216.22,216.21,213.0366666666667,213.0366666666667,190.012512,21.04372
26,0.0,0.0,0.0,1.0,1.0,0.0,0.0,1.0,0.0,100.0,1.0,1.1856,26.0,0.0,0.0,0.0,59.999996,0.0,26.0,26.0,26.0,26.0,0.03111111111111109,0.2673000000000001,0.060450000000000004,291.824,-2.7048,-2.666625,-1.5441,-1.557,-187.5,215.375,190.4285,0.0,0.0,0.0,0.0,0.052866666666666666,-5.498166666666667,-5.498166666666667,-0.5738,0.11349999999999993,0.006111111111110956,1.087,69.20400000000001,0.00649999999999995,-0.2051,-0.3420000000000005,100.0,1.0,1.0,213.26,0.0,0.0,0.0,0.0,0.0,0.0,0.0,9039.4,0.0,55.0,5.0,249.11,0.0,0.0,0.0,0.0,0.0,0.0,0.0,0.0,1.311,1.311,0.0,0.0,0.0,55.0,616.79921,10000.0,85.000001,85.000001,85.000001,85.000001,395.0,0.0,0.0,0.0,1.0,166.665,52.094,52.094,47.012,47.012,34.0,-22.794999999999998,25.286,-29.9675,32.6425,0.0,1782.061,-0.34999999999999787,100.0,28.528,28.099,43.38,43.421,0.0,0.0,100.0,0.0,0.0,0.0,0.0,3063.4285714285716,3158.9,4351.444444444444,4408.6,305.3815,304.89125,314.237,313.9625,21.999299999999998,20.6351,22.0327,21.5353,314.999998,314.999998,324.999988,324.999988,99.55805714285714,99.50708333333333,99.56882857142857,99.54854285714286,0.10325000000000006,-0.038000000000000034,-0.09516666666666662,0.13400000000000012,-0.01999999999999602,-0.061666666666667425,1.4515,1.434,38.495999999999995,29.96933333333333,38.705,35.5955,55.555,35.1815,59.996,52.972,53.513999999999996,34.314,58.564,51.2885,52.674,33.864,58.458,50.695,-0.11049999999999993,-0.0495000000000001,0.10572000000000001,0.11504500000000001,0.0,216.64,216.67000000000002,213.26,213.26,190.012512,21.04372
27,0.0,0.0,0.0,1.0,1.0,0.0,0.0,1.0,0.0,100.0,1.0,1.1856,26.0,0.0,0.0,0.0,59.999996,0.0,26.0,26.0,26.0,26.0,0.034666666666666845,0.26649999999999996,-0.041225000000000005,292.282,-2.7592,-2.6732500000000003,-1.6080999999999999,-1.534,-184.39,215.37,190.40675,0.0,0.0,0.0,0.0,0.05466666666666667,-5.498166666666667,-5.498166666666667,-0.5995,-0.8029999999999999,0.014777777777777779,-0.5489999999999999,69.322,0.008599999999999941,-0.24045000000000002,-0.2699999999999996,100.0,1.0,1.0,213.75333333333333,0.0,0.0,0.0,0.0,0.0,0.0,0.0,9060.2,0.0,55.0,5.0,249.53333333333336,1.0,0.0,0.0,0.0,0.0,0.0,0.0,0.0,1.355999999999998,1.355999999999998,0.0,0.0,1.0,55.0,616.79921,10000.0,85.000001,85.000001,85.000001,85.000001,395.0,0.0,0.0,0.0,1.0,111.11,52.353,52.353,47.302,47.302,34.0,-24.305,24.516,-27.945,28.215,0.0,1782.017,-0.3550000000000004,100.0,28.017,28.284,43.58,43.706,0.0,0.0,100.0,0.0,0.0,0.0,0.0,3132.857142857143,3077.2,4061.8888888888887,4070.7,305.527,304.9015,314.94575,314.77575,22.0074,20.64,22.042,21.5434,314.999998,314.999998,324.999988,324.999988,99.55807142857142,99.50708333333333,99.56895714285714,99.54867142857142,0.08450000000000024,-0.046666666666666634,-0.09316666666666662,0.1186666666666667,-0.046666666666666856,-0.04833333333333201,1.5474999999999999,1.526,38.546,29.999666666666666,38.763,35.6465,55.543,35.216,60.0295,53.0255,53.503,34.346000000000004,58.595,51.34,52.662,33.8945,58.486,50.745333333333335,-0.10499999999999998,-0.0515000000000001,0.0951,0.10936000000000001,0.0,216.97500000000002,216.985,213.75333333333333,213.75333333333333,190.012512,21.04372
28,0.0,0.0,0.0,1.0,1.0,0.0,0.0,1.0,0.0,100.0,1.0,1.1856,26.0,0.0,0.0,0.0,59.999996,0.0,26.0,26.0,26.0,26.0,0.028111111111111198,0.27380000000000004,-0.041675000000000004,292.404,-2.6828,-2.666,-1.6167,-1.5647,-180.85,215.365,190.38125,0.0,0.0,0.0,0.0,0.05673333333333334,-5.498166666666667,-5.498166666666667,-0.6005,0.5435,0.0016666666666667052,0.34399999999999986,69.455,0.007100000000000106,-0.215675,-0.3779999999999992,100.0,1.0,1.0,214.21666666666667,0.0,0.0,0.0,0.0,0.0,0.0,0.0,9079.9,0.0,55.0,5.0,250.00666666666666,0.0,0.0,0.0,0.0,0.0,0.0,0.0,0.0,1.407,1.407,0.0,0.0,0.0,55.0,616.79921,10000.0,85.000001,85.000001,85.000001,85.000001,395.0,0.0,0.0,0.0,1.0,166.665,52.414,52.414,47.577,47.577,34.0,-21.6475,25.406,-29.03,29.685,0.0,1781.965,-0.4450000000000003,100.0,28.241,28.089,43.117000000000004,43.269,0.0,0.0,100.0,0.0,0.0,0.0,0.0,2988.857142857143,3140.4,4171.111111111111,4143.6,305.6415,304.862,314.8275,314.691,22.0167,20.6456,22.0523,21.5525,314.999998,314.999998,324.999988,324.999988,99.55808571428571,99.5071,99.5691,99.54881428571429,0.10975000000000001,-0.033666666666666734,-0.09783333333333333,0.13083333333333336,-0.03499999999999659,-0.05333333333332746,1.5465,1.5385,38.604,30.035,38.827,35.703,55.532,35.2555,60.063,53.084,53.492000000000004,34.3825,58.626,51.3965,52.65,33.9295,58.513999999999996,50.800333333333334,-0.11749999999999994,-0.044499999999999984,0.103565,0.10876000000000001,0.0,217.41,217.44,214.21666666666667,214.21666666666667,190.012512,21.04372
29,0.0,0.0,0.0,1.0,1.0,0.0,0.0,1.0,0.0,100.0,1.0,1.1856,26.0,0.0,0.0,0.0,59.999996,0.0,26.0,26.0,26.0,26.0,0.028111111111111198,0.2662,-0.03195,292.16,-2.7526,-2.5949999999999998,-1.5962,-1.5675,-177.09,215.3625,190.353375,0.0,0.0,0.0,0.0,0.0589,-5.498166666666667,-5.498166666666667,-0.6097,-0.7105000000000001,-0.000888888888888939,0.734,69.598,0.009000000000000119,-0.219425,-0.4379999999999997,100.0,1.0,1.0,214.54666666666668,0.0,0.0,0.0,0.0,0.0,0.0,0.0,9093.9,0.0,55.0,5.0,250.52666666666664,1.0,0.0,0.0,0.0,0.0,0.0,0.0,0.0,1.4609999999999985,1.4609999999999985,0.0,0.0,1.0,55.0,616.79921,10000.0,85.000001,85.000001,85.000001,85.000001,395.0,0.0,0.0,0.0,1.0,166.665,52.292,52.292,47.501,47.501,34.0,-24.0,26.258,-28.08,30.62,0.0,1781.91,-0.47499999999999787,100.0,27.981,27.852,43.468,43.571,0.0,0.0,100.0,0.0,0.0,0.0,0.0,3200.142857142857,3282.1,4091.4444444444443,4211.6,305.249,304.65375,314.899,314.442,22.0264,20.6514,22.0634,21.5623,314.999998,314.999998,324.999988,324.999988,99.55808571428571,99.5071,99.56925714285714,99.54898571428572,0.10625000000000018,-0.02299999999999991,-0.09133333333333338,0.1303333333333332,-0.041666666666671404,-0.041666666666671404,1.5070000000000001,1.4929999999999999,38.665,30.071333333333335,38.896,35.7645,55.519,35.295500000000004,60.103,53.1485,53.479,34.4195,58.6635,51.459,52.635999999999996,33.965,58.5485,50.861333333333334,-0.11849999999999994,-0.038000000000000034,0.10444500000000001,0.10666500000000001,0.0,217.835,217.85000000000002,214.54666666666668,214.54666666666668,190.012512,21.04372
30,0.0,0.0,0.0,1.0,1.0,0.0,0.0,1.0,0.0,100.0,1.0,1.1856,26.0,0.0,0.0,0.0,59.999996,0.0,26.0,26.0,26.0,26.0,0.03433333333333333,0.27080000000000015,0.020425000000000002,291.565,-2.7306,-2.654,-1.6339000000000001,-1.4621,-173.95999999999998,215.36,190.329875,0.0,0.0,0.0,0.0,0.06073333333333334,-5.498166666666667,-5.498166666666667,-0.6044,0.9275,0.000888888888888939,-0.45999999999999996,69.714,0.01429999999999998,-0.216375,-0.46999999999999975,100.0,1.0,1.0,214.96,0.0,0.0,0.0,0.0,0.0,0.0,0.0,9111.4,0.0,55.0,5.0,250.94,0.0,0.0,0.0,0.0,0.0,0.0,1.0,0.0,1.5060000000000002,1.5060000000000002,0.0,0.0,0.0,55.0,616.79921,10000.0,85.000001,85.000001,85.000001,85.000001,395.0,0.0,0.0,0.0,1.0,166.665,51.102000000000004,51.102000000000004,47.302,47.302,34.0,-25.044999999999998,26.125999999999998,-30.544999999999998,29.2475,0.0,1781.865,-0.4499999999999993,100.0,28.737000000000002,28.767,43.226,43.589,0.0,0.0,100.0,0.0,0.0,0.0,0.0,3326.5714285714284,3229.0,4274.777777777777,4241.8,304.7705,304.31275,314.6745,314.522,22.0347,20.6565,22.072499999999998,21.5704,314.999998,314.999998,324.999988,324.999988,99.5581,99.5071,99.56938571428572,99.54911428571428,0.10550000000000015,-0.04133333333333322,-0.10666666666666658,0.13349999999999995,-0.030000000000001137,-0.04333333333332945,1.5385,1.5185,38.717,30.10333333333333,38.953,35.815,55.510999999999996,35.332,60.134,53.201,53.472,34.4535,58.692,51.509,52.628,33.9975,58.574,50.910666666666664,-0.12,-0.04800000000000004,0.11804500000000001,0.1038,0.0,218.215,218.235,214.96,214.96,190.012512,21.04372
31,0.0,0.0,0.0,1.0,1.0,0.0,0.0,1.0,0.0,100.0,1.0,1.1856,26.0,0.0,0.0,0.0,59.999996,0.0,26.0,26.0,26.0,26.0,0.0564444444444443,0.25439999999999996,0.052325,291.321,-2.7084,-2.7005,-1.6402,-1.5384,-170.19,215.35750000000002,190.302625,0.0,0.0,0.0,0.0,0.06293333333333334,-5.498166666666667,-5.498166666666667,-0.5888,-0.4325000000000001,0.011777777777777887,-0.7130000000000001,69.856,0.015200000000000102,-0.22345,-0.4139999999999997,100.0,1.0,1.0,215.26,0.0,0.0,0.0,0.0,0.0,0.0,0.0,9124.1,0.0,55.0,5.0,251.45666666666665,1.0,0.0,0.0,0.0,0.0,0.0,1.0,0.0,1.5599999999999987,1.5599999999999987,0.0,0.0,1.0,55.0,616.79921,10000.0,85.000001,85.000001,85.000001,85.000001,395.0,0.0,0.0,0.0,1.0,111.11,51.559,51.559,46.204,46.204,34.0,-22.6275,26.522,-29.9875,30.575,0.0,1781.812,-0.504999999999999,100.0,28.525,28.923000000000002,44.025999999999996,44.409,0.0,0.0,100.0,0.0,0.0,0.0,0.0,3123.142857142857,3205.6,4240.0,4237.3,305.45,304.4415,314.56525,314.26025,22.0445,20.6626,22.0838,21.5804,314.999998,314.999998,324.999988,324.999988,99.55811428571428,99.50711666666666,99.56955714285715,99.54927142857143,0.11375000000000002,-0.035666666666666735,-0.08933333333333338,0.12516666666666687,-0.03499999999999659,-0.054999999999999716,1.4725000000000001,1.4415,38.778,30.141,39.024,35.8775,55.5,35.3745,60.176,53.2685,53.461,34.4925,58.7315,51.574,52.616,34.035,58.6095,50.974000000000004,-0.13,-0.044499999999999984,0.101675,0.104285,0.0,218.62,218.66,215.26,215.26,190.012512,21.04372
32,0.0,0.0,0.0,1.0,1.0,0.0,0.0,1.0,0.0,100.0,1.0,1.1856,26.0,0.0,0.0,0.0,59.999996,0.0,26.0,26.0,26.0,26.0,0.056666666666666865,0.26660000000000017,-0.067625,291.962,-2.6981,-2.69125,-1.5774,-1.6193,-166.62,215.35750000000002,190.277,0.0,0.0,0.0,0.0,0.065,-5.498166666666667,-5.498166666666667,-0.6087,-0.2430000000000001,-0.009333333333333194,0.10400000000000009,69.985,0.018299999999999983,-0.2325,-0.492,100.0,1.0,1.0,215.80333333333334,0.0,0.0,0.0,0.0,0.0,0.0,0.0,9147.1,0.0,55.0,5.0,251.92333333333335,0.0,0.0,0.0,0.0,0.0,0.0,1.0,0.0,1.6110000000000007,1.6110000000000007,0.0,0.0,0.0,55.0,616.79921,10000.0,85.000001,85.000001,85.000001,85.000001,395.0,0.0,0.0,0.0,1.0,166.665,52.094,52.094,47.318,47.318,34.0,-21.69,25.485999999999997,-26.0275,31.1125,0.0,1781.761,-0.4499999999999993,100.0,28.537,28.587,43.861000000000004,44.18,0.0,0.0,100.0,0.0,0.0,0.0,0.0,2993.714285714286,3103.9,3953.5555555555557,4124.5,305.671,304.938,315.2265,314.63125,22.0536,20.6682,22.0942,21.5896,314.999998,314.999998,324.999988,324.999988,99.55814285714285,99.50711666666666,99.5697,99.54941428571429,0.11249999999999982,-0.03066666666666662,-0.08083333333333331,0.14250000000000007,-0.041666666666671404,-0.051666666666669414,1.55,1.5205,38.835,30.176666666666666,39.088,35.935,55.489000000000004,35.414,60.21,53.328,53.45,34.528999999999996,58.763,51.6315,52.604,34.07,58.638,51.03,-0.11599999999999999,-0.04499999999999993,0.10727500000000001,0.10911000000000001,0.0,219.01999999999998,219.055,215.80333333333334,215.80333333333334,190.012512,21.04372
33,0.0,0.0,0.0,1.0,1.0,0.0,0.0,1.0,0.0,100.0,1.0,1.1856,26.0,0.0,0.0,0.0,59.999996,0.0,26.0,26.0,26.0,26.0,0.062000000000000055,0.26270000000000016,-0.03875,292.053,-2.7159,-2.65475,-1.5892,-1.5825,-163.47,215.36,190.253375,0.0,0.0,0.0,0.0,0.06683333333333334,-5.498166666666667,-5.498166666666667,-0.6159,-0.264,-0.008888888888888946,-0.05699999999999994,70.101,0.01880000000000015,-0.21505000000000002,-0.3860000000000001,100.0,1.0,1.0,216.14,0.0,0.0,0.0,0.0,0.0,0.0,0.0,9161.4,0.0,55.0,5.0,252.33666666666664,1.0,0.0,0.0,0.0,0.0,0.0,1.0,0.0,1.6559999999999988,1.6559999999999988,0.0,0.0,1.0,55.0,616.79921,10000.0,85.000001,85.000001,85.000001,85.000001,395.0,0.0,0.0,0.0,1.0,166.665,52.292,52.292,47.44,47.44,34.0,-23.2375,24.259999999999998,-27.77,30.305,0.0,1781.714,-0.48999999999999844,100.0,28.237000000000002,28.463,43.635,43.992000000000004,0.0,0.0,100.0,0.0,0.0,0.0,0.0,3144.714285714286,3020.3,4069.777777777778,4158.7,305.4495,305.2195,315.006,314.593,22.0617,20.6731,22.1033,21.5977,314.999998,314.999998,324.999988,324.999988,99.55814285714285,99.50713333333333,99.56982857142857,99.54955714285714,0.10424999999999995,-0.03266666666666662,-0.09333333333333338,0.13149999999999995,-0.05833333333333002,-0.05333333333332746,1.5295,1.5205,38.885,30.207,39.146,35.9855,55.479,35.4465,60.2415,53.3795,53.44,34.559,58.792,51.681,52.593,34.0985,58.664,51.07833333333333,-0.118,-0.04150000000000009,0.10315500000000001,0.10912500000000001,0.0,219.41,219.435,216.14,216.14,190.012512,21.04372
34,0.0,0.0,0.0,1.0,1.0,0.0,0.0,1.0,0.0,100.0,1.0,1.1856,26.0,0.0,0.0,0.0,59.999996,0.0,26.0,26.0,26.0,26.0,0.06400000000000006,0.2622,-0.059725,292.191,-2.6715,-2.682625,-1.6237,-1.5184,-159.68,215.3625,190.2235,0.0,0.0,0.0,0.0,0.06903333333333334,-5.498166666666667,-5.498166666666667,-0.6493,-1.0434999999999999,0.013333333333333197,-0.3210000000000002,70.24000000000001,0.019100000000000117,-0.225825,-0.4720000000000004,100.0,1.0,1.0,216.52666666666667,0.0,0.0,0.0,0.0,0.0,0.0,0.0,9177.8,0.0,55.0,5.0,252.83666666666664,0.0,0.0,0.0,0.0,0.0,0.0,1.0,0.0,1.7100000000000009,1.7100000000000009,0.0,0.0,0.0,55.0,616.79921,10000.0,85.000001,85.000001,85.000001,85.000001,395.0,0.0,0.0,0.0,1.0,166.665,52.643,52.643,47.47,47.47,34.0,-22.0775,25.092,-28.535,29.6025,0.0,1781.662,-0.5199999999999996,100.0,27.97,28.243000000000002,43.535,44.097,0.0,0.0,100.0,0.0,0.0,0.0,0.0,3067.285714285714,3035.0,4091.8888888888887,4187.3,305.718,305.19775,314.998,314.5095,22.0712,20.6789,22.1143,21.6075,314.999998,314.999998,324.999988,324.999988,99.55817142857143,99.50713333333333,99.56998571428572,99.54971428571429,0.10524999999999984,-0.02066666666666661,-0.09583333333333333,0.12883333333333336,-0.046666666666666856,-0.054999999999999716,1.523,1.51,38.945,30.243000000000002,39.214,36.047,55.465,35.485,60.2775,53.444,53.427,34.5945,58.826,51.743,52.579,34.1325,58.6945,51.138999999999996,-0.11699999999999999,-0.03550000000000009,0.108295,0.09870000000000001,0.0,219.81,219.82999999999998,216.52666666666664,216.52666666666667,190.012512,21.04372
35,0.0,0.0,0.0,1.0,1.0,0.0,0.0,1.0,0.0,100.0,1.0,1.1856,26.0,0.0,0.0,0.0,59.999996,0.0,26.0,26.0,26.0,26.0,0.04644444444444429,0.26900000000000013,-0.06532500000000001,292.099,-2.7939,-2.6675,-1.6086,-1.5171999999999999,-156.1,215.3675,190.19325,0.0,0.0,0.0,0.0,0.0711,-5.498166666666667,-5.498166666666667,-0.6792,0.131,-0.011555555555555763,-0.18700000000000028,70.368,0.024399999999999977,-0.225575,-0.49799999999999933,100.0,1.0,1.0,217.01,0.0,0.0,0.0,0.0,0.0,0.0,0.0,9198.2,0.0,55.0,5.0,253.3,1.0,0.0,0.0,0.0,0.0,0.0,1.0,0.0,1.7609999999999992,1.7609999999999992,0.0,0.0,1.0,55.0,616.79921,10000.0,85.000001,85.000001,85.000001,85.000001,395.0,0.0,0.0,0.0,1.0,166.665,51.956,51.956,47.272,47.272,34.0,-23.6025,27.438,-26.71,29.2625,0.0,1781.61,-0.28500000000000014,100.0,28.09,28.486,43.29,43.469,0.0,0.0,100.0,0.0,0.0,0.0,0.0,3066.857142857143,3342.9,4024.222222222222,4071.5,305.513,304.2595,315.06875,314.83825,22.0802,20.6847,22.1246,21.6166,314.999998,314.999998,324.999988,324.999988,99.55817142857143,99.50713333333333,99.57012857142857,99.54985714285715,0.10150000000000015,-0.03133333333333321,-0.07533333333333336,0.14600000000000013,-0.054999999999999716,-0.06333333333333258,1.5565,1.5415,39.001000000000005,30.279333333333334,39.278999999999996,36.1035,55.452,35.525,60.311,53.4995,53.415,34.632,58.857,51.797,52.566,34.1685,58.7225,51.19133333333333,-0.10050000000000003,-0.05600000000000005,0.10963500000000001,0.09775500000000001,0.0,220.23000000000002,220.255,217.01,217.01,190.012512,21.04372
