,ABS Active,ABS Enabled,AID Allow Tire Blankets,AID Auto Blip,AID Auto Clutch,AID Auto Shift,AID Fuel Rate,AID Ideal Line,AID Mech Damage,AID Stability,AID Tire Wear Rate,Air Density,Air Temp,Ballast,Best Lap Delta,Best Lap Time,Brake Bias,Brake Pos,Brake Temp FL,Brake Temp FR,Brake Temp RL,Brake Temp RR,CG Accel Lateral,CG Accel Longitudinal,CG Accel Vertical,CG Height,Camber FL,Camber FR,Camber RL,Camber RR,Car Coord X,Car Coord Y,Car Coord Z,Car Damage Front,Car Damage Left,Car Damage Rear,Car Damage Right,Car Pos Norm,Caster FL,Caster FR,Chassis Pitch Angle,Chassis Pitch Rate,Chassis Roll Angle,Chassis Roll Rate,Chassis Velocity X,Chassis Velocity Y,Chassis Velocity Z,Chassis Yaw Rate,Clutch Pos,DRS Active,DRS Available,Drive Train Speed,ERS Heat Charging,ERS Is Charging,ERS Max Energy,ERS Power Level,ERS Recovery Level,Engine Brake Setting,Engine Limiter,Engine RPM,Flags,Fuel Level,Gear,Ground Speed,HR Sample Clock,In Pit,KERS Charge,KERS Deployed Energy,KERS Input,KERS Max Energy,LR Sample Clock,Lap Invalidated,Lap Time,Lap Time2,Last Lap Time,Last Sector Time,MR Sample Clock,Max Fuel,Max Power,Max RPM,Max Sus Travel FL,Max Sus Travel FR,Max Sus Travel RL,Max Sus Travel RR,Max Torque,Max Turbo Boost,Num Tires Off Track,Penalties Enabled,Position,Raw Data Sample Rate,Ride Height FL,Ride Height FR,Ride Height RL,Ride Height RR,Road Temp,Self Align Torque FL,Self Align Torque FR,Self Align Torque RL,Self Align Torque RR,Session Lap Count,Session Time Left,Steering Angle,Surface Grip,Suspension Travel FL,Suspension Travel FR,Suspension Travel RL,Suspension Travel RR,TC Active,TC Enabled,Throttle Pos,Tire Dirt Level FL,Tire Dirt Level FR,Tire Dirt Level RL,Tire Dirt Level RR,Tire Load FL,Tire Load FR,Tire Load RL,Tire Load RR,Tire Loaded Radius FL,Tire Loaded Radius FR,Tire Loaded Radius RL,Tire Loaded Radius RR,Tire Pressure FL,Tire Pressure FR,Tire Pressure RL,Tire Pressure RR,Tire Radius FL,Tire Radius FR,Tire Radius RL,Tire Radius RR,Tire Rubber Grip FL,Tire Rubber Grip FR,Tire Rubber Grip RL,Tire Rubber Grip RR,Tire Slip Angle FL,Tire Slip Angle FR,Tire Slip Angle RL,Tire Slip Angle RR,Tire Slip Ratio FL,Tire Slip Ratio FR,Tire Slip Ratio RL,Tire Slip Ratio RR,Tire Temp Core FL,Tire Temp Core FR,Tire Temp Core RL,Tire Temp Core RR,Tire Temp Inner FL,Tire Temp Inner FR,Tire Temp Inner RL,Tire Temp Inner RR,Tire Temp Middle FL,Tire Temp Middle FR,Tire Temp Middle RL,Tire Temp Middle RR,Tire Temp Outer FL,Tire Temp Outer FR,Tire Temp Outer RL,Tire Temp Outer RR,Toe In FL,Toe In FR,Toe In RL,Toe In RR,Turbo Boost,Wheel Angular Speed FL,Wheel Angular Speed FR,Wheel Angular Speed RL,Wheel Angular Speed RR,Wind Direction,Wind Speed
0,0.0,0.0,0.0,1.0,1.0,0.0,0.0,1.0,0.0,100.0,1.0,1.1856,26.0,0.0,0.0,0.0,59.99999,0.0,26.0,26.0,26.0,26.0,-0.114375,0.30930000000000013,0.13820000000000002,294.342,-2.69275,-2.698,-1.4848,-1.5821,-275.41,216.29250000000002,190.986375,0.0,0.0,0.0,0.0,0.0017666666666665831,-5.498166666666667,-5.498166666666667,-0.5483,1.135,-0.04200000000000026,-1.004,65.56,-0.07729999999999992,-0.21485,1.1839999999999993,100.0,1.0,1.0,202.44333333333333,0.0,0.0,0.0,0.0,0.0,0.0,0.0,8580.9,0.0,55.0,5.0,235.98666666666668,0.0,0.0,0.0,0.0,0.0,0.0,0.0,0.0,0.009000000000000341,0.009000000000000341,0.0,0.0,0.0,55.0,616.79921,10000.0,85.0,85.0,85.0,85.0,395.0,0.0,0.0,0.0,1.0,20.0,52.933,52.933,49.82,49.82,34.0,-29.599999999999998,22.29,-31.5925,22.0175,0.0,1782.719,0.9299999999999997,100.0,27.076,26.502,40.612,39.896,0.0,0.0,100.0,0.0,0.0,0.0,0.0,3195.875,3376.5,4102.777777777777,3845.4,305.18766666666664,304.089,314.86075,315.22875,21.7885,20.5053,21.774,21.3003,314.99999,314.99999,324.99998,324.99998,99.55967142857143,99.50698333333334,99.56558571428572,99.54471428571429,-0.03949999999999987,-0.15266666666666673,-0.19799999999999995,0.022199999999999998,-0.08833333333333115,-0.061666666666667425,1.565,1.5950000000000002,37.178,29.15833333333333,37.087,34.126999999999995,56.562,34.292500000000004,59.192,51.396,54.45,33.471000000000004,57.8185,49.772,53.602999999999994,33.033500000000004,57.7875,49.208333333333336,-0.006000000000000005,-0.14149999999999996,0.10504000000000001,0.10718000000000001,0.0,205.48000000000002,205.37,202.44333333333333,202.44333333333333,190.01251,21.04372
1,0.0,0.0,0.0,1.0,1.0,0.0,0.0,1.0,0.0,100.0,1.0,1.1856,26.0,0.0,0.0,0.0,59.999996,0.0,26.0,26.0,26.0,26.0,-0.13949999999999996,0.30889999999999995,0.009975000000000001,293.51800000000003,-2.61445,-2.798,-1.5025,-1.5682,-272.06,216.29000000000002,190.966375,0.0,0.0,0.0,0.0,0.0036999999999999256,-5.498166666666667,-5.498166666666667,-0.49470000000000003,-0.47100000000000003,-0.08000000000000007,-0.6699999999999999,65.717,-0.08939999999999992,-0.1956,1.5259999999999998,100.0,1.0,1.0,202.6,0.0,0.0,0.0,0.0,0.0,0.0,0.0,8587.5,0.0,55.0,5.0,236.54666666666668,1.0,0.0,0.0,0.0,0.0,0.0,0.0,0.0,0.05999999999999872,0.05999999999999872,0.0,0.0,1.0,55.0,616.79921,10000.0,85.000001,85.000001,85.000001,85.000001,395.0,0.0,0.0,0.0,1.0,166.665,54.199,54.199,48.721000000000004,48.721000000000004,34.0,-27.4,16.71,-34.9625,27.585,0.0,1782.668,0.9250000000000007,100.0,27.419,26.362000000000002,42.775,41.159,0.0,0.0,100.0,0.0,0.0,0.0,0.0,3018.375,2609.7,4245.777777777777,4700.9,305.56,306.50825,314.46,313.13075,21.7986,20.5102,21.7848,21.3093,314.999998,314.999998,324.999988,324.999988,99.55968571428572,99.507,99.56572857142856,99.54487142857143,-0.04299999999999993,-0.16799999999999993,-0.21639999999999993,0.010000000000000009,-0.02833333333332888,-0.03499999999999659,1.4124999999999999,1.479,37.241,29.189,37.155,34.1835,56.547,34.334,59.2365,51.4615,54.436,33.5095,57.8605,49.835,53.588,33.07,57.826499999999996,49.269999999999996,0.0044999999999999485,-0.14850000000000008,0.10414500000000002,0.10826500000000001,0.0,205.905,205.76999999999998,202.6,202.6,190.012512,21.04372
2,0.0,0.0,0.0,1.0,1.0,0.0,0.0,1.0,0.0,100.0,1.0,1.1856,26.0,0.0,0.0,0.0,59.999996,0.0,26.0,26.0,26.0,26.0,-0.150625,0.2855000000000001,-0.0176,294.128,-2.58405,-2.8261000000000003,-1.4647000000000001,-1.6251,-268.7,216.285,190.947375,0.0,0.0,0.0,0.0,0.005633333333333379,-5.498166666666667,-5.498166666666667,-0.5436,0.005,-0.07200000000000006,1.875,65.861,-0.10459999999999992,-0.243875,1.7279999999999998,100.0,1.0,1.0,203.5,0.0,0.0,0.0,0.0,0.0,0.0,0.0,8625.6,0.0,55.0,5.0,237.07,0.0,0.0,0.0,0.0,0.0,0.0,0.0,0.0,0.11100000000000065,0.11100000000000065,0.0,0.0,0.0,55.0,616.79921,10000.0,85.000001,85.000001,85.000001,85.000001,395.0,0.0,0.0,0.0,1.0,166.665,53.009,53.009,50.476,50.476,34.0,-31.3675,18.325999999999997,-30.4225,18.7025,0.0,1782.616,0.7650000000000006,100.0,27.999,26.404,42.515,40.788,0.0,0.0,100.0,0.0,0.0,0.0,0.0,3381.75,2841.4,3752.5555555555557,3690.3,304.5443333333333,305.76675,315.64875,315.7395,21.808799999999998,20.515,21.7953,21.318,314.999998,314.999998,324.999988,324.999988,99.55968571428572,99.50701666666667,99.56587142857143,99.545,-0.053749999999999964,-0.17766666666666664,-0.256,-0.029000000000000026,-0.061666666666667425,-0.046666666666666856,1.6375,1.697,37.305,29.218666666666664,37.22,34.2375,56.535,34.3725,59.2745,51.518,54.425,33.545,57.896,49.888999999999996,53.576,33.1045,57.8595,49.323,-0.01749999999999996,-0.13200000000000012,0.11127500000000001,0.10432500000000001,0.0,206.37,206.23000000000002,203.5,203.5,190.012512,21.04372
3,0.0,0.0,0.0,1.0,1.0,0.0,0.0,1.0,0.0,100.0,1.0,1.1856,26.0,0.0,0.0,0.0,59.999996,0.0,26.0,26.0,26.0,26.0,-0.15225,0.30090000000000017,0.08365,293.869,-2.71145,-2.7213000000000003,-1.4917,-1.6052,-265.34,216.2725,190.927625,0.0,0.0,0.0,0.0,0.00759999999999994,-5.498166666666667,-5.498166666666667,-0.5099,0.025500000000000002,-0.029625000000000234,0.06200000000000028,66.015,-0.11419999999999997,-0.20125,1.266,100.0,1.0,1.0,203.66666666666669,0.0,0.0,0.0,0.0,0.0,0.0,0.0,8632.7,0.0,55.0,5.0,237.62333333333333,1.0,0.0,0.0,0.0,0.0,0.0,0.0,0.0,0.16199999999999903,0.16199999999999903,0.0,0.0,1.0,55.0,616.79921,10000.0,85.000001,85.000001,85.000001,85.000001,395.0,0.0,0.0,0.0,1.0,166.665,54.077,54.077,48.507999999999996,48.507999999999996,34.0,-26.412499999999998,17.958,-35.45,23.365,0.0,1782.566,0.629999999999999,100.0,27.635,26.387,42.452,40.915,0.0,0.0,100.0,0.0,0.0,0.0,0.0,2845.5,2845.4,4236.111111111111,4243.1,306.12233333333336,305.80275,314.45475,314.332,21.8187,20.52,21.8057,21.3268,314.999998,314.999998,324.999988,324.999988,99.55968571428572,99.50703333333334,99.56602857142857,99.54512857142858,-0.0462499999999999,-0.16433333333333322,-0.23460000000000003,-0.012799999999999923,-0.045000000000001705,-0.04833333333333201,1.4649999999999999,1.536,37.367000000000004,29.250333333333334,37.286,34.293,56.519999999999996,34.416,59.314499999999995,51.581,54.41,33.585,57.933,49.949,53.56,33.1425,57.8935,49.382,-0.03200000000000003,-0.11549999999999994,0.100845,0.10501,0.0,206.85000000000002,206.76,203.66666666666669,203.66666666666669,190.012512,21.04372
4,0.0,0.0,0.0,1.0,1.0,0.0,0.0,1.0,0.0,100.0,1.0,1.1856,26.0,0.0,0.0,0.0,59.999996,0.0,26.0,26.0,26.0,26.0,-0.14974999999999994,0.28869999999999996,-0.010700000000000001,294.174,-2.6416,-2.7744,-1.5011,-1.6103,-261.97,216.26,190.908,0.0,0.0,0.0,0.0,0.009566666666666612,-5.498166666666667,-5.498166666666667,-0.5461,-0.515,-0.10099999999999998,-1.4939999999999998,66.162,-0.10980000000000001,-0.2381,1.2479999999999993,100.0,1.0,1.0,204.31,0.0,0.0,0.0,0.0,0.0,0.0,0.0,8659.9,0.0,55.0,5.0,238.15666666666667,0.0,0.0,0.0,0.0,0.0,0.0,0.0,0.0,0.21300000000000097,0.21300000000000097,0.0,0.0,0.0,55.0,616.79921,10000.0,85.000001,85.000001,85.000001,85.000001,395.0,0.0,0.0,0.0,1.0,166.665,53.482,53.482,49.5,49.5,34.0,-31.305,17.99,-32.915,18.87,0.0,1782.515,0.5850000000000009,100.0,27.424,26.396,42.548,40.843,0.0,0.0,100.0,0.0,0.0,0.0,0.0,3335.25,2805.4,4029.222222222222,3608.0,304.847,305.74875,315.008,315.8465,21.8286,20.525,21.8164,21.3356,314.999998,314.999998,324.999988,324.999988,99.5597,99.50705,99.56617142857142,99.54527142857143,-0.056749999999999856,-0.17166666666666663,-0.23439999999999994,-0.01639999999999997,-0.046666666666666856,-0.045000000000001705,1.5715,1.637,37.429,29.281333333333336,37.352000000000004,34.3475,56.503,34.457499999999996,59.3555,51.6385,54.394,33.6235,57.972,50.0045,53.544,33.1795,57.9295,49.436,-0.020499999999999963,-0.121,0.10905000000000001,0.10289500000000001,0.0,207.255,207.17000000000002,204.31,204.31,190.012512,21.04372
5,0.0,0.0,0.0,1.0,1.0,0.0,0.0,1.0,0.0,100.0,1.0,1.1856,26.0,0.0,0.0,0.0,59.999996,0.0,26.0,26.0,26.0,26.0,-0.14087499999999997,0.30520000000000014,0.0069500000000000004,294.052,-2.6585,-2.7916,-1.4924,-1.5953,-258.59,216.24,190.8875,0.0,0.0,0.0,0.0,0.011533333333333395,-5.498166666666667,-5.498166666666667,-0.5332,0.314,-0.09399999999999986,1.295,66.312,-0.10980000000000001,-0.21105000000000002,1.0299999999999994,100.0,1.0,1.0,204.64333333333332,0.0,0.0,0.0,0.0,0.0,0.0,0.0,8674.1,0.0,55.0,5.0,238.69333333333333,1.0,0.0,0.0,0.0,0.0,0.0,0.0,0.0,0.26399999999999935,0.26399999999999935,0.0,0.0,1.0,55.0,616.79921,10000.0,85.000001,85.000001,85.000001,85.000001,395.0,0.0,0.0,0.0,1.0,166.665,53.955,53.955,49.286,49.286,34.0,-27.675,19.238,-33.9975,22.33,0.0,1782.465,0.1750000000000007,100.0,27.6,26.046,42.438,40.59,0.0,0.0,100.0,0.0,0.0,0.0,0.0,3096.875,2822.3,4163.555555555556,4091.0,305.34066666666666,305.9225,314.67925,314.7405,21.8386,20.53,21.8269,21.3443,314.999998,314.999998,324.999988,324.999988,99.55971428571429,99.50706666666666,99.56631428571428,99.54541428571429,-0.01949999999999985,-0.14066666666666672,-0.22760000000000002,-0.008000000000000007,-0.051666666666669414,-0.05833333333333002,1.532,1.5739999999999998,37.491,29.312333333333335,37.418,34.402,56.489000000000004,34.4985,59.3955,51.6965,54.381,33.661,58.009,50.06,53.528999999999996,33.215,57.9645,49.49033333333333,-0.058499999999999996,-0.08699999999999997,0.10463000000000001,0.10559,0.0,207.76,207.67000000000002,204.64333333333332,204.64333333333332,190.012512,21.04372
6,0.0,0.0,0.0,1.0,1.0,0.0,0.0,1.0,0.0,100.0,1.0,1.1856,26.0,0.0,0.0,0.0,59.999996,0.0,26.0,26.0,26.0,26.0,-0.11224999999999996,0.2922,-0.006175,293.961,-2.632,-2.8122,-1.5383,-1.5855000000000001,-255.6,216.2225,190.869375,0.0,0.0,0.0,0.0,0.013266666666666538,-5.498166666666667,-5.498166666666667,-0.531,0.0775,-0.0757500000000002,-0.41999999999999993,66.443,-0.10339999999999994,-0.21452500000000002,0.7839999999999998,100.0,1.0,1.0,205.07666666666665,0.0,0.0,0.0,0.0,0.0,0.0,0.0,8692.4,0.0,55.0,5.0,239.16333333333333,0.0,0.0,0.0,0.0,0.0,0.0,0.0,0.0,0.30900000000000105,0.30900000000000105,0.0,0.0,0.0,55.0,616.79921,10000.0,85.000001,85.000001,85.000001,85.000001,395.0,0.0,0.0,0.0,1.0,111.11,53.68,53.68,49.24,49.24,34.0,-28.18,19.618,-33.4475,21.625,0.0,1782.419,0.004999999999999005,100.0,27.371,26.407,42.382,41.024,0.0,0.0,100.0,0.0,0.0,0.0,0.0,3186.875,2808.8,4110.444444444444,3956.8,305.21133333333336,305.686,314.86975,314.99175,21.8474,20.5344,21.836199999999998,21.3521,314.999998,314.999998,324.999988,324.999988,99.55971428571429,99.50708333333333,99.56644285714286,99.54554285714286,-0.01949999999999985,-0.1399999999999999,-0.21820000000000006,-0.0031999999999999806,-0.045000000000001705,-0.036666666666668846,1.5465,1.5779999999999998,37.546,29.340333333333334,37.476,34.451,56.474999999999994,34.534,59.431,51.7505,54.367000000000004,33.6935,58.042,50.112,53.516,33.2465,57.9945,49.54066666666667,-0.07150000000000001,-0.07000000000000006,0.10416,0.10712,0.0,208.15,208.065,205.07666666666665,205.07666666666665,190.012512,21.04372
7,0.0,0.0,0.0,1.0,1.0,0.0,0.0,1.0,0.0,100.0,1.0,1.1856,26.0,0.0,0.0,0.0,59.999996,0.0,26.0,26.0,26.0,26.0,-0.08087500000000003,0.29290000000000016,0.042550000000000004,293.762,-2.60365,-2.7725,-1.4999,-1.6272,-252.21,216.1975,190.849,0.0,0.0,0.0,0.0,0.015233333333333321,-5.498166666666667,-5.498166666666667,-0.5346000000000001,0.0635,-0.05975000000000019,1.1150000000000002,66.59,-0.08539999999999992,-0.22375,0.3200000000000003,100.0,1.0,1.0,205.51333333333332,0.0,0.0,0.0,0.0,0.0,0.0,0.0,8711.0,0.0,55.0,5.0,239.69666666666666,1.0,0.0,0.0,0.0,0.0,0.0,0.0,0.0,0.35999999999999943,0.35999999999999943,0.0,0.0,1.0,55.0,616.79921,10000.0,85.000001,85.000001,85.000001,85.000001,395.0,0.0,0.0,0.0,1.0,166.665,53.345,53.345,49.362,49.362,34.0,-26.34,21.864,-30.982499999999998,24.585,0.0,1782.369,-0.26500000000000057,100.0,27.665,26.36,42.466,41.182,0.0,0.0,100.0,0.0,0.0,0.0,0.0,3136.375,2964.8,3994.1111111111113,4035.1000000000004,305.12733333333335,305.35625,315.045,314.81625,21.8573,20.5395,21.8467,21.361,314.999998,314.999998,324.999988,324.999988,99.55971428571429,99.5071,99.56658571428571,99.54568571428571,0.013749999999999929,-0.10333333333333328,-0.19520000000000004,0.031200000000000117,-0.041666666666671404,-0.051666666666669414,1.5275,1.544,37.608000000000004,29.372,37.542,34.5065,56.459,34.573499999999996,59.47,51.8115,54.352000000000004,33.730000000000004,58.079,50.170500000000004,53.498999999999995,33.281,58.0285,49.598,-0.08599999999999997,-0.04800000000000004,0.111225,0.11149,0.0,208.565,208.535,205.51333333333332,205.51333333333332,190.012512,21.04372
8,0.0,0.0,0.0,1.0,1.0,0.0,0.0,1.0,0.0,100.0,1.0,1.1856,26.0,0.0,0.0,0.0,59.999996,0.0,26.0,26.0,26.0,26.0,-0.03700000000000003,0.29390000000000005,-0.021875000000000002,293.991,-2.6908,-2.7376,-1.4846,-1.5791,-248.81,216.1725,190.828375,0.0,0.0,0.0,0.0,0.017199999999999993,-5.498166666666667,-5.498166666666667,-0.5378000000000001,-0.555,-0.04512500000000008,-0.4710000000000001,66.739,-0.06309999999999993,-0.217625,-0.043999999999999595,100.0,1.0,1.0,205.90333333333334,0.0,0.0,0.0,0.0,0.0,0.0,0.0,8727.5,0.0,55.0,5.0,240.23000000000002,0.0,0.0,0.0,0.0,0.0,0.0,0.0,0.0,0.41100000000000136,0.41100000000000136,0.0,0.0,0.0,55.0,616.79921,10000.0,85.000001,85.000001,85.000001,85.000001,395.0,0.0,0.0,0.0,1.0,166.665,54.123,54.123,48.766999999999996,48.766999999999996,34.0,-24.915,21.294,-30.5625,25.25,0.0,1782.318,-0.36499999999999844,100.0,27.021,26.444,42.353,41.411,0.0,0.0,100.0,0.0,0.0,0.0,0.0,3021.125,2868.0,4121.222222222223,4028.0,305.8043333333333,305.59075,314.77825,314.74725,21.867,20.5446,21.8573,21.3699,314.999998,314.999998,324.999988,324.999988,99.55971428571429,99.5071,99.56672857142857,99.54582857142857,0.02925000000000022,-0.09133333333333327,-0.16779999999999995,0.05459999999999998,-0.04999999999999716,-0.04333333333332945,1.526,1.525,37.669,29.403666666666666,37.608000000000004,34.562,56.44,34.6115,59.5095,51.872,54.335,33.765,58.1155,50.228,53.480999999999995,33.315,58.0625,49.654666666666664,-0.10299999999999998,-0.04299999999999993,0.10562,0.10506000000000001,0.0,209.005,209.01,205.90333333333334,205.90333333333334,190.012512,21.04372
9,0.0,0.0,0.0,1.0,1.0,0.0,0.0,1.0,0.0,100.0,1.0,1.1856,26.0,0.0,0.0,0.0,59.999996,0.0,26.0,26.0,26.0,26.0,-0.019000000000000017,0.2986,-0.01695,293.61,-2.62285,-2.7332,-1.5432000000000001,-1.5558,-245.61,216.1475,190.808375,0.0,0.0,0.0,0.0,0.019066666666666565,-5.498166666666667,-5.498166666666667,-0.5401,0.713,-0.042625000000000135,-0.35799999999999965,66.874,-0.04049999999999998,-0.21527500000000002,-0.1459999999999999,100.0,1.0,1.0,206.42000000000002,0.0,0.0,0.0,0.0,0.0,0.0,0.0,8749.4,0.0,55.0,5.0,240.71666666666667,1.0,0.0,0.0,0.0,0.0,0.0,0.0,0.0,0.45899999999999963,0.45899999999999963,0.0,0.0,1.0,55.0,616.79921,10000.0,85.000001,85.000001,85.000001,85.000001,395.0,0.0,0.0,0.0,1.0,166.665,52.902,52.902,49.637,49.637,34.0,-26.455,22.968,-28.93,25.4775,0.0,1782.269,-0.48999999999999844,100.0,27.574,26.917,42.015,41.433,0.0,0.0,100.0,0.0,0.0,0.0,0.0,3320.125,2941.2,4019.3333333333335,4032.1000000000004,304.77366666666666,305.292,315.148,314.84275,21.8763,20.549599999999998,21.867,21.3783,314.999998,314.999998,324.999988,324.999988,99.55972857142856,99.50711666666666,99.56685714285715,99.54595714285715,0.04899999999999993,-0.06600000000000006,-0.14600000000000002,0.07040000000000002,-0.04333333333332945,-0.05833333333333002,1.583,1.5750000000000002,37.727000000000004,29.434666666666665,37.669,34.614,56.427,34.649,59.543,51.928,54.322,33.7995,58.147,50.2815,53.468,33.3475,58.091,49.707,-0.10699999999999998,-0.03550000000000009,0.101885,0.10372500000000001,0.0,209.435,209.465,206.42000000000002,206.42000000000002,190.012512,21.04372
10,0.0,0.0,0.0,1.0,1.0,0.0,0.0,1.0,0.0,100.0,1.0,1.1856,26.0,0.0,0.0,0.0,59.999996,0.0,26.0,26.0,26.0,26.0,0.0182500000000001,0.29710000000000014,0.054025000000000004,293.51800000000003,-2.697,-2.7157,-1.5255,-1.5349,-242.19,216.1175,190.787625,0.0,0.0,0.0,0.0,0.021066666666666567,-5.498166666666667,-5.498166666666667,-0.5209,-0.6960000000000001,0.0026249999999998774,1.6870000000000003,67.023,-0.019100000000000006,-0.20845,-0.5579999999999998,100.0,1.0,1.0,206.68333333333334,0.0,0.0,0.0,0.0,0.0,0.0,0.0,8760.5,0.0,55.0,5.0,241.25333333333333,0.0,0.0,0.0,0.0,0.0,0.0,1.0,0.0,0.509999999999998,0.509999999999998,0.0,0.0,0.0,55.0,616.79921,10000.0,85.000001,85.000001,85.000001,85.000001,395.0,0.0,0.0,0.0,1.0,111.11,53.986,53.986,48.157,48.157,34.0,-21.1175,23.592,-29.3025,29.535,0.0,1782.219,-0.6000000000000014,100.0,27.434,26.712,42.594,42.134,0.0,0.0,100.0,0.0,0.0,0.0,0.0,2807.0,2935.5,4189.444444444444,4278.6,306.27566666666667,305.55825,314.54775,314.24275,21.886,20.5547,21.8777,21.3874,314.999998,314.999998,324.999988,324.999988,99.55974285714285,99.50713333333333,99.56701428571428,99.54608571428571,0.08274999999999988,-0.03733333333333322,-0.11739999999999995,0.10860000000000003,-0.03833333333332689,-0.060000000000002274,1.5065,1.476,37.788,29.467,37.736000000000004,34.671,56.411,34.6855,59.5835,51.9915,54.307,33.833,58.1845,50.343,53.453,33.379999999999995,58.1255,49.76733333333333,-0.125,-0.021500000000000075,0.10348500000000001,0.10722500000000001,0.0,209.88,209.91500000000002,206.68333333333334,206.68333333333334,190.012512,21.04372
11,0.0,0.0,0.0,1.0,1.0,0.0,0.0,1.0,0.0,100.0,1.0,1.1856,26.0,0.0,0.0,0.0,59.999996,0.0,26.0,26.0,26.0,26.0,0.03112500000000007,0.28080000000000016,-0.0673,293.976,-2.70415,-2.6785,-1.5764,-1.525,-238.57,216.09,190.765625,0.0,0.0,0.0,0.0,0.022599999999999953,-5.498166666666667,-5.498166666666667,-0.5617,0.098,0.024124999999999952,0.16699999999999982,67.172,0.0013000000000000789,-0.2328,-0.6799999999999997,100.0,1.0,1.0,207.45333333333332,0.0,0.0,0.0,0.0,0.0,0.0,0.0,8793.1,0.0,55.0,5.0,241.79000000000002,1.0,0.0,0.0,0.0,0.0,0.0,1.0,0.0,0.5640000000000001,0.5640000000000001,0.0,0.0,1.0,55.0,616.79921,10000.0,85.000001,85.000001,85.000001,85.000001,395.0,0.0,0.0,0.0,1.0,166.665,53.314,53.314,49.683,49.683,34.0,-22.0,25.794,-24.4025,26.6425,0.0,1782.165,-0.6600000000000001,100.0,27.262,27.046,41.902,41.997,0.0,0.0,100.0,0.0,0.0,0.0,0.0,2971.375,3140.3,3750.5555555555557,3869.1000000000004,305.718,304.877,315.784,315.28075,21.8962,20.5604,21.8886,21.3968,314.999998,314.999998,324.999988,324.999988,99.55974285714285,99.50713333333333,99.56715714285714,99.54624285714286,0.09975000000000023,-0.024333333333333318,-0.09399999999999997,0.1352,-0.04333333333332945,-0.051666666666669414,1.6545,1.6280000000000001,37.851,29.502333333333333,37.804,34.730000000000004,56.394999999999996,34.7255,59.6185,52.0545,54.291,33.8705,58.217,50.4035,53.436,33.4155,58.155,49.82633333333334,-0.123,-0.023500000000000076,0.103965,0.108615,0.0,210.345,210.38,207.45333333333332,207.45333333333332,190.012512,21.04372
12,0.0,0.0,0.0,1.0,1.0,0.0,0.0,1.0,0.0,100.0,1.0,1.1856,26.0,0.0,0.0,0.0,59.999996,0.0,26.0,26.0,26.0,26.0,0.060249999999999915,0.30390000000000006,0.0408,293.35,-2.755,-2.6950000000000003,-1.5419,-1.528,-235.54,216.0675,190.746,0.0,0.0,0.0,0.0,0.025466666666666526,-5.498166666666667,-5.498166666666667,-0.5452,0.289,0.00649999999999995,-0.8440000000000003,67.30199999999999,0.01540000000000008,-0.206675,-0.6260000000000003,100.0,1.0,1.0,207.60333333333335,0.0,0.0,0.0,0.0,0.0,0.0,0.0,8799.6,0.0,55.0,5.0,242.26,0.0,0.0,0.0,0.0,0.0,0.0,1.0,0.0,0.6089999999999982,0.6089999999999982,0.0,0.0,0.0,55.0,616.79921,10000.0,85.000001,85.000001,85.000001,85.000001,395.0,0.0,0.0,0.0,1.0,111.11,53.192,53.192,48.34,48.34,34.0,-23.4375,25.64,-27.785,29.7325,0.0,1782.12,-0.6849999999999987,100.0,27.064,27.349,41.948,42.116,0.0,0.0,100.0,0.0,0.0,0.0,0.0,3131.25,3049.2,4238.222222222223,4132.9,305.465,304.99075,314.59125,314.5605,21.9046,20.5651,21.8979,21.4046,314.999998,314.999998,324.999988,324.999988,99.55975714285714,99.50713333333333,99.56728571428572,99.54637142857143,0.10349999999999993,-0.015666666666666718,-0.08360000000000001,0.13840000000000008,-0.05833333333333002,-0.051666666666669414,1.545,1.499,37.903999999999996,29.532,37.861999999999995,34.778999999999996,56.382,34.7585,59.6525,52.1085,54.278999999999996,33.900999999999996,58.2485,50.455,53.423,33.445,58.184,49.87733333333333,-0.12749999999999995,-0.022499999999999964,0.10387,0.10985,0.0,210.76,210.8,207.60333333333335,207.60333333333335,190.012512,21.04372
13,0.0,0.0,0.0,1.0,1.0,0.0,0.0,1.0,0.0,100.0,1.0,1.1856,26.0,0.0,0.0,0.0,59.999996,0.0,26.0,26.0,26.0,26.0,0.078125,0.2922,0.034175000000000004,293.03,-2.7044,-2.6825,-1.5812,-1.5479,-231.9,216.04000000000002,190.723,0.0,0.0,0.0,0.0,0.027033333333333354,-5.498166666666667,-5.498166666666667,-0.5401,-0.157,0.01550000000000007,-0.484,67.455,0.02429999999999999,-0.21895,-0.8220000000000001,100.0,1.0,1.0,208.04000000000002,0.0,0.0,0.0,0.0,0.0,0.0,0.0,8818.1,0.0,55.0,5.0,242.80666666666667,1.0,0.0,0.0,0.0,0.0,0.0,1.0,0.0,0.6630000000000003,0.6630000000000003,0.0,0.0,1.0,55.0,616.79921,10000.0,85.000001,85.000001,85.000001,85.000001,395.0,0.0,0.0,0.0,1.0,166.665,52.933,52.933,48.416,48.416,34.0,-21.57,26.186,-27.857499999999998,31.095,0.0,1782.065,-0.884999999999998,100.0,27.375,27.55,42.18,42.672,0.0,0.0,100.0,0.0,0.0,0.0,0.0,3110.25,3047.2,4152.888888888889,4231.2,305.47133333333335,304.982,314.78075,314.24725,21.9149,20.5709,21.909,21.4143,314.999998,314.999998,324.999988,324.999988,99.55977142857142,99.50713333333333,99.56744285714285,99.54652857142857,0.133,0.0006666666666665932,-0.08560000000000001,0.14000000000000012,-0.046666666666666856,-0.054999999999999716,1.5245,1.4929999999999999,37.968,29.567999999999998,37.931,34.8395,56.370000000000005,34.7985,59.692499999999995,52.176,54.266999999999996,33.9375,58.286,50.5205,53.41,33.480000000000004,58.218,49.941,-0.15049999999999997,0.0,0.11008000000000001,0.10455500000000001,0.0,211.215,211.25,208.04000000000002,208.04000000000002,190.012512,21.04372
14,0.0,0.0,0.0,1.0,1.0,0.0,0.0,1.0,0.0,100.0,1.0,1.1856,26.0,0.0,0.0,0.0,59.999996,0.0,26.0,26.0,26.0,26.0,0.09712500000000013,0.29110000000000014,-0.0162,293.289,-2.7302,-2.6881,-1.5884,-1.5152,-228.46,216.01749999999998,190.70175,0.0,0.0,0.0,0.0,0.029033333333333355,-5.498166666666667,-5.498166666666667,-0.5499,-0.061,0.046875,1.0430000000000001,67.596,0.03720000000000012,-0.22887500000000002,-1.072,100.0,1.0,1.0,208.56666666666666,0.0,0.0,0.0,0.0,0.0,0.0,0.0,8840.4,0.0,55.0,5.0,243.32,0.0,0.0,0.0,0.0,0.0,0.0,1.0,0.0,0.7139999999999986,0.7139999999999986,0.0,0.0,0.0,55.0,616.79921,10000.0,85.000001,85.000001,85.000001,85.000001,395.0,0.0,0.0,0.0,1.0,166.665,53.055,53.055,48.615,48.615,34.0,-20.3675,28.394,-24.474999999999998,31.2275,0.0,1782.014,-0.9549999999999983,100.0,27.386,27.507,42.144,42.722,0.0,0.0,100.0,0.0,0.0,0.0,0.0,2945.375,3180.9,3927.777777777778,4140.5,305.93466666666666,304.669,315.27425,314.573,21.9245,20.5763,21.9194,21.4234,314.999998,314.999998,324.999988,324.999988,99.55978571428571,99.50713333333333,99.56758571428571,99.54667142857143,0.13624999999999998,0.023666666666666725,-0.05359999999999998,0.17280000000000006,-0.04999999999999716,-0.054999999999999716,1.566,1.525,38.028,29.602,37.995999999999995,34.8965,56.358000000000004,34.8365,59.728,52.238,54.256,33.9725,58.3185,50.58,53.397,33.5135,58.2475,49.99966666666667,-0.14600000000000002,0.0020000000000000018,0.10246000000000001,0.11107500000000001,0.0,211.64,211.695,208.56666666666666,208.56666666666666,190.012512,21.04372
15,0.0,0.0,0.0,1.0,1.0,0.0,0.0,1.0,0.0,100.0,1.0,1.1856,26.0,0.0,0.0,0.0,59.999996,0.0,26.0,26.0,26.0,26.0,0.12624999999999997,0.2873000000000001,-0.05575,293.289,-2.747,-2.5824,-1.6157,-1.453,-225.41,216.0,190.682625,0.0,0.0,0.0,0.0,0.03083333333333338,-5.498166666666667,-5.498166666666667,-0.5395,0.2115,0.07387499999999991,-0.5700000000000003,67.72200000000001,0.049800000000000066,-0.21000000000000002,-1.13,100.0,1.0,1.0,208.92333333333335,0.0,0.0,0.0,0.0,0.0,0.0,0.0,8855.5,0.0,55.0,5.0,243.76999999999998,1.0,0.0,0.0,0.0,0.0,0.0,1.0,0.0,0.7590000000000003,0.7590000000000003,0.0,0.0,1.0,55.0,616.79921,10000.0,85.000001,85.000001,85.000001,85.000001,395.0,0.0,0.0,0.0,1.0,166.665,53.284,53.284,48.599000000000004,48.599000000000004,34.0,-19.259999999999998,26.658,-24.495,32.33,0.0,1781.969,-1.0,100.0,27.225,27.671,41.863,42.915,0.0,0.0,100.0,0.0,0.0,0.0,0.0,2852.25,3095.7,3955.0,4316.8,306.264,304.84275,315.26725,314.122,21.9329,20.5811,21.9285,21.4314,314.999998,314.999998,324.999988,324.999988,99.5598,99.50715,99.5677,99.5468,0.14749999999999996,0.022333333333333094,-0.043200000000000016,0.17820000000000014,-0.04333333333332945,-0.04999999999999716,1.5554999999999999,1.5150000000000001,38.08,29.631999999999998,38.053,34.9465,56.347,34.87,59.7585,52.2935,54.245000000000005,34.0035,58.3465,50.6335,53.385999999999996,33.5435,58.272999999999996,50.05233333333334,-0.15200000000000002,0.0050000000000000044,0.09924000000000001,0.11086000000000001,0.0,212.04000000000002,212.115,208.92333333333335,208.92333333333335,190.012512,21.04372
16,0.0,0.0,0.0,1.0,1.0,0.0,0.0,1.0,0.0,100.0,1.0,1.1856,26.0,0.0,0.0,0.0,59.999996,0.0,26.0,26.0,26.0,26.0,0.11824999999999997,0.27690000000000015,-0.00895,293.304,-2.79625,-2.601,-1.5857999999999999,-1.5202,-221.96,215.98000000000002,190.660625,0.0,0.0,0.0,0.0,0.03283333333333338,-5.498166666666667,-5.498166666666667,-0.5637,-0.633,0.05824999999999991,0.08800000000000008,67.863,0.06310000000000016,-0.22817500000000002,-1.2560000000000002,100.0,1.0,1.0,209.38666666666666,0.0,0.0,0.0,0.0,0.0,0.0,0.0,8875.2,0.0,55.0,5.0,244.28,0.0,0.0,0.0,0.0,0.0,0.0,1.0,0.0,0.8099999999999987,0.8099999999999987,0.0,0.0,0.0,55.0,616.79921,10000.0,85.000001,85.000001,85.000001,85.000001,395.0,0.0,0.0,0.0,1.0,166.665,53.055,53.055,48.553,48.553,34.0,-20.6225,29.014,-22.9575,32.51,0.0,1781.919,-0.8999999999999986,100.0,27.028,27.585,42.158,42.867000000000004,0.0,0.0,100.0,0.0,0.0,0.0,0.0,2998.125,3288.6,3873.6666666666665,4090.3,305.8276666666667,304.4835,315.38125,314.694,21.9422,20.5866,21.939,21.4405,314.999998,314.999998,324.999988,324.999988,99.55982857142857,99.50715,99.56784285714286,99.54694285714285,0.1532499999999999,0.03533333333333344,-0.031399999999999983,0.20620000000000016,-0.041666666666671404,-0.054999999999999716,1.5765,1.5230000000000001,38.138999999999996,29.666333333333334,38.119,35.003,56.332,34.909,59.795500000000004,52.3555,54.230999999999995,34.04,58.381,50.693,53.370999999999995,33.578,58.3045,50.11066666666667,-0.14300000000000002,-0.00550000000000006,0.109435,0.10818000000000001,0.0,212.435,212.525,209.38666666666666,209.38666666666666,190.012512,21.04372
17,0.0,0.0,0.0,1.0,1.0,0.0,0.0,1.0,0.0,100.0,1.0,1.1856,26.0,0.0,0.0,0.0,59.999996,0.0,26.0,26.0,26.0,26.0,0.11549999999999994,0.30290000000000017,0.02275,292.77,-2.75985,-2.5812,-1.6279,-1.4802,-218.29,215.965,190.636625,0.0,0.0,0.0,0.0,0.03496666666666659,-5.498166666666667,-5.498166666666667,-0.5477000000000001,0.362,0.0422499999999999,1.0810000000000004,68.014,0.06800000000000006,-0.2053,-1.1879999999999997,100.0,1.0,1.0,209.73333333333335,0.0,0.0,0.0,0.0,0.0,0.0,0.0,8889.8,0.0,55.0,5.0,244.82,1.0,0.0,0.0,0.0,0.0,0.0,1.0,0.0,0.8640000000000008,0.8640000000000008,0.0,0.0,1.0,55.0,616.79921,10000.0,85.000001,85.000001,85.000001,85.000001,395.0,0.0,0.0,0.0,1.0,166.665,52.856,52.856,47.958,47.958,34.0,-19.662499999999998,27.906,-25.857499999999998,34.63,0.0,1781.864,-0.9849999999999994,100.0,27.542,27.812,42.108000000000004,42.916,0.0,0.0,100.0,0.0,0.0,0.0,0.0,2989.625,3162.4,4275.777777777777,4387.9,305.7266666666667,304.85575,314.48675,314.075,21.9523,20.5925,21.95,21.4501,314.999998,314.999998,324.999988,324.999988,99.55984285714285,99.50715,99.568,99.5471,0.16975000000000007,0.043333333333333446,-0.018199999999999994,0.20120000000000005,-0.036666666666668846,-0.051666666666669414,1.532,1.475,38.202,29.703333333333333,38.187,35.063,56.322,34.951,59.833,52.4215,54.222,34.079,58.416,50.7565,53.36,33.616,58.336,50.173,-0.15100000000000002,-0.0015000000000000568,0.10246000000000001,0.10955500000000001,0.0,212.935,213.015,209.73333333333335,209.73333333333335,190.012512,21.04372
18,0.0,0.0,0.0,1.0,1.0,0.0,0.0,1.0,0.0,100.0,1.0,1.1856,26.0,0.0,0.0,0.0,59.999996,0.0,26.0,26.0,26.0,26.0,0.137,0.27290000000000014,-0.003575,292.816,-2.79765,-2.5473,-1.6491,-1.4208,-215.22,215.95499999999998,190.61675,0.0,0.0,0.0,0.0,0.036733333333333396,-5.498166666666667,-5.498166666666667,-0.5618000000000001,-0.501,0.06624999999999992,-0.24899999999999967,68.137,0.07050000000000001,-0.224525,-1.2759999999999998,100.0,1.0,1.0,210.17333333333335,0.0,0.0,0.0,0.0,0.0,0.0,0.0,8908.5,0.0,55.0,5.0,245.26333333333332,0.0,0.0,0.0,0.0,0.0,0.0,1.0,0.0,0.9089999999999989,0.9089999999999989,0.0,0.0,0.0,55.0,616.79921,10000.0,85.000001,85.000001,85.000001,85.000001,395.0,0.0,0.0,0.0,1.0,166.665,52.597,52.597,48.065,48.065,34.0,-20.41,29.134,-25.23,31.515,0.0,1781.818,-1.2249999999999996,100.0,27.168,27.936,42.249,43.403,0.0,0.0,100.0,0.0,0.0,0.0,0.0,3109.625,3287.8,4039.6666666666665,4171.9,305.613,304.32925,315.0895,314.50975,21.9606,20.5974,21.9592,21.458199999999998,314.999998,314.999998,324.999988,324.999988,99.55985714285714,99.50716666666666,99.56812857142857,99.54722857142858,0.17625000000000002,0.04499999999999993,-0.036799999999999944,0.19680000000000009,-0.054999999999999716,-0.045000000000001705,1.56,1.5150000000000001,38.254000000000005,29.734,38.245000000000005,35.114,56.312,34.986,59.865,52.4775,54.212,34.1115,58.446,50.8105,53.349000000000004,33.647,58.363,50.226,-0.16849999999999998,0.013499999999999956,0.107115,0.10839000000000001,0.0,213.3,213.36,210.17333333333335,210.17333333333335,190.012512,21.04372
19,0.0,0.0,0.0,1.0,1.0,0.0,0.0,1.0,0.0,100.0,1.0,1.1856,26.0,0.0,0.0,0.0,59.999996,0.0,26.0,26.0,26.0,26.0,0.16349999999999998,0.30100000000000016,0.060925,292.313,-2.7123,-2.6483,-1.6634,-1.4036,-211.75,215.9475,190.594125,0.0,0.0,0.0,0.0,0.038766666666666505,-5.498166666666667,-5.498166666666667,-0.5474,0.85,0.07962500000000006,0.9169999999999998,68.277,0.08130000000000015,-0.210575,-1.7299999999999995,100.0,1.0,1.0,210.5366666666667,0.0,0.0,0.0,0.0,0.0,0.0,0.0,8923.9,0.0,55.0,5.0,245.76666666666665,1.0,0.0,0.0,0.0,0.0,0.0,1.0,0.0,0.9600000000000009,0.9600000000000009,0.0,0.0,1.0,55.0,616.79921,10000.0,85.000001,85.000001,85.000001,85.000001,395.0,0.0,0.0,0.0,1.0,166.665,52.2,52.2,47.714,47.714,34.0,-17.415,31.432000000000002,-24.8425,35.2575,0.0,1781.769,-1.4450000000000003,100.0,27.84,28.335,42.144,43.396,0.0,0.0,100.0,0.0,0.0,0.0,0.0,2944.0,3279.1,4170.111111111111,4518.1,305.758,304.26025,314.761,313.78425,21.9702,20.6032,21.9695,21.4673,314.999998,314.999998,324.999988,324.999988,99.55988571428571,99.50716666666666,99.56827142857144,99.54738571428571,0.20675,0.07633333333333336,-0.005799999999999916,0.21140000000000003,-0.051666666666669414,-0.04833333333333201,1.5485,1.479,38.314,29.77,38.31,35.171,56.305,35.0295,59.899,52.5405,54.204,34.1515,58.477000000000004,50.872,53.341,33.686,58.391,50.28633333333333,-0.1845,0.03200000000000003,0.10844500000000001,0.09877000000000001,0.0,213.75,213.865,210.5366666666667,210.5366666666667,190.012512,21.04372
20,0.0,0.0,0.0,1.0,1.0,0.0,0.0,1.0,0.0,100.0,1.0,1.1856,26.0,0.0,0.0,0.0,59.999996,0.0,26.0,26.0,26.0,26.0,0.16837499999999994,0.2704,-0.05575,292.831,-2.82245,-2.5932,-1.5921,-1.5234,-208.26,215.945,190.571875,0.0,0.0,0.0,0.0,0.04079999999999995,-5.498166666666667,-5.498166666666667,-0.5589000000000001,-1.1885000000000001,0.07887500000000003,-1.068,68.417,0.0979000000000001,-0.227825,-1.5499999999999998,100.0,1.0,1.0,210.94333333333333,0.0,0.0,0.0,0.0,0.0,0.0,0.0,8941.1,0.0,55.0,5.0,246.27333333333334,0.0,0.0,0.0,0.0,0.0,0.0,0.0,0.0,1.0109999999999992,1.0109999999999992,0.0,0.0,0.0,55.0,616.79921,10000.0,85.000001,85.000001,85.000001,85.000001,395.0,0.0,0.0,0.0,1.0,111.11,53.146,53.146,47.562,47.562,34.0,-19.7,27.204,-23.055,34.6925,0.0,1781.718,-0.5150000000000006,100.0,27.109,28.106,42.537,43.934,0.0,0.0,100.0,0.0,0.0,0.0,0.0,2853.875,3127.5,4041.5555555555557,4182.8,306.36,304.756,315.0,314.35875,21.9793,20.6088,21.9801,21.4767,314.999998,314.999998,324.999988,324.999988,99.5599,99.50718333333333,99.56841428571428,99.54752857142857,0.15074999999999994,0.02499999999999991,-0.0050000000000000044,0.22240000000000015,-0.045000000000001705,-0.05666666666667197,1.5285,1.476,38.370999999999995,29.804666666666666,38.376000000000005,35.229,56.291,35.07,59.9375,52.6055,54.191,34.189,58.513,50.9345,53.326,33.722,58.4235,50.34766666666667,-0.12049999999999994,-0.02499999999999991,0.11213500000000001,0.10511500000000001,0.0,214.125,214.24,210.94333333333333,210.94333333333333,190.012512,21.04372
21,0.0,0.0,0.0,1.0,1.0,0.0,0.0,1.0,0.0,100.0,1.0,1.1856,26.0,0.0,0.0,0.0,59.999996,0.0,26.0,26.0,26.0,26.0,0.1356250000000001,0.2821,-0.04675,293.045,-2.77445,-2.6114,-1.6392,-1.4982,-204.97,215.945,190.55,0.0,0.0,0.0,0.0,0.04269999999999996,-5.498166666666667,-5.498166666666667,-0.5771000000000001,0.5760000000000001,0.04499999999999993,-1.217,68.544,0.09640000000000004,-0.22085000000000002,-0.7139999999999995,100.0,1.0,1.0,211.54333333333335,0.0,0.0,0.0,0.0,0.0,0.0,0.0,8966.5,0.0,55.0,5.0,246.72666666666666,1.0,0.0,0.0,0.0,0.0,0.0,0.0,0.0,1.059000000000001,1.059000000000001,0.0,0.0,1.0,55.0,616.79921,10000.0,85.000001,85.000001,85.000001,85.000001,395.0,0.0,0.0,0.0,1.0,166.665,52.719,52.719,48.599000000000004,48.599000000000004,34.0,-22.6825,25.564,-23.4525,31.33,0.0,1781.669,0.17999999999999972,100.0,27.405,28.191,41.96,43.319,0.0,0.0,100.0,0.0,0.0,0.0,0.0,3083.25,3107.7,4017.5555555555557,4001.6000000000004,305.64933333333335,304.8385,315.21525,314.9715,21.9882,20.6141,21.9897,21.4851,314.999998,314.999998,324.999988,324.999988,99.55992857142857,99.50718333333333,99.56855714285714,99.54767142857143,0.11549999999999994,-0.013333333333333197,-0.012199999999999989,0.2125999999999999,-0.054999999999999716,-0.041666666666671404,1.6065,1.5910000000000002,38.427,29.83833333333333,38.435,35.2815,56.28,35.1075,59.967,52.661,54.18,34.224000000000004,58.54,50.988,53.314,33.7555,58.448,50.400333333333336,-0.06499999999999995,-0.08800000000000008,0.099945,0.11087500000000002,0.0,214.585,214.64499999999998,211.54333333333335,211.54333333333335,190.012512,21.04372
22,0.0,0.0,0.0,1.0,1.0,0.0,0.0,1.0,0.0,100.0,1.0,1.1856,26.0,0.0,0.0,0.0,59.999996,0.0,26.0,26.0,26.0,26.0,0.06962500000000005,0.28700000000000014,-0.0035,292.572,-2.68955,-2.6819,-1.623,-1.5006,-201.47,215.95,190.526125,0.0,0.0,0.0,0.0,0.0447333333333334,-5.498166666666667,-5.498166666666667,-0.5562,-0.03,0.0402499999999999,0.6180000000000003,68.685,0.062100000000000044,-0.20545000000000002,0.16999999999999993,100.0,1.0,1.0,211.75333333333333,0.0,0.0,0.0,0.0,0.0,0.0,0.0,8975.5,0.0,55.0,5.0,247.23666666666668,0.0,0.0,0.0,0.0,0.0,0.0,0.0,0.0,1.1099999999999994,1.1099999999999994,0.0,0.0,0.0,55.0,616.79921,10000.0,85.000001,85.000001,85.000001,85.000001,395.0,0.0,0.0,0.0,1.0,166.665,52.917,52.917,47.47,47.47,34.0,-21.0,24.872,-27.009999999999998,32.8225,0.0,1781.618,0.5599999999999987,100.0,27.726,27.98,42.72,43.467,0.0,0.0,100.0,0.0,0.0,0.0,0.0,2828.0,3102.5,4177.777777777777,4341.5,306.13033333333334,304.94,314.6925,314.1285,21.997700000000002,20.6197,22.0002,21.4943,314.999998,314.999998,324.999988,324.999988,99.55994285714286,99.50718333333333,99.5687,99.54781428571428,0.09299999999999997,-0.04166666666666674,-0.050799999999999956,0.16940000000000022,-0.03499999999999659,-0.04999999999999716,1.501,1.495,38.485,29.873333333333335,38.501000000000005,35.3395,56.265,35.147,60.004999999999995,52.725,54.166,34.26,58.5755,51.0495,53.3,33.79,58.4805,50.46033333333334,-0.034499999999999975,-0.11699999999999999,0.10737500000000001,0.10321500000000002,0.0,215.04000000000002,215.035,211.75333333333333,211.75333333333333,190.012512,21.04372
23,0.0,0.0,0.0,1.0,1.0,0.0,0.0,1.0,0.0,100.0,1.0,1.1856,26.0,0.0,0.0,0.0,59.999996,0.0,26.0,26.0,26.0,26.0,0.024250000000000105,0.25060000000000016,-0.051750000000000004,292.618,-2.69445,-2.6545,-1.6497000000000002,-1.59,-197.97,215.95499999999998,190.50275,0.0,0.0,0.0,0.0,0.04676666666666651,-5.498166666666667,-5.498166666666667,-0.5763,-0.0645,0.008499999999999952,-0.9980000000000002,68.819,0.01419999999999999,-0.23215000000000002,0.9000000000000004,100.0,1.0,1.0,212.32999999999998,0.0,0.0,0.0,0.0,0.0,0.0,0.0,8999.9,0.0,55.0,5.0,247.72333333333336,1.0,0.0,0.0,0.0,0.0,0.0,0.0,0.0,1.1610000000000014,1.1610000000000014,0.0,0.0,1.0,55.0,616.79921,10000.0,85.000001,85.000001,85.000001,85.000001,395.0,0.0,0.0,0.0,1.0,166.665,52.155,52.155,48.584,48.584,34.0,-26.69,22.432000000000002,-28.915,26.8075,0.0,1781.568,0.6550000000000011,100.0,28.104,28.073,42.9,43.498000000000005,0.0,0.0,100.0,0.0,0.0,0.0,0.0,3276.75,3036.5,4004.222222222222,3859.1000000000004,304.976,305.02275,315.26125,315.21775,22.0072,20.6253,22.0107,21.5035,314.999998,314.999998,324.999988,324.999988,99.55994285714286,99.5072,99.56884285714285,99.54797142857143,0.05049999999999999,-0.08366666666666678,-0.1167999999999999,0.11460000000000004,-0.03999999999999915,-0.05333333333332746,1.546,1.581,38.545,29.908,38.567,35.3965,56.25,35.187,60.041,52.786,54.152,34.2975,58.609,51.108000000000004,53.284,33.826,58.5105,50.51766666666666,-0.028000000000000025,-0.12450000000000006,0.10731,0.10837500000000001,0.0,215.47,215.425,212.32999999999998,212.32999999999998,190.012512,21.04372
24,0.0,0.0,0.0,1.0,1.0,0.0,0.0,1.0,0.0,100.0,1.0,1.1856,26.0,0.0,0.0,0.0,59.999996,0.0,26.0,26.0,26.0,26.0,-0.04762500000000003,0.28380000000000005,-0.08805,292.908,-2.69905,-2.6871,-1.5539,-1.5468000000000002,-194.45,215.96,190.478625,0.0,0.0,0.0,0.0,0.048799999999999955,-5.498166666666667,-5.498166666666667,-0.5839,-0.8185,0.001374999999999904,0.5680000000000005,68.958,-0.027599999999999958,-0.2199,0.9379999999999997,100.0,1.0,1.0,212.61666666666667,0.0,0.0,0.0,0.0,0.0,0.0,0.0,9012.1,0.0,55.0,5.0,248.22333333333336,0.0,0.0,0.0,0.0,0.0,0.0,0.0,0.0,1.2119999999999997,1.2119999999999997,0.0,0.0,0.0,55.0,616.79921,10000.0,85.000001,85.000001,85.000001,85.000001,395.0,0.0,0.0,0.0,1.0,166.665,53.406,53.406,47.592,47.592,34.0,-24.09,20.544,-31.3175,26.11,0.0,1781.515,0.620000000000001,100.0,27.903,27.515,43.263,43.119,0.0,0.0,100.0,0.0,0.0,0.0,0.0,2870.625,2925.7,4204.444444444444,4088.0,306.11333333333334,305.56525,314.58475,314.76775,22.0165,20.6306,22.0213,21.5125,314.999998,314.999998,324.999988,324.999988,99.55995714285714,99.50721666666666,99.569,99.54811428571429,0.02200000000000024,-0.10899999999999999,-0.14559999999999995,0.07400000000000007,-0.04833333333333201,-0.04333333333332945,1.509,1.54,38.602999999999994,29.941,38.632999999999996,35.453,56.232,35.226,60.079499999999996,52.845,54.135,34.3335,58.6445,51.165,53.266999999999996,33.8605,58.543,50.57366666666667,-0.026499999999999968,-0.12349999999999994,0.10287500000000001,0.10844500000000001,0.0,215.92000000000002,215.82,212.61666666666667,212.61666666666667,190.012512,21.04372
25,0.0,0.0,0.0,1.0,1.0,0.0,0.0,1.0,0.0,100.0,1.0,1.1856,26.0,0.0,0.0,0.0,59.999996,0.0,26.0,26.0,26.0,26.0,-0.073125,0.2599,-0.028475,292.572,-2.7343,-2.6758,-1.5416,-1.5737,-190.93,215.9625,190.453125,0.0,0.0,0.0,0.0,0.050866666666666616,-5.498166666666667,-5.498166666666667,-0.6117,0.3985,-0.02662500000000012,-1.6149999999999998,69.09100000000001,-0.060799999999999965,-0.22287500000000002,1.1760000000000002,100.0,1.0,1.0,213.19,0.0,0.0,0.0,0.0,0.0,0.0,0.0,9036.3,0.0,55.0,5.0,248.70333333333335,1.0,0.0,0.0,0.0,0.0,0.0,0.0,0.0,1.2629999999999981,1.2629999999999981,0.0,0.0,1.0,55.0,616.79921,10000.0,85.000001,85.000001,85.000001,85.000001,395.0,0.0,0.0,0.0,1.0,166.665,51.894999999999996,51.894999999999996,48.431,48.431,34.0,-30.8675,21.994,-30.74,23.47,0.0,1781.465,0.5650000000000013,100.0,28.099,27.843,42.956,42.647999999999996,0.0,0.0,100.0,0.0,0.0,0.0,0.0,3440.75,3194.9,4028.222222222222,3915.9,304.62233333333336,304.62375,315.15475,315.1695,22.026,20.6361,22.0316,21.5214,314.999998,314.999998,324.999988,324.999988,99.55995714285714,99.50723333333333,99.56914285714285,99.54825714285714,-0.0004999999999999449,-0.1263333333333332,-0.17920000000000003,0.043400000000000105,-0.041666666666671404,-0.04333333333332945,1.5695,1.5990000000000002,38.663,29.975666666666665,38.698,35.509,56.214,35.269,60.1135,52.9015,54.117999999999995,34.3735,58.6765,51.219,53.248999999999995,33.899,58.572,50.626666666666665,-0.034499999999999975,-0.11850000000000005,0.10437500000000001,0.11207500000000001,0.0,216.335,216.25,213.19,213.19,190.012512,21.04372
26,0.0,0.0,0.0,1.0,1.0,0.0,0.0,1.0,0.0,100.0,1.0,1.1856,26.0,0.0,0.0,0.0,59.999996,0.0,26.0,26.0,26.0,26.0,-0.11824999999999997,0.2821,0.10035000000000001,291.534,-2.6596,-2.7817,-1.5756999999999999,-1.5887,-187.41,215.965,190.427375,0.0,0.0,0.0,0.0,0.05289999999999995,-5.498166666666667,-5.498166666666667,-0.5666,0.34700000000000003,-0.06125000000000025,0.4610000000000003,69.231,-0.08039999999999992,-0.1968,0.9460000000000006,100.0,1.0,1.0,213.28,0.0,0.0,0.0,0.0,0.0,0.0,0.0,9040.2,0.0,55.0,5.0,249.20333333333335,0.0,0.0,0.0,0.0,0.0,0.0,0.0,0.0,1.314,1.314,0.0,0.0,0.0,55.0,616.79921,10000.0,85.000001,85.000001,85.000001,85.000001,395.0,0.0,0.0,0.0,1.0,166.665,52.17,52.17,46.28,46.28,34.0,-27.075,20.482,-38.9475,27.7175,0.0,1781.414,0.370000000000001,100.0,29.012999999999998,27.966,44.104,43.003,0.0,0.0,100.0,0.0,0.0,0.0,0.0,3117.75,2951.6,4654.888888888889,4528.3,305.2416666666667,305.4565,313.57875,313.746,22.035800000000002,20.6416,22.0424,21.5306,314.999998,314.999998,324.999988,324.999988,99.55995714285714,99.50723333333333,99.5693,99.54841428571429,0.005250000000000199,-0.137,-0.19299999999999995,0.0264000000000002,-0.02499999999999858,-0.05833333333333002,1.407,1.4569999999999999,38.724000000000004,30.010333333333335,38.765,35.5665,56.2,35.3135,60.1565,52.963,54.105000000000004,34.414,58.716499999999996,51.2785,53.235,33.9375,58.609,50.684333333333335,-0.052999999999999936,-0.11050000000000004,0.10949500000000001,0.10257000000000001,0.0,216.775,216.70499999999998,213.28,213.28,190.012512,21.04372
27,0.0,0.0,0.0,1.0,1.0,0.0,0.0,1.0,0.0,100.0,1.0,1.1856,26.0,0.0,0.0,0.0,59.999996,0.0,26.0,26.0,26.0,26.0,-0.08937499999999998,0.25429999999999997,-0.045200000000000004,292.221,-2.62275,-2.7496,-1.5592000000000001,-1.6626,-184.29,215.9625,190.405875,0.0,0.0,0.0,0.0,0.0547333333333333,-5.498166666666667,-5.498166666666667,-0.6012000000000001,-1.0150000000000001,-0.06887500000000024,-0.6180000000000003,69.34700000000001,-0.08429999999999993,-0.24625000000000002,0.8739999999999997,100.0,1.0,1.0,213.86,0.0,0.0,0.0,0.0,0.0,0.0,0.0,9064.7,0.0,55.0,5.0,249.62666666666667,1.0,0.0,0.0,0.0,0.0,0.0,0.0,0.0,1.3589999999999982,1.3589999999999982,0.0,0.0,1.0,55.0,616.79921,10000.0,85.000001,85.000001,85.000001,85.000001,395.0,0.0,0.0,0.0,1.0,166.665,52.277,52.277,47.348,47.348,34.0,-28.57,19.816,-32.6375,23.4125,0.0,1781.369,0.33500000000000085,100.0,28.589,27.835,44.491,43.306,0.0,0.0,100.0,0.0,0.0,0.0,0.0,3279.375,2956.5,4040.3333333333335,3898.0,305.097,305.31225,314.99,315.1265,22.0442,20.6464,22.0518,21.5388,314.999998,314.999998,324.999988,324.999988,99.55995714285714,99.50726666666667,99.56942857142857,99.54854285714286,-0.01024999999999987,-0.15066666666666673,-0.20120000000000005,0.016199999999999992,-0.046666666666666856,-0.030000000000001137,1.5095,1.557,38.775999999999996,30.039666666666665,38.824,35.6175,56.185,35.3505,60.192,53.0155,54.09,34.448,58.75,51.3285,53.22,33.9705,58.638999999999996,50.733000000000004,-0.05449999999999999,-0.10450000000000004,0.10951500000000002,0.10658000000000001,0.0,217.095,217.01,213.86,213.86,190.012512,21.04372
28,0.0,0.0,0.0,1.0,1.0,0.0,0.0,1.0,0.0,100.0,1.0,1.1856,26.0,0.0,0.0,0.0,59.999996,0.0,26.0,26.0,26.0,26.0,-0.09687499999999993,0.2731000000000001,-0.047275000000000005,292.343,-2.64585,-2.7323,-1.5367000000000002,-1.597,-180.54,215.96,190.37875,0.0,0.0,0.0,0.0,0.05689999999999995,-5.498166666666667,-5.498166666666667,-0.5961000000000001,0.631,-0.07062500000000016,-0.5,69.488,-0.08729999999999993,-0.20750000000000002,0.8300000000000001,100.0,1.0,1.0,214.3,0.0,0.0,0.0,0.0,0.0,0.0,0.0,9083.4,0.0,55.0,5.0,250.13,0.0,0.0,0.0,0.0,0.0,0.0,0.0,0.0,1.4130000000000003,1.4130000000000003,0.0,0.0,0.0,55.0,616.79921,10000.0,85.000001,85.000001,85.000001,85.000001,395.0,0.0,0.0,0.0,1.0,111.11,52.505,52.505,47.577,47.577,34.0,-27.884999999999998,19.692,-34.4975,23.865,0.0,1781.316,0.120000000000001,100.0,28.657,27.757,43.805,42.78,0.0,0.0,100.0,0.0,0.0,0.0,0.0,3206.0,2864.4,4289.222222222223,4096.3,305.181,305.57775,314.59675,314.7655,22.0544,20.6521,22.0628,21.5482,314.999998,314.999998,324.999988,324.999988,99.55997142857143,99.50728333333333,99.56958571428571,99.54868571428571,-0.0017499999999999183,-0.1326666666666667,-0.2026,0.017000000000000126,-0.03999999999999915,-0.04333333333332945,1.515,1.5540000000000003,38.84,30.075666666666663,38.891999999999996,35.6765,56.169,35.394999999999996,60.229,53.0755,54.075,34.4895,58.7845,51.385999999999996,53.204,34.01,58.670500000000004,50.789,-0.0665,-0.08899999999999997,0.10541,0.10289500000000001,0.0,217.565,217.505,214.3,214.3,190.012512,21.04372
29,0.0,0.0,0.0,1.0,1.0,0.0,0.0,1.0,0.0,100.0,1.0,1.1856,26.0,0.0,0.0,0.0,59.999996,0.0,26.0,26.0,26.0,26.0,-0.08337499999999998,0.2512000000000001,-0.01175,292.175,-2.59365,-2.7887,-1.5455999999999999,-1.5964,-176.99,215.95499999999998,190.35225,0.0,0.0,0.0,0.0,0.05896666666666661,-5.498166666666667,-5.498166666666667,-0.6115,-0.6635,-0.06300000000000017,0.7889999999999997,69.623,-0.07889999999999997,-0.222925,0.41600000000000037,100.0,1.0,1.0,214.63666666666666,0.0,0.0,0.0,0.0,0.0,0.0,0.0,9097.7,0.0,55.0,5.0,250.61666666666667,1.0,0.0,0.0,0.0,0.0,0.0,0.0,0.0,1.4639999999999986,1.4639999999999986,0.0,0.0,1.0,55.0,616.79921,10000.0,85.000001,85.000001,85.000001,85.000001,395.0,0.0,0.0,0.0,1.0,166.665,52.338,52.338,47.501,47.501,34.0,-26.8375,21.744,-32.175,25.58,0.0,1781.265,0.08999999999999986,100.0,28.591,27.53,44.253,43.003,0.0,0.0,100.0,0.0,0.0,0.0,0.0,3209.75,3026.2,4089.222222222222,4155.8,305.0663333333333,305.206,314.868,314.6075,22.0638,20.6575,22.0734,21.5575,314.999998,314.999998,324.999988,324.999988,99.55997142857143,99.5073,99.56974285714286,99.54884285714286,0.015000000000000124,-0.1233333333333333,-0.18399999999999994,0.03720000000000012,-0.03499999999999659,-0.054999999999999716,1.4969999999999999,1.501,38.899,30.109,38.959,35.734,56.150999999999996,35.436,60.269,53.1355,54.058,34.527,58.822,51.444,53.186,34.046,58.705,50.845333333333336,-0.07799999999999996,-0.07850000000000001,0.10842,0.101705,0.0,217.93,217.9,214.63666666666666,214.63666666666666,190.012512,21.04372
30,0.0,0.0,0.0,1.0,1.0,0.0,0.0,1.0,0.0,100.0,1.0,1.1856,26.0,0.0,0.0,0.0,59.999996,0.0,26.0,26.0,26.0,26.0,-0.07087500000000002,0.25470000000000015,-0.0048000000000000004,291.58,-2.65565,-2.77,-1.4904,-1.6543999999999999,-173.86,215.9475,190.32875,0.0,0.0,0.0,0.0,0.060799999999999965,-5.498166666666667,-5.498166666666667,-0.5998,0.8200000000000001,-0.06537499999999996,-0.4969999999999999,69.739,-0.06599999999999995,-0.21432500000000002,0.4560000000000004,100.0,1.0,1.0,215.01666666666665,0.0,0.0,0.0,0.0,0.0,0.0,0.0,9113.8,0.0,55.0,5.0,251.03666666666666,0.0,0.0,0.0,0.0,0.0,0.0,1.0,0.0,1.5090000000000003,1.5090000000000003,0.0,0.0,0.0,55.0,616.79921,10000.0,85.000001,85.000001,85.000001,85.000001,395.0,0.0,0.0,0.0,1.0,166.665,51.331,51.331,47.394,47.394,34.0,-29.2275,21.714000000000002,-33.2675,26.3375,0.0,1781.218,0.05999999999999872,100.0,29.298000000000002,28.398,44.025,43.164,0.0,0.0,100.0,0.0,0.0,0.0,0.0,3451.875,3013.5,4290.666666666667,4078.5,304.4923333333333,305.20925,314.50925,314.67825,22.072400000000002,20.6625,22.0826,21.5655,314.999998,314.999998,324.999988,324.999988,99.55997142857143,99.50731666666667,99.56987142857143,99.54897142857143,0.02400000000000002,-0.1186666666666667,-0.1854,0.04420000000000002,-0.03833333333332689,-0.036666666666668846,1.4829999999999999,1.496,38.953,30.140333333333334,39.016,35.7845,56.14,35.475,60.301,53.187,54.048,34.5635,58.852000000000004,51.4935,53.175,34.0805,58.7325,50.89366666666667,-0.08450000000000002,-0.08250000000000002,0.10898000000000001,0.11066000000000001,0.0,218.34,218.3,215.01666666666665,215.01666666666665,190.012512,21.04372
31,0.0,0.0,0.0,1.0,1.0,0.0,0.0,1.0,0.0,100.0,1.0,1.1856,26.0,0.0,0.0,0.0,59.999996,0.0,26.0,26.0,26.0,26.0,-0.04512499999999997,0.25280000000000014,0.00025,291.306,-2.72625,-2.6441,-1.5367000000000002,-1.6446,-170.09,215.9375,190.301625,0.0,0.0,0.0,0.0,0.06296666666666662,-5.498166666666667,-5.498166666666667,-0.5964,-0.6970000000000001,-0.05337499999999995,-0.7839999999999998,69.881,-0.05259999999999998,-0.22920000000000001,0.27200000000000024,100.0,1.0,1.0,215.35666666666668,0.0,0.0,0.0,0.0,0.0,0.0,0.0,9128.2,0.0,55.0,5.0,251.54666666666668,1.0,0.0,0.0,0.0,0.0,0.0,1.0,0.0,1.5629999999999988,1.5629999999999988,0.0,0.0,1.0,55.0,616.79921,10000.0,85.000001,85.000001,85.000001,85.000001,395.0,0.0,0.0,0.0,1.0,166.665,51.483,51.483,46.28,46.28,34.0,-28.0625,22.451999999999998,-32.9725,28.1475,0.0,1781.166,-0.02499999999999858,100.0,28.904,28.515,44.628,43.806,0.0,0.0,100.0,0.0,0.0,0.0,0.0,3307.125,3184.8,4277.777777777777,4247.8,305.0493333333333,304.698,314.53125,314.36225,22.0824,20.6684,22.094,21.575499999999998,314.999998,314.999998,324.999988,324.999988,99.55998571428572,99.50731666666667,99.57004285714285,99.54912857142857,0.02950000000000008,-0.10699999999999998,-0.16799999999999993,0.05699999999999994,-0.04999999999999716,-0.041666666666671404,1.4695,1.483,39.015,30.177333333333333,39.087,35.8465,56.123000000000005,35.519999999999996,60.344,53.2525,54.031,34.605000000000004,58.8925,51.556,53.158,34.12,58.7695,50.955,-0.08850000000000002,-0.07550000000000012,0.11260500000000001,0.10370000000000001,0.0,218.72500000000002,218.695,215.35666666666668,215.35666666666668,190.012512,21.04372
32,0.0,0.0,0.0,1.0,1.0,0.0,0.0,1.0,0.0,100.0,1.0,1.1856,26.0,0.0,0.0,0.0,59.999996,0.0,26.0,26.0,26.0,26.0,-0.04149999999999998,0.2674000000000001,-0.013725000000000001,291.595,-2.6279500000000002,-2.7593,-1.6005,-1.556,-166.73000000000002,215.9275,190.277375,0.0,0.0,0.0,0.0,0.0649333333333334,-5.498166666666667,-5.498166666666667,-0.608,0.2,-0.08099999999999996,-1.0110000000000001,70.003,-0.045399999999999996,-0.22755,0.21999999999999975,100.0,1.0,1.0,215.81333333333333,0.0,0.0,0.0,0.0,0.0,0.0,0.0,9147.5,0.0,55.0,5.0,251.98333333333335,0.0,0.0,0.0,0.0,0.0,0.0,1.0,0.0,1.6110000000000007,1.6110000000000007,0.0,0.0,0.0,55.0,616.79921,10000.0,85.000001,85.000001,85.000001,85.000001,395.0,0.0,0.0,0.0,1.0,111.11,51.727,51.727,46.906,46.906,34.0,-26.412499999999998,22.406,-33.620000000000005,26.677500000000002,0.0,1781.118,-0.10500000000000043,100.0,28.927,28.478,44.255,43.556,0.0,0.0,100.0,0.0,0.0,0.0,0.0,3295.125,2977.9,4320.666666666667,4209.6,304.90633333333335,305.21075,314.50625,314.50575,22.0914,20.6737,22.1038,21.5841,314.999998,314.999998,324.999988,324.999988,99.55998571428572,99.50733333333334,99.57017142857143,99.54925714285714,0.04800000000000004,-0.09566666666666679,-0.1612,0.06380000000000008,-0.05333333333332746,-0.04833333333333201,1.5075,1.5350000000000001,39.071,30.210333333333335,39.147999999999996,35.9005,56.108999999999995,35.5595,60.376999999999995,53.3065,54.018,34.641,58.923,51.6085,53.144,34.155,58.797,51.00566666666667,-0.09799999999999998,-0.07350000000000012,0.109255,0.10175500000000001,0.0,219.13,219.10000000000002,215.81333333333333,215.81333333333333,190.012512,21.04372
33,0.0,0.0,0.0,1.0,1.0,0.0,0.0,1.0,0.0,100.0,1.0,1.1856,26.0,0.0,0.0,0.0,59.999996,0.0,26.0,26.0,26.0,26.0,-0.02112499999999995,0.25460000000000016,-0.028875,291.962,-2.6763,-2.7378,-1.5429,-1.6286,-163.14999999999998,215.91500000000002,190.2505,0.0,0.0,0.0,0.0,0.06699999999999995,-5.498166666666667,-5.498166666666667,-0.6152000000000001,-0.529,-0.060875000000000234,1.4770000000000003,70.134,-0.03709999999999991,-0.217975,0.07200000000000095,100.0,1.0,1.0,216.19,0.0,0.0,0.0,0.0,0.0,0.0,0.0,9163.5,0.0,55.0,5.0,252.45666666666665,1.0,0.0,0.0,0.0,0.0,0.0,1.0,0.0,1.661999999999999,1.661999999999999,0.0,0.0,1.0,55.0,616.79921,10000.0,85.000001,85.000001,85.000001,85.000001,395.0,0.0,0.0,0.0,1.0,166.665,52.338,52.338,47.256,47.256,34.0,-24.585,22.724,-30.175,28.83,0.0,1781.066,-0.15500000000000114,100.0,28.772,27.974,44.269999999999996,43.588,0.0,0.0,100.0,0.0,0.0,0.0,0.0,3085.25,2999.0,4095.222222222222,4196.3,305.478,305.35725,314.868,314.5015,22.1008,20.6791,22.1143,21.5933,314.999998,314.999998,324.999988,324.999988,99.55998571428572,99.50735,99.57032857142858,99.54941428571429,0.05699999999999994,-0.08133333333333326,-0.14379999999999993,0.08240000000000003,-0.04999999999999716,-0.046666666666666856,1.4985,1.491,39.129999999999995,30.244,39.214,35.958,56.093,35.5975,60.4135,53.366,54.004000000000005,34.6765,58.957499999999996,51.665,53.128,34.1885,58.828,51.061,-0.08899999999999997,-0.06099999999999994,0.11035500000000001,0.1067,0.0,219.525,219.495,216.19,216.19,190.012512,21.04372
34,0.0,0.0,0.0,1.0,1.0,0.0,0.0,1.0,0.0,100.0,1.0,1.1856,26.0,0.0,0.0,0.0,59.999996,0.0,26.0,26.0,26.0,26.0,-0.026124999999999954,0.244,-0.074325,292.358,-2.6894,-2.7233,-1.6107,-1.5867,-159.79,215.9025,190.224125,0.0,0.0,0.0,0.0,0.06896666666666651,-5.498166666666667,-5.498166666666667,-0.6474000000000001,-0.7545000000000001,-0.030375000000000263,0.9219999999999997,70.256,-0.027699999999999947,-0.22605,0.020000000000000462,100.0,1.0,1.0,216.62333333333333,0.0,0.0,0.0,0.0,0.0,0.0,0.0,9181.9,0.0,55.0,5.0,252.89666666666665,0.0,0.0,0.0,0.0,0.0,0.0,1.0,0.0,1.7100000000000009,1.7100000000000009,0.0,0.0,0.0,55.0,616.79921,10000.0,85.000001,85.000001,85.000001,85.000001,395.0,0.0,0.0,0.0,1.0,111.11,52.719,52.719,47.76,47.76,34.0,-23.845,22.878,-29.3525,28.1675,0.0,1781.02,-0.14999999999999858,100.0,28.459,27.721,43.903999999999996,43.598,0.0,0.0,100.0,0.0,0.0,0.0,0.0,2971.5,2995.7,4029.1111111111113,4112.2,305.70366666666666,305.33625,315.13325,314.72225,22.1095,20.6842,22.124,21.6019,314.999998,314.999998,324.999988,324.999988,99.56,99.50735,99.57047142857142,99.54955714285714,0.05575000000000019,-0.07499999999999996,-0.1267999999999999,0.09860000000000002,-0.04333333333332945,-0.07000000000000028,1.532,1.541,39.184,30.276,39.275,36.012,56.078,35.632999999999996,60.445,53.4215,53.989000000000004,34.7095,58.9865,51.7185,53.113,34.2205,58.8545,51.113,-0.08450000000000002,-0.06600000000000006,0.10103000000000001,0.11074,0.0,219.88,219.885,216.62333333333333,216.62333333333333,190.012512,21.04372
35,0.0,0.0,0.0,1.0,1.0,0.0,0.0,1.0,0.0,100.0,1.0,1.1856,26.0,0.0,0.0,0.0,59.999996,0.0,26.0,26.0,26.0,26.0,-0.016625,0.2572000000000001,-0.09642500000000001,292.206,-2.68185,-2.6841,-1.5591,-1.6049,-155.99,215.8875,190.192,0.0,0.0,0.0,0.0,0.0711666666666666,-5.498166666666667,-5.498166666666667,-0.6848000000000001,0.046,-0.04862499999999992,-0.14499999999999957,70.392,-0.021199999999999997,-0.22585000000000002,-0.0420000000000007,100.0,1.0,1.0,217.12333333333333,0.0,0.0,0.0,0.0,0.0,0.0,0.0,9203.1,0.0,55.0,5.0,253.38666666666666,1.0,0.0,0.0,0.0,0.0,0.0,1.0,0.0,1.7639999999999993,1.7639999999999993,0.0,0.0,1.0,55.0,616.79921,10000.0,85.000001,85.000001,85.000001,85.000001,395.0,0.0,0.0,0.0,1.0,166.665,51.894999999999996,51.894999999999996,47.455,47.455,34.0,-24.5675,26.154,-27.8,26.9225,0.0,1780.964,-0.120000000000001,100.0,28.303,28.201999999999998,43.623000000000005,43.086,0.0,0.0,100.0,0.0,0.0,0.0,0.0,3125.5,3362.4,3975.5555555555557,3926.5,305.3283333333333,304.22725,315.2785,315.20225,22.1192,20.6902,22.134999999999998,21.6115,314.999998,314.999998,324.999988,324.999988,99.56001428571429,99.50736666666667,99.57062857142857,99.54971428571429,0.06824999999999992,-0.06633333333333313,-0.12279999999999991,0.1028,-0.051666666666669414,-0.05666666666667197,1.581,1.5739999999999998,39.245000000000005,30.313666666666666,39.343,36.072,56.059,35.676,60.481,53.4795,53.972,34.749,59.019999999999996,51.775,53.095,34.2585,58.8845,51.16766666666666,-0.09199999999999997,-0.0685,0.10721000000000001,0.10727,0.0,220.31,220.3,217.12333333333333,217.12333333333333,190.012512,21.04372
36,0.0,0.0,0.0,1.0,1.0,0.0,0.0,1.0,0.0,100.0,1.0,1.1856,26.0,0.0,0.0,0.0,59.999996,0.0,26.0,26.0,26.0,26.0,0.007875000000000076,0.26780000000000004,0.054700000000000006,291.321,-2.61925,-2.7459,-1.5377,-1.5989,-152.82,215.8775,190.164125,0.0,0.0,0.0,0.0,0.0730333333333334,-5.498166666666667,-5.498166666666667,-0.6634,0.139,-0.08400000000000007,-1.2929999999999997,70.51,-0.01859999999999995,-0.202325,0.11000000000000032,100.0,1.0,1.0,217.19,0.0,0.0,0.0,0.0,0.0,0.0,0.0,9205.9,0.0,55.0,5.0,253.81,0.0,0.0,0.0,0.0,0.0,0.0,1.0,0.0,1.809000000000001,1.809000000000001,0.0,0.0,0.0,55.0,616.79921,10000.0,85.000001,85.000001,85.000001,85.000001,395.0,0.0,0.0,0.0,1.0,166.665,51.88,51.88,46.539,46.539,34.0,-23.8825,23.024,-32.76,31.91,0.0,1780.918,-0.10999999999999943,100.0,28.728,28.53,43.855000000000004,43.683,0.0,0.0,100.0,0.0,0.0,0.0,0.0,3141.625,2932.4,4458.0,4492.6,305.23333333333335,305.11075,314.10275,313.7645,22.1275,20.6952,22.1443,21.6197,314.999998,314.999998,324.999988,324.999988,99.56001428571429,99.50736666666667,99.57075714285715,99.54985714285715,0.07525000000000004,-0.07433333333333314,-0.13060000000000005,0.09620000000000006,-0.051666666666669414,-0.036666666666668846,1.439,1.4420000000000002,39.297,30.345,39.402,36.1235,56.048,35.712,60.513999999999996,53.534,53.961,34.782,59.051,51.827,53.083,34.29,58.9125,51.219,-0.09699999999999998,-0.07200000000000006,0.10777500000000001,0.105535,0.0,220.7,220.67000000000002,217.19,217.19,190.012512,21.04372
