,ABS Active,ABS Enabled,AID Allow Tire Blankets,AID Auto Blip,AID Auto Clutch,AID Auto Shift,AID Fuel Rate,AID Ideal Line,AID Mech Damage,AID Stability,AID Tire Wear Rate,Air Density,Air Temp,Ballast,Best Lap Delta,Best Lap Time,Brake Bias,Brake Pos,Brake Temp FL,Brake Temp FR,Brake Temp RL,Brake Temp RR,CG Accel Lateral,CG Accel Longitudinal,CG Accel Vertical,CG Height,Camber FL,Camber FR,Camber RL,Camber RR,Car Coord X,Car Coord Y,Car Coord Z,Car Damage Front,Car Damage Left,Car Damage Rear,Car Damage Right,Car Pos Norm,Caster FL,Caster FR,Chassis Pitch Angle,Chassis Pitch Rate,Chassis Roll Angle,Chassis Roll Rate,Chassis Velocity X,Chassis Velocity Y,Chassis Velocity Z,Chassis Yaw Rate,Clutch Pos,DRS Active,DRS Available,Drive Train Speed,ERS Heat Charging,ERS Is Charging,ERS Max Energy,ERS Power Level,ERS Recovery Level,Engine Brake Setting,Engine Limiter,Engine RPM,Flags,Fuel Level,Gear,Ground Speed,HR Sample Clock,In Pit,KERS Charge,KERS Deployed Energy,KERS Input,KERS Max Energy,LR Sample Clock,Lap Invalidated,Lap Time,Lap Time2,Last Lap Time,Last Sector Time,MR Sample Clock,Max Fuel,Max Power,Max RPM,Max Sus Travel FL,Max Sus Travel FR,Max Sus Travel RL,Max Sus Travel RR,Max Torque,Max Turbo Boost,Num Tires Off Track,Penalties Enabled,Position,Raw Data Sample Rate,Ride Height FL,Ride Height FR,Ride Height RL,Ride Height RR,Road Temp,Self Align Torque FL,Self Align Torque FR,Self Align Torque RL,Self Align Torque RR,Session Lap Count,Session Time Left,Steering Angle,Surface Grip,Suspension Travel FL,Suspension Travel FR,Suspension Travel RL,Suspension Travel RR,TC Active,TC Enabled,Throttle Pos,Tire Dirt Level FL,Tire Dirt Level FR,Tire Dirt Level RL,Tire Dirt Level RR,Tire Load FL,Tire Load FR,Tire Load RL,Tire Load RR,Tire Loaded Radius FL,Tire Loaded Radius FR,Tire Loaded Radius RL,Tire Loaded Radius RR,Tire Pressure FL,Tire Pressure FR,Tire Pressure RL,Tire Pressure RR,Tire Radius FL,Tire Radius FR,Tire Radius RL,Tire Radius RR,Tire Rubber Grip FL,Tire Rubber Grip FR,Tire Rubber Grip RL,Tire Rubber Grip RR,Tire Slip Angle FL,Tire Slip Angle FR,Tire Slip Angle RL,Tire Slip Angle RR,Tire Slip Ratio FL,Tire Slip Ratio FR,Tire Slip Ratio RL,Tire Slip Ratio RR,Tire Temp Core FL,Tire Temp Core FR,Tire Temp Core RL,Tire Temp Core RR,Tire Temp Inner FL,Tire Temp Inner FR,Tire Temp Inner RL,Tire Temp Inner RR,Tire Temp Middle FL,Tire Temp Middle FR,Tire Temp Middle RL,Tire Temp Middle RR,Tire Temp Outer FL,Tire Temp Outer FR,Tire Temp Outer RL,Tire Temp Outer RR,Toe In FL,Toe In FR,Toe In RL,Toe In RR,Turbo Boost,Wheel Angular Speed FL,Wheel Angular Speed FR,Wheel Angular Speed RL,Wheel Angular Speed RR,Wind Direction,Wind Speed
0,0.0,0.0,0.0,1.0,1.0,0.0,0.0,1.0,0.0,0.0,1.0,1.1856,26.0,0.0,0.0,0.0,59.99999,0.0,26.0,26.0,26.0,26.0,-0.05266666666666664,0.30920000000000014,0.15145,293.793,-2.7233,-2.629666666666667,-1.5306000000000002,-1.53,-275.78,215.88,190.98825,0.0,0.0,0.0,0.0,0.0015333333333333865,-5.498166666666667,-5.498166666666667,-0.5528000000000001,1.7383333333333333,-0.006124999999999936,-0.9210000000000003,65.501,-0.03949999999999998,-0.213675,0.5079999999999991,100.0,1.0,1.0,202.23333333333335,0.0,0.0,0.0,0.0,0.0,0.0,0.0,8572.0,0.0,55.0,5.0,235.77666666666667,0.0,0.0,0.0,0.0,0.0,0.0,0.0,0.0,0.0030000000000001137,0.0030000000000001137,0.0,0.0,0.0,55.0,616.79921,10000.0,85.0,85.0,85.0,85.0,395.0,0.0,0.0,0.0,1.0,20.0,52.124,52.124,49.301,49.301,34.0,-28.2025,28.116,-30.376666666666665,24.877499999999998,0.0,1783.495,0.5899999999999999,100.0,27.163,26.784,40.332,40.185,0.0,0.0,100.0,0.0,0.0,0.0,0.0,3176.285714285714,3948.5,4104.5,4059.0,305.2215,302.73175,314.8805,314.69875,21.76875,20.5108,21.77488888888889,21.315,314.99999,314.99999,324.99998,324.99998,99.55864285714286,99.50708333333333,99.56528571428571,99.54531428571428,-0.00374999999999992,-0.10566666666666658,-0.15879999999999994,0.060833333333333295,-0.05833333333333002,-0.06333333333333258,1.5365,1.575,37.054,29.1925,37.093,34.219,56.192,34.3755,59.0775,51.661,54.117999999999995,33.573,57.704499999999996,50.0175,53.293,33.157,57.6685,49.44233333333334,-0.03249999999999997,-0.11399999999999988,0.10583000000000001,0.10586000000000001,0.0,205.285,205.195,202.23333333333335,202.23333333333335,0.0,0.0
1,0.0,0.0,0.0,1.0,1.0,0.0,0.0,1.0,0.0,0.0,1.0,1.1856,26.0,0.0,0.0,0.0,59.999996,0.0,26.0,26.0,26.0,26.0,-0.10677777777777786,0.33810000000000007,0.039975000000000004,293.045,-2.6455,-2.7175555555555557,-1.5136,-1.3739,-272.44,215.9,190.96825,0.0,0.0,0.0,0.0,0.003466666666666507,-5.498166666666667,-5.498166666666667,-0.4797,-0.9786666666666667,-0.058374999999999844,0.10399999999999987,65.65899999999999,-0.04849999999999999,-0.181175,1.1760000000000002,100.0,1.0,1.0,202.24333333333334,0.0,0.0,0.0,0.0,0.0,0.0,0.0,8572.3,0.0,55.0,5.0,236.34,1.0,0.0,0.0,0.0,0.0,0.0,0.0,0.0,0.053999999999998494,0.053999999999998494,0.0,0.0,1.0,55.0,616.79921,10000.0,85.000001,85.000001,85.000001,85.000001,395.0,0.0,0.0,0.0,1.0,166.665,54.337,54.337,48.035,48.035,34.0,-25.625,15.994,-37.06666666666666,29.4925,0.0,1783.445,0.8150000000000013,100.0,27.305,26.759,42.299,41.83,0.0,0.0,100.0,0.0,0.0,0.0,0.0,2935.285714285714,2459.6,4631.5,5032.5,305.793,306.94075,313.41425,312.19425,21.7785,20.5158,21.785777777777778,21.3242,314.999998,314.999998,324.999988,324.999988,99.55864285714286,99.5071,99.56544285714286,99.54545714285715,-0.012499999999999956,-0.1396666666666666,-0.17320000000000002,0.04699999999999993,-0.03833333333332689,-0.03999999999999915,1.3365,1.3840000000000001,37.116,29.224,37.161,34.275999999999996,56.175,34.4155,59.1255,51.7275,54.101,33.6095,57.7495,50.0815,53.275999999999996,33.192499999999995,57.710499999999996,49.504999999999995,-0.0044999999999999485,-0.1339999999999999,0.112585,0.11843500000000001,0.0,205.73000000000002,205.615,202.24333333333334,202.24333333333334,0.0,0.0
2,0.0,0.0,0.0,1.0,1.0,0.0,0.0,1.0,0.0,0.0,1.0,1.1856,26.0,0.0,0.0,0.0,59.999996,0.0,26.0,26.0,26.0,26.0,-0.1426666666666666,0.27259999999999995,-0.10395,294.25,-2.6163,-2.770777777777778,-1.5093,-1.6213000000000002,-268.89,215.91750000000002,190.948375,0.0,0.0,0.0,0.0,0.00553333333333339,-5.498166666666667,-5.498166666666667,-0.5656,0.5053333333333333,-0.031124999999999847,2.5620000000000003,65.805,-0.0675,-0.2627,1.4779999999999998,100.0,1.0,1.0,203.50333333333333,0.0,0.0,0.0,0.0,0.0,0.0,0.0,8625.8,0.0,55.0,5.0,236.87,0.0,0.0,0.0,0.0,0.0,0.0,0.0,0.0,0.10800000000000054,0.10800000000000054,0.0,0.0,0.0,55.0,616.79921,10000.0,85.000001,85.000001,85.000001,85.000001,395.0,0.0,0.0,0.0,1.0,166.665,52.551,52.551,51.01,51.01,34.0,-29.79,20.724,-26.956666666666663,19.1875,0.0,1783.391,0.8300000000000018,100.0,28.12,26.743,41.967,41.073,0.0,0.0,100.0,0.0,0.0,0.0,0.0,3296.285714285714,3074.3,3571.0,3470.4,304.6235,305.14425,316.10675,316.39575,21.78925,20.5211,21.796777777777777,21.3334,314.999998,314.999998,324.999988,324.999988,99.55865714285714,99.50711666666666,99.56558571428572,99.5456,-0.026249999999999885,-0.1486666666666666,-0.2118,0.02400000000000002,-0.054999999999999716,-0.04333333333332945,1.7249999999999999,1.768,37.182,29.256999999999998,37.230000000000004,34.334,56.161,34.4585,59.163,51.784,54.089,33.649,57.785,50.135999999999996,53.262,33.230000000000004,57.7425,49.55833333333334,-0.011500000000000066,-0.14100000000000001,0.10475500000000001,0.11220000000000001,0.0,206.21,206.06,203.50333333333333,203.50333333333333,0.0,0.0
3,0.0,0.0,0.0,1.0,1.0,0.0,0.0,1.0,0.0,0.0,1.0,1.1856,26.0,0.0,0.0,0.0,59.999996,0.0,26.0,26.0,26.0,26.0,-0.14811111111111108,0.3218000000000001,-0.035300000000000005,293.533,-2.6402,-2.7104444444444447,-1.4971,-1.4984,-265.92,215.93,190.930625,0.0,0.0,0.0,0.0,0.0072666666666665325,-5.498166666666667,-5.498166666666667,-0.5045000000000001,0.7866666666666666,-0.018000000000000238,-1.7280000000000002,65.943,-0.08429999999999993,-0.1899,1.267999999999999,100.0,1.0,1.0,203.41,0.0,0.0,0.0,0.0,0.0,0.0,0.0,8621.8,0.0,55.0,5.0,237.36333333333334,1.0,0.0,0.0,0.0,0.0,0.0,0.0,0.0,0.1529999999999987,0.1529999999999987,0.0,0.0,1.0,55.0,616.79921,10000.0,85.000001,85.000001,85.000001,85.000001,395.0,0.0,0.0,0.0,1.0,333.33500000000004,53.65,53.65,48.096000000000004,48.096000000000004,34.0,-26.9825,17.41,-37.01,22.262500000000003,0.0,1783.345,0.879999999999999,100.0,27.621,27.023,42.01,41.334,0.0,0.0,100.0,0.0,0.0,0.0,0.0,2970.5714285714284,2776.7,4488.375,4139.0,305.8955,305.79175,313.9255,314.4605,21.797875,20.5257,21.806,21.3413,314.999998,314.999998,324.999988,324.999988,99.55865714285714,99.50713333333333,99.56571428571428,99.54572857142857,-0.04699999999999993,-0.16866666666666663,-0.21760000000000002,0.0043333333333333,-0.046666666666666856,-0.04333333333332945,1.4709999999999999,1.524,37.236000000000004,29.2855,37.287,34.382999999999996,56.147,34.497,59.198499999999996,51.841,54.075,33.6845,57.818,50.1905,53.248000000000005,33.263999999999996,57.772999999999996,49.611666666666665,-0.006000000000000005,-0.14100000000000001,0.118205,0.10522000000000001,0.0,206.67000000000002,206.51999999999998,203.41,203.41,0.0,0.0
4,0.0,0.0,0.0,1.0,1.0,0.0,0.0,1.0,0.0,0.0,1.0,1.1856,26.0,0.0,0.0,0.0,59.999996,0.0,26.0,26.0,26.0,26.0,-0.15633333333333332,0.2948000000000002,-0.03265,293.701,-2.6635,-2.789888888888889,-1.4389,-1.5964,-262.56,215.94,190.911125,0.0,0.0,0.0,0.0,0.009233333333333316,-5.498166666666667,-5.498166666666667,-0.5329,-1.0033333333333334,-0.07512499999999989,-0.19899999999999984,66.089,-0.09199999999999997,-0.23215000000000002,1.4939999999999998,100.0,1.0,1.0,203.97,0.0,0.0,0.0,0.0,0.0,0.0,0.0,8645.6,0.0,55.0,5.0,237.89333333333332,0.0,0.0,0.0,0.0,0.0,0.0,0.0,0.0,0.20400000000000063,0.20400000000000063,0.0,0.0,0.0,55.0,616.79921,10000.0,85.000001,85.000001,85.000001,85.000001,395.0,0.0,0.0,0.0,1.0,166.665,53.436,53.436,48.751999999999995,48.751999999999995,34.0,-29.8175,18.872,-32.26,21.377499999999998,0.0,1783.296,1.0199999999999996,100.0,27.545,26.442,42.905,41.485,0.0,0.0,100.0,0.0,0.0,0.0,0.0,3179.285714285714,2928.0,4123.625,3801.2,305.1405,305.571,314.73875,315.36475,21.807625,20.5307,21.816666666666666,21.3502,314.999998,314.999998,324.999988,324.999988,99.55865714285714,99.50715,99.56585714285714,99.54585714285714,-0.05149999999999988,-0.17099999999999993,-0.21320000000000006,0.010499999999999954,-0.04333333333332945,-0.06833333333332803,1.5245,1.586,37.298,29.317,37.354,34.439,56.132,34.5385,59.242,51.900999999999996,54.061,33.723,57.8585,50.248,53.233000000000004,33.3005,57.811,49.668,0.006000000000000227,-0.15050000000000008,0.10347500000000001,0.105755,0.0,207.055,206.925,203.97,203.97,0.0,0.0
5,0.0,0.0,0.0,1.0,1.0,0.0,0.0,1.0,0.0,0.0,1.0,1.1856,26.0,0.0,0.0,0.0,59.999996,0.0,26.0,26.0,26.0,26.0,-0.15500000000000003,0.3043,-0.03645,293.93,-2.679,-2.7555555555555555,-1.5108000000000001,-1.6237,-259.18,215.945,190.891,0.0,0.0,0.0,0.0,0.011199999999999988,-5.498166666666667,-5.498166666666667,-0.5391,0.4086666666666667,-0.08087500000000025,-0.597,66.235,-0.10759999999999992,-0.217875,1.5939999999999994,100.0,1.0,1.0,204.5,0.0,0.0,0.0,0.0,0.0,0.0,0.0,8668.0,0.0,55.0,5.0,238.41333333333333,1.0,0.0,0.0,0.0,0.0,0.0,0.0,0.0,0.254999999999999,0.254999999999999,0.0,0.0,1.0,55.0,616.79921,10000.0,85.000001,85.000001,85.000001,85.000001,395.0,0.0,0.0,0.0,1.0,333.33500000000004,53.574,53.574,49.393,49.393,34.0,-30.372500000000002,17.488000000000003,-34.25333333333333,20.525,0.0,1783.243,0.5350000000000001,100.0,27.569,26.512999999999998,42.467,41.037,0.0,0.0,100.0,0.0,0.0,0.0,0.0,3238.0,2769.0,4078.375,3913.8,305.086,305.897,314.972,315.12475,21.817625,20.5357,21.827111111111112,21.3589,314.999998,314.999998,324.999988,324.999988,99.55867142857143,99.50716666666666,99.566,99.546,-0.050000000000000044,-0.17299999999999993,-0.252,-0.025666666666666615,-0.054999999999999716,-0.026666666666670835,1.5685,1.6325,37.36,29.3485,37.419,34.492999999999995,56.119,34.581,59.281,51.957,54.049,33.7615,57.894999999999996,50.3015,53.22,33.3375,57.845,49.720666666666666,-0.021499999999999853,-0.12349999999999994,0.10644,0.10762500000000001,0.0,207.54000000000002,207.37,204.5,204.5,0.0,0.0
6,0.0,0.0,0.0,1.0,1.0,0.0,0.0,1.0,0.0,0.0,1.0,1.1856,26.0,0.0,0.0,0.0,59.999996,0.0,26.0,26.0,26.0,26.0,-0.1631111111111111,0.2975000000000001,0.0229,293.579,-2.624,-2.811111111111111,-1.5321,-1.5916000000000001,-256.0,215.9475,190.8715,0.0,0.0,0.0,0.0,0.013033333333333341,-5.498166666666667,-5.498166666666667,-0.5264,0.057,-0.08524999999999983,-0.915,66.374,-0.11599999999999999,-0.20465,1.4079999999999995,100.0,1.0,1.0,204.79333333333335,0.0,0.0,0.0,0.0,0.0,0.0,0.0,8680.4,0.0,55.0,5.0,238.91666666666669,0.0,0.0,0.0,0.0,0.0,0.0,0.0,0.0,0.3030000000000008,0.3030000000000008,0.0,0.0,0.0,55.0,616.79921,10000.0,85.000001,85.000001,85.000001,85.000001,395.0,0.0,0.0,0.0,1.0,333.33500000000004,53.497,53.497,48.629999999999995,48.629999999999995,34.0,-30.2425,17.936,-36.376666666666665,21.15,0.0,1783.194,0.6350000000000016,100.0,27.567,26.511,42.695,41.254,0.0,0.0,100.0,0.0,0.0,0.0,0.0,3249.4285714285716,2778.4,4294.0,3997.2,305.0625,305.81225,314.43225,314.89,21.826999999999998,20.5405,21.837,21.3673,314.999998,314.999998,324.999988,324.999988,99.55867142857143,99.50718333333333,99.56614285714285,99.54612857142857,-0.05624999999999991,-0.17699999999999994,-0.23960000000000004,-0.020166666666666555,-0.04833333333333201,-0.02833333333332888,1.526,1.5725,37.419,29.378,37.480999999999995,34.546,56.107,34.62,59.320499999999996,52.0145,54.036,33.7975,57.932,50.3565,53.207,33.372,57.879,49.77433333333333,-0.022499999999999964,-0.12150000000000016,0.10461500000000001,0.110655,0.0,207.95,207.82999999999998,204.79333333333335,204.79333333333335,0.0,0.0
7,0.0,0.0,0.0,1.0,1.0,0.0,0.0,1.0,0.0,0.0,1.0,1.1856,26.0,0.0,0.0,0.0,59.999996,0.0,26.0,26.0,26.0,26.0,-0.13588888888888895,0.2893000000000001,0.0292,293.396,-2.5854,-2.812333333333333,-1.4889000000000001,-1.6399,-252.61,215.945,190.851,0.0,0.0,0.0,0.0,0.014999999999999902,-5.498166666666667,-5.498166666666667,-0.5362,0.018333333333333333,-0.07450000000000001,1.0539999999999998,66.519,-0.11349999999999993,-0.223725,1.1280000000000001,100.0,1.0,1.0,205.28,0.0,0.0,0.0,0.0,0.0,0.0,0.0,8701.0,0.0,55.0,5.0,239.44,1.0,0.0,0.0,0.0,0.0,0.0,0.0,0.0,0.3539999999999992,0.3539999999999992,0.0,0.0,1.0,55.0,616.79921,10000.0,85.000001,85.000001,85.000001,85.000001,395.0,0.0,0.0,0.0,1.0,166.665,52.963,52.963,48.92,48.92,34.0,-28.3575,20.522,-33.39333333333333,22.6875,0.0,1783.146,0.15000000000000213,100.0,28.038,26.545,42.92,41.373000000000005,0.0,0.0,100.0,0.0,0.0,0.0,0.0,3221.285714285714,2961.6,4071.0,3999.7,304.9015,305.3615,314.85125,314.9125,21.837,20.5456,21.847555555555555,21.3763,314.999998,314.999998,324.999988,324.999988,99.55867142857143,99.5072,99.56628571428571,99.54627142857143,-0.018750000000000044,-0.1446666666666666,-0.23039999999999994,-0.002666666666666595,-0.04333333333332945,-0.05666666666667197,1.5075,1.5695000000000001,37.480999999999995,29.41,37.547,34.602000000000004,56.094,34.662,59.3615,52.074,54.024,33.836,57.9705,50.414,53.194,33.408500000000004,57.914500000000004,49.830333333333336,-0.06099999999999994,-0.08800000000000008,0.101735,0.11622500000000001,0.0,208.38,208.29000000000002,205.28,205.28,0.0,0.0
8,0.0,0.0,0.0,1.0,1.0,0.0,0.0,1.0,0.0,0.0,1.0,1.1856,26.0,0.0,0.0,0.0,59.999996,0.0,26.0,26.0,26.0,26.0,-0.10255555555555551,0.2854000000000001,0.0008,293.503,-2.67,-2.743444444444444,-1.4688,-1.6298,-249.21,215.94,190.830375,0.0,0.0,0.0,0.0,0.016999999999999904,-5.498166666666667,-5.498166666666667,-0.5357000000000001,-0.4036666666666667,-0.06349999999999989,-0.79,66.66499999999999,-0.10029999999999994,-0.21660000000000001,0.6720000000000006,100.0,1.0,1.0,205.66333333333333,0.0,0.0,0.0,0.0,0.0,0.0,0.0,8717.3,0.0,55.0,5.0,239.96333333333334,0.0,0.0,0.0,0.0,0.0,0.0,0.0,0.0,0.40500000000000114,0.40500000000000114,0.0,0.0,0.0,55.0,616.79921,10000.0,85.000001,85.000001,85.000001,85.000001,395.0,0.0,0.0,0.0,1.0,333.33500000000004,53.619,53.619,48.325,48.325,34.0,-27.57,19.31,-33.72333333333333,23.91,0.0,1783.094,0.06500000000000128,100.0,27.491,26.698,42.906,41.598,0.0,0.0,100.0,0.0,0.0,0.0,0.0,3117.142857142857,2845.1,4215.25,4036.6000000000004,305.4735,305.65625,314.58425,314.72175,21.84675,20.5506,21.85811111111111,21.3852,314.999998,314.999998,324.999988,324.999988,99.55868571428572,99.50721666666666,99.56642857142857,99.54641428571429,-0.01574999999999993,-0.1386666666666666,-0.21639999999999993,0.013000000000000123,-0.05833333333333002,-0.02833333333332888,1.5055,1.5170000000000001,37.542,29.441499999999998,37.613,34.658,56.078,34.7025,59.4025,52.134,54.009,33.8735,58.009,50.4715,53.178,33.4445,57.95,49.88633333333333,-0.07299999999999995,-0.07799999999999985,0.10748500000000001,0.10813500000000001,0.0,208.805,208.765,205.66333333333333,205.66333333333333,0.0,0.0
9,0.0,0.0,0.0,1.0,1.0,0.0,0.0,1.0,0.0,0.0,1.0,1.1856,26.0,0.0,0.0,0.0,59.999996,0.0,26.0,26.0,26.0,26.0,-0.08911111111111103,0.2842,-0.012425,293.32,-2.5925,-2.763333333333333,-1.5244,-1.5827,-246.01,215.9325,190.810625,0.0,0.0,0.0,0.0,0.01883333333333337,-5.498166666666667,-5.498166666666667,-0.5399,0.48533333333333334,-0.0691250000000001,-0.42799999999999994,66.799,-0.08349999999999991,-0.216,0.5280000000000005,100.0,1.0,1.0,206.17333333333335,0.0,0.0,0.0,0.0,0.0,0.0,0.0,8738.9,0.0,55.0,5.0,240.44666666666666,1.0,0.0,0.0,0.0,0.0,0.0,0.0,0.0,0.4529999999999994,0.4529999999999994,0.0,0.0,1.0,55.0,616.79921,10000.0,85.000001,85.000001,85.000001,85.000001,395.0,0.0,0.0,0.0,1.0,166.665,52.75,52.75,49.164,49.164,34.0,-28.665,20.698,-32.10333333333334,23.2275,0.0,1783.047,-0.08999999999999986,100.0,27.878,26.906,42.649,41.535,0.0,0.0,100.0,0.0,0.0,0.0,0.0,3375.142857142857,2906.2,4071.0,3985.2,304.6095,305.41925,314.97075,314.95475,21.856125,20.5556,21.868,21.3936,314.999998,314.999998,324.999988,324.999988,99.55868571428572,99.50723333333333,99.56657142857142,99.54654285714285,0.005749999999999922,-0.1223333333333334,-0.2026,0.025333333333333208,-0.03999999999999915,-0.04999999999999716,1.5574999999999999,1.5755000000000001,37.601,29.472,37.675,34.71,56.065,34.7415,59.439,52.189,53.995999999999995,33.9095,58.042500000000004,50.524,53.165,33.4785,57.981,49.937666666666665,-0.0814999999999999,-0.06850000000000023,0.10636500000000002,0.11166500000000001,0.0,209.24,209.19,206.17333333333335,206.17333333333335,0.0,0.0
10,0.0,0.0,0.0,1.0,1.0,0.0,0.0,1.0,0.0,0.0,1.0,1.1856,26.0,0.0,0.0,0.0,59.999996,0.0,26.0,26.0,26.0,26.0,-0.06911111111111101,0.29410000000000003,0.03685,293.182,-2.6576,-2.7545555555555556,-1.4946000000000002,-1.5767,-242.6,215.9225,190.789875,0.0,0.0,0.0,0.0,0.02083333333333337,-5.498166666666667,-5.498166666666667,-0.5213,-0.39566666666666667,-0.03200000000000003,1.801,66.945,-0.06399999999999995,-0.20665,0.1039999999999992,100.0,1.0,1.0,206.44666666666666,0.0,0.0,0.0,0.0,0.0,0.0,0.0,8750.5,0.0,55.0,5.0,240.97333333333333,0.0,0.0,0.0,0.0,0.0,0.0,1.0,0.0,0.5040000000000013,0.5040000000000013,0.0,0.0,0.0,55.0,616.79921,10000.0,85.000001,85.000001,85.000001,85.000001,395.0,0.0,0.0,0.0,1.0,166.665,53.543,53.543,47.974000000000004,47.974000000000004,34.0,-24.14,21.19,-32.343333333333334,27.085,0.0,1782.995,-0.23000000000000043,100.0,27.903,26.759,43.068,41.994,0.0,0.0,100.0,0.0,0.0,0.0,0.0,2938.285714285714,2898.4,4237.25,4270.1,305.822,305.67025,314.43075,314.27825,21.865875,20.5607,21.878666666666668,21.4027,314.999998,314.999998,324.999988,324.999988,99.5587,99.50725,99.56671428571428,99.54668571428572,0.028999999999999915,-0.09966666666666657,-0.1724,0.05499999999999994,-0.02499999999999858,-0.06499999999999773,1.4745,1.495,37.662,29.5045,37.741,34.766999999999996,56.05,34.7805,59.4805,52.251,53.982,33.945499999999996,58.0815,50.5835,53.15,33.513,58.016999999999996,49.996,-0.08999999999999986,-0.05650000000000022,0.10909,0.10661000000000001,0.0,209.66500000000002,209.655,206.44666666666666,206.44666666666666,0.0,0.0
11,0.0,0.0,0.0,1.0,1.0,0.0,0.0,1.0,0.0,0.0,1.0,1.1856,26.0,0.0,0.0,0.0,59.999996,0.0,26.0,26.0,26.0,26.0,-0.032333333333333325,0.28090000000000015,-0.09055,293.671,-2.6734,-2.7313333333333336,-1.5538,-1.5636999999999999,-239.18,215.91,190.769125,0.0,0.0,0.0,0.0,0.022599999999999953,-5.498166666666667,-5.498166666666667,-0.5566,-0.232,-0.008624999999999883,-0.5350000000000001,67.08500000000001,-0.04159999999999997,-0.23245000000000002,0.007999999999999119,100.0,1.0,1.0,207.12666666666667,0.0,0.0,0.0,0.0,0.0,0.0,0.0,8779.3,0.0,55.0,5.0,241.4766666666667,1.0,0.0,0.0,0.0,0.0,0.0,1.0,0.0,0.5549999999999997,0.5549999999999997,0.0,0.0,1.0,55.0,616.79921,10000.0,85.000001,85.000001,85.000001,85.000001,395.0,0.0,0.0,0.0,1.0,333.33500000000004,53.162,53.162,49.286,49.286,34.0,-25.645,22.452,-27.983333333333334,24.195,0.0,1782.944,-0.3000000000000007,100.0,27.467,27.067,42.6,42.071,0.0,0.0,100.0,0.0,0.0,0.0,0.0,3167.5714285714284,2974.5,3809.75,3852.7,305.326,305.219,315.60825,315.25725,21.8755,20.566,21.889,21.4117,314.999998,314.999998,324.999988,324.999988,99.5587,99.50726666666667,99.56685714285715,99.54682857142858,0.04300000000000015,-0.08566666666666656,-0.16300000000000003,0.07200000000000006,-0.06833333333332803,-0.036666666666668846,1.6065,1.6115,37.722,29.5375,37.807,34.823,56.034,34.82,59.5165,52.31,53.967,33.982,58.115,50.6405,53.134,33.548,58.048,50.05166666666666,-0.09749999999999992,-0.058499999999999996,0.11189500000000001,0.104135,0.0,210.10000000000002,210.06,207.12666666666667,207.12666666666667,0.0,0.0
12,0.0,0.0,0.0,1.0,1.0,0.0,0.0,1.0,0.0,0.0,1.0,1.1856,26.0,0.0,0.0,0.0,59.999996,0.0,26.0,26.0,26.0,26.0,-0.02300000000000002,0.28370000000000006,0.013925,293.198,-2.7309,-2.7153333333333336,-1.5243,-1.5789,-235.96,215.9,190.7485,0.0,0.0,0.0,0.0,0.025466666666666526,-5.498166666666667,-5.498166666666667,-0.5447000000000001,0.29,-0.015750000000000153,-0.7749999999999999,67.221,-0.022399999999999975,-0.204925,-0.05799999999999894,100.0,1.0,1.0,207.36333333333334,0.0,0.0,0.0,0.0,0.0,0.0,0.0,8789.4,0.0,55.0,5.0,241.96666666666667,0.0,0.0,0.0,0.0,0.0,0.0,1.0,0.0,0.602999999999998,0.602999999999998,0.0,0.0,0.0,55.0,616.79921,10000.0,85.000001,85.000001,85.000001,85.000001,395.0,0.0,0.0,0.0,1.0,166.665,53.055,53.055,48.248,48.248,34.0,-26.345,22.56,-29.843333333333334,27.61,0.0,1782.896,-0.1999999999999993,100.0,27.377,27.22,42.443,42.042,0.0,0.0,100.0,0.0,0.0,0.0,0.0,3196.5714285714284,3011.8,4229.875,4105.6,305.2555,305.118,314.61125,314.6415,21.8845,20.571,21.898888888888887,21.420099999999998,314.999998,314.999998,324.999988,324.999988,99.55871428571429,99.50726666666667,99.567,99.54695714285714,0.045250000000000234,-0.08766666666666656,-0.12839999999999996,0.09016666666666673,-0.054999999999999716,-0.036666666666668846,1.541,1.528,37.778,29.5685,37.867999999999995,34.876000000000005,56.019999999999996,34.857,59.5525,52.366,53.954,34.016,58.1485,50.694,53.120000000000005,33.5805,58.0785,50.10433333333333,-0.08599999999999985,-0.06700000000000017,0.10198000000000002,0.10809500000000001,0.0,210.53,210.515,207.36333333333334,207.36333333333334,0.0,0.0
13,0.0,0.0,0.0,1.0,1.0,0.0,0.0,1.0,0.0,0.0,1.0,1.1856,26.0,0.0,0.0,0.0,59.999996,0.0,26.0,26.0,26.0,26.0,-0.009777777777777774,0.2862,0.050125,292.725,-2.6965,-2.7190000000000003,-1.5538,-1.574,-232.53,215.885,190.726625,0.0,0.0,0.0,0.0,0.026699999999999946,-5.498166666666667,-5.498166666666667,-0.5381,-0.09,-0.015124999999999833,1.0419999999999998,67.364,-0.014399999999999968,-0.211875,-0.12600000000000033,100.0,1.0,1.0,207.74333333333334,0.0,0.0,0.0,0.0,0.0,0.0,0.0,8805.4,0.0,55.0,5.0,242.48000000000002,1.0,0.0,0.0,0.0,0.0,0.0,1.0,0.0,0.6539999999999999,0.6539999999999999,0.0,0.0,1.0,55.0,616.79921,10000.0,85.000001,85.000001,85.000001,85.000001,395.0,0.0,0.0,0.0,1.0,333.33500000000004,52.673,52.673,48.019,48.019,34.0,-23.9175,24.808,-29.880000000000003,29.7425,0.0,1782.844,-0.4549999999999983,100.0,27.895,27.306,42.839,42.422,0.0,0.0,100.0,0.0,0.0,0.0,0.0,3137.142857142857,3095.7,4192.875,4292.4,305.2315,305.034,314.57325,314.25225,21.89425,20.5764,21.909444444444446,21.4293,314.999998,314.999998,324.999988,324.999988,99.55871428571429,99.50726666666667,99.56712857142857,99.5471,0.08700000000000019,-0.046666666666666634,-0.12079999999999991,0.1016666666666668,-0.02833333333332888,-0.05833333333333002,1.507,1.494,37.839,29.6025,37.934,34.933,56.007,34.8965,59.592,52.4285,53.942,34.052,58.1855,50.754,53.105999999999995,33.615,58.1125,50.163,-0.10999999999999988,-0.044500000000000206,0.11041000000000001,0.10815500000000002,0.0,210.95,210.94,207.74333333333334,207.74333333333334,0.0,0.0
14,0.0,0.0,0.0,1.0,1.0,0.0,0.0,1.0,0.0,0.0,1.0,1.1856,26.0,0.0,0.0,0.0,59.999996,0.0,26.0,26.0,26.0,26.0,0.0031111111111110645,0.26360000000000006,-0.013625,292.892,-2.6929,-2.660333333333333,-1.5607,-1.5509,-228.88,215.8725,190.704,0.0,0.0,0.0,0.0,0.028799999999999937,-5.498166666666667,-5.498166666666667,-0.5496,-0.09733333333333333,0.01200000000000001,1.236,67.512,-0.00539999999999996,-0.22685000000000002,-0.24600000000000044,100.0,1.0,1.0,208.29333333333335,0.0,0.0,0.0,0.0,0.0,0.0,0.0,8828.8,0.0,55.0,5.0,243.01333333333332,0.0,0.0,0.0,0.0,0.0,0.0,1.0,0.0,0.7079999999999984,0.7079999999999984,0.0,0.0,0.0,55.0,616.79921,10000.0,85.000001,85.000001,85.000001,85.000001,395.0,0.0,0.0,0.0,1.0,166.665,52.673,52.673,48.218,48.218,34.0,-22.935,25.458,-27.673333333333332,29.3125,0.0,1782.792,-0.3550000000000004,100.0,27.903,27.512999999999998,42.82,42.666,0.0,0.0,100.0,0.0,0.0,0.0,0.0,3005.857142857143,3188.8,3981.125,4159.8,305.605,304.7495,315.11225,314.57775,21.904375,20.5821,21.920444444444446,21.4389,314.999998,314.999998,324.999988,324.999988,99.55872857142857,99.50728333333333,99.56728571428572,99.54725714285715,0.08274999999999988,-0.03933333333333333,-0.11320000000000008,0.123,-0.046666666666666856,-0.02833333333332888,1.529,1.5230000000000001,37.903,29.637999999999998,38.003,34.992999999999995,55.994,34.937,59.6315,52.493,53.928,34.0895,58.222,50.816,53.092,33.650999999999996,58.146,50.22366666666667,-0.09850000000000003,-0.047499999999999876,0.10707000000000001,0.11088,0.0,211.4,211.4,208.29333333333335,208.29333333333335,0.0,0.0
15,0.0,0.0,0.0,1.0,1.0,0.0,0.0,1.0,0.0,0.0,1.0,1.1856,26.0,0.0,0.0,0.0,59.999996,0.0,26.0,26.0,26.0,26.0,0.016888888888888953,0.2885,0.009250000000000001,292.816,-2.6974,-2.6814444444444443,-1.5846,-1.4952,-225.64,215.86,190.683625,0.0,0.0,0.0,0.0,0.03069999999999995,-5.498166666666667,-5.498166666666667,-0.5402,0.2876666666666667,0.03587499999999988,0.8109999999999999,67.644,0.0048000000000001375,-0.209125,-0.3120000000000003,100.0,1.0,1.0,208.65333333333334,0.0,0.0,0.0,0.0,0.0,0.0,0.0,8844.1,0.0,55.0,5.0,243.49,1.0,0.0,0.0,0.0,0.0,0.0,1.0,0.0,0.7560000000000002,0.7560000000000002,0.0,0.0,1.0,55.0,616.79921,10000.0,85.000001,85.000001,85.000001,85.000001,395.0,0.0,0.0,0.0,1.0,166.665,52.811,52.811,48.126,48.126,34.0,-21.5775,25.137999999999998,-27.28333333333333,30.990000000000002,0.0,1782.743,-0.28000000000000114,100.0,27.904,27.599,42.665,42.812,0.0,0.0,100.0,0.0,0.0,0.0,0.0,2911.142857142857,3140.5,4009.0,4362.3,305.902,304.8035,315.07425,314.112,21.9135,20.5872,21.930222222222223,21.447499999999998,314.999998,314.999998,324.999988,324.999988,99.55872857142857,99.5073,99.56741428571429,99.5474,0.09624999999999995,-0.04366666666666663,-0.09499999999999997,0.13683333333333336,-0.03333333333333144,-0.05833333333333002,1.5285,1.518,37.959,29.67,38.064,35.047,55.982,34.9735,59.6655,52.551,53.917,34.1235,58.2535,50.872,53.08,33.683,58.1745,50.278333333333336,-0.10450000000000004,-0.053999999999999826,0.099275,0.11211000000000002,0.0,211.825,211.845,208.65333333333334,208.65333333333334,0.0,0.0
16,0.0,0.0,0.0,1.0,1.0,0.0,0.0,1.0,0.0,0.0,1.0,1.1856,26.0,0.0,0.0,0.0,59.999996,0.0,26.0,26.0,26.0,26.0,0.008777777777777773,0.2741,-0.0253,292.847,-2.7557,-2.633,-1.56,-1.5542,-222.39,215.8475,190.662875,0.0,0.0,0.0,0.0,0.03256666666666652,-5.498166666666667,-5.498166666666667,-0.5563,-0.6666666666666666,0.021749999999999936,0.16500000000000004,67.776,0.011600000000000055,-0.22287500000000002,-0.29000000000000004,100.0,1.0,1.0,209.06333333333333,0.0,0.0,0.0,0.0,0.0,0.0,0.0,8861.4,0.0,55.0,5.0,243.96666666666667,0.0,0.0,0.0,0.0,0.0,0.0,1.0,0.0,0.8039999999999985,0.8039999999999985,0.0,0.0,0.0,55.0,616.79921,10000.0,85.000001,85.000001,85.000001,85.000001,395.0,0.0,0.0,0.0,1.0,166.665,52.841,52.841,47.836,47.836,34.0,-23.3825,25.272,-27.336666666666666,29.8775,0.0,1782.695,-0.19000000000000128,100.0,27.518,27.578,42.968,42.929,0.0,0.0,100.0,0.0,0.0,0.0,0.0,3027.285714285714,3198.9,4008.25,4143.1,305.665,304.7495,315.0515,314.548,21.92225,20.5924,21.94022222222222,21.4561,314.999998,314.999998,324.999988,324.999988,99.55874285714286,99.5073,99.56755714285714,99.54752857142857,0.08674999999999988,-0.03933333333333333,-0.10299999999999998,0.13400000000000012,-0.03499999999999659,-0.04833333333333201,1.5394999999999999,1.5250000000000001,38.013999999999996,29.701999999999998,38.126000000000005,35.101,55.967,35.0095,59.702,52.608000000000004,53.903,34.1565,58.288,50.9265,53.065,33.715,58.206,50.332,-0.08799999999999986,-0.06099999999999994,0.11588000000000001,0.10805000000000001,0.0,212.19,212.215,209.06333333333333,209.06333333333333,0.0,0.0
17,0.0,0.0,0.0,1.0,1.0,0.0,0.0,1.0,0.0,0.0,1.0,1.1856,26.0,0.0,0.0,0.0,59.999996,0.0,26.0,26.0,26.0,26.0,0.0067777777777777715,0.2875000000000001,0.0086,292.648,-2.7153,-2.618333333333333,-1.5943,-1.5216,-218.93,215.835,190.6405,0.0,0.0,0.0,0.0,0.034599999999999964,-5.498166666666667,-5.498166666666667,-0.5494,0.4136666666666667,-0.006625000000000103,-0.859,67.91499999999999,0.008499999999999952,-0.20620000000000002,0.006000000000000227,100.0,1.0,1.0,209.48333333333335,0.0,0.0,0.0,0.0,0.0,0.0,0.0,8879.2,0.0,55.0,5.0,244.46333333333334,1.0,0.0,0.0,0.0,0.0,0.0,1.0,0.0,0.8550000000000004,0.8550000000000004,0.0,0.0,1.0,55.0,616.79921,10000.0,85.000001,85.000001,85.000001,85.000001,395.0,0.0,0.0,0.0,1.0,333.33500000000004,52.582,52.582,47.943,47.943,34.0,-24.740000000000002,23.084000000000003,-30.116666666666667,28.79,0.0,1782.643,-0.21000000000000085,100.0,27.85,27.895,42.666,42.883,0.0,0.0,100.0,0.0,0.0,0.0,0.0,3200.5714285714284,2989.1,4262.0,4159.7,305.274,305.2285,314.58425,314.55375,21.932,20.5979,21.950555555555557,21.4652,314.999998,314.999998,324.999988,324.999988,99.55875714285715,99.5073,99.5677,99.54767142857143,0.0794999999999999,-0.04799999999999993,-0.10839999999999994,0.12016666666666675,-0.060000000000002274,-0.03999999999999915,1.521,1.5295,38.075,29.7365,38.191,35.157,55.955,35.049,59.738,52.667500000000004,53.891999999999996,34.193,58.3215,50.984,53.053,33.75,58.2365,50.388333333333335,-0.08850000000000002,-0.0625,0.105315,0.11009500000000001,0.0,212.685,212.66500000000002,209.48333333333335,209.48333333333335,0.0,0.0
18,0.0,0.0,0.0,1.0,1.0,0.0,0.0,1.0,0.0,0.0,1.0,1.1856,26.0,0.0,0.0,0.0,59.999996,0.0,26.0,26.0,26.0,26.0,0.003666666666666707,0.27280000000000015,-0.020775000000000002,292.572,-2.7392,-2.6,-1.5991,-1.4755,-215.67000000000002,215.8225,190.619375,0.0,0.0,0.0,0.0,0.03649999999999998,-5.498166666666667,-5.498166666666667,-0.5581,-0.5246666666666666,0.007249999999999979,-0.31000000000000005,68.04599999999999,0.0041999999999999815,-0.21912500000000001,0.023999999999999133,100.0,1.0,1.0,209.87333333333333,0.0,0.0,0.0,0.0,0.0,0.0,0.0,8895.8,0.0,55.0,5.0,244.93666666666667,0.0,0.0,0.0,0.0,0.0,0.0,1.0,0.0,0.9029999999999987,0.9029999999999987,0.0,0.0,0.0,55.0,616.79921,10000.0,85.000001,85.000001,85.000001,85.000001,395.0,0.0,0.0,0.0,1.0,333.33500000000004,52.521,52.521,47.745,47.745,34.0,-25.174999999999997,24.146,-29.606666666666662,27.47,0.0,1782.594,-0.254999999999999,100.0,27.697,27.745,43.032,43.194,0.0,0.0,100.0,0.0,0.0,0.0,0.0,3217.0,3139.7,4149.875,4129.5,305.282,304.82375,314.82075,314.6225,21.940875,20.603,21.960444444444445,21.4739,314.999998,314.999998,324.999988,324.999988,99.55875714285715,99.50731666666667,99.56782857142858,99.5478,0.0767500000000001,-0.04933333333333334,-0.11520000000000008,0.11183333333333323,-0.04999999999999716,-0.03999999999999915,1.524,1.534,38.131,29.7685,38.253,35.212,55.942,35.0845,59.7745,52.726,53.879000000000005,34.2255,58.3555,51.04,53.04,33.7815,58.2675,50.443,-0.09199999999999986,-0.05600000000000005,0.10171500000000001,0.11037500000000001,0.0,213.055,213.04000000000002,209.87333333333333,209.87333333333333,0.0,0.0
19,0.0,0.0,0.0,1.0,1.0,0.0,0.0,1.0,0.0,0.0,1.0,1.1856,26.0,0.0,0.0,0.0,59.999996,0.0,26.0,26.0,26.0,26.0,-0.009444444444444478,0.2935000000000001,0.041600000000000005,291.992,-2.6508,-2.5933333333333333,-1.6132,-1.4633,-212.19,215.81,190.59675,0.0,0.0,0.0,0.0,0.03849999999999998,-5.498166666666667,-5.498166666666667,-0.552,0.811,0.01637500000000003,0.764,68.18299999999999,0.0029000000000001247,-0.21227500000000002,-0.137999999999999,100.0,1.0,1.0,210.28,0.0,0.0,0.0,0.0,0.0,0.0,0.0,8913.0,0.0,55.0,5.0,245.43,1.0,0.0,0.0,0.0,0.0,0.0,1.0,0.0,0.9540000000000006,0.9540000000000006,0.0,0.0,1.0,55.0,616.79921,10000.0,85.000001,85.000001,85.000001,85.000001,395.0,0.0,0.0,0.0,1.0,166.665,51.682,51.682,47.577,47.577,34.0,-23.3125,25.91,-29.866666666666667,29.7975,0.0,1782.546,-0.23499999999999943,100.0,28.486,28.155,42.951,43.079,0.0,0.0,100.0,0.0,0.0,0.0,0.0,3153.285714285714,3300.8,4215.875,4379.7,305.1065,304.373,314.6595,314.1405,21.950625,20.6086,21.970777777777776,21.483,314.999998,314.999998,324.999988,324.999988,99.55877142857143,99.50731666666667,99.56797142857143,99.54795714285714,0.09699999999999998,-0.03933333333333333,-0.1047999999999999,0.12166666666666681,-0.041666666666671404,-0.06333333333333258,1.5205,1.5090000000000001,38.191,29.804000000000002,38.318,35.269,55.931,35.125,59.81,52.786,53.869,34.2635,58.3885,51.0985,53.028,33.817499999999995,58.298,50.50033333333333,-0.09899999999999998,-0.06000000000000005,0.10485000000000001,0.10512,0.0,213.495,213.5,210.28,210.28,0.0,0.0
20,0.0,0.0,0.0,1.0,1.0,0.0,0.0,1.0,0.0,0.0,1.0,1.1856,26.0,0.0,0.0,0.0,59.999996,0.0,26.0,26.0,26.0,26.0,0.009222222222222243,0.27449999999999997,-0.01135,292.313,-2.7509,-2.656,-1.5361,-1.5854,-208.70999999999998,215.8,190.574375,0.0,0.0,0.0,0.0,0.04053333333333331,-5.498166666666667,-5.498166666666667,-0.5523,-1.0076666666666667,0.010375000000000023,-1.013,68.32300000000001,0.006099999999999994,-0.221175,-0.08799999999999919,100.0,1.0,1.0,210.59333333333333,0.0,0.0,0.0,0.0,0.0,0.0,0.0,8926.3,0.0,55.0,5.0,245.93333333333334,0.0,0.0,0.0,0.0,0.0,0.0,0.0,0.0,1.004999999999999,1.004999999999999,0.0,0.0,0.0,55.0,616.79921,10000.0,85.000001,85.000001,85.000001,85.000001,395.0,0.0,0.0,0.0,1.0,333.33500000000004,52.826,52.826,46.967,46.967,34.0,-23.5475,23.212,-29.71333333333333,30.5675,0.0,1782.493,-0.10999999999999943,100.0,27.806,27.976,43.443,43.599000000000004,0.0,0.0,100.0,0.0,0.0,0.0,0.0,3024.714285714286,3005.9,4263.625,4228.9,305.8305,305.144,314.4725,314.19825,21.959875,20.614,21.981444444444445,21.4923,314.999998,314.999998,324.999988,324.999988,99.55878571428572,99.50731666666667,99.56812857142857,99.5481,0.07699999999999996,-0.05799999999999994,-0.10760000000000003,0.1156666666666668,-0.04833333333333201,-0.036666666666668846,1.4565,1.471,38.25,29.838,38.384,35.327,55.916,35.1635,59.8505,52.849000000000004,53.855000000000004,34.2985,58.4265,51.158500000000004,53.013,33.851,58.332499999999996,50.559333333333335,-0.09499999999999997,-0.0665,0.102705,0.10346500000000002,0.0,213.9,213.89499999999998,210.59333333333333,210.59333333333333,0.0,0.0
21,0.0,0.0,0.0,1.0,1.0,0.0,0.0,1.0,0.0,0.0,1.0,1.1856,26.0,0.0,0.0,0.0,59.999996,0.0,26.0,26.0,26.0,26.0,0.016444444444444484,0.27380000000000004,-0.07552500000000001,292.74,-2.6634,-2.715,-1.6021,-1.5465,-205.43,215.7875,190.55275,0.0,0.0,0.0,0.0,0.04243333333333332,-5.498166666666667,-5.498166666666667,-0.5768,0.3306666666666667,-0.005749999999999922,-0.8770000000000002,68.447,0.0024999999999999467,-0.22512500000000002,0.02200000000000024,100.0,1.0,1.0,211.23333333333335,0.0,0.0,0.0,0.0,0.0,0.0,0.0,8953.4,0.0,55.0,5.0,246.38,1.0,0.0,0.0,0.0,0.0,0.0,0.0,0.0,1.0530000000000008,1.0530000000000008,0.0,0.0,1.0,55.0,616.79921,10000.0,85.000001,85.000001,85.000001,85.000001,395.0,0.0,0.0,0.0,1.0,333.33500000000004,52.429,52.429,48.325,48.325,34.0,-24.125,23.84,-28.086666666666666,27.06,0.0,1782.445,-0.16999999999999815,100.0,28.016,28.024,42.934,43.144,0.0,0.0,100.0,0.0,0.0,0.0,0.0,3171.714285714286,3007.6,4012.75,3965.2,305.2895,305.09075,315.2065,315.05425,21.968875,20.6193,21.99111111111111,21.500799999999998,314.999998,314.999998,324.999988,324.999988,99.55878571428572,99.50731666666667,99.56827142857144,99.54824285714285,0.07900000000000018,-0.05666666666666664,-0.11339999999999995,0.1156666666666668,-0.061666666666667425,-0.03499999999999659,1.579,1.58,38.306,29.8705,38.444,35.379999999999995,55.905,35.2005,59.8815,52.9025,53.843,34.333,58.4555,51.210499999999996,53.001000000000005,33.884,58.3585,50.61,-0.09050000000000002,-0.06499999999999995,0.10916500000000001,0.10733000000000001,0.0,214.32,214.29500000000002,211.23333333333335,211.23333333333335,0.0,0.0
22,0.0,0.0,0.0,1.0,1.0,0.0,0.0,1.0,0.0,0.0,1.0,1.1856,26.0,0.0,0.0,0.0,59.999996,0.0,26.0,26.0,26.0,26.0,0.007111111111111068,0.26670000000000016,-0.0063750000000000005,292.221,-2.6394,-2.723111111111111,-1.595,-1.534,-201.93,215.7775,190.529,0.0,0.0,0.0,0.0,0.04446666666666654,-5.498166666666667,-5.498166666666667,-0.5571,0.133,0.004124999999999934,1.254,68.586,-0.0010000000000000009,-0.20405,-0.02799999999999958,100.0,1.0,1.0,211.44333333333333,0.0,0.0,0.0,0.0,0.0,0.0,0.0,8962.4,0.0,55.0,5.0,246.88,0.0,0.0,0.0,0.0,0.0,0.0,0.0,0.0,1.1039999999999992,1.1039999999999992,0.0,0.0,0.0,55.0,616.79921,10000.0,85.000001,85.000001,85.000001,85.000001,395.0,0.0,0.0,0.0,1.0,333.33500000000004,52.429,52.429,47.211,47.211,34.0,-21.855,24.978,-30.166666666666664,30.5925,0.0,1782.393,-0.245000000000001,100.0,28.302,27.976,43.32,43.223,0.0,0.0,100.0,0.0,0.0,0.0,0.0,2949.4285714285716,3105.1,4215.5,4349.3,305.724,304.9155,314.592,314.19475,21.978375,20.6248,22.001666666666665,21.509999999999998,314.999998,314.999998,324.999988,324.999988,99.5588,99.50733333333334,99.56841428571428,99.5484,0.08800000000000008,-0.04966666666666664,-0.11039999999999994,0.11966666666666681,-0.03833333333332689,-0.03999999999999915,1.4875,1.493,38.364999999999995,29.905,38.51,35.437,55.891,35.242,59.923,52.968,53.83,34.371,58.494,51.272999999999996,52.986999999999995,33.921,58.394,50.67133333333334,-0.09299999999999997,-0.0625,0.10634500000000001,0.11242,0.0,214.745,214.73000000000002,211.44333333333333,211.44333333333333,0.0,0.0
23,0.0,0.0,0.0,1.0,1.0,0.0,0.0,1.0,0.0,0.0,1.0,1.1856,26.0,0.0,0.0,0.0,59.999996,0.0,26.0,26.0,26.0,26.0,0.02388888888888885,0.2570000000000001,-0.053700000000000005,292.221,-2.6801,-2.665111111111111,-1.5261,-1.5962,-198.43,215.765,190.5055,0.0,0.0,0.0,0.0,0.046499999999999986,-5.498166666666667,-5.498166666666667,-0.5758,-0.3,0.002375000000000016,-0.6430000000000002,68.719,-0.0043999999999999595,-0.230575,0.05400000000000027,100.0,1.0,1.0,211.97,0.0,0.0,0.0,0.0,0.0,0.0,0.0,8984.7,0.0,55.0,5.0,247.36333333333334,1.0,0.0,0.0,0.0,0.0,0.0,0.0,0.0,1.1550000000000011,1.1550000000000011,0.0,0.0,1.0,55.0,616.79921,10000.0,85.000001,85.000001,85.000001,85.000001,395.0,0.0,0.0,0.0,1.0,166.665,51.819,51.819,48.157,48.157,34.0,-25.4825,24.314,-26.906666666666666,28.255,0.0,1782.344,-0.28500000000000014,100.0,28.256,28.232,43.342,43.588,0.0,0.0,100.0,0.0,0.0,0.0,0.0,3363.285714285714,3076.7,3941.25,3998.9,304.8135,304.90675,315.256,314.8435,21.987875,20.6304,22.01211111111111,21.519199999999998,314.999998,314.999998,324.999988,324.999988,99.55881428571429,99.50735,99.56855714285714,99.54852857142858,0.08775000000000022,-0.04933333333333334,-0.11339999999999995,0.11266666666666669,-0.04333333333332945,-0.05666666666667197,1.525,1.528,38.424,29.939999999999998,38.576,35.495,55.879999999999995,35.278999999999996,59.957499999999996,53.0255,53.819,34.4055,58.525999999999996,51.3285,52.975,33.954,58.4235,50.72566666666667,-0.10850000000000004,-0.052000000000000046,0.1038,0.11389,0.0,215.14499999999998,215.125,211.97,211.97,0.0,0.0
24,0.0,0.0,0.0,1.0,1.0,0.0,0.0,1.0,0.0,0.0,1.0,1.1856,26.0,0.0,0.0,0.0,59.999996,0.0,26.0,26.0,26.0,26.0,0.0058888888888888324,0.2783,-0.033025,292.419,-2.7028,-2.674444444444444,-1.5671,-1.5375,-195.13,215.755,190.483,0.0,0.0,0.0,0.0,0.04843333333333333,-5.498166666666667,-5.498166666666667,-0.5798,-0.3576666666666667,0.010624999999999885,-0.2450000000000001,68.848,0.0009000000000001229,-0.21832500000000002,-0.12799999999999923,100.0,1.0,1.0,212.27666666666667,0.0,0.0,0.0,0.0,0.0,0.0,0.0,8997.6,0.0,55.0,5.0,247.82333333333332,0.0,0.0,0.0,0.0,0.0,0.0,0.0,0.0,1.2029999999999994,1.2029999999999994,0.0,0.0,0.0,55.0,616.79921,10000.0,85.000001,85.000001,85.000001,85.000001,395.0,0.0,0.0,0.0,1.0,333.33500000000004,52.856,52.856,47.256,47.256,34.0,-22.99,22.768,-31.11,28.4175,0.0,1782.295,-0.23999999999999844,100.0,28.065,27.983,43.292,43.488,0.0,0.0,100.0,0.0,0.0,0.0,0.0,3019.4285714285716,2928.8,4353.875,4136.7,305.7695,305.41775,314.3915,314.60625,21.99675,20.6355,22.02188888888889,21.5279,314.999998,314.999998,324.999988,324.999988,99.55882857142858,99.50735,99.5687,99.54867142857142,0.08174999999999999,-0.05499999999999994,-0.11760000000000004,0.11016666666666675,-0.036666666666668846,-0.05666666666667197,1.5045,1.5150000000000001,38.479,29.972,38.637,35.549,55.867000000000004,35.314499999999995,59.9925,53.082,53.807,34.4385,58.5585,51.382999999999996,52.962,33.985,58.4525,50.778666666666666,-0.10399999999999987,-0.05750000000000011,0.10953,0.10502500000000001,0.0,215.525,215.55,212.27666666666667,212.27666666666667,0.0,0.0
25,0.0,0.0,0.0,1.0,1.0,0.0,0.0,1.0,0.0,0.0,1.0,1.1856,26.0,0.0,0.0,0.0,59.999996,0.0,26.0,26.0,26.0,26.0,0.016111111111111187,0.2662,-0.039775000000000005,292.313,-2.7717,-2.6336666666666666,-1.5852,-1.5398,-191.41,215.7425,190.45625,0.0,0.0,0.0,0.0,0.05059999999999998,-5.498166666666667,-5.498166666666667,-0.609,0.013000000000000001,0.01550000000000007,-0.972,68.988,0.006099999999999994,-0.22307500000000002,-0.13399999999999945,100.0,1.0,1.0,212.82666666666665,0.0,0.0,0.0,0.0,0.0,0.0,0.0,9021.0,0.0,55.0,5.0,248.32999999999998,1.0,0.0,0.0,0.0,0.0,0.0,0.0,0.0,1.256999999999998,1.256999999999998,0.0,0.0,1.0,55.0,616.79921,10000.0,85.000001,85.000001,85.000001,85.000001,395.0,0.0,0.0,0.0,1.0,166.665,51.865,51.865,47.989,47.989,34.0,-26.2225,25.444000000000003,-27.346666666666664,27.8,0.0,1782.242,-0.21999999999999886,100.0,27.985,28.183,43.064,43.272,0.0,0.0,100.0,0.0,0.0,0.0,0.0,3320.285714285714,3249.0,3975.5,4052.6000000000004,304.9965,304.41625,315.25375,314.81075,22.0065,20.6414,22.032888888888888,21.5375,314.999998,314.999998,324.999988,324.999988,99.55884285714286,99.50735,99.56884285714285,99.54882857142857,0.08199999999999985,-0.05166666666666664,-0.10599999999999998,0.11433333333333318,-0.061666666666667425,-0.036666666666668846,1.5635,1.555,38.541,30.009,38.706,35.61,55.852000000000004,35.3565,60.028999999999996,53.1435,53.793,34.477000000000004,58.5925,51.442,52.947,34.022,58.4835,50.836666666666666,-0.09699999999999998,-0.0625,0.10376500000000001,0.10037000000000001,0.0,215.98000000000002,215.98000000000002,212.82666666666665,212.82666666666665,0.0,0.0
26,0.0,0.0,0.0,1.0,1.0,0.0,0.0,1.0,0.0,0.0,1.0,1.1856,26.0,0.0,0.0,0.0,59.999996,0.0,26.0,26.0,26.0,26.0,0.006444444444444475,0.26900000000000013,0.0702,291.26,-2.7236,-2.7062222222222223,-1.6326,-1.5317,-188.1,215.73250000000002,190.432,0.0,0.0,0.0,0.0,0.05249999999999999,-5.498166666666667,-5.498166666666667,-0.5741,0.7193333333333334,-0.0003750000000000142,-0.7970000000000002,69.116,0.010099999999999998,-0.198525,-0.1200000000000001,100.0,1.0,1.0,212.9766666666667,0.0,0.0,0.0,0.0,0.0,0.0,0.0,9027.3,0.0,55.0,5.0,248.79000000000002,0.0,0.0,0.0,0.0,0.0,0.0,0.0,0.0,1.3049999999999997,1.3049999999999997,0.0,0.0,0.0,55.0,616.79921,10000.0,85.000001,85.000001,85.000001,85.000001,395.0,0.0,0.0,0.0,1.0,333.33500000000004,51.407,51.407,46.417,46.417,34.0,-24.9625,24.694000000000003,-33.47333333333333,32.230000000000004,0.0,1782.193,-0.259999999999998,100.0,28.784,28.837,43.444,43.647,0.0,0.0,100.0,0.0,0.0,0.0,0.0,3268.142857142857,3067.4,4572.5,4464.3,305.0195,304.83675,313.875,313.81425,22.015625,20.6469,22.04277777777778,21.5463,314.999998,314.999998,324.999988,324.999988,99.55885714285715,99.50736666666667,99.569,99.54897142857143,0.09250000000000025,-0.04999999999999993,-0.10360000000000003,0.12416666666666676,-0.061666666666667425,-0.04333333333332945,1.4515,1.4325,38.597,30.043,38.768,35.664,55.843,35.3955,60.0655,53.201499999999996,53.784,34.513,58.626999999999995,51.498,52.937,34.0565,58.5145,50.891333333333336,-0.10699999999999998,-0.058499999999999996,0.10333,0.110255,0.0,216.41500000000002,216.405,212.9766666666667,212.9766666666667,0.0,0.0
27,0.0,0.0,0.0,1.0,1.0,0.0,0.0,1.0,0.0,0.0,1.0,1.1856,26.0,0.0,0.0,0.0,59.999996,0.0,26.0,26.0,26.0,26.0,0.020888888888888957,0.24429999999999996,-0.0322,291.748,-2.6889,-2.673,-1.625,-1.6029,-184.57,215.7225,190.4075,0.0,0.0,0.0,0.0,0.05456666666666654,-5.498166666666667,-5.498166666666667,-0.5978,-1.0266666666666668,0.006249999999999867,0.722,69.248,0.010499999999999954,-0.24272500000000002,-0.2320000000000002,100.0,1.0,1.0,213.49,0.0,0.0,0.0,0.0,0.0,0.0,0.0,9049.1,0.0,55.0,5.0,249.26666666666665,1.0,0.0,0.0,0.0,0.0,0.0,0.0,0.0,1.355999999999998,1.355999999999998,0.0,0.0,1.0,55.0,616.79921,10000.0,85.000001,85.000001,85.000001,85.000001,395.0,0.0,0.0,0.0,1.0,166.665,51.894999999999996,51.894999999999996,46.677,46.677,34.0,-22.037499999999998,26.158,-28.776666666666664,29.94,0.0,1782.143,-0.3099999999999987,100.0,28.611,28.506,44.194,44.192,0.0,0.0,100.0,0.0,0.0,0.0,0.0,3012.285714285714,3208.0,4092.875,4086.3,305.624,304.7075,314.8585,314.70675,22.024875,20.6525,22.053444444444445,21.5557,314.999998,314.999998,324.999988,324.999988,99.55887142857142,99.50736666666667,99.56914285714285,99.54911428571428,0.10524999999999984,-0.031000000000000028,-0.09539999999999993,0.1283333333333332,-0.03833333333332689,-0.05833333333333002,1.501,1.4985,38.655,30.078,38.834,35.723,55.83,35.4345,60.105000000000004,53.263999999999996,53.772,34.549,58.6635,51.558,52.924,34.091,58.548,50.95,-0.10499999999999998,-0.052999999999999936,0.10701500000000001,0.10036,0.0,216.745,216.76,213.49,213.49,0.0,0.0
28,0.0,0.0,0.0,1.0,1.0,0.0,0.0,1.0,0.0,0.0,1.0,1.1856,26.0,0.0,0.0,0.0,59.999996,0.0,26.0,26.0,26.0,26.0,0.016000000000000014,0.2663,-0.049725000000000005,291.992,-2.7037,-2.6724444444444444,-1.5699,-1.5679,-181.24,215.7125,190.383625,0.0,0.0,0.0,0.0,0.056499999999999995,-5.498166666666667,-5.498166666666667,-0.605,0.613,-0.0016250000000002096,0.6499999999999999,69.37,0.014000000000000012,-0.221525,-0.21799999999999908,100.0,1.0,1.0,214.0,0.0,0.0,0.0,0.0,0.0,0.0,0.0,9070.7,0.0,55.0,5.0,249.70333333333335,0.0,0.0,0.0,0.0,0.0,0.0,0.0,0.0,1.404,1.404,0.0,0.0,0.0,55.0,616.79921,10000.0,85.000001,85.000001,85.000001,85.000001,395.0,0.0,0.0,0.0,1.0,333.33500000000004,51.727000000000004,51.727000000000004,47.775,47.775,34.0,-23.357499999999998,25.586,-26.386666666666663,29.837500000000002,0.0,1782.093,-0.28500000000000014,100.0,28.728,28.451,43.507,43.676,0.0,0.0,100.0,0.0,0.0,0.0,0.0,3146.0,3180.4,3975.875,4128.6,305.248,304.76,315.2155,314.72625,22.03375,20.6578,22.063111111111112,21.5642,314.999998,314.999998,324.999988,324.999988,99.55887142857142,99.50738333333334,99.56927142857143,99.54925714285714,0.10400000000000009,-0.039000000000000035,-0.08879999999999999,0.13566666666666682,-0.030000000000001137,-0.06666666666666998,1.56,1.5425,38.711,30.1115,38.894,35.775999999999996,55.82,35.4715,60.1355,53.317499999999995,53.762,34.5835,58.692,51.61,52.913,34.124,58.573499999999996,51.00066666666667,-0.10749999999999993,-0.06300000000000017,0.10119500000000001,0.11408000000000001,0.0,217.16,217.2,214.0,214.0,0.0,0.0
29,0.0,0.0,0.0,1.0,1.0,0.0,0.0,1.0,0.0,0.0,1.0,1.1856,26.0,0.0,0.0,0.0,59.999996,0.0,26.0,26.0,26.0,26.0,0.0301111111111112,0.25540000000000007,0.053725,291.626,-2.6645,-2.7106666666666666,-1.5727,-1.5458,-177.7,215.7025,190.35725,0.0,0.0,0.0,0.0,0.058566666666666545,-5.498166666666667,-5.498166666666667,-0.6038,-0.657,0.0008749999999999591,-0.637,69.505,0.014000000000000012,-0.2141,-0.20999999999999996,100.0,1.0,1.0,214.19666666666666,0.0,0.0,0.0,0.0,0.0,0.0,0.0,9079.1,0.0,55.0,5.0,250.19,1.0,0.0,0.0,0.0,0.0,0.0,0.0,0.0,1.4549999999999983,1.4549999999999983,0.0,0.0,1.0,55.0,616.79921,10000.0,85.000001,85.000001,85.000001,85.000001,395.0,0.0,0.0,0.0,1.0,333.33500000000004,52.016999999999996,52.016999999999996,46.555,46.555,34.0,-22.925,25.668,-30.21333333333333,30.400000000000002,0.0,1782.043,-0.370000000000001,100.0,28.19,28.445,43.769,44.066,0.0,0.0,100.0,0.0,0.0,0.0,0.0,3156.285714285714,3110.9,4290.75,4274.0,305.395,304.73925,314.434,314.2345,22.042875,20.6634,22.073666666666668,21.5736,314.999998,314.999998,324.999988,324.999988,99.55888571428571,99.50738333333334,99.56942857142857,99.54941428571429,0.1027499999999999,-0.03733333333333333,-0.10279999999999989,0.11783333333333323,-0.03833333333332689,-0.045000000000001705,1.4655,1.4645000000000001,38.768,30.146,38.96,35.835,55.806,35.5095,60.175,53.3795,53.748999999999995,34.6185,58.7285,51.6695,52.899,34.1575,58.6065,51.05866666666667,-0.11399999999999988,-0.04800000000000004,0.10508500000000001,0.10774,0.0,217.555,217.555,214.19666666666666,214.19666666666666,0.0,0.0
30,0.0,0.0,0.0,1.0,1.0,0.0,0.0,1.0,0.0,0.0,1.0,1.1856,26.0,0.0,0.0,0.0,59.999996,0.0,26.0,26.0,26.0,26.0,0.03588888888888886,0.26070000000000015,0.03835,291.138,-2.7185,-2.598,-1.549,-1.6035,-174.36,215.695,190.33225,0.0,0.0,0.0,0.0,0.0605,-5.498166666666667,-5.498166666666667,-0.6071000000000001,0.7576666666666666,-0.0021249999999999325,-0.8570000000000002,69.626,0.016599999999999948,-0.221525,-0.26399999999999935,100.0,1.0,1.0,214.67000000000002,0.0,0.0,0.0,0.0,0.0,0.0,0.0,9099.1,0.0,55.0,5.0,250.62666666666667,0.0,0.0,0.0,0.0,0.0,0.0,1.0,0.0,1.5030000000000001,1.5030000000000001,0.0,0.0,0.0,55.0,616.79921,10000.0,85.000001,85.000001,85.000001,85.000001,395.0,0.0,0.0,0.0,1.0,166.665,50.644,50.644,47.089,47.089,34.0,-25.755,25.497999999999998,-27.71333333333333,31.145,0.0,1781.996,-0.3249999999999993,100.0,28.995,29.189,43.636,44.089,0.0,0.0,100.0,0.0,0.0,0.0,0.0,3430.857142857143,3220.9,4175.125,4180.3,304.5155,304.334,314.7905,314.4255,22.051875,20.6689,22.083444444444446,21.5823,314.999998,314.999998,324.999988,324.999988,99.5589,99.5074,99.56957142857142,99.54954285714285,0.10625000000000018,-0.042333333333333334,-0.08599999999999997,0.13200000000000012,-0.04333333333332945,-0.04999999999999716,1.509,1.4825,38.824,30.180999999999997,39.021,35.888999999999996,55.798,35.549,60.207,53.4355,53.741,34.655,58.7585,51.7235,52.89,34.192499999999995,58.6335,51.111333333333334,-0.11499999999999999,-0.059499999999999886,0.09718,0.11243000000000002,0.0,217.945,217.97,214.67000000000002,214.67000000000002,0.0,0.0
31,0.0,0.0,0.0,1.0,1.0,0.0,0.0,1.0,0.0,0.0,1.0,1.1856,26.0,0.0,0.0,0.0,59.999996,0.0,26.0,26.0,26.0,26.0,0.007333333333333414,0.25460000000000016,0.0317,290.924,-2.7597,-2.5873333333333335,-1.5924,-1.5039,-170.81,215.6875,190.306375,0.0,0.0,0.0,0.0,0.06256666666666655,-5.498166666666667,-5.498166666666667,-0.5881000000000001,-0.5336666666666666,0.00550000000000006,0.659,69.759,0.018199999999999994,-0.218375,-0.30600000000000005,100.0,1.0,1.0,214.92666666666668,0.0,0.0,0.0,0.0,0.0,0.0,0.0,9110.0,0.0,55.0,5.0,251.10666666666668,1.0,0.0,0.0,0.0,0.0,0.0,1.0,0.0,1.5539999999999985,1.5539999999999985,0.0,0.0,1.0,55.0,616.79921,10000.0,85.000001,85.000001,85.000001,85.000001,395.0,0.0,0.0,0.0,1.0,166.665,51.391999999999996,51.391999999999996,45.532,45.532,34.0,-22.6325,26.336,-30.476666666666667,31.91,0.0,1781.945,-0.379999999999999,100.0,28.951999999999998,28.968,44.458,44.685,0.0,0.0,100.0,0.0,0.0,0.0,0.0,3081.857142857143,3320.6,4357.625,4323.5,305.56,304.49125,314.17475,314.1445,22.06125,20.6747,22.09411111111111,21.5918,314.999998,314.999998,324.999988,324.999988,99.55892857142857,99.5074,99.56971428571428,99.5497,0.11699999999999999,-0.029333333333333322,-0.08860000000000001,0.14666666666666672,-0.02833333333332888,-0.06499999999999773,1.453,1.4325,38.882999999999996,30.217,39.088,35.949,55.787,35.589,60.247,53.4985,53.730000000000004,34.692,58.795500000000004,51.784,52.878,34.228,58.667500000000004,51.171,-0.11050000000000004,-0.05650000000000022,0.10622000000000001,0.115985,0.0,218.335,218.375,214.92666666666668,214.92666666666668,0.0,0.0
32,0.0,0.0,0.0,1.0,1.0,0.0,0.0,1.0,0.0,0.0,1.0,1.1856,26.0,0.0,0.0,0.0,59.999996,0.0,26.0,26.0,26.0,26.0,0.032777777777777795,0.26849999999999996,-0.0315,291.245,-2.7157,-2.6851111111111114,-1.6434000000000002,-1.5095,-167.24,215.68,190.280875,0.0,0.0,0.0,0.0,0.06463333333333332,-5.498166666666667,-5.498166666666667,-0.6057,-0.074,-0.020375000000000032,-1.0870000000000002,69.886,0.022199999999999998,-0.2283,-0.33200000000000074,100.0,1.0,1.0,215.45666666666668,0.0,0.0,0.0,0.0,0.0,0.0,0.0,9132.4,0.0,55.0,5.0,251.56333333333333,0.0,0.0,0.0,0.0,0.0,0.0,1.0,0.0,1.6050000000000004,1.6050000000000004,0.0,0.0,0.0,55.0,616.79921,10000.0,85.000001,85.000001,85.000001,85.000001,395.0,0.0,0.0,0.0,1.0,166.665,51.361000000000004,51.361000000000004,46.524,46.524,34.0,-24.182499999999997,25.162,-29.47,30.25,0.0,1781.894,-0.3249999999999993,100.0,28.789,29.145,44.187,44.562,0.0,0.0,100.0,0.0,0.0,0.0,0.0,3264.5714285714284,3098.2,4236.375,4226.7,305.111,304.85125,314.7115,314.49725,22.0705,20.6805,22.104444444444443,21.601,314.999998,314.999998,324.999988,324.999988,99.55894285714285,99.5074,99.56985714285715,99.54985714285715,0.10575000000000001,-0.03866666666666663,-0.08839999999999992,0.1393333333333333,-0.041666666666671404,-0.04999999999999716,1.5385,1.5090000000000001,38.941,30.253,39.153,36.006,55.775999999999996,35.6295,60.282,53.5575,53.72,34.729,58.828,51.841,52.866,34.2635,58.697,51.226333333333336,-0.11149999999999993,-0.05449999999999999,0.106645,0.109395,0.0,218.735,218.76,215.45666666666668,215.45666666666668,0.0,0.0
33,0.0,0.0,0.0,1.0,1.0,0.0,0.0,1.0,0.0,0.0,1.0,1.1856,26.0,0.0,0.0,0.0,59.999996,0.0,26.0,26.0,26.0,26.0,0.034222222222222154,0.2529000000000001,-0.034525,291.428,-2.7257,-2.6806666666666668,-1.5866,-1.5902,-163.89,215.675,190.25575,0.0,0.0,0.0,0.0,0.06659999999999999,-5.498166666666667,-5.498166666666667,-0.614,-0.328,-0.01637500000000003,0.09499999999999997,70.008,0.02059999999999995,-0.2167,-0.17799999999999905,100.0,1.0,1.0,215.8,0.0,0.0,0.0,0.0,0.0,0.0,0.0,9147.0,0.0,55.0,5.0,252.00333333333333,1.0,0.0,0.0,0.0,0.0,0.0,1.0,0.0,1.6529999999999987,1.6529999999999987,0.0,0.0,1.0,55.0,616.79921,10000.0,85.000001,85.000001,85.000001,85.000001,395.0,0.0,0.0,0.0,1.0,333.33500000000004,51.743,51.743,46.57,46.57,34.0,-23.015,24.576,-28.79,31.0825,0.0,1781.844,-0.370000000000001,100.0,28.692,28.936,44.11,44.479,0.0,0.0,100.0,0.0,0.0,0.0,0.0,3147.4285714285716,3045.5,4196.75,4220.1,305.47,305.0435,314.70675,314.44675,22.079250000000002,20.6857,22.11422222222222,21.6098,314.999998,314.999998,324.999988,324.999988,99.55895714285714,99.5074,99.57,99.54998571428571,0.11125000000000007,-0.03933333333333333,-0.09160000000000001,0.13200000000000012,-0.04999999999999716,-0.051666666666669414,1.508,1.4985,38.995000000000005,30.286,39.214,36.061,55.765,35.664500000000004,60.3155,53.6135,53.709,34.7615,58.8595,51.8945,52.855000000000004,34.2945,58.725,51.278666666666666,-0.11499999999999999,-0.051000000000000156,0.10351,0.11087000000000001,0.0,219.125,219.13,215.8,215.8,0.0,0.0
34,0.0,0.0,0.0,1.0,1.0,0.0,0.0,1.0,0.0,0.0,1.0,1.1856,26.0,0.0,0.0,0.0,59.999996,0.0,26.0,26.0,26.0,26.0,0.026000000000000023,0.25280000000000014,-0.06455,291.58,-2.6579,-2.6764444444444444,-1.646,-1.5589,-160.31,215.66750000000002,190.227875,0.0,0.0,0.0,0.0,0.06866666666666654,-5.498166666666667,-5.498166666666667,-0.6415000000000001,-0.7193333333333334,0.010750000000000037,0.865,70.137,0.020299999999999985,-0.22410000000000002,-0.23599999999999977,100.0,1.0,1.0,216.19666666666666,0.0,0.0,0.0,0.0,0.0,0.0,0.0,9163.7,0.0,55.0,5.0,252.46333333333334,0.0,0.0,0.0,0.0,0.0,0.0,1.0,0.0,1.7040000000000006,1.7040000000000006,0.0,0.0,0.0,55.0,616.79921,10000.0,85.000001,85.000001,85.000001,85.000001,395.0,0.0,0.0,0.0,1.0,333.33500000000004,51.894999999999996,51.894999999999996,47.119,47.119,34.0,-21.8925,25.232,-28.25,31.375,0.0,1781.794,-0.33999999999999986,100.0,28.668,28.563,43.958,44.47,0.0,0.0,100.0,0.0,0.0,0.0,0.0,3059.4285714285716,3089.1,4089.625,4253.2,305.51,304.94725,314.95875,314.37925,22.0885,20.6913,22.124666666666666,21.6191,314.999998,314.999998,324.999988,324.999988,99.55895714285714,99.5074,99.57015714285714,99.55014285714286,0.11149999999999993,-0.031333333333333324,-0.08199999999999996,0.14149999999999996,-0.03999999999999915,-0.03999999999999915,1.504,1.51,39.053,30.3205,39.278999999999996,36.119,55.753,35.701,60.3495,53.674,53.698,34.795500000000004,58.891,51.953,52.842,34.3275,58.7535,51.33566666666667,-0.10749999999999993,-0.05549999999999988,0.10505,0.10774500000000001,0.0,219.495,219.495,216.19666666666666,216.19666666666666,0.0,0.0
35,0.0,0.0,0.0,1.0,1.0,0.0,0.0,1.0,0.0,0.0,1.0,1.1856,26.0,0.0,0.0,0.0,59.999996,0.0,26.0,26.0,26.0,26.0,0.02022222222222214,0.24530000000000007,-0.065,291.656,-2.7173,-2.623333333333333,-1.6223,-1.5186000000000002,-156.51999999999998,215.6625,190.19625,0.0,0.0,0.0,0.0,0.07086666666666652,-5.498166666666667,-5.498166666666667,-0.6827000000000001,-0.2813333333333333,-0.007624999999999993,-0.1030000000000002,70.271,0.022399999999999975,-0.2326,-0.30799999999999894,100.0,1.0,1.0,216.68333333333334,0.0,0.0,0.0,0.0,0.0,0.0,0.0,9184.5,0.0,55.0,5.0,252.95,1.0,0.0,0.0,0.0,0.0,0.0,1.0,0.0,1.7579999999999991,1.7579999999999991,0.0,0.0,1.0,55.0,616.79921,10000.0,85.000001,85.000001,85.000001,85.000001,395.0,0.0,0.0,0.0,1.0,166.665,51.513999999999996,51.513999999999996,46.783,46.783,34.0,-22.865,27.512,-27.21666666666666,28.655,0.0,1781.741,-0.23000000000000043,100.0,28.447,28.773,43.824,43.974000000000004,0.0,0.0,100.0,0.0,0.0,0.0,0.0,3096.0,3397.9,4021.875,4021.3,305.442,304.11275,315.06025,314.95175,22.098,20.697400000000002,22.135555555555555,21.6288,314.999998,314.999998,324.999988,324.999988,99.55898571428571,99.50741666666667,99.57031428571429,99.5503,0.1080000000000001,-0.031333333333333324,-0.08020000000000005,0.14066666666666672,-0.036666666666668846,-0.04833333333333201,1.541,1.53,39.113,30.359,39.347,36.18,55.738,35.743,60.3855,53.7335,53.684,34.8345,58.9245,52.0105,52.827,34.3645,58.783500000000004,51.391999999999996,-0.09949999999999992,-0.06400000000000006,0.10398500000000001,0.09910500000000001,0.0,219.925,219.94,216.68333333333334,216.68333333333334,0.0,0.0
