,ABS Active,ABS Enabled,AID Allow Tire Blankets,AID Auto Blip,AID Auto Clutch,AID Auto Shift,AID Fuel Rate,AID Ideal Line,AID Mech Damage,AID Stability,AID Tire Wear Rate,Air Density,Air Temp,Ballast,Best Lap Delta,Best Lap Time,Brake Bias,Brake Pos,Brake Temp FL,Brake Temp FR,Brake Temp RL,Brake Temp RR,CG Accel Lateral,CG Accel Longitudinal,CG Accel Vertical,CG Height,Camber FL,Camber FR,Camber RL,Camber RR,Car Coord X,Car Coord Y,Car Coord Z,Car Damage Front,Car Damage Left,Car Damage Rear,Car Damage Right,Car Pos Norm,Caster FL,Caster FR,Chassis Pitch Angle,Chassis Pitch Rate,Chassis Roll Angle,Chassis Roll Rate,Chassis Velocity X,Chassis Velocity Y,Chassis Velocity Z,Chassis Yaw Rate,Clutch Pos,DRS Active,DRS Available,Drive Train Speed,ERS Heat Charging,ERS Is Charging,ERS Max Energy,ERS Power Level,ERS Recovery Level,Engine Brake Setting,Engine Limiter,Engine RPM,Flags,Fuel Level,Gear,Ground Speed,HR Sample Clock,In Pit,KERS Charge,KERS Deployed Energy,KERS Input,KERS Max Energy,LR Sample Clock,Lap Invalidated,Lap Time,Lap Time2,Last Lap Time,Last Sector Time,MR Sample Clock,Max Fuel,Max Power,Max RPM,Max Sus Travel FL,Max Sus Travel FR,Max Sus Travel RL,Max Sus Travel RR,Max Torque,Max Turbo Boost,Num Tires Off Track,Penalties Enabled,Position,Raw Data Sample Rate,Ride Height FL,Ride Height FR,Ride Height RL,Ride Height RR,Road Temp,Self Align Torque FL,Self Align Torque FR,Self Align Torque RL,Self Align Torque RR,Session Lap Count,Session Time Left,Steering Angle,Surface Grip,Suspension Travel FL,Suspension Travel FR,Suspension Travel RL,Suspension Travel RR,TC Active,TC Enabled,Throttle Pos,Tire Dirt Level FL,Tire Dirt Level FR,Tire Dirt Level RL,Tire Dirt Level RR,Tire Load FL,Tire Load FR,Tire Load RL,Tire Load RR,Tire Loaded Radius FL,Tire Loaded Radius FR,Tire Loaded Radius RL,Tire Loaded Radius RR,Tire Pressure FL,Tire Pressure FR,Tire Pressure RL,Tire Pressure RR,Tire Radius FL,Tire Radius FR,Tire Radius RL,Tire Radius RR,Tire Rubber Grip FL,Tire Rubber Grip FR,Tire Rubber Grip RL,Tire Rubber Grip RR,Tire Slip Angle FL,Tire Slip Angle FR,Tire Slip Angle RL,Tire Slip Angle RR,Tire Slip Ratio FL,Tire Slip Ratio FR,Tire Slip Ratio RL,Tire Slip Ratio RR,Tire Temp Core FL,Tire Temp Core FR,Tire Temp Core RL,Tire Temp Core RR,Tire Temp Inner FL,Tire Temp Inner FR,Tire Temp Inner RL,Tire Temp Inner RR,Tire Temp Middle FL,Tire Temp Middle FR,Tire Temp Middle RL,Tire Temp Middle RR,Tire Temp Outer FL,Tire Temp Outer FR,Tire Temp Outer RL,Tire Temp Outer RR,Toe In FL,Toe In FR,Toe In RL,Toe In RR,Turbo Boost,Wheel Angular Speed FL,Wheel Angular Speed FR,Wheel Angular Speed RL,Wheel Angular Speed RR,Wind Direction,Wind Speed
0,0.0,0.0,0.0,1.0,1.0,0.0,0.0,1.0,0.0,0.0,1.0,1.1856,26.0,0.0,0.0,0.0,59.99999,0.0,26.0,26.0,26.0,26.0,-0.09962499999999996,0.29610000000000003,0.07706666666666667,293.915,-2.6951,-2.677375,-1.4996,-1.5737,-275.47,216.28750000000002,190.98625,0.0,0.0,0.0,0.0,0.0017000000000000001,-5.498166666666667,-5.498166666666667,-0.5441,1.3083333333333336,-0.028125000000000178,-0.78,65.495,-0.06280000000000001,-0.2102,1.1159999999999997,100.0,1.0,1.0,202.21,0.0,0.0,0.0,0.0,0.0,0.0,0.0,8571.0,0.0,55.0,5.0,235.75,0.0,0.0,0.0,0.0,0.0,0.0,0.0,0.0,0.006000000000000227,0.006000000000000227,0.0,0.0,0.0,55.0,616.79921,10000.0,85.0,85.0,85.0,85.0,395.0,0.0,0.0,0.0,1.0,20.0,52.673,52.673,49.316,49.316,34.0,-26.66,22.992,-31.516666666666666,23.8425,0.0,1783.457,0.8449999999999989,100.0,27.781,26.977,40.829,40.328,0.0,0.0,100.0,0.0,0.0,0.0,0.0,2990.714285714286,3356.4,4167.375,3987.3,305.7555,304.15375,314.6975,314.89775,21.7726,20.5112,21.7773,21.3116,314.99999,314.99999,324.99998,324.99998,99.55855714285714,99.50721666666666,99.56534285714285,99.54508571428572,-0.01849999999999996,-0.1303333333333332,-0.17666666666666664,0.03966666666666674,-0.045000000000001705,-0.03499999999999659,1.5263333333333335,1.575,37.079,29.195,37.108000000000004,34.1975,56.162,34.442,59.106,51.56,54.091,33.6325,57.734,49.9225,53.268,33.213,57.699,49.349000000000004,-0.010499999999999954,-0.13400000000000012,0.1062,0.11167,0.0,205.265,205.14499999999998,202.21,202.21,0.0,0.0
1,0.0,0.0,0.0,1.0,1.0,0.0,0.0,1.0,0.0,0.0,1.0,1.1856,26.0,0.0,0.0,0.0,59.999996,0.0,26.0,26.0,26.0,26.0,-0.12049999999999994,0.2875000000000001,-0.0094,292.908,-2.6074,-2.79125,-1.5078,-1.5281,-271.93,216.285,190.965,0.0,0.0,0.0,0.0,0.0037666666666666664,-5.498166666666667,-5.498166666666667,-0.5054000000000001,-0.8723333333333333,-0.07799999999999985,-0.45999999999999996,65.65899999999999,-0.0736,-0.20875000000000002,1.4440000000000008,100.0,1.0,1.0,202.41333333333333,0.0,0.0,0.0,0.0,0.0,0.0,0.0,8579.6,0.0,55.0,5.0,236.33666666666667,1.0,0.0,0.0,0.0,0.0,0.0,0.0,0.0,0.05999999999999872,0.05999999999999872,0.0,0.0,1.0,55.0,616.79921,10000.0,85.000001,85.000001,85.000001,85.000001,395.0,0.0,0.0,0.0,1.0,166.665,53.314,53.314,48.37,48.37,34.0,-27.7225,18.122,-34.02333333333333,27.83,0.0,1783.403,0.9250000000000007,100.0,27.947,26.909,43.048,41.696,0.0,0.0,100.0,0.0,0.0,0.0,0.0,3109.857142857143,2724.0,4251.0,4629.4,305.289,306.161,314.403,313.2125,21.7832,20.5165,21.7887,21.3212,314.999998,314.999998,324.999988,324.999988,99.55857142857143,99.50723333333333,99.56551428571429,99.54524285714285,-0.028999999999999915,-0.15133333333333332,-0.1945,0.030166666666666675,-0.013333333333328312,-0.036666666666668846,1.4126666666666667,1.4665,37.144999999999996,29.228,37.18,34.2575,56.146,34.4845,59.153999999999996,51.6295,54.076,33.672,57.7785,49.989,53.251999999999995,33.251,57.7405,49.414,0.0,-0.14549999999999996,0.10409500000000001,0.11735500000000001,0.0,205.72500000000002,205.585,202.41333333333333,202.41333333333333,0.0,0.0
2,0.0,0.0,0.0,1.0,1.0,0.0,0.0,1.0,0.0,0.0,1.0,1.1856,26.0,0.0,0.0,0.0,59.999996,0.0,26.0,26.0,26.0,26.0,-0.15937499999999993,0.28600000000000003,-0.06303333333333334,293.594,-2.5848,-2.809375,-1.4793,-1.6204,-268.77,216.2775,190.94725,0.0,0.0,0.0,0.0,0.0056,-5.498166666666667,-5.498166666666667,-0.5477000000000001,0.2656666666666667,-0.05912499999999987,2.8240000000000003,65.791,-0.08800000000000001,-0.2518,1.6400000000000006,100.0,1.0,1.0,203.28,0.0,0.0,0.0,0.0,0.0,0.0,0.0,8616.3,0.0,55.0,5.0,236.82,0.0,0.0,0.0,0.0,0.0,0.0,0.0,0.0,0.10800000000000054,0.10800000000000054,0.0,0.0,0.0,55.0,616.79921,10000.0,85.000001,85.000001,85.000001,85.000001,395.0,0.0,0.0,0.0,1.0,166.665,52.368,52.368,50.034,50.034,34.0,-29.9,19.978,-30.38,20.8625,0.0,1783.355,0.7850000000000001,100.0,28.626,26.867,42.781,41.186,0.0,0.0,100.0,0.0,0.0,0.0,0.0,3298.285714285714,2978.4,3769.75,3761.3,304.609,305.4355,315.592,315.5915,21.7928,20.5212,21.7986,21.3294,314.999998,314.999998,324.999988,324.999988,99.55857142857143,99.50725,99.56564285714286,99.54535714285714,-0.03475000000000006,-0.15700000000000003,-0.24483333333333335,0.008000000000000007,-0.045000000000001705,-0.06499999999999773,1.6213333333333333,1.668,37.205,29.257333333333335,37.241,34.3085,56.135999999999996,34.5225,59.19,51.682,54.067,33.707,57.812,50.039500000000004,53.242000000000004,33.284,57.7715,49.46333333333333,-0.01749999999999996,-0.13050000000000006,0.11077000000000001,0.121135,0.0,206.155,206.03,203.28,203.28,0.0,0.0
3,0.0,0.0,0.0,1.0,1.0,0.0,0.0,1.0,0.0,0.0,1.0,1.1856,26.0,0.0,0.0,0.0,59.999996,0.0,26.0,26.0,26.0,26.0,-0.15074999999999994,0.2957000000000001,-0.05763333333333334,293.442,-2.7162,-2.701625,-1.5037,-1.6018,-265.42,216.26749999999998,190.927625,0.0,0.0,0.0,0.0,0.007566666666666668,-5.498166666666667,-5.498166666666667,-0.509,0.20833333333333326,-0.022625000000000117,-1.093,65.944,-0.09910000000000001,-0.20247500000000002,1.306000000000001,100.0,1.0,1.0,203.44,0.0,0.0,0.0,0.0,0.0,0.0,0.0,8623.1,0.0,55.0,5.0,237.36666666666667,1.0,0.0,0.0,0.0,0.0,0.0,0.0,0.0,0.15899999999999892,0.15899999999999892,0.0,0.0,1.0,55.0,616.79921,10000.0,85.000001,85.000001,85.000001,85.000001,395.0,0.0,0.0,0.0,1.0,166.665,53.65,53.65,48.05,48.05,34.0,-26.045,17.35,-36.00666666666666,23.755000000000003,0.0,1783.304,0.629999999999999,100.0,28.004,27.021,42.616,41.485,0.0,0.0,100.0,0.0,0.0,0.0,0.0,2847.0,2763.4,4331.625,4208.5,306.1575,305.85325,314.3065,314.3515,21.802599999999998,20.5263,21.8091,21.3383,314.999998,314.999998,324.999988,324.999988,99.55857142857143,99.50726666666667,99.56578571428571,99.54551428571429,-0.03624999999999989,-0.1653333333333331,-0.2283333333333334,-0.0024999999999999467,-0.041666666666671404,-0.04333333333332945,1.4913333333333334,1.5314999999999999,37.266,29.28933333333333,37.307,34.3645,56.120000000000005,34.5655,59.230000000000004,51.745,54.051,33.7465,57.8495,50.0995,53.226,33.322,57.806,49.522333333333336,-0.02949999999999997,-0.121,0.107685,0.10745,0.0,206.615,206.51999999999998,203.44,203.44,0.0,0.0
4,0.0,0.0,0.0,1.0,1.0,0.0,0.0,1.0,0.0,0.0,1.0,1.1856,26.0,0.0,0.0,0.0,59.999996,0.0,26.0,26.0,26.0,26.0,-0.14925,0.2948000000000002,-0.027100000000000003,293.64,-2.6536,-2.7535,-1.5186000000000002,-1.6073,-262.25,216.255,190.909125,0.0,0.0,0.0,0.0,0.0094,-5.498166666666667,-5.498166666666667,-0.5459,-0.6356666666666666,-0.08800000000000008,-1.611,66.081,-0.0969,-0.23750000000000002,1.234,100.0,1.0,1.0,204.03,0.0,0.0,0.0,0.0,0.0,0.0,0.0,8648.1,0.0,55.0,5.0,237.86333333333334,0.0,0.0,0.0,0.0,0.0,0.0,0.0,0.0,0.20700000000000074,0.20700000000000074,0.0,0.0,0.0,55.0,616.79921,10000.0,85.000001,85.000001,85.000001,85.000001,395.0,0.0,0.0,0.0,1.0,166.665,53.009,53.009,48.874,48.874,34.0,-30.252499999999998,18.594,-32.93,20.515,0.0,1783.256,0.5850000000000009,100.0,27.778,26.859,42.897,41.411,0.0,0.0,100.0,0.0,0.0,0.0,0.0,3309.0,2870.3,4073.875,3653.3,304.913,305.54125,314.8915,315.73,21.811799999999998,20.5311,21.8191,21.3466,314.999998,314.999998,324.999988,324.999988,99.55858571428571,99.5073,99.56592857142857,99.54564285714285,-0.03624999999999989,-0.16466666666666674,-0.22050000000000003,0.01200000000000001,-0.060000000000002274,-0.061666666666667425,1.5706666666666667,1.605,37.323,29.319333333333333,37.369,34.416,56.104,34.6045,59.269,51.7995,54.037,33.7825,57.885999999999996,50.152,53.211,33.3565,57.84,49.57366666666667,-0.03149999999999997,-0.1260000000000001,0.10516,0.11078500000000001,0.0,207.01999999999998,206.89,204.03,204.03,0.0,0.0
5,0.0,0.0,0.0,1.0,1.0,0.0,0.0,1.0,0.0,0.0,1.0,1.1856,26.0,0.0,0.0,0.0,59.999996,0.0,26.0,26.0,26.0,26.0,-0.14112499999999994,0.3228,0.0085,293.518,-2.6695,-2.767875,-1.5079,-1.5893000000000002,-258.67,216.235,190.8875,0.0,0.0,0.0,0.0,0.011466666666666668,-5.498166666666667,-5.498166666666667,-0.5331,0.29633333333333334,-0.08574999999999999,-0.19599999999999995,66.238,-0.0956,-0.211475,1.0579999999999998,100.0,1.0,1.0,204.40333333333334,0.0,0.0,0.0,0.0,0.0,0.0,0.0,8663.9,0.0,55.0,5.0,238.42333333333335,1.0,0.0,0.0,0.0,0.0,0.0,0.0,0.0,0.26099999999999923,0.26099999999999923,0.0,0.0,1.0,55.0,616.79921,10000.0,85.000001,85.000001,85.000001,85.000001,395.0,0.0,0.0,0.0,1.0,166.665,53.391,53.391,48.751999999999995,48.751999999999995,34.0,-28.740000000000002,18.57,-34.60666666666667,22.747500000000002,0.0,1783.203,0.18499999999999872,100.0,27.795,26.716,42.674,41.244,0.0,0.0,100.0,0.0,0.0,0.0,0.0,3215.857142857143,2773.9,4240.5,4075.0,305.162,305.89625,314.562,314.6995,21.8223,20.5365,21.8302,21.3559,314.999998,314.999998,324.999988,324.999988,99.55858571428571,99.50731666666667,99.56607142857143,99.54578571428571,-0.01924999999999999,-0.1479999999999999,-0.22299999999999998,0.0004999999999999449,-0.04833333333333201,-0.03833333333332689,1.5366666666666666,1.552,37.388999999999996,29.353,37.439,34.474000000000004,56.09,34.647999999999996,59.3115,51.8615,54.022999999999996,33.822,57.926,50.211,53.196,33.394,57.8775,49.63133333333333,-0.05699999999999994,-0.09450000000000003,0.10366,0.109795,0.0,207.535,207.42000000000002,204.40333333333334,204.40333333333334,0.0,0.0
6,0.0,0.0,0.0,1.0,1.0,0.0,0.0,1.0,0.0,0.0,1.0,1.1856,26.0,0.0,0.0,0.0,59.999996,0.0,26.0,26.0,26.0,26.0,-0.12749999999999995,0.3054000000000001,0.0064666666666666674,293.411,-2.6333,-2.801125,-1.55,-1.5866,-255.69,216.2175,190.869375,0.0,0.0,0.0,0.0,0.013233333333333335,-5.498166666666667,-5.498166666666667,-0.531,0.11099999999999999,-0.06487500000000024,0.9390000000000001,66.367,-0.0878,-0.215175,0.6940000000000008,100.0,1.0,1.0,204.81666666666666,0.0,0.0,0.0,0.0,0.0,0.0,0.0,8681.4,0.0,55.0,5.0,238.89,0.0,0.0,0.0,0.0,0.0,0.0,0.0,0.0,0.30600000000000094,0.30600000000000094,0.0,0.0,0.0,55.0,616.79921,10000.0,85.000001,85.000001,85.000001,85.000001,395.0,0.0,0.0,0.0,1.0,333.33500000000004,53.116,53.116,48.676,48.676,34.0,-26.4625,21.476,-32.31333333333333,23.3875,0.0,1783.156,-0.05000000000000071,100.0,27.895,26.728,42.843,41.474000000000004,0.0,0.0,100.0,0.0,0.0,0.0,0.0,3099.5714285714284,2970.8,4077.375,4048.4,305.2775,305.355,314.89,314.844,21.831,20.541,21.8395,21.3638,314.999998,314.999998,324.999988,324.999988,99.5586,99.50731666666667,99.5662,99.5459,0.007000000000000117,-0.11999999999999988,-0.19566666666666666,0.019166666666666554,-0.051666666666669414,-0.045000000000001705,1.5406666666666666,1.5625,37.443,29.381333333333334,37.497,34.5235,56.077,34.684,59.347,51.9155,54.01,33.855000000000004,57.959,50.263,53.183,33.426,57.9075,49.682,-0.06899999999999995,-0.07150000000000012,0.10220000000000001,0.10160500000000001,0.0,207.91,207.82999999999998,204.81666666666666,204.81666666666666,0.0,0.0
7,0.0,0.0,0.0,1.0,1.0,0.0,0.0,1.0,0.0,0.0,1.0,1.1856,26.0,0.0,0.0,0.0,59.999996,0.0,26.0,26.0,26.0,26.0,-0.08037499999999997,0.2904,0.021733333333333334,293.213,-2.6117,-2.750375,-1.5144000000000002,-1.6258,-252.3,216.1925,190.849,0.0,0.0,0.0,0.0,0.0152,-5.498166666666667,-5.498166666666667,-0.534,0.017000000000000126,-0.05325000000000024,-0.17899999999999994,66.512,-0.0688,-0.2242,0.386000000000001,100.0,1.0,1.0,205.24333333333334,0.0,0.0,0.0,0.0,0.0,0.0,0.0,8699.5,0.0,55.0,5.0,239.41666666666669,1.0,0.0,0.0,0.0,0.0,0.0,0.0,0.0,0.3569999999999993,0.3569999999999993,0.0,0.0,1.0,55.0,616.79921,10000.0,85.000001,85.000001,85.000001,85.000001,395.0,0.0,0.0,0.0,1.0,333.33500000000004,52.811,52.811,48.813,48.813,34.0,-26.8875,21.759999999999998,-31.513333333333335,24.759999999999998,0.0,1783.105,-0.1999999999999993,100.0,27.839,26.947,42.766,41.839,0.0,0.0,100.0,0.0,0.0,0.0,0.0,3261.0,2931.7,4074.125,4017.6000000000004,304.903,305.2845,314.913,314.77575,21.8408,20.5462,21.85,21.372700000000002,314.999998,314.999998,324.999988,324.999988,99.5586,99.50733333333334,99.56634285714286,99.54605714285714,0.025500000000000078,-0.09933333333333327,-0.18899999999999995,0.03600000000000003,-0.06666666666666998,-0.04833333333333201,1.5316666666666667,1.552,37.504999999999995,29.413666666666664,37.562,34.579499999999996,56.062,34.7235,59.3865,51.9765,53.995999999999995,33.8915,57.996,50.322,53.168,33.460499999999996,57.942,49.739333333333335,-0.09299999999999997,-0.052999999999999936,0.10461000000000001,0.10974,0.0,208.36,208.305,205.24333333333334,205.24333333333334,0.0,0.0
8,0.0,0.0,0.0,1.0,1.0,0.0,0.0,1.0,0.0,0.0,1.0,1.1856,26.0,0.0,0.0,0.0,59.999996,0.0,26.0,26.0,26.0,26.0,-0.03674999999999995,0.2782,-0.04156666666666667,293.503,-2.6977,-2.7205000000000004,-1.4982,-1.5759,-248.71,216.16500000000002,190.827125,0.0,0.0,0.0,0.0,0.017266666666666666,-5.498166666666667,-5.498166666666667,-0.538,-0.5756666666666667,-0.03500000000000014,-0.532,66.667,-0.046,-0.21795,-0.036000000000000476,100.0,1.0,1.0,205.67333333333335,0.0,0.0,0.0,0.0,0.0,0.0,0.0,8717.7,0.0,55.0,5.0,239.97,0.0,0.0,0.0,0.0,0.0,0.0,0.0,0.0,0.41100000000000136,0.41100000000000136,0.0,0.0,0.0,55.0,616.79921,10000.0,85.000001,85.000001,85.000001,85.000001,395.0,0.0,0.0,0.0,1.0,166.665,53.558,53.558,48.294,48.294,34.0,-24.53,22.218,-29.993333333333332,26.155,0.0,1783.053,-0.3249999999999993,100.0,27.33,26.903,42.724000000000004,41.966,0.0,0.0,100.0,0.0,0.0,0.0,0.0,3041.285714285714,2928.2,4106.75,4052.3,305.7325,305.3965,314.81325,314.69075,21.8509,20.5517,21.8611,21.3822,314.999998,314.999998,324.999988,324.999988,99.5586,99.50735,99.5665,99.5462,0.045250000000000234,-0.07766666666666677,-0.15616666666666656,0.06966666666666677,-0.036666666666668846,-0.03333333333333144,1.5336666666666665,1.53,37.568,29.448,37.632,34.638999999999996,56.045,34.763999999999996,59.4285,52.041,53.980000000000004,33.929,58.035,50.3835,53.150999999999996,33.496,57.9775,49.79966666666667,-0.10099999999999998,-0.045500000000000096,0.10733500000000001,0.108895,0.0,208.78,208.78,205.67333333333335,205.67333333333335,0.0,0.0
9,0.0,0.0,0.0,1.0,1.0,0.0,0.0,1.0,0.0,0.0,1.0,1.1856,26.0,0.0,0.0,0.0,59.999996,0.0,26.0,26.0,26.0,26.0,-0.03762500000000002,0.2944,0.0324,293.152,-2.6832,-2.72375,-1.5532,-1.5551,-245.7,216.14249999999998,190.8085,0.0,0.0,0.0,0.0,0.019033333333333336,-5.498166666666667,-5.498166666666667,-0.5405,0.688,-0.033500000000000085,0.823,66.792,-0.0269,-0.2144,-0.16000000000000014,100.0,1.0,1.0,206.16333333333333,0.0,0.0,0.0,0.0,0.0,0.0,0.0,8738.5,0.0,55.0,5.0,240.42333333333335,1.0,0.0,0.0,0.0,0.0,0.0,0.0,0.0,0.4559999999999995,0.4559999999999995,0.0,0.0,1.0,55.0,616.79921,10000.0,85.000001,85.000001,85.000001,85.000001,395.0,0.0,0.0,0.0,1.0,166.665,52.429,52.429,49.21,49.21,34.0,-25.775,24.462,-28.106666666666662,27.3075,0.0,1783.008,-0.5249999999999986,100.0,27.966,27.167,42.41,41.848,0.0,0.0,100.0,0.0,0.0,0.0,0.0,3288.5714285714284,3088.3,3986.75,4095.7,304.7775,305.007,315.18375,314.7565,21.8596,20.5564,21.8702,21.3901,314.999998,314.999998,324.999988,324.999988,99.55861428571428,99.50735,99.56662857142857,99.54632857142857,0.07275000000000009,-0.055333333333333234,-0.1303333333333333,0.09783333333333322,-0.04833333333333201,-0.06333333333333258,1.5756666666666668,1.5625,37.622,29.477666666666664,37.689,34.688,56.034,34.799,59.46,52.093,53.969,33.961,58.064499999999995,50.4335,53.138999999999996,33.527,58.0045,49.849000000000004,-0.11349999999999993,-0.03750000000000009,0.10372,0.10970500000000001,0.0,209.19,209.215,206.16333333333333,206.16333333333333,0.0,0.0
10,0.0,0.0,0.0,1.0,1.0,0.0,0.0,1.0,0.0,0.0,1.0,1.1856,26.0,0.0,0.0,0.0,59.999996,0.0,26.0,26.0,26.0,26.0,0.015625,0.2993000000000001,0.0473,293.06,-2.7023,-2.699625,-1.5382,-1.5447000000000002,-242.09,216.1125,190.786625,0.0,0.0,0.0,0.0,0.021133333333333334,-5.498166666666667,-5.498166666666667,-0.5219,-0.7963333333333333,0.013374999999999915,1.67,66.94800000000001,-0.0054,-0.20935,-0.532,100.0,1.0,1.0,206.43,0.0,0.0,0.0,0.0,0.0,0.0,0.0,8749.8,0.0,55.0,5.0,240.98333333333335,0.0,0.0,0.0,0.0,0.0,0.0,1.0,0.0,0.509999999999998,0.509999999999998,0.0,0.0,0.0,55.0,616.79921,10000.0,85.000001,85.000001,85.000001,85.000001,395.0,0.0,0.0,0.0,1.0,166.665,53.528,53.528,47.714,47.714,34.0,-20.835,24.146,-28.496666666666663,30.095,0.0,1782.953,-0.620000000000001,100.0,27.677,27.119,42.897999999999996,42.636,0.0,0.0,100.0,0.0,0.0,0.0,0.0,2825.5714285714284,2993.7,4186.75,4302.3,306.2195,305.38,314.55275,314.1715,21.869799999999998,20.562,21.8815,21.3998,314.999998,314.999998,324.999988,324.999988,99.55862857142857,99.50736666666667,99.56677142857143,99.54647142857142,0.0950000000000002,-0.03400000000000003,-0.09850000000000003,0.1120000000000001,-0.041666666666671404,-0.054999999999999716,1.5,1.4755,37.686,29.512666666666668,37.759,34.7485,56.019999999999996,34.8375,59.5035,52.161,53.956,33.997,58.1045,50.499,53.125,33.561,58.0415,49.91266666666667,-0.124,-0.026999999999999913,0.10011500000000001,0.104855,0.0,209.64499999999998,209.67000000000002,206.43,206.43,0.0,0.0
11,0.0,0.0,0.0,1.0,1.0,0.0,0.0,1.0,0.0,0.0,1.0,1.1856,26.0,0.0,0.0,0.0,59.999996,0.0,26.0,26.0,26.0,26.0,0.05437500000000006,0.27570000000000006,-0.09043333333333334,293.549,-2.7127,-2.68325,-1.5887,-1.5211000000000001,-238.67000000000002,216.085,190.76575,0.0,0.0,0.0,0.0,0.022600000000000002,-5.498166666666667,-5.498166666666667,-0.5615,0.044333333333333336,0.03125,-0.846,67.086,0.013800000000000002,-0.23442500000000002,-0.6360000000000001,100.0,1.0,1.0,207.17000000000002,0.0,0.0,0.0,0.0,0.0,0.0,0.0,8781.1,0.0,55.0,5.0,241.48000000000002,1.0,0.0,0.0,0.0,0.0,0.0,1.0,0.0,0.5609999999999999,0.5609999999999999,0.0,0.0,1.0,55.0,616.79921,10000.0,85.000001,85.000001,85.000001,85.000001,395.0,0.0,0.0,0.0,1.0,166.665,52.872,52.872,49.271,49.271,34.0,-22.6875,25.594,-24.356666666666662,27.200000000000003,0.0,1782.903,-0.759999999999998,100.0,27.39,27.583,42.163,42.518,0.0,0.0,100.0,0.0,0.0,0.0,0.0,3096.142857142857,3082.5,3771.875,3877.6000000000004,305.54,304.85225,315.75925,315.2255,21.8794,20.5675,21.8917,21.4087,314.999998,314.999998,324.999988,324.999988,99.55862857142857,99.50736666666667,99.56691428571429,99.54661428571428,0.10524999999999984,-0.023333333333333206,-0.08616666666666661,0.14400000000000013,-0.06333333333333258,-0.04833333333333201,1.65,1.6115,37.745999999999995,29.546666666666667,37.823,34.8045,56.006,34.8755,59.536500000000004,52.2205,53.943,34.032,58.1355,50.556,53.111000000000004,33.595,58.0695,49.969,-0.133,-0.02400000000000002,0.104275,0.10477,0.0,210.085,210.11,207.17000000000002,207.17000000000002,0.0,0.0
12,0.0,0.0,0.0,1.0,1.0,0.0,0.0,1.0,0.0,0.0,1.0,1.1856,26.0,0.0,0.0,0.0,59.999996,0.0,26.0,26.0,26.0,26.0,0.05675000000000008,0.29410000000000003,0.014933333333333335,292.969,-2.7571,-2.684125,-1.5563,-1.5251000000000001,-235.65,216.0625,190.746375,0.0,0.0,0.0,0.0,0.025466666666666665,-5.498166666666667,-5.498166666666667,-0.5451,0.28,0.019625000000000004,0.6620000000000001,67.215,0.028,-0.20600000000000002,-0.726,100.0,1.0,1.0,207.33666666666667,0.0,0.0,0.0,0.0,0.0,0.0,0.0,8788.2,0.0,55.0,5.0,241.94333333333333,0.0,0.0,0.0,0.0,0.0,0.0,1.0,0.0,0.6059999999999981,0.6059999999999981,0.0,0.0,0.0,55.0,616.79921,10000.0,85.000001,85.000001,85.000001,85.000001,395.0,0.0,0.0,0.0,1.0,166.665,52.856,52.856,47.974000000000004,47.974000000000004,34.0,-21.54,27.29,-26.839999999999996,31.9725,0.0,1782.857,-0.5500000000000007,100.0,27.435,27.534,42.285,42.426,0.0,0.0,100.0,0.0,0.0,0.0,0.0,3023.285714285714,3193.5,4174.875,4239.6,305.6075,304.7215,314.65775,314.38275,21.8877,20.5723,21.9009,21.4166,314.999998,314.999998,324.999988,324.999988,99.55864285714286,99.50736666666667,99.56704285714285,99.54674285714286,0.1312500000000001,-0.0023333333333332984,-0.06799999999999995,0.16566666666666685,-0.03999999999999915,-0.04999999999999716,1.5270000000000001,1.4929999999999999,37.798,29.576999999999998,37.881,34.854,55.995000000000005,34.909,59.570499999999996,52.2745,53.932,34.0625,58.167,50.608000000000004,53.1,33.6245,58.0985,50.019666666666666,-0.13049999999999995,-0.033500000000000085,0.10793000000000001,0.114625,0.0,210.47,210.515,207.33666666666667,207.33666666666667,0.0,0.0
13,0.0,0.0,0.0,1.0,1.0,0.0,0.0,1.0,0.0,0.0,1.0,1.1856,26.0,0.0,0.0,0.0,59.999996,0.0,26.0,26.0,26.0,26.0,0.0767500000000001,0.27980000000000005,0.03466666666666667,292.603,-2.7387,-2.6728750000000003,-1.589,-1.5074,-232.22,216.0375,190.724625,0.0,0.0,0.0,0.0,0.02686666666666667,-5.498166666666667,-5.498166666666667,-0.5396000000000001,-0.1163333333333334,0.020624999999999893,-0.55,67.357,0.0375,-0.21557500000000002,-0.8460000000000001,100.0,1.0,1.0,207.72,0.0,0.0,0.0,0.0,0.0,0.0,0.0,8804.4,0.0,55.0,5.0,242.45666666666665,1.0,0.0,0.0,0.0,0.0,0.0,1.0,0.0,0.657,0.657,0.0,0.0,1.0,55.0,616.79921,10000.0,85.000001,85.000001,85.000001,85.000001,395.0,0.0,0.0,0.0,1.0,333.33500000000004,52.49,52.49,47.943,47.943,34.0,-21.87,27.156,-27.406666666666666,31.985,0.0,1782.806,-0.8599999999999994,100.0,27.63,27.901,42.441,43.053,0.0,0.0,100.0,0.0,0.0,0.0,0.0,3160.0,3084.7,4197.875,4280.5,305.355,304.86575,314.65025,314.17675,21.8974,20.5778,21.9115,21.4258,314.999998,314.999998,324.999988,324.999988,99.55865714285714,99.50736666666667,99.56718571428571,99.54688571428571,0.14150000000000018,0.016999999999999904,-0.06666666666666665,0.15799999999999992,-0.06333333333333258,-0.036666666666668846,1.5143333333333335,1.464,37.858000000000004,29.611333333333334,37.947,34.911500000000004,55.985,34.947,59.6085,52.338499999999996,53.922,34.0975,58.2025,50.6695,53.089,33.658,58.131,50.080333333333336,-0.14749999999999996,-0.0044999999999999485,0.10289000000000001,0.10822000000000001,0.0,210.92000000000002,210.94,207.72,207.72,0.0,0.0
14,0.0,0.0,0.0,1.0,1.0,0.0,0.0,1.0,0.0,0.0,1.0,1.1856,26.0,0.0,0.0,0.0,59.999996,0.0,26.0,26.0,26.0,26.0,0.08637500000000009,0.2771000000000001,-0.008433333333333333,292.816,-2.7303,-2.6153750000000002,-1.5992000000000002,-1.5109,-228.78,216.015,190.703375,0.0,0.0,0.0,0.0,0.02886666666666667,-5.498166666666667,-5.498166666666667,-0.5498000000000001,-0.1103333333333334,0.05424999999999991,1.3170000000000002,67.497,0.0505,-0.22890000000000002,-1.0679999999999996,100.0,1.0,1.0,208.23666666666668,0.0,0.0,0.0,0.0,0.0,0.0,0.0,8826.4,0.0,55.0,5.0,242.96,0.0,0.0,0.0,0.0,0.0,0.0,1.0,0.0,0.7079999999999984,0.7079999999999984,0.0,0.0,0.0,55.0,616.79921,10000.0,85.000001,85.000001,85.000001,85.000001,395.0,0.0,0.0,0.0,1.0,166.665,52.597,52.597,48.141,48.141,34.0,-19.3325,28.862000000000002,-24.523333333333333,32.1775,0.0,1782.754,-0.9649999999999999,100.0,27.705,27.877,42.495000000000005,43.162,0.0,0.0,100.0,0.0,0.0,0.0,0.0,2920.714285714286,3268.9,3935.375,4221.3,305.866,304.49075,315.22,314.426,21.9069,20.5834,21.9219,21.435,314.999998,314.999998,324.999988,324.999988,99.55867142857143,99.50738333333334,99.56732857142858,99.54702857142857,0.16000000000000014,0.03166666666666673,-0.04916666666666658,0.17833333333333323,-0.04333333333332945,-0.05333333333332746,1.5623333333333334,1.5155,37.918,29.646,38.012,34.9685,55.976,34.985,59.644999999999996,52.400999999999996,53.913,34.132999999999996,58.236,50.730000000000004,53.078,33.692,58.161500000000004,50.13933333333333,-0.15100000000000002,0.0010000000000000009,0.10745,0.10851500000000001,0.0,211.32999999999998,211.39,208.23666666666668,208.23666666666668,0.0,0.0
15,0.0,0.0,0.0,1.0,1.0,0.0,0.0,1.0,0.0,0.0,1.0,1.1856,26.0,0.0,0.0,0.0,59.999996,0.0,26.0,26.0,26.0,26.0,0.11987499999999995,0.2752000000000001,0.0171,292.831,-2.7457,-2.5718750000000004,-1.6282,-1.452,-225.54,215.995,190.683,0.0,0.0,0.0,0.0,0.03073333333333333,-5.498166666666667,-5.498166666666667,-0.5399,0.2713333333333332,0.08487500000000003,0.8800000000000001,67.629,0.0654,-0.2087,-1.2120000000000006,100.0,1.0,1.0,208.62333333333333,0.0,0.0,0.0,0.0,0.0,0.0,0.0,8842.7,0.0,55.0,5.0,243.43333333333334,1.0,0.0,0.0,0.0,0.0,0.0,1.0,0.0,0.7560000000000002,0.7560000000000002,0.0,0.0,1.0,55.0,616.79921,10000.0,85.000001,85.000001,85.000001,85.000001,395.0,0.0,0.0,0.0,1.0,166.665,52.826,52.826,48.141,48.141,34.0,-18.1925,28.42,-23.86,34.3,0.0,1782.708,-0.9450000000000003,100.0,27.659,27.927,42.239000000000004,43.274,0.0,0.0,100.0,0.0,0.0,0.0,0.0,2790.285714285714,3244.9,3936.125,4410.4,306.285,304.5585,315.258,313.9905,21.9158,20.5886,21.9315,21.4436,314.999998,314.999998,324.999988,324.999988,99.5587,99.50738333333334,99.56745714285714,99.54718571428572,0.16599999999999993,0.03600000000000003,-0.028166666666666562,0.20033333333333325,-0.05833333333333002,-0.051666666666669414,1.5513333333333335,1.5035,37.974000000000004,29.678666666666665,38.072,35.022,55.967,35.022,59.6775,52.460499999999996,53.903999999999996,34.167,58.2665,50.787,53.068,33.7245,58.1885,50.19566666666667,-0.15149999999999997,-0.0004999999999999449,0.10140500000000001,0.11135500000000001,0.0,211.76999999999998,211.82999999999998,208.62333333333333,208.62333333333333,0.0,0.0
16,0.0,0.0,0.0,1.0,1.0,0.0,0.0,1.0,0.0,0.0,1.0,1.1856,26.0,0.0,0.0,0.0,59.999996,0.0,26.0,26.0,26.0,26.0,0.134625,0.2781,-0.056100000000000004,292.831,-2.8076,-2.580625,-1.6008,-1.5131000000000001,-222.09,215.97750000000002,190.660875,0.0,0.0,0.0,0.0,0.03276666666666667,-5.498166666666667,-5.498166666666667,-0.562,-0.6856666666666666,0.06774999999999998,-1.104,67.769,0.0771,-0.2265,-1.2079999999999993,100.0,1.0,1.0,209.06,0.0,0.0,0.0,0.0,0.0,0.0,0.0,8861.2,0.0,55.0,5.0,243.94333333333333,0.0,0.0,0.0,0.0,0.0,0.0,1.0,0.0,0.8069999999999986,0.8069999999999986,0.0,0.0,0.0,55.0,616.79921,10000.0,85.000001,85.000001,85.000001,85.000001,395.0,0.0,0.0,0.0,1.0,166.665,52.658,52.658,47.958,47.958,34.0,-20.4625,28.994,-23.65,32.72,0.0,1782.656,-0.870000000000001,100.0,27.198,28.147,42.435,43.476,0.0,0.0,100.0,0.0,0.0,0.0,0.0,3053.5714285714284,3225.0,3956.125,4102.0,305.8035,304.5045,315.25,314.594,21.925,20.5942,21.942,21.4527,314.999998,314.999998,324.999988,324.999988,99.55871428571429,99.5074,99.5676,99.54731428571428,0.16599999999999993,0.04899999999999993,-0.03049999999999997,0.20733333333333337,-0.054999999999999716,-0.046666666666666856,1.569,1.5205,38.032,29.714,38.137,35.079499999999996,55.954,35.0615,59.7155,52.522999999999996,53.891999999999996,34.204,58.3015,50.8475,53.055,33.76,58.2205,50.254666666666665,-0.15100000000000002,0.0044999999999999485,0.11243000000000002,0.10618500000000002,0.0,212.14,212.235,209.06,209.06,0.0,0.0
17,0.0,0.0,0.0,1.0,1.0,0.0,0.0,1.0,0.0,0.0,1.0,1.1856,26.0,0.0,0.0,0.0,59.999996,0.0,26.0,26.0,26.0,26.0,0.11662499999999998,0.2843,-0.013900000000000001,292.45,-2.7647,-2.565,-1.6417000000000002,-1.4765000000000001,-218.63,215.9625,190.638375,0.0,0.0,0.0,0.0,0.03476666666666667,-5.498166666666667,-5.498166666666667,-0.5489,0.4833333333333334,0.05049999999999999,0.875,67.908,0.0825,-0.20515,-1.194,100.0,1.0,1.0,209.44333333333333,0.0,0.0,0.0,0.0,0.0,0.0,0.0,8877.5,0.0,55.0,5.0,244.44,1.0,0.0,0.0,0.0,0.0,0.0,1.0,0.0,0.8580000000000005,0.8580000000000005,0.0,0.0,1.0,55.0,616.79921,10000.0,85.000001,85.000001,85.000001,85.000001,395.0,0.0,0.0,0.0,1.0,333.33500000000004,52.429,52.429,47.684,47.684,34.0,-19.08,28.364,-25.85333333333333,34.6625,0.0,1782.605,-0.9149999999999991,100.0,27.824,28.251,42.322,43.384,0.0,0.0,100.0,0.0,0.0,0.0,0.0,2987.0,3181.8,4238.875,4351.7,305.733,304.78575,314.5995,314.1725,21.9346,20.599899999999998,21.9523,21.4618,314.999998,314.999998,324.999988,324.999988,99.55872857142857,99.5074,99.56774285714286,99.54747142857143,0.18400000000000016,0.05266666666666664,-0.01966666666666661,0.20966666666666667,-0.041666666666671404,-0.05833333333333002,1.5283333333333333,1.479,38.091,29.749666666666666,38.202,35.1365,55.946,35.103,59.7505,52.585,53.884,34.242,58.334,50.907,53.046,33.7965,58.25,50.31333333333333,-0.15249999999999997,-0.009000000000000119,0.11261000000000002,0.103345,0.0,212.61,212.70499999999998,209.44333333333333,209.44333333333333,0.0,0.0
18,0.0,0.0,0.0,1.0,1.0,0.0,0.0,1.0,0.0,0.0,1.0,1.1856,26.0,0.0,0.0,0.0,59.999996,0.0,26.0,26.0,26.0,26.0,0.12424999999999997,0.28090000000000015,-0.0009333333333333334,292.465,-2.7996,-2.53925,-1.6586,-1.4188,-215.36,215.9525,190.61725,0.0,0.0,0.0,0.0,0.03666666666666667,-5.498166666666667,-5.498166666666667,-0.5608000000000001,-0.502,0.07562500000000005,1.049,68.039,0.08370000000000001,-0.223975,-1.274,100.0,1.0,1.0,209.85666666666668,0.0,0.0,0.0,0.0,0.0,0.0,0.0,8895.1,0.0,55.0,5.0,244.91,0.0,0.0,0.0,0.0,0.0,0.0,1.0,0.0,0.9059999999999988,0.9059999999999988,0.0,0.0,0.0,55.0,616.79921,10000.0,85.000001,85.000001,85.000001,85.000001,395.0,0.0,0.0,0.0,1.0,166.665,52.307,52.307,47.714,47.714,34.0,-18.895,30.922,-24.29,32.805,0.0,1782.558,-1.2400000000000002,100.0,27.555,28.131,42.587,43.726,0.0,0.0,100.0,0.0,0.0,0.0,0.0,3002.4285714285716,3392.8,4000.5,4251.1,305.756,304.18275,315.12625,314.37875,21.9433,20.6052,21.9622,21.4706,314.999998,314.999998,324.999988,324.999988,99.55875714285715,99.5074,99.56788571428571,99.54761428571429,0.1967500000000002,0.06766666666666676,-0.01966666666666661,0.20983333333333332,-0.03999999999999915,-0.060000000000002274,1.5536666666666665,1.5165,38.146,29.782666666666664,38.263,35.191,55.937,35.141,59.7855,52.6455,53.875,34.277,58.3665,50.9655,53.036,33.8305,58.2795,50.370666666666665,-0.17299999999999993,0.01100000000000001,0.107035,0.108035,0.0,212.985,213.07,209.85666666666668,209.85666666666668,0.0,0.0
19,0.0,0.0,0.0,1.0,1.0,0.0,0.0,1.0,0.0,0.0,1.0,1.1856,26.0,0.0,0.0,0.0,59.999996,0.0,26.0,26.0,26.0,26.0,0.16349999999999998,0.29000000000000004,0.045200000000000004,291.962,-2.722,-2.5220000000000002,-1.6752,-1.4014,-211.89,215.945,190.59475,0.0,0.0,0.0,0.0,0.03866666666666667,-5.498166666666667,-5.498166666666667,-0.5499,0.7966666666666669,0.084125,-0.469,68.176,0.09230000000000001,-0.211325,-1.6039999999999992,100.0,1.0,1.0,210.24333333333334,0.0,0.0,0.0,0.0,0.0,0.0,0.0,8911.5,0.0,55.0,5.0,245.40333333333334,1.0,0.0,0.0,0.0,0.0,0.0,1.0,0.0,0.9570000000000007,0.9570000000000007,0.0,0.0,1.0,55.0,616.79921,10000.0,85.000001,85.000001,85.000001,85.000001,395.0,0.0,0.0,0.0,1.0,166.665,51.697,51.697,47.47,47.47,34.0,-17.9025,30.646,-25.35,35.24,0.0,1782.506,-1.5,100.0,27.92,28.795,42.249,43.826,0.0,0.0,100.0,0.0,0.0,0.0,0.0,3088.857142857143,3322.3,4210.25,4444.8,305.4895,304.1275,314.73625,313.89675,21.9528,20.6111,21.9724,21.4797,314.999998,314.999998,324.999988,324.999988,99.55878571428572,99.50741666666667,99.56802857142857,99.54775714285714,0.21649999999999991,0.07366666666666655,-0.0086666666666666,0.22249999999999992,-0.046666666666666856,-0.05833333333333002,1.554,1.4815,38.205,29.819333333333333,38.328,35.2485,55.932,35.185,59.82,52.7085,53.870000000000005,34.318,58.3985,51.0265,53.028999999999996,33.8695,58.308,50.431,-0.19499999999999995,0.030000000000000027,0.10586000000000001,0.11132500000000001,0.0,213.43,213.55,210.24333333333334,210.24333333333334,0.0,0.0
20,0.0,0.0,0.0,1.0,1.0,0.0,0.0,1.0,0.0,0.0,1.0,1.1856,26.0,0.0,0.0,0.0,59.999996,0.0,26.0,26.0,26.0,26.0,0.20025000000000004,0.26670000000000016,0.045233333333333334,292.358,-2.8244,-2.582125,-1.608,-1.5152999999999999,-208.41,215.94,190.572375,0.0,0.0,0.0,0.0,0.0407,-5.498166666666667,-5.498166666666667,-0.5573,-1.2570000000000001,0.09674999999999989,0.506,68.315,0.1061,-0.22390000000000002,-1.96,100.0,1.0,1.0,210.60000000000002,0.0,0.0,0.0,0.0,0.0,0.0,0.0,8926.6,0.0,55.0,5.0,245.90666666666667,0.0,0.0,0.0,0.0,0.0,0.0,0.0,0.0,1.0079999999999991,1.0079999999999991,0.0,0.0,0.0,55.0,616.79921,10000.0,85.000001,85.000001,85.000001,85.000001,395.0,0.0,0.0,0.0,1.0,166.665,52.75,52.75,47.012,47.012,34.0,-16.6825,31.354,-22.176666666666662,37.455,0.0,1782.455,-1.3699999999999992,100.0,27.416,28.365000000000002,42.812,44.269000000000005,0.0,0.0,100.0,0.0,0.0,0.0,0.0,2781.714285714286,3293.0,4035.125,4331.0,306.4735,304.4415,314.9305,314.0305,21.9619,20.6167,21.9829,21.4891,314.999998,314.999998,324.999988,324.999988,99.5588,99.50743333333334,99.56817142857143,99.54791428571428,0.2157499999999999,0.09233333333333338,0.017833333333333368,0.2466666666666668,-0.041666666666671404,-0.054999999999999716,1.5153333333333334,1.4445000000000001,38.262,29.854666666666667,38.393,35.307,55.921,35.228,59.859,52.7745,53.86,34.358000000000004,58.4345,51.09,53.018,33.908,58.341,50.49333333333333,-0.18599999999999994,0.03300000000000003,0.10881500000000001,0.10434500000000001,0.0,213.79000000000002,213.945,210.60000000000002,210.60000000000002,0.0,0.0
21,0.0,0.0,0.0,1.0,1.0,0.0,0.0,1.0,0.0,0.0,1.0,1.1856,26.0,0.0,0.0,0.0,59.999996,0.0,26.0,26.0,26.0,26.0,0.14912499999999995,0.28580000000000005,-0.06420000000000001,292.603,-2.7389,-2.6334999999999997,-1.6663000000000001,-1.4806,-205.13,215.9425,190.550625,0.0,0.0,0.0,0.0,0.0426,-5.498166666666667,-5.498166666666667,-0.5793,0.5403333333333333,0.07299999999999995,-0.020000000000000018,68.439,0.1203,-0.225275,-1.4799999999999995,100.0,1.0,1.0,211.21333333333334,0.0,0.0,0.0,0.0,0.0,0.0,0.0,8952.5,0.0,55.0,5.0,246.35333333333335,1.0,0.0,0.0,0.0,0.0,0.0,0.0,0.0,1.056000000000001,1.056000000000001,0.0,0.0,1.0,55.0,616.79921,10000.0,85.000001,85.000001,85.000001,85.000001,395.0,0.0,0.0,0.0,1.0,166.665,52.231,52.231,48.248,48.248,34.0,-18.8775,29.086,-21.233333333333334,33.9275,0.0,1782.408,-0.04499999999999815,100.0,27.787,28.575,42.147,43.849000000000004,0.0,0.0,100.0,0.0,0.0,0.0,0.0,2928.142857142857,3269.3,3947.875,4080.7,305.856,304.4185,315.344,314.81025,21.9706,20.6223,21.9925,21.4976,314.999998,314.999998,324.999988,324.999988,99.55882857142858,99.50743333333334,99.5683,99.54805714285715,0.1745000000000001,0.029666666666666952,0.02933333333333321,0.2541666666666669,-0.04999999999999716,-0.04999999999999716,1.6219999999999999,1.5665,38.316,29.889,38.453,35.36,55.913,35.2685,59.888,52.8315,53.852000000000004,34.3955,58.4615,51.144999999999996,53.009,33.944,58.365,50.547,-0.10699999999999998,-0.06099999999999994,0.10554000000000001,0.106495,0.0,214.22500000000002,214.345,211.21333333333334,211.21333333333334,0.0,0.0
22,0.0,0.0,0.0,1.0,1.0,0.0,0.0,1.0,0.0,0.0,1.0,1.1856,26.0,0.0,0.0,0.0,59.999996,0.0,26.0,26.0,26.0,26.0,0.1003750000000001,0.27900000000000014,-0.0132,292.175,-2.7148,-2.647625,-1.6507,-1.4843,-201.43,215.9475,190.525375,0.0,0.0,0.0,0.0,0.04476666666666667,-5.498166666666667,-5.498166666666667,-0.5571,-0.04166666666666663,0.06662499999999993,0.649,68.586,0.10210000000000001,-0.20622500000000002,-0.18399999999999928,100.0,1.0,1.0,211.44666666666666,0.0,0.0,0.0,0.0,0.0,0.0,0.0,8962.5,0.0,55.0,5.0,246.88333333333333,0.0,0.0,0.0,0.0,0.0,0.0,0.0,0.0,1.1099999999999994,1.1099999999999994,0.0,0.0,0.0,55.0,616.79921,10000.0,85.000001,85.000001,85.000001,85.000001,395.0,0.0,0.0,0.0,1.0,166.665,52.521,52.521,47.058,47.058,34.0,-20.005,25.58,-25.166666666666664,35.269999999999996,0.0,1782.353,0.5199999999999996,100.0,27.879,28.506999999999998,42.806,44.066,0.0,0.0,100.0,0.0,0.0,0.0,0.0,2794.4285714285716,3173.2,4175.625,4389.5,306.228,304.71675,314.69875,314.0125,21.9804,20.6283,22.0036,21.5075,314.999998,314.999998,324.999988,324.999988,99.55884285714286,99.50743333333334,99.56847142857143,99.54821428571428,0.11624999999999996,-0.033666666666666734,-0.008333333333333304,0.20900000000000007,-0.054999999999999716,-0.03999999999999915,1.4826666666666668,1.474,38.378,29.927,38.522,35.4215,55.900999999999996,35.3105,59.929,52.8995,53.84,34.434,58.4995,51.210499999999996,52.995999999999995,33.981,58.3995,50.611666666666665,-0.03649999999999998,-0.1280000000000001,0.09928500000000001,0.10930500000000001,0.0,214.74,214.74,211.44666666666666,211.44666666666666,0.0,0.0
23,0.0,0.0,0.0,1.0,1.0,0.0,0.0,1.0,0.0,0.0,1.0,1.1856,26.0,0.0,0.0,0.0,59.999996,0.0,26.0,26.0,26.0,26.0,0.04849999999999999,0.24609999999999999,-0.05586666666666667,292.191,-2.7173,-2.622375,-1.6764999999999999,-1.4838,-197.93,215.95499999999998,190.502,0.0,0.0,0.0,0.0,0.0468,-5.498166666666667,-5.498166666666667,-0.5759000000000001,-0.022333333333333316,0.03412499999999996,-1.15,68.719,0.0487,-0.230225,0.8079999999999998,100.0,1.0,1.0,212.00333333333333,0.0,0.0,0.0,0.0,0.0,0.0,0.0,8986.1,0.0,55.0,5.0,247.36333333333334,1.0,0.0,0.0,0.0,0.0,0.0,0.0,0.0,1.1610000000000014,1.1610000000000014,0.0,0.0,1.0,55.0,616.79921,10000.0,85.000001,85.000001,85.000001,85.000001,395.0,0.0,0.0,0.0,1.0,166.665,51.727000000000004,51.727000000000004,48.111,48.111,34.0,-25.3125,24.148,-27.996666666666663,27.942500000000003,0.0,1782.302,0.6449999999999996,100.0,28.238,28.564,42.925,44.081,0.0,0.0,100.0,0.0,0.0,0.0,0.0,3249.714285714286,3110.4,4041.0,3968.3,305.058,304.78475,315.176,315.06925,21.9898,20.634,22.014,21.5167,314.999998,314.999998,324.999988,324.999988,99.55885714285715,99.50745,99.5686,99.54835714285714,0.08000000000000007,-0.052000000000000046,-0.08399999999999996,0.14816666666666678,-0.03999999999999915,-0.05333333333332746,1.5386666666666666,1.554,38.437,29.962666666666664,38.588,35.4795,55.888999999999996,35.3505,59.965,52.9615,53.828,34.471000000000004,58.533,51.269999999999996,52.982,34.0165,58.4295,50.67,-0.028000000000000025,-0.1260000000000001,0.10517000000000001,0.115095,0.0,215.175,215.115,212.00333333333333,212.00333333333333,0.0,0.0
24,0.0,0.0,0.0,1.0,1.0,0.0,0.0,1.0,0.0,0.0,1.0,1.1856,26.0,0.0,0.0,0.0,59.999996,0.0,26.0,26.0,26.0,26.0,-0.03149999999999997,0.2683,-0.09796666666666667,292.435,-2.7153,-2.662,-1.5751,-1.5352999999999999,-194.82999999999998,215.9625,190.480875,0.0,0.0,0.0,0.0,0.048600000000000004,-5.498166666666667,-5.498166666666667,-0.5798,-0.6103333333333333,0.020874999999999977,0.5680000000000001,68.84,0.0023,-0.218125,1.0220000000000002,100.0,1.0,1.0,212.24333333333334,0.0,0.0,0.0,0.0,0.0,0.0,0.0,8996.2,0.0,55.0,5.0,247.79666666666668,0.0,0.0,0.0,0.0,0.0,0.0,0.0,0.0,1.2059999999999995,1.2059999999999995,0.0,0.0,0.0,55.0,616.79921,10000.0,85.000001,85.000001,85.000001,85.000001,395.0,0.0,0.0,0.0,1.0,333.33500000000004,52.933,52.933,47.134,47.134,34.0,-23.5525,21.41,-31.023333333333333,28.045,0.0,1782.256,0.6649999999999991,100.0,28.091,27.990000000000002,43.332,43.714,0.0,0.0,100.0,0.0,0.0,0.0,0.0,2893.5714285714284,2989.5,4274.375,4120.6,306.0135,305.3885,314.40925,314.69875,21.9981,20.6389,22.0233,21.5247,314.999998,314.999998,324.999988,324.999988,99.55887142857142,99.50745,99.56872857142857,99.54848571428572,0.04600000000000026,-0.09499999999999997,-0.12083333333333335,0.10783333333333323,-0.03999999999999915,-0.051666666666669414,1.4893333333333334,1.518,38.488,29.992666666666665,38.644999999999996,35.5295,55.875,35.3845,59.9985,53.0145,53.815,34.5025,58.564,51.321,52.968,34.047,58.458,50.72,-0.020000000000000018,-0.13450000000000006,0.09811,0.11548000000000001,0.0,215.55,215.47500000000002,212.24333333333334,212.24333333333334,0.0,0.0
25,0.0,0.0,0.0,1.0,1.0,0.0,0.0,1.0,0.0,0.0,1.0,1.1856,26.0,0.0,0.0,0.0,59.999996,0.0,26.0,26.0,26.0,26.0,-0.07462499999999994,0.27370000000000005,-0.04566666666666667,292.328,-2.7519,-2.650125,-1.5639,-1.5617,-191.32,215.97,190.4555,0.0,0.0,0.0,0.0,0.050633333333333336,-5.498166666666667,-5.498166666666667,-0.6119,0.09866666666666668,-0.007000000000000117,-1.709,68.97200000000001,-0.040600000000000004,-0.22432500000000002,1.234,100.0,1.0,1.0,212.80333333333334,0.0,0.0,0.0,0.0,0.0,0.0,0.0,9019.9,0.0,55.0,5.0,248.27333333333334,1.0,0.0,0.0,0.0,0.0,0.0,0.0,0.0,1.256999999999998,1.256999999999998,0.0,0.0,1.0,55.0,616.79921,10000.0,85.000001,85.000001,85.000001,85.000001,395.0,0.0,0.0,0.0,1.0,333.33500000000004,51.834,51.834,47.958,47.958,34.0,-29.697499999999998,21.942,-30.58,23.945,0.0,1782.205,0.6550000000000011,100.0,28.104,28.163,43.178,43.209,0.0,0.0,100.0,0.0,0.0,0.0,0.0,3371.0,3184.6,4025.5,3946.6000000000004,304.859,304.617,315.14725,315.08575,22.0074,20.6444,22.0336,21.5337,314.999998,314.999998,324.999988,324.999988,99.55887142857142,99.50746666666667,99.56887142857143,99.54864285714285,0.01175000000000015,-0.1213333333333333,-0.1678333333333334,0.0515000000000001,-0.060000000000002274,-0.04833333333333201,1.5443333333333333,1.5979999999999999,38.546,30.02766666666667,38.71,35.586,55.858000000000004,35.4265,60.033500000000004,53.071,53.799,34.5415,58.5965,51.376,52.952,34.084,58.4875,50.77333333333333,-0.02749999999999997,-0.13149999999999995,0.10472500000000001,0.10709,0.0,215.985,215.87,212.80333333333334,212.80333333333334,0.0,0.0
26,0.0,0.0,0.0,1.0,1.0,0.0,0.0,1.0,0.0,0.0,1.0,1.1856,26.0,0.0,0.0,0.0,59.999996,0.0,26.0,26.0,26.0,26.0,-0.11362499999999998,0.28370000000000006,0.0487,291.122,-2.6718,-2.7615,-1.5877,-1.5848,-187.59,215.97750000000002,190.42825,0.0,0.0,0.0,0.0,0.0528,-5.498166666666667,-5.498166666666667,-0.5669000000000001,0.4693333333333334,-0.054749999999999854,-1.051,69.117,-0.06770000000000001,-0.194975,1.1679999999999993,100.0,1.0,1.0,212.94,0.0,0.0,0.0,0.0,0.0,0.0,0.0,9025.7,0.0,55.0,5.0,248.79333333333335,0.0,0.0,0.0,0.0,0.0,0.0,0.0,0.0,1.311,1.311,0.0,0.0,0.0,55.0,616.79921,10000.0,85.000001,85.000001,85.000001,85.000001,395.0,0.0,0.0,0.0,1.0,166.665,51.635999999999996,51.635999999999996,45.959,45.959,34.0,-28.3875,19.92,-39.22333333333333,27.4325,0.0,1782.153,0.5250000000000021,100.0,29.132,28.53,44.221000000000004,43.522,0.0,0.0,100.0,0.0,0.0,0.0,0.0,3272.4285714285716,2912.9,4707.375,4461.8,304.9435,305.3715,313.5245,313.8445,22.0177,20.6504,22.0449,21.5435,314.999998,314.999998,324.999988,324.999988,99.55887142857142,99.50748333333334,99.56904285714286,99.54878571428571,0.008249999999999869,-0.1443333333333332,-0.18799999999999994,0.028999999999999915,-0.03333333333333144,-0.051666666666669414,1.4146666666666667,1.45,38.611000000000004,30.064999999999998,38.781,35.647,55.845,35.474000000000004,60.0785,53.1355,53.786,34.585,58.6385,51.4375,52.938,34.126,58.525999999999996,50.833666666666666,-0.04699999999999993,-0.12200000000000011,0.104205,0.10763,0.0,216.435,216.37,212.94,212.94,0.0,0.0
27,0.0,0.0,0.0,1.0,1.0,0.0,0.0,1.0,0.0,0.0,1.0,1.1856,26.0,0.0,0.0,0.0,59.999996,0.0,26.0,26.0,26.0,26.0,-0.11424999999999996,0.24540000000000006,-0.023933333333333334,291.656,-2.62,-2.7455,-1.5654,-1.665,-184.47,215.98000000000002,190.406625,0.0,0.0,0.0,0.0,0.05463333333333334,-5.498166666666667,-5.498166666666667,-0.5983,-1.064,-0.061875000000000124,0.6040000000000001,69.233,-0.0787,-0.24377500000000002,1.0600000000000005,100.0,1.0,1.0,213.45333333333332,0.0,0.0,0.0,0.0,0.0,0.0,0.0,9047.5,0.0,55.0,5.0,249.21333333333334,1.0,0.0,0.0,0.0,0.0,0.0,0.0,0.0,1.355999999999998,1.355999999999998,0.0,0.0,1.0,55.0,616.79921,10000.0,85.000001,85.000001,85.000001,85.000001,395.0,0.0,0.0,0.0,1.0,333.33500000000004,51.788,51.788,46.707,46.707,34.0,-27.5475,21.118,-33.31333333333333,25.1125,0.0,1782.106,0.4250000000000007,100.0,29.079,28.064,44.922,43.748000000000005,0.0,0.0,100.0,0.0,0.0,0.0,0.0,3182.0,3098.7,4132.375,4008.8,305.1055,305.0605,314.76775,314.8905,22.0261,20.6552,22.0544,21.5517,314.999998,314.999998,324.999988,324.999988,99.55887142857142,99.5075,99.56917142857142,99.54892857142858,-0.0009999999999998899,-0.14100000000000001,-0.19299999999999995,0.03133333333333321,-0.046666666666666856,-0.04333333333332945,1.4903333333333333,1.5285,38.663,30.095333333333336,38.84,35.698,55.831,35.5115,60.1145,53.1885,53.772999999999996,34.6195,58.6725,51.4885,52.924,34.159,58.5575,50.88333333333333,-0.04349999999999998,-0.1200000000000001,0.10661500000000002,0.10721000000000001,0.0,216.75,216.65,213.45333333333332,213.45333333333332,0.0,0.0
28,0.0,0.0,0.0,1.0,1.0,0.0,0.0,1.0,0.0,0.0,1.0,1.1856,26.0,0.0,0.0,0.0,59.999996,0.0,26.0,26.0,26.0,26.0,-0.119,0.2601,-0.04973333333333333,291.885,-2.6388,-2.7268749999999997,-1.5437,-1.6267,-180.73000000000002,215.98000000000002,190.379625,0.0,0.0,0.0,0.0,0.0568,-5.498166666666667,-5.498166666666667,-0.5971000000000001,0.679,-0.06637499999999985,0.8360000000000001,69.37100000000001,-0.0879,-0.20980000000000001,0.9939999999999998,100.0,1.0,1.0,213.94333333333333,0.0,0.0,0.0,0.0,0.0,0.0,0.0,9068.3,0.0,55.0,5.0,249.70666666666665,0.0,0.0,0.0,0.0,0.0,0.0,0.0,0.0,1.4100000000000001,1.4100000000000001,0.0,0.0,0.0,55.0,616.79921,10000.0,85.000001,85.000001,85.000001,85.000001,395.0,0.0,0.0,0.0,1.0,166.665,51.941,51.941,47.287,47.287,34.0,-27.17,20.525999999999996,-34.093333333333334,24.8475,0.0,1782.054,0.28500000000000014,100.0,29.179000000000002,27.996000000000002,44.243,43.149,0.0,0.0,100.0,0.0,0.0,0.0,0.0,3163.857142857143,3006.7,4222.5,4129.2,305.0965,305.3105,314.71075,314.71225,22.0363,20.6611,22.0653,21.5612,314.999998,314.999998,324.999988,324.999988,99.55888571428571,99.50751666666666,99.56934285714286,99.54908571428571,0.009749999999999925,-0.1346666666666667,-0.20399999999999996,0.023500000000000076,-0.054999999999999716,-0.046666666666666856,1.5136666666666665,1.552,38.727000000000004,30.131666666666668,38.908,35.7575,55.816,35.557,60.152,53.248,53.759,34.661500000000004,58.707499999999996,51.545500000000004,52.909,34.198499999999996,58.589,50.939,-0.05899999999999994,-0.10200000000000009,0.10039000000000001,0.10155,0.0,217.23000000000002,217.135,213.94333333333333,213.94333333333333,0.0,0.0
29,0.0,0.0,0.0,1.0,1.0,0.0,0.0,1.0,0.0,0.0,1.0,1.1856,26.0,0.0,0.0,0.0,59.999996,0.0,26.0,26.0,26.0,26.0,-0.11012500000000003,0.25690000000000013,0.0129,291.611,-2.5945,-2.778375,-1.5519,-1.6011000000000002,-177.19,215.97750000000002,190.35325,0.0,0.0,0.0,0.0,0.058866666666666664,-5.498166666666667,-5.498166666666667,-0.6092000000000001,-0.6923333333333332,-0.06574999999999998,-0.736,69.505,-0.0821,-0.22125,0.734,100.0,1.0,1.0,214.24666666666667,0.0,0.0,0.0,0.0,0.0,0.0,0.0,9081.1,0.0,55.0,5.0,250.19,1.0,0.0,0.0,0.0,0.0,0.0,0.0,0.0,1.4609999999999985,1.4609999999999985,0.0,0.0,1.0,55.0,616.79921,10000.0,85.000001,85.000001,85.000001,85.000001,395.0,0.0,0.0,0.0,1.0,166.665,51.804,51.804,46.844,46.844,34.0,-28.6875,20.966,-34.629999999999995,24.5425,0.0,1782.002,0.17999999999999972,100.0,28.769,28.079,44.581,43.532,0.0,0.0,100.0,0.0,0.0,0.0,0.0,3360.142857142857,2981.3,4225.0,4129.4,304.784,305.15225,314.601,314.6,22.0457,20.6665,22.0759,21.5705,314.999998,314.999998,324.999988,324.999988,99.55888571428571,99.50753333333333,99.56948571428572,99.54922857142857,0.002000000000000224,-0.1363333333333332,-0.20366666666666666,0.01849999999999996,-0.05666666666667197,-0.05333333333332746,1.4653333333333334,1.504,38.786,30.165666666666667,38.975,35.8155,55.8,35.598,60.193,53.308,53.742999999999995,34.6995,58.746,51.6035,52.893,34.235,58.6245,50.995,-0.0685,-0.09000000000000008,0.10661500000000002,0.10559500000000001,0.0,217.59,217.525,214.24666666666667,214.24666666666667,0.0,0.0
30,0.0,0.0,0.0,1.0,1.0,0.0,0.0,1.0,0.0,0.0,1.0,1.1856,26.0,0.0,0.0,0.0,59.999996,0.0,26.0,26.0,26.0,26.0,-0.09924999999999995,0.25550000000000006,-0.0046,291.10699999999997,-2.6485,-2.7662500000000003,-1.4933,-1.6607,-173.85,215.9725,190.32825,0.0,0.0,0.0,0.0,0.0608,-5.498166666666667,-5.498166666666667,-0.5992000000000001,0.8156666666666668,-0.06662500000000016,-0.45299999999999996,69.627,-0.0707,-0.21350000000000002,0.677999999999999,100.0,1.0,1.0,214.65,0.0,0.0,0.0,0.0,0.0,0.0,0.0,9098.2,0.0,55.0,5.0,250.63,0.0,0.0,0.0,0.0,0.0,0.0,1.0,0.0,1.5090000000000003,1.5090000000000003,0.0,0.0,0.0,55.0,616.79921,10000.0,85.000001,85.000001,85.000001,85.000001,395.0,0.0,0.0,0.0,1.0,166.665,50.873,50.873,46.875,46.875,34.0,-29.8525,21.524,-34.28333333333333,26.205,0.0,1781.953,0.09499999999999886,100.0,29.635,28.715,44.422,43.528,0.0,0.0,100.0,0.0,0.0,0.0,0.0,3486.5714285714284,3055.6,4331.5,4120.6,304.377,305.07925,314.4095,314.5785,22.0549,20.6719,22.0858,21.5791,314.999998,314.999998,324.999988,324.999988,99.55888571428571,99.50755,99.56962857142857,99.54935714285715,0.016750000000000043,-0.131,-0.19466666666666665,0.03383333333333338,-0.04833333333333201,-0.03999999999999915,1.4663333333333333,1.4969999999999999,38.843,30.199333333333335,39.036,35.8695,55.789,35.64,60.228,53.363,53.733000000000004,34.7385,58.7785,51.656,52.882,34.2725,58.653999999999996,51.04633333333334,-0.07550000000000001,-0.09250000000000003,0.112555,0.10419500000000001,0.0,218.005,217.935,214.65,214.65,0.0,0.0
31,0.0,0.0,0.0,1.0,1.0,0.0,0.0,1.0,0.0,0.0,1.0,1.1856,26.0,0.0,0.0,0.0,59.999996,0.0,26.0,26.0,26.0,26.0,-0.08324999999999994,0.2518,-0.016800000000000002,290.985,-2.7196,-2.644625,-1.5424,-1.6522000000000001,-170.51,215.965,190.304125,0.0,0.0,0.0,0.0,0.06273333333333334,-5.498166666666667,-5.498166666666667,-0.5915,-0.6483333333333333,-0.05549999999999988,-0.69,69.751,-0.0575,-0.22257500000000002,0.402000000000001,100.0,1.0,1.0,214.92333333333335,0.0,0.0,0.0,0.0,0.0,0.0,0.0,9109.8,0.0,55.0,5.0,251.07666666666665,1.0,0.0,0.0,0.0,0.0,0.0,1.0,0.0,1.5569999999999986,1.5569999999999986,0.0,0.0,1.0,55.0,616.79921,10000.0,85.000001,85.000001,85.000001,85.000001,395.0,0.0,0.0,0.0,1.0,333.33500000000004,51.407,51.407,45.578,45.578,34.0,-27.54,21.11,-34.10666666666667,28.405,0.0,1781.905,0.030000000000001137,100.0,29.249,28.794,45.042,44.141999999999996,0.0,0.0,100.0,0.0,0.0,0.0,0.0,3245.857142857143,3100.1,4412.0,4249.2,305.2245,305.01125,314.14425,314.37075,22.0637,20.6772,22.0959,21.588,314.999998,314.999998,324.999988,324.999988,99.5589,99.50756666666666,99.56977142857143,99.5495,0.026250000000000107,-0.1213333333333333,-0.16116666666666657,0.05750000000000011,-0.03499999999999659,-0.046666666666666856,1.456,1.4595,38.897999999999996,30.232666666666667,39.099000000000004,35.925,55.775,35.6805,60.2675,53.421,53.72,34.7755,58.816,51.712,52.867999999999995,34.308,58.6885,51.101,-0.08250000000000002,-0.08949999999999991,0.09696500000000001,0.107285,0.0,218.34,218.29500000000002,214.92333333333335,214.92333333333335,0.0,0.0
32,0.0,0.0,0.0,1.0,1.0,0.0,0.0,1.0,0.0,0.0,1.0,1.1856,26.0,0.0,0.0,0.0,59.999996,0.0,26.0,26.0,26.0,26.0,-0.071125,0.2652000000000001,-0.011300000000000001,291.199,-2.6243,-2.7491250000000003,-1.6059,-1.5632000000000001,-166.74,215.9525,190.277,0.0,0.0,0.0,0.0,0.06493333333333334,-5.498166666666667,-5.498166666666667,-0.6082000000000001,0.2186666666666668,-0.08137499999999998,-0.933,69.886,-0.0465,-0.22725,0.30799999999999983,100.0,1.0,1.0,215.45333333333332,0.0,0.0,0.0,0.0,0.0,0.0,0.0,9132.3,0.0,55.0,5.0,251.56333333333333,0.0,0.0,0.0,0.0,0.0,0.0,1.0,0.0,1.6110000000000007,1.6110000000000007,0.0,0.0,0.0,55.0,616.79921,10000.0,85.000001,85.000001,85.000001,85.000001,395.0,0.0,0.0,0.0,1.0,166.665,51.315,51.315,46.524,46.524,34.0,-26.92,22.322000000000003,-34.239999999999995,26.7925,0.0,1781.851,-0.05999999999999872,100.0,29.232,28.769,44.576,43.893,0.0,0.0,100.0,0.0,0.0,0.0,0.0,3324.714285714286,3018.3,4337.5,4218.2,304.8065,305.096,314.46775,314.49775,22.0737,20.6833,22.1069,21.5977,314.999998,314.999998,324.999988,324.999988,99.5589,99.50758333333333,99.56992857142858,99.54965714285714,0.04200000000000026,-0.1036666666666668,-0.16849999999999998,0.062000000000000055,-0.046666666666666856,-0.05666666666667197,1.5093333333333332,1.524,38.961,30.270333333333333,39.168,35.9855,55.760999999999996,35.7255,60.3055,53.482,53.706,34.817,58.851,51.7705,52.852999999999994,34.3475,58.7205,51.158,-0.09350000000000003,-0.07450000000000001,0.11467500000000001,0.107825,0.0,218.76999999999998,218.745,215.45333333333332,215.45333333333332,0.0,0.0
33,0.0,0.0,0.0,1.0,1.0,0.0,0.0,1.0,0.0,0.0,1.0,1.1856,26.0,0.0,0.0,0.0,59.999996,0.0,26.0,26.0,26.0,26.0,-0.048374999999999946,0.26680000000000015,-0.027133333333333332,291.489,-2.6751,-2.73225,-1.5451000000000001,-1.6355,-163.38,215.9425,190.25175,0.0,0.0,0.0,0.0,0.06686666666666667,-5.498166666666667,-5.498166666666667,-0.6126,-0.4893333333333333,-0.06550000000000011,0.1120000000000001,70.009,-0.0376,-0.2164,0.2599999999999998,100.0,1.0,1.0,215.76333333333332,0.0,0.0,0.0,0.0,0.0,0.0,0.0,9145.4,0.0,55.0,5.0,252.00666666666666,1.0,0.0,0.0,0.0,0.0,0.0,1.0,0.0,1.658999999999999,1.658999999999999,0.0,0.0,1.0,55.0,616.79921,10000.0,85.000001,85.000001,85.000001,85.000001,395.0,0.0,0.0,0.0,1.0,166.665,51.941,51.941,46.616,46.616,34.0,-25.62,21.658,-32.16,28.2175,0.0,1781.804,-0.125,100.0,28.935,28.428,44.538,43.995000000000005,0.0,0.0,100.0,0.0,0.0,0.0,0.0,3202.285714285714,2937.9,4243.0,4222.9,305.272,305.36475,314.571,314.35725,22.0825,20.6884,22.1168,21.6064,314.999998,314.999998,324.999988,324.999988,99.5589,99.50758333333333,99.57007142857142,99.5498,0.053749999999999964,-0.09899999999999998,-0.15600000000000003,0.06333333333333324,-0.05666666666667197,-0.046666666666666856,1.482,1.499,39.016,30.302666666666667,39.230000000000004,36.04,55.748000000000005,35.762,60.341,53.538,53.694,34.8505,58.8845,51.824,52.84,34.3795,58.7505,51.21,-0.09599999999999997,-0.07550000000000012,0.10458500000000001,0.10704500000000002,0.0,219.14499999999998,219.10500000000002,215.76333333333332,215.76333333333332,0.0,0.0
34,0.0,0.0,0.0,1.0,1.0,0.0,0.0,1.0,0.0,0.0,1.0,1.1856,26.0,0.0,0.0,0.0,59.999996,0.0,26.0,26.0,26.0,26.0,-0.03425,0.26180000000000003,-0.06763333333333334,291.87,-2.6874000000000002,-2.7171250000000002,-1.6087,-1.5925,-160.01,215.93,190.2255,0.0,0.0,0.0,0.0,0.06883333333333334,-5.498166666666667,-5.498166666666667,-0.6447,-0.8036666666666666,-0.03362500000000024,-0.09499999999999997,70.129,-0.027200000000000002,-0.22637500000000002,0.18599999999999994,100.0,1.0,1.0,216.20666666666668,0.0,0.0,0.0,0.0,0.0,0.0,0.0,9164.3,0.0,55.0,5.0,252.43666666666667,0.0,0.0,0.0,0.0,0.0,0.0,1.0,0.0,1.7070000000000007,1.7070000000000007,0.0,0.0,0.0,55.0,616.79921,10000.0,85.000001,85.000001,85.000001,85.000001,395.0,0.0,0.0,0.0,1.0,166.665,52.185,52.185,47.409,47.409,34.0,-25.07,22.374000000000002,-30.439999999999998,27.61,0.0,1781.757,-0.10500000000000043,100.0,28.635,28.165,44.21,44.004000000000005,0.0,0.0,100.0,0.0,0.0,0.0,0.0,3153.4285714285716,2955.6,4075.875,4117.6,305.2995,305.298,315.035,314.639,22.0911,20.6936,22.1266,21.615099999999998,314.999998,314.999998,324.999988,324.999988,99.55892857142857,99.5076,99.57021428571429,99.54994285714285,0.06199999999999983,-0.08266666666666667,-0.14116666666666666,0.08200000000000007,-0.03999999999999915,-0.03499999999999659,1.5303333333333335,1.526,39.07,30.335,39.291,36.0945,55.733999999999995,35.798,60.373,53.5935,53.681,34.884,58.914,51.8775,52.826,34.411500000000004,58.7775,51.262,-0.08850000000000002,-0.07000000000000006,0.09838000000000001,0.10916500000000001,0.0,219.47500000000002,219.465,216.20666666666665,216.20666666666668,0.0,0.0
35,0.0,0.0,0.0,1.0,1.0,0.0,0.0,1.0,0.0,0.0,1.0,1.1856,26.0,0.0,0.0,0.0,59.999996,0.0,26.0,26.0,26.0,26.0,-0.03025,0.256,-0.07456666666666667,291.809,-2.6837,-2.675875,-1.5729000000000002,-1.6059,-156.43,215.91750000000002,190.195375,0.0,0.0,0.0,0.0,0.07093333333333333,-5.498166666666667,-5.498166666666667,-0.6852,-0.30366666666666664,-0.042749999999999844,0.052000000000000046,70.256,-0.0167,-0.230275,0.002000000000000668,100.0,1.0,1.0,216.66333333333333,0.0,0.0,0.0,0.0,0.0,0.0,0.0,9183.6,0.0,55.0,5.0,252.89666666666665,1.0,0.0,0.0,0.0,0.0,0.0,1.0,0.0,1.7579999999999991,1.7579999999999991,0.0,0.0,1.0,55.0,616.79921,10000.0,85.000001,85.000001,85.000001,85.000001,395.0,0.0,0.0,0.0,1.0,166.665,51.544,51.544,47.028,47.028,34.0,-24.84,26.274,-28.406666666666666,27.285,0.0,1781.706,-0.11499999999999844,100.0,28.596,28.39,44.016,43.535,0.0,0.0,100.0,0.0,0.0,0.0,0.0,3179.0,3364.0,4005.0,3951.1000000000004,305.199,304.25125,315.10625,315.12,22.1002,20.6993,22.1369,21.624200000000002,314.999998,314.999998,324.999988,324.999988,99.55892857142857,99.50761666666666,99.57037142857143,99.55008571428571,0.07275000000000009,-0.06166666666666676,-0.1203333333333334,0.10400000000000009,-0.03999999999999915,-0.054999999999999716,1.5426666666666666,1.56,39.126000000000005,30.370666666666665,39.356,36.150999999999996,55.718,35.838,60.4075,53.649,53.666,34.921,58.946,51.931,52.81,34.447,58.806,51.31433333333334,-0.09199999999999997,-0.07099999999999995,0.10346000000000001,0.10703000000000001,0.0,219.87,219.87,216.66333333333336,216.66333333333333,0.0,0.0
36,0.0,0.0,0.0,1.0,1.0,0.0,0.0,1.0,0.0,0.0,1.0,1.1856,26.0,0.0,0.0,0.0,59.999996,0.0,26.0,26.0,26.0,26.0,-0.02474999999999994,0.26900000000000013,0.0543,290.787,-2.7401,-2.639125,-1.5453999999999999,-1.599,-153.06,215.905,190.16575,0.0,0.0,0.0,0.0,0.07286666666666666,-5.498166666666667,-5.498166666666667,-0.6642,0.2346666666666668,-0.07725000000000026,0.08000000000000007,70.379,-0.009300000000000001,-0.19990000000000002,0.10599999999999987,100.0,1.0,1.0,216.79333333333335,0.0,0.0,0.0,0.0,0.0,0.0,0.0,9189.0,0.0,55.0,5.0,253.33666666666664,0.0,0.0,0.0,0.0,0.0,0.0,1.0,0.0,1.806000000000001,1.806000000000001,0.0,0.0,0.0,55.0,616.79921,10000.0,85.000001,85.000001,85.000001,85.000001,395.0,0.0,0.0,0.0,1.0,333.33500000000004,51.178,51.178,46.204,46.204,34.0,-26.0375,24.562,-32.346666666666664,32.947500000000005,0.0,1781.656,-0.07499999999999929,100.0,29.183,28.719,44.237,43.871,0.0,0.0,100.0,0.0,0.0,0.0,0.0,3292.285714285714,3211.4,4455.25,4571.3,304.8545,304.7475,314.04925,313.6655,22.1089,20.7048,22.1468,21.6329,314.999998,314.999998,324.999988,324.999988,99.55894285714285,99.50761666666666,99.57051428571428,99.55022857142858,0.08150000000000013,-0.06099999999999994,-0.119,0.1036666666666668,-0.03333333333333144,-0.054999999999999716,1.4256666666666666,1.4355,39.181,30.405,39.418,36.206,55.707,35.876999999999995,60.442,53.7055,53.655,34.957,58.9785,51.9855,52.799,34.4815,58.835499999999996,51.367333333333335,-0.09150000000000003,-0.07499999999999996,0.10870500000000001,0.10327000000000001,0.0,220.29000000000002,220.28,216.79333333333335,216.79333333333335,0.0,0.0
