,ABS Active,ABS Enabled,AID Allow Tire Blankets,AID Auto Blip,AID Auto Clutch,AID Auto Shift,AID Fuel Rate,AID Ideal Line,AID Mech Damage,AID Stability,AID Tire Wear Rate,Air Density,Air Temp,Ballast,Best Lap Delta,Best Lap Time,Brake Bias,Brake Pos,Brake Temp FL,Brake Temp FR,Brake Temp RL,Brake Temp RR,CG Accel Lateral,CG Accel Longitudinal,CG Accel Vertical,CG Height,Camber FL,Camber FR,Camber RL,Camber RR,Car Coord X,Car Coord Y,Car Coord Z,Car Damage Front,Car Damage Left,Car Damage Rear,Car Damage Right,Car Pos Norm,Caster FL,Caster FR,Chassis Pitch Angle,Chassis Pitch Rate,Chassis Roll Angle,Chassis Roll Rate,Chassis Velocity X,Chassis Velocity Y,Chassis Velocity Z,Chassis Yaw Rate,Clutch Pos,DRS Active,DRS Available,Drive Train Speed,ERS Heat Charging,ERS Is Charging,ERS Max Energy,ERS Power Level,ERS Recovery Level,Engine Brake Setting,Engine Limiter,Engine RPM,Flags,Fuel Level,Gear,Ground Speed,HR Sample Clock,In Pit,KERS Charge,KERS Deployed Energy,KERS Input,KERS Max Energy,LR Sample Clock,Lap Invalidated,Lap Time,Lap Time2,Last Lap Time,Last Sector Time,MR Sample Clock,Max Fuel,Max Power,Max RPM,Max Sus Travel FL,Max Sus Travel FR,Max Sus Travel RL,Max Sus Travel RR,Max Torque,Max Turbo Boost,Num Tires Off Track,Penalties Enabled,Position,Raw Data Sample Rate,Ride Height FL,Ride Height FR,Ride Height RL,Ride Height RR,Road Temp,Self Align Torque FL,Self Align Torque FR,Self Align Torque RL,Self Align Torque RR,Session Lap Count,Session Time Left,Steering Angle,Surface Grip,Suspension Travel FL,Suspension Travel FR,Suspension Travel RL,Suspension Travel RR,TC Active,TC Enabled,Throttle Pos,Tire Dirt Level FL,Tire Dirt Level FR,Tire Dirt Level RL,Tire Dirt Level RR,Tire Load FL,Tire Load FR,Tire Load RL,Tire Load RR,Tire Loaded Radius FL,Tire Loaded Radius FR,Tire Loaded Radius RL,Tire Loaded Radius RR,Tire Pressure FL,Tire Pressure FR,Tire Pressure RL,Tire Pressure RR,Tire Radius FL,Tire Radius FR,Tire Radius RL,Tire Radius RR,Tire Rubber Grip FL,Tire Rubber Grip FR,Tire Rubber Grip RL,Tire Rubber Grip RR,Tire Slip Angle FL,Tire Slip Angle FR,Tire Slip Angle RL,Tire Slip Angle RR,Tire Slip Ratio FL,Tire Slip Ratio FR,Tire Slip Ratio RL,Tire Slip Ratio RR,Tire Temp Core FL,Tire Temp Core FR,Tire Temp Core RL,Tire Temp Core RR,Tire Temp Inner FL,Tire Temp Inner FR,Tire Temp Inner RL,Tire Temp Inner RR,Tire Temp Middle FL,Tire Temp Middle FR,Tire Temp Middle RL,Tire Temp Middle RR,Tire Temp Outer FL,Tire Temp Outer FR,Tire Temp Outer RL,Tire Temp Outer RR,Toe In FL,Toe In FR,Toe In RL,Toe In RR,Turbo Boost,Wheel Angular Speed FL,Wheel Angular Speed FR,Wheel Angular Speed RL,Wheel Angular Speed RR,Wind Direction,Wind Speed
0,0.0,0.0,0.0,1.0,1.0,0.0,0.0,1.0,0.0,0.0,1.0,1.1856,26.0,0.0,0.0,0.0,59.99999,0.0,26.0,26.0,26.0,26.0,-0.08477777777777784,0.2984,0.053066666666666665,293.976,-2.71625,-2.6630000000000003,-1.5138500000000001,-1.5619,-275.53,216.29250000000002,190.98675,0.0,0.0,0.0,0.0,0.0016666666666666668,-5.498166666666667,-5.498166666666667,-0.5453,1.2086666666666668,-0.0129999999999999,-0.5999999999999996,65.553,-0.0386,-0.211675,0.9879999999999995,100.0,1.0,1.0,202.38333333333333,0.0,0.0,0.0,0.0,0.0,0.0,0.0,8578.3,0.0,55.0,5.0,235.96,0.0,0.0,0.0,0.0,0.0,0.0,0.0,0.0,0.006000000000000227,0.006000000000000227,0.0,0.0,0.0,55.0,616.79921,10000.0,85.0,85.0,85.0,85.0,395.0,0.0,0.0,0.0,1.0,20.0,52.75,52.75,49.438,49.438,34.0,-26.5025,23.798333333333332,-30.446666666666665,24.5025,0.0,1783.227,0.879999999999999,100.0,27.463,26.923000000000002,40.682,40.505,0.0,0.0,100.0,0.0,0.0,0.0,0.0,3011.142857142857,3399.7,4117.222222222223,3982.3,305.676,304.0283333333333,314.81625,314.9095,21.7923,20.5141,21.7753,21.3127,314.99999,314.99999,324.99998,324.99998,99.55972857142856,99.50723333333333,99.56548571428571,99.54521428571428,-0.0035000000000000586,-0.11733333333333329,-0.16216666666666665,0.05683333333333329,-0.06499999999999773,-0.026666666666670835,1.5426666666666666,1.5750000000000002,37.202,29.213,37.096000000000004,34.204499999999996,56.58,34.5205,59.173,51.635999999999996,54.474000000000004,33.677,57.797,49.9915,53.632,33.226,57.760999999999996,49.415,-0.01100000000000001,-0.13600000000000012,0.10236,0.10645,0.0,205.445,205.31,202.38333333333333,202.38333333333333,0.0,0.0
1,0.0,0.0,0.0,1.0,1.0,0.0,0.0,1.0,0.0,0.0,1.0,1.1856,26.0,0.0,0.0,0.0,59.999996,0.0,26.0,26.0,26.0,26.0,-0.11611111111111105,0.32120000000000015,-0.009133333333333334,293.015,-2.6272,-2.7742500000000003,-1.5196,-1.5142,-271.99,216.28750000000002,190.965375,0.0,0.0,0.0,0.0,0.0037333333333333337,-5.498166666666667,-5.498166666666667,-0.501,-0.7853333333333334,-0.062444444444444525,-0.39700000000000024,65.71600000000001,-0.055900000000000005,-0.20420000000000002,1.4100000000000001,100.0,1.0,1.0,202.57,0.0,0.0,0.0,0.0,0.0,0.0,0.0,8586.2,0.0,55.0,5.0,236.54666666666668,1.0,0.0,0.0,0.0,0.0,0.0,0.0,0.0,0.05999999999999872,0.05999999999999872,0.0,0.0,1.0,55.0,616.79921,10000.0,85.000001,85.000001,85.000001,85.000001,395.0,0.0,0.0,0.0,1.0,166.665,53.528,53.528,48.37,48.37,34.0,-26.9375,18.44833333333333,-33.74666666666667,28.1725,0.0,1783.175,0.9349999999999987,100.0,27.71,26.896,42.775999999999996,41.8,0.0,0.0,100.0,0.0,0.0,0.0,0.0,3056.4285714285716,2720.0,4280.0,4663.0,305.4535,306.17266666666666,314.32325,313.13275,21.8029,20.5195,21.7868,21.322400000000002,314.999998,314.999998,324.999988,324.999988,99.55974285714285,99.50726666666667,99.56564285714286,99.54537142857143,-0.018750000000000044,-0.1379999999999999,-0.18166666666666667,0.03716666666666679,-0.02833333333332888,-0.041666666666671404,1.4233333333333333,1.4896666666666667,37.268,29.246499999999997,37.167,34.265,56.562,34.5635,59.2205,51.705,54.458,33.716499999999996,57.841,50.058,53.614000000000004,33.263999999999996,57.8025,49.480000000000004,-0.0004999999999999449,-0.14349999999999996,0.11032000000000002,0.10781,0.0,205.9,205.76999999999998,202.57,202.57,0.0,0.0
2,0.0,0.0,0.0,1.0,1.0,0.0,0.0,1.0,0.0,0.0,1.0,1.1856,26.0,0.0,0.0,0.0,59.999996,0.0,26.0,26.0,26.0,26.0,-0.1276666666666666,0.3025,-0.03453333333333333,293.671,-2.61085,-2.788125,-1.49525,-1.601,-268.63,216.28,190.9465,0.0,0.0,0.0,0.0,0.0057,-5.498166666666667,-5.498166666666667,-0.5471,0.30833333333333335,-0.0425555555555559,1.6189999999999998,65.857,-0.0772,-0.24885000000000002,1.6600000000000001,100.0,1.0,1.0,203.4766666666667,0.0,0.0,0.0,0.0,0.0,0.0,0.0,8624.6,0.0,55.0,5.0,237.05666666666667,0.0,0.0,0.0,0.0,0.0,0.0,0.0,0.0,0.11100000000000065,0.11100000000000065,0.0,0.0,0.0,55.0,616.79921,10000.0,85.000001,85.000001,85.000001,85.000001,395.0,0.0,0.0,0.0,1.0,166.665,52.444,52.444,50.125,50.125,34.0,-30.35,19.913333333333334,-29.18,20.25,0.0,1783.124,0.6799999999999997,100.0,28.266,26.997,42.492000000000004,41.319,0.0,0.0,100.0,0.0,0.0,0.0,0.0,3351.857142857143,2950.2,3742.1111111111113,3771.9,304.636,305.37,315.69475,315.5415,21.8132,20.5245,21.7973,21.3311,314.999998,314.999998,324.999988,324.999988,99.55974285714285,99.50728333333333,99.56578571428571,99.54551428571429,-0.03249999999999997,-0.1523333333333332,-0.22166666666666665,-0.0018333333333333535,-0.07666666666666799,-0.02499999999999858,1.637,1.6746666666666665,37.333,29.278,37.233000000000004,34.3195,56.549,34.603,59.257999999999996,51.760999999999996,54.446,33.753,57.876,50.1115,53.601,33.299,57.8345,49.532666666666664,-0.020000000000000018,-0.13000000000000012,0.09964,0.10407000000000001,0.0,206.385,206.20499999999998,203.4766666666667,203.4766666666667,0.0,0.0
3,0.0,0.0,0.0,1.0,1.0,0.0,0.0,1.0,0.0,0.0,1.0,1.1856,26.0,0.0,0.0,0.0,59.999996,0.0,26.0,26.0,26.0,26.0,-0.13844444444444448,0.31120000000000014,0.08196666666666666,293.472,-2.7237999999999998,-2.69775,-1.5083,-1.5935000000000001,-265.67,216.26999999999998,190.929125,0.0,0.0,0.0,0.0,0.0074333333333333335,-5.498166666666667,-5.498166666666667,-0.5095000000000001,0.255,-0.012444444444444258,0.16300000000000026,65.992,-0.0898,-0.19955,1.2300000000000004,100.0,1.0,1.0,203.59,0.0,0.0,0.0,0.0,0.0,0.0,0.0,8629.5,0.0,55.0,5.0,237.54000000000002,1.0,0.0,0.0,0.0,0.0,0.0,0.0,0.0,0.1559999999999988,0.1559999999999988,0.0,0.0,1.0,55.0,616.79921,10000.0,85.000001,85.000001,85.000001,85.000001,395.0,0.0,0.0,0.0,1.0,166.665,53.604,53.604,48.141,48.141,34.0,-25.7275,18.634999999999998,-34.96333333333334,25.052500000000002,0.0,1783.077,0.629999999999999,100.0,27.923000000000002,26.865000000000002,42.489000000000004,41.338,0.0,0.0,100.0,0.0,0.0,0.0,0.0,2852.285714285714,2894.3,4285.888888888889,4266.6,306.093,305.637,314.334,314.28775,21.8219,20.5291,21.8065,21.339,314.999998,314.999998,324.999988,324.999988,99.55974285714285,99.5073,99.5659,99.54562857142857,-0.02224999999999988,-0.15166666666666662,-0.212,0.016666666666666607,-0.036666666666668846,-0.04333333333332945,1.4783333333333335,1.5173333333333334,37.387,29.3065,37.291,34.3685,56.534,34.6405,59.292500000000004,51.8165,54.431,33.7875,57.908500000000004,50.165,53.586,33.332,57.8645,49.585,-0.026499999999999968,-0.125,0.10536500000000001,0.11232500000000001,0.0,206.785,206.66,203.59,203.59,0.0,0.0
4,0.0,0.0,0.0,1.0,1.0,0.0,0.0,1.0,0.0,0.0,1.0,1.1856,26.0,0.0,0.0,0.0,59.999996,0.0,26.0,26.0,26.0,26.0,-0.1637777777777778,0.28059999999999996,-0.04996666666666667,293.686,-2.652,-2.753,-1.5213,-1.6031,-262.1,216.255,190.90825,0.0,0.0,0.0,0.0,0.0095,-5.498166666666667,-5.498166666666667,-0.5472,-0.6396666666666666,-0.08266666666666644,-0.35599999999999987,66.146,-0.09090000000000001,-0.23935,1.1320000000000014,100.0,1.0,1.0,204.23333333333335,0.0,0.0,0.0,0.0,0.0,0.0,0.0,8656.7,0.0,55.0,5.0,238.0966666666667,0.0,0.0,0.0,0.0,0.0,0.0,0.0,0.0,0.21000000000000085,0.21000000000000085,0.0,0.0,0.0,55.0,616.79921,10000.0,85.000001,85.000001,85.000001,85.000001,395.0,0.0,0.0,0.0,1.0,111.11,52.979,52.979,48.996,48.996,34.0,-29.127499999999998,19.80166666666667,-31.763333333333335,20.875,0.0,1783.025,0.5850000000000009,100.0,27.826999999999998,26.706,42.859,41.336,0.0,0.0,100.0,0.0,0.0,0.0,0.0,3242.0,2984.9,4007.1111111111113,3678.4,304.97,305.3686666666667,314.9945,315.6955,21.8323,20.5345,21.8178,21.348300000000002,314.999998,314.999998,324.999988,324.999988,99.55974285714285,99.50731666666667,99.56605714285715,99.54577142857143,-0.021749999999999936,-0.15166666666666662,-0.2085,0.017333333333333423,-0.06833333333332803,-0.045000000000001705,1.583,1.5979999999999999,37.452,29.3405,37.361000000000004,34.427,56.515,34.6845,59.3365,51.8785,54.413,33.828,57.9495,50.224000000000004,53.567,33.371,57.9025,49.643,-0.03049999999999997,-0.12200000000000011,0.10593500000000002,0.11215000000000001,0.0,207.215,207.11,204.23333333333335,204.23333333333335,0.0,0.0
5,0.0,0.0,0.0,1.0,1.0,0.0,0.0,1.0,0.0,0.0,1.0,1.1856,26.0,0.0,0.0,0.0,59.999996,0.0,26.0,26.0,26.0,26.0,-0.13277777777777777,0.3096000000000001,0.005066666666666666,293.564,-2.6744,-2.7662500000000003,-1.5106000000000002,-1.5848,-258.72,216.235,190.88775,0.0,0.0,0.0,0.0,0.011466666666666668,-5.498166666666667,-5.498166666666667,-0.5338,0.3286666666666667,-0.08233333333333359,-0.3129999999999997,66.293,-0.092,-0.211725,1.0700000000000003,100.0,1.0,1.0,204.58333333333331,0.0,0.0,0.0,0.0,0.0,0.0,0.0,8671.5,0.0,55.0,5.0,238.62666666666667,1.0,0.0,0.0,0.0,0.0,0.0,0.0,0.0,0.26099999999999923,0.26099999999999923,0.0,0.0,1.0,55.0,616.79921,10000.0,85.000001,85.000001,85.000001,85.000001,395.0,0.0,0.0,0.0,1.0,166.665,53.436,53.436,48.843,48.843,34.0,-28.555,18.931666666666665,-34.83,22.4825,0.0,1782.974,0.1750000000000007,100.0,27.739,26.714,42.575,41.256,0.0,0.0,100.0,0.0,0.0,0.0,0.0,3211.714285714286,2783.1,4237.333333333333,4064.4,305.189,305.8623333333333,314.57375,314.7265,21.8423,20.5396,21.8283,21.3571,314.999998,314.999998,324.999988,324.999988,99.55975714285714,99.50733333333334,99.5662,99.54591428571429,-0.014999999999999902,-0.1403333333333332,-0.22516666666666665,-0.0016666666666665941,-0.036666666666668846,-0.06666666666666998,1.5126666666666666,1.558,37.515,29.372500000000002,37.427,34.482,56.5,34.725,59.3765,51.9365,54.399,33.865,57.987,50.28,53.552,33.4065,57.937,49.69733333333333,-0.05699999999999994,-0.09099999999999997,0.11184000000000001,0.10844500000000001,0.0,207.7,207.62,204.58333333333331,204.58333333333331,0.0,0.0
6,0.0,0.0,0.0,1.0,1.0,0.0,0.0,1.0,0.0,0.0,1.0,1.1856,26.0,0.0,0.0,0.0,59.999996,0.0,26.0,26.0,26.0,26.0,-0.12288888888888894,0.29190000000000005,0.0038,293.442,-2.63435,-2.799625,-1.55155,-1.5838,-255.73,216.2175,190.869625,0.0,0.0,0.0,0.0,0.0132,-5.498166666666667,-5.498166666666667,-0.5308,0.11,-0.06300000000000017,0.8979999999999997,66.422,-0.0864,-0.214375,0.7039999999999997,100.0,1.0,1.0,204.98666666666668,0.0,0.0,0.0,0.0,0.0,0.0,0.0,8688.6,0.0,55.0,5.0,239.09,0.0,0.0,0.0,0.0,0.0,0.0,0.0,0.0,0.30600000000000094,0.30600000000000094,0.0,0.0,0.0,55.0,616.79921,10000.0,85.000001,85.000001,85.000001,85.000001,395.0,0.0,0.0,0.0,1.0,166.665,53.116,53.116,48.706,48.706,34.0,-26.43,21.49666666666667,-32.81,23.564999999999998,0.0,1782.928,-0.009999999999999787,100.0,27.864,26.72,42.791,41.472,0.0,0.0,100.0,0.0,0.0,0.0,0.0,3098.4285714285716,2976.8,4072.4444444444443,4050.2,305.2895,305.33666666666664,314.902,314.8405,21.8511,20.5442,21.8376,21.365,314.999998,314.999998,324.999988,324.999988,99.55975714285714,99.50735,99.56632857142857,99.54604285714285,0.00749999999999984,-0.12033333333333318,-0.20616666666666666,0.024333333333333318,-0.04999999999999716,-0.054999999999999716,1.537,1.5776666666666666,37.569,29.401,37.485,34.5315,56.486000000000004,34.7605,59.411500000000004,51.991,54.385,33.897999999999996,58.019999999999996,50.332,53.538,33.438,57.9675,49.748333333333335,-0.07250000000000001,-0.07800000000000007,0.11008000000000001,0.11040000000000001,0.0,208.07,208.005,204.98666666666668,204.98666666666668,0.0,0.0
7,0.0,0.0,0.0,1.0,1.0,0.0,0.0,1.0,0.0,0.0,1.0,1.1856,26.0,0.0,0.0,0.0,59.999996,0.0,26.0,26.0,26.0,26.0,-0.07133333333333336,0.2836000000000001,0.021,293.213,-2.6117,-2.729625,-1.5142,-1.625,-252.34,216.1925,190.84925,0.0,0.0,0.0,0.0,0.015166666666666667,-5.498166666666667,-5.498166666666667,-0.5342,-0.004,-0.05311111111111133,-0.21799999999999997,66.568,-0.0689,-0.22385000000000002,0.4039999999999999,100.0,1.0,1.0,205.40666666666667,0.0,0.0,0.0,0.0,0.0,0.0,0.0,8706.5,0.0,55.0,5.0,239.61666666666667,1.0,0.0,0.0,0.0,0.0,0.0,0.0,0.0,0.3569999999999993,0.3569999999999993,0.0,0.0,1.0,55.0,616.79921,10000.0,85.000001,85.000001,85.000001,85.000001,395.0,0.0,0.0,0.0,1.0,166.665,52.826,52.826,48.828,48.828,34.0,-26.7625,21.455,-31.826666666666664,24.8325,0.0,1782.876,-0.21999999999999886,100.0,27.811,26.941,42.727000000000004,41.821,0.0,0.0,100.0,0.0,0.0,0.0,0.0,3274.4285714285716,2943.5,4087.5555555555557,4024.6000000000004,304.869,305.281,314.87925,314.75725,21.861,20.5493,21.8481,21.374,314.999998,314.999998,324.999988,324.999988,99.55975714285714,99.50736666666667,99.56647142857143,99.54618571428571,0.03149999999999986,-0.10399999999999987,-0.192,0.03616666666666668,-0.06666666666666998,-0.054999999999999716,1.5236666666666667,1.5486666666666666,37.631,29.433500000000002,37.551,34.5875,56.47,34.8,59.451499999999996,52.052,54.370000000000005,33.9345,58.057,50.39,53.522999999999996,33.4725,58.001999999999995,49.80533333333334,-0.09350000000000003,-0.056499999999999995,0.10744500000000001,0.109825,0.0,208.525,208.48000000000002,205.40666666666667,205.40666666666667,0.0,0.0
8,0.0,0.0,0.0,1.0,1.0,0.0,0.0,1.0,0.0,0.0,1.0,1.1856,26.0,0.0,0.0,0.0,59.999996,0.0,26.0,26.0,26.0,26.0,-0.04566666666666663,0.2904,0.0273,293.488,-2.69365,-2.7201250000000003,-1.49645,-1.5772,-248.94,216.16750000000002,190.828625,0.0,0.0,0.0,0.0,0.017133333333333334,-5.498166666666667,-5.498166666666667,-0.5364,-0.6026666666666667,-0.03355555555555556,0.7860000000000005,66.714,-0.0471,-0.21555000000000002,-0.09399999999999942,100.0,1.0,1.0,205.79666666666668,0.0,0.0,0.0,0.0,0.0,0.0,0.0,8722.9,0.0,55.0,5.0,240.14,0.0,0.0,0.0,0.0,0.0,0.0,0.0,0.0,0.40800000000000125,0.40800000000000125,0.0,0.0,0.0,55.0,616.79921,10000.0,85.000001,85.000001,85.000001,85.000001,395.0,0.0,0.0,0.0,1.0,166.665,53.65,53.65,48.203,48.203,34.0,-23.395,22.84,-29.873333333333335,27.235,0.0,1782.826,-0.34499999999999886,100.0,27.466,26.729,42.797,41.839,0.0,0.0,100.0,0.0,0.0,0.0,0.0,2930.4285714285716,3006.8,4103.111111111111,4149.9,305.913,305.333,314.7345,314.5205,21.8707,20.5545,21.8586,21.383,314.999998,314.999998,324.999988,324.999988,99.55977142857142,99.50736666666667,99.56661428571428,99.54632857142857,0.051750000000000185,-0.07433333333333314,-0.1515,0.07633333333333336,-0.036666666666668846,-0.045000000000001705,1.5216666666666667,1.5190000000000001,37.692,29.466,37.616,34.6435,56.453,34.838,59.491,52.1125,54.354,33.9695,58.0935,50.448499999999996,53.504999999999995,33.5065,58.0355,49.86233333333333,-0.10499999999999998,-0.04600000000000004,0.10355500000000001,0.11174,0.0,208.935,208.935,205.79666666666668,205.79666666666668,0.0,0.0
9,0.0,0.0,0.0,1.0,1.0,0.0,0.0,1.0,0.0,0.0,1.0,1.1856,26.0,0.0,0.0,0.0,59.999996,0.0,26.0,26.0,26.0,26.0,-0.009000000000000008,0.30210000000000004,-0.0109,293.091,-2.6284,-2.718,-1.5556999999999999,-1.5603,-245.54,216.14,190.8075,0.0,0.0,0.0,0.0,0.019133333333333336,-5.498166666666667,-5.498166666666667,-0.5391,0.766,-0.03288888888888897,-0.2549999999999999,66.856,-0.0261,-0.21425000000000002,-0.14200000000000035,100.0,1.0,1.0,206.34,0.0,0.0,0.0,0.0,0.0,0.0,0.0,8746.0,0.0,55.0,5.0,240.65333333333334,1.0,0.0,0.0,0.0,0.0,0.0,0.0,0.0,0.45899999999999963,0.45899999999999963,0.0,0.0,1.0,55.0,616.79921,10000.0,85.000001,85.000001,85.000001,85.000001,395.0,0.0,0.0,0.0,1.0,166.665,52.414,52.414,49.088,49.088,34.0,-25.544999999999998,23.661666666666665,-28.71,27.0775,0.0,1782.775,-0.48499999999999943,100.0,27.912,27.35,42.331,41.956,0.0,0.0,100.0,0.0,0.0,0.0,0.0,3328.714285714286,2993.0,4061.8888888888887,4080.7,304.744,305.12533333333334,315.0425,314.72225,21.8806,20.56,21.869,21.3919,314.999998,314.999998,324.999988,324.999988,99.55977142857142,99.50738333333334,99.56675714285714,99.54645714285714,0.0714999999999999,-0.057666666666666755,-0.13066666666666665,0.09299999999999997,-0.045000000000001705,-0.05833333333333002,1.5843333333333334,1.569,37.754000000000005,29.499499999999998,37.681,34.699,56.44,34.8775,59.527,52.172,54.341,34.006,58.126999999999995,50.504999999999995,53.492000000000004,33.541,58.066,49.918,-0.11499999999999999,-0.03950000000000009,0.10415500000000001,0.11630000000000001,0.0,209.39,209.39499999999998,206.34,206.34,0.0,0.0
10,0.0,0.0,0.0,1.0,1.0,0.0,0.0,1.0,0.0,0.0,1.0,1.1856,26.0,0.0,0.0,0.0,59.999996,0.0,26.0,26.0,26.0,26.0,0.019444444444444375,0.2943,0.048100000000000004,293.03,-2.7043,-2.7043749999999998,-1.5406,-1.5430000000000001,-242.12,216.1125,190.78675,0.0,0.0,0.0,0.0,0.0211,-5.498166666666667,-5.498166666666667,-0.5211,-0.767,0.013777777777777889,1.5890000000000004,67.002,-0.0066,-0.20877500000000002,-0.5300000000000002,100.0,1.0,1.0,206.60333333333335,0.0,0.0,0.0,0.0,0.0,0.0,0.0,8757.2,0.0,55.0,5.0,241.18,0.0,0.0,0.0,0.0,0.0,0.0,1.0,0.0,0.509999999999998,0.509999999999998,0.0,0.0,0.0,55.0,616.79921,10000.0,85.000001,85.000001,85.000001,85.000001,395.0,0.0,0.0,0.0,1.0,166.665,53.543,53.543,47.684,47.684,34.0,-20.695,23.946666666666665,-29.056666666666665,30.7075,0.0,1782.725,-0.625,100.0,27.707,27.154,42.906,42.663,0.0,0.0,100.0,0.0,0.0,0.0,0.0,2819.285714285714,2989.7,4200.777777777777,4315.3,306.2465,305.39166666666665,314.519,314.13775,21.8904,20.5652,21.8796,21.4011,314.999998,314.999998,324.999988,324.999988,99.55978571428571,99.50738333333334,99.56691428571429,99.54661428571428,0.09775,-0.03933333333333322,-0.1055,0.1213333333333333,-0.04833333333333201,-0.05333333333332746,1.49,1.472,37.815,29.5325,37.747,34.7565,56.425,34.914,59.567499999999995,52.236000000000004,54.327,34.039500000000004,58.165,50.567,53.477000000000004,33.573499999999996,58.101,49.97866666666667,-0.12549999999999994,-0.03049999999999997,0.10809500000000001,0.10562500000000001,0.0,209.82,209.84,206.60333333333335,206.60333333333335,0.0,0.0
11,0.0,0.0,0.0,1.0,1.0,0.0,0.0,1.0,0.0,0.0,1.0,1.1856,26.0,0.0,0.0,0.0,59.999996,0.0,26.0,26.0,26.0,26.0,0.027444444444444382,0.27780000000000005,-0.07583333333333334,293.533,-2.703,-2.68725,-1.5881,-1.5261,-238.9,216.0875,190.76725,0.0,0.0,0.0,0.0,0.022600000000000002,-5.498166666666667,-5.498166666666667,-0.5618000000000001,-0.12766666666666668,0.03122222222222204,0.3340000000000005,67.132,0.011600000000000001,-0.23655,-0.6339999999999995,100.0,1.0,1.0,207.30666666666667,0.0,0.0,0.0,0.0,0.0,0.0,0.0,8787.0,0.0,55.0,5.0,241.65,1.0,0.0,0.0,0.0,0.0,0.0,1.0,0.0,0.5579999999999998,0.5579999999999998,0.0,0.0,1.0,55.0,616.79921,10000.0,85.000001,85.000001,85.000001,85.000001,395.0,0.0,0.0,0.0,1.0,333.33500000000004,52.841,52.841,49.316,49.316,34.0,-21.8475,26.36,-23.560000000000002,26.69,0.0,1782.675,-0.75,100.0,27.567,27.42,42.322,42.525,0.0,0.0,100.0,0.0,0.0,0.0,0.0,3008.142857142857,3182.2,3695.777777777778,3873.4,305.6435,304.72766666666666,315.879,315.2535,21.8994,20.5704,21.8893,21.4095,314.999998,314.999998,324.999988,324.999988,99.5598,99.5074,99.56704285714285,99.54674285714286,0.10975000000000001,-0.023333333333333206,-0.07916666666666668,0.13483333333333336,-0.03333333333333144,-0.060000000000002274,1.6373333333333333,1.6323333333333334,37.870999999999995,29.564999999999998,37.808,34.8095,56.411,34.9495,59.599000000000004,52.292,54.314,34.0725,58.194,50.6205,53.463,33.605000000000004,58.1275,50.031333333333336,-0.12849999999999995,-0.026499999999999968,0.097415,0.10490500000000001,0.0,210.21,210.25,207.30666666666667,207.30666666666667,0.0,0.0
12,0.0,0.0,0.0,1.0,1.0,0.0,0.0,1.0,0.0,0.0,1.0,1.1856,26.0,0.0,0.0,0.0,59.999996,0.0,26.0,26.0,26.0,26.0,0.05466666666666686,0.28090000000000015,0.04106666666666667,292.862,-2.76075,-2.67875,-1.5566,-1.5242,-235.48,216.06,190.745125,0.0,0.0,0.0,0.0,0.025466666666666665,-5.498166666666667,-5.498166666666667,-0.5445,0.27666666666666667,0.016999999999999904,-0.8200000000000003,67.278,0.030600000000000002,-0.206325,-0.6579999999999995,100.0,1.0,1.0,207.51333333333332,0.0,0.0,0.0,0.0,0.0,0.0,0.0,8795.8,0.0,55.0,5.0,242.17000000000002,0.0,0.0,0.0,0.0,0.0,0.0,1.0,0.0,0.6089999999999982,0.6089999999999982,0.0,0.0,0.0,55.0,616.79921,10000.0,85.000001,85.000001,85.000001,85.000001,395.0,0.0,0.0,0.0,1.0,166.665,52.719,52.719,47.836,47.836,34.0,-23.697499999999998,25.79,-28.166666666666664,30.7775,0.0,1782.624,-0.45500000000000007,100.0,27.346,27.77,42.262,42.603,0.0,0.0,100.0,0.0,0.0,0.0,0.0,3145.0,3111.1,4254.777777777777,4193.9,305.4205,304.79366666666664,314.54725,314.40975,21.909,20.5759,21.8997,21.4185,314.999998,314.999998,324.999988,324.999988,99.5598,99.5074,99.56718571428571,99.54688571428571,0.10175000000000001,-0.023333333333333206,-0.082,0.14866666666666672,-0.046666666666666856,-0.04333333333332945,1.5156666666666667,1.4953333333333334,37.932,29.599,37.873000000000005,34.8655,56.397999999999996,34.987,59.637,52.3525,54.301,34.1075,58.2295,50.679,53.45,33.6385,58.16,50.08866666666667,-0.11249999999999993,-0.03649999999999998,0.10921000000000002,0.104275,0.0,210.675,210.72500000000002,207.51333333333332,207.51333333333332,0.0,0.0
13,0.0,0.0,0.0,1.0,1.0,0.0,0.0,1.0,0.0,0.0,1.0,1.1856,26.0,0.0,0.0,0.0,59.999996,0.0,26.0,26.0,26.0,26.0,0.0715555555555556,0.29259999999999997,0.05933333333333334,292.542,-2.70445,-2.6727499999999997,-1.59205,-1.5062,-232.04,216.035,190.723375,0.0,0.0,0.0,0.0,0.02696666666666667,-5.498166666666667,-5.498166666666667,-0.5396000000000001,-0.11866666666666667,0.02644444444444427,1.1029999999999998,67.42,0.0383,-0.21735000000000002,-0.9079999999999995,100.0,1.0,1.0,207.90666666666667,0.0,0.0,0.0,0.0,0.0,0.0,0.0,8812.4,0.0,55.0,5.0,242.68333333333334,1.0,0.0,0.0,0.0,0.0,0.0,1.0,0.0,0.6600000000000001,0.6600000000000001,0.0,0.0,1.0,55.0,616.79921,10000.0,85.000001,85.000001,85.000001,85.000001,395.0,0.0,0.0,0.0,1.0,166.665,52.444,52.444,47.913,47.913,34.0,-20.412499999999998,28.116666666666667,-26.560000000000002,32.865,0.0,1782.573,-0.8550000000000004,100.0,27.831,27.819,42.584,43.035,0.0,0.0,100.0,0.0,0.0,0.0,0.0,3033.285714285714,3195.1,4113.777777777777,4369.2,305.5195,304.7096666666667,314.76875,314.05075,21.9187,20.5814,21.9102,21.4277,314.999998,314.999998,324.999988,324.999988,99.55982857142857,99.5074,99.56732857142858,99.54702857142857,0.14975000000000005,0.019333333333333425,-0.058833333333333335,0.16383333333333328,-0.04333333333332945,-0.061666666666667425,1.4963333333333333,1.483,37.992000000000004,29.634,37.939,34.923,56.387,35.0255,59.675,52.417,54.291,34.1425,58.265,50.741,53.438,33.6725,58.192,50.14933333333333,-0.14649999999999996,-0.009500000000000064,0.10907000000000001,0.10950000000000001,0.0,211.10500000000002,211.14499999999998,207.90666666666667,207.90666666666667,0.0,0.0
14,0.0,0.0,0.0,1.0,1.0,0.0,0.0,1.0,0.0,0.0,1.0,1.1856,26.0,0.0,0.0,0.0,59.999996,0.0,26.0,26.0,26.0,26.0,0.09544444444444444,0.28280000000000016,-0.009266666666666668,292.77,-2.7351,-2.61375,-1.60275,-1.5105,-228.8,216.015,190.703375,0.0,0.0,0.0,0.0,0.028833333333333332,-5.498166666666667,-5.498166666666667,-0.5492,-0.098,0.05566666666666675,1.2650000000000006,67.551,0.050300000000000004,-0.228475,-1.0659999999999998,100.0,1.0,1.0,208.40666666666667,0.0,0.0,0.0,0.0,0.0,0.0,0.0,8833.7,0.0,55.0,5.0,243.15333333333334,0.0,0.0,0.0,0.0,0.0,0.0,1.0,0.0,0.7079999999999984,0.7079999999999984,0.0,0.0,0.0,55.0,616.79921,10000.0,85.000001,85.000001,85.000001,85.000001,395.0,0.0,0.0,0.0,1.0,111.11,52.551,52.551,48.08,48.08,34.0,-19.335,28.756666666666668,-24.583333333333336,32.644999999999996,0.0,1782.527,-0.9399999999999995,100.0,27.729,27.912,42.535,43.226,0.0,0.0,100.0,0.0,0.0,0.0,0.0,2919.857142857143,3275.0,3937.3333333333335,4227.9,305.8775,304.472,315.2165,314.40725,21.9278,20.5866,21.92,21.4363,314.999998,314.999998,324.999988,324.999988,99.55984285714285,99.5074,99.56745714285714,99.54717142857143,0.16100000000000003,0.028000000000000025,-0.049666666666666665,0.18766666666666687,-0.03499999999999659,-0.05666666666667197,1.5673333333333332,1.532,38.049,29.6665,38.0,34.977000000000004,56.376999999999995,35.061,59.7085,52.4755,54.281,34.176,58.296,50.7975,53.427,33.704,58.22,50.20466666666667,-0.15200000000000002,-0.0040000000000000036,0.10876500000000001,0.10996500000000001,0.0,211.5,211.57,208.40666666666667,208.40666666666667,0.0,0.0
15,0.0,0.0,0.0,1.0,1.0,0.0,0.0,1.0,0.0,0.0,1.0,1.1856,26.0,0.0,0.0,0.0,59.999996,0.0,26.0,26.0,26.0,26.0,0.1226666666666667,0.2821,-0.056900000000000006,292.786,-2.75035,-2.62725,-1.6285500000000002,-1.5126,-225.35,215.9925,190.68175,0.0,0.0,0.0,0.0,0.03086666666666667,-5.498166666666667,-5.498166666666667,-0.5387000000000001,0.20033333333333334,0.08122222222222208,-0.6390000000000002,67.691,0.0648,-0.208875,-1.1079999999999997,100.0,1.0,1.0,208.79666666666668,0.0,0.0,0.0,0.0,0.0,0.0,0.0,8850.2,0.0,55.0,5.0,243.66,1.0,0.0,0.0,0.0,0.0,0.0,1.0,0.0,0.7590000000000003,0.7590000000000003,0.0,0.0,1.0,55.0,616.79921,10000.0,85.000001,85.000001,85.000001,85.000001,395.0,0.0,0.0,0.0,1.0,166.665,52.841,52.841,48.096000000000004,48.096000000000004,34.0,-18.77,27.626666666666665,-24.346666666666664,34.2525,0.0,1782.476,-0.9649999999999999,100.0,27.528,28.113,42.2,43.444,0.0,0.0,100.0,0.0,0.0,0.0,0.0,2871.714285714286,3112.1,3991.777777777778,4339.1,306.205,304.708,315.17825,314.0035,21.9374,20.5922,21.9304,21.4454,314.999998,314.999998,324.999988,324.999988,99.55985714285714,99.5074,99.5676,99.54731428571428,0.16425,0.02933333333333321,-0.03066666666666667,0.1911666666666667,-0.03999999999999915,-0.04833333333333201,1.5463333333333333,1.5030000000000001,38.108000000000004,29.7015,38.065,35.034,56.367000000000004,35.0995,59.7435,52.539,54.271,34.2115,58.328,50.8585,53.416,33.7385,58.249,50.26466666666666,-0.15249999999999997,-0.0024999999999999467,0.10508500000000001,0.108355,0.0,211.93,212.035,208.79666666666668,208.79666666666668,0.0,0.0
16,0.0,0.0,0.0,1.0,1.0,0.0,0.0,1.0,0.0,0.0,1.0,1.1856,26.0,0.0,0.0,0.0,59.999996,0.0,26.0,26.0,26.0,26.0,0.10622222222222222,0.26649999999999996,-0.0061333333333333335,292.755,-2.79945,-2.5866249999999997,-1.5972,-1.5175,-221.9,215.975,190.659625,0.0,0.0,0.0,0.0,0.03286666666666667,-5.498166666666667,-5.498166666666667,-0.5638000000000001,-0.6113333333333334,0.06477777777777782,-0.0259999999999998,67.831,0.0767,-0.227975,-1.0760000000000005,100.0,1.0,1.0,209.26333333333332,0.0,0.0,0.0,0.0,0.0,0.0,0.0,8869.9,0.0,55.0,5.0,244.16333333333336,0.0,0.0,0.0,0.0,0.0,0.0,1.0,0.0,0.8099999999999987,0.8099999999999987,0.0,0.0,0.0,55.0,616.79921,10000.0,85.000001,85.000001,85.000001,85.000001,395.0,0.0,0.0,0.0,1.0,166.665,52.475,52.475,48.035,48.035,34.0,-21.31,28.875,-22.89,33.275000000000006,0.0,1782.425,-0.5099999999999998,100.0,27.415,28.018,42.524,43.409,0.0,0.0,100.0,0.0,0.0,0.0,0.0,3028.857142857143,3352.7,3893.222222222222,4116.7,305.738,304.27233333333334,315.33775,314.63525,21.9467,20.5978,21.9409,21.4546,314.999998,314.999998,324.999988,324.999988,99.55987142857143,99.50741666666667,99.56774285714286,99.54745714285714,0.14375000000000027,0.019333333333333425,-0.02416666666666667,0.21799999999999997,-0.045000000000001705,-0.05666666666667197,1.577,1.5316666666666667,38.167,29.7365,38.131,35.091,56.352999999999994,35.138999999999996,59.7805,52.6005,54.257,34.248,58.363,50.918,53.400999999999996,33.7735,58.281,50.32333333333334,-0.11749999999999994,-0.03550000000000009,0.10519,0.11486500000000001,0.0,212.34,212.41500000000002,209.26333333333332,209.26333333333332,0.0,0.0
17,0.0,0.0,0.0,1.0,1.0,0.0,0.0,1.0,0.0,0.0,1.0,1.1856,26.0,0.0,0.0,0.0,59.999996,0.0,26.0,26.0,26.0,26.0,0.07333333333333325,0.2881,0.04056666666666667,292.328,-2.7569,-2.571625,-1.62975,-1.4888,-218.44,215.96,190.637,0.0,0.0,0.0,0.0,0.03486666666666667,-5.498166666666667,-5.498166666666667,-0.5481,0.41533333333333333,0.032777777777777795,-0.931,67.97,0.0719,-0.20525000000000002,-0.387999999999999,100.0,1.0,1.0,209.58333333333331,0.0,0.0,0.0,0.0,0.0,0.0,0.0,8883.5,0.0,55.0,5.0,244.66333333333336,1.0,0.0,0.0,0.0,0.0,0.0,1.0,0.0,0.8610000000000007,0.8610000000000007,0.0,0.0,1.0,55.0,616.79921,10000.0,85.000001,85.000001,85.000001,85.000001,395.0,0.0,0.0,0.0,1.0,166.665,52.353,52.353,47.531,47.531,34.0,-23.0325,24.895,-28.0,32.760000000000005,0.0,1782.374,-0.02999999999999936,100.0,27.788,28.335,42.379,43.437,0.0,0.0,100.0,0.0,0.0,0.0,0.0,3149.714285714286,3078.2,4389.222222222223,4306.1,305.439,304.93466666666666,314.3065,314.2,21.9563,20.6035,21.9513,21.4637,314.999998,314.999998,324.999988,324.999988,99.5599,99.50741666666667,99.56788571428571,99.54761428571429,0.11675000000000013,-0.014000000000000012,-0.041,0.17733333333333334,-0.04999999999999716,-0.03333333333333144,1.5046666666666666,1.492,38.227000000000004,29.772,38.195,35.147999999999996,56.342,35.178,59.8165,52.6625,54.247,34.284,58.3965,50.9775,53.39,33.8085,58.311,50.38166666666667,-0.08099999999999996,-0.06899999999999995,0.100735,0.10497500000000001,0.0,212.82999999999998,212.86,209.58333333333331,209.58333333333331,0.0,0.0
18,0.0,0.0,0.0,1.0,1.0,0.0,0.0,1.0,0.0,0.0,1.0,1.1856,26.0,0.0,0.0,0.0,59.999996,0.0,26.0,26.0,26.0,26.0,0.02244444444444449,0.2761,-0.021,292.435,-2.77145,-2.5626249999999997,-1.6303,-1.4476,-215.37,215.95,190.617375,0.0,0.0,0.0,0.0,0.03666666666666667,-5.498166666666667,-5.498166666666667,-0.561,-0.5266666666666666,0.04299999999999993,0.726,68.092,0.0545,-0.2245,-0.06799999999999962,100.0,1.0,1.0,210.01666666666665,0.0,0.0,0.0,0.0,0.0,0.0,0.0,8901.9,0.0,55.0,5.0,245.10333333333335,0.0,0.0,0.0,0.0,0.0,0.0,1.0,0.0,0.9059999999999988,0.9059999999999988,0.0,0.0,0.0,55.0,616.79921,10000.0,85.000001,85.000001,85.000001,85.000001,395.0,0.0,0.0,0.0,1.0,166.665,52.277,52.277,47.684,47.684,34.0,-23.14,26.355,-26.71666666666666,30.11,0.0,1782.329,0.14000000000000057,100.0,27.794,27.976,42.863,43.55,0.0,0.0,100.0,0.0,0.0,0.0,0.0,3074.857142857143,3330.7,4062.4444444444443,4171.6,305.5385,304.39366666666666,314.9705,314.574,21.9646,20.6084,21.9606,21.471899999999998,314.999998,314.999998,324.999988,324.999988,99.5599,99.50741666666667,99.56801428571428,99.54774285714285,0.10599999999999987,-0.026000000000000023,-0.064,0.16516666666666668,-0.04333333333332945,-0.04333333333332945,1.5376666666666667,1.532,38.278999999999996,29.802500000000002,38.254000000000005,35.199,56.33,35.211,59.85,52.718,54.235,34.315,58.427,51.031,53.376999999999995,33.838,58.339,50.434333333333335,-0.07050000000000001,-0.08750000000000013,0.10653000000000001,0.11078,0.0,213.19,213.19,210.01666666666665,210.01666666666665,0.0,0.0
19,0.0,0.0,0.0,1.0,1.0,0.0,0.0,1.0,0.0,0.0,1.0,1.1856,26.0,0.0,0.0,0.0,59.999996,0.0,26.0,26.0,26.0,26.0,0.004666666666666597,0.29200000000000004,0.05856666666666666,291.916,-2.67645,-2.566375,-1.6285,-1.4479,-211.89999999999998,215.9375,190.59475,0.0,0.0,0.0,0.0,0.03866666666666667,-5.498166666666667,-5.498166666666667,-0.5494,0.85,0.030000000000000027,-1.0190000000000001,68.229,0.031,-0.21035,0.3120000000000003,100.0,1.0,1.0,210.40666666666667,0.0,0.0,0.0,0.0,0.0,0.0,0.0,8918.3,0.0,55.0,5.0,245.59333333333336,1.0,0.0,0.0,0.0,0.0,0.0,1.0,0.0,0.9570000000000007,0.9570000000000007,0.0,0.0,1.0,55.0,616.79921,10000.0,85.000001,85.000001,85.000001,85.000001,395.0,0.0,0.0,0.0,1.0,166.665,51.666,51.666,47.394,47.394,34.0,-24.3025,24.421666666666667,-30.653333333333336,29.575,0.0,1782.276,0.22500000000000142,100.0,28.312,28.517,42.711,43.475,0.0,0.0,100.0,0.0,0.0,0.0,0.0,3198.714285714286,3211.8,4320.888888888889,4351.0,305.1645,304.477,314.47375,314.13775,21.9743,20.6142,21.971,21.481,314.999998,314.999998,324.999988,324.999988,99.55991428571429,99.50743333333334,99.56815714285715,99.54788571428571,0.08450000000000024,-0.05366666666666675,-0.09916666666666667,0.12483333333333335,-0.054999999999999716,-0.04833333333333201,1.5053333333333332,1.5146666666666666,38.34,29.8385,38.319,35.2565,56.318,35.251999999999995,59.885,52.778999999999996,54.224000000000004,34.353,58.46,51.09,53.364999999999995,33.8745,58.3685,50.492,-0.06399999999999995,-0.10000000000000009,0.10769000000000001,0.10383,0.0,213.675,213.625,210.40666666666667,210.40666666666667,0.0,0.0
20,0.0,0.0,0.0,1.0,1.0,0.0,0.0,1.0,0.0,0.0,1.0,1.1856,26.0,0.0,0.0,0.0,59.999996,0.0,26.0,26.0,26.0,26.0,0.0015555555555555323,0.2631000000000001,0.011266666666666668,292.343,-2.7496,-2.657,-1.53735,-1.5870000000000002,-208.41,215.925,190.572375,0.0,0.0,0.0,0.0,0.0407,-5.498166666666667,-5.498166666666667,-0.5563,-1.1956666666666669,0.012444444444444258,0.17100000000000026,68.368,0.0045000000000000005,-0.22387500000000002,0.46200000000000063,100.0,1.0,1.0,210.75666666666666,0.0,0.0,0.0,0.0,0.0,0.0,0.0,8933.2,0.0,55.0,5.0,246.09666666666666,0.0,0.0,0.0,0.0,0.0,0.0,0.0,0.0,1.0079999999999991,1.0079999999999991,0.0,0.0,0.0,55.0,616.79921,10000.0,85.000001,85.000001,85.000001,85.000001,395.0,0.0,0.0,0.0,1.0,166.665,52.765,52.765,46.997,46.997,34.0,-23.755,23.78,-28.96,30.5125,0.0,1782.225,0.2749999999999986,100.0,27.913,27.878,43.586,43.614000000000004,0.0,0.0,100.0,0.0,0.0,0.0,0.0,2973.4285714285716,3113.0,4160.444444444444,4197.8,305.873,305.02,314.62225,314.363,21.9837,20.6196,21.9817,21.4903,314.999998,314.999998,324.999988,324.999988,99.55994285714286,99.50743333333334,99.5683,99.54802857142857,0.0637500000000002,-0.06166666666666676,-0.108,0.12316666666666687,-0.03833333333332689,-0.030000000000001137,1.4696666666666665,1.4896666666666667,38.397999999999996,29.872500000000002,38.385,35.314499999999995,56.301,35.2905,59.9255,52.841499999999996,54.208,34.3885,58.4975,51.15,53.348,33.908500000000004,58.403,50.551,-0.05249999999999999,-0.09549999999999992,0.108255,0.11524500000000001,0.0,214.05,213.995,210.75666666666666,210.75666666666666,0.0,0.0
21,0.0,0.0,0.0,1.0,1.0,0.0,0.0,1.0,0.0,0.0,1.0,1.1856,26.0,0.0,0.0,0.0,59.999996,0.0,26.0,26.0,26.0,26.0,-0.02388888888888885,0.2775000000000001,-0.04256666666666667,292.587,-2.6989,-2.676,-1.58925,-1.5588000000000002,-204.92000000000002,215.9125,190.54925,0.0,0.0,0.0,0.0,0.04273333333333333,-5.498166666666667,-5.498166666666667,-0.5747,0.5593333333333333,-0.02066666666666661,-1.0579999999999998,68.5,-0.018500000000000003,-0.217875,0.5739999999999998,100.0,1.0,1.0,211.36666666666667,0.0,0.0,0.0,0.0,0.0,0.0,0.0,8959.1,0.0,55.0,5.0,246.57333333333332,1.0,0.0,0.0,0.0,0.0,0.0,0.0,0.0,1.059000000000001,1.059000000000001,0.0,0.0,1.0,55.0,616.79921,10000.0,85.000001,85.000001,85.000001,85.000001,395.0,0.0,0.0,0.0,1.0,166.665,52.307,52.307,48.065,48.065,34.0,-26.1725,22.578333333333333,-30.29,25.71,0.0,1782.174,0.1750000000000007,100.0,28.191,28.033,42.987,43.061,0.0,0.0,100.0,0.0,0.0,0.0,0.0,3229.714285714286,3025.5,4144.888888888889,3989.9,305.193,305.117,314.89825,315.0055,21.9934,20.6252,21.992,21.499299999999998,314.999998,314.999998,324.999988,324.999988,99.55994285714286,99.50745,99.56845714285714,99.54818571428571,0.05049999999999999,-0.08133333333333326,-0.1375,0.08216666666666672,-0.046666666666666856,-0.045000000000001705,1.5706666666666667,1.5926666666666667,38.459,29.9075,38.45,35.3705,56.287,35.331,59.959,52.897999999999996,54.194,34.426,58.528999999999996,51.204499999999996,53.333,33.9445,58.4315,50.60433333333333,-0.06299999999999994,-0.09400000000000008,0.10665000000000001,0.106465,0.0,214.505,214.46,211.36666666666667,211.36666666666667,0.0,0.0
22,0.0,0.0,0.0,1.0,1.0,0.0,0.0,1.0,0.0,0.0,1.0,1.1856,26.0,0.0,0.0,0.0,59.999996,0.0,26.0,26.0,26.0,26.0,-0.03388888888888886,0.27970000000000006,-0.022566666666666665,292.175,-2.75385,-2.64725,-1.5824500000000001,-1.5512000000000001,-201.22,215.9,190.524,0.0,0.0,0.0,0.0,0.04486666666666667,-5.498166666666667,-5.498166666666667,-0.5574,-0.22433333333333336,-0.017555555555555546,-0.6840000000000002,68.647,-0.0302,-0.20522500000000002,0.5579999999999998,100.0,1.0,1.0,211.61666666666667,0.0,0.0,0.0,0.0,0.0,0.0,0.0,8969.7,0.0,55.0,5.0,247.10333333333335,0.0,0.0,0.0,0.0,0.0,0.0,0.0,0.0,1.1129999999999995,1.1129999999999995,0.0,0.0,0.0,55.0,616.79921,10000.0,85.000001,85.000001,85.000001,85.000001,395.0,0.0,0.0,0.0,1.0,111.11,52.597,52.597,47.028,47.028,34.0,-25.982499999999998,21.240000000000002,-32.86333333333333,27.9475,0.0,1782.122,0.08999999999999986,100.0,28.228,28.032,43.572,43.378,0.0,0.0,100.0,0.0,0.0,0.0,0.0,3130.714285714286,2961.4,4327.111111111111,4252.1,305.596,305.36766666666665,314.4055,314.2685,22.0035,20.631,22.0033,21.5091,314.999998,314.999998,324.999988,324.999988,99.55994285714286,99.50745,99.5686,99.54834285714286,0.04125000000000023,-0.09299999999999997,-0.14716666666666667,0.07716666666666683,-0.06499999999999773,-0.03833333333332689,1.4793333333333334,1.4926666666666666,38.522,29.944,38.519999999999996,35.432,56.271,35.3735,60.0015,52.963,54.179,34.465,58.5685,51.266999999999996,53.317,33.982,58.468,50.665333333333336,-0.07050000000000001,-0.08750000000000013,0.10065,0.1096,0.0,214.95499999999998,214.89499999999998,211.61666666666667,211.61666666666667,0.0,0.0
23,0.0,0.0,0.0,1.0,1.0,0.0,0.0,1.0,0.0,0.0,1.0,1.1856,26.0,0.0,0.0,0.0,59.999996,0.0,26.0,26.0,26.0,26.0,-0.04588888888888887,0.26249999999999996,-0.010400000000000001,292.16,-2.64935,-2.6915,-1.6318000000000001,-1.6185,-198.13,215.885,190.503375,0.0,0.0,0.0,0.0,0.04666666666666667,-5.498166666666667,-5.498166666666667,-0.5758,-0.15733333333333335,-0.019777777777777672,0.6040000000000001,68.764,-0.0352,-0.231075,0.4820000000000002,100.0,1.0,1.0,212.12,0.0,0.0,0.0,0.0,0.0,0.0,0.0,8990.9,0.0,55.0,5.0,247.52666666666664,1.0,0.0,0.0,0.0,0.0,0.0,0.0,0.0,1.1580000000000013,1.1580000000000013,0.0,0.0,1.0,55.0,616.79921,10000.0,85.000001,85.000001,85.000001,85.000001,395.0,0.0,0.0,0.0,1.0,111.11,51.697,51.697,48.126,48.126,34.0,-26.19,23.384999999999998,-30.196666666666665,26.44,0.0,1782.077,-0.004999999999999005,100.0,28.795,28.009999999999998,43.735,43.417,0.0,0.0,100.0,0.0,0.0,0.0,0.0,3263.0,3132.0,3978.777777777778,3965.5,304.842,304.93466666666666,315.2655,315.00825,22.012,20.636,22.0126,21.5172,314.999998,314.999998,324.999988,324.999988,99.55995714285714,99.50746666666667,99.56872857142857,99.54845714285715,0.053999999999999826,-0.08333333333333326,-0.15066666666666667,0.08099999999999996,-0.04333333333332945,-0.06499999999999773,1.5383333333333333,1.5636666666666668,38.575,29.975,38.579,35.4825,56.257999999999996,35.4095,60.0345,53.016,54.167,34.4985,58.599000000000004,51.318,53.305,34.013999999999996,58.496,50.715,-0.07899999999999996,-0.08250000000000002,0.10559,0.11207500000000001,0.0,215.305,215.255,212.12,212.12,0.0,0.0
24,0.0,0.0,0.0,1.0,1.0,0.0,0.0,1.0,0.0,0.0,1.0,1.1856,26.0,0.0,0.0,0.0,59.999996,0.0,26.0,26.0,26.0,26.0,-0.05022222222222217,0.26780000000000004,-0.06143333333333334,292.374,-2.68215,-2.694125,-1.5546,-1.5565,-194.62,215.87,190.479375,0.0,0.0,0.0,0.0,0.04873333333333334,-5.498166666666667,-5.498166666666667,-0.5818,-0.577,-0.009333333333333194,-0.07200000000000006,68.901,-0.0324,-0.218175,0.274,100.0,1.0,1.0,212.42666666666668,0.0,0.0,0.0,0.0,0.0,0.0,0.0,9004.0,0.0,55.0,5.0,248.01333333333332,0.0,0.0,0.0,0.0,0.0,0.0,0.0,0.0,1.2089999999999996,1.2089999999999996,0.0,0.0,0.0,55.0,616.79921,10000.0,85.000001,85.000001,85.000001,85.000001,395.0,0.0,0.0,0.0,1.0,166.665,52.872,52.872,47.058,47.058,34.0,-23.77,21.498333333333335,-32.403333333333336,26.9725,0.0,1782.025,-0.054999999999999716,100.0,28.299,27.829,43.716,43.393,0.0,0.0,100.0,0.0,0.0,0.0,0.0,2972.4285714285716,2908.3,4286.222222222223,4128.7,305.8885,305.461,314.4665,314.634,22.0215,20.6414,22.0231,21.5264,314.999998,314.999998,324.999988,324.999988,99.55995714285714,99.50748333333334,99.56888571428571,99.54861428571428,0.04925000000000024,-0.08733333333333326,-0.15366666666666667,0.07850000000000001,-0.041666666666671404,-0.03333333333333144,1.5026666666666666,1.5106666666666668,38.634,30.008499999999998,38.644,35.54,56.242000000000004,35.448,60.0725,53.0755,54.152,34.534,58.6345,51.375,53.289,34.048,58.528,50.771,-0.08350000000000002,-0.07450000000000001,0.10312500000000001,0.11321500000000001,0.0,215.71,215.68,212.42666666666668,212.42666666666668,0.0,0.0
25,0.0,0.0,0.0,1.0,1.0,0.0,0.0,1.0,0.0,0.0,1.0,1.1856,26.0,0.0,0.0,0.0,59.999996,0.0,26.0,26.0,26.0,26.0,-0.048111111111111104,0.26070000000000015,-0.030833333333333334,292.13,-2.73705,-2.6635,-1.56155,-1.5669,-191.1,215.85500000000002,190.453875,0.0,0.0,0.0,0.0,0.05076666666666667,-5.498166666666667,-5.498166666666667,-0.6105,0.22466666666666665,-0.010777777777777775,0.009999999999999787,69.032,-0.0268,-0.22237500000000002,0.16999999999999993,100.0,1.0,1.0,212.9766666666667,0.0,0.0,0.0,0.0,0.0,0.0,0.0,9027.3,0.0,55.0,5.0,248.49,1.0,0.0,0.0,0.0,0.0,0.0,0.0,0.0,1.259999999999998,1.259999999999998,0.0,0.0,1.0,55.0,616.79921,10000.0,85.000001,85.000001,85.000001,85.000001,395.0,0.0,0.0,0.0,1.0,166.665,51.514,51.514,47.928,47.928,34.0,-26.794999999999998,25.286666666666665,-28.723333333333333,26.545,0.0,1781.974,-0.08499999999999908,100.0,28.497,28.073999999999998,43.411,43.06,0.0,0.0,100.0,0.0,0.0,0.0,0.0,3329.714285714286,3314.8,3972.0,4041.6000000000004,304.81,304.368,315.2355,314.89925,22.031,20.647,22.0334,21.5355,314.999998,314.999998,324.999988,324.999988,99.55997142857143,99.50748333333334,99.56902857142857,99.54875714285714,0.06875000000000009,-0.07066666666666666,-0.13966666666666666,0.08616666666666672,-0.03499999999999659,-0.041666666666671404,1.554,1.565,38.694,30.044,38.709,35.5965,56.226,35.489,60.1065,53.1325,54.137,34.572,58.6665,51.43,53.272999999999996,34.0845,58.557,50.824666666666666,-0.09350000000000003,-0.07250000000000001,0.110795,0.10999,0.0,216.10000000000002,216.10500000000002,212.9766666666667,212.9766666666667,0.0,0.0
26,0.0,0.0,0.0,1.0,1.0,0.0,0.0,1.0,0.0,0.0,1.0,1.1856,26.0,0.0,0.0,0.0,59.999996,0.0,26.0,26.0,26.0,26.0,-0.03355555555555556,0.27560000000000007,0.07880000000000001,291.046,-2.7018,-2.7273750000000003,-1.6196000000000002,-1.5537,-187.57999999999998,215.835,190.428125,0.0,0.0,0.0,0.0,0.0528,-5.498166666666667,-5.498166666666667,-0.5694,0.4043333333333333,-0.020777777777778006,-0.5129999999999999,69.169,-0.0183,-0.1993,0.10799999999999965,100.0,1.0,1.0,213.07666666666665,0.0,0.0,0.0,0.0,0.0,0.0,0.0,9031.5,0.0,55.0,5.0,248.98000000000002,0.0,0.0,0.0,0.0,0.0,0.0,0.0,0.0,1.311,1.311,0.0,0.0,0.0,55.0,616.79921,10000.0,85.000001,85.000001,85.000001,85.000001,395.0,0.0,0.0,0.0,1.0,166.665,51.514,51.514,45.959,45.959,34.0,-25.34,22.781666666666666,-35.913333333333334,31.465,0.0,1781.922,-0.23000000000000043,100.0,29.05,28.784,44.01,43.749,0.0,0.0,100.0,0.0,0.0,0.0,0.0,3214.857142857143,2984.7,4655.222222222223,4559.3,305.1245,305.15366666666665,313.64375,313.5975,22.0407,20.6528,22.0441,21.5448,314.999998,314.999998,324.999988,324.999988,99.55998571428572,99.5075,99.56918571428571,99.5489,0.07074999999999987,-0.08133333333333326,-0.133,0.09066666666666667,-0.04333333333332945,-0.03999999999999915,1.4266666666666667,1.4233333333333333,38.754000000000005,30.08,38.775999999999996,35.655,56.215,35.531,60.147999999999996,53.195,54.126000000000005,34.6105,58.705,51.49,53.260999999999996,34.1215,58.5925,50.88333333333333,-0.10099999999999998,-0.06699999999999995,0.10555500000000001,0.10931,0.0,216.56,216.555,213.07666666666665,213.07666666666665,0.0,0.0
27,0.0,0.0,0.0,1.0,1.0,0.0,0.0,1.0,0.0,0.0,1.0,1.1856,26.0,0.0,0.0,0.0,59.999996,0.0,26.0,26.0,26.0,26.0,-0.01144444444444448,0.24650000000000016,-0.031100000000000003,291.656,-2.66915,-2.692875,-1.61165,-1.6195,-184.45999999999998,215.82,190.406625,0.0,0.0,0.0,0.0,0.05463333333333334,-5.498166666666667,-5.498166666666667,-0.5996,-1.0253333333333332,-0.012333333333333307,0.8129999999999997,69.28399999999999,-0.0158,-0.24530000000000002,-0.006000000000000227,100.0,1.0,1.0,213.62333333333333,0.0,0.0,0.0,0.0,0.0,0.0,0.0,9054.6,0.0,55.0,5.0,249.39666666666665,1.0,0.0,0.0,0.0,0.0,0.0,0.0,0.0,1.355999999999998,1.355999999999998,0.0,0.0,1.0,55.0,616.79921,10000.0,85.000001,85.000001,85.000001,85.000001,395.0,0.0,0.0,0.0,1.0,166.665,51.758,51.758,46.646,46.646,34.0,-23.0025,25.076666666666668,-28.919999999999998,28.9925,0.0,1781.878,-0.33999999999999986,100.0,28.856,28.496000000000002,44.492000000000004,44.149,0.0,0.0,100.0,0.0,0.0,0.0,0.0,3051.285714285714,3191.1,4035.4444444444443,4056.7,305.5145,304.76666666666665,314.93375,314.78075,22.049,20.6577,22.0535,21.5531,314.999998,314.999998,324.999988,324.999988,99.55998571428572,99.5075,99.56931428571428,99.54902857142856,0.08650000000000002,-0.056333333333333124,-0.11,0.11133333333333328,-0.036666666666668846,-0.04833333333333201,1.5033333333333334,1.5070000000000001,38.806,30.111,38.835,35.707,56.202,35.566,60.182,53.249,54.113,34.643,58.7365,51.542,53.247,34.1525,58.621,50.93366666666667,-0.10749999999999993,-0.06000000000000005,0.09709000000000001,0.10865500000000002,0.0,216.875,216.85500000000002,213.62333333333333,213.62333333333333,0.0,0.0
28,0.0,0.0,0.0,1.0,1.0,0.0,0.0,1.0,0.0,0.0,1.0,1.1856,26.0,0.0,0.0,0.0,59.999996,0.0,26.0,26.0,26.0,26.0,0.010666666666666602,0.26249999999999996,-0.05676666666666667,291.84,-2.6604,-2.6732500000000003,-1.58975,-1.5791,-180.92000000000002,215.8025,190.381125,0.0,0.0,0.0,0.0,0.056666666666666664,-5.498166666666667,-5.498166666666667,-0.6007,0.6980000000000001,-0.017555555555555546,-0.548,69.414,-0.006500000000000001,-0.2155,-0.13200000000000056,100.0,1.0,1.0,214.10000000000002,0.0,0.0,0.0,0.0,0.0,0.0,0.0,9075.0,0.0,55.0,5.0,249.86333333333334,0.0,0.0,0.0,0.0,0.0,0.0,0.0,0.0,1.407,1.407,0.0,0.0,0.0,55.0,616.79921,10000.0,85.000001,85.000001,85.000001,85.000001,395.0,0.0,0.0,0.0,1.0,166.665,51.727000000000004,51.727000000000004,47.409,47.409,34.0,-23.7175,24.231666666666666,-29.77,28.6175,0.0,1781.827,-0.3849999999999998,100.0,28.739,28.560000000000002,43.647,43.714,0.0,0.0,100.0,0.0,0.0,0.0,0.0,3200.285714285714,3053.4,4157.222222222223,4116.3,305.171,304.986,314.9365,314.67875,22.0586,20.6634,22.0638,21.5622,314.999998,314.999998,324.999988,324.999988,99.56,99.50751666666666,99.56945714285715,99.54918571428571,0.09525000000000006,-0.048666666666666636,-0.124,0.10783333333333323,-0.04833333333333201,-0.04333333333332945,1.55,1.5356666666666667,38.866,30.1465,38.899,35.7635,56.189,35.6055,60.2145,53.306,54.102000000000004,34.6795,58.766999999999996,51.597,53.235,34.188,58.6485,50.98766666666667,-0.11649999999999994,-0.05049999999999999,0.11641000000000001,0.11461500000000001,0.0,217.315,217.32,214.10000000000002,214.10000000000002,0.0,0.0
29,0.0,0.0,0.0,1.0,1.0,0.0,0.0,1.0,0.0,0.0,1.0,1.1856,26.0,0.0,0.0,0.0,59.999996,0.0,26.0,26.0,26.0,26.0,0.016111111111111187,0.26350000000000007,-0.008866666666666667,291.626,-2.6489,-2.723,-1.56925,-1.5542,-177.38,215.7825,190.35475,0.0,0.0,0.0,0.0,0.05873333333333334,-5.498166666666667,-5.498166666666667,-0.6072000000000001,-0.732,-0.0043333333333333,0.9080000000000004,69.549,0.0054,-0.21887500000000001,-0.3460000000000001,100.0,1.0,1.0,214.35000000000002,0.0,0.0,0.0,0.0,0.0,0.0,0.0,9085.5,0.0,55.0,5.0,250.35000000000002,1.0,0.0,0.0,0.0,0.0,0.0,0.0,0.0,1.4579999999999984,1.4579999999999984,0.0,0.0,1.0,55.0,616.79921,10000.0,85.000001,85.000001,85.000001,85.000001,395.0,0.0,0.0,0.0,1.0,166.665,51.926,51.926,46.707,46.707,34.0,-22.5425,25.845,-28.606666666666666,30.815,0.0,1781.775,-0.3949999999999996,100.0,28.522,28.319,44.086,44.013000000000005,0.0,0.0,100.0,0.0,0.0,0.0,0.0,3086.142857142857,3180.7,4133.666666666667,4288.9,305.453,304.70666666666665,314.73625,314.27725,22.0678,20.669,22.0744,21.5716,314.999998,314.999998,324.999988,324.999988,99.56001428571429,99.50751666666666,99.56961428571428,99.54932857142857,0.0987499999999999,-0.045333333333333226,-0.098,0.1246666666666667,-0.03166666666666629,-0.04999999999999716,1.482,1.4849999999999999,38.924,30.1815,38.965,35.8225,56.175,35.6435,60.254,53.3675,54.088,34.715,58.8035,51.656,53.22,34.2215,58.682,51.04533333333333,-0.10449999999999993,-0.052999999999999936,0.10625000000000001,0.103635,0.0,217.68,217.69,214.35000000000002,214.35000000000002,0.0,0.0
30,0.0,0.0,0.0,1.0,1.0,0.0,0.0,1.0,0.0,0.0,1.0,1.1856,26.0,0.0,0.0,0.0,59.999996,0.0,26.0,26.0,26.0,26.0,0.021888888888888847,0.248,-0.013800000000000002,291.183,-2.67505,-2.6026249999999997,-1.6383,-1.6082,-173.82999999999998,215.765,190.32825,0.0,0.0,0.0,0.0,0.0608,-5.498166666666667,-5.498166666666667,-0.5966,0.9686666666666667,-0.003666666666666707,-0.5359999999999996,69.67699999999999,0.016,-0.213225,-0.28200000000000003,100.0,1.0,1.0,214.82666666666665,0.0,0.0,0.0,0.0,0.0,0.0,0.0,9105.7,0.0,55.0,5.0,250.81333333333333,0.0,0.0,0.0,0.0,0.0,0.0,1.0,0.0,1.5090000000000003,1.5090000000000003,0.0,0.0,0.0,55.0,616.79921,10000.0,85.000001,85.000001,85.000001,85.000001,395.0,0.0,0.0,0.0,1.0,166.665,50.842,50.842,46.967,46.967,34.0,-24.55,24.546666666666667,-30.576666666666664,29.775000000000002,0.0,1781.723,-0.40000000000000036,100.0,29.259,29.241,43.778999999999996,44.118,0.0,0.0,100.0,0.0,0.0,0.0,0.0,3324.714285714286,3105.2,4291.111111111111,4117.9,304.7885,304.7416666666667,314.6625,314.6055,22.0775,20.675,22.0848,21.5808,314.999998,314.999998,324.999988,324.999988,99.56002857142857,99.50753333333333,99.56977142857143,99.54948571428571,0.10400000000000009,-0.03966666666666674,-0.10066666666666667,0.11683333333333334,-0.060000000000002274,-0.045000000000001705,1.4969999999999999,1.4943333333333333,38.983999999999995,30.2185,39.03,35.879999999999995,56.164,35.687,60.2905,53.4305,54.078,34.7555,58.838,51.717,53.209,34.2605,58.7125,51.10466666666667,-0.11449999999999994,-0.05249999999999999,0.11000000000000001,0.10025500000000001,0.0,218.125,218.14499999999998,214.82666666666665,214.82666666666665,0.0,0.0
31,0.0,0.0,0.0,1.0,1.0,0.0,0.0,1.0,0.0,0.0,1.0,1.1856,26.0,0.0,0.0,0.0,59.999996,0.0,26.0,26.0,26.0,26.0,0.022666666666666613,0.25280000000000014,0.027633333333333333,290.863,-2.7792,-2.583125,-1.59275,-1.6037,-170.48000000000002,215.7475,190.304,0.0,0.0,0.0,0.0,0.06276666666666667,-5.498166666666667,-5.498166666666667,-0.5903,-0.562,0.0009999999999998899,-0.7530000000000001,69.801,0.027200000000000002,-0.22160000000000002,-0.4059999999999997,100.0,1.0,1.0,215.09,0.0,0.0,0.0,0.0,0.0,0.0,0.0,9116.9,0.0,55.0,5.0,251.26,1.0,0.0,0.0,0.0,0.0,0.0,1.0,0.0,1.5569999999999986,1.5569999999999986,0.0,0.0,1.0,55.0,616.79921,10000.0,85.000001,85.000001,85.000001,85.000001,395.0,0.0,0.0,0.0,1.0,166.665,51.147,51.147,45.609,45.609,34.0,-24.0875,26.006666666666668,-30.45,32.1425,0.0,1781.678,-0.4299999999999997,100.0,28.868,29.243000000000002,44.483000000000004,44.824,0.0,0.0,100.0,0.0,0.0,0.0,0.0,3231.0,3264.2,4340.0,4232.2,305.2985,304.44266666666664,314.32425,314.42875,22.0863,20.6804,22.0949,21.5898,314.999998,314.999998,324.999988,324.999988,99.56004285714286,99.50753333333333,99.5699,99.54962857142857,0.11324999999999985,-0.030000000000000027,-0.09366666666666668,0.14266666666666672,-0.023333333333326323,-0.046666666666666856,1.4593333333333334,1.4466666666666668,39.039,30.252499999999998,39.093,35.9365,56.153,35.722,60.326,53.487,54.067,34.7875,58.871,51.771,53.197,34.2915,58.743,51.157666666666664,-0.12,-0.04899999999999993,0.117635,0.104675,0.0,218.45,218.49,215.09,215.09,0.0,0.0
32,0.0,0.0,0.0,1.0,1.0,0.0,0.0,1.0,0.0,0.0,1.0,1.1856,26.0,0.0,0.0,0.0,59.999996,0.0,26.0,26.0,26.0,26.0,0.027444444444444382,0.27970000000000006,-0.043633333333333336,291.122,-2.684,-2.69175,-1.6455000000000002,-1.5101,-166.92000000000002,215.73250000000002,190.278375,0.0,0.0,0.0,0.0,0.06483333333333334,-5.498166666666667,-5.498166666666667,-0.6063000000000001,0.015,-0.0173333333333332,0.3020000000000005,69.929,0.0354,-0.228475,-0.516,100.0,1.0,1.0,215.56,0.0,0.0,0.0,0.0,0.0,0.0,0.0,9136.8,0.0,55.0,5.0,251.72,0.0,0.0,0.0,0.0,0.0,0.0,1.0,0.0,1.6080000000000005,1.6080000000000005,0.0,0.0,0.0,55.0,616.79921,10000.0,85.000001,85.000001,85.000001,85.000001,395.0,0.0,0.0,0.0,1.0,166.665,51.361,51.361,46.371,46.371,34.0,-22.02,26.576666666666668,-29.073333333333334,31.995,0.0,1781.626,-0.3949999999999996,100.0,28.984,29.065,44.24,44.539,0.0,0.0,100.0,0.0,0.0,0.0,0.0,3116.4285714285716,3182.3,4247.777777777777,4357.9,305.323,304.72633333333334,314.633,314.22025,22.0957,20.6863,22.1053,21.5991,314.999998,314.999998,324.999988,324.999988,99.56005714285715,99.50753333333333,99.57004285714285,99.54977142857143,0.12550000000000017,-0.021666666666666723,-0.07566666666666667,0.15166666666666684,-0.03499999999999659,-0.04833333333333201,1.52,1.5116666666666667,39.098,30.289,39.158,35.9945,56.141999999999996,35.7615,60.3605,53.5465,54.056,34.824,58.903,51.8285,53.185,34.326499999999996,58.7715,51.21366666666667,-0.11599999999999999,-0.05249999999999999,0.11328500000000001,0.103165,0.0,218.85000000000002,218.905,215.56,215.56,0.0,0.0
33,0.0,0.0,0.0,1.0,1.0,0.0,0.0,1.0,0.0,0.0,1.0,1.1856,26.0,0.0,0.0,0.0,59.999996,0.0,26.0,26.0,26.0,26.0,0.05111111111111111,0.25450000000000017,-0.02746666666666667,291.458,-2.7339,-2.673,-1.59535,-1.5871,-163.35,215.715,190.251625,0.0,0.0,0.0,0.0,0.0669,-5.498166666666667,-5.498166666666667,-0.6162000000000001,-0.432,-0.009111111111111292,0.15000000000000036,70.05799999999999,0.038,-0.21715,-0.29600000000000026,100.0,1.0,1.0,215.96666666666667,0.0,0.0,0.0,0.0,0.0,0.0,0.0,9154.1,0.0,55.0,5.0,252.18333333333334,1.0,0.0,0.0,0.0,0.0,0.0,1.0,0.0,1.658999999999999,1.658999999999999,0.0,0.0,1.0,55.0,616.79921,10000.0,85.000001,85.000001,85.000001,85.000001,395.0,0.0,0.0,0.0,1.0,166.665,51.758,51.758,46.783,46.783,34.0,-23.0125,24.990000000000002,-27.593333333333334,31.8475,0.0,1781.576,-0.4299999999999997,100.0,28.637999999999998,28.948999999999998,44.079,44.583,0.0,0.0,100.0,0.0,0.0,0.0,0.0,3152.285714285714,3041.3,4114.222222222223,4214.1,305.437,305.0563333333333,314.8875,314.399,22.105,20.6919,22.1158,21.6084,314.999998,314.999998,324.999988,324.999988,99.56007142857143,99.50755,99.5702,99.54992857142857,0.11500000000000021,-0.026666666666666616,-0.0795,0.14616666666666678,-0.02833333333332888,-0.06499999999999773,1.5153333333333334,1.4926666666666666,39.156,30.3245,39.224000000000004,36.0525,56.129999999999995,35.798,60.3955,53.606,54.045,34.858000000000004,58.9355,51.885999999999996,53.172,34.359,58.8005,51.269666666666666,-0.11249999999999993,-0.050999999999999934,0.10443000000000001,0.11086000000000001,0.0,219.26,219.29500000000002,215.96666666666667,215.96666666666667,0.0,0.0
34,0.0,0.0,0.0,1.0,1.0,0.0,0.0,1.0,0.0,0.0,1.0,1.1856,26.0,0.0,0.0,0.0,59.999996,0.0,26.0,26.0,26.0,26.0,0.041777777777777914,0.26360000000000006,-0.09363333333333335,291.733,-2.75905,-2.598125,-1.6647500000000002,-1.5152999999999999,-159.76999999999998,215.7025,190.2235,0.0,0.0,0.0,0.0,0.06896666666666666,-5.498166666666667,-5.498166666666667,-0.6466000000000001,-0.754,0.024222222222222145,0.8100000000000005,70.187,0.034300000000000004,-0.22542500000000001,-0.387999999999999,100.0,1.0,1.0,216.35000000000002,0.0,0.0,0.0,0.0,0.0,0.0,0.0,9170.3,0.0,55.0,5.0,252.64666666666665,0.0,0.0,0.0,0.0,0.0,0.0,1.0,0.0,1.7100000000000009,1.7100000000000009,0.0,0.0,0.0,55.0,616.79921,10000.0,85.000001,85.000001,85.000001,85.000001,395.0,0.0,0.0,0.0,1.0,166.665,52.155,52.155,47.058,47.058,34.0,-20.64,25.37,-27.700000000000003,31.2175,0.0,1781.524,-0.5199999999999996,100.0,28.501,28.621000000000002,43.839,44.53,0.0,0.0,100.0,0.0,0.0,0.0,0.0,2916.857142857143,3118.2,4067.1111111111113,4267.3,305.876,304.91266666666667,315.03175,314.39075,22.1141,20.6975,22.1261,21.6178,314.999998,314.999998,324.999988,324.999988,99.56008571428572,99.50755,99.57034285714286,99.55008571428571,0.13675000000000015,-0.01633333333333331,-0.07200000000000001,0.14916666666666667,-0.041666666666671404,-0.051666666666669414,1.5253333333333332,1.5113333333333334,39.213,30.3595,39.288,36.111,56.117000000000004,35.834,60.4285,53.667500000000004,54.033,34.8915,58.966,51.945,53.159,34.391,58.828,51.327333333333335,-0.126,-0.040999999999999925,0.10450500000000001,0.10876000000000001,0.0,219.64,219.67000000000002,216.35000000000002,216.35000000000002,0.0,0.0
35,0.0,0.0,0.0,1.0,1.0,0.0,0.0,1.0,0.0,0.0,1.0,1.1856,26.0,0.0,0.0,0.0,59.999996,0.0,26.0,26.0,26.0,26.0,0.03722222222222227,0.25460000000000016,-0.06926666666666667,291.672,-2.72845,-2.611875,-1.63075,-1.5095,-156.39999999999998,215.6875,190.19525,0.0,0.0,0.0,0.0,0.07093333333333333,-5.498166666666667,-5.498166666666667,-0.6836,-0.21466666666666667,-0.0033333333333334103,-0.1899999999999995,70.306,0.0375,-0.231025,-0.54,100.0,1.0,1.0,216.80666666666667,0.0,0.0,0.0,0.0,0.0,0.0,0.0,9189.6,0.0,55.0,5.0,253.07333333333332,1.0,0.0,0.0,0.0,0.0,0.0,1.0,0.0,1.7579999999999991,1.7579999999999991,0.0,0.0,1.0,55.0,616.79921,10000.0,85.000001,85.000001,85.000001,85.000001,395.0,0.0,0.0,0.0,1.0,333.33500000000004,51.468,51.468,46.829,46.829,34.0,-22.0225,28.601666666666667,-26.663333333333334,29.175,0.0,1781.474,-0.375,100.0,28.372,28.87,43.69,44.063,0.0,0.0,100.0,0.0,0.0,0.0,0.0,3078.714285714286,3431.5,3988.5555555555557,4034.3,305.501,304.004,315.14925,314.934,22.122700000000002,20.7031,22.1359,21.6264,314.999998,314.999998,324.999988,324.999988,99.5601,99.50755,99.57048571428571,99.55022857142858,0.12674999999999992,-0.012333333333333307,-0.07316666666666667,0.15216666666666678,-0.03333333333333144,-0.06499999999999773,1.5486666666666666,1.5353333333333334,39.266999999999996,30.394,39.349000000000004,36.165,56.102999999999994,35.873,60.4615,53.7235,54.019,34.9275,58.997,51.999,53.144999999999996,34.426,58.8555,51.38033333333333,-0.11349999999999993,-0.04699999999999993,0.11354000000000002,0.09713000000000001,0.0,220.01999999999998,220.05,216.80666666666667,216.80666666666667,0.0,0.0
