,ABS Active,ABS Enabled,AID Allow Tire Blankets,AID Auto Blip,AID Auto Clutch,AID Auto Shift,AID Fuel Rate,AID Ideal Line,AID Mech Damage,AID Stability,AID Tire Wear Rate,Air Density,Air Temp,Ballast,Best Lap Delta,Best Lap Time,Brake Bias,Brake Pos,Brake Temp FL,Brake Temp FR,Brake Temp RL,Brake Temp RR,CG Accel Lateral,CG Accel Longitudinal,CG Accel Vertical,CG Height,Camber FL,Camber FR,Camber RL,Camber RR,Car Coord X,Car Coord Y,Car Coord Z,Car Damage Front,Car Damage Left,Car Damage Rear,Car Damage Right,Car Pos Norm,Caster FL,Caster FR,Chassis Pitch Angle,Chassis Pitch Rate,Chassis Roll Angle,Chassis Roll Rate,Chassis Velocity X,Chassis Velocity Y,Chassis Velocity Z,Chassis Yaw Rate,Clutch Pos,DRS Active,DRS Available,Drive Train Speed,ERS Heat Charging,ERS Is Charging,ERS Max Energy,ERS Power Level,ERS Recovery Level,Engine Brake Setting,Engine Limiter,Engine RPM,Flags,Fuel Level,Gear,Ground Speed,HR Sample Clock,In Pit,KERS Charge,KERS Deployed Energy,KERS Input,KERS Max Energy,LR Sample Clock,Lap Invalidated,Lap Time,Lap Time2,Last Lap Time,Last Sector Time,MR Sample Clock,Max Fuel,Max Power,Max RPM,Max Sus Travel FL,Max Sus Travel FR,Max Sus Travel RL,Max Sus Travel RR,Max Torque,Max Turbo Boost,Num Tires Off Track,Penalties Enabled,Position,Raw Data Sample Rate,Ride Height FL,Ride Height FR,Ride Height RL,Ride Height RR,Road Temp,Self Align Torque FL,Self Align Torque FR,Self Align Torque RL,Self Align Torque RR,Session Lap Count,Session Time Left,Steering Angle,Surface Grip,Suspension Travel FL,Suspension Travel FR,Suspension Travel RL,Suspension Travel RR,TC Active,TC Enabled,Throttle Pos,Tire Dirt Level FL,Tire Dirt Level FR,Tire Dirt Level RL,Tire Dirt Level RR,Tire Load FL,Tire Load FR,Tire Load RL,Tire Load RR,Tire Loaded Radius FL,Tire Loaded Radius FR,Tire Loaded Radius RL,Tire Loaded Radius RR,Tire Pressure FL,Tire Pressure FR,Tire Pressure RL,Tire Pressure RR,Tire Radius FL,Tire Radius FR,Tire Radius RL,Tire Radius RR,Tire Rubber Grip FL,Tire Rubber Grip FR,Tire Rubber Grip RL,Tire Rubber Grip RR,Tire Slip Angle FL,Tire Slip Angle FR,Tire Slip Angle RL,Tire Slip Angle RR,Tire Slip Ratio FL,Tire Slip Ratio FR,Tire Slip Ratio RL,Tire Slip Ratio RR,Tire Temp Core FL,Tire Temp Core FR,Tire Temp Core RL,Tire Temp Core RR,Tire Temp Inner FL,Tire Temp Inner FR,Tire Temp Inner RL,Tire Temp Inner RR,Tire Temp Middle FL,Tire Temp Middle FR,Tire Temp Middle RL,Tire Temp Middle RR,Tire Temp Outer FL,Tire Temp Outer FR,Tire Temp Outer RL,Tire Temp Outer RR,Toe In FL,Toe In FR,Toe In RL,Toe In RR,Turbo Boost,Wheel Angular Speed FL,Wheel Angular Speed FR,Wheel Angular Speed RL,Wheel Angular Speed RR,Wind Direction,Wind Speed
0,0.0,0.0,0.0,1.0,1.0,0.0,0.0,1.0,0.0,0.0,1.0,1.1856,26.0,0.0,0.0,0.0,59.99999,0.0,26.0,26.0,26.0,26.0,-0.026222222222222147,0.2903,0.221425,292.999,-2.793,-2.614,-1.5625,-1.5065,-275.62,215.4325,190.987,0.0,0.0,0.0,0.0,0.0016333333333333755,-5.498166666666667,-5.498166666666667,-0.5595,2.0216666666666665,0.0004999999999999449,-0.857,65.5,-0.0261,-0.22282500000000002,-0.0259999999999998,100.0,1.0,1.0,202.20333333333332,0.0,0.0,0.0,0.0,0.0,0.0,0.0,8570.6,0.0,55.0,5.0,235.76999999999998,0.0,0.0,0.0,0.0,0.0,0.0,0.0,0.0,0.0030000000000001137,0.0030000000000001137,0.0,0.0,0.0,55.0,616.79921,10000.0,85.0,85.0,85.0,85.0,395.0,0.0,0.0,0.0,1.0,20.0,50.598,50.598,48.584,48.584,34.0,-29.28,33.278,-29.89,26.4375,0.0,1783.201,0.08000000000000185,100.0,27.411,27.537,40.379,40.212,0.0,0.0,100.0,0.0,0.0,0.0,0.0,3378.142857142857,4324.7,4133.875,4111.6,304.566,301.34233333333333,314.8353333333333,314.577,21.7773,20.5112,21.7719,21.3096,314.99999,314.99999,324.99998,324.99998,99.55895714285714,99.50715,99.56518571428572,99.54505714285715,0.035499999999999865,-0.07400000000000007,-0.13616666666666666,0.08783333333333321,-0.05333333333332746,-0.06833333333332803,1.5366666666666666,1.5455,37.108000000000004,29.195,37.074,34.185,56.306,34.4495,59.061,51.5635,54.222,33.6315,57.687,49.9265,53.39,33.204499999999996,57.649,49.355000000000004,-0.07550000000000001,-0.07850000000000001,0.10438000000000001,0.11423000000000001,0.0,205.24,205.235,202.20333333333332,202.20333333333332,0.0,0.0
1,0.0,0.0,0.0,1.0,1.0,0.0,0.0,1.0,0.0,0.0,1.0,1.1856,26.0,0.0,0.0,0.0,59.999996,0.0,26.0,26.0,26.0,26.0,-0.07377777777777783,0.29710000000000014,0.223775,292.221,-2.6917,-2.7005,-1.6038000000000001,-1.4469,-272.07,215.4375,190.966,0.0,0.0,0.0,0.0,0.0036999999999999256,-5.498166666666667,-5.498166666666667,-0.4822,-2.4963333333333333,-0.04587500000000011,-0.611,65.667,-0.018500000000000003,-0.19405,0.47600000000000087,100.0,1.0,1.0,202.15333333333334,0.0,0.0,0.0,0.0,0.0,0.0,0.0,8568.6,0.0,55.0,5.0,236.37,1.0,0.0,0.0,0.0,0.0,0.0,0.0,0.0,0.05699999999999861,0.05699999999999861,0.0,0.0,1.0,55.0,616.79921,10000.0,85.000001,85.000001,85.000001,85.000001,395.0,0.0,0.0,0.0,1.0,111.11,54.169,54.169,47.318,47.318,34.0,-22.925,17.304000000000002,-36.86333333333333,33.337500000000006,0.0,1783.149,0.33000000000000185,100.0,27.554,27.12,42.713,43.777,0.0,0.0,100.0,0.0,0.0,0.0,0.0,2838.142857142857,2481.7,4696.625,4996.4,306.2515,306.93966666666665,313.2183333333333,311.578,21.7875,20.5164,21.7835,21.3196,314.999998,314.999998,324.999988,324.999988,99.55897142857143,99.50716666666666,99.56535714285714,99.54521428571428,0.03750000000000009,-0.09933333333333327,-0.13116666666666665,0.06966666666666677,-0.02499999999999858,-0.041666666666671404,1.294,1.3050000000000002,37.172,29.227666666666664,37.147,34.247,56.287,34.4885,59.112,51.6385,54.204,33.667,57.7345,49.9985,53.372,33.2385,57.6935,49.425666666666665,-0.05049999999999999,-0.10099999999999998,0.10370000000000001,0.10788500000000001,0.0,205.685,205.67000000000002,202.15333333333334,202.15333333333334,0.0,0.0
2,0.0,0.0,0.0,1.0,1.0,0.0,0.0,1.0,0.0,0.0,1.0,1.1856,26.0,0.0,0.0,0.0,59.999996,0.0,26.0,26.0,26.0,26.0,-0.07033333333333336,0.29790000000000005,0.0383,293.839,-2.667,-2.6513999999999998,-1.569,-1.512,-268.92,215.4375,190.94825,0.0,0.0,0.0,0.0,0.00553333333333339,-5.498166666666667,-5.498166666666667,-0.5836,0.6046666666666667,-0.007249999999999979,2.118,65.792,-0.0227,-0.274325,0.7539999999999996,100.0,1.0,1.0,203.56,0.0,0.0,0.0,0.0,0.0,0.0,0.0,8628.1,0.0,55.0,5.0,236.82666666666665,0.0,0.0,0.0,0.0,0.0,0.0,0.0,0.0,0.10500000000000043,0.10500000000000043,0.0,0.0,0.0,55.0,616.79921,10000.0,85.000001,85.000001,85.000001,85.000001,395.0,0.0,0.0,0.0,1.0,166.665,51.697,51.697,50.766,50.766,34.0,-28.947499999999998,23.036,-24.28333333333333,19.205,0.0,1783.101,0.4450000000000003,100.0,28.183,27.519,41.758,41.658,0.0,0.0,100.0,0.0,0.0,0.0,0.0,3384.857142857143,3244.2,3496.375,3366.9,304.503,304.414,316.31933333333336,316.56425,21.797,20.5214,21.7931,21.3274,314.999998,314.999998,324.999988,324.999988,99.55897142857143,99.50716666666666,99.56547142857143,99.54532857142857,0.019000000000000128,-0.10633333333333317,-0.15266666666666662,0.07050000000000001,-0.0833333333333286,-0.07499999999999574,1.7823333333333333,1.7894999999999999,37.230999999999995,29.258666666666667,37.207,34.296,56.275,34.5265,59.143,51.683,54.192,33.7025,57.7635,50.041,53.358999999999995,33.2725,57.7195,49.467666666666666,-0.040999999999999925,-0.11450000000000005,0.10102000000000001,0.10909,0.0,206.16,206.065,203.56,203.56,0.0,0.0
3,0.0,0.0,0.0,1.0,1.0,0.0,0.0,1.0,0.0,0.0,1.0,1.1856,26.0,0.0,0.0,0.0,59.999996,0.0,26.0,26.0,26.0,26.0,-0.06188888888888888,0.3215000000000001,0.040400000000000005,292.892,-2.6836,-2.6801,-1.5534,-1.4846,-265.56,215.44,190.927875,0.0,0.0,0.0,0.0,0.0074666666666665105,-5.498166666666667,-5.498166666666667,-0.499,0.42333333333333334,0.005624999999999991,-2.1670000000000003,65.951,-0.0354,-0.18605000000000002,0.6240000000000006,100.0,1.0,1.0,203.33333333333331,0.0,0.0,0.0,0.0,0.0,0.0,0.0,8618.5,0.0,55.0,5.0,237.39333333333332,1.0,0.0,0.0,0.0,0.0,0.0,0.0,0.0,0.1559999999999988,0.1559999999999988,0.0,0.0,1.0,55.0,616.79921,10000.0,85.000001,85.000001,85.000001,85.000001,395.0,0.0,0.0,0.0,1.0,166.665,53.268,53.268,47.394,47.394,34.0,-23.4775,19.938,-35.10333333333333,27.884999999999998,0.0,1783.048,0.5650000000000013,100.0,27.838,27.657,42.093,42.189,0.0,0.0,100.0,0.0,0.0,0.0,0.0,2858.285714285714,2854.8,4564.0,4385.7,306.2315,305.56166666666667,313.72866666666664,313.82125,21.8066,20.526699999999998,21.8036,21.3364,314.999998,314.999998,324.999988,324.999988,99.55898571428571,99.50718333333333,99.56561428571429,99.54548571428572,0.02499999999999991,-0.11266666666666669,-0.15100000000000002,0.07299999999999995,-0.023333333333326323,-0.045000000000001705,1.42,1.4625,37.291,29.291666666666664,37.272,34.353,56.257,34.5685,59.1835,51.7505,54.175,33.7415,57.8005,50.106,53.341,33.3095,57.754,49.531333333333336,-0.034499999999999975,-0.1160000000000001,0.10962500000000001,0.10473,0.0,206.635,206.585,203.33333333333331,203.33333333333331,0.0,0.0
4,0.0,0.0,0.0,1.0,1.0,0.0,0.0,1.0,0.0,0.0,1.0,1.1856,26.0,0.0,0.0,0.0,59.999996,0.0,26.0,26.0,26.0,26.0,-0.08966666666666656,0.2853000000000001,-0.07095,293.32,-2.6715999999999998,-2.7408,-1.4936,-1.5918999999999999,-262.19,215.4375,190.9085,0.0,0.0,0.0,0.0,0.009433333333333294,-5.498166666666667,-5.498166666666667,-0.5379,-0.8263333333333334,-0.040000000000000036,0.5670000000000001,66.095,-0.0427,-0.241675,0.9459999999999997,100.0,1.0,1.0,204.03333333333333,0.0,0.0,0.0,0.0,0.0,0.0,0.0,8648.2,0.0,55.0,5.0,237.91333333333333,0.0,0.0,0.0,0.0,0.0,0.0,0.0,0.0,0.20700000000000074,0.20700000000000074,0.0,0.0,0.0,55.0,616.79921,10000.0,85.000001,85.000001,85.000001,85.000001,395.0,0.0,0.0,0.0,1.0,111.11,52.826,52.826,48.798,48.798,34.0,-26.805,21.258,-29.32666666666666,24.0925,0.0,1782.999,0.5850000000000009,100.0,27.964,27.241,42.85,42.202,0.0,0.0,100.0,0.0,0.0,0.0,0.0,3126.142857142857,2965.7,3997.0,3832.1,305.2485,305.43266666666665,315.05733333333336,315.31725,21.8164,20.5317,21.8142,21.3453,314.999998,314.999998,324.999988,324.999988,99.55898571428571,99.5072,99.56577142857142,99.54561428571428,0.011249999999999982,-0.10933333333333328,-0.16766666666666663,0.0661666666666667,-0.060000000000002274,-0.04333333333332945,1.5793333333333335,1.6065,37.352999999999994,29.323333333333334,37.339,34.408500000000004,56.239999999999995,34.608000000000004,59.2255,51.8095,54.159,33.7775,57.84,50.1625,53.325,33.3445,57.7905,49.586666666666666,-0.027000000000000024,-0.11699999999999999,0.10558000000000001,0.10525500000000002,0.0,207.05,206.96,204.03333333333333,204.03333333333333,0.0,0.0
5,0.0,0.0,0.0,1.0,1.0,0.0,0.0,1.0,0.0,0.0,1.0,1.1856,26.0,0.0,0.0,0.0,59.999996,0.0,26.0,26.0,26.0,26.0,-0.08644444444444443,0.2882,-0.042725,293.61,-2.6476,-2.7213000000000003,-1.5466,-1.5711,-259.02,215.435,190.889875,0.0,0.0,0.0,0.0,0.011299999999999977,-5.498166666666667,-5.498166666666667,-0.5404,0.6266666666666667,-0.02400000000000002,0.72,66.232,-0.0594,-0.22615000000000002,0.8760000000000012,100.0,1.0,1.0,204.51,0.0,0.0,0.0,0.0,0.0,0.0,0.0,8668.5,0.0,55.0,5.0,238.40666666666667,1.0,0.0,0.0,0.0,0.0,0.0,0.0,0.0,0.254999999999999,0.254999999999999,0.0,0.0,1.0,55.0,616.79921,10000.0,85.000001,85.000001,85.000001,85.000001,395.0,0.0,0.0,0.0,1.0,166.665,53.101,53.101,49.118,49.118,34.0,-25.189999999999998,21.395999999999997,-29.376666666666665,24.0975,0.0,1782.951,0.3099999999999987,100.0,27.875,27.135,42.4,41.658,0.0,0.0,100.0,0.0,0.0,0.0,0.0,3003.142857142857,2993.5,3927.0,3989.0,305.5595,305.2866666666667,315.27733333333333,315.0025,21.8257,20.5367,21.823999999999998,21.3536,314.999998,314.999998,324.999988,324.999988,99.55898571428571,99.50721666666666,99.5659,99.54574285714286,0.018000000000000238,-0.1096666666666668,-0.17033333333333334,0.05016666666666669,-0.023333333333326323,-0.045000000000001705,1.5896666666666666,1.6150000000000002,37.411,29.354,37.4,34.46,56.226,34.6465,59.26,51.864,54.146,33.813,57.8725,50.215,53.31,33.3785,57.82,49.63766666666667,-0.05149999999999999,-0.10149999999999992,0.10467000000000001,0.105145,0.0,207.505,207.42000000000002,204.51,204.51,0.0,0.0
6,0.0,0.0,0.0,1.0,1.0,0.0,0.0,1.0,0.0,0.0,1.0,1.1856,26.0,0.0,0.0,0.0,59.999996,0.0,26.0,26.0,26.0,26.0,-0.09588888888888891,0.2854000000000001,-0.034550000000000004,293.411,-2.6791,-2.773,-1.4921,-1.5601,-255.82999999999998,215.43,190.870375,0.0,0.0,0.0,0.0,0.01313333333333333,-5.498166666666667,-5.498166666666667,-0.5292,-0.29100000000000004,-0.04412500000000019,0.451,66.373,-0.0641,-0.207825,0.7759999999999998,100.0,1.0,1.0,204.76333333333332,0.0,0.0,0.0,0.0,0.0,0.0,0.0,8679.2,0.0,55.0,5.0,238.91333333333333,0.0,0.0,0.0,0.0,0.0,0.0,0.0,0.0,0.3030000000000008,0.3030000000000008,0.0,0.0,0.0,55.0,616.79921,10000.0,85.000001,85.000001,85.000001,85.000001,395.0,0.0,0.0,0.0,1.0,166.665,53.421,53.421,48.522999999999996,48.522999999999996,34.0,-26.939999999999998,20.182,-31.753333333333337,24.9075,0.0,1782.902,0.40500000000000114,100.0,27.617,26.811,42.697,41.833,0.0,0.0,100.0,0.0,0.0,0.0,0.0,3093.5714285714284,2862.8,4163.5,4104.3,305.3985,305.736,314.617,314.67725,21.8349,20.5414,21.8339,21.362,314.999998,314.999998,324.999988,324.999988,99.55898571428571,99.50723333333333,99.56602857142857,99.54587142857143,0.00024999999999986144,-0.1226666666666667,-0.17866666666666664,0.0451666666666668,-0.03499999999999659,-0.051666666666669414,1.5070000000000001,1.5335,37.468,29.384,37.462,34.5125,56.209,34.683,59.2985,51.922,54.129999999999995,33.8465,57.908,50.2705,53.294,33.4105,57.853,49.69233333333334,-0.040999999999999925,-0.10250000000000004,0.11371500000000001,0.10341,0.0,207.905,207.86,204.76333333333332,204.76333333333332,0.0,0.0
7,0.0,0.0,0.0,1.0,1.0,0.0,0.0,1.0,0.0,0.0,1.0,1.1856,26.0,0.0,0.0,0.0,59.999996,0.0,26.0,26.0,26.0,26.0,-0.08677777777777784,0.2884,-0.0182,293.396,-2.6762,-2.771,-1.5444,-1.544,-252.24,215.4225,190.848625,0.0,0.0,0.0,0.0,0.015233333333333321,-5.498166666666667,-5.498166666666667,-0.5345,0.14800000000000013,-0.03587499999999988,1.213,66.526,-0.06720000000000001,-0.21655000000000002,0.516,100.0,1.0,1.0,205.3,0.0,0.0,0.0,0.0,0.0,0.0,0.0,8701.9,0.0,55.0,5.0,239.46333333333334,1.0,0.0,0.0,0.0,0.0,0.0,0.0,0.0,0.3569999999999993,0.3569999999999993,0.0,0.0,1.0,55.0,616.79921,10000.0,85.000001,85.000001,85.000001,85.000001,395.0,0.0,0.0,0.0,1.0,166.665,53.162,53.162,48.615,48.615,34.0,-25.36,22.060000000000002,-32.08,23.655,0.0,1782.847,-0.129999999999999,100.0,27.858,26.92,42.743,41.771,0.0,0.0,100.0,0.0,0.0,0.0,0.0,3086.0,2955.8,4117.875,4034.2,305.3435,305.45166666666665,314.78866666666664,314.9105,21.845399999999998,20.5469,21.845,21.3714,314.999998,314.999998,324.999988,324.999988,99.559,99.50723333333333,99.56618571428571,99.54602857142856,0.03874999999999984,-0.09433333333333316,-0.1841666666666666,0.03933333333333322,-0.05833333333333002,-0.04333333333332945,1.538,1.5755,37.534,29.418333333333333,37.531,34.5715,56.194,34.726,59.34,51.985,54.114999999999995,33.885999999999996,57.947,50.331,53.278999999999996,33.448,57.888999999999996,49.751666666666665,-0.09099999999999997,-0.06400000000000006,0.10738500000000001,0.1028,0.0,208.41,208.335,205.3,205.3,0.0,0.0
8,0.0,0.0,0.0,1.0,1.0,0.0,0.0,1.0,0.0,0.0,1.0,1.1856,26.0,0.0,0.0,0.0,59.999996,0.0,26.0,26.0,26.0,26.0,-0.0504444444444444,0.28880000000000017,-0.018500000000000003,293.488,-2.6922,-2.705,-1.5550000000000002,-1.6013000000000002,-248.85,215.4125,190.828125,0.0,0.0,0.0,0.0,0.017199999999999993,-5.498166666666667,-5.498166666666667,-0.5363,-0.07733333333333337,-0.03149999999999986,-1.103,66.67099999999999,-0.056100000000000004,-0.21895,0.2140000000000004,100.0,1.0,1.0,205.76333333333332,0.0,0.0,0.0,0.0,0.0,0.0,0.0,8721.5,0.0,55.0,5.0,239.98666666666668,0.0,0.0,0.0,0.0,0.0,0.0,0.0,0.0,0.40800000000000125,0.40800000000000125,0.0,0.0,0.0,55.0,616.79921,10000.0,85.000001,85.000001,85.000001,85.000001,395.0,0.0,0.0,0.0,1.0,111.11,53.314,53.314,48.431,48.431,34.0,-25.64,22.014000000000003,-31.433333333333337,24.2875,0.0,1782.798,-0.21999999999999886,100.0,27.348,27.121,42.599000000000004,41.99,0.0,0.0,100.0,0.0,0.0,0.0,0.0,3132.285714285714,2941.8,4097.5,3928.7,305.472,305.30466666666666,314.90233333333333,315.02475,21.8552,20.5522,21.8555,21.3804,314.999998,314.999998,324.999988,324.999988,99.559,99.50725,99.56632857142857,99.54617142857143,0.038000000000000256,-0.08399999999999985,-0.1748333333333334,0.047666666666666746,-0.04999999999999716,-0.02499999999999858,1.5473333333333334,1.5630000000000002,37.595,29.451333333333334,37.597,34.6275,56.178,34.7655,59.3795,52.046,54.099999999999994,33.9225,57.9835,50.39,53.263,33.4835,57.923,49.809,-0.09299999999999997,-0.0535000000000001,0.110585,0.10063000000000001,0.0,208.825,208.785,205.76333333333332,205.76333333333332,0.0,0.0
9,0.0,0.0,0.0,1.0,1.0,0.0,0.0,1.0,0.0,0.0,1.0,1.1856,26.0,0.0,0.0,0.0,59.999996,0.0,26.0,26.0,26.0,26.0,-0.03355555555555556,0.2944,0.010575000000000001,293.32,-2.6721,-2.7203,-1.5423,-1.5579,-245.84,215.4025,190.80975,0.0,0.0,0.0,0.0,0.018933333333333358,-5.498166666666667,-5.498166666666667,-0.5341,0.18033333333333323,-0.035499999999999865,0.779,66.798,-0.0413,-0.21275000000000002,0.0039999999999995595,100.0,1.0,1.0,206.12666666666667,0.0,0.0,0.0,0.0,0.0,0.0,0.0,8737.0,0.0,55.0,5.0,240.44666666666666,1.0,0.0,0.0,0.0,0.0,0.0,0.0,0.0,0.4529999999999994,0.4529999999999994,0.0,0.0,1.0,55.0,616.79921,10000.0,85.000001,85.000001,85.000001,85.000001,395.0,0.0,0.0,0.0,1.0,333.33500000000004,53.07,53.07,48.721000000000004,48.721000000000004,34.0,-24.862499999999997,23.744,-29.28666666666666,27.377499999999998,0.0,1782.751,-0.29499999999999815,100.0,27.661,26.933,42.593,41.92,0.0,0.0,100.0,0.0,0.0,0.0,0.0,3101.857142857143,3058.7,4034.125,4126.0,305.3275,305.144,315.00166666666667,314.6505,21.8639,20.5569,21.8648,21.3883,314.999998,314.999998,324.999988,324.999988,99.559,99.50726666666667,99.56645714285715,99.54628571428572,0.05224999999999991,-0.06433333333333313,-0.14483333333333337,0.09116666666666684,-0.04333333333332945,-0.04833333333333201,1.5513333333333335,1.5415,37.649,29.480333333333334,37.655,34.6765,56.165,34.8,59.4135,52.099000000000004,54.088,33.954,58.0155,50.4405,53.25,33.5135,57.9525,49.858666666666664,-0.09650000000000003,-0.04699999999999993,0.10940000000000001,0.11219000000000001,0.0,209.21,209.21,206.12666666666667,206.12666666666667,0.0,0.0
10,0.0,0.0,0.0,1.0,1.0,0.0,0.0,1.0,0.0,0.0,1.0,1.1856,26.0,0.0,0.0,0.0,59.999996,0.0,26.0,26.0,26.0,26.0,-0.015555555555555545,0.28500000000000014,0.011675000000000001,293.274,-2.6798,-2.699,-1.5575,-1.5417,-242.23,215.39,190.78775,0.0,0.0,0.0,0.0,0.02103333333333335,-5.498166666666667,-5.498166666666667,-0.5302,-0.22299999999999998,-0.010499999999999954,1.414,66.951,-0.024200000000000003,-0.21200000000000002,-0.22799999999999976,100.0,1.0,1.0,206.5233333333333,0.0,0.0,0.0,0.0,0.0,0.0,0.0,8753.8,0.0,55.0,5.0,240.99666666666667,0.0,0.0,0.0,0.0,0.0,0.0,1.0,0.0,0.5069999999999979,0.5069999999999979,0.0,0.0,0.0,55.0,616.79921,10000.0,85.000001,85.000001,85.000001,85.000001,395.0,0.0,0.0,0.0,1.0,166.665,53.36,53.36,48.431,48.431,34.0,-22.9675,23.974,-29.089999999999996,28.677500000000002,0.0,1782.697,-0.4450000000000003,100.0,27.583,26.887999999999998,42.641999999999996,42.192,0.0,0.0,100.0,0.0,0.0,0.0,0.0,2978.857142857143,3052.6,4084.375,4265.4,305.6845,305.181,314.856,314.29175,21.8742,20.5624,21.8759,21.3979,314.999998,314.999998,324.999988,324.999988,99.55901428571428,99.50726666666667,99.56661428571428,99.54644285714286,0.07299999999999995,-0.05233333333333312,-0.125,0.09583333333333321,-0.03999999999999915,-0.051666666666669414,1.525,1.5105,37.714,29.515,37.724000000000004,34.7365,56.15,34.84,59.4555,52.164500000000004,54.073,33.991,58.0545,50.5035,53.233999999999995,33.5485,57.988,49.92066666666666,-0.10749999999999993,-0.04150000000000009,0.10543500000000001,0.11099500000000001,0.0,209.675,209.675,206.5233333333333,206.5233333333333,0.0,0.0
11,0.0,0.0,0.0,1.0,1.0,0.0,0.0,1.0,0.0,0.0,1.0,1.1856,26.0,0.0,0.0,0.0,59.999996,0.0,26.0,26.0,26.0,26.0,0.015555555555555545,0.28,-0.045200000000000004,293.51800000000003,-2.7109,-2.6892,-1.5644,-1.5155,-238.82,215.38,190.766625,0.0,0.0,0.0,0.0,0.022599999999999953,-5.498166666666667,-5.498166666666667,-0.5508000000000001,-0.264,0.011624999999999996,-0.468,67.093,-0.0085,-0.22357500000000002,-0.3020000000000005,100.0,1.0,1.0,207.06,0.0,0.0,0.0,0.0,0.0,0.0,0.0,8776.5,0.0,55.0,5.0,241.50666666666666,1.0,0.0,0.0,0.0,0.0,0.0,1.0,0.0,0.5579999999999998,0.5579999999999998,0.0,0.0,1.0,55.0,616.79921,10000.0,85.000001,85.000001,85.000001,85.000001,395.0,0.0,0.0,0.0,1.0,111.11,53.284,53.284,48.903999999999996,48.903999999999996,34.0,-24.1525,24.092,-27.259999999999998,27.02,0.0,1782.648,-0.4400000000000013,100.0,27.145,27.109,42.329,42.31,0.0,0.0,100.0,0.0,0.0,0.0,0.0,3102.857142857143,3045.4,3916.5,4063.4,305.524,305.01933333333335,315.3346666666667,314.739,21.8838,20.5677,21.8863,21.4069,314.999998,314.999998,324.999988,324.999988,99.55901428571428,99.50728333333333,99.56674285714286,99.54658571428571,0.07224999999999993,-0.05133333333333323,-0.12066666666666659,0.10533333333333328,-0.04333333333332945,-0.054999999999999716,1.5683333333333334,1.5655000000000001,37.774,29.548333333333332,37.789,34.793,56.135999999999996,34.8775,59.492,52.2255,54.059,34.0255,58.088499999999996,50.562,53.22,33.582,58.019,49.977666666666664,-0.10499999999999998,-0.03699999999999992,0.10500000000000001,0.1044,0.0,210.095,210.125,207.06,207.06,0.0,0.0
12,0.0,0.0,0.0,1.0,1.0,0.0,0.0,1.0,0.0,0.0,1.0,1.1856,26.0,0.0,0.0,0.0,59.999996,0.0,26.0,26.0,26.0,26.0,0.02400000000000002,0.29500000000000015,0.00255,293.182,-2.7018,-2.6829,-1.5625,-1.5347,-235.79,215.37,190.747375,0.0,0.0,0.0,0.0,0.025466666666666526,-5.498166666666667,-5.498166666666667,-0.5422,0.42366666666666686,0.01574999999999993,0.778,67.219,0.0031000000000000003,-0.20505,-0.41799999999999926,100.0,1.0,1.0,207.38333333333333,0.0,0.0,0.0,0.0,0.0,0.0,0.0,8790.3,0.0,55.0,5.0,241.96,0.0,0.0,0.0,0.0,0.0,0.0,1.0,0.0,0.602999999999998,0.602999999999998,0.0,0.0,0.0,55.0,616.79921,10000.0,85.000001,85.000001,85.000001,85.000001,395.0,0.0,0.0,0.0,1.0,166.665,53.024,53.024,48.355000000000004,48.355000000000004,34.0,-22.59,25.854,-27.816666666666663,30.225,0.0,1782.602,-0.495000000000001,100.0,27.478,27.254,42.292,42.222,0.0,0.0,100.0,0.0,0.0,0.0,0.0,2998.285714285714,3167.7,4080.5,4232.1,305.6375,304.7973333333333,314.90066666666667,314.427,21.8923,20.5725,21.8954,21.4148,314.999998,314.999998,324.999988,324.999988,99.55904285714286,99.50728333333333,99.56688571428572,99.54671428571429,0.09074999999999989,-0.030333333333333323,-0.10216666666666663,0.1346666666666667,-0.04333333333332945,-0.04999999999999716,1.553,1.532,37.827,29.578333333333333,37.847,34.8425,56.123999999999995,34.911500000000004,59.5245,52.278999999999996,54.048,34.057,58.1185,50.6135,53.208,33.612,58.0465,50.028,-0.10899999999999999,-0.03849999999999998,0.11381000000000001,0.10469500000000001,0.0,210.51999999999998,210.53,207.38333333333333,207.38333333333333,0.0,0.0
13,0.0,0.0,0.0,1.0,1.0,0.0,0.0,1.0,0.0,0.0,1.0,1.1856,26.0,0.0,0.0,0.0,59.999996,0.0,26.0,26.0,26.0,26.0,0.04966666666666675,0.28180000000000005,0.0018000000000000002,292.862,-2.6996,-2.6843,-1.6012,-1.5379,-231.96,215.35750000000002,190.72325,0.0,0.0,0.0,0.0,0.027033333333333354,-5.498166666666667,-5.498166666666667,-0.5397000000000001,-0.3423333333333334,0.014249999999999874,-0.579,67.379,0.008400000000000001,-0.21627500000000002,-0.41600000000000037,100.0,1.0,1.0,207.8,0.0,0.0,0.0,0.0,0.0,0.0,0.0,8807.9,0.0,55.0,5.0,242.53666666666666,1.0,0.0,0.0,0.0,0.0,0.0,1.0,0.0,0.6600000000000001,0.6600000000000001,0.0,0.0,1.0,55.0,616.79921,10000.0,85.000001,85.000001,85.000001,85.000001,395.0,0.0,0.0,0.0,1.0,111.11,52.856,52.856,48.08,48.08,34.0,-22.83,24.894,-28.58,29.5375,0.0,1782.545,-0.504999999999999,100.0,27.497,27.616,42.582,42.867000000000004,0.0,0.0,100.0,0.0,0.0,0.0,0.0,3104.0,3045.7,4135.75,4230.8,305.5215,305.00233333333335,314.831,314.25175,21.903,20.5786,21.9072,21.425,314.999998,314.999998,324.999988,324.999988,99.55904285714286,99.50728333333333,99.56704285714285,99.54687142857144,0.10075000000000012,-0.03133333333333321,-0.09666666666666657,0.11416666666666675,-0.03499999999999659,-0.05333333333332746,1.5206666666666666,1.5030000000000001,37.894,29.616,37.92,34.9065,56.11,34.9535,59.568,52.3495,54.035,34.096000000000004,58.159,50.6815,53.193,33.6495,58.084,50.09466666666667,-0.12,-0.03200000000000003,0.10176,0.101745,0.0,210.97500000000002,211.0,207.8,207.8,0.0,0.0
14,0.0,0.0,0.0,1.0,1.0,0.0,0.0,1.0,0.0,0.0,1.0,1.1856,26.0,0.0,0.0,0.0,59.999996,0.0,26.0,26.0,26.0,26.0,0.05555555555555558,0.27180000000000004,-0.0441,293.121,-2.691,-2.7009,-1.5986,-1.5365,-228.72,215.3475,190.703125,0.0,0.0,0.0,0.0,0.028899999999999926,-5.498166666666667,-5.498166666666667,-0.5507000000000001,-0.02633333333333332,0.024499999999999966,-0.47900000000000004,67.51,0.019700000000000002,-0.22390000000000002,-0.532,100.0,1.0,1.0,208.31,0.0,0.0,0.0,0.0,0.0,0.0,0.0,8829.5,0.0,55.0,5.0,243.00666666666666,0.0,0.0,0.0,0.0,0.0,0.0,1.0,0.0,0.7079999999999984,0.7079999999999984,0.0,0.0,0.0,55.0,616.79921,10000.0,85.000001,85.000001,85.000001,85.000001,395.0,0.0,0.0,0.0,1.0,166.665,52.933,52.933,48.522999999999996,48.522999999999996,34.0,-22.4125,24.695999999999998,-26.78666666666667,29.677500000000002,0.0,1782.497,-0.5,100.0,27.496,27.71,42.439,42.824,0.0,0.0,100.0,0.0,0.0,0.0,0.0,3074.5714285714284,2996.7,4001.125,4094.8,305.6055,305.1166666666667,315.172,314.6685,21.912,20.5837,21.917,21.4335,314.999998,314.999998,324.999988,324.999988,99.55905714285714,99.5073,99.56717142857143,99.54701428571428,0.10325000000000006,-0.02933333333333321,-0.08883333333333332,0.14533333333333331,-0.05833333333333002,-0.03499999999999659,1.5766666666666667,1.5445000000000002,37.95,29.648333333333333,37.980999999999995,34.9595,56.098,34.989,59.6025,52.4065,54.024,34.129,58.191,50.736000000000004,53.181,33.681,58.113,50.14833333333333,-0.11749999999999994,-0.03600000000000003,0.10548500000000001,0.11182500000000001,0.0,211.4,211.405,208.31,208.31,0.0,0.0
15,0.0,0.0,0.0,1.0,1.0,0.0,0.0,1.0,0.0,0.0,1.0,1.1856,26.0,0.0,0.0,0.0,59.999996,0.0,26.0,26.0,26.0,26.0,0.055222222222222284,0.27770000000000006,-0.0279,293.03,-2.6833,-2.6778,-1.5577,-1.5549,-225.48,215.34,190.682625,0.0,0.0,0.0,0.0,0.03076666666666661,-5.498166666666667,-5.498166666666667,-0.5433,0.20533333333333337,0.031874999999999876,-0.739,67.642,0.0285,-0.210925,-0.4679999999999991,100.0,1.0,1.0,208.67666666666668,0.0,0.0,0.0,0.0,0.0,0.0,0.0,8845.0,0.0,55.0,5.0,243.48333333333335,1.0,0.0,0.0,0.0,0.0,0.0,1.0,0.0,0.7560000000000002,0.7560000000000002,0.0,0.0,1.0,55.0,616.79921,10000.0,85.000001,85.000001,85.000001,85.000001,395.0,0.0,0.0,0.0,1.0,166.665,52.948,52.948,48.278999999999996,48.278999999999996,34.0,-22.1525,24.402,-26.810000000000002,29.689999999999998,0.0,1782.448,-0.33999999999999986,100.0,27.493,27.816,42.354,42.916,0.0,0.0,100.0,0.0,0.0,0.0,0.0,3047.142857142857,2979.9,4086.875,4110.4,305.6885,305.15433333333334,314.952,314.60125,21.921,20.5889,21.9267,21.4421,314.999998,314.999998,324.999988,324.999988,99.55907142857143,99.5073,99.5673,99.54715714285715,0.10225000000000017,-0.02833333333333332,-0.08350000000000002,0.13450000000000006,-0.04833333333333201,-0.054999999999999716,1.5453333333333332,1.517,38.006,29.680666666666667,38.042,35.013,56.087,35.025,59.6365,52.465,54.012,34.162,58.223,50.792,53.169,33.7125,58.141999999999996,50.20333333333333,-0.10849999999999993,-0.04400000000000004,0.103105,0.10629000000000001,0.0,211.825,211.845,208.67666666666668,208.67666666666668,0.0,0.0
16,0.0,0.0,0.0,1.0,1.0,0.0,0.0,1.0,0.0,0.0,1.0,1.1856,26.0,0.0,0.0,0.0,59.999996,0.0,26.0,26.0,26.0,26.0,0.05744444444444441,0.27459999999999996,-0.0024000000000000002,292.74,-2.7488,-2.6222,-1.5398,-1.5510000000000002,-222.23,215.33249999999998,190.661875,0.0,0.0,0.0,0.0,0.03266666666666651,-5.498166666666667,-5.498166666666667,-0.5526,-0.31099999999999994,0.0266249999999999,-1.026,67.774,0.032100000000000004,-0.22325,-0.32200000000000006,100.0,1.0,1.0,209.06666666666666,0.0,0.0,0.0,0.0,0.0,0.0,0.0,8861.6,0.0,55.0,5.0,243.96,0.0,0.0,0.0,0.0,0.0,0.0,1.0,0.0,0.8039999999999985,0.8039999999999985,0.0,0.0,0.0,55.0,616.79921,10000.0,85.000001,85.000001,85.000001,85.000001,395.0,0.0,0.0,0.0,1.0,166.665,52.505,52.505,47.958,47.958,34.0,-23.905,25.326,-26.726666666666667,29.5,0.0,1782.401,-0.259999999999998,100.0,27.449,27.944,42.609,43.119,0.0,0.0,100.0,0.0,0.0,0.0,0.0,3175.0,3152.9,4074.375,4041.2,305.3445,304.65766666666667,314.96,314.7465,21.9298,20.5941,21.9366,21.4507,314.999998,314.999998,324.999988,324.999988,99.55908571428571,99.5073,99.56744285714285,99.54728571428572,0.10050000000000026,-0.032333333333333325,-0.08733333333333337,0.14349999999999996,-0.045000000000001705,-0.03999999999999915,1.5366666666666666,1.521,38.061,29.71333333333333,38.104,35.067,56.074,35.061,59.6725,52.5235,54.0,34.195,58.2565,50.8485,53.156,33.7445,58.1725,50.25866666666667,-0.09950000000000003,-0.05499999999999994,0.10937000000000001,0.104745,0.0,212.20499999999998,212.215,209.06666666666666,209.06666666666666,0.0,0.0
17,0.0,0.0,0.0,1.0,1.0,0.0,0.0,1.0,0.0,0.0,1.0,1.1856,26.0,0.0,0.0,0.0,59.999996,0.0,26.0,26.0,26.0,26.0,0.05155555555555558,0.26880000000000015,0.039125,292.557,-2.6701,-2.71,-1.5521,-1.5745,-218.56,215.325,190.638375,0.0,0.0,0.0,0.0,0.03479999999999994,-5.498166666666667,-5.498166666666667,-0.5505,0.1303333333333332,0.0016249999999999876,-1.105,67.922,0.0275,-0.21825,-0.1639999999999997,100.0,1.0,1.0,209.46666666666667,0.0,0.0,0.0,0.0,0.0,0.0,0.0,8878.5,0.0,55.0,5.0,244.49,1.0,0.0,0.0,0.0,0.0,0.0,1.0,0.0,0.8580000000000005,0.8580000000000005,0.0,0.0,1.0,55.0,616.79921,10000.0,85.000001,85.000001,85.000001,85.000001,395.0,0.0,0.0,0.0,1.0,166.665,52.521,52.521,47.684,47.684,34.0,-22.64,24.782,-28.119999999999997,30.747500000000002,0.0,1782.347,-0.19500000000000028,100.0,27.737000000000002,28.095,42.655,43.144999999999996,0.0,0.0,100.0,0.0,0.0,0.0,0.0,3100.857142857143,3021.6,4219.875,4179.8,305.474,304.94,314.61633333333333,314.41775,21.9399,20.6,21.9476,21.4603,314.999998,314.999998,324.999988,324.999988,99.5591,99.50731666666667,99.56758571428571,99.54742857142857,0.10050000000000026,-0.03833333333333311,-0.08533333333333337,0.13566666666666682,-0.03499999999999659,-0.051666666666669414,1.4996666666666667,1.496,38.125,29.75,38.173,35.126999999999995,56.061,35.102000000000004,59.712,52.588,53.988,34.233000000000004,58.293,50.911,53.141999999999996,33.781,58.206,50.31966666666666,-0.09299999999999997,-0.062000000000000055,0.10810000000000002,0.10258500000000001,0.0,212.68,212.695,209.46666666666667,209.46666666666667,0.0,0.0
18,0.0,0.0,0.0,1.0,1.0,0.0,0.0,1.0,0.0,0.0,1.0,1.1856,26.0,0.0,0.0,0.0,59.999996,0.0,26.0,26.0,26.0,26.0,0.040999999999999925,0.28370000000000006,0.023725,292.511,-2.6593999999999998,-2.7406,-1.5379,-1.5838999999999999,-215.5,215.32,190.6185,0.0,0.0,0.0,0.0,0.036566666666666525,-5.498166666666667,-5.498166666666667,-0.5606,-0.32933333333333337,0.006999999999999895,0.873,68.045,0.0178,-0.22525,-0.1120000000000001,100.0,1.0,1.0,209.82999999999998,0.0,0.0,0.0,0.0,0.0,0.0,0.0,8893.9,0.0,55.0,5.0,244.93333333333334,0.0,0.0,0.0,0.0,0.0,0.0,1.0,0.0,0.9029999999999987,0.9029999999999987,0.0,0.0,0.0,55.0,616.79921,10000.0,85.000001,85.000001,85.000001,85.000001,395.0,0.0,0.0,0.0,1.0,111.11,52.49,52.49,47.852000000000004,47.852000000000004,34.0,-22.1275,26.148,-26.836666666666666,31.285,0.0,1782.303,-0.26500000000000057,100.0,27.87,27.834,42.879,43.143,0.0,0.0,100.0,0.0,0.0,0.0,0.0,3031.714285714286,3159.3,4052.25,4255.4,305.543,304.7196666666667,314.9,314.24425,21.9483,20.6048,21.9569,21.4684,314.999998,314.999998,324.999988,324.999988,99.55911428571429,99.50731666666667,99.56771428571429,99.54755714285714,0.10024999999999995,-0.03766666666666674,-0.08716666666666661,0.13083333333333336,-0.045000000000001705,-0.046666666666666856,1.4993333333333334,1.4969999999999999,38.177,29.78,38.230999999999995,35.1775,56.05,35.135,59.7455,52.6425,53.977000000000004,34.2635,58.324,50.963499999999996,53.129999999999995,33.81,58.234,50.371,-0.09199999999999997,-0.0625,0.10898500000000001,0.10229,0.0,213.05,213.035,209.82999999999998,209.82999999999998,0.0,0.0
19,0.0,0.0,0.0,1.0,1.0,0.0,0.0,1.0,0.0,0.0,1.0,1.1856,26.0,0.0,0.0,0.0,59.999996,0.0,26.0,26.0,26.0,26.0,0.035666666666666735,0.27760000000000007,0.01705,292.404,-2.6349,-2.7109,-1.534,-1.6063,-211.82,215.315,190.594375,0.0,0.0,0.0,0.0,0.0387333333333334,-5.498166666666667,-5.498166666666667,-0.551,0.5303333333333333,0.011624999999999996,0.723,68.19,0.0094,-0.213225,-0.137999999999999,100.0,1.0,1.0,210.30666666666667,0.0,0.0,0.0,0.0,0.0,0.0,0.0,8914.1,0.0,55.0,5.0,245.45666666666665,1.0,0.0,0.0,0.0,0.0,0.0,1.0,0.0,0.9570000000000007,0.9570000000000007,0.0,0.0,1.0,55.0,616.79921,10000.0,85.000001,85.000001,85.000001,85.000001,395.0,0.0,0.0,0.0,1.0,166.665,52.216,52.216,47.882,47.882,34.0,-21.7025,25.314,-26.96666666666667,30.89,0.0,1782.247,-0.23999999999999844,100.0,28.384,28.178,42.872,43.22,0.0,0.0,100.0,0.0,0.0,0.0,0.0,3017.142857142857,3091.9,4090.625,4199.9,305.5635,304.954,314.87466666666666,314.433,21.9585,20.6108,21.9679,21.4781,314.999998,314.999998,324.999988,324.999988,99.55911428571429,99.50731666666667,99.56787142857142,99.54772857142858,0.1027499999999999,-0.03533333333333322,-0.08783333333333332,0.1283333333333332,-0.02833333333332888,-0.05333333333332746,1.5190000000000001,1.504,38.239999999999995,29.817333333333334,38.299,35.238,56.037,35.1765,59.783500000000004,52.707,53.965,34.302,58.3595,51.0255,53.117000000000004,33.847,58.266,50.432,-0.10399999999999998,-0.05950000000000011,0.10273,0.105635,0.0,213.51999999999998,213.51999999999998,210.30666666666667,210.30666666666667,0.0,0.0
20,0.0,0.0,0.0,1.0,1.0,0.0,0.0,1.0,0.0,0.0,1.0,1.1856,26.0,0.0,0.0,0.0,59.999996,0.0,26.0,26.0,26.0,26.0,0.024777777777777787,0.264,-0.024650000000000002,292.404,-2.7023,-2.66,-1.6083,-1.5883,-208.55,215.31,190.57325,0.0,0.0,0.0,0.0,0.0406333333333333,-5.498166666666667,-5.498166666666667,-0.555,-0.6746666666666667,0.012624999999999886,0.635,68.32,0.0083,-0.225225,-0.10999999999999943,100.0,1.0,1.0,210.67000000000002,0.0,0.0,0.0,0.0,0.0,0.0,0.0,8929.5,0.0,55.0,5.0,245.92333333333335,0.0,0.0,0.0,0.0,0.0,0.0,0.0,0.0,1.004999999999999,1.004999999999999,0.0,0.0,0.0,55.0,616.79921,10000.0,85.000001,85.000001,85.000001,85.000001,395.0,0.0,0.0,0.0,1.0,166.665,52.49,52.49,47.424,47.424,34.0,-22.655,24.904,-28.449999999999996,29.384999999999998,0.0,1782.199,-0.1999999999999993,100.0,28.046,27.947,43.381,43.591,0.0,0.0,100.0,0.0,0.0,0.0,0.0,3009.285714285714,3152.2,4115.375,4091.6000000000004,305.648,304.88466666666665,314.866,314.66975,21.9674,20.6159,21.977899999999998,21.4868,314.999998,314.999998,324.999988,324.999988,99.55912857142857,99.50731666666667,99.56801428571428,99.54785714285714,0.09149999999999991,-0.044333333333333114,-0.09399999999999997,0.12216666666666676,-0.04333333333332945,-0.061666666666667425,1.518,1.5110000000000001,38.296,29.849666666666664,38.361999999999995,35.292500000000004,56.022999999999996,35.215,59.823,52.769,53.951,34.3375,58.3965,51.085,53.102999999999994,33.881,58.3,50.49033333333333,-0.09499999999999997,-0.0665,0.10348500000000001,0.10840500000000002,0.0,213.89,213.9,210.67000000000002,210.67000000000002,0.0,0.0
21,0.0,0.0,0.0,1.0,1.0,0.0,0.0,1.0,0.0,0.0,1.0,1.1856,26.0,0.0,0.0,0.0,59.999996,0.0,26.0,26.0,26.0,26.0,-0.00022222222222212373,0.2642,-0.0473,292.572,-2.7196,-2.6299,-1.5688,-1.5299,-205.26,215.305,190.55175,0.0,0.0,0.0,0.0,0.04253333333333331,-5.498166666666667,-5.498166666666667,-0.5730000000000001,-0.01100000000000001,0.004999999999999893,0.5700000000000001,68.446,0.0082,-0.22457500000000002,-0.11399999999999988,100.0,1.0,1.0,211.17333333333335,0.0,0.0,0.0,0.0,0.0,0.0,0.0,8950.9,0.0,55.0,5.0,246.37666666666667,1.0,0.0,0.0,0.0,0.0,0.0,0.0,0.0,1.0530000000000008,1.0530000000000008,0.0,0.0,1.0,55.0,616.79921,10000.0,85.000001,85.000001,85.000001,85.000001,395.0,0.0,0.0,0.0,1.0,333.33500000000004,52.338,52.338,48.019,48.019,34.0,-23.6525,25.242,-27.093333333333334,28.427500000000002,0.0,1782.151,-0.21499999999999986,100.0,28.059,27.811,43.083,43.259,0.0,0.0,100.0,0.0,0.0,0.0,0.0,3110.0,3201.4,4005.875,4065.3,305.365,304.754,315.1166666666667,314.84175,21.976399999999998,20.6211,21.9876,21.4953,314.999998,314.999998,324.999988,324.999988,99.55914285714286,99.50731666666667,99.56814285714286,99.548,0.09224999999999994,-0.040000000000000036,-0.09850000000000003,0.1293333333333333,-0.045000000000001705,-0.045000000000001705,1.5583333333333333,1.553,38.352000000000004,29.881999999999998,38.423,35.346000000000004,56.012,35.249,59.854,52.821,53.94,34.369,58.425,51.135,53.091,33.911500000000004,58.326,50.53933333333333,-0.09599999999999997,-0.058499999999999996,0.10458,0.10900000000000001,0.0,214.3,214.31,211.17333333333335,211.17333333333335,0.0,0.0
22,0.0,0.0,0.0,1.0,1.0,0.0,0.0,1.0,0.0,0.0,1.0,1.1856,26.0,0.0,0.0,0.0,59.999996,0.0,26.0,26.0,26.0,26.0,0.013777777777777889,0.2724,0.019225000000000003,292.145,-2.7639,-2.6605,-1.5741,-1.4974,-201.76999999999998,215.3025,190.528,0.0,0.0,0.0,0.0,0.04456666666666653,-5.498166666666667,-5.498166666666667,-0.5586,0.06133333333333324,0.007125000000000048,-0.603,68.584,0.0082,-0.20140000000000002,-0.14999999999999947,100.0,1.0,1.0,211.43,0.0,0.0,0.0,0.0,0.0,0.0,0.0,8961.8,0.0,55.0,5.0,246.87666666666667,0.0,0.0,0.0,0.0,0.0,0.0,0.0,0.0,1.1039999999999992,1.1039999999999992,0.0,0.0,0.0,55.0,616.79921,10000.0,85.000001,85.000001,85.000001,85.000001,395.0,0.0,0.0,0.0,1.0,166.665,52.399,52.399,47.211,47.211,34.0,-24.810000000000002,23.985999999999997,-30.233333333333334,29.98,0.0,1782.102,-0.28000000000000114,100.0,27.937,28.051000000000002,43.133,43.375,0.0,0.0,100.0,0.0,0.0,0.0,0.0,3200.714285714286,3072.1,4317.5,4343.7,305.34,304.974,314.4096666666667,314.1035,21.9859,20.6267,21.9981,21.5045,314.999998,314.999998,324.999988,324.999988,99.55915714285715,99.50733333333334,99.5683,99.54814285714286,0.08725000000000005,-0.05366666666666675,-0.10316666666666663,0.11549999999999994,-0.051666666666669414,-0.030000000000001137,1.4913333333333334,1.4785,38.412,29.916666666666664,38.488,35.4035,55.998999999999995,35.288,59.891999999999996,52.882,53.928,34.405,58.460499999999996,51.194,53.078,33.945499999999996,58.358000000000004,50.596666666666664,-0.10399999999999998,-0.06299999999999994,0.09863000000000001,0.11258000000000001,0.0,214.755,214.72500000000002,211.43,211.43,0.0,0.0
23,0.0,0.0,0.0,1.0,1.0,0.0,0.0,1.0,0.0,0.0,1.0,1.1856,26.0,0.0,0.0,0.0,59.999996,0.0,26.0,26.0,26.0,26.0,0.022333333333333316,0.2704,0.0050750000000000005,292.023,-2.6629,-2.6835,-1.6428,-1.5356,-198.06,215.3,190.503,0.0,0.0,0.0,0.0,0.04673333333333329,-5.498166666666667,-5.498166666666667,-0.5724,-0.2603333333333333,0.008124999999999938,-0.611,68.727,0.0098,-0.22457500000000002,-0.15799999999999947,100.0,1.0,1.0,211.89666666666668,0.0,0.0,0.0,0.0,0.0,0.0,0.0,8981.5,0.0,55.0,5.0,247.39,1.0,0.0,0.0,0.0,0.0,0.0,0.0,0.0,1.1580000000000013,1.1580000000000013,0.0,0.0,1.0,55.0,616.79921,10000.0,85.000001,85.000001,85.000001,85.000001,395.0,0.0,0.0,0.0,1.0,166.665,52.094,52.094,47.272,47.272,34.0,-23.78,24.345999999999997,-30.71,29.189999999999998,0.0,1782.046,-0.2699999999999996,100.0,28.204,28.209,43.354,43.653,0.0,0.0,100.0,0.0,0.0,0.0,0.0,3203.857142857143,3055.6,4298.0,4198.0,305.1815,304.93666666666667,314.506,314.4605,21.996,20.6326,22.0092,21.5143,314.999998,314.999998,324.999988,324.999988,99.55917142857143,99.50735,99.56845714285714,99.5483,0.09375,-0.04899999999999993,-0.09899999999999998,0.1160000000000001,-0.03833333333332689,-0.05666666666667197,1.5076666666666667,1.513,38.474999999999994,29.954,38.558,35.4645,55.986000000000004,35.329499999999996,59.932,52.9475,53.916,34.4435,58.498,51.2565,53.064,33.9825,58.391999999999996,50.65833333333333,-0.10350000000000004,-0.056499999999999995,0.101315,0.107215,0.0,215.155,215.175,211.89666666666668,211.89666666666668,0.0,0.0
24,0.0,0.0,0.0,1.0,1.0,0.0,0.0,1.0,0.0,0.0,1.0,1.1856,26.0,0.0,0.0,0.0,59.999996,0.0,26.0,26.0,26.0,26.0,0.019888888888888845,0.2775000000000001,-0.05,292.45,-2.7074,-2.6653000000000002,-1.5501,-1.5558,-194.97,215.2975,190.481875,0.0,0.0,0.0,0.0,0.04853333333333332,-5.498166666666667,-5.498166666666667,-0.5855,-0.42266666666666663,0.01924999999999999,1.135,68.846,0.0088,-0.22315000000000002,-0.21799999999999908,100.0,1.0,1.0,212.30666666666667,0.0,0.0,0.0,0.0,0.0,0.0,0.0,8999.0,0.0,55.0,5.0,247.81666666666666,0.0,0.0,0.0,0.0,0.0,0.0,0.0,0.0,1.2029999999999994,1.2029999999999994,0.0,0.0,0.0,55.0,616.79921,10000.0,85.000001,85.000001,85.000001,85.000001,395.0,0.0,0.0,0.0,1.0,166.665,52.704,52.704,47.501,47.501,34.0,-22.075,24.84,-27.596666666666664,30.0625,0.0,1782.002,-0.3249999999999993,100.0,28.14,27.859,43.351,43.496,0.0,0.0,100.0,0.0,0.0,0.0,0.0,2954.285714285714,3113.6,4098.625,4157.8,305.8305,305.021,314.821,314.5915,22.0043,20.6375,22.0184,21.5224,314.999998,314.999998,324.999988,324.999988,99.55917142857143,99.50735,99.56857142857143,99.54842857142857,0.09525000000000006,-0.03833333333333311,-0.09350000000000003,0.13366666666666682,-0.04833333333333201,-0.03833333333332689,1.525,1.5030000000000001,38.527,29.984333333333332,38.614999999999995,35.515,55.974000000000004,35.3625,59.963499999999996,53.0,53.903999999999996,34.474000000000004,58.5275,51.3075,53.052,34.012,58.419,50.708,-0.10050000000000003,-0.05249999999999999,0.10231000000000001,0.11585500000000001,0.0,215.535,215.53,212.30666666666667,212.30666666666667,0.0,0.0
25,0.0,0.0,0.0,1.0,1.0,0.0,0.0,1.0,0.0,0.0,1.0,1.1856,26.0,0.0,0.0,0.0,59.999996,0.0,26.0,26.0,26.0,26.0,0.016555555555555657,0.2652000000000001,0.011225,292.16,-2.6837999999999997,-2.6629,-1.5916000000000001,-1.5505,-191.25,215.29500000000002,190.455125,0.0,0.0,0.0,0.0,0.05069999999999997,-5.498166666666667,-5.498166666666667,-0.6009,0.21833333333333327,0.023749999999999938,0.223,68.987,0.0064,-0.21757500000000002,-0.2400000000000002,100.0,1.0,1.0,212.76666666666665,0.0,0.0,0.0,0.0,0.0,0.0,0.0,9018.5,0.0,55.0,5.0,248.32666666666665,1.0,0.0,0.0,0.0,0.0,0.0,0.0,0.0,1.256999999999998,1.256999999999998,0.0,0.0,1.0,55.0,616.79921,10000.0,85.000001,85.000001,85.000001,85.000001,395.0,0.0,0.0,0.0,1.0,166.665,51.788,51.788,47.653,47.653,34.0,-23.7025,27.381999999999998,-28.066666666666663,29.552500000000002,0.0,1781.948,-0.375,100.0,28.137999999999998,28.14,43.091,43.297,0.0,0.0,100.0,0.0,0.0,0.0,0.0,3178.857142857143,3332.3,4063.625,4167.6,305.135,304.26433333333335,315.025,314.58275,22.0142,20.6435,22.0294,21.5321,314.999998,314.999998,324.999988,324.999988,99.5592,99.50735,99.56872857142857,99.54858571428572,0.09850000000000003,-0.028999999999999915,-0.10133333333333339,0.12683333333333335,-0.046666666666666856,-0.05666666666667197,1.5373333333333332,1.5375,38.589,30.02166666666667,38.683,35.5755,55.96,35.403999999999996,60.0005,53.063,53.891,34.5125,58.5615,51.368,53.037,34.048500000000004,58.45,50.76733333333333,-0.10599999999999998,-0.0495000000000001,0.10994000000000001,0.104605,0.0,215.97,215.985,212.76666666666665,212.76666666666665,0.0,0.0
26,0.0,0.0,0.0,1.0,1.0,0.0,0.0,1.0,0.0,0.0,1.0,1.1856,26.0,0.0,0.0,0.0,59.999996,0.0,26.0,26.0,26.0,26.0,0.029111111111111088,0.2723,0.048875,291.428,-2.7094,-2.6542,-1.5527000000000002,-1.5554999999999999,-187.72,215.29250000000002,190.429625,0.0,0.0,0.0,0.0,0.0527333333333333,-5.498166666666667,-5.498166666666667,-0.5738,0.20166666666666666,0.008624999999999883,-0.531,69.123,0.0102,-0.20315,-0.2079999999999993,100.0,1.0,1.0,212.99333333333334,0.0,0.0,0.0,0.0,0.0,0.0,0.0,9028.0,0.0,55.0,5.0,248.81666666666666,0.0,0.0,0.0,0.0,0.0,0.0,0.0,0.0,1.3079999999999998,1.3079999999999998,0.0,0.0,0.0,55.0,616.79921,10000.0,85.000001,85.000001,85.000001,85.000001,395.0,0.0,0.0,0.0,1.0,111.11,51.682,51.682,46.722,46.722,34.0,-24.872500000000002,24.54,-30.976666666666667,31.805,0.0,1781.899,-0.33999999999999986,100.0,28.606,28.57,43.508,43.874,0.0,0.0,100.0,0.0,0.0,0.0,0.0,3280.0,3086.5,4447.625,4396.4,305.049,304.9413333333333,314.1046666666667,313.9065,22.023699999999998,20.6492,22.0399,21.5415,314.999998,314.999998,324.999988,324.999988,99.5592,99.50736666666667,99.56887142857143,99.54874285714286,0.09224999999999994,-0.04233333333333311,-0.09899999999999998,0.11949999999999994,-0.045000000000001705,-0.045000000000001705,1.453,1.4420000000000002,38.647999999999996,30.057333333333332,38.75,35.634,55.95,35.444,60.039500000000004,53.1255,53.881,34.549,58.5985,51.4285,53.025999999999996,34.084,58.4835,50.82633333333334,-0.10649999999999993,-0.0535000000000001,0.10401,0.10913,0.0,216.405,216.42000000000002,212.99333333333334,212.99333333333334,0.0,0.0
27,0.0,0.0,0.0,1.0,1.0,0.0,0.0,1.0,0.0,0.0,1.0,1.1856,26.0,0.0,0.0,0.0,59.999996,0.0,26.0,26.0,26.0,26.0,0.019777777777777894,0.2522,-0.057975000000000006,291.84,-2.7575,-2.6668000000000003,-1.6160999999999999,-1.5346000000000002,-184.61,215.29250000000002,190.407875,0.0,0.0,0.0,0.0,0.05453333333333332,-5.498166666666667,-5.498166666666667,-0.5956,-0.7746666666666666,0.023499999999999854,0.89,69.239,0.0129,-0.235775,-0.3099999999999996,100.0,1.0,1.0,213.47333333333333,0.0,0.0,0.0,0.0,0.0,0.0,0.0,9048.3,0.0,55.0,5.0,249.23333333333335,1.0,0.0,0.0,0.0,0.0,0.0,0.0,0.0,1.352999999999998,1.352999999999998,0.0,0.0,1.0,55.0,616.79921,10000.0,85.000001,85.000001,85.000001,85.000001,395.0,0.0,0.0,0.0,1.0,333.33500000000004,51.987,51.987,46.783,46.783,34.0,-22.8925,26.016,-28.39,29.865000000000002,0.0,1781.851,-0.3500000000000014,100.0,28.468,28.44,43.973,44.045,0.0,0.0,100.0,0.0,0.0,0.0,0.0,3034.4285714285716,3223.2,4113.5,4159.4,305.6385,304.63166666666666,314.85766666666666,314.64375,22.0319,20.6541,22.0493,21.5497,314.999998,314.999998,324.999988,324.999988,99.55921428571429,99.50736666666667,99.56901428571429,99.54887142857143,0.10225000000000017,-0.03699999999999992,-0.08966666666666656,0.137,-0.05333333333332746,-0.04833333333333201,1.516,1.5114999999999998,38.699,30.08833333333333,38.808,35.6855,55.938,35.478,60.073499999999996,53.18,53.870000000000005,34.581,58.629999999999995,51.4805,53.013999999999996,34.1145,58.512,50.87733333333333,-0.10749999999999993,-0.0535000000000001,0.099875,0.10869500000000001,0.0,216.73000000000002,216.735,213.47333333333333,213.47333333333333,0.0,0.0
28,0.0,0.0,0.0,1.0,1.0,0.0,0.0,1.0,0.0,0.0,1.0,1.1856,26.0,0.0,0.0,0.0,59.999996,0.0,26.0,26.0,26.0,26.0,0.023333333333333428,0.26570000000000005,-0.036375000000000005,291.946,-2.6852,-2.6541,-1.6274000000000002,-1.5638,-180.87,215.29250000000002,190.381,0.0,0.0,0.0,0.0,0.0567333333333333,-5.498166666666667,-5.498166666666667,-0.6,0.4966666666666668,0.008499999999999952,0.28600000000000003,69.377,0.0123,-0.21455000000000002,-0.33399999999999963,100.0,1.0,1.0,213.95,0.0,0.0,0.0,0.0,0.0,0.0,0.0,9068.5,0.0,55.0,5.0,249.73000000000002,0.0,0.0,0.0,0.0,0.0,0.0,0.0,0.0,1.407,1.407,0.0,0.0,0.0,55.0,616.79921,10000.0,85.000001,85.000001,85.000001,85.000001,395.0,0.0,0.0,0.0,1.0,111.11,52.002,52.002,47.119,47.119,34.0,-22.0075,26.322000000000003,-28.453333333333333,30.645,0.0,1781.798,-0.4299999999999997,100.0,28.495,28.423000000000002,43.44,43.665,0.0,0.0,100.0,0.0,0.0,0.0,0.0,3016.4285714285716,3196.4,4201.75,4190.7,305.57,304.6836666666667,314.7563333333333,314.574,22.0418,20.6602,22.060200000000002,21.5594,314.999998,314.999998,324.999988,324.999988,99.55922857142858,99.50736666666667,99.56917142857142,99.54901428571429,0.10749999999999993,-0.022666666666666613,-0.07983333333333331,0.14016666666666677,-0.045000000000001705,-0.05833333333333002,1.556,1.5220000000000002,38.760999999999996,30.126333333333335,38.876000000000005,35.746,55.926,35.519999999999996,60.109,53.242,53.858000000000004,34.6195,58.663,51.5405,53.001000000000005,34.1515,58.542,50.93566666666666,-0.10849999999999993,-0.044499999999999984,0.1009,0.11121500000000001,0.0,217.195,217.20499999999998,213.95,213.95,0.0,0.0
29,0.0,0.0,0.0,1.0,1.0,0.0,0.0,1.0,0.0,0.0,1.0,1.1856,26.0,0.0,0.0,0.0,59.999996,0.0,26.0,26.0,26.0,26.0,0.036555555555555674,0.26290000000000013,-0.034550000000000004,291.794,-2.7544,-2.5846,-1.6021,-1.5701,-177.32999999999998,215.29250000000002,190.354625,0.0,0.0,0.0,0.0,0.05876666666666652,-5.498166666666667,-5.498166666666667,-0.6069,-0.7596666666666667,-0.0016250000000002096,-0.656,69.511,0.0146,-0.216925,-0.28799999999999937,100.0,1.0,1.0,214.25666666666666,0.0,0.0,0.0,0.0,0.0,0.0,0.0,9081.5,0.0,55.0,5.0,250.21333333333334,1.0,0.0,0.0,0.0,0.0,0.0,0.0,0.0,1.4579999999999984,1.4579999999999984,0.0,0.0,1.0,55.0,616.79921,10000.0,85.000001,85.000001,85.000001,85.000001,395.0,0.0,0.0,0.0,1.0,111.11,52.094,52.094,46.982,46.982,34.0,-24.622500000000002,24.775999999999996,-29.346666666666664,30.877499999999998,0.0,1781.748,-0.4750000000000014,100.0,28.092,28.329,43.742000000000004,44.041,0.0,0.0,100.0,0.0,0.0,0.0,0.0,3281.142857142857,3160.4,4209.375,4215.3,305.224,304.888,314.6913333333333,314.34075,22.051,20.6658,22.0708,21.5687,314.999998,314.999998,324.999988,324.999988,99.55924285714286,99.50738333333334,99.56931428571428,99.54917142857143,0.10325000000000006,-0.03299999999999992,-0.09550000000000003,0.1303333333333332,-0.04999999999999716,-0.04333333333332945,1.487,1.4820000000000002,38.819,30.16133333333333,38.942,35.8045,55.913,35.5575,60.1475,53.3035,53.845,34.653999999999996,58.699,51.6,52.988,34.1845,58.5745,50.99366666666667,-0.11749999999999994,-0.044499999999999984,0.10379500000000001,0.11057000000000002,0.0,217.565,217.585,214.25666666666666,214.25666666666666,0.0,0.0
30,0.0,0.0,0.0,1.0,1.0,0.0,0.0,1.0,0.0,0.0,1.0,1.1856,26.0,0.0,0.0,0.0,59.999996,0.0,26.0,26.0,26.0,26.0,0.032444444444444276,0.2704,0.017150000000000002,291.10699999999997,-2.7288,-2.6442,-1.6521,-1.4635,-173.99,215.29500000000002,190.32975,0.0,0.0,0.0,0.0,0.060699999999999976,-5.498166666666667,-5.498166666666667,-0.6016,0.9003333333333332,0.008750000000000036,-0.313,69.633,0.015600000000000001,-0.21565,-0.3779999999999992,100.0,1.0,1.0,214.68666666666667,0.0,0.0,0.0,0.0,0.0,0.0,0.0,9099.7,0.0,55.0,5.0,250.65,0.0,0.0,0.0,0.0,0.0,0.0,1.0,0.0,1.5060000000000002,1.5060000000000002,0.0,0.0,0.0,55.0,616.79921,10000.0,85.000001,85.000001,85.000001,85.000001,395.0,0.0,0.0,0.0,1.0,166.665,50.644,50.644,46.86,46.86,34.0,-24.8925,26.605999999999998,-30.506666666666668,29.85,0.0,1781.698,-0.5500000000000007,100.0,28.995,29.082,43.538,43.969,0.0,0.0,100.0,0.0,0.0,0.0,0.0,3377.0,3278.4,4316.625,4307.2,304.623,304.1496666666667,314.5733333333333,314.35975,22.06,20.6714,22.0805,21.5774,314.999998,314.999998,324.999988,324.999988,99.55925714285715,99.50738333333334,99.56947142857143,99.54932857142857,0.11799999999999988,-0.03933333333333322,-0.09250000000000003,0.1323333333333332,-0.05833333333333002,-0.046666666666666856,1.5166666666666666,1.4994999999999998,38.875,30.195999999999998,39.003,35.859,55.905,35.5985,60.1825,53.3635,53.838,34.692499999999995,58.7315,51.6575,52.979,34.221000000000004,58.604,51.050333333333334,-0.131,-0.04249999999999998,0.104925,0.10894000000000001,0.0,217.985,217.99,214.68666666666667,214.68666666666667,0.0,0.0
31,0.0,0.0,0.0,1.0,1.0,0.0,0.0,1.0,0.0,0.0,1.0,1.1856,26.0,0.0,0.0,0.0,59.999996,0.0,26.0,26.0,26.0,26.0,0.03533333333333322,0.25680000000000014,0.054975,290.771,-2.7039,-2.6948,-1.6501000000000001,-1.5401,-170.43,215.2975,190.303875,0.0,0.0,0.0,0.0,0.06276666666666653,-5.498166666666667,-5.498166666666667,-0.5863,-0.3673333333333334,0.020999999999999908,0.9,69.765,0.022600000000000002,-0.220175,-0.5060000000000002,100.0,1.0,1.0,214.92666666666668,0.0,0.0,0.0,0.0,0.0,0.0,0.0,9110.0,0.0,55.0,5.0,251.13,1.0,0.0,0.0,0.0,0.0,0.0,1.0,0.0,1.5569999999999986,1.5569999999999986,0.0,0.0,1.0,55.0,616.79921,10000.0,85.000001,85.000001,85.000001,85.000001,395.0,0.0,0.0,0.0,1.0,166.665,51.086,51.086,45.609,45.609,34.0,-21.785,27.968,-29.916666666666664,33.45,0.0,1781.647,-0.48499999999999943,100.0,29.038,29.11,44.441,44.692,0.0,0.0,100.0,0.0,0.0,0.0,0.0,3043.714285714286,3346.6,4273.625,4435.6,305.4855,304.172,314.38866666666667,313.85475,22.0693,20.6772,22.0912,21.587,314.999998,314.999998,324.999988,324.999988,99.55928571428572,99.50738333333334,99.56961428571428,99.54947142857142,0.12225000000000019,-0.028000000000000025,-0.07533333333333336,0.14533333333333331,-0.021666666666668277,-0.054999999999999716,1.4423333333333332,1.4220000000000002,38.933,30.232333333333333,39.07,35.9185,55.894,35.635999999999996,60.22,53.424,53.828,34.727000000000004,58.7665,51.716,52.968,34.2545,58.6355,51.107,-0.11949999999999994,-0.0495000000000001,0.10229500000000001,0.106785,0.0,218.35000000000002,218.39499999999998,214.92666666666668,214.92666666666668,0.0,0.0
32,0.0,0.0,0.0,1.0,1.0,0.0,0.0,1.0,0.0,0.0,1.0,1.1856,26.0,0.0,0.0,0.0,59.999996,0.0,26.0,26.0,26.0,26.0,0.0584444444444443,0.23730000000000007,-0.06495000000000001,291.534,-2.7001,-2.6813000000000002,-1.5888,-1.6176,-166.66,215.3,190.276875,0.0,0.0,0.0,0.0,0.0649666666666665,-5.498166666666667,-5.498166666666667,-0.6082000000000001,-0.264,-0.0008750000000001812,0.191,69.899,0.0267,-0.231025,-0.45999999999999996,100.0,1.0,1.0,215.53,0.0,0.0,0.0,0.0,0.0,0.0,0.0,9135.6,0.0,55.0,5.0,251.61333333333334,0.0,0.0,0.0,0.0,0.0,0.0,1.0,0.0,1.6110000000000007,1.6110000000000007,0.0,0.0,0.0,55.0,616.79921,10000.0,85.000001,85.000001,85.000001,85.000001,395.0,0.0,0.0,0.0,1.0,111.11,51.666,51.666,46.875,46.875,34.0,-21.4575,26.25,-26.11,32.019999999999996,0.0,1781.595,-0.46999999999999886,100.0,28.825,28.923000000000002,44.183,44.603,0.0,0.0,100.0,0.0,0.0,0.0,0.0,3011.0,3172.9,3971.625,4149.0,305.6305,304.78933333333333,315.1863333333333,314.57575,22.0791,20.6833,22.1022,21.5968,314.999998,314.999998,324.999988,324.999988,99.55928571428572,99.5074,99.56975714285714,99.54962857142857,0.12175000000000002,-0.02400000000000002,-0.07399999999999995,0.15500000000000003,-0.030000000000001137,-0.054999999999999716,1.5183333333333335,1.5045000000000002,38.995000000000005,30.270666666666664,39.138999999999996,35.980000000000004,55.882,35.6775,60.2565,53.4875,53.816,34.7655,58.8005,51.7765,52.955,34.291,58.666,51.166333333333334,-0.11699999999999999,-0.0475000000000001,0.10120000000000001,0.11167,0.0,218.765,218.81,215.53,215.53,0.0,0.0
33,0.0,0.0,0.0,1.0,1.0,0.0,0.0,1.0,0.0,0.0,1.0,1.1856,26.0,0.0,0.0,0.0,59.999996,0.0,26.0,26.0,26.0,26.0,0.04899999999999993,0.26049999999999995,-0.0702,291.595,-2.7128,-2.691,-1.5968,-1.5847,-163.72,215.305,190.254875,0.0,0.0,0.0,0.0,0.06666666666666654,-5.498166666666667,-5.498166666666667,-0.6152000000000001,-0.15400000000000003,-0.0017499999999999183,0.934,70.006,0.029500000000000002,-0.2157,-0.46999999999999975,100.0,1.0,1.0,215.82999999999998,0.0,0.0,0.0,0.0,0.0,0.0,0.0,9148.2,0.0,55.0,5.0,251.99666666666667,1.0,0.0,0.0,0.0,0.0,0.0,1.0,0.0,1.6529999999999987,1.6529999999999987,0.0,0.0,1.0,55.0,616.79921,10000.0,85.000001,85.000001,85.000001,85.000001,395.0,0.0,0.0,0.0,1.0,166.665,51.865,51.865,46.936,46.936,34.0,-22.1025,25.834000000000003,-27.486666666666665,31.6875,0.0,1781.551,-0.46499999999999986,100.0,28.696,28.722,44.016,44.366,0.0,0.0,100.0,0.0,0.0,0.0,0.0,3066.4285714285716,3100.6,4093.375,4214.9,305.5165,304.998,314.935,314.50725,22.0868,20.6879,22.1107,21.6044,314.999998,314.999998,324.999988,324.999988,99.55931428571428,99.5074,99.5699,99.54975714285715,0.11900000000000022,-0.01966666666666672,-0.08166666666666655,0.14933333333333332,-0.03499999999999659,-0.06333333333333258,1.5326666666666666,1.521,39.042,30.299666666666667,39.192,36.0275,55.872,35.71,60.288,53.539,53.806,34.795500000000004,58.829499999999996,51.826499999999996,52.944,34.32,58.692499999999995,51.215333333333334,-0.11249999999999993,-0.045500000000000096,0.10796000000000001,0.11304000000000002,0.0,219.10000000000002,219.135,215.82999999999998,215.82999999999998,0.0,0.0
34,0.0,0.0,0.0,1.0,1.0,0.0,0.0,1.0,0.0,0.0,1.0,1.1856,26.0,0.0,0.0,0.0,59.999996,0.0,26.0,26.0,26.0,26.0,0.04800000000000004,0.2519,-0.084925,291.855,-2.6752,-2.6677,-1.6326,-1.5195,-160.14999999999998,215.3125,190.226875,0.0,0.0,0.0,0.0,0.06876666666666653,-5.498166666666667,-5.498166666666667,-0.6408,-0.9216666666666666,0.01912500000000006,-0.327,70.136,0.029500000000000002,-0.22045,-0.3639999999999999,100.0,1.0,1.0,216.18,0.0,0.0,0.0,0.0,0.0,0.0,0.0,9163.1,0.0,55.0,5.0,252.46,0.0,0.0,0.0,0.0,0.0,0.0,1.0,0.0,1.7040000000000006,1.7040000000000006,0.0,0.0,0.0,55.0,616.79921,10000.0,85.000001,85.000001,85.000001,85.000001,395.0,0.0,0.0,0.0,1.0,166.665,52.46,52.46,47.043,47.043,34.0,-21.525,23.896,-28.89666666666666,30.375,0.0,1781.501,-0.495000000000001,100.0,28.225,28.53,43.809,44.504000000000005,0.0,0.0,100.0,0.0,0.0,0.0,0.0,3040.714285714286,2941.3,4146.875,4231.8,305.8005,305.31333333333333,314.8673333333333,314.39425,22.0959,20.6935,22.1211,21.6137,314.999998,314.999998,324.999988,324.999988,99.55931428571428,99.5074,99.57002857142857,99.5499,0.11399999999999988,-0.030999999999999917,-0.09066666666666656,0.13516666666666666,-0.045000000000001705,-0.03999999999999915,1.5110000000000001,1.505,39.1,30.334666666666664,39.257,36.085499999999996,55.86,35.744,60.320499999999996,53.597,53.795,34.827,58.8595,51.882,52.932,34.3505,58.7195,51.269333333333336,-0.11699999999999999,-0.045500000000000096,0.11120500000000001,0.10534500000000001,0.0,219.485,219.5,216.18,216.18,0.0,0.0
35,0.0,0.0,0.0,1.0,1.0,0.0,0.0,1.0,0.0,0.0,1.0,1.1856,26.0,0.0,0.0,0.0,59.999996,0.0,26.0,26.0,26.0,26.0,0.052444444444444294,0.2539,-0.094725,291.779,-2.8026,-2.6546000000000003,-1.5368,-1.5822,-156.57,215.32,190.197,0.0,0.0,0.0,0.0,0.0708333333333333,-5.498166666666667,-5.498166666666667,-0.6775,-0.021666666666666612,-0.001374999999999904,-0.166,70.261,0.0324,-0.226525,-0.41000000000000014,100.0,1.0,1.0,216.68666666666667,0.0,0.0,0.0,0.0,0.0,0.0,0.0,9184.5,0.0,55.0,5.0,252.91666666666666,1.0,0.0,0.0,0.0,0.0,0.0,1.0,0.0,1.754999999999999,1.754999999999999,0.0,0.0,1.0,55.0,616.79921,10000.0,85.000001,85.000001,85.000001,85.000001,395.0,0.0,0.0,0.0,1.0,166.665,51.635999999999996,51.635999999999996,46.936,46.936,34.0,-23.3175,27.78,-25.45666666666667,30.08,0.0,1781.451,-0.29499999999999815,100.0,28.305,28.753,43.629,43.956,0.0,0.0,100.0,0.0,0.0,0.0,0.0,3103.5714285714284,3359.8,4070.125,4033.6000000000004,305.413,304.22,315.057,315.01025,22.1051,20.6994,22.1314,21.622799999999998,314.999998,314.999998,324.999988,324.999988,99.55932857142857,99.5074,99.57017142857143,99.55004285714286,0.11775000000000002,-0.024333333333333318,-0.0655,0.15566666666666684,-0.04999999999999716,-0.05833333333333002,1.5613333333333332,1.557,39.157,30.371333333333332,39.321,36.143,55.847,35.784,60.354,53.653,53.782,34.864,58.8905,51.9365,52.918,34.3855,58.7475,51.32266666666666,-0.10449999999999993,-0.0605,0.10709500000000001,0.10837500000000001,0.0,219.885,219.935,216.68666666666667,216.68666666666667,0.0,0.0
