,ABS Active,ABS Enabled,AID Allow Tire Blankets,AID Auto Blip,AID Auto Clutch,AID Auto Shift,AID Fuel Rate,AID Ideal Line,AID Mech Damage,AID Stability,AID Tire Wear Rate,Air Density,Air Temp,Ballast,Best Lap Delta,Best Lap Time,Brake Bias,Brake Pos,Brake Temp FL,Brake Temp FR,Brake Temp RL,Brake Temp RR,CG Accel Lateral,CG Accel Longitudinal,CG Accel Vertical,CG Height,Camber FL,Camber FR,Camber RL,Camber RR,Car Coord X,Car Coord Y,Car Coord Z,Car Damage Front,Car Damage Left,Car Damage Rear,Car Damage Right,Car Pos Norm,Caster FL,Caster FR,Chassis Pitch Angle,Chassis Pitch Rate,Chassis Roll Angle,Chassis Roll Rate,Chassis Velocity X,Chassis Velocity Y,Chassis Velocity Z,Chassis Yaw Rate,Clutch Pos,DRS Active,DRS Available,Drive Train Speed,ERS Heat Charging,ERS Is Charging,ERS Max Energy,ERS Power Level,ERS Recovery Level,Engine Brake Setting,Engine Limiter,Engine RPM,Flags,Fuel Level,Gear,Ground Speed,HR Sample Clock,In Pit,KERS Charge,KERS Deployed Energy,KERS Input,KERS Max Energy,LR Sample Clock,Lap Invalidated,Lap Time,Lap Time2,Last Lap Time,Last Sector Time,MR Sample Clock,Max Fuel,Max Power,Max RPM,Max Sus Travel FL,Max Sus Travel FR,Max Sus Travel RL,Max Sus Travel RR,Max Torque,Max Turbo Boost,Num Tires Off Track,Penalties Enabled,Position,Raw Data Sample Rate,Ride Height FL,Ride Height FR,Ride Height RL,Ride Height RR,Road Temp,Self Align Torque FL,Self Align Torque FR,Self Align Torque RL,Self Align Torque RR,Session Lap Count,Session Time Left,Steering Angle,Surface Grip,Suspension Travel FL,Suspension Travel FR,Suspension Travel RL,Suspension Travel RR,TC Active,TC Enabled,Throttle Pos,Tire Dirt Level FL,Tire Dirt Level FR,Tire Dirt Level RL,Tire Dirt Level RR,Tire Load FL,Tire Load FR,Tire Load RL,Tire Load RR,Tire Loaded Radius FL,Tire Loaded Radius FR,Tire Loaded Radius RL,Tire Loaded Radius RR,Tire Pressure FL,Tire Pressure FR,Tire Pressure RL,Tire Pressure RR,Tire Radius FL,Tire Radius FR,Tire Radius RL,Tire Radius RR,Tire Rubber Grip FL,Tire Rubber Grip FR,Tire Rubber Grip RL,Tire Rubber Grip RR,Tire Slip Angle FL,Tire Slip Angle FR,Tire Slip Angle RL,Tire Slip Angle RR,Tire Slip Ratio FL,Tire Slip Ratio FR,Tire Slip Ratio RL,Tire Slip Ratio RR,Tire Temp Core FL,Tire Temp Core FR,Tire Temp Core RL,Tire Temp Core RR,Tire Temp Inner FL,Tire Temp Inner FR,Tire Temp Inner RL,Tire Temp Inner RR,Tire Temp Middle FL,Tire Temp Middle FR,Tire Temp Middle RL,Tire Temp Middle RR,Tire Temp Outer FL,Tire Temp Outer FR,Tire Temp Outer RL,Tire Temp Outer RR,Toe In FL,Toe In FR,Toe In RL,Toe In RR,Turbo Boost,Wheel Angular Speed FL,Wheel Angular Speed FR,Wheel Angular Speed RL,Wheel Angular Speed RR,Wind Direction,Wind Speed
0,0.0,0.0,0.0,1.0,1.0,0.0,0.0,1.0,0.0,0.0,1.0,1.1856,26.0,0.0,0.0,0.0,59.99999,0.0,26.0,26.0,26.0,26.0,-0.068125,0.31679999999999997,0.05328,293.884,-2.72265,-2.6499,-1.51945,-1.5535999999999999,-275.58,216.3025,190.986875,0.0,0.0,0.0,0.0,0.0016333333333333755,-5.498166666666667,-5.498166666666667,-0.5471,1.6315,-0.006111111111111178,-1.514,65.509,-0.032,-0.213675,0.9960000000000004,100.0,1.0,1.0,202.23000000000002,0.0,0.0,0.0,0.0,0.0,0.0,0.0,8571.8,0.0,55.0,5.0,235.8,0.0,0.0,0.0,0.0,0.0,0.0,0.0,0.0,0.006000000000000227,0.006000000000000227,0.0,0.0,0.0,55.0,616.79921,10000.0,85.0,85.0,85.0,85.0,395.0,0.0,0.0,0.0,1.0,20.0,52.628,52.628,49.376999999999995,49.376999999999995,34.0,-26.405,23.426,-31.03,24.65,0.0,1783.436,0.754999999999999,100.0,27.505,27.296,40.435,40.608000000000004,0.0,0.0,100.0,0.0,0.0,0.0,0.0,3034.4285714285716,3315.6,4218.625,4008.4,305.6635,304.15275,314.651,314.8055,21.7728,20.509,21.7837,21.3114,314.99999,314.99999,324.99998,324.99998,99.55861428571428,99.50703333333334,99.56581428571428,99.54521428571428,0.0040000000000000036,-0.11099999999999999,-0.15633333333333332,0.05750000000000011,-0.05333333333332746,-0.04833333333333201,1.5416666666666665,1.5805,37.08,29.181666666666665,37.147999999999996,34.1965,56.165,34.371,59.272999999999996,51.6125,54.093,33.558,57.8925,49.9705,53.269,33.1315,57.855000000000004,49.396,-0.017000000000000015,-0.13200000000000012,0.10803000000000001,0.10929000000000001,0.0,205.31,205.22,202.23000000000002,202.23000000000002,0.0,0.0
1,0.0,0.0,0.0,1.0,1.0,0.0,0.0,1.0,0.0,0.0,1.0,1.1856,26.0,0.0,0.0,0.0,59.999996,0.0,26.0,26.0,26.0,26.0,-0.09375,0.2905,0.20856,292.938,-2.6375,-2.7682,-1.53015,-1.5547,-272.04,216.2975,190.965625,0.0,0.0,0.0,0.0,0.0036999999999999256,-5.498166666666667,-5.498166666666667,-0.4988,-0.964,-0.05766666666666653,-1.244,65.672,-0.049800000000000004,-0.197225,1.362,100.0,1.0,1.0,202.44666666666666,0.0,0.0,0.0,0.0,0.0,0.0,0.0,8581.0,0.0,55.0,5.0,236.39,1.0,0.0,0.0,0.0,0.0,0.0,0.0,0.0,0.05999999999999872,0.05999999999999872,0.0,0.0,1.0,55.0,616.79921,10000.0,85.000001,85.000001,85.000001,85.000001,395.0,0.0,0.0,0.0,1.0,166.665,53.513,53.513,48.248,48.248,34.0,-27.0525,18.432,-33.69333333333333,29.9225,0.0,1783.382,0.865000000000002,100.0,27.498,27.001,42.907,41.933,0.0,0.0,100.0,0.0,0.0,0.0,0.0,3150.0,2709.5,4263.875,4707.8,305.35,306.2055,314.43275,313.1035,21.7832,20.5144,21.7952,21.3212,314.999998,314.999998,324.999988,324.999988,99.55862857142857,99.50705,99.56597142857143,99.54535714285714,-0.00275000000000003,-0.135,-0.1805,0.04899999999999993,-0.07833333333332604,-0.03833333333332689,1.3980000000000001,1.466,37.144999999999996,29.214666666666666,37.22,34.257,56.147999999999996,34.4135,59.3195,51.6825,54.076,33.597,57.936,50.0375,53.251999999999995,33.169,57.8955,49.461666666666666,-0.012499999999999956,-0.14000000000000012,0.10885,0.11021,0.0,205.775,205.655,202.44666666666666,202.44666666666666,0.0,0.0
2,0.0,0.0,0.0,1.0,1.0,0.0,0.0,1.0,0.0,0.0,1.0,1.1856,26.0,0.0,0.0,0.0,59.999996,0.0,26.0,26.0,26.0,26.0,-0.146875,0.28400000000000003,-0.07764,293.549,-2.6041,-2.7925,-1.4942,-1.6047,-268.69,216.28750000000002,190.94675,0.0,0.0,0.0,0.0,0.005666666666666598,-5.498166666666667,-5.498166666666667,-0.5467000000000001,0.29600000000000004,-0.04300000000000015,2.68,65.814,-0.0702,-0.247725,1.5460000000000012,100.0,1.0,1.0,203.33666666666667,0.0,0.0,0.0,0.0,0.0,0.0,0.0,8618.7,0.0,55.0,5.0,236.90333333333334,0.0,0.0,0.0,0.0,0.0,0.0,0.0,0.0,0.11100000000000065,0.11100000000000065,0.0,0.0,0.0,55.0,616.79921,10000.0,85.000001,85.000001,85.000001,85.000001,395.0,0.0,0.0,0.0,1.0,166.665,52.322,52.322,50.003,50.003,34.0,-28.8325,20.68,-29.29,20.98,0.0,1783.331,0.7250000000000014,100.0,28.485,27.012999999999998,42.671,41.405,0.0,0.0,100.0,0.0,0.0,0.0,0.0,3275.714285714286,3006.2,3739.125,3782.0,304.6845,305.327,315.68225,315.54425,21.7933,20.5193,21.8056,21.3299,314.999998,314.999998,324.999988,324.999988,99.55862857142857,99.50706666666666,99.56611428571429,99.5455,-0.01200000000000001,-0.1419999999999999,-0.22416666666666663,0.01200000000000001,-0.05333333333332746,-0.05333333333332746,1.6373333333333333,1.676,37.208,29.245666666666665,37.285,34.3115,56.135999999999996,34.453,59.3565,51.7385,54.065,33.6335,57.9705,50.091499999999996,53.239000000000004,33.2035,57.9275,49.51433333333333,-0.025000000000000022,-0.129,0.107115,0.107285,0.0,206.23000000000002,206.09,203.33666666666667,203.33666666666667,0.0,0.0
3,0.0,0.0,0.0,1.0,1.0,0.0,0.0,1.0,0.0,0.0,1.0,1.1856,26.0,0.0,0.0,0.0,59.999996,0.0,26.0,26.0,26.0,26.0,-0.136125,0.3184,-0.02262,293.335,-2.73135,-2.6861,-1.51525,-1.59,-265.72,216.2775,190.929375,0.0,0.0,0.0,0.0,0.007399999999999962,-5.498166666666667,-5.498166666666667,-0.5086,0.513,-0.0086666666666666,-0.9319999999999999,65.949,-0.081,-0.20145000000000002,1.2120000000000015,100.0,1.0,1.0,203.45666666666668,0.0,0.0,0.0,0.0,0.0,0.0,0.0,8623.7,0.0,55.0,5.0,237.38666666666666,1.0,0.0,0.0,0.0,0.0,0.0,0.0,0.0,0.1559999999999988,0.1559999999999988,0.0,0.0,1.0,55.0,616.79921,10000.0,85.000001,85.000001,85.000001,85.000001,395.0,0.0,0.0,0.0,1.0,111.11,53.482,53.482,48.035,48.035,34.0,-25.965,17.762,-35.736666666666665,24.225,0.0,1783.287,0.6400000000000006,100.0,27.933,27.167,42.495000000000005,41.598,0.0,0.0,100.0,0.0,0.0,0.0,0.0,2882.857142857143,2800.3,4342.5,4222.0,306.035,305.7155,314.29075,314.336,21.8019,20.5239,21.8149,21.3378,314.999998,314.999998,324.999988,324.999988,99.55862857142857,99.50708333333333,99.56622857142857,99.54562857142857,-0.020000000000000018,-0.15900000000000003,-0.21733333333333338,0.009166666666666545,-0.041666666666671404,-0.045000000000001705,1.4803333333333333,1.5495,37.262,29.274,37.343,34.361,56.120999999999995,34.4905,59.3905,51.794,54.051,33.6685,58.0025,50.144999999999996,53.225,33.237,57.957,49.56666666666666,-0.031000000000000028,-0.1260000000000001,0.11037000000000001,0.1126,0.0,206.625,206.55,203.45666666666668,203.45666666666668,0.0,0.0
4,0.0,0.0,0.0,1.0,1.0,0.0,0.0,1.0,0.0,0.0,1.0,1.1856,26.0,0.0,0.0,0.0,59.999996,0.0,26.0,26.0,26.0,26.0,-0.136,0.28510000000000013,-0.02894,293.61,-2.6608,-2.7434000000000003,-1.52615,-1.5988,-262.16,216.2625,190.9085,0.0,0.0,0.0,0.0,0.009466666666666512,-5.498166666666667,-5.498166666666667,-0.5456,-0.6245,-0.07977777777777773,-1.62,66.10300000000001,-0.0823,-0.238175,1.17,100.0,1.0,1.0,204.10000000000002,0.0,0.0,0.0,0.0,0.0,0.0,0.0,8651.0,0.0,55.0,5.0,237.94333333333333,0.0,0.0,0.0,0.0,0.0,0.0,0.0,0.0,0.21000000000000085,0.21000000000000085,0.0,0.0,0.0,55.0,616.79921,10000.0,85.000001,85.000001,85.000001,85.000001,395.0,0.0,0.0,0.0,1.0,166.665,52.963,52.963,48.859,48.859,34.0,-29.63,19.186,-31.966666666666665,20.77,0.0,1783.232,0.5949999999999989,100.0,27.725,26.932,42.843,41.551,0.0,0.0,100.0,0.0,0.0,0.0,0.0,3299.0,2888.8,4051.625,3654.3,304.9425,305.47825,314.951,315.7285,21.8122,20.5292,21.8261,21.3471,314.999998,314.999998,324.999988,324.999988,99.55864285714286,99.5071,99.56638571428572,99.54577142857143,-0.022499999999999964,-0.15133333333333332,-0.20450000000000002,0.02066666666666661,-0.060000000000002274,-0.05333333333332746,1.5866666666666667,1.617,37.326,29.307666666666666,37.413,34.4195,56.102999999999994,34.5345,59.434,51.8565,54.033,33.709,58.043,50.204499999999996,53.207,33.275999999999996,57.9945,49.625,-0.03249999999999997,-0.1260000000000001,0.10450000000000001,0.10754500000000002,0.0,207.075,206.97500000000002,204.10000000000002,204.1,0.0,0.0
5,0.0,0.0,0.0,1.0,1.0,0.0,0.0,1.0,0.0,0.0,1.0,1.1856,26.0,0.0,0.0,0.0,59.999996,0.0,26.0,26.0,26.0,26.0,-0.12025,0.2977000000000001,-0.00952,293.61,-2.6737,-2.7619,-1.51085,-1.5862,-258.98,216.245,190.889375,0.0,0.0,0.0,0.0,0.011299999999999977,-5.498166666666667,-5.498166666666667,-0.5347000000000001,0.386,-0.08199999999999985,-0.237,66.242,-0.0867,-0.2121,1.0820000000000007,100.0,1.0,1.0,204.45,0.0,0.0,0.0,0.0,0.0,0.0,0.0,8665.8,0.0,55.0,5.0,238.44,1.0,0.0,0.0,0.0,0.0,0.0,0.0,0.0,0.2579999999999991,0.2579999999999991,0.0,0.0,1.0,55.0,616.79921,10000.0,85.000001,85.000001,85.000001,85.000001,395.0,0.0,0.0,0.0,1.0,166.665,53.452,53.452,48.903999999999996,48.903999999999996,34.0,-28.052500000000002,19.02,-33.989999999999995,22.5875,0.0,1783.183,0.18499999999999872,100.0,27.77,26.793,42.593,41.29,0.0,0.0,100.0,0.0,0.0,0.0,0.0,3195.714285714286,2755.5,4202.5,4037.5,305.2225,305.95725,314.668,314.8055,21.8216,20.534,21.8359,21.3554,314.999998,314.999998,324.999988,324.999988,99.55864285714286,99.50711666666666,99.56652857142858,99.5459,-0.006999999999999895,-0.131,-0.21633333333333338,0.0050000000000001155,-0.03499999999999659,-0.05666666666667197,1.521,1.577,37.385,29.337666666666664,37.474999999999994,34.471000000000004,56.09,34.573,59.471000000000004,51.9105,54.021,33.744,58.0775,50.2565,53.193,33.3095,58.0265,49.675666666666665,-0.05599999999999994,-0.09000000000000008,0.10608500000000001,0.10450000000000001,0.0,207.54000000000002,207.45,204.45,204.45,0.0,0.0
6,0.0,0.0,0.0,1.0,1.0,0.0,0.0,1.0,0.0,0.0,1.0,1.1856,26.0,0.0,0.0,0.0,59.999996,0.0,26.0,26.0,26.0,26.0,-0.10337500000000001,0.2804,-0.00374,293.411,-2.6427,-2.738,-1.5559500000000002,-1.5812,-255.8,216.225,190.87,0.0,0.0,0.0,0.0,0.013166666666666549,-5.498166666666667,-5.498166666666667,-0.531,0.057499999999999996,-0.06277777777777782,-0.501,66.38,-0.08020000000000001,-0.214975,0.7460000000000004,100.0,1.0,1.0,204.86,0.0,0.0,0.0,0.0,0.0,0.0,0.0,8683.3,0.0,55.0,5.0,238.93666666666667,0.0,0.0,0.0,0.0,0.0,0.0,0.0,0.0,0.30600000000000094,0.30600000000000094,0.0,0.0,0.0,55.0,616.79921,10000.0,85.000001,85.000001,85.000001,85.000001,395.0,0.0,0.0,0.0,1.0,166.665,53.101,53.101,48.706,48.706,34.0,-27.544999999999998,20.402,-33.42666666666666,22.98,0.0,1783.136,0.06500000000000128,100.0,27.697,26.915,42.689,41.621,0.0,0.0,100.0,0.0,0.0,0.0,0.0,3208.0,2904.6,4129.625,3993.3,305.139,305.44475,314.8285,314.9045,21.8309,20.5388,21.8459,21.3638,314.999998,314.999998,324.999988,324.999988,99.55864285714286,99.50713333333333,99.56665714285714,99.54604285714285,0.0030000000000001137,-0.1226666666666667,-0.20566666666666666,0.017000000000000126,-0.07333333333333059,-0.051666666666669414,1.5103333333333333,1.5415,37.443,29.367666666666665,37.537,34.524,56.075,34.611,59.507999999999996,51.9685,54.007,33.778999999999996,58.1125,50.312,53.179,33.343,58.0585,49.730000000000004,-0.07050000000000001,-0.07450000000000001,0.10866,0.10121000000000001,0.0,207.97500000000002,207.885,204.86,204.86,0.0,0.0
7,0.0,0.0,0.0,1.0,1.0,0.0,0.0,1.0,0.0,0.0,1.0,1.1856,26.0,0.0,0.0,0.0,59.999996,0.0,26.0,26.0,26.0,26.0,-0.06225,0.2986,0.01754,293.228,-2.61705,-2.7452,-1.51915,-1.6203,-252.21,216.1975,190.848375,0.0,0.0,0.0,0.0,0.015233333333333321,-5.498166666666667,-5.498166666666667,-0.5347000000000001,0.02400000000000002,-0.04733333333333345,-0.14900000000000002,66.53399999999999,-0.0646,-0.225,0.4239999999999995,100.0,1.0,1.0,205.31666666666666,0.0,0.0,0.0,0.0,0.0,0.0,0.0,8702.6,0.0,55.0,5.0,239.49666666666667,1.0,0.0,0.0,0.0,0.0,0.0,0.0,0.0,0.35999999999999943,0.35999999999999943,0.0,0.0,1.0,55.0,616.79921,10000.0,85.000001,85.000001,85.000001,85.000001,395.0,0.0,0.0,0.0,1.0,166.665,52.811,52.811,48.828,48.828,34.0,-26.93,21.834,-31.07,25.035,0.0,1783.082,-0.22500000000000142,100.0,27.814,27.015,42.704,41.864000000000004,0.0,0.0,100.0,0.0,0.0,0.0,0.0,3243.857142857143,2936.4,4056.5,4026.5,304.963,305.268,314.95725,314.759,21.8414,20.5443,21.857,21.3734,314.999998,314.999998,324.999988,324.999988,99.55865714285714,99.50715,99.56681428571429,99.54618571428571,0.02200000000000024,-0.09733333333333327,-0.1828333333333334,0.04166666666666674,-0.06333333333333258,-0.05333333333332746,1.5406666666666666,1.552,37.509,29.402,37.605999999999995,34.5835,56.06,34.653,59.5495,52.033,53.992999999999995,33.818,58.150999999999996,50.374,53.163,33.379999999999995,58.094,49.79066666666667,-0.08699999999999997,-0.0535000000000001,0.10177000000000001,0.10859500000000001,0.0,208.42000000000002,208.375,205.31666666666666,205.31666666666666,0.0,0.0
8,0.0,0.0,0.0,1.0,1.0,0.0,0.0,1.0,0.0,0.0,1.0,1.1856,26.0,0.0,0.0,0.0,59.999996,0.0,26.0,26.0,26.0,26.0,-0.036625,0.2944,0.0346,293.488,-2.6987,-2.7225,-1.49985,-1.5727,-248.81,216.1725,190.82775,0.0,0.0,0.0,0.0,0.017233333333333323,-5.498166666666667,-5.498166666666667,-0.5377000000000001,-0.6420000000000001,-0.0301111111111112,0.6320000000000001,66.68,-0.0453,-0.21660000000000001,-0.09200000000000053,100.0,1.0,1.0,205.70333333333332,0.0,0.0,0.0,0.0,0.0,0.0,0.0,8719.1,0.0,55.0,5.0,240.01999999999998,0.0,0.0,0.0,0.0,0.0,0.0,0.0,0.0,0.41100000000000136,0.41100000000000136,0.0,0.0,0.0,55.0,616.79921,10000.0,85.000001,85.000001,85.000001,85.000001,395.0,0.0,0.0,0.0,1.0,166.665,53.604,53.604,48.263999999999996,48.263999999999996,34.0,-23.3275,23.092,-29.2,26.872500000000002,0.0,1783.032,-0.3500000000000014,100.0,27.479,26.784,42.765,41.935,0.0,0.0,100.0,0.0,0.0,0.0,0.0,2948.0,3027.4,4076.125,4118.4,305.9145,305.274,314.81275,314.5985,21.851,20.5495,21.8675,21.3823,314.999998,314.999998,324.999988,324.999988,99.55865714285714,99.50715,99.56695714285715,99.54631428571429,0.05675000000000008,-0.07333333333333325,-0.14283333333333337,0.07483333333333331,-0.03166666666666629,-0.060000000000002274,1.5303333333333335,1.5155,37.569,29.434333333333335,37.672,34.6395,56.043,34.6915,59.588499999999996,52.094,53.977000000000004,33.853,58.187,50.432,53.147,33.4135,58.126999999999995,49.84766666666667,-0.10649999999999993,-0.04299999999999993,0.10120000000000001,0.10536000000000001,0.0,208.81,208.835,205.70333333333332,205.70333333333332,0.0,0.0
9,0.0,0.0,0.0,1.0,1.0,0.0,0.0,1.0,0.0,0.0,1.0,1.1856,26.0,0.0,0.0,0.0,59.999996,0.0,26.0,26.0,26.0,26.0,-0.015125,0.27859999999999996,-0.01712,293.137,-2.6862,-2.7191,-1.55435,-1.5549,-245.81,216.1475,190.809125,0.0,0.0,0.0,0.0,0.018966666666666576,-5.498166666666667,-5.498166666666667,-0.5424,0.6335,-0.03511111111111109,-0.44799999999999995,66.806,-0.0257,-0.21732500000000002,-0.13200000000000056,100.0,1.0,1.0,206.20666666666668,0.0,0.0,0.0,0.0,0.0,0.0,0.0,8740.3,0.0,55.0,5.0,240.47,1.0,0.0,0.0,0.0,0.0,0.0,0.0,0.0,0.4559999999999995,0.4559999999999995,0.0,0.0,1.0,55.0,616.79921,10000.0,85.000001,85.000001,85.000001,85.000001,395.0,0.0,0.0,0.0,1.0,333.33500000000004,52.399,52.399,49.194,49.194,34.0,-27.015,23.878,-28.523333333333333,26.335,0.0,1782.985,-0.46499999999999986,100.0,27.838,27.357,42.367000000000004,41.952,0.0,0.0,100.0,0.0,0.0,0.0,0.0,3379.857142857143,3002.8,3996.0,4025.8,304.6545,305.098,315.16825,314.8475,21.8597,20.5542,21.8767,21.3902,314.999998,314.999998,324.999988,324.999988,99.55865714285714,99.50716666666666,99.56707142857142,99.54644285714286,0.06075000000000008,-0.05466666666666664,-0.13716666666666666,0.08783333333333321,-0.045000000000001705,-0.06499999999999773,1.5786666666666667,1.5655000000000001,37.623000000000005,29.46366666666667,37.729,34.6885,56.032,34.7265,59.6195,52.146,53.966,33.8855,58.216,50.482,53.135999999999996,33.4445,58.153999999999996,49.89633333333333,-0.10849999999999993,-0.03600000000000003,0.10482000000000001,0.103595,0.0,209.235,209.245,206.20666666666668,206.20666666666668,0.0,0.0
10,0.0,0.0,0.0,1.0,1.0,0.0,0.0,1.0,0.0,0.0,1.0,1.1856,26.0,0.0,0.0,0.0,59.999996,0.0,26.0,26.0,26.0,26.0,0.0155,0.2825,-0.02366,293.045,-2.70735,-2.6948,-1.5394999999999999,-1.532,-242.19,216.12,190.78725,0.0,0.0,0.0,0.0,0.021066666666666567,-5.498166666666667,-5.498166666666667,-0.5197,-0.5785,0.010444444444444256,0.367,66.961,-0.004200000000000001,-0.2092,-0.4560000000000004,100.0,1.0,1.0,206.47333333333333,0.0,0.0,0.0,0.0,0.0,0.0,0.0,8751.6,0.0,55.0,5.0,241.03,0.0,0.0,0.0,0.0,0.0,0.0,1.0,0.0,0.509999999999998,0.509999999999998,0.0,0.0,0.0,55.0,616.79921,10000.0,85.000001,85.000001,85.000001,85.000001,395.0,0.0,0.0,0.0,1.0,166.665,53.528,53.528,47.638,47.638,34.0,-21.3775,22.958,-30.243333333333336,29.45,0.0,1782.932,-0.6099999999999994,100.0,27.632,27.316,42.816,42.75,0.0,0.0,100.0,0.0,0.0,0.0,0.0,2874.857142857143,2877.5,4283.375,4259.9,306.173,305.53175,314.41475,314.201,21.8699,20.5597,21.8879,21.3999,314.999998,314.999998,324.999988,324.999988,99.55867142857143,99.50716666666666,99.56724285714286,99.5466,0.09025000000000016,-0.04200000000000004,-0.11649999999999994,0.10833333333333317,-0.054999999999999716,-0.061666666666667425,1.4843333333333333,1.48,37.687,29.498333333333335,37.799,34.7495,56.019,34.7655,59.6625,52.213499999999996,53.953,33.9215,58.256,50.547,53.122,33.479,58.1905,49.96033333333334,-0.12549999999999994,-0.02750000000000008,0.10417000000000001,0.10509500000000001,0.0,209.695,209.72,206.47333333333333,206.47333333333333,0.0,0.0
11,0.0,0.0,0.0,1.0,1.0,0.0,0.0,1.0,0.0,0.0,1.0,1.1856,26.0,0.0,0.0,0.0,59.999996,0.0,26.0,26.0,26.0,26.0,0.059125000000000004,0.2856000000000001,-0.10228,293.51800000000003,-2.711,-2.6825,-1.5949499999999999,-1.5195,-238.98,216.0925,190.76775,0.0,0.0,0.0,0.0,0.022599999999999953,-5.498166666666667,-5.498166666666667,-0.5609000000000001,-0.1835,0.033777777777777684,-0.726,67.09100000000001,0.0151,-0.2371,-0.6420000000000003,100.0,1.0,1.0,207.19,0.0,0.0,0.0,0.0,0.0,0.0,0.0,8782.0,0.0,55.0,5.0,241.5,1.0,0.0,0.0,0.0,0.0,0.0,1.0,0.0,0.5579999999999998,0.5579999999999998,0.0,0.0,1.0,55.0,616.79921,10000.0,85.000001,85.000001,85.000001,85.000001,395.0,0.0,0.0,0.0,1.0,166.665,52.841,52.841,49.271,49.271,34.0,-22.6875,25.869999999999997,-24.443333333333335,26.6725,0.0,1782.885,-0.634999999999998,100.0,27.399,27.558,42.29,42.624,0.0,0.0,100.0,0.0,0.0,0.0,0.0,3083.4285714285716,3094.2,3701.375,3855.9,305.5705,304.8215,315.89675,315.256,21.8788,20.564799999999998,21.8976,21.4084,314.999998,314.999998,324.999988,324.999988,99.55868571428572,99.50718333333333,99.56735714285715,99.54672857142857,0.10250000000000004,-0.018999999999999906,-0.09799999999999998,0.13783333333333325,-0.051666666666669414,-0.05666666666667197,1.6486666666666667,1.6285,37.742999999999995,29.53033333333333,37.86,34.8025,56.006,34.8015,59.6935,52.2695,53.941,33.954499999999996,58.285,50.601,53.108000000000004,33.510999999999996,58.216499999999996,50.013333333333335,-0.11649999999999994,-0.022499999999999964,0.11304000000000002,0.11225,0.0,210.085,210.12,207.19,207.19,0.0,0.0
12,0.0,0.0,0.0,1.0,1.0,0.0,0.0,1.0,0.0,0.0,1.0,1.1856,26.0,0.0,0.0,0.0,59.999996,0.0,26.0,26.0,26.0,26.0,0.05825,0.28980000000000006,0.03214,292.953,-2.7601,-2.6798,-1.5517500000000002,-1.5244,-235.75,216.0675,190.746875,0.0,0.0,0.0,0.0,0.025466666666666526,-5.498166666666667,-5.498166666666667,-0.5452,0.29699999999999993,0.016666666666666607,-0.883,67.22800000000001,0.0335,-0.2054,-0.6899999999999995,100.0,1.0,1.0,207.37,0.0,0.0,0.0,0.0,0.0,0.0,0.0,8789.7,0.0,55.0,5.0,241.99333333333334,0.0,0.0,0.0,0.0,0.0,0.0,1.0,0.0,0.6059999999999981,0.6059999999999981,0.0,0.0,0.0,55.0,616.79921,10000.0,85.000001,85.000001,85.000001,85.000001,395.0,0.0,0.0,0.0,1.0,166.665,52.841,52.841,47.943,47.943,34.0,-22.9575,26.188,-27.56,30.94,0.0,1782.836,-0.629999999999999,100.0,27.294,27.714,42.229,42.582,0.0,0.0,100.0,0.0,0.0,0.0,0.0,3131.142857142857,3090.5,4249.625,4165.1,305.4695,304.858,314.56525,314.48875,21.8878,20.57,21.9074,21.4168,314.999998,314.999998,324.999988,324.999988,99.5587,99.50718333333333,99.5675,99.54687142857144,0.11525000000000007,-0.008999999999999897,-0.07499999999999996,0.15700000000000003,-0.03833333333332689,-0.04999999999999716,1.5436666666666667,1.496,37.799,29.562333333333335,37.921,34.855000000000004,55.994,34.837,59.729,52.326499999999996,53.929,33.9875,58.317499999999995,50.656,53.096000000000004,33.542500000000004,58.2465,50.067,-0.127,-0.02499999999999991,0.11108000000000001,0.11438000000000001,0.0,210.505,210.555,207.37,207.37,0.0,0.0
13,0.0,0.0,0.0,1.0,1.0,0.0,0.0,1.0,0.0,0.0,1.0,1.1856,26.0,0.0,0.0,0.0,59.999996,0.0,26.0,26.0,26.0,26.0,0.0805,0.2901,0.04216,292.557,-2.7414,-2.6692,-1.5934,-1.5051,-232.12,216.04250000000002,190.724,0.0,0.0,0.0,0.0,0.026933333333333365,-5.498166666666667,-5.498166666666667,-0.5391,-0.12549999999999994,0.02344444444444438,-0.53,67.379,0.0444,-0.21657500000000002,-0.8420000000000005,100.0,1.0,1.0,207.78,0.0,0.0,0.0,0.0,0.0,0.0,0.0,8807.0,0.0,55.0,5.0,242.53666666666666,1.0,0.0,0.0,0.0,0.0,0.0,1.0,0.0,0.6600000000000001,0.6600000000000001,0.0,0.0,1.0,55.0,616.79921,10000.0,85.000001,85.000001,85.000001,85.000001,395.0,0.0,0.0,0.0,1.0,166.665,52.475,52.475,47.913,47.913,34.0,-22.1575,26.896,-27.509999999999998,31.9075,0.0,1782.782,-0.7850000000000001,100.0,27.608,27.92,42.466,43.117000000000004,0.0,0.0,100.0,0.0,0.0,0.0,0.0,3158.857142857143,3093.9,4185.875,4291.8,305.3535,304.8335,314.6795,314.14475,21.898,20.5758,21.9185,21.4266,314.999998,314.999998,324.999988,324.999988,99.55871428571429,99.50718333333333,99.56765714285714,99.54701428571428,0.13575000000000026,0.009333333333333194,-0.0688333333333333,0.1563333333333332,-0.054999999999999716,-0.045000000000001705,1.5093333333333332,1.4805000000000001,37.861999999999995,29.598666666666666,37.991,34.916,55.983999999999995,34.878,59.7685,52.3945,53.919,34.025,58.355000000000004,50.721000000000004,53.085,33.5785,58.2805,50.131,-0.139,-0.010499999999999954,0.10819000000000001,0.10436500000000001,0.0,210.98000000000002,211.03,207.78,207.78,0.0,0.0
14,0.0,0.0,0.0,1.0,1.0,0.0,0.0,1.0,0.0,0.0,1.0,1.1856,26.0,0.0,0.0,0.0,59.999996,0.0,26.0,26.0,26.0,26.0,0.096875,0.2914000000000001,-0.01248,292.816,-2.7403,-2.6134,-1.59975,-1.5109,-228.88,216.01999999999998,190.704,0.0,0.0,0.0,0.0,0.028799999999999937,-5.498166666666667,-5.498166666666667,-0.5489,-0.1705000000000001,0.05088888888888898,-0.04899999999999993,67.51,0.057,-0.22837500000000002,-0.9779999999999998,100.0,1.0,1.0,208.28,0.0,0.0,0.0,0.0,0.0,0.0,0.0,8828.2,0.0,55.0,5.0,243.01,0.0,0.0,0.0,0.0,0.0,0.0,1.0,0.0,0.7079999999999984,0.7079999999999984,0.0,0.0,0.0,55.0,616.79921,10000.0,85.000001,85.000001,85.000001,85.000001,395.0,0.0,0.0,0.0,1.0,166.665,52.643,52.643,48.141,48.141,34.0,-20.5975,27.47,-25.259999999999998,31.0125,0.0,1782.734,-0.8949999999999996,100.0,27.541,27.977,42.436,43.275,0.0,0.0,100.0,0.0,0.0,0.0,0.0,3033.714285714286,3164.0,3998.25,4159.3,305.728,304.64225,315.12775,314.5015,21.9069,20.581,21.9284,21.435200000000002,314.999998,314.999998,324.999988,324.999988,99.55872857142857,99.50718333333333,99.56778571428572,99.54715714285715,0.14800000000000013,0.019000000000000128,-0.05466666666666664,0.16500000000000004,-0.046666666666666856,-0.030000000000001137,1.548,1.5225,37.918,29.631,38.052,34.97,55.974000000000004,34.914,59.8025,52.453,53.91,34.0585,58.385999999999996,50.7775,53.075,33.6105,58.3085,50.18633333333334,-0.14849999999999997,-0.0044999999999999485,0.11010500000000001,0.10007500000000001,0.0,211.37,211.41500000000002,208.28,208.28,0.0,0.0
15,0.0,0.0,0.0,1.0,1.0,0.0,0.0,1.0,0.0,0.0,1.0,1.1856,26.0,0.0,0.0,0.0,59.999996,0.0,26.0,26.0,26.0,26.0,0.11987500000000001,0.2914000000000001,-0.04722,292.847,-2.7178,-2.568,-1.62845,-1.4495,-225.64,216.0,190.683625,0.0,0.0,0.0,0.0,0.03069999999999995,-5.498166666666667,-5.498166666666667,-0.5397000000000001,0.26349999999999996,0.08411111111111103,-0.29000000000000004,67.642,0.0669,-0.2101,-1.0620000000000003,100.0,1.0,1.0,208.66,0.0,0.0,0.0,0.0,0.0,0.0,0.0,8844.4,0.0,55.0,5.0,243.48333333333335,1.0,0.0,0.0,0.0,0.0,0.0,1.0,0.0,0.7560000000000002,0.7560000000000002,0.0,0.0,1.0,55.0,616.79921,10000.0,85.000001,85.000001,85.000001,85.000001,395.0,0.0,0.0,0.0,1.0,166.665,52.826,52.826,48.172,48.172,34.0,-18.685,27.254,-24.506666666666664,32.832499999999996,0.0,1782.686,-0.9649999999999999,100.0,27.523,28.05,42.178,43.361000000000004,0.0,0.0,100.0,0.0,0.0,0.0,0.0,2868.714285714286,3142.2,3971.875,4339.8,306.163,304.695,315.22675,314.08125,21.9158,20.586199999999998,21.9381,21.4438,314.999998,314.999998,324.999988,324.999988,99.55875714285715,99.5072,99.56791428571428,99.5473,0.15974999999999984,0.028000000000000025,-0.03649999999999998,0.1851666666666667,-0.045000000000001705,-0.046666666666666856,1.545,1.5195,37.974000000000004,29.663333333333334,38.113,35.024,55.965,34.951,59.8345,52.5125,53.900999999999996,34.0925,58.4155,50.8345,53.065,33.6435,58.335499999999996,50.242666666666665,-0.14900000000000002,-0.006000000000000005,0.1024,0.10816,0.0,211.79500000000002,211.865,208.66,208.66,0.0,0.0
16,0.0,0.0,0.0,1.0,1.0,0.0,0.0,1.0,0.0,0.0,1.0,1.1856,26.0,0.0,0.0,0.0,59.999996,0.0,26.0,26.0,26.0,26.0,0.127,0.2643,-0.04384,292.801,-2.8038,-2.5819,-1.5986500000000001,-1.5145,-221.98,215.98250000000002,190.66025,0.0,0.0,0.0,0.0,0.03279999999999994,-5.498166666666667,-5.498166666666667,-0.5629000000000001,-0.6575,0.0664444444444443,-1.149,67.78999999999999,0.0762,-0.22710000000000002,-1.1479999999999997,100.0,1.0,1.0,209.13333333333333,0.0,0.0,0.0,0.0,0.0,0.0,0.0,8864.4,0.0,55.0,5.0,244.01666666666665,0.0,0.0,0.0,0.0,0.0,0.0,1.0,0.0,0.8099999999999987,0.8099999999999987,0.0,0.0,0.0,55.0,616.79921,10000.0,85.000001,85.000001,85.000001,85.000001,395.0,0.0,0.0,0.0,1.0,166.665,52.582,52.582,48.019,48.019,34.0,-20.835,28.878,-23.24,32.394999999999996,0.0,1782.633,-0.9100000000000001,100.0,27.196,28.162,42.439,43.498000000000005,0.0,0.0,100.0,0.0,0.0,0.0,0.0,3091.5714285714284,3241.8,3938.0,4086.7,305.6945,304.4425,315.2795,314.65325,21.9255,20.5921,21.9492,21.4535,314.999998,314.999998,324.999988,324.999988,99.55877142857143,99.5072,99.56807142857143,99.54745714285714,0.16349999999999998,0.04133333333333322,-0.024333333333333318,0.20466666666666677,-0.036666666666668846,-0.04333333333332945,1.5573333333333332,1.529,38.035,29.700333333333333,38.182,35.0845,55.952,34.9935,59.8735,52.5785,53.888,34.132,58.452,50.897999999999996,53.051,33.6815,58.3685,50.305,-0.14800000000000002,-0.0020000000000000018,0.09827000000000001,0.11453,0.0,212.21,212.28,209.13333333333333,209.13333333333333,0.0,0.0
17,0.0,0.0,0.0,1.0,1.0,0.0,0.0,1.0,0.0,0.0,1.0,1.1856,26.0,0.0,0.0,0.0,59.999996,0.0,26.0,26.0,26.0,26.0,0.11900000000000001,0.2856000000000001,0.0158,292.465,-2.76825,-2.563,-1.6406,-1.4755,-218.72,215.9675,190.639,0.0,0.0,0.0,0.0,0.03469999999999995,-5.498166666666667,-5.498166666666667,-0.5477000000000001,0.5035000000000001,0.050111111111110995,-0.6859999999999999,67.92099999999999,0.0775,-0.2048,-1.096,100.0,1.0,1.0,209.48666666666668,0.0,0.0,0.0,0.0,0.0,0.0,0.0,8879.4,0.0,55.0,5.0,244.48666666666668,1.0,0.0,0.0,0.0,0.0,0.0,1.0,0.0,0.8580000000000005,0.8580000000000005,0.0,0.0,1.0,55.0,616.79921,10000.0,85.000001,85.000001,85.000001,85.000001,395.0,0.0,0.0,0.0,1.0,166.665,52.429,52.429,47.745,47.745,34.0,-20.2225,27.060000000000002,-25.976666666666663,33.582499999999996,0.0,1782.583,-0.995000000000001,100.0,27.657,28.404,42.247,43.459,0.0,0.0,100.0,0.0,0.0,0.0,0.0,3096.5714285714284,3080.4,4268.875,4286.2,305.595,304.9375,314.61375,314.263,21.9345,20.5974,21.9589,21.4621,314.999998,314.999998,324.999988,324.999988,99.55878571428572,99.50721666666666,99.56821428571429,99.5476,0.17300000000000004,0.04133333333333322,-0.021166666666666556,0.20066666666666677,-0.03999999999999915,-0.04833333333333201,1.5436666666666667,1.4925,38.09,29.734,38.242999999999995,35.138,55.944,35.035,59.908500000000004,52.6405,53.881,34.170500000000004,58.4845,50.9585,53.042,33.718,58.3975,50.364,-0.15700000000000003,-0.0015000000000000568,0.10541500000000001,0.10669500000000001,0.0,212.66,212.74,209.48666666666668,209.48666666666668,0.0,0.0
18,0.0,0.0,0.0,1.0,1.0,0.0,0.0,1.0,0.0,0.0,1.0,1.1856,26.0,0.0,0.0,0.0,59.999996,0.0,26.0,26.0,26.0,26.0,0.140125,0.28180000000000005,-0.03898,292.48,-2.79805,-2.5372,-1.65735,-1.4212,-215.45999999999998,215.95749999999998,190.617875,0.0,0.0,0.0,0.0,0.036599999999999966,-5.498166666666667,-5.498166666666667,-0.5592,-0.5425,0.07188888888888889,-0.119,68.051,0.0796,-0.22187500000000002,-1.2379999999999995,100.0,1.0,1.0,209.90333333333334,0.0,0.0,0.0,0.0,0.0,0.0,0.0,8897.1,0.0,55.0,5.0,244.96,0.0,0.0,0.0,0.0,0.0,0.0,1.0,0.0,0.9059999999999988,0.9059999999999988,0.0,0.0,0.0,55.0,616.79921,10000.0,85.000001,85.000001,85.000001,85.000001,395.0,0.0,0.0,0.0,1.0,333.33500000000004,52.383,52.383,47.668,47.668,34.0,-19.8425,29.502000000000002,-24.716666666666665,31.892500000000002,0.0,1782.535,-1.2249999999999996,100.0,27.429000000000002,28.258,42.588,43.889,0.0,0.0,100.0,0.0,0.0,0.0,0.0,3080.0,3272.0,4043.875,4173.7,305.695,304.3955,315.0795,314.51525,21.9432,20.6027,21.9688,21.4709,314.999998,314.999998,324.999988,324.999988,99.55881428571429,99.50721666666666,99.56834285714285,99.54772857142858,0.18400000000000016,0.06000000000000005,-0.023499999999999965,0.20250000000000012,-0.06333333333333258,-0.03999999999999915,1.5563333333333333,1.4994999999999998,38.144999999999996,29.766666666666666,38.305,35.193,55.936,35.070499999999996,59.941,52.697,53.873000000000005,34.2035,58.5145,51.0125,53.033,33.75,58.425,50.41733333333333,-0.16899999999999993,0.019000000000000017,0.10842500000000001,0.11218000000000002,0.0,213.03,213.095,209.90333333333334,209.90333333333334,0.0,0.0
19,0.0,0.0,0.0,1.0,1.0,0.0,0.0,1.0,0.0,0.0,1.0,1.1856,26.0,0.0,0.0,0.0,59.999996,0.0,26.0,26.0,26.0,26.0,0.1555,0.29700000000000015,0.03832,291.946,-2.77085,-2.524,-1.67455,-1.401,-211.99,215.95,190.59525,0.0,0.0,0.0,0.0,0.0386333333333333,-5.498166666666667,-5.498166666666667,-0.5495,0.861,0.08811111111111103,0.964,68.189,0.08950000000000001,-0.21000000000000002,-1.6760000000000002,100.0,1.0,1.0,210.29666666666668,0.0,0.0,0.0,0.0,0.0,0.0,0.0,8913.7,0.0,55.0,5.0,245.45,1.0,0.0,0.0,0.0,0.0,0.0,1.0,0.0,0.9570000000000007,0.9570000000000007,0.0,0.0,1.0,55.0,616.79921,10000.0,85.000001,85.000001,85.000001,85.000001,395.0,0.0,0.0,0.0,1.0,166.665,51.682,51.682,47.485,47.485,34.0,-17.7775,31.95,-24.243333333333336,35.56,0.0,1782.487,-1.584999999999999,100.0,28.069,28.662,42.38,43.813,0.0,0.0,100.0,0.0,0.0,0.0,0.0,3026.4285714285716,3415.6,4143.125,4478.3,305.5635,304.005,314.842,313.89575,21.9527,20.6085,21.9791,21.4801,314.999998,314.999998,324.999988,324.999988,99.55884285714286,99.50723333333333,99.56848571428571,99.54788571428571,0.22250000000000014,0.08566666666666656,0.0043333333333333,0.22599999999999998,-0.036666666666668846,-0.05666666666667197,1.5526666666666666,1.494,38.205,29.802999999999997,38.370000000000005,35.2505,55.93,35.115,59.975,52.76,53.867000000000004,34.2445,58.545500000000004,51.073499999999996,53.025999999999996,33.789500000000004,58.453,50.477333333333334,-0.20299999999999996,0.033499999999999974,0.10947000000000001,0.103675,0.0,213.47,213.575,210.29666666666668,210.29666666666668,0.0,0.0
20,0.0,0.0,0.0,1.0,1.0,0.0,0.0,1.0,0.0,0.0,1.0,1.1856,26.0,0.0,0.0,0.0,59.999996,0.0,26.0,26.0,26.0,26.0,0.19425,0.2650000000000001,-0.05268,292.313,-2.8284,-2.576,-1.6124,-1.5138,-208.51,215.9475,190.572875,0.0,0.0,0.0,0.0,0.0406333333333333,-5.498166666666667,-5.498166666666667,-0.5549000000000001,-1.146,0.09611111111111104,-0.6890000000000001,68.328,0.1066,-0.223675,-2.0060000000000002,100.0,1.0,1.0,210.62,0.0,0.0,0.0,0.0,0.0,0.0,0.0,8927.5,0.0,55.0,5.0,245.95333333333335,0.0,0.0,0.0,0.0,0.0,0.0,0.0,0.0,1.0079999999999991,1.0079999999999991,0.0,0.0,0.0,55.0,616.79921,10000.0,85.000001,85.000001,85.000001,85.000001,395.0,0.0,0.0,0.0,1.0,166.665,52.795,52.795,46.906,46.906,34.0,-16.72,30.366,-22.933333333333334,36.945,0.0,1782.434,-1.4849999999999994,100.0,27.346,28.57,42.766999999999996,44.435,0.0,0.0,100.0,0.0,0.0,0.0,0.0,2811.857142857143,3175.8,4130.5,4310.1,306.4575,304.6085,314.7925,313.9995,21.9618,20.6141,21.9897,21.4895,314.999998,314.999998,324.999988,324.999988,99.55887142857142,99.50723333333333,99.56862857142858,99.54802857142857,0.21925000000000017,0.09466666666666645,0.01516666666666655,0.23783333333333334,-0.051666666666669414,-0.036666666666668846,1.5093333333333332,1.4325,38.260999999999996,29.83833333333333,38.436,35.309,55.921,35.158500000000004,60.0135,52.8255,53.857,34.285,58.5815,51.137,53.015,33.828,58.4855,50.53966666666666,-0.1985,0.04849999999999999,0.10985500000000001,0.10415500000000001,0.0,213.835,213.97,210.62,210.62,0.0,0.0
21,0.0,0.0,0.0,1.0,1.0,0.0,0.0,1.0,0.0,0.0,1.0,1.1856,26.0,0.0,0.0,0.0,59.999996,0.0,26.0,26.0,26.0,26.0,0.192125,0.2764,-0.07204,292.603,-2.7481999999999998,-2.6261,-1.67405,-1.4749,-205.22,215.9475,190.55125,0.0,0.0,0.0,0.0,0.04256666666666653,-5.498166666666667,-5.498166666666667,-0.5795,0.5349999999999999,0.07777777777777772,-1.1360000000000001,68.452,0.1268,-0.22612500000000002,-1.6499999999999995,100.0,1.0,1.0,211.26,0.0,0.0,0.0,0.0,0.0,0.0,0.0,8954.5,0.0,55.0,5.0,246.39666666666665,1.0,0.0,0.0,0.0,0.0,0.0,0.0,0.0,1.056000000000001,1.056000000000001,0.0,0.0,1.0,55.0,616.79921,10000.0,85.000001,85.000001,85.000001,85.000001,395.0,0.0,0.0,0.0,1.0,333.33500000000004,52.155,52.155,48.278999999999996,48.278999999999996,34.0,-19.7725,28.746000000000002,-20.973333333333336,33.8425,0.0,1782.385,-0.34499999999999886,100.0,27.609,28.78,42.1,43.993,0.0,0.0,100.0,0.0,0.0,0.0,0.0,3028.142857142857,3190.7,3933.375,4053.7,305.733,304.4785,315.41925,314.83975,21.9706,20.6196,21.9992,21.498,314.999998,314.999998,324.999988,324.999988,99.55888571428571,99.50723333333333,99.56875714285714,99.54817142857142,0.16900000000000004,0.036666666666666625,0.03283333333333327,0.2581666666666669,-0.05333333333332746,-0.03999999999999915,1.6376666666666666,1.562,38.316,29.872666666666667,38.495000000000005,35.3625,55.913,35.2,60.042500000000004,52.8825,53.849999999999994,34.323499999999996,58.608000000000004,51.1915,53.006,33.8655,58.509,50.593333333333334,-0.11549999999999994,-0.04049999999999998,0.099775,0.10988500000000001,0.0,214.265,214.39,211.26,211.26,0.0,0.0
22,0.0,0.0,0.0,1.0,1.0,0.0,0.0,1.0,0.0,0.0,1.0,1.1856,26.0,0.0,0.0,0.0,59.999996,0.0,26.0,26.0,26.0,26.0,0.11375,0.2762,-0.007740000000000001,292.175,-2.719,-2.6426,-1.65425,-1.4806,-201.32,215.95499999999998,190.524625,0.0,0.0,0.0,0.0,0.04483333333333339,-5.498166666666667,-5.498166666666667,-0.5571,-0.14900000000000002,0.07022222222222219,0.488,68.607,0.1102,-0.20625000000000002,-0.24799999999999933,100.0,1.0,1.0,211.5,0.0,0.0,0.0,0.0,0.0,0.0,0.0,8964.7,0.0,55.0,5.0,246.95666666666665,0.0,0.0,0.0,0.0,0.0,0.0,0.0,0.0,1.1129999999999995,1.1129999999999995,0.0,0.0,0.0,55.0,616.79921,10000.0,85.000001,85.000001,85.000001,85.000001,395.0,0.0,0.0,0.0,1.0,111.11,52.582,52.582,47.028,47.028,34.0,-19.9025,25.892,-24.756666666666664,35.72,0.0,1782.33,0.6400000000000006,100.0,27.844,28.52,42.794,44.174,0.0,0.0,100.0,0.0,0.0,0.0,0.0,2775.0,3169.5,4182.25,4383.0,306.303,304.73125,314.6825,314.02675,21.981,20.626,22.011,21.5084,314.999998,314.999998,324.999988,324.999988,99.5589,99.50725,99.56892857142857,99.54834285714286,0.11525000000000007,-0.02400000000000002,0.0,0.21999999999999997,-0.023333333333326323,-0.06333333333333258,1.4976666666666667,1.4809999999999999,38.381,29.912666666666667,38.569,35.4275,55.9,35.2445,60.085,52.955,53.837,34.3645,58.6475,51.2615,52.992000000000004,33.905,58.545,50.662,-0.02949999999999997,-0.129,0.10448,0.10445000000000002,0.0,214.785,214.815,211.5,211.5,0.0,0.0
23,0.0,0.0,0.0,1.0,1.0,0.0,0.0,1.0,0.0,0.0,1.0,1.1856,26.0,0.0,0.0,0.0,59.999996,0.0,26.0,26.0,26.0,26.0,0.030125,0.252,-0.027120000000000002,292.16,-2.71785,-2.6242,-1.6751,-1.5719,-198.01999999999998,215.9625,190.502625,0.0,0.0,0.0,0.0,0.04673333333333329,-5.498166666666667,-5.498166666666667,-0.5767,-0.14549999999999996,0.03699999999999992,-0.031000000000000028,68.732,0.0608,-0.23265000000000002,0.7859999999999996,100.0,1.0,1.0,212.0366666666667,0.0,0.0,0.0,0.0,0.0,0.0,0.0,8987.4,0.0,55.0,5.0,247.41,1.0,0.0,0.0,0.0,0.0,0.0,0.0,0.0,1.1610000000000014,1.1610000000000014,0.0,0.0,1.0,55.0,616.79921,10000.0,85.000001,85.000001,85.000001,85.000001,395.0,0.0,0.0,0.0,1.0,166.665,51.682,51.682,48.172,48.172,34.0,-24.9525,24.412,-26.723333333333333,29.0825,0.0,1782.282,0.9000000000000021,100.0,28.366,28.45,43.027,44.092,0.0,0.0,100.0,0.0,0.0,0.0,0.0,3178.4285714285716,3222.1,3966.375,3954.3,305.1185,304.63125,315.29775,315.02525,21.9899,20.6314,22.0209,21.5171,314.999998,314.999998,324.999988,324.999988,99.55892857142857,99.50725,99.56905714285715,99.54848571428572,0.07774999999999999,-0.06400000000000006,-0.06833333333333336,0.14983333333333326,-0.041666666666671404,-0.046666666666666856,1.5246666666666666,1.568,38.437,29.945999999999998,38.629999999999995,35.482,55.888,35.283,60.118,53.013,53.826,34.4,58.6785,51.317499999999995,52.980000000000004,33.939,58.5725,50.71666666666667,-0.01100000000000001,-0.15349999999999997,0.10693000000000001,0.10325000000000001,0.0,215.22,215.15,212.0366666666667,212.0366666666667,0.0,0.0
24,0.0,0.0,0.0,1.0,1.0,0.0,0.0,1.0,0.0,0.0,1.0,1.1856,26.0,0.0,0.0,0.0,59.999996,0.0,26.0,26.0,26.0,26.0,-0.051000000000000004,0.27380000000000004,-0.10356,292.435,-2.71445,-2.6606,-1.5756000000000001,-1.5352000000000001,-194.72,215.97,190.480125,0.0,0.0,0.0,0.0,0.048666666666666525,-5.498166666666667,-5.498166666666667,-0.5808,-0.6625000000000001,0.01966666666666672,0.4730000000000001,68.86,0.0079,-0.21832500000000002,1.1720000000000006,100.0,1.0,1.0,212.30333333333334,0.0,0.0,0.0,0.0,0.0,0.0,0.0,8998.7,0.0,55.0,5.0,247.87,0.0,0.0,0.0,0.0,0.0,0.0,0.0,0.0,1.2089999999999996,1.2089999999999996,0.0,0.0,0.0,55.0,616.79921,10000.0,85.000001,85.000001,85.000001,85.000001,395.0,0.0,0.0,0.0,1.0,166.665,52.917,52.917,47.104,47.104,34.0,-23.8875,21.06,-31.483333333333334,27.5325,0.0,1782.233,0.9050000000000011,100.0,28.114,28.048000000000002,43.384,43.71,0.0,0.0,100.0,0.0,0.0,0.0,0.0,2887.5714285714284,2976.6,4265.375,4125.6,306.0425,305.41825,314.4385,314.6825,21.9987,20.636499999999998,22.0308,21.5257,314.999998,314.999998,324.999988,324.999988,99.55892857142857,99.50726666666667,99.5692,99.54862857142857,0.035499999999999865,-0.10066666666666668,-0.13016666666666665,0.09733333333333327,-0.051666666666669414,-0.04999999999999716,1.4803333333333333,1.525,38.492000000000004,29.978,38.692,35.536,55.873000000000005,35.3195,60.1535,53.069,53.811,34.434,58.7115,51.3715,52.964,33.9715,58.6025,50.769666666666666,-0.0050000000000000044,-0.15100000000000002,0.11320000000000001,0.11041000000000001,0.0,215.63,215.515,212.30333333333334,212.30333333333334,0.0,0.0
25,0.0,0.0,0.0,1.0,1.0,0.0,0.0,1.0,0.0,0.0,1.0,1.1856,26.0,0.0,0.0,0.0,59.999996,0.0,26.0,26.0,26.0,26.0,-0.0965,0.2654000000000001,-0.07138,292.313,-2.74955,-2.652,-1.56265,-1.5628000000000002,-191.41,215.97750000000002,190.456125,0.0,0.0,0.0,0.0,0.05059999999999998,-5.498166666666667,-5.498166666666667,-0.6143000000000001,-0.03400000000000003,-0.004888888888888943,-0.5349999999999999,68.98400000000001,-0.042,-0.2275,1.466000000000001,100.0,1.0,1.0,212.84,0.0,0.0,0.0,0.0,0.0,0.0,0.0,9021.5,0.0,55.0,5.0,248.31666666666666,1.0,0.0,0.0,0.0,0.0,0.0,0.0,0.0,1.256999999999998,1.256999999999998,0.0,0.0,1.0,55.0,616.79921,10000.0,85.000001,85.000001,85.000001,85.000001,395.0,0.0,0.0,0.0,1.0,166.665,51.819,51.819,47.974000000000004,47.974000000000004,34.0,-28.66,22.474,-29.506666666666664,24.6475,0.0,1782.185,0.8449999999999989,100.0,28.32,28.066,43.283,43.186,0.0,0.0,100.0,0.0,0.0,0.0,0.0,3263.142857142857,3286.0,3980.75,3959.2,305.026,304.49475,315.20775,315.085,22.0075,20.6417,22.0406,21.5342,314.999998,314.999998,324.999988,324.999988,99.55892857142857,99.50728333333333,99.56934285714286,99.54875714285714,0.014499999999999957,-0.1233333333333333,-0.15366666666666662,0.06400000000000006,-0.054999999999999716,-0.04833333333333201,1.5523333333333333,1.5965,38.547,30.010666666666665,38.753,35.589,55.857,35.36,60.1855,53.122,53.796,34.4715,58.7415,51.423,52.949,34.0075,58.629999999999995,50.82,-0.013499999999999956,-0.14749999999999996,0.096045,0.11118000000000001,0.0,216.01999999999998,215.89,212.84,212.84,0.0,0.0
26,0.0,0.0,0.0,1.0,1.0,0.0,0.0,1.0,0.0,0.0,1.0,1.1856,26.0,0.0,0.0,0.0,59.999996,0.0,26.0,26.0,26.0,26.0,-0.12975,0.28790000000000004,0.05546,291.077,-2.66115,-2.7689,-1.5806499999999999,-1.5939,-187.47,215.985,190.427375,0.0,0.0,0.0,0.0,0.052866666666666506,-5.498166666666667,-5.498166666666667,-0.5680000000000001,0.381,-0.06366666666666676,-1.15,69.138,-0.0829,-0.19815000000000002,1.4740000000000002,100.0,1.0,1.0,212.98333333333335,0.0,0.0,0.0,0.0,0.0,0.0,0.0,9027.6,0.0,55.0,5.0,248.86666666666667,0.0,0.0,0.0,0.0,0.0,0.0,0.0,0.0,1.314,1.314,0.0,0.0,0.0,55.0,616.79921,10000.0,85.000001,85.000001,85.000001,85.000001,395.0,0.0,0.0,0.0,1.0,111.11,51.62,51.62,45.853,45.853,34.0,-28.9125,19.395999999999997,-40.78,26.560000000000002,0.0,1782.129,0.620000000000001,100.0,29.242,28.548000000000002,44.309,43.481,0.0,0.0,100.0,0.0,0.0,0.0,0.0,3269.285714285714,2886.4,4750.5,4469.7,304.957,305.4625,313.41675,313.813,22.0184,20.648,22.0525,21.5446,314.999998,314.999998,324.999988,324.999988,99.55892857142857,99.5073,99.5695,99.54892857142858,-0.006999999999999895,-0.15366666666666662,-0.20750000000000002,0.01100000000000012,-0.03833333333332689,-0.03833333333332689,1.403,1.4555,38.614999999999995,30.049666666666667,38.828,35.6535,55.843,35.411,60.2325,53.19,53.783,34.5185,58.785,51.488,52.934,34.052,58.67,50.88366666666667,-0.03300000000000003,-0.12949999999999995,0.10451500000000001,0.10730500000000001,0.0,216.51999999999998,216.385,212.98333333333335,212.98333333333335,0.0,0.0
27,0.0,0.0,0.0,1.0,1.0,0.0,0.0,1.0,0.0,0.0,1.0,1.1856,26.0,0.0,0.0,0.0,59.999996,0.0,26.0,26.0,26.0,26.0,-0.1215,0.2518,-0.012140000000000001,291.595,-2.61205,-2.7513,-1.5564,-1.674,-184.57,215.985,190.40725,0.0,0.0,0.0,0.0,0.05456666666666654,-5.498166666666667,-5.498166666666667,-0.5988,-1.0845000000000002,-0.07511111111111157,-0.752,69.245,-0.0946,-0.244875,1.322000000000001,100.0,1.0,1.0,213.4766666666667,0.0,0.0,0.0,0.0,0.0,0.0,0.0,9048.4,0.0,55.0,5.0,249.25666666666666,1.0,0.0,0.0,0.0,0.0,0.0,0.0,0.0,1.355999999999998,1.355999999999998,0.0,0.0,1.0,55.0,616.79921,10000.0,85.000001,85.000001,85.000001,85.000001,395.0,0.0,0.0,0.0,1.0,166.665,51.697,51.697,46.722,46.722,34.0,-29.5425,19.325999999999997,-35.696666666666665,23.450000000000003,0.0,1782.087,0.5250000000000021,100.0,29.060000000000002,28.244,44.907,43.742000000000004,0.0,0.0,100.0,0.0,0.0,0.0,0.0,3324.0,2960.8,4217.375,3956.7,304.86,305.304,314.63,314.95125,22.0262,20.6524,22.0614,21.5522,314.999998,314.999998,324.999988,324.999988,99.55894285714285,99.50731666666667,99.56962857142857,99.54904285714285,-0.020750000000000046,-0.16399999999999992,-0.22583333333333333,0.0028333333333334654,-0.036666666666668846,-0.054999999999999716,1.4686666666666666,1.538,38.664,30.077333333333335,38.884,35.701499999999996,55.83,35.446,60.2665,53.239,53.771,34.5505,58.817499999999995,51.535,52.921,34.083,58.6995,50.92933333333333,-0.04249999999999998,-0.12250000000000005,0.10855500000000001,0.105105,0.0,216.79500000000002,216.685,213.4766666666667,213.4766666666667,0.0,0.0
28,0.0,0.0,0.0,1.0,1.0,0.0,0.0,1.0,0.0,0.0,1.0,1.1856,26.0,0.0,0.0,0.0,59.999996,0.0,26.0,26.0,26.0,26.0,-0.1445,0.2672000000000001,-0.0534,291.87,-2.6342,-2.7392000000000003,-1.50465,-1.6341,-181.03,215.985,190.381875,0.0,0.0,0.0,0.0,0.05663333333333331,-5.498166666666667,-5.498166666666667,-0.6011000000000001,0.7030000000000001,-0.07555555555555582,0.8069999999999999,69.375,-0.1046,-0.215725,1.1899999999999995,100.0,1.0,1.0,213.98000000000002,0.0,0.0,0.0,0.0,0.0,0.0,0.0,9069.8,0.0,55.0,5.0,249.72333333333336,0.0,0.0,0.0,0.0,0.0,0.0,0.0,0.0,1.407,1.407,0.0,0.0,0.0,55.0,616.79921,10000.0,85.000001,85.000001,85.000001,85.000001,395.0,0.0,0.0,0.0,1.0,166.665,51.758,51.758,47.531,47.531,34.0,-29.055,19.864,-33.126666666666665,23.965,0.0,1782.036,0.28000000000000114,100.0,29.315,27.982,44.315,43.021,0.0,0.0,100.0,0.0,0.0,0.0,0.0,3260.857142857143,3015.6,4142.5,4102.4,304.896,305.295,314.8785,314.77275,22.035800000000002,20.6579,22.0718,21.5612,314.999998,314.999998,324.999988,324.999988,99.55894285714285,99.50733333333334,99.56977142857143,99.5492,-0.01475000000000004,-0.1543333333333332,-0.21066666666666656,0.009000000000000119,-0.04333333333332945,-0.07166666666666544,1.525,1.562,38.724000000000004,30.111666666666665,38.949,35.7575,55.817,35.49,60.3015,53.2945,53.757999999999996,34.591,58.85,51.588499999999996,52.908,34.122,58.729,50.981,-0.05149999999999999,-0.11149999999999993,0.09549500000000001,0.11098000000000001,0.0,217.245,217.16,213.98000000000002,213.98000000000002,0.0,0.0
29,0.0,0.0,0.0,1.0,1.0,0.0,0.0,1.0,0.0,0.0,1.0,1.1856,26.0,0.0,0.0,0.0,59.999996,0.0,26.0,26.0,26.0,26.0,-0.137,0.25560000000000005,0.00668,291.565,-2.5764,-2.7952,-1.54215,-1.6129,-177.28,215.98000000000002,190.353875,0.0,0.0,0.0,0.0,0.05879999999999996,-5.498166666666667,-5.498166666666667,-0.6095,-0.7364999999999999,-0.07555555555555582,0.663,69.516,-0.0954,-0.22182500000000002,0.7160000000000011,100.0,1.0,1.0,214.27666666666667,0.0,0.0,0.0,0.0,0.0,0.0,0.0,9082.4,0.0,55.0,5.0,250.23333333333335,1.0,0.0,0.0,0.0,0.0,0.0,0.0,0.0,1.4609999999999985,1.4609999999999985,0.0,0.0,1.0,55.0,616.79921,10000.0,85.000001,85.000001,85.000001,85.000001,395.0,0.0,0.0,0.0,1.0,166.665,51.712,51.712,46.753,46.753,34.0,-28.1625,21.292,-34.876666666666665,25.310000000000002,0.0,1781.981,0.23000000000000043,100.0,29.036,27.897,44.755,43.303,0.0,0.0,100.0,0.0,0.0,0.0,0.0,3291.4285714285716,3062.1,4210.625,4183.6,304.8135,305.0605,314.55475,314.5385,22.0458,20.6635,22.0831,21.570999999999998,314.999998,314.999998,324.999988,324.999988,99.55894285714285,99.50735,99.56994285714286,99.54934285714286,-0.00024999999999986144,-0.1436666666666666,-0.2101666666666666,0.022666666666666613,-0.05666666666667197,-0.04833333333333201,1.456,1.4849999999999999,38.786,30.147333333333336,39.019,35.819,55.8,35.534,60.345,53.358000000000004,53.742000000000004,34.632,58.8905,51.649,52.891,34.161,58.7665,51.040333333333336,-0.0665,-0.09250000000000003,0.109545,0.10958500000000002,0.0,217.64,217.54000000000002,214.27666666666667,214.27666666666667,0.0,0.0
30,0.0,0.0,0.0,1.0,1.0,0.0,0.0,1.0,0.0,0.0,1.0,1.1856,26.0,0.0,0.0,0.0,59.999996,0.0,26.0,26.0,26.0,26.0,-0.1,0.2641,0.02962,291.077,-2.6395,-2.6762,-1.48385,-1.6677,-174.14999999999998,215.9725,190.3305,0.0,0.0,0.0,0.0,0.06063333333333332,-5.498166666666667,-5.498166666666667,-0.6039,0.829,-0.07533333333333347,-0.45799999999999996,69.631,-0.0825,-0.21887500000000001,0.7420000000000009,100.0,1.0,1.0,214.64666666666668,0.0,0.0,0.0,0.0,0.0,0.0,0.0,9098.0,0.0,55.0,5.0,250.64666666666665,0.0,0.0,0.0,0.0,0.0,0.0,1.0,0.0,1.5060000000000002,1.5060000000000002,0.0,0.0,0.0,55.0,616.79921,10000.0,85.000001,85.000001,85.000001,85.000001,395.0,0.0,0.0,0.0,1.0,166.665,50.827,50.827,46.89,46.89,34.0,-30.1075,20.04,-34.07666666666667,25.875,0.0,1781.936,0.129999999999999,100.0,29.709,28.726,44.473,43.402,0.0,0.0,100.0,0.0,0.0,0.0,0.0,3505.0,2980.2,4350.125,4180.0,304.3005,305.15775,314.3635,314.42575,22.0544,20.6686,22.0924,21.5791,314.999998,314.999998,324.999988,324.999988,99.55894285714285,99.50736666666667,99.57007142857142,99.54947142857142,0.013749999999999929,-0.1363333333333332,-0.1905,0.017833333333333368,-0.04333333333332945,-0.046666666666666856,1.4723333333333333,1.5070000000000001,38.84,30.178333333333335,39.077,35.8695,55.79,35.5745,60.3775,53.409,53.733000000000004,34.669,58.921,51.698,52.881,34.196,58.7945,51.088,-0.07950000000000002,-0.08899999999999997,0.09775,0.10308500000000001,0.0,218.01999999999998,217.95,214.64666666666668,214.64666666666668,0.0,0.0
31,0.0,0.0,0.0,1.0,1.0,0.0,0.0,1.0,0.0,0.0,1.0,1.1856,26.0,0.0,0.0,0.0,59.999996,0.0,26.0,26.0,26.0,26.0,-0.0905,0.2470000000000001,0.0027800000000000004,291.031,-2.7096,-2.6524,-1.53685,-1.6562999999999999,-170.6,215.9625,190.30475,0.0,0.0,0.0,0.0,0.06269999999999998,-5.498166666666667,-5.498166666666667,-0.5915,-0.772,-0.05911111111111156,0.4990000000000001,69.763,-0.0653,-0.22125,0.33999999999999986,100.0,1.0,1.0,214.96,0.0,0.0,0.0,0.0,0.0,0.0,0.0,9111.4,0.0,55.0,5.0,251.12,1.0,0.0,0.0,0.0,0.0,0.0,1.0,0.0,1.5569999999999986,1.5569999999999986,0.0,0.0,1.0,55.0,616.79921,10000.0,85.000001,85.000001,85.000001,85.000001,395.0,0.0,0.0,0.0,1.0,166.665,51.498,51.498,45.593,45.593,34.0,-26.732499999999998,21.826,-34.20333333333333,28.505,0.0,1781.886,0.045000000000001705,100.0,29.425,28.598,45.157,43.999,0.0,0.0,100.0,0.0,0.0,0.0,0.0,3167.5714285714284,3166.7,4379.875,4276.4,305.361,304.995,314.12825,314.37,22.0638,20.6742,22.1032,21.5886,314.999998,314.999998,324.999988,324.999988,99.55895714285714,99.50738333333334,99.57024285714286,99.54962857142857,0.027750000000000163,-0.11399999999999988,-0.16700000000000004,0.05566666666666675,-0.03833333333332689,-0.05666666666667197,1.4563333333333333,1.4555,38.897999999999996,30.21333333333333,39.144999999999996,35.9285,55.775,35.6175,60.419,53.4705,53.719,34.709,58.96,51.757,52.866,34.2345,58.83,51.14566666666666,-0.08250000000000002,-0.08299999999999996,0.10752500000000001,0.102135,0.0,218.39,218.36,214.96,214.96,0.0,0.0
32,0.0,0.0,0.0,1.0,1.0,0.0,0.0,1.0,0.0,0.0,1.0,1.1856,26.0,0.0,0.0,0.0,59.999996,0.0,26.0,26.0,26.0,26.0,-0.06825,0.264,-0.0391,291.214,-2.6467,-2.7521,-1.60175,-1.5643,-167.03,215.95,190.279125,0.0,0.0,0.0,0.0,0.06476666666666653,-5.498166666666667,-5.498166666666667,-0.6103000000000001,0.20699999999999996,-0.08488888888888857,-0.834,69.89,-0.050300000000000004,-0.22945000000000002,0.3460000000000001,100.0,1.0,1.0,215.50333333333333,0.0,0.0,0.0,0.0,0.0,0.0,0.0,9134.4,0.0,55.0,5.0,251.57666666666665,0.0,0.0,0.0,0.0,0.0,0.0,1.0,0.0,1.6080000000000005,1.6080000000000005,0.0,0.0,0.0,55.0,616.79921,10000.0,85.000001,85.000001,85.000001,85.000001,395.0,0.0,0.0,0.0,1.0,166.665,51.117,51.117,46.646,46.646,34.0,-27.465,22.52,-33.52333333333333,26.1875,0.0,1781.834,-0.019999999999999574,100.0,29.346,28.856,44.647999999999996,43.851,0.0,0.0,100.0,0.0,0.0,0.0,0.0,3405.142857142857,3029.0,4282.75,4139.8,304.6675,305.065,314.619,314.74025,22.0732,20.6798,22.1137,21.5977,314.999998,314.999998,324.999988,324.999988,99.55895714285714,99.5074,99.57038571428572,99.54977142857143,0.04875000000000007,-0.1016666666666668,-0.16816666666666658,0.06383333333333319,-0.04833333333333201,-0.04833333333333201,1.5273333333333334,1.5385,38.958,30.249000000000002,39.21,35.986,55.762,35.6605,60.454499999999996,53.527,53.706,34.7485,58.993,51.8115,52.852000000000004,34.2725,58.86,51.19866666666667,-0.09599999999999997,-0.08200000000000007,0.11298000000000001,0.107575,0.0,218.785,218.755,215.50333333333333,215.50333333333333,0.0,0.0
33,0.0,0.0,0.0,1.0,1.0,0.0,0.0,1.0,0.0,0.0,1.0,1.1856,26.0,0.0,0.0,0.0,59.999996,0.0,26.0,26.0,26.0,26.0,-0.05275,0.26649999999999996,-0.0345,291.351,-2.6699,-2.7344,-1.54325,-1.5728,-163.68,215.9375,190.254,0.0,0.0,0.0,0.0,0.06669999999999998,-5.498166666666667,-5.498166666666667,-0.612,-0.3860000000000001,-0.06766666666666676,0.13600000000000012,70.013,-0.0392,-0.21780000000000002,0.2599999999999998,100.0,1.0,1.0,215.76333333333332,0.0,0.0,0.0,0.0,0.0,0.0,0.0,9145.5,0.0,55.0,5.0,252.01999999999998,1.0,0.0,0.0,0.0,0.0,0.0,1.0,0.0,1.6559999999999988,1.6559999999999988,0.0,0.0,1.0,55.0,616.79921,10000.0,85.000001,85.000001,85.000001,85.000001,395.0,0.0,0.0,0.0,1.0,333.33500000000004,51.804,51.804,46.417,46.417,34.0,-25.665,22.034,-32.31666666666666,27.927500000000002,0.0,1781.785,-0.134999999999998,100.0,29.045,28.541,44.605000000000004,43.991,0.0,0.0,100.0,0.0,0.0,0.0,0.0,3218.857142857143,2958.8,4308.75,4269.5,305.256,305.303,314.43275,314.31,22.082,20.685,22.1236,21.6065,314.999998,314.999998,324.999988,324.999988,99.55895714285714,99.5074,99.57052857142857,99.54991428571428,0.053999999999999826,-0.09433333333333316,-0.1476666666666666,0.06866666666666688,-0.054999999999999716,-0.041666666666671404,1.4726666666666666,1.4875,39.013,30.281,39.272999999999996,36.0405,55.748999999999995,35.6975,60.49,53.583,53.694,34.7825,59.025999999999996,51.8655,52.839,34.305,58.89,51.251,-0.09750000000000003,-0.06699999999999995,0.10236,0.10307500000000001,0.0,219.15,219.125,215.76333333333332,215.76333333333332,0.0,0.0
34,0.0,0.0,0.0,1.0,1.0,0.0,0.0,1.0,0.0,0.0,1.0,1.1856,26.0,0.0,0.0,0.0,59.999996,0.0,26.0,26.0,26.0,26.0,-0.050625,0.2539,-0.06596,291.794,-2.6813,-2.6908000000000003,-1.6068500000000001,-1.5926,-160.1,215.9225,190.22625,0.0,0.0,0.0,0.0,0.06879999999999997,-5.498166666666667,-5.498166666666667,-0.6438,-0.7205000000000001,-0.033666666666666956,1.088,70.141,-0.027800000000000002,-0.22695,0.0860000000000003,100.0,1.0,1.0,216.23000000000002,0.0,0.0,0.0,0.0,0.0,0.0,0.0,9165.2,0.0,55.0,5.0,252.48000000000002,0.0,0.0,0.0,0.0,0.0,0.0,1.0,0.0,1.7070000000000007,1.7070000000000007,0.0,0.0,0.0,55.0,616.79921,10000.0,85.000001,85.000001,85.000001,85.000001,395.0,0.0,0.0,0.0,1.0,166.665,52.109,52.109,47.394,47.394,34.0,-24.1925,23.328,-30.259999999999998,27.93,0.0,1781.736,-0.19500000000000028,100.0,28.877,28.098,44.303,43.976,0.0,0.0,100.0,0.0,0.0,0.0,0.0,3071.142857142857,3048.3,4056.0,4168.3,305.36,305.22,315.0495,314.57725,22.0913,20.6905,22.1341,21.6158,314.999998,314.999998,324.999988,324.999988,99.55897142857143,99.50741666666667,99.57067142857143,99.55005714285714,0.06875000000000009,-0.06733333333333325,-0.1403333333333333,0.08299999999999996,-0.04333333333332945,-0.036666666666668846,1.5293333333333334,1.5415,39.07,30.315333333333335,39.338,36.0985,55.733999999999995,35.736000000000004,60.5235,53.6425,53.68,34.818,59.0575,51.9225,52.824,34.339,58.9185,51.306333333333335,-0.09299999999999997,-0.06400000000000006,0.111615,0.10616500000000001,0.0,219.515,219.5,216.23000000000002,216.23000000000002,0.0,0.0
35,0.0,0.0,0.0,1.0,1.0,0.0,0.0,1.0,0.0,0.0,1.0,1.1856,26.0,0.0,0.0,0.0,59.999996,0.0,26.0,26.0,26.0,26.0,-0.02875,0.25070000000000014,-0.06232000000000001,291.809,-2.6813,-2.6763,-1.5910000000000002,-1.6038999999999999,-156.31,215.905,190.194375,0.0,0.0,0.0,0.0,0.07099999999999995,-5.498166666666667,-5.498166666666667,-0.6851,-0.21649999999999991,-0.04222222222222216,-0.018000000000000016,70.275,-0.013800000000000002,-0.228075,-0.05200000000000049,100.0,1.0,1.0,216.72333333333333,0.0,0.0,0.0,0.0,0.0,0.0,0.0,9186.2,0.0,55.0,5.0,252.96333333333334,1.0,0.0,0.0,0.0,0.0,0.0,1.0,0.0,1.7609999999999992,1.7609999999999992,0.0,0.0,1.0,55.0,616.79921,10000.0,85.000001,85.000001,85.000001,85.000001,395.0,0.0,0.0,0.0,1.0,166.665,51.528999999999996,51.528999999999996,47.058,47.058,34.0,-24.5175,26.224,-28.456666666666663,27.1825,0.0,1781.683,-0.16499999999999915,100.0,28.606,28.436,44.001,43.51,0.0,0.0,100.0,0.0,0.0,0.0,0.0,3167.0,3381.4,3983.25,3960.3,305.2435,304.1885,315.1815,315.1035,22.1009,20.6965,22.145,21.6254,314.999998,314.999998,324.999988,324.999988,99.55898571428571,99.50743333333334,99.57082857142858,99.55022857142858,0.0767500000000001,-0.06633333333333313,-0.12249999999999994,0.10083333333333333,-0.04999999999999716,-0.051666666666669414,1.562,1.5585,39.131,30.353,39.406,36.159,55.718,35.778,60.559,53.7005,53.664,34.8575,59.091,51.9785,52.808,34.3765,58.948499999999996,51.361333333333334,-0.09599999999999997,-0.07000000000000006,0.106605,0.102235,0.0,219.945,219.945,216.72333333333336,216.72333333333333,0.0,0.0
36,0.0,0.0,0.0,1.0,1.0,0.0,0.0,1.0,0.0,0.0,1.0,1.1856,26.0,0.0,0.0,0.0,59.999996,0.0,26.0,26.0,26.0,26.0,-0.021500000000000002,0.25639999999999996,0.0627,290.802,-2.7431,-2.6333,-1.5481,-1.5972,-153.15,215.89,190.1665,0.0,0.0,0.0,0.0,0.0728333333333333,-5.498166666666667,-5.498166666666667,-0.6643,0.30099999999999993,-0.07766666666666655,-1.3900000000000001,70.39,-0.005200000000000001,-0.199975,0.08000000000000007,100.0,1.0,1.0,216.83333333333331,0.0,0.0,0.0,0.0,0.0,0.0,0.0,9190.8,0.0,55.0,5.0,253.37666666666667,0.0,0.0,0.0,0.0,0.0,0.0,1.0,0.0,1.806000000000001,1.806000000000001,0.0,0.0,0.0,55.0,616.79921,10000.0,85.000001,85.000001,85.000001,85.000001,395.0,0.0,0.0,0.0,1.0,166.665,51.208,51.208,46.204,46.204,34.0,-27.09,23.605999999999998,-33.126666666666665,32.682500000000005,0.0,1781.636,-0.17999999999999972,100.0,29.003,28.887999999999998,44.087,43.944,0.0,0.0,100.0,0.0,0.0,0.0,0.0,3409.5714285714284,3112.2,4533.875,4509.6,304.7615,304.8685,313.94175,313.74125,22.1092,20.7016,22.1543,21.6337,314.999998,314.999998,324.999988,324.999988,99.55898571428571,99.50743333333334,99.57097142857143,99.55035714285714,0.0757500000000002,-0.06633333333333313,-0.1213333333333334,0.10583333333333322,-0.06499999999999773,-0.041666666666671404,1.4203333333333332,1.421,39.182,30.385333333333335,39.464,36.210499999999996,55.708,35.815,60.591499999999996,53.754,53.655,34.891,59.121,52.03,52.797,34.409,58.9755,51.41133333333333,-0.09550000000000003,-0.07200000000000006,0.11048000000000001,0.11157500000000001,0.0,220.34,220.32,216.83333333333334,216.83333333333331,0.0,0.0
