,ABS Active,ABS Enabled,AID Allow Tire Blankets,AID Auto Blip,AID Auto Clutch,AID Auto Shift,AID Fuel Rate,AID Ideal Line,AID Mech Damage,AID Stability,AID Tire Wear Rate,Air Density,Air Temp,Ballast,Best Lap Delta,Best Lap Time,Brake Bias,Brake Pos,Brake Temp FL,Brake Temp FR,Brake Temp RL,Brake Temp RR,CG Accel Lateral,CG Accel Longitudinal,CG Accel Vertical,CG Height,Camber FL,Camber FR,Camber RL,Camber RR,Car Coord X,Car Coord Y,Car Coord Z,Car Damage Front,Car Damage Left,Car Damage Rear,Car Damage Right,Car Pos Norm,Caster FL,Caster FR,Chassis Pitch Angle,Chassis Pitch Rate,Chassis Roll Angle,Chassis Roll Rate,Chassis Velocity X,Chassis Velocity Y,Chassis Velocity Z,Chassis Yaw Rate,Clutch Pos,DRS Active,DRS Available,Drive Train Speed,ERS Heat Charging,ERS Is Charging,ERS Max Energy,ERS Power Level,ERS Recovery Level,Engine Brake Setting,Engine Limiter,Engine RPM,Flags,Fuel Level,Gear,Ground Speed,HR Sample Clock,In Pit,KERS Charge,KERS Deployed Energy,KERS Input,KERS Max Energy,LR Sample Clock,Lap Invalidated,Lap Time,Lap Time2,Last Lap Time,Last Sector Time,MR Sample Clock,Max Fuel,Max Power,Max RPM,Max Sus Travel FL,Max Sus Travel FR,Max Sus Travel RL,Max Sus Travel RR,Max Torque,Max Turbo Boost,Num Tires Off Track,Penalties Enabled,Position,Raw Data Sample Rate,Ride Height FL,Ride Height FR,Ride Height RL,Ride Height RR,Road Temp,Self Align Torque FL,Self Align Torque FR,Self Align Torque RL,Self Align Torque RR,Session Lap Count,Session Time Left,Steering Angle,Surface Grip,Suspension Travel FL,Suspension Travel FR,Suspension Travel RL,Suspension Travel RR,TC Active,TC Enabled,Throttle Pos,Tire Dirt Level FL,Tire Dirt Level FR,Tire Dirt Level RL,Tire Dirt Level RR,Tire Load FL,Tire Load FR,Tire Load RL,Tire Load RR,Tire Loaded Radius FL,Tire Loaded Radius FR,Tire Loaded Radius RL,Tire Loaded Radius RR,Tire Pressure FL,Tire Pressure FR,Tire Pressure RL,Tire Pressure RR,Tire Radius FL,Tire Radius FR,Tire Radius RL,Tire Radius RR,Tire Rubber Grip FL,Tire Rubber Grip FR,Tire Rubber Grip RL,Tire Rubber Grip RR,Tire Slip Angle FL,Tire Slip Angle FR,Tire Slip Angle RL,Tire Slip Angle RR,Tire Slip Ratio FL,Tire Slip Ratio FR,Tire Slip Ratio RL,Tire Slip Ratio RR,Tire Temp Core FL,Tire Temp Core FR,Tire Temp Core RL,Tire Temp Core RR,Tire Temp Inner FL,Tire Temp Inner FR,Tire Temp Inner RL,Tire Temp Inner RR,Tire Temp Middle FL,Tire Temp Middle FR,Tire Temp Middle RL,Tire Temp Middle RR,Tire Temp Outer FL,Tire Temp Outer FR,Tire Temp Outer RL,Tire Temp Outer RR,Toe In FL,Toe In FR,Toe In RL,Toe In RR,Turbo Boost,Wheel Angular Speed FL,Wheel Angular Speed FR,Wheel Angular Speed RL,Wheel Angular Speed RR,Wind Direction,Wind Speed
0,0.0,0.0,0.0,1.0,1.0,0.0,0.0,1.0,0.0,0.0,1.0,1.1856,26.0,0.0,0.0,0.0,59.99999,0.0,26.0,26.0,26.0,26.0,-0.019000000000000017,0.3063,0.2545,292.541,-2.7882,-2.6023,-1.56105,-1.5043,-275.49,215.39249999999998,190.986,0.0,0.0,0.0,0.0,0.0016999999999999238,-5.498166666666667,-5.498166666666667,-0.5626,2.818,0.0011111111111110628,-1.229,65.47,-0.025500000000000002,-0.23070000000000002,-0.11399999999999899,100.0,1.0,1.0,202.11,0.0,0.0,0.0,0.0,0.0,0.0,0.0,8566.7,0.0,55.0,5.0,235.66333333333333,0.0,0.0,0.0,0.0,0.0,0.0,0.0,0.0,0.006000000000000227,0.006000000000000227,0.0,0.0,0.0,55.0,616.79921,10000.0,85.0,85.0,85.0,85.0,395.0,0.0,0.0,0.0,1.0,20.0,49.789,49.789,48.08,48.08,34.0,-29.3675,33.61,-30.346666666666664,27.17,0.0,1783.175,0.16000000000000014,100.0,27.922,28.277,40.29,40.106,0.0,0.0,100.0,0.0,0.0,0.0,0.0,3377.142857142857,4432.4,4219.75,4180.2,304.5215,300.87033333333335,314.63875,314.41075,21.768555555555555,20.514,21.7554,21.2998,314.99999,314.99999,324.99998,324.99998,99.55842857142858,99.50723333333333,99.56435714285715,99.54457142857143,0.033500000000000085,-0.08399999999999985,-0.13,0.092,-0.045000000000001705,-0.060000000000002274,1.521,1.541,37.054,29.213,36.971000000000004,34.124,56.132,34.455,58.777,51.3815,54.058,33.643,57.413,49.7555,53.230000000000004,33.2225,57.3765,49.188,-0.07499999999999996,-0.09050000000000002,0.10741,0.10405,0.0,205.16500000000002,205.175,202.11,202.11,0.0,0.0
1,0.0,0.0,0.0,1.0,1.0,0.0,0.0,1.0,0.0,0.0,1.0,1.1856,26.0,0.0,0.0,0.0,59.999996,0.0,26.0,26.0,26.0,26.0,-0.07266666666666666,0.2955000000000001,0.229275,292.252,-2.6898,-2.6988000000000003,-1.60805,-1.4554,-271.95,215.3975,190.965375,0.0,0.0,0.0,0.0,0.003766666666666585,-5.498166666666667,-5.498166666666667,-0.4848,-3.086,-0.046222222222222165,-0.8640000000000001,65.638,-0.0182,-0.2026,0.4920000000000009,100.0,1.0,1.0,202.09666666666666,0.0,0.0,0.0,0.0,0.0,0.0,0.0,8566.2,0.0,55.0,5.0,236.26666666666665,1.0,0.0,0.0,0.0,0.0,0.0,0.0,0.0,0.05999999999999872,0.05999999999999872,0.0,0.0,1.0,55.0,616.79921,10000.0,85.000001,85.000001,85.000001,85.000001,395.0,0.0,0.0,0.0,1.0,166.665,54.169,54.169,47.302,47.302,34.0,-22.645,17.414,-36.54,30.675,0.0,1783.121,0.27500000000000036,100.0,27.678,27.15,42.962,44.464,0.0,0.0,100.0,0.0,0.0,0.0,0.0,2816.142857142857,2475.7,4644.5,4645.4,306.3455,306.9873333333333,313.327,312.44975,21.778666666666666,20.5191,21.7671,21.3098,314.999998,314.999998,324.999988,324.999988,99.55844285714285,99.50725,99.56451428571428,99.54472857142858,0.038000000000000256,-0.09333333333333327,-0.1325,0.069,-0.03833333333332689,-0.04333333333332945,1.2943333333333333,1.307,37.117000000000004,29.244500000000002,37.044,34.186,56.113,34.4915,58.83,51.4585,54.039,33.677,57.4625,49.829,53.21,33.254999999999995,57.423,49.26,-0.05049999999999999,-0.09899999999999998,0.10283,0.10815500000000002,0.0,205.575,205.565,202.09666666666666,202.09666666666666,0.0,0.0
2,0.0,0.0,0.0,1.0,1.0,0.0,0.0,1.0,0.0,0.0,1.0,1.1856,26.0,0.0,0.0,0.0,59.999996,0.0,26.0,26.0,26.0,26.0,-0.05733333333333335,0.29690000000000016,-0.096625,293.73199999999997,-2.6703,-2.6435,-1.5731000000000002,-1.5094,-268.8,215.4,190.9475,0.0,0.0,0.0,0.0,0.005599999999999938,-5.498166666666667,-5.498166666666667,-0.5842,1.0936666666666668,-0.004222222222222349,1.6059999999999999,65.764,-0.0206,-0.27225,0.6920000000000002,100.0,1.0,1.0,203.48333333333335,0.0,0.0,0.0,0.0,0.0,0.0,0.0,8625.0,0.0,55.0,5.0,236.72,0.0,0.0,0.0,0.0,0.0,0.0,0.0,0.0,0.10800000000000054,0.10800000000000054,0.0,0.0,0.0,55.0,616.79921,10000.0,85.000001,85.000001,85.000001,85.000001,395.0,0.0,0.0,0.0,1.0,166.665,51.544,51.544,50.674,50.674,34.0,-28.5325,22.636,-24.699999999999996,19.195,0.0,1783.073,0.39000000000000057,100.0,28.308,27.809,41.74,41.693,0.0,0.0,100.0,0.0,0.0,0.0,0.0,3390.857142857143,3180.2,3523.625,3387.8,304.475,304.461,316.28975,316.5195,21.788222222222224,20.5241,21.7765,21.3175,314.999998,314.999998,324.999988,324.999988,99.55844285714285,99.50726666666667,99.56465714285714,99.54484285714285,0.03000000000000025,-0.1056666666666668,-0.1585,0.07066666666666667,-0.05833333333333002,-0.05333333333332746,1.7916666666666667,1.8276666666666666,37.176,29.2755,37.102999999999994,34.234,56.101,34.5305,58.861,51.5015,54.028,33.7125,57.4915,49.871,53.198,33.289,57.449,49.301,-0.052999999999999936,-0.1080000000000001,0.10422500000000001,0.10163000000000001,0.0,206.025,205.985,203.48333333333335,203.48333333333335,0.0,0.0
3,0.0,0.0,0.0,1.0,1.0,0.0,0.0,1.0,0.0,0.0,1.0,1.1856,26.0,0.0,0.0,0.0,59.999996,0.0,26.0,26.0,26.0,26.0,-0.054888888888888876,0.2977000000000001,0.002075,292.786,-2.6889,-2.6736,-1.558,-1.4793,-265.64,215.4025,190.928125,0.0,0.0,0.0,0.0,0.007433333333333292,-5.498166666666667,-5.498166666666667,-0.49660000000000004,0.5336666666666666,0.011111111111111072,-2.243,65.913,-0.0332,-0.184875,0.6219999999999999,100.0,1.0,1.0,203.19,0.0,0.0,0.0,0.0,0.0,0.0,0.0,8612.4,0.0,55.0,5.0,237.25666666666666,1.0,0.0,0.0,0.0,0.0,0.0,0.0,0.0,0.1559999999999988,0.1559999999999988,0.0,0.0,1.0,55.0,616.79921,10000.0,85.000001,85.000001,85.000001,85.000001,395.0,0.0,0.0,0.0,1.0,166.665,53.268,53.268,47.226,47.226,34.0,-23.2575,19.988,-34.49333333333334,28.3375,0.0,1783.024,0.5300000000000011,100.0,27.882,27.7,42.119,42.345,0.0,0.0,100.0,0.0,0.0,0.0,0.0,2822.714285714286,2866.0,4583.5,4432.6,306.341,305.50266666666664,313.6705,313.6715,21.797333333333334,20.5291,21.7864,21.326,314.999998,314.999998,324.999988,324.999988,99.55845714285714,99.50728333333333,99.56478571428572,99.54498571428572,0.022749999999999826,-0.11299999999999999,-0.13583333333333333,0.07316666666666667,-0.03999999999999915,-0.03999999999999915,1.4193333333333333,1.4286666666666665,37.233000000000004,29.307000000000002,37.165,34.2875,56.085,34.57,58.9005,51.5665,54.012,33.749,57.528,49.933,53.182,33.324,57.483000000000004,49.36233333333333,-0.03249999999999997,-0.11450000000000005,0.10173000000000001,0.10934500000000001,0.0,206.53,206.48000000000002,203.19,203.19,0.0,0.0
4,0.0,0.0,0.0,1.0,1.0,0.0,0.0,1.0,0.0,0.0,1.0,1.1856,26.0,0.0,0.0,0.0,59.999996,0.0,26.0,26.0,26.0,26.0,-0.07455555555555549,0.29000000000000004,0.0049250000000000006,293.396,-2.6749,-2.7399,-1.49435,-1.5928,-262.07,215.405,190.907875,0.0,0.0,0.0,0.0,0.009499999999999953,-5.498166666666667,-5.498166666666667,-0.5376000000000001,-0.8320000000000001,-0.042888888888888754,-0.5350000000000001,66.06700000000001,-0.04,-0.24150000000000002,0.9740000000000002,100.0,1.0,1.0,203.95333333333332,0.0,0.0,0.0,0.0,0.0,0.0,0.0,8644.9,0.0,55.0,5.0,237.81333333333333,0.0,0.0,0.0,0.0,0.0,0.0,0.0,0.0,0.21000000000000085,0.21000000000000085,0.0,0.0,0.0,55.0,616.79921,10000.0,85.000001,85.000001,85.000001,85.000001,395.0,0.0,0.0,0.0,1.0,166.665,52.902,52.902,48.843,48.843,34.0,-27.939999999999998,20.41,-29.75,23.0875,0.0,1782.972,0.625,100.0,27.749,27.268,42.791,42.262,0.0,0.0,100.0,0.0,0.0,0.0,0.0,3224.4285714285716,2892.0,4019.625,3780.7,305.128,305.52633333333335,315.04375,315.41025,21.807666666666666,20.5345,21.7976,21.3354,314.999998,314.999998,324.999988,324.999988,99.55845714285714,99.5073,99.56492857142857,99.54512857142858,0.0027500000000002522,-0.119,-0.17350000000000002,0.0525,-0.07166666666666544,-0.03999999999999915,1.58,1.6093333333333333,37.298,29.3405,37.235,34.346000000000004,56.067,34.6115,58.945499999999996,51.6295,53.995999999999995,33.7875,57.570499999999996,49.9935,53.165,33.361,57.522,49.42133333333334,-0.024499999999999966,-0.11499999999999999,0.10938,0.10506000000000001,0.0,206.97,206.845,203.95333333333332,203.95333333333332,0.0,0.0
5,0.0,0.0,0.0,1.0,1.0,0.0,0.0,1.0,0.0,0.0,1.0,1.1856,26.0,0.0,0.0,0.0,59.999996,0.0,26.0,26.0,26.0,26.0,-0.06611111111111112,0.3053000000000001,-0.054450000000000005,293.716,-2.6545,-2.7165,-1.5465499999999999,-1.5695999999999999,-258.9,215.405,190.88925,0.0,0.0,0.0,0.0,0.011366666666666525,-5.498166666666667,-5.498166666666667,-0.5373,0.632,-0.02477777777777801,-0.44199999999999995,66.20400000000001,-0.059300000000000005,-0.22132500000000002,0.9640000000000004,100.0,1.0,1.0,204.43333333333334,0.0,0.0,0.0,0.0,0.0,0.0,0.0,8665.1,0.0,55.0,5.0,238.30333333333334,1.0,0.0,0.0,0.0,0.0,0.0,0.0,0.0,0.2579999999999991,0.2579999999999991,0.0,0.0,1.0,55.0,616.79921,10000.0,85.000001,85.000001,85.000001,85.000001,395.0,0.0,0.0,0.0,1.0,166.665,53.284,53.284,49.103,49.103,34.0,-26.21,20.412,-30.233333333333334,23.395,0.0,1782.923,0.21000000000000085,100.0,27.591,27.153,42.324,41.682,0.0,0.0,100.0,0.0,0.0,0.0,0.0,3065.714285714286,2880.2,3948.125,3966.1000000000004,305.546,305.471,315.26375,315.00425,21.817,20.5394,21.807299999999998,21.3436,314.999998,314.999998,324.999988,324.999988,99.55845714285714,99.5073,99.56505714285714,99.54527142857143,0.003750000000000142,-0.1146666666666667,-0.1855,0.03866666666666666,-0.054999999999999716,-0.04833333333333201,1.5859999999999999,1.6186666666666667,37.355999999999995,29.371000000000002,37.296,34.3975,56.053,34.6495,58.981,51.6845,53.982,33.8225,57.6035,50.046,53.15,33.3945,57.5525,49.47266666666667,-0.05399999999999994,-0.09499999999999997,0.10366,0.10768000000000001,0.0,207.43,207.35000000000002,204.43333333333334,204.43333333333334,0.0,0.0
6,0.0,0.0,0.0,1.0,1.0,0.0,0.0,1.0,0.0,0.0,1.0,1.1856,26.0,0.0,0.0,0.0,59.999996,0.0,26.0,26.0,26.0,26.0,-0.08433333333333337,0.2922,0.029675,293.472,-2.6847,-2.7734,-1.49105,-1.5856,-255.72,215.4025,190.86975,0.0,0.0,0.0,0.0,0.01319999999999999,-5.498166666666667,-5.498166666666667,-0.5284,-0.35933333333333334,-0.04822222222222239,-1.049,66.345,-0.062400000000000004,-0.20600000000000002,0.8239999999999998,100.0,1.0,1.0,204.68666666666667,0.0,0.0,0.0,0.0,0.0,0.0,0.0,8675.9,0.0,55.0,5.0,238.81,0.0,0.0,0.0,0.0,0.0,0.0,0.0,0.0,0.30600000000000094,0.30600000000000094,0.0,0.0,0.0,55.0,616.79921,10000.0,85.000001,85.000001,85.000001,85.000001,395.0,0.0,0.0,0.0,1.0,166.665,53.528,53.528,48.644999999999996,48.644999999999996,34.0,-27.95,19.408,-32.7,24.845,0.0,1782.876,0.29499999999999993,100.0,27.352,26.8,42.551,41.894999999999996,0.0,0.0,100.0,0.0,0.0,0.0,0.0,3218.5714285714284,2773.3,4227.125,4022.9,305.202,305.85966666666667,314.5425,314.771,21.82611111111111,20.5442,21.8172,21.352,314.999998,314.999998,324.999988,324.999988,99.55845714285714,99.50731666666667,99.5652,99.5454,0.0017499999999999183,-0.1283333333333332,-0.18833333333333335,0.046,-0.051666666666669414,-0.041666666666671404,1.5053333333333332,1.5236666666666667,37.413,29.401,37.358000000000004,34.45,56.037,34.686,59.0205,51.743,53.967,33.856,57.64,50.1025,53.134,33.4265,57.5865,49.528,-0.051999999999999935,-0.09800000000000009,0.11070500000000001,0.11178,0.0,207.825,207.76999999999998,204.68666666666667,204.68666666666667,0.0,0.0
7,0.0,0.0,0.0,1.0,1.0,0.0,0.0,1.0,0.0,0.0,1.0,1.1856,26.0,0.0,0.0,0.0,59.999996,0.0,26.0,26.0,26.0,26.0,-0.0822222222222222,0.2893000000000001,-0.018125000000000002,293.457,-2.679,-2.7713,-1.54345,-1.5439,-252.32999999999998,215.3975,190.84925,0.0,0.0,0.0,0.0,0.01516666666666655,-5.498166666666667,-5.498166666666667,-0.5342,0.12333333333333334,-0.035222222222222044,1.298,66.489,-0.0684,-0.21607500000000002,0.5660000000000007,100.0,1.0,1.0,205.2,0.0,0.0,0.0,0.0,0.0,0.0,0.0,8697.6,0.0,55.0,5.0,239.32999999999998,1.0,0.0,0.0,0.0,0.0,0.0,0.0,0.0,0.3569999999999993,0.3569999999999993,0.0,0.0,1.0,55.0,616.79921,10000.0,85.000001,85.000001,85.000001,85.000001,395.0,0.0,0.0,0.0,1.0,333.33500000000004,53.238,53.238,48.691,48.691,34.0,-25.59,22.107999999999997,-31.806666666666665,23.627499999999998,0.0,1782.823,-0.125,100.0,27.783,26.823999999999998,42.67,41.707,0.0,0.0,100.0,0.0,0.0,0.0,0.0,3078.714285714286,2959.6,4106.875,4026.1000000000004,305.361,305.439,314.80575,314.92775,21.836,20.5494,21.8277,21.3608,314.999998,314.999998,324.999988,324.999988,99.55845714285714,99.50731666666667,99.56534285714285,99.54554285714286,0.03200000000000003,-0.09433333333333316,-0.18116666666666667,0.04,-0.03833333333332689,-0.06333333333333258,1.541,1.575,37.474999999999994,29.433500000000002,37.423,34.5055,56.022999999999996,34.7265,59.0605,51.803,53.953,33.893,57.6775,50.16,53.120000000000005,33.462,57.621,49.58433333333333,-0.07999999999999996,-0.0625,0.10938,0.104785,0.0,208.265,208.24,205.2,205.2,0.0,0.0
8,0.0,0.0,0.0,1.0,1.0,0.0,0.0,1.0,0.0,0.0,1.0,1.1856,26.0,0.0,0.0,0.0,59.999996,0.0,26.0,26.0,26.0,26.0,-0.047111111111111104,0.2792000000000001,-0.021275000000000002,293.549,-2.6949,-2.7043,-1.5556,-1.5998999999999999,-248.93,215.39,190.82875,0.0,0.0,0.0,0.0,0.017133333333333334,-5.498166666666667,-5.498166666666667,-0.5364,-0.077,-0.03022222222222215,-1.1710000000000003,66.634,-0.0584,-0.21855000000000002,0.21600000000000108,100.0,1.0,1.0,205.65,0.0,0.0,0.0,0.0,0.0,0.0,0.0,8716.7,0.0,55.0,5.0,239.85333333333335,0.0,0.0,0.0,0.0,0.0,0.0,0.0,0.0,0.40800000000000125,0.40800000000000125,0.0,0.0,0.0,55.0,616.79921,10000.0,85.000001,85.000001,85.000001,85.000001,395.0,0.0,0.0,0.0,1.0,333.33500000000004,53.375,53.375,48.492,48.492,34.0,-25.845,21.586,-31.336666666666666,24.259999999999998,0.0,1782.773,-0.20500000000000007,100.0,27.283,27.08,42.519,41.917,0.0,0.0,100.0,0.0,0.0,0.0,0.0,3118.857142857143,2937.4,4093.75,3931.4,305.49,305.32233333333335,314.9045,315.01175,21.845666666666666,20.5546,21.8381,21.369799999999998,314.999998,314.999998,324.999988,324.999988,99.55847142857142,99.50733333333334,99.56548571428571,99.54567142857142,0.03100000000000014,-0.09366666666666679,-0.17350000000000002,0.04716666666666666,-0.054999999999999716,-0.03833333333332689,1.548,1.565,37.535,29.4665,37.488,34.5615,56.007,34.766,59.1005,51.865,53.938,33.9295,57.715,50.219,53.104,33.4965,57.6555,49.64233333333333,-0.09599999999999997,-0.0515000000000001,0.106935,0.10360000000000001,0.0,208.71,208.68,205.65,205.65,0.0,0.0
9,0.0,0.0,0.0,1.0,1.0,0.0,0.0,1.0,0.0,0.0,1.0,1.1856,26.0,0.0,0.0,0.0,59.999996,0.0,26.0,26.0,26.0,26.0,-0.03533333333333333,0.28790000000000004,0.011975000000000001,293.304,-2.6694,-2.7225,-1.54085,-1.5582,-245.53,215.3825,190.807875,0.0,0.0,0.0,0.0,0.019133333333333336,-5.498166666666667,-5.498166666666667,-0.5333,0.20700000000000002,-0.03677777777777802,0.722,66.779,-0.042100000000000005,-0.211575,-0.0039999999999995595,100.0,1.0,1.0,206.06666666666666,0.0,0.0,0.0,0.0,0.0,0.0,0.0,8734.5,0.0,55.0,5.0,240.37333333333333,1.0,0.0,0.0,0.0,0.0,0.0,0.0,0.0,0.45899999999999963,0.45899999999999963,0.0,0.0,1.0,55.0,616.79921,10000.0,85.000001,85.000001,85.000001,85.000001,395.0,0.0,0.0,0.0,1.0,166.665,53.07,53.07,48.66,48.66,34.0,-24.6025,23.392,-29.956666666666663,26.9525,0.0,1782.722,-0.3149999999999995,100.0,27.686,26.944,42.563,41.923,0.0,0.0,100.0,0.0,0.0,0.0,0.0,3095.0,3058.1,4068.0,4129.2,305.3435,305.14566666666667,314.92625,314.6365,21.855444444444444,20.5599,21.8486,21.3787,314.999998,314.999998,324.999988,324.999988,99.55848571428571,99.50735,99.56562857142858,99.54582857142857,0.05624999999999991,-0.07333333333333325,-0.153,0.08233333333333333,-0.04833333333333201,-0.07000000000000028,1.5493333333333332,1.5393333333333334,37.596000000000004,29.499499999999998,37.554,34.617,55.992999999999995,34.805,59.1405,51.9255,53.925,33.965,57.751999999999995,50.2775,53.09,33.531,57.689499999999995,49.699333333333335,-0.09650000000000003,-0.0515000000000001,0.11151000000000001,0.10901500000000001,0.0,209.15,209.155,206.06666666666666,206.06666666666666,0.0,0.0
10,0.0,0.0,0.0,1.0,1.0,0.0,0.0,1.0,0.0,0.0,1.0,1.1856,26.0,0.0,0.0,0.0,59.999996,0.0,26.0,26.0,26.0,26.0,-0.023666666666666614,0.2876000000000001,0.01335,293.259,-2.6795,-2.7008,-1.55685,-1.5422,-242.32,215.3725,190.78825,0.0,0.0,0.0,0.0,0.020999999999999908,-5.498166666666667,-5.498166666666667,-0.5309,-0.20833333333333334,-0.011777777777777665,1.533,66.91499999999999,-0.0269,-0.21145,-0.18599999999999994,100.0,1.0,1.0,206.41,0.0,0.0,0.0,0.0,0.0,0.0,0.0,8749.0,0.0,55.0,5.0,240.86666666666667,0.0,0.0,0.0,0.0,0.0,0.0,1.0,0.0,0.5069999999999979,0.5069999999999979,0.0,0.0,0.0,55.0,616.79921,10000.0,85.000001,85.000001,85.000001,85.000001,395.0,0.0,0.0,0.0,1.0,333.33500000000004,53.345,53.345,48.431,48.431,34.0,-23.2025,23.594,-28.96,28.490000000000002,0.0,1782.672,-0.39000000000000057,100.0,27.607,26.895,42.647999999999996,42.168,0.0,0.0,100.0,0.0,0.0,0.0,0.0,2975.4285714285716,3045.0,4081.25,4271.1,305.687,305.214,314.84325,314.29375,21.864555555555555,20.564799999999998,21.8585,21.3872,314.999998,314.999998,324.999988,324.999988,99.55848571428571,99.50735,99.56577142857142,99.54595714285715,0.06625000000000014,-0.06033333333333313,-0.12316666666666667,0.09216666666666667,-0.041666666666671404,-0.07000000000000028,1.5286666666666666,1.5150000000000001,37.653,29.53,37.614999999999995,34.670500000000004,55.979,34.8425,59.181,51.988,53.912,34.0,57.789500000000004,50.337,53.076,33.564,57.7245,49.757999999999996,-0.10499999999999998,-0.046499999999999986,0.10364000000000001,0.10444500000000001,0.0,209.565,209.57,206.41,206.41,0.0,0.0
11,0.0,0.0,0.0,1.0,1.0,0.0,0.0,1.0,0.0,0.0,1.0,1.1856,26.0,0.0,0.0,0.0,59.999996,0.0,26.0,26.0,26.0,26.0,-0.0004444444444444695,0.28390000000000004,-0.018000000000000002,293.488,-2.7054,-2.6941,-1.5596999999999999,-1.5173999999999999,-238.71,215.3625,190.766,0.0,0.0,0.0,0.0,0.022599999999999953,-5.498166666666667,-5.498166666666667,-0.5511,-0.16933333333333334,0.012555555555555653,0.748,67.066,-0.0115,-0.222775,-0.3460000000000001,100.0,1.0,1.0,206.9766666666667,0.0,0.0,0.0,0.0,0.0,0.0,0.0,8773.0,0.0,55.0,5.0,241.40666666666667,1.0,0.0,0.0,0.0,0.0,0.0,1.0,0.0,0.5609999999999999,0.5609999999999999,0.0,0.0,1.0,55.0,616.79921,10000.0,85.000001,85.000001,85.000001,85.000001,395.0,0.0,0.0,0.0,1.0,166.665,53.268,53.268,48.874,48.874,34.0,-22.77,25.662,-26.32666666666666,28.07,0.0,1782.621,-0.8650000000000002,100.0,27.321,26.985,42.378,42.214,0.0,0.0,100.0,0.0,0.0,0.0,0.0,2999.0,3143.8,3900.5,4112.6,305.6475,304.884,315.336,314.66475,21.874555555555556,20.5704,21.8694,21.3968,314.999998,314.999998,324.999988,324.999988,99.5585,99.50736666666667,99.56591428571429,99.5461,0.08700000000000019,-0.03166666666666673,-0.10533333333333333,0.11816666666666667,-0.02833333333332888,-0.05333333333332746,1.5796666666666668,1.5573333333333332,37.716,29.564999999999998,37.684,34.7295,55.965,34.879999999999995,59.218,52.049,53.897999999999996,34.0345,57.824,50.396,53.061,33.5975,57.756,49.815333333333335,-0.12049999999999994,-0.021500000000000075,0.10495000000000002,0.106395,0.0,210.0,210.03,206.9766666666667,206.9766666666667,0.0,0.0
12,0.0,0.0,0.0,1.0,1.0,0.0,0.0,1.0,0.0,0.0,1.0,1.1856,26.0,0.0,0.0,0.0,59.999996,0.0,26.0,26.0,26.0,26.0,0.00955555555555554,0.2943,0.009275,293.137,-2.7151,-2.6708,-1.56705,-1.5298,-235.68,215.35500000000002,190.74675,0.0,0.0,0.0,0.0,0.025466666666666526,-5.498166666666667,-5.498166666666667,-0.5417000000000001,0.3743333333333333,0.016888888888888953,-0.7350000000000001,67.19200000000001,0.0046,-0.20505,-0.4079999999999995,100.0,1.0,1.0,207.29666666666668,0.0,0.0,0.0,0.0,0.0,0.0,0.0,8786.6,0.0,55.0,5.0,241.86333333333334,0.0,0.0,0.0,0.0,0.0,0.0,1.0,0.0,0.6059999999999981,0.6059999999999981,0.0,0.0,0.0,55.0,616.79921,10000.0,85.000001,85.000001,85.000001,85.000001,395.0,0.0,0.0,0.0,1.0,333.33500000000004,52.994,52.994,48.294,48.294,34.0,-26.2225,22.17,-28.303333333333335,29.415,0.0,1782.574,0.6799999999999997,100.0,27.321,27.459,42.209,42.358000000000004,0.0,0.0,100.0,0.0,0.0,0.0,0.0,3089.714285714286,3086.3,4130.875,4201.7,305.5485,304.8756666666667,314.8415,314.4135,21.883111111111113,20.5752,21.8785,21.4047,314.999998,314.999998,324.999988,324.999988,99.55851428571428,99.50736666666667,99.56604285714286,99.54622857142857,0.020999999999999908,-0.10233333333333317,-0.10333333333333333,0.12316666666666667,-0.05333333333332746,-0.06666666666666998,1.5403333333333333,1.5286666666666666,37.769,29.595,37.741,34.778999999999996,55.954,34.914,59.2515,52.103,53.887,34.066,57.8555,50.448,53.05,33.6275,57.7845,49.86633333333333,-0.04049999999999998,-0.10949999999999993,0.106315,0.10855500000000001,0.0,210.42000000000002,210.45,207.29666666666668,207.29666666666668,0.0,0.0
13,0.0,0.0,0.0,1.0,1.0,0.0,0.0,1.0,0.0,0.0,1.0,1.1856,26.0,0.0,0.0,0.0,59.999996,0.0,26.0,26.0,26.0,26.0,0.03499999999999992,0.2913000000000001,0.0175,292.877,-2.6905,-2.6964,-1.55735,-1.5437,-232.25,215.3475,190.725125,0.0,0.0,0.0,0.0,0.026833333333333376,-5.498166666666667,-5.498166666666667,-0.5388000000000001,-0.2623333333333333,0.012555555555555653,1.17,67.33500000000001,0.0025,-0.2146,-0.3200000000000003,100.0,1.0,1.0,207.67333333333335,0.0,0.0,0.0,0.0,0.0,0.0,0.0,8802.5,0.0,55.0,5.0,242.37666666666667,1.0,0.0,0.0,0.0,0.0,0.0,1.0,0.0,0.657,0.657,0.0,0.0,1.0,55.0,616.79921,10000.0,85.000001,85.000001,85.000001,85.000001,395.0,0.0,0.0,0.0,1.0,333.33500000000004,52.887,52.887,48.126,48.126,34.0,-21.9725,26.073999999999998,-27.479999999999997,30.7425,0.0,1782.523,-0.47499999999999964,100.0,27.691,27.428,42.672,42.689,0.0,0.0,100.0,0.0,0.0,0.0,0.0,3004.4285714285716,3123.2,4082.25,4296.3,305.6155,304.95933333333335,314.83425,314.23825,21.892666666666667,20.5806,21.889,21.4138,314.999998,314.999998,324.999988,324.999988,99.55851428571428,99.50738333333334,99.56618571428571,99.54637142857143,0.10450000000000026,-0.016999999999999904,-0.0935,0.128,-0.02833333333332888,-0.061666666666667425,1.531,1.4966666666666666,37.829,29.628999999999998,37.806,34.836,55.941,34.9525,59.2915,52.1665,53.875,34.1015,57.893,50.509,53.037,33.661,57.819,49.92633333333333,-0.11849999999999994,-0.030999999999999917,0.10548,0.111655,0.0,210.845,210.87,207.67333333333335,207.67333333333335,0.0,0.0
14,0.0,0.0,0.0,1.0,1.0,0.0,0.0,1.0,0.0,0.0,1.0,1.1856,26.0,0.0,0.0,0.0,59.999996,0.0,26.0,26.0,26.0,26.0,0.04833333333333334,0.2724,-0.041350000000000005,293.137,-2.6887,-2.7037,-1.5689000000000002,-1.5372,-228.82,215.34,190.70375,0.0,0.0,0.0,0.0,0.028833333333333377,-5.498166666666667,-5.498166666666667,-0.5507000000000001,-0.019,0.023111111111111082,-0.502,67.475,0.0099,-0.22407500000000002,-0.4399999999999995,100.0,1.0,1.0,208.20333333333332,0.0,0.0,0.0,0.0,0.0,0.0,0.0,8825.0,0.0,55.0,5.0,242.88,0.0,0.0,0.0,0.0,0.0,0.0,1.0,0.0,0.7079999999999984,0.7079999999999984,0.0,0.0,0.0,55.0,616.79921,10000.0,85.000001,85.000001,85.000001,85.000001,395.0,0.0,0.0,0.0,1.0,333.33500000000004,52.933,52.933,48.538,48.538,34.0,-22.6175,24.612000000000002,-26.729999999999997,28.91,0.0,1782.472,-0.48499999999999943,100.0,27.515,27.709,42.471000000000004,42.806,0.0,0.0,100.0,0.0,0.0,0.0,0.0,3078.142857142857,3001.1,3979.875,4086.8,305.592,305.10366666666664,315.19025,314.686,21.90222222222222,20.5861,21.8994,21.4228,314.999998,314.999998,324.999988,324.999988,99.55852857142857,99.50738333333334,99.56632857142857,99.54651428571428,0.0987499999999999,-0.033666666666666734,-0.09683333333333333,0.13133333333333336,-0.041666666666671404,-0.04999999999999716,1.5583333333333333,1.5446666666666666,37.888999999999996,29.663,37.870999999999995,34.8925,55.929,34.99,59.329,52.228,53.864000000000004,34.135999999999996,57.9275,50.568,53.024,33.6945,57.8505,49.984,-0.11649999999999994,-0.03699999999999992,0.099515,0.11560000000000001,0.0,211.29000000000002,211.31,208.20333333333332,208.20333333333332,0.0,0.0
15,0.0,0.0,0.0,1.0,1.0,0.0,0.0,1.0,0.0,0.0,1.0,1.1856,26.0,0.0,0.0,0.0,59.999996,0.0,26.0,26.0,26.0,26.0,0.056333333333333346,0.2815000000000001,-0.023225000000000003,293.03,-2.6753,-2.6867,-1.5531000000000001,-1.5626,-225.57,215.33249999999998,190.68325,0.0,0.0,0.0,0.0,0.03073333333333339,-5.498166666666667,-5.498166666666667,-0.5428000000000001,0.23,0.025666666666666726,-0.754,67.607,0.0181,-0.2102,-0.3979999999999997,100.0,1.0,1.0,208.57333333333332,0.0,0.0,0.0,0.0,0.0,0.0,0.0,8840.6,0.0,55.0,5.0,243.35666666666668,1.0,0.0,0.0,0.0,0.0,0.0,1.0,0.0,0.7560000000000002,0.7560000000000002,0.0,0.0,1.0,55.0,616.79921,10000.0,85.000001,85.000001,85.000001,85.000001,395.0,0.0,0.0,0.0,1.0,333.33500000000004,52.963,52.963,48.278999999999996,48.278999999999996,34.0,-22.45,24.166,-27.273333333333333,29.762500000000003,0.0,1782.423,-0.375,100.0,27.5,27.751,42.368,42.864000000000004,0.0,0.0,100.0,0.0,0.0,0.0,0.0,3063.5714285714284,2969.3,4107.875,4096.4,305.6305,305.18733333333336,314.893,314.63375,21.91111111111111,20.5913,21.9091,21.4314,314.999998,314.999998,324.999988,324.999988,99.55854285714285,99.50738333333334,99.56647142857143,99.54665714285714,0.09699999999999998,-0.03400000000000003,-0.09116666666666667,0.137,-0.060000000000002274,-0.060000000000002274,1.5513333333333332,1.5246666666666666,37.945,29.6955,37.932,34.946,55.918,35.025999999999996,59.3645,52.286500000000004,53.852999999999994,34.169,57.960499999999996,50.624,53.012,33.7265,57.8805,50.03933333333333,-0.10599999999999998,-0.04249999999999998,0.10863,0.10950000000000001,0.0,211.7,211.72,208.57333333333332,208.57333333333332,0.0,0.0
16,0.0,0.0,0.0,1.0,1.0,0.0,0.0,1.0,0.0,0.0,1.0,1.1856,26.0,0.0,0.0,0.0,59.999996,0.0,26.0,26.0,26.0,26.0,0.036111111111111205,0.2694000000000001,-0.0014500000000000001,292.801,-2.7071,-2.6318,-1.5894,-1.5550000000000002,-222.12,215.3275,190.66125,0.0,0.0,0.0,0.0,0.03273333333333339,-5.498166666666667,-5.498166666666667,-0.5527000000000001,-0.295,0.023333333333333206,0.348,67.747,0.024200000000000003,-0.223275,-0.3379999999999992,100.0,1.0,1.0,208.99,0.0,0.0,0.0,0.0,0.0,0.0,0.0,8858.3,0.0,55.0,5.0,243.86333333333334,0.0,0.0,0.0,0.0,0.0,0.0,1.0,0.0,0.8069999999999986,0.8069999999999986,0.0,0.0,0.0,55.0,616.79921,10000.0,85.000001,85.000001,85.000001,85.000001,395.0,0.0,0.0,0.0,1.0,333.33500000000004,52.536,52.536,47.989,47.989,34.0,-22.985,26.078,-27.073333333333338,30.0625,0.0,1782.372,-0.26500000000000057,100.0,27.581,27.728,42.685,42.93,0.0,0.0,100.0,0.0,0.0,0.0,0.0,3069.857142857143,3235.3,4052.875,4075.8,305.438,304.583,314.991,314.73275,21.920666666666666,20.5968,21.9196,21.4405,314.999998,314.999998,324.999988,324.999988,99.55855714285714,99.5074,99.56661428571428,99.5468,0.09750000000000014,-0.030000000000000027,-0.08416666666666667,0.14983333333333335,-0.030000000000001137,-0.05666666666667197,1.539,1.5223333333333333,38.004000000000005,29.73,37.998000000000005,35.003,55.903999999999996,35.064,59.4035,52.349000000000004,53.84,34.204499999999996,57.997,50.6845,52.998999999999995,33.7605,57.914,50.098,-0.09050000000000002,-0.056499999999999995,0.10454000000000001,0.11513500000000002,0.0,212.12,212.15,208.99,208.99,0.0,0.0
17,0.0,0.0,0.0,1.0,1.0,0.0,0.0,1.0,0.0,0.0,1.0,1.1856,26.0,0.0,0.0,0.0,59.999996,0.0,26.0,26.0,26.0,26.0,0.04122222222222227,0.28310000000000013,0.035500000000000004,292.572,-2.6663,-2.7141,-1.5506,-1.5185,-218.66,215.3225,190.639,0.0,0.0,0.0,0.0,0.034733333333333394,-5.498166666666667,-5.498166666666667,-0.5506,0.15966666666666665,-0.0015555555555555323,-1.1550000000000002,67.887,0.0212,-0.21707500000000002,-0.15799999999999947,100.0,1.0,1.0,209.36666666666667,0.0,0.0,0.0,0.0,0.0,0.0,0.0,8874.3,0.0,55.0,5.0,244.36333333333334,1.0,0.0,0.0,0.0,0.0,0.0,1.0,0.0,0.8580000000000005,0.8580000000000005,0.0,0.0,1.0,55.0,616.79921,10000.0,85.000001,85.000001,85.000001,85.000001,395.0,0.0,0.0,0.0,1.0,166.665,52.505,52.505,47.714,47.714,34.0,-23.134999999999998,25.062,-28.310000000000002,30.1,0.0,1782.324,-0.20999999999999908,100.0,27.722,28.032,42.657,43.056,0.0,0.0,100.0,0.0,0.0,0.0,0.0,3117.142857142857,3029.4,4217.75,4205.2,305.415,304.89666666666665,314.618,314.4185,21.930222222222223,20.6023,21.93,21.4495,314.999998,314.999998,324.999988,324.999988,99.55857142857143,99.5074,99.56674285714286,99.54694285714285,0.09175000000000022,-0.03533333333333322,-0.091,0.13666666666666666,-0.04999999999999716,-0.04833333333333201,1.517,1.5066666666666666,38.064,29.764499999999998,38.063,35.0595,55.891999999999996,35.103,59.4415,52.4105,53.828,34.2405,58.0325,50.7435,52.986000000000004,33.7945,57.9465,50.156333333333336,-0.09150000000000003,-0.056499999999999995,0.1038,0.11064500000000001,0.0,212.57999999999998,212.575,209.36666666666667,209.36666666666667,0.0,0.0
18,0.0,0.0,0.0,1.0,1.0,0.0,0.0,1.0,0.0,0.0,1.0,1.1856,26.0,0.0,0.0,0.0,59.999996,0.0,26.0,26.0,26.0,26.0,0.052444444444444294,0.2703,0.015475000000000001,292.679,-2.6532,-2.7481,-1.5317,-1.59,-215.2,215.3175,190.6165,0.0,0.0,0.0,0.0,0.036766666666666614,-5.498166666666667,-5.498166666666667,-0.5613,-0.321,0.0013333333333331865,0.859,68.026,0.0148,-0.224825,-0.1639999999999997,100.0,1.0,1.0,209.80333333333334,0.0,0.0,0.0,0.0,0.0,0.0,0.0,8892.8,0.0,55.0,5.0,244.86666666666667,0.0,0.0,0.0,0.0,0.0,0.0,1.0,0.0,0.9089999999999989,0.9089999999999989,0.0,0.0,0.0,55.0,616.79921,10000.0,85.000001,85.000001,85.000001,85.000001,395.0,0.0,0.0,0.0,1.0,166.665,52.597,52.597,48.05,48.05,34.0,-22.1575,25.734,-26.189999999999998,30.8375,0.0,1782.272,-0.19500000000000028,100.0,27.89,27.75,42.917,43.114000000000004,0.0,0.0,100.0,0.0,0.0,0.0,0.0,3026.142857142857,3117.7,4006.5,4156.9,305.559,304.8883333333333,315.0225,314.50425,21.939666666666668,20.6078,21.9404,21.4587,314.999998,314.999998,324.999988,324.999988,99.55857142857143,99.5074,99.5669,99.5471,0.09699999999999998,-0.03866666666666663,-0.08583333333333333,0.13933333333333334,-0.04833333333333201,-0.061666666666667425,1.525,1.5113333333333334,38.123000000000005,29.7985,38.128,35.1165,55.879000000000005,35.14,59.480000000000004,52.4725,53.816,34.275,58.068,50.803,52.973,33.8275,57.979,50.214666666666666,-0.09450000000000003,-0.0625,0.10008500000000001,0.10475500000000001,0.0,212.99,213.01,209.80333333333334,209.80333333333334,0.0,0.0
19,0.0,0.0,0.0,1.0,1.0,0.0,0.0,1.0,0.0,0.0,1.0,1.1856,26.0,0.0,0.0,0.0,59.999996,0.0,26.0,26.0,26.0,26.0,0.031222222222222262,0.2811000000000001,0.0247,292.358,-2.6325,-2.7123,-1.53445,-1.6069,-211.93,215.315,190.595125,0.0,0.0,0.0,0.0,0.038666666666666516,-5.498166666666667,-5.498166666666667,-0.5511,0.5376666666666666,0.010888888888888948,0.7949999999999999,68.155,0.009000000000000001,-0.21345,-0.09200000000000053,100.0,1.0,1.0,210.19666666666666,0.0,0.0,0.0,0.0,0.0,0.0,0.0,8909.5,0.0,55.0,5.0,245.32999999999998,1.0,0.0,0.0,0.0,0.0,0.0,1.0,0.0,0.9570000000000007,0.9570000000000007,0.0,0.0,1.0,55.0,616.79921,10000.0,85.000001,85.000001,85.000001,85.000001,395.0,0.0,0.0,0.0,1.0,166.665,52.2,52.2,47.882,47.882,34.0,-22.215,25.296,-27.083333333333336,31.4175,0.0,1782.224,-0.16499999999999915,100.0,28.371,28.153,42.882,43.174,0.0,0.0,100.0,0.0,0.0,0.0,0.0,3028.285714285714,3103.1,4092.125,4227.6,305.5205,304.9103333333333,314.8615,314.35875,21.948777777777778,20.613,21.9502,21.4672,314.999998,314.999998,324.999988,324.999988,99.5586,99.5074,99.56702857142857,99.54722857142858,0.09275000000000011,-0.038999999999999924,-0.09,0.134,-0.05333333333332746,-0.03999999999999915,1.52,1.5083333333333333,38.18,29.8315,38.189,35.17,55.869,35.1775,59.515,52.5305,53.806,34.3095,58.1005,50.859,52.961,33.861000000000004,58.009,50.269333333333336,-0.09250000000000003,-0.0625,0.09775500000000001,0.11735000000000001,0.0,213.425,213.405,210.19666666666666,210.19666666666666,0.0,0.0
20,0.0,0.0,0.0,1.0,1.0,0.0,0.0,1.0,0.0,0.0,1.0,1.1856,26.0,0.0,0.0,0.0,59.999996,0.0,26.0,26.0,26.0,26.0,0.029444444444444384,0.2563,-0.031575,292.465,-2.7071,-2.6588000000000003,-1.6075,-1.5885,-208.45,215.3125,190.57275,0.0,0.0,0.0,0.0,0.04066666666666652,-5.498166666666667,-5.498166666666667,-0.5559000000000001,-0.6573333333333334,0.008888888888888946,-0.909,68.293,0.004200000000000001,-0.225475,0.016000000000000014,100.0,1.0,1.0,210.61666666666667,0.0,0.0,0.0,0.0,0.0,0.0,0.0,8927.3,0.0,55.0,5.0,245.82666666666665,0.0,0.0,0.0,0.0,0.0,0.0,0.0,0.0,1.0079999999999991,1.0079999999999991,0.0,0.0,0.0,55.0,616.79921,10000.0,85.000001,85.000001,85.000001,85.000001,395.0,0.0,0.0,0.0,1.0,333.33500000000004,52.536,52.536,47.455,47.455,34.0,-24.0,23.784,-30.083333333333336,28.0,0.0,1782.172,-0.1999999999999993,100.0,27.831,28.061,43.269999999999996,43.625,0.0,0.0,100.0,0.0,0.0,0.0,0.0,3118.714285714286,3038.2,4178.0,3991.9,305.512,305.039,314.79075,314.83875,21.958111111111112,20.6185,21.9607,21.476399999999998,314.999998,314.999998,324.999988,324.999988,99.5586,99.50741666666667,99.56718571428571,99.54737142857142,0.07825000000000015,-0.052000000000000046,-0.11716666666666667,0.10883333333333334,-0.03333333333333144,-0.05666666666667197,1.512,1.502,38.239000000000004,29.866,38.254000000000005,35.228,55.855000000000004,35.216,59.555,52.5935,53.793,34.345,58.138,50.9195,52.947,33.894999999999996,58.043,50.32866666666666,-0.09550000000000003,-0.062000000000000055,0.10207000000000001,0.10749500000000001,0.0,213.805,213.82,210.61666666666667,210.61666666666667,0.0,0.0
21,0.0,0.0,0.0,1.0,1.0,0.0,0.0,1.0,0.0,0.0,1.0,1.1856,26.0,0.0,0.0,0.0,59.999996,0.0,26.0,26.0,26.0,26.0,0.011666666666666714,0.2662,-0.0383,292.618,-2.7212,-2.6328,-1.5670000000000002,-1.5319,-205.17000000000002,215.31,190.551125,0.0,0.0,0.0,0.0,0.04259999999999997,-5.498166666666667,-5.498166666666667,-0.5729000000000001,0.034333333333333334,-0.002000000000000224,-0.698,68.42,0.0053,-0.22262500000000002,-0.04399999999999871,100.0,1.0,1.0,211.09,0.0,0.0,0.0,0.0,0.0,0.0,0.0,8947.4,0.0,55.0,5.0,246.28333333333336,1.0,0.0,0.0,0.0,0.0,0.0,0.0,0.0,1.056000000000001,1.056000000000001,0.0,0.0,1.0,55.0,616.79921,10000.0,85.000001,85.000001,85.000001,85.000001,395.0,0.0,0.0,0.0,1.0,166.665,52.399,52.399,48.065,48.065,34.0,-25.134999999999998,23.842,-28.240000000000002,27.22,0.0,1782.124,-0.19500000000000028,100.0,27.872,27.905,42.987,43.219,0.0,0.0,100.0,0.0,0.0,0.0,0.0,3227.142857142857,3089.2,4055.875,4026.7,305.1835,304.9236666666667,315.042,314.889,21.967111111111112,20.6237,21.970399999999998,21.4849,314.999998,314.999998,324.999988,324.999988,99.55861428571428,99.50741666666667,99.56731428571429,99.54751428571429,0.07825000000000015,-0.05466666666666664,-0.115,0.1105,-0.04833333333333201,-0.03499999999999659,1.5546666666666666,1.5573333333333332,38.294,29.898,38.315,35.2805,55.843,35.251999999999995,59.589,52.649,53.781,34.3785,58.1695,50.973,52.935,33.927,58.072,50.381,-0.09299999999999997,-0.06550000000000011,0.11184500000000001,0.10296500000000001,0.0,214.22500000000002,214.20499999999998,211.09,211.09,0.0,0.0
22,0.0,0.0,0.0,1.0,1.0,0.0,0.0,1.0,0.0,0.0,1.0,1.1856,26.0,0.0,0.0,0.0,59.999996,0.0,26.0,26.0,26.0,26.0,0.002888888888888941,0.2763,0.0129,292.13,-2.7577,-2.6663,-1.57305,-1.4978,-201.68,215.3075,190.527375,0.0,0.0,0.0,0.0,0.0446333333333333,-5.498166666666667,-5.498166666666667,-0.5586,0.02766666666666667,0.009666666666666712,1.109,68.55799999999999,0.004,-0.201275,-0.14400000000000013,100.0,1.0,1.0,211.3466666666667,0.0,0.0,0.0,0.0,0.0,0.0,0.0,8958.3,0.0,55.0,5.0,246.78,0.0,0.0,0.0,0.0,0.0,0.0,0.0,0.0,1.1069999999999993,1.1069999999999993,0.0,0.0,0.0,55.0,616.79921,10000.0,85.000001,85.000001,85.000001,85.000001,395.0,0.0,0.0,0.0,1.0,333.33500000000004,52.368,52.368,47.226,47.226,34.0,-24.02,25.451999999999998,-29.71,30.8625,0.0,1782.072,-0.27999999999999936,100.0,28.092,27.833,43.228,43.221000000000004,0.0,0.0,100.0,0.0,0.0,0.0,0.0,3106.285714285714,3198.5,4241.125,4432.7,305.418,304.7776666666667,314.48775,313.96775,21.976444444444443,20.6293,21.9808,21.494,314.999998,314.999998,324.999988,324.999988,99.55862857142857,99.50743333333334,99.56745714285714,99.54765714285715,0.08999999999999986,-0.04200000000000004,-0.10216666666666667,0.11950000000000001,-0.03166666666666629,-0.06666666666666998,1.479,1.4736666666666665,38.352999999999994,29.933,38.379999999999995,35.338,55.831,35.2915,59.628,52.710499999999996,53.769,34.414500000000004,58.206,51.0325,52.922,33.9615,58.105000000000004,50.439,-0.09450000000000003,-0.05499999999999994,0.11120500000000001,0.10505500000000001,0.0,214.65,214.67000000000002,211.3466666666667,211.3466666666667,0.0,0.0
23,0.0,0.0,0.0,1.0,1.0,0.0,0.0,1.0,0.0,0.0,1.0,1.1856,26.0,0.0,0.0,0.0,59.999996,0.0,26.0,26.0,26.0,26.0,0.015666666666666718,0.27659999999999996,0.008375,292.053,-2.6625,-2.6842,-1.63975,-1.538,-198.18,215.305,190.503875,0.0,0.0,0.0,0.0,0.04666666666666652,-5.498166666666667,-5.498166666666667,-0.5727,-0.24666666666666667,0.0067777777777777715,-0.7370000000000001,68.693,0.0032,-0.22515000000000002,-0.09999999999999964,100.0,1.0,1.0,211.81,0.0,0.0,0.0,0.0,0.0,0.0,0.0,8977.9,0.0,55.0,5.0,247.26666666666665,1.0,0.0,0.0,0.0,0.0,0.0,0.0,0.0,1.1580000000000013,1.1580000000000013,0.0,0.0,1.0,55.0,616.79921,10000.0,85.000001,85.000001,85.000001,85.000001,395.0,0.0,0.0,0.0,1.0,166.665,52.048,52.048,47.363,47.363,34.0,-24.39,24.39,-31.053333333333335,29.1575,0.0,1782.023,-0.3049999999999997,100.0,28.182,28.222,43.28,43.586,0.0,0.0,100.0,0.0,0.0,0.0,0.0,3227.0,3054.5,4289.625,4187.9,305.092,304.939,314.52325,314.4775,21.985888888888887,20.634900000000002,21.9913,21.5033,314.999998,314.999998,324.999988,324.999988,99.55862857142857,99.50743333333334,99.56761428571428,99.5478,0.0847500000000001,-0.047666666666666746,-0.10816666666666667,0.1155,-0.046666666666666856,-0.04333333333332945,1.5116666666666667,1.504,38.412,29.968,38.445,35.3955,55.818,35.3305,59.6665,52.772999999999996,53.757,34.4505,58.242,51.092,52.909,33.996,58.138,50.49766666666667,-0.10250000000000004,-0.05800000000000005,0.104965,0.11378,0.0,215.04500000000002,215.05,211.81,211.81,0.0,0.0
24,0.0,0.0,0.0,1.0,1.0,0.0,0.0,1.0,0.0,0.0,1.0,1.1856,26.0,0.0,0.0,0.0,59.999996,0.0,26.0,26.0,26.0,26.0,0.027666666666666728,0.2741,-0.043025,292.511,-2.7092,-2.688,-1.5483500000000001,-1.5563,-194.87,215.305,190.48125,0.0,0.0,0.0,0.0,0.048566666666666536,-5.498166666666667,-5.498166666666667,-0.5870000000000001,-0.3936666666666667,0.014222222222222136,-0.2530000000000001,68.82,0.004,-0.2247,-0.15399999999999991,100.0,1.0,1.0,212.2266666666667,0.0,0.0,0.0,0.0,0.0,0.0,0.0,8995.5,0.0,55.0,5.0,247.72333333333336,0.0,0.0,0.0,0.0,0.0,0.0,0.0,0.0,1.2059999999999995,1.2059999999999995,0.0,0.0,0.0,55.0,616.79921,10000.0,85.000001,85.000001,85.000001,85.000001,395.0,0.0,0.0,0.0,1.0,166.665,52.689,52.689,47.577,47.577,34.0,-22.9775,23.592,-29.006666666666664,28.200000000000003,0.0,1781.975,-0.3149999999999995,100.0,28.001,27.999,43.217,43.49,0.0,0.0,100.0,0.0,0.0,0.0,0.0,3054.857142857143,2985.7,4146.375,4092.4,305.695,305.191,314.77675,314.6845,21.994666666666667,20.64,22.001,21.5119,314.999998,314.999998,324.999988,324.999988,99.55864285714286,99.50743333333334,99.56774285714286,99.54794285714286,0.09025000000000016,-0.05166666666666675,-0.11516666666666667,0.10883333333333334,-0.05333333333332746,-0.03166666666666629,1.5176666666666667,1.531,38.467,30.0,38.506,35.449,55.806,35.366,59.701499999999996,52.829499999999996,53.745999999999995,34.483000000000004,58.2745,51.147,52.897,34.0275,58.167500000000004,50.551,-0.10749999999999993,-0.05449999999999999,0.109005,0.10779000000000001,0.0,215.45,215.44,212.2266666666667,212.2266666666667,0.0,0.0
25,0.0,0.0,0.0,1.0,1.0,0.0,0.0,1.0,0.0,0.0,1.0,1.1856,26.0,0.0,0.0,0.0,59.999996,0.0,26.0,26.0,26.0,26.0,0.014111111111111185,0.27290000000000014,-0.0022,292.221,-2.6816,-2.6647,-1.588,-1.5514999999999999,-191.36,215.3025,190.456,0.0,0.0,0.0,0.0,0.05059999999999998,-5.498166666666667,-5.498166666666667,-0.6014,0.17400000000000002,0.018777777777777782,0.268,68.953,0.006900000000000001,-0.218925,-0.25,100.0,1.0,1.0,212.67666666666668,0.0,0.0,0.0,0.0,0.0,0.0,0.0,9014.6,0.0,55.0,5.0,248.20333333333335,1.0,0.0,0.0,0.0,0.0,0.0,0.0,0.0,1.256999999999998,1.256999999999998,0.0,0.0,1.0,55.0,616.79921,10000.0,85.000001,85.000001,85.000001,85.000001,395.0,0.0,0.0,0.0,1.0,333.33500000000004,51.834,51.834,47.791,47.791,34.0,-23.6525,26.866,-27.46,29.439999999999998,0.0,1781.922,-0.3100000000000005,100.0,28.128,28.085,43.058,43.222,0.0,0.0,100.0,0.0,0.0,0.0,0.0,3183.285714285714,3325.8,4041.25,4145.3,305.1065,304.297,315.0725,314.63025,22.004,20.6457,22.0113,21.5209,314.999998,314.999998,324.999988,324.999988,99.55865714285714,99.50745,99.5679,99.5481,0.10024999999999995,-0.03933333333333322,-0.09483333333333333,0.12883333333333336,-0.03999999999999915,-0.060000000000002274,1.549,1.5463333333333333,38.525,30.0355,38.57,35.506,55.792,35.4075,59.7395,52.8925,53.732,34.522,58.31,51.207499999999996,52.882999999999996,34.064499999999995,58.2,50.61033333333333,-0.10649999999999993,-0.055500000000000105,0.105035,0.10816,0.0,215.86,215.88,212.67666666666668,212.67666666666668,0.0,0.0
26,0.0,0.0,0.0,1.0,1.0,0.0,0.0,1.0,0.0,0.0,1.0,1.1856,26.0,0.0,0.0,0.0,59.999996,0.0,26.0,26.0,26.0,26.0,0.03644444444444428,0.2744,0.0536,291.412,-2.7106,-2.6543,-1.5540500000000002,-1.5554000000000001,-187.84,215.3025,190.430375,0.0,0.0,0.0,0.0,0.05266666666666653,-5.498166666666667,-5.498166666666667,-0.5739000000000001,0.264,0.009444444444444366,-0.563,69.089,0.0089,-0.202075,-0.17999999999999972,100.0,1.0,1.0,212.88666666666666,0.0,0.0,0.0,0.0,0.0,0.0,0.0,9023.5,0.0,55.0,5.0,248.69333333333333,0.0,0.0,0.0,0.0,0.0,0.0,0.0,0.0,1.3079999999999998,1.3079999999999998,0.0,0.0,0.0,55.0,616.79921,10000.0,85.000001,85.000001,85.000001,85.000001,395.0,0.0,0.0,0.0,1.0,166.665,51.697,51.697,46.707,46.707,34.0,-24.8175,24.32,-30.706666666666663,32.1725,0.0,1781.873,-0.3100000000000005,100.0,28.631,28.606,43.49,43.834,0.0,0.0,100.0,0.0,0.0,0.0,0.0,3265.142857142857,3069.8,4457.125,4430.7,305.0965,305.0043333333333,314.07625,313.817,22.013444444444445,20.6514,22.0218,21.5302,314.999998,314.999998,324.999988,324.999988,99.55867142857143,99.50745,99.56804285714286,99.54824285714285,0.09050000000000002,-0.04366666666666674,-0.0925,0.12033333333333333,-0.04999999999999716,-0.041666666666671404,1.4526666666666666,1.438,38.584,30.070999999999998,38.635999999999996,35.564,55.783,35.445,59.7775,52.9525,53.723,34.5565,58.3455,51.265,52.872,34.0975,58.232,50.666666666666664,-0.10849999999999993,-0.05449999999999999,0.09705000000000001,0.10426500000000001,0.0,216.315,216.31,212.88666666666666,212.88666666666666,0.0,0.0
27,0.0,0.0,0.0,1.0,1.0,0.0,0.0,1.0,0.0,0.0,1.0,1.1856,26.0,0.0,0.0,0.0,59.999996,0.0,26.0,26.0,26.0,26.0,0.02155555555555555,0.2622,-0.045225,291.824,-2.7559,-2.6654,-1.61455,-1.5358,-184.51999999999998,215.3025,190.40725,0.0,0.0,0.0,0.0,0.05459999999999998,-5.498166666666667,-5.498166666666667,-0.5974,-0.768,0.01911111111111108,-0.579,69.213,0.0108,-0.23775000000000002,-0.21199999999999974,100.0,1.0,1.0,213.40333333333334,0.0,0.0,0.0,0.0,0.0,0.0,0.0,9045.4,0.0,55.0,5.0,249.14,1.0,0.0,0.0,0.0,0.0,0.0,0.0,0.0,1.355999999999998,1.355999999999998,0.0,0.0,1.0,55.0,616.79921,10000.0,85.000001,85.000001,85.000001,85.000001,395.0,0.0,0.0,0.0,1.0,333.33500000000004,51.926,51.926,46.783,46.783,34.0,-24.015,24.572000000000003,-29.363333333333333,28.697499999999998,0.0,1781.823,-0.3349999999999991,100.0,28.309,28.618000000000002,43.894999999999996,44.105000000000004,0.0,0.0,100.0,0.0,0.0,0.0,0.0,3159.4285714285716,3113.4,4164.125,4106.2,305.4415,304.786,314.798,314.706,22.022222222222222,20.6567,22.0317,21.539,314.999998,314.999998,324.999988,324.999988,99.55867142857143,99.50746666666667,99.56818571428572,99.54837142857143,0.09650000000000025,-0.052000000000000046,-0.10250000000000001,0.12133333333333333,-0.045000000000001705,-0.051666666666669414,1.5166666666666666,1.5113333333333334,38.638999999999996,30.1045,38.698,35.619,55.771,35.482,59.814,53.0105,53.712,34.5905,58.3795,51.321,52.86,34.129999999999995,58.2635,50.721333333333334,-0.11049999999999993,-0.056499999999999995,0.10161500000000001,0.10855000000000001,0.0,216.66,216.65,213.40333333333334,213.40333333333334,0.0,0.0
28,0.0,0.0,0.0,1.0,1.0,0.0,0.0,1.0,0.0,0.0,1.0,1.1856,26.0,0.0,0.0,0.0,59.999996,0.0,26.0,26.0,26.0,26.0,0.02633333333333332,0.26890000000000014,-0.043075,291.946,-2.6829,-2.6549,-1.62775,-1.5655999999999999,-180.99,215.3025,190.381875,0.0,0.0,0.0,0.0,0.05663333333333331,-5.498166666666667,-5.498166666666667,-0.6009,0.5153333333333334,0.007888888888888834,0.31799999999999995,69.344,0.011000000000000001,-0.21607500000000002,-0.3160000000000007,100.0,1.0,1.0,213.86666666666667,0.0,0.0,0.0,0.0,0.0,0.0,0.0,9065.0,0.0,55.0,5.0,249.61,0.0,0.0,0.0,0.0,0.0,0.0,0.0,0.0,1.407,1.407,0.0,0.0,0.0,55.0,616.79921,10000.0,85.000001,85.000001,85.000001,85.000001,395.0,0.0,0.0,0.0,1.0,166.665,51.91,51.91,47.195,47.195,34.0,-22.025,26.174,-28.743333333333332,30.189999999999998,0.0,1781.774,-0.40000000000000036,100.0,28.549,28.457,43.456,43.676,0.0,0.0,100.0,0.0,0.0,0.0,0.0,3048.285714285714,3202.3,4167.5,4169.4,305.5105,304.701,314.83425,314.6215,22.031555555555556,20.662399999999998,22.0419,21.548099999999998,314.999998,314.999998,324.999988,324.999988,99.5587,99.50746666666667,99.56832857142857,99.54852857142858,0.11175000000000024,-0.02633333333333332,-0.08983333333333333,0.13516666666666666,-0.05333333333332746,-0.061666666666667425,1.545,1.5303333333333333,38.697,30.14,38.762,35.6755,55.76,35.5215,59.8485,53.0695,53.701,34.6275,58.411500000000004,51.378,52.848,34.1655,58.292,50.777,-0.11199999999999999,-0.04849999999999999,0.10447000000000001,0.10451500000000001,0.0,217.095,217.09,213.86666666666667,213.86666666666667,0.0,0.0
29,0.0,0.0,0.0,1.0,1.0,0.0,0.0,1.0,0.0,0.0,1.0,1.1856,26.0,0.0,0.0,0.0,59.999996,0.0,26.0,26.0,26.0,26.0,0.051444444444444404,0.2539,-0.022500000000000003,291.87,-2.7555,-2.5852,-1.6022500000000002,-1.5522,-177.45,215.305,190.3555,0.0,0.0,0.0,0.0,0.058699999999999974,-5.498166666666667,-5.498166666666667,-0.6055,-0.7183333333333334,-0.0022222222222221255,-0.8,69.47800000000001,0.014,-0.2156,-0.2879999999999985,100.0,1.0,1.0,214.15,0.0,0.0,0.0,0.0,0.0,0.0,0.0,9077.1,0.0,55.0,5.0,250.09333333333336,1.0,0.0,0.0,0.0,0.0,0.0,0.0,0.0,1.4579999999999984,1.4579999999999984,0.0,0.0,1.0,55.0,616.79921,10000.0,85.000001,85.000001,85.000001,85.000001,395.0,0.0,0.0,0.0,1.0,166.665,52.277,52.277,46.967,46.967,34.0,-24.36,24.018,-30.133333333333333,30.9175,0.0,1781.724,-0.4399999999999995,100.0,28.054,28.334,43.717,44.042,0.0,0.0,100.0,0.0,0.0,0.0,0.0,3247.4285714285716,3094.3,4232.875,4238.3,305.348,305.0883333333333,314.63225,314.31175,22.040777777777777,20.668,22.0524,21.5574,314.999998,314.999998,324.999988,324.999988,99.55871428571429,99.50748333333334,99.56847142857143,99.54868571428571,0.10175000000000001,-0.03733333333333322,-0.10616666666666667,0.1325,-0.05666666666667197,-0.04333333333332945,1.4849999999999999,1.4766666666666666,38.754999999999995,30.174999999999997,38.827,35.734,55.747,35.559,59.8885,53.1315,53.689,34.662,58.448499999999996,51.4375,52.835,34.198499999999996,58.326,50.835,-0.11849999999999994,-0.044499999999999984,0.10814000000000001,0.11191500000000001,0.0,217.48000000000002,217.47500000000002,214.15,214.15,0.0,0.0
30,0.0,0.0,0.0,1.0,1.0,0.0,0.0,1.0,0.0,0.0,1.0,1.1856,26.0,0.0,0.0,0.0,59.999996,0.0,26.0,26.0,26.0,26.0,0.05011111111111122,0.2613000000000001,-0.01035,291.183,-2.7279999999999998,-2.6466000000000003,-1.6520000000000001,-1.4655,-174.11,215.305,190.330625,0.0,0.0,0.0,0.0,0.06063333333333332,-5.498166666666667,-5.498166666666667,-0.6064,0.847,0.004444444444444251,-0.2370000000000001,69.599,0.015700000000000002,-0.21675,-0.3160000000000007,100.0,1.0,1.0,214.62,0.0,0.0,0.0,0.0,0.0,0.0,0.0,9096.9,0.0,55.0,5.0,250.53,0.0,0.0,0.0,0.0,0.0,0.0,1.0,0.0,1.5060000000000002,1.5060000000000002,0.0,0.0,0.0,55.0,616.79921,10000.0,85.000001,85.000001,85.000001,85.000001,395.0,0.0,0.0,0.0,1.0,333.33500000000004,50.583,50.583,47.028,47.028,34.0,-25.34,27.092,-30.4,28.98,0.0,1781.674,-0.4949999999999992,100.0,28.998,29.028,43.524,43.93,0.0,0.0,100.0,0.0,0.0,0.0,0.0,3401.5714285714284,3309.5,4247.5,4233.2,304.549,304.045,314.72725,314.5595,22.049777777777777,20.6735,22.0621,21.5661,314.999998,314.999998,324.999988,324.999988,99.55872857142857,99.50748333333334,99.56861428571429,99.54881428571429,0.11275000000000013,-0.03600000000000003,-0.10300000000000001,0.13,-0.036666666666668846,-0.054999999999999716,1.5306666666666666,1.5263333333333333,38.811,30.2095,38.888,35.788,55.739999999999995,35.598,59.9215,53.188,53.682,34.698,58.4795,51.4915,52.827,34.233000000000004,58.354,50.888333333333335,-0.12649999999999995,-0.04699999999999993,0.10983000000000001,0.10536500000000001,0.0,217.86,217.89499999999998,214.62,214.62,0.0,0.0
31,0.0,0.0,0.0,1.0,1.0,0.0,0.0,1.0,0.0,0.0,1.0,1.1856,26.0,0.0,0.0,0.0,59.999996,0.0,26.0,26.0,26.0,26.0,0.031444444444444386,0.254,0.074225,290.71,-2.7021,-2.6265,-1.64715,-1.542,-170.56,215.31,190.30475,0.0,0.0,0.0,0.0,0.06269999999999998,-5.498166666666667,-5.498166666666667,-0.5861000000000001,-0.3413333333333333,0.01822222222222214,0.946,69.733,0.021500000000000002,-0.21887500000000001,-0.47199999999999953,100.0,1.0,1.0,214.82666666666665,0.0,0.0,0.0,0.0,0.0,0.0,0.0,9105.7,0.0,55.0,5.0,251.01333333333332,1.0,0.0,0.0,0.0,0.0,0.0,1.0,0.0,1.5569999999999986,1.5569999999999986,0.0,0.0,1.0,55.0,616.79921,10000.0,85.000001,85.000001,85.000001,85.000001,395.0,0.0,0.0,0.0,1.0,333.33500000000004,51.025,51.025,45.578,45.578,34.0,-21.884999999999998,27.612000000000002,-30.733333333333334,33.682500000000005,0.0,1781.623,-0.42499999999999893,100.0,29.041,29.068,44.42,44.659,0.0,0.0,100.0,0.0,0.0,0.0,0.0,3082.5714285714284,3393.7,4319.25,4460.5,305.3655,304.18733333333336,314.2685,313.7805,22.05922222222222,20.6793,22.0727,21.575499999999998,314.999998,314.999998,324.999988,324.999988,99.55874285714286,99.50748333333334,99.56875714285714,99.54897142857143,0.12725000000000009,-0.02733333333333321,-0.08283333333333333,0.14383333333333334,-0.03166666666666629,-0.045000000000001705,1.4273333333333333,1.4126666666666665,38.870000000000005,30.246000000000002,38.954,35.847,55.729,35.638,59.9625,53.253,53.672,34.735,58.518,51.554,52.816,34.2685,58.388999999999996,50.949333333333335,-0.12149999999999994,-0.05400000000000005,0.10935500000000001,0.10701500000000001,0.0,218.25,218.275,214.82666666666665,214.82666666666665,0.0,0.0
32,0.0,0.0,0.0,1.0,1.0,0.0,0.0,1.0,0.0,0.0,1.0,1.1856,26.0,0.0,0.0,0.0,59.999996,0.0,26.0,26.0,26.0,26.0,0.0665555555555557,0.2570000000000001,-0.035575,291.397,-2.7056,-2.6762,-1.5921500000000002,-1.6159,-167.0,215.3125,190.279375,0.0,0.0,0.0,0.0,0.06476666666666653,-5.498166666666667,-5.498166666666667,-0.6068,-0.3423333333333333,-0.001777777777777878,-1.0590000000000002,69.86,0.025400000000000002,-0.233275,-0.36599999999999966,100.0,1.0,1.0,215.37333333333333,0.0,0.0,0.0,0.0,0.0,0.0,0.0,9128.9,0.0,55.0,5.0,251.47,0.0,0.0,0.0,0.0,0.0,0.0,1.0,0.0,1.6080000000000005,1.6080000000000005,0.0,0.0,0.0,55.0,616.79921,10000.0,85.000001,85.000001,85.000001,85.000001,395.0,0.0,0.0,0.0,1.0,166.665,51.59,51.59,46.692,46.692,34.0,-22.9025,25.27,-27.733333333333334,31.325,0.0,1781.573,-0.42499999999999893,100.0,28.708,29.066,44.141,44.65,0.0,0.0,100.0,0.0,0.0,0.0,0.0,3146.5714285714284,3091.5,4088.25,4190.7,305.434,304.868,314.94475,314.42525,22.068444444444445,20.6851,22.0831,21.5848,314.999998,314.999998,324.999988,324.999988,99.55875714285715,99.50748333333334,99.56891428571429,99.54911428571428,0.11025000000000018,-0.03299999999999992,-0.08700000000000001,0.13266666666666665,-0.05666666666667197,-0.03499999999999659,1.5096666666666667,1.501,38.928,30.282,39.019,35.905,55.718,35.677,59.9985,53.3135,53.661,34.771,58.5515,51.6125,52.804,34.303,58.419,51.006,-0.11549999999999994,-0.05400000000000005,0.10971000000000002,0.10627500000000001,0.0,218.66,218.67000000000002,215.37333333333333,215.37333333333333,0.0,0.0
33,0.0,0.0,0.0,1.0,1.0,0.0,0.0,1.0,0.0,0.0,1.0,1.1856,26.0,0.0,0.0,0.0,59.999996,0.0,26.0,26.0,26.0,26.0,0.04166666666666674,0.2519,-0.07312500000000001,291.656,-2.7104,-2.6532,-1.65525,-1.5845,-163.43,215.32,190.252625,0.0,0.0,0.0,0.0,0.0668333333333333,-5.498166666666667,-5.498166666666667,-0.6159,-0.17133333333333334,-0.0033333333333334103,0.978,69.989,0.025400000000000002,-0.21507500000000002,-0.41000000000000014,100.0,1.0,1.0,215.7866666666667,0.0,0.0,0.0,0.0,0.0,0.0,0.0,9146.4,0.0,55.0,5.0,251.93333333333334,1.0,0.0,0.0,0.0,0.0,0.0,1.0,0.0,1.658999999999999,1.658999999999999,0.0,0.0,1.0,55.0,616.79921,10000.0,85.000001,85.000001,85.000001,85.000001,395.0,0.0,0.0,0.0,1.0,166.665,51.894999999999996,51.894999999999996,47.012,47.012,34.0,-21.9325,25.922,-28.799999999999997,31.8775,0.0,1781.523,-0.4499999999999993,100.0,28.687,28.613,43.946,44.275999999999996,0.0,0.0,100.0,0.0,0.0,0.0,0.0,3062.0,3149.3,4116.0,4221.0,305.533,304.9513333333333,314.95,314.493,22.077666666666666,20.6908,22.0934,21.594,314.999998,314.999998,324.999988,324.999988,99.55877142857143,99.5075,99.56905714285715,99.54927142857143,0.12124999999999986,-0.01766666666666672,-0.08983333333333333,0.15133333333333335,-0.03166666666666629,-0.041666666666671404,1.528,1.5110000000000001,38.985,30.317,39.084,35.9625,55.707,35.7145,60.0345,53.3725,53.65,34.8055,58.585,51.669,52.792,34.336,58.4495,51.06166666666667,-0.119,-0.04499999999999993,0.10918000000000001,0.110975,0.0,219.04000000000002,219.07999999999998,215.7866666666667,215.7866666666667,0.0,0.0
34,0.0,0.0,0.0,1.0,1.0,0.0,0.0,1.0,0.0,0.0,1.0,1.1856,26.0,0.0,0.0,0.0,59.999996,0.0,26.0,26.0,26.0,26.0,0.03844444444444428,0.2610000000000001,-0.087925,291.916,-2.6685,-2.6805,-1.6274000000000002,-1.5221,-160.07,215.325,190.22625,0.0,0.0,0.0,0.0,0.06879999999999997,-5.498166666666667,-5.498166666666667,-0.6424000000000001,-0.8833333333333334,0.01866666666666661,0.909,70.111,0.024800000000000003,-0.220925,-0.3960000000000008,100.0,1.0,1.0,216.11,0.0,0.0,0.0,0.0,0.0,0.0,0.0,9160.2,0.0,55.0,5.0,252.37333333333333,0.0,0.0,0.0,0.0,0.0,0.0,1.0,0.0,1.7070000000000007,1.7070000000000007,0.0,0.0,0.0,55.0,616.79921,10000.0,85.000001,85.000001,85.000001,85.000001,395.0,0.0,0.0,0.0,1.0,166.665,52.46,52.46,47.134,47.134,34.0,-21.0775,25.4,-27.543333333333337,31.1575,0.0,1781.474,-0.4599999999999991,100.0,28.348,28.328,43.848,44.345,0.0,0.0,100.0,0.0,0.0,0.0,0.0,2956.5714285714284,3081.2,4097.375,4268.7,305.878,305.1906666666667,314.92975,314.365,22.086222222222222,20.696,22.1031,21.6027,314.999998,314.999998,324.999988,324.999988,99.55878571428572,99.5075,99.5692,99.54941428571429,0.11100000000000021,-0.01966666666666672,-0.07333333333333333,0.14516666666666667,-0.02499999999999858,-0.06833333333332803,1.5233333333333334,1.5056666666666667,39.039,30.35,39.144,36.016999999999996,55.695,35.7485,60.068,53.4305,53.638999999999996,34.837,58.616,51.725,52.778999999999996,34.366,58.4775,51.116,-0.11049999999999993,-0.04600000000000004,0.104895,0.11404500000000001,0.0,219.41500000000002,219.43,216.11,216.11,0.0,0.0
35,0.0,0.0,0.0,1.0,1.0,0.0,0.0,1.0,0.0,0.0,1.0,1.1856,26.0,0.0,0.0,0.0,59.999996,0.0,26.0,26.0,26.0,26.0,0.04133333333333322,0.25680000000000014,-0.0791,291.718,-2.7938,-2.6617,-1.53185,-1.5883,-156.28,215.335,190.1945,0.0,0.0,0.0,0.0,0.07099999999999995,-5.498166666666667,-5.498166666666667,-0.6779000000000001,0.058,-0.007777777777777661,-0.20900000000000007,70.245,0.0268,-0.22385000000000002,-0.347999999999999,100.0,1.0,1.0,216.60666666666668,0.0,0.0,0.0,0.0,0.0,0.0,0.0,9181.1,0.0,55.0,5.0,252.85333333333335,1.0,0.0,0.0,0.0,0.0,0.0,1.0,0.0,1.7609999999999992,1.7609999999999992,0.0,0.0,1.0,55.0,616.79921,10000.0,85.000001,85.000001,85.000001,85.000001,395.0,0.0,0.0,0.0,1.0,166.665,51.62,51.62,46.799,46.799,34.0,-23.585,27.95,-26.236666666666665,30.372500000000002,0.0,1781.42,-0.2599999999999998,100.0,28.346,28.75,43.616,43.86,0.0,0.0,100.0,0.0,0.0,0.0,0.0,3098.4285714285716,3363.2,4117.375,4101.2,305.4285,304.2056666666667,314.9365,314.84375,22.095777777777776,20.7022,22.114,21.6124,314.999998,314.999998,324.999988,324.999988,99.5588,99.5075,99.56935714285714,99.54957142857143,0.10850000000000026,-0.02299999999999991,-0.07466666666666667,0.14683333333333334,-0.04333333333332945,-0.03833333333332689,1.558,1.5493333333333332,39.099000000000004,30.3885,39.212,36.0775,55.681,35.7905,60.1045,53.4905,53.625,34.876,58.65,51.783,52.765,34.4035,58.507999999999996,51.173,-0.10449999999999993,-0.05899999999999994,0.10515500000000001,0.10790000000000001,0.0,219.84,219.865,216.60666666666668,216.60666666666668,0.0,0.0
36,0.0,0.0,0.0,1.0,1.0,0.0,0.0,1.0,0.0,0.0,1.0,1.1856,26.0,0.0,0.0,0.0,59.999996,0.0,26.0,26.0,26.0,26.0,0.042888888888888976,0.2558,0.001475,291.306,-2.6482,-2.7218999999999998,-1.6465,-1.5967,-152.9,215.3425,190.16525,0.0,0.0,0.0,0.0,0.07296666666666651,-5.498166666666667,-5.498166666666667,-0.662,-0.15966666666666665,-0.0434444444444444,0.399,70.368,0.0221,-0.203375,-0.266,100.0,1.0,1.0,216.77666666666667,0.0,0.0,0.0,0.0,0.0,0.0,0.0,9188.3,0.0,55.0,5.0,253.29666666666668,0.0,0.0,0.0,0.0,0.0,0.0,1.0,0.0,1.809000000000001,1.809000000000001,0.0,0.0,0.0,55.0,616.79921,10000.0,85.000001,85.000001,85.000001,85.000001,395.0,0.0,0.0,0.0,1.0,166.665,52.078,52.078,46.295,46.295,34.0,-20.52,25.212,-30.913333333333334,34.59,0.0,1781.372,-0.21999999999999886,100.0,28.801000000000002,28.641,43.966,44.206,0.0,0.0,100.0,0.0,0.0,0.0,0.0,2887.5714285714284,3077.5,4364.125,4498.2,305.852,305.055,314.24825,313.81925,22.104444444444443,20.7076,22.1238,21.6212,314.999998,314.999998,324.999988,324.999988,99.55881428571429,99.5075,99.5695,99.54971428571429,0.11299999999999999,-0.03699999999999992,-0.082,0.1445,-0.03833333333332689,-0.03166666666666629,1.4446666666666665,1.443,39.153,30.4225,39.274,36.1325,55.671,35.827,60.1405,53.5495,53.616,34.91,58.683,51.84,52.754000000000005,34.436,58.538,51.22833333333333,-0.09999999999999998,-0.06699999999999995,0.109145,0.107825,0.0,220.245,220.25,216.77666666666667,216.77666666666667,0.0,0.0
