,ABS Active,ABS Enabled,AID Allow Tire Blankets,AID Auto Blip,AID Auto Clutch,AID Auto Shift,AID Fuel Rate,AID Ideal Line,AID Mech Damage,AID Stability,AID Tire Wear Rate,Air Density,Air Temp,Ballast,Best Lap Delta,Best Lap Time,Brake Bias,Brake Pos,Brake Temp FL,Brake Temp FR,Brake Temp RL,Brake Temp RR,CG Accel Lateral,CG Accel Longitudinal,CG Accel Vertical,CG Height,Camber FL,Camber FR,Camber RL,Camber RR,Car Coord X,Car Coord Y,Car Coord Z,Car Damage Front,Car Damage Left,Car Damage Rear,Car Damage Right,Car Pos Norm,Caster FL,Caster FR,Chassis Pitch Angle,Chassis Pitch Rate,Chassis Roll Angle,Chassis Roll Rate,Chassis Velocity X,Chassis Velocity Y,Chassis Velocity Z,Chassis Yaw Rate,Clutch Pos,DRS Active,DRS Available,Drive Train Speed,ERS Heat Charging,ERS Is Charging,ERS Max Energy,ERS Power Level,ERS Recovery Level,Engine Brake Setting,Engine Limiter,Engine RPM,Flags,Fuel Level,Gear,Ground Speed,HR Sample Clock,In Pit,KERS Charge,KERS Deployed Energy,KERS Input,KERS Max Energy,LR Sample Clock,Lap Invalidated,Lap Time,Lap Time2,Last Lap Time,Last Sector Time,MR Sample Clock,Max Fuel,Max Power,Max RPM,Max Sus Travel FL,Max Sus Travel FR,Max Sus Travel RL,Max Sus Travel RR,Max Torque,Max Turbo Boost,Num Tires Off Track,Penalties Enabled,Position,Raw Data Sample Rate,Ride Height FL,Ride Height FR,Ride Height RL,Ride Height RR,Road Temp,Self Align Torque FL,Self Align Torque FR,Self Align Torque RL,Self Align Torque RR,Session Lap Count,Session Time Left,Steering Angle,Surface Grip,Suspension Travel FL,Suspension Travel FR,Suspension Travel RL,Suspension Travel RR,TC Active,TC Enabled,Throttle Pos,Tire Dirt Level FL,Tire Dirt Level FR,Tire Dirt Level RL,Tire Dirt Level RR,Tire Load FL,Tire Load FR,Tire Load RL,Tire Load RR,Tire Loaded Radius FL,Tire Loaded Radius FR,Tire Loaded Radius RL,Tire Loaded Radius RR,Tire Pressure FL,Tire Pressure FR,Tire Pressure RL,Tire Pressure RR,Tire Radius FL,Tire Radius FR,Tire Radius RL,Tire Radius RR,Tire Rubber Grip FL,Tire Rubber Grip FR,Tire Rubber Grip RL,Tire Rubber Grip RR,Tire Slip Angle FL,Tire Slip Angle FR,Tire Slip Angle RL,Tire Slip Angle RR,Tire Slip Ratio FL,Tire Slip Ratio FR,Tire Slip Ratio RL,Tire Slip Ratio RR,Tire Temp Core FL,Tire Temp Core FR,Tire Temp Core RL,Tire Temp Core RR,Tire Temp Inner FL,Tire Temp Inner FR,Tire Temp Inner RL,Tire Temp Inner RR,Tire Temp Middle FL,Tire Temp Middle FR,Tire Temp Middle RL,Tire Temp Middle RR,Tire Temp Outer FL,Tire Temp Outer FR,Tire Temp Outer RL,Tire Temp Outer RR,Toe In FL,Toe In FR,Toe In RL,Toe In RR,Turbo Boost,Wheel Angular Speed FL,Wheel Angular Speed FR,Wheel Angular Speed RL,Wheel Angular Speed RR,Wind Direction,Wind Speed
0,0.0,0.0,0.0,1.0,1.0,0.0,0.0,1.0,0.0,0.0,1.0,1.1856,26.0,0.0,0.0,0.0,59.99999,0.0,26.0,26.0,26.0,26.0,-0.04166666666666663,0.2984,0.04774,293.594,-2.7107,-2.4805,-1.5232999999999999,-1.5354,-275.63,215.91,190.987125,0.0,0.0,0.0,0.0,0.0016333333333333755,-5.498166666666667,-5.498166666666667,-0.5528000000000001,2.332,-0.01288888888888895,-0.5350000000000001,65.487,-0.0378,-0.2172,0.5039999999999996,100.0,1.0,1.0,202.19,0.0,0.0,0.0,0.0,0.0,0.0,0.0,8570.1,0.0,55.0,5.0,235.72,0.0,0.0,0.0,0.0,0.0,0.0,0.0,0.0,0.0030000000000001137,0.0030000000000001137,0.0,0.0,0.0,55.0,616.79921,10000.0,85.0,85.0,85.0,85.0,395.0,0.0,0.0,0.0,1.0,20.0,51.834,51.834,49.072,49.072,34.0,-28.185000000000002,24.14,-30.769999999999996,25.6675,0.0,1783.75,0.7600000000000016,100.0,27.426,27.173000000000002,40.374,40.056,0.0,0.0,100.0,0.0,0.0,0.0,0.0,3156.4285714285716,3692.6000000000004,4171.25,4102.6,305.1,302.84325,314.698,314.6535,21.792,20.5155,21.7551,21.3008,314.99999,314.99999,324.99998,324.99998,99.5598,99.50723333333333,99.56452857142857,99.5447,-0.0043333333333333,-0.12166666666666681,-0.15749999999999997,0.06933333333333325,-0.046666666666666856,-0.04833333333333201,1.5485,1.565,37.2,29.2215,36.969,34.129999999999995,56.585,34.5175,58.8375,51.43,54.473,33.6765,57.4705,49.802,53.625,33.229,57.433,49.23433333333333,-0.02100000000000002,-0.13050000000000006,0.10799,0.10452,0.0,205.23000000000002,205.195,202.19,202.19,0.0,0.0
1,0.0,0.0,0.0,1.0,1.0,0.0,0.0,1.0,0.0,0.0,1.0,1.1856,26.0,0.0,0.0,0.0,59.999996,0.0,26.0,26.0,26.0,26.0,-0.11577777777777776,0.32400000000000007,0.21580000000000002,293.045,-2.6507,-2.7125,-1.5428000000000002,-1.374,-272.28,215.9275,190.967375,0.0,0.0,0.0,0.0,0.003566666666666607,-5.498166666666667,-5.498166666666667,-0.4827,-1.428,-0.05566666666666675,-0.5270000000000001,65.645,-0.048,-0.18715,1.216000000000001,100.0,1.0,1.0,202.19,0.0,0.0,0.0,0.0,0.0,0.0,0.0,8570.0,0.0,55.0,5.0,236.29000000000002,1.0,0.0,0.0,0.0,0.0,0.0,0.0,0.0,0.053999999999998494,0.053999999999998494,0.0,0.0,1.0,55.0,616.79921,10000.0,85.000001,85.000001,85.000001,85.000001,395.0,0.0,0.0,0.0,1.0,166.665,54.352000000000004,54.352000000000004,48.096000000000004,48.096000000000004,34.0,-25.810000000000002,15.977999999999998,-36.81,27.675,0.0,1783.701,0.8150000000000013,100.0,27.278,26.762,42.473,42.106,0.0,0.0,100.0,0.0,0.0,0.0,0.0,2981.285714285714,2459.3,4554.25,4951.9,305.825,306.957,313.64375,312.34825,21.80188888888889,20.5204,21.766,21.3101,314.999998,314.999998,324.999988,324.999988,99.55981428571428,99.50725,99.56468571428572,99.54484285714285,-0.009666666666666712,-0.13866666666666672,-0.1758333333333334,0.02833333333333332,-0.03999999999999915,-0.036666666666668846,1.343,1.3850000000000002,37.262,29.253,37.038,34.188,56.567,34.556,58.885999999999996,51.499,54.456,33.7125,57.5165,49.868,53.607,33.2635,57.476,49.299,-0.008000000000000007,-0.13400000000000012,0.10007,0.10147500000000001,0.0,205.675,205.56,202.19,202.19,0.0,0.0
2,0.0,0.0,0.0,1.0,1.0,0.0,0.0,1.0,0.0,0.0,1.0,1.1856,26.0,0.0,0.0,0.0,59.999996,0.0,26.0,26.0,26.0,26.0,-0.15155555555555555,0.2733000000000001,-0.09694,294.205,-2.6085,-2.7754000000000003,-1.5046,-1.6272,-268.93,215.9425,190.948625,0.0,0.0,0.0,0.0,0.00553333333333339,-5.498166666666667,-5.498166666666667,-0.5655,0.3826666666666667,-0.033444444444444166,2.464,65.781,-0.0665,-0.26230000000000003,1.516,100.0,1.0,1.0,203.43666666666667,0.0,0.0,0.0,0.0,0.0,0.0,0.0,8622.9,0.0,55.0,5.0,236.7866666666667,0.0,0.0,0.0,0.0,0.0,0.0,0.0,0.0,0.10500000000000043,0.10500000000000043,0.0,0.0,0.0,55.0,616.79921,10000.0,85.000001,85.000001,85.000001,85.000001,395.0,0.0,0.0,0.0,1.0,333.33500000000004,52.521,52.521,50.964,50.964,34.0,-29.85,20.802,-27.246666666666663,18.865,0.0,1783.647,0.8300000000000018,100.0,28.175,26.748,42.032,41.08,0.0,0.0,100.0,0.0,0.0,0.0,0.0,3322.0,3059.3,3596.625,3453.7,304.5645,305.20725,316.03175,316.4275,21.81211111111111,20.5255,21.7763,21.3186,314.999998,314.999998,324.999988,324.999988,99.55981428571428,99.50726666666667,99.56482857142858,99.54497142857143,-0.023333333333333206,-0.14466666666666672,-0.21233333333333337,0.01766666666666672,-0.06666666666666998,-0.06833333333332803,1.7055,1.775,37.325,29.2845,37.102000000000004,34.2415,56.552,34.599000000000004,58.9245,51.555,54.443,33.751999999999995,57.552,49.9215,53.593,33.3015,57.5085,49.35166666666667,-0.011499999999999955,-0.139,0.10640500000000001,0.10924,0.0,206.135,205.99,203.43666666666667,203.43666666666667,0.0,0.0
3,0.0,0.0,0.0,1.0,1.0,0.0,0.0,1.0,0.0,0.0,1.0,1.1856,26.0,0.0,0.0,0.0,59.999996,0.0,26.0,26.0,26.0,26.0,-0.13877777777777778,0.2985,-0.02502,293.396,-2.6348,-2.6963,-1.494,-1.5882,-265.57,215.95499999999998,190.9285,0.0,0.0,0.0,0.0,0.0074666666666665105,-5.498166666666667,-5.498166666666667,-0.5027,0.4896666666666667,-0.023333333333333428,-1.6550000000000002,65.938,-0.0864,-0.19055,1.3040000000000003,100.0,1.0,1.0,203.36333333333334,0.0,0.0,0.0,0.0,0.0,0.0,0.0,8619.9,0.0,55.0,5.0,237.34333333333333,1.0,0.0,0.0,0.0,0.0,0.0,0.0,0.0,0.1559999999999988,0.1559999999999988,0.0,0.0,1.0,55.0,616.79921,10000.0,85.000001,85.000001,85.000001,85.000001,395.0,0.0,0.0,0.0,1.0,166.665,53.604,53.604,48.019,48.019,34.0,-27.25,16.86,-36.739999999999995,24.185000000000002,0.0,1783.599,0.9550000000000018,100.0,27.673000000000002,26.989,42.242000000000004,41.38,0.0,0.0,100.0,0.0,0.0,0.0,0.0,3013.714285714286,2760.9,4488.375,4223.6,305.7745,305.83825,313.91125,314.30725,21.82188888888889,20.5307,21.7867,21.3276,314.999998,314.999998,324.999988,324.999988,99.55982857142857,99.50728333333333,99.56495714285714,99.54511428571429,-0.04299999999999993,-0.17700000000000005,-0.21283333333333332,0.0044999999999999485,-0.041666666666671404,-0.02833333333332888,1.4635,1.4905,37.387,29.317,37.167,34.297,56.536,34.6395,58.963499999999996,51.616,54.427,33.789500000000004,57.588499999999996,49.9805,53.577,33.337,57.543,49.409333333333336,-0.008499999999999952,-0.14450000000000007,0.103245,0.10342000000000001,0.0,206.615,206.495,203.36333333333334,203.36333333333334,0.0,0.0
4,0.0,0.0,0.0,1.0,1.0,0.0,0.0,1.0,0.0,0.0,1.0,1.1856,26.0,0.0,0.0,0.0,59.999996,0.0,26.0,26.0,26.0,26.0,-0.14600000000000002,0.27870000000000017,-0.00574,293.671,-2.6604,-2.7917,-1.4341,-1.5995,-262.4,215.965,190.910125,0.0,0.0,0.0,0.0,0.009299999999999975,-5.498166666666667,-5.498166666666667,-0.5356000000000001,-0.8983333333333334,-0.08233333333333359,-1.6139999999999999,66.075,-0.0951,-0.234,1.604000000000001,100.0,1.0,1.0,203.94666666666666,0.0,0.0,0.0,0.0,0.0,0.0,0.0,8644.6,0.0,55.0,5.0,237.84,0.0,0.0,0.0,0.0,0.0,0.0,0.0,0.0,0.20400000000000063,0.20400000000000063,0.0,0.0,0.0,55.0,616.79921,10000.0,85.000001,85.000001,85.000001,85.000001,395.0,0.0,0.0,0.0,1.0,166.665,53.36,53.36,48.751999999999995,48.751999999999995,34.0,-31.27,17.87,-32.95666666666666,20.5025,0.0,1783.55,1.0150000000000006,100.0,27.462,26.631,42.865,41.507,0.0,0.0,100.0,0.0,0.0,0.0,0.0,3315.857142857143,2824.4,4192.125,3724.2,304.913,305.69375,314.64725,315.5025,21.831222222222223,20.5354,21.7967,21.336,314.999998,314.999998,324.999988,324.999988,99.55982857142857,99.5073,99.5651,99.54524285714285,-0.057333333333333236,-0.18199999999999994,-0.22016666666666662,0.0020000000000000018,-0.04999999999999716,-0.03499999999999659,1.5485,1.5985,37.445,29.3465,37.230000000000004,34.3495,56.521,34.6785,59.0045,51.673,54.413,33.8255,57.626999999999995,50.035,53.562,33.3715,57.5785,49.46233333333333,0.006000000000000005,-0.15399999999999991,0.09965,0.10640000000000001,0.0,206.995,206.85500000000002,203.94666666666666,203.94666666666666,0.0,0.0
5,0.0,0.0,0.0,1.0,1.0,0.0,0.0,1.0,0.0,0.0,1.0,1.1856,26.0,0.0,0.0,0.0,59.999996,0.0,26.0,26.0,26.0,26.0,-0.16522222222222216,0.30079999999999996,-0.035660000000000004,293.869,-2.6684,-2.7653,-1.5051999999999999,-1.6303,-259.03,215.97,190.89,0.0,0.0,0.0,0.0,0.011266666666666536,-5.498166666666667,-5.498166666666667,-0.5376000000000001,0.4706666666666667,-0.08366666666666678,0.843,66.22,-0.11080000000000001,-0.216225,1.5540000000000003,100.0,1.0,1.0,204.44,0.0,0.0,0.0,0.0,0.0,0.0,0.0,8665.5,0.0,55.0,5.0,238.36333333333334,1.0,0.0,0.0,0.0,0.0,0.0,0.0,0.0,0.254999999999999,0.254999999999999,0.0,0.0,1.0,55.0,616.79921,10000.0,85.000001,85.000001,85.000001,85.000001,395.0,0.0,0.0,0.0,1.0,333.33500000000004,53.558,53.558,49.271,49.271,34.0,-29.6425,18.016,-33.4,22.045,0.0,1783.498,0.5899999999999999,100.0,27.794,26.351,42.619,40.933,0.0,0.0,100.0,0.0,0.0,0.0,0.0,3136.857142857143,2855.4,4072.0,3986.2,305.2085,305.79075,314.9275,315.00375,21.841333333333335,20.5405,21.8071,21.3446,314.999998,314.999998,324.999988,324.999988,99.55984285714285,99.50731666666667,99.56524285714286,99.54538571428571,-0.05466666666666664,-0.17399999999999993,-0.23449999999999993,-0.00649999999999995,-0.06833333333332803,-0.046666666666666856,1.5585,1.613,37.507999999999996,29.378,37.294,34.403999999999996,56.507999999999996,34.7205,59.0445,51.730000000000004,54.4,33.864,57.664500000000004,50.0895,53.548,33.408500000000004,57.6135,49.516,-0.013499999999999956,-0.133,0.10540000000000001,0.117055,0.0,207.515,207.375,204.44,204.44,0.0,0.0
6,0.0,0.0,0.0,1.0,1.0,0.0,0.0,1.0,0.0,0.0,1.0,1.1856,26.0,0.0,0.0,0.0,59.999996,0.0,26.0,26.0,26.0,26.0,-0.1581111111111111,0.3069000000000002,0.0223,293.549,-2.6215,-2.8143000000000002,-1.5325,-1.5928,-255.65,215.97,190.86925,0.0,0.0,0.0,0.0,0.01323333333333332,-5.498166666666667,-5.498166666666667,-0.5252,0.004666666666666667,-0.08677777777777784,-0.835,66.369,-0.1179,-0.20447500000000002,1.388,100.0,1.0,1.0,204.78333333333333,0.0,0.0,0.0,0.0,0.0,0.0,0.0,8680.1,0.0,55.0,5.0,238.89666666666668,0.0,0.0,0.0,0.0,0.0,0.0,0.0,0.0,0.30600000000000094,0.30600000000000094,0.0,0.0,0.0,55.0,616.79921,10000.0,85.000001,85.000001,85.000001,85.000001,395.0,0.0,0.0,0.0,1.0,166.665,53.558,53.558,48.553,48.553,34.0,-29.73,17.875999999999998,-36.75,21.465,0.0,1783.449,0.5249999999999986,100.0,27.609,26.507,42.814,41.314,0.0,0.0,100.0,0.0,0.0,0.0,0.0,3225.857142857143,2756.3,4300.25,4017.3,305.109,305.874,314.40225,314.8295,21.851333333333333,20.5456,21.8176,21.3536,314.999998,314.999998,324.999988,324.999988,99.55984285714285,99.50733333333334,99.56538571428571,99.54552857142858,-0.04933333333333323,-0.17466666666666675,-0.2443333333333334,-0.019000000000000017,-0.054999999999999716,-0.04999999999999716,1.5145,1.5380000000000003,37.571,29.41,37.36,34.4595,56.494,34.7615,59.0875,51.7915,54.387,33.902,57.704499999999996,50.1485,53.534,33.445,57.6505,49.57333333333334,-0.034499999999999975,-0.11699999999999999,0.09800500000000001,0.10987500000000001,0.0,207.94,207.825,204.78333333333333,204.78333333333333,0.0,0.0
7,0.0,0.0,0.0,1.0,1.0,0.0,0.0,1.0,0.0,0.0,1.0,1.1856,26.0,0.0,0.0,0.0,59.999996,0.0,26.0,26.0,26.0,26.0,-0.13244444444444448,0.27449999999999997,0.0081,293.488,-2.5835,-2.8133,-1.4888,-1.642,-252.26,215.9675,190.848875,0.0,0.0,0.0,0.0,0.015199999999999991,-5.498166666666667,-5.498166666666667,-0.5356000000000001,0.05733333333333334,-0.07533333333333347,1.12,66.513,-0.115,-0.2232,1.0340000000000007,100.0,1.0,1.0,205.28333333333333,0.0,0.0,0.0,0.0,0.0,0.0,0.0,8701.2,0.0,55.0,5.0,239.41666666666669,1.0,0.0,0.0,0.0,0.0,0.0,0.0,0.0,0.3569999999999993,0.3569999999999993,0.0,0.0,1.0,55.0,616.79921,10000.0,85.000001,85.000001,85.000001,85.000001,395.0,0.0,0.0,0.0,1.0,166.665,53.07,53.07,49.010999999999996,49.010999999999996,34.0,-27.6175,20.240000000000002,-32.876666666666665,22.552500000000002,0.0,1783.397,0.14999999999999858,100.0,28.053,26.535,42.944,41.341,0.0,0.0,100.0,0.0,0.0,0.0,0.0,3176.5714285714284,2938.0,4033.375,3975.0,305.009,305.46825,314.94275,314.97325,21.861333333333334,20.5507,21.8281,21.3625,314.999998,314.999998,324.999988,324.999988,99.55985714285714,99.50735,99.56554285714286,99.54565714285714,-0.011333333333333195,-0.1463333333333332,-0.22966666666666657,-0.002666666666666595,-0.036666666666668846,-0.054999999999999716,1.5250000000000001,1.5665,37.634,29.442,37.426,34.5155,56.480000000000004,34.803,59.129,51.852000000000004,54.373999999999995,33.94,57.743,50.2065,53.519999999999996,33.4815,57.6865,49.629999999999995,-0.0655,-0.08899999999999997,0.10723500000000001,0.105465,0.0,208.36,208.28,205.28333333333333,205.28333333333333,0.0,0.0
8,0.0,0.0,0.0,1.0,1.0,0.0,0.0,1.0,0.0,0.0,1.0,1.1856,26.0,0.0,0.0,0.0,59.999996,0.0,26.0,26.0,26.0,26.0,-0.11255555555555552,0.27990000000000004,0.01,293.533,-2.6666,-2.7487,-1.4709,-1.6297,-249.06,215.9625,190.829375,0.0,0.0,0.0,0.0,0.017066666666666563,-5.498166666666667,-5.498166666666667,-0.5364,-0.429,-0.06111111111111134,0.7529999999999999,66.651,-0.09960000000000001,-0.216925,0.5660000000000007,100.0,1.0,1.0,205.63,0.0,0.0,0.0,0.0,0.0,0.0,0.0,8715.8,0.0,55.0,5.0,239.91333333333333,0.0,0.0,0.0,0.0,0.0,0.0,0.0,0.0,0.40500000000000114,0.40500000000000114,0.0,0.0,0.0,55.0,616.79921,10000.0,85.000001,85.000001,85.000001,85.000001,395.0,0.0,0.0,0.0,1.0,166.665,53.65,53.65,48.355000000000004,48.355000000000004,34.0,-26.405,20.214,-32.733333333333334,24.1825,0.0,1783.35,0.05999999999999872,100.0,27.631,26.503,42.996,41.478,0.0,0.0,100.0,0.0,0.0,0.0,0.0,3011.857142857143,2960.3,4107.75,4090.7,305.6265,305.48975,314.7225,314.6765,21.870666666666665,20.5555,21.838,21.3709,314.999998,314.999998,324.999988,324.999988,99.55985714285714,99.50736666666667,99.56567142857143,99.54578571428571,-0.008333333333333304,-0.1353333333333333,-0.21366666666666656,0.014000000000000012,-0.03999999999999915,-0.05833333333333002,1.512,1.5354999999999999,37.692,29.472,37.488,34.568,56.464,34.841,59.1685,51.9095,54.358000000000004,33.975,57.78,50.2615,53.504000000000005,33.5145,57.7205,49.68366666666667,-0.07199999999999995,-0.07950000000000013,0.11486500000000001,0.103165,0.0,208.765,208.72,205.63,205.63,0.0,0.0
9,0.0,0.0,0.0,1.0,1.0,0.0,0.0,1.0,0.0,0.0,1.0,1.1856,26.0,0.0,0.0,0.0,59.999996,0.0,26.0,26.0,26.0,26.0,-0.0865555555555555,0.29510000000000014,-0.014280000000000001,293.289,-2.5926,-2.7485,-1.5227,-1.5812,-245.66,215.9525,190.8085,0.0,0.0,0.0,0.0,0.019033333333333347,-5.498166666666667,-5.498166666666667,-0.5366000000000001,0.586,-0.06888888888888856,-0.39800000000000013,66.794,-0.0787,-0.21227500000000002,0.43599999999999994,100.0,1.0,1.0,206.14333333333332,0.0,0.0,0.0,0.0,0.0,0.0,0.0,8737.6,0.0,55.0,5.0,240.42666666666668,1.0,0.0,0.0,0.0,0.0,0.0,0.0,0.0,0.4559999999999995,0.4559999999999995,0.0,0.0,1.0,55.0,616.79921,10000.0,85.000001,85.000001,85.000001,85.000001,395.0,0.0,0.0,0.0,1.0,166.665,52.78,52.78,49.103,49.103,34.0,-28.1475,20.864,-31.833333333333336,23.1725,0.0,1783.299,-0.08499999999999908,100.0,27.939,26.941,42.646,41.568,0.0,0.0,100.0,0.0,0.0,0.0,0.0,3357.142857142857,2897.1,4103.125,4018.5,304.686,305.46475,314.92475,314.86375,21.880666666666666,20.5608,21.848399999999998,21.3798,314.999998,314.999998,324.999988,324.999988,99.55985714285714,99.50738333333334,99.56581428571428,99.54594285714286,0.0129999999999999,-0.11199999999999988,-0.1921666666666666,0.01983333333333337,-0.04333333333332945,-0.04999999999999716,1.55,1.5715,37.754000000000005,29.505,37.553,34.6235,56.449,34.882,59.207499999999996,51.9685,54.344,34.0125,57.8165,50.318,53.489000000000004,33.5505,57.7545,49.739,-0.08499999999999996,-0.06350000000000011,0.10321500000000002,0.099635,0.0,209.22500000000002,209.19,206.14333333333332,206.14333333333332,0.0,0.0
10,0.0,0.0,0.0,1.0,1.0,0.0,0.0,1.0,0.0,0.0,1.0,1.1856,26.0,0.0,0.0,0.0,59.999996,0.0,26.0,26.0,26.0,26.0,-0.06288888888888888,0.28869999999999996,0.024180000000000004,293.198,-2.6654999999999998,-2.7172,-1.5002,-1.558,-242.25,215.9425,190.78775,0.0,0.0,0.0,0.0,0.02103333333333335,-5.498166666666667,-5.498166666666667,-0.5233,-0.6133333333333334,-0.027444444444444382,1.751,66.94,-0.0551,-0.20875000000000002,0.07200000000000095,100.0,1.0,1.0,206.43,0.0,0.0,0.0,0.0,0.0,0.0,0.0,8749.8,0.0,55.0,5.0,240.95666666666665,0.0,0.0,0.0,0.0,0.0,0.0,1.0,0.0,0.5069999999999979,0.5069999999999979,0.0,0.0,0.0,55.0,616.79921,10000.0,85.000001,85.000001,85.000001,85.000001,395.0,0.0,0.0,0.0,1.0,166.665,53.574,53.574,48.019,48.019,34.0,-24.1575,21.299999999999997,-31.206666666666663,27.372500000000002,0.0,1783.248,-0.15000000000000036,100.0,27.821,26.727,43.109,42.08,0.0,0.0,100.0,0.0,0.0,0.0,0.0,2941.5714285714284,2940.5,4194.375,4263.6,305.8375,305.594,314.5375,314.29325,21.890444444444444,20.566,21.859,21.3889,314.999998,314.999998,324.999988,324.999988,99.55985714285714,99.5074,99.56595714285714,99.54608571428571,0.030666666666666842,-0.09633333333333316,-0.15916666666666657,0.06666666666666687,-0.026666666666670835,-0.05333333333332746,1.5005,1.5,37.816,29.5375,37.619,34.6805,56.433,34.920500000000004,59.25,52.0315,54.329,34.048,57.8565,50.3785,53.473,33.5845,57.7915,49.79833333333333,-0.08699999999999997,-0.06099999999999994,0.10973500000000001,0.11001000000000001,0.0,209.64,209.625,206.43,206.43,0.0,0.0
11,0.0,0.0,0.0,1.0,1.0,0.0,0.0,1.0,0.0,0.0,1.0,1.1856,26.0,0.0,0.0,0.0,59.999996,0.0,26.0,26.0,26.0,26.0,-0.04322222222222216,0.27670000000000017,-0.059800000000000006,293.64,-2.6743,-2.7271,-1.5547,-1.5295,-239.03,215.93,190.768125,0.0,0.0,0.0,0.0,0.022599999999999953,-5.498166666666667,-5.498166666666667,-0.5571,-0.124,-0.004999999999999893,0.605,67.071,-0.0396,-0.232075,0.03599999999999959,100.0,1.0,1.0,207.08666666666667,0.0,0.0,0.0,0.0,0.0,0.0,0.0,8777.7,0.0,55.0,5.0,241.42666666666668,1.0,0.0,0.0,0.0,0.0,0.0,1.0,0.0,0.5549999999999997,0.5549999999999997,0.0,0.0,1.0,55.0,616.79921,10000.0,85.000001,85.000001,85.000001,85.000001,395.0,0.0,0.0,0.0,1.0,333.33500000000004,53.101,53.101,49.24,49.24,34.0,-24.9325,23.364,-26.799999999999997,24.7025,0.0,1783.197,-0.4800000000000004,100.0,27.609,26.979,42.601,42.007,0.0,0.0,100.0,0.0,0.0,0.0,0.0,3060.714285714286,3084.2,3783.875,3922.7,305.464,305.05225,315.63925,315.166,21.89966666666667,20.571,21.8687,21.3973,314.999998,314.999998,324.999988,324.999988,99.55985714285714,99.5074,99.5661,99.54621428571429,0.04233333333333311,-0.08099999999999996,-0.14116666666666666,0.08216666666666672,-0.03999999999999915,-0.05666666666667197,1.61,1.6035,37.873000000000005,29.5685,37.68,34.733000000000004,56.416,34.9595,59.286,52.091,54.313,34.0845,57.89,50.4355,53.457,33.6195,57.822,49.85433333333333,-0.09199999999999997,-0.05249999999999999,0.10391,0.10659500000000001,0.0,210.03,210.035,207.08666666666667,207.08666666666667,0.0,0.0
12,0.0,0.0,0.0,1.0,1.0,0.0,0.0,1.0,0.0,0.0,1.0,1.1856,26.0,0.0,0.0,0.0,59.999996,0.0,26.0,26.0,26.0,26.0,-0.03533333333333333,0.2895000000000001,0.0131,293.167,-2.7308,-2.7155,-1.5246,-1.5788,-235.81,215.91750000000002,190.7475,0.0,0.0,0.0,0.0,0.025466666666666526,-5.498166666666667,-5.498166666666667,-0.5446,0.27666666666666667,-0.01200000000000001,0.615,67.207,-0.0238,-0.20600000000000002,-0.1039999999999992,100.0,1.0,1.0,207.32999999999998,0.0,0.0,0.0,0.0,0.0,0.0,0.0,8788.0,0.0,55.0,5.0,241.91666666666666,0.0,0.0,0.0,0.0,0.0,0.0,1.0,0.0,0.602999999999998,0.602999999999998,0.0,0.0,0.0,55.0,616.79921,10000.0,85.000001,85.000001,85.000001,85.000001,395.0,0.0,0.0,0.0,1.0,333.33500000000004,53.009,53.009,48.218,48.218,34.0,-26.362499999999997,22.542,-29.096666666666664,28.509999999999998,0.0,1783.15,0.5399999999999991,100.0,27.532,27.133,42.528999999999996,41.962,0.0,0.0,100.0,0.0,0.0,0.0,0.0,3097.857142857143,3114.3,4165.75,4177.1,305.3785,304.98175,314.673,314.5355,21.908666666666665,20.5761,21.8785,21.4057,314.999998,314.999998,324.999988,324.999988,99.55987142857143,99.50741666666667,99.56622857142857,99.54634285714286,0.028000000000000025,-0.1036666666666668,-0.1213333333333334,0.09733333333333327,-0.05333333333332746,-0.04999999999999716,1.5310000000000001,1.5175,37.929,29.6005,37.741,34.786,56.403,34.9935,59.320499999999996,52.1445,54.3,34.116,57.9225,50.487,53.443,33.6495,57.852000000000004,49.904666666666664,-0.04849999999999999,-0.10299999999999998,0.106505,0.10429000000000001,0.0,210.49,210.47500000000002,207.32999999999998,207.32999999999998,0.0,0.0
13,0.0,0.0,0.0,1.0,1.0,0.0,0.0,1.0,0.0,0.0,1.0,1.1856,26.0,0.0,0.0,0.0,59.999996,0.0,26.0,26.0,26.0,26.0,-0.0033333333333332993,0.2803,0.03678,292.755,-2.6657,-2.7169,-1.5514000000000001,-1.5754,-232.38,215.9025,190.72575,0.0,0.0,0.0,0.0,0.026766666666666605,-5.498166666666667,-5.498166666666667,-0.5382,-0.099,-0.015333333333333421,-0.3340000000000001,67.35,-0.0183,-0.212375,-0.07399999999999984,100.0,1.0,1.0,207.70333333333332,0.0,0.0,0.0,0.0,0.0,0.0,0.0,8803.7,0.0,55.0,5.0,242.43333333333334,1.0,0.0,0.0,0.0,0.0,0.0,1.0,0.0,0.6539999999999999,0.6539999999999999,0.0,0.0,1.0,55.0,616.79921,10000.0,85.000001,85.000001,85.000001,85.000001,395.0,0.0,0.0,0.0,1.0,333.33500000000004,52.704,52.704,48.05,48.05,34.0,-24.5425,23.842,-30.876666666666665,28.655,0.0,1783.098,-0.40000000000000036,100.0,27.762,27.451,42.724000000000004,42.539,0.0,0.0,100.0,0.0,0.0,0.0,0.0,3222.0,2987.8,4255.875,4215.4,305.126,305.18725,314.498,314.34475,21.918444444444443,20.5815,21.8891,21.4149,314.999998,314.999998,324.999988,324.999988,99.55987142857143,99.50743333333334,99.56638571428572,99.5465,0.07966666666666677,-0.05066666666666664,-0.1306666666666666,0.09016666666666673,-0.03166666666666629,-0.05666666666667197,1.488,1.4865,37.989999999999995,29.634,37.807,34.843,56.388,35.0345,59.363,52.2115,54.286,34.1535,57.962,50.551,53.428,33.686,57.8885,49.967333333333336,-0.11099999999999999,-0.04049999999999998,0.10657000000000001,0.104495,0.0,210.91,210.91,207.70333333333332,207.70333333333332,0.0,0.0
14,0.0,0.0,0.0,1.0,1.0,0.0,0.0,1.0,0.0,0.0,1.0,1.1856,26.0,0.0,0.0,0.0,59.999996,0.0,26.0,26.0,26.0,26.0,-0.004444444444444473,0.2704,-0.01,292.923,-2.6932,-2.6597,-1.5631,-1.5434999999999999,-228.94,215.8875,190.704375,0.0,0.0,0.0,0.0,0.028766666666666607,-5.498166666666667,-5.498166666666667,-0.5494,-0.12766666666666668,0.014111111111110963,1.2349999999999999,67.49000000000001,-0.0063,-0.226975,-0.266,100.0,1.0,1.0,208.22,0.0,0.0,0.0,0.0,0.0,0.0,0.0,8825.7,0.0,55.0,5.0,242.93666666666667,0.0,0.0,0.0,0.0,0.0,0.0,1.0,0.0,0.7049999999999983,0.7049999999999983,0.0,0.0,0.0,55.0,616.79921,10000.0,85.000001,85.000001,85.000001,85.000001,395.0,0.0,0.0,0.0,1.0,166.665,52.704,52.704,48.248,48.248,34.0,-23.107499999999998,25.344,-27.42,28.9375,0.0,1783.05,-0.34999999999999964,100.0,27.867,27.471,42.769999999999996,42.653,0.0,0.0,100.0,0.0,0.0,0.0,0.0,3003.4285714285716,3193.2,3981.75,4164.8,305.6215,304.73575,315.09825,314.56375,21.92811111111111,20.5869,21.8995,21.424,314.999998,314.999998,324.999988,324.999988,99.55988571428571,99.50743333333334,99.56651428571429,99.54664285714286,0.07833333333333359,-0.04266666666666663,-0.10849999999999993,0.11833333333333318,-0.03999999999999915,-0.061666666666667425,1.544,1.5350000000000001,38.051,29.668,37.872,34.9,56.375,35.070499999999996,59.399,52.2695,54.274,34.1865,57.9955,50.607,53.415,33.7175,57.919,50.02166666666667,-0.09850000000000003,-0.04899999999999993,0.10416,0.11347000000000002,0.0,211.32999999999998,211.35000000000002,208.22,208.22,0.0,0.0
15,0.0,0.0,0.0,1.0,1.0,0.0,0.0,1.0,0.0,0.0,1.0,1.1856,26.0,0.0,0.0,0.0,59.999996,0.0,26.0,26.0,26.0,26.0,0.022555555555555662,0.28480000000000016,-0.03692,292.862,-2.7008,-2.6771000000000003,-1.5848,-1.5531,-225.5,215.875,190.68275,0.0,0.0,0.0,0.0,0.03076666666666661,-5.498166666666667,-5.498166666666667,-0.5403,0.23133333333333334,0.03344444444444439,-0.7800000000000002,67.631,0.0025,-0.20972500000000002,-0.2679999999999989,100.0,1.0,1.0,208.61666666666667,0.0,0.0,0.0,0.0,0.0,0.0,0.0,8842.5,0.0,55.0,5.0,243.44333333333333,1.0,0.0,0.0,0.0,0.0,0.0,1.0,0.0,0.7560000000000002,0.7560000000000002,0.0,0.0,1.0,55.0,616.79921,10000.0,85.000001,85.000001,85.000001,85.000001,395.0,0.0,0.0,0.0,1.0,166.665,52.841,52.841,48.157,48.157,34.0,-22.66,24.024,-28.306666666666665,29.947499999999998,0.0,1782.998,-0.3149999999999995,100.0,27.748,27.764,42.547,42.906,0.0,0.0,100.0,0.0,0.0,0.0,0.0,2996.5714285714284,3019.9,4050.625,4250.9,305.8265,305.00275,315.0295,314.221,21.93777777777778,20.5924,21.9099,21.4331,314.999998,314.999998,324.999988,324.999988,99.5599,99.50743333333334,99.56667142857142,99.54677142857143,0.08400000000000007,-0.047666666666666746,-0.10999999999999999,0.11583333333333323,-0.041666666666671404,-0.04833333333333201,1.5265,1.517,38.111000000000004,29.7025,37.937,34.9565,56.361000000000004,35.1085,59.4355,52.3315,54.26,34.222,58.0295,50.667,53.400999999999996,33.7515,57.95,50.080333333333336,-0.10299999999999998,-0.0515000000000001,0.109155,0.11167,0.0,211.785,211.79000000000002,208.61666666666667,208.61666666666667,0.0,0.0
16,0.0,0.0,0.0,1.0,1.0,0.0,0.0,1.0,0.0,0.0,1.0,1.1856,26.0,0.0,0.0,0.0,59.999996,0.0,26.0,26.0,26.0,26.0,0.020000000000000018,0.27490000000000014,-0.028480000000000002,292.831,-2.7584,-2.6306000000000003,-1.558,-1.5556,-222.25,215.8625,190.662,0.0,0.0,0.0,0.0,0.03266666666666651,-5.498166666666667,-5.498166666666667,-0.5586,-0.6626666666666666,0.01822222222222214,-1.153,67.762,0.0094,-0.22487500000000002,-0.17799999999999905,100.0,1.0,1.0,209.0233333333333,0.0,0.0,0.0,0.0,0.0,0.0,0.0,8859.8,0.0,55.0,5.0,243.92000000000002,0.0,0.0,0.0,0.0,0.0,0.0,1.0,0.0,0.8039999999999985,0.8039999999999985,0.0,0.0,0.0,55.0,616.79921,10000.0,85.000001,85.000001,85.000001,85.000001,395.0,0.0,0.0,0.0,1.0,166.665,52.719,52.719,47.882,47.882,34.0,-24.64,24.308,-27.363333333333337,28.4575,0.0,1782.95,-0.20500000000000007,100.0,27.444,27.775,42.857,42.997,0.0,0.0,100.0,0.0,0.0,0.0,0.0,3147.142857142857,3108.3,4051.5,4060.3,305.4835,304.8415,315.0065,314.68625,21.946666666666665,20.5975,21.9198,21.4416,314.999998,314.999998,324.999988,324.999988,99.5599,99.50745,99.5668,99.54691428571428,0.07833333333333359,-0.04733333333333323,-0.09783333333333333,0.11816666666666675,-0.05833333333333002,-0.046666666666666856,1.5275,1.525,38.166,29.7345,37.998000000000005,35.0105,56.345,35.1445,59.4735,52.388999999999996,54.245999999999995,34.254999999999995,58.064499999999995,50.722,53.385,33.783500000000004,57.982,50.13466666666667,-0.09399999999999997,-0.0605,0.108395,0.10307500000000001,0.0,212.16,212.185,209.0233333333333,209.0233333333333,0.0,0.0
17,0.0,0.0,0.0,1.0,1.0,0.0,0.0,1.0,0.0,0.0,1.0,1.1856,26.0,0.0,0.0,0.0,59.999996,0.0,26.0,26.0,26.0,26.0,-0.0038888888888889417,0.2873000000000001,-0.01702,292.587,-2.7118,-2.6213,-1.5913,-1.5241,-218.79,215.8475,190.6395,0.0,0.0,0.0,0.0,0.03466666666666651,-5.498166666666667,-5.498166666666667,-0.5489,0.4473333333333333,-0.005222222222222239,0.569,67.902,0.0098,-0.205875,-0.10999999999999943,100.0,1.0,1.0,209.43333333333334,0.0,0.0,0.0,0.0,0.0,0.0,0.0,8877.1,0.0,55.0,5.0,244.41666666666666,1.0,0.0,0.0,0.0,0.0,0.0,1.0,0.0,0.8550000000000004,0.8550000000000004,0.0,0.0,1.0,55.0,616.79921,10000.0,85.000001,85.000001,85.000001,85.000001,395.0,0.0,0.0,0.0,1.0,333.33500000000004,52.567,52.567,47.852000000000004,47.852000000000004,34.0,-23.5875,24.136,-29.689999999999998,30.22,0.0,1782.898,-0.20999999999999908,100.0,28.059,27.767,42.775,42.796,0.0,0.0,100.0,0.0,0.0,0.0,0.0,3100.4285714285716,3084.9,4262.125,4250.7,305.397,305.092,314.53875,314.417,21.956333333333333,20.6031,21.9301,21.4507,314.999998,314.999998,324.999988,324.999988,99.55991428571429,99.50745,99.56694285714286,99.54705714285714,0.08999999999999986,-0.03933333333333322,-0.09950000000000003,0.133,-0.03333333333333144,-0.04999999999999716,1.512,1.509,38.227000000000004,29.7695,38.063,35.067,56.333,35.1835,59.51,52.4495,54.233999999999995,34.2915,58.099000000000004,50.7805,53.372,33.818,58.0135,50.19166666666666,-0.09850000000000003,-0.06150000000000011,0.10634500000000001,0.10909,0.0,212.63,212.64,209.43333333333334,209.43333333333334,0.0,0.0
18,0.0,0.0,0.0,1.0,1.0,0.0,0.0,1.0,0.0,0.0,1.0,1.1856,26.0,0.0,0.0,0.0,59.999996,0.0,26.0,26.0,26.0,26.0,-0.008111111111111069,0.28,-0.01196,292.496,-2.7356,-2.6022,-1.6005,-1.4743,-215.51999999999998,215.835,190.618375,0.0,0.0,0.0,0.0,0.036566666666666525,-5.498166666666667,-5.498166666666667,-0.5592,-0.497,0.011555555555555541,1.038,68.032,0.0058000000000000005,-0.22075,-0.05799999999999983,100.0,1.0,1.0,209.82666666666665,0.0,0.0,0.0,0.0,0.0,0.0,0.0,8893.8,0.0,55.0,5.0,244.88666666666666,0.0,0.0,0.0,0.0,0.0,0.0,1.0,0.0,0.9029999999999987,0.9029999999999987,0.0,0.0,0.0,55.0,616.79921,10000.0,85.000001,85.000001,85.000001,85.000001,395.0,0.0,0.0,0.0,1.0,333.33500000000004,52.399,52.399,47.714,47.714,34.0,-23.8025,25.572000000000003,-28.636666666666663,28.4675,0.0,1782.85,-0.254999999999999,100.0,27.909,27.646,43.106,43.123000000000005,0.0,0.0,100.0,0.0,0.0,0.0,0.0,3120.285714285714,3268.3,4100.25,4196.0,305.3895,304.59575,314.86725,314.5165,21.965333333333334,20.6082,21.94,21.4594,314.999998,314.999998,324.999988,324.999988,99.55994285714286,99.50745,99.56707142857142,99.5472,0.09266666666666667,-0.038999999999999924,-0.10333333333333339,0.1226666666666667,-0.03833333333332689,-0.04833333333333201,1.5350000000000001,1.5335,38.284,29.801499999999997,38.125,35.121,56.319,35.219,59.5475,52.5085,54.221000000000004,34.324,58.1335,50.837,53.358999999999995,33.8495,58.045500000000004,50.247,-0.09650000000000003,-0.06299999999999994,0.10690500000000001,0.11056500000000001,0.0,213.01,213.015,209.82666666666665,209.82666666666665,0.0,0.0
19,0.0,0.0,0.0,1.0,1.0,0.0,0.0,1.0,0.0,0.0,1.0,1.1856,26.0,0.0,0.0,0.0,59.999996,0.0,26.0,26.0,26.0,26.0,-0.0011111111111110628,0.2982,0.05684,291.962,-2.6557,-2.6989,-1.6123,-1.4617,-212.05,215.8225,190.59575,0.0,0.0,0.0,0.0,0.03859999999999997,-5.498166666666667,-5.498166666666667,-0.5487000000000001,0.805,0.016666666666666607,-0.673,68.17,0.0082,-0.21230000000000002,-0.10200000000000031,100.0,1.0,1.0,210.22333333333333,0.0,0.0,0.0,0.0,0.0,0.0,0.0,8910.6,0.0,55.0,5.0,245.38333333333333,1.0,0.0,0.0,0.0,0.0,0.0,1.0,0.0,0.9540000000000006,0.9540000000000006,0.0,0.0,1.0,55.0,616.79921,10000.0,85.000001,85.000001,85.000001,85.000001,395.0,0.0,0.0,0.0,1.0,333.33500000000004,51.712,51.712,47.47,47.47,34.0,-24.505,25.33,-30.560000000000002,29.5225,0.0,1782.798,-0.1999999999999993,100.0,28.363,28.355,42.855000000000004,43.196,0.0,0.0,100.0,0.0,0.0,0.0,0.0,3228.0,3143.2,4300.25,4357.9,305.0615,304.528,314.50775,314.111,21.97511111111111,20.6139,21.9503,21.4685,314.999998,314.999998,324.999988,324.999988,99.55994285714286,99.50746666666667,99.56724285714286,99.54734285714285,0.08166666666666655,-0.05166666666666675,-0.10599999999999998,0.1180000000000001,-0.060000000000002274,-0.046666666666666856,1.518,1.5025,38.345,29.837,38.19,35.178,56.307,35.2615,59.5865,52.573499999999996,54.209,34.3635,58.17,50.9,53.346000000000004,33.8875,58.0785,50.30866666666667,-0.09399999999999997,-0.05699999999999994,0.10289000000000001,0.11126000000000001,0.0,213.48000000000002,213.46,210.22333333333333,210.22333333333333,0.0,0.0
20,0.0,0.0,0.0,1.0,1.0,0.0,0.0,1.0,0.0,0.0,1.0,1.1856,26.0,0.0,0.0,0.0,59.999996,0.0,26.0,26.0,26.0,26.0,0.018777777777777782,0.2641,0.03658,292.358,-2.7475,-2.6611000000000002,-1.5363,-1.5865,-208.57,215.81,190.573375,0.0,0.0,0.0,0.0,0.04059999999999997,-5.498166666666667,-5.498166666666667,-0.5542,-1.102,0.013333333333333197,0.42900000000000005,68.309,0.0078000000000000005,-0.222675,-0.12599999999999945,100.0,1.0,1.0,210.57,0.0,0.0,0.0,0.0,0.0,0.0,0.0,8925.3,0.0,55.0,5.0,245.88666666666666,0.0,0.0,0.0,0.0,0.0,0.0,0.0,0.0,1.004999999999999,1.004999999999999,0.0,0.0,0.0,55.0,616.79921,10000.0,85.000001,85.000001,85.000001,85.000001,395.0,0.0,0.0,0.0,1.0,166.665,52.795,52.795,47.058,47.058,34.0,-22.607499999999998,24.628,-27.986666666666665,30.8575,0.0,1782.75,-0.125,100.0,27.932,27.81,43.539,43.51,0.0,0.0,100.0,0.0,0.0,0.0,0.0,2958.714285714286,3120.7,4153.0,4246.3,305.9075,304.9925,314.641,314.24475,21.984555555555556,20.6194,21.9609,21.4777,314.999998,314.999998,324.999988,324.999988,99.55995714285714,99.50746666666667,99.56737142857143,99.5475,0.08866666666666667,-0.044333333333333114,-0.09083333333333332,0.1200000000000001,-0.03999999999999915,-0.04999999999999716,1.465,1.4625,38.403999999999996,29.871000000000002,38.256,35.236,56.291,35.297,59.625,52.632999999999996,54.194,34.396,58.206,50.957,53.33,33.919,58.1115,50.364666666666665,-0.09150000000000003,-0.06699999999999995,0.098655,0.10611000000000001,0.0,213.85000000000002,213.85500000000002,210.57,210.57,0.0,0.0
21,0.0,0.0,0.0,1.0,1.0,0.0,0.0,1.0,0.0,0.0,1.0,1.1856,26.0,0.0,0.0,0.0,59.999996,0.0,26.0,26.0,26.0,26.0,-0.0067777777777777715,0.27380000000000004,-0.06654,292.725,-2.7111,-2.6675,-1.6008,-1.5452,-205.29,215.7975,190.55175,0.0,0.0,0.0,0.0,0.04253333333333331,-5.498166666666667,-5.498166666666667,-0.5765,0.3656666666666667,-0.0037777777777776578,0.32299999999999995,68.434,0.0043,-0.223975,-0.06600000000000072,100.0,1.0,1.0,211.18333333333334,0.0,0.0,0.0,0.0,0.0,0.0,0.0,8951.3,0.0,55.0,5.0,246.33333333333334,1.0,0.0,0.0,0.0,0.0,0.0,0.0,0.0,1.0530000000000008,1.0530000000000008,0.0,0.0,1.0,55.0,616.79921,10000.0,85.000001,85.000001,85.000001,85.000001,395.0,0.0,0.0,0.0,1.0,166.665,52.414,52.414,48.263999999999996,48.263999999999996,34.0,-23.705,24.588,-27.78666666666666,27.48,0.0,1782.702,-0.17499999999999893,100.0,28.183,27.889,42.945,43.053,0.0,0.0,100.0,0.0,0.0,0.0,0.0,3094.0,3126.2,4011.375,4016.2,305.4265,304.9835,315.1615,314.9635,21.993666666666666,20.6246,21.9706,21.4862,314.999998,314.999998,324.999988,324.999988,99.55995714285714,99.50748333333334,99.5675,99.54762857142858,0.08599999999999985,-0.04733333333333323,-0.10716666666666663,0.1180000000000001,-0.04333333333332945,-0.05833333333333002,1.582,1.5905,38.46,29.904,38.316,35.2885,56.278999999999996,35.3335,59.657,52.6875,54.182,34.43,58.2355,51.009,53.317,33.951499999999996,58.1385,50.416,-0.09199999999999997,-0.06600000000000006,0.106425,0.10205,0.0,214.26999999999998,214.275,211.18333333333334,211.18333333333334,0.0,0.0
22,0.0,0.0,0.0,1.0,1.0,0.0,0.0,1.0,0.0,0.0,1.0,1.1856,26.0,0.0,0.0,0.0,59.999996,0.0,26.0,26.0,26.0,26.0,0.01288888888888895,0.26490000000000014,0.01326,292.252,-2.6475,-2.7153,-1.596,-1.5309,-201.79,215.7875,190.528,0.0,0.0,0.0,0.0,0.044533333333333314,-5.498166666666667,-5.498166666666667,-0.5575,0.07433333333333333,0.003444444444444361,-0.41300000000000026,68.57300000000001,0.0026000000000000003,-0.2046,0.002000000000000668,100.0,1.0,1.0,211.41666666666669,0.0,0.0,0.0,0.0,0.0,0.0,0.0,8961.1,0.0,55.0,5.0,246.83333333333334,0.0,0.0,0.0,0.0,0.0,0.0,0.0,0.0,1.1039999999999992,1.1039999999999992,0.0,0.0,0.0,55.0,616.79921,10000.0,85.000001,85.000001,85.000001,85.000001,395.0,0.0,0.0,0.0,1.0,166.665,52.536,52.536,47.195,47.195,34.0,-22.53,23.787999999999997,-31.229999999999997,29.075000000000003,0.0,1782.65,-0.2400000000000002,100.0,28.085,28.162,43.199,43.377,0.0,0.0,100.0,0.0,0.0,0.0,0.0,3043.285714285714,2981.5,4279.125,4283.3,305.664,305.13,314.51625,314.2565,22.00322222222222,20.6302,21.981099999999998,21.4954,314.999998,314.999998,324.999988,324.999988,99.55997142857143,99.50748333333334,99.56765714285714,99.54777142857142,0.08700000000000019,-0.05366666666666675,-0.12183333333333335,0.10050000000000003,-0.045000000000001705,-0.051666666666669414,1.4845,1.4915000000000003,38.519999999999996,29.938499999999998,38.382,35.346000000000004,56.265,35.3725,59.697,52.7495,54.169,34.466,58.272999999999996,51.069,53.304,33.986000000000004,58.1725,50.474333333333334,-0.09650000000000003,-0.058499999999999996,0.10605500000000001,0.10845,0.0,214.7,214.695,211.41666666666669,211.41666666666669,0.0,0.0
23,0.0,0.0,0.0,1.0,1.0,0.0,0.0,1.0,0.0,0.0,1.0,1.1856,26.0,0.0,0.0,0.0,59.999996,0.0,26.0,26.0,26.0,26.0,0.007000000000000117,0.2481,-0.013480000000000002,292.206,-2.6786,-2.6661,-1.6507,-1.5965,-198.29,215.775,190.5045,0.0,0.0,0.0,0.0,0.046599999999999975,-5.498166666666667,-5.498166666666667,-0.5755,-0.21866666666666665,0.005555555555555536,0.5589999999999999,68.707,0.004,-0.229025,-0.05400000000000027,100.0,1.0,1.0,211.94666666666666,0.0,0.0,0.0,0.0,0.0,0.0,0.0,8983.6,0.0,55.0,5.0,247.31666666666666,1.0,0.0,0.0,0.0,0.0,0.0,0.0,0.0,1.1550000000000011,1.1550000000000011,0.0,0.0,1.0,55.0,616.79921,10000.0,85.000001,85.000001,85.000001,85.000001,395.0,0.0,0.0,0.0,1.0,333.33500000000004,51.758,51.758,48.126,48.126,34.0,-24.595,25.317999999999998,-28.506666666666668,29.05,0.0,1782.597,-0.21999999999999886,100.0,28.46,28.104,43.378,43.522,0.0,0.0,100.0,0.0,0.0,0.0,0.0,3230.0,3177.6,3979.5,4021.8,304.953,304.785,315.25375,314.85925,22.012777777777778,20.6358,21.9916,21.5046,314.999998,314.999998,324.999988,324.999988,99.55998571428572,99.5075,99.5678,99.54791428571428,0.08833333333333337,-0.04233333333333311,-0.10949999999999993,0.12783333333333324,-0.041666666666671404,-0.041666666666671404,1.5290000000000001,1.537,38.58,29.974,38.447,35.4035,56.251999999999995,35.411500000000004,59.7345,52.8115,54.157,34.501999999999995,58.308,51.1285,53.29,34.0205,58.204499999999996,50.532666666666664,-0.09599999999999997,-0.06150000000000011,0.106325,0.11592500000000001,0.0,215.095,215.085,211.94666666666666,211.94666666666666,0.0,0.0
24,0.0,0.0,0.0,1.0,1.0,0.0,0.0,1.0,0.0,0.0,1.0,1.1856,26.0,0.0,0.0,0.0,59.999996,0.0,26.0,26.0,26.0,26.0,0.010000000000000009,0.2733000000000001,-0.025500000000000002,292.419,-2.7069,-2.6710000000000003,-1.5742,-1.5341,-194.79,215.7625,190.480625,0.0,0.0,0.0,0.0,0.048633333333333306,-5.498166666666667,-5.498166666666667,-0.5821000000000001,-0.5033333333333333,0.01577777777777789,-0.13500000000000023,68.843,0.004200000000000001,-0.2184,-0.05799999999999983,100.0,1.0,1.0,212.25333333333333,0.0,0.0,0.0,0.0,0.0,0.0,0.0,8996.7,0.0,55.0,5.0,247.80666666666667,0.0,0.0,0.0,0.0,0.0,0.0,0.0,0.0,1.2059999999999995,1.2059999999999995,0.0,0.0,0.0,55.0,616.79921,10000.0,85.000001,85.000001,85.000001,85.000001,395.0,0.0,0.0,0.0,1.0,166.665,52.856,52.856,47.211,47.211,34.0,-22.4975,23.274,-30.479999999999997,29.175,0.0,1782.549,-0.254999999999999,100.0,28.026,28.009999999999998,43.321,43.533,0.0,0.0,100.0,0.0,0.0,0.0,0.0,2981.285714285714,2963.0,4278.125,4166.5,305.892,305.32675,314.485,314.5305,22.022222222222222,20.6413,22.002,21.5138,314.999998,314.999998,324.999988,324.999988,99.56,99.5075,99.56794285714285,99.54807142857143,0.08666666666666645,-0.04899999999999993,-0.11499999999999999,0.1200000000000001,-0.03999999999999915,-0.04833333333333201,1.5130000000000001,1.5015,38.638999999999996,30.008,38.512,35.461,56.238,35.449,59.7725,52.872,54.143,34.536500000000004,58.3435,51.187,53.275,34.0535,58.2365,50.59,-0.10150000000000003,-0.05449999999999999,0.10748,0.11531500000000001,0.0,215.51,215.515,212.25333333333333,212.25333333333333,0.0,0.0
25,0.0,0.0,0.0,1.0,1.0,0.0,0.0,1.0,0.0,0.0,1.0,1.1856,26.0,0.0,0.0,0.0,59.999996,0.0,26.0,26.0,26.0,26.0,0.016111111111111187,0.2631000000000001,-0.03742,292.297,-2.773,-2.6323,-1.5872000000000002,-1.5384,-191.48000000000002,215.7525,190.45675,0.0,0.0,0.0,0.0,0.05053333333333332,-5.498166666666667,-5.498166666666667,-0.6095,-0.029333333333333333,0.01766666666666672,-1.0470000000000002,68.967,0.0047,-0.22510000000000002,-0.10599999999999987,100.0,1.0,1.0,212.76,0.0,0.0,0.0,0.0,0.0,0.0,0.0,9018.1,0.0,55.0,5.0,248.25333333333333,1.0,0.0,0.0,0.0,0.0,0.0,0.0,0.0,1.2540000000000013,1.2540000000000013,0.0,0.0,1.0,55.0,616.79921,10000.0,85.000001,85.000001,85.000001,85.000001,395.0,0.0,0.0,0.0,1.0,166.665,51.849000000000004,51.849000000000004,47.928,47.928,34.0,-25.89,25.695999999999998,-27.58,27.685000000000002,0.0,1782.501,-0.28999999999999915,100.0,27.98,28.239,43.056,43.324,0.0,0.0,100.0,0.0,0.0,0.0,0.0,3313.5714285714284,3244.7,3986.375,4062.1000000000004,305.028,304.43325,315.22425,314.8115,22.031,20.6466,22.0117,21.5223,314.999998,314.999998,324.999988,324.999988,99.56001428571429,99.5075,99.56808571428571,99.54821428571428,0.08833333333333337,-0.04466666666666663,-0.10783333333333334,0.11183333333333323,-0.03999999999999915,-0.060000000000002274,1.5545,1.5585,38.693,30.0415,38.573,35.5145,56.224000000000004,35.4855,59.805,52.9275,54.129000000000005,34.571,58.374,51.2405,53.260999999999996,34.0865,58.2645,50.641999999999996,-0.10299999999999998,-0.05800000000000005,0.10486500000000001,0.10663500000000001,0.0,215.905,215.92000000000002,212.76,212.76,0.0,0.0
26,0.0,0.0,0.0,1.0,1.0,0.0,0.0,1.0,0.0,0.0,1.0,1.1856,26.0,0.0,0.0,0.0,59.999996,0.0,26.0,26.0,26.0,26.0,0.011555555555555541,0.27890000000000015,0.06848,291.229,-2.7247,-2.7083,-1.635,-1.5329,-187.75,215.74,190.429625,0.0,0.0,0.0,0.0,0.05269999999999997,-5.498166666666667,-5.498166666666667,-0.5709000000000001,0.49633333333333335,0.0007777777777777661,-0.7410000000000001,69.112,0.0091,-0.1995,-0.1460000000000008,100.0,1.0,1.0,212.93333333333334,0.0,0.0,0.0,0.0,0.0,0.0,0.0,9025.5,0.0,55.0,5.0,248.77333333333334,0.0,0.0,0.0,0.0,0.0,0.0,0.0,0.0,1.3079999999999998,1.3079999999999998,0.0,0.0,0.0,55.0,616.79921,10000.0,85.000001,85.000001,85.000001,85.000001,395.0,0.0,0.0,0.0,1.0,166.665,51.62,51.62,46.249,46.249,34.0,-24.21,24.061999999999998,-34.026666666666664,32.394999999999996,0.0,1782.447,-0.3200000000000003,100.0,28.792,28.794,43.577,43.79,0.0,0.0,100.0,0.0,0.0,0.0,0.0,3227.5714285714284,3009.7,4617.75,4523.2,305.172,305.03575,313.73825,313.692,22.04111111111111,20.6527,22.0229,21.5321,314.999998,314.999998,324.999988,324.999988,99.56001428571429,99.5075,99.56824285714286,99.54835714285714,0.10099999999999998,-0.05233333333333312,-0.10333333333333339,0.11850000000000005,-0.023333333333326323,-0.04833333333333201,1.431,1.436,38.757,30.0795,38.643,35.576,56.213,35.528999999999996,59.848,52.994,54.119,34.611,58.4135,51.3045,53.248999999999995,34.125,58.3005,50.70466666666667,-0.11099999999999999,-0.06099999999999994,0.10511000000000001,0.10804000000000001,0.0,216.37,216.38,212.93333333333334,212.93333333333334,0.0,0.0
27,0.0,0.0,0.0,1.0,1.0,0.0,0.0,1.0,0.0,0.0,1.0,1.1856,26.0,0.0,0.0,0.0,59.999996,0.0,26.0,26.0,26.0,26.0,0.03133333333333321,0.2579,-0.04414,291.84,-2.6926,-2.6703,-1.6278000000000001,-1.6013,-184.43,215.73000000000002,190.4065,0.0,0.0,0.0,0.0,0.05463333333333331,-5.498166666666667,-5.498166666666667,-0.5988,-0.9883333333333334,0.0038888888888888307,-0.6160000000000001,69.235,0.010400000000000001,-0.24180000000000001,-0.16999999999999993,100.0,1.0,1.0,213.4766666666667,0.0,0.0,0.0,0.0,0.0,0.0,0.0,9048.5,0.0,55.0,5.0,249.22333333333336,1.0,0.0,0.0,0.0,0.0,0.0,0.0,0.0,1.355999999999998,1.355999999999998,0.0,0.0,1.0,55.0,616.79921,10000.0,85.000001,85.000001,85.000001,85.000001,395.0,0.0,0.0,0.0,1.0,166.665,51.987,51.987,46.753,46.753,34.0,-23.305,24.656,-28.82,28.9375,0.0,1782.399,-0.33999999999999986,100.0,28.38,28.624,44.067,44.229,0.0,0.0,100.0,0.0,0.0,0.0,0.0,3112.5714285714284,3098.1,4085.125,3996.2,305.5335,304.861,314.8755,314.85975,22.049888888888887,20.6581,22.032899999999998,21.5409,314.999998,314.999998,324.999988,324.999988,99.56004285714286,99.50751666666666,99.56838571428571,99.54851428571429,0.09133333333333349,-0.04699999999999993,-0.09950000000000003,0.12366666666666681,-0.03833333333332689,-0.054999999999999716,1.528,1.504,38.812,30.113,38.705,35.631,56.199,35.565,59.885,53.0525,54.105999999999995,34.6445,58.448499999999996,51.3605,53.236000000000004,34.157,58.332499999999996,50.75933333333333,-0.10699999999999998,-0.056499999999999995,0.10225000000000001,0.10788500000000001,0.0,216.7,216.715,213.4766666666667,213.4766666666667,0.0,0.0
28,0.0,0.0,0.0,1.0,1.0,0.0,0.0,1.0,0.0,0.0,1.0,1.1856,26.0,0.0,0.0,0.0,59.999996,0.0,26.0,26.0,26.0,26.0,0.03688888888888897,0.2602,-0.06272000000000001,291.977,-2.6783,-2.6654999999999998,-1.6215000000000002,-1.565,-181.1,215.72,190.382625,0.0,0.0,0.0,0.0,0.05656666666666654,-5.498166666666667,-5.498166666666667,-0.6028,0.6473333333333334,-0.0021111111111111747,-0.6510000000000002,69.358,0.013900000000000001,-0.217925,-0.23799999999999955,100.0,1.0,1.0,213.94666666666666,0.0,0.0,0.0,0.0,0.0,0.0,0.0,9068.5,0.0,55.0,5.0,249.66,0.0,0.0,0.0,0.0,0.0,0.0,0.0,0.0,1.404,1.404,0.0,0.0,0.0,55.0,616.79921,10000.0,85.000001,85.000001,85.000001,85.000001,395.0,0.0,0.0,0.0,1.0,333.33500000000004,51.772999999999996,51.772999999999996,47.668,47.668,34.0,-23.705,24.732,-28.273333333333333,28.9875,0.0,1782.349,-0.33999999999999986,100.0,28.529,28.570999999999998,43.409,43.772,0.0,0.0,100.0,0.0,0.0,0.0,0.0,3214.4285714285716,3080.0,4068.375,4105.6,305.1735,304.88275,315.10825,314.727,22.058777777777777,20.6634,22.0425,21.549500000000002,314.999998,314.999998,324.999988,324.999988,99.56005714285715,99.50751666666666,99.56851428571429,99.54864285714285,0.10099999999999998,-0.040999999999999925,-0.10033333333333339,0.12233333333333318,-0.05333333333332746,-0.03999999999999915,1.554,1.5455,38.867000000000004,30.1465,38.765,35.684,56.189,35.602000000000004,59.9165,53.1075,54.096000000000004,34.6785,58.4775,51.4135,53.224000000000004,34.189499999999995,58.3585,50.811,-0.11099999999999999,-0.0535000000000001,0.10661500000000002,0.106505,0.0,217.14499999999998,217.14,213.94666666666666,213.94666666666666,0.0,0.0
29,0.0,0.0,0.0,1.0,1.0,0.0,0.0,1.0,0.0,0.0,1.0,1.1856,26.0,0.0,0.0,0.0,59.999996,0.0,26.0,26.0,26.0,26.0,0.03344444444444439,0.26239999999999997,0.0004,291.672,-2.6609,-2.7133000000000003,-1.5719,-1.5479,-177.56,215.71,190.356125,0.0,0.0,0.0,0.0,0.058633333333333315,-5.498166666666667,-5.498166666666667,-0.6045,-0.6923333333333334,0.0040000000000000036,0.8959999999999999,69.493,0.0179,-0.21582500000000002,-0.33399999999999963,100.0,1.0,1.0,214.16333333333333,0.0,0.0,0.0,0.0,0.0,0.0,0.0,9077.6,0.0,55.0,5.0,250.14666666666665,1.0,0.0,0.0,0.0,0.0,0.0,0.0,0.0,1.4549999999999983,1.4549999999999983,0.0,0.0,1.0,55.0,616.79921,10000.0,85.000001,85.000001,85.000001,85.000001,395.0,0.0,0.0,0.0,1.0,166.665,52.032,52.032,46.631,46.631,34.0,-21.7675,26.282,-28.32,31.955,0.0,1782.299,-0.34999999999999964,100.0,28.362000000000002,28.304000000000002,43.911,43.988,0.0,0.0,100.0,0.0,0.0,0.0,0.0,3055.4285714285716,3185.3,4173.5,4328.2,305.5475,304.67925,314.61775,314.174,22.068,20.6691,22.0531,21.558799999999998,314.999998,314.999998,324.999988,324.999988,99.56007142857143,99.50753333333333,99.56867142857143,99.54878571428571,0.11333333333333373,-0.03466666666666662,-0.08583333333333332,0.13966666666666683,-0.02833333333332888,-0.041666666666671404,1.4885,1.4695,38.925,30.1815,38.832,35.7425,56.174,35.64,59.9565,53.1695,54.082,34.713499999999996,58.5145,51.4735,53.21,34.2235,58.3925,50.86966666666667,-0.10849999999999993,-0.05400000000000005,0.10702,0.112875,0.0,217.51,217.515,214.16333333333333,214.16333333333333,0.0,0.0
30,0.0,0.0,0.0,1.0,1.0,0.0,0.0,1.0,0.0,0.0,1.0,1.1856,26.0,0.0,0.0,0.0,59.999996,0.0,26.0,26.0,26.0,26.0,0.03455555555555567,0.25150000000000006,-0.0038,291.275,-2.6803,-2.5996,-1.5468000000000002,-1.6023,-174.01,215.7,190.32975,0.0,0.0,0.0,0.0,0.060699999999999976,-5.498166666666667,-5.498166666666667,-0.6037,0.8876666666666666,-0.0014444444444445814,-0.6659999999999999,69.62100000000001,0.019200000000000002,-0.217925,-0.22199999999999953,100.0,1.0,1.0,214.68666666666667,0.0,0.0,0.0,0.0,0.0,0.0,0.0,9099.8,0.0,55.0,5.0,250.61,0.0,0.0,0.0,0.0,0.0,0.0,1.0,0.0,1.5060000000000002,1.5060000000000002,0.0,0.0,0.0,55.0,616.79921,10000.0,85.000001,85.000001,85.000001,85.000001,395.0,0.0,0.0,0.0,1.0,166.665,50.781,50.781,47.195,47.195,34.0,-24.7725,25.158,-28.380000000000003,30.1075,0.0,1782.249,-0.3249999999999993,100.0,29.101,29.176000000000002,43.575,44.046,0.0,0.0,100.0,0.0,0.0,0.0,0.0,3349.0,3167.5,4166.75,4106.0,304.7,304.53175,314.80575,314.62375,22.077666666666666,20.675,22.0634,21.568,314.999998,314.999998,324.999988,324.999988,99.56007142857143,99.50753333333333,99.56881428571428,99.54894285714286,0.10533333333333372,-0.03833333333333311,-0.09999999999999998,0.12716666666666687,-0.054999999999999716,-0.03999999999999915,1.5030000000000001,1.4965000000000002,38.985,30.2185,38.896,35.8,56.165,35.681,59.991,53.230000000000004,54.073,34.751999999999995,58.547,51.5315,53.199,34.26,58.422,50.92633333333333,-0.11199999999999999,-0.05950000000000011,0.107855,0.10813,0.0,217.95499999999998,217.95499999999998,214.68666666666667,214.68666666666667,0.0,0.0
31,0.0,0.0,0.0,1.0,1.0,0.0,0.0,1.0,0.0,0.0,1.0,1.1856,26.0,0.0,0.0,0.0,59.999996,0.0,26.0,26.0,26.0,26.0,0.014111111111111185,0.2573000000000001,0.021380000000000003,290.955,-2.7658,-2.5827,-1.5909,-1.502,-170.67000000000002,215.6925,190.3055,0.0,0.0,0.0,0.0,0.06263333333333332,-5.498166666666667,-5.498166666666667,-0.5892000000000001,-0.48433333333333334,0.0020000000000000018,-0.9220000000000002,69.74600000000001,0.0223,-0.21982500000000002,-0.26200000000000045,100.0,1.0,1.0,214.9,0.0,0.0,0.0,0.0,0.0,0.0,0.0,9108.9,0.0,55.0,5.0,251.06,1.0,0.0,0.0,0.0,0.0,0.0,1.0,0.0,1.5539999999999985,1.5539999999999985,0.0,0.0,1.0,55.0,616.79921,10000.0,85.000001,85.000001,85.000001,85.000001,395.0,0.0,0.0,0.0,1.0,333.33500000000004,51.315,51.315,45.624,45.624,34.0,-24.0875,25.304000000000002,-31.173333333333332,30.512500000000003,0.0,1782.199,-0.379999999999999,100.0,28.791,29.177,44.333,44.744,0.0,0.0,100.0,0.0,0.0,0.0,0.0,3209.285714285714,3224.4,4387.625,4221.5,305.363,304.56825,314.19075,314.313,22.086444444444446,20.6804,22.0735,21.5769,314.999998,314.999998,324.999988,324.999988,99.5601,99.50753333333333,99.56895714285714,99.54908571428571,0.10599999999999987,-0.03766666666666674,-0.09933333333333338,0.13650000000000007,-0.04833333333333201,-0.04999999999999716,1.4525000000000001,1.4369999999999998,39.04,30.252499999999998,38.959,35.856,56.153,35.7185,60.03,53.2905,54.062,34.786,58.5835,51.5895,53.187,34.293,58.455,50.983333333333334,-0.11249999999999993,-0.05449999999999999,0.112015,0.11586,0.0,218.31,218.32,214.9,214.9,0.0,0.0
32,0.0,0.0,0.0,1.0,1.0,0.0,0.0,1.0,0.0,0.0,1.0,1.1856,26.0,0.0,0.0,0.0,59.999996,0.0,26.0,26.0,26.0,26.0,0.02100000000000013,0.2712000000000001,-0.04358,291.229,-2.6839,-2.6879,-1.6451,-1.5083,-167.11,215.685,190.279875,0.0,0.0,0.0,0.0,0.06469999999999998,-5.498166666666667,-5.498166666666667,-0.606,-0.089,-0.015555555555555767,0.244,69.874,0.020200000000000003,-0.22855,-0.3739999999999988,100.0,1.0,1.0,215.4,0.0,0.0,0.0,0.0,0.0,0.0,0.0,9130.1,0.0,55.0,5.0,251.51999999999998,0.0,0.0,0.0,0.0,0.0,0.0,1.0,0.0,1.6050000000000004,1.6050000000000004,0.0,0.0,0.0,55.0,616.79921,10000.0,85.000001,85.000001,85.000001,85.000001,395.0,0.0,0.0,0.0,1.0,166.665,51.407,51.407,46.509,46.509,34.0,-22.32,26.375999999999998,-29.159999999999997,31.1325,0.0,1782.148,-0.3699999999999992,100.0,28.925,29.011,44.185,44.457,0.0,0.0,100.0,0.0,0.0,0.0,0.0,3124.857142857143,3183.7,4216.5,4323.3,305.2955,304.745,314.69725,314.29975,22.09588888888889,20.6862,22.0839,21.586199999999998,314.999998,314.999998,324.999988,324.999988,99.5601,99.50755,99.5691,99.54922857142857,0.1203333333333334,-0.02499999999999991,-0.08250000000000002,0.14183333333333326,-0.04833333333333201,-0.041666666666671404,1.524,1.5095,39.099000000000004,30.289,39.024,35.914,56.141,35.757999999999996,60.066,53.3505,54.05,34.823,58.6165,51.6475,53.175,34.328,58.485,51.04,-0.11399999999999999,-0.05249999999999999,0.10502500000000001,0.11217500000000001,0.0,218.70499999999998,218.72,215.4,215.4,0.0,0.0
33,0.0,0.0,0.0,1.0,1.0,0.0,0.0,1.0,0.0,0.0,1.0,1.1856,26.0,0.0,0.0,0.0,59.999996,0.0,26.0,26.0,26.0,26.0,0.030444444444444274,0.2622,-0.026960000000000005,291.473,-2.7267,-2.6801,-1.5902,-1.593,-163.54,215.6775,190.25325,0.0,0.0,0.0,0.0,0.06679999999999997,-5.498166666666667,-5.498166666666667,-0.6165,-0.3343333333333333,-0.015000000000000124,-0.1070000000000002,70.003,0.0189,-0.21805000000000002,-0.1899999999999995,100.0,1.0,1.0,215.79666666666668,0.0,0.0,0.0,0.0,0.0,0.0,0.0,9146.9,0.0,55.0,5.0,251.98666666666668,1.0,0.0,0.0,0.0,0.0,0.0,1.0,0.0,1.6559999999999988,1.6559999999999988,0.0,0.0,1.0,55.0,616.79921,10000.0,85.000001,85.000001,85.000001,85.000001,395.0,0.0,0.0,0.0,1.0,166.665,51.727,51.727,46.768,46.768,34.0,-23.87,24.39,-29.293333333333337,30.875,0.0,1782.098,-0.379999999999999,100.0,28.65,28.9,44.051,44.486000000000004,0.0,0.0,100.0,0.0,0.0,0.0,0.0,3196.285714285714,3040.6,4155.75,4213.1,305.3485,305.05925,314.784,314.447,22.105222222222224,20.6919,22.0943,21.5955,314.999998,314.999998,324.999988,324.999988,99.56012857142858,99.50755,99.56925714285714,99.5494,0.10166666666666657,-0.04266666666666663,-0.10633333333333339,0.129,-0.03833333333332689,-0.046666666666666856,1.5055,1.508,39.158,30.323999999999998,39.089,35.9715,56.129000000000005,35.795,60.1015,53.4105,54.038,34.857,58.65,51.705,53.162,34.361000000000004,58.515,51.096333333333334,-0.11149999999999993,-0.052000000000000046,0.10768000000000001,0.10913500000000001,0.0,219.095,219.10000000000002,215.79666666666668,215.79666666666668,0.0,0.0
34,0.0,0.0,0.0,1.0,1.0,0.0,0.0,1.0,0.0,0.0,1.0,1.1856,26.0,0.0,0.0,0.0,59.999996,0.0,26.0,26.0,26.0,26.0,0.029777777777777903,0.25470000000000015,-0.02638,291.656,-2.6645,-2.6714,-1.6477,-1.5566,-160.18,215.6725,190.226875,0.0,0.0,0.0,0.0,0.06873333333333331,-5.498166666666667,-5.498166666666667,-0.6418,-0.8753333333333334,0.00955555555555554,-0.13900000000000023,70.124,0.019700000000000002,-0.222725,-0.17799999999999905,100.0,1.0,1.0,216.16666666666669,0.0,0.0,0.0,0.0,0.0,0.0,0.0,9162.5,0.0,55.0,5.0,252.42000000000002,0.0,0.0,0.0,0.0,0.0,0.0,1.0,0.0,1.7040000000000006,1.7040000000000006,0.0,0.0,0.0,55.0,616.79921,10000.0,85.000001,85.000001,85.000001,85.000001,395.0,0.0,0.0,0.0,1.0,333.33500000000004,52.032,52.032,47.18,47.18,34.0,-22.91,23.945999999999998,-29.28666666666666,30.77,0.0,1782.049,-0.3849999999999998,100.0,28.439,28.644,43.893,44.498999999999995,0.0,0.0,100.0,0.0,0.0,0.0,0.0,3167.0,2981.0,4110.75,4199.5,305.404,305.192,314.929,314.42625,22.114,20.6971,22.1041,21.6042,314.999998,314.999998,324.999988,324.999988,99.56012857142858,99.50756666666666,99.56938571428572,99.54952857142857,0.10499999999999998,-0.03966666666666674,-0.09983333333333333,0.1363333333333332,-0.03833333333332689,-0.04833333333333201,1.5130000000000001,1.4940000000000002,39.212,30.357,39.15,36.0265,56.116,35.829,60.1345,53.468,54.025999999999996,34.8885,58.6805,51.7605,53.149,34.3915,58.542500000000004,51.150333333333336,-0.10849999999999993,-0.0515000000000001,0.107755,0.11038,0.0,219.46,219.47,216.16666666666669,216.16666666666669,0.0,0.0
35,0.0,0.0,0.0,1.0,1.0,0.0,0.0,1.0,0.0,0.0,1.0,1.1856,26.0,0.0,0.0,0.0,59.999996,0.0,26.0,26.0,26.0,26.0,0.03511111111111109,0.2499,-0.01496,291.718,-2.7225,-2.6183,-1.6221,-1.5154,-156.39,215.66750000000002,190.195125,0.0,0.0,0.0,0.0,0.0709333333333334,-5.498166666666667,-5.498166666666667,-0.6835,-0.17966666666666667,-0.009111111111111292,-1.3330000000000002,70.258,0.023200000000000002,-0.23090000000000002,-0.29800000000000004,100.0,1.0,1.0,216.66666666666669,0.0,0.0,0.0,0.0,0.0,0.0,0.0,9183.7,0.0,55.0,5.0,252.90666666666667,1.0,0.0,0.0,0.0,0.0,0.0,1.0,0.0,1.7579999999999991,1.7579999999999991,0.0,0.0,1.0,55.0,616.79921,10000.0,85.000001,85.000001,85.000001,85.000001,395.0,0.0,0.0,0.0,1.0,166.665,51.498,51.498,46.844,46.844,34.0,-23.96,26.628,-27.64333333333333,28.2425,0.0,1781.996,-0.23499999999999943,100.0,28.252,28.926000000000002,43.677,43.975,0.0,0.0,100.0,0.0,0.0,0.0,0.0,3195.142857142857,3323.7,4039.375,3999.0,305.321,304.1745,315.07575,314.9825,22.123666666666665,20.7032,22.115,21.6139,314.999998,314.999998,324.999988,324.999988,99.56014285714286,99.50756666666666,99.56955714285715,99.54968571428572,0.09966666666666635,-0.038999999999999924,-0.08916666666666662,0.1373333333333333,-0.05833333333333002,-0.045000000000001705,1.557,1.54,39.272999999999996,30.3955,39.218,36.087,56.099999999999994,35.8705,60.171,53.5285,54.010999999999996,34.927,58.7145,51.8185,53.132999999999996,34.4285,58.573,51.207,-0.09999999999999998,-0.05950000000000011,0.10795500000000001,0.10438000000000001,0.0,219.9,219.9,216.66666666666669,216.66666666666669,0.0,0.0
36,0.0,0.0,0.0,1.0,1.0,0.0,0.0,1.0,0.0,0.0,1.0,1.1856,26.0,0.0,0.0,0.0,59.999996,0.0,26.0,26.0,26.0,26.0,0.023222222222222255,0.2563,0.058460000000000005,290.924,-2.6369,-2.6676,-1.5657,-1.5625,-153.22,215.6625,190.1675,0.0,0.0,0.0,0.0,0.07279999999999998,-5.498166666666667,-5.498166666666667,-0.6633,0.279,-0.05088888888888876,0.16399999999999992,70.374,0.023100000000000002,-0.201875,-0.129999999999999,100.0,1.0,1.0,216.80333333333334,0.0,0.0,0.0,0.0,0.0,0.0,0.0,9189.5,0.0,55.0,5.0,253.31666666666666,0.0,0.0,0.0,0.0,0.0,0.0,1.0,0.0,1.8030000000000008,1.8030000000000008,0.0,0.0,0.0,55.0,616.79921,10000.0,85.000001,85.000001,85.000001,85.000001,395.0,0.0,0.0,0.0,1.0,166.665,51.285,51.285,46.371,46.371,34.0,-22.7375,25.898,-29.593333333333334,34.015,0.0,1781.952,-0.14499999999999957,100.0,29.012999999999998,28.858,43.94,44.131,0.0,0.0,100.0,0.0,0.0,0.0,0.0,3154.0,3221.8,4400.875,4507.0,305.057,304.7015,314.17125,313.8185,22.131888888888888,20.7084,22.1242,21.6221,314.999998,314.999998,324.999988,324.999988,99.56015714285714,99.50756666666666,99.56968571428571,99.54982857142858,0.11066666666666647,-0.03866666666666663,-0.07483333333333331,0.1423333333333332,-0.036666666666668846,-0.046666666666666856,1.44,1.4385,39.325,30.427500000000002,39.275999999999996,36.1385,56.09,35.9055,60.204,53.582,54.001999999999995,34.96,58.745,51.8705,53.122,34.46,58.601,51.257999999999996,-0.09399999999999997,-0.07299999999999995,0.10132500000000001,0.11028500000000001,0.0,220.25,220.26999999999998,216.80333333333334,216.80333333333334,0.0,0.0
