,ABS Active,ABS Enabled,AID Allow Tire Blankets,AID Auto Blip,AID Auto Clutch,AID Auto Shift,AID Fuel Rate,AID Ideal Line,AID Mech Damage,AID Stability,AID Tire Wear Rate,Air Density,Air Temp,Ballast,Best Lap Delta,Best Lap Time,Brake Bias,Brake Pos,Brake Temp FL,Brake Temp FR,Brake Temp RL,Brake Temp RR,CG Accel Lateral,CG Accel Longitudinal,CG Accel Vertical,CG Height,Camber FL,Camber FR,Camber RL,Camber RR,Car Coord X,Car Coord Y,Car Coord Z,Car Damage Front,Car Damage Left,Car Damage Rear,Car Damage Right,Car Pos Norm,Caster FL,Caster FR,Chassis Pitch Angle,Chassis Pitch Rate,Chassis Roll Angle,Chassis Roll Rate,Chassis Velocity X,Chassis Velocity Y,Chassis Velocity Z,Chassis Yaw Rate,Clutch Pos,DRS Active,DRS Available,Drive Train Speed,ERS Heat Charging,ERS Is Charging,ERS Max Energy,ERS Power Level,ERS Recovery Level,Engine Brake Setting,Engine Limiter,Engine RPM,Flags,Fuel Level,Gear,Ground Speed,HR Sample Clock,In Pit,KERS Charge,KERS Deployed Energy,KERS Input,KERS Max Energy,LR Sample Clock,Lap Invalidated,Lap Time,Lap Time2,Last Lap Time,Last Sector Time,MR Sample Clock,Max Fuel,Max Power,Max RPM,Max Sus Travel FL,Max Sus Travel FR,Max Sus Travel RL,Max Sus Travel RR,Max Torque,Max Turbo Boost,Num Tires Off Track,Penalties Enabled,Position,Raw Data Sample Rate,Ride Height FL,Ride Height FR,Ride Height RL,Ride Height RR,Road Temp,Self Align Torque FL,Self Align Torque FR,Self Align Torque RL,Self Align Torque RR,Session Lap Count,Session Time Left,Steering Angle,Surface Grip,Suspension Travel FL,Suspension Travel FR,Suspension Travel RL,Suspension Travel RR,TC Active,TC Enabled,Throttle Pos,Tire Dirt Level FL,Tire Dirt Level FR,Tire Dirt Level RL,Tire Dirt Level RR,Tire Load FL,Tire Load FR,Tire Load RL,Tire Load RR,Tire Loaded Radius FL,Tire Loaded Radius FR,Tire Loaded Radius RL,Tire Loaded Radius RR,Tire Pressure FL,Tire Pressure FR,Tire Pressure RL,Tire Pressure RR,Tire Radius FL,Tire Radius FR,Tire Radius RL,Tire Radius RR,Tire Rubber Grip FL,Tire Rubber Grip FR,Tire Rubber Grip RL,Tire Rubber Grip RR,Tire Slip Angle FL,Tire Slip Angle FR,Tire Slip Angle RL,Tire Slip Angle RR,Tire Slip Ratio FL,Tire Slip Ratio FR,Tire Slip Ratio RL,Tire Slip Ratio RR,Tire Temp Core FL,Tire Temp Core FR,Tire Temp Core RL,Tire Temp Core RR,Tire Temp Inner FL,Tire Temp Inner FR,Tire Temp Inner RL,Tire Temp Inner RR,Tire Temp Middle FL,Tire Temp Middle FR,Tire Temp Middle RL,Tire Temp Middle RR,Tire Temp Outer FL,Tire Temp Outer FR,Tire Temp Outer RL,Tire Temp Outer RR,Toe In FL,Toe In FR,Toe In RL,Toe In RR,Turbo Boost,Wheel Angular Speed FL,Wheel Angular Speed FR,Wheel Angular Speed RL,Wheel Angular Speed RR,Wind Direction,Wind Speed
0,0.0,0.0,0.0,1.0,1.0,0.0,0.0,1.0,0.0,0.0,1.0,1.1856,26.0,0.0,0.0,0.0,59.99999,0.0,26.0,26.0,26.0,26.0,-0.06511111111111112,0.2936000000000001,0.11665,293.945,-2.7255,-2.6554,-1.51465,-1.5590000000000002,-275.41,216.28750000000002,190.986,0.0,0.0,0.0,0.0,0.0017666666666666668,-5.498166666666667,-5.498166666666667,-0.5438000000000001,1.446,-0.011555555555555763,-1.6269999999999998,65.512,-0.028200000000000003,-0.210625,0.9639999999999995,100.0,1.0,1.0,202.26,0.0,0.0,0.0,0.0,0.0,0.0,0.0,8573.1,0.0,55.0,5.0,235.81,0.0,0.0,0.0,0.0,0.0,0.0,0.0,0.0,0.006000000000000227,0.006000000000000227,0.0,0.0,0.0,55.0,616.79921,10000.0,85.0,85.0,85.0,85.0,395.0,0.0,0.0,0.0,1.0,20.0,52.658,52.658,49.271,49.271,34.0,-28.1,23.47833333333333,-31.14333333333333,24.395,0.0,1783.704,0.8800000000000008,100.0,27.062,27.099,40.49,40.58,0.0,0.0,100.0,0.0,0.0,0.0,0.0,3169.75,3381.4,4220.111111111111,3931.4,305.2966666666667,303.95425,314.63525,314.988,21.806,20.5161,21.7609,21.3016,314.99999,314.99999,324.99998,324.99998,99.56038571428572,99.50728333333333,99.56467142857143,99.54465714285715,-0.0035000000000000586,-0.1223333333333334,-0.15916666666666665,0.06333333333333334,-0.02833333333332888,-0.023333333333326323,1.5385,1.5895,37.288,29.2255,37.006,34.1355,56.795,34.5465,58.891999999999996,51.4155,54.668,33.702,57.525,49.786500000000004,53.813,33.251999999999995,57.489,49.217,-0.01100000000000001,-0.14500000000000002,0.11073000000000001,0.09766000000000001,0.0,205.3,205.195,202.26,202.26,0.0,0.0
1,0.0,0.0,0.0,1.0,1.0,0.0,0.0,1.0,0.0,0.0,1.0,1.1856,26.0,0.0,0.0,0.0,59.999996,0.0,26.0,26.0,26.0,26.0,-0.09311111111111103,0.3187,0.185525,293.121,-2.6449,-2.7628,-1.556,-1.5105,-271.87,216.2825,190.964875,0.0,0.0,0.0,0.0,0.0038,-5.498166666666667,-5.498166666666667,-0.4998,-1.1345,-0.052444444444444294,-1.4449999999999998,65.675,-0.0494,-0.20165,1.4100000000000001,100.0,1.0,1.0,202.46333333333334,0.0,0.0,0.0,0.0,0.0,0.0,0.0,8581.7,0.0,55.0,5.0,236.4,1.0,0.0,0.0,0.0,0.0,0.0,0.0,0.0,0.05999999999999872,0.05999999999999872,0.0,0.0,1.0,55.0,616.79921,10000.0,85.000001,85.000001,85.000001,85.000001,395.0,0.0,0.0,0.0,1.0,166.665,53.711,53.711,48.400999999999996,48.400999999999996,34.0,-26.9075,18.46,-33.61,27.97,0.0,1783.65,0.870000000000001,100.0,27.33,26.896,42.743,41.994,0.0,0.0,100.0,0.0,0.0,0.0,0.0,3118.375,2719.6,4246.0,4574.8,305.4716666666667,306.17525,314.47775,313.18325,21.8167,20.5214,21.7723,21.3113,314.999998,314.999998,324.999988,324.999988,99.5604,99.50731666666667,99.56482857142858,99.54481428571428,-0.00550000000000006,-0.1353333333333333,-0.1785,0.04033333333333334,-0.04999999999999716,-0.054999999999999716,1.43,1.4595,37.354,29.259,37.077,34.196,56.775999999999996,34.588499999999996,58.939499999999995,51.4865,54.65,33.7405,57.5695,49.8545,53.794,33.289,57.5305,49.284,-0.007000000000000006,-0.14149999999999996,0.10405500000000001,0.11180500000000002,0.0,205.76999999999998,205.655,202.46333333333334,202.46333333333334,0.0,0.0
2,0.0,0.0,0.0,1.0,1.0,0.0,0.0,1.0,0.0,0.0,1.0,1.1856,26.0,0.0,0.0,0.0,59.999996,0.0,26.0,26.0,26.0,26.0,-0.13344444444444448,0.30790000000000006,-0.008825000000000001,293.701,-2.6054,-2.7923999999999998,-1.4914,-1.6052,-268.72,216.275,190.947,0.0,0.0,0.0,0.0,0.005633333333333334,-5.498166666666667,-5.498166666666667,-0.5469,0.131,-0.047222222222222054,1.694,65.80799999999999,-0.06910000000000001,-0.245375,1.612000000000001,100.0,1.0,1.0,203.32999999999998,0.0,0.0,0.0,0.0,0.0,0.0,0.0,8618.3,0.0,55.0,5.0,236.88,0.0,0.0,0.0,0.0,0.0,0.0,0.0,0.0,0.10800000000000054,0.10800000000000054,0.0,0.0,0.0,55.0,616.79921,10000.0,85.000001,85.000001,85.000001,85.000001,395.0,0.0,0.0,0.0,1.0,166.665,52.49,52.49,50.14,50.14,34.0,-30.3525,19.810000000000002,-29.49,20.12,0.0,1783.602,0.6600000000000001,100.0,28.201999999999998,26.987000000000002,42.481,41.336,0.0,0.0,100.0,0.0,0.0,0.0,0.0,3382.875,2924.9,3771.0,3735.1,304.547,305.49525,315.60625,315.636,21.8264,20.5261,21.7821,21.319499999999998,314.999998,314.999998,324.999988,324.999988,99.5604,99.50731666666667,99.56495714285714,99.54494285714286,-0.026249999999999885,-0.14966666666666661,-0.2225,0.0005,-0.060000000000002274,-0.021666666666668277,1.63,1.6865,37.415,29.288,37.138,34.2465,56.763999999999996,34.6245,58.975,51.539,54.638,33.774,57.603,49.905,53.782,33.321,57.561,49.333333333333336,-0.017000000000000015,-0.13050000000000006,0.10388000000000001,0.10279,0.0,206.23000000000002,206.05,203.32999999999998,203.32999999999998,0.0,0.0
3,0.0,0.0,0.0,1.0,1.0,0.0,0.0,1.0,0.0,0.0,1.0,1.1856,26.0,0.0,0.0,0.0,59.999996,0.0,26.0,26.0,26.0,26.0,-0.13244444444444448,0.31730000000000014,-0.024475,293.411,-2.73165,-2.6875,-1.5134500000000002,-1.5899,-265.55,216.2625,190.9285,0.0,0.0,0.0,0.0,0.0074666666666666675,-5.498166666666667,-5.498166666666667,-0.5094000000000001,0.377,-0.009666666666666934,-0.968,65.952,-0.0838,-0.20185,1.2760000000000007,100.0,1.0,1.0,203.46,0.0,0.0,0.0,0.0,0.0,0.0,0.0,8624.0,0.0,55.0,5.0,237.39333333333332,1.0,0.0,0.0,0.0,0.0,0.0,0.0,0.0,0.1559999999999988,0.1559999999999988,0.0,0.0,1.0,55.0,616.79921,10000.0,85.000001,85.000001,85.000001,85.000001,395.0,0.0,0.0,0.0,1.0,333.33500000000004,53.558,53.558,48.065,48.065,34.0,-26.1425,17.87833333333333,-35.77333333333333,24.5975,0.0,1783.553,0.6100000000000012,100.0,27.817,27.09,42.406,41.501,0.0,0.0,100.0,0.0,0.0,0.0,0.0,2891.125,2803.7,4342.0,4239.4,306.03433333333334,305.7155,314.2755,314.27475,21.8357,20.531,21.7919,21.3278,314.999998,314.999998,324.999988,324.999988,99.56041428571429,99.50733333333334,99.5651,99.54508571428572,-0.022750000000000048,-0.15666666666666662,-0.21816666666666668,0.012,-0.045000000000001705,-0.046666666666666856,1.4795,1.527,37.473,29.3185,37.199,34.299,56.747,34.664500000000004,59.013,51.599000000000004,54.622,33.811,57.6385,49.9625,53.765,33.356,57.594,49.38966666666666,-0.02849999999999997,-0.123,0.107895,0.10751500000000001,0.0,206.67000000000002,206.54000000000002,203.46,203.46,0.0,0.0
4,0.0,0.0,0.0,1.0,1.0,0.0,0.0,1.0,0.0,0.0,1.0,1.1856,26.0,0.0,0.0,0.0,59.999996,0.0,26.0,26.0,26.0,26.0,-0.1293333333333333,0.2813000000000001,-0.010975,293.73199999999997,-2.66145,-2.7435,-1.524,-1.5994000000000002,-261.99,216.2475,190.907625,0.0,0.0,0.0,0.0,0.009566666666666668,-5.498166666666667,-5.498166666666667,-0.5466,-0.5225,-0.08088888888888857,-1.5739999999999998,66.106,-0.08610000000000001,-0.23915,1.1720000000000006,100.0,1.0,1.0,204.12666666666667,0.0,0.0,0.0,0.0,0.0,0.0,0.0,8652.2,0.0,55.0,5.0,237.95,0.0,0.0,0.0,0.0,0.0,0.0,0.0,0.0,0.21000000000000085,0.21000000000000085,0.0,0.0,0.0,55.0,616.79921,10000.0,85.000001,85.000001,85.000001,85.000001,395.0,0.0,0.0,0.0,1.0,166.665,53.024,53.024,49.057,49.057,34.0,-30.119999999999997,19.32333333333333,-32.233333333333334,20.42,0.0,1783.5,0.5700000000000003,100.0,27.629,26.879,42.719,41.424,0.0,0.0,100.0,0.0,0.0,0.0,0.0,3331.75,2879.4,4032.222222222222,3648.7,304.86566666666664,305.5085,314.99625,315.743,21.8461,20.5364,21.8031,21.3372,314.999998,314.999998,324.999988,324.999988,99.56041428571429,99.50735,99.56524285714286,99.54521428571428,-0.026000000000000023,-0.14600000000000002,-0.21516666666666667,0.015166666666666667,-0.060000000000002274,-0.06333333333333258,1.588,1.6385,37.538,29.3525,37.269,34.3575,56.727000000000004,34.708,59.0575,51.661500000000004,54.604,33.851,57.68,50.0225,53.745999999999995,33.3945,57.6325,49.448,-0.035499999999999976,-0.1140000000000001,0.10785000000000002,0.11046,0.0,207.095,207.0,204.12666666666667,204.12666666666667,0.0,0.0
5,0.0,0.0,0.0,1.0,1.0,0.0,0.0,1.0,0.0,0.0,1.0,1.1856,26.0,0.0,0.0,0.0,59.999996,0.0,26.0,26.0,26.0,26.0,-0.12644444444444447,0.31390000000000007,0.002775,293.655,-2.67625,-2.7653,-1.5097,-1.5857,-258.81,216.23000000000002,190.888375,0.0,0.0,0.0,0.0,0.0114,-5.498166666666667,-5.498166666666667,-0.5335,0.3345,-0.08233333333333359,-0.2290000000000001,66.24600000000001,-0.08610000000000001,-0.2097,0.9960000000000004,100.0,1.0,1.0,204.43333333333334,0.0,0.0,0.0,0.0,0.0,0.0,0.0,8665.1,0.0,55.0,5.0,238.45333333333332,1.0,0.0,0.0,0.0,0.0,0.0,0.0,0.0,0.2579999999999991,0.2579999999999991,0.0,0.0,1.0,55.0,616.79921,10000.0,85.000001,85.000001,85.000001,85.000001,395.0,0.0,0.0,0.0,1.0,166.665,53.497,53.497,48.92,48.92,34.0,-28.695,18.798333333333332,-34.06333333333333,22.335,0.0,1783.451,0.22499999999999964,100.0,27.673000000000002,26.701999999999998,42.525,41.229,0.0,0.0,100.0,0.0,0.0,0.0,0.0,3205.75,2759.4,4221.0,4046.7,305.20733333333334,305.9565,314.60725,314.77525,21.8555,20.5412,21.8129,21.345399999999998,314.999998,314.999998,324.999988,324.999988,99.56041428571429,99.50736666666667,99.56538571428571,99.54535714285714,-0.018999999999999906,-0.1383333333333333,-0.21383333333333335,-0.001,-0.045000000000001705,-0.036666666666668846,1.5145,1.5755,37.597,29.3825,37.331,34.408500000000004,56.712,34.7455,59.0955,51.717,54.59,33.8855,57.7155,50.0755,53.730999999999995,33.4275,57.6655,49.49966666666667,-0.05399999999999994,-0.09250000000000003,0.11028,0.093825,0.0,207.55,207.46,204.43333333333334,204.43333333333334,0.0,0.0
6,0.0,0.0,0.0,1.0,1.0,0.0,0.0,1.0,0.0,0.0,1.0,1.1856,26.0,0.0,0.0,0.0,59.999996,0.0,26.0,26.0,26.0,26.0,-0.10144444444444445,0.2825,-0.003275,293.488,-2.6465,-2.7908,-1.5574,-1.578,-255.63,216.21,190.869,0.0,0.0,0.0,0.0,0.013266666666666666,-5.498166666666667,-5.498166666666667,-0.5306000000000001,0.06899999999999995,-0.06088888888888855,-0.43400000000000016,66.383,-0.0796,-0.2132,0.7620000000000005,100.0,1.0,1.0,204.85333333333335,0.0,0.0,0.0,0.0,0.0,0.0,0.0,8682.9,0.0,55.0,5.0,238.95,0.0,0.0,0.0,0.0,0.0,0.0,0.0,0.0,0.30600000000000094,0.30600000000000094,0.0,0.0,0.0,55.0,616.79921,10000.0,85.000001,85.000001,85.000001,85.000001,395.0,0.0,0.0,0.0,1.0,166.665,53.223,53.223,48.737,48.737,34.0,-27.585,20.563333333333333,-33.46666666666667,23.310000000000002,0.0,1783.405,0.009999999999999787,100.0,27.605,26.85,42.616,41.559,0.0,0.0,100.0,0.0,0.0,0.0,0.0,3197.375,2874.8,4137.444444444444,4009.9,305.18466666666666,305.476,314.7975,314.8585,21.8649,20.546,21.8228,21.3538,314.999998,314.999998,324.999988,324.999988,99.56041428571429,99.50738333333334,99.56551428571429,99.54548571428572,0.000500000000000167,-0.1253333333333334,-0.20650000000000002,0.025,-0.05666666666667197,-0.04333333333332945,1.532,1.5805,37.656,29.4125,37.393,34.4615,56.697,34.783500000000004,59.134,51.7755,54.575,33.920500000000004,57.7515,50.131,53.716,33.461,57.699,49.55433333333333,-0.07099999999999995,-0.07650000000000001,0.10858000000000001,0.10658000000000001,0.0,207.965,207.885,204.85333333333335,204.85333333333332,0.0,0.0
7,0.0,0.0,0.0,1.0,1.0,0.0,0.0,1.0,0.0,0.0,1.0,1.1856,26.0,0.0,0.0,0.0,59.999996,0.0,26.0,26.0,26.0,26.0,-0.07544444444444443,0.2894000000000001,0.046525000000000004,293.289,-2.6119,-2.7512,-1.5162,-1.6206,-252.24,216.185,190.848625,0.0,0.0,0.0,0.0,0.015233333333333335,-5.498166666666667,-5.498166666666667,-0.5345,0.07250000000000001,-0.04700000000000015,1.0709999999999997,66.52799999999999,-0.0669,-0.22410000000000002,0.39000000000000057,100.0,1.0,1.0,205.3,0.0,0.0,0.0,0.0,0.0,0.0,0.0,8702.0,0.0,55.0,5.0,239.47333333333333,1.0,0.0,0.0,0.0,0.0,0.0,0.0,0.0,0.3569999999999993,0.3569999999999993,0.0,0.0,1.0,55.0,616.79921,10000.0,85.000001,85.000001,85.000001,85.000001,395.0,0.0,0.0,0.0,1.0,333.33500000000004,52.887,52.887,48.888999999999996,48.888999999999996,34.0,-25.435,22.573333333333334,-30.92,25.2175,0.0,1783.351,-0.20999999999999908,100.0,27.948,26.833,42.732,41.731,0.0,0.0,100.0,0.0,0.0,0.0,0.0,3143.625,3021.2,4015.0,4069.3,305.11533333333335,305.177,314.988,314.72875,21.8749,20.5512,21.8333,21.3628,314.999998,314.999998,324.999988,324.999988,99.56042857142857,99.5074,99.56567142857143,99.54562857142857,0.038000000000000256,-0.09366666666666656,-0.18566666666666667,0.04033333333333334,-0.02833333333332888,-0.04333333333332945,1.5310000000000001,1.549,37.718,29.445,37.458,34.5175,56.681,34.823,59.174,51.837,54.559,33.9565,57.7885,50.1905,53.7,33.496,57.733000000000004,49.61266666666667,-0.09799999999999998,-0.05899999999999994,0.11258000000000001,0.10447000000000001,0.0,208.37,208.345,205.3,205.3,0.0,0.0
8,0.0,0.0,0.0,1.0,1.0,0.0,0.0,1.0,0.0,0.0,1.0,1.1856,26.0,0.0,0.0,0.0,59.999996,0.0,26.0,26.0,26.0,26.0,-0.04133333333333333,0.2925,0.01435,293.533,-2.69605,-2.7261,-1.49615,-1.5755,-248.64,216.16,190.82675,0.0,0.0,0.0,0.0,0.0173,-5.498166666666667,-5.498166666666667,-0.539,-0.6280000000000001,-0.03299999999999992,0.7039999999999997,66.68299999999999,-0.0456,-0.21785000000000002,-0.07600000000000051,100.0,1.0,1.0,205.72333333333333,0.0,0.0,0.0,0.0,0.0,0.0,0.0,8719.9,0.0,55.0,5.0,240.03,0.0,0.0,0.0,0.0,0.0,0.0,0.0,0.0,0.41100000000000136,0.41100000000000136,0.0,0.0,0.0,55.0,616.79921,10000.0,85.000001,85.000001,85.000001,85.000001,395.0,0.0,0.0,0.0,1.0,166.665,53.543,53.543,48.400999999999996,48.400999999999996,34.0,-24.105,23.415,-28.94333333333333,26.475,0.0,1783.3,-0.3550000000000004,100.0,27.438,26.738,42.738,41.847,0.0,0.0,100.0,0.0,0.0,0.0,0.0,2985.75,3037.9,4042.5555555555557,4092.5,305.7923333333333,305.24325,314.8885,314.65925,21.8852,20.5567,21.8444,21.3722,314.999998,314.999998,324.999988,324.999988,99.56042857142857,99.5074,99.56581428571428,99.54577142857143,0.046250000000000124,-0.06799999999999995,-0.14483333333333334,0.07183333333333333,-0.03999999999999915,-0.060000000000002274,1.5305,1.5314999999999999,37.782,29.4795,37.528,34.576499999999996,56.662,34.863,59.216499999999996,51.9015,54.541,33.9935,57.8285,50.2525,53.681,33.531,57.769999999999996,49.673,-0.09750000000000003,-0.045500000000000096,0.10408500000000001,0.10154,0.0,208.835,208.835,205.72333333333333,205.72333333333333,0.0,0.0
9,0.0,0.0,0.0,1.0,1.0,0.0,0.0,1.0,0.0,0.0,1.0,1.1856,26.0,0.0,0.0,0.0,59.999996,0.0,26.0,26.0,26.0,26.0,-0.01388888888888884,0.28269999999999995,-0.013250000000000001,293.121,-2.62615,-2.7185,-1.5538500000000002,-1.553,-245.64,216.135,190.808125,0.0,0.0,0.0,0.0,0.019066666666666666,-5.498166666666667,-5.498166666666667,-0.5399,0.714,-0.0341111111111112,-0.28200000000000003,66.80799999999999,-0.027100000000000003,-0.214475,-0.11600000000000055,100.0,1.0,1.0,206.20666666666668,0.0,0.0,0.0,0.0,0.0,0.0,0.0,8740.4,0.0,55.0,5.0,240.48000000000002,1.0,0.0,0.0,0.0,0.0,0.0,0.0,0.0,0.4559999999999995,0.4559999999999995,0.0,0.0,1.0,55.0,616.79921,10000.0,85.000001,85.000001,85.000001,85.000001,395.0,0.0,0.0,0.0,1.0,166.665,52.46,52.46,49.179,49.179,34.0,-25.4925,23.773333333333333,-28.82,26.5225,0.0,1783.253,-0.5350000000000001,100.0,27.869,27.322,42.315,41.941,0.0,0.0,100.0,0.0,0.0,0.0,0.0,3341.5,2993.4,4045.4444444444443,4062.9,304.71633333333335,305.128,315.07575,314.77075,21.894,20.5615,21.8535,21.3801,314.999998,314.999998,324.999988,324.999988,99.56042857142857,99.50741666666667,99.56594285714286,99.5459,0.07474999999999987,-0.05499999999999994,-0.1355,0.08700000000000001,-0.046666666666666856,-0.05333333333332746,1.576,1.568,37.838,29.5095,37.585,34.6255,56.65,34.8975,59.249,51.954499999999996,54.53,34.0255,57.8585,50.303,53.669,33.5615,57.7975,49.72266666666667,-0.12,-0.03200000000000003,0.10564000000000001,0.107895,0.0,209.24,209.255,206.20666666666668,206.20666666666668,0.0,0.0
10,0.0,0.0,0.0,1.0,1.0,0.0,0.0,1.0,0.0,0.0,1.0,1.1856,26.0,0.0,0.0,0.0,59.999996,0.0,26.0,26.0,26.0,26.0,0.015444444444444372,0.2933000000000001,0.05255,293.045,-2.703,-2.7067,-1.5383499999999999,-1.5303,-242.23,216.10750000000002,190.787375,0.0,0.0,0.0,0.0,0.021033333333333334,-5.498166666666667,-5.498166666666667,-0.5201,-0.6705000000000001,0.013111111111111073,1.6400000000000006,66.955,-0.006900000000000001,-0.207325,-0.5599999999999996,100.0,1.0,1.0,206.45666666666668,0.0,0.0,0.0,0.0,0.0,0.0,0.0,8751.0,0.0,55.0,5.0,241.01,0.0,0.0,0.0,0.0,0.0,0.0,1.0,0.0,0.5069999999999979,0.5069999999999979,0.0,0.0,0.0,55.0,616.79921,10000.0,85.000001,85.000001,85.000001,85.000001,395.0,0.0,0.0,0.0,1.0,166.665,53.543,53.543,47.668,47.668,34.0,-20.7675,24.185,-29.18,30.21,0.0,1783.203,-0.5949999999999989,100.0,27.712,27.121,42.874,42.625,0.0,0.0,100.0,0.0,0.0,0.0,0.0,2812.0,2990.9,4204.222222222223,4325.9,306.26433333333335,305.37925,314.50675,314.12525,21.9038,20.5668,21.8641,21.3892,314.999998,314.999998,324.999988,324.999988,99.56044285714286,99.50741666666667,99.56608571428572,99.54604285714285,0.09425000000000017,-0.03400000000000003,-0.10783333333333334,0.11333333333333333,-0.02499999999999858,-0.054999999999999716,1.4885,1.4605000000000001,37.899,29.542,37.650999999999996,34.6825,56.635,34.9335,59.2905,52.0195,54.516,34.059,57.897,50.3655,53.653999999999996,33.594,57.833,49.78366666666666,-0.12549999999999994,-0.02849999999999997,0.10584,0.10561500000000001,0.0,209.66500000000002,209.70499999999998,206.45666666666668,206.45666666666668,0.0,0.0
11,0.0,0.0,0.0,1.0,1.0,0.0,0.0,1.0,0.0,0.0,1.0,1.1856,26.0,0.0,0.0,0.0,59.999996,0.0,26.0,26.0,26.0,26.0,0.05088888888888898,0.274,-0.099875,293.51800000000003,-2.71135,-2.6835,-1.5891000000000002,-1.5241,-238.81,216.07999999999998,190.766625,0.0,0.0,0.0,0.0,0.022600000000000002,-5.498166666666667,-5.498166666666667,-0.5615,-0.06099999999999994,0.02977777777777768,-0.7770000000000001,67.094,0.013900000000000001,-0.23522500000000002,-0.6120000000000001,100.0,1.0,1.0,207.19333333333333,0.0,0.0,0.0,0.0,0.0,0.0,0.0,8782.2,0.0,55.0,5.0,241.51,1.0,0.0,0.0,0.0,0.0,0.0,1.0,0.0,0.5579999999999998,0.5579999999999998,0.0,0.0,1.0,55.0,616.79921,10000.0,85.000001,85.000001,85.000001,85.000001,395.0,0.0,0.0,0.0,1.0,166.665,52.826,52.826,49.254999999999995,49.254999999999995,34.0,-22.669999999999998,25.498333333333335,-24.326666666666664,26.8475,0.0,1783.151,-0.7400000000000002,100.0,27.446,27.58,42.24,42.568,0.0,0.0,100.0,0.0,0.0,0.0,0.0,3098.125,3084.4,3742.5555555555557,3858.2,305.53933333333333,304.8515,315.78975,315.25575,21.9135,20.5722,21.8744,21.3981,314.999998,314.999998,324.999988,324.999988,99.56045714285715,99.50743333333334,99.56622857142857,99.54618571428571,0.10625000000000018,-0.026000000000000023,-0.089,0.13933333333333334,-0.03833333333332689,-0.03333333333333144,1.6415,1.6165,37.959,29.576,37.715,34.7385,56.619,34.9715,59.325,52.079,54.501000000000005,34.094,57.929,50.423,53.638,33.6275,57.862,49.840333333333334,-0.13,-0.026000000000000023,0.10485000000000001,0.10828000000000002,0.0,210.085,210.125,207.19333333333333,207.19333333333333,0.0,0.0
12,0.0,0.0,0.0,1.0,1.0,0.0,0.0,1.0,0.0,0.0,1.0,1.1856,26.0,0.0,0.0,0.0,59.999996,0.0,26.0,26.0,26.0,26.0,0.0454444444444444,0.2795000000000001,0.030925,292.847,-2.7260999999999997,-2.6806,-1.5575999999999999,-1.5237,-235.38,216.055,190.7445,0.0,0.0,0.0,0.0,0.025466666666666665,-5.498166666666667,-5.498166666666667,-0.5439,0.2835,0.021333333333333204,0.7210000000000001,67.239,0.030000000000000002,-0.20655,-0.6859999999999999,100.0,1.0,1.0,207.39666666666668,0.0,0.0,0.0,0.0,0.0,0.0,0.0,8790.8,0.0,55.0,5.0,242.03,0.0,0.0,0.0,0.0,0.0,0.0,1.0,0.0,0.6089999999999982,0.6089999999999982,0.0,0.0,0.0,55.0,616.79921,10000.0,85.000001,85.000001,85.000001,85.000001,395.0,0.0,0.0,0.0,1.0,166.665,52.719,52.719,47.836,47.836,34.0,-22.375,27.066666666666666,-27.14666666666667,31.3875,0.0,1783.1,-0.40499999999999936,100.0,27.517,27.613,42.370000000000005,42.537,0.0,0.0,100.0,0.0,0.0,0.0,0.0,3017.625,3221.1,4176.777777777777,4257.3,305.591,304.62825,314.64125,314.336,21.923099999999998,20.5777,21.8848,21.4071,314.999998,314.999998,324.999988,324.999988,99.56047142857143,99.50743333333334,99.56637142857143,99.54632857142857,0.10524999999999984,-0.013333333333333308,-0.07216666666666667,0.15183333333333335,-0.041666666666671404,-0.061666666666667425,1.5145,1.492,38.019999999999996,29.610500000000002,37.78,34.7945,56.605999999999995,35.009,59.364,52.141,54.488,34.129,57.9655,50.482,53.623999999999995,33.661,57.8955,49.898666666666664,-0.10499999999999998,-0.04499999999999993,0.10385000000000001,0.10476,0.0,210.565,210.615,207.39666666666668,207.39666666666668,0.0,0.0
13,0.0,0.0,0.0,1.0,1.0,0.0,0.0,1.0,0.0,0.0,1.0,1.1856,26.0,0.0,0.0,0.0,59.999996,0.0,26.0,26.0,26.0,26.0,0.07400000000000007,0.29080000000000017,0.056275000000000006,292.572,-2.7335,-2.6764,-1.5888499999999999,-1.5416,-232.15,216.03,190.724125,0.0,0.0,0.0,0.0,0.0269,-5.498166666666667,-5.498166666666667,-0.538,-0.10099999999999998,0.023333333333333206,1.053,67.373,0.0368,-0.21495,-0.8339999999999996,100.0,1.0,1.0,207.76333333333332,0.0,0.0,0.0,0.0,0.0,0.0,0.0,8806.3,0.0,55.0,5.0,242.51666666666665,1.0,0.0,0.0,0.0,0.0,0.0,1.0,0.0,0.657,0.657,0.0,0.0,1.0,55.0,616.79921,10000.0,85.000001,85.000001,85.000001,85.000001,395.0,0.0,0.0,0.0,1.0,166.665,52.521,52.521,47.897,47.897,34.0,-20.82,28.058333333333334,-26.546666666666667,33.2775,0.0,1783.053,-0.8349999999999991,100.0,27.794,27.733,42.585,42.99,0.0,0.0,100.0,0.0,0.0,0.0,0.0,3047.375,3184.1,4133.888888888889,4359.9,305.52166666666665,304.74275,314.71025,314.06875,21.932299999999998,20.5829,21.8946,21.4158,314.999998,314.999998,324.999988,324.999988,99.56048571428572,99.50743333333334,99.5665,99.54647142857142,0.14849999999999985,0.020000000000000018,-0.058333333333333334,0.16316666666666665,-0.026666666666670835,-0.06499999999999773,1.521,1.4785,38.077,29.643,37.841,34.8485,56.595,35.045,59.4005,52.202,54.477000000000004,34.162,57.9995,50.541,53.613,33.692499999999995,57.9265,49.956,-0.14549999999999996,-0.009500000000000064,0.10705500000000001,0.10797500000000002,0.0,210.95,211.015,207.76333333333332,207.76333333333332,0.0,0.0
14,0.0,0.0,0.0,1.0,1.0,0.0,0.0,1.0,0.0,0.0,1.0,1.1856,26.0,0.0,0.0,0.0,59.999996,0.0,26.0,26.0,26.0,26.0,0.09577777777777796,0.2742,-0.010975,292.847,-2.7373,-2.6137,-1.5995,-1.5088,-228.71,216.0075,190.702875,0.0,0.0,0.0,0.0,0.028900000000000002,-5.498166666666667,-5.498166666666667,-0.5484,-0.14600000000000013,0.0517777777777777,-0.12099999999999955,67.513,0.049,-0.227025,-0.9820000000000002,100.0,1.0,1.0,208.28333333333333,0.0,0.0,0.0,0.0,0.0,0.0,0.0,8828.4,0.0,55.0,5.0,243.01666666666665,0.0,0.0,0.0,0.0,0.0,0.0,1.0,0.0,0.7079999999999984,0.7079999999999984,0.0,0.0,0.0,55.0,616.79921,10000.0,85.000001,85.000001,85.000001,85.000001,395.0,0.0,0.0,0.0,1.0,333.33500000000004,52.673,52.673,48.126,48.126,34.0,-20.537499999999998,27.613333333333333,-25.326666666666664,30.855,0.0,1783.001,-0.9649999999999999,100.0,27.483,27.977,42.419,43.269,0.0,0.0,100.0,0.0,0.0,0.0,0.0,3025.875,3174.0,3984.5555555555557,4163.6,305.7583333333333,304.6115,315.158,314.486,21.9419,20.5884,21.905,21.4249,314.999998,314.999998,324.999988,324.999988,99.56051428571429,99.50743333333334,99.56664285714285,99.54661428571428,0.14774999999999983,0.019333333333333425,-0.059333333333333335,0.16216666666666665,-0.051666666666669414,-0.054999999999999716,1.561,1.5274999999999999,38.137,29.677500000000002,37.906,34.9055,56.583,35.082499999999996,59.4375,52.2645,54.466,34.197,58.033500000000004,50.601,53.601,33.7265,57.957499999999996,50.01533333333333,-0.15149999999999997,-0.00550000000000006,0.10894500000000001,0.10303000000000001,0.0,211.385,211.445,208.28333333333333,208.28333333333333,0.0,0.0
15,0.0,0.0,0.0,1.0,1.0,0.0,0.0,1.0,0.0,0.0,1.0,1.1856,26.0,0.0,0.0,0.0,59.999996,0.0,26.0,26.0,26.0,26.0,0.11977777777777776,0.28490000000000015,-0.0497,292.831,-2.75055,-2.5700000000000003,-1.6275,-1.4515,-225.47,215.99,190.6825,0.0,0.0,0.0,0.0,0.0308,-5.498166666666667,-5.498166666666667,-0.5385,0.21450000000000002,0.08133333333333326,-0.5540000000000003,67.645,0.0632,-0.20845,-1.162,100.0,1.0,1.0,208.66333333333333,0.0,0.0,0.0,0.0,0.0,0.0,0.0,8844.5,0.0,55.0,5.0,243.49333333333334,1.0,0.0,0.0,0.0,0.0,0.0,1.0,0.0,0.7560000000000002,0.7560000000000002,0.0,0.0,1.0,55.0,616.79921,10000.0,85.000001,85.000001,85.000001,85.000001,395.0,0.0,0.0,0.0,1.0,333.33500000000004,52.872,52.872,48.111,48.111,34.0,-19.0475,27.218333333333334,-24.866666666666664,33.2375,0.0,1782.953,-0.9849999999999994,100.0,27.479,28.043,42.178,43.385,0.0,0.0,100.0,0.0,0.0,0.0,0.0,2883.75,3142.6,3987.5555555555557,4358.3,306.1773333333333,304.69475,315.18075,314.02025,21.9509,20.5936,21.9147,21.4335,314.999998,314.999998,324.999988,324.999988,99.56052857142858,99.50743333333334,99.56678571428571,99.54675714285715,0.15974999999999984,0.02666666666666684,-0.042666666666666665,0.18733333333333335,-0.03166666666666629,-0.054999999999999716,1.558,1.5045,38.193,29.71,37.967,34.959,56.573,35.119,59.471000000000004,52.3245,54.456,34.2305,58.064499999999995,50.659,53.589,33.7585,57.9855,50.072,-0.15200000000000002,0.0010000000000000009,0.108685,0.10519,0.0,211.785,211.885,208.66333333333333,208.66333333333333,0.0,0.0
16,0.0,0.0,0.0,1.0,1.0,0.0,0.0,1.0,0.0,0.0,1.0,1.1856,26.0,0.0,0.0,0.0,59.999996,0.0,26.0,26.0,26.0,26.0,0.13666666666666671,0.27890000000000015,-0.031575,292.801,-2.80455,-2.5824,-1.5989499999999999,-1.5141,-221.81,215.97,190.659125,0.0,0.0,0.0,0.0,0.0329,-5.498166666666667,-5.498166666666667,-0.5633,-0.5665,0.06511111111111112,-1.197,67.792,0.0757,-0.227725,-1.1839999999999993,100.0,1.0,1.0,209.16,0.0,0.0,0.0,0.0,0.0,0.0,0.0,8865.5,0.0,55.0,5.0,244.02666666666664,0.0,0.0,0.0,0.0,0.0,0.0,1.0,0.0,0.8099999999999987,0.8099999999999987,0.0,0.0,0.0,55.0,616.79921,10000.0,85.000001,85.000001,85.000001,85.000001,395.0,0.0,0.0,0.0,1.0,166.665,52.444,52.444,48.096000000000004,48.096000000000004,34.0,-21.015,28.888333333333332,-22.73,32.2475,0.0,1782.9,-0.9000000000000004,100.0,27.17,28.166,42.422,43.451,0.0,0.0,100.0,0.0,0.0,0.0,0.0,3147.125,3257.6,3906.3333333333335,4080.7,305.542,304.381,315.355,314.66775,21.9608,20.5996,21.9257,21.4432,314.999998,314.999998,324.999988,324.999988,99.56054285714286,99.50745,99.56692857142858,99.5469,0.1695000000000002,0.03733333333333322,-0.020833333333333332,0.20350000000000001,-0.04833333333333201,-0.026666666666670835,1.5905,1.5345,38.254999999999995,29.747500000000002,38.035,35.0195,56.558,35.161,59.510999999999996,52.391,54.442,34.2695,58.102000000000004,50.723,53.574,33.796,58.0195,50.135,-0.14900000000000002,-0.009000000000000119,0.10552,0.11268,0.0,212.22500000000002,212.275,209.16,209.16,0.0,0.0
17,0.0,0.0,0.0,1.0,1.0,0.0,0.0,1.0,0.0,0.0,1.0,1.1856,26.0,0.0,0.0,0.0,59.999996,0.0,26.0,26.0,26.0,26.0,0.11766666666666681,0.3022,0.016625,292.328,-2.76155,-2.5694,-1.63925,-1.4783,-218.35,215.95499999999998,190.6365,0.0,0.0,0.0,0.0,0.03493333333333333,-5.498166666666667,-5.498166666666667,-0.5465,0.348,0.049111111111111105,0.9870000000000001,67.93299999999999,0.0796,-0.203825,-1.162,100.0,1.0,1.0,209.46333333333334,0.0,0.0,0.0,0.0,0.0,0.0,0.0,8878.4,0.0,55.0,5.0,244.53,1.0,0.0,0.0,0.0,0.0,0.0,1.0,0.0,0.8610000000000007,0.8610000000000007,0.0,0.0,1.0,55.0,616.79921,10000.0,85.000001,85.000001,85.000001,85.000001,395.0,0.0,0.0,0.0,1.0,166.665,52.414,52.414,47.485,47.485,34.0,-19.0075,28.573333333333334,-25.91333333333333,35.3875,0.0,1782.848,-1.0099999999999998,100.0,27.808,28.188,42.416,43.403999999999996,0.0,0.0,100.0,0.0,0.0,0.0,0.0,3010.75,3202.5,4297.111111111111,4415.3,305.67066666666665,304.72325,314.431,314.004,21.970399999999998,20.6053,21.936,21.4523,314.999998,314.999998,324.999988,324.999988,99.56055714285715,99.50745,99.56707142857142,99.54705714285714,0.18900000000000006,0.05166666666666675,-0.013166666666666667,0.21083333333333334,-0.03499999999999659,-0.060000000000002274,1.5265,1.4745,38.315,29.783,38.099999999999994,35.077,56.549,35.201499999999996,59.5475,52.454,54.433,34.307,58.135999999999996,50.784,53.564,33.832,58.0505,50.19466666666666,-0.15749999999999997,0.0044999999999999485,0.10018,0.11245500000000001,0.0,212.685,212.76999999999998,209.46333333333334,209.46333333333334,0.0,0.0
18,0.0,0.0,0.0,1.0,1.0,0.0,0.0,1.0,0.0,0.0,1.0,1.1856,26.0,0.0,0.0,0.0,59.999996,0.0,26.0,26.0,26.0,26.0,0.11733333333333329,0.28049999999999997,-0.00455,292.313,-2.7983,-2.5364,-1.66035,-1.4182000000000001,-215.09,215.945,190.6155,0.0,0.0,0.0,0.0,0.036833333333333336,-5.498166666666667,-5.498166666666667,-0.5618000000000001,-0.4095,0.07666666666666666,0.9770000000000003,68.062,0.0811,-0.225575,-1.3479999999999999,100.0,1.0,1.0,209.92666666666668,0.0,0.0,0.0,0.0,0.0,0.0,0.0,8898.0,0.0,55.0,5.0,244.99666666666667,0.0,0.0,0.0,0.0,0.0,0.0,1.0,0.0,0.9089999999999989,0.9089999999999989,0.0,0.0,0.0,55.0,616.79921,10000.0,85.000001,85.000001,85.000001,85.000001,395.0,0.0,0.0,0.0,1.0,166.665,52.094,52.094,47.592,47.592,34.0,-19.155,31.571666666666665,-24.46,32.765,0.0,1782.8,-1.2799999999999994,100.0,27.593,28.217,42.629,43.784,0.0,0.0,100.0,0.0,0.0,0.0,0.0,3038.5,3447.4,4011.6666666666665,4269.2,305.633,303.98275,315.09425,314.3315,21.9792,20.6106,21.9458,21.461,314.999998,314.999998,324.999988,324.999988,99.56058571428571,99.50746666666667,99.5672,99.5472,0.19724999999999993,0.06899999999999995,-0.021500000000000002,0.20600000000000002,-0.036666666666668846,-0.045000000000001705,1.5630000000000002,1.5135,38.370000000000005,29.816,38.161,35.1315,56.539,35.2395,59.583,52.515,54.424,34.3425,58.169,50.8425,53.553,33.8665,58.0805,50.252,-0.1775,0.013000000000000012,0.10938500000000001,0.10219,0.0,213.04000000000002,213.135,209.92666666666668,209.92666666666668,0.0,0.0
19,0.0,0.0,0.0,1.0,1.0,0.0,0.0,1.0,0.0,0.0,1.0,1.1856,26.0,0.0,0.0,0.0,59.999996,0.0,26.0,26.0,26.0,26.0,0.1577777777777778,0.29580000000000006,0.058475000000000006,291.916,-2.71625,-2.6382,-1.67355,-1.4023,-211.82,215.9375,190.59425,0.0,0.0,0.0,0.0,0.038733333333333335,-5.498166666666667,-5.498166666666667,-0.5473,0.843,0.08677777777777784,0.9139999999999997,68.19200000000001,0.0922,-0.20905,-1.726,100.0,1.0,1.0,210.28333333333333,0.0,0.0,0.0,0.0,0.0,0.0,0.0,8913.1,0.0,55.0,5.0,245.46,1.0,0.0,0.0,0.0,0.0,0.0,1.0,0.0,0.9570000000000007,0.9570000000000007,0.0,0.0,1.0,55.0,616.79921,10000.0,85.000001,85.000001,85.000001,85.000001,395.0,0.0,0.0,0.0,1.0,166.665,51.772999999999996,51.772999999999996,47.333,47.333,34.0,-17.08,32.415,-24.786666666666665,36.57,0.0,1782.753,-1.5099999999999998,100.0,28.079,28.67,42.393,43.794,0.0,0.0,100.0,0.0,0.0,0.0,0.0,2967.75,3337.1,4179.555555555556,4535.2,305.687,304.083,314.7355,313.7435,21.9883,20.6161,21.9555,21.4697,314.999998,314.999998,324.999988,324.999988,99.56061428571428,99.50746666666667,99.56734285714286,99.54734285714285,0.21899999999999986,0.08633333333333337,-0.0003333333333333333,0.23133333333333334,-0.036666666666668846,-0.07000000000000028,1.542,1.4689999999999999,38.427,29.8505,38.222,35.1855,56.532,35.281,59.616,52.575,54.417,34.3805,58.1995,50.9005,53.545,33.903,58.108000000000004,50.309333333333335,-0.1975,0.033499999999999974,0.10638500000000001,0.11267,0.0,213.465,213.60500000000002,210.28333333333333,210.28333333333333,0.0,0.0
20,0.0,0.0,0.0,1.0,1.0,0.0,0.0,1.0,0.0,0.0,1.0,1.1856,26.0,0.0,0.0,0.0,59.999996,0.0,26.0,26.0,26.0,26.0,0.20411111111111113,0.26350000000000007,-0.05625,292.358,-2.8261,-2.5785,-1.6089,-1.5161,-208.32999999999998,215.935,190.571875,0.0,0.0,0.0,0.0,0.04073333333333334,-5.498166666666667,-5.498166666666667,-0.5577,-1.1840000000000002,0.09388888888888891,-0.694,68.33,0.1087,-0.2257,-2.038,100.0,1.0,1.0,210.65666666666667,0.0,0.0,0.0,0.0,0.0,0.0,0.0,8928.9,0.0,55.0,5.0,245.96333333333334,0.0,0.0,0.0,0.0,0.0,0.0,0.0,0.0,1.0079999999999991,1.0079999999999991,0.0,0.0,0.0,55.0,616.79921,10000.0,85.000001,85.000001,85.000001,85.000001,395.0,0.0,0.0,0.0,1.0,333.33500000000004,52.765,52.765,47.089,47.089,34.0,-16.24,30.918333333333333,-22.856666666666666,36.28,0.0,1782.701,-1.7599999999999998,100.0,27.317,28.514,42.772999999999996,44.385000000000005,0.0,0.0,100.0,0.0,0.0,0.0,0.0,2856.375,3190.7,4065.3333333333335,4260.1,306.35066666666665,304.56225,314.92925,314.166,21.9975,20.6217,21.966,21.479,314.999998,314.999998,324.999988,324.999988,99.56064285714285,99.50748333333334,99.56748571428571,99.54748571428571,0.23775000000000013,0.10333333333333328,0.006500000000000001,0.23783333333333334,-0.04333333333332945,-0.026666666666670835,1.529,1.4555,38.483999999999995,29.886,38.288,35.244,56.521,35.324,59.6555,52.641,54.406,34.420500000000004,58.236,50.964,53.533,33.9415,58.1415,50.37166666666667,-0.21099999999999997,0.061999999999999944,0.11574500000000001,0.09841000000000001,0.0,213.835,213.97,210.65666666666667,210.65666666666667,0.0,0.0
21,0.0,0.0,0.0,1.0,1.0,0.0,0.0,1.0,0.0,0.0,1.0,1.1856,26.0,0.0,0.0,0.0,59.999996,0.0,26.0,26.0,26.0,26.0,0.2326666666666668,0.28700000000000014,-0.070175,292.633,-2.8036,-2.5719000000000003,-1.6812,-1.4668,-205.05,215.9375,190.550125,0.0,0.0,0.0,0.0,0.04266666666666667,-5.498166666666667,-5.498166666666667,-0.5772,0.556,0.08744444444444421,-0.6920000000000002,68.45400000000001,0.131,-0.22182500000000002,-2.238,100.0,1.0,1.0,211.25,0.0,0.0,0.0,0.0,0.0,0.0,0.0,8954.2,0.0,55.0,5.0,246.40666666666667,1.0,0.0,0.0,0.0,0.0,0.0,0.0,0.0,1.056000000000001,1.056000000000001,0.0,0.0,1.0,55.0,616.79921,10000.0,85.000001,85.000001,85.000001,85.000001,395.0,0.0,0.0,0.0,1.0,333.33500000000004,52.292,52.292,48.172,48.172,34.0,-18.107499999999998,30.525,-20.88,34.575,0.0,1782.653,-1.1099999999999994,100.0,27.523,28.764,42.019999999999996,43.988,0.0,0.0,100.0,0.0,0.0,0.0,0.0,3009.375,3226.8,3952.3333333333335,4114.5,305.86966666666666,304.462,315.3585,314.6875,22.0063,20.6272,21.9755,21.4875,314.999998,314.999998,324.999988,324.999988,99.56067142857142,99.5075,99.56762857142857,99.54762857142858,0.21450000000000014,0.08533333333333326,0.03966666666666666,0.261,-0.05833333333333002,-0.061666666666667425,1.627,1.544,38.54,29.9205,38.347,35.297,56.513999999999996,35.3675,59.6855,52.698499999999996,54.399,34.461,58.2635,51.0195,53.525,33.9805,58.166,50.42633333333333,-0.1785,0.023499999999999965,0.10878000000000002,0.0984,0.0,214.265,214.425,211.25,211.25,0.0,0.0
22,0.0,0.0,0.0,1.0,1.0,0.0,0.0,1.0,0.0,0.0,1.0,1.1856,26.0,0.0,0.0,0.0,59.999996,0.0,26.0,26.0,26.0,26.0,0.1824444444444444,0.2761,-0.005875,292.16,-2.7487,-2.6125,-1.6785999999999999,-1.4544000000000001,-201.35,215.945,190.524875,0.0,0.0,0.0,0.0,0.0448,-5.498166666666667,-5.498166666666667,-0.5572,-0.119,0.09577777777777774,-1.0,68.601,0.1405,-0.20677500000000001,-1.1719999999999997,100.0,1.0,1.0,211.49333333333334,0.0,0.0,0.0,0.0,0.0,0.0,0.0,8964.5,0.0,55.0,5.0,246.93666666666667,0.0,0.0,0.0,0.0,0.0,0.0,0.0,0.0,1.1099999999999994,1.1099999999999994,0.0,0.0,0.0,55.0,616.79921,10000.0,85.000001,85.000001,85.000001,85.000001,395.0,0.0,0.0,0.0,1.0,166.665,52.551,52.551,47.028,47.028,34.0,-18.8175,27.121666666666666,-23.863333333333333,36.985,0.0,1782.601,0.04499999999999993,100.0,27.499,28.863,42.453,44.473,0.0,0.0,100.0,0.0,0.0,0.0,0.0,2836.75,3127.9,4197.0,4367.3,306.31966666666665,304.65425,314.7285,313.966,22.0163,20.6334,21.9866,21.4974,314.999998,314.999998,324.999988,324.999988,99.56068571428571,99.5075,99.56778571428572,99.54778571428571,0.15675000000000017,0.015333333333333421,0.02266666666666667,0.24916666666666668,-0.046666666666666856,-0.05666666666667197,1.5005000000000002,1.462,38.602000000000004,29.959,38.416,35.359,56.501999999999995,35.412,59.7265,52.769,54.388,34.5025,58.3015,51.088,53.513,34.0205,58.2005,50.49333333333333,-0.08150000000000002,-0.07750000000000012,0.10872000000000001,0.10257000000000001,0.0,214.74,214.82999999999998,211.49333333333334,211.49333333333334,0.0,0.0
23,0.0,0.0,0.0,1.0,1.0,0.0,0.0,1.0,0.0,0.0,1.0,1.1856,26.0,0.0,0.0,0.0,59.999996,0.0,26.0,26.0,26.0,26.0,0.11011111111111105,0.25780000000000003,-0.04685,292.175,-2.7507,-2.5899,-1.703,-1.5474,-198.06,215.95499999999998,190.502875,0.0,0.0,0.0,0.0,0.046733333333333335,-5.498166666666667,-5.498166666666667,-0.5761000000000001,-0.09050000000000002,0.0645555555555557,-1.161,68.726,0.109,-0.232,0.15399999999999991,100.0,1.0,1.0,212.02666666666667,0.0,0.0,0.0,0.0,0.0,0.0,0.0,8987.0,0.0,55.0,5.0,247.39,1.0,0.0,0.0,0.0,0.0,0.0,0.0,0.0,1.1580000000000013,1.1580000000000013,0.0,0.0,1.0,55.0,616.79921,10000.0,85.000001,85.000001,85.000001,85.000001,395.0,0.0,0.0,0.0,1.0,166.665,51.697,51.697,48.187,48.187,34.0,-24.1175,25.218333333333334,-25.04,31.61,0.0,1782.552,0.8550000000000004,100.0,28.019,28.799,42.662,44.452,0.0,0.0,100.0,0.0,0.0,0.0,0.0,3212.25,3172.5,3973.8888888888887,3952.5,305.181,304.585,315.3285,314.97975,22.025199999999998,20.6389,21.9964,21.5062,314.999998,314.999998,324.999988,324.999988,99.5607,99.5075,99.56791428571428,99.54792857142857,0.10625000000000018,-0.033333333333333326,-0.028833333333333332,0.20783333333333334,-0.05666666666667197,-0.03833333333332689,1.541,1.5525,38.657,29.993000000000002,38.477999999999994,35.4135,56.489999999999995,35.45,59.7605,52.829,54.376000000000005,34.537,58.333,51.146,53.5,34.054,58.229,50.550333333333334,-0.02100000000000002,-0.14000000000000012,0.10788,0.10373,0.0,215.16500000000002,215.16,212.02666666666667,212.02666666666667,0.0,0.0
24,0.0,0.0,0.0,1.0,1.0,0.0,0.0,1.0,0.0,0.0,1.0,1.1856,26.0,0.0,0.0,0.0,59.999996,0.0,26.0,26.0,26.0,26.0,-0.002777777777777768,0.2630000000000001,-0.10325000000000001,292.404,-2.74605,-2.6288,-1.5998999999999999,-1.5114,-194.55,215.97,190.478875,0.0,0.0,0.0,0.0,0.04876666666666667,-5.498166666666667,-5.498166666666667,-0.5820000000000001,-0.7650000000000001,0.04833333333333312,0.29600000000000026,68.863,0.049600000000000005,-0.2175,1.0039999999999996,100.0,1.0,1.0,212.31,0.0,0.0,0.0,0.0,0.0,0.0,0.0,8999.0,0.0,55.0,5.0,247.88,0.0,0.0,0.0,0.0,0.0,0.0,0.0,0.0,1.2089999999999996,1.2089999999999996,0.0,0.0,0.0,55.0,616.79921,10000.0,85.000001,85.000001,85.000001,85.000001,395.0,0.0,0.0,0.0,1.0,166.665,52.917,52.917,47.073,47.073,34.0,-22.91,21.865000000000002,-29.136666666666667,29.31,0.0,1782.5,1.0249999999999986,100.0,27.922,28.233,43.157,44.043,0.0,0.0,100.0,0.0,0.0,0.0,0.0,2825.375,3028.7,4219.777777777777,4146.1,306.25666666666666,305.22025,314.545,314.621,22.0346,20.6444,22.0069,21.5153,314.999998,314.999998,324.999988,324.999988,99.56071428571428,99.50751666666666,99.56805714285714,99.54808571428572,0.051750000000000185,-0.08633333333333337,-0.08866666666666667,0.13583333333333333,-0.05666666666667197,-0.041666666666671404,1.4929999999999999,1.534,38.716,30.0275,38.543,35.4705,56.473,35.488,59.7985,52.8905,54.36,34.573,58.3685,51.205,53.483000000000004,34.088,58.260999999999996,50.608000000000004,0.010499999999999954,-0.16700000000000004,0.10208500000000001,0.107825,0.0,215.625,215.525,212.31,212.31,0.0,0.0
25,0.0,0.0,0.0,1.0,1.0,0.0,0.0,1.0,0.0,0.0,1.0,1.1856,26.0,0.0,0.0,0.0,59.999996,0.0,26.0,26.0,26.0,26.0,-0.07833333333333337,0.2619,-0.067875,292.191,-2.763,-2.6359,-1.5734,-1.5529000000000002,-191.24,215.98250000000002,190.454875,0.0,0.0,0.0,0.0,0.0507,-5.498166666666667,-5.498166666666667,-0.6139,0.0665,0.006555555555555648,-0.9399999999999995,68.987,-0.0122,-0.22605,1.4740000000000002,100.0,1.0,1.0,212.84333333333333,0.0,0.0,0.0,0.0,0.0,0.0,0.0,9021.7,0.0,55.0,5.0,248.32666666666665,1.0,0.0,0.0,0.0,0.0,0.0,0.0,0.0,1.256999999999998,1.256999999999998,0.0,0.0,1.0,55.0,616.79921,10000.0,85.000001,85.000001,85.000001,85.000001,395.0,0.0,0.0,0.0,1.0,333.33500000000004,51.605000000000004,51.605000000000004,47.928,47.928,34.0,-28.7875,23.255,-29.39,25.325000000000003,0.0,1782.452,1.0500000000000007,100.0,28.287,28.262,43.109,43.41,0.0,0.0,100.0,0.0,0.0,0.0,0.0,3290.375,3318.2,4004.5555555555557,3957.3,304.94933333333336,304.37225,315.1465,315.085,22.0435,20.6498,22.0166,21.5238,314.999998,314.999998,324.999988,324.999988,99.56072857142857,99.50753333333333,99.5682,99.54821428571428,0.021250000000000213,-0.1093333333333334,-0.14350000000000002,0.08133333333333333,-0.03333333333333144,-0.041666666666671404,1.5465,1.605,38.772,30.061,38.604,35.5235,56.456,35.528,59.831,52.9445,54.343,34.61,58.399,51.257,53.466,34.1235,58.2885,50.659333333333336,0.00649999999999995,-0.1645000000000001,0.10545500000000001,0.10410000000000001,0.0,216.01999999999998,215.9,212.84333333333333,212.84333333333333,0.0,0.0
26,0.0,0.0,0.0,1.0,1.0,0.0,0.0,1.0,0.0,0.0,1.0,1.1856,26.0,0.0,0.0,0.0,59.999996,0.0,26.0,26.0,26.0,26.0,-0.13177777777777777,0.28,0.11107500000000001,291.046,-2.666,-2.7615,-1.58825,-1.5875,-187.51,215.995,190.427625,0.0,0.0,0.0,0.0,0.052866666666666666,-5.498166666666667,-5.498166666666667,-0.5682,0.47750000000000004,-0.05233333333333334,0.20699999999999985,69.132,-0.0654,-0.19775,1.6020000000000003,100.0,1.0,1.0,212.9766666666667,0.0,0.0,0.0,0.0,0.0,0.0,0.0,9027.3,0.0,55.0,5.0,248.84666666666666,0.0,0.0,0.0,0.0,0.0,0.0,0.0,0.0,1.311,1.311,0.0,0.0,0.0,55.0,616.79921,10000.0,85.000001,85.000001,85.000001,85.000001,395.0,0.0,0.0,0.0,1.0,166.665,51.559,51.559,45.882999999999996,45.882999999999996,34.0,-27.8325,20.288333333333334,-39.64,28.05,0.0,1782.399,0.8900000000000006,100.0,29.405,28.523,44.278999999999996,43.485,0.0,0.0,100.0,0.0,0.0,0.0,0.0,3154.5,3004.5,4698.444444444444,4539.7,305.125,305.28,313.47775,313.73675,22.0539,20.6558,22.0279,21.5335,314.999998,314.999998,324.999988,324.999988,99.56072857142857,99.50755,99.56835714285714,99.54837142857143,-0.0017499999999999183,-0.14800000000000002,-0.19383333333333336,0.03166666666666667,-0.03499999999999659,-0.04333333333332945,1.4025,1.463,38.837,30.0985,38.675,35.5845,56.441,35.5755,59.876999999999995,53.0095,54.329,34.653999999999996,58.442,51.3195,53.45,34.166,58.328,50.72,-0.010000000000000009,-0.15250000000000008,0.10755500000000001,0.113045,0.0,216.515,216.365,212.9766666666667,212.9766666666667,0.0,0.0
27,0.0,0.0,0.0,1.0,1.0,0.0,0.0,1.0,0.0,0.0,1.0,1.1856,26.0,0.0,0.0,0.0,59.999996,0.0,26.0,26.0,26.0,26.0,-0.13477777777777777,0.2521,-0.032825,291.656,-2.6197,-2.7428,-1.56195,-1.6713,-184.39999999999998,216.005,190.406,0.0,0.0,0.0,0.0,0.05466666666666667,-5.498166666666667,-5.498166666666667,-0.6013000000000001,-1.0460000000000003,-0.07044444444444453,-0.8540000000000001,69.247,-0.0941,-0.2472,1.6400000000000006,100.0,1.0,1.0,213.51999999999998,0.0,0.0,0.0,0.0,0.0,0.0,0.0,9050.4,0.0,55.0,5.0,249.26333333333332,1.0,0.0,0.0,0.0,0.0,0.0,0.0,0.0,1.355999999999998,1.355999999999998,0.0,0.0,1.0,55.0,616.79921,10000.0,85.000001,85.000001,85.000001,85.000001,395.0,0.0,0.0,0.0,1.0,166.665,51.682,51.682,46.783,46.783,34.0,-29.9625,18.78,-34.71666666666667,23.205,0.0,1782.355,0.7699999999999996,100.0,29.042,28.33,44.85,43.8,0.0,0.0,100.0,0.0,0.0,0.0,0.0,3311.625,2971.7,4133.666666666667,3918.2,304.921,305.27325,314.75275,315.072,22.0624,20.6605,22.037399999999998,21.5417,314.999998,314.999998,324.999988,324.999988,99.56072857142857,99.50756666666666,99.5685,99.54851428571429,-0.031749999999999945,-0.17666666666666664,-0.22166666666666665,0.006,-0.03999999999999915,-0.01999999999999602,1.4915,1.551,38.89,30.1285,38.733999999999995,35.6355,56.426,35.6135,59.914500000000004,53.0625,54.315,34.6885,58.477000000000004,51.3705,53.436,34.199,58.36,50.769666666666666,-0.01849999999999996,-0.14400000000000013,0.10273,0.11124500000000001,0.0,216.79500000000002,216.66500000000002,213.51999999999998,213.51999999999998,0.0,0.0
28,0.0,0.0,0.0,1.0,1.0,0.0,0.0,1.0,0.0,0.0,1.0,1.1856,26.0,0.0,0.0,0.0,59.999996,0.0,26.0,26.0,26.0,26.0,-0.16766666666666663,0.2673000000000001,-0.059375000000000004,291.84,-2.6328,-2.7437,-1.5002499999999999,-1.6407,-180.86,216.01,190.380625,0.0,0.0,0.0,0.0,0.05673333333333334,-5.498166666666667,-5.498166666666667,-0.5996,0.6905,-0.0818888888888889,0.6500000000000004,69.377,-0.11660000000000001,-0.2137,1.5279999999999996,100.0,1.0,1.0,213.98000000000002,0.0,0.0,0.0,0.0,0.0,0.0,0.0,9069.8,0.0,55.0,5.0,249.73000000000002,0.0,0.0,0.0,0.0,0.0,0.0,0.0,0.0,1.407,1.407,0.0,0.0,0.0,55.0,616.79921,10000.0,85.000001,85.000001,85.000001,85.000001,395.0,0.0,0.0,0.0,1.0,333.33500000000004,51.804,51.804,47.363,47.363,34.0,-29.25,18.85,-35.08,22.8,0.0,1782.301,0.5800000000000001,100.0,29.375,27.979,44.339,43.049,0.0,0.0,100.0,0.0,0.0,0.0,0.0,3223.0,2976.4,4209.444444444444,4074.8,304.94266666666664,305.40225,314.6955,314.83375,22.0722,20.666,22.0477,21.5506,314.999998,314.999998,324.999988,324.999988,99.56072857142857,99.50758333333333,99.56864285714286,99.54865714285714,-0.026000000000000023,-0.17299999999999993,-0.23666666666666666,-0.0105,-0.03166666666666629,-0.04833333333333201,1.5154999999999998,1.578,38.951,30.1625,38.798,35.6915,56.412,35.6575,59.951,53.119,54.302,34.7295,58.510999999999996,51.424,53.422,34.238,58.3915,50.822,-0.041999999999999926,-0.12400000000000011,0.10677500000000001,0.113555,0.0,217.25,217.135,213.98000000000002,213.98000000000002,0.0,0.0
29,0.0,0.0,0.0,1.0,1.0,0.0,0.0,1.0,0.0,0.0,1.0,1.1856,26.0,0.0,0.0,0.0,59.999996,0.0,26.0,26.0,26.0,26.0,-0.15355555555555556,0.2633000000000001,0.043225,291.519,-2.5728999999999997,-2.7975,-1.53535,-1.6200999999999999,-177.32,216.0125,190.354125,0.0,0.0,0.0,0.0,0.05876666666666667,-5.498166666666667,-5.498166666666667,-0.6093000000000001,-0.7065000000000001,-0.08599999999999985,-0.7610000000000001,69.511,-0.1164,-0.221025,1.186,100.0,1.0,1.0,214.25666666666666,0.0,0.0,0.0,0.0,0.0,0.0,0.0,9081.6,0.0,55.0,5.0,250.21333333333334,1.0,0.0,0.0,0.0,0.0,0.0,0.0,0.0,1.4579999999999984,1.4579999999999984,0.0,0.0,1.0,55.0,616.79921,10000.0,85.000001,85.000001,85.000001,85.000001,395.0,0.0,0.0,0.0,1.0,166.665,51.666,51.666,46.692,46.692,34.0,-30.619999999999997,19.251666666666665,-36.92,22.865000000000002,0.0,1782.251,0.47000000000000064,100.0,28.977,27.996,44.759,43.334,0.0,0.0,100.0,0.0,0.0,0.0,0.0,3418.75,2976.4,4291.0,4115.6,304.615,305.16775,314.43275,314.63,22.081699999999998,20.6714,22.0584,21.5599,314.999998,314.999998,324.999988,324.999988,99.56074285714286,99.50761666666666,99.5688,99.5488,-0.03149999999999986,-0.18033333333333335,-0.24,-0.015,-0.03999999999999915,-0.04999999999999716,1.468,1.5195,39.010999999999996,30.1965,38.864999999999995,35.749,56.394999999999996,35.7,59.9945,53.179,54.286,34.7685,58.552,51.482,53.405,34.2755,58.429,50.878,-0.04899999999999993,-0.11699999999999999,0.10798500000000001,0.10654000000000001,0.0,217.615,217.515,214.25666666666666,214.25666666666666,0.0,0.0
30,0.0,0.0,0.0,1.0,1.0,0.0,0.0,1.0,0.0,0.0,1.0,1.1856,26.0,0.0,0.0,0.0,59.999996,0.0,26.0,26.0,26.0,26.0,-0.1323333333333333,0.25960000000000005,0.030125000000000002,291.061,-2.62235,-2.7902,-1.47145,-1.702,-173.98000000000002,216.01,190.32925,0.0,0.0,0.0,0.0,0.06073333333333334,-5.498166666666667,-5.498166666666667,-0.6006,0.8515,-0.0908888888888888,-0.5069999999999997,69.633,-0.10740000000000001,-0.215375,1.1220000000000008,100.0,1.0,1.0,214.66,0.0,0.0,0.0,0.0,0.0,0.0,0.0,9098.7,0.0,55.0,5.0,250.65333333333334,0.0,0.0,0.0,0.0,0.0,0.0,1.0,0.0,1.5060000000000002,1.5060000000000002,0.0,0.0,0.0,55.0,616.79921,10000.0,85.000001,85.000001,85.000001,85.000001,395.0,0.0,0.0,0.0,1.0,333.33500000000004,50.888,50.888,46.829,46.829,34.0,-31.6925,19.951666666666668,-35.93666666666667,24.78,0.0,1782.202,0.3049999999999997,100.0,29.831,28.578,44.659,43.35,0.0,0.0,100.0,0.0,0.0,0.0,0.0,3534.375,2994.2,4383.888888888889,4120.2,304.239,305.2775,314.27175,314.5785,22.091,20.6768,22.0682,21.5684,314.999998,314.999998,324.999988,324.999988,99.56074285714286,99.50763333333333,99.56894285714286,99.54894285714286,-0.016750000000000043,-0.16166666666666663,-0.22133333333333335,-0.0038333333333333336,-0.03833333333332689,-0.05333333333332746,1.4615,1.498,39.069,30.2295,38.926,35.803,56.384,35.746,60.033500000000004,53.237,54.275,34.811,58.588499999999996,51.5375,53.393,34.316,58.4625,50.93233333333333,-0.0595,-0.1080000000000001,0.10189000000000001,0.10732000000000001,0.0,218.04000000000002,217.95,214.66,214.66,0.0,0.0
31,0.0,0.0,0.0,1.0,1.0,0.0,0.0,1.0,0.0,0.0,1.0,1.1856,26.0,0.0,0.0,0.0,59.999996,0.0,26.0,26.0,26.0,26.0,-0.12977777777777777,0.25760000000000005,0.013475,290.985,-2.68825,-2.6749,-1.51925,-1.6745,-170.42000000000002,216.0025,190.3035,0.0,0.0,0.0,0.0,0.06280000000000001,-5.498166666666667,-5.498166666666667,-0.5917,-0.841,-0.0775555555555556,0.7279999999999998,69.765,-0.09000000000000001,-0.222775,0.6179999999999994,100.0,1.0,1.0,214.96,0.0,0.0,0.0,0.0,0.0,0.0,0.0,9111.4,0.0,55.0,5.0,251.12666666666667,1.0,0.0,0.0,0.0,0.0,0.0,1.0,0.0,1.5569999999999986,1.5569999999999986,0.0,0.0,1.0,55.0,616.79921,10000.0,85.000001,85.000001,85.000001,85.000001,395.0,0.0,0.0,0.0,1.0,333.33500000000004,51.422,51.422,45.609,45.609,34.0,-28.04,20.88,-35.46333333333333,27.5,0.0,1782.151,0.22000000000000064,100.0,29.524,28.42,45.370000000000005,43.834,0.0,0.0,100.0,0.0,0.0,0.0,0.0,3219.375,3173.8,4362.777777777777,4297.8,305.193,304.99525,314.15875,314.309,22.1005,20.6823,22.079,21.5778,314.999998,314.999998,324.999988,324.999988,99.56074285714286,99.50765,99.5691,99.54908571428571,0.006000000000000227,-0.1413333333333333,-0.197,0.0305,-0.046666666666666856,-0.04833333333333201,1.444,1.471,39.128,30.264499999999998,38.994,35.8615,56.367999999999995,35.787,60.075,53.295500000000004,54.26,34.849000000000004,58.6275,51.5935,53.376999999999995,34.3525,58.499,50.987,-0.07050000000000001,-0.10250000000000004,0.10350000000000001,0.110295,0.0,218.405,218.335,214.96,214.96,0.0,0.0
32,0.0,0.0,0.0,1.0,1.0,0.0,0.0,1.0,0.0,0.0,1.0,1.1856,26.0,0.0,0.0,0.0,59.999996,0.0,26.0,26.0,26.0,26.0,-0.10411111111111104,0.27760000000000007,-0.037700000000000004,291.245,-2.62935,-2.7096,-1.5864,-1.5809000000000002,-166.86,215.995,190.277875,0.0,0.0,0.0,0.0,0.06486666666666667,-5.498166666666667,-5.498166666666667,-0.6104,0.24749999999999994,-0.10133333333333372,-0.8780000000000001,69.892,-0.0767,-0.22967500000000002,0.6820000000000004,100.0,1.0,1.0,215.49333333333334,0.0,0.0,0.0,0.0,0.0,0.0,0.0,9133.9,0.0,55.0,5.0,251.58333333333334,0.0,0.0,0.0,0.0,0.0,0.0,1.0,0.0,1.6080000000000005,1.6080000000000005,0.0,0.0,0.0,55.0,616.79921,10000.0,85.000001,85.000001,85.000001,85.000001,395.0,0.0,0.0,0.0,1.0,166.665,51.208,51.208,46.692,46.692,34.0,-29.1625,20.6,-34.33,25.03,0.0,1782.101,0.07500000000000107,100.0,29.431,28.647,44.774,43.639,0.0,0.0,100.0,0.0,0.0,0.0,0.0,3430.0,3003.7,4297.333333333333,4155.8,304.606,305.157,314.55825,314.6945,22.1101,20.688,22.0894,21.5869,314.999998,314.999998,324.999988,324.999988,99.56075714285714,99.50766666666667,99.56925714285714,99.54922857142857,0.014250000000000096,-0.133,-0.18566666666666667,0.035666666666666666,-0.03833333333332689,-0.046666666666666856,1.5390000000000001,1.546,39.188,30.299999999999997,39.059,35.9185,56.352000000000004,35.831,60.112,53.3525,54.245000000000005,34.8895,58.662,51.6485,53.361999999999995,34.391,58.5305,51.040333333333336,-0.07699999999999996,-0.09400000000000008,0.10013000000000001,0.10323,0.0,218.79500000000002,218.73000000000002,215.49333333333334,215.49333333333334,0.0,0.0
33,0.0,0.0,0.0,1.0,1.0,0.0,0.0,1.0,0.0,0.0,1.0,1.1856,26.0,0.0,0.0,0.0,59.999996,0.0,26.0,26.0,26.0,26.0,-0.09544444444444444,0.25770000000000004,-0.02025,291.443,-2.6504,-2.7560000000000002,-1.5298,-1.6414,-163.29,215.98250000000002,190.251125,0.0,0.0,0.0,0.0,0.06693333333333334,-5.498166666666667,-5.498166666666667,-0.6128,-0.476,-0.08177777777777795,1.4740000000000002,70.022,-0.0654,-0.21515,0.43400000000000016,100.0,1.0,1.0,215.8,0.0,0.0,0.0,0.0,0.0,0.0,0.0,9147.0,0.0,55.0,5.0,252.05333333333334,1.0,0.0,0.0,0.0,0.0,0.0,1.0,0.0,1.658999999999999,1.658999999999999,0.0,0.0,1.0,55.0,616.79921,10000.0,85.000001,85.000001,85.000001,85.000001,395.0,0.0,0.0,0.0,1.0,166.665,51.91,51.91,46.6,46.6,34.0,-26.1025,21.423333333333332,-32.75666666666667,27.87,0.0,1782.051,-0.0600000000000005,100.0,29.272,28.209,44.853,43.731,0.0,0.0,100.0,0.0,0.0,0.0,0.0,3139.625,2989.6,4200.111111111111,4271.5,305.3163333333333,305.3795,314.60075,314.3105,22.1196,20.6934,22.099899999999998,21.5962,314.999998,314.999998,324.999988,324.999988,99.56075714285714,99.50768333333333,99.5694,99.54938571428572,0.028249999999999886,-0.11599999999999999,-0.17666666666666667,0.0505,-0.01833333333333087,-0.051666666666669414,1.4755,1.5035,39.247,30.334,39.123999999999995,35.976,56.336,35.87,60.150999999999996,53.412,54.230000000000004,34.9255,58.699,51.7055,53.346000000000004,34.4255,58.564,51.095666666666666,-0.08350000000000002,-0.07800000000000007,0.10808500000000001,0.10691500000000001,0.0,219.175,219.14,215.8,215.8,0.0,0.0
34,0.0,0.0,0.0,1.0,1.0,0.0,0.0,1.0,0.0,0.0,1.0,1.1856,26.0,0.0,0.0,0.0,59.999996,0.0,26.0,26.0,26.0,26.0,-0.07633333333333336,0.25340000000000007,-0.055425,291.84,-2.66475,-2.7376,-1.5923,-1.6064,-159.93,215.97,190.22475,0.0,0.0,0.0,0.0,0.0689,-5.498166666666667,-5.498166666666667,-0.6463,-0.7710000000000001,-0.04911111111111133,1.0810000000000004,70.142,-0.051000000000000004,-0.227225,0.2820000000000009,100.0,1.0,1.0,216.24666666666667,0.0,0.0,0.0,0.0,0.0,0.0,0.0,9165.9,0.0,55.0,5.0,252.48666666666668,0.0,0.0,0.0,0.0,0.0,0.0,1.0,0.0,1.7070000000000007,1.7070000000000007,0.0,0.0,0.0,55.0,616.79921,10000.0,85.000001,85.000001,85.000001,85.000001,395.0,0.0,0.0,0.0,1.0,166.665,52.17,52.17,47.363,47.363,34.0,-24.975,22.326666666666668,-30.91,26.995,0.0,1782.003,-0.07499999999999929,100.0,28.937,27.932,44.455,43.781,0.0,0.0,100.0,0.0,0.0,0.0,0.0,3080.625,3028.3,4060.0,4145.7,305.359,305.23675,315.034,314.638,22.1284,20.6986,22.1096,21.6049,314.999998,314.999998,324.999988,324.999988,99.56075714285714,99.5077,99.56955714285715,99.54952857142857,0.04875000000000007,-0.09866666666666657,-0.15633333333333335,0.06533333333333333,-0.03499999999999659,-0.054999999999999716,1.5245,1.542,39.303,30.366500000000002,39.185,36.0305,56.32,35.9065,60.1845,53.4675,54.215,34.9595,58.730000000000004,51.759,53.33,34.458,58.592,51.147999999999996,-0.08799999999999997,-0.07450000000000001,0.100565,0.11112500000000002,0.0,219.54000000000002,219.495,216.24666666666667,216.24666666666667,0.0,0.0
35,0.0,0.0,0.0,1.0,1.0,0.0,0.0,1.0,0.0,0.0,1.0,1.1856,26.0,0.0,0.0,0.0,59.999996,0.0,26.0,26.0,26.0,26.0,-0.04888888888888887,0.2522,-0.073475,291.809,-2.66585,-2.6933,-1.55755,-1.6187,-156.14,215.9525,190.19275,0.0,0.0,0.0,0.0,0.0711,-5.498166666666667,-5.498166666666667,-0.6855,-0.052000000000000046,-0.05844444444444452,-0.02200000000000024,70.276,-0.0361,-0.2273,0.12600000000000033,100.0,1.0,1.0,216.75333333333333,0.0,0.0,0.0,0.0,0.0,0.0,0.0,9187.3,0.0,55.0,5.0,252.97,1.0,0.0,0.0,0.0,0.0,0.0,1.0,0.0,1.7609999999999992,1.7609999999999992,0.0,0.0,1.0,55.0,616.79921,10000.0,85.000001,85.000001,85.000001,85.000001,395.0,0.0,0.0,0.0,1.0,166.665,51.468,51.468,47.104,47.104,34.0,-25.57,25.756666666666668,-28.94,26.355,0.0,1781.95,-0.08499999999999908,100.0,28.708,28.383,44.094,43.329,0.0,0.0,100.0,0.0,0.0,0.0,0.0,3190.625,3365.0,3970.4444444444443,3950.7,305.15233333333333,304.23475,315.21125,315.1335,22.1382,20.7047,22.1205,21.6144,314.999998,314.999998,324.999988,324.999988,99.56077142857143,99.5077,99.56971428571428,99.54968571428572,0.05549999999999988,-0.07733333333333337,-0.14483333333333334,0.08183333333333333,-0.046666666666666856,-0.06833333333332803,1.5695000000000001,1.5575,39.364000000000004,30.404,39.253,36.09,56.301,35.95,60.222,53.525999999999996,54.197,34.9995,58.765,51.8155,53.312,34.4965,58.6235,51.202666666666666,-0.09050000000000002,-0.07250000000000001,0.108475,0.10023000000000001,0.0,219.95,219.945,216.75333333333333,216.75333333333333,0.0,0.0
36,0.0,0.0,0.0,1.0,1.0,0.0,0.0,1.0,0.0,0.0,1.0,1.1856,26.0,0.0,0.0,0.0,59.999996,0.0,26.0,26.0,26.0,26.0,-0.0421111111111111,0.26580000000000004,0.04925,290.817,-2.62515,-2.6468,-1.5359,-1.6084,-152.97,215.9375,190.165,0.0,0.0,0.0,0.0,0.07293333333333334,-5.498166666666667,-5.498166666666667,-0.6626000000000001,0.26149999999999995,-0.09144444444444444,-1.258,70.392,-0.0253,-0.19840000000000002,0.22599999999999998,100.0,1.0,1.0,216.82333333333332,0.0,0.0,0.0,0.0,0.0,0.0,0.0,9190.3,0.0,55.0,5.0,253.38666666666666,0.0,0.0,0.0,0.0,0.0,0.0,1.0,0.0,1.806000000000001,1.806000000000001,0.0,0.0,0.0,55.0,616.79921,10000.0,85.000001,85.000001,85.000001,85.000001,395.0,0.0,0.0,0.0,1.0,333.33500000000004,51.3,51.3,46.126999999999995,46.126999999999995,34.0,-25.884999999999998,22.943333333333335,-33.99333333333333,31.36,0.0,1781.902,-0.10999999999999943,100.0,29.061,28.738,44.251,43.871,0.0,0.0,100.0,0.0,0.0,0.0,0.0,3284.75,3081.6,4533.222222222223,4511.6,304.7823333333333,304.96,313.9265,313.726,22.1466,20.7098,22.1298,21.622700000000002,314.999998,314.999998,324.999988,324.999988,99.56077142857143,99.50771666666667,99.56984285714286,99.54981428571429,0.06174999999999997,-0.07866666666666666,-0.13983333333333334,0.08066666666666668,-0.03166666666666629,-0.036666666666668846,1.424,1.4325,39.416,30.436,39.311,36.1415,56.289,35.9865,60.256,53.58,54.186,35.033,58.797,51.8675,53.299,34.528999999999996,58.653,51.25333333333333,-0.08850000000000002,-0.07350000000000012,0.1087,0.10468000000000001,0.0,220.32,220.32,216.82333333333332,216.82333333333332,0.0,0.0
