,ABS Active,ABS Enabled,AID Allow Tire Blankets,AID Auto Blip,AID Auto Clutch,AID Auto Shift,AID Fuel Rate,AID Ideal Line,AID Mech Damage,AID Stability,AID Tire Wear Rate,Air Density,Air Temp,Ballast,Best Lap Delta,Best Lap Time,Brake Bias,Brake Pos,Brake Temp FL,Brake Temp FR,Brake Temp RL,Brake Temp RR,CG Accel Lateral,CG Accel Longitudinal,CG Accel Vertical,CG Height,Camber FL,Camber FR,Camber RL,Camber RR,Car Coord X,Car Coord Y,Car Coord Z,Car Damage Front,Car Damage Left,Car Damage Rear,Car Damage Right,Car Pos Norm,Caster FL,Caster FR,Chassis Pitch Angle,Chassis Pitch Rate,Chassis Roll Angle,Chassis Roll Rate,Chassis Velocity X,Chassis Velocity Y,Chassis Velocity Z,Chassis Yaw Rate,Clutch Pos,DRS Active,DRS Available,Drive Train Speed,ERS Heat Charging,ERS Is Charging,ERS Max Energy,ERS Power Level,ERS Recovery Level,Engine Brake Setting,Engine Limiter,Engine RPM,Flags,Fuel Level,Gear,Ground Speed,HR Sample Clock,In Pit,KERS Charge,KERS Deployed Energy,KERS Input,KERS Max Energy,LR Sample Clock,Lap Invalidated,Lap Time,Lap Time2,Last Lap Time,Last Sector Time,MR Sample Clock,Max Fuel,Max Power,Max RPM,Max Sus Travel FL,Max Sus Travel FR,Max Sus Travel RL,Max Sus Travel RR,Max Torque,Max Turbo Boost,Num Tires Off Track,Penalties Enabled,Position,Raw Data Sample Rate,Ride Height FL,Ride Height FR,Ride Height RL,Ride Height RR,Road Temp,Self Align Torque FL,Self Align Torque FR,Self Align Torque RL,Self Align Torque RR,Session Lap Count,Session Time Left,Steering Angle,Surface Grip,Suspension Travel FL,Suspension Travel FR,Suspension Travel RL,Suspension Travel RR,TC Active,TC Enabled,Throttle Pos,Tire Dirt Level FL,Tire Dirt Level FR,Tire Dirt Level RL,Tire Dirt Level RR,Tire Load FL,Tire Load FR,Tire Load RL,Tire Load RR,Tire Loaded Radius FL,Tire Loaded Radius FR,Tire Loaded Radius RL,Tire Loaded Radius RR,Tire Pressure FL,Tire Pressure FR,Tire Pressure RL,Tire Pressure RR,Tire Radius FL,Tire Radius FR,Tire Radius RL,Tire Radius RR,Tire Rubber Grip FL,Tire Rubber Grip FR,Tire Rubber Grip RL,Tire Rubber Grip RR,Tire Slip Angle FL,Tire Slip Angle FR,Tire Slip Angle RL,Tire Slip Angle RR,Tire Slip Ratio FL,Tire Slip Ratio FR,Tire Slip Ratio RL,Tire Slip Ratio RR,Tire Temp Core FL,Tire Temp Core FR,Tire Temp Core RL,Tire Temp Core RR,Tire Temp Inner FL,Tire Temp Inner FR,Tire Temp Inner RL,Tire Temp Inner RR,Tire Temp Middle FL,Tire Temp Middle FR,Tire Temp Middle RL,Tire Temp Middle RR,Tire Temp Outer FL,Tire Temp Outer FR,Tire Temp Outer RL,Tire Temp Outer RR,Toe In FL,Toe In FR,Toe In RL,Toe In RR,Turbo Boost,Wheel Angular Speed FL,Wheel Angular Speed FR,Wheel Angular Speed RL,Wheel Angular Speed RR,Wind Direction,Wind Speed
0,0.0,0.0,0.0,1.0,1.0,0.0,0.0,1.0,0.0,0.0,1.0,1.1856,26.0,0.0,0.0,0.0,59.99999,0.0,26.0,26.0,26.0,26.0,-0.06575,0.3024,0.035500000000000004,294.022,-2.72325,-2.658125,-1.51665,-1.5562,-275.63,216.29500000000002,190.98725,0.0,0.0,0.0,0.0,0.0016333333333333755,-5.498166666666667,-5.498166666666667,-0.5486,1.3536666666666668,-0.004999999999999893,-0.17700000000000005,65.539,-0.0263,-0.21605000000000002,0.9079999999999995,100.0,1.0,1.0,202.34,0.0,0.0,0.0,0.0,0.0,0.0,0.0,8576.4,0.0,55.0,5.0,235.91333333333333,0.0,0.0,0.0,0.0,0.0,0.0,0.0,0.0,0.0030000000000001137,0.0030000000000001137,0.0,0.0,0.0,55.0,616.79921,10000.0,85.0,85.0,85.0,85.0,395.0,0.0,0.0,0.0,1.0,20.0,52.734,52.734,49.576,49.576,34.0,-26.7075,24.28666666666667,-29.68,25.942500000000003,0.0,1745.781,0.870000000000001,100.0,27.26,26.928,40.545,40.538,0.0,0.0,100.0,0.0,0.0,0.0,0.0,3060.285714285714,3426.7,4102.0,4004.7,305.494,303.9835,314.878,314.895,21.8642,20.5803,21.8403,21.369799999999998,314.99999,314.99999,324.99998,324.99998,99.56024285714285,99.50771666666667,99.56602857142857,99.54551428571429,0.008000000000000007,-0.11099999999999999,-0.14866666666666667,0.08483333333333333,-0.060000000000002274,-0.054999999999999716,1.5443333333333333,1.5835,37.650999999999996,29.627,37.501999999999995,34.5615,56.949,34.9365,59.5005,51.867,54.763999999999996,34.006,58.0845,50.1905,53.858000000000004,33.51,58.028,49.60366666666667,-0.012499999999999956,-0.14450000000000007,0.11374000000000001,0.10932000000000001,0.0,205.39499999999998,205.29000000000002,202.34,202.34,0.0,0.0
1,0.0,0.0,0.0,1.0,1.0,0.0,0.0,1.0,0.0,0.0,1.0,1.1856,26.0,0.0,0.0,0.0,59.999996,0.0,26.0,26.0,26.0,26.0,-0.10350000000000001,0.31700000000000017,-0.0055000000000000005,293.121,-2.6446,-2.76075,-1.53485,-1.544,-272.08,216.29000000000002,190.966125,0.0,0.0,0.0,0.0,0.0036999999999999256,-5.498166666666667,-5.498166666666667,-0.4973,-0.6926666666666668,-0.047666666666666746,-0.5250000000000001,65.702,-0.047900000000000005,-0.199375,1.3940000000000001,100.0,1.0,1.0,202.53333333333333,0.0,0.0,0.0,0.0,0.0,0.0,0.0,8584.7,0.0,55.0,5.0,236.49666666666667,1.0,0.0,0.0,0.0,0.0,0.0,0.0,0.0,0.05699999999999861,0.05699999999999861,0.0,0.0,1.0,55.0,616.79921,10000.0,85.000001,85.000001,85.000001,85.000001,395.0,0.0,0.0,0.0,1.0,166.665,53.741,53.741,48.416,48.416,34.0,-26.08,18.766666666666666,-32.903333333333336,29.79,0.0,1745.728,0.875,100.0,27.528,26.964,42.747,41.82,0.0,0.0,100.0,0.0,0.0,0.0,0.0,3004.714285714286,2704.4,4228.625,4731.5,305.6375,306.24975,314.50725,313.0865,21.8747,20.5857,21.8517,21.3794,314.999998,314.999998,324.999988,324.999988,99.56024285714285,99.50775,99.56617142857142,99.54565714285714,-0.006666666666666599,-0.1233333333333333,-0.17133333333333334,0.04533333333333334,-0.01833333333333087,-0.046666666666666856,1.4206666666666667,1.443,37.717,29.6605,37.573,34.6215,56.929,34.9775,59.545500000000004,51.9355,54.745000000000005,34.044,58.126999999999995,50.2565,53.839,33.547,58.067,49.66833333333334,0.0015000000000000568,-0.13850000000000007,0.097305,0.112835,0.0,205.85000000000002,205.735,202.53333333333333,202.53333333333333,0.0,0.0
2,0.0,0.0,0.0,1.0,1.0,0.0,0.0,1.0,0.0,0.0,1.0,1.1856,26.0,0.0,0.0,0.0,59.999996,0.0,26.0,26.0,26.0,26.0,-0.144875,0.27900000000000014,-0.099175,293.716,-2.6021,-2.7963750000000003,-1.4876,-1.6113,-268.92,216.2825,190.94825,0.0,0.0,0.0,0.0,0.00553333333333339,-5.498166666666667,-5.498166666666667,-0.547,0.03266666666666662,-0.04944444444444418,2.4370000000000003,65.836,-0.07010000000000001,-0.248175,1.5899999999999999,100.0,1.0,1.0,203.38666666666666,0.0,0.0,0.0,0.0,0.0,0.0,0.0,8620.8,0.0,55.0,5.0,236.98000000000002,0.0,0.0,0.0,0.0,0.0,0.0,0.0,0.0,0.10500000000000043,0.10500000000000043,0.0,0.0,0.0,55.0,616.79921,10000.0,85.000001,85.000001,85.000001,85.000001,395.0,0.0,0.0,0.0,1.0,166.665,52.521,52.521,50.125,50.125,34.0,-29.372500000000002,20.248333333333335,-29.143333333333334,20.4375,0.0,1745.679,0.7600000000000016,100.0,28.302,26.908,42.572,41.391,0.0,0.0,100.0,0.0,0.0,0.0,0.0,3323.5714285714284,2937.6,3781.25,3690.9,304.591,305.555,315.59,315.7875,21.8842,20.5903,21.8614,21.3876,314.999998,314.999998,324.999988,324.999988,99.56024285714285,99.50776666666667,99.5663,99.54578571428571,-0.013333333333333197,-0.14066666666666672,-0.21083333333333334,0.013166666666666667,-0.03499999999999659,-0.061666666666667425,1.6133333333333333,1.6960000000000002,37.775999999999996,29.689,37.634,34.6725,56.916,35.0125,59.579499999999996,51.9875,54.732,34.076499999999996,58.158500000000004,50.306,53.825,33.578,58.0965,49.717333333333336,-0.025000000000000022,-0.12949999999999995,0.10362500000000001,0.10999,0.0,206.29500000000002,206.155,203.38666666666666,203.38666666666666,0.0,0.0
3,0.0,0.0,0.0,1.0,1.0,0.0,0.0,1.0,0.0,0.0,1.0,1.1856,26.0,0.0,0.0,0.0,59.999996,0.0,26.0,26.0,26.0,26.0,-0.137375,0.3035000000000001,0.074175,293.427,-2.7305,-2.691,-1.5137,-1.5905,-265.76,216.2725,190.92975,0.0,0.0,0.0,0.0,0.0073666666666665215,-5.498166666666667,-5.498166666666667,-0.5095000000000001,0.398,-0.00655555555555587,0.397,65.979,-0.0848,-0.20015000000000002,1.1980000000000004,100.0,1.0,1.0,203.54000000000002,0.0,0.0,0.0,0.0,0.0,0.0,0.0,8627.3,0.0,55.0,5.0,237.49333333333334,1.0,0.0,0.0,0.0,0.0,0.0,0.0,0.0,0.1529999999999987,0.1529999999999987,0.0,0.0,1.0,55.0,616.79921,10000.0,85.000001,85.000001,85.000001,85.000001,395.0,0.0,0.0,0.0,1.0,166.665,53.513,53.513,48.111,48.111,34.0,-25.735,18.996666666666666,-34.696666666666665,25.18,0.0,1745.631,0.6050000000000004,100.0,27.881,26.946,42.504,41.424,0.0,0.0,100.0,0.0,0.0,0.0,0.0,2878.4285714285716,2919.8,4278.75,4275.7,306.0025,305.57625,314.38075,314.304,21.8934,20.5951,21.8712,21.3959,314.999998,314.999998,324.999988,324.999988,99.56025714285714,99.50778333333334,99.56644285714286,99.54592857142858,-0.011333333333333195,-0.14666666666666672,-0.20716666666666667,0.018333333333333333,-0.03833333333332689,-0.04999999999999716,1.484,1.5105,37.834,29.7195,37.695,34.7245,56.899,35.0515,59.615,52.045,54.717,34.1125,58.1915,50.362,53.809,33.6125,58.1265,49.772,-0.03300000000000003,-0.12349999999999994,0.10348,0.110045,0.0,206.72,206.64499999999998,203.54000000000002,203.54000000000002,0.0,0.0
4,0.0,0.0,0.0,1.0,1.0,0.0,0.0,1.0,0.0,0.0,1.0,1.1856,26.0,0.0,0.0,0.0,59.999996,0.0,26.0,26.0,26.0,26.0,-0.144875,0.2997000000000001,-0.0562,293.747,-2.6586499999999997,-2.747125,-1.5256,-1.5998,-262.19,216.255,190.908875,0.0,0.0,0.0,0.0,0.009433333333333294,-5.498166666666667,-5.498166666666667,-0.5438000000000001,-0.7130000000000001,-0.07711111111111135,-0.44599999999999995,66.133,-0.08660000000000001,-0.2378,1.152000000000001,100.0,1.0,1.0,204.18,0.0,0.0,0.0,0.0,0.0,0.0,0.0,8654.4,0.0,55.0,5.0,238.05,0.0,0.0,0.0,0.0,0.0,0.0,0.0,0.0,0.20700000000000074,0.20700000000000074,0.0,0.0,0.0,55.0,616.79921,10000.0,85.000001,85.000001,85.000001,85.000001,395.0,0.0,0.0,0.0,1.0,166.665,53.162,53.162,48.92,48.92,34.0,-28.695,20.185000000000002,-31.45,21.322499999999998,0.0,1745.578,0.5850000000000009,100.0,27.704,26.676000000000002,42.861000000000004,41.456,0.0,0.0,100.0,0.0,0.0,0.0,0.0,3209.0,2979.2,4007.875,3676.8,305.108,305.4155,315.01075,315.71175,21.9037,20.6005,21.8824,21.4052,314.999998,314.999998,324.999988,324.999988,99.56025714285714,99.5078,99.5666,99.54607142857142,-0.018333333333333313,-0.1403333333333332,-0.1985,0.029,-0.036666666666668846,-0.07333333333333059,1.5683333333333331,1.613,37.897999999999996,29.753,37.765,34.7825,56.878,35.094,59.657,52.1065,54.697,34.152,58.2315,50.420500000000004,53.789,33.65,58.1635,49.82933333333334,-0.02749999999999997,-0.12050000000000005,0.098125,0.10834500000000001,0.0,207.155,207.09,204.18,204.18,0.0,0.0
5,0.0,0.0,0.0,1.0,1.0,0.0,0.0,1.0,0.0,0.0,1.0,1.1856,26.0,0.0,0.0,0.0,59.999996,0.0,26.0,26.0,26.0,26.0,-0.146,0.29580000000000006,-0.014075,293.73199999999997,-2.6698,-2.769625,-1.5093,-1.5872000000000002,-259.02,216.24,190.889625,0.0,0.0,0.0,0.0,0.011266666666666536,-5.498166666666667,-5.498166666666667,-0.5338,0.41333333333333333,-0.08077777777777806,1.089,66.272,-0.08900000000000001,-0.21052500000000002,0.9920000000000009,100.0,1.0,1.0,204.52666666666667,0.0,0.0,0.0,0.0,0.0,0.0,0.0,8669.2,0.0,55.0,5.0,238.54666666666668,1.0,0.0,0.0,0.0,0.0,0.0,0.0,0.0,0.254999999999999,0.254999999999999,0.0,0.0,1.0,55.0,616.79921,10000.0,85.000001,85.000001,85.000001,85.000001,395.0,0.0,0.0,0.0,1.0,166.665,53.604,53.604,49.010999999999996,49.010999999999996,34.0,-27.335,19.59,-33.43666666666667,23.2725,0.0,1745.531,0.28500000000000014,100.0,27.843,26.534,42.633,41.123000000000005,0.0,0.0,100.0,0.0,0.0,0.0,0.0,3087.285714285714,2842.4,4143.125,4090.5,305.404,305.87925,314.773,314.77325,21.913,20.6052,21.8922,21.4134,314.999998,314.999998,324.999988,324.999988,99.56025714285714,99.50781666666667,99.56672857142857,99.5462,-0.010999999999999899,-0.1316666666666666,-0.21583333333333335,0.0125,-0.03999999999999915,-0.04333333333332945,1.5293333333333332,1.5815000000000001,37.956,29.783,37.826,34.834,56.863,35.1305,59.693,52.1595,54.683,34.1855,58.265,50.472,53.774,33.6825,58.194,49.879333333333335,-0.05249999999999999,-0.08899999999999997,0.105215,0.10296000000000001,0.0,207.64499999999998,207.525,204.52666666666667,204.52666666666667,0.0,0.0
6,0.0,0.0,0.0,1.0,1.0,0.0,0.0,1.0,0.0,0.0,1.0,1.1856,26.0,0.0,0.0,0.0,59.999996,0.0,26.0,26.0,26.0,26.0,-0.11325,0.2962,0.011425000000000001,293.503,-2.63595,-2.74625,-1.55035,-1.5847,-255.82999999999998,216.22,190.87025,0.0,0.0,0.0,0.0,0.01313333333333333,-5.498166666666667,-5.498166666666667,-0.53,0.08833333333333337,-0.06288888888888877,0.991,66.41,-0.0823,-0.213225,0.7240000000000002,100.0,1.0,1.0,204.93666666666667,0.0,0.0,0.0,0.0,0.0,0.0,0.0,8686.5,0.0,55.0,5.0,239.04666666666668,0.0,0.0,0.0,0.0,0.0,0.0,0.0,0.0,0.3030000000000008,0.3030000000000008,0.0,0.0,0.0,55.0,616.79921,10000.0,85.000001,85.000001,85.000001,85.000001,395.0,0.0,0.0,0.0,1.0,166.665,53.207,53.207,48.782,48.782,34.0,-26.755,21.196666666666665,-32.44,23.92,0.0,1745.483,-0.02999999999999936,100.0,27.794,26.644,42.74,41.463,0.0,0.0,100.0,0.0,0.0,0.0,0.0,3111.857142857143,3003.6,4087.125,4048.3,305.2745,305.3515,314.88775,314.87225,21.9223,20.6101,21.9021,21.4218,314.999998,314.999998,324.999988,324.999988,99.56025714285714,99.50781666666667,99.56687142857143,99.54632857142857,0.0040000000000000036,-0.12033333333333318,-0.19433333333333336,0.029833333333333333,-0.03499999999999659,-0.03499999999999659,1.5236666666666667,1.56,38.015,29.813000000000002,37.888,34.885999999999996,56.847,35.167500000000004,59.7295,52.216499999999996,54.668,34.22,58.299,50.525999999999996,53.757999999999996,33.715,58.226,49.93233333333333,-0.06599999999999995,-0.08050000000000002,0.10612500000000001,0.11016500000000001,0.0,208.04000000000002,207.965,204.93666666666667,204.93666666666667,0.0,0.0
7,0.0,0.0,0.0,1.0,1.0,0.0,0.0,1.0,0.0,0.0,1.0,1.1856,26.0,0.0,0.0,0.0,59.999996,0.0,26.0,26.0,26.0,26.0,-0.082125,0.29259999999999997,0.015600000000000001,293.243,-2.61435,-2.727125,-1.51635,-1.6227,-252.44,216.195,190.849875,0.0,0.0,0.0,0.0,0.015100000000000002,-5.498166666666667,-5.498166666666667,-0.5343,-0.03400000000000003,-0.05011111111111122,-0.18799999999999994,66.556,-0.068,-0.2233,0.42799999999999994,100.0,1.0,1.0,205.36666666666667,0.0,0.0,0.0,0.0,0.0,0.0,0.0,8704.7,0.0,55.0,5.0,239.57,1.0,0.0,0.0,0.0,0.0,0.0,0.0,0.0,0.3539999999999992,0.3539999999999992,0.0,0.0,1.0,55.0,616.79921,10000.0,85.000001,85.000001,85.000001,85.000001,395.0,0.0,0.0,0.0,1.0,166.665,52.856,52.856,48.874,48.874,34.0,-26.825,21.726666666666667,-31.78333333333333,24.97,0.0,1745.431,-0.2400000000000002,100.0,27.773,26.917,42.692,41.828,0.0,0.0,100.0,0.0,0.0,0.0,0.0,3288.857142857143,2968.7,4084.625,4034.3,304.8845,305.281,314.91025,314.758,21.9322,20.6152,21.9125,21.4307,314.999998,314.999998,324.999988,324.999988,99.56027142857143,99.50783333333334,99.56701428571428,99.54647142857142,0.033333333333333215,-0.10199999999999987,-0.19116666666666665,0.03866666666666666,-0.051666666666669414,-0.03999999999999915,1.5256666666666667,1.5580000000000003,38.076,29.845,37.953,34.942,56.83,35.2055,59.7675,52.2765,54.652,34.254999999999995,58.3345,50.584,53.742000000000004,33.749,58.2585,49.98866666666667,-0.09750000000000003,-0.055500000000000105,0.11043000000000001,0.10625000000000001,0.0,208.49,208.43,205.36666666666667,205.36666666666667,0.0,0.0
8,0.0,0.0,0.0,1.0,1.0,0.0,0.0,1.0,0.0,0.0,1.0,1.1856,26.0,0.0,0.0,0.0,59.999996,0.0,26.0,26.0,26.0,26.0,-0.04475,0.2948000000000002,0.02815,293.533,-2.6966,-2.72025,-1.49715,-1.5755,-249.04,216.17000000000002,190.82925,0.0,0.0,0.0,0.0,0.017066666666666563,-5.498166666666667,-5.498166666666667,-0.5353,-0.567,-0.03266666666666662,0.783,66.701,-0.048,-0.21385,-0.08999999999999986,100.0,1.0,1.0,205.74666666666667,0.0,0.0,0.0,0.0,0.0,0.0,0.0,8720.9,0.0,55.0,5.0,240.0966666666667,0.0,0.0,0.0,0.0,0.0,0.0,0.0,0.0,0.40500000000000114,0.40500000000000114,0.0,0.0,0.0,55.0,616.79921,10000.0,85.000001,85.000001,85.000001,85.000001,395.0,0.0,0.0,0.0,1.0,333.33500000000004,53.741,53.741,48.172,48.172,34.0,-23.4,22.965,-30.169999999999998,27.3475,0.0,1745.379,-0.3650000000000002,100.0,27.423000000000002,26.694,42.736000000000004,41.832,0.0,0.0,100.0,0.0,0.0,0.0,0.0,2923.4285714285716,3004.0,4136.875,4164.8,305.9595,305.36425,314.6745,314.50625,21.9419,20.6204,21.923000000000002,21.4396,314.999998,314.999998,324.999988,324.999988,99.56027142857143,99.50785,99.56715714285714,99.54661428571428,0.051000000000000156,-0.07099999999999995,-0.1495,0.07516666666666667,-0.04333333333332945,-0.061666666666667425,1.5053333333333332,1.5065,38.137,29.877,38.019,34.9975,56.812,35.2425,59.8055,52.336,54.635,34.289500000000004,58.37,50.641,53.724000000000004,33.782,58.291,50.044666666666664,-0.10699999999999998,-0.045500000000000096,0.10672000000000001,0.10926500000000001,0.0,208.89499999999998,208.905,205.74666666666667,205.74666666666667,0.0,0.0
9,0.0,0.0,0.0,1.0,1.0,0.0,0.0,1.0,0.0,0.0,1.0,1.1856,26.0,0.0,0.0,0.0,59.999996,0.0,26.0,26.0,26.0,26.0,-0.021125,0.2882,-0.013825,293.137,-2.6265,-2.718,-1.55535,-1.5528,-245.64,216.14249999999998,190.808125,0.0,0.0,0.0,0.0,0.019066666666666565,-5.498166666666667,-5.498166666666667,-0.54,0.7013333333333334,-0.033666666666666956,-0.3600000000000001,66.843,-0.0246,-0.214925,-0.16799999999999926,100.0,1.0,1.0,206.30666666666667,0.0,0.0,0.0,0.0,0.0,0.0,0.0,8744.6,0.0,55.0,5.0,240.60666666666668,1.0,0.0,0.0,0.0,0.0,0.0,0.0,0.0,0.4559999999999995,0.4559999999999995,0.0,0.0,1.0,55.0,616.79921,10000.0,85.000001,85.000001,85.000001,85.000001,395.0,0.0,0.0,0.0,1.0,166.665,52.46,52.46,49.179,49.179,34.0,-25.975,23.74666666666667,-28.89,26.6075,0.0,1745.329,-0.5,100.0,27.863,27.334,42.319,41.947,0.0,0.0,100.0,0.0,0.0,0.0,0.0,3345.0,2997.3,4047.125,4061.5,304.7295,305.141,315.1045,314.79925,21.9517,20.6257,21.9333,21.4485,314.999998,314.999998,324.999988,324.999988,99.56028571428571,99.50785,99.5673,99.54675714285715,0.06566666666666654,-0.05666666666666664,-0.1355,0.08700000000000001,-0.05333333333332746,-0.04833333333333201,1.5676666666666668,1.5500000000000003,38.198,29.9105,38.083,35.053,56.797,35.2805,59.84,52.394,54.620999999999995,34.3245,58.4025,50.697,53.71,33.8155,58.320499999999996,50.099333333333334,-0.11499999999999999,-0.03499999999999992,0.10752500000000001,0.10453000000000001,0.0,209.35500000000002,209.365,206.30666666666667,206.30666666666667,0.0,0.0
10,0.0,0.0,0.0,1.0,1.0,0.0,0.0,1.0,0.0,0.0,1.0,1.1856,26.0,0.0,0.0,0.0,59.999996,0.0,26.0,26.0,26.0,26.0,0.016625,0.2912000000000001,0.054975,293.06,-2.70135,-2.6995,-1.5389,-1.5316,-242.22,216.115,190.787375,0.0,0.0,0.0,0.0,0.02103333333333335,-5.498166666666667,-5.498166666666667,-0.5204,-0.6826666666666668,0.012222222222222134,1.661,66.99000000000001,-0.0031000000000000003,-0.207575,-0.5279999999999996,100.0,1.0,1.0,206.55333333333334,0.0,0.0,0.0,0.0,0.0,0.0,0.0,8755.0,0.0,55.0,5.0,241.13666666666666,0.0,0.0,0.0,0.0,0.0,0.0,1.0,0.0,0.5069999999999979,0.5069999999999979,0.0,0.0,0.0,55.0,616.79921,10000.0,85.000001,85.000001,85.000001,85.000001,395.0,0.0,0.0,0.0,1.0,166.665,53.543,53.543,47.684,47.684,34.0,-20.86,23.865000000000002,-29.12,30.57,0.0,1745.278,-0.5749999999999993,100.0,27.761,27.145,42.896,42.638,0.0,0.0,100.0,0.0,0.0,0.0,0.0,2810.4285714285716,2990.6,4212.0,4326.6,306.293,305.40775,314.52,314.15375,21.9614,20.6309,21.9439,21.4576,314.999998,314.999998,324.999988,324.999988,99.56028571428571,99.50786666666667,99.56744285714285,99.5469,0.09133333333333349,-0.040999999999999925,-0.10533333333333333,0.12033333333333333,-0.03833333333332689,-0.06333333333333258,1.4893333333333332,1.4729999999999999,38.259,29.942999999999998,38.149,35.11,56.782,35.3155,59.8795,52.457,54.607,34.3575,58.439499999999995,50.7575,53.695,33.847,58.3545,50.159,-0.12049999999999994,-0.030000000000000027,0.11055000000000001,0.11318,0.0,209.775,209.82,206.55333333333334,206.55333333333334,0.0,0.0
11,0.0,0.0,0.0,1.0,1.0,0.0,0.0,1.0,0.0,0.0,1.0,1.1856,26.0,0.0,0.0,0.0,59.999996,0.0,26.0,26.0,26.0,26.0,0.052875,0.27680000000000016,-0.09735,293.51800000000003,-2.7122,-2.68175,-1.5903,-1.5231,-238.8,216.0875,190.766625,0.0,0.0,0.0,0.0,0.022599999999999953,-5.498166666666667,-5.498166666666667,-0.5619000000000001,-0.05466666666666686,0.03166666666666673,-0.762,67.128,0.0137,-0.23592500000000002,-0.5820000000000007,100.0,1.0,1.0,207.29333333333335,0.0,0.0,0.0,0.0,0.0,0.0,0.0,8786.4,0.0,55.0,5.0,241.63333333333333,1.0,0.0,0.0,0.0,0.0,0.0,1.0,0.0,0.5579999999999998,0.5579999999999998,0.0,0.0,1.0,55.0,616.79921,10000.0,85.000001,85.000001,85.000001,85.000001,395.0,0.0,0.0,0.0,1.0,166.665,52.811,52.811,49.271,49.271,34.0,-22.77,25.740000000000002,-24.49,27.002499999999998,0.0,1745.227,-0.7400000000000002,100.0,27.481,27.632,42.251,42.58,0.0,0.0,100.0,0.0,0.0,0.0,0.0,3091.142857142857,3089.2,3748.5,3869.6,305.583,304.865,315.833,315.25375,21.971,20.6363,21.9541,21.4665,314.999998,314.999998,324.999988,324.999988,99.5603,99.50786666666667,99.56758571428571,99.54704285714286,0.1030000000000002,-0.021333333333333204,-0.0915,0.14,-0.060000000000002274,-0.054999999999999716,1.6373333333333333,1.613,38.319,29.977,38.213,35.166,56.766,35.352000000000004,59.912,52.5155,54.592,34.391,58.469,50.814,53.679,33.8795,58.3815,50.214,-0.12849999999999995,-0.02499999999999991,0.1018,0.10749,0.0,210.21,210.245,207.29333333333335,207.29333333333335,0.0,0.0
12,0.0,0.0,0.0,1.0,1.0,0.0,0.0,1.0,0.0,0.0,1.0,1.1856,26.0,0.0,0.0,0.0,59.999996,0.0,26.0,26.0,26.0,26.0,0.043250000000000004,0.2893000000000001,0.013425000000000001,292.953,-2.7574,-2.681375,-1.5524499999999999,-1.5242,-235.78,216.065,190.747125,0.0,0.0,0.0,0.0,0.025466666666666526,-5.498166666666667,-5.498166666666667,-0.5466,0.28700000000000003,0.02022222222222214,0.6619999999999999,67.257,0.0274,-0.207825,-0.7179999999999991,100.0,1.0,1.0,207.45,0.0,0.0,0.0,0.0,0.0,0.0,0.0,8793.1,0.0,55.0,5.0,242.09666666666666,0.0,0.0,0.0,0.0,0.0,0.0,1.0,0.0,0.602999999999998,0.602999999999998,0.0,0.0,0.0,55.0,616.79921,10000.0,85.000001,85.000001,85.000001,85.000001,395.0,0.0,0.0,0.0,1.0,333.33500000000004,52.795,52.795,47.958,47.958,34.0,-22.375,26.994999999999997,-26.599999999999998,31.405,0.0,1745.18,-0.4900000000000002,100.0,27.518,27.603,42.315,42.472,0.0,0.0,100.0,0.0,0.0,0.0,0.0,3025.5714285714284,3203.8,4178.875,4233.2,305.6355,304.71875,314.6705,314.42625,21.9794,20.6411,21.9633,21.4744,314.999998,314.999998,324.999988,324.999988,99.56031428571428,99.50786666666667,99.56771428571429,99.54717142857143,0.11266666666666669,-0.011666666666666714,-0.06466666666666668,0.15616666666666665,-0.030000000000001137,-0.060000000000002274,1.539,1.4980000000000002,38.370999999999995,30.006999999999998,38.269999999999996,35.215,56.753,35.3845,59.944,52.568,54.579,34.421,58.4995,50.865,53.666,33.908500000000004,58.409,50.263999999999996,-0.11599999999999999,-0.03699999999999992,0.10255,0.11019500000000002,0.0,210.60000000000002,210.67000000000002,207.45,207.45,0.0,0.0
13,0.0,0.0,0.0,1.0,1.0,0.0,0.0,1.0,0.0,0.0,1.0,1.1856,26.0,0.0,0.0,0.0,59.999996,0.0,26.0,26.0,26.0,26.0,0.0755,0.2913000000000001,0.029125,292.603,-2.73875,-2.67075,-1.6238000000000001,-1.5087000000000002,-232.35,216.04000000000002,190.725375,0.0,0.0,0.0,0.0,0.026799999999999935,-5.498166666666667,-5.498166666666667,-0.5397000000000001,-0.06299999999999994,0.024222222222222145,-0.5509999999999999,67.399,0.035,-0.21565,-0.7720000000000002,100.0,1.0,1.0,207.84,0.0,0.0,0.0,0.0,0.0,0.0,0.0,8809.6,0.0,55.0,5.0,242.61,1.0,0.0,0.0,0.0,0.0,0.0,1.0,0.0,0.6539999999999999,0.6539999999999999,0.0,0.0,1.0,55.0,616.79921,10000.0,85.000001,85.000001,85.000001,85.000001,395.0,0.0,0.0,0.0,1.0,333.33500000000004,52.536,52.536,47.943,47.943,34.0,-21.9175,26.703333333333333,-28.466666666666665,32.1025,0.0,1745.129,-0.8599999999999994,100.0,27.652,27.949,42.438,43.061,0.0,0.0,100.0,0.0,0.0,0.0,0.0,3156.714285714286,3080.1,4228.5,4285.9,305.398,304.90875,314.632,314.18925,21.989,20.6466,21.9737,21.4836,314.999998,314.999998,324.999988,324.999988,99.56032857142857,99.50786666666667,99.56785714285714,99.54731428571428,0.14033333333333342,0.006000000000000227,-0.0725,0.15916666666666665,-0.03999999999999915,-0.036666666666668846,1.5056666666666667,1.4809999999999999,38.431,30.041,38.336,35.2725,56.741,35.4235,59.983000000000004,52.6345,54.567,34.457499999999996,58.5355,50.929,53.653,33.9435,58.442,50.327,-0.14900000000000002,-0.007500000000000062,0.10463000000000001,0.11262000000000001,0.0,211.035,211.07999999999998,207.84,207.84,0.0,0.0
14,0.0,0.0,0.0,1.0,1.0,0.0,0.0,1.0,0.0,0.0,1.0,1.1856,26.0,0.0,0.0,0.0,59.999996,0.0,26.0,26.0,26.0,26.0,0.083875,0.27560000000000007,-0.013000000000000001,292.831,-2.73455,-2.6186249999999998,-1.59815,-1.5119,-228.91,216.01749999999998,190.704125,0.0,0.0,0.0,0.0,0.028799999999999937,-5.498166666666667,-5.498166666666667,-0.5488000000000001,-0.1140000000000001,0.05311111111111111,1.357,67.539,0.0485,-0.22817500000000002,-1.0460000000000003,100.0,1.0,1.0,208.35666666666668,0.0,0.0,0.0,0.0,0.0,0.0,0.0,8831.5,0.0,55.0,5.0,243.11,0.0,0.0,0.0,0.0,0.0,0.0,1.0,0.0,0.7049999999999983,0.7049999999999983,0.0,0.0,0.0,55.0,616.79921,10000.0,85.000001,85.000001,85.000001,85.000001,395.0,0.0,0.0,0.0,1.0,166.665,52.658,52.658,48.157,48.157,34.0,-19.7375,28.486666666666665,-24.626666666666665,32.105000000000004,0.0,1745.079,-0.9699999999999989,100.0,27.705,27.844,42.506,43.173,0.0,0.0,100.0,0.0,0.0,0.0,0.0,2928.5714285714284,3261.5,3957.5,4219.4,305.8785,304.54925,315.187,314.45425,21.9985,20.652,21.984099999999998,21.4927,314.999998,314.999998,324.999988,324.999988,99.56034285714286,99.50786666666667,99.568,99.54745714285714,0.15300000000000002,0.023666666666666725,-0.04716666666666666,0.17583333333333334,-0.04333333333332945,-0.060000000000002274,1.5576666666666668,1.504,38.491,30.075,38.400999999999996,35.329,56.730000000000004,35.458,60.016,52.692,54.557,34.4895,58.566,50.9845,53.641,33.9745,58.4695,50.38133333333333,-0.14849999999999997,-0.0040000000000000036,0.10185500000000001,0.11051000000000001,0.0,211.46,211.525,208.35666666666668,208.35666666666668,0.0,0.0
15,0.0,0.0,0.0,1.0,1.0,0.0,0.0,1.0,0.0,0.0,1.0,1.1856,26.0,0.0,0.0,0.0,59.999996,0.0,26.0,26.0,26.0,26.0,0.11375,0.28280000000000016,0.01135,292.847,-2.7127499999999998,-2.572625,-1.62825,-1.4521,-225.66,215.9975,190.68375,0.0,0.0,0.0,0.0,0.03066666666666651,-5.498166666666667,-5.498166666666667,-0.5397000000000001,0.2643333333333333,0.08477777777777784,1.015,67.67099999999999,0.0608,-0.208825,-1.1799999999999997,100.0,1.0,1.0,208.74,0.0,0.0,0.0,0.0,0.0,0.0,0.0,8847.7,0.0,55.0,5.0,243.58666666666664,1.0,0.0,0.0,0.0,0.0,0.0,1.0,0.0,0.7530000000000001,0.7530000000000001,0.0,0.0,1.0,55.0,616.79921,10000.0,85.000001,85.000001,85.000001,85.000001,395.0,0.0,0.0,0.0,1.0,333.33500000000004,52.811,52.811,48.172,48.172,34.0,-17.855,28.375,-24.196666666666665,33.855000000000004,0.0,1745.031,-1.0099999999999998,100.0,27.72,27.929000000000002,42.266,43.272999999999996,0.0,0.0,100.0,0.0,0.0,0.0,0.0,2782.4285714285716,3237.0,3938.5,4404.2,306.2985,304.617,315.27075,314.034,22.0074,20.6572,21.9938,21.5012,314.999998,314.999998,324.999988,324.999988,99.56037142857143,99.50788333333334,99.56812857142857,99.5476,0.1676666666666664,0.03633333333333333,-0.033666666666666664,0.19383333333333336,-0.03833333333332689,-0.060000000000002274,1.544,1.5135,38.546,30.1075,38.461,35.3825,56.718,35.4935,60.047,52.7505,54.546,34.5225,58.595,51.0405,53.629999999999995,34.006,58.4955,50.43666666666667,-0.15500000000000003,0.0014999999999999458,0.10300500000000001,0.11127500000000001,0.0,211.865,211.965,208.74,208.74,0.0,0.0
16,0.0,0.0,0.0,1.0,1.0,0.0,0.0,1.0,0.0,0.0,1.0,1.1856,26.0,0.0,0.0,0.0,59.999996,0.0,26.0,26.0,26.0,26.0,0.131,0.26560000000000006,-0.052750000000000005,292.862,-2.8058,-2.580375,-1.60095,-1.4545,-222.21,215.98000000000002,190.66175,0.0,0.0,0.0,0.0,0.03266666666666651,-5.498166666666667,-5.498166666666667,-0.562,-0.7026666666666668,0.06711111111111112,-1.041,67.811,0.0738,-0.22645,-1.282,100.0,1.0,1.0,209.17333333333335,0.0,0.0,0.0,0.0,0.0,0.0,0.0,8866.1,0.0,55.0,5.0,244.09,0.0,0.0,0.0,0.0,0.0,0.0,1.0,0.0,0.8039999999999985,0.8039999999999985,0.0,0.0,0.0,55.0,616.79921,10000.0,85.000001,85.000001,85.000001,85.000001,395.0,0.0,0.0,0.0,1.0,333.33500000000004,52.704,52.704,47.958,47.958,34.0,-20.205,28.41,-23.59,32.215,0.0,1744.98,-0.9049999999999994,100.0,27.236,28.181,42.447,43.453,0.0,0.0,100.0,0.0,0.0,0.0,0.0,3019.714285714286,3202.9,3966.25,4134.8,305.893,304.57825,315.24775,314.606,22.0165,20.6627,22.0042,21.5103,314.999998,314.999998,324.999988,324.999988,99.56038571428572,99.50788333333334,99.56827142857144,99.54774285714285,0.16700000000000026,0.03933333333333344,-0.027,0.20583333333333334,-0.05666666666667197,-0.030000000000001137,1.5613333333333332,1.5045000000000002,38.602999999999994,30.142,38.525999999999996,35.439499999999995,56.704,35.532,60.0835,52.8115,54.532,34.5585,58.629,51.0995,53.614999999999995,34.0405,58.525999999999996,50.49466666666667,-0.15449999999999997,0.0,0.110435,0.109365,0.0,212.275,212.36,209.17333333333335,209.17333333333335,0.0,0.0
17,0.0,0.0,0.0,1.0,1.0,0.0,0.0,1.0,0.0,0.0,1.0,1.1856,26.0,0.0,0.0,0.0,59.999996,0.0,26.0,26.0,26.0,26.0,0.113375,0.2896000000000001,-0.01905,292.48,-2.7609,-2.566375,-1.6405,-1.4783,-218.74,215.965,190.639125,0.0,0.0,0.0,0.0,0.03469999999999995,-5.498166666666667,-5.498166666666667,-0.5497000000000001,0.5546666666666666,0.048555555555555685,0.741,67.949,0.0833,-0.20585,-1.2199999999999998,100.0,1.0,1.0,209.56666666666666,0.0,0.0,0.0,0.0,0.0,0.0,0.0,8882.8,0.0,55.0,5.0,244.58666666666664,1.0,0.0,0.0,0.0,0.0,0.0,1.0,0.0,0.8550000000000004,0.8550000000000004,0.0,0.0,1.0,55.0,616.79921,10000.0,85.000001,85.000001,85.000001,85.000001,395.0,0.0,0.0,0.0,1.0,333.33500000000004,52.444,52.444,47.791,47.791,34.0,-19.31,28.009999999999998,-25.703333333333333,34.5,0.0,1744.928,-0.875,100.0,27.891,28.294,42.328,43.368,0.0,0.0,100.0,0.0,0.0,0.0,0.0,2986.714285714286,3165.1,4218.5,4333.6,305.7765,304.85925,314.6885,314.24625,22.026,20.6684,22.014499999999998,21.5193,314.999998,314.999998,324.999988,324.999988,99.56041428571429,99.50788333333334,99.56841428571428,99.54788571428571,0.17799999999999994,0.04733333333333345,-0.02,0.21166666666666667,-0.045000000000001705,-0.054999999999999716,1.5316666666666667,1.5025,38.662,30.177500000000002,38.591,35.496,56.694,35.572,60.117,52.8725,54.522999999999996,34.5955,58.66,51.158500000000004,53.604,34.076499999999996,58.554,50.552,-0.14700000000000002,-0.008000000000000007,0.11761,0.103855,0.0,212.735,212.835,209.56666666666666,209.56666666666666,0.0,0.0
18,0.0,0.0,0.0,1.0,1.0,0.0,0.0,1.0,0.0,0.0,1.0,1.1856,26.0,0.0,0.0,0.0,59.999996,0.0,26.0,26.0,26.0,26.0,0.11875000000000001,0.2771000000000001,-0.009175,292.48,-2.79615,-2.5393749999999997,-1.6560000000000001,-1.4227,-215.48000000000002,215.9525,190.618,0.0,0.0,0.0,0.0,0.036599999999999966,-5.498166666666667,-5.498166666666667,-0.5596,-0.5523333333333333,0.07488888888888878,1.202,68.08,0.08370000000000001,-0.222675,-1.2239999999999993,100.0,1.0,1.0,209.97,0.0,0.0,0.0,0.0,0.0,0.0,0.0,8899.8,0.0,55.0,5.0,245.06,0.0,0.0,0.0,0.0,0.0,0.0,1.0,0.0,0.9029999999999987,0.9029999999999987,0.0,0.0,0.0,55.0,616.79921,10000.0,85.000001,85.000001,85.000001,85.000001,395.0,0.0,0.0,0.0,1.0,333.33500000000004,52.383,52.383,47.699,47.699,34.0,-18.9925,30.205,-23.796666666666663,32.582499999999996,0.0,1744.881,-1.2300000000000004,100.0,27.622,28.136,42.666,43.806,0.0,0.0,100.0,0.0,0.0,0.0,0.0,2981.0,3377.8,3998.0,4232.1,305.8605,304.28725,315.1545,314.45275,22.0348,20.6736,22.0243,21.528,314.999998,314.999998,324.999988,324.999988,99.56042857142857,99.5079,99.56854285714286,99.54802857142857,0.1903333333333337,0.05566666666666675,-0.011166666666666667,0.20766666666666667,-0.05333333333332746,-0.054999999999999716,1.5613333333333332,1.516,38.717,30.21,38.652,35.5505,56.683,35.608000000000004,60.150999999999996,52.932,54.512,34.6295,58.6915,51.216,53.593,34.109,58.583,50.608666666666664,-0.16200000000000003,0.005499999999999949,0.10409500000000001,0.10704500000000002,0.0,213.11,213.185,209.97,209.97,0.0,0.0
19,0.0,0.0,0.0,1.0,1.0,0.0,0.0,1.0,0.0,0.0,1.0,1.1856,26.0,0.0,0.0,0.0,59.999996,0.0,26.0,26.0,26.0,26.0,0.166875,0.2875000000000001,0.034275,291.992,-2.7721,-2.521875,-1.67435,-1.4,-212.0,215.945,190.595375,0.0,0.0,0.0,0.0,0.03859999999999997,-5.498166666666667,-5.498166666666667,-0.5506,0.8423333333333334,0.08488888888888879,-0.49,68.217,0.0898,-0.21122500000000002,-1.5659999999999998,100.0,1.0,1.0,210.38333333333333,0.0,0.0,0.0,0.0,0.0,0.0,0.0,8917.3,0.0,55.0,5.0,245.55,1.0,0.0,0.0,0.0,0.0,0.0,1.0,0.0,0.9540000000000006,0.9540000000000006,0.0,0.0,1.0,55.0,616.79921,10000.0,85.000001,85.000001,85.000001,85.000001,395.0,0.0,0.0,0.0,1.0,333.33500000000004,51.682,51.682,47.546,47.546,34.0,-18.61,30.688333333333333,-25.16,34.667500000000004,0.0,1744.83,-1.5250000000000004,100.0,27.932,28.815,42.278999999999996,43.863,0.0,0.0,100.0,0.0,0.0,0.0,0.0,3132.285714285714,3324.1,4185.25,4417.3,305.4555,304.15575,314.82525,314.001,22.0443,20.6794,22.0346,21.5372,314.999998,314.999998,324.999988,324.999988,99.56045714285715,99.50791666666667,99.56868571428572,99.54818571428571,0.21733333333333338,0.07399999999999984,-0.007833333333333333,0.21666666666666667,-0.05666666666667197,-0.046666666666666856,1.5443333333333333,1.4849999999999999,38.777,30.246000000000002,38.716,35.6075,56.675,35.650999999999996,60.1835,52.9935,54.504999999999995,34.6695,58.722,51.2755,53.585,34.1475,58.61,50.66733333333333,-0.19399999999999995,0.031000000000000028,0.10634,0.10075,0.0,213.575,213.655,210.38333333333333,210.38333333333333,0.0,0.0
20,0.0,0.0,0.0,1.0,1.0,0.0,0.0,1.0,0.0,0.0,1.0,1.1856,26.0,0.0,0.0,0.0,59.999996,0.0,26.0,26.0,26.0,26.0,0.18787500000000001,0.25880000000000014,-0.055125,292.389,-2.82715,-2.5785,-1.6077,-1.5155,-208.32,215.9425,190.57175,0.0,0.0,0.0,0.0,0.04076666666666651,-5.498166666666667,-5.498166666666667,-0.5582,-1.1783333333333337,0.09311111111111114,-0.8029999999999999,68.363,0.1058,-0.22635000000000002,-1.8499999999999996,100.0,1.0,1.0,210.74666666666667,0.0,0.0,0.0,0.0,0.0,0.0,0.0,8932.8,0.0,55.0,5.0,246.07999999999998,0.0,0.0,0.0,0.0,0.0,0.0,0.0,0.0,1.0079999999999991,1.0079999999999991,0.0,0.0,0.0,55.0,616.79921,10000.0,85.000001,85.000001,85.000001,85.000001,395.0,0.0,0.0,0.0,1.0,166.665,52.765,52.765,47.104,47.104,34.0,-17.669999999999998,29.841666666666665,-22.853333333333335,36.065,0.0,1744.777,-0.879999999999999,100.0,27.338,28.539,42.78,44.397999999999996,0.0,0.0,100.0,0.0,0.0,0.0,0.0,2863.142857142857,3190.6,4067.625,4260.4,306.3485,304.59125,314.958,314.19475,22.0539,20.6853,22.0457,21.5471,314.999998,314.999998,324.999988,324.999988,99.56047142857143,99.50791666666667,99.56884285714285,99.54834285714286,0.20466666666666677,0.07466666666666644,0.007,0.23333333333333334,-0.030000000000001137,-0.061666666666667425,1.5243333333333333,1.4565000000000001,38.837,30.2835,38.786,35.669,56.662,35.695,60.223,53.062,54.492999999999995,34.71,58.7585,51.342,53.571,34.187,58.643,50.73233333333333,-0.16549999999999998,0.017000000000000015,0.11142500000000001,0.1014,0.0,213.935,214.095,210.74666666666667,210.74666666666667,0.0,0.0
21,0.0,0.0,0.0,1.0,1.0,0.0,0.0,1.0,0.0,0.0,1.0,1.1856,26.0,0.0,0.0,0.0,59.999996,0.0,26.0,26.0,26.0,26.0,0.13925,0.2812000000000001,-0.07200000000000001,292.633,-2.73405,-2.638375,-1.66385,-1.4854,-205.24,215.9425,190.551375,0.0,0.0,0.0,0.0,0.04253333333333331,-5.498166666666667,-5.498166666666667,-0.5791000000000001,0.502,0.06911111111111112,-0.09099999999999997,68.479,0.11900000000000001,-0.225825,-1.314,100.0,1.0,1.0,211.33666666666667,0.0,0.0,0.0,0.0,0.0,0.0,0.0,8957.8,0.0,55.0,5.0,246.5,1.0,0.0,0.0,0.0,0.0,0.0,0.0,0.0,1.0530000000000008,1.0530000000000008,0.0,0.0,1.0,55.0,616.79921,10000.0,85.000001,85.000001,85.000001,85.000001,395.0,0.0,0.0,0.0,1.0,166.665,52.2,52.2,48.294,48.294,34.0,-19.7775,28.888333333333335,-21.296666666666663,33.675,0.0,1744.732,0.120000000000001,100.0,27.812,28.564,42.201,43.856,0.0,0.0,100.0,0.0,0.0,0.0,0.0,2950.0,3260.2,3933.5,4058.7,305.8225,304.4775,315.40275,314.88425,22.0622,20.6904,22.0546,21.555,314.999998,314.999998,324.999988,324.999988,99.5605,99.50793333333333,99.56897142857143,99.54847142857143,0.15666666666666673,0.026000000000000245,0.025833333333333333,0.25033333333333335,-0.04333333333332945,-0.07000000000000028,1.6173333333333333,1.5514999999999999,38.888999999999996,30.314999999999998,38.841,35.7185,56.653,35.731,60.249,53.1135,54.483000000000004,34.7435,58.783,51.391999999999996,53.561,34.2195,58.664500000000004,50.781333333333336,-0.08999999999999997,-0.07200000000000006,0.10461500000000001,0.111945,0.0,214.36,214.47,211.33666666666667,211.33666666666667,0.0,0.0
22,0.0,0.0,0.0,1.0,1.0,0.0,0.0,1.0,0.0,0.0,1.0,1.1856,26.0,0.0,0.0,0.0,59.999996,0.0,26.0,26.0,26.0,26.0,0.075375,0.2721,-0.003125,292.114,-2.70535,-2.6546250000000002,-1.6452,-1.4897,-201.53,215.9475,190.526125,0.0,0.0,0.0,0.0,0.04469999999999996,-5.498166666666667,-5.498166666666667,-0.5569000000000001,0.006666666666666599,0.05944444444444441,0.64,68.626,0.0955,-0.20635,0.006000000000000227,100.0,1.0,1.0,211.55666666666667,0.0,0.0,0.0,0.0,0.0,0.0,0.0,8967.2,0.0,55.0,5.0,247.02666666666664,0.0,0.0,0.0,0.0,0.0,0.0,0.0,0.0,1.1069999999999993,1.1069999999999993,0.0,0.0,0.0,55.0,616.79921,10000.0,85.000001,85.000001,85.000001,85.000001,395.0,0.0,0.0,0.0,1.0,166.665,52.429,52.429,47.043,47.043,34.0,-20.2975,25.761666666666667,-26.253333333333334,35.035,0.0,1744.678,0.629999999999999,100.0,28.0,28.516,42.915,44.04,0.0,0.0,100.0,0.0,0.0,0.0,0.0,2829.142857142857,3176.9,4187.625,4411.4,306.149,304.73,314.6965,314.04,22.0721,20.6964,22.0657,21.5647,314.999998,314.999998,324.999988,324.999988,99.56051428571429,99.50793333333333,99.56912857142858,99.54862857142857,0.11533333333333351,-0.03200000000000003,-0.029333333333333333,0.19983333333333334,-0.030000000000001137,-0.06499999999999773,1.5006666666666668,1.468,38.951,30.3525,38.911,35.7795,56.637,35.7715,60.2885,53.1805,54.469,34.7815,58.8195,51.456,53.545,34.2555,58.6975,50.84466666666667,-0.03149999999999997,-0.12949999999999995,0.10925000000000001,0.10713500000000001,0.0,214.86,214.87,211.55666666666667,211.55666666666667,0.0,0.0
23,0.0,0.0,0.0,1.0,1.0,0.0,0.0,1.0,0.0,0.0,1.0,1.1856,26.0,0.0,0.0,0.0,59.999996,0.0,26.0,26.0,26.0,26.0,0.0115,0.2549000000000001,-0.01535,292.068,-2.70735,-2.6325000000000003,-1.5460500000000001,-1.5811000000000002,-198.24,215.95499999999998,190.504,0.0,0.0,0.0,0.0,0.046633333333333304,-5.498166666666667,-5.498166666666667,-0.5757,-0.2829999999999999,0.02777777777777768,0.06099999999999994,68.752,0.0468,-0.233025,0.8679999999999994,100.0,1.0,1.0,212.06666666666666,0.0,0.0,0.0,0.0,0.0,0.0,0.0,8988.8,0.0,55.0,5.0,247.48333333333335,1.0,0.0,0.0,0.0,0.0,0.0,0.0,0.0,1.1550000000000011,1.1550000000000011,0.0,0.0,1.0,55.0,616.79921,10000.0,85.000001,85.000001,85.000001,85.000001,395.0,0.0,0.0,0.0,1.0,333.33500000000004,51.636,51.636,48.08,48.08,34.0,-25.715,24.369999999999997,-25.71,29.2375,0.0,1744.628,0.8399999999999999,100.0,28.418,28.419,43.229,44.1,0.0,0.0,100.0,0.0,0.0,0.0,0.0,3221.142857142857,3206.4,3926.375,3991.2,305.011,304.72175,315.254,314.9485,22.081,20.7017,22.0756,21.5734,314.999998,314.999998,324.999988,324.999988,99.56052857142858,99.50795,99.56925714285714,99.54877142857143,0.06833333333333336,-0.06466666666666665,-0.08316666666666667,0.14116666666666666,-0.061666666666667425,-0.036666666666668846,1.5086666666666668,1.5425,39.006,30.3855,38.972,35.8335,56.623000000000005,35.808,60.3215,53.2375,54.455,34.8155,58.85,51.5115,53.531,34.2885,58.725,50.898666666666664,-0.01200000000000001,-0.14700000000000002,0.107715,0.10568000000000001,0.0,215.285,215.19,212.06666666666666,212.06666666666666,0.0,0.0
24,0.0,0.0,0.0,1.0,1.0,0.0,0.0,1.0,0.0,0.0,1.0,1.1856,26.0,0.0,0.0,0.0,59.999996,0.0,26.0,26.0,26.0,26.0,-0.054,0.26890000000000014,0.0007250000000000001,292.389,-2.709,-2.6658749999999998,-1.56925,-1.5418,-194.73000000000002,215.9625,190.480125,0.0,0.0,0.0,0.0,0.048666666666666525,-5.498166666666667,-5.498166666666667,-0.5802,-0.6216666666666668,0.011444444444444368,-0.391,68.888,-0.0064,-0.216,1.2260000000000009,100.0,1.0,1.0,212.38333333333333,0.0,0.0,0.0,0.0,0.0,0.0,0.0,9002.1,0.0,55.0,5.0,247.97,0.0,0.0,0.0,0.0,0.0,0.0,0.0,0.0,1.2059999999999995,1.2059999999999995,0.0,0.0,0.0,55.0,616.79921,10000.0,85.000001,85.000001,85.000001,85.000001,395.0,0.0,0.0,0.0,1.0,166.665,52.887,52.887,47.058,47.058,34.0,-24.615,20.24666666666667,-32.629999999999995,26.46,0.0,1744.579,0.8000000000000007,100.0,28.112000000000002,28.127,43.422,43.744,0.0,0.0,100.0,0.0,0.0,0.0,0.0,2970.714285714286,2910.0,4335.125,4092.2,305.949,305.554,314.37575,314.757,22.0904,20.7071,22.086100000000002,21.5824,314.999998,314.999998,324.999988,324.999988,99.56052857142858,99.50795,99.56941428571429,99.54891428571429,0.03266666666666662,-0.1116666666666668,-0.14350000000000002,0.07933333333333333,-0.041666666666671404,-0.04999999999999716,1.4803333333333333,1.528,39.065,30.4195,39.038,35.89,56.605000000000004,35.846000000000004,60.358000000000004,53.295500000000004,54.438,34.851,58.884,51.567499999999995,53.513999999999996,34.3225,58.756,50.95366666666666,-0.013000000000000012,-0.14149999999999996,0.10601000000000001,0.10233,0.0,215.72,215.595,212.38333333333333,212.38333333333333,0.0,0.0
25,0.0,0.0,0.0,1.0,1.0,0.0,0.0,1.0,0.0,0.0,1.0,1.1856,26.0,0.0,0.0,0.0,59.999996,0.0,26.0,26.0,26.0,26.0,-0.0795,0.2701,-0.043975,292.282,-2.7464,-2.6546250000000002,-1.5612,-1.5676999999999999,-191.42000000000002,215.9675,190.45625,0.0,0.0,0.0,0.0,0.05056666666666654,-5.498166666666667,-5.498166666666667,-0.6134000000000001,0.026666666666666616,-0.012666666666666604,-1.682,69.012,-0.0475,-0.22675,1.3900000000000006,100.0,1.0,1.0,212.91333333333333,0.0,0.0,0.0,0.0,0.0,0.0,0.0,9024.6,0.0,55.0,5.0,248.41666666666666,1.0,0.0,0.0,0.0,0.0,0.0,0.0,0.0,1.2540000000000013,1.2540000000000013,0.0,0.0,1.0,55.0,616.79921,10000.0,85.000001,85.000001,85.000001,85.000001,395.0,0.0,0.0,0.0,1.0,333.33500000000004,51.804,51.804,47.928,47.928,34.0,-30.155,21.615000000000002,-31.13,23.939999999999998,0.0,1744.53,0.7800000000000011,100.0,28.25,28.201,43.341,43.209,0.0,0.0,100.0,0.0,0.0,0.0,0.0,3377.285714285714,3179.9,4023.0,3949.8,304.887,304.676,315.17575,315.099,22.0993,20.7123,22.0958,21.5908,314.999998,314.999998,324.999988,324.999988,99.56052857142858,99.50796666666666,99.56955714285715,99.54905714285714,0.002666666666666817,-0.1286666666666667,-0.17933333333333334,0.049166666666666664,-0.05666666666667197,-0.054999999999999716,1.5373333333333332,1.5995,39.120000000000005,30.4515,39.099000000000004,35.942499999999995,56.587,35.885,60.3895,53.348,54.422,34.887,58.9135,51.618,53.495999999999995,34.3575,58.7825,51.003,-0.01749999999999996,-0.13450000000000006,0.107105,0.10719500000000001,0.0,216.10000000000002,215.985,212.91333333333333,212.91333333333333,0.0,0.0
26,0.0,0.0,0.0,1.0,1.0,0.0,0.0,1.0,0.0,0.0,1.0,1.1856,26.0,0.0,0.0,0.0,59.999996,0.0,26.0,26.0,26.0,26.0,-0.13075,0.28510000000000013,0.05255,291.10699999999997,-2.6586499999999997,-2.767125,-1.5787,-1.592,-187.69,215.97,190.428875,0.0,0.0,0.0,0.0,0.0527333333333333,-5.498166666666667,-5.498166666666667,-0.5684,0.5553333333333332,-0.06377777777777771,-1.0750000000000002,69.157,-0.077,-0.19662500000000002,1.346,100.0,1.0,1.0,213.06333333333333,0.0,0.0,0.0,0.0,0.0,0.0,0.0,9031.0,0.0,55.0,5.0,248.93666666666667,0.0,0.0,0.0,0.0,0.0,0.0,0.0,0.0,1.3079999999999998,1.3079999999999998,0.0,0.0,0.0,55.0,616.79921,10000.0,85.000001,85.000001,85.000001,85.000001,395.0,0.0,0.0,0.0,1.0,166.665,51.514,51.514,46.036,46.036,34.0,-29.424999999999997,19.513333333333332,-40.156666666666666,26.79,0.0,1744.476,0.5650000000000013,100.0,29.29,28.588,44.288,43.423,0.0,0.0,100.0,0.0,0.0,0.0,0.0,3344.0,2893.5,4709.0,4441.1,304.848,305.43075,313.5525,313.9335,22.1096,20.7182,22.1071,21.6005,314.999998,314.999998,324.999988,324.999988,99.56054285714286,99.50798333333333,99.56971428571428,99.54921428571429,-0.003666666666666707,-0.15300000000000002,-0.20516666666666666,0.01983333333333333,-0.060000000000002274,-0.041666666666671404,1.4066666666666667,1.4675000000000002,39.185,30.488500000000002,39.169,36.003,56.572,35.9315,60.4325,53.4105,54.407,34.93,58.954,51.6785,53.480999999999995,34.3985,58.82,51.06166666666667,-0.04149999999999998,-0.125,0.10651500000000001,0.11150000000000002,0.0,216.60000000000002,216.465,213.06333333333333,213.06333333333333,0.0,0.0
27,0.0,0.0,0.0,1.0,1.0,0.0,0.0,1.0,0.0,0.0,1.0,1.1856,26.0,0.0,0.0,0.0,59.999996,0.0,26.0,26.0,26.0,26.0,-0.13075,0.24970000000000003,-0.020825,291.595,-2.6135,-2.7515,-1.56175,-1.6715,-184.57,215.97,190.407375,0.0,0.0,0.0,0.0,0.05456666666666654,-5.498166666666667,-5.498166666666667,-0.5979,-1.08,-0.06777777777777771,0.737,69.272,-0.0878,-0.24450000000000002,1.1660000000000004,100.0,1.0,1.0,213.56333333333333,0.0,0.0,0.0,0.0,0.0,0.0,0.0,9052.1,0.0,55.0,5.0,249.35666666666668,1.0,0.0,0.0,0.0,0.0,0.0,0.0,0.0,1.352999999999998,1.352999999999998,0.0,0.0,1.0,55.0,616.79921,10000.0,85.000001,85.000001,85.000001,85.000001,395.0,0.0,0.0,0.0,1.0,166.665,51.743,51.743,46.692,46.692,34.0,-27.77,20.796666666666667,-34.0,25.14,0.0,1744.432,0.4400000000000013,100.0,29.209,28.073999999999998,45.028999999999996,43.71,0.0,0.0,100.0,0.0,0.0,0.0,0.0,3197.714285714286,3094.4,4140.25,4031.3,305.0875,305.10375,314.76575,314.858,22.1179,20.7229,22.1165,21.6087,314.999998,314.999998,324.999988,324.999988,99.56054285714286,99.508,99.56984285714286,99.54934285714286,-0.0029999999999998916,-0.14933333333333332,-0.20433333333333334,0.025666666666666667,-0.045000000000001705,-0.03166666666666629,1.4776666666666667,1.5135,39.236999999999995,30.518,39.227999999999994,36.054,56.556,35.968,60.468,53.463,54.393,34.964,58.987,51.7285,53.466,34.4305,58.8505,51.11066666666667,-0.04599999999999993,-0.11850000000000005,0.10836000000000001,0.11791000000000001,0.0,216.87,216.765,213.56333333333333,213.56333333333333,0.0,0.0
28,0.0,0.0,0.0,1.0,1.0,0.0,0.0,1.0,0.0,0.0,1.0,1.1856,26.0,0.0,0.0,0.0,59.999996,0.0,26.0,26.0,26.0,26.0,-0.1365,0.2659,-0.048175,291.901,-2.6318,-2.7357500000000003,-1.5375,-1.6313,-180.82999999999998,215.9675,190.380375,0.0,0.0,0.0,0.0,0.0567333333333333,-5.498166666666667,-5.498166666666667,-0.5987,0.6886666666666668,-0.07222222222222241,0.8240000000000001,69.41,-0.0955,-0.21235,1.0280000000000005,100.0,1.0,1.0,214.07,0.0,0.0,0.0,0.0,0.0,0.0,0.0,9073.7,0.0,55.0,5.0,249.84666666666666,0.0,0.0,0.0,0.0,0.0,0.0,0.0,0.0,1.407,1.407,0.0,0.0,0.0,55.0,616.79921,10000.0,85.000001,85.000001,85.000001,85.000001,395.0,0.0,0.0,0.0,1.0,166.665,51.894999999999996,51.894999999999996,47.424,47.424,34.0,-27.585,20.40833333333333,-34.05,24.83,0.0,1744.377,0.2749999999999986,100.0,29.272,27.967,44.275999999999996,43.066,0.0,0.0,100.0,0.0,0.0,0.0,0.0,3189.0,3010.4,4198.0,4114.2,305.048,305.32325,314.79975,314.77075,22.1281,20.7287,22.1274,21.6181,314.999998,314.999998,324.999988,324.999988,99.56054285714286,99.50803333333333,99.57,99.5495,0.004999999999999893,-0.14066666666666672,-0.21,0.02466666666666667,-0.054999999999999716,-0.03999999999999915,1.5203333333333333,1.565,39.3,30.554000000000002,39.297,36.113,56.54,36.012,60.504,53.521,54.376999999999995,35.0045,59.021,51.7845,53.449,34.47,58.881,51.165,-0.061999999999999944,-0.10099999999999998,0.10485000000000001,0.11959000000000002,0.0,217.35500000000002,217.26,214.07,214.07,0.0,0.0
29,0.0,0.0,0.0,1.0,1.0,0.0,0.0,1.0,0.0,0.0,1.0,1.1856,26.0,0.0,0.0,0.0,59.999996,0.0,26.0,26.0,26.0,26.0,-0.107,0.26449999999999996,0.035375000000000004,291.626,-2.59155,-2.784625,-1.54765,-1.6046,-177.28,215.96,190.354,0.0,0.0,0.0,0.0,0.05879999999999996,-5.498166666666667,-5.498166666666667,-0.6082000000000001,-0.6916666666666669,-0.06988888888888889,-0.673,69.544,-0.0864,-0.22007500000000002,0.7400000000000002,100.0,1.0,1.0,214.35000000000002,0.0,0.0,0.0,0.0,0.0,0.0,0.0,9085.6,0.0,55.0,5.0,250.32999999999998,1.0,0.0,0.0,0.0,0.0,0.0,0.0,0.0,1.4579999999999984,1.4579999999999984,0.0,0.0,1.0,55.0,616.79921,10000.0,85.000001,85.000001,85.000001,85.000001,395.0,0.0,0.0,0.0,1.0,166.665,51.849000000000004,51.849000000000004,46.799,46.799,34.0,-28.78,20.788333333333334,-35.02666666666667,25.42,0.0,1744.327,0.15500000000000114,100.0,28.796,28.035,44.602000000000004,43.441,0.0,0.0,100.0,0.0,0.0,0.0,0.0,3358.5714285714284,2982.1,4254.375,4145.0,304.827,305.18025,314.553,314.5825,22.1374,20.734,22.1381,21.627299999999998,314.999998,314.999998,324.999988,324.999988,99.56055714285715,99.50803333333333,99.57015714285714,99.54964285714286,-0.0006666666666665932,-0.1423333333333332,-0.20700000000000002,0.03133333333333333,-0.03499999999999659,-0.05333333333332746,1.4713333333333332,1.5005000000000002,39.358999999999995,30.5875,39.363,36.170500000000004,56.521,36.052,60.544,53.58,54.36,35.042,59.0585,51.841,53.432,34.5055,58.9155,51.22,-0.07050000000000001,-0.09050000000000002,0.11121500000000001,0.11635000000000001,0.0,217.69,217.66,214.35000000000002,214.35000000000002,0.0,0.0
30,0.0,0.0,0.0,1.0,1.0,0.0,0.0,1.0,0.0,0.0,1.0,1.1856,26.0,0.0,0.0,0.0,59.999996,0.0,26.0,26.0,26.0,26.0,-0.10625,0.2612000000000001,0.06505,291.077,-2.6443,-2.6723749999999997,-1.4919,-1.6629,-174.14999999999998,215.9525,190.3305,0.0,0.0,0.0,0.0,0.06063333333333332,-5.498166666666667,-5.498166666666667,-0.6018,0.8136666666666666,-0.06644444444444453,0.894,69.658,-0.0745,-0.21545,0.5899999999999999,100.0,1.0,1.0,214.7266666666667,0.0,0.0,0.0,0.0,0.0,0.0,0.0,9101.5,0.0,55.0,5.0,250.74,0.0,0.0,0.0,0.0,0.0,0.0,1.0,0.0,1.5030000000000001,1.5030000000000001,0.0,0.0,0.0,55.0,616.79921,10000.0,85.000001,85.000001,85.000001,85.000001,395.0,0.0,0.0,0.0,1.0,166.665,50.888,50.888,46.86,46.86,34.0,-28.7025,21.619999999999997,-33.02333333333333,27.72,0.0,1744.282,0.010000000000001563,100.0,29.764,28.558,44.543,43.427,0.0,0.0,100.0,0.0,0.0,0.0,0.0,3401.857142857143,3103.5,4282.125,4242.9,304.497,304.98825,314.484,314.3785,22.1459,20.739,22.1473,21.6353,314.999998,314.999998,324.999988,324.999988,99.56055714285715,99.50805,99.57028571428572,99.54977142857143,0.027666666666666728,-0.11833333333333318,-0.1795,0.0445,-0.03333333333333144,-0.060000000000002274,1.4853333333333332,1.4889999999999999,39.412,30.619,39.42,36.2205,56.509,36.0905,60.575,53.629999999999995,54.349000000000004,35.0775,59.0875,51.8895,53.42,34.539500000000004,58.942,51.26733333333333,-0.08350000000000002,-0.08299999999999996,0.10594500000000001,0.110835,0.0,218.095,218.055,214.7266666666667,214.7266666666667,0.0,0.0
31,0.0,0.0,0.0,1.0,1.0,0.0,0.0,1.0,0.0,0.0,1.0,1.1856,26.0,0.0,0.0,0.0,59.999996,0.0,26.0,26.0,26.0,26.0,-0.083125,0.2590000000000001,-0.0047,291.031,-2.71995,-2.6418749999999998,-1.5436,-1.6527,-170.6,215.94,190.30475,0.0,0.0,0.0,0.0,0.06269999999999998,-5.498166666666667,-5.498166666666667,-0.5892000000000001,-0.587,-0.05411111111111122,-0.643,69.78999999999999,-0.0574,-0.21845,0.31400000000000006,100.0,1.0,1.0,215.03333333333333,0.0,0.0,0.0,0.0,0.0,0.0,0.0,9114.4,0.0,55.0,5.0,251.21666666666667,1.0,0.0,0.0,0.0,0.0,0.0,1.0,0.0,1.5539999999999985,1.5539999999999985,0.0,0.0,1.0,55.0,616.79921,10000.0,85.000001,85.000001,85.000001,85.000001,395.0,0.0,0.0,0.0,1.0,166.665,51.528999999999996,51.528999999999996,45.547,45.547,34.0,-27.259999999999998,21.711666666666666,-35.06333333333333,28.2675,0.0,1744.231,-0.03999999999999915,100.0,29.23,28.764,45.049,44.212,0.0,0.0,100.0,0.0,0.0,0.0,0.0,3234.142857142857,3089.4,4443.25,4229.1,305.2985,305.06975,314.09625,314.46025,22.1553,20.7446,22.158,21.6447,314.999998,314.999998,324.999988,324.999988,99.56055714285715,99.50806666666666,99.57044285714285,99.54991428571428,0.0303333333333331,-0.10533333333333328,-0.17200000000000001,0.058833333333333335,-0.02833333333332888,-0.04833333333333201,1.4496666666666667,1.4695,39.471000000000004,30.6535,39.486999999999995,36.278999999999996,56.492999999999995,36.1315,60.6155,53.6905,54.333,35.1155,59.1255,51.9475,53.403999999999996,34.576,58.977000000000004,51.324,-0.09050000000000002,-0.07250000000000001,0.10745500000000001,0.106685,0.0,218.45,218.425,215.03333333333333,215.03333333333333,0.0,0.0
32,0.0,0.0,0.0,1.0,1.0,0.0,0.0,1.0,0.0,0.0,1.0,1.1856,26.0,0.0,0.0,0.0,59.999996,0.0,26.0,26.0,26.0,26.0,-0.0835,0.26490000000000014,-0.043250000000000004,291.214,-2.65405,-2.74675,-1.60985,-1.5588000000000002,-167.03,215.9275,190.279125,0.0,0.0,0.0,0.0,0.06476666666666653,-5.498166666666667,-5.498166666666667,-0.6076,0.16833333333333333,-0.07422222222222219,0.27,69.916,-0.0426,-0.22742500000000002,0.2400000000000002,100.0,1.0,1.0,215.57333333333332,0.0,0.0,0.0,0.0,0.0,0.0,0.0,9137.4,0.0,55.0,5.0,251.67333333333335,0.0,0.0,0.0,0.0,0.0,0.0,1.0,0.0,1.6050000000000004,1.6050000000000004,0.0,0.0,0.0,55.0,616.79921,10000.0,85.000001,85.000001,85.000001,85.000001,395.0,0.0,0.0,0.0,1.0,166.665,51.239,51.239,46.585,46.585,34.0,-26.3825,23.689999999999998,-32.43,27.6425,0.0,1744.18,-0.08999999999999986,100.0,29.392,28.718,44.702,43.926,0.0,0.0,100.0,0.0,0.0,0.0,0.0,3280.285714285714,3125.7,4243.375,4200.3,304.91,304.9565,314.694,314.64725,22.1647,20.7502,22.1684,21.6538,314.999998,314.999998,324.999988,324.999988,99.56057142857142,99.50808333333333,99.57058571428571,99.55007142857143,0.05366666666666653,-0.08866666666666667,-0.15066666666666667,0.08383333333333333,-0.041666666666671404,-0.05333333333332746,1.5286666666666666,1.529,39.528999999999996,30.689,39.552,36.336,56.477000000000004,36.1725,60.6495,53.7465,54.319,35.1535,59.158,52.002,53.388,34.613,59.0055,51.376666666666665,-0.08899999999999997,-0.07600000000000007,0.10160000000000001,0.115165,0.0,218.85000000000002,218.84,215.57333333333332,215.57333333333332,0.0,0.0
33,0.0,0.0,0.0,1.0,1.0,0.0,0.0,1.0,0.0,0.0,1.0,1.1856,26.0,0.0,0.0,0.0,59.999996,0.0,26.0,26.0,26.0,26.0,-0.034875,0.26350000000000007,-0.027625,291.397,-2.6785,-2.7277500000000003,-1.55125,-1.6313,-163.45999999999998,215.9125,190.252375,0.0,0.0,0.0,0.0,0.0668333333333333,-5.498166666666667,-5.498166666666667,-0.6127,-0.4590000000000001,-0.06066666666666665,0.11599999999999999,70.047,-0.0329,-0.217425,0.1620000000000008,100.0,1.0,1.0,215.87333333333333,0.0,0.0,0.0,0.0,0.0,0.0,0.0,9150.1,0.0,55.0,5.0,252.14333333333335,1.0,0.0,0.0,0.0,0.0,0.0,1.0,0.0,1.6559999999999988,1.6559999999999988,0.0,0.0,1.0,55.0,616.79921,10000.0,85.000001,85.000001,85.000001,85.000001,395.0,0.0,0.0,0.0,1.0,166.665,51.865,51.865,46.585,46.585,34.0,-25.2075,22.483333333333334,-31.9,29.1675,0.0,1744.13,-0.23000000000000043,100.0,28.969,28.528,44.563,44.097,0.0,0.0,100.0,0.0,0.0,0.0,0.0,3209.285714285714,2966.1,4240.75,4239.7,305.285,305.31625,314.5995,314.33975,22.174,20.7557,22.1789,21.663,314.999998,314.999998,324.999988,324.999988,99.56057142857142,99.5081,99.57074285714286,99.55021428571429,0.06566666666666654,-0.08366666666666678,-0.14883333333333335,0.07783333333333332,-0.051666666666669414,-0.04333333333332945,1.4743333333333333,1.4805000000000001,39.588,30.723,39.617999999999995,36.3935,56.462,36.21,60.6855,53.805,54.304,35.188,59.1915,52.058,53.373000000000005,34.646,59.036500000000004,51.431333333333335,-0.10250000000000004,-0.0605,0.104495,0.10566,0.0,219.265,219.22500000000002,215.87333333333333,215.87333333333333,0.0,0.0
34,0.0,0.0,0.0,1.0,1.0,0.0,0.0,1.0,0.0,0.0,1.0,1.1856,26.0,0.0,0.0,0.0,59.999996,0.0,26.0,26.0,26.0,26.0,-0.023375,0.25690000000000013,-0.06770000000000001,291.794,-2.69155,-2.68225,-1.61315,-1.5885,-160.1,215.8975,190.226125,0.0,0.0,0.0,0.0,0.06879999999999997,-5.498166666666667,-5.498166666666667,-0.6429,-0.813,-0.02911111111111131,-0.06400000000000006,70.167,-0.022000000000000002,-0.225975,0.09200000000000053,100.0,1.0,1.0,216.31666666666666,0.0,0.0,0.0,0.0,0.0,0.0,0.0,9168.9,0.0,55.0,5.0,252.57666666666665,0.0,0.0,0.0,0.0,0.0,0.0,1.0,0.0,1.7040000000000006,1.7040000000000006,0.0,0.0,0.0,55.0,616.79921,10000.0,85.000001,85.000001,85.000001,85.000001,395.0,0.0,0.0,0.0,1.0,166.665,52.124,52.124,47.333,47.333,34.0,-24.6575,22.7,-30.169999999999998,28.002499999999998,0.0,1744.08,-0.254999999999999,100.0,28.659,28.275,44.261,44.138000000000005,0.0,0.0,100.0,0.0,0.0,0.0,0.0,3169.142857142857,2979.0,4072.875,4132.6,305.282,305.32525,315.0635,314.62175,22.1827,20.7608,22.1886,21.671599999999998,314.999998,314.999998,324.999988,324.999988,99.56058571428571,99.5081,99.57088571428571,99.55035714285714,0.07633333333333336,-0.07099999999999995,-0.13316666666666666,0.08716666666666667,-0.04833333333333201,-0.05333333333332746,1.5133333333333332,1.5150000000000001,39.641999999999996,30.755,39.679,36.4475,56.447,36.2445,60.716,53.8595,54.29,35.2205,59.22,52.1105,53.358000000000004,34.6765,59.062,51.48266666666667,-0.10649999999999993,-0.05699999999999994,0.10505500000000001,0.10624000000000001,0.0,219.60500000000002,219.595,216.31666666666666,216.31666666666666,0.0,0.0
35,0.0,0.0,0.0,1.0,1.0,0.0,0.0,1.0,0.0,0.0,1.0,1.1856,26.0,0.0,0.0,0.0,59.999996,0.0,26.0,26.0,26.0,26.0,0.0022500000000000003,0.25050000000000017,-0.04145,291.718,-2.69085,-2.6648750000000003,-1.5984,-1.5984,-156.31,215.88,190.19425,0.0,0.0,0.0,0.0,0.07099999999999995,-5.498166666666667,-5.498166666666667,-0.6844,-0.19199999999999995,-0.03811111111111121,-1.025,70.301,-0.0108,-0.22685000000000002,-0.0860000000000003,100.0,1.0,1.0,216.80333333333334,0.0,0.0,0.0,0.0,0.0,0.0,0.0,9189.6,0.0,55.0,5.0,253.06,1.0,0.0,0.0,0.0,0.0,0.0,1.0,0.0,1.7579999999999991,1.7579999999999991,0.0,0.0,1.0,55.0,616.79921,10000.0,85.000001,85.000001,85.000001,85.000001,395.0,0.0,0.0,0.0,1.0,166.665,51.483,51.483,46.967,46.967,34.0,-25.325,25.891666666666666,-28.97,27.075000000000003,0.0,1744.027,-0.23499999999999943,100.0,28.461,28.679000000000002,43.988,43.679,0.0,0.0,100.0,0.0,0.0,0.0,0.0,3259.142857142857,3307.0,4012.375,3949.7,305.15,304.294,315.17975,315.1325,22.1923,20.7668,22.1995,21.6812,314.999998,314.999998,324.999988,324.999988,99.5606,99.50811666666667,99.57104285714286,99.55051428571429,0.07566666666666677,-0.06099999999999994,-0.12616666666666668,0.101,-0.04833333333333201,-0.04999999999999716,1.5513333333333332,1.5575,39.702,30.7925,39.747,36.5075,56.428,36.2845,60.7505,53.917500000000004,54.272999999999996,35.257999999999996,59.251999999999995,52.1665,53.34,34.7125,59.0905,51.537,-0.10649999999999993,-0.06150000000000011,0.108895,0.10747000000000001,0.0,220.04000000000002,220.01,216.80333333333334,216.80333333333334,0.0,0.0
36,0.0,0.0,0.0,1.0,1.0,0.0,0.0,1.0,0.0,0.0,1.0,1.1856,26.0,0.0,0.0,0.0,59.999996,0.0,26.0,26.0,26.0,26.0,-0.009125,0.2714000000000001,0.06392500000000001,290.741,-2.7438,-2.631125,-1.5518,-1.5954000000000002,-153.14,215.865,190.166375,0.0,0.0,0.0,0.0,0.0728333333333333,-5.498166666666667,-5.498166666666667,-0.6635,0.2636666666666666,-0.07077777777777783,0.10099999999999998,70.417,0.00030000000000000003,-0.199725,-0.09799999999999898,100.0,1.0,1.0,216.89666666666668,0.0,0.0,0.0,0.0,0.0,0.0,0.0,9193.5,0.0,55.0,5.0,253.47333333333336,0.0,0.0,0.0,0.0,0.0,0.0,1.0,0.0,1.8030000000000008,1.8030000000000008,0.0,0.0,0.0,55.0,616.79921,10000.0,85.000001,85.000001,85.000001,85.000001,395.0,0.0,0.0,0.0,1.0,333.33500000000004,51.132,51.132,46.112,46.112,34.0,-25.825,25.15,-31.30666666666667,34.015,0.0,1743.981,-0.16499999999999915,100.0,29.173000000000002,28.817,44.247,43.998000000000005,0.0,0.0,100.0,0.0,0.0,0.0,0.0,3319.0,3231.4,4460.5,4571.5,304.897,304.7145,314.06225,313.694,22.2006,20.7719,22.2087,21.6894,314.999998,314.999998,324.999988,324.999988,99.56061428571428,99.50811666666667,99.57117142857143,99.55065714285715,0.0903333333333336,-0.050000000000000044,-0.09933333333333333,0.12283333333333334,-0.041666666666671404,-0.054999999999999716,1.438,1.4365,39.754000000000005,30.8245,39.804,36.5585,56.417,36.32,60.782,53.97,54.262,35.2905,59.2815,52.217,53.329,34.744,59.117,51.586333333333336,-0.09899999999999998,-0.06750000000000012,0.10594,0.10433,0.0,220.405,220.405,216.89666666666668,216.89666666666668,0.0,0.0
