,ABS Active,ABS Enabled,AID Allow Tire Blankets,AID Auto Blip,AID Auto Clutch,AID Auto Shift,AID Fuel Rate,AID Ideal Line,AID Mech Damage,AID Stability,AID Tire Wear Rate,Air Density,Air Temp,Ballast,Best Lap Delta,Best Lap Time,Brake Bias,Brake Pos,Brake Temp FL,Brake Temp FR,Brake Temp RL,Brake Temp RR,CG Accel Lateral,CG Accel Longitudinal,CG Accel Vertical,CG Height,Camber FL,Camber FR,Camber RL,Camber RR,Car Coord X,Car Coord Y,Car Coord Z,Car Damage Front,Car Damage Left,Car Damage Rear,Car Damage Right,Car Pos Norm,Caster FL,Caster FR,Chassis Pitch Angle,Chassis Pitch Rate,Chassis Roll Angle,Chassis Roll Rate,Chassis Velocity X,Chassis Velocity Y,Chassis Velocity Z,Chassis Yaw Rate,Clutch Pos,DRS Active,DRS Available,Drive Train Speed,ERS Heat Charging,ERS Is Charging,ERS Max Energy,ERS Power Level,ERS Recovery Level,Engine Brake Setting,Engine Limiter,Engine RPM,Flags,Fuel Level,Gear,Ground Speed,HR Sample Clock,In Pit,KERS Charge,KERS Deployed Energy,KERS Input,KERS Max Energy,LR Sample Clock,Lap Invalidated,Lap Time,Lap Time2,Last Lap Time,Last Sector Time,MR Sample Clock,Max Fuel,Max Power,Max RPM,Max Sus Travel FL,Max Sus Travel FR,Max Sus Travel RL,Max Sus Travel RR,Max Torque,Max Turbo Boost,Num Tires Off Track,Penalties Enabled,Position,Raw Data Sample Rate,Ride Height FL,Ride Height FR,Ride Height RL,Ride Height RR,Road Temp,Self Align Torque FL,Self Align Torque FR,Self Align Torque RL,Self Align Torque RR,Session Lap Count,Session Time Left,Steering Angle,Surface Grip,Suspension Travel FL,Suspension Travel FR,Suspension Travel RL,Suspension Travel RR,TC Active,TC Enabled,Throttle Pos,Tire Dirt Level FL,Tire Dirt Level FR,Tire Dirt Level RL,Tire Dirt Level RR,Tire Load FL,Tire Load FR,Tire Load RL,Tire Load RR,Tire Loaded Radius FL,Tire Loaded Radius FR,Tire Loaded Radius RL,Tire Loaded Radius RR,Tire Pressure FL,Tire Pressure FR,Tire Pressure RL,Tire Pressure RR,Tire Radius FL,Tire Radius FR,Tire Radius RL,Tire Radius RR,Tire Rubber Grip FL,Tire Rubber Grip FR,Tire Rubber Grip RL,Tire Rubber Grip RR,Tire Slip Angle FL,Tire Slip Angle FR,Tire Slip Angle RL,Tire Slip Angle RR,Tire Slip Ratio FL,Tire Slip Ratio FR,Tire Slip Ratio RL,Tire Slip Ratio RR,Tire Temp Core FL,Tire Temp Core FR,Tire Temp Core RL,Tire Temp Core RR,Tire Temp Inner FL,Tire Temp Inner FR,Tire Temp Inner RL,Tire Temp Inner RR,Tire Temp Middle FL,Tire Temp Middle FR,Tire Temp Middle RL,Tire Temp Middle RR,Tire Temp Outer FL,Tire Temp Outer FR,Tire Temp Outer RL,Tire Temp Outer RR,Toe In FL,Toe In FR,Toe In RL,Toe In RR,Turbo Boost,Wheel Angular Speed FL,Wheel Angular Speed FR,Wheel Angular Speed RL,Wheel Angular Speed RR,Wind Direction,Wind Speed
0,0.0,0.0,0.0,1.0,1.0,0.0,0.0,1.0,0.0,0.0,1.0,1.1856,26.0,0.0,0.0,0.0,59.99999,0.0,26.0,26.0,26.0,26.0,-0.03733333333333333,0.31089999999999995,0.1899,293.198,-2.79225,-2.62,-1.5589,-1.5098,-275.68,215.51999999999998,190.9875,0.0,0.0,0.0,0.0,0.0015999999999999348,-5.498166666666667,-5.498166666666667,-0.5606,1.7433333333333334,-0.0018888888888888289,-0.752,65.504,-0.031200000000000002,-0.22105000000000002,0.11799999999999944,100.0,1.0,1.0,202.24,0.0,0.0,0.0,0.0,0.0,0.0,0.0,8572.3,0.0,55.0,5.0,235.78333333333333,0.0,0.0,0.0,0.0,0.0,0.0,0.0,0.0,0.0030000000000001137,0.0030000000000001137,0.0,0.0,0.0,55.0,616.79921,10000.0,85.0,85.0,85.0,85.0,395.0,0.0,0.0,0.0,1.0,20.0,50.934,50.934,48.828,48.828,34.0,-29.814999999999998,32.098,-29.943333333333335,25.905,0.0,1783.584,0.125,100.0,27.255,27.219,40.422,40.187,0.0,0.0,100.0,0.0,0.0,0.0,0.0,3369.4285714285716,4279.2,4082.375,4085.3,304.6115,301.571,314.95675,314.63725,21.776666666666667,20.5123,21.7749,21.301099999999998,314.99999,314.99999,324.99998,324.99998,99.55898571428571,99.50715,99.56551428571429,99.54482857142857,0.021250000000000213,-0.08633333333333315,-0.1475,0.0802857142857143,-0.04999999999999716,-0.07000000000000028,1.5393333333333334,1.5416666666666667,37.104,29.201999999999998,37.093,34.132,56.313,34.474000000000004,59.174,51.488,54.227000000000004,33.6485,57.796,49.854,53.394999999999996,33.2145,57.7585,49.28366666666666,-0.06400000000000006,-0.08950000000000014,0.10817,0.11073000000000001,0.0,205.24,205.245,202.24,202.24,0.0,0.0
1,0.0,0.0,0.0,1.0,1.0,0.0,0.0,1.0,0.0,0.0,1.0,1.1856,26.0,0.0,0.0,0.0,59.999996,0.0,26.0,26.0,26.0,26.0,-0.07222222222222219,0.3208,0.15638,292.343,-2.69135,-2.701666666666667,-1.5977000000000001,-1.3756,-272.33,215.5225,190.9675,0.0,0.0,0.0,0.0,0.0035333333333333883,-5.498166666666667,-5.498166666666667,-0.47400000000000003,-1.3836666666666666,-0.04833333333333334,-0.14700000000000002,65.663,-0.0238,-0.17650000000000002,0.556,100.0,1.0,1.0,202.13666666666666,0.0,0.0,0.0,0.0,0.0,0.0,0.0,8567.8,0.0,55.0,5.0,236.35333333333335,1.0,0.0,0.0,0.0,0.0,0.0,0.0,0.0,0.053999999999998494,0.053999999999998494,0.0,0.0,1.0,55.0,616.79921,10000.0,85.000001,85.000001,85.000001,85.000001,395.0,0.0,0.0,0.0,1.0,166.665,54.291,54.291,47.272,47.272,34.0,-22.98,16.926,-38.876666666666665,34.17,0.0,1783.533,0.35999999999999943,100.0,27.502,27.133,42.432,42.786,0.0,0.0,100.0,0.0,0.0,0.0,0.0,2813.714285714286,2450.1,4797.125,5414.1,306.236,307.0005,313.004,311.05175,21.786444444444445,20.5173,21.785899999999998,21.3105,314.999998,314.999998,324.999988,324.999988,99.559,99.50716666666666,99.56565714285715,99.54498571428572,0.03275000000000006,-0.10466666666666669,-0.1495,0.06642857142857143,-0.054999999999999716,-0.02833333333332888,1.2823333333333333,1.3303333333333334,37.166,29.2335,37.162,34.1905,56.296,34.5115,59.2215,51.558,54.211,33.6835,57.8405,49.9215,53.378,33.248,57.8,49.349666666666664,-0.04849999999999999,-0.10400000000000009,0.107865,0.114165,0.0,205.72,205.66,202.13666666666666,202.13666666666666,0.0,0.0
2,0.0,0.0,0.0,1.0,1.0,0.0,0.0,1.0,0.0,0.0,1.0,1.1856,26.0,0.0,0.0,0.0,59.999996,0.0,26.0,26.0,26.0,26.0,-0.08988888888888891,0.3005,0.034,293.915,-2.6678,-2.655444444444444,-1.5708,-1.5158,-268.98,215.5225,190.94875,0.0,0.0,0.0,0.0,0.005499999999999949,-5.498166666666667,-5.498166666666667,-0.5783,0.3646666666666666,-0.008222222222222353,2.1430000000000002,65.797,-0.0263,-0.27075,0.7920000000000007,100.0,1.0,1.0,203.55333333333334,0.0,0.0,0.0,0.0,0.0,0.0,0.0,8627.9,0.0,55.0,5.0,236.84333333333333,0.0,0.0,0.0,0.0,0.0,0.0,0.0,0.0,0.10500000000000043,0.10500000000000043,0.0,0.0,0.0,55.0,616.79921,10000.0,85.000001,85.000001,85.000001,85.000001,395.0,0.0,0.0,0.0,1.0,166.665,51.926,51.926,50.766,50.766,34.0,-29.0,22.424,-24.946666666666665,19.2025,0.0,1783.483,0.504999999999999,100.0,28.078,27.37,41.865,41.691,0.0,0.0,100.0,0.0,0.0,0.0,0.0,3359.5714285714284,3211.2,3480.625,3383.4,304.5945,304.55125,316.35,316.5035,21.796555555555557,20.5225,21.7962,21.3189,314.999998,314.999998,324.999988,324.999988,99.559,99.50718333333333,99.5658,99.54511428571429,0.01200000000000001,-0.11399999999999988,-0.17083333333333334,0.06557142857142857,-0.05333333333332746,-0.07000000000000028,1.7716666666666665,1.7823333333333333,37.229,29.2655,37.226,34.243,56.282,34.551,59.256,51.6085,54.198,33.72,57.8725,49.9695,53.364000000000004,33.283,57.829,49.397,-0.04049999999999998,-0.1160000000000001,0.11034000000000001,0.10239500000000001,0.0,206.14,206.07,203.55333333333334,203.55333333333334,0.0,0.0
3,0.0,0.0,0.0,1.0,1.0,0.0,0.0,1.0,0.0,0.0,1.0,1.1856,26.0,0.0,0.0,0.0,59.999996,0.0,26.0,26.0,26.0,26.0,-0.08155555555555549,0.3045,0.12434000000000002,293.045,-2.6878,-2.680555555555556,-1.5523,-1.4788000000000001,-265.82,215.5225,190.9295,0.0,0.0,0.0,0.0,0.007333333333333303,-5.498166666666667,-5.498166666666667,-0.5026,0.499,0.009444444444444366,-1.483,65.946,-0.0393,-0.18582500000000002,0.7060000000000004,100.0,1.0,1.0,203.34666666666666,0.0,0.0,0.0,0.0,0.0,0.0,0.0,8619.1,0.0,55.0,5.0,237.37666666666667,1.0,0.0,0.0,0.0,0.0,0.0,0.0,0.0,0.1529999999999987,0.1529999999999987,0.0,0.0,1.0,55.0,616.79921,10000.0,85.000001,85.000001,85.000001,85.000001,395.0,0.0,0.0,0.0,1.0,333.33500000000004,53.345,53.345,47.623,47.623,34.0,-23.5075,20.53,-34.28666666666666,27.5975,0.0,1783.433,0.5650000000000013,100.0,27.748,27.4,41.986000000000004,42.004,0.0,0.0,100.0,0.0,0.0,0.0,0.0,2848.285714285714,2971.0,4483.75,4385.3,306.247,305.3485,313.8965,313.8365,21.805777777777777,20.5275,21.806,21.3273,314.999998,314.999998,324.999988,324.999988,99.559,99.5072,99.56592857142857,99.54524285714285,0.023249999999999993,-0.11733333333333329,-0.14916666666666667,0.06885714285714287,-0.04333333333332945,-0.03333333333333144,1.421,1.446,37.286,29.297,37.288,34.296,56.265,34.591,59.292500000000004,51.6715,54.182,33.757,57.9065,50.0305,53.347,33.318,57.8605,49.45666666666666,-0.03949999999999987,-0.12250000000000005,0.10225000000000001,0.1067,0.0,206.65,206.56,203.3466666666667,203.34666666666666,0.0,0.0
4,0.0,0.0,0.0,1.0,1.0,0.0,0.0,1.0,0.0,0.0,1.0,1.1856,26.0,0.0,0.0,0.0,59.999996,0.0,26.0,26.0,26.0,26.0,-0.07199999999999995,0.2957000000000001,0.010280000000000001,293.381,-2.6733000000000002,-2.7512222222222222,-1.4891,-1.5946,-262.45,215.51999999999998,190.910125,0.0,0.0,0.0,0.0,0.009299999999999975,-5.498166666666667,-5.498166666666667,-0.5316000000000001,-0.8860000000000001,-0.047555555555555795,-0.8069999999999999,66.09100000000001,-0.046900000000000004,-0.2338,1.0739999999999998,100.0,1.0,1.0,203.98000000000002,0.0,0.0,0.0,0.0,0.0,0.0,0.0,8646.0,0.0,55.0,5.0,237.9,0.0,0.0,0.0,0.0,0.0,0.0,0.0,0.0,0.20400000000000063,0.20400000000000063,0.0,0.0,0.0,55.0,616.79921,10000.0,85.000001,85.000001,85.000001,85.000001,395.0,0.0,0.0,0.0,1.0,333.33500000000004,53.024,53.024,48.721000000000004,48.721000000000004,34.0,-27.872500000000002,19.712,-30.33,23.5975,0.0,1783.383,0.625,100.0,27.691,27.167,42.771,42.174,0.0,0.0,100.0,0.0,0.0,0.0,0.0,3216.5714285714284,2855.8,4093.375,3840.1,305.172,305.63075,314.8755,315.242,21.815555555555555,20.5326,21.8168,21.336199999999998,314.999998,314.999998,324.999988,324.999988,99.559,99.50721666666666,99.56607142857143,99.54538571428571,0.0017499999999999183,-0.1316666666666666,-0.17116666666666666,0.05185714285714286,-0.046666666666666856,-0.046666666666666856,1.5546666666666666,1.5946666666666667,37.347,29.329,37.355000000000004,34.3515,56.248000000000005,34.6305,59.335,51.7315,54.166,33.793,57.946,50.088,53.33,33.353,57.897,49.513,-0.027499999999999858,-0.12550000000000017,0.10888500000000001,0.11133000000000001,0.0,207.01999999999998,206.97,203.98000000000002,203.98000000000002,0.0,0.0
5,0.0,0.0,0.0,1.0,1.0,0.0,0.0,1.0,0.0,0.0,1.0,1.1856,26.0,0.0,0.0,0.0,59.999996,0.0,26.0,26.0,26.0,26.0,-0.09411111111111103,0.30590000000000006,-0.03488,293.686,-2.6412,-2.705111111111111,-1.5382,-1.5864,-259.08,215.515,190.89025,0.0,0.0,0.0,0.0,0.011233333333333317,-5.498166666666667,-5.498166666666667,-0.5399,0.556,-0.03155555555555578,0.8420000000000001,66.237,-0.0654,-0.2263,1.017999999999999,100.0,1.0,1.0,204.54000000000002,0.0,0.0,0.0,0.0,0.0,0.0,0.0,8669.7,0.0,55.0,5.0,238.42000000000002,1.0,0.0,0.0,0.0,0.0,0.0,0.0,0.0,0.254999999999999,0.254999999999999,0.0,0.0,1.0,55.0,616.79921,10000.0,85.000001,85.000001,85.000001,85.000001,395.0,0.0,0.0,0.0,1.0,166.665,53.192,53.192,49.24,49.24,34.0,-25.6875,21.272,-29.653333333333336,23.485,0.0,1783.333,0.35999999999999943,100.0,27.79,26.919,42.441,41.561,0.0,0.0,100.0,0.0,0.0,0.0,0.0,3040.857142857143,2999.0,3913.375,3960.0,305.437,305.3165,315.30725,315.063,21.825444444444443,20.5378,21.8272,21.3449,314.999998,314.999998,324.999988,324.999988,99.55901428571428,99.50723333333333,99.56621428571428,99.54551428571429,0.013749999999999929,-0.10899999999999999,-0.18166666666666667,0.039285714285714285,-0.041666666666671404,-0.054999999999999716,1.5983333333333334,1.6356666666666666,37.409,29.3615,37.42,34.406,56.233000000000004,34.6715,59.372,51.789,54.150999999999996,33.831,57.9805,50.143,53.315,33.388999999999996,57.929,49.567,-0.04949999999999988,-0.09949999999999992,0.103715,0.10674000000000002,0.0,207.525,207.44,204.54000000000002,204.54000000000002,0.0,0.0
6,0.0,0.0,0.0,1.0,1.0,0.0,0.0,1.0,0.0,0.0,1.0,1.1856,26.0,0.0,0.0,0.0,59.999996,0.0,26.0,26.0,26.0,26.0,-0.1123333333333334,0.2936000000000001,-0.011640000000000001,293.533,-2.67235,-2.780111111111111,-1.4868000000000001,-1.5642,-255.89,215.5075,190.870875,0.0,0.0,0.0,0.0,0.0131,-5.498166666666667,-5.498166666666667,-0.5268,-0.2556666666666667,-0.04944444444444418,0.43700000000000006,66.377,-0.0707,-0.20450000000000002,0.8120000000000003,100.0,1.0,1.0,204.79666666666668,0.0,0.0,0.0,0.0,0.0,0.0,0.0,8680.5,0.0,55.0,5.0,238.92666666666668,0.0,0.0,0.0,0.0,0.0,0.0,0.0,0.0,0.3030000000000008,0.3030000000000008,0.0,0.0,0.0,55.0,616.79921,10000.0,85.000001,85.000001,85.000001,85.000001,395.0,0.0,0.0,0.0,1.0,333.33500000000004,53.635,53.635,48.538,48.538,34.0,-26.7,20.224,-32.489999999999995,24.9075,0.0,1783.284,0.375,100.0,27.513,26.595,42.657,41.671,0.0,0.0,100.0,0.0,0.0,0.0,0.0,3069.142857142857,2871.8,4194.625,4098.9,305.4595,305.7355,314.54025,314.692,21.834666666666667,20.5426,21.8372,21.3533,314.999998,314.999998,324.999988,324.999988,99.55901428571428,99.50723333333333,99.56635714285714,99.54565714285714,-0.0007500000000000284,-0.12433333333333318,-0.18816666666666665,0.04442857142857143,-0.04333333333332945,-0.04333333333332945,1.4983333333333333,1.5253333333333332,37.466,29.3915,37.482,34.458,56.216,34.7085,59.41,51.8475,54.135,33.865,58.016,50.199,53.298,33.4215,57.9615,49.622,-0.04800000000000004,-0.10199999999999987,0.10887000000000001,0.11055500000000001,0.0,207.925,207.875,204.79666666666668,204.79666666666668,0.0,0.0
7,0.0,0.0,0.0,1.0,1.0,0.0,0.0,1.0,0.0,0.0,1.0,1.1856,26.0,0.0,0.0,0.0,59.999996,0.0,26.0,26.0,26.0,26.0,-0.0865555555555555,0.2905,-0.013180000000000002,293.472,-2.66835,-2.778777777777778,-1.5384,-1.612,-252.3,215.4975,190.849,0.0,0.0,0.0,0.0,0.015199999999999991,-5.498166666666667,-5.498166666666667,-0.5339,0.137,-0.041888888888888864,1.234,66.53,-0.0702,-0.215725,0.5499999999999998,100.0,1.0,1.0,205.32333333333332,0.0,0.0,0.0,0.0,0.0,0.0,0.0,8702.9,0.0,55.0,5.0,239.48000000000002,1.0,0.0,0.0,0.0,0.0,0.0,0.0,0.0,0.3569999999999993,0.3569999999999993,0.0,0.0,1.0,55.0,616.79921,10000.0,85.000001,85.000001,85.000001,85.000001,395.0,0.0,0.0,0.0,1.0,166.665,53.253,53.253,48.691,48.691,34.0,-25.365,22.055999999999997,-32.09,24.2425,0.0,1783.23,-0.10500000000000043,100.0,27.813,26.79,42.699,41.664,0.0,0.0,100.0,0.0,0.0,0.0,0.0,3079.4285714285716,2953.3,4112.125,3994.7,305.374,305.45175,314.8035,314.94175,21.845111111111112,20.5482,21.848300000000002,21.3627,314.999998,314.999998,324.999988,324.999988,99.55901428571428,99.50725,99.5665,99.5458,0.03500000000000014,-0.09566666666666679,-0.18716666666666665,0.03671428571428571,-0.03499999999999659,-0.05666666666667197,1.5396666666666667,1.57,37.532,29.426000000000002,37.552,34.516999999999996,56.2,34.751,59.452,51.9105,54.120000000000005,33.903999999999996,58.055,50.2595,53.283,33.459,57.9975,49.681333333333335,-0.08349999999999991,-0.0625,0.11299000000000001,0.11103500000000001,0.0,208.39499999999998,208.35500000000002,205.32333333333332,205.32333333333332,0.0,0.0
8,0.0,0.0,0.0,1.0,1.0,0.0,0.0,1.0,0.0,0.0,1.0,1.1856,26.0,0.0,0.0,0.0,59.999996,0.0,26.0,26.0,26.0,26.0,-0.05944444444444441,0.27560000000000007,-0.01162,293.488,-2.6986499999999998,-2.7095555555555557,-1.5529000000000002,-1.6017000000000001,-249.11,215.485,190.829625,0.0,0.0,0.0,0.0,0.017033333333333345,-5.498166666666667,-5.498166666666667,-0.537,-0.1280000000000001,-0.02822222222222237,0.42500000000000004,66.667,-0.0596,-0.22037500000000002,0.23799999999999955,100.0,1.0,1.0,205.73666666666668,0.0,0.0,0.0,0.0,0.0,0.0,0.0,8720.5,0.0,55.0,5.0,239.97,0.0,0.0,0.0,0.0,0.0,0.0,0.0,0.0,0.40500000000000114,0.40500000000000114,0.0,0.0,0.0,55.0,616.79921,10000.0,85.000001,85.000001,85.000001,85.000001,395.0,0.0,0.0,0.0,1.0,333.33500000000004,53.299,53.299,48.522999999999996,48.522999999999996,34.0,-24.7125,22.866,-29.766666666666666,25.8425,0.0,1783.182,-0.18499999999999872,100.0,27.548000000000002,26.919,42.711,41.855000000000004,0.0,0.0,100.0,0.0,0.0,0.0,0.0,2996.142857142857,3048.5,4008.875,4028.0,305.641,305.168,315.05525,314.842,21.854333333333333,20.5531,21.8582,21.3712,314.999998,314.999998,324.999988,324.999988,99.55902857142857,99.50726666666667,99.56662857142857,99.54594285714286,0.03750000000000009,-0.08166666666666678,-0.15583333333333335,0.06442857142857143,-0.04333333333332945,-0.046666666666666856,1.546,1.55,37.589,29.457,37.614000000000004,34.5695,56.185,34.788,59.4885,51.969,54.105999999999995,33.9385,58.089,50.3155,53.268,33.492,58.028999999999996,49.73566666666667,-0.08499999999999996,-0.059499999999999886,0.10232500000000001,0.11028500000000001,0.0,208.81,208.775,205.73666666666668,205.73666666666668,0.0,0.0
9,0.0,0.0,0.0,1.0,1.0,0.0,0.0,1.0,0.0,0.0,1.0,1.1856,26.0,0.0,0.0,0.0,59.999996,0.0,26.0,26.0,26.0,26.0,-0.023555555555555552,0.29610000000000003,-0.00878,293.274,-2.6279,-2.719777777777778,-1.5413000000000001,-1.5582,-245.7,215.4725,190.80875,0.0,0.0,0.0,0.0,0.019033333333333347,-5.498166666666667,-5.498166666666667,-0.5339,0.21233333333333337,-0.040777777777778024,-0.6799999999999999,66.811,-0.0458,-0.212425,0.043999999999999595,100.0,1.0,1.0,206.16333333333333,0.0,0.0,0.0,0.0,0.0,0.0,0.0,8738.5,0.0,55.0,5.0,240.49,1.0,0.0,0.0,0.0,0.0,0.0,0.0,0.0,0.4559999999999995,0.4559999999999995,0.0,0.0,1.0,55.0,616.79921,10000.0,85.000001,85.000001,85.000001,85.000001,395.0,0.0,0.0,0.0,1.0,166.665,53.024,53.024,48.676,48.676,34.0,-25.2075,22.484,-30.433333333333334,25.745,0.0,1783.131,-0.370000000000001,100.0,27.576999999999998,27.132,42.545,42.019,0.0,0.0,100.0,0.0,0.0,0.0,0.0,3208.0,2951.1,4106.625,4067.8,305.189,305.296,314.909,314.71075,21.86411111111111,20.5584,21.8687,21.3801,314.999998,314.999998,324.999988,324.999988,99.55904285714286,99.50726666666667,99.56678571428571,99.54608571428571,0.05250000000000021,-0.07666666666666666,-0.158,0.067,-0.05833333333333002,-0.03833333333332689,1.554,1.5526666666666666,37.650999999999996,29.490000000000002,37.68,34.6255,56.171,34.827,59.5265,52.028999999999996,54.092,33.974000000000004,58.125,50.373,53.253,33.5265,58.0615,49.79233333333333,-0.10399999999999987,-0.04300000000000015,0.10939000000000002,0.10559,0.0,209.265,209.235,206.16333333333333,206.16333333333333,0.0,0.0
10,0.0,0.0,0.0,1.0,1.0,0.0,0.0,1.0,0.0,0.0,1.0,1.1856,26.0,0.0,0.0,0.0,59.999996,0.0,26.0,26.0,26.0,26.0,-0.01822222222222214,0.28469999999999995,0.013880000000000002,293.198,-2.6806,-2.7007777777777777,-1.5584,-1.5447000000000002,-242.29,215.45749999999998,190.788,0.0,0.0,0.0,0.0,0.020999999999999908,-5.498166666666667,-5.498166666666667,-0.5295,-0.22833333333333328,-0.012333333333333307,1.548,66.956,-0.0252,-0.211625,-0.2579999999999991,100.0,1.0,1.0,206.5366666666667,0.0,0.0,0.0,0.0,0.0,0.0,0.0,8754.4,0.0,55.0,5.0,241.01,0.0,0.0,0.0,0.0,0.0,0.0,1.0,0.0,0.5069999999999979,0.5069999999999979,0.0,0.0,0.0,55.0,616.79921,10000.0,85.000001,85.000001,85.000001,85.000001,395.0,0.0,0.0,0.0,1.0,166.665,53.299,53.299,48.37,48.37,34.0,-23.105,23.668,-29.263333333333335,28.865000000000002,0.0,1783.08,-0.39000000000000057,100.0,27.653,26.927,42.736000000000004,42.212,0.0,0.0,100.0,0.0,0.0,0.0,0.0,2981.714285714286,3041.4,4080.125,4278.5,305.6695,305.226,314.856,314.276,21.87377777777778,20.5637,21.8793,21.3891,314.999998,314.999998,324.999988,324.999988,99.55904285714286,99.50728333333333,99.56692857142858,99.54621428571429,0.07050000000000001,-0.057333333333333236,-0.12816666666666665,0.09742857142857143,-0.04999999999999716,-0.036666666666668846,1.5203333333333333,1.516,37.711,29.523,37.745999999999995,34.682,56.157,34.865,59.566,52.091499999999996,54.078,34.009,58.161500000000004,50.433,53.239000000000004,33.5595,58.0955,49.851,-0.10450000000000004,-0.04349999999999987,0.107215,0.10896000000000002,0.0,209.69,209.695,206.5366666666667,206.5366666666667,0.0,0.0
11,0.0,0.0,0.0,1.0,1.0,0.0,0.0,1.0,0.0,0.0,1.0,1.1856,26.0,0.0,0.0,0.0,59.999996,0.0,26.0,26.0,26.0,26.0,0.010555555555555651,0.28780000000000006,-0.047920000000000004,293.457,-2.69295,-2.6903333333333332,-1.5681,-1.5169000000000001,-238.87,215.4425,190.767,0.0,0.0,0.0,0.0,0.022599999999999953,-5.498166666666667,-5.498166666666667,-0.5505,-0.2603333333333333,0.010222222222222133,-0.405,67.09700000000001,-0.0073,-0.223925,-0.3039999999999994,100.0,1.0,1.0,207.07999999999998,0.0,0.0,0.0,0.0,0.0,0.0,0.0,8777.4,0.0,55.0,5.0,241.52333333333334,1.0,0.0,0.0,0.0,0.0,0.0,1.0,0.0,0.5579999999999998,0.5579999999999998,0.0,0.0,1.0,55.0,616.79921,10000.0,85.000001,85.000001,85.000001,85.000001,395.0,0.0,0.0,0.0,1.0,166.665,53.223,53.223,48.828,48.828,34.0,-24.1725,24.044,-27.08,27.0275,0.0,1783.028,-0.3949999999999996,100.0,27.221,27.157,42.417,42.371,0.0,0.0,100.0,0.0,0.0,0.0,0.0,3108.0,3036.9,3924.875,4045.8,305.5085,305.04975,315.319,314.78425,21.883444444444443,20.569,21.8897,21.3981,314.999998,314.999998,324.999988,324.999988,99.55905714285714,99.50728333333333,99.56707142857142,99.54635714285715,0.06875000000000009,-0.05066666666666664,-0.11583333333333333,0.1077142857142857,-0.051666666666669414,-0.03499999999999659,1.5823333333333334,1.5586666666666666,37.772,29.5565,37.811,34.738,56.141999999999996,34.9025,59.602000000000004,52.152,54.064,34.044,58.195,50.4915,53.224000000000004,33.593,58.126,49.90833333333333,-0.10250000000000004,-0.04200000000000026,0.10704500000000002,0.11386,0.0,210.115,210.11,207.07999999999998,207.07999999999998,0.0,0.0
12,0.0,0.0,0.0,1.0,1.0,0.0,0.0,1.0,0.0,0.0,1.0,1.1856,26.0,0.0,0.0,0.0,59.999996,0.0,26.0,26.0,26.0,26.0,0.013000000000000123,0.28680000000000017,-0.00062,293.137,-2.71895,-2.6863333333333332,-1.5641,-1.5352000000000001,-235.85,215.43,190.74775,0.0,0.0,0.0,0.0,0.025466666666666526,-5.498166666666667,-5.498166666666667,-0.542,0.43966666666666665,0.015111111111111075,0.8320000000000001,67.223,0.0033,-0.20500000000000002,-0.3959999999999999,100.0,1.0,1.0,207.4,0.0,0.0,0.0,0.0,0.0,0.0,0.0,8791.0,0.0,55.0,5.0,241.97333333333336,0.0,0.0,0.0,0.0,0.0,0.0,1.0,0.0,0.602999999999998,0.602999999999998,0.0,0.0,0.0,55.0,616.79921,10000.0,85.000001,85.000001,85.000001,85.000001,395.0,0.0,0.0,0.0,1.0,333.33500000000004,52.979,52.979,48.309,48.309,34.0,-22.5625,25.985999999999997,-27.513333333333335,29.8275,0.0,1782.983,-0.5,100.0,27.514,27.284,42.368,42.292,0.0,0.0,100.0,0.0,0.0,0.0,0.0,3002.857142857143,3164.0,4075.5,4219.2,305.6225,304.81225,314.91575,314.4575,21.892,20.5738,21.8989,21.406,314.999998,314.999998,324.999988,324.999988,99.55905714285714,99.5073,99.5672,99.5465,0.09600000000000009,-0.026999999999999913,-0.09566666666666668,0.12942857142857142,-0.041666666666671404,-0.04833333333333201,1.5390000000000001,1.5326666666666666,37.825,29.5865,37.867999999999995,34.7875,56.129999999999995,34.9365,59.634,52.206,54.053,34.075,58.225,50.543,53.212,33.623,58.153,49.959,-0.11149999999999993,-0.0365000000000002,0.10941000000000001,0.106145,0.0,210.525,210.55,207.4,207.4,0.0,0.0
13,0.0,0.0,0.0,1.0,1.0,0.0,0.0,1.0,0.0,0.0,1.0,1.1856,26.0,0.0,0.0,0.0,59.999996,0.0,26.0,26.0,26.0,26.0,0.05188888888888887,0.274,0.02072,292.831,-2.6972,-2.6902222222222223,-1.5639,-1.5411000000000001,-232.42000000000002,215.41750000000002,190.726125,0.0,0.0,0.0,0.0,0.026733333333333387,-5.498166666666667,-5.498166666666667,-0.5371,-0.27300000000000013,0.012333333333333307,-0.402,67.366,0.0094,-0.21327500000000002,-0.41799999999999926,100.0,1.0,1.0,207.76333333333332,0.0,0.0,0.0,0.0,0.0,0.0,0.0,8806.3,0.0,55.0,5.0,242.49,1.0,0.0,0.0,0.0,0.0,0.0,1.0,0.0,0.6539999999999999,0.6539999999999999,0.0,0.0,1.0,55.0,616.79921,10000.0,85.000001,85.000001,85.000001,85.000001,395.0,0.0,0.0,0.0,1.0,333.33500000000004,52.872,52.872,48.019,48.019,34.0,-22.662499999999998,25.286,-28.78,30.4475,0.0,1782.932,-0.5,100.0,27.503,27.585,42.601,42.836,0.0,0.0,100.0,0.0,0.0,0.0,0.0,3119.0,3026.4,4170.625,4239.3,305.4615,305.064,314.7105,314.2825,21.901555555555554,20.5793,21.9095,21.4151,314.999998,314.999998,324.999988,324.999988,99.55907142857143,99.5073,99.56734285714286,99.54664285714286,0.10749999999999993,-0.018000000000000016,-0.10316666666666667,0.12914285714285714,-0.03999999999999915,-0.05833333333333002,1.5093333333333332,1.4853333333333334,37.885,29.6205,37.935,34.8445,56.117999999999995,34.974000000000004,59.6735,52.2695,54.041,34.11,58.2615,50.604,53.199,33.6565,58.1865,50.01866666666667,-0.1279999999999999,-0.02300000000000013,0.10562500000000001,0.11402000000000001,0.0,210.95,210.965,207.76333333333332,207.76333333333332,0.0,0.0
14,0.0,0.0,0.0,1.0,1.0,0.0,0.0,1.0,0.0,0.0,1.0,1.1856,26.0,0.0,0.0,0.0,59.999996,0.0,26.0,26.0,26.0,26.0,0.0387777777777778,0.28049999999999997,-0.02724,293.076,-2.7104,-2.7022222222222223,-1.5718,-1.5367000000000002,-228.98,215.405,190.70475,0.0,0.0,0.0,0.0,0.02873333333333339,-5.498166666666667,-5.498166666666667,-0.5503,-0.011666666666666714,0.02833333333333332,0.986,67.506,0.0189,-0.2252,-0.5360000000000005,100.0,1.0,1.0,208.29666666666668,0.0,0.0,0.0,0.0,0.0,0.0,0.0,8829.0,0.0,55.0,5.0,242.99333333333334,0.0,0.0,0.0,0.0,0.0,0.0,1.0,0.0,0.7049999999999983,0.7049999999999983,0.0,0.0,0.0,55.0,616.79921,10000.0,85.000001,85.000001,85.000001,85.000001,395.0,0.0,0.0,0.0,1.0,166.665,52.872,52.872,48.462,48.462,34.0,-21.6425,26.131999999999998,-25.613333333333333,29.8975,0.0,1782.882,-0.5199999999999996,100.0,27.676,27.601,42.547,42.781,0.0,0.0,100.0,0.0,0.0,0.0,0.0,2967.857142857143,3124.3,3939.75,4133.6,305.7275,304.9035,315.234,314.6385,21.91122222222222,20.5848,21.92,21.4242,314.999998,314.999998,324.999988,324.999988,99.55908571428571,99.5073,99.56748571428571,99.54677142857143,0.10950000000000015,-0.019333333333333202,-0.0795,0.14485714285714285,-0.036666666666668846,-0.051666666666669414,1.5736666666666665,1.5443333333333333,37.945,29.655,38.0,34.900999999999996,56.105000000000004,35.012,59.7095,52.331,54.028999999999996,34.144999999999996,58.295,50.663,53.186,33.69,58.217,50.07666666666667,-0.11149999999999993,-0.033500000000000085,0.10232500000000001,0.11102500000000001,0.0,211.37,211.4,208.29666666666668,208.29666666666668,0.0,0.0
15,0.0,0.0,0.0,1.0,1.0,0.0,0.0,1.0,0.0,0.0,1.0,1.1856,26.0,0.0,0.0,0.0,59.999996,0.0,26.0,26.0,26.0,26.0,0.06066666666666687,0.2691000000000001,-0.00254,292.984,-2.7019,-2.6802222222222225,-1.5623,-1.5529000000000002,-225.74,215.39249999999998,190.68425,0.0,0.0,0.0,0.0,0.0306333333333334,-5.498166666666667,-5.498166666666667,-0.543,0.2433333333333334,0.03788888888888886,0.8049999999999999,67.638,0.0257,-0.21165,-0.5379999999999994,100.0,1.0,1.0,208.65666666666667,0.0,0.0,0.0,0.0,0.0,0.0,0.0,8844.1,0.0,55.0,5.0,243.47,1.0,0.0,0.0,0.0,0.0,0.0,1.0,0.0,0.7530000000000001,0.7530000000000001,0.0,0.0,1.0,55.0,616.79921,10000.0,85.000001,85.000001,85.000001,85.000001,395.0,0.0,0.0,0.0,1.0,333.33500000000004,52.902,52.902,48.233000000000004,48.233000000000004,34.0,-21.075,25.796,-25.953333333333333,31.5125,0.0,1782.832,-0.40500000000000114,100.0,27.667,27.659,42.45,42.847,0.0,0.0,100.0,0.0,0.0,0.0,0.0,2938.4285714285716,3116.9,4032.0,4207.7,305.811,304.9105,315.0135,314.43375,21.920222222222222,20.59,21.9298,21.4327,314.999998,314.999998,324.999988,324.999988,99.5591,99.50731666666667,99.56761428571428,99.54691428571428,0.11575000000000024,-0.021333333333333204,-0.07166666666666667,0.155,-0.04999999999999716,-0.054999999999999716,1.5396666666666667,1.5073333333333334,38.001000000000005,29.6875,38.061,34.954499999999996,56.094,35.0475,59.7435,52.3895,54.018,34.178,58.326499999999996,50.7195,53.174,33.7215,58.2455,50.132,-0.11099999999999999,-0.044500000000000206,0.10576,0.11088500000000001,0.0,211.82,211.825,208.65666666666667,208.65666666666667,0.0,0.0
16,0.0,0.0,0.0,1.0,1.0,0.0,0.0,1.0,0.0,0.0,1.0,1.1856,26.0,0.0,0.0,0.0,59.999996,0.0,26.0,26.0,26.0,26.0,0.05222222222222217,0.27560000000000007,-0.00082,292.755,-2.76615,-2.621,-1.5384,-1.5526,-222.28,215.3825,190.66225,0.0,0.0,0.0,0.0,0.0326333333333334,-5.498166666666667,-5.498166666666667,-0.552,-0.3823333333333332,0.02544444444444438,-1.081,67.779,0.0304,-0.22240000000000001,-0.30799999999999983,100.0,1.0,1.0,209.06333333333333,0.0,0.0,0.0,0.0,0.0,0.0,0.0,8861.5,0.0,55.0,5.0,243.97666666666666,0.0,0.0,0.0,0.0,0.0,0.0,1.0,0.0,0.8039999999999985,0.8039999999999985,0.0,0.0,0.0,55.0,616.79921,10000.0,85.000001,85.000001,85.000001,85.000001,395.0,0.0,0.0,0.0,1.0,333.33500000000004,52.551,52.551,47.897,47.897,34.0,-23.9675,25.48,-26.386666666666663,29.81,0.0,1782.782,-0.3200000000000003,100.0,27.408,27.908,42.611000000000004,43.141999999999996,0.0,0.0,100.0,0.0,0.0,0.0,0.0,3167.5714285714284,3140.6,4098.75,4044.1000000000004,305.375,304.70325,314.899,314.731,21.929666666666666,20.5955,21.9404,21.4418,314.999998,314.999998,324.999988,324.999988,99.55911428571429,99.50731666666667,99.56775714285715,99.54707142857143,0.10099999999999998,-0.025333333333333208,-0.07766666666666668,0.14828571428571427,-0.03333333333333144,-0.04833333333333201,1.5433333333333334,1.5143333333333333,38.061,29.722,38.126999999999995,35.0115,56.08,35.085499999999996,59.7815,52.452,54.004999999999995,34.213,58.362,50.7795,53.16,33.7555,58.278,50.190666666666665,-0.10050000000000003,-0.05250000000000021,0.10080000000000001,0.11566000000000001,0.0,212.21,212.235,209.06333333333333,209.06333333333333,0.0,0.0
17,0.0,0.0,0.0,1.0,1.0,0.0,0.0,1.0,0.0,0.0,1.0,1.1856,26.0,0.0,0.0,0.0,59.999996,0.0,26.0,26.0,26.0,26.0,0.035666666666666735,0.28290000000000015,0.0252,292.48,-2.6324,-2.6100000000000003,-1.5548000000000002,-1.5138,-218.82,215.3725,190.64,0.0,0.0,0.0,0.0,0.03466666666666651,-5.498166666666667,-5.498166666666667,-0.5505,0.18466666666666665,0.0067777777777777715,0.43300000000000005,67.918,0.027800000000000002,-0.21635000000000001,-0.3120000000000003,100.0,1.0,1.0,209.46,0.0,0.0,0.0,0.0,0.0,0.0,0.0,8878.3,0.0,55.0,5.0,244.47666666666666,1.0,0.0,0.0,0.0,0.0,0.0,1.0,0.0,0.8550000000000004,0.8550000000000004,0.0,0.0,1.0,55.0,616.79921,10000.0,85.000001,85.000001,85.000001,85.000001,395.0,0.0,0.0,0.0,1.0,166.665,52.383,52.383,47.623,47.623,34.0,-21.6525,26.104,-27.043333333333333,30.7725,0.0,1782.732,-0.23499999999999943,100.0,27.858,27.88,42.75,43.025,0.0,0.0,100.0,0.0,0.0,0.0,0.0,3042.0,3232.1,4166.5,4252.1,305.444,304.58775,314.662,314.38625,21.93922222222222,20.6011,21.9509,21.4509,314.999998,314.999998,324.999988,324.999988,99.55911428571429,99.50731666666667,99.56791428571428,99.54721428571429,0.10924999999999985,-0.02400000000000002,-0.07083333333333333,0.1457142857142857,-0.036666666666668846,-0.060000000000002274,1.5063333333333333,1.513,38.120000000000005,29.756999999999998,38.193,35.068,56.068,35.1245,59.818,52.513,53.992999999999995,34.249,58.3955,50.838499999999996,53.147,33.79,58.309,50.248666666666665,-0.09299999999999997,-0.05650000000000022,0.10523500000000001,0.10828000000000002,0.0,212.66,212.69,209.46,209.46,0.0,0.0
18,0.0,0.0,0.0,1.0,1.0,0.0,0.0,1.0,0.0,0.0,1.0,1.1856,26.0,0.0,0.0,0.0,59.999996,0.0,26.0,26.0,26.0,26.0,0.03788888888888886,0.2771000000000001,0.034960000000000005,292.45,-2.6602,-2.7412222222222224,-1.5383,-1.4818,-215.56,215.365,190.618875,0.0,0.0,0.0,0.0,0.03653333333333331,-5.498166666666667,-5.498166666666667,-0.5584,-0.33299999999999996,0.006888888888888944,0.905,68.049,0.0241,-0.22240000000000001,-0.2599999999999998,100.0,1.0,1.0,209.83333333333331,0.0,0.0,0.0,0.0,0.0,0.0,0.0,8894.0,0.0,55.0,5.0,244.94666666666666,0.0,0.0,0.0,0.0,0.0,0.0,1.0,0.0,0.9029999999999987,0.9029999999999987,0.0,0.0,0.0,55.0,616.79921,10000.0,85.000001,85.000001,85.000001,85.000001,395.0,0.0,0.0,0.0,1.0,333.33500000000004,52.444,52.444,47.684,47.684,34.0,-22.345,27.004,-26.833333333333336,30.9075,0.0,1782.682,-0.23999999999999844,100.0,27.807,27.781,42.907,43.182,0.0,0.0,100.0,0.0,0.0,0.0,0.0,3055.5714285714284,3189.9,4094.5,4321.0,305.466,304.61225,314.79275,314.19625,21.94811111111111,20.6063,21.9608,21.4595,314.999998,314.999998,324.999988,324.999988,99.55912857142857,99.50731666666667,99.56804285714286,99.54734285714285,0.10024999999999995,-0.024666666666666615,-0.08133333333333333,0.14285714285714288,-0.03833333333332689,-0.04333333333332945,1.5103333333333333,1.4926666666666666,38.176,29.789,38.254999999999995,35.1215,56.056,35.1595,59.8535,52.5715,53.980999999999995,34.2815,58.4285,50.8945,53.134,33.821,58.339,50.303666666666665,-0.09299999999999997,-0.05799999999999983,0.10488000000000001,0.10858500000000001,0.0,213.06,213.075,209.83333333333331,209.83333333333331,0.0,0.0
19,0.0,0.0,0.0,1.0,1.0,0.0,0.0,1.0,0.0,0.0,1.0,1.1856,26.0,0.0,0.0,0.0,59.999996,0.0,26.0,26.0,26.0,26.0,0.049111111111111105,0.28600000000000003,0.02346,292.236,-2.64525,-2.699666666666667,-1.5403,-1.6011000000000002,-212.09,215.35500000000002,190.596125,0.0,0.0,0.0,0.0,0.03856666666666653,-5.498166666666667,-5.498166666666667,-0.5521,0.5403333333333333,0.013111111111111073,-0.8089999999999999,68.186,0.018500000000000003,-0.215925,-0.06799999999999962,100.0,1.0,1.0,210.27666666666667,0.0,0.0,0.0,0.0,0.0,0.0,0.0,8912.9,0.0,55.0,5.0,245.44,1.0,0.0,0.0,0.0,0.0,0.0,1.0,0.0,0.9540000000000006,0.9540000000000006,0.0,0.0,1.0,55.0,616.79921,10000.0,85.000001,85.000001,85.000001,85.000001,395.0,0.0,0.0,0.0,1.0,333.33500000000004,52.048,52.048,47.775,47.775,34.0,-23.3525,24.490000000000002,-28.59,30.565,0.0,1782.633,-0.2049999999999983,100.0,28.216,28.383,42.752,43.345,0.0,0.0,100.0,0.0,0.0,0.0,0.0,3149.285714285714,3046.0,4170.25,4218.3,305.335,304.878,314.75325,314.281,21.95777777777778,20.6119,21.9712,21.4686,314.999998,314.999998,324.999988,324.999988,99.55914285714286,99.50731666666667,99.56818571428572,99.5475,0.08850000000000025,-0.048666666666666636,-0.10516666666666667,0.1182857142857143,-0.03333333333333144,-0.04999999999999716,1.498,1.508,38.236000000000004,29.8245,38.32,35.1785,56.044,35.199,59.888999999999996,52.632999999999996,53.97,34.318,58.4615,50.9535,53.122,33.856,58.369,50.361666666666665,-0.09250000000000003,-0.06300000000000017,0.11021500000000001,0.10119500000000001,0.0,213.51,213.505,210.27666666666667,210.27666666666667,0.0,0.0
20,0.0,0.0,0.0,1.0,1.0,0.0,0.0,1.0,0.0,0.0,1.0,1.1856,26.0,0.0,0.0,0.0,59.999996,0.0,26.0,26.0,26.0,26.0,0.03444444444444428,0.262,-0.015340000000000001,292.419,-2.7063,-2.646,-1.5216,-1.5868,-208.6,215.35,190.573625,0.0,0.0,0.0,0.0,0.04059999999999997,-5.498166666666667,-5.498166666666667,-0.5548000000000001,-0.7190000000000001,0.014777777777777779,0.671,68.324,0.016800000000000002,-0.22540000000000002,-0.11799999999999944,100.0,1.0,1.0,210.68333333333334,0.0,0.0,0.0,0.0,0.0,0.0,0.0,8930.1,0.0,55.0,5.0,245.94,0.0,0.0,0.0,0.0,0.0,0.0,0.0,0.0,1.004999999999999,1.004999999999999,0.0,0.0,0.0,55.0,616.79921,10000.0,85.000001,85.000001,85.000001,85.000001,395.0,0.0,0.0,0.0,1.0,166.665,52.521,52.521,47.455,47.455,34.0,-22.37,25.092,-26.803333333333335,30.7025,0.0,1782.583,-0.16499999999999915,100.0,28.007,27.935,43.377,43.581,0.0,0.0,100.0,0.0,0.0,0.0,0.0,3004.0,3148.5,4059.75,4119.0,305.663,304.89975,314.89825,314.5935,21.967111111111112,20.6174,21.9819,21.4778,314.999998,314.999998,324.999988,324.999988,99.55915714285715,99.50733333333334,99.56832857142857,99.54764285714286,0.09825000000000017,-0.03600000000000003,-0.09,0.14171428571428574,-0.046666666666666856,-0.05666666666667197,1.5036666666666667,1.4883333333333333,38.295,29.859,38.387,35.2365,56.03,35.237,59.9275,52.695499999999996,53.957,34.3535,58.498,51.013999999999996,53.108000000000004,33.89,58.402,50.42066666666666,-0.08850000000000002,-0.0665,0.10466500000000001,0.1159,0.0,213.905,213.905,210.68333333333334,210.68333333333334,0.0,0.0
21,0.0,0.0,0.0,1.0,1.0,0.0,0.0,1.0,0.0,0.0,1.0,1.1856,26.0,0.0,0.0,0.0,59.999996,0.0,26.0,26.0,26.0,26.0,0.002777777777777768,0.26560000000000006,-0.053360000000000005,292.603,-2.72205,-2.626777777777778,-1.5731000000000002,-1.5259,-205.32,215.3425,190.552125,0.0,0.0,0.0,0.0,0.04249999999999998,-5.498166666666667,-5.498166666666667,-0.5734,-0.024333333333333318,0.008000000000000007,0.569,68.45,0.0105,-0.2245,-0.08399999999999963,100.0,1.0,1.0,211.18333333333334,0.0,0.0,0.0,0.0,0.0,0.0,0.0,8951.2,0.0,55.0,5.0,246.39333333333335,1.0,0.0,0.0,0.0,0.0,0.0,0.0,0.0,1.0530000000000008,1.0530000000000008,0.0,0.0,1.0,55.0,616.79921,10000.0,85.000001,85.000001,85.000001,85.000001,395.0,0.0,0.0,0.0,1.0,333.33500000000004,52.368,52.368,48.05,48.05,34.0,-23.57,25.404,-26.863333333333333,28.59,0.0,1782.533,-0.254999999999999,100.0,28.001,27.831,43.036,43.241,0.0,0.0,100.0,0.0,0.0,0.0,0.0,3110.5714285714284,3191.9,4000.625,4070.0,305.3645,304.78475,315.13175,314.82625,21.976111111111113,20.6226,21.9916,21.4863,314.999998,314.999998,324.999988,324.999988,99.55917142857143,99.50733333333334,99.56847142857143,99.54777142857142,0.09474999999999989,-0.033333333333333215,-0.09516666666666668,0.13271428571428573,-0.02833333333332888,-0.051666666666669414,1.5763333333333334,1.5503333333333333,38.349999999999994,29.8915,38.448,35.289500000000004,56.018,35.272999999999996,59.96,52.7515,53.945,34.3865,58.528,51.067499999999995,53.095,33.922,58.429,50.473333333333336,-0.09499999999999997,-0.05750000000000011,0.10065,0.11088,0.0,214.31,214.305,211.18333333333334,211.18333333333334,0.0,0.0
22,0.0,0.0,0.0,1.0,1.0,0.0,0.0,1.0,0.0,0.0,1.0,1.1856,26.0,0.0,0.0,0.0,59.999996,0.0,26.0,26.0,26.0,26.0,0.015555555555555545,0.27500000000000013,0.01692,292.175,-2.7662,-2.6564444444444444,-1.6026,-1.5264,-201.82999999999998,215.335,190.528375,0.0,0.0,0.0,0.0,0.044533333333333314,-5.498166666666667,-5.498166666666667,-0.5588000000000001,0.08866666666666656,0.010333333333333306,-0.586,68.589,0.006,-0.201575,-0.10999999999999943,100.0,1.0,1.0,211.44,0.0,0.0,0.0,0.0,0.0,0.0,0.0,8962.2,0.0,55.0,5.0,246.89,0.0,0.0,0.0,0.0,0.0,0.0,0.0,0.0,1.1039999999999992,1.1039999999999992,0.0,0.0,0.0,55.0,616.79921,10000.0,85.000001,85.000001,85.000001,85.000001,395.0,0.0,0.0,0.0,1.0,166.665,52.444,52.444,47.226,47.226,34.0,-24.4075,24.274,-30.913333333333334,30.735,0.0,1782.483,-0.370000000000001,100.0,27.905,28.088,43.053,43.376,0.0,0.0,100.0,0.0,0.0,0.0,0.0,3182.714285714286,3068.6,4337.125,4337.4,305.4015,304.98925,314.3935,314.11825,21.985555555555557,20.6282,22.0021,21.4955,314.999998,314.999998,324.999988,324.999988,99.55918571428572,99.50735,99.56861428571429,99.54791428571428,0.09299999999999997,-0.04499999999999993,-0.1065,0.123,-0.046666666666666856,-0.046666666666666856,1.5016666666666667,1.4849999999999999,38.41,29.926000000000002,38.513,35.347,56.006,35.3115,59.9975,52.813,53.933,34.422,58.563,51.127,53.082,33.956,58.461,50.531,-0.10949999999999993,-0.05149999999999988,0.100735,0.11063,0.0,214.75,214.755,211.44,211.44,0.0,0.0
23,0.0,0.0,0.0,1.0,1.0,0.0,0.0,1.0,0.0,0.0,1.0,1.1856,26.0,0.0,0.0,0.0,59.999996,0.0,26.0,26.0,26.0,26.0,0.0040000000000000036,0.2714000000000001,0.01686,292.068,-2.66195,-2.683888888888889,-1.6409,-1.5364,-198.32999999999998,215.32999999999998,190.504875,0.0,0.0,0.0,0.0,0.046566666666666534,-5.498166666666667,-5.498166666666667,-0.5721,-0.258,0.011666666666666714,0.633,68.723,0.0071,-0.223775,-0.24600000000000044,100.0,1.0,1.0,211.90666666666667,0.0,0.0,0.0,0.0,0.0,0.0,0.0,8981.9,0.0,55.0,5.0,247.37666666666667,1.0,0.0,0.0,0.0,0.0,0.0,0.0,0.0,1.1550000000000011,1.1550000000000011,0.0,0.0,1.0,55.0,616.79921,10000.0,85.000001,85.000001,85.000001,85.000001,395.0,0.0,0.0,0.0,1.0,166.665,52.002,52.002,47.485,47.485,34.0,-23.315,25.546,-29.823333333333334,29.767500000000002,0.0,1782.433,-0.3550000000000004,100.0,28.305,28.09,43.334,43.536,0.0,0.0,100.0,0.0,0.0,0.0,0.0,3157.285714285714,3170.7,4203.125,4224.5,305.151,304.769,314.674,314.4605,21.995,20.6338,22.0127,21.5048,314.999998,314.999998,324.999988,324.999988,99.5592,99.50735,99.56875714285714,99.54807142857143,0.09925000000000006,-0.04033333333333311,-0.0975,0.12357142857142857,-0.030000000000001137,-0.07000000000000028,1.5176666666666665,1.5046666666666666,38.469,29.9615,38.579,35.405,55.992999999999995,35.351,60.035,52.875,53.922,34.4585,58.5975,51.1865,53.069,33.9905,58.4925,50.589666666666666,-0.10949999999999993,-0.05549999999999988,0.10700000000000001,0.10415500000000001,0.0,215.135,215.17000000000002,211.90666666666667,211.90666666666667,0.0,0.0
24,0.0,0.0,0.0,1.0,1.0,0.0,0.0,1.0,0.0,0.0,1.0,1.1856,26.0,0.0,0.0,0.0,59.999996,0.0,26.0,26.0,26.0,26.0,0.023222222222222255,0.2704,-0.04514,292.45,-2.68725,-2.668222222222222,-1.5498,-1.5561,-195.01999999999998,215.325,190.48225,0.0,0.0,0.0,0.0,0.04849999999999999,-5.498166666666667,-5.498166666666667,-0.5853,-0.393,0.018777777777777782,1.1360000000000001,68.85,0.0109,-0.22285000000000002,-0.2939999999999996,100.0,1.0,1.0,212.31333333333333,0.0,0.0,0.0,0.0,0.0,0.0,0.0,8999.2,0.0,55.0,5.0,247.83333333333334,0.0,0.0,0.0,0.0,0.0,0.0,0.0,0.0,1.2029999999999994,1.2029999999999994,0.0,0.0,0.0,55.0,616.79921,10000.0,85.000001,85.000001,85.000001,85.000001,395.0,0.0,0.0,0.0,1.0,333.33500000000004,52.689,52.689,47.47,47.47,34.0,-21.63,25.014000000000003,-27.743333333333336,29.865000000000002,0.0,1782.382,-0.3550000000000004,100.0,28.129,27.865000000000002,43.33,43.476,0.0,0.0,100.0,0.0,0.0,0.0,0.0,2951.4285714285716,3102.1,4119.625,4162.5,305.8,305.05175,314.775,314.576,22.003888888888888,20.639,22.0225,21.5134,314.999998,314.999998,324.999988,324.999988,99.5592,99.50735,99.5689,99.54821428571428,0.10199999999999987,-0.032333333333333325,-0.09233333333333334,0.12985714285714287,-0.026666666666670835,-0.04999999999999716,1.5150000000000001,1.512,38.524,29.994,38.641,35.4585,55.980999999999995,35.385999999999996,60.069,52.9315,53.91,34.491,58.629,51.241,53.057,34.0215,58.521,50.643,-0.10650000000000004,-0.05149999999999988,0.10139500000000001,0.10812500000000001,0.0,215.525,215.535,212.31333333333333,212.31333333333333,0.0,0.0
25,0.0,0.0,0.0,1.0,1.0,0.0,0.0,1.0,0.0,0.0,1.0,1.1856,26.0,0.0,0.0,0.0,59.999996,0.0,26.0,26.0,26.0,26.0,0.032444444444444276,0.27070000000000016,-0.02316,292.221,-2.75245,-2.6398888888888887,-1.5954000000000002,-1.5493000000000001,-191.51,215.32,190.457,0.0,0.0,0.0,0.0,0.05053333333333332,-5.498166666666667,-5.498166666666667,-0.6014,0.04999999999999993,0.02444444444444427,-0.896,68.983,0.0143,-0.21880000000000002,-0.242,100.0,1.0,1.0,212.76666666666665,0.0,0.0,0.0,0.0,0.0,0.0,0.0,9018.3,0.0,55.0,5.0,248.31333333333333,1.0,0.0,0.0,0.0,0.0,0.0,0.0,0.0,1.2540000000000013,1.2540000000000013,0.0,0.0,1.0,55.0,616.79921,10000.0,85.000001,85.000001,85.000001,85.000001,395.0,0.0,0.0,0.0,1.0,333.33500000000004,51.834,51.834,47.775,47.775,34.0,-25.505,26.42,-28.073333333333334,29.61,0.0,1782.332,-0.34999999999999787,100.0,27.919,28.21,43.008,43.377,0.0,0.0,100.0,0.0,0.0,0.0,0.0,3315.714285714286,3245.7,4066.0,4117.8,304.9815,304.41675,315.05575,314.62875,22.013222222222222,20.6446,22.032899999999998,21.5225,314.999998,314.999998,324.999988,324.999988,99.55921428571429,99.50736666666667,99.56904285714286,99.54835714285714,0.09350000000000014,-0.03066666666666662,-0.10216666666666667,0.13428571428571429,-0.06333333333333258,-0.051666666666669414,1.5510000000000002,1.5333333333333332,38.583,30.029,38.705,35.5155,55.967,35.4245,60.1035,52.991,53.897,34.5265,58.661500000000004,51.298500000000004,53.043,34.056,58.55,50.699,-0.10599999999999987,-0.04800000000000004,0.10441500000000001,0.11733500000000001,0.0,215.97,215.965,212.76666666666665,212.76666666666665,0.0,0.0
26,0.0,0.0,0.0,1.0,1.0,0.0,0.0,1.0,0.0,0.0,1.0,1.1856,26.0,0.0,0.0,0.0,59.999996,0.0,26.0,26.0,26.0,26.0,0.025111111111111084,0.27070000000000016,0.07796,291.458,-2.7101,-2.6532222222222224,-1.5569000000000002,-1.552,-187.99,215.3175,190.4315,0.0,0.0,0.0,0.0,0.05256666666666654,-5.498166666666667,-5.498166666666667,-0.5753,0.29766666666666663,0.015222222222222026,0.905,69.119,0.017,-0.20292500000000002,-0.3639999999999999,100.0,1.0,1.0,212.98666666666668,0.0,0.0,0.0,0.0,0.0,0.0,0.0,9027.7,0.0,55.0,5.0,248.8,0.0,0.0,0.0,0.0,0.0,0.0,0.0,0.0,1.3049999999999997,1.3049999999999997,0.0,0.0,0.0,55.0,616.79921,10000.0,85.000001,85.000001,85.000001,85.000001,395.0,0.0,0.0,0.0,1.0,333.33500000000004,51.743,51.743,46.768,46.768,34.0,-23.3525,25.688,-29.993333333333336,33.4925,0.0,1782.281,-0.3550000000000004,100.0,28.752,28.473,43.524,43.72,0.0,0.0,100.0,0.0,0.0,0.0,0.0,3150.857142857143,3170.6,4380.75,4498.2,305.2625,304.896,314.16625,313.76875,22.022777777777776,20.6504,22.0434,21.5318,314.999998,314.999998,324.999988,324.999988,99.55922857142858,99.50736666666667,99.5692,99.54851428571429,0.10550000000000015,-0.026999999999999913,-0.0885,0.13742857142857143,-0.03999999999999915,-0.05333333333332746,1.4623333333333333,1.442,38.641999999999996,30.064999999999998,38.771,35.574,55.957,35.4645,60.1415,53.0535,53.887,34.5635,58.697,51.359,53.032,34.091499999999996,58.582499999999996,50.75833333333333,-0.11099999999999999,-0.051000000000000156,0.109145,0.11002500000000001,0.0,216.39499999999998,216.405,212.98666666666668,212.98666666666668,0.0,0.0
27,0.0,0.0,0.0,1.0,1.0,0.0,0.0,1.0,0.0,0.0,1.0,1.1856,26.0,0.0,0.0,0.0,59.999996,0.0,26.0,26.0,26.0,26.0,0.02633333333333332,0.2550000000000001,-0.054200000000000005,291.84,-2.757,-2.664,-1.6184,-1.5331000000000001,-184.67000000000002,215.315,190.408375,0.0,0.0,0.0,0.0,0.05449999999999999,-5.498166666666667,-5.498166666666667,-0.5961000000000001,-0.7770000000000001,0.025333333333333208,0.831,69.243,0.0183,-0.23700000000000002,-0.30799999999999983,100.0,1.0,1.0,213.49,0.0,0.0,0.0,0.0,0.0,0.0,0.0,9049.0,0.0,55.0,5.0,249.24666666666667,1.0,0.0,0.0,0.0,0.0,0.0,0.0,0.0,1.352999999999998,1.352999999999998,0.0,0.0,1.0,55.0,616.79921,10000.0,85.000001,85.000001,85.000001,85.000001,395.0,0.0,0.0,0.0,1.0,333.33500000000004,51.971000000000004,51.971000000000004,46.799,46.799,34.0,-22.61,26.294,-28.273333333333333,30.255,0.0,1782.233,-0.34499999999999886,100.0,28.456,28.467,43.92,44.059,0.0,0.0,100.0,0.0,0.0,0.0,0.0,3025.4285714285716,3235.0,4107.75,4148.1,305.669,304.58575,314.87275,314.674,22.031555555555556,20.6557,22.0534,21.5406,314.999998,314.999998,324.999988,324.999988,99.55925714285715,99.50736666666667,99.56934285714286,99.54864285714285,0.1067499999999999,-0.03266666666666662,-0.088,0.1464285714285714,-0.045000000000001705,-0.05333333333332746,1.5213333333333334,1.502,38.697,30.0985,38.834,35.629,55.945,35.5015,60.1775,53.112,53.876000000000005,34.5975,58.7305,51.415,53.019999999999996,34.124,58.613,50.81333333333333,-0.10650000000000004,-0.053999999999999826,0.10941000000000001,0.11506500000000001,0.0,216.735,216.75,213.49,213.49,0.0,0.0
28,0.0,0.0,0.0,1.0,1.0,0.0,0.0,1.0,0.0,0.0,1.0,1.1856,26.0,0.0,0.0,0.0,59.999996,0.0,26.0,26.0,26.0,26.0,0.04488888888888898,0.26639999999999997,-0.05566000000000001,291.992,-2.6921,-2.646111111111111,-1.6344,-1.5594000000000001,-181.13,215.3125,190.382875,0.0,0.0,0.0,0.0,0.05656666666666654,-5.498166666666667,-5.498166666666667,-0.6018,0.513,0.010666666666666602,-1.1280000000000001,69.373,0.0149,-0.217625,-0.266,100.0,1.0,1.0,213.96666666666667,0.0,0.0,0.0,0.0,0.0,0.0,0.0,9069.3,0.0,55.0,5.0,249.71666666666667,0.0,0.0,0.0,0.0,0.0,0.0,0.0,0.0,1.404,1.404,0.0,0.0,0.0,55.0,616.79921,10000.0,85.000001,85.000001,85.000001,85.000001,395.0,0.0,0.0,0.0,1.0,333.33500000000004,51.88,51.88,47.318,47.318,34.0,-22.9025,25.119999999999997,-29.009999999999998,29.36,0.0,1782.181,-0.47499999999999787,100.0,28.375,28.64,43.342,43.806,0.0,0.0,100.0,0.0,0.0,0.0,0.0,3153.0,3109.6,4149.875,4111.8,305.3865,304.7905,314.9095,314.68125,22.041,20.6615,22.0637,21.5497,314.999998,314.999998,324.999988,324.999988,99.55925714285715,99.50738333333334,99.56947142857143,99.54878571428571,0.10899999999999999,-0.03433333333333333,-0.09666666666666668,0.12814285714285714,-0.054999999999999716,-0.041666666666671404,1.5443333333333333,1.5293333333333332,38.756,30.134,38.897999999999996,35.686,55.934,35.5405,60.210499999999996,53.171,53.864999999999995,34.634,58.760999999999996,51.472,53.007,34.159,58.6405,50.86866666666667,-0.12250000000000005,-0.04999999999999982,0.10876000000000001,0.1086,0.0,217.18,217.17000000000002,213.96666666666667,213.96666666666667,0.0,0.0
29,0.0,0.0,0.0,1.0,1.0,0.0,0.0,1.0,0.0,0.0,1.0,1.1856,26.0,0.0,0.0,0.0,59.999996,0.0,26.0,26.0,26.0,26.0,0.04022222222222216,0.25839999999999996,-0.02844,291.794,-2.7569,-2.582222222222222,-1.6053000000000002,-1.5492,-177.38,215.31,190.355,0.0,0.0,0.0,0.0,0.058733333333333304,-5.498166666666667,-5.498166666666667,-0.6058,-0.7216666666666667,0.0003333333333332966,-0.746,69.515,0.0172,-0.215925,-0.3379999999999992,100.0,1.0,1.0,214.25,0.0,0.0,0.0,0.0,0.0,0.0,0.0,9081.3,0.0,55.0,5.0,250.22666666666666,1.0,0.0,0.0,0.0,0.0,0.0,0.0,0.0,1.4579999999999984,1.4579999999999984,0.0,0.0,1.0,55.0,616.79921,10000.0,85.000001,85.000001,85.000001,85.000001,395.0,0.0,0.0,0.0,1.0,166.665,52.2,52.2,46.951,46.951,34.0,-24.555,24.560000000000002,-29.39,30.765,0.0,1782.129,-0.48999999999999844,100.0,28.078,28.359,43.74,44.095,0.0,0.0,100.0,0.0,0.0,0.0,0.0,3252.5714285714284,3129.6,4225.5,4245.1,305.3155,304.97925,314.6605,314.29425,22.05077777777778,20.6674,22.0749,21.5596,314.999998,314.999998,324.999988,324.999988,99.55928571428572,99.50738333333334,99.56962857142857,99.54895714285715,0.09949999999999992,-0.030999999999999917,-0.09433333333333332,0.13,-0.051666666666669414,-0.04833333333333201,1.505,1.4843333333333333,38.817,30.171,38.968,35.7475,55.92,35.5805,60.251,53.2365,53.852000000000004,34.670500000000004,58.799,51.535,52.992999999999995,34.194,58.675,50.93033333333334,-0.11650000000000005,-0.044500000000000206,0.10560000000000001,0.10308,0.0,217.59,217.60000000000002,214.25,214.25,0.0,0.0
30,0.0,0.0,0.0,1.0,1.0,0.0,0.0,1.0,0.0,0.0,1.0,1.1856,26.0,0.0,0.0,0.0,59.999996,0.0,26.0,26.0,26.0,26.0,0.032444444444444276,0.25750000000000006,0.00742,291.138,-2.732,-2.643888888888889,-1.6546,-1.4633,-174.04,215.31,190.330125,0.0,0.0,0.0,0.0,0.060666666666666536,-5.498166666666667,-5.498166666666667,-0.6048,0.8706666666666667,0.006444444444444253,-0.29999999999999993,69.636,0.0224,-0.21625,-0.4660000000000002,100.0,1.0,1.0,214.71666666666667,0.0,0.0,0.0,0.0,0.0,0.0,0.0,9101.0,0.0,55.0,5.0,250.66,0.0,0.0,0.0,0.0,0.0,0.0,1.0,0.0,1.5060000000000002,1.5060000000000002,0.0,0.0,0.0,55.0,616.79921,10000.0,85.000001,85.000001,85.000001,85.000001,395.0,0.0,0.0,0.0,1.0,166.665,50.613,50.613,46.906,46.906,34.0,-24.8075,26.934,-30.46,29.52,0.0,1782.08,-0.5199999999999996,100.0,28.984,29.070999999999998,43.551,44.027,0.0,0.0,100.0,0.0,0.0,0.0,0.0,3381.285714285714,3297.9,4279.875,4253.8,304.608,304.0885,314.66425,314.4965,22.05977777777778,20.673000000000002,22.084699999999998,21.5683,314.999998,314.999998,324.999988,324.999988,99.55928571428572,99.50738333333334,99.56977142857143,99.54908571428571,0.121,-0.03600000000000003,-0.09733333333333333,0.13614285714285715,-0.060000000000002274,-0.05333333333332746,1.5226666666666666,1.5113333333333334,38.873999999999995,30.206,39.028999999999996,35.8015,55.913,35.619,60.283500000000004,53.293,53.844,34.7065,58.829,51.589,52.985,34.2285,58.702,50.983333333333334,-0.12749999999999995,-0.046499999999999986,0.11404500000000001,0.10501,0.0,217.995,218.0,214.71666666666667,214.71666666666667,0.0,0.0
31,0.0,0.0,0.0,1.0,1.0,0.0,0.0,1.0,0.0,0.0,1.0,1.1856,26.0,0.0,0.0,0.0,59.999996,0.0,26.0,26.0,26.0,26.0,0.052444444444444294,0.2622,0.10224,290.68,-2.779,-2.616888888888889,-1.6527,-1.5365,-170.7,215.31,190.30575,0.0,0.0,0.0,0.0,0.06263333333333332,-5.498166666666667,-5.498166666666667,-0.5845,-0.33533333333333326,0.02055555555555566,-0.5640000000000001,69.762,0.028,-0.21577500000000002,-0.4039999999999999,100.0,1.0,1.0,214.9,0.0,0.0,0.0,0.0,0.0,0.0,0.0,9108.8,0.0,55.0,5.0,251.11666666666667,1.0,0.0,0.0,0.0,0.0,0.0,1.0,0.0,1.5539999999999985,1.5539999999999985,0.0,0.0,1.0,55.0,616.79921,10000.0,85.000001,85.000001,85.000001,85.000001,395.0,0.0,0.0,0.0,1.0,166.665,51.147,51.147,45.516999999999996,45.516999999999996,34.0,-24.04,26.415999999999997,-31.69,33.6725,0.0,1782.032,-0.46999999999999886,100.0,28.828,29.234,44.296,44.801,0.0,0.0,100.0,0.0,0.0,0.0,0.0,3224.142857142857,3275.7,4420.875,4452.9,305.2855,304.38375,314.1145,313.718,22.068666666666665,20.6784,22.0948,21.5772,314.999998,314.999998,324.999988,324.999988,99.55931428571428,99.5074,99.56991428571429,99.54924285714286,0.11324999999999985,-0.030999999999999917,-0.084,0.14371428571428574,-0.045000000000001705,-0.041666666666671404,1.421,1.4063333333333334,38.929,30.240000000000002,39.092,35.8575,55.903,35.6565,60.321,53.354,53.835,34.741,58.864,51.647999999999996,52.974000000000004,34.2615,58.7335,51.04066666666667,-0.12250000000000005,-0.04700000000000015,0.102275,0.10917,0.0,218.35000000000002,218.37,214.9,214.9,0.0,0.0
32,0.0,0.0,0.0,1.0,1.0,0.0,0.0,1.0,0.0,0.0,1.0,1.1856,26.0,0.0,0.0,0.0,59.999996,0.0,26.0,26.0,26.0,26.0,0.07633333333333336,0.25849999999999995,-0.03508,291.397,-2.7058,-2.673888888888889,-1.5935000000000001,-1.6168,-166.93,215.3125,190.27875,0.0,0.0,0.0,0.0,0.0648333333333333,-5.498166666666667,-5.498166666666667,-0.6084,-0.3643333333333332,-0.00022222222222234578,-1.075,69.896,0.031200000000000002,-0.23305,-0.4479999999999995,100.0,1.0,1.0,215.48666666666668,0.0,0.0,0.0,0.0,0.0,0.0,0.0,9133.6,0.0,55.0,5.0,251.60000000000002,0.0,0.0,0.0,0.0,0.0,0.0,1.0,0.0,1.6080000000000005,1.6080000000000005,0.0,0.0,0.0,55.0,616.79921,10000.0,85.000001,85.000001,85.000001,85.000001,395.0,0.0,0.0,0.0,1.0,166.665,51.559,51.559,46.707,46.707,34.0,-22.3125,25.738,-26.976666666666663,31.8075,0.0,1781.977,-0.46499999999999986,100.0,28.697,29.128,44.128,44.709,0.0,0.0,100.0,0.0,0.0,0.0,0.0,3156.0,3093.6,4081.0,4174.8,305.4165,304.86625,314.973,314.46875,22.078444444444443,20.6846,22.1058,21.5871,314.999998,314.999998,324.999988,324.999988,99.55932857142857,99.5074,99.57007142857142,99.54941428571429,0.12524999999999986,-0.021333333333333204,-0.0745,0.14514285714285713,-0.04833333333333201,-0.04833333333333201,1.5273333333333334,1.5036666666666667,38.989999999999995,30.2785,39.161,35.9195,55.89,35.7,60.3595,53.4215,53.822,34.7815,58.8995,51.713,52.961,34.3005,58.7655,51.10433333333333,-0.12250000000000005,-0.045500000000000096,0.10280500000000001,0.11213500000000001,0.0,218.76999999999998,218.78,215.48666666666668,215.48666666666668,0.0,0.0
33,0.0,0.0,0.0,1.0,1.0,0.0,0.0,1.0,0.0,0.0,1.0,1.1856,26.0,0.0,0.0,0.0,59.999996,0.0,26.0,26.0,26.0,26.0,0.05311111111111111,0.26560000000000006,-0.06782,291.595,-2.7328,-2.6885555555555554,-1.599,-1.5813000000000001,-163.78,215.3175,190.25525,0.0,0.0,0.0,0.0,0.06663333333333332,-5.498166666666667,-5.498166666666667,-0.6158,-0.17966666666666686,0.0007777777777777661,0.935,70.009,0.029500000000000002,-0.21825,-0.4299999999999997,100.0,1.0,1.0,215.8466666666667,0.0,0.0,0.0,0.0,0.0,0.0,0.0,9149.0,0.0,55.0,5.0,252.00666666666666,1.0,0.0,0.0,0.0,0.0,0.0,1.0,0.0,1.6529999999999987,1.6529999999999987,0.0,0.0,1.0,55.0,616.79921,10000.0,85.000001,85.000001,85.000001,85.000001,395.0,0.0,0.0,0.0,1.0,333.33500000000004,51.804,51.804,46.936,46.936,34.0,-21.7675,25.958,-27.22,31.67,0.0,1781.933,-0.509999999999998,100.0,28.749,28.756,44.003,44.379000000000005,0.0,0.0,100.0,0.0,0.0,0.0,0.0,3067.5714285714284,3122.3,4073.625,4205.7,305.5615,304.93625,314.9805,314.52225,22.086555555555556,20.6895,22.115,21.5952,314.999998,314.999998,324.999988,324.999988,99.55932857142857,99.5074,99.5702,99.54952857142857,0.1299999999999999,-0.021333333333333204,-0.07866666666666668,0.1514285714285714,-0.03833333333332689,-0.045000000000001705,1.53,1.5206666666666666,39.041,30.3095,39.219,35.97,55.881,35.7305,60.388,53.47,53.814,34.81,58.9265,51.7595,52.951,34.3275,58.789500000000004,51.15,-0.12250000000000005,-0.044500000000000206,0.10892500000000001,0.109255,0.0,219.11,219.15,215.8466666666667,215.8466666666667,0.0,0.0
34,0.0,0.0,0.0,1.0,1.0,0.0,0.0,1.0,0.0,0.0,1.0,1.1856,26.0,0.0,0.0,0.0,59.999996,0.0,26.0,26.0,26.0,26.0,0.0604444444444443,0.2642,-0.07134,291.824,-2.6685,-2.6694444444444443,-1.6293000000000002,-1.5249000000000001,-160.2,215.3225,190.22725,0.0,0.0,0.0,0.0,0.06873333333333331,-5.498166666666667,-5.498166666666667,-0.6414000000000001,-0.8946666666666667,0.01577777777777789,-0.28300000000000003,70.139,0.030500000000000003,-0.22012500000000002,-0.43599999999999994,100.0,1.0,1.0,216.19666666666666,0.0,0.0,0.0,0.0,0.0,0.0,0.0,9163.8,0.0,55.0,5.0,252.47333333333336,0.0,0.0,0.0,0.0,0.0,0.0,1.0,0.0,1.7040000000000006,1.7040000000000006,0.0,0.0,0.0,55.0,616.79921,10000.0,85.000001,85.000001,85.000001,85.000001,395.0,0.0,0.0,0.0,1.0,333.33500000000004,52.353,52.353,47.043,47.043,34.0,-21.1125,24.36,-28.31,30.9775,0.0,1781.881,-0.509999999999998,100.0,28.309,28.581,43.82,44.501999999999995,0.0,0.0,100.0,0.0,0.0,0.0,0.0,3051.4285714285716,2942.3,4154.875,4225.7,305.77,305.313,314.85175,314.45425,22.095666666666666,20.6951,22.1254,21.6046,314.999998,314.999998,324.999988,324.999988,99.55935714285714,99.5074,99.57035714285715,99.54968571428572,0.12424999999999997,-0.019333333333333202,-0.07916666666666668,0.14657142857142857,-0.041666666666671404,-0.04833333333333201,1.5156666666666667,1.494,39.098,30.3445,39.284,36.0285,55.867999999999995,35.7665,60.4225,53.531,53.802,34.843,58.958,51.8185,52.938,34.3595,58.818,51.20733333333334,-0.12349999999999994,-0.03849999999999998,0.09646500000000001,0.111115,0.0,219.49,219.535,216.19666666666666,216.19666666666666,0.0,0.0
35,0.0,0.0,0.0,1.0,1.0,0.0,0.0,1.0,0.0,0.0,1.0,1.1856,26.0,0.0,0.0,0.0,59.999996,0.0,26.0,26.0,26.0,26.0,0.066888888888889,0.25750000000000006,-0.0519,291.641,-2.8051,-2.648888888888889,-1.5424,-1.5792000000000002,-156.41,215.3275,190.1955,0.0,0.0,0.0,0.0,0.0709333333333334,-5.498166666666667,-5.498166666666667,-0.6781,0.06299999999999994,-0.0005555555555556424,-1.248,70.273,0.0342,-0.225325,-0.4039999999999999,100.0,1.0,1.0,216.69333333333333,0.0,0.0,0.0,0.0,0.0,0.0,0.0,9184.8,0.0,55.0,5.0,252.95666666666665,1.0,0.0,0.0,0.0,0.0,0.0,1.0,0.0,1.7579999999999991,1.7579999999999991,0.0,0.0,1.0,55.0,616.79921,10000.0,85.000001,85.000001,85.000001,85.000001,395.0,0.0,0.0,0.0,1.0,166.665,51.514,51.514,46.768,46.768,34.0,-23.9975,27.23,-26.169999999999998,30.4025,0.0,1781.83,-0.3049999999999997,100.0,28.23,29.001,43.57,44.033,0.0,0.0,100.0,0.0,0.0,0.0,0.0,3195.5714285714284,3292.1,4135.375,4082.6000000000004,305.3055,304.2495,314.95,314.85725,22.105333333333334,20.7013,22.1363,21.6142,314.999998,314.999998,324.999988,324.999988,99.55937142857142,99.5074,99.5705,99.54982857142858,0.11675000000000013,-0.026000000000000023,-0.06933333333333333,0.15271428571428572,-0.06833333333332803,-0.03499999999999659,1.5630000000000002,1.555,39.158,30.383499999999998,39.352000000000004,36.089,55.854,35.8085,60.457499999999996,53.591,53.788,34.882,58.991,51.8765,52.923,34.397,58.8475,51.263999999999996,-0.11050000000000004,-0.053999999999999826,0.09826000000000001,0.11363500000000001,0.0,219.935,219.95,216.69333333333333,216.69333333333333,0.0,0.0
36,0.0,0.0,0.0,1.0,1.0,0.0,0.0,1.0,0.0,0.0,1.0,1.1856,26.0,0.0,0.0,0.0,59.999996,0.0,26.0,26.0,26.0,26.0,0.05311111111111111,0.26160000000000005,0.06770000000000001,291.092,-2.6491,-2.7143333333333333,-1.6525,-1.589,-153.25,215.335,190.168125,0.0,0.0,0.0,0.0,0.07276666666666654,-5.498166666666667,-5.498166666666667,-0.6621,0.040000000000000036,-0.037555555555555564,0.18199999999999994,70.388,0.031200000000000002,-0.2056,-0.3279999999999994,100.0,1.0,1.0,216.83666666666667,0.0,0.0,0.0,0.0,0.0,0.0,0.0,9191.0,0.0,55.0,5.0,253.37,0.0,0.0,0.0,0.0,0.0,0.0,1.0,0.0,1.8030000000000008,1.8030000000000008,0.0,0.0,0.0,55.0,616.79921,10000.0,85.000001,85.000001,85.000001,85.000001,395.0,0.0,0.0,0.0,1.0,333.33500000000004,51.650999999999996,51.650999999999996,46.326,46.326,34.0,-21.1775,25.798000000000002,-30.523333333333333,34.7225,0.0,1781.784,-0.245000000000001,100.0,28.934,28.823999999999998,43.928,44.271,0.0,0.0,100.0,0.0,0.0,0.0,0.0,3028.285714285714,3130.8,4385.125,4475.2,305.4835,304.8555,314.2165,313.879,22.113444444444443,20.7065,22.1456,21.6226,314.999998,314.999998,324.999988,324.999988,99.55938571428571,99.50741666666667,99.57064285714286,99.54997142857142,0.12375000000000025,-0.03433333333333333,-0.07166666666666667,0.15228571428571427,-0.051666666666669414,-0.03999999999999915,1.4596666666666667,1.4369999999999998,39.209,30.4155,39.41,36.141,55.845,35.8435,60.4895,53.6465,53.778999999999996,34.914,59.021,51.9295,52.914,34.428,58.8745,51.316,-0.10549999999999993,-0.06550000000000011,0.1058,0.107895,0.0,220.305,220.32,216.83666666666664,216.83666666666667,0.0,0.0
