,ABS Active,ABS Enabled,AID Allow Tire Blankets,AID Auto Blip,AID Auto Clutch,AID Auto Shift,AID Fuel Rate,AID Ideal Line,AID Mech Damage,AID Stability,AID Tire Wear Rate,Air Density,Air Temp,Ballast,Best Lap Delta,Best Lap Time,Brake Bias,Brake Pos,Brake Temp FL,Brake Temp FR,Brake Temp RL,Brake Temp RR,CG Accel Lateral,CG Accel Longitudinal,CG Accel Vertical,CG Height,Camber FL,Camber FR,Camber RL,Camber RR,Car Coord X,Car Coord Y,Car Coord Z,Car Damage Front,Car Damage Left,Car Damage Rear,Car Damage Right,Car Pos Norm,Caster FL,Caster FR,Chassis Pitch Angle,Chassis Pitch Rate,Chassis Roll Angle,Chassis Roll Rate,Chassis Velocity X,Chassis Velocity Y,Chassis Velocity Z,Chassis Yaw Rate,Clutch Pos,DRS Active,DRS Available,Drive Train Speed,ERS Heat Charging,ERS Is Charging,ERS Max Energy,ERS Power Level,ERS Recovery Level,Engine Brake Setting,Engine Limiter,Engine RPM,Flags,Fuel Level,Gear,Ground Speed,HR Sample Clock,In Pit,KERS Charge,KERS Deployed Energy,KERS Input,KERS Max Energy,LR Sample Clock,Lap Invalidated,Lap Time,Lap Time2,Last Lap Time,Last Sector Time,MR Sample Clock,Max Fuel,Max Power,Max RPM,Max Sus Travel FL,Max Sus Travel FR,Max Sus Travel RL,Max Sus Travel RR,Max Torque,Max Turbo Boost,Num Tires Off Track,Penalties Enabled,Position,Raw Data Sample Rate,Ride Height FL,Ride Height FR,Ride Height RL,Ride Height RR,Road Temp,Self Align Torque FL,Self Align Torque FR,Self Align Torque RL,Self Align Torque RR,Session Lap Count,Session Time Left,Steering Angle,Surface Grip,Suspension Travel FL,Suspension Travel FR,Suspension Travel RL,Suspension Travel RR,TC Active,TC Enabled,Throttle Pos,Tire Dirt Level FL,Tire Dirt Level FR,Tire Dirt Level RL,Tire Dirt Level RR,Tire Load FL,Tire Load FR,Tire Load RL,Tire Load RR,Tire Loaded Radius FL,Tire Loaded Radius FR,Tire Loaded Radius RL,Tire Loaded Radius RR,Tire Pressure FL,Tire Pressure FR,Tire Pressure RL,Tire Pressure RR,Tire Radius FL,Tire Radius FR,Tire Radius RL,Tire Radius RR,Tire Rubber Grip FL,Tire Rubber Grip FR,Tire Rubber Grip RL,Tire Rubber Grip RR,Tire Slip Angle FL,Tire Slip Angle FR,Tire Slip Angle RL,Tire Slip Angle RR,Tire Slip Ratio FL,Tire Slip Ratio FR,Tire Slip Ratio RL,Tire Slip Ratio RR,Tire Temp Core FL,Tire Temp Core FR,Tire Temp Core RL,Tire Temp Core RR,Tire Temp Inner FL,Tire Temp Inner FR,Tire Temp Inner RL,Tire Temp Inner RR,Tire Temp Middle FL,Tire Temp Middle FR,Tire Temp Middle RL,Tire Temp Middle RR,Tire Temp Outer FL,Tire Temp Outer FR,Tire Temp Outer RL,Tire Temp Outer RR,Toe In FL,Toe In FR,Toe In RL,Toe In RR,Turbo Boost,Wheel Angular Speed FL,Wheel Angular Speed FR,Wheel Angular Speed RL,Wheel Angular Speed RR,Wind Direction,Wind Speed
0,0.0,0.0,0.0,1.0,1.0,0.0,0.0,1.0,0.0,0.0,1.0,1.1856,26.0,0.0,0.0,0.0,59.99999,0.0,26.0,26.0,26.0,26.0,-0.0535,0.2964,0.1393666666666667,293.762,-2.7252,-2.4795555555555557,-1.5283,-1.5301,-275.69,215.8675,190.98775,0.0,0.0,0.0,0.0,0.0015666666666666051,-5.498166666666667,-5.498166666666667,-0.551,1.469,-0.008333333333333304,-1.125,65.488,-0.0369,-0.2119,0.516,100.0,1.0,1.0,202.18,0.0,0.0,0.0,0.0,0.0,0.0,0.0,8569.7,0.0,55.0,5.0,235.7266666666667,0.0,0.0,0.0,0.0,0.0,0.0,0.0,0.0,0.0030000000000001137,0.0030000000000001137,0.0,0.0,0.0,55.0,616.79921,10000.0,85.0,85.0,85.0,85.0,395.0,0.0,0.0,0.0,1.0,20.0,52.078,52.078,49.194,49.194,34.0,-29.04,25.081666666666667,-30.446666666666665,24.445,0.0,1783.683,0.75,100.0,26.936,26.791,40.373,40.218,0.0,0.0,100.0,0.0,0.0,0.0,0.0,3237.285714285714,3767.0,4118.25,4016.5,305.04,302.6455,314.86633333333333,314.776,21.786,20.5198,21.7765,21.3022,314.99999,314.99999,324.99998,324.99998,99.55957142857143,99.50733333333334,99.56565714285715,99.54482857142857,-0.0076666666666665995,-0.11399999999999999,-0.15916666666666657,0.05833333333333335,-0.060000000000002274,-0.057142857142849834,1.5405000000000002,1.578,37.163,29.249000000000002,37.102999999999994,34.1385,56.492999999999995,34.572,59.2195,51.4935,54.394,33.7245,57.8405,49.8605,53.556,33.2715,57.804,49.290333333333336,-0.02949999999999986,-0.1200000000000001,0.10676000000000001,0.10691,0.0,205.21,205.17000000000002,202.18,202.18,0.0,0.0
1,0.0,0.0,0.0,1.0,1.0,0.0,0.0,1.0,0.0,0.0,1.0,1.1856,26.0,0.0,0.0,0.0,59.999996,0.0,26.0,26.0,26.0,26.0,-0.112875,0.3197000000000001,0.26266666666666666,293.015,-2.6545,-2.713111111111111,-1.5412,-1.3755,-272.15,215.8875,190.966625,0.0,0.0,0.0,0.0,0.0036333333333333773,-5.498166666666667,-5.498166666666667,-0.4864,-1.4953333333333332,-0.05744444444444419,-0.9359999999999999,65.654,-0.046400000000000004,-0.18912500000000002,1.1720000000000006,100.0,1.0,1.0,202.21333333333334,0.0,0.0,0.0,0.0,0.0,0.0,0.0,8571.1,0.0,55.0,5.0,236.32333333333332,1.0,0.0,0.0,0.0,0.0,0.0,0.0,0.0,0.05699999999999861,0.05699999999999861,0.0,0.0,1.0,55.0,616.79921,10000.0,85.000001,85.000001,85.000001,85.000001,395.0,0.0,0.0,0.0,1.0,166.665,54.337,54.337,48.141,48.141,34.0,-26.189999999999998,16.118333333333332,-36.94,27.41,0.0,1783.63,0.754999999999999,100.0,27.176,26.708,42.39,42.346000000000004,0.0,0.0,100.0,0.0,0.0,0.0,0.0,3029.857142857143,2466.8,4582.625,4931.5,305.717,306.926,313.5973333333333,312.4085,21.7965,20.525199999999998,21.788,21.3119,314.999998,314.999998,324.999988,324.999988,99.55957142857143,99.50735,99.5658,99.545,-0.007333333333333303,-0.1366666666666666,-0.17366666666666664,0.027166666666666783,-0.05666666666667197,-0.04142857142856826,1.3359999999999999,1.403,37.227999999999994,29.282333333333334,37.175,34.1995,56.474000000000004,34.6135,59.268,51.5655,54.376999999999995,33.763,57.885999999999996,49.9295,53.538,33.3085,57.8465,49.358333333333334,-0.011500000000000066,-0.13200000000000012,0.10785000000000002,0.097165,0.0,205.72500000000002,205.585,202.21333333333334,202.21333333333334,0.0,0.0
2,0.0,0.0,0.0,1.0,1.0,0.0,0.0,1.0,0.0,0.0,1.0,1.1856,26.0,0.0,0.0,0.0,59.999996,0.0,26.0,26.0,26.0,26.0,-0.120375,0.28700000000000014,-0.10703333333333333,294.205,-2.6132,-2.773111111111111,-1.5053,-1.5386000000000002,-269.0,215.9,190.949,0.0,0.0,0.0,0.0,0.005466666666666509,-5.498166666666667,-5.498166666666667,-0.5631,0.24,-0.03944444444444439,1.5110000000000001,65.783,-0.062200000000000005,-0.26255,1.482000000000001,100.0,1.0,1.0,203.42000000000002,0.0,0.0,0.0,0.0,0.0,0.0,0.0,8622.2,0.0,55.0,5.0,236.79000000000002,0.0,0.0,0.0,0.0,0.0,0.0,0.0,0.0,0.10500000000000043,0.10500000000000043,0.0,0.0,0.0,55.0,616.79921,10000.0,85.000001,85.000001,85.000001,85.000001,395.0,0.0,0.0,0.0,1.0,166.665,52.582,52.582,50.858000000000004,50.858000000000004,34.0,-30.9375,19.793333333333333,-27.256666666666668,17.7575,0.0,1783.582,0.865000000000002,100.0,27.967,26.834,42.087,41.26,0.0,0.0,100.0,0.0,0.0,0.0,0.0,3408.142857142857,2945.2,3623.5,3363.3,304.457,305.39025,315.9866666666667,316.5065,21.8061,20.5299,21.7978,21.32,314.999998,314.999998,324.999988,324.999988,99.55957142857143,99.50736666666667,99.56592857142857,99.54511428571429,-0.031333333333333324,-0.15100000000000002,-0.2058333333333333,0.022833333333333483,-0.04333333333332945,-0.04571428571428271,1.697,1.75,37.288,29.311999999999998,37.236000000000004,34.2495,56.462,34.6515,59.3015,51.614,54.364999999999995,33.7975,57.917500000000004,49.9765,53.525,33.341499999999996,57.8755,49.403999999999996,-0.013500000000000068,-0.13850000000000007,0.10307000000000001,0.10898000000000001,0.0,206.115,205.97500000000002,203.42000000000002,203.42000000000002,0.0,0.0
3,0.0,0.0,0.0,1.0,1.0,0.0,0.0,1.0,0.0,0.0,1.0,1.1856,26.0,0.0,0.0,0.0,59.999996,0.0,26.0,26.0,26.0,26.0,-0.14225000000000002,0.30580000000000007,-0.03623333333333333,293.488,-2.6445,-2.708333333333333,-1.4991,-1.5796999999999999,-265.84,215.9125,190.930125,0.0,0.0,0.0,0.0,0.007333333333333303,-5.498166666666667,-5.498166666666667,-0.5041,0.7116666666666667,-0.015666666666666718,-1.658,65.929,-0.0825,-0.19035000000000002,1.2720000000000002,100.0,1.0,1.0,203.37,0.0,0.0,0.0,0.0,0.0,0.0,0.0,8620.1,0.0,55.0,5.0,237.31333333333333,1.0,0.0,0.0,0.0,0.0,0.0,0.0,0.0,0.1529999999999987,0.1529999999999987,0.0,0.0,1.0,55.0,616.79921,10000.0,85.000001,85.000001,85.000001,85.000001,395.0,0.0,0.0,0.0,1.0,333.33500000000004,53.619,53.619,48.05,48.05,34.0,-26.6,17.798333333333332,-36.38333333333333,23.915,0.0,1783.534,0.9149999999999991,100.0,27.618,27.032,42.091,41.409,0.0,0.0,100.0,0.0,0.0,0.0,0.0,2970.285714285714,2792.6,4463.75,4179.1,305.897,305.7465,313.9873333333333,314.44475,21.8154,20.5349,21.8076,21.3283,314.999998,314.999998,324.999988,324.999988,99.55957142857143,99.50738333333334,99.56605714285715,99.54524285714285,-0.035666666666666624,-0.16133333333333333,-0.20866666666666667,0.009333333333333416,-0.03833333333332689,-0.03285714285714647,1.4529999999999998,1.513,37.346000000000004,29.343,37.298,34.302,56.446,34.692,59.338499999999996,51.675,54.349999999999994,33.835,57.951499999999996,50.0345,53.509,33.3775,57.907,49.461333333333336,-0.010999999999999899,-0.1339999999999999,0.10581000000000002,0.104275,0.0,206.60000000000002,206.495,203.37,203.37,0.0,0.0
4,0.0,0.0,0.0,1.0,1.0,0.0,0.0,1.0,0.0,0.0,1.0,1.1856,26.0,0.0,0.0,0.0,59.999996,0.0,26.0,26.0,26.0,26.0,-0.140875,0.28290000000000015,-0.001966666666666667,293.655,-2.6616,-2.788666666666667,-1.4354,-1.5984,-262.27,215.9225,190.909375,0.0,0.0,0.0,0.0,0.009399999999999964,-5.498166666666667,-5.498166666666667,-0.5361,-0.8303333333333334,-0.07933333333333348,-1.4220000000000002,66.084,-0.093,-0.2343,1.5540000000000003,100.0,1.0,1.0,203.98000000000002,0.0,0.0,0.0,0.0,0.0,0.0,0.0,8645.9,0.0,55.0,5.0,237.87333333333333,0.0,0.0,0.0,0.0,0.0,0.0,0.0,0.0,0.20700000000000074,0.20700000000000074,0.0,0.0,0.0,55.0,616.79921,10000.0,85.000001,85.000001,85.000001,85.000001,395.0,0.0,0.0,0.0,1.0,166.665,53.299,53.299,48.751999999999995,48.751999999999995,34.0,-30.997500000000002,18.281666666666666,-33.21333333333333,20.439999999999998,0.0,1783.481,0.9499999999999993,100.0,27.48,26.639,42.847,41.552,0.0,0.0,100.0,0.0,0.0,0.0,0.0,3310.857142857143,2835.6,4183.125,3723.2,304.913,305.6625,314.6773333333333,315.517,21.8258,20.5402,21.819,21.3378,314.999998,314.999998,324.999988,324.999988,99.55958571428572,99.5074,99.56622857142857,99.5454,-0.050999999999999934,-0.17299999999999993,-0.2263333333333334,0.002666666666666595,-0.05666666666667197,-0.0357142857142847,1.5465,1.6195,37.411,29.376333333333335,37.369,34.361,56.429,34.7355,59.3835,51.7385,54.333,33.875,57.994,50.0955,53.492000000000004,33.416,57.946,49.521,0.0,-0.14349999999999996,0.10733500000000001,0.10780500000000001,0.0,207.01999999999998,206.9,203.98000000000002,203.98000000000002,0.0,0.0
5,0.0,0.0,0.0,1.0,1.0,0.0,0.0,1.0,0.0,0.0,1.0,1.1856,26.0,0.0,0.0,0.0,59.999996,0.0,26.0,26.0,26.0,26.0,-0.143375,0.2976000000000001,-0.03086666666666667,293.854,-2.6782,-2.755333333333333,-1.5122,-1.6255000000000002,-259.1,215.9275,190.890375,0.0,0.0,0.0,0.0,0.011233333333333317,-5.498166666666667,-5.498166666666667,-0.5379,0.4216666666666667,-0.0812222222222223,-0.53,66.221,-0.1071,-0.2172,1.5340000000000007,100.0,1.0,1.0,204.44333333333333,0.0,0.0,0.0,0.0,0.0,0.0,0.0,8665.6,0.0,55.0,5.0,238.36666666666667,1.0,0.0,0.0,0.0,0.0,0.0,0.0,0.0,0.254999999999999,0.254999999999999,0.0,0.0,1.0,55.0,616.79921,10000.0,85.000001,85.000001,85.000001,85.000001,395.0,0.0,0.0,0.0,1.0,166.665,53.528,53.528,49.271,49.271,34.0,-30.53,17.596666666666668,-34.23,21.127499999999998,0.0,1783.433,0.7899999999999991,100.0,27.619,26.548000000000002,42.533,41.089,0.0,0.0,100.0,0.0,0.0,0.0,0.0,3244.5714285714284,2772.9,4103.125,3923.3,305.0715,305.882,314.9123333333333,315.0955,21.8352,20.545,21.8288,21.3459,314.999998,314.999998,324.999988,324.999988,99.5596,99.50741666666667,99.56635714285714,99.54552857142858,-0.05233333333333334,-0.17133333333333334,-0.245,-0.016000000000000014,-0.045000000000001705,-0.048571428571428044,1.5585,1.6205,37.47,29.406333333333336,37.43,34.412,56.416,34.7745,59.42,51.792,54.321,33.911,58.028,50.147,53.479,33.45,57.9775,49.571,-0.01949999999999985,-0.13050000000000006,0.1101,0.10829000000000001,0.0,207.485,207.385,204.44333333333333,204.44333333333333,0.0,0.0
6,0.0,0.0,0.0,1.0,1.0,0.0,0.0,1.0,0.0,0.0,1.0,1.1856,26.0,0.0,0.0,0.0,59.999996,0.0,26.0,26.0,26.0,26.0,-0.162375,0.2854000000000001,0.0188,293.51800000000003,-2.626,-2.8101111111111114,-1.5354999999999999,-1.5897999999999999,-255.91,215.9275,190.870875,0.0,0.0,0.0,0.0,0.0131,-5.498166666666667,-5.498166666666667,-0.5254,0.043666666666666666,-0.08355555555555583,-0.885,66.36,-0.1134,-0.20465,1.3520000000000003,100.0,1.0,1.0,204.75666666666666,0.0,0.0,0.0,0.0,0.0,0.0,0.0,8678.9,0.0,55.0,5.0,238.86666666666667,0.0,0.0,0.0,0.0,0.0,0.0,0.0,0.0,0.3030000000000008,0.3030000000000008,0.0,0.0,0.0,55.0,616.79921,10000.0,85.000001,85.000001,85.000001,85.000001,395.0,0.0,0.0,0.0,1.0,166.665,53.497,53.497,48.553,48.553,34.0,-29.9825,17.845,-36.54666666666667,21.1,0.0,1783.385,0.46999999999999886,100.0,27.605,26.561,42.794,41.347,0.0,0.0,100.0,0.0,0.0,0.0,0.0,3246.4285714285716,2774.6,4292.625,4012.1000000000004,305.0785,305.82825,314.43333333333334,314.84525,21.8446,20.5498,21.8388,21.3543,314.999998,314.999998,324.999988,324.999988,99.55961428571429,99.50743333333334,99.5665,99.54565714285714,-0.05033333333333334,-0.17799999999999994,-0.23949999999999994,-0.02300000000000002,-0.07166666666666544,-0.02571428571428669,1.499,1.562,37.528999999999996,29.436,37.492000000000004,34.4645,56.403,34.8135,59.4585,51.85,54.308,33.947,58.064,50.202,53.466,33.4845,58.010999999999996,49.625,-0.02949999999999986,-0.11799999999999988,0.101635,0.105215,0.0,207.925,207.79500000000002,204.75666666666666,204.75666666666666,0.0,0.0
7,0.0,0.0,0.0,1.0,1.0,0.0,0.0,1.0,0.0,0.0,1.0,1.1856,26.0,0.0,0.0,0.0,59.999996,0.0,26.0,26.0,26.0,26.0,-0.12775,0.29720000000000013,0.015700000000000002,293.396,-2.585,-2.8129999999999997,-1.4894,-1.6376,-252.53,215.925,190.8505,0.0,0.0,0.0,0.0,0.015066666666666562,-5.498166666666667,-5.498166666666667,-0.5349,0.04133333333333334,-0.0735555555555556,1.055,66.505,-0.11270000000000001,-0.22232500000000002,1.0700000000000003,100.0,1.0,1.0,205.24333333333334,0.0,0.0,0.0,0.0,0.0,0.0,0.0,8699.5,0.0,55.0,5.0,239.39,1.0,0.0,0.0,0.0,0.0,0.0,0.0,0.0,0.3539999999999992,0.3539999999999992,0.0,0.0,1.0,55.0,616.79921,10000.0,85.000001,85.000001,85.000001,85.000001,395.0,0.0,0.0,0.0,1.0,166.665,53.04,53.04,48.92,48.92,34.0,-27.855,20.593333333333334,-32.766666666666666,22.2825,0.0,1783.333,0.120000000000001,100.0,28.018,26.535,42.97,41.417,0.0,0.0,100.0,0.0,0.0,0.0,0.0,3208.142857142857,2955.7,4054.0,3991.1000000000004,304.948,305.39275,314.8976666666667,314.92825,21.8547,20.5549,21.8494,21.3632,314.999998,314.999998,324.999988,324.999988,99.55961428571429,99.50745,99.56662857142857,99.5458,-0.010333333333333306,-0.1416666666666666,-0.22366666666666657,-0.008499999999999952,-0.051666666666669414,-0.05142857142856627,1.5354999999999999,1.5755,37.592,29.468,37.559,34.519999999999996,56.388999999999996,34.8545,59.499,51.9105,54.295,33.985,58.102000000000004,50.26,53.452,33.521,58.046,49.681666666666665,-0.0645,-0.08850000000000025,0.10123000000000001,0.10633500000000001,0.0,208.345,208.245,205.24333333333334,205.24333333333334,0.0,0.0
8,0.0,0.0,0.0,1.0,1.0,0.0,0.0,1.0,0.0,0.0,1.0,1.1856,26.0,0.0,0.0,0.0,59.999996,0.0,26.0,26.0,26.0,26.0,-0.097,0.2861,-0.018166666666666668,293.503,-2.6701,-2.7426666666666666,-1.4723,-1.6291,-249.13,215.92000000000002,190.82975,0.0,0.0,0.0,0.0,0.017033333333333345,-5.498166666666667,-5.498166666666667,-0.5351,-0.43233333333333335,-0.06199999999999983,-0.7290000000000001,66.651,-0.0994,-0.21585000000000001,0.6180000000000003,100.0,1.0,1.0,205.63,0.0,0.0,0.0,0.0,0.0,0.0,0.0,8715.9,0.0,55.0,5.0,239.91666666666669,0.0,0.0,0.0,0.0,0.0,0.0,0.0,0.0,0.40500000000000114,0.40500000000000114,0.0,0.0,0.0,55.0,616.79921,10000.0,85.000001,85.000001,85.000001,85.000001,395.0,0.0,0.0,0.0,1.0,333.33500000000004,53.604,53.604,48.278999999999996,48.278999999999996,34.0,-27.240000000000002,19.64333333333333,-33.166666666666664,24.0075,0.0,1783.282,0.019999999999999574,100.0,27.514,26.694,42.969,41.647999999999996,0.0,0.0,100.0,0.0,0.0,0.0,0.0,3102.5714285714284,2859.5,4170.0,4030.7,305.5195,305.612,314.6616666666667,314.7375,21.8645,20.56,21.8599,21.3721,314.999998,314.999998,324.999988,324.999988,99.55961428571429,99.50746666666667,99.56678571428571,99.54594285714286,-0.01100000000000001,-0.1333333333333333,-0.21133333333333337,0.017000000000000126,-0.04333333333332945,-0.06428571428571672,1.4985,1.5335,37.653,29.5,37.625,34.576,56.372,34.8945,59.539500000000004,51.971000000000004,54.278999999999996,34.0215,58.14,50.318,53.435,33.556,58.081,49.73833333333333,-0.07499999999999996,-0.07050000000000001,0.10486500000000001,0.11490000000000002,0.0,208.775,208.72,205.63,205.63,0.0,0.0
9,0.0,0.0,0.0,1.0,1.0,0.0,0.0,1.0,0.0,0.0,1.0,1.1856,26.0,0.0,0.0,0.0,59.999996,0.0,26.0,26.0,26.0,26.0,-0.07087500000000001,0.28080000000000016,-0.012833333333333335,293.289,-2.5922,-2.763777777777778,-1.5243,-1.5838999999999999,-245.93,215.9125,190.810125,0.0,0.0,0.0,0.0,0.018899999999999917,-5.498166666666667,-5.498166666666667,-0.5389,0.47733333333333333,-0.06844444444444431,-0.42500000000000004,66.786,-0.0824,-0.2152,0.4499999999999993,100.0,1.0,1.0,206.13333333333333,0.0,0.0,0.0,0.0,0.0,0.0,0.0,8737.2,0.0,55.0,5.0,240.4,1.0,0.0,0.0,0.0,0.0,0.0,0.0,0.0,0.4529999999999994,0.4529999999999994,0.0,0.0,1.0,55.0,616.79921,10000.0,85.000001,85.000001,85.000001,85.000001,395.0,0.0,0.0,0.0,1.0,166.665,52.75,52.75,49.072,49.072,34.0,-28.145,21.314999999999998,-31.866666666666667,23.84,0.0,1783.235,-0.16000000000000014,100.0,27.915,26.946,42.696,41.586,0.0,0.0,100.0,0.0,0.0,0.0,0.0,3365.4285714285716,2906.7,4077.0,4000.3,304.6565,305.41975,314.9563333333333,314.91,21.8739,20.565,21.869799999999998,21.3805,314.999998,314.999998,324.999988,324.999988,99.55961428571429,99.50748333333334,99.56692857142858,99.54607142857142,0.014666666666666606,-0.10633333333333339,-0.19599999999999995,0.03400000000000003,-0.060000000000002274,-0.03714285714285381,1.5510000000000002,1.561,37.712,29.531,37.686,34.628,56.358000000000004,34.933,59.5755,52.0265,54.266,34.057,58.173,50.3715,53.421,33.5895,58.1115,49.790333333333336,-0.08699999999999997,-0.05699999999999994,0.10587,0.11417000000000001,0.0,209.2,209.15,206.13333333333333,206.13333333333333,0.0,0.0
10,0.0,0.0,0.0,1.0,1.0,0.0,0.0,1.0,0.0,0.0,1.0,1.1856,26.0,0.0,0.0,0.0,59.999996,0.0,26.0,26.0,26.0,26.0,-0.0605,0.29610000000000003,-0.023966666666666667,293.213,-2.6657,-2.713888888888889,-1.5,-1.5582,-242.32,215.9025,190.788125,0.0,0.0,0.0,0.0,0.020999999999999908,-5.498166666666667,-5.498166666666667,-0.5235000000000001,-0.509,-0.0303333333333331,0.19599999999999995,66.941,-0.0575,-0.21015,0.07399999999999984,100.0,1.0,1.0,206.44,0.0,0.0,0.0,0.0,0.0,0.0,0.0,8750.3,0.0,55.0,5.0,240.95666666666665,0.0,0.0,0.0,0.0,0.0,0.0,1.0,0.0,0.5069999999999979,0.5069999999999979,0.0,0.0,0.0,55.0,616.79921,10000.0,85.000001,85.000001,85.000001,85.000001,395.0,0.0,0.0,0.0,1.0,166.665,53.558,53.558,48.035,48.035,34.0,-24.9,20.49666666666667,-32.626666666666665,26.105,0.0,1783.18,-0.2049999999999983,100.0,27.722,26.918,43.013,42.165,0.0,0.0,100.0,0.0,0.0,0.0,0.0,3023.714285714286,2830.8,4251.375,4200.6,305.7315,305.731,314.4916666666667,314.35425,21.8843,20.5705,21.8811,21.3901,314.999998,314.999998,324.999988,324.999988,99.55961428571429,99.5075,99.56707142857142,99.54622857142857,0.02733333333333321,-0.09833333333333338,-0.1785,0.049833333333333174,-0.05333333333332746,-0.04142857142856826,1.4945,1.4969999999999999,37.777,29.565333333333335,37.757,34.688,56.341,34.9735,59.619,52.093,54.25,34.0945,58.214,50.435,53.405,33.6255,58.1495,49.852666666666664,-0.09899999999999998,-0.05149999999999988,0.11066500000000001,0.106965,0.0,209.64499999999998,209.615,206.44,206.44,0.0,0.0
11,0.0,0.0,0.0,1.0,1.0,0.0,0.0,1.0,0.0,0.0,1.0,1.1856,26.0,0.0,0.0,0.0,59.999996,0.0,26.0,26.0,26.0,26.0,-0.057,0.27500000000000013,-0.06353333333333334,293.64,-2.6713,-2.708333333333333,-1.5518,-1.5312999999999999,-238.9,215.89,190.76725,0.0,0.0,0.0,0.0,0.022599999999999953,-5.498166666666667,-5.498166666666667,-0.5562,-0.03933333333333334,-0.005444444444444585,0.583,67.08,-0.0354,-0.228975,-0.047999999999999154,100.0,1.0,1.0,207.11,0.0,0.0,0.0,0.0,0.0,0.0,0.0,8778.6,0.0,55.0,5.0,241.46,1.0,0.0,0.0,0.0,0.0,0.0,1.0,0.0,0.5579999999999998,0.5579999999999998,0.0,0.0,1.0,55.0,616.79921,10000.0,85.000001,85.000001,85.000001,85.000001,395.0,0.0,0.0,0.0,1.0,166.665,53.162,53.162,49.24,49.24,34.0,-24.7875,22.891666666666666,-27.21333333333333,24.6725,0.0,1783.129,-0.5500000000000007,100.0,27.596,26.962,42.583,42.004,0.0,0.0,100.0,0.0,0.0,0.0,0.0,3060.0,3081.1,3807.5,3936.9,305.4635,305.097,315.593,315.13475,21.894,20.5758,21.8914,21.399,314.999998,314.999998,324.999988,324.999988,99.55962857142858,99.5075,99.56721428571429,99.54635714285715,0.04499999999999993,-0.08699999999999997,-0.1466666666666666,0.0798333333333332,-0.041666666666671404,-0.06857142857143117,1.6110000000000002,1.6145,37.838,29.598666666666666,37.822,34.744,56.325,35.013,59.653999999999996,52.1525,54.233999999999995,34.1305,58.2465,50.492,53.388,33.6605,58.179,49.90866666666666,-0.09399999999999986,-0.06000000000000005,0.11178500000000001,0.09770000000000001,0.0,210.075,210.07,207.11,207.11,0.0,0.0
12,0.0,0.0,0.0,1.0,1.0,0.0,0.0,1.0,0.0,0.0,1.0,1.1856,26.0,0.0,0.0,0.0,59.999996,0.0,26.0,26.0,26.0,26.0,-0.025875000000000002,0.2904,0.015600000000000001,293.167,-2.7367,-2.7094444444444443,-1.5296,-1.5762,-235.88,215.8775,190.747875,0.0,0.0,0.0,0.0,0.025466666666666526,-5.498166666666667,-5.498166666666667,-0.5441,0.29,-0.011444444444444368,-0.72,67.208,-0.0196,-0.205025,-0.1200000000000001,100.0,1.0,1.0,207.32666666666665,0.0,0.0,0.0,0.0,0.0,0.0,0.0,8787.9,0.0,55.0,5.0,241.92000000000002,0.0,0.0,0.0,0.0,0.0,0.0,1.0,0.0,0.602999999999998,0.602999999999998,0.0,0.0,0.0,55.0,616.79921,10000.0,85.000001,85.000001,85.000001,85.000001,395.0,0.0,0.0,0.0,1.0,333.33500000000004,53.04,53.04,48.218,48.218,34.0,-27.5375,22.113333333333333,-29.92,27.4875,0.0,1783.083,0.5350000000000001,100.0,27.365,27.241,42.437,42.049,0.0,0.0,100.0,0.0,0.0,0.0,0.0,3186.285714285714,3026.8,4215.75,4126.5,305.287,305.07325,314.64233333333334,314.58125,21.9026,20.5805,21.9007,21.4069,314.999998,314.999998,324.999988,324.999988,99.55962857142858,99.50751666666666,99.56734285714286,99.5465,0.016666666666666607,-0.09999999999999998,-0.12916666666666665,0.08600000000000008,-0.03166666666666629,-0.057142857142849834,1.524,1.5365,37.891,29.628333333333334,37.879000000000005,34.7935,56.312,35.0465,59.6875,52.2055,54.222,34.161500000000004,58.2775,50.5435,53.375,33.69,58.208,49.959,-0.05449999999999999,-0.08899999999999997,0.10587500000000001,0.10395000000000001,0.0,210.465,210.495,207.32666666666665,207.32666666666665,0.0,0.0
13,0.0,0.0,0.0,1.0,1.0,0.0,0.0,1.0,0.0,0.0,1.0,1.1856,26.0,0.0,0.0,0.0,59.999996,0.0,26.0,26.0,26.0,26.0,0.011625,0.2842,0.03146666666666667,292.755,-2.6705,-2.7122222222222225,-1.5548000000000002,-1.564,-232.24,215.865,190.724875,0.0,0.0,0.0,0.0,0.026833333333333376,-5.498166666666667,-5.498166666666667,-0.5385,-0.167,-0.015555555555555767,-0.3900000000000001,67.35900000000001,-0.0122,-0.2142,-0.08399999999999963,100.0,1.0,1.0,207.72333333333333,0.0,0.0,0.0,0.0,0.0,0.0,0.0,8804.6,0.0,55.0,5.0,242.46333333333334,1.0,0.0,0.0,0.0,0.0,0.0,1.0,0.0,0.657,0.657,0.0,0.0,1.0,55.0,616.79921,10000.0,85.000001,85.000001,85.000001,85.000001,395.0,0.0,0.0,0.0,1.0,166.665,52.704,52.704,48.08,48.08,34.0,-24.355,23.715,-30.063333333333333,28.64,0.0,1783.031,-0.3099999999999987,100.0,27.758,27.499,42.756,42.588,0.0,0.0,100.0,0.0,0.0,0.0,0.0,3207.5714285714284,2999.1,4222.375,4222.3,305.1715,305.156,314.589,314.32875,21.9129,20.5863,21.9119,21.4166,314.999998,314.999998,324.999988,324.999988,99.55964285714286,99.50751666666666,99.5675,99.54664285714286,0.08200000000000007,-0.055333333333333345,-0.1213333333333334,0.09299999999999997,-0.04333333333332945,-0.054285714285711606,1.5070000000000001,1.5025,37.955,29.664,37.949,34.854,56.297,35.0875,59.7285,52.2725,54.208,34.1995,58.316,50.6075,53.36,33.7265,58.243,50.02166666666667,-0.10949999999999993,-0.04700000000000015,0.098915,0.107825,0.0,210.945,210.94,207.72333333333333,207.72333333333333,0.0,0.0
14,0.0,0.0,0.0,1.0,1.0,0.0,0.0,1.0,0.0,0.0,1.0,1.1856,26.0,0.0,0.0,0.0,59.999996,0.0,26.0,26.0,26.0,26.0,-0.002,0.2803,-0.0155,292.923,-2.6928,-2.716222222222222,-1.5624,-1.5472000000000001,-228.8,215.85,190.703625,0.0,0.0,0.0,0.0,0.028833333333333377,-5.498166666666667,-5.498166666666667,-0.5499,-0.073,0.01444444444444426,1.127,67.499,-0.0031000000000000003,-0.22705,-0.2560000000000002,100.0,1.0,1.0,208.24,0.0,0.0,0.0,0.0,0.0,0.0,0.0,8826.5,0.0,55.0,5.0,242.97,0.0,0.0,0.0,0.0,0.0,0.0,1.0,0.0,0.7079999999999984,0.7079999999999984,0.0,0.0,0.0,55.0,616.79921,10000.0,85.000001,85.000001,85.000001,85.000001,395.0,0.0,0.0,0.0,1.0,166.665,52.673,52.673,48.263999999999996,48.263999999999996,34.0,-22.9575,25.528333333333332,-27.046666666666667,28.915,0.0,1782.979,-0.33500000000000085,100.0,27.878,27.529,42.791,42.66,0.0,0.0,100.0,0.0,0.0,0.0,0.0,2998.4285714285716,3157.4,3964.0,4169.2,305.636,304.76675,315.159,314.548,21.9226,20.5917,21.9224,21.4257,314.999998,314.999998,324.999988,324.999988,99.55965714285715,99.50753333333333,99.56764285714286,99.54678571428572,0.08066666666666666,-0.04499999999999993,-0.10516666666666663,0.11516666666666686,-0.03499999999999659,-0.047142857142851824,1.5535,1.527,38.016,29.698,38.015,34.9105,56.284,35.1255,59.765,52.334,54.195,34.2345,58.35,50.6665,53.346000000000004,33.76,58.274,50.07933333333334,-0.10050000000000003,-0.05149999999999988,0.10468500000000001,0.10830000000000001,0.0,211.37,211.365,208.24,208.24,0.0,0.0
15,0.0,0.0,0.0,1.0,1.0,0.0,0.0,1.0,0.0,0.0,1.0,1.1856,26.0,0.0,0.0,0.0,59.999996,0.0,26.0,26.0,26.0,26.0,0.019625,0.2773000000000001,0.017166666666666667,292.847,-2.6973,-2.6813333333333333,-1.5823,-1.5561,-225.56,215.8375,190.683125,0.0,0.0,0.0,0.0,0.03073333333333339,-5.498166666666667,-5.498166666666667,-0.5404,0.259,0.03400000000000003,0.6599999999999999,67.631,0.006500000000000001,-0.20922500000000002,-0.30600000000000005,100.0,1.0,1.0,208.62666666666667,0.0,0.0,0.0,0.0,0.0,0.0,0.0,8842.9,0.0,55.0,5.0,243.44333333333333,1.0,0.0,0.0,0.0,0.0,0.0,1.0,0.0,0.7560000000000002,0.7560000000000002,0.0,0.0,1.0,55.0,616.79921,10000.0,85.000001,85.000001,85.000001,85.000001,395.0,0.0,0.0,0.0,1.0,166.665,52.841,52.841,48.157,48.157,34.0,-21.94,25.085,-27.56666666666667,30.98,0.0,1782.932,-0.28000000000000114,100.0,27.908,27.612000000000002,42.650999999999996,42.794,0.0,0.0,100.0,0.0,0.0,0.0,0.0,2905.142857142857,3118.0,4009.875,4313.3,305.9335,304.8805,315.075,314.15975,21.9316,20.5969,21.9322,21.4342,314.999998,314.999998,324.999988,324.999988,99.55965714285715,99.50753333333333,99.56778571428572,99.54692857142857,0.08600000000000008,-0.03966666666666663,-0.10099999999999998,0.12616666666666676,-0.04333333333332945,-0.048571428571428044,1.5265,1.5110000000000001,38.073,29.730333333333334,38.076,34.964,56.271,35.161,59.7985,52.3925,54.183,34.2675,58.381,50.7225,53.333,33.792,58.302,50.13433333333333,-0.09299999999999997,-0.05449999999999999,0.11162500000000002,0.10976500000000002,0.0,211.785,211.8,208.62666666666667,208.62666666666667,0.0,0.0
16,0.0,0.0,0.0,1.0,1.0,0.0,0.0,1.0,0.0,0.0,1.0,1.1856,26.0,0.0,0.0,0.0,59.999996,0.0,26.0,26.0,26.0,26.0,0.006625,0.2771000000000001,-0.016800000000000002,292.862,-2.7533,-2.6337777777777776,-1.5556,-1.5590000000000002,-222.31,215.825,190.662375,0.0,0.0,0.0,0.0,0.0326333333333334,-5.498166666666667,-5.498166666666667,-0.5578000000000001,-0.6543333333333334,0.019444444444444375,0.241,67.763,0.015300000000000001,-0.2243,-0.3099999999999996,100.0,1.0,1.0,209.01999999999998,0.0,0.0,0.0,0.0,0.0,0.0,0.0,8859.6,0.0,55.0,5.0,243.92000000000002,0.0,0.0,0.0,0.0,0.0,0.0,1.0,0.0,0.8039999999999985,0.8039999999999985,0.0,0.0,0.0,55.0,616.79921,10000.0,85.000001,85.000001,85.000001,85.000001,395.0,0.0,0.0,0.0,1.0,166.665,52.765,52.765,47.913,47.913,34.0,-23.2425,25.39,-26.84666666666667,29.55,0.0,1782.884,-0.16000000000000014,100.0,27.582,27.588,42.948,42.888,0.0,0.0,100.0,0.0,0.0,0.0,0.0,3043.5714285714284,3203.3,4002.5,4117.0,305.62,304.73475,315.06766666666664,314.61,21.9405,20.602,21.9422,21.4428,314.999998,314.999998,324.999988,324.999988,99.55967142857143,99.50753333333333,99.56791428571428,99.54705714285714,0.09333333333333327,-0.037666666666666626,-0.09566666666666657,0.13083333333333336,-0.04999999999999716,-0.04999999999999716,1.5445000000000002,1.524,38.128,29.762666666666668,38.138999999999996,35.0175,56.256,35.197,59.835,52.4495,54.168,34.3005,58.415,50.7775,53.318,33.823499999999996,58.3335,50.18866666666666,-0.09149999999999991,-0.06099999999999994,0.114055,0.106315,0.0,212.18,212.19,209.01999999999998,209.01999999999998,0.0,0.0
17,0.0,0.0,0.0,1.0,1.0,0.0,0.0,1.0,0.0,0.0,1.0,1.1856,26.0,0.0,0.0,0.0,59.999996,0.0,26.0,26.0,26.0,26.0,0.00425,0.29700000000000015,0.017266666666666666,292.618,-2.7186,-2.6132222222222223,-1.5966,-1.5191,-218.85,215.8125,190.64,0.0,0.0,0.0,0.0,0.034633333333333294,-5.498166666666667,-5.498166666666667,-0.5497000000000001,0.396,-0.004222222222222349,-0.855,67.902,0.014700000000000001,-0.2068,-0.07200000000000006,100.0,1.0,1.0,209.42666666666668,0.0,0.0,0.0,0.0,0.0,0.0,0.0,8876.9,0.0,55.0,5.0,244.42000000000002,1.0,0.0,0.0,0.0,0.0,0.0,1.0,0.0,0.8550000000000004,0.8550000000000004,0.0,0.0,1.0,55.0,616.79921,10000.0,85.000001,85.000001,85.000001,85.000001,395.0,0.0,0.0,0.0,1.0,166.665,52.551,52.551,47.897,47.897,34.0,-24.487499999999997,23.358333333333334,-30.263333333333335,28.855,0.0,1782.832,-0.14999999999999858,100.0,27.857,27.934,42.644999999999996,42.877,0.0,0.0,100.0,0.0,0.0,0.0,0.0,3202.4285714285716,3008.3,4295.25,4196.5,305.275,305.168,314.53866666666664,314.478,21.9502,20.6076,21.9526,21.4518,314.999998,314.999998,324.999988,324.999988,99.55968571428572,99.50755,99.56805714285714,99.54721428571429,0.08633333333333337,-0.044333333333333336,-0.10633333333333339,0.11716666666666686,-0.061666666666667425,-0.02571428571428669,1.5230000000000001,1.5325,38.189,29.797333333333334,38.204,35.074,56.242999999999995,35.2355,59.871,52.51,54.157,34.3365,58.448499999999996,50.836,53.305,33.858000000000004,58.3635,50.245333333333335,-0.09050000000000002,-0.06050000000000022,0.10659,0.10132500000000001,0.0,212.64499999999998,212.625,209.42666666666668,209.42666666666668,0.0,0.0
18,0.0,0.0,0.0,1.0,1.0,0.0,0.0,1.0,0.0,0.0,1.0,1.1856,26.0,0.0,0.0,0.0,59.999996,0.0,26.0,26.0,26.0,26.0,0.004,0.28669999999999995,-0.011733333333333333,292.526,-2.741,-2.599222222222222,-1.6017000000000001,-1.4748,-215.59,215.8025,190.618875,0.0,0.0,0.0,0.0,0.03653333333333331,-5.498166666666667,-5.498166666666667,-0.5595,-0.4946666666666667,0.00911111111111107,-0.39800000000000013,68.033,0.0103,-0.22095,0.006000000000000227,100.0,1.0,1.0,209.82333333333332,0.0,0.0,0.0,0.0,0.0,0.0,0.0,8893.7,0.0,55.0,5.0,244.89,0.0,0.0,0.0,0.0,0.0,0.0,1.0,0.0,0.9029999999999987,0.9029999999999987,0.0,0.0,0.0,55.0,616.79921,10000.0,85.000001,85.000001,85.000001,85.000001,395.0,0.0,0.0,0.0,1.0,166.665,52.414,52.414,47.729,47.729,34.0,-25.1925,24.588333333333335,-29.64333333333333,27.4225,0.0,1782.785,-0.19500000000000028,100.0,27.729,27.787,42.982,43.198,0.0,0.0,100.0,0.0,0.0,0.0,0.0,3222.5714285714284,3170.5,4157.125,4137.8,305.267,304.718,314.8063333333333,314.59275,21.9591,20.6127,21.9626,21.4605,314.999998,314.999998,324.999988,324.999988,99.55968571428572,99.50755,99.56818571428572,99.54734285714285,0.07800000000000007,-0.04533333333333334,-0.11483333333333334,0.11066666666666669,-0.051666666666669414,-0.04285714285714448,1.5335,1.544,38.245000000000005,29.829666666666668,38.266,35.128,56.230000000000004,35.271,59.9065,52.5685,54.144,34.369,58.482,50.8925,53.292,33.8895,58.394,50.300666666666665,-0.08899999999999997,-0.0625,0.10483,0.10410000000000001,0.0,213.03,212.99,209.82333333333332,209.82333333333332,0.0,0.0
19,0.0,0.0,0.0,1.0,1.0,0.0,0.0,1.0,0.0,0.0,1.0,1.1856,26.0,0.0,0.0,0.0,59.999996,0.0,26.0,26.0,26.0,26.0,-0.012875000000000001,0.28770000000000007,0.04903333333333333,291.992,-2.6499,-2.7057777777777776,-1.6118999999999999,-1.4627,-212.12,215.79000000000002,190.59625,0.0,0.0,0.0,0.0,0.03853333333333331,-5.498166666666667,-5.498166666666667,-0.5511,0.8263333333333334,0.016000000000000014,0.761,68.17,0.006200000000000001,-0.21200000000000002,-0.06200000000000028,100.0,1.0,1.0,210.23000000000002,0.0,0.0,0.0,0.0,0.0,0.0,0.0,8910.9,0.0,55.0,5.0,245.38333333333333,1.0,0.0,0.0,0.0,0.0,0.0,1.0,0.0,0.9540000000000006,0.9540000000000006,0.0,0.0,1.0,55.0,616.79921,10000.0,85.000001,85.000001,85.000001,85.000001,395.0,0.0,0.0,0.0,1.0,166.665,51.727000000000004,51.727000000000004,47.501,47.501,34.0,-23.23,26.375,-29.990000000000002,29.5275,0.0,1782.733,-0.23000000000000043,100.0,28.479,28.171,42.946,43.082,0.0,0.0,100.0,0.0,0.0,0.0,0.0,3129.714285714286,3240.2,4232.125,4406.9,305.183,304.39075,314.61466666666666,314.065,21.9688,20.6184,21.973,21.4696,314.999998,314.999998,324.999988,324.999988,99.55971428571429,99.50756666666666,99.56834285714285,99.54748571428571,0.09433333333333338,-0.04499999999999993,-0.10366666666666657,0.11316666666666686,-0.045000000000001705,-0.04142857142856826,1.5060000000000002,1.5135,38.305,29.865000000000002,38.331,35.185,56.218,35.311,59.942,52.6295,54.132999999999996,34.4065,58.5145,50.951,53.278999999999996,33.925,58.424,50.358333333333334,-0.09250000000000003,-0.06499999999999995,0.10554000000000001,0.09853500000000001,0.0,213.48000000000002,213.45,210.23000000000002,210.23000000000002,0.0,0.0
20,0.0,0.0,0.0,1.0,1.0,0.0,0.0,1.0,0.0,0.0,1.0,1.1856,26.0,0.0,0.0,0.0,59.999996,0.0,26.0,26.0,26.0,26.0,0.014750000000000001,0.27059999999999995,-0.013600000000000001,292.297,-2.7491,-2.6573333333333333,-1.5367000000000002,-1.5871,-208.64,215.7775,190.57375,0.0,0.0,0.0,0.0,0.04056666666666653,-5.498166666666667,-5.498166666666667,-0.5528000000000001,-1.029,0.009444444444444366,-1.0499999999999998,68.31,0.006,-0.22187500000000002,-0.0860000000000003,100.0,1.0,1.0,210.56333333333333,0.0,0.0,0.0,0.0,0.0,0.0,0.0,8925.1,0.0,55.0,5.0,245.88666666666666,0.0,0.0,0.0,0.0,0.0,0.0,0.0,0.0,1.004999999999999,1.004999999999999,0.0,0.0,0.0,55.0,616.79921,10000.0,85.000001,85.000001,85.000001,85.000001,395.0,0.0,0.0,0.0,1.0,333.33500000000004,52.765,52.765,46.982,46.982,34.0,-23.384999999999998,23.323333333333334,-29.513333333333335,30.245,0.0,1782.682,-0.16000000000000014,100.0,27.816,27.996,43.501,43.637,0.0,0.0,100.0,0.0,0.0,0.0,0.0,3056.0,3011.4,4238.125,4198.0,305.755,305.1295,314.53433333333334,314.27525,21.9782,20.6239,21.9837,21.4789,314.999998,314.999998,324.999988,324.999988,99.55971428571429,99.50756666666666,99.56848571428571,99.54764285714286,0.08733333333333326,-0.056333333333333346,-0.10849999999999993,0.11450000000000005,-0.045000000000001705,-0.00999999999999801,1.4665,1.472,38.364000000000004,29.89933333333333,38.397999999999996,35.243,56.203,35.3485,59.982,52.693,54.117999999999995,34.441,58.552,51.012,53.263999999999996,33.9585,58.458,50.418,-0.09749999999999992,-0.06550000000000011,0.10919500000000001,0.10258,0.0,213.86,213.825,210.56333333333333,210.56333333333333,0.0,0.0
21,0.0,0.0,0.0,1.0,1.0,0.0,0.0,1.0,0.0,0.0,1.0,1.1856,26.0,0.0,0.0,0.0,59.999996,0.0,26.0,26.0,26.0,26.0,0.016125,0.2782,-0.07403333333333334,292.709,-2.7145,-2.715111111111111,-1.6023,-1.5476,-205.35,215.76749999999998,190.55225,0.0,0.0,0.0,0.0,0.04246666666666654,-5.498166666666667,-5.498166666666667,-0.5760000000000001,0.322,-0.005666666666666931,-0.786,68.434,0.0031000000000000003,-0.224475,0.02999999999999936,100.0,1.0,1.0,211.18666666666667,0.0,0.0,0.0,0.0,0.0,0.0,0.0,8951.4,0.0,55.0,5.0,246.33666666666664,1.0,0.0,0.0,0.0,0.0,0.0,0.0,0.0,1.0530000000000008,1.0530000000000008,0.0,0.0,1.0,55.0,616.79921,10000.0,85.000001,85.000001,85.000001,85.000001,395.0,0.0,0.0,0.0,1.0,166.665,52.444,52.444,48.263999999999996,48.263999999999996,34.0,-24.715,23.814999999999998,-28.21333333333333,27.3825,0.0,1782.634,-0.16999999999999815,100.0,28.024,28.012,42.957,43.163,0.0,0.0,100.0,0.0,0.0,0.0,0.0,3199.142857142857,3004.0,4035.375,3974.6000000000004,305.289,305.10675,315.14633333333336,315.02475,21.9873,20.6291,21.9934,21.4873,314.999998,314.999998,324.999988,324.999988,99.55972857142856,99.50758333333333,99.56861428571429,99.54777142857142,0.08033333333333337,-0.05666666666666664,-0.1113333333333334,0.12050000000000005,-0.04999999999999716,-0.048571428571428044,1.5739999999999998,1.5805,38.42,29.932333333333332,38.459,35.296,56.19,35.3855,60.013,52.747,54.105999999999995,34.475,58.581,51.064,53.251000000000005,33.991,58.484,50.469,-0.09050000000000002,-0.06700000000000017,0.10219,0.11635000000000001,0.0,214.285,214.265,211.18666666666667,211.18666666666667,0.0,0.0
22,0.0,0.0,0.0,1.0,1.0,0.0,0.0,1.0,0.0,0.0,1.0,1.1856,26.0,0.0,0.0,0.0,59.999996,0.0,26.0,26.0,26.0,26.0,0.001875,0.2692000000000001,-0.0035,292.236,-2.6418,-2.7224444444444442,-1.5966,-1.5338,-201.86,215.7575,190.5285,0.0,0.0,0.0,0.0,0.044499999999999984,-5.498166666666667,-5.498166666666667,-0.5563,0.10300000000000001,0.005222222222222239,1.111,68.57300000000001,0.0012000000000000001,-0.202575,-0.08399999999999963,100.0,1.0,1.0,211.40666666666667,0.0,0.0,0.0,0.0,0.0,0.0,0.0,8960.8,0.0,55.0,5.0,246.83666666666664,0.0,0.0,0.0,0.0,0.0,0.0,0.0,0.0,1.1039999999999992,1.1039999999999992,0.0,0.0,0.0,55.0,616.79921,10000.0,85.000001,85.000001,85.000001,85.000001,395.0,0.0,0.0,0.0,1.0,333.33500000000004,52.521,52.521,47.134,47.134,34.0,-21.6525,24.856666666666666,-29.82,30.5725,0.0,1782.582,-0.259999999999998,100.0,28.255,27.97,43.338,43.28,0.0,0.0,100.0,0.0,0.0,0.0,0.0,2930.4285714285716,3089.8,4224.0,4350.1,305.801,304.97725,314.57733333333334,314.18025,21.9968,20.6347,22.004,21.4965,314.999998,314.999998,324.999988,324.999988,99.55974285714285,99.50758333333333,99.56875714285714,99.54791428571428,0.08899999999999997,-0.04833333333333334,-0.10283333333333333,0.11850000000000005,-0.04333333333332945,-0.054285714285711606,1.4940000000000002,1.484,38.480000000000004,29.967,38.525,35.3535,56.177,35.424,60.0515,52.809,54.093,34.510999999999996,58.617,51.1235,53.236999999999995,34.0255,58.516999999999996,50.52733333333333,-0.09549999999999992,-0.05900000000000016,0.104955,0.10336000000000001,0.0,214.71,214.70499999999998,211.40666666666667,211.40666666666667,0.0,0.0
23,0.0,0.0,0.0,1.0,1.0,0.0,0.0,1.0,0.0,0.0,1.0,1.1856,26.0,0.0,0.0,0.0,59.999996,0.0,26.0,26.0,26.0,26.0,0.028,0.2451000000000001,-0.058,292.206,-2.6778,-2.665,-1.65,-1.5972,-198.36,215.745,190.505,0.0,0.0,0.0,0.0,0.046533333333333315,-5.498166666666667,-5.498166666666667,-0.5751000000000001,-0.2656666666666667,0.001777777777777878,-0.6420000000000001,68.707,0.0015,-0.22892500000000002,0.0,100.0,1.0,1.0,211.93,0.0,0.0,0.0,0.0,0.0,0.0,0.0,8982.9,0.0,55.0,5.0,247.32,1.0,0.0,0.0,0.0,0.0,0.0,0.0,0.0,1.1550000000000011,1.1550000000000011,0.0,0.0,1.0,55.0,616.79921,10000.0,85.000001,85.000001,85.000001,85.000001,395.0,0.0,0.0,0.0,1.0,333.33500000000004,51.772999999999996,51.772999999999996,48.096000000000004,48.096000000000004,34.0,-25.7325,24.196666666666665,-28.946666666666665,28.052500000000002,0.0,1782.53,-0.21000000000000085,100.0,28.277,28.223,43.348,43.596000000000004,0.0,0.0,100.0,0.0,0.0,0.0,0.0,3370.714285714286,3078.9,4022.25,3975.1000000000004,304.799,304.90675,315.208,314.90525,22.0064,20.6403,22.014499999999998,21.5058,314.999998,314.999998,324.999988,324.999988,99.55974285714285,99.50758333333333,99.56892857142857,99.54807142857143,0.08333333333333326,-0.05266666666666664,-0.11349999999999993,0.1140000000000001,-0.054999999999999716,-0.03142857142857025,1.5420000000000003,1.5434999999999999,38.54,30.002000000000002,38.591,35.411,56.163,35.465,60.09,52.874,54.08,34.549,58.6525,51.1865,53.223,34.062,58.5495,50.58866666666667,-0.09799999999999986,-0.058499999999999996,0.10528000000000001,0.11170000000000001,0.0,215.12,215.095,211.93,211.93,0.0,0.0
24,0.0,0.0,0.0,1.0,1.0,0.0,0.0,1.0,0.0,0.0,1.0,1.1856,26.0,0.0,0.0,0.0,59.999996,0.0,26.0,26.0,26.0,26.0,-0.003875,0.272,-0.042133333333333335,292.45,-2.7046,-2.674,-1.5739,-1.5331000000000001,-194.85,215.735,190.481125,0.0,0.0,0.0,0.0,0.04859999999999998,-5.498166666666667,-5.498166666666667,-0.5820000000000001,-0.5226666666666666,0.018000000000000016,1.174,68.843,0.0041,-0.219225,-0.16199999999999992,100.0,1.0,1.0,212.25333333333333,0.0,0.0,0.0,0.0,0.0,0.0,0.0,8996.6,0.0,55.0,5.0,247.81,0.0,0.0,0.0,0.0,0.0,0.0,0.0,0.0,1.2059999999999995,1.2059999999999995,0.0,0.0,0.0,55.0,616.79921,10000.0,85.000001,85.000001,85.000001,85.000001,395.0,0.0,0.0,0.0,1.0,166.665,52.872,52.872,47.241,47.241,34.0,-21.822499999999998,24.116666666666667,-29.490000000000002,29.3,0.0,1782.482,-0.23999999999999844,100.0,28.134,27.816,43.391999999999996,43.44,0.0,0.0,100.0,0.0,0.0,0.0,0.0,2904.857142857143,3061.7,4215.5,4205.6,305.968,305.1895,314.56166666666667,314.50025,22.0158,20.6458,22.025,21.5149,314.999998,314.999998,324.999988,324.999988,99.55975714285714,99.50758333333333,99.56905714285715,99.54821428571428,0.09066666666666667,-0.04633333333333334,-0.10399999999999998,0.11733333333333329,-0.03499999999999659,-0.054285714285711606,1.5085000000000002,1.4954999999999998,38.599000000000004,30.03633333333333,38.656,35.468,56.15,35.5,60.1245,52.9315,54.067,34.5815,58.685,51.2415,53.209,34.093,58.579,50.64266666666666,-0.10099999999999998,-0.06099999999999994,0.10323,0.10439000000000001,0.0,215.525,215.515,212.25333333333333,212.25333333333333,0.0,0.0
25,0.0,0.0,0.0,1.0,1.0,0.0,0.0,1.0,0.0,0.0,1.0,1.1856,26.0,0.0,0.0,0.0,59.999996,0.0,26.0,26.0,26.0,26.0,-0.00025,0.2714000000000001,-0.0563,292.374,-2.7711,-2.6364444444444444,-1.5844,-1.5406,-191.54,215.725,190.45725,0.0,0.0,0.0,0.0,0.05049999999999999,-5.498166666666667,-5.498166666666667,-0.6075,-0.035666666666666666,0.018888888888888955,0.06999999999999995,68.968,0.007500000000000001,-0.22240000000000001,-0.19599999999999973,100.0,1.0,1.0,212.76,0.0,0.0,0.0,0.0,0.0,0.0,0.0,9018.2,0.0,55.0,5.0,248.25666666666666,1.0,0.0,0.0,0.0,0.0,0.0,0.0,0.0,1.2540000000000013,1.2540000000000013,0.0,0.0,1.0,55.0,616.79921,10000.0,85.000001,85.000001,85.000001,85.000001,395.0,0.0,0.0,0.0,1.0,166.665,52.002,52.002,47.943,47.943,34.0,-25.0675,26.08,-26.693333333333328,28.145,0.0,1782.434,-0.23499999999999943,100.0,28.022,27.999,43.133,43.227000000000004,0.0,0.0,100.0,0.0,0.0,0.0,0.0,3201.4285714285716,3321.1,3946.0,4094.6000000000004,305.196,304.372,315.2853333333333,314.78075,22.0246,20.6511,22.0348,21.5235,314.999998,314.999998,324.999988,324.999988,99.55977142857142,99.5076,99.5692,99.54835714285714,0.08766666666666678,-0.04799999999999993,-0.09750000000000003,0.11699999999999999,-0.036666666666668846,-0.048571428571428044,1.5750000000000002,1.5645,38.653999999999996,30.069666666666667,38.717,35.5215,56.135999999999996,35.536500000000004,60.1565,52.9865,54.054,34.615,58.7145,51.2945,53.195,34.1255,58.6055,50.69433333333333,-0.09499999999999997,-0.06099999999999994,0.10615000000000001,0.09800500000000001,0.0,215.9,215.91,212.76,212.76,0.0,0.0
26,0.0,0.0,0.0,1.0,1.0,0.0,0.0,1.0,0.0,0.0,1.0,1.1856,26.0,0.0,0.0,0.0,59.999996,0.0,26.0,26.0,26.0,26.0,0.01375,0.27180000000000004,0.0746,291.29,-2.7253,-2.708,-1.6338,-1.5310000000000001,-188.01999999999998,215.715,190.431625,0.0,0.0,0.0,0.0,0.05256666666666654,-5.498166666666667,-5.498166666666667,-0.5721,0.6366666666666666,0.000888888888888939,-0.7210000000000001,69.104,0.010400000000000001,-0.19765000000000002,-0.08199999999999985,100.0,1.0,1.0,212.94,0.0,0.0,0.0,0.0,0.0,0.0,0.0,9025.8,0.0,55.0,5.0,248.74666666666667,0.0,0.0,0.0,0.0,0.0,0.0,0.0,0.0,1.3049999999999997,1.3049999999999997,0.0,0.0,0.0,55.0,616.79921,10000.0,85.000001,85.000001,85.000001,85.000001,395.0,0.0,0.0,0.0,1.0,333.33500000000004,51.528999999999996,51.528999999999996,46.371,46.371,34.0,-24.86,24.58,-33.81666666666666,31.9825,0.0,1782.381,-0.26500000000000057,100.0,28.734,28.755,43.472,43.687,0.0,0.0,100.0,0.0,0.0,0.0,0.0,3247.4285714285716,3051.6,4580.125,4466.2,305.0965,304.89875,313.8453333333333,313.79975,22.0343,20.6569,22.0454,21.5327,314.999998,314.999998,324.999988,324.999988,99.55978571428571,99.50761666666666,99.56934285714286,99.5485,0.09099999999999997,-0.04933333333333334,-0.10599999999999998,0.1200000000000001,-0.05333333333332746,-0.047142857142851824,1.4295,1.4409999999999998,38.714,30.105666666666664,38.784,35.579499999999996,56.125,35.5775,60.195,53.049,54.044,34.653,58.7505,51.3545,53.184,34.162,58.6385,50.753,-0.10149999999999992,-0.05799999999999983,0.10886000000000001,0.10534500000000001,0.0,216.37,216.36,212.94,212.94,0.0,0.0
27,0.0,0.0,0.0,1.0,1.0,0.0,0.0,1.0,0.0,0.0,1.0,1.1856,26.0,0.0,0.0,0.0,59.999996,0.0,26.0,26.0,26.0,26.0,0.009625,0.25429999999999997,-0.0429,291.824,-2.6896,-2.671222222222222,-1.6253000000000002,-1.6018,-184.5,215.70499999999998,190.407,0.0,0.0,0.0,0.0,0.05459999999999998,-5.498166666666667,-5.498166666666667,-0.5982000000000001,-0.9903333333333334,0.007111111111111068,0.675,69.236,0.0099,-0.24145,-0.23599999999999977,100.0,1.0,1.0,213.47333333333333,0.0,0.0,0.0,0.0,0.0,0.0,0.0,9048.3,0.0,55.0,5.0,249.22333333333336,1.0,0.0,0.0,0.0,0.0,0.0,0.0,0.0,1.355999999999998,1.355999999999998,0.0,0.0,1.0,55.0,616.79921,10000.0,85.000001,85.000001,85.000001,85.000001,395.0,0.0,0.0,0.0,1.0,166.665,51.971000000000004,51.971000000000004,46.738,46.738,34.0,-22.0575,25.923333333333332,-28.733333333333334,29.975,0.0,1782.332,-0.34999999999999787,100.0,28.537,28.443,44.169,44.129999999999995,0.0,0.0,100.0,0.0,0.0,0.0,0.0,3005.285714285714,3213.2,4071.25,4066.7,305.6555,304.69275,314.92,314.753,22.043599999999998,20.6626,22.056,21.5421,314.999998,314.999998,324.999988,324.999988,99.5598,99.50761666666666,99.5695,99.54865714285714,0.1036666666666668,-0.03700000000000003,-0.09999999999999998,0.1333333333333333,-0.02833333333332888,-0.04142857142856826,1.5205000000000002,1.4985,38.772999999999996,30.141,38.849999999999994,35.6385,56.111999999999995,35.6155,60.2335,53.1115,54.03,34.6885,58.786500000000004,51.414500000000004,53.17,34.196,58.671,50.81166666666667,-0.10499999999999998,-0.0535000000000001,0.10927,0.10604500000000001,0.0,216.69,216.715,213.47333333333333,213.47333333333333,0.0,0.0
28,0.0,0.0,0.0,1.0,1.0,0.0,0.0,1.0,0.0,0.0,1.0,1.1856,26.0,0.0,0.0,0.0,59.999996,0.0,26.0,26.0,26.0,26.0,0.01625,0.27100000000000013,-0.052700000000000004,291.992,-2.6722,-2.6736666666666666,-1.6194000000000002,-1.566,-181.17000000000002,215.695,190.383125,0.0,0.0,0.0,0.0,0.056533333333333324,-5.498166666666667,-5.498166666666667,-0.6029,0.627,-0.002000000000000224,0.643,69.358,0.0128,-0.218125,-0.26399999999999935,100.0,1.0,1.0,213.94333333333333,0.0,0.0,0.0,0.0,0.0,0.0,0.0,9068.3,0.0,55.0,5.0,249.66333333333336,0.0,0.0,0.0,0.0,0.0,0.0,0.0,0.0,1.404,1.404,0.0,0.0,0.0,55.0,616.79921,10000.0,85.000001,85.000001,85.000001,85.000001,395.0,0.0,0.0,0.0,1.0,166.665,51.804,51.804,47.699,47.699,34.0,-22.75,25.78333333333333,-27.796666666666667,29.677500000000002,0.0,1782.283,-0.33500000000000085,100.0,28.687,28.4,43.518,43.677,0.0,0.0,100.0,0.0,0.0,0.0,0.0,3112.714285714286,3172.4,4021.0,4139.2,305.2955,304.79175,315.1843333333333,314.6965,22.0525,20.6679,22.0657,21.5507,314.999998,314.999998,324.999988,324.999988,99.5598,99.50761666666666,99.56962857142857,99.54878571428571,0.10633333333333339,-0.03266666666666662,-0.09883333333333333,0.13400000000000012,-0.04999999999999716,-0.06285714285714761,1.5615,1.574,38.828,30.174666666666667,38.911,35.6915,56.101,35.6525,60.263999999999996,53.166,54.019999999999996,34.7225,58.814499999999995,51.467,53.158,34.2285,58.696,50.86333333333333,-0.11149999999999993,-0.052999999999999936,0.11070500000000001,0.10594500000000001,0.0,217.14499999999998,217.14,213.94333333333333,213.94333333333333,0.0,0.0
29,0.0,0.0,0.0,1.0,1.0,0.0,0.0,1.0,0.0,0.0,1.0,1.1856,26.0,0.0,0.0,0.0,59.999996,0.0,26.0,26.0,26.0,26.0,0.037125,0.25980000000000003,-0.004833333333333334,291.702,-2.6599,-2.7153333333333336,-1.5725,-1.5471,-177.42000000000002,215.685,190.355125,0.0,0.0,0.0,0.0,0.058733333333333304,-5.498166666666667,-5.498166666666667,-0.606,-0.7013333333333334,0.0038888888888888307,0.888,69.5,0.017,-0.21657500000000002,-0.3639999999999999,100.0,1.0,1.0,214.20333333333332,0.0,0.0,0.0,0.0,0.0,0.0,0.0,9079.2,0.0,55.0,5.0,250.17666666666668,1.0,0.0,0.0,0.0,0.0,0.0,0.0,0.0,1.4579999999999984,1.4579999999999984,0.0,0.0,1.0,55.0,616.79921,10000.0,85.000001,85.000001,85.000001,85.000001,395.0,0.0,0.0,0.0,1.0,166.665,52.063,52.063,46.738,46.738,34.0,-21.794999999999998,26.14666666666667,-28.186666666666667,31.485,0.0,1782.229,-0.34499999999999886,100.0,28.361,28.302,43.934,44.010999999999996,0.0,0.0,100.0,0.0,0.0,0.0,0.0,3053.142857142857,3172.9,4139.25,4318.1,305.5475,304.74,314.724,314.204,22.0623,20.6739,22.076999999999998,21.5605,314.999998,314.999998,324.999988,324.999988,99.55982857142857,99.50763333333333,99.5698,99.54895714285715,0.1120000000000001,-0.03466666666666662,-0.08816666666666662,0.13383333333333325,-0.03999999999999915,-0.04142857142856826,1.479,1.4795,38.888999999999996,30.211666666666666,38.980999999999995,35.7535,56.086,35.692,60.3045,53.2315,54.006,34.759,58.8525,51.53,53.143,34.263999999999996,58.7305,50.925,-0.10799999999999987,-0.05650000000000022,0.10672000000000001,0.09930000000000001,0.0,217.54000000000002,217.535,214.20333333333332,214.20333333333332,0.0,0.0
30,0.0,0.0,0.0,1.0,1.0,0.0,0.0,1.0,0.0,0.0,1.0,1.1856,26.0,0.0,0.0,0.0,59.999996,0.0,26.0,26.0,26.0,26.0,0.04175,0.2663,0.02436666666666667,291.168,-2.7207,-2.5986666666666665,-1.5478,-1.6012,-174.29,215.6775,190.33175,0.0,0.0,0.0,0.0,0.06053333333333333,-5.498166666666667,-5.498166666666667,-0.6064,0.757,-0.001777777777777878,-0.821,69.614,0.021400000000000002,-0.2209,-0.24600000000000044,100.0,1.0,1.0,214.63,0.0,0.0,0.0,0.0,0.0,0.0,0.0,9097.4,0.0,55.0,5.0,250.58666666666664,0.0,0.0,0.0,0.0,0.0,0.0,1.0,0.0,1.5030000000000001,1.5030000000000001,0.0,0.0,0.0,55.0,616.79921,10000.0,85.000001,85.000001,85.000001,85.000001,395.0,0.0,0.0,0.0,1.0,166.665,50.659,50.659,47.134,47.134,34.0,-25.75,25.575,-27.85,30.795,0.0,1782.184,-0.3000000000000007,100.0,29.032,29.186,43.605000000000004,44.079,0.0,0.0,100.0,0.0,0.0,0.0,0.0,3418.4285714285716,3217.4,4177.5,4152.7,304.562,304.38025,314.79133333333334,314.48725,22.0708,20.6791,22.086100000000002,21.5687,314.999998,314.999998,324.999988,324.999988,99.55984285714285,99.50763333333333,99.56992857142858,99.54908571428571,0.10466666666666669,-0.039000000000000035,-0.08883333333333332,0.133,-0.03999999999999915,-0.05142857142856627,1.513,1.5055,38.942,30.244666666666667,39.038,35.804,56.078,35.7285,60.3345,53.2845,53.998000000000005,34.793,58.8805,51.5815,53.134,34.2965,58.7555,50.975,-0.11050000000000004,-0.05650000000000022,0.10314500000000001,0.110225,0.0,217.925,217.925,214.63,214.63,0.0,0.0
31,0.0,0.0,0.0,1.0,1.0,0.0,0.0,1.0,0.0,0.0,1.0,1.1856,26.0,0.0,0.0,0.0,59.999996,0.0,26.0,26.0,26.0,26.0,0.025750000000000002,0.25050000000000017,0.027433333333333334,290.909,-2.7628,-2.5860000000000003,-1.5914000000000001,-1.5041,-170.74,215.67000000000002,190.305875,0.0,0.0,0.0,0.0,0.06259999999999999,-5.498166666666667,-5.498166666666667,-0.5887,-0.492,0.005555555555555536,0.6679999999999999,69.74600000000001,0.0229,-0.21985000000000002,-0.3179999999999996,100.0,1.0,1.0,214.89666666666668,0.0,0.0,0.0,0.0,0.0,0.0,0.0,9108.6,0.0,55.0,5.0,251.06333333333333,1.0,0.0,0.0,0.0,0.0,0.0,1.0,0.0,1.5539999999999985,1.5539999999999985,0.0,0.0,1.0,55.0,616.79921,10000.0,85.000001,85.000001,85.000001,85.000001,395.0,0.0,0.0,0.0,1.0,166.665,51.315,51.315,45.593,45.593,34.0,-22.8675,26.445,-29.39666666666666,31.795,0.0,1782.134,-0.34999999999999787,100.0,28.975,29.006999999999998,44.454,44.68,0.0,0.0,100.0,0.0,0.0,0.0,0.0,3097.142857142857,3328.8,4335.625,4309.2,305.515,304.44625,314.2366666666667,314.17575,22.0801,20.6849,22.0968,21.5782,314.999998,314.999998,324.999988,324.999988,99.55985714285714,99.50765,99.57007142857142,99.54922857142857,0.1156666666666668,-0.029000000000000026,-0.07266666666666666,0.14716666666666667,-0.030000000000001137,-0.0714285714285694,1.4489999999999998,1.4355,39.001000000000005,30.281,39.105000000000004,35.8635,56.066,35.7685,60.374,53.3485,53.986999999999995,34.829499999999996,58.917,51.643,53.122,34.3315,58.789,51.035,-0.11850000000000005,-0.05699999999999994,0.10344500000000001,0.107115,0.0,218.3,218.345,214.89666666666668,214.89666666666668,0.0,0.0
32,0.0,0.0,0.0,1.0,1.0,0.0,0.0,1.0,0.0,0.0,1.0,1.1856,26.0,0.0,0.0,0.0,59.999996,0.0,26.0,26.0,26.0,26.0,0.021500000000000002,0.2679,-0.04663333333333333,291.199,-2.6837999999999997,-2.6935555555555557,-1.5759,-1.5596999999999999,-166.97,215.66500000000002,190.278875,0.0,0.0,0.0,0.0,0.06479999999999997,-5.498166666666667,-5.498166666666667,-0.6059,-0.09033333333333333,-0.01622222222222236,0.253,69.882,0.024900000000000002,-0.228475,-0.36599999999999966,100.0,1.0,1.0,215.41333333333333,0.0,0.0,0.0,0.0,0.0,0.0,0.0,9130.5,0.0,55.0,5.0,251.55,0.0,0.0,0.0,0.0,0.0,0.0,1.0,0.0,1.6080000000000005,1.6080000000000005,0.0,0.0,0.0,55.0,616.79921,10000.0,85.000001,85.000001,85.000001,85.000001,395.0,0.0,0.0,0.0,1.0,166.665,51.437,51.437,46.417,46.417,34.0,-22.38,25.946666666666665,-27.576666666666668,32.57,0.0,1782.08,-0.3099999999999987,100.0,28.948,29.031,44.226,44.495999999999995,0.0,0.0,100.0,0.0,0.0,0.0,0.0,3106.857142857143,3159.2,4188.75,4360.8,305.356,304.8055,314.6533333333333,314.1925,22.0899,20.6911,22.1079,21.588,314.999998,314.999998,324.999988,324.999988,99.55987142857143,99.50765,99.57022857142857,99.5494,0.11533333333333329,-0.031333333333333324,-0.07233333333333336,0.14766666666666683,-0.045000000000001705,-0.03714285714285381,1.5234999999999999,1.504,39.062,30.319333333333333,39.175,35.925,56.054,35.81,60.411,53.412,53.974999999999994,34.868,58.951499999999996,51.704,53.108999999999995,34.3685,58.82,51.09466666666667,-0.10949999999999993,-0.06000000000000005,0.10502,0.10698,0.0,218.73000000000002,218.745,215.41333333333333,215.41333333333333,0.0,0.0
33,0.0,0.0,0.0,1.0,1.0,0.0,0.0,1.0,0.0,0.0,1.0,1.1856,26.0,0.0,0.0,0.0,59.999996,0.0,26.0,26.0,26.0,26.0,0.039625,0.24890000000000012,-0.0212,291.458,-2.7253,-2.6822222222222223,-1.5867,-1.5944,-163.82,215.66,190.25525,0.0,0.0,0.0,0.0,0.06663333333333332,-5.498166666666667,-5.498166666666667,-0.6153000000000001,-0.3293333333333333,-0.015888888888889063,-0.06299999999999994,69.99600000000001,0.0212,-0.218025,-0.13399999999999945,100.0,1.0,1.0,215.7733333333333,0.0,0.0,0.0,0.0,0.0,0.0,0.0,9145.8,0.0,55.0,5.0,251.96,1.0,0.0,0.0,0.0,0.0,0.0,1.0,0.0,1.6529999999999987,1.6529999999999987,0.0,0.0,1.0,55.0,616.79921,10000.0,85.000001,85.000001,85.000001,85.000001,395.0,0.0,0.0,0.0,1.0,166.665,51.772999999999996,51.772999999999996,46.677,46.677,34.0,-23.41,24.583333333333336,-28.85333333333333,31.0725,0.0,1782.035,-0.39000000000000057,100.0,28.657,28.927,44.034,44.459,0.0,0.0,100.0,0.0,0.0,0.0,0.0,3170.0,3044.9,4201.0,4206.5,305.425,305.0445,314.70733333333334,314.46275,22.0981,20.696,22.1171,21.5961,314.999998,314.999998,324.999988,324.999988,99.55987142857143,99.50765,99.57035714285715,99.54952857142857,0.10633333333333339,-0.03933333333333333,-0.09166666666666656,0.1323333333333332,-0.03833333333332689,-0.05142857142856627,1.499,1.4945,39.113,30.35033333333333,39.232,35.976,56.043,35.8425,60.4415,53.4645,53.965,34.8985,58.980000000000004,51.7545,53.098,34.3975,58.8455,51.144,-0.10949999999999993,-0.05500000000000016,0.10509500000000001,0.10781,0.0,219.075,219.085,215.7733333333333,215.7733333333333,0.0,0.0
34,0.0,0.0,0.0,1.0,1.0,0.0,0.0,1.0,0.0,0.0,1.0,1.1856,26.0,0.0,0.0,0.0,59.999996,0.0,26.0,26.0,26.0,26.0,0.026375,0.246,-0.055900000000000005,291.687,-2.6578,-2.676111111111111,-1.6452,-1.5549,-160.24,215.655,190.227375,0.0,0.0,0.0,0.0,0.06869999999999998,-5.498166666666667,-5.498166666666667,-0.6415000000000001,-0.7136666666666667,0.011666666666666714,0.888,70.125,0.019,-0.2243,-0.2679999999999998,100.0,1.0,1.0,216.15666666666667,0.0,0.0,0.0,0.0,0.0,0.0,0.0,9162.1,0.0,55.0,5.0,252.42333333333335,0.0,0.0,0.0,0.0,0.0,0.0,1.0,0.0,1.7040000000000006,1.7040000000000006,0.0,0.0,0.0,55.0,616.79921,10000.0,85.000001,85.000001,85.000001,85.000001,395.0,0.0,0.0,0.0,1.0,333.33500000000004,52.048,52.048,47.18,47.18,34.0,-21.5575,25.413333333333334,-28.413333333333334,30.67,0.0,1781.981,-0.41499999999999915,100.0,28.581,28.483,43.902,44.403999999999996,0.0,0.0,100.0,0.0,0.0,0.0,0.0,3053.4285714285716,3067.8,4088.5,4245.1,305.5565,305.02425,314.9596666666667,314.39525,22.1073,20.7016,22.1275,21.6054,314.999998,314.999998,324.999988,324.999988,99.5599,99.50766666666667,99.5705,99.54967142857143,0.11766666666666681,-0.021666666666666612,-0.08716666666666661,0.13016666666666676,-0.041666666666671404,-0.048571428571428044,1.5260000000000002,1.505,39.171,30.385333333333335,39.297,36.034,56.028999999999996,35.881,60.4775,53.528999999999996,53.952,34.934,59.013,51.8165,53.084,34.432,58.8755,51.20433333333334,-0.11250000000000004,-0.04349999999999987,0.10097500000000001,0.10652500000000001,0.0,219.47,219.47,216.15666666666667,216.15666666666667,0.0,0.0
35,0.0,0.0,0.0,1.0,1.0,0.0,0.0,1.0,0.0,0.0,1.0,1.1856,26.0,0.0,0.0,0.0,59.999996,0.0,26.0,26.0,26.0,26.0,0.042875,0.25360000000000005,-0.041800000000000004,291.718,-2.7253,-2.6174444444444447,-1.6233,-1.514,-156.67000000000002,215.65,190.197625,0.0,0.0,0.0,0.0,0.07079999999999997,-5.498166666666667,-5.498166666666667,-0.6818000000000001,-0.332,-0.00655555555555587,-1.1670000000000003,70.252,0.0207,-0.23087500000000002,-0.2579999999999991,100.0,1.0,1.0,216.62,0.0,0.0,0.0,0.0,0.0,0.0,0.0,9181.7,0.0,55.0,5.0,252.88,1.0,0.0,0.0,0.0,0.0,0.0,1.0,0.0,1.754999999999999,1.754999999999999,0.0,0.0,1.0,55.0,616.79921,10000.0,85.000001,85.000001,85.000001,85.000001,395.0,0.0,0.0,0.0,1.0,166.665,51.650999999999996,51.650999999999996,46.783,46.783,34.0,-23.7125,26.48,-28.019999999999996,28.365000000000002,0.0,1781.933,-0.29499999999999815,100.0,28.221,28.826,43.691,43.979,0.0,0.0,100.0,0.0,0.0,0.0,0.0,3178.857142857143,3293.5,4090.0,4011.6000000000004,305.352,304.282,314.939,314.9375,22.1164,20.7074,22.1379,21.6146,314.999998,314.999998,324.999988,324.999988,99.5599,99.50766666666667,99.57065714285714,99.54982857142858,0.10266666666666668,-0.035666666666666624,-0.08599999999999997,0.137,-0.04333333333332945,-0.048571428571428044,1.544,1.5325,39.227999999999994,30.421333333333333,39.361999999999995,36.091,56.015,35.917500000000004,60.5085,53.582,53.938,34.968,59.042500000000004,51.868,53.069,34.4645,58.9015,51.254666666666665,-0.10499999999999998,-0.05449999999999999,0.10504000000000001,0.10590000000000001,0.0,219.85000000000002,219.87,216.62,216.62,0.0,0.0
