,ABS Active,ABS Enabled,AID Allow Tire Blankets,AID Auto Blip,AID Auto Clutch,AID Auto Shift,AID Fuel Rate,AID Ideal Line,AID Mech Damage,AID Stability,AID Tire Wear Rate,Air Density,Air Temp,Ballast,Best Lap Delta,Best Lap Time,Brake Bias,Brake Pos,Brake Temp FL,Brake Temp FR,Brake Temp RL,Brake Temp RR,CG Accel Lateral,CG Accel Longitudinal,CG Accel Vertical,CG Height,Camber FL,Camber FR,Camber RL,Camber RR,Car Coord X,Car Coord Y,Car Coord Z,Car Damage Front,Car Damage Left,Car Damage Rear,Car Damage Right,Car Pos Norm,Caster FL,Caster FR,Chassis Pitch Angle,Chassis Pitch Rate,Chassis Roll Angle,Chassis Roll Rate,Chassis Velocity X,Chassis Velocity Y,Chassis Velocity Z,Chassis Yaw Rate,Clutch Pos,DRS Active,DRS Available,Drive Train Speed,ERS Heat Charging,ERS Is Charging,ERS Max Energy,ERS Power Level,ERS Recovery Level,Engine Brake Setting,Engine Limiter,Engine RPM,Flags,Fuel Level,Gear,Ground Speed,HR Sample Clock,In Pit,KERS Charge,KERS Deployed Energy,KERS Input,KERS Max Energy,LR Sample Clock,Lap Invalidated,Lap Time,Lap Time2,Last Lap Time,Last Sector Time,MR Sample Clock,Max Fuel,Max Power,Max RPM,Max Sus Travel FL,Max Sus Travel FR,Max Sus Travel RL,Max Sus Travel RR,Max Torque,Max Turbo Boost,Num Tires Off Track,Penalties Enabled,Position,Raw Data Sample Rate,Ride Height FL,Ride Height FR,Ride Height RL,Ride Height RR,Road Temp,Self Align Torque FL,Self Align Torque FR,Self Align Torque RL,Self Align Torque RR,Session Lap Count,Session Time Left,Steering Angle,Surface Grip,Suspension Travel FL,Suspension Travel FR,Suspension Travel RL,Suspension Travel RR,TC Active,TC Enabled,Throttle Pos,Tire Dirt Level FL,Tire Dirt Level FR,Tire Dirt Level RL,Tire Dirt Level RR,Tire Load FL,Tire Load FR,Tire Load RL,Tire Load RR,Tire Loaded Radius FL,Tire Loaded Radius FR,Tire Loaded Radius RL,Tire Loaded Radius RR,Tire Pressure FL,Tire Pressure FR,Tire Pressure RL,Tire Pressure RR,Tire Radius FL,Tire Radius FR,Tire Radius RL,Tire Radius RR,Tire Rubber Grip FL,Tire Rubber Grip FR,Tire Rubber Grip RL,Tire Rubber Grip RR,Tire Slip Angle FL,Tire Slip Angle FR,Tire Slip Angle RL,Tire Slip Angle RR,Tire Slip Ratio FL,Tire Slip Ratio FR,Tire Slip Ratio RL,Tire Slip Ratio RR,Tire Temp Core FL,Tire Temp Core FR,Tire Temp Core RL,Tire Temp Core RR,Tire Temp Inner FL,Tire Temp Inner FR,Tire Temp Inner RL,Tire Temp Inner RR,Tire Temp Middle FL,Tire Temp Middle FR,Tire Temp Middle RL,Tire Temp Middle RR,Tire Temp Outer FL,Tire Temp Outer FR,Tire Temp Outer RL,Tire Temp Outer RR,Toe In FL,Toe In FR,Toe In RL,Toe In RR,Turbo Boost,Wheel Angular Speed FL,Wheel Angular Speed FR,Wheel Angular Speed RL,Wheel Angular Speed RR,Wind Direction,Wind Speed
0,0.0,0.0,0.0,1.0,1.0,0.0,0.0,1.0,0.0,100.0,1.0,1.1856,26.0,0.0,0.0,0.0,59.99999,0.0,26.0,26.0,26.0,26.0,-0.03511111111111109,0.29720000000000013,0.17245000000000002,291.687,-2.768,-2.421222222222222,-1.56735,-1.5129000000000001,-275.46,215.4325,190.985,0.0,0.0,0.0,0.0,0.0016999999999999238,-5.498166666666667,-5.498166666666667,-0.5859,1.8403333333333334,0.0024444444444442492,-0.5260000000000002,65.561,-0.0229,-0.251025,0.07000000000000028,100.0,1.0,1.0,202.39333333333332,0.0,0.0,0.0,0.0,0.0,0.0,0.0,8578.7,0.0,55.0,5.0,235.99,0.0,0.0,0.0,0.0,0.0,0.0,0.0,0.0,0.006000000000000227,0.006000000000000227,0.0,0.0,0.0,55.0,616.79921,10000.0,85.0,85.0,85.0,85.0,395.0,0.0,0.0,0.0,1.0,20.0,48.263999999999996,48.263999999999996,47.836,47.836,34.0,-28.673333333333332,27.393333333333334,-29.116666666666664,26.6125,0.0,1784.501,0.19500000000000028,100.0,29.292,30.3,40.86,40.597,0.0,0.0,100.0,0.0,0.0,0.0,0.0,3379.4285714285716,4072.7,4092.25,4110.7,304.4705,301.43575,314.90775,314.61875,21.7606,20.5171,21.7823,21.3091,314.99999,314.99999,324.99998,324.99998,99.55812857142857,99.50726666666667,99.56614285714285,99.54518571428571,0.04600000000000026,-0.10633333333333339,-0.12783333333333333,0.0915,-0.02833333333332888,-0.060000000000002274,1.5615,1.555,37.004000000000005,29.232,37.14,34.182,56.05,34.528,59.3805,51.635,54.015,33.738,58.0065,49.994,53.224000000000004,33.3425,57.981,49.42133333333334,-0.07800000000000007,-0.1070000000000002,0.10308,0.11368,0.0,205.39499999999998,205.4,202.39333333333332,202.39333333333332,0.0,0.0
1,0.0,0.0,0.0,1.0,1.0,0.0,0.0,1.0,0.0,100.0,1.0,1.1856,26.0,0.0,0.0,0.0,59.999996,0.0,26.0,26.0,26.0,26.0,-0.06099999999999994,0.3216000000000001,0.273075,291.031,-2.6758,-2.6594444444444445,-1.62005,-1.448,-271.92,215.4425,190.963875,0.0,0.0,0.0,0.0,0.003766666666666585,-5.498166666666667,-5.498166666666667,-0.5238,-2.517,-0.035555555555555785,-1.1680000000000001,65.72800000000001,-0.0212,-0.24795,0.4939999999999998,100.0,1.0,1.0,202.38,0.0,0.0,0.0,0.0,0.0,0.0,0.0,8578.2,0.0,55.0,5.0,236.59333333333333,1.0,0.0,0.0,0.0,0.0,0.0,0.0,0.0,0.05999999999999872,0.05999999999999872,0.0,0.0,1.0,55.0,616.79921,10000.0,85.000001,85.000001,85.000001,85.000001,395.0,0.0,0.0,0.0,1.0,166.665,51.743,51.743,47.073,47.073,34.0,-23.503333333333334,18.793333333333333,-37.01,30.2275,0.0,1784.446,0.33999999999999986,100.0,29.47,29.049,42.976,44.741,0.0,0.0,100.0,0.0,0.0,0.0,0.0,2987.714285714286,2685.2,4672.125,4616.6,305.79,306.26475,313.29075,312.5355,21.771,20.5224,21.794,21.3191,314.999998,314.999998,324.999988,324.999988,99.55814285714285,99.50728333333333,99.5663,99.54532857142857,0.05525000000000002,-0.09699999999999998,-0.13266666666666665,0.068,-0.03999999999999915,-0.041666666666671404,1.2890000000000001,1.3145,37.069,29.265,37.213,34.2445,56.034,34.568,59.4305,51.710499999999996,54.0,33.7745,58.053,50.0665,53.207,33.378,58.024,49.492666666666665,-0.06499999999999995,-0.10749999999999993,0.10451500000000001,0.10067500000000001,0.0,205.9,205.845,202.38,202.38,0.0,0.0
2,0.0,0.0,0.0,1.0,1.0,0.0,0.0,1.0,0.0,100.0,1.0,1.1856,26.0,0.0,0.0,0.0,59.999996,0.0,26.0,26.0,26.0,26.0,-0.08211111111111102,0.28990000000000005,-0.10917500000000001,292.877,-2.6437,-2.6204444444444444,-1.57695,-1.5145,-268.76,215.45,190.946375,0.0,0.0,0.0,0.0,0.005599999999999938,-5.498166666666667,-5.498166666666667,-0.5981000000000001,1.0776666666666668,-0.0043333333333333,2.003,65.85300000000001,-0.0223,-0.298825,0.718,100.0,1.0,1.0,203.7,0.0,0.0,0.0,0.0,0.0,0.0,0.0,8634.0,0.0,55.0,5.0,237.04333333333335,0.0,0.0,0.0,0.0,0.0,0.0,0.0,0.0,0.10800000000000054,0.10800000000000054,0.0,0.0,0.0,55.0,616.79921,10000.0,85.000001,85.000001,85.000001,85.000001,395.0,0.0,0.0,0.0,1.0,333.33500000000004,50.278,50.278,50.232,50.232,34.0,-27.006666666666664,20.886666666666667,-25.28333333333333,19.872500000000002,0.0,1784.397,0.5250000000000021,100.0,30.085,29.447,42.146,42.053,0.0,0.0,100.0,0.0,0.0,0.0,0.0,3231.285714285714,3089.4,3573.125,3442.5,304.881,304.83675,316.1485,316.37825,21.7805,20.5275,21.8037,21.326999999999998,314.999998,314.999998,324.999988,324.999988,99.55814285714285,99.5073,99.56644285714286,99.54545714285715,0.026000000000000245,-0.122,-0.1575,0.07266666666666667,-0.07666666666666799,-0.045000000000001705,1.763,1.7815,37.128,29.296666666666667,37.272999999999996,34.2935,56.022999999999996,34.6075,59.462,51.754,53.989000000000004,33.811,58.082,50.1085,53.196,33.413,58.0505,49.534,-0.05349999999999988,-0.13149999999999995,0.10928500000000001,0.10945,0.0,206.345,206.265,203.7,203.7,0.0,0.0
3,0.0,0.0,0.0,1.0,1.0,0.0,0.0,1.0,0.0,100.0,1.0,1.1856,26.0,0.0,0.0,0.0,59.999996,0.0,26.0,26.0,26.0,26.0,-0.07699999999999996,0.2962,0.073575,292.053,-2.6641,-2.655777777777778,-1.5549,-1.4872,-265.4,215.45749999999998,190.926,0.0,0.0,0.0,0.0,0.0075666666666666105,-5.498166666666667,-5.498166666666667,-0.5271,0.07033333333333336,0.007111111111111068,-1.63,66.011,-0.0373,-0.219675,0.7679999999999989,100.0,1.0,1.0,203.53333333333333,0.0,0.0,0.0,0.0,0.0,0.0,0.0,8627.0,0.0,55.0,5.0,237.60666666666668,1.0,0.0,0.0,0.0,0.0,0.0,0.0,0.0,0.15899999999999892,0.15899999999999892,0.0,0.0,1.0,55.0,616.79921,10000.0,85.000001,85.000001,85.000001,85.000001,395.0,0.0,0.0,0.0,1.0,166.665,51.559,51.559,47.272,47.272,34.0,-24.893333333333334,19.93,-34.276666666666664,27.1925,0.0,1784.348,0.5850000000000009,100.0,29.205,29.204,42.405,42.499,0.0,0.0,100.0,0.0,0.0,0.0,0.0,2976.714285714286,2926.5,4497.625,4284.2,305.8765,305.43625,313.86225,314.077,21.7901,20.5327,21.8143,21.336100000000002,314.999998,314.999998,324.999988,324.999988,99.55815714285714,99.5073,99.56658571428571,99.5456,0.014000000000000234,-0.11966666666666659,-0.14733333333333334,0.07383333333333333,-0.01833333333333087,-0.045000000000001705,1.4385,1.463,37.188,29.329666666666668,37.34,34.3505,56.006,34.6495,59.5015,51.8215,53.972,33.8495,58.119,50.173,53.178,33.4495,58.0845,49.59733333333333,-0.030999999999999917,-0.12849999999999984,0.10196500000000001,0.11520500000000002,0.0,206.82999999999998,206.755,203.53333333333333,203.53333333333333,0.0,0.0
4,0.0,0.0,0.0,1.0,1.0,0.0,0.0,1.0,0.0,100.0,1.0,1.1856,26.0,0.0,0.0,0.0,59.999996,0.0,26.0,26.0,26.0,26.0,-0.0802222222222222,0.2742,-0.03615,292.465,-2.6542,-2.712111111111111,-1.50175,-1.5917,-262.23,215.46,190.907875,0.0,0.0,0.0,0.0,0.009433333333333294,-5.498166666666667,-5.498166666666667,-0.5591,-0.7350000000000001,-0.037555555555555564,-0.42799999999999994,66.146,-0.049100000000000005,-0.265375,1.0239999999999991,100.0,1.0,1.0,204.17666666666668,0.0,0.0,0.0,0.0,0.0,0.0,0.0,8654.4,0.0,55.0,5.0,238.10000000000002,0.0,0.0,0.0,0.0,0.0,0.0,0.0,0.0,0.20700000000000074,0.20700000000000074,0.0,0.0,0.0,55.0,616.79921,10000.0,85.000001,85.000001,85.000001,85.000001,395.0,0.0,0.0,0.0,1.0,333.33500000000004,51.3,51.3,48.477000000000004,48.477000000000004,34.0,-26.633333333333333,19.985,-30.28,23.5225,0.0,1784.3,0.5749999999999993,100.0,29.441,28.846,43.022,42.512,0.0,0.0,100.0,0.0,0.0,0.0,0.0,3140.857142857143,2931.5,4037.0,3848.9,305.2905,305.45975,314.99375,315.2535,21.7994,20.5376,21.8244,21.3445,314.999998,314.999998,324.999988,324.999988,99.55815714285714,99.50731666666667,99.56671428571428,99.54572857142857,0.01200000000000001,-0.1303333333333333,-0.17533333333333334,0.049833333333333334,-0.054999999999999716,-0.04333333333332945,1.5444999999999998,1.586,37.245999999999995,29.36,37.403,34.403,55.991,34.6875,59.539500000000004,51.876999999999995,53.958,33.885,58.1545,50.2265,53.164,33.4835,58.117,49.64966666666667,-0.03600000000000003,-0.12849999999999984,0.10675000000000001,0.10577,0.0,207.22500000000002,207.135,204.17666666666668,204.17666666666668,0.0,0.0
5,0.0,0.0,0.0,1.0,1.0,0.0,0.0,1.0,0.0,100.0,1.0,1.1856,26.0,0.0,0.0,0.0,59.999996,0.0,26.0,26.0,26.0,26.0,-0.08277777777777784,0.2902,-0.0412,292.633,-2.6151,-2.7096666666666667,-1.5417,-1.5864,-258.65,215.4625,190.886625,0.0,0.0,0.0,0.0,0.011499999999999955,-5.498166666666667,-5.498166666666667,-0.5635,0.4783333333333334,-0.03622222222222238,0.052000000000000046,66.301,-0.0682,-0.24755000000000002,1.0,100.0,1.0,1.0,204.69666666666666,0.0,0.0,0.0,0.0,0.0,0.0,0.0,8676.3,0.0,55.0,5.0,238.65333333333334,1.0,0.0,0.0,0.0,0.0,0.0,0.0,0.0,0.26099999999999923,0.26099999999999923,0.0,0.0,1.0,55.0,616.79921,10000.0,85.000001,85.000001,85.000001,85.000001,395.0,0.0,0.0,0.0,1.0,166.665,51.437,51.437,48.721000000000004,48.721000000000004,34.0,-25.43,20.105,-31.016666666666666,23.345,0.0,1784.246,0.19500000000000028,100.0,29.517,28.812,42.741,41.923,0.0,0.0,100.0,0.0,0.0,0.0,0.0,3068.714285714286,2910.8,4000.0,3995.9,305.4635,305.4805,315.12125,314.953,21.8098,20.5431,21.8355,21.3537,314.999998,314.999998,324.999988,324.999988,99.55815714285714,99.50733333333334,99.56685714285715,99.54587142857143,0.016999999999999904,-0.124,-0.19016666666666665,0.028833333333333332,-0.03166666666666629,-0.03166666666666629,1.5665,1.6125,37.312,29.394666666666666,37.472,34.461,55.974999999999994,34.731,59.579,51.938,53.943,33.9245,58.191,50.285,53.147999999999996,33.5215,58.1505,49.70666666666666,-0.06899999999999995,-0.10050000000000026,0.09991000000000001,0.10289000000000001,0.0,207.715,207.62,204.69666666666666,204.69666666666666,0.0,0.0
6,0.0,0.0,0.0,1.0,1.0,0.0,0.0,1.0,0.0,100.0,1.0,1.1856,26.0,0.0,0.0,0.0,59.999996,0.0,26.0,26.0,26.0,26.0,-0.09288888888888891,0.29380000000000006,0.016300000000000002,292.313,-2.6471999999999998,-2.686777777777778,-1.4938,-1.5945,-255.46,215.4625,190.867125,0.0,0.0,0.0,0.0,0.013333333333333308,-5.498166666666667,-5.498166666666667,-0.5577,-0.27466666666666684,-0.04933333333333367,-0.03600000000000003,66.441,-0.0712,-0.23877500000000002,0.8520000000000003,100.0,1.0,1.0,204.9766666666667,0.0,0.0,0.0,0.0,0.0,0.0,0.0,8688.1,0.0,55.0,5.0,239.15666666666667,0.0,0.0,0.0,0.0,0.0,0.0,0.0,0.0,0.30900000000000105,0.30900000000000105,0.0,0.0,0.0,55.0,616.79921,10000.0,85.000001,85.000001,85.000001,85.000001,395.0,0.0,0.0,0.0,1.0,166.665,51.483,51.483,48.263999999999996,48.263999999999996,34.0,-27.386666666666663,19.293333333333333,-32.196666666666665,24.337500000000002,0.0,1784.197,0.4200000000000017,100.0,29.427,28.567,43.097,42.182,0.0,0.0,100.0,0.0,0.0,0.0,0.0,3207.857142857143,2895.0,4177.625,4071.4,305.1195,305.63975,314.628,314.704,21.819,20.548,21.8456,21.3622,314.999998,314.999998,324.999988,324.999988,99.55817142857143,99.50735,99.567,99.54601428571429,0.008000000000000007,-0.1333333333333333,-0.1855,0.03,-0.05333333333332746,-0.03833333333332689,1.508,1.5525,37.369,29.424999999999997,37.535,34.513999999999996,55.96,34.769,59.6165,51.996,53.929,33.9595,58.226,50.3405,53.132999999999996,33.5545,58.183,49.760999999999996,-0.052000000000000046,-0.11149999999999993,0.100815,0.10355,0.0,208.135,208.035,204.9766666666667,204.9766666666667,0.0,0.0
7,0.0,0.0,0.0,1.0,1.0,0.0,0.0,1.0,0.0,100.0,1.0,1.1856,26.0,0.0,0.0,0.0,59.999996,0.0,26.0,26.0,26.0,26.0,-0.08077777777777784,0.28770000000000007,-0.015025,292.16,-2.6474,-2.747777777777778,-1.5484,-1.6182,-252.27,215.46,190.8475,0.0,0.0,0.0,0.0,0.015199999999999991,-5.498166666666667,-5.498166666666667,-0.5595,0.1183333333333334,-0.04211111111111121,0.43500000000000005,66.576,-0.0755,-0.24400000000000002,0.6639999999999997,100.0,1.0,1.0,205.46,0.0,0.0,0.0,0.0,0.0,0.0,0.0,8708.7,0.0,55.0,5.0,239.64333333333332,1.0,0.0,0.0,0.0,0.0,0.0,0.0,0.0,0.3569999999999993,0.3569999999999993,0.0,0.0,1.0,55.0,616.79921,10000.0,85.000001,85.000001,85.000001,85.000001,395.0,0.0,0.0,0.0,1.0,333.33500000000004,51.178,51.178,48.035,48.035,34.0,-25.78,20.571666666666665,-32.86333333333333,24.355,0.0,1784.148,-0.06500000000000128,100.0,29.762999999999998,28.933,43.281,42.329,0.0,0.0,100.0,0.0,0.0,0.0,0.0,3155.857142857143,2900.0,4165.0,3976.5,305.2335,305.52525,314.70925,314.95425,21.8284,20.553,21.8555,21.3706,314.999998,314.999998,324.999988,324.999988,99.55817142857143,99.50736666666667,99.56714285714285,99.54614285714285,0.03474999999999984,-0.118,-0.19066666666666665,0.038,-0.05333333333332746,-0.060000000000002274,1.5390000000000001,1.5554999999999999,37.427,29.456,37.597,34.5665,55.947,34.808,59.653,52.052,53.917,33.9955,58.26,50.394,53.120000000000005,33.589,58.2145,49.81366666666666,-0.09099999999999997,-0.07799999999999985,0.10375500000000001,0.11185,0.0,208.555,208.5,205.46,205.46,0.0,0.0
8,0.0,0.0,0.0,1.0,1.0,0.0,0.0,1.0,0.0,100.0,1.0,1.1856,26.0,0.0,0.0,0.0,59.999996,0.0,26.0,26.0,26.0,26.0,-0.06522222222222218,0.2792000000000001,-0.024925000000000003,292.114,-2.6551,-2.6817777777777776,-1.5582,-1.5748,-248.67000000000002,215.45499999999998,190.825625,0.0,0.0,0.0,0.0,0.017299999999999982,-5.498166666666667,-5.498166666666667,-0.5647,-0.09033333333333338,-0.03588888888888908,-0.39800000000000013,66.729,-0.0654,-0.24982500000000002,0.2940000000000005,100.0,1.0,1.0,205.94333333333333,0.0,0.0,0.0,0.0,0.0,0.0,0.0,8729.1,0.0,55.0,5.0,240.19666666666666,0.0,0.0,0.0,0.0,0.0,0.0,0.0,0.0,0.41100000000000136,0.41100000000000136,0.0,0.0,0.0,55.0,616.79921,10000.0,85.000001,85.000001,85.000001,85.000001,395.0,0.0,0.0,0.0,1.0,166.665,51.086,51.086,47.821,47.821,34.0,-25.32,21.435000000000002,-31.66,24.37,0.0,1784.096,-0.16999999999999815,100.0,29.6,29.125,43.374,42.555,0.0,0.0,100.0,0.0,0.0,0.0,0.0,3126.285714285714,3012.8,4068.375,3968.3,305.377,305.17925,314.9445,315.00525,21.8387,20.5586,21.8667,21.3802,314.999998,314.999998,324.999988,324.999988,99.55817142857143,99.50738333333334,99.56728571428572,99.54628571428572,0.03925000000000001,-0.10533333333333339,-0.183,0.052333333333333336,-0.03999999999999915,-0.036666666666668846,1.548,1.563,37.492000000000004,29.491333333333333,37.667,34.626,55.932,34.851,59.694,52.1165,53.902,34.035,58.298,50.456,53.104,33.626999999999995,58.2495,49.874,-0.10499999999999998,-0.06950000000000012,0.10977500000000001,0.11152000000000001,0.0,209.0,208.965,205.94333333333333,205.94333333333333,0.0,0.0
9,0.0,0.0,0.0,1.0,1.0,0.0,0.0,1.0,0.0,100.0,1.0,1.1856,26.0,0.0,0.0,0.0,59.999996,0.0,26.0,26.0,26.0,26.0,-0.03733333333333333,0.27970000000000006,0.00235,291.809,-2.6341,-2.695666666666667,-1.54595,-1.5753,-245.67000000000002,215.45,190.807125,0.0,0.0,0.0,0.0,0.019033333333333347,-5.498166666666667,-5.498166666666667,-0.5605,0.2363333333333334,-0.04488888888888898,-0.039000000000000146,66.856,-0.0511,-0.242675,0.10599999999999987,100.0,1.0,1.0,206.29666666666668,0.0,0.0,0.0,0.0,0.0,0.0,0.0,8744.1,0.0,55.0,5.0,240.65333333333334,1.0,0.0,0.0,0.0,0.0,0.0,0.0,0.0,0.4559999999999995,0.4559999999999995,0.0,0.0,1.0,55.0,616.79921,10000.0,85.000001,85.000001,85.000001,85.000001,395.0,0.0,0.0,0.0,1.0,333.33500000000004,50.766,50.766,47.867,47.867,34.0,-24.973333333333333,22.428333333333335,-30.599999999999998,26.66,0.0,1784.049,-0.26500000000000057,100.0,29.85,29.185000000000002,43.385,42.646,0.0,0.0,100.0,0.0,0.0,0.0,0.0,3200.857142857143,3024.7,4109.125,4109.3,305.1095,305.156,314.876,314.64725,21.8474,20.563299999999998,21.876,21.3881,314.999998,314.999998,324.999988,324.999988,99.55817142857143,99.50738333333334,99.56741428571429,99.54641428571429,0.060249999999999915,-0.08666666666666656,-0.157,0.0735,-0.041666666666671404,-0.05666666666667197,1.5354999999999999,1.5354999999999999,37.546,29.520666666666664,37.724999999999994,34.6755,55.92,34.8865,59.7275,52.1695,53.89,34.068,58.329499999999996,50.507,53.092,33.658,58.278,49.924,-0.11149999999999993,-0.06000000000000005,0.101955,0.10579000000000001,0.0,209.41,209.385,206.29666666666668,206.29666666666668,0.0,0.0
10,0.0,0.0,0.0,1.0,1.0,0.0,0.0,1.0,0.0,100.0,1.0,1.1856,26.0,0.0,0.0,0.0,59.999996,0.0,26.0,26.0,26.0,26.0,-0.02644444444444438,0.2902,0.00445,291.748,-2.6457,-2.671666666666667,-1.564,-1.5583,-242.25,215.445,190.786375,0.0,0.0,0.0,0.0,0.02103333333333335,-5.498166666666667,-5.498166666666667,-0.556,-0.254,-0.017555555555555546,0.7509999999999999,67.001,-0.035,-0.242625,-0.11599999999999966,100.0,1.0,1.0,206.67333333333335,0.0,0.0,0.0,0.0,0.0,0.0,0.0,8760.1,0.0,55.0,5.0,241.17333333333335,0.0,0.0,0.0,0.0,0.0,0.0,1.0,0.0,0.5069999999999979,0.5069999999999979,0.0,0.0,0.0,55.0,616.79921,10000.0,85.000001,85.000001,85.000001,85.000001,395.0,0.0,0.0,0.0,1.0,333.33500000000004,51.041,51.041,47.577,47.577,34.0,-23.593333333333334,22.276666666666667,-30.226666666666663,27.9575,0.0,1783.998,-0.370000000000001,100.0,29.784,29.152,43.527,43.022999999999996,0.0,0.0,100.0,0.0,0.0,0.0,0.0,3064.285714285714,3007.3,4109.25,4230.4,305.514,305.239,314.82275,314.3495,21.8571,20.5686,21.8866,21.397199999999998,314.999998,314.999998,324.999988,324.999988,99.55818571428571,99.5074,99.56757142857143,99.54655714285714,0.06625000000000014,-0.08099999999999996,-0.14183333333333334,0.08366666666666667,-0.051666666666669414,-0.05666666666667197,1.521,1.528,37.607,29.553666666666665,37.791,34.7325,55.907,34.9255,59.7665,52.2315,53.878,34.1035,58.366,50.566,53.078,33.692499999999995,58.3115,49.982,-0.11749999999999994,-0.05699999999999994,0.106065,0.10729000000000001,0.0,209.835,209.825,206.67333333333335,206.67333333333335,0.0,0.0
11,0.0,0.0,0.0,1.0,1.0,0.0,0.0,1.0,0.0,100.0,1.0,1.1856,26.0,0.0,0.0,0.0,59.999996,0.0,26.0,26.0,26.0,26.0,-0.0020000000000000018,0.2833000000000001,-0.032675,291.977,-2.6549,-2.6654444444444443,-1.5660500000000002,-1.532,-238.82999999999998,215.435,190.76525,0.0,0.0,0.0,0.0,0.022599999999999953,-5.498166666666667,-5.498166666666667,-0.5762,-0.23233333333333328,0.0058888888888888324,0.22799999999999976,67.142,-0.017400000000000002,-0.253525,-0.266,100.0,1.0,1.0,207.19333333333333,0.0,0.0,0.0,0.0,0.0,0.0,0.0,8782.1,0.0,55.0,5.0,241.68333333333334,1.0,0.0,0.0,0.0,0.0,0.0,1.0,0.0,0.5579999999999998,0.5579999999999998,0.0,0.0,1.0,55.0,616.79921,10000.0,85.000001,85.000001,85.000001,85.000001,395.0,0.0,0.0,0.0,1.0,333.33500000000004,50.964,50.964,48.004,48.004,34.0,-23.293333333333333,23.75333333333333,-27.68,26.837500000000002,0.0,1783.947,-0.5899999999999999,100.0,29.514,29.226,43.252,43.065,0.0,0.0,100.0,0.0,0.0,0.0,0.0,3089.714285714286,3100.3,3941.75,4086.1000000000004,305.4595,304.94025,315.2555,314.72075,21.8668,20.573999999999998,21.897,21.4062,314.999998,314.999998,324.999988,324.999988,99.55818571428571,99.5074,99.5677,99.5467,0.08000000000000007,-0.06399999999999995,-0.12416666666666668,0.096,-0.036666666666668846,-0.051666666666669414,1.5735000000000001,1.58,37.667,29.587333333333333,37.857,34.789,55.894,34.9645,59.8025,52.292,53.864999999999995,34.1395,58.399,50.6245,53.065,33.7265,58.341499999999996,50.039,-0.123,-0.04800000000000004,0.10599000000000001,0.10200000000000001,0.0,210.255,210.26999999999998,207.19333333333333,207.19333333333333,0.0,0.0
12,0.0,0.0,0.0,1.0,1.0,0.0,0.0,1.0,0.0,100.0,1.0,1.1856,26.0,0.0,0.0,0.0,59.999996,0.0,26.0,26.0,26.0,26.0,0.0058888888888888324,0.2893000000000001,0.010425,291.611,-2.6898999999999997,-2.652222222222222,-1.5737,-1.5444,-235.61,215.43,190.744625,0.0,0.0,0.0,0.0,0.025466666666666526,-5.498166666666667,-5.498166666666667,-0.5676,0.3836666666666666,0.013333333333333197,-0.007000000000000117,67.276,-0.0011,-0.23635,-0.30400000000000027,100.0,1.0,1.0,207.54666666666668,0.0,0.0,0.0,0.0,0.0,0.0,0.0,8797.2,0.0,55.0,5.0,242.16666666666666,0.0,0.0,0.0,0.0,0.0,0.0,1.0,0.0,0.6059999999999981,0.6059999999999981,0.0,0.0,0.0,55.0,616.79921,10000.0,85.000001,85.000001,85.000001,85.000001,395.0,0.0,0.0,0.0,1.0,333.33500000000004,50.674,50.674,47.394,47.394,34.0,-23.526666666666664,23.811666666666667,-28.583333333333336,29.35,0.0,1783.9,-0.33500000000000085,100.0,29.661,29.586,43.141,43.112,0.0,0.0,100.0,0.0,0.0,0.0,0.0,3068.5714285714284,3155.1,4122.0,4233.1,305.5125,304.74825,314.8365,314.37825,21.8759,20.5792,21.9069,21.4147,314.999998,314.999998,324.999988,324.999988,99.5582,99.50741666666667,99.56784285714286,99.54682857142858,0.07825000000000015,-0.07166666666666666,-0.1065,0.11266666666666668,-0.03833333333332689,-0.060000000000002274,1.532,1.513,37.724000000000004,29.619666666666667,37.918,34.842,55.882999999999996,35.0015,59.837,52.349000000000004,53.854,34.174,58.431,50.679,53.053,33.7595,58.3705,50.092333333333336,-0.10199999999999987,-0.07250000000000023,0.1107,0.10407000000000001,0.0,210.675,210.72,207.54666666666668,207.54666666666668,0.0,0.0
13,0.0,0.0,0.0,1.0,1.0,0.0,0.0,1.0,0.0,100.0,1.0,1.1856,26.0,0.0,0.0,0.0,59.999996,0.0,26.0,26.0,26.0,26.0,0.02633333333333332,0.27259999999999995,0.018850000000000002,291.412,-2.6604,-2.6661111111111113,-1.5867499999999999,-1.5558,-232.17000000000002,215.4225,190.723125,0.0,0.0,0.0,0.0,0.026899999999999924,-5.498166666666667,-5.498166666666667,-0.5645,-0.2366666666666668,0.007777777777777883,0.24399999999999977,67.419,0.0027,-0.24580000000000002,-0.2859999999999996,100.0,1.0,1.0,207.93,0.0,0.0,0.0,0.0,0.0,0.0,0.0,8813.3,0.0,55.0,5.0,242.68,1.0,0.0,0.0,0.0,0.0,0.0,1.0,0.0,0.657,0.657,0.0,0.0,1.0,55.0,616.79921,10000.0,85.000001,85.000001,85.000001,85.000001,395.0,0.0,0.0,0.0,1.0,333.33500000000004,50.629,50.629,47.287,47.287,34.0,-21.75,24.801666666666666,-28.599999999999998,30.335,0.0,1783.849,-0.41000000000000014,100.0,29.792,29.629,43.484,43.542,0.0,0.0,100.0,0.0,0.0,0.0,0.0,3092.0,3100.1,4113.625,4261.5,305.4425,304.92325,314.814,314.27925,21.8856,20.5847,21.9175,21.4239,314.999998,314.999998,324.999988,324.999988,99.55821428571429,99.50741666666667,99.56798571428571,99.54698571428571,0.11775000000000002,-0.03966666666666663,-0.10200000000000001,0.1205,-0.045000000000001705,-0.04333333333332945,1.5139999999999998,1.488,37.785,29.654,37.985,34.8995,55.870999999999995,35.0405,59.8755,52.412,53.843,34.21,58.467,50.7395,53.041,33.794,58.4035,50.151666666666664,-0.133,-0.05049999999999999,0.10337500000000001,0.10891500000000001,0.0,211.13,211.125,207.93,207.93,0.0,0.0
14,0.0,0.0,0.0,1.0,1.0,0.0,0.0,1.0,0.0,100.0,1.0,1.1856,26.0,0.0,0.0,0.0,59.999996,0.0,26.0,26.0,26.0,26.0,0.029444444444444384,0.27190000000000003,-0.03785,291.656,-2.6761,-2.677777777777778,-1.5847,-1.5507,-228.53,215.41500000000002,190.700375,0.0,0.0,0.0,0.0,0.028999999999999915,-5.498166666666667,-5.498166666666667,-0.5743,-0.006000000000000005,0.02122222222222203,0.1499999999999999,67.566,0.0081,-0.25035,-0.38400000000000034,100.0,1.0,1.0,208.47,0.0,0.0,0.0,0.0,0.0,0.0,0.0,8836.3,0.0,55.0,5.0,243.21,0.0,0.0,0.0,0.0,0.0,0.0,1.0,0.0,0.7109999999999985,0.7109999999999985,0.0,0.0,0.0,55.0,616.79921,10000.0,85.000001,85.000001,85.000001,85.000001,395.0,0.0,0.0,0.0,1.0,166.665,50.766,50.766,47.653,47.653,34.0,-21.893333333333334,24.543333333333333,-27.46,29.155,0.0,1783.796,-0.4450000000000003,100.0,29.744,29.728,43.348,43.554,0.0,0.0,100.0,0.0,0.0,0.0,0.0,3041.4285714285716,3058.2,4008.0,4117.3,305.6015,305.02175,315.1385,314.60525,21.895699999999998,20.5905,21.9286,21.4336,314.999998,314.999998,324.999988,324.999988,99.55822857142857,99.50743333333334,99.56814285714286,99.54712857142857,0.1080000000000001,-0.040000000000000036,-0.10266666666666667,0.12683333333333333,-0.026666666666670835,-0.06499999999999773,1.5550000000000002,1.5394999999999999,37.848,29.690666666666665,38.054,34.96,55.858999999999995,35.0815,59.913,52.4765,53.832,34.2475,58.501999999999995,50.8015,53.028,33.83,58.435,50.21233333333333,-0.121,-0.04850000000000021,0.10657000000000001,0.10808500000000001,0.0,211.565,211.60500000000002,208.47,208.47,0.0,0.0
15,0.0,0.0,0.0,1.0,1.0,0.0,0.0,1.0,0.0,100.0,1.0,1.1856,26.0,0.0,0.0,0.0,59.999996,0.0,26.0,26.0,26.0,26.0,0.031222222222222262,0.27690000000000015,-0.022225,291.504,-2.6649,-2.655111111111111,-1.53495,-1.5725,-225.28,215.41,190.67975,0.0,0.0,0.0,0.0,0.030899999999999928,-5.498166666666667,-5.498166666666667,-0.5674,0.16799999999999993,0.027666666666666728,-0.06899999999999995,67.699,0.0166,-0.2391,-0.38599999999999923,100.0,1.0,1.0,208.83666666666667,0.0,0.0,0.0,0.0,0.0,0.0,0.0,8851.9,0.0,55.0,5.0,243.68666666666667,1.0,0.0,0.0,0.0,0.0,0.0,1.0,0.0,0.7590000000000003,0.7590000000000003,0.0,0.0,1.0,55.0,616.79921,10000.0,85.000001,85.000001,85.000001,85.000001,395.0,0.0,0.0,0.0,1.0,166.665,50.735,50.735,47.379,47.379,34.0,-21.77,23.64666666666667,-27.556666666666665,29.685,0.0,1783.748,-0.3099999999999987,100.0,29.793,29.844,43.345,43.702,0.0,0.0,100.0,0.0,0.0,0.0,0.0,3023.285714285714,3042.3,4110.375,4137.1,305.655,305.0595,314.91725,314.5675,21.9047,20.5957,21.9385,21.4421,314.999998,314.999998,324.999988,324.999988,99.55824285714286,99.50743333333334,99.56827142857144,99.54725714285715,0.10524999999999984,-0.05366666666666664,-0.1,0.127,-0.04333333333332945,-0.04333333333332945,1.5350000000000001,1.529,37.905,29.723333333333336,38.116,35.0135,55.849000000000004,35.118,59.9475,52.5345,53.821,34.281,58.533500000000004,50.8575,53.016999999999996,33.8625,58.464,50.266999999999996,-0.11299999999999999,-0.06599999999999984,0.10780500000000001,0.10072,0.0,211.98000000000002,211.995,208.83666666666667,208.83666666666667,0.0,0.0
16,0.0,0.0,0.0,1.0,1.0,0.0,0.0,1.0,0.0,100.0,1.0,1.1856,26.0,0.0,0.0,0.0,59.999996,0.0,26.0,26.0,26.0,26.0,0.03766666666666674,0.272,-0.0019500000000000001,291.245,-2.725,-2.6021111111111113,-1.58805,-1.5688,-222.03,215.405,190.659,0.0,0.0,0.0,0.0,0.03279999999999994,-5.498166666666667,-5.498166666666667,-0.5782,-0.2763333333333333,0.019777777777777894,-0.31899999999999995,67.83,0.017,-0.252775,-0.23799999999999955,100.0,1.0,1.0,209.24,0.0,0.0,0.0,0.0,0.0,0.0,0.0,8868.9,0.0,55.0,5.0,244.16333333333336,0.0,0.0,0.0,0.0,0.0,0.0,1.0,0.0,0.8069999999999986,0.8069999999999986,0.0,0.0,0.0,55.0,616.79921,10000.0,85.000001,85.000001,85.000001,85.000001,395.0,0.0,0.0,0.0,1.0,166.665,50.217,50.217,47.104,47.104,34.0,-23.41,25.439999999999998,-27.113333333333333,29.642500000000002,0.0,1783.7,-0.2699999999999996,100.0,29.745,29.974,43.604,43.872,0.0,0.0,100.0,0.0,0.0,0.0,0.0,3195.4285714285716,3227.2,4051.0,4050.3,305.234,304.54725,314.987,314.7885,21.9137,20.601,21.9485,21.4508,314.999998,314.999998,324.999988,324.999988,99.55825714285714,99.50745,99.5684,99.5474,0.11149999999999993,-0.038000000000000034,-0.085,0.14150000000000001,-0.06333333333333258,-0.04833333333333201,1.5404999999999998,1.521,37.961,29.756333333333334,38.178,35.067,55.837,35.155,59.9825,52.592,53.81,34.3155,58.5665,50.913,53.004999999999995,33.8955,58.494,50.321666666666665,-0.11349999999999993,-0.06899999999999995,0.10284000000000001,0.11220000000000001,0.0,212.39,212.39,209.24,209.24,0.0,0.0
17,0.0,0.0,0.0,1.0,1.0,0.0,0.0,1.0,0.0,100.0,1.0,1.1856,26.0,0.0,0.0,0.0,59.999996,0.0,26.0,26.0,26.0,26.0,0.04255555555555568,0.28200000000000003,0.039175,291.016,-2.5957,-2.685888888888889,-1.51375,-1.5314,-218.56,215.4,190.63675,0.0,0.0,0.0,0.0,0.03479999999999994,-5.498166666666667,-5.498166666666667,-0.5745,0.134,-0.002000000000000224,-0.31000000000000005,67.969,0.0143,-0.246175,-0.15600000000000058,100.0,1.0,1.0,209.59333333333333,0.0,0.0,0.0,0.0,0.0,0.0,0.0,8884.0,0.0,55.0,5.0,244.66333333333336,1.0,0.0,0.0,0.0,0.0,0.0,1.0,0.0,0.8580000000000005,0.8580000000000005,0.0,0.0,1.0,55.0,616.79921,10000.0,85.000001,85.000001,85.000001,85.000001,395.0,0.0,0.0,0.0,1.0,333.33500000000004,50.217,50.217,46.768,46.768,34.0,-21.9,24.513333333333332,-27.436666666666664,30.5375,0.0,1783.647,-0.16499999999999915,100.0,30.007,30.1,43.607,43.870000000000005,0.0,0.0,100.0,0.0,0.0,0.0,0.0,3102.0,3105.2,4217.125,4254.5,305.3645,304.75375,314.58325,314.3375,21.9232,20.6066,21.959,21.4599,314.999998,314.999998,324.999988,324.999988,99.55827142857143,99.50745,99.56855714285714,99.54755714285714,0.10400000000000009,-0.05666666666666664,-0.08283333333333333,0.13366666666666666,-0.04999999999999716,-0.04333333333332945,1.5105,1.4989999999999999,38.019999999999996,29.791333333333334,38.244,35.124,55.826,35.195,60.019,52.6535,53.8,34.352000000000004,58.6005,50.972,52.992999999999995,33.9305,58.5245,50.379333333333335,-0.10199999999999987,-0.07600000000000007,0.09715000000000001,0.111905,0.0,212.835,212.845,209.59333333333333,209.59333333333333,0.0,0.0
18,0.0,0.0,0.0,1.0,1.0,0.0,0.0,1.0,0.0,100.0,1.0,1.1856,26.0,0.0,0.0,0.0,59.999996,0.0,26.0,26.0,26.0,26.0,0.03455555555555567,0.27160000000000006,0.01625,291.061,-2.6124,-2.716555555555556,-1.50765,-1.6006,-215.3,215.3975,190.615625,0.0,0.0,0.0,0.0,0.036699999999999955,-5.498166666666667,-5.498166666666667,-0.5849,-0.31633333333333336,-0.0007777777777779882,0.06400000000000006,68.1,0.0061,-0.254475,-0.03399999999999892,100.0,1.0,1.0,209.99666666666667,0.0,0.0,0.0,0.0,0.0,0.0,0.0,8901.0,0.0,55.0,5.0,245.13333333333333,0.0,0.0,0.0,0.0,0.0,0.0,1.0,0.0,0.9059999999999988,0.9059999999999988,0.0,0.0,0.0,55.0,616.79921,10000.0,85.000001,85.000001,85.000001,85.000001,395.0,0.0,0.0,0.0,1.0,333.33500000000004,50.247,50.247,47.012,47.012,34.0,-22.436666666666664,24.756666666666668,-27.55,30.2475,0.0,1783.599,-0.21499999999999986,100.0,29.989,29.977,43.771,44.019999999999996,0.0,0.0,100.0,0.0,0.0,0.0,0.0,3129.5714285714284,3129.2,4084.5,4184.8,305.3255,304.7315,314.86625,314.37825,21.9322,20.6118,21.968899999999998,21.4685,314.999998,314.999998,324.999988,324.999988,99.55828571428572,99.50745,99.56868571428572,99.54768571428572,0.09975000000000023,-0.06133333333333335,-0.10483333333333333,0.11816666666666667,-0.03166666666666629,-0.054999999999999716,1.4985,1.5065,38.076,29.823666666666668,38.306,35.178,55.815,35.2315,60.0535,52.711,53.789,34.385999999999996,58.6325,51.0275,52.980999999999995,33.963,58.554,50.43366666666667,-0.10650000000000004,-0.0754999999999999,0.10191000000000001,0.10944000000000001,0.0,213.21,213.23000000000002,209.99666666666667,209.99666666666667,0.0,0.0
19,0.0,0.0,0.0,1.0,1.0,0.0,0.0,1.0,0.0,100.0,1.0,1.1856,26.0,0.0,0.0,0.0,59.999996,0.0,26.0,26.0,26.0,26.0,0.02677777777777779,0.264,0.001275,290.924,-2.6139,-2.6823333333333332,-1.5425,-1.6174,-211.62,215.39499999999998,190.5915,0.0,0.0,0.0,0.0,0.038833333333333386,-5.498166666666667,-5.498166666666667,-0.5736,0.4793333333333334,0.007888888888888834,-0.008000000000000007,68.244,-0.0001,-0.241325,-0.03999999999999915,100.0,1.0,1.0,210.47,0.0,0.0,0.0,0.0,0.0,0.0,0.0,8921.1,0.0,55.0,5.0,245.65333333333334,1.0,0.0,0.0,0.0,0.0,0.0,1.0,0.0,0.9600000000000009,0.9600000000000009,0.0,0.0,1.0,55.0,616.79921,10000.0,85.000001,85.000001,85.000001,85.000001,395.0,0.0,0.0,0.0,1.0,166.665,50.064,50.064,47.028,47.028,34.0,-22.439999999999998,23.41166666666667,-28.509999999999998,30.095,0.0,1783.547,-0.15500000000000114,100.0,30.47,30.358,43.737,44.059,0.0,0.0,100.0,0.0,0.0,0.0,0.0,3088.142857142857,3028.0,4132.75,4174.6,305.438,305.05725,314.8105,314.44525,21.9424,20.6178,21.9801,21.4782,314.999998,314.999998,324.999988,324.999988,99.5583,99.50746666666667,99.56884285714285,99.54784285714285,0.09250000000000025,-0.06399999999999995,-0.10866666666666668,0.11233333333333333,-0.05666666666667197,-0.036666666666668846,1.5055,1.496,38.14,29.861333333333334,38.375,35.2385,55.804,35.2745,60.091499999999996,52.7755,53.778,34.4255,58.667500000000004,51.0895,52.969,34.001,58.585499999999996,50.49433333333333,-0.10199999999999987,-0.07250000000000023,0.100815,0.10948500000000001,0.0,213.72,213.685,210.47,210.47,0.0,0.0
20,0.0,0.0,0.0,1.0,1.0,0.0,0.0,1.0,0.0,100.0,1.0,1.1856,26.0,0.0,0.0,0.0,59.999996,0.0,26.0,26.0,26.0,26.0,0.005444444444444585,0.26290000000000013,-0.0471,291.046,-2.6702,-2.6197777777777778,-1.61555,-1.5523,-208.13,215.39249999999998,190.569125,0.0,0.0,0.0,0.0,0.04086666666666661,-5.498166666666667,-5.498166666666667,-0.5860000000000001,-0.7483333333333333,0.006444444444444253,-0.08599999999999985,68.382,0.0024000000000000002,-0.260625,-0.06400000000000006,100.0,1.0,1.0,210.9,0.0,0.0,0.0,0.0,0.0,0.0,0.0,8939.3,0.0,55.0,5.0,246.14666666666665,0.0,0.0,0.0,0.0,0.0,0.0,0.0,0.0,1.0109999999999992,1.0109999999999992,0.0,0.0,0.0,55.0,616.79921,10000.0,85.000001,85.000001,85.000001,85.000001,395.0,0.0,0.0,0.0,1.0,166.665,50.217,50.217,46.768,46.768,34.0,-22.983333333333334,23.23,-29.193333333333335,27.8475,0.0,1783.496,-0.10999999999999943,100.0,30.139,30.147,44.153,44.292,0.0,0.0,100.0,0.0,0.0,0.0,0.0,3107.714285714286,3127.7,4069.375,4034.2,305.446,304.8655,314.939,314.877,21.9518,20.6234,21.9907,21.4874,314.999998,314.999998,324.999988,324.999988,99.5583,99.50748333333334,99.56898571428572,99.54798571428572,0.09425000000000017,-0.07266666666666666,-0.11383333333333333,0.1145,-0.041666666666671404,-0.046666666666666856,1.525,1.5314999999999999,38.199,29.896,38.442,35.2965,55.791,35.314,60.129999999999995,52.8375,53.766,34.462,58.7035,51.149,52.956,34.0355,58.6185,50.55233333333334,-0.10599999999999987,-0.0794999999999999,0.10642000000000001,0.104175,0.0,214.075,214.09,210.9,210.9,0.0,0.0
21,0.0,0.0,0.0,1.0,1.0,0.0,0.0,1.0,0.0,100.0,1.0,1.1856,26.0,0.0,0.0,0.0,59.999996,0.0,26.0,26.0,26.0,26.0,0.005222222222222239,0.26639999999999997,-0.03065,291.077,-2.6845,-2.632777777777778,-1.5735999999999999,-1.5418,-204.85,215.39,190.5475,0.0,0.0,0.0,0.0,0.04276666666666651,-5.498166666666667,-5.498166666666667,-0.6013000000000001,0.1353333333333333,-0.0016666666666669272,0.005999999999999783,68.509,0.0015,-0.2561,0.006000000000000227,100.0,1.0,1.0,211.3466666666667,0.0,0.0,0.0,0.0,0.0,0.0,0.0,8958.2,0.0,55.0,5.0,246.60333333333335,1.0,0.0,0.0,0.0,0.0,0.0,0.0,0.0,1.059000000000001,1.059000000000001,0.0,0.0,1.0,55.0,616.79921,10000.0,85.000001,85.000001,85.000001,85.000001,395.0,0.0,0.0,0.0,1.0,166.665,49.957,49.957,47.256,47.256,34.0,-24.12,24.27166666666667,-28.436666666666664,28.4175,0.0,1783.448,-0.14000000000000057,100.0,30.258,30.108,43.75,43.876,0.0,0.0,100.0,0.0,0.0,0.0,0.0,3206.142857142857,3192.4,4060.125,4085.6000000000004,305.1475,304.67375,315.0215,314.777,21.9608,20.6286,22.0005,21.496,314.999998,314.999998,324.999988,324.999988,99.55831428571429,99.50748333333334,99.56912857142858,99.54812857142858,0.09125000000000005,-0.06433333333333335,-0.11633333333333333,0.122,-0.045000000000001705,-0.04333333333332945,1.5625,1.5494999999999999,38.254999999999995,29.929000000000002,38.503,35.3495,55.78,35.3515,60.1625,52.8925,53.754999999999995,34.4965,58.7335,51.202,52.945,34.069,58.6455,50.60433333333333,-0.10149999999999992,-0.08650000000000002,0.10899500000000001,0.110255,0.0,214.5,214.49,211.3466666666667,211.3466666666667,0.0,0.0
22,0.0,0.0,0.0,1.0,1.0,0.0,0.0,1.0,0.0,100.0,1.0,1.1856,26.0,0.0,0.0,0.0,59.999996,0.0,26.0,26.0,26.0,26.0,-0.008111111111111069,0.28380000000000005,0.02385,290.634,-2.7254,-2.636,-1.5805500000000001,-1.5417,-201.56,215.3875,190.525,0.0,0.0,0.0,0.0,0.04469999999999996,-5.498166666666667,-5.498166666666667,-0.5860000000000001,0.03366666666666662,0.005222222222222239,0.1589999999999998,68.639,-0.00030000000000000003,-0.23485,-0.049999999999998934,100.0,1.0,1.0,211.57999999999998,0.0,0.0,0.0,0.0,0.0,0.0,0.0,8968.1,0.0,55.0,5.0,247.07,0.0,0.0,0.0,0.0,0.0,0.0,0.0,0.0,1.1069999999999993,1.1069999999999993,0.0,0.0,0.0,55.0,616.79921,10000.0,85.000001,85.000001,85.000001,85.000001,395.0,0.0,0.0,0.0,1.0,166.665,50.049,50.049,46.432,46.432,34.0,-24.096666666666664,24.038333333333334,-30.876666666666665,30.5275,0.0,1783.4,-0.245000000000001,100.0,30.281,30.162,43.965,44.055,0.0,0.0,100.0,0.0,0.0,0.0,0.0,3182.142857142857,3162.5,4293.0,4397.5,305.291,304.78825,314.42175,314.00875,21.9697,20.6339,22.0105,21.5046,314.999998,314.999998,324.999988,324.999988,99.55832857142858,99.5075,99.56925714285714,99.54827142857143,0.09399999999999986,-0.06366666666666665,-0.11483333333333333,0.10716666666666667,-0.041666666666671404,-0.054999999999999716,1.4805000000000001,1.4929999999999999,38.311,29.962,38.566,35.403999999999996,55.769,35.3895,60.198,52.9505,53.745000000000005,34.5315,58.7665,51.2575,52.933,34.1025,58.6755,50.65866666666666,-0.10999999999999988,-0.07350000000000012,0.10804000000000001,0.104065,0.0,214.905,214.9,211.57999999999998,211.57999999999998,0.0,0.0
23,0.0,0.0,0.0,1.0,1.0,0.0,0.0,1.0,0.0,100.0,1.0,1.1856,26.0,0.0,0.0,0.0,59.999996,0.0,26.0,26.0,26.0,26.0,0.0018888888888888289,0.2681,0.010925,290.573,-2.6249,-2.656777777777778,-1.6461999999999999,-1.5194,-198.05,215.385,190.5015,0.0,0.0,0.0,0.0,0.04673333333333329,-5.498166666666667,-5.498166666666667,-0.5997,-0.2186666666666668,0.0033333333333331883,0.07200000000000006,68.773,0.0013000000000000002,-0.256875,-0.11399999999999899,100.0,1.0,1.0,212.05,0.0,0.0,0.0,0.0,0.0,0.0,0.0,8988.1,0.0,55.0,5.0,247.55333333333334,1.0,0.0,0.0,0.0,0.0,0.0,0.0,0.0,1.1580000000000013,1.1580000000000013,0.0,0.0,1.0,55.0,616.79921,10000.0,85.000001,85.000001,85.000001,85.000001,395.0,0.0,0.0,0.0,1.0,333.33500000000004,49.774,49.774,46.6,46.6,34.0,-23.54,23.89666666666667,-30.896666666666665,29.125,0.0,1783.348,-0.23000000000000043,100.0,30.494,30.318,44.187,44.313,0.0,0.0,100.0,0.0,0.0,0.0,0.0,3218.4285714285716,3121.4,4263.75,4207.9,305.026,304.82725,314.56425,314.47275,21.9792,20.6396,22.0211,21.5139,314.999998,314.999998,324.999988,324.999988,99.55834285714286,99.5075,99.56941428571429,99.54841428571429,0.09624999999999995,-0.06566666666666665,-0.10616666666666667,0.11783333333333333,-0.046666666666666856,-0.04833333333333201,1.508,1.505,38.370000000000005,29.997666666666667,38.632,35.462,55.757999999999996,35.43,60.235,53.0115,53.733999999999995,34.569,58.801,51.3165,52.922,34.138,58.7065,50.71633333333333,-0.10549999999999993,-0.07050000000000001,0.093545,0.10848000000000001,0.0,215.3,215.305,212.05,212.05,0.0,0.0
24,0.0,0.0,0.0,1.0,1.0,0.0,0.0,1.0,0.0,100.0,1.0,1.1856,26.0,0.0,0.0,0.0,59.999996,0.0,26.0,26.0,26.0,26.0,0.010000000000000009,0.2583,-0.05095,291.0,-2.6764,-2.658444444444444,-1.5588000000000002,-1.5675,-194.75,215.3825,190.478875,0.0,0.0,0.0,0.0,0.048633333333333306,-5.498166666666667,-5.498166666666667,-0.6124,-0.42133333333333334,0.014777777777777779,0.41100000000000003,68.899,0.0044,-0.25455,-0.16000000000000014,100.0,1.0,1.0,212.45,0.0,0.0,0.0,0.0,0.0,0.0,0.0,9004.9,0.0,55.0,5.0,248.01,0.0,0.0,0.0,0.0,0.0,0.0,0.0,0.0,1.2059999999999995,1.2059999999999995,0.0,0.0,0.0,55.0,616.79921,10000.0,85.000001,85.000001,85.000001,85.000001,395.0,0.0,0.0,0.0,1.0,166.665,50.446,50.446,46.707,46.707,34.0,-22.593333333333334,23.32333333333333,-28.923333333333336,29.0825,0.0,1783.301,-0.245000000000001,100.0,30.234,30.075,44.123000000000005,44.24,0.0,0.0,100.0,0.0,0.0,0.0,0.0,3034.857142857143,3066.3,4123.375,4146.0,305.6745,305.03375,314.80275,314.5885,21.9881,20.6448,22.0311,21.5225,314.999998,314.999998,324.999988,324.999988,99.55835714285715,99.5075,99.56955714285715,99.54854285714286,0.09025000000000016,-0.06699999999999995,-0.1135,0.11416666666666668,-0.046666666666666856,-0.04833333333333201,1.521,1.522,38.425,30.03033333333333,38.694,35.516,55.747,35.466,60.2685,53.068,53.723,34.602000000000004,58.832,51.3705,52.909,34.17,58.735,50.769333333333336,-0.10699999999999998,-0.07500000000000018,0.10672000000000001,0.10660000000000001,0.0,215.69,215.69,212.45,212.45,0.0,0.0
25,0.0,0.0,0.0,1.0,1.0,0.0,0.0,1.0,0.0,100.0,1.0,1.1856,26.0,0.0,0.0,0.0,59.999996,0.0,26.0,26.0,26.0,26.0,0.012222222222222134,0.2651000000000001,-0.005025,290.726,-2.651,-2.631333333333333,-1.59945,-1.5642,-191.23000000000002,215.38,190.4535,0.0,0.0,0.0,0.0,0.05069999999999997,-5.498166666666667,-5.498166666666667,-0.627,0.20466666666666666,0.019555555555555548,-0.27700000000000014,69.032,0.0051,-0.250125,-0.11599999999999966,100.0,1.0,1.0,212.90333333333334,0.0,0.0,0.0,0.0,0.0,0.0,0.0,9024.2,0.0,55.0,5.0,248.49,1.0,0.0,0.0,0.0,0.0,0.0,0.0,0.0,1.256999999999998,1.256999999999998,0.0,0.0,1.0,55.0,616.79921,10000.0,85.000001,85.000001,85.000001,85.000001,395.0,0.0,0.0,0.0,1.0,333.33500000000004,49.576,49.576,46.951,46.951,34.0,-24.276666666666664,25.758333333333333,-28.45,29.35,0.0,1783.248,-0.3049999999999997,100.0,30.23,30.311,43.858000000000004,44.07,0.0,0.0,100.0,0.0,0.0,0.0,0.0,3262.4285714285716,3309.4,4083.375,4137.1,304.934,304.2615,315.007,314.626,21.9975,20.6505,22.0415,21.5317,314.999998,314.999998,324.999988,324.999988,99.55837142857143,99.50751666666666,99.5697,99.5487,0.09324999999999983,-0.05566666666666664,-0.1045,0.122,-0.045000000000001705,-0.05833333333333002,1.5404999999999998,1.5215,38.483999999999995,30.066,38.76,35.573,55.735,35.5065,60.3025,53.127,53.712,34.6395,58.864,51.4275,52.897,34.2055,58.7635,50.824666666666666,-0.10949999999999993,-0.0714999999999999,0.11101000000000001,0.10648500000000001,0.0,216.11,216.125,212.90333333333334,212.90333333333334,0.0,0.0
26,0.0,0.0,0.0,1.0,1.0,0.0,0.0,1.0,0.0,100.0,1.0,1.1856,26.0,0.0,0.0,0.0,59.999996,0.0,26.0,26.0,26.0,26.0,0.026888888888888962,0.26839999999999997,0.055525000000000005,289.993,-2.6769,-2.626333333333333,-1.5643,-1.5661,-187.5,215.38,190.426625,0.0,0.0,0.0,0.0,0.052866666666666506,-5.498166666666667,-5.498166666666667,-0.5985,0.07933333333333337,0.009888888888888836,0.2509999999999999,69.175,0.005200000000000001,-0.23585,-0.15600000000000058,100.0,1.0,1.0,213.14666666666668,0.0,0.0,0.0,0.0,0.0,0.0,0.0,9034.5,0.0,55.0,5.0,249.00333333333333,0.0,0.0,0.0,0.0,0.0,0.0,0.0,0.0,1.311,1.311,0.0,0.0,0.0,55.0,616.79921,10000.0,85.000001,85.000001,85.000001,85.000001,395.0,0.0,0.0,0.0,1.0,166.665,49.515,49.515,45.822,45.822,34.0,-22.96,24.39,-31.146666666666665,32.86,0.0,1783.196,-0.3249999999999993,100.0,30.833,30.647,44.363,44.564,0.0,0.0,100.0,0.0,0.0,0.0,0.0,3160.142857142857,3161.6,4434.75,4443.9,305.185,304.786,314.0865,313.8275,22.0076,20.6567,22.0528,21.5416,314.999998,314.999998,324.999988,324.999988,99.55838571428572,99.50751666666666,99.56985714285715,99.54885714285714,0.10999999999999988,-0.05399999999999994,-0.098,0.12816666666666665,-0.046666666666666856,-0.02833333333332888,1.4375,1.43,38.548,30.104333333333333,38.83,35.635,55.724999999999994,35.5495,60.3435,53.1935,53.702,34.6795,58.902,51.4915,52.885999999999996,34.244,58.798,50.88733333333333,-0.12199999999999989,-0.0714999999999999,0.09756000000000001,0.11563000000000001,0.0,216.57,216.56,213.14666666666668,213.14666666666668,0.0,0.0
27,0.0,0.0,0.0,1.0,1.0,0.0,0.0,1.0,0.0,100.0,1.0,1.1856,26.0,0.0,0.0,0.0,59.999996,0.0,26.0,26.0,26.0,26.0,0.011111111111111072,0.2619,-0.043475,290.512,-2.7217000000000002,-2.6416666666666666,-1.62115,-1.5481,-184.17000000000002,215.38,190.4035,0.0,0.0,0.0,0.0,0.05479999999999996,-5.498166666666667,-5.498166666666667,-0.6285000000000001,-0.7710000000000001,0.01633333333333331,-0.016000000000000014,69.298,0.011000000000000001,-0.273275,-0.27200000000000024,100.0,1.0,1.0,213.69333333333333,0.0,0.0,0.0,0.0,0.0,0.0,0.0,9057.6,0.0,55.0,5.0,249.44666666666666,1.0,0.0,0.0,0.0,0.0,0.0,0.0,0.0,1.3589999999999982,1.3589999999999982,0.0,0.0,1.0,55.0,616.79921,10000.0,85.000001,85.000001,85.000001,85.000001,395.0,0.0,0.0,0.0,1.0,166.665,49.713,49.713,46.417,46.417,34.0,-23.84,24.686666666666667,-28.189999999999998,29.0675,0.0,1783.148,-0.3000000000000007,100.0,30.496,30.626,44.618,44.714,0.0,0.0,100.0,0.0,0.0,0.0,0.0,3180.285714285714,3195.2,4002.375,4110.0,305.329,304.65825,315.08425,314.716,22.0164,20.6621,22.0629,21.5504,314.999998,314.999998,324.999988,324.999988,99.5584,99.50753333333333,99.56998571428572,99.549,0.09850000000000003,-0.05799999999999994,-0.10383333333333333,0.12616666666666668,-0.03166666666666629,-0.046666666666666856,1.5444999999999998,1.527,38.602999999999994,30.137999999999998,38.893,35.69,55.715,35.5875,60.3785,53.2505,53.692,34.7145,58.934,51.546,52.875,34.2775,58.827,50.941,-0.11349999999999993,-0.07299999999999995,0.111295,0.11220000000000001,0.0,216.89499999999998,216.91500000000002,213.69333333333333,213.69333333333333,0.0,0.0
28,0.0,0.0,0.0,1.0,1.0,0.0,0.0,1.0,0.0,100.0,1.0,1.1856,26.0,0.0,0.0,0.0,59.999996,0.0,26.0,26.0,26.0,26.0,0.026555555555555665,0.2621,-0.03245,290.497,-2.6515,-2.6245555555555558,-1.6325500000000002,-1.5764,-180.64,215.38,190.377875,0.0,0.0,0.0,0.0,0.0568333333333334,-5.498166666666667,-5.498166666666667,-0.627,0.47566666666666657,0.002888888888888941,-0.20199999999999996,69.429,0.0142,-0.2452,-0.2839999999999989,100.0,1.0,1.0,214.08333333333331,0.0,0.0,0.0,0.0,0.0,0.0,0.0,9074.2,0.0,55.0,5.0,249.92000000000002,0.0,0.0,0.0,0.0,0.0,0.0,0.0,0.0,1.4100000000000001,1.4100000000000001,0.0,0.0,0.0,55.0,616.79921,10000.0,85.000001,85.000001,85.000001,85.000001,395.0,0.0,0.0,0.0,1.0,166.665,49.82,49.82,46.249,46.249,34.0,-21.896666666666665,24.39333333333333,-30.286666666666665,29.945,0.0,1783.096,-0.33500000000000085,100.0,30.645,30.677,44.112,44.369,0.0,0.0,100.0,0.0,0.0,0.0,0.0,3070.142857142857,3146.3,4300.75,4198.6,305.5055,304.757,314.54,314.52575,22.0259,20.6678,22.0733,21.5595,314.999998,314.999998,324.999988,324.999988,99.55841428571429,99.50753333333333,99.57014285714286,99.54914285714285,0.11050000000000004,-0.05266666666666664,-0.09433333333333332,0.12033333333333333,-0.04333333333332945,-0.05666666666667197,1.517,1.5135,38.662,30.174,38.958,35.747,55.704,35.628,60.412,53.309,53.682,34.7515,58.9655,51.6025,52.864000000000004,34.313,58.855000000000004,50.996,-0.11650000000000005,-0.06999999999999984,0.105215,0.09593,0.0,217.36,217.365,214.08333333333331,214.08333333333331,0.0,0.0
29,0.0,0.0,0.0,1.0,1.0,0.0,0.0,1.0,0.0,100.0,1.0,1.1856,26.0,0.0,0.0,0.0,59.999996,0.0,26.0,26.0,26.0,26.0,0.026555555555555665,0.2490000000000001,-0.024900000000000002,290.405,-2.722,-2.5525555555555557,-1.6137000000000001,-1.5587,-177.3,215.38,190.353,0.0,0.0,0.0,0.0,0.05879999999999996,-5.498166666666667,-5.498166666666667,-0.635,-0.6640000000000001,0.0020000000000000018,-0.0030000000000001137,69.555,0.014700000000000001,-0.2505,-0.24399999999999977,100.0,1.0,1.0,214.38333333333333,0.0,0.0,0.0,0.0,0.0,0.0,0.0,9087.0,0.0,55.0,5.0,250.37,1.0,0.0,0.0,0.0,0.0,0.0,0.0,0.0,1.4579999999999984,1.4579999999999984,0.0,0.0,1.0,55.0,616.79921,10000.0,85.000001,85.000001,85.000001,85.000001,395.0,0.0,0.0,0.0,1.0,333.33500000000004,49.866,49.866,46.295,46.295,34.0,-23.433333333333334,24.368333333333332,-28.93,30.945,0.0,1783.048,-0.40500000000000114,100.0,30.391,30.475,44.502,44.737,0.0,0.0,100.0,0.0,0.0,0.0,0.0,3227.285714285714,3214.4,4169.5,4272.3,305.282,304.80925,314.765,314.27675,22.0346,20.6732,22.0833,21.5683,314.999998,314.999998,324.999988,324.999988,99.55842857142858,99.50755,99.57028571428572,99.54928571428572,0.11474999999999991,-0.04466666666666663,-0.089,0.12683333333333333,-0.04833333333333201,-0.03333333333333144,1.4769999999999999,1.474,38.716,30.207333333333334,39.021,35.802,55.693,35.664500000000004,60.447,53.367,53.671,34.785,58.998,51.658500000000004,52.852000000000004,34.345,58.885,51.050333333333334,-0.12399999999999989,-0.06400000000000006,0.09430000000000001,0.10434500000000001,0.0,217.715,217.7,214.38333333333333,214.38333333333333,0.0,0.0
30,0.0,0.0,0.0,1.0,1.0,0.0,0.0,1.0,0.0,100.0,1.0,1.1856,26.0,0.0,0.0,0.0,59.999996,0.0,26.0,26.0,26.0,26.0,0.019444444444444375,0.2631000000000001,0.016775,289.719,-2.6948,-2.617222222222222,-1.64955,-1.4758,-173.95999999999998,215.38,190.328,0.0,0.0,0.0,0.0,0.060733333333333306,-5.498166666666667,-5.498166666666667,-0.6302,0.9056666666666666,0.0043333333333333,0.20100000000000007,69.676,0.0161,-0.24827500000000002,-0.3520000000000003,100.0,1.0,1.0,214.81666666666666,0.0,0.0,0.0,0.0,0.0,0.0,0.0,9105.4,0.0,55.0,5.0,250.80666666666667,0.0,0.0,0.0,0.0,0.0,0.0,1.0,0.0,1.5060000000000002,1.5060000000000002,0.0,0.0,0.0,55.0,616.79921,10000.0,85.000001,85.000001,85.000001,85.000001,395.0,0.0,0.0,0.0,1.0,333.33500000000004,48.462,48.462,46.112,46.112,34.0,-23.97,26.11,-30.686666666666664,29.89,0.0,1783.0,-0.41000000000000014,100.0,31.266,31.195999999999998,44.3,44.668,0.0,0.0,100.0,0.0,0.0,0.0,0.0,3330.5714285714284,3327.1,4307.75,4296.2,304.6815,304.086,314.5705,314.418,22.043599999999998,20.6788,22.0932,21.576999999999998,314.999998,314.999998,324.999988,324.999988,99.55842857142858,99.50755,99.57041428571429,99.54942857142858,0.12325000000000008,-0.05233333333333334,-0.09683333333333333,0.13366666666666666,-0.04833333333333201,-0.051666666666669414,1.513,1.5145,38.772999999999996,30.242666666666665,39.082,35.8565,55.687,35.704,60.4795,53.423,53.665,34.822,59.028,51.7125,52.845,34.3805,58.911500000000004,51.10333333333333,-0.13549999999999995,-0.06950000000000012,0.10954000000000001,0.1086,0.0,218.11,218.13,214.81666666666666,214.81666666666666,0.0,0.0
31,0.0,0.0,0.0,1.0,1.0,0.0,0.0,1.0,0.0,100.0,1.0,1.1856,26.0,0.0,0.0,0.0,59.999996,0.0,26.0,26.0,26.0,26.0,0.03433333333333333,0.24639999999999995,0.05255,289.49,-2.6712,-2.6654444444444443,-1.6546500000000002,-1.5503,-170.19,215.3825,190.30075,0.0,0.0,0.0,0.0,0.0629333333333334,-5.498166666666667,-5.498166666666667,-0.6183000000000001,-0.47233333333333327,0.014222222222222136,-0.27700000000000014,69.815,0.015700000000000002,-0.260925,-0.35799999999999876,100.0,1.0,1.0,215.10666666666668,0.0,0.0,0.0,0.0,0.0,0.0,0.0,9117.6,0.0,55.0,5.0,251.31,1.0,0.0,0.0,0.0,0.0,0.0,1.0,0.0,1.5599999999999987,1.5599999999999987,0.0,0.0,1.0,55.0,616.79921,10000.0,85.000001,85.000001,85.000001,85.000001,395.0,0.0,0.0,0.0,1.0,166.665,48.828,48.828,45.12,45.12,34.0,-22.103333333333335,26.726666666666667,-30.56,31.7275,0.0,1782.946,-0.4800000000000004,100.0,31.119,31.38,44.996,45.333,0.0,0.0,100.0,0.0,0.0,0.0,0.0,3129.714285714286,3319.3,4265.25,4309.8,305.345,304.154,314.47675,314.1105,22.0535,20.685,22.1046,21.5871,314.999998,314.999998,324.999988,324.999988,99.55845714285714,99.50756666666666,99.57058571428571,99.54958571428571,0.12124999999999986,-0.04633333333333334,-0.0905,0.13133333333333336,-0.041666666666671404,-0.03333333333333144,1.463,1.4315,38.835,30.281333333333336,39.153999999999996,35.9195,55.677,35.7475,60.521,53.491,53.655,34.862,59.0665,51.7775,52.834,34.419,58.9465,51.167,-0.13349999999999995,-0.06199999999999983,0.109005,0.10658000000000001,0.0,218.515,218.51,215.10666666666668,215.10666666666668,0.0,0.0
32,0.0,0.0,0.0,1.0,1.0,0.0,0.0,1.0,0.0,100.0,1.0,1.1856,26.0,0.0,0.0,0.0,59.999996,0.0,26.0,26.0,26.0,26.0,0.053777777777777924,0.2459,-0.041425000000000003,290.085,-2.6582,-2.6563333333333334,-1.5876000000000001,-1.6353,-166.84,215.385,190.27675,0.0,0.0,0.0,0.0,0.06486666666666652,-5.498166666666667,-5.498166666666667,-0.6397,-0.27466666666666684,-0.014555555555555877,-0.42799999999999994,69.935,0.020200000000000003,-0.27115,-0.39400000000000013,100.0,1.0,1.0,215.61333333333334,0.0,0.0,0.0,0.0,0.0,0.0,0.0,9139.0,0.0,55.0,5.0,251.74,0.0,0.0,0.0,0.0,0.0,0.0,1.0,0.0,1.6080000000000005,1.6080000000000005,0.0,0.0,0.0,55.0,616.79921,10000.0,85.000001,85.000001,85.000001,85.000001,395.0,0.0,0.0,0.0,1.0,333.33500000000004,49.332,49.332,46.219,46.219,34.0,-22.189999999999998,25.333333333333336,-27.576666666666664,31.91,0.0,1782.897,-0.40500000000000114,100.0,31.019,31.144,44.793,45.07,0.0,0.0,100.0,0.0,0.0,0.0,0.0,3149.857142857143,3142.8,4067.375,4192.1,305.322,304.80275,314.98575,314.46625,22.0623,20.6905,22.1144,21.5959,314.999998,314.999998,324.999988,324.999988,99.55847142857142,99.50756666666666,99.57072857142857,99.54974285714286,0.11925000000000008,-0.03600000000000003,-0.08783333333333333,0.14066666666666666,-0.02833333333332888,-0.045000000000001705,1.5074999999999998,1.512,38.888999999999996,30.315666666666665,39.215,35.9745,55.667,35.787,60.5545,53.5505,53.646,34.8985,59.098,51.835,52.823,34.454,58.9745,51.22266666666667,-0.12349999999999994,-0.05799999999999983,0.10428000000000001,0.10584,0.0,218.89,218.9,215.61333333333334,215.61333333333334,0.0,0.0
33,0.0,0.0,0.0,1.0,1.0,0.0,0.0,1.0,0.0,100.0,1.0,1.1856,26.0,0.0,0.0,0.0,59.999996,0.0,26.0,26.0,26.0,26.0,0.04488888888888898,0.2533000000000001,-0.057100000000000005,290.298,-2.6806,-2.6206666666666667,-1.661,-1.5923,-163.26999999999998,215.39,190.25,0.0,0.0,0.0,0.0,0.0669333333333334,-5.498166666666667,-5.498166666666667,-0.6443,-0.129,-0.006888888888889166,0.5070000000000001,70.064,0.0216,-0.249125,-0.3539999999999992,100.0,1.0,1.0,215.99333333333334,0.0,0.0,0.0,0.0,0.0,0.0,0.0,9155.2,0.0,55.0,5.0,252.20333333333335,1.0,0.0,0.0,0.0,0.0,0.0,1.0,0.0,1.658999999999999,1.658999999999999,0.0,0.0,1.0,55.0,616.79921,10000.0,85.000001,85.000001,85.000001,85.000001,395.0,0.0,0.0,0.0,1.0,166.665,49.698,49.698,46.356,46.356,34.0,-21.876666666666665,24.668333333333333,-29.206666666666663,30.997500000000002,0.0,1782.847,-0.41000000000000014,100.0,30.781,30.757,44.569,44.859,0.0,0.0,100.0,0.0,0.0,0.0,0.0,3130.857142857143,3124.8,4160.75,4200.6,305.406,304.90225,314.885,314.4745,22.0715,20.6962,22.1249,21.6051,314.999998,314.999998,324.999988,324.999988,99.55848571428571,99.50758333333333,99.57085714285714,99.54988571428571,0.12725000000000009,-0.039000000000000035,-0.08883333333333333,0.13333333333333336,-0.030000000000001137,-0.05666666666667197,1.5215,1.505,38.947,30.351333333333336,39.281,36.032,55.657,35.823,60.587,53.6055,53.635999999999996,34.9315,59.128,51.888,52.812,34.4855,59.0015,51.27433333333333,-0.133,-0.06300000000000017,0.10523,0.10382500000000001,0.0,219.26999999999998,219.31,215.99333333333334,215.99333333333334,0.0,0.0
34,0.0,0.0,0.0,1.0,1.0,0.0,0.0,1.0,0.0,100.0,1.0,1.1856,26.0,0.0,0.0,0.0,59.999996,0.0,26.0,26.0,26.0,26.0,0.035666666666666735,0.24730000000000008,-0.0898,290.543,-2.6327,-2.654777777777778,-1.6320999999999999,-1.5347,-159.89999999999998,215.39499999999998,190.223625,0.0,0.0,0.0,0.0,0.06889999999999996,-5.498166666666667,-5.498166666666667,-0.671,-0.9063333333333332,0.011333333333333195,0.21300000000000008,70.185,0.0256,-0.255175,-0.4060000000000006,100.0,1.0,1.0,216.33333333333331,0.0,0.0,0.0,0.0,0.0,0.0,0.0,9169.6,0.0,55.0,5.0,252.64,0.0,0.0,0.0,0.0,0.0,0.0,1.0,0.0,1.7070000000000007,1.7070000000000007,0.0,0.0,0.0,55.0,616.79921,10000.0,85.000001,85.000001,85.000001,85.000001,395.0,0.0,0.0,0.0,1.0,333.33500000000004,50.262,50.262,46.494,46.494,34.0,-21.396666666666665,24.758333333333333,-28.759999999999998,30.5575,0.0,1782.798,-0.3550000000000004,100.0,30.379,30.357,44.478,44.993,0.0,0.0,100.0,0.0,0.0,0.0,0.0,3061.714285714286,3105.6,4140.125,4229.1,305.6445,305.03275,314.86425,314.437,22.0801,20.7015,22.1347,21.6139,314.999998,314.999998,324.999988,324.999988,99.5585,99.50758333333333,99.571,99.55001428571428,0.11399999999999988,-0.038000000000000034,-0.08833333333333333,0.13583333333333333,-0.01833333333333087,-0.04999999999999716,1.5095,1.5015,39.001000000000005,30.384666666666668,39.342,36.087,55.646,35.858000000000004,60.619,53.663,53.626000000000005,34.964,59.1575,51.943,52.801,34.5165,59.028,51.32833333333333,-0.11250000000000004,-0.06099999999999994,0.111185,0.10151,0.0,219.635,219.66500000000002,216.33333333333331,216.33333333333331,0.0,0.0
35,0.0,0.0,0.0,1.0,1.0,0.0,0.0,1.0,0.0,100.0,1.0,1.1856,26.0,0.0,0.0,0.0,59.999996,0.0,26.0,26.0,26.0,26.0,0.03977777777777791,0.2533000000000001,-0.0475,290.451,-2.7646,-2.631333333333333,-1.6247,-1.5264,-156.11,215.4025,190.19175,0.0,0.0,0.0,0.0,0.07109999999999994,-5.498166666666667,-5.498166666666667,-0.7045,0.037666666666666626,-0.010333333333333083,-0.762,70.319,0.0286,-0.256675,-0.28200000000000003,100.0,1.0,1.0,216.82333333333332,0.0,0.0,0.0,0.0,0.0,0.0,0.0,9190.4,0.0,55.0,5.0,253.12333333333333,1.0,0.0,0.0,0.0,0.0,0.0,1.0,0.0,1.7609999999999992,1.7609999999999992,0.0,0.0,1.0,55.0,616.79921,10000.0,85.000001,85.000001,85.000001,85.000001,395.0,0.0,0.0,0.0,1.0,166.665,49.545,49.545,46.219,46.219,34.0,-23.39,26.52,-27.439999999999998,29.642500000000002,0.0,1782.745,-0.19500000000000028,100.0,30.272,30.852,44.227000000000004,44.388000000000005,0.0,0.0,100.0,0.0,0.0,0.0,0.0,3145.714285714286,3346.2,4055.0,4115.6,305.3635,304.1705,315.0265,314.7045,22.0898,20.7078,22.145699999999998,21.6236,314.999998,314.999998,324.999988,324.999988,99.55851428571428,99.50758333333333,99.57115714285715,99.55018571428572,0.11399999999999988,-0.04699999999999993,-0.07966666666666668,0.14083333333333334,-0.041666666666671404,-0.02833333333332888,1.5430000000000001,1.522,39.061,30.423666666666666,39.411,36.1475,55.632999999999996,35.900999999999996,60.653999999999996,53.7225,53.613,35.004,59.19,52.0005,52.787,34.555,59.057,51.38433333333333,-0.10699999999999998,-0.08050000000000024,0.10727500000000001,0.10700000000000001,0.0,220.065,220.07999999999998,216.82333333333332,216.82333333333332,0.0,0.0
36,0.0,0.0,0.0,1.0,1.0,0.0,0.0,1.0,0.0,100.0,1.0,1.1856,26.0,0.0,0.0,0.0,59.999996,0.0,26.0,26.0,26.0,26.0,0.03944444444444439,0.2623,-0.0005,290.054,-2.6175,-2.6864444444444446,-1.6428,-1.6048,-152.73,215.41,190.162375,0.0,0.0,0.0,0.0,0.07306666666666661,-5.498166666666667,-5.498166666666667,-0.6914,-0.2330000000000001,-0.04977777777777792,-0.6150000000000002,70.441,0.0198,-0.23742500000000002,-0.10599999999999987,100.0,1.0,1.0,216.98666666666668,0.0,0.0,0.0,0.0,0.0,0.0,0.0,9197.2,0.0,55.0,5.0,253.56333333333333,0.0,0.0,0.0,0.0,0.0,0.0,1.0,0.0,1.809000000000001,1.809000000000001,0.0,0.0,0.0,55.0,616.79921,10000.0,85.000001,85.000001,85.000001,85.000001,395.0,0.0,0.0,0.0,1.0,166.665,50.14,50.14,45.624,45.624,34.0,-20.023333333333333,23.418333333333333,-32.36666666666666,33.480000000000004,0.0,1782.697,-0.19500000000000028,100.0,30.777,30.79,44.51,44.849000000000004,0.0,0.0,100.0,0.0,0.0,0.0,0.0,2925.0,2947.4,4512.0,4455.3,305.863,305.2215,314.10325,313.846,22.0985,20.7133,22.1556,21.6325,314.999998,314.999998,324.999988,324.999988,99.55852857142857,99.50758333333333,99.5713,99.55032857142857,0.12225000000000019,-0.050999999999999934,-0.09183333333333334,0.12883333333333336,-0.046666666666666856,-0.041666666666671404,1.456,1.4565,39.114999999999995,30.458,39.473,36.2035,55.623999999999995,35.9385,60.688,53.781,53.604,35.0385,59.2215,52.057,52.777,34.5875,59.085499999999996,51.43933333333334,-0.11050000000000004,-0.07600000000000007,0.101305,0.10773500000000001,0.0,220.485,220.48000000000002,216.98666666666668,216.98666666666668,0.0,0.0
