,ABS Active,ABS Enabled,AID Allow Tire Blankets,AID Auto Blip,AID Auto Clutch,AID Auto Shift,AID Fuel Rate,AID Ideal Line,AID Mech Damage,AID Stability,AID Tire Wear Rate,Air Density,Air Temp,Ballast,Best Lap Delta,Best Lap Time,Brake Bias,Brake Pos,Brake Temp FL,Brake Temp FR,Brake Temp RL,Brake Temp RR,CG Accel Lateral,CG Accel Longitudinal,CG Accel Vertical,CG Height,Camber FL,Camber FR,Camber RL,Camber RR,Car Coord X,Car Coord Y,Car Coord Z,Car Damage Front,Car Damage Left,Car Damage Rear,Car Damage Right,Car Pos Norm,Caster FL,Caster FR,Chassis Pitch Angle,Chassis Pitch Rate,Chassis Roll Angle,Chassis Roll Rate,Chassis Velocity X,Chassis Velocity Y,Chassis Velocity Z,Chassis Yaw Rate,Clutch Pos,DRS Active,DRS Available,Drive Train Speed,ERS Heat Charging,ERS Is Charging,ERS Max Energy,ERS Power Level,ERS Recovery Level,Engine Brake Setting,Engine Limiter,Engine RPM,Flags,Fuel Level,Gear,Ground Speed,HR Sample Clock,In Pit,KERS Charge,KERS Deployed Energy,KERS Input,KERS Max Energy,LR Sample Clock,Lap Invalidated,Lap Time,Lap Time2,Last Lap Time,Last Sector Time,MR Sample Clock,Max Fuel,Max Power,Max RPM,Max Sus Travel FL,Max Sus Travel FR,Max Sus Travel RL,Max Sus Travel RR,Max Torque,Max Turbo Boost,Num Tires Off Track,Penalties Enabled,Position,Raw Data Sample Rate,Ride Height FL,Ride Height FR,Ride Height RL,Ride Height RR,Road Temp,Self Align Torque FL,Self Align Torque FR,Self Align Torque RL,Self Align Torque RR,Session Lap Count,Session Time Left,Steering Angle,Surface Grip,Suspension Travel FL,Suspension Travel FR,Suspension Travel RL,Suspension Travel RR,TC Active,TC Enabled,Throttle Pos,Tire Dirt Level FL,Tire Dirt Level FR,Tire Dirt Level RL,Tire Dirt Level RR,Tire Load FL,Tire Load FR,Tire Load RL,Tire Load RR,Tire Loaded Radius FL,Tire Loaded Radius FR,Tire Loaded Radius RL,Tire Loaded Radius RR,Tire Pressure FL,Tire Pressure FR,Tire Pressure RL,Tire Pressure RR,Tire Radius FL,Tire Radius FR,Tire Radius RL,Tire Radius RR,Tire Rubber Grip FL,Tire Rubber Grip FR,Tire Rubber Grip RL,Tire Rubber Grip RR,Tire Slip Angle FL,Tire Slip Angle FR,Tire Slip Angle RL,Tire Slip Angle RR,Tire Slip Ratio FL,Tire Slip Ratio FR,Tire Slip Ratio RL,Tire Slip Ratio RR,Tire Temp Core FL,Tire Temp Core FR,Tire Temp Core RL,Tire Temp Core RR,Tire Temp Inner FL,Tire Temp Inner FR,Tire Temp Inner RL,Tire Temp Inner RR,Tire Temp Middle FL,Tire Temp Middle FR,Tire Temp Middle RL,Tire Temp Middle RR,Tire Temp Outer FL,Tire Temp Outer FR,Tire Temp Outer RL,Tire Temp Outer RR,Toe In FL,Toe In FR,Toe In RL,Toe In RR,Turbo Boost,Wheel Angular Speed FL,Wheel Angular Speed FR,Wheel Angular Speed RL,Wheel Angular Speed RR,Wind Direction,Wind Speed
0,0.0,0.0,0.0,1.0,1.0,0.0,0.0,1.0,0.0,100.0,1.0,1.1856,26.0,0.0,0.0,0.0,59.99999,0.0,26.0,26.0,26.0,26.0,-0.17355555555555557,0.3002,0.03245,293.091,-2.6441,-2.685375,-1.47815,-1.6016,-275.65,216.2375,190.9865,0.0,0.0,0.0,0.0,0.0016,-5.498166666666667,-5.498166666666667,-0.5738,1.3385,-0.05600000000000005,-0.8490000000000002,65.557,-0.1091,-0.24195,1.8120000000000003,100.0,1.0,1.0,202.40666666666667,0.0,0.0,0.0,0.0,0.0,0.0,0.0,8579.2,0.0,55.0,5.0,235.9766666666667,0.0,0.0,0.0,0.0,0.0,0.0,0.0,0.0,0.0030000000000001137,0.0030000000000001137,0.0,0.0,0.0,55.0,616.79921,10000.0,85.0,85.0,85.0,85.0,395.0,0.0,0.0,0.0,1.0,20.0,51.071,51.071,49.316,49.316,34.0,-29.7875,19.394000000000002,-34.78333333333333,20.535,0.0,1783.611,1.2650000000000006,100.0,29.459,28.198,41.268,40.261,0.0,0.0,100.0,0.0,0.0,0.0,0.0,3131.375,3319.2,4181.333333333333,3943.5,305.35433333333333,304.2425,314.69375,314.9855,21.7733,20.5155,21.7749,21.314799999999998,314.99999,314.99999,324.99998,324.99998,99.55872857142857,99.50726666666667,99.56564285714286,99.54537142857143,-0.07099999999999995,-0.20199999999999996,-0.2443333333333334,-0.026833333333333376,-0.061666666666667425,-0.07499999999999574,1.51,1.5935000000000001,37.083,29.222,37.093,34.2175,56.257,34.49,59.226,51.7155,54.197,33.692499999999995,57.85,50.0625,53.387,33.2875,57.817499999999995,49.480000000000004,0.010499999999999954,-0.1725000000000001,0.10547000000000001,0.10800000000000001,0.0,205.505,205.34,202.40666666666667,202.40666666666667,0.0,0.0
1,0.0,0.0,0.0,1.0,1.0,0.0,0.0,1.0,0.0,100.0,1.0,1.1856,26.0,0.0,0.0,0.0,59.999996,0.0,26.0,26.0,26.0,26.0,-0.20333333333333337,0.29869999999999997,0.12200000000000001,292.145,-2.5555,-2.804875,-1.4802,-1.6033,-272.11,216.245,190.96525,0.0,0.0,0.0,0.0,0.0036666666666666666,-5.498166666666667,-5.498166666666667,-0.5242,-0.766,-0.11237500000000011,-1.1150000000000002,65.72,-0.11910000000000001,-0.22920000000000001,1.9900000000000002,100.0,1.0,1.0,202.58666666666667,0.0,0.0,0.0,0.0,0.0,0.0,0.0,8586.9,0.0,55.0,5.0,236.56,1.0,0.0,0.0,0.0,0.0,0.0,0.0,0.0,0.05699999999999861,0.05699999999999861,0.0,0.0,1.0,55.0,616.79921,10000.0,85.000001,85.000001,85.000001,85.000001,395.0,0.0,0.0,0.0,1.0,166.665,51.926,51.926,48.065,48.065,34.0,-30.0975,15.271999999999998,-37.88333333333333,25.165,0.0,1783.558,1.3000000000000007,100.0,29.608,28.017,43.518,41.418,0.0,0.0,100.0,0.0,0.0,0.0,0.0,3204.375,2665.7,4375.333333333333,4680.7,305.08666666666664,306.3555,314.14,313.17675,21.7839,20.5208,21.7864,21.3245,314.999998,314.999998,324.999988,324.999988,99.55874285714286,99.5073,99.5658,99.54551428571429,-0.07633333333333314,-0.21933333333333316,-0.25216666666666665,-0.03633333333333333,-0.03833333333332689,-0.03499999999999659,1.4045,1.4659999999999997,37.149,29.255333333333333,37.165,34.278,56.245000000000005,34.536500000000004,59.275999999999996,51.784,54.185,33.7355,57.897,50.1285,53.373999999999995,33.3285,57.861,49.544333333333334,0.01849999999999996,-0.18300000000000005,0.10734,0.10439000000000001,0.0,205.94,205.785,202.58666666666667,202.58666666666667,0.0,0.0
2,0.0,0.0,0.0,1.0,1.0,0.0,0.0,1.0,0.0,100.0,1.0,1.1856,26.0,0.0,0.0,0.0,59.999996,0.0,26.0,26.0,26.0,26.0,-0.2282222222222221,0.2754000000000001,-0.0596,292.938,-2.512,-2.8447500000000003,-1.4329,-1.6692,-268.95,216.2475,190.947625,0.0,0.0,0.0,0.0,0.0055000000000000005,-5.498166666666667,-5.498166666666667,-0.5716,0.09399999999999986,-0.11212500000000025,2.42,65.85300000000001,-0.1305,-0.280675,2.2360000000000007,100.0,1.0,1.0,203.4766666666667,0.0,0.0,0.0,0.0,0.0,0.0,0.0,8624.6,0.0,55.0,5.0,237.04000000000002,0.0,0.0,0.0,0.0,0.0,0.0,0.0,0.0,0.10500000000000043,0.10500000000000043,0.0,0.0,0.0,55.0,616.79921,10000.0,85.000001,85.000001,85.000001,85.000001,395.0,0.0,0.0,0.0,1.0,333.33500000000004,51.01,51.01,49.988,49.988,34.0,-33.2225,16.637999999999998,-32.67666666666667,17.5275,0.0,1783.509,1.1649999999999991,100.0,30.229,27.878,43.388,40.936,0.0,0.0,100.0,0.0,0.0,0.0,0.0,3473.375,2835.5,3834.0,3603.7,304.14733333333334,305.829,315.4355,315.98425,21.7935,20.5254,21.7964,21.3326,314.999998,314.999998,324.999988,324.999988,99.55875714285715,99.50731666666667,99.56592857142857,99.54564285714285,-0.08466666666666667,-0.2226666666666668,-0.2955,-0.053166666666666584,-0.030000000000001137,-0.051666666666669414,1.621,1.7174999999999998,37.21,29.284,37.227000000000004,34.329,56.238,34.576499999999996,59.314,51.836,54.179,33.772,57.9325,50.1775,53.367000000000004,33.363,57.894,49.592666666666666,0.0050000000000001155,-0.1735,0.111975,0.11202000000000001,0.0,206.35000000000002,206.185,203.4766666666667,203.4766666666667,0.0,0.0
3,0.0,0.0,0.0,1.0,1.0,0.0,0.0,1.0,0.0,100.0,1.0,1.1856,26.0,0.0,0.0,0.0,59.999996,0.0,26.0,26.0,26.0,26.0,-0.2115555555555555,0.30320000000000014,0.03005,292.633,-2.6682,-2.710375,-1.4818500000000001,-1.6267,-265.59,216.245,190.927875,0.0,0.0,0.0,0.0,0.0074666666666666675,-5.498166666666667,-5.498166666666667,-0.5313,0.2909999999999999,-0.046499999999999986,-0.02200000000000024,66.004,-0.1424,-0.22395,1.71,100.0,1.0,1.0,203.62666666666667,0.0,0.0,0.0,0.0,0.0,0.0,0.0,8631.0,0.0,55.0,5.0,237.58333333333331,1.0,0.0,0.0,0.0,0.0,0.0,0.0,0.0,0.1559999999999988,0.1559999999999988,0.0,0.0,1.0,55.0,616.79921,10000.0,85.000001,85.000001,85.000001,85.000001,395.0,0.0,0.0,0.0,1.0,166.665,52.094,52.094,47.867,47.867,34.0,-28.09,15.588000000000001,-37.98,21.752499999999998,0.0,1783.46,0.8300000000000018,100.0,29.531,28.225,43.161,41.218,0.0,0.0,100.0,0.0,0.0,0.0,0.0,2971.25,2770.6,4310.0,4243.2,305.756,305.94125,314.318,314.3175,21.8034,20.5305,21.8069,21.3415,314.999998,314.999998,324.999988,324.999988,99.55877142857143,99.50733333333334,99.56607142857143,99.54578571428571,-0.06433333333333313,-0.21099999999999985,-0.2743333333333333,-0.04816666666666658,-0.051666666666669414,-0.01666666666666572,1.4765000000000001,1.5375,37.271,29.315666666666665,37.293,34.3845,56.226,34.621,59.3545,51.897999999999996,54.167,33.813,57.9705,50.2375,53.354,33.402,57.9295,49.650999999999996,-0.025499999999999967,-0.14349999999999996,0.10794500000000001,0.11188000000000001,0.0,206.86,206.675,203.62666666666667,203.62666666666667,0.0,0.0
4,0.0,0.0,0.0,1.0,1.0,0.0,0.0,1.0,0.0,100.0,1.0,1.1856,26.0,0.0,0.0,0.0,59.999996,0.0,26.0,26.0,26.0,26.0,-0.20733333333333337,0.27270000000000016,-0.013775,292.77,-2.6124,-2.750375,-1.5086,-1.6242,-262.42,216.2375,190.90925,0.0,0.0,0.0,0.0,0.009300000000000001,-5.498166666666667,-5.498166666666667,-0.5633,-0.7440000000000002,-0.10362500000000008,-1.298,66.142,-0.1353,-0.25895,1.58,100.0,1.0,1.0,204.17333333333335,0.0,0.0,0.0,0.0,0.0,0.0,0.0,8654.1,0.0,55.0,5.0,238.08333333333331,0.0,0.0,0.0,0.0,0.0,0.0,0.0,0.0,0.20400000000000063,0.20400000000000063,0.0,0.0,0.0,55.0,616.79921,10000.0,85.000001,85.000001,85.000001,85.000001,395.0,0.0,0.0,0.0,1.0,166.665,51.650999999999996,51.650999999999996,48.400999999999996,48.400999999999996,34.0,-31.485,16.895999999999997,-34.61333333333333,19.325000000000003,0.0,1783.411,0.7650000000000006,100.0,29.246,28.116,43.494,41.448,0.0,0.0,100.0,0.0,0.0,0.0,0.0,3321.375,2867.0,4099.555555555556,3713.6,304.80133333333333,305.644,314.797,315.5745,21.8127,20.5352,21.8169,21.349899999999998,314.999998,314.999998,324.999988,324.999988,99.55877142857143,99.50736666666667,99.56621428571428,99.54591428571429,-0.06800000000000006,-0.20300000000000007,-0.24983333333333335,-0.02633333333333332,-0.01833333333333087,-0.03166666666666629,1.55,1.6174999999999997,37.329,29.345333333333336,37.355999999999995,34.437,56.213,34.661500000000004,59.394,51.954499999999996,54.153999999999996,33.8505,58.0075,50.291,53.341,33.438,57.964,49.70366666666666,-0.020499999999999963,-0.14349999999999996,0.10081000000000001,0.11445500000000002,0.0,207.20499999999998,207.06,204.17333333333335,204.17333333333335,0.0,0.0
5,0.0,0.0,0.0,1.0,1.0,0.0,0.0,1.0,0.0,100.0,1.0,1.1856,26.0,0.0,0.0,0.0,59.999996,0.0,26.0,26.0,26.0,26.0,-0.18099999999999994,0.2885,-0.02275,292.74,-2.6155,-2.776,-1.488,-1.6187,-259.04,216.225,190.888875,0.0,0.0,0.0,0.0,0.011266666666666668,-5.498166666666667,-5.498166666666667,-0.5576,0.2885,-0.11100000000000021,0.54,66.288,-0.1338,-0.23635,1.38,100.0,1.0,1.0,204.58333333333331,0.0,0.0,0.0,0.0,0.0,0.0,0.0,8671.6,0.0,55.0,5.0,238.60666666666668,1.0,0.0,0.0,0.0,0.0,0.0,0.0,0.0,0.254999999999999,0.254999999999999,0.0,0.0,1.0,55.0,616.79921,10000.0,85.000001,85.000001,85.000001,85.000001,395.0,0.0,0.0,0.0,1.0,333.33500000000004,51.879999999999995,51.879999999999995,48.629999999999995,48.629999999999995,34.0,-29.035,17.374,-35.60666666666667,21.275,0.0,1783.358,0.39000000000000057,100.0,29.631,28.052,43.265,41.226,0.0,0.0,100.0,0.0,0.0,0.0,0.0,3200.25,2751.1,4192.444444444444,4034.7,305.11266666666666,306.07675,314.65,314.8485,21.8228,20.5402,21.8274,21.3586,314.999998,314.999998,324.999988,324.999988,99.55878571428572,99.50738333333334,99.56635714285714,99.54605714285714,-0.03866666666666663,-0.17433333333333323,-0.25683333333333336,-0.02833333333333332,-0.04999999999999716,-0.060000000000002274,1.533,1.5745,37.391999999999996,29.376666666666665,37.421,34.4915,56.202,34.7035,59.4345,52.0115,54.143,33.8885,58.045500000000004,50.3455,53.329,33.4745,57.999,49.75666666666667,-0.05399999999999994,-0.10650000000000004,0.10237500000000001,0.11515500000000001,0.0,207.715,207.57999999999998,204.58333333333331,204.58333333333331,0.0,0.0
6,0.0,0.0,0.0,1.0,1.0,0.0,0.0,1.0,0.0,100.0,1.0,1.1856,26.0,0.0,0.0,0.0,59.999996,0.0,26.0,26.0,26.0,26.0,-0.15088888888888885,0.2893000000000001,0.00165,292.343,-2.5856,-2.79975,-1.53815,-1.6093000000000002,-255.65,216.20749999999998,190.868125,0.0,0.0,0.0,0.0,0.013233333333333335,-5.498166666666667,-5.498166666666667,-0.5556,0.1279999999999999,-0.0871249999999999,0.24399999999999977,66.434,-0.1178,-0.238925,0.8879999999999999,100.0,1.0,1.0,205.01999999999998,0.0,0.0,0.0,0.0,0.0,0.0,0.0,8690.0,0.0,55.0,5.0,239.13666666666666,0.0,0.0,0.0,0.0,0.0,0.0,0.0,0.0,0.30600000000000094,0.30600000000000094,0.0,0.0,0.0,55.0,616.79921,10000.0,85.000001,85.000001,85.000001,85.000001,395.0,0.0,0.0,0.0,1.0,166.665,51.315,51.315,48.218,48.218,34.0,-28.240000000000002,19.454,-34.54666666666667,21.9575,0.0,1783.31,0.06500000000000128,100.0,29.713,28.364,43.442,41.715,0.0,0.0,100.0,0.0,0.0,0.0,0.0,3217.125,2904.9,4136.333333333333,4018.1000000000004,305.01366666666667,305.473,314.77925,314.88575,21.8328,20.5454,21.838,21.3676,314.999998,314.999998,324.999988,324.999988,99.55878571428572,99.5074,99.5665,99.5462,-0.020000000000000018,-0.15900000000000003,-0.23183333333333334,-0.010833333333333361,-0.045000000000001705,-0.051666666666669414,1.52,1.5695000000000001,37.455,29.408666666666665,37.488,34.5475,56.188,34.7455,59.4755,52.0725,54.129999999999995,33.9275,58.084,50.403999999999996,53.316,33.5115,58.0345,49.81366666666666,-0.07099999999999995,-0.09099999999999997,0.104395,0.10655,0.0,208.125,208.04500000000002,205.01999999999998,205.01999999999998,0.0,0.0
7,0.0,0.0,0.0,1.0,1.0,0.0,0.0,1.0,0.0,100.0,1.0,1.1856,26.0,0.0,0.0,0.0,59.999996,0.0,26.0,26.0,26.0,26.0,-0.11699999999999999,0.2832000000000001,0.041175,291.901,-2.5620000000000003,-2.725625,-1.50465,-1.6503999999999999,-252.46,216.1875,190.848625,0.0,0.0,0.0,0.0,0.0151,-5.498166666666667,-5.498166666666667,-0.5587,-0.007000000000000117,-0.07087500000000002,0.6120000000000001,66.572,-0.0954,-0.25020000000000003,0.548,100.0,1.0,1.0,205.4,0.0,0.0,0.0,0.0,0.0,0.0,0.0,8706.1,0.0,55.0,5.0,239.63,1.0,0.0,0.0,0.0,0.0,0.0,0.0,0.0,0.3539999999999992,0.3539999999999992,0.0,0.0,1.0,55.0,616.79921,10000.0,85.000001,85.000001,85.000001,85.000001,395.0,0.0,0.0,0.0,1.0,166.665,50.751,50.751,48.126,48.126,34.0,-27.3875,20.895999999999997,-32.843333333333334,24.355,0.0,1783.261,-0.14999999999999858,100.0,29.931,28.599,43.609,42.157,0.0,0.0,100.0,0.0,0.0,0.0,0.0,3329.625,3023.6,4102.333333333333,4084.4,304.63933333333335,305.1735,314.803,314.6505,21.8422,20.5503,21.848,21.3761,314.999998,314.999998,324.999988,324.999988,99.55878571428572,99.50741666666667,99.56664285714285,99.54632857142857,0.020000000000000018,-0.129,-0.20966666666666656,0.012166666666666659,-0.05333333333332746,-0.05666666666667197,1.51,1.541,37.513999999999996,29.439333333333334,37.55,34.6005,56.175,34.7845,59.5135,52.1295,54.117999999999995,33.963,58.1195,50.459,53.302,33.545500000000004,58.067499999999995,49.867333333333335,-0.10350000000000004,-0.07050000000000001,0.10911000000000001,0.10164000000000001,0.0,208.54000000000002,208.48000000000002,205.4,205.4,0.0,0.0
8,0.0,0.0,0.0,1.0,1.0,0.0,0.0,1.0,0.0,100.0,1.0,1.1856,26.0,0.0,0.0,0.0,59.999996,0.0,26.0,26.0,26.0,26.0,-0.06622222222222218,0.30290000000000017,0.005675,292.175,-2.654,-2.700875,-1.4943,-1.5718,-249.06,216.16500000000002,190.828125,0.0,0.0,0.0,0.0,0.017066666666666667,-5.498166666666667,-5.498166666666667,-0.5587,-0.492,-0.045500000000000096,0.3639999999999999,66.717,-0.069,-0.24327500000000002,0.07200000000000095,100.0,1.0,1.0,205.79333333333335,0.0,0.0,0.0,0.0,0.0,0.0,0.0,8722.8,0.0,55.0,5.0,240.15333333333334,0.0,0.0,0.0,0.0,0.0,0.0,0.0,0.0,0.40500000000000114,0.40500000000000114,0.0,0.0,0.0,55.0,616.79921,10000.0,85.000001,85.000001,85.000001,85.000001,395.0,0.0,0.0,0.0,1.0,333.33500000000004,51.697,51.697,47.44,47.44,34.0,-24.205,21.142,-31.42,25.505,0.0,1783.209,-0.3000000000000007,100.0,29.39,28.688,43.558,42.403,0.0,0.0,100.0,0.0,0.0,0.0,0.0,3015.625,2939.0,4166.333333333333,4157.7,305.699,305.455,314.61225,314.4895,21.852,20.5555,21.8586,21.3851,314.999998,314.999998,324.999988,324.999988,99.5588,99.50743333333334,99.5668,99.54647142857142,0.04133333333333322,-0.10033333333333316,-0.1718333333333334,0.04299999999999993,-0.04333333333332945,-0.054999999999999716,1.5194999999999999,1.5110000000000001,37.575,29.471666666666664,37.616,34.657,56.158,34.824,59.5535,52.19,54.102000000000004,33.9995,58.1565,50.5165,53.286,33.5805,58.1015,49.924,-0.11299999999999999,-0.056499999999999995,0.10422000000000001,0.102775,0.0,208.95499999999998,208.94,205.79333333333335,205.79333333333335,0.0,0.0
9,0.0,0.0,0.0,1.0,1.0,0.0,0.0,1.0,0.0,100.0,1.0,1.1856,26.0,0.0,0.0,0.0,59.999996,0.0,26.0,26.0,26.0,26.0,-0.04266666666666663,0.2934000000000001,0.008125,291.916,-2.6516,-2.702,-1.5578,-1.5686,-245.86,216.14,190.80825,0.0,0.0,0.0,0.0,0.018933333333333337,-5.498166666666667,-5.498166666666667,-0.5648000000000001,0.6275,-0.04112500000000008,0.20399999999999974,66.851,-0.0444,-0.24405000000000002,-0.040000000000000036,100.0,1.0,1.0,206.34333333333333,0.0,0.0,0.0,0.0,0.0,0.0,0.0,8746.1,0.0,55.0,5.0,240.63333333333333,1.0,0.0,0.0,0.0,0.0,0.0,0.0,0.0,0.4529999999999994,0.4529999999999994,0.0,0.0,1.0,55.0,616.79921,10000.0,85.000001,85.000001,85.000001,85.000001,395.0,0.0,0.0,0.0,1.0,333.33500000000004,50.522,50.522,48.522999999999996,48.522999999999996,34.0,-26.384999999999998,23.08,-29.15,25.71,0.0,1783.162,-0.495000000000001,100.0,29.777,29.069,43.116,42.468,0.0,0.0,100.0,0.0,0.0,0.0,0.0,3367.75,3056.9,3993.6666666666665,4052.3,304.621,305.019,315.15025,314.81425,21.8615,20.5606,21.8684,21.3935,314.999998,314.999998,324.999988,324.999988,99.5588,99.50743333333334,99.56692857142858,99.54661428571428,0.06599999999999984,-0.08000000000000007,-0.14849999999999997,0.0685,-0.045000000000001705,-0.05333333333332746,1.572,1.5665,37.634,29.503333333333334,37.678,34.7095,56.146,34.8625,59.5875,52.2455,54.091,34.035,58.188,50.57,53.272999999999996,33.614,58.1305,49.976,-0.125,-0.04600000000000004,0.10288000000000001,0.10622500000000001,0.0,209.39,209.37,206.34333333333333,206.34333333333333,0.0,0.0
10,0.0,0.0,0.0,1.0,1.0,0.0,0.0,1.0,0.0,100.0,1.0,1.1856,26.0,0.0,0.0,0.0,59.999996,0.0,26.0,26.0,26.0,26.0,-0.0067777777777777715,0.2976000000000001,0.021475,291.763,-2.6234,-2.690375,-1.5344,-1.5507,-242.44,216.1125,190.7875,0.0,0.0,0.0,0.0,0.020933333333333335,-5.498166666666667,-5.498166666666667,-0.5415,-0.4820000000000002,-0.0008750000000001812,1.1290000000000004,66.997,-0.0199,-0.23325,-0.44399999999999995,100.0,1.0,1.0,206.57333333333332,0.0,0.0,0.0,0.0,0.0,0.0,0.0,8755.8,0.0,55.0,5.0,241.16,0.0,0.0,0.0,0.0,0.0,0.0,1.0,0.0,0.5040000000000013,0.5040000000000013,0.0,0.0,0.0,55.0,616.79921,10000.0,85.000001,85.000001,85.000001,85.000001,395.0,0.0,0.0,0.0,1.0,333.33500000000004,51.575,51.575,47.012,47.012,34.0,-20.9325,22.427999999999997,-30.619999999999997,29.595,0.0,1783.111,-0.5949999999999989,100.0,29.637,29.096,43.522999999999996,43.14,0.0,0.0,100.0,0.0,0.0,0.0,0.0,2897.75,2900.9,4292.111111111111,4310.0,306.00333333333333,305.55975,314.32125,314.123,21.871299999999998,20.5658,21.8791,21.4027,314.999998,314.999998,324.999988,324.999988,99.55881428571429,99.50745,99.56707142857142,99.54674285714286,0.09133333333333349,-0.057666666666666755,-0.12216666666666665,0.09899999999999998,-0.03499999999999659,-0.041666666666671404,1.486,1.4739999999999998,37.696,29.536666666666665,37.745000000000005,34.766999999999996,56.134,34.9,59.628,52.309,54.078,34.0695,58.226,50.631,53.26,33.647,58.1655,50.036,-0.136,-0.03849999999999998,0.107795,0.10813,0.0,209.79500000000002,209.82,206.57333333333332,206.57333333333332,0.0,0.0
11,0.0,0.0,0.0,1.0,1.0,0.0,0.0,1.0,0.0,100.0,1.0,1.1856,26.0,0.0,0.0,0.0,59.999996,0.0,26.0,26.0,26.0,26.0,0.032444444444444276,0.28280000000000016,-0.08092500000000001,292.313,-2.6769,-2.66275,-1.597,-1.5333,-239.01999999999998,216.0875,190.76675,0.0,0.0,0.0,0.0,0.022600000000000002,-5.498166666666667,-5.498166666666667,-0.5839,-0.1905000000000001,0.030249999999999888,-0.03699999999999992,67.136,0.0048000000000000004,-0.265025,-0.6120000000000001,100.0,1.0,1.0,207.30333333333334,0.0,0.0,0.0,0.0,0.0,0.0,0.0,8786.8,0.0,55.0,5.0,241.66,1.0,0.0,0.0,0.0,0.0,0.0,1.0,0.0,0.5549999999999997,0.5549999999999997,0.0,0.0,1.0,55.0,616.79921,10000.0,85.000001,85.000001,85.000001,85.000001,395.0,0.0,0.0,0.0,1.0,333.33500000000004,50.964,50.964,48.66,48.66,34.0,-22.22,25.369999999999997,-24.776666666666667,26.8,0.0,1783.06,-0.5850000000000009,100.0,29.34,29.305,42.947,43.108000000000004,0.0,0.0,100.0,0.0,0.0,0.0,0.0,3068.75,3153.1,3720.1111111111113,3902.6000000000004,305.52166666666665,304.7275,315.8335,315.162,21.8809,20.5713,21.889499999999998,21.4117,314.999998,314.999998,324.999988,324.999988,99.55882857142858,99.50745,99.5672,99.54688571428571,0.10566666666666658,-0.03766666666666674,-0.09966666666666657,0.12816666666666676,-0.03499999999999659,-0.05833333333333002,1.633,1.6195,37.756,29.570666666666668,37.81,34.823499999999996,56.120000000000005,34.9385,59.662,52.369,54.065,34.105000000000004,58.2575,50.6885,53.245999999999995,33.681,58.194,50.092,-0.13449999999999995,-0.03750000000000009,0.10053500000000001,0.10236,0.0,210.21,210.255,207.30333333333334,207.30333333333334,0.0,0.0
12,0.0,0.0,0.0,1.0,1.0,0.0,0.0,1.0,0.0,100.0,1.0,1.1856,26.0,0.0,0.0,0.0,59.999996,0.0,26.0,26.0,26.0,26.0,0.03822222222222216,0.28400000000000003,0.028625,291.748,-2.7349,-2.653125,-1.5615,-1.5332,-235.6,216.06,190.74475,0.0,0.0,0.0,0.0,0.025466666666666665,-5.498166666666667,-5.498166666666667,-0.5703,0.22899999999999987,0.016750000000000043,-0.1280000000000001,67.281,0.026500000000000003,-0.23595000000000002,-0.6920000000000002,100.0,1.0,1.0,207.52666666666667,0.0,0.0,0.0,0.0,0.0,0.0,0.0,8796.3,0.0,55.0,5.0,242.18,0.0,0.0,0.0,0.0,0.0,0.0,1.0,0.0,0.6059999999999981,0.6059999999999981,0.0,0.0,0.0,55.0,616.79921,10000.0,85.000001,85.000001,85.000001,85.000001,395.0,0.0,0.0,0.0,1.0,166.665,50.873,50.873,47.394,47.394,34.0,-23.015,25.422,-27.023333333333333,30.755,0.0,1783.009,-0.41000000000000014,100.0,29.264,29.52,42.868,43.059,0.0,0.0,100.0,0.0,0.0,0.0,0.0,3110.25,3167.1,4193.111111111111,4199.4,305.4356666666667,304.717,314.65375,314.44,21.8906,20.5768,21.9,21.4208,314.999998,314.999998,324.999988,324.999988,99.55884285714286,99.50746666666667,99.56735714285715,99.54702857142857,0.1073333333333335,-0.036666666666666625,-0.0691666666666666,0.14683333333333337,-0.041666666666671404,-0.02499999999999858,1.538,1.5055,37.816,29.605,37.875,34.8795,56.108000000000004,34.977000000000004,59.7,52.4295,54.054,34.1405,58.292500000000004,50.747,53.233000000000004,33.715,58.226,50.14933333333333,-0.121,-0.04849999999999999,0.10221000000000001,0.10212,0.0,210.675,210.72500000000002,207.52666666666667,207.52666666666667,0.0,0.0
13,0.0,0.0,0.0,1.0,1.0,0.0,0.0,1.0,0.0,100.0,1.0,1.1856,26.0,0.0,0.0,0.0,59.999996,0.0,26.0,26.0,26.0,26.0,0.07133333333333325,0.2803,0.04365,291.351,-2.7085,-2.6494999999999997,-1.5968,-1.5196,-232.16,216.0375,190.723,0.0,0.0,0.0,0.0,0.0269,-5.498166666666667,-5.498166666666667,-0.5623,-0.03100000000000014,0.020750000000000046,0.24900000000000055,67.422,0.0363,-0.241125,-0.8099999999999996,100.0,1.0,1.0,207.91666666666669,0.0,0.0,0.0,0.0,0.0,0.0,0.0,8812.8,0.0,55.0,5.0,242.69333333333333,1.0,0.0,0.0,0.0,0.0,0.0,1.0,0.0,0.657,0.657,0.0,0.0,1.0,55.0,616.79921,10000.0,85.000001,85.000001,85.000001,85.000001,395.0,0.0,0.0,0.0,1.0,166.665,50.568,50.568,47.318,47.318,34.0,-21.1875,26.566,-27.27,32.72,0.0,1782.958,-0.8000000000000007,100.0,29.605,29.705,43.133,43.609,0.0,0.0,100.0,0.0,0.0,0.0,0.0,3125.25,3144.4,4171.444444444444,4332.6,305.36633333333333,304.77,314.67675,314.09625,21.900199999999998,20.5824,21.9106,21.43,314.999998,314.999998,324.999988,324.999988,99.55885714285715,99.50746666666667,99.5675,99.54718571428572,0.1466666666666665,-0.0040000000000000036,-0.06433333333333335,0.16199999999999992,-0.05333333333332746,-0.05666666666667197,1.506,1.479,37.876000000000005,29.64,37.941,34.9375,56.098,35.015,59.7375,52.493,54.044,34.1755,58.3275,50.808,53.223,33.749,58.2575,50.20933333333333,-0.15249999999999997,-0.024499999999999966,0.10698500000000001,0.105065,0.0,211.12,211.175,207.91666666666669,207.91666666666669,0.0,0.0
14,0.0,0.0,0.0,1.0,1.0,0.0,0.0,1.0,0.0,100.0,1.0,1.1856,26.0,0.0,0.0,0.0,59.999996,0.0,26.0,26.0,26.0,26.0,0.09066666666666667,0.28290000000000015,-0.015425000000000001,291.519,-2.7082,-2.591,-1.6042,-1.5229,-228.92000000000002,216.015,190.702875,0.0,0.0,0.0,0.0,0.02876666666666667,-5.498166666666667,-5.498166666666667,-0.5724,-0.2280000000000002,0.048875,0.5880000000000001,67.554,0.0495,-0.25395,-0.9799999999999995,100.0,1.0,1.0,208.39666666666668,0.0,0.0,0.0,0.0,0.0,0.0,0.0,8833.2,0.0,55.0,5.0,243.16666666666666,0.0,0.0,0.0,0.0,0.0,0.0,1.0,0.0,0.7049999999999983,0.7049999999999983,0.0,0.0,0.0,55.0,616.79921,10000.0,85.000001,85.000001,85.000001,85.000001,395.0,0.0,0.0,0.0,1.0,166.665,50.629,50.629,47.455,47.455,34.0,-20.0125,27.41,-25.099999999999998,31.92,0.0,1782.91,-0.9199999999999982,100.0,29.576999999999998,29.801000000000002,43.155,43.848,0.0,0.0,100.0,0.0,0.0,0.0,0.0,3008.25,3230.6,3991.4444444444443,4197.0,305.7096666666667,304.53275,315.11,314.43825,21.9092,20.5876,21.9205,21.4386,314.999998,314.999998,324.999988,324.999988,99.55887142857142,99.50746666666667,99.56762857142857,99.54731428571428,0.15233333333333343,0.008999999999999897,-0.050999999999999934,0.1725000000000001,-0.04833333333333201,-0.05333333333332746,1.5535,1.5099999999999998,37.933,29.672666666666665,38.003,34.9915,56.089,35.0505,59.7715,52.5515,54.036,34.2085,58.359,50.8645,53.213,33.7805,58.286500000000004,50.26466666666666,-0.15449999999999997,-0.01849999999999996,0.10405,0.11005000000000001,0.0,211.515,211.57999999999998,208.39666666666668,208.39666666666668,0.0,0.0
15,0.0,0.0,0.0,1.0,1.0,0.0,0.0,1.0,0.0,100.0,1.0,1.1856,26.0,0.0,0.0,0.0,59.999996,0.0,26.0,26.0,26.0,26.0,0.1120000000000001,0.2802,-0.01025,291.473,-2.6833,-2.5469999999999997,-1.63895,-1.4623,-225.68,215.995,190.6825,0.0,0.0,0.0,0.0,0.03066666666666667,-5.498166666666667,-5.498166666666667,-0.5649000000000001,0.3074999999999999,0.08174999999999999,0.5200000000000005,67.685,0.0625,-0.23915,-1.154,100.0,1.0,1.0,208.79666666666668,0.0,0.0,0.0,0.0,0.0,0.0,0.0,8850.1,0.0,55.0,5.0,243.64,1.0,0.0,0.0,0.0,0.0,0.0,1.0,0.0,0.7530000000000001,0.7530000000000001,0.0,0.0,1.0,55.0,616.79921,10000.0,85.000001,85.000001,85.000001,85.000001,395.0,0.0,0.0,0.0,1.0,166.665,50.705,50.705,47.485,47.485,34.0,-17.75,27.811999999999998,-24.856666666666666,33.385000000000005,0.0,1782.862,-0.9699999999999989,100.0,29.633,29.987000000000002,42.93,43.992000000000004,0.0,0.0,100.0,0.0,0.0,0.0,0.0,2877.0,3213.4,3973.4444444444443,4367.2,306.05333333333334,304.5705,315.1935,314.0635,21.9182,20.5929,21.9303,21.4473,314.999998,314.999998,324.999988,324.999988,99.5589,99.50748333333334,99.56775714285715,99.54745714285714,0.17866666666666653,0.03166666666666673,-0.04049999999999998,0.1861666666666668,-0.045000000000001705,-0.05833333333333002,1.5535,1.4929999999999999,37.989000000000004,29.705666666666666,38.064,35.045500000000004,56.081,35.087,59.8045,52.6105,54.027,34.242,58.3895,50.921,53.204,33.8125,58.3135,50.32033333333334,-0.16449999999999998,-0.00649999999999995,0.106285,0.10703000000000001,0.0,211.935,212.005,208.79666666666668,208.79666666666668,0.0,0.0
16,0.0,0.0,0.0,1.0,1.0,0.0,0.0,1.0,0.0,100.0,1.0,1.1856,26.0,0.0,0.0,0.0,59.999996,0.0,26.0,26.0,26.0,26.0,0.11588888888888893,0.2621,-0.0316,291.55,-2.7836,-2.548875,-1.6145,-1.4589,-222.22,215.97750000000002,190.6605,0.0,0.0,0.0,0.0,0.03266666666666667,-5.498166666666667,-5.498166666666667,-0.5826,-0.6804999999999999,0.07400000000000007,-0.45199999999999996,67.825,0.0766,-0.25317500000000004,-1.218,100.0,1.0,1.0,209.21666666666667,0.0,0.0,0.0,0.0,0.0,0.0,0.0,8867.9,0.0,55.0,5.0,244.14333333333335,0.0,0.0,0.0,0.0,0.0,0.0,1.0,0.0,0.8039999999999985,0.8039999999999985,0.0,0.0,0.0,55.0,616.79921,10000.0,85.000001,85.000001,85.000001,85.000001,395.0,0.0,0.0,0.0,1.0,333.33500000000004,50.735,50.735,47.165,47.165,34.0,-19.4725,27.95,-23.633333333333333,32.707499999999996,0.0,1782.81,-0.875,100.0,29.089,30.046,43.163,44.161,0.0,0.0,100.0,0.0,0.0,0.0,0.0,2995.5,3264.7,3951.3333333333335,4189.1,305.8616666666667,304.4405,315.2315,314.46775,21.9274,20.5986,21.9408,21.4565,314.999998,314.999998,324.999988,324.999988,99.55891428571428,99.50748333333334,99.56791428571428,99.5476,0.17633333333333345,0.023333333333333428,-0.025666666666666615,0.20599999999999996,-0.05833333333333002,-0.03833333333332689,1.557,1.5030000000000001,38.046,29.741,38.129999999999995,35.103,56.069,35.1265,59.842,52.673,54.016,34.2785,58.424,50.9815,53.191,33.8475,58.345,50.379666666666665,-0.15100000000000002,-0.02499999999999991,0.10992,0.11304000000000002,0.0,212.32,212.39499999999998,209.21666666666667,209.21666666666667,0.0,0.0
17,0.0,0.0,0.0,1.0,1.0,0.0,0.0,1.0,0.0,100.0,1.0,1.1856,26.0,0.0,0.0,0.0,59.999996,0.0,26.0,26.0,26.0,26.0,0.12177777777777776,0.2876000000000001,-0.007775000000000001,291.321,-2.7391,-2.536875,-1.649,-1.484,-218.76,215.9625,190.638,0.0,0.0,0.0,0.0,0.0347,-5.498166666666667,-5.498166666666667,-0.5699000000000001,0.498,0.04974999999999996,-0.05799999999999983,67.963,0.081,-0.23170000000000002,-1.1520000000000001,100.0,1.0,1.0,209.62666666666667,0.0,0.0,0.0,0.0,0.0,0.0,0.0,8885.3,0.0,55.0,5.0,244.64,1.0,0.0,0.0,0.0,0.0,0.0,1.0,0.0,0.8550000000000004,0.8550000000000004,0.0,0.0,1.0,55.0,616.79921,10000.0,85.000001,85.000001,85.000001,85.000001,395.0,0.0,0.0,0.0,1.0,333.33500000000004,50.644,50.644,47.18,47.18,34.0,-19.1425,27.212,-25.96,33.7575,0.0,1782.758,-0.9400000000000013,100.0,29.557,30.154,42.869,44.115,0.0,0.0,100.0,0.0,0.0,0.0,0.0,3036.5,3131.4,4235.555555555556,4273.0,305.684,304.85875,314.65675,314.3365,21.9369,20.6043,21.9512,21.4656,314.999998,314.999998,324.999988,324.999988,99.55894285714285,99.50748333333334,99.56805714285714,99.54775714285714,0.18299999999999983,0.04033333333333333,-0.022499999999999964,0.20650000000000013,-0.036666666666668846,-0.05833333333333002,1.5455,1.5070000000000001,38.105999999999995,29.777,38.195,35.1605,56.061,35.1695,59.879,52.7385,54.007999999999996,34.3185,58.4585,51.045,53.182,33.885999999999996,58.376,50.44166666666666,-0.15749999999999997,-0.009500000000000064,0.10726000000000001,0.111265,0.0,212.78,212.87,209.62666666666667,209.62666666666667,0.0,0.0
18,0.0,0.0,0.0,1.0,1.0,0.0,0.0,1.0,0.0,100.0,1.0,1.1856,26.0,0.0,0.0,0.0,59.999996,0.0,26.0,26.0,26.0,26.0,0.12922222222222213,0.2764,-0.013775,291.168,-2.7743,-2.5078750000000003,-1.66865,-1.4266,-215.29,215.95,190.6155,0.0,0.0,0.0,0.0,0.0367,-5.498166666666667,-5.498166666666667,-0.5849,-0.5169999999999999,0.07562500000000005,0.38400000000000034,68.102,0.08370000000000001,-0.250875,-1.2320000000000002,100.0,1.0,1.0,210.05,0.0,0.0,0.0,0.0,0.0,0.0,0.0,8903.3,0.0,55.0,5.0,245.14,0.0,0.0,0.0,0.0,0.0,0.0,1.0,0.0,0.9059999999999988,0.9059999999999988,0.0,0.0,0.0,55.0,616.79921,10000.0,85.000001,85.000001,85.000001,85.000001,395.0,0.0,0.0,0.0,1.0,166.665,50.278,50.278,47.028,47.028,34.0,-19.3075,29.73,-24.64666666666667,32.68,0.0,1782.71,-0.9649999999999999,100.0,29.397,30.134999999999998,43.209,44.461,0.0,0.0,100.0,0.0,0.0,0.0,0.0,3081.0,3391.9,4027.4444444444443,4229.2,305.5996666666667,304.10275,315.09175,314.4055,21.9463,20.61,21.9617,21.475,314.999998,314.999998,324.999988,324.999988,99.55895714285714,99.5075,99.56818571428572,99.5479,0.19333333333333336,0.04499999999999993,-0.021333333333333315,0.20799999999999996,-0.03166666666666629,-0.05666666666667197,1.5635,1.5110000000000001,38.164,29.812666666666665,38.260999999999996,35.2185,56.053,35.207,59.914,52.798500000000004,54.0,34.353,58.491,51.1025,53.173,33.9195,58.4055,50.498666666666665,-0.16249999999999998,-0.013000000000000123,0.11087000000000001,0.107425,0.0,213.17000000000002,213.265,210.05,210.05,0.0,0.0
19,0.0,0.0,0.0,1.0,1.0,0.0,0.0,1.0,0.0,100.0,1.0,1.1856,26.0,0.0,0.0,0.0,59.999996,0.0,26.0,26.0,26.0,26.0,0.11533333333333329,0.2864,0.0651,290.619,-2.6903,-2.6109999999999998,-1.6747,-1.4188,-211.81,215.9425,190.592875,0.0,0.0,0.0,0.0,0.038733333333333335,-5.498166666666667,-5.498166666666667,-0.5709000000000001,0.851,0.07587499999999991,-0.20800000000000018,68.239,0.0927,-0.237825,-1.0679999999999996,100.0,1.0,1.0,210.40333333333334,0.0,0.0,0.0,0.0,0.0,0.0,0.0,8918.2,0.0,55.0,5.0,245.63333333333333,1.0,0.0,0.0,0.0,0.0,0.0,1.0,0.0,0.9570000000000007,0.9570000000000007,0.0,0.0,1.0,55.0,616.79921,10000.0,85.000001,85.000001,85.000001,85.000001,395.0,0.0,0.0,0.0,1.0,166.665,49.774,49.774,46.661,46.661,34.0,-20.0175,28.194,-26.063333333333333,35.192499999999995,0.0,1782.658,-0.3200000000000003,100.0,29.957,30.624000000000002,42.997,44.467,0.0,0.0,100.0,0.0,0.0,0.0,0.0,3070.25,3294.4,4273.555555555556,4489.8,305.455,304.126,314.55,313.81725,21.9559,20.6159,21.9721,21.4842,314.999998,314.999998,324.999988,324.999988,99.55898571428571,99.5075,99.56834285714285,99.54805714285715,0.16166666666666663,0.002000000000000224,-0.010666666666666602,0.20983333333333332,-0.04999999999999716,-0.061666666666667425,1.5274999999999999,1.484,38.224000000000004,29.849333333333334,38.326,35.275999999999996,56.046,35.249,59.948499999999996,52.8615,53.992999999999995,34.391999999999996,58.5225,51.1635,53.164,33.9565,58.434,50.55866666666667,-0.121,-0.05800000000000005,0.10537500000000001,0.10511500000000001,0.0,213.64,213.735,210.40333333333334,210.40333333333334,0.0,0.0
20,0.0,0.0,0.0,1.0,1.0,0.0,0.0,1.0,0.0,100.0,1.0,1.1856,26.0,0.0,0.0,0.0,59.999996,0.0,26.0,26.0,26.0,26.0,0.08877777777777784,0.2721,0.0005250000000000001,291.046,-2.781,-2.5717499999999998,-1.5915,-1.5502,-208.53,215.9375,190.571875,0.0,0.0,0.0,0.0,0.040633333333333334,-5.498166666666667,-5.498166666666667,-0.5787,-1.1470000000000002,0.06525000000000003,-0.5140000000000002,68.37,0.08220000000000001,-0.251425,-0.3620000000000001,100.0,1.0,1.0,210.75666666666666,0.0,0.0,0.0,0.0,0.0,0.0,0.0,8933.2,0.0,55.0,5.0,246.10333333333335,0.0,0.0,0.0,0.0,0.0,0.0,0.0,0.0,1.004999999999999,1.004999999999999,0.0,0.0,0.0,55.0,616.79921,10000.0,85.000001,85.000001,85.000001,85.000001,395.0,0.0,0.0,0.0,1.0,333.33500000000004,50.827,50.827,46.265,46.265,34.0,-21.05,25.246,-25.52,34.57,0.0,1782.61,0.15000000000000213,100.0,29.346,30.246000000000002,43.653,44.831,0.0,0.0,100.0,0.0,0.0,0.0,0.0,2929.875,3174.0,4171.555555555556,4264.6,306.072,304.714,314.6525,314.14925,21.9646,20.6212,21.9821,21.493,314.999998,314.999998,324.999988,324.999988,99.559,99.5075,99.56848571428571,99.54818571428571,0.12533333333333374,-0.02499999999999991,-0.02949999999999997,0.19616666666666682,-0.03333333333333144,-0.054999999999999716,1.4745,1.476,38.278999999999996,29.882666666666665,38.388,35.3315,56.033,35.2845,59.9855,52.922,53.980000000000004,34.425,58.557,51.2215,53.150999999999996,33.9885,58.4655,50.61566666666667,-0.07650000000000001,-0.10099999999999998,0.100845,0.113195,0.0,214.015,214.05,210.75666666666666,210.75666666666666,0.0,0.0
21,0.0,0.0,0.0,1.0,1.0,0.0,0.0,1.0,0.0,100.0,1.0,1.1856,26.0,0.0,0.0,0.0,59.999996,0.0,26.0,26.0,26.0,26.0,0.054777777777777814,0.26880000000000015,-0.062075000000000005,291.412,-2.6724,-2.64575,-1.63685,-1.5267,-205.25,215.935,190.550125,0.0,0.0,0.0,0.0,0.04253333333333333,-5.498166666666667,-5.498166666666667,-0.6021000000000001,0.46399999999999997,0.028874999999999984,-0.8040000000000003,68.494,0.049300000000000004,-0.254325,0.22200000000000042,100.0,1.0,1.0,211.36666666666667,0.0,0.0,0.0,0.0,0.0,0.0,0.0,8959.1,0.0,55.0,5.0,246.55,1.0,0.0,0.0,0.0,0.0,0.0,0.0,0.0,1.0530000000000008,1.0530000000000008,0.0,0.0,1.0,55.0,616.79921,10000.0,85.000001,85.000001,85.000001,85.000001,395.0,0.0,0.0,0.0,1.0,166.665,50.293,50.293,47.668,47.668,34.0,-22.2775,24.68,-26.446666666666665,29.26,0.0,1782.562,0.28000000000000114,100.0,29.826999999999998,30.276,43.073,44.099000000000004,0.0,0.0,100.0,0.0,0.0,0.0,0.0,3096.75,3137.0,4029.222222222222,4018.9,305.4236666666667,304.752,315.158,314.94475,21.9736,20.6266,21.9918,21.5015,314.999998,314.999998,324.999988,324.999988,99.55901428571428,99.5075,99.56861428571429,99.54832857142857,0.11066666666666647,-0.048666666666666636,-0.06666666666666665,0.15850000000000009,-0.051666666666669414,-0.045000000000001705,1.5655000000000001,1.588,38.335,29.916333333333334,38.449,35.3845,56.022,35.3225,60.0155,52.977000000000004,53.97,34.46,58.585,51.2745,53.14,34.022,58.4905,50.66766666666666,-0.07299999999999995,-0.11499999999999999,0.10163000000000001,0.10462,0.0,214.48000000000002,214.45,211.36666666666667,211.36666666666667,0.0,0.0
22,0.0,0.0,0.0,1.0,1.0,0.0,0.0,1.0,0.0,100.0,1.0,1.1856,26.0,0.0,0.0,0.0,59.999996,0.0,26.0,26.0,26.0,26.0,0.013666666666666716,0.2753000000000001,0.0154,290.924,-2.6348000000000003,-2.6732500000000003,-1.61355,-1.5333,-201.75,215.9325,190.526375,0.0,0.0,0.0,0.0,0.04456666666666667,-5.498166666666667,-5.498166666666667,-0.5833,0.07000000000000006,0.01574999999999993,0.012000000000000455,68.633,0.0166,-0.23667500000000002,0.5039999999999996,100.0,1.0,1.0,211.59333333333333,0.0,0.0,0.0,0.0,0.0,0.0,0.0,8968.7,0.0,55.0,5.0,247.05,0.0,0.0,0.0,0.0,0.0,0.0,0.0,0.0,1.1039999999999992,1.1039999999999992,0.0,0.0,0.0,55.0,616.79921,10000.0,85.000001,85.000001,85.000001,85.000001,395.0,0.0,0.0,0.0,1.0,333.33500000000004,50.354,50.354,46.616,46.616,34.0,-22.4675,23.344,-30.5,29.9225,0.0,1782.511,0.3150000000000013,100.0,30.075,30.201,43.707,44.198,0.0,0.0,100.0,0.0,0.0,0.0,0.0,3032.25,3088.7,4256.555555555556,4270.4,305.5833333333333,304.86725,314.54325,314.32925,21.9832,20.6323,22.0024,21.5107,314.999998,314.999998,324.999988,324.999988,99.55902857142857,99.5075,99.56875714285714,99.54847142857143,0.0863333333333336,-0.07666666666666666,-0.10599999999999998,0.11966666666666681,-0.03166666666666629,-0.05666666666667197,1.4825,1.5074999999999998,38.394999999999996,29.951666666666668,38.515,35.442,56.01,35.363,60.0545,53.0385,53.959,34.4975,58.6215,51.3335,53.126999999999995,34.0575,58.5235,50.72533333333333,-0.06599999999999995,-0.1140000000000001,0.10516,0.10748,0.0,214.91500000000002,214.87,211.59333333333333,211.59333333333333,0.0,0.0
23,0.0,0.0,0.0,1.0,1.0,0.0,0.0,1.0,0.0,100.0,1.0,1.1856,26.0,0.0,0.0,0.0,59.999996,0.0,26.0,26.0,26.0,26.0,-0.02644444444444438,0.2472000000000001,-0.021725,290.878,-2.6499,-2.6408750000000003,-1.5293999999999999,-1.6113,-198.25,215.93,190.502875,0.0,0.0,0.0,0.0,0.0466,-5.498166666666667,-5.498166666666667,-0.5996,-0.1865000000000001,-0.001875000000000071,-0.24800000000000022,68.766,-0.008700000000000001,-0.259425,0.6960000000000006,100.0,1.0,1.0,212.11,0.0,0.0,0.0,0.0,0.0,0.0,0.0,8990.6,0.0,55.0,5.0,247.53333333333336,1.0,0.0,0.0,0.0,0.0,0.0,0.0,0.0,1.1550000000000011,1.1550000000000011,0.0,0.0,1.0,55.0,616.79921,10000.0,85.000001,85.000001,85.000001,85.000001,395.0,0.0,0.0,0.0,1.0,333.33500000000004,49.744,49.744,47.485,47.485,34.0,-26.4675,22.54,-28.293333333333333,27.4225,0.0,1782.459,0.34499999999999886,100.0,30.368000000000002,30.157,44.056,44.304,0.0,0.0,100.0,0.0,0.0,0.0,0.0,3345.875,3114.3,3969.5555555555557,3981.7,304.67466666666667,304.8885,315.1615,314.93225,21.9928,20.6379,22.012999999999998,21.52,314.999998,314.999998,324.999988,324.999988,99.55904285714286,99.50751666666666,99.5689,99.54862857142857,0.062333333333333574,-0.09133333333333327,-0.13483333333333336,0.09683333333333333,-0.046666666666666856,-0.041666666666671404,1.521,1.537,38.455,29.987000000000002,38.581,35.5,55.997,35.4045,60.091499999999996,53.099000000000004,53.946,34.5355,58.656,51.391999999999996,53.114000000000004,34.0945,58.555,50.782333333333334,-0.06699999999999995,-0.11650000000000005,0.10586500000000001,0.11221500000000001,0.0,215.29500000000002,215.26,212.11,212.11,0.0,0.0
24,0.0,0.0,0.0,1.0,1.0,0.0,0.0,1.0,0.0,100.0,1.0,1.1856,26.0,0.0,0.0,0.0,59.999996,0.0,26.0,26.0,26.0,26.0,-0.04888888888888887,0.2694000000000001,-0.0357,291.092,-2.6598,-2.65925,-1.566,-1.5604,-194.94,215.9275,190.480375,0.0,0.0,0.0,0.0,0.04853333333333333,-5.498166666666667,-5.498166666666667,-0.6027,-0.544,-0.002000000000000224,0.351,68.894,-0.0267,-0.245625,0.6620000000000008,100.0,1.0,1.0,212.40333333333334,0.0,0.0,0.0,0.0,0.0,0.0,0.0,9003.0,0.0,55.0,5.0,247.99,0.0,0.0,0.0,0.0,0.0,0.0,0.0,0.0,1.2029999999999994,1.2029999999999994,0.0,0.0,0.0,55.0,616.79921,10000.0,85.000001,85.000001,85.000001,85.000001,395.0,0.0,0.0,0.0,1.0,333.33500000000004,50.903,50.903,46.432,46.432,34.0,-24.0225,20.735999999999997,-32.42333333333333,27.32,0.0,1782.411,0.26000000000000156,100.0,30.195999999999998,29.781,44.242000000000004,44.120000000000005,0.0,0.0,100.0,0.0,0.0,0.0,0.0,3000.25,2962.8,4324.0,4134.1,305.766,305.4155,314.32975,314.64975,22.0017,20.6431,22.0229,21.5286,314.999998,314.999998,324.999988,324.999988,99.55904285714286,99.50753333333333,99.56904285714286,99.54875714285714,0.045333333333333226,-0.10699999999999998,-0.14116666666666666,0.08416666666666672,-0.023333333333326323,-0.03999999999999915,1.4805,1.5110000000000001,38.510999999999996,30.019,38.643,35.554,55.983999999999995,35.442,60.1275,53.155,53.933,34.57,58.689,51.446,53.1,34.1275,58.585,50.835,-0.0665,-0.11050000000000004,0.10162500000000001,0.10880000000000001,0.0,215.69,215.64,212.40333333333334,212.40333333333334,0.0,0.0
25,0.0,0.0,0.0,1.0,1.0,0.0,0.0,1.0,0.0,100.0,1.0,1.1856,26.0,0.0,0.0,0.0,59.999996,0.0,26.0,26.0,26.0,26.0,-0.06299999999999994,0.2682,-0.060475,291.092,-2.7166,-2.628875,-1.57165,-1.5713,-191.43,215.925,190.455125,0.0,0.0,0.0,0.0,0.05056666666666667,-5.498166666666667,-5.498166666666667,-0.6348,0.03849999999999998,-0.009250000000000203,-0.7110000000000003,69.026,-0.0403,-0.256,0.6600000000000001,100.0,1.0,1.0,212.95666666666668,0.0,0.0,0.0,0.0,0.0,0.0,0.0,9026.4,0.0,55.0,5.0,248.46666666666667,1.0,0.0,0.0,0.0,0.0,0.0,0.0,0.0,1.2540000000000013,1.2540000000000013,0.0,0.0,1.0,55.0,616.79921,10000.0,85.000001,85.000001,85.000001,85.000001,395.0,0.0,0.0,0.0,1.0,333.33500000000004,49.942,49.942,47.302,47.302,34.0,-27.62,22.908,-30.08,25.545,0.0,1782.36,0.16499999999999915,100.0,30.11,29.923000000000002,43.989000000000004,43.687,0.0,0.0,100.0,0.0,0.0,0.0,0.0,3325.5,3245.4,3988.222222222222,4014.7,304.90166666666664,304.522,315.20525,314.93025,22.0112,20.648699999999998,22.0333,21.5377,314.999998,314.999998,324.999988,324.999988,99.55905714285714,99.50755,99.56918571428571,99.5489,0.04300000000000015,-0.10433333333333317,-0.16183333333333338,0.07000000000000006,-0.051666666666669414,-0.060000000000002274,1.5474999999999999,1.5884999999999998,38.57,30.054000000000002,38.708,35.6105,55.968,35.484,60.162,53.212,53.918,34.6095,58.7215,51.501,53.084,34.165,58.6145,50.888666666666666,-0.07350000000000001,-0.10000000000000009,0.10460000000000001,0.10653000000000001,0.0,216.135,216.065,212.95666666666668,212.95666666666668,0.0,0.0
26,0.0,0.0,0.0,1.0,1.0,0.0,0.0,1.0,0.0,100.0,1.0,1.1856,26.0,0.0,0.0,0.0,59.999996,0.0,26.0,26.0,26.0,26.0,-0.07188888888888889,0.2781,0.06267500000000001,290.115,-2.6574,-2.7225,-1.60765,-1.5729000000000002,-187.89999999999998,215.91750000000002,190.429375,0.0,0.0,0.0,0.0,0.05263333333333334,-5.498166666666667,-5.498166666666667,-0.5929,0.6525000000000001,-0.035375000000000156,0.03000000000000025,69.162,-0.0461,-0.224675,0.5420000000000007,100.0,1.0,1.0,213.10666666666668,0.0,0.0,0.0,0.0,0.0,0.0,0.0,9032.8,0.0,55.0,5.0,248.95666666666665,0.0,0.0,0.0,0.0,0.0,0.0,0.0,0.0,1.3049999999999997,1.3049999999999997,0.0,0.0,0.0,55.0,616.79921,10000.0,85.000001,85.000001,85.000001,85.000001,395.0,0.0,0.0,0.0,1.0,333.33500000000004,49.698,49.698,45.7,45.7,34.0,-26.107499999999998,21.892,-36.47333333333333,29.017500000000002,0.0,1782.308,0.03500000000000014,100.0,30.896,30.338,44.448,43.944,0.0,0.0,100.0,0.0,0.0,0.0,0.0,3243.125,3042.9,4608.333333333333,4456.9,305.00033333333334,305.01825,313.75,313.88775,22.021,20.6544,22.044,21.547,314.999998,314.999998,324.999988,324.999988,99.55905714285714,99.50756666666666,99.56934285714286,99.54905714285714,0.050666666666666416,-0.11266666666666669,-0.15366666666666662,0.06150000000000011,-0.023333333333326323,-0.06499999999999773,1.434,1.4565000000000001,38.631,30.09,38.775,35.6685,55.957,35.528,60.2025,53.2725,53.908,34.65,58.7595,51.559,53.073,34.2035,58.649,50.94566666666667,-0.08499999999999996,-0.09699999999999998,0.09910000000000001,0.103605,0.0,216.565,216.51999999999998,213.10666666666668,213.10666666666668,0.0,0.0
27,0.0,0.0,0.0,1.0,1.0,0.0,0.0,1.0,0.0,100.0,1.0,1.1856,26.0,0.0,0.0,0.0,59.999996,0.0,26.0,26.0,26.0,26.0,-0.05077777777777781,0.258,-0.0494,290.665,-2.6303,-2.685,-1.60205,-1.6424,-184.37,215.91,190.404875,0.0,0.0,0.0,0.0,0.05466666666666667,-5.498166666666667,-5.498166666666667,-0.6271,-1.084,-0.03125,0.06700000000000017,69.293,-0.0454,-0.275225,0.39200000000000035,100.0,1.0,1.0,213.67000000000002,0.0,0.0,0.0,0.0,0.0,0.0,0.0,9056.7,0.0,55.0,5.0,249.43,1.0,0.0,0.0,0.0,0.0,0.0,0.0,0.0,1.355999999999998,1.355999999999998,0.0,0.0,1.0,55.0,616.79921,10000.0,85.000001,85.000001,85.000001,85.000001,395.0,0.0,0.0,0.0,1.0,166.665,49.927,49.927,46.432,46.432,34.0,-24.6825,22.454,-31.0,26.485,0.0,1782.26,-0.08500000000000085,100.0,30.618000000000002,30.198999999999998,44.994,44.425,0.0,0.0,100.0,0.0,0.0,0.0,0.0,3166.375,3121.7,4020.1111111111113,3984.9,305.25466666666665,304.8885,315.00925,314.94725,22.0304,20.66,22.0547,21.5564,314.999998,314.999998,324.999988,324.999988,99.55905714285714,99.50758333333333,99.5695,99.5492,0.06033333333333335,-0.10399999999999987,-0.15966666666666662,0.06816666666666671,-0.03333333333333144,-0.05333333333332746,1.518,1.525,38.69,30.124666666666666,38.842,35.7275,55.942,35.569,60.2425,53.333,53.894,34.688,58.7965,51.6175,53.058,34.24,58.683,51.00233333333333,-0.09799999999999998,-0.09149999999999991,0.10248,0.107185,0.0,216.9,216.865,213.67000000000002,213.67000000000002,0.0,0.0
28,0.0,0.0,0.0,1.0,1.0,0.0,0.0,1.0,0.0,100.0,1.0,1.1856,26.0,0.0,0.0,0.0,59.999996,0.0,26.0,26.0,26.0,26.0,-0.04122222222222216,0.26780000000000004,-0.045700000000000005,290.68,-2.6435,-2.66075,-1.5763,-1.603,-180.82999999999998,215.9025,190.37925,0.0,0.0,0.0,0.0,0.05673333333333334,-5.498166666666667,-5.498166666666667,-0.6287,0.6339999999999999,-0.03500000000000014,0.1299999999999999,69.423,-0.0419,-0.24657500000000002,0.30600000000000005,100.0,1.0,1.0,214.10666666666668,0.0,0.0,0.0,0.0,0.0,0.0,0.0,9075.2,0.0,55.0,5.0,249.89666666666665,0.0,0.0,0.0,0.0,0.0,0.0,0.0,0.0,1.407,1.407,0.0,0.0,0.0,55.0,616.79921,10000.0,85.000001,85.000001,85.000001,85.000001,395.0,0.0,0.0,0.0,1.0,166.665,49.759,49.759,46.982,46.982,34.0,-24.912499999999998,22.246,-31.78,27.302500000000002,0.0,1782.208,-0.15500000000000114,100.0,30.887999999999998,30.303,44.261,43.882,0.0,0.0,100.0,0.0,0.0,0.0,0.0,3204.125,3067.7,4186.333333333333,4139.8,305.06266666666664,305.01675,314.8295,314.648,22.04,20.6656,22.065,21.5655,314.999998,314.999998,324.999988,324.999988,99.55907142857143,99.50758333333333,99.56964285714285,99.54935714285715,0.06833333333333336,-0.09433333333333316,-0.15849999999999997,0.07299999999999995,-0.051666666666669414,-0.04833333333333201,1.526,1.5379999999999998,38.75,30.16,38.906,35.784,55.931,35.611,60.2765,53.39,53.882,34.7265,58.828,51.672,53.045,34.277,58.7115,51.05566666666667,-0.10699999999999998,-0.08250000000000002,0.10277000000000001,0.11105500000000001,0.0,217.38,217.32999999999998,214.10666666666668,214.10666666666668,0.0,0.0
29,0.0,0.0,0.0,1.0,1.0,0.0,0.0,1.0,0.0,100.0,1.0,1.1856,26.0,0.0,0.0,0.0,59.999996,0.0,26.0,26.0,26.0,26.0,-0.031444444444444386,0.2533000000000001,0.037775,290.329,-2.6059,-2.716,-1.5550000000000002,-1.5762,-177.5,215.89249999999998,190.354375,0.0,0.0,0.0,0.0,0.058666666666666666,-5.498166666666667,-5.498166666666667,-0.6344000000000001,-0.6305000000000001,-0.027499999999999858,0.05600000000000005,69.549,-0.0334,-0.25155,0.10000000000000053,100.0,1.0,1.0,214.35000000000002,0.0,0.0,0.0,0.0,0.0,0.0,0.0,9085.5,0.0,55.0,5.0,250.35333333333335,1.0,0.0,0.0,0.0,0.0,0.0,0.0,0.0,1.4549999999999983,1.4549999999999983,0.0,0.0,1.0,55.0,616.79921,10000.0,85.000001,85.000001,85.000001,85.000001,395.0,0.0,0.0,0.0,1.0,166.665,49.744,49.744,46.097,46.097,34.0,-24.5325,23.408,-31.439999999999998,28.92,0.0,1782.16,-0.19500000000000028,100.0,30.523,30.201999999999998,44.741,44.266999999999996,0.0,0.0,100.0,0.0,0.0,0.0,0.0,3253.625,3158.7,4233.0,4251.9,305.0253333333333,304.66075,314.538,314.32325,22.0488,20.6709,22.0751,21.5743,314.999998,314.999998,324.999988,324.999988,99.55908571428571,99.5076,99.56978571428571,99.54948571428571,0.07533333333333347,-0.09933333333333327,-0.1393333333333333,0.0858333333333332,-0.046666666666666856,-0.05666666666667197,1.471,1.4565000000000001,38.805,30.192999999999998,38.969,35.8395,55.917,35.649,60.3135,53.4475,53.870000000000005,34.7615,58.863,51.727000000000004,53.032,34.3105,58.7435,51.10933333333333,-0.11649999999999994,-0.08099999999999996,0.10744000000000001,0.102495,0.0,217.70499999999998,217.695,214.35000000000002,214.35000000000002,0.0,0.0
30,0.0,0.0,0.0,1.0,1.0,0.0,0.0,1.0,0.0,100.0,1.0,1.1856,26.0,0.0,0.0,0.0,59.999996,0.0,26.0,26.0,26.0,26.0,-0.02544444444444449,0.25460000000000016,0.0414,289.917,-2.6604,-2.605,-1.5304,-1.6366,-174.16,215.8825,190.3295,0.0,0.0,0.0,0.0,0.0606,-5.498166666666667,-5.498166666666667,-0.6271,0.8694999999999999,-0.03025000000000011,0.040000000000000036,69.67099999999999,-0.0223,-0.247875,0.0420000000000007,100.0,1.0,1.0,214.76666666666665,0.0,0.0,0.0,0.0,0.0,0.0,0.0,9103.2,0.0,55.0,5.0,250.79000000000002,0.0,0.0,0.0,0.0,0.0,0.0,1.0,0.0,1.5030000000000001,1.5030000000000001,0.0,0.0,0.0,55.0,616.79921,10000.0,85.000001,85.000001,85.000001,85.000001,395.0,0.0,0.0,0.0,1.0,166.665,48.92,48.92,46.371,46.371,34.0,-25.825,23.168,-31.119999999999997,29.66,0.0,1782.111,-0.21499999999999986,100.0,31.222,30.783,44.573,44.35,0.0,0.0,100.0,0.0,0.0,0.0,0.0,3415.875,3148.4,4264.111111111111,4231.3,304.497,304.697,314.52925,314.3475,22.0579,20.6764,22.0849,21.583,314.999998,314.999998,324.999988,324.999988,99.55908571428571,99.50761666666666,99.56992857142858,99.54964285714286,0.09133333333333349,-0.07866666666666666,-0.13649999999999995,0.08783333333333321,-0.03833333333332689,-0.05666666666667197,1.4725000000000001,1.479,38.861999999999995,30.227666666666664,39.031,35.894,55.909,35.6905,60.347,53.503,53.861000000000004,34.8,58.894,51.7805,53.022,34.347,58.771,51.16166666666666,-0.118,-0.07400000000000007,0.11402000000000001,0.10064000000000001,0.0,218.11,218.115,214.76666666666665,214.76666666666665,0.0,0.0
31,0.0,0.0,0.0,1.0,1.0,0.0,0.0,1.0,0.0,100.0,1.0,1.1856,26.0,0.0,0.0,0.0,59.999996,0.0,26.0,26.0,26.0,26.0,-0.011222222222222134,0.24350000000000005,-0.02065,289.795,-2.726,-2.582125,-1.5784500000000001,-1.6286,-170.39,215.87,190.30225,0.0,0.0,0.0,0.0,0.06280000000000001,-5.498166666666667,-5.498166666666667,-0.6182000000000001,-0.7490000000000001,-0.018749999999999822,0.10299999999999976,69.81,-0.007500000000000001,-0.254875,-0.137999999999999,100.0,1.0,1.0,215.12,0.0,0.0,0.0,0.0,0.0,0.0,0.0,9118.1,0.0,55.0,5.0,251.29000000000002,1.0,0.0,0.0,0.0,0.0,0.0,1.0,0.0,1.5569999999999986,1.5569999999999986,0.0,0.0,1.0,55.0,616.79921,10000.0,85.000001,85.000001,85.000001,85.000001,395.0,0.0,0.0,0.0,1.0,166.665,49.316,49.316,45.212,45.212,34.0,-24.825,24.278,-30.886666666666667,31.1175,0.0,1782.059,-0.19000000000000128,100.0,30.886,30.823,45.21,44.97,0.0,0.0,100.0,0.0,0.0,0.0,0.0,3219.75,3287.0,4288.111111111111,4284.5,305.2366666666667,304.48825,314.385,314.3215,22.0678,20.6825,22.0963,21.5931,314.999998,314.999998,324.999988,324.999988,99.5591,99.50761666666666,99.57008571428571,99.54978571428572,0.0853333333333337,-0.07000000000000006,-0.11166666666666658,0.10850000000000004,-0.041666666666671404,-0.026666666666670835,1.4585,1.448,38.924,30.265666666666668,39.102000000000004,35.9565,55.894999999999996,35.734,60.3895,53.5685,53.849000000000004,34.84,58.9335,51.8435,53.009,34.3855,58.8075,51.223333333333336,-0.11049999999999993,-0.07250000000000001,0.10592000000000001,0.10586000000000001,0.0,218.515,218.485,215.12,215.12,0.0,0.0
32,0.0,0.0,0.0,1.0,1.0,0.0,0.0,1.0,0.0,100.0,1.0,1.1856,26.0,0.0,0.0,0.0,59.999996,0.0,26.0,26.0,26.0,26.0,-0.009777777777777774,0.27049999999999996,-0.039975000000000004,290.009,-2.6646,-2.684625,-1.64405,-1.5364,-167.04,215.86,190.278,0.0,0.0,0.0,0.0,0.06476666666666667,-5.498166666666667,-5.498166666666667,-0.6348,0.13850000000000007,-0.042749999999999844,-0.4509999999999996,69.93,0.0004,-0.25985,-0.1120000000000001,100.0,1.0,1.0,215.59333333333333,0.0,0.0,0.0,0.0,0.0,0.0,0.0,9138.2,0.0,55.0,5.0,251.72,0.0,0.0,0.0,0.0,0.0,0.0,1.0,0.0,1.6050000000000004,1.6050000000000004,0.0,0.0,0.0,55.0,616.79921,10000.0,85.000001,85.000001,85.000001,85.000001,395.0,0.0,0.0,0.0,1.0,333.33500000000004,49.225,49.225,46.066,46.066,34.0,-24.48,24.302,-30.886666666666667,29.5,0.0,1782.009,-0.1750000000000007,100.0,31.002,30.926000000000002,44.785,44.754000000000005,0.0,0.0,100.0,0.0,0.0,0.0,0.0,3288.375,3152.2,4264.666666666667,4238.6,304.94,304.75725,314.63225,314.5095,22.0767,20.688,22.1061,21.6018,314.999998,314.999998,324.999988,324.999988,99.55911428571429,99.50763333333333,99.57022857142857,99.54992857142857,0.09566666666666634,-0.06866666666666665,-0.10983333333333334,0.11850000000000005,-0.04333333333332945,-0.051666666666669414,1.5365,1.5274999999999999,38.979,30.299999999999997,39.163,36.010999999999996,55.885,35.7735,60.422,53.623,53.838,34.8765,58.964,51.896,52.997,34.420500000000004,58.8345,51.27433333333333,-0.10849999999999993,-0.08099999999999996,0.10926500000000001,0.10638500000000001,0.0,218.88,218.885,215.59333333333333,215.59333333333333,0.0,0.0
33,0.0,0.0,0.0,1.0,1.0,0.0,0.0,1.0,0.0,100.0,1.0,1.1856,26.0,0.0,0.0,0.0,59.999996,0.0,26.0,26.0,26.0,26.0,0.00022222222222212373,0.2631000000000001,-0.031925,290.176,-2.6708,-2.6778750000000002,-1.57435,-1.6171,-163.68,215.85,190.252875,0.0,0.0,0.0,0.0,0.06670000000000001,-5.498166666666667,-5.498166666666667,-0.6388,-0.35650000000000004,-0.037374999999999936,0.6760000000000002,70.05199999999999,0.0031000000000000003,-0.249,-0.06400000000000006,100.0,1.0,1.0,215.89,0.0,0.0,0.0,0.0,0.0,0.0,0.0,9150.7,0.0,55.0,5.0,252.16333333333336,1.0,0.0,0.0,0.0,0.0,0.0,1.0,0.0,1.6529999999999987,1.6529999999999987,0.0,0.0,1.0,55.0,616.79921,10000.0,85.000001,85.000001,85.000001,85.000001,395.0,0.0,0.0,0.0,1.0,333.33500000000004,49.805,49.805,45.975,45.975,34.0,-23.455,24.060000000000002,-30.156666666666666,30.81,0.0,1781.96,-0.21000000000000085,100.0,30.793,30.541,44.816,44.806,0.0,0.0,100.0,0.0,0.0,0.0,0.0,3159.75,3085.9,4252.333333333333,4277.7,305.36066666666665,304.98,314.537,314.32275,22.0854,20.6933,22.116,21.610500000000002,314.999998,314.999998,324.999988,324.999988,99.55912857142857,99.50765,99.57037142857143,99.55007142857143,0.09399999999999986,-0.058666666666666645,-0.10983333333333334,0.10983333333333323,-0.04833333333333201,-0.04333333333332945,1.4969999999999999,1.492,39.034,30.333,39.225,36.066,55.873999999999995,35.81,60.4565,53.679,53.828,34.91,58.996,51.95,52.986000000000004,34.453,58.864,51.327,-0.10949999999999993,-0.07050000000000001,0.10382000000000001,0.10408500000000001,0.0,219.255,219.25,215.89,215.89,0.0,0.0
34,0.0,0.0,0.0,1.0,1.0,0.0,0.0,1.0,0.0,100.0,1.0,1.1856,26.0,0.0,0.0,0.0,59.999996,0.0,26.0,26.0,26.0,26.0,-0.0024444444444444713,0.2451000000000001,-0.064025,290.512,-2.6842,-2.6615,-1.6392,-1.5761,-160.1,215.8375,190.225,0.0,0.0,0.0,0.0,0.0688,-5.498166666666667,-5.498166666666667,-0.6679,-0.7370000000000001,-0.006124999999999936,0.4560000000000004,70.179,0.006500000000000001,-0.254925,-0.05799999999999983,100.0,1.0,1.0,216.3466666666667,0.0,0.0,0.0,0.0,0.0,0.0,0.0,9170.1,0.0,55.0,5.0,252.62,0.0,0.0,0.0,0.0,0.0,0.0,1.0,0.0,1.7040000000000006,1.7040000000000006,0.0,0.0,0.0,55.0,616.79921,10000.0,85.000001,85.000001,85.000001,85.000001,395.0,0.0,0.0,0.0,1.0,166.665,50.095,50.095,46.707,46.707,34.0,-22.7025,23.732,-29.403333333333332,29.6475,0.0,1781.911,-0.21499999999999986,100.0,30.541,30.251,44.577,44.905,0.0,0.0,100.0,0.0,0.0,0.0,0.0,3091.0,3069.9,4088.777777777778,4181.2,305.3883333333333,305.005,314.9865,314.51425,22.0947,20.6989,22.1265,21.619799999999998,314.999998,314.999998,324.999988,324.999988,99.55914285714286,99.50765,99.57051428571428,99.55022857142858,0.10533333333333372,-0.06033333333333313,-0.10816666666666663,0.1146666666666667,-0.05333333333332746,-0.05333333333332746,1.5165,1.5074999999999998,39.092,30.368333333333332,39.29,36.124,55.861000000000004,35.848,60.49,53.738,53.816,34.945499999999996,59.0275,52.007,52.973,34.4865,58.891999999999996,51.382666666666665,-0.11199999999999999,-0.06699999999999995,0.10434,0.10339500000000001,0.0,219.635,219.64,216.34666666666666,216.3466666666667,0.0,0.0
35,0.0,0.0,0.0,1.0,1.0,0.0,0.0,1.0,0.0,100.0,1.0,1.1856,26.0,0.0,0.0,0.0,59.999996,0.0,26.0,26.0,26.0,26.0,0.008888888888888946,0.25370000000000004,-0.06625,290.604,-2.6859,-2.604875,-1.6192000000000002,-1.5317,-156.51999999999998,215.8275,190.195,0.0,0.0,0.0,0.0,0.07086666666666666,-5.498166666666667,-5.498166666666667,-0.7074,-0.31400000000000006,-0.018749999999999822,-0.524,70.306,0.013300000000000001,-0.26175000000000004,-0.15399999999999991,100.0,1.0,1.0,216.79333333333335,0.0,0.0,0.0,0.0,0.0,0.0,0.0,9189.1,0.0,55.0,5.0,253.07666666666665,1.0,0.0,0.0,0.0,0.0,0.0,1.0,0.0,1.754999999999999,1.754999999999999,0.0,0.0,1.0,55.0,616.79921,10000.0,85.000001,85.000001,85.000001,85.000001,395.0,0.0,0.0,0.0,1.0,333.33500000000004,49.698,49.698,46.371,46.371,34.0,-23.655,26.168,-28.18,28.135,0.0,1781.859,-0.1750000000000007,100.0,30.144,30.453,44.354,44.331,0.0,0.0,100.0,0.0,0.0,0.0,0.0,3198.0,3371.4,4031.1111111111113,3995.8,305.196,304.12625,315.058,315.0105,22.1039,20.7047,22.1368,21.629,314.999998,314.999998,324.999988,324.999988,99.55915714285715,99.50766666666667,99.57065714285714,99.55037142857142,0.10199999999999987,-0.052999999999999936,-0.09999999999999998,0.1323333333333332,-0.051666666666669414,-0.04999999999999716,1.549,1.5474999999999999,39.149,30.404666666666664,39.355000000000004,36.1815,55.847,35.888,60.5245,53.794,53.802,34.9825,59.059,52.061,52.958,34.522,58.92,51.43533333333333,-0.10449999999999993,-0.07550000000000012,0.10810000000000002,0.10793000000000001,0.0,220.03,220.035,216.79333333333335,216.79333333333335,0.0,0.0
36,0.0,0.0,0.0,1.0,1.0,0.0,0.0,1.0,0.0,100.0,1.0,1.1856,26.0,0.0,0.0,0.0,59.999996,0.0,26.0,26.0,26.0,26.0,0.007000000000000117,0.2634000000000001,0.04895,289.795,-2.7267,-2.6487499999999997,-1.5632000000000001,-1.5909,-153.14,215.815,190.1655,0.0,0.0,0.0,0.0,0.07283333333333335,-5.498166666666667,-5.498166666666667,-0.6871,0.2994999999999999,-0.06262500000000015,-0.7160000000000002,70.428,0.0148,-0.2301,0.03799999999999937,100.0,1.0,1.0,216.95333333333332,0.0,0.0,0.0,0.0,0.0,0.0,0.0,9195.9,0.0,55.0,5.0,253.51333333333332,0.0,0.0,0.0,0.0,0.0,0.0,1.0,0.0,1.8030000000000008,1.8030000000000008,0.0,0.0,0.0,55.0,616.79921,10000.0,85.000001,85.000001,85.000001,85.000001,395.0,0.0,0.0,0.0,1.0,333.33500000000004,49.438,49.438,45.807,45.807,34.0,-25.33,24.53,-31.576666666666668,33.932500000000005,0.0,1781.811,-0.10999999999999943,100.0,30.664,30.665,44.417,44.484,0.0,0.0,100.0,0.0,0.0,0.0,0.0,3364.5,3158.5,4475.333333333333,4526.1,304.80466666666666,304.7895,314.046,313.754,22.1127,20.7103,22.1467,21.6378,314.999998,314.999998,324.999988,324.999988,99.55917142857143,99.50766666666667,99.57081428571429,99.55051428571429,0.1033333333333335,-0.05600000000000005,-0.10016666666666663,0.129,-0.05333333333332746,-0.051666666666669414,1.441,1.431,39.205,30.439333333333334,39.417,36.2365,55.837,35.9275,60.558,53.8505,53.793,35.0185,59.0905,52.1155,52.947,34.5565,58.948499999999996,51.48833333333333,-0.10299999999999998,-0.08949999999999991,0.108045,0.10308,0.0,220.445,220.45499999999998,216.95333333333335,216.95333333333332,0.0,0.0
