,ABS Active,ABS Enabled,AID Allow Tire Blankets,AID Auto Blip,AID Auto Clutch,AID Auto Shift,AID Fuel Rate,AID Ideal Line,AID Mech Damage,AID Stability,AID Tire Wear Rate,Air Density,Air Temp,Ballast,Best Lap Delta,Best Lap Time,Brake Bias,Brake Pos,Brake Temp FL,Brake Temp FR,Brake Temp RL,Brake Temp RR,CG Accel Lateral,CG Accel Longitudinal,CG Accel Vertical,CG Height,Camber FL,Camber FR,Camber RL,Camber RR,Car Coord X,Car Coord Y,Car Coord Z,Car Damage Front,Car Damage Left,Car Damage Rear,Car Damage Right,Car Pos Norm,Caster FL,Caster FR,Chassis Pitch Angle,Chassis Pitch Rate,Chassis Roll Angle,Chassis Roll Rate,Chassis Velocity X,Chassis Velocity Y,Chassis Velocity Z,Chassis Yaw Rate,Clutch Pos,DRS Active,DRS Available,Drive Train Speed,ERS Heat Charging,ERS Is Charging,ERS Max Energy,ERS Power Level,ERS Recovery Level,Engine Brake Setting,Engine Limiter,Engine RPM,Flags,Fuel Level,Gear,Ground Speed,HR Sample Clock,In Pit,KERS Charge,KERS Deployed Energy,KERS Input,KERS Max Energy,LR Sample Clock,Lap Invalidated,Lap Time,Lap Time2,Last Lap Time,Last Sector Time,MR Sample Clock,Max Fuel,Max Power,Max RPM,Max Sus Travel FL,Max Sus Travel FR,Max Sus Travel RL,Max Sus Travel RR,Max Torque,Max Turbo Boost,Num Tires Off Track,Penalties Enabled,Position,Raw Data Sample Rate,Ride Height FL,Ride Height FR,Ride Height RL,Ride Height RR,Road Temp,Self Align Torque FL,Self Align Torque FR,Self Align Torque RL,Self Align Torque RR,Session Lap Count,Session Time Left,Steering Angle,Surface Grip,Suspension Travel FL,Suspension Travel FR,Suspension Travel RL,Suspension Travel RR,TC Active,TC Enabled,Throttle Pos,Tire Dirt Level FL,Tire Dirt Level FR,Tire Dirt Level RL,Tire Dirt Level RR,Tire Load FL,Tire Load FR,Tire Load RL,Tire Load RR,Tire Loaded Radius FL,Tire Loaded Radius FR,Tire Loaded Radius RL,Tire Loaded Radius RR,Tire Pressure FL,Tire Pressure FR,Tire Pressure RL,Tire Pressure RR,Tire Radius FL,Tire Radius FR,Tire Radius RL,Tire Radius RR,Tire Rubber Grip FL,Tire Rubber Grip FR,Tire Rubber Grip RL,Tire Rubber Grip RR,Tire Slip Angle FL,Tire Slip Angle FR,Tire Slip Angle RL,Tire Slip Angle RR,Tire Slip Ratio FL,Tire Slip Ratio FR,Tire Slip Ratio RL,Tire Slip Ratio RR,Tire Temp Core FL,Tire Temp Core FR,Tire Temp Core RL,Tire Temp Core RR,Tire Temp Inner FL,Tire Temp Inner FR,Tire Temp Inner RL,Tire Temp Inner RR,Tire Temp Middle FL,Tire Temp Middle FR,Tire Temp Middle RL,Tire Temp Middle RR,Tire Temp Outer FL,Tire Temp Outer FR,Tire Temp Outer RL,Tire Temp Outer RR,Toe In FL,Toe In FR,Toe In RL,Toe In RR,Turbo Boost,Wheel Angular Speed FL,Wheel Angular Speed FR,Wheel Angular Speed RL,Wheel Angular Speed RR,Wind Direction,Wind Speed
0,0.0,0.0,0.0,1.0,1.0,0.0,0.0,1.0,0.0,100.0,1.0,1.1856,26.0,0.0,0.0,0.0,59.99999,0.0,26.0,26.0,26.0,26.0,-0.08124999999999993,0.3053000000000001,0.03345,293.137,-2.7025,-2.636111111111111,-1.5241500000000001,-1.5590000000000002,-275.66,216.29500000000002,190.986625,0.0,0.0,0.0,0.0,0.0015999999999999348,-5.498166666666667,-5.498166666666667,-0.5726,1.2565,-0.006000000000000227,-0.8810000000000002,65.53399999999999,-0.0286,-0.24247500000000002,0.9139999999999997,100.0,1.0,1.0,202.34333333333333,0.0,0.0,0.0,0.0,0.0,0.0,0.0,8576.6,0.0,55.0,5.0,235.89,0.0,0.0,0.0,0.0,0.0,0.0,0.0,0.0,0.0030000000000001137,0.0030000000000001137,0.0,0.0,0.0,55.0,616.79921,10000.0,85.0,85.0,85.0,85.0,395.0,0.0,0.0,0.0,1.0,20.0,51.163,51.163,49.316,49.316,34.0,-26.5175,23.728,-30.84,24.7975,0.0,1783.554,0.8150000000000013,100.0,28.922,28.405,40.792,40.873000000000005,0.0,0.0,100.0,0.0,0.0,0.0,0.0,3059.285714285714,3427.2,4117.375,3978.3,305.5705,303.8915,314.8475,314.895,21.7763,20.5096,21.7758,21.3151,314.99999,314.99999,324.99998,324.99998,99.55871428571429,99.50703333333334,99.56541428571428,99.54531428571428,0.003750000000000142,-0.11866666666666659,-0.16799999999999993,0.06350000000000011,-0.04833333333333201,-0.04833333333333201,1.5419999999999998,1.576,37.102000000000004,29.185000000000002,37.099000000000004,34.219,56.229,34.3905,59.1415,51.666,54.164,33.585,57.7655,50.019,53.348,33.167500000000004,57.729,49.44,-0.020499999999999963,-0.13900000000000023,0.12109,0.10352000000000001,0.0,205.365,205.305,202.34333333333333,202.34333333333333,0.0,0.0
1,0.0,0.0,0.0,1.0,1.0,0.0,0.0,1.0,0.0,100.0,1.0,1.1856,26.0,0.0,0.0,0.0,59.999996,0.0,26.0,26.0,26.0,26.0,-0.08862499999999995,0.32030000000000003,0.11657500000000001,292.252,-2.6163,-2.748111111111111,-1.53165,-1.5514999999999999,-272.12,216.29000000000002,190.965375,0.0,0.0,0.0,0.0,0.003666666666666596,-5.498166666666667,-5.498166666666667,-0.5199,-0.6515,-0.055111111111111555,-1.032,65.697,-0.0466,-0.22325,1.3640000000000008,100.0,1.0,1.0,202.51333333333332,0.0,0.0,0.0,0.0,0.0,0.0,0.0,8583.8,0.0,55.0,5.0,236.48000000000002,1.0,0.0,0.0,0.0,0.0,0.0,0.0,0.0,0.05699999999999861,0.05699999999999861,0.0,0.0,1.0,55.0,616.79921,10000.0,85.000001,85.000001,85.000001,85.000001,395.0,0.0,0.0,0.0,1.0,166.665,52.155,52.155,48.111,48.111,34.0,-26.2275,18.422,-33.77666666666667,29.8675,0.0,1783.5,0.9299999999999997,100.0,29.054000000000002,28.256999999999998,42.971000000000004,41.955,0.0,0.0,100.0,0.0,0.0,0.0,0.0,3070.4285714285716,2756.9,4290.625,4744.2,305.5005,306.051,314.35475,313.0255,21.7867,20.515,21.7872,21.3247,314.999998,314.999998,324.999988,324.999988,99.55871428571429,99.50705,99.56557142857143,99.54545714285715,-0.0035000000000000586,-0.1413333333333333,-0.17733333333333334,0.045666666666666744,-0.04999999999999716,-0.04833333333333201,1.4085,1.48,37.167,29.219,37.17,34.2795,56.212,34.435,59.189,51.735,54.147,33.626,57.81,50.085,53.331,33.207,57.769999999999996,49.504999999999995,-0.01200000000000001,-0.14800000000000013,0.098165,0.10709500000000001,0.0,205.865,205.755,202.51333333333332,202.51333333333332,0.0,0.0
2,0.0,0.0,0.0,1.0,1.0,0.0,0.0,1.0,0.0,100.0,1.0,1.1856,26.0,0.0,0.0,0.0,59.999996,0.0,26.0,26.0,26.0,26.0,-0.14,0.28180000000000005,-0.034125,292.938,-2.57,-2.792777777777778,-1.4789,-1.6254,-268.96,216.2825,190.947625,0.0,0.0,0.0,0.0,0.005499999999999949,-5.498166666666667,-5.498166666666667,-0.5665,-0.0040000000000000036,-0.06277777777777782,2.004,65.831,-0.0659,-0.274625,1.596,100.0,1.0,1.0,203.38333333333333,0.0,0.0,0.0,0.0,0.0,0.0,0.0,8620.7,0.0,55.0,5.0,236.96,0.0,0.0,0.0,0.0,0.0,0.0,0.0,0.0,0.10500000000000043,0.10500000000000043,0.0,0.0,0.0,55.0,616.79921,10000.0,85.000001,85.000001,85.000001,85.000001,395.0,0.0,0.0,0.0,1.0,166.665,51.163,51.163,49.866,49.866,34.0,-30.252499999999998,19.438,-29.833333333333336,20.295,0.0,1783.452,0.7250000000000014,100.0,29.625,28.109,42.916,41.58,0.0,0.0,100.0,0.0,0.0,0.0,0.0,3411.0,2921.3,3820.875,3658.6,304.378,305.54025,315.46775,315.83325,21.7964,20.5197,21.7971,21.333,314.999998,314.999998,324.999988,324.999988,99.55872857142857,99.50706666666666,99.5657,99.54558571428572,-0.023249999999999993,-0.15766666666666662,-0.22216666666666662,0.010833333333333472,-0.04999999999999716,-0.051666666666669414,1.6309999999999998,1.6925,37.227000000000004,29.248333333333335,37.232,34.331,56.2,34.4725,59.225,51.788,54.135999999999996,33.6605,57.8435,50.1355,53.319,33.24,57.801,49.55466666666666,-0.01649999999999996,-0.14349999999999996,0.11287000000000001,0.10504000000000001,0.0,206.275,206.125,203.38333333333333,203.38333333333333,0.0,0.0
3,0.0,0.0,0.0,1.0,1.0,0.0,0.0,1.0,0.0,100.0,1.0,1.1856,26.0,0.0,0.0,0.0,59.999996,0.0,26.0,26.0,26.0,26.0,-0.12937500000000002,0.3135000000000001,0.0263,292.725,-2.7141,-2.6695555555555557,-1.5181499999999999,-1.5929,-265.6,216.26999999999998,190.928,0.0,0.0,0.0,0.0,0.0074666666666665105,-5.498166666666667,-5.498166666666667,-0.5288,0.27,-0.006888888888889166,-0.02499999999999991,65.982,-0.0815,-0.22115,1.2220000000000013,100.0,1.0,1.0,203.57,0.0,0.0,0.0,0.0,0.0,0.0,0.0,8628.6,0.0,55.0,5.0,237.50333333333333,1.0,0.0,0.0,0.0,0.0,0.0,0.0,0.0,0.1559999999999988,0.1559999999999988,0.0,0.0,1.0,55.0,616.79921,10000.0,85.000001,85.000001,85.000001,85.000001,395.0,0.0,0.0,0.0,1.0,166.665,52.277,52.277,47.897,47.897,34.0,-25.7575,17.837999999999997,-34.86666666666667,25.175,0.0,1783.401,0.6500000000000021,100.0,29.081,28.368000000000002,42.754,41.681,0.0,0.0,100.0,0.0,0.0,0.0,0.0,2885.714285714286,2834.9,4264.375,4263.9,306.0175,305.729,314.426,314.273,21.8062,20.5249,21.8075,21.3419,314.999998,314.999998,324.999988,324.999988,99.55872857142857,99.50708333333333,99.56584285714285,99.54572857142857,-0.016999999999999904,-0.15700000000000003,-0.21099999999999997,0.01966666666666672,-0.06499999999999773,-0.026666666666670835,1.459,1.5310000000000001,37.289,29.28033333333333,37.297,34.3865,56.184,34.515,59.263999999999996,51.85,54.120999999999995,33.7,57.879999999999995,50.195499999999996,53.303,33.2775,57.835,49.613,-0.03049999999999997,-0.129,0.10922000000000001,0.10963500000000001,0.0,206.765,206.62,203.57,203.57,0.0,0.0
4,0.0,0.0,0.0,1.0,1.0,0.0,0.0,1.0,0.0,100.0,1.0,1.1856,26.0,0.0,0.0,0.0,59.999996,0.0,26.0,26.0,26.0,26.0,-0.14287499999999997,0.28,-0.028975,292.862,-2.6506,-2.7137777777777776,-1.5389,-1.5933000000000002,-262.23,216.255,190.90825,0.0,0.0,0.0,0.0,0.009399999999999964,-5.498166666666667,-5.498166666666667,-0.5631,-0.6525000000000001,-0.0694444444444442,-1.2800000000000002,66.127,-0.0852,-0.256325,1.2119999999999997,100.0,1.0,1.0,204.16333333333333,0.0,0.0,0.0,0.0,0.0,0.0,0.0,8653.7,0.0,55.0,5.0,238.03,0.0,0.0,0.0,0.0,0.0,0.0,0.0,0.0,0.20700000000000074,0.20700000000000074,0.0,0.0,0.0,55.0,616.79921,10000.0,85.000001,85.000001,85.000001,85.000001,395.0,0.0,0.0,0.0,1.0,166.665,51.712,51.712,48.538,48.538,34.0,-29.1575,18.934,-32.20333333333333,21.3575,0.0,1783.351,0.5850000000000009,100.0,28.857,28.28,43.088,41.818,0.0,0.0,100.0,0.0,0.0,0.0,0.0,3276.857142857143,2932.6,4025.75,3718.7,304.941,305.43075,314.9805,315.57475,21.8159,20.53,21.8181,21.3508,314.999998,314.999998,324.999988,324.999988,99.55872857142857,99.5071,99.56598571428572,99.54587142857143,-0.016999999999999904,-0.15733333333333333,-0.20766666666666667,0.024333333333333318,-0.07666666666666799,-0.045000000000001705,1.5590000000000002,1.6015000000000001,37.349999999999994,29.312333333333335,37.363,34.442,56.167,34.557,59.304,51.9095,54.104,33.7385,57.917500000000004,50.2525,53.286,33.314499999999995,57.8695,49.669,-0.03149999999999986,-0.12950000000000017,0.10870500000000001,0.11123500000000001,0.0,207.17000000000002,207.05,204.16333333333333,204.16333333333333,0.0,0.0
5,0.0,0.0,0.0,1.0,1.0,0.0,0.0,1.0,0.0,100.0,1.0,1.1856,26.0,0.0,0.0,0.0,59.999996,0.0,26.0,26.0,26.0,26.0,-0.13175000000000003,0.3017000000000001,-0.01805,292.725,-2.6488,-2.745888888888889,-1.51425,-1.5909,-258.85,216.2375,190.88775,0.0,0.0,0.0,0.0,0.011366666666666525,-5.498166666666667,-5.498166666666667,-0.5544,0.24349999999999994,-0.08055555555555571,0.389,66.276,-0.0922,-0.23270000000000002,1.0939999999999994,100.0,1.0,1.0,204.53,0.0,0.0,0.0,0.0,0.0,0.0,0.0,8669.3,0.0,55.0,5.0,238.56333333333333,1.0,0.0,0.0,0.0,0.0,0.0,0.0,0.0,0.2579999999999991,0.2579999999999991,0.0,0.0,1.0,55.0,616.79921,10000.0,85.000001,85.000001,85.000001,85.000001,395.0,0.0,0.0,0.0,1.0,166.665,51.971000000000004,51.971000000000004,48.522999999999996,48.522999999999996,34.0,-27.41,19.314,-33.86,22.8475,0.0,1783.3,0.08000000000000185,100.0,29.272,28.176000000000002,42.974000000000004,41.615,0.0,0.0,100.0,0.0,0.0,0.0,0.0,3155.0,2808.6,4190.625,4068.9,305.251,305.87875,314.651,314.758,21.8259,20.535,21.8286,21.3595,314.999998,314.999998,324.999988,324.999988,99.55872857142857,99.50711666666666,99.56612857142858,99.54601428571429,-0.00374999999999992,-0.1286666666666666,-0.21416666666666662,0.005166666666666542,-0.023333333333326323,-0.04333333333332945,1.5244999999999997,1.5745,37.412,29.344,37.429,34.497,56.153,34.5975,59.344,51.968,54.091,33.7755,57.954499999999996,50.308,53.272,33.35,57.903999999999996,49.723333333333336,-0.0645,-0.08999999999999986,0.10154,0.11089500000000001,0.0,207.625,207.55,204.53,204.53,0.0,0.0
6,0.0,0.0,0.0,1.0,1.0,0.0,0.0,1.0,0.0,100.0,1.0,1.1856,26.0,0.0,0.0,0.0,59.999996,0.0,26.0,26.0,26.0,26.0,-0.11399999999999999,0.2995000000000001,-0.009325,292.374,-2.6135,-2.7205555555555554,-1.56045,-1.5885,-255.87,216.2175,190.869375,0.0,0.0,0.0,0.0,0.0131,-5.498166666666667,-5.498166666666667,-0.5545,0.08850000000000002,-0.06277777777777782,0.123,66.404,-0.08710000000000001,-0.23772500000000002,0.7139999999999995,100.0,1.0,1.0,204.93666666666667,0.0,0.0,0.0,0.0,0.0,0.0,0.0,8686.5,0.0,55.0,5.0,239.02666666666667,0.0,0.0,0.0,0.0,0.0,0.0,0.0,0.0,0.3030000000000008,0.3030000000000008,0.0,0.0,0.0,55.0,616.79921,10000.0,85.000001,85.000001,85.000001,85.000001,395.0,0.0,0.0,0.0,1.0,166.665,51.346000000000004,51.346000000000004,48.294,48.294,34.0,-27.0125,20.588,-32.86666666666667,22.7875,0.0,1783.254,-0.054999999999999716,100.0,29.425,28.44,43.16,42.014,0.0,0.0,100.0,0.0,0.0,0.0,0.0,3196.142857142857,2978.2,4100.5,4003.3,305.092,305.27575,314.8725,314.91775,21.834699999999998,20.5396,21.8379,21.3674,314.999998,314.999998,324.999988,324.999988,99.55872857142857,99.50713333333333,99.56625714285714,99.54612857142857,0.008750000000000036,-0.1273333333333333,-0.2008333333333333,0.013166666666666549,-0.03166666666666629,-0.03833333333332689,1.541,1.5779999999999998,37.467,29.372333333333334,37.486999999999995,34.5465,56.138999999999996,34.6335,59.379,52.022,54.078,33.809,57.9875,50.36,53.257999999999996,33.3815,57.9345,49.773666666666664,-0.08650000000000002,-0.08250000000000002,0.10337,0.09836,0.0,208.01,207.94,204.93666666666667,204.93666666666667,0.0,0.0
7,0.0,0.0,0.0,1.0,1.0,0.0,0.0,1.0,0.0,100.0,1.0,1.1856,26.0,0.0,0.0,0.0,59.999996,0.0,26.0,26.0,26.0,26.0,-0.08162499999999995,0.28269999999999995,0.048125,291.916,-2.5859,-2.705111111111111,-1.52305,-1.6331,-252.48,216.195,190.84875,0.0,0.0,0.0,0.0,0.015100000000000002,-5.498166666666667,-5.498166666666667,-0.5569000000000001,0.02749999999999997,-0.04922222222222228,0.8049999999999999,66.55,-0.0666,-0.248625,0.28000000000000025,100.0,1.0,1.0,205.3466666666667,0.0,0.0,0.0,0.0,0.0,0.0,0.0,8703.9,0.0,55.0,5.0,239.55333333333334,1.0,0.0,0.0,0.0,0.0,0.0,0.0,0.0,0.3539999999999992,0.3539999999999992,0.0,0.0,1.0,55.0,616.79921,10000.0,85.000001,85.000001,85.000001,85.000001,395.0,0.0,0.0,0.0,1.0,166.665,50.858000000000004,50.858000000000004,48.141,48.141,34.0,-25.915,22.172,-31.44,26.2425,0.0,1783.203,-0.19000000000000128,100.0,29.694,28.66,43.384,42.422,0.0,0.0,100.0,0.0,0.0,0.0,0.0,3281.714285714286,3067.8,4085.375,4104.4,304.763,305.0525,314.83475,314.62125,21.8446,20.5448,21.848399999999998,21.3764,314.999998,314.999998,324.999988,324.999988,99.55874285714286,99.50715,99.5664,99.54627142857143,0.04800000000000004,-0.10233333333333339,-0.17933333333333334,0.0495000000000001,-0.051666666666669414,-0.05333333333332746,1.509,1.5265,37.528999999999996,29.405,37.553,34.603,56.125,34.6745,59.4195,52.083,54.065,33.8465,58.025,50.4185,53.244,33.417500000000004,57.969,49.831,-0.10749999999999993,-0.06800000000000006,0.10656500000000001,0.10651000000000001,0.0,208.45,208.425,205.3466666666667,205.34666666666666,0.0,0.0
8,0.0,0.0,0.0,1.0,1.0,0.0,0.0,1.0,0.0,100.0,1.0,1.1856,26.0,0.0,0.0,0.0,59.999996,0.0,26.0,26.0,26.0,26.0,-0.037374999999999936,0.2822,0.00245,292.236,-2.6765,-2.683222222222222,-1.5117500000000001,-1.5787,-248.88,216.16750000000002,190.827,0.0,0.0,0.0,0.0,0.017166666666666552,-5.498166666666667,-5.498166666666667,-0.558,-0.548,-0.027111111111111086,0.139,66.70400000000001,-0.0443,-0.24225000000000002,-0.03799999999999937,100.0,1.0,1.0,205.76666666666665,0.0,0.0,0.0,0.0,0.0,0.0,0.0,8721.8,0.0,55.0,5.0,240.10666666666668,0.0,0.0,0.0,0.0,0.0,0.0,0.0,0.0,0.40800000000000125,0.40800000000000125,0.0,0.0,0.0,55.0,616.79921,10000.0,85.000001,85.000001,85.000001,85.000001,395.0,0.0,0.0,0.0,1.0,166.665,51.772999999999996,51.772999999999996,47.516,47.516,34.0,-23.4875,21.878,-29.69,27.137500000000003,0.0,1783.149,-0.33999999999999986,100.0,29.14,28.731,43.369,42.639,0.0,0.0,100.0,0.0,0.0,0.0,0.0,2998.857142857143,2985.9,4113.875,4129.0,305.806,305.318,314.7505,314.53625,21.8548,20.5503,21.8595,21.386,314.999998,314.999998,324.999988,324.999988,99.55874285714286,99.50715,99.56655714285715,99.54642857142858,0.05799999999999983,-0.08799999999999997,-0.14249999999999996,0.07499999999999996,-0.045000000000001705,-0.04833333333333201,1.516,1.5035,37.593,29.439666666666668,37.622,34.6625,56.108999999999995,34.716,59.461,52.147,54.049,33.885,58.064,50.480000000000004,53.227999999999994,33.454499999999996,58.0045,49.891333333333336,-0.11250000000000004,-0.05449999999999999,0.10361000000000001,0.10903000000000002,0.0,208.92000000000002,208.905,205.76666666666665,205.76666666666665,0.0,0.0
9,0.0,0.0,0.0,1.0,1.0,0.0,0.0,1.0,0.0,100.0,1.0,1.1856,26.0,0.0,0.0,0.0,59.999996,0.0,26.0,26.0,26.0,26.0,-0.022249999999999992,0.29000000000000004,0.011675000000000001,291.992,-2.6654999999999998,-2.6893333333333334,-1.5662500000000001,-1.5603,-245.88,216.14249999999998,190.808375,0.0,0.0,0.0,0.0,0.018933333333333358,-5.498166666666667,-5.498166666666667,-0.5632,0.6105,-0.028777777777778013,0.1499999999999999,66.82900000000001,-0.027100000000000003,-0.24197500000000002,-0.16000000000000014,100.0,1.0,1.0,206.2733333333333,0.0,0.0,0.0,0.0,0.0,0.0,0.0,8743.2,0.0,55.0,5.0,240.55666666666667,1.0,0.0,0.0,0.0,0.0,0.0,0.0,0.0,0.4529999999999994,0.4529999999999994,0.0,0.0,1.0,55.0,616.79921,10000.0,85.000001,85.000001,85.000001,85.000001,395.0,0.0,0.0,0.0,1.0,166.665,50.644,50.644,48.538,48.538,34.0,-25.9225,23.912,-28.24,26.605,0.0,1783.104,-0.495000000000001,100.0,29.502,29.062,42.954,42.607,0.0,0.0,100.0,0.0,0.0,0.0,0.0,3366.714285714286,3075.0,3986.625,4051.0,304.638,304.95875,315.16675,314.8155,21.8635,20.5551,21.8687,21.3938,314.999998,314.999998,324.999988,324.999988,99.55875714285715,99.50716666666666,99.56668571428571,99.54654285714285,0.07850000000000001,-0.06099999999999994,-0.12949999999999995,0.08949999999999991,-0.04333333333332945,-0.04833333333333201,1.5789999999999997,1.5795,37.647,29.46933333333333,37.679,34.7115,56.098,34.7515,59.4925,52.199,54.039,33.918,58.093,50.53,53.217,33.486000000000004,58.0315,49.940333333333335,-0.12250000000000005,-0.045500000000000096,0.09743500000000001,0.10144,0.0,209.31,209.32,206.2733333333333,206.2733333333333,0.0,0.0
10,0.0,0.0,0.0,1.0,1.0,0.0,0.0,1.0,0.0,100.0,1.0,1.1856,26.0,0.0,0.0,0.0,59.999996,0.0,26.0,26.0,26.0,26.0,0.008124999999999938,0.2901,0.006475000000000001,291.885,-2.6446,-2.667666666666667,-1.54875,-1.5367000000000002,-242.26,216.115,190.7865,0.0,0.0,0.0,0.0,0.02103333333333335,-5.498166666666667,-5.498166666666667,-0.5405,-0.623,0.014000000000000012,0.8140000000000001,66.985,-0.0047,-0.232525,-0.5,100.0,1.0,1.0,206.54333333333335,0.0,0.0,0.0,0.0,0.0,0.0,0.0,8754.6,0.0,55.0,5.0,241.11666666666667,0.0,0.0,0.0,0.0,0.0,0.0,1.0,0.0,0.5069999999999979,0.5069999999999979,0.0,0.0,0.0,55.0,616.79921,10000.0,85.000001,85.000001,85.000001,85.000001,395.0,0.0,0.0,0.0,1.0,166.665,51.727000000000004,51.727000000000004,47.028,47.028,34.0,-20.27,22.845999999999997,-29.849999999999998,29.9575,0.0,1783.05,-0.5899999999999999,100.0,29.354,29.065,43.403999999999996,43.347,0.0,0.0,100.0,0.0,0.0,0.0,0.0,2859.5714285714284,2927.1,4258.125,4284.5,306.1415,305.46925,314.42875,314.154,21.8737,20.5607,21.8799,21.4036,314.999998,314.999998,324.999988,324.999988,99.55877142857143,99.50718333333333,99.56682857142857,99.5467,0.10375000000000023,-0.04833333333333334,-0.11016666666666663,0.11299999999999999,-0.03166666666666629,-0.054999999999999716,1.487,1.4775,37.711,29.504333333333335,37.748999999999995,34.7725,56.086,34.7915,59.5355,52.266999999999996,54.027,33.954499999999996,58.132999999999996,50.595,53.203,33.521,58.068,50.004333333333335,-0.1339999999999999,-0.034499999999999975,0.10450500000000001,0.10391,0.0,209.75,209.78,206.54333333333335,206.54333333333335,0.0,0.0
11,0.0,0.0,0.0,1.0,1.0,0.0,0.0,1.0,0.0,100.0,1.0,1.1856,26.0,0.0,0.0,0.0,59.999996,0.0,26.0,26.0,26.0,26.0,0.04049999999999998,0.27059999999999995,-0.08585000000000001,292.374,-2.6874000000000002,-2.655111111111111,-1.6035,-1.5274,-239.04,216.0875,190.767,0.0,0.0,0.0,0.0,0.022599999999999953,-5.498166666666667,-5.498166666666667,-0.5820000000000001,-0.2290000000000001,0.037222222222222046,-0.15700000000000003,67.11500000000001,0.013600000000000001,-0.263225,-0.5899999999999999,100.0,1.0,1.0,207.24,0.0,0.0,0.0,0.0,0.0,0.0,0.0,8784.1,0.0,55.0,5.0,241.58666666666667,1.0,0.0,0.0,0.0,0.0,0.0,1.0,0.0,0.5549999999999997,0.5549999999999997,0.0,0.0,1.0,55.0,616.79921,10000.0,85.000001,85.000001,85.000001,85.000001,395.0,0.0,0.0,0.0,1.0,333.33500000000004,51.056,51.056,48.66,48.66,34.0,-21.787499999999998,25.622,-24.64,27.505000000000003,0.0,1783.002,-0.7100000000000009,100.0,29.168,29.265,42.844,43.191,0.0,0.0,100.0,0.0,0.0,0.0,0.0,3060.714285714286,3153.4,3719.125,3900.9,305.554,304.71325,315.83475,315.1635,21.8827,20.5658,21.8896,21.4121,314.999998,314.999998,324.999988,324.999988,99.55878571428572,99.50718333333333,99.56695714285715,99.54682857142858,0.11649999999999983,-0.030333333333333323,-0.09566666666666657,0.14450000000000007,-0.05833333333333002,-0.06833333333332803,1.6414999999999997,1.6115,37.766999999999996,29.53633333333333,37.81,34.8255,56.073,34.828,59.567499999999995,52.323499999999996,54.015,33.988,58.1625,50.649,53.191,33.553,58.095,50.05733333333333,-0.133,-0.03699999999999992,0.10322,0.10755500000000001,0.0,210.15,210.20499999999998,207.24,207.24,0.0,0.0
12,0.0,0.0,0.0,1.0,1.0,0.0,0.0,1.0,0.0,100.0,1.0,1.1856,26.0,0.0,0.0,0.0,59.999996,0.0,26.0,26.0,26.0,26.0,0.04837500000000006,0.2804,0.015775,291.855,-2.7405,-2.650666666666667,-1.5606499999999999,-1.5293,-235.82,216.0625,190.74625,0.0,0.0,0.0,0.0,0.025466666666666526,-5.498166666666667,-5.498166666666667,-0.5699000000000001,0.24849999999999994,0.021777777777777896,-0.2909999999999999,67.251,0.028300000000000002,-0.23415000000000002,-0.6619999999999999,100.0,1.0,1.0,207.45,0.0,0.0,0.0,0.0,0.0,0.0,0.0,8793.1,0.0,55.0,5.0,242.07333333333332,0.0,0.0,0.0,0.0,0.0,0.0,1.0,0.0,0.602999999999998,0.602999999999998,0.0,0.0,0.0,55.0,616.79921,10000.0,85.000001,85.000001,85.000001,85.000001,395.0,0.0,0.0,0.0,1.0,333.33500000000004,51.01,51.01,47.455,47.455,34.0,-22.4775,25.962,-26.903333333333336,30.7075,0.0,1782.952,-0.46000000000000085,100.0,29.137,29.462,42.759,43.106,0.0,0.0,100.0,0.0,0.0,0.0,0.0,3085.285714285714,3158.5,4189.625,4173.2,305.529,304.734,314.67075,314.5025,21.8916,20.571,21.8994,21.4205,314.999998,314.999998,324.999988,324.999988,99.55878571428572,99.50718333333333,99.5671,99.54697142857142,0.11525000000000007,-0.021666666666666612,-0.0678333333333333,0.15200000000000014,-0.045000000000001705,-0.03999999999999915,1.5364999999999998,1.51,37.823,29.568666666666665,37.870999999999995,34.8785,56.062,34.864,59.603,52.379999999999995,54.004000000000005,34.0215,58.195499999999996,50.704,53.179,33.585,58.125,50.111000000000004,-0.12149999999999994,-0.047499999999999876,0.10337,0.10930500000000001,0.0,210.595,210.64499999999998,207.45,207.45,0.0,0.0
13,0.0,0.0,0.0,1.0,1.0,0.0,0.0,1.0,0.0,100.0,1.0,1.1856,26.0,0.0,0.0,0.0,59.999996,0.0,26.0,26.0,26.0,26.0,0.07987499999999992,0.28790000000000004,0.0506,291.412,-2.711,-2.6502222222222223,-1.62975,-1.5145,-232.39,216.0375,190.724375,0.0,0.0,0.0,0.0,0.026766666666666605,-5.498166666666667,-5.498166666666667,-0.5606,0.04299999999999993,0.02344444444444438,0.5329999999999999,67.393,0.037000000000000005,-0.23855,-0.8799999999999999,100.0,1.0,1.0,207.82333333333332,0.0,0.0,0.0,0.0,0.0,0.0,0.0,8808.9,0.0,55.0,5.0,242.58666666666664,1.0,0.0,0.0,0.0,0.0,0.0,1.0,0.0,0.6539999999999999,0.6539999999999999,0.0,0.0,1.0,55.0,616.79921,10000.0,85.000001,85.000001,85.000001,85.000001,395.0,0.0,0.0,0.0,1.0,166.665,50.674,50.674,47.287,47.287,34.0,-20.634999999999998,26.990000000000002,-27.896666666666665,32.6275,0.0,1782.904,-0.870000000000001,100.0,29.458,29.61,43.07,43.565,0.0,0.0,100.0,0.0,0.0,0.0,0.0,3120.285714285714,3158.8,4195.125,4351.7,305.3525,304.74125,314.63225,314.08275,21.9013,20.5765,21.9099,21.4297,314.999998,314.999998,324.999988,324.999988,99.55881428571429,99.50718333333333,99.56724285714286,99.54711428571429,0.15900000000000025,0.0033333333333334103,-0.0645,0.16083333333333338,-0.030000000000001137,-0.051666666666669414,1.5105,1.4925,37.882999999999996,29.60333333333333,37.937,34.936,56.053,34.9025,59.641,52.444,53.995000000000005,34.057,58.231,50.765,53.169,33.6195,58.157,50.171,-0.15949999999999998,-0.02200000000000024,0.11038500000000001,0.10447500000000001,0.0,211.01,211.075,207.82333333333332,207.82333333333332,0.0,0.0
14,0.0,0.0,0.0,1.0,1.0,0.0,0.0,1.0,0.0,100.0,1.0,1.1856,26.0,0.0,0.0,0.0,59.999996,0.0,26.0,26.0,26.0,26.0,0.10587499999999994,0.28100000000000014,0.005275,291.626,-2.7101,-2.587888888888889,-1.6102500000000002,-1.5168,-228.74,216.015,190.701875,0.0,0.0,0.0,0.0,0.028866666666666596,-5.498166666666667,-5.498166666666667,-0.5706,-0.19500000000000006,0.05522222222222206,0.5740000000000001,67.541,0.0509,-0.25255,-1.032,100.0,1.0,1.0,208.36333333333334,0.0,0.0,0.0,0.0,0.0,0.0,0.0,8831.8,0.0,55.0,5.0,243.12,0.0,0.0,0.0,0.0,0.0,0.0,1.0,0.0,0.7079999999999984,0.7079999999999984,0.0,0.0,0.0,55.0,616.79921,10000.0,85.000001,85.000001,85.000001,85.000001,395.0,0.0,0.0,0.0,1.0,166.665,50.751,50.751,47.47,47.47,34.0,-18.98,28.154,-25.12,32.29,0.0,1782.849,-0.9549999999999983,100.0,29.412,29.728,43.057,43.865,0.0,0.0,100.0,0.0,0.0,0.0,0.0,2969.857142857143,3250.1,3967.625,4206.6,305.8175,304.47275,315.17175,314.4235,21.9114,20.5824,21.9209,21.4395,314.999998,314.999998,324.999988,324.999988,99.55884285714286,99.5072,99.56738571428572,99.54727142857143,0.1705000000000001,0.02300000000000013,-0.05449999999999999,0.18083333333333318,-0.046666666666666856,-0.060000000000002274,1.565,1.52,37.946,29.64,38.006,34.9965,56.043,34.943,59.6795,52.5105,53.985,34.0945,58.266999999999996,50.829499999999996,53.158,33.6555,58.189499999999995,50.233666666666664,-0.16649999999999987,-0.008000000000000007,0.10928500000000001,0.109725,0.0,211.47,211.53,208.36333333333334,208.36333333333334,0.0,0.0
15,0.0,0.0,0.0,1.0,1.0,0.0,0.0,1.0,0.0,100.0,1.0,1.1856,26.0,0.0,0.0,0.0,59.999996,0.0,26.0,26.0,26.0,26.0,0.10975000000000001,0.27900000000000014,-0.021150000000000002,291.595,-2.6871,-2.5441111111111114,-1.64155,-1.459,-225.7,215.995,190.68275,0.0,0.0,0.0,0.0,0.03066666666666651,-5.498166666666667,-5.498166666666667,-0.5636,0.3025,0.08455555555555572,0.43999999999999995,67.664,0.0646,-0.237325,-1.1739999999999995,100.0,1.0,1.0,208.74666666666667,0.0,0.0,0.0,0.0,0.0,0.0,0.0,8847.9,0.0,55.0,5.0,243.56333333333333,1.0,0.0,0.0,0.0,0.0,0.0,1.0,0.0,0.7530000000000001,0.7530000000000001,0.0,0.0,1.0,55.0,616.79921,10000.0,85.000001,85.000001,85.000001,85.000001,395.0,0.0,0.0,0.0,1.0,333.33500000000004,50.842,50.842,47.562,47.562,34.0,-17.7425,27.376,-24.476666666666663,33.21,0.0,1782.804,-0.9649999999999999,100.0,29.476,29.863,42.836,43.988,0.0,0.0,100.0,0.0,0.0,0.0,0.0,2867.4285714285716,3211.8,3961.5,4347.8,306.0855,304.5715,315.225,314.11025,21.9199,20.5873,21.9301,21.447499999999998,314.999998,314.999998,324.999988,324.999988,99.55885714285715,99.5072,99.56751428571428,99.5474,0.17799999999999994,0.022333333333333316,-0.03416666666666657,0.18833333333333324,-0.04833333333333201,-0.05333333333332746,1.5545,1.506,37.998999999999995,29.670666666666666,38.063,35.047,56.035,34.9775,59.710499999999996,52.5655,53.977999999999994,34.1265,58.295500000000004,50.8825,53.149,33.686,58.2155,50.286,-0.16599999999999993,-0.012500000000000178,0.10501,0.11191500000000001,0.0,211.85000000000002,211.945,208.74666666666667,208.74666666666667,0.0,0.0
16,0.0,0.0,0.0,1.0,1.0,0.0,0.0,1.0,0.0,100.0,1.0,1.1856,26.0,0.0,0.0,0.0,59.999996,0.0,26.0,26.0,26.0,26.0,0.1180000000000001,0.25849999999999995,-0.031125,291.595,-2.7862999999999998,-2.547777777777778,-1.6162,-1.4564,-222.25,215.97750000000002,190.66075,0.0,0.0,0.0,0.0,0.03266666666666651,-5.498166666666667,-5.498166666666667,-0.5812,-0.679,0.0755555555555556,-0.42300000000000004,67.804,0.0795,-0.25045,-1.2560000000000002,100.0,1.0,1.0,209.16,0.0,0.0,0.0,0.0,0.0,0.0,0.0,8865.5,0.0,55.0,5.0,244.07,0.0,0.0,0.0,0.0,0.0,0.0,1.0,0.0,0.8039999999999985,0.8039999999999985,0.0,0.0,0.0,55.0,616.79921,10000.0,85.000001,85.000001,85.000001,85.000001,395.0,0.0,0.0,0.0,1.0,333.33500000000004,50.858000000000004,50.858000000000004,47.18,47.18,34.0,-19.79,28.258,-23.756666666666664,32.415,0.0,1782.753,-0.8550000000000004,100.0,28.995,29.945,43.122,44.172,0.0,0.0,100.0,0.0,0.0,0.0,0.0,2985.285714285714,3273.7,3951.375,4183.7,305.893,304.411,315.23275,314.48425,21.9292,20.593,21.9406,21.456699999999998,314.999998,314.999998,324.999988,324.999988,99.55887142857142,99.5072,99.56767142857143,99.54754285714286,0.16774999999999984,0.02866666666666684,-0.026833333333333376,0.20233333333333325,-0.041666666666671404,-0.04999999999999716,1.5465,1.5055,38.057,29.706,38.128,35.1045,56.022999999999996,35.016999999999996,59.748,52.628,53.966,34.163,58.3305,50.942499999999995,53.137,33.7215,58.247,50.345,-0.15100000000000002,-0.02200000000000024,0.11077500000000001,0.10268000000000001,0.0,212.245,212.35500000000002,209.16,209.16,0.0,0.0
17,0.0,0.0,0.0,1.0,1.0,0.0,0.0,1.0,0.0,100.0,1.0,1.1856,26.0,0.0,0.0,0.0,59.999996,0.0,26.0,26.0,26.0,26.0,0.11650000000000005,0.28200000000000003,-0.015275,291.397,-2.7462,-2.535111111111111,-1.6518000000000002,-1.4803,-218.78,215.9625,190.63825,0.0,0.0,0.0,0.0,0.03466666666666651,-5.498166666666667,-5.498166666666667,-0.5692,0.518,0.052111111111111,-0.04400000000000004,67.943,0.08320000000000001,-0.22975,-1.13,100.0,1.0,1.0,209.55666666666667,0.0,0.0,0.0,0.0,0.0,0.0,0.0,8882.4,0.0,55.0,5.0,244.56666666666666,1.0,0.0,0.0,0.0,0.0,0.0,1.0,0.0,0.8550000000000004,0.8550000000000004,0.0,0.0,1.0,55.0,616.79921,10000.0,85.000001,85.000001,85.000001,85.000001,395.0,0.0,0.0,0.0,1.0,166.665,50.781,50.781,47.226,47.226,34.0,-19.0675,26.926000000000002,-25.793333333333333,34.0,0.0,1782.702,-0.9400000000000013,100.0,29.419,30.04,42.824,44.075,0.0,0.0,100.0,0.0,0.0,0.0,0.0,3024.0,3127.7,4222.625,4291.5,305.7155,304.86,314.68875,314.29225,21.9388,20.5987,21.9509,21.4658,314.999998,314.999998,324.999988,324.999988,99.5589,99.50721666666666,99.56781428571429,99.5477,0.18425000000000002,0.03433333333333333,-0.020166666666666555,0.20766666666666667,-0.045000000000001705,-0.060000000000002274,1.5419999999999998,1.4969999999999999,38.117000000000004,29.741666666666667,38.193,35.161500000000004,56.016,35.0585,59.783,52.69,53.959,34.201499999999996,58.3625,51.0025,53.128,33.757999999999996,58.2765,50.403666666666666,-0.16349999999999998,-0.01650000000000018,0.10201,0.10702500000000001,0.0,212.72500000000002,212.815,209.55666666666667,209.55666666666667,0.0,0.0
18,0.0,0.0,0.0,1.0,1.0,0.0,0.0,1.0,0.0,100.0,1.0,1.1856,26.0,0.0,0.0,0.0,59.999996,0.0,26.0,26.0,26.0,26.0,0.1312500000000001,0.27480000000000016,-0.01265,291.275,-2.7757,-2.51,-1.6665,-1.4262000000000001,-215.32,215.9525,190.615875,0.0,0.0,0.0,0.0,0.036699999999999955,-5.498166666666667,-5.498166666666667,-0.5838,-0.55,0.07533333333333325,0.33699999999999997,68.082,0.084,-0.249375,-1.2199999999999998,100.0,1.0,1.0,209.99333333333334,0.0,0.0,0.0,0.0,0.0,0.0,0.0,8900.8,0.0,55.0,5.0,245.06666666666666,0.0,0.0,0.0,0.0,0.0,0.0,1.0,0.0,0.9059999999999988,0.9059999999999988,0.0,0.0,0.0,55.0,616.79921,10000.0,85.000001,85.000001,85.000001,85.000001,395.0,0.0,0.0,0.0,1.0,166.665,50.43,50.43,47.119,47.119,34.0,-19.1525,29.951999999999998,-24.5,32.485,0.0,1782.652,-1.2100000000000009,100.0,29.241,30.003,43.152,44.414,0.0,0.0,100.0,0.0,0.0,0.0,0.0,3087.285714285714,3382.7,4020.75,4209.4,305.586,304.1345,315.108,314.45225,21.9481,20.6043,21.9614,21.4751,314.999998,314.999998,324.999988,324.999988,99.55892857142857,99.50721666666666,99.56794285714285,99.54784285714285,0.19799999999999995,0.052000000000000046,-0.02066666666666661,0.20850000000000013,-0.04833333333333201,-0.046666666666666856,1.5709999999999997,1.518,38.176,29.777,38.259,35.2195,56.007,35.0985,59.820499999999996,52.754,53.95,34.2385,58.3975,51.064,53.117999999999995,33.7935,58.308,50.464333333333336,-0.17700000000000005,0.0040000000000000036,0.103635,0.10696000000000001,0.0,213.10500000000002,213.19,209.99333333333334,209.99333333333334,0.0,0.0
19,0.0,0.0,0.0,1.0,1.0,0.0,0.0,1.0,0.0,100.0,1.0,1.1856,26.0,0.0,0.0,0.0,59.999996,0.0,26.0,26.0,26.0,26.0,0.15300000000000002,0.2901,0.0558,290.802,-2.7446,-2.4984444444444445,-1.6818,-1.4099,-212.04,215.945,190.5945,0.0,0.0,0.0,0.0,0.03859999999999997,-5.498166666666667,-5.498166666666667,-0.5715,0.8975,0.0858888888888889,0.20700000000000007,68.21000000000001,0.0945,-0.236325,-1.6579999999999995,100.0,1.0,1.0,210.36666666666667,0.0,0.0,0.0,0.0,0.0,0.0,0.0,8916.6,0.0,55.0,5.0,245.53,1.0,0.0,0.0,0.0,0.0,0.0,1.0,0.0,0.9540000000000006,0.9540000000000006,0.0,0.0,1.0,55.0,616.79921,10000.0,85.000001,85.000001,85.000001,85.000001,395.0,0.0,0.0,0.0,1.0,333.33500000000004,49.85,49.85,46.906,46.906,34.0,-18.005,30.774,-25.21,34.760000000000005,0.0,1782.602,-1.4699999999999989,100.0,29.727,30.489,42.896,44.421,0.0,0.0,100.0,0.0,0.0,0.0,0.0,3114.4285714285716,3386.0,4181.75,4446.1,305.395,304.0185,314.77975,313.94025,21.9572,20.6099,21.9711,21.4837,314.999998,314.999998,324.999988,324.999988,99.55894285714285,99.50723333333333,99.56808571428571,99.54798571428572,0.22325000000000017,0.06866666666666688,-0.00649999999999995,0.21333333333333337,-0.06499999999999773,-0.041666666666671404,1.5394999999999999,1.491,38.232,29.811666666666667,38.319,35.2735,56.003,35.1405,59.853,52.813,53.946,34.2775,58.427,51.121,53.111999999999995,33.831,58.3345,50.52033333333333,-0.2015,0.01849999999999996,0.10869500000000001,0.09492,0.0,213.555,213.64499999999998,210.36666666666667,210.36666666666667,0.0,0.0
20,0.0,0.0,0.0,1.0,1.0,0.0,0.0,1.0,0.0,100.0,1.0,1.1856,26.0,0.0,0.0,0.0,59.999996,0.0,26.0,26.0,26.0,26.0,0.20662500000000006,0.27080000000000015,-0.0052250000000000005,291.138,-2.8038,-2.552666666666667,-1.61985,-1.5208,-208.56,215.94,190.572125,0.0,0.0,0.0,0.0,0.04059999999999997,-5.498166666666667,-5.498166666666667,-0.5758,-1.2025000000000001,0.0988888888888888,0.11099999999999999,68.349,0.1101,-0.24782500000000002,-1.9960000000000004,100.0,1.0,1.0,210.68333333333334,0.0,0.0,0.0,0.0,0.0,0.0,0.0,8930.1,0.0,55.0,5.0,246.03,0.0,0.0,0.0,0.0,0.0,0.0,0.0,0.0,1.004999999999999,1.004999999999999,0.0,0.0,0.0,55.0,616.79921,10000.0,85.000001,85.000001,85.000001,85.000001,395.0,0.0,0.0,0.0,1.0,166.665,50.995,50.995,46.265,46.265,34.0,-15.732499999999998,30.706,-22.386666666666663,37.515,0.0,1782.552,-1.759999999999998,100.0,29.033,30.314,43.435,45.006,0.0,0.0,100.0,0.0,0.0,0.0,0.0,2832.285714285714,3230.1,4089.625,4359.6,306.3645,304.54625,314.83675,313.92175,21.9663,20.6155,21.9817,21.4932,314.999998,314.999998,324.999988,324.999988,99.55897142857143,99.50723333333333,99.56822857142858,99.54812857142858,0.24250000000000016,0.09666666666666668,0.02300000000000013,0.2390000000000001,-0.041666666666671404,-0.045000000000001705,1.5154999999999998,1.443,38.289,29.847,38.385,35.332499999999996,55.994,35.183,59.891999999999996,52.8785,53.937,34.317,58.463499999999996,51.1845,53.102000000000004,33.869,58.3675,50.583,-0.21799999999999997,0.04049999999999998,0.10977,0.09949000000000001,0.0,213.91,214.03,210.68333333333334,210.68333333333334,0.0,0.0
21,0.0,0.0,0.0,1.0,1.0,0.0,0.0,1.0,0.0,100.0,1.0,1.1856,26.0,0.0,0.0,0.0,59.999996,0.0,26.0,26.0,26.0,26.0,0.2290000000000001,0.2751000000000001,-0.0504,291.473,-2.7311,-2.5924444444444443,-1.69565,-1.4652,-205.28,215.9425,190.5505,0.0,0.0,0.0,0.0,0.04253333333333331,-5.498166666666667,-5.498166666666667,-0.6021000000000001,0.4645,0.09622222222222221,-0.19899999999999984,68.473,0.1283,-0.25455,-2.298,100.0,1.0,1.0,211.31,0.0,0.0,0.0,0.0,0.0,0.0,0.0,8956.7,0.0,55.0,5.0,246.47666666666666,1.0,0.0,0.0,0.0,0.0,0.0,0.0,0.0,1.0530000000000008,1.0530000000000008,0.0,0.0,1.0,55.0,616.79921,10000.0,85.000001,85.000001,85.000001,85.000001,395.0,0.0,0.0,0.0,1.0,333.33500000000004,50.369,50.369,47.76,47.76,34.0,-16.015,31.44,-20.813333333333333,34.94,0.0,1782.502,-1.25,100.0,29.329,30.533,42.532,44.577,0.0,0.0,100.0,0.0,0.0,0.0,0.0,2964.142857142857,3302.6,3892.625,4129.0,305.824,304.2175,315.49475,314.67125,21.9751,20.6211,21.9912,21.5018,314.999998,314.999998,324.999988,324.999988,99.559,99.50725,99.56835714285714,99.54828571428571,0.2432500000000002,0.08266666666666667,0.03716666666666679,0.26616666666666666,-0.051666666666669414,-0.045000000000001705,1.633,1.54,38.344,29.881666666666668,38.445,35.385999999999996,55.989000000000004,35.227000000000004,59.921,52.936,53.932,34.3575,58.49,51.24,53.096000000000004,33.908500000000004,58.3915,50.63733333333333,-0.20199999999999996,0.01849999999999996,0.11288500000000001,0.10200500000000001,0.0,214.31,214.47500000000002,211.31,211.31,0.0,0.0
22,0.0,0.0,0.0,1.0,1.0,0.0,0.0,1.0,0.0,100.0,1.0,1.1856,26.0,0.0,0.0,0.0,59.999996,0.0,26.0,26.0,26.0,26.0,0.1885000000000001,0.2590000000000001,0.0161,290.97,-2.7185,-2.591333333333333,-1.68525,-1.4609,-201.78,215.95,190.52675,0.0,0.0,0.0,0.0,0.04456666666666653,-5.498166666666667,-5.498166666666667,-0.5814,0.10299999999999998,0.09844444444444433,-0.02499999999999991,68.611,0.1434,-0.234875,-1.3279999999999994,100.0,1.0,1.0,211.54000000000002,0.0,0.0,0.0,0.0,0.0,0.0,0.0,8966.5,0.0,55.0,5.0,246.97333333333336,0.0,0.0,0.0,0.0,0.0,0.0,0.0,0.0,1.1039999999999992,1.1039999999999992,0.0,0.0,0.0,55.0,616.79921,10000.0,85.000001,85.000001,85.000001,85.000001,395.0,0.0,0.0,0.0,1.0,166.665,50.415,50.415,46.631,46.631,34.0,-18.377499999999998,27.753999999999998,-22.956666666666663,38.2475,0.0,1782.453,0.010000000000001563,100.0,29.428,30.633,42.915,44.914,0.0,0.0,100.0,0.0,0.0,0.0,0.0,2865.0,3253.8,4153.25,4380.2,306.09,304.31775,314.804,314.05575,21.9844,20.6269,22.0017,21.5111,314.999998,314.999998,324.999988,324.999988,99.55901428571428,99.50725,99.56851428571429,99.54842857142857,0.16975000000000007,0.007000000000000117,0.03550000000000009,0.2723333333333333,-0.05666666666667197,-0.04833333333333201,1.5145,1.457,38.403,29.918333333333333,38.510999999999996,35.4445,55.980999999999995,35.2695,59.959,53.002,53.924,34.397,58.5255,51.3035,53.087,33.9465,58.423,50.699666666666666,-0.09349999999999992,-0.08749999999999991,0.104745,0.11311500000000001,0.0,214.785,214.865,211.54000000000002,211.54000000000002,0.0,0.0
23,0.0,0.0,0.0,1.0,1.0,0.0,0.0,1.0,0.0,100.0,1.0,1.1856,26.0,0.0,0.0,0.0,59.999996,0.0,26.0,26.0,26.0,26.0,0.10675000000000012,0.2529000000000001,-0.00022500000000000002,291.0,-2.7279,-2.562222222222222,-1.7128,-1.5507,-198.07,215.9625,190.50175,0.0,0.0,0.0,0.0,0.046699999999999964,-5.498166666666667,-5.498166666666667,-0.599,-0.13749999999999996,0.06844444444444431,-0.6379999999999999,68.753,0.1096,-0.257825,0.12399999999999967,100.0,1.0,1.0,212.08666666666667,0.0,0.0,0.0,0.0,0.0,0.0,0.0,8989.6,0.0,55.0,5.0,247.48666666666668,1.0,0.0,0.0,0.0,0.0,0.0,0.0,0.0,1.1580000000000013,1.1580000000000013,0.0,0.0,1.0,55.0,616.79921,10000.0,85.000001,85.000001,85.000001,85.000001,395.0,0.0,0.0,0.0,1.0,166.665,49.835,49.835,47.623,47.623,34.0,-23.495,25.466,-24.546666666666663,32.4125,0.0,1782.399,0.8200000000000003,100.0,29.729,30.556,43.22,44.963,0.0,0.0,100.0,0.0,0.0,0.0,0.0,3231.285714285714,3235.2,3954.625,4006.7,305.072,304.47725,315.35775,314.87175,21.9943,20.6331,22.0128,21.521,314.999998,314.999998,324.999988,324.999988,99.55904285714286,99.50726666666667,99.56867142857143,99.5486,0.11975000000000025,-0.032333333333333325,-0.01866666666666661,0.21133333333333337,-0.05333333333332746,-0.046666666666666856,1.544,1.5325,38.464,29.957,38.58,35.506,55.97,35.3125,59.9965,53.069,53.913,34.437,58.5605,51.3685,53.074,33.9845,58.454499999999996,50.763333333333335,-0.03349999999999986,-0.15100000000000025,0.10555,0.10987000000000001,0.0,215.255,215.22500000000002,212.08666666666667,212.08666666666667,0.0,0.0
24,0.0,0.0,0.0,1.0,1.0,0.0,0.0,1.0,0.0,100.0,1.0,1.1856,26.0,0.0,0.0,0.0,59.999996,0.0,26.0,26.0,26.0,26.0,0.026000000000000023,0.27900000000000014,-0.051300000000000005,291.199,-2.7229,-2.599333333333333,-1.6083500000000002,-1.5158,-194.98000000000002,215.9725,190.48075,0.0,0.0,0.0,0.0,0.04849999999999999,-5.498166666666667,-5.498166666666667,-0.6012000000000001,-0.5285,0.04966666666666675,-0.16500000000000004,68.873,0.057600000000000005,-0.24485,0.8940000000000001,100.0,1.0,1.0,212.34,0.0,0.0,0.0,0.0,0.0,0.0,0.0,9000.3,0.0,55.0,5.0,247.91666666666666,0.0,0.0,0.0,0.0,0.0,0.0,0.0,0.0,1.2029999999999994,1.2029999999999994,0.0,0.0,0.0,55.0,616.79921,10000.0,85.000001,85.000001,85.000001,85.000001,395.0,0.0,0.0,0.0,1.0,166.665,51.041,51.041,46.494,46.494,34.0,-22.46,21.906,-28.946666666666665,30.240000000000002,0.0,1782.355,1.0250000000000021,100.0,29.689,30.089,43.574,44.652,0.0,0.0,100.0,0.0,0.0,0.0,0.0,2901.4285714285716,3024.8,4303.75,4144.6,306.0725,305.203,314.37675,314.6205,22.0025,20.637999999999998,22.022,21.5291,314.999998,314.999998,324.999988,324.999988,99.55905714285714,99.50726666666667,99.56878571428571,99.54872857142857,0.07474999999999987,-0.07866666666666666,-0.07050000000000001,0.15133333333333332,-0.04833333333333201,-0.036666666666668846,1.4895,1.5150000000000001,38.515,29.987666666666666,38.638,35.557,55.957,35.3475,60.0295,53.123,53.900999999999996,34.469,58.5905,51.420500000000004,53.061,34.0155,58.482,50.81433333333334,-0.006000000000000005,-0.16599999999999993,0.10379500000000001,0.10973000000000001,0.0,215.65,215.57999999999998,212.34,212.34,0.0,0.0
25,0.0,0.0,0.0,1.0,1.0,0.0,0.0,1.0,0.0,100.0,1.0,1.1856,26.0,0.0,0.0,0.0,59.999996,0.0,26.0,26.0,26.0,26.0,-0.04512499999999997,0.25970000000000004,-0.0693,291.245,-2.7479,-2.6066666666666665,-1.5841500000000002,-1.5566,-191.45999999999998,215.9875,190.4555,0.0,0.0,0.0,0.0,0.05056666666666654,-5.498166666666667,-5.498166666666667,-0.6353,-0.011500000000000066,0.009888888888888836,-1.388,69.005,-0.011300000000000001,-0.255425,1.5739999999999998,100.0,1.0,1.0,212.89666666666668,0.0,0.0,0.0,0.0,0.0,0.0,0.0,9023.9,0.0,55.0,5.0,248.39,1.0,0.0,0.0,0.0,0.0,0.0,0.0,0.0,1.2540000000000013,1.2540000000000013,0.0,0.0,1.0,55.0,616.79921,10000.0,85.000001,85.000001,85.000001,85.000001,395.0,0.0,0.0,0.0,1.0,333.33500000000004,50.14,50.14,47.424,47.424,34.0,-28.275,22.012,-29.55,25.627499999999998,0.0,1782.302,1.0150000000000006,100.0,29.765,30.017,43.604,43.900999999999996,0.0,0.0,100.0,0.0,0.0,0.0,0.0,3300.0,3239.0,4002.375,3985.4,305.0095,304.539,315.17575,315.0375,22.0118,20.6436,22.0324,21.5382,314.999998,314.999998,324.999988,324.999988,99.55905714285714,99.50728333333333,99.56892857142857,99.54887142857143,0.028500000000000192,-0.118,-0.14483333333333337,0.08283333333333331,-0.061666666666667425,-0.03833333333332689,1.5465,1.609,38.574,30.022666666666666,38.703,35.6135,55.941,35.3905,60.064,53.181,53.885,34.509,58.6225,51.476,53.045,34.054,58.510999999999996,50.86866666666667,-0.006000000000000005,-0.17300000000000004,0.09889500000000001,0.11274,0.0,216.095,215.95,212.89666666666668,212.89666666666668,0.0,0.0
26,0.0,0.0,0.0,1.0,1.0,0.0,0.0,1.0,0.0,100.0,1.0,1.1856,26.0,0.0,0.0,0.0,59.999996,0.0,26.0,26.0,26.0,26.0,-0.13949999999999996,0.2721,0.0694,290.207,-2.6537,-2.729222222222222,-1.5964,-1.5832000000000002,-187.94,216.0,190.42975,0.0,0.0,0.0,0.0,0.05259999999999998,-5.498166666666667,-5.498166666666667,-0.5915,0.78,-0.046555555555555905,-0.40500000000000025,69.141,-0.0668,-0.22245,1.686,100.0,1.0,1.0,213.05,0.0,0.0,0.0,0.0,0.0,0.0,0.0,9030.5,0.0,55.0,5.0,248.88,0.0,0.0,0.0,0.0,0.0,0.0,0.0,0.0,1.3049999999999997,1.3049999999999997,0.0,0.0,0.0,55.0,616.79921,10000.0,85.000001,85.000001,85.000001,85.000001,395.0,0.0,0.0,0.0,1.0,333.33500000000004,49.789,49.789,45.760999999999996,45.760999999999996,34.0,-28.412499999999998,20.125999999999998,-39.22333333333333,26.205,0.0,1782.251,0.7850000000000001,100.0,30.781,30.208,44.369,43.875,0.0,0.0,100.0,0.0,0.0,0.0,0.0,3277.4285714285716,3020.3,4651.25,4399.8,304.879,305.08075,313.64425,314.0415,22.0215,20.6494,22.0431,21.5474,314.999998,314.999998,324.999988,324.999988,99.55905714285714,99.5073,99.56908571428572,99.54901428571429,0.006250000000000089,-0.15166666666666662,-0.19566666666666666,0.019333333333333425,-0.060000000000002274,-0.03499999999999659,1.42,1.4815,38.635,30.058333333333334,38.769999999999996,35.671,55.928,35.4365,60.105000000000004,53.241,53.873999999999995,34.5515,58.661500000000004,51.533500000000004,53.032,34.0945,58.546,50.925333333333334,-0.03149999999999986,-0.15700000000000003,0.09842500000000001,0.10405,0.0,216.565,216.41500000000002,213.05,213.05,0.0,0.0
27,0.0,0.0,0.0,1.0,1.0,0.0,0.0,1.0,0.0,100.0,1.0,1.1856,26.0,0.0,0.0,0.0,59.999996,0.0,26.0,26.0,26.0,26.0,-0.134625,0.25260000000000016,-0.036875000000000005,290.634,-2.6010999999999997,-2.715777777777778,-1.5703,-1.6724,-184.62,216.01,190.406625,0.0,0.0,0.0,0.0,0.05453333333333332,-5.498166666666667,-5.498166666666667,-0.6219,-1.1885,-0.06344444444444441,-0.18100000000000005,69.265,-0.0942,-0.27145,1.5359999999999996,100.0,1.0,1.0,213.54333333333335,0.0,0.0,0.0,0.0,0.0,0.0,0.0,9051.3,0.0,55.0,5.0,249.32999999999998,1.0,0.0,0.0,0.0,0.0,0.0,0.0,0.0,1.352999999999998,1.352999999999998,0.0,0.0,1.0,55.0,616.79921,10000.0,85.000001,85.000001,85.000001,85.000001,395.0,0.0,0.0,0.0,1.0,333.33500000000004,50.049,50.049,46.402,46.402,34.0,-28.53,18.958,-35.19333333333333,23.9025,0.0,1782.203,0.7650000000000006,100.0,30.67,29.859,45.185,44.228,0.0,0.0,100.0,0.0,0.0,0.0,0.0,3265.5714285714284,3042.5,4173.625,3976.6,304.935,305.1505,314.68975,314.93475,22.0305,20.6545,22.0533,21.5561,314.999998,314.999998,324.999988,324.999988,99.55907142857143,99.50731666666667,99.56922857142857,99.54915714285714,-0.010750000000000037,-0.17666666666666664,-0.21916666666666662,0.010499999999999954,-0.02499999999999858,-0.054999999999999716,1.4645000000000001,1.542,38.69,30.090333333333334,38.833,35.726,55.913,35.4775,60.1455,53.2975,53.858999999999995,34.5895,58.699,51.588,53.016999999999996,34.131,58.581,50.978,-0.03749999999999987,-0.14849999999999985,0.10640500000000001,0.11326000000000001,0.0,216.85000000000002,216.74,213.54333333333335,213.54333333333335,0.0,0.0
28,0.0,0.0,0.0,1.0,1.0,0.0,0.0,1.0,0.0,100.0,1.0,1.1856,26.0,0.0,0.0,0.0,59.999996,0.0,26.0,26.0,26.0,26.0,-0.16525,0.2642,-0.054825000000000006,290.817,-2.6107,-2.7133333333333334,-1.5077,-1.6409,-181.07999999999998,216.015,190.381125,0.0,0.0,0.0,0.0,0.056599999999999984,-5.498166666666667,-5.498166666666667,-0.6288,0.628,-0.08022222222222242,-0.08099999999999996,69.395,-0.11270000000000001,-0.24782500000000002,1.5139999999999993,100.0,1.0,1.0,214.0366666666667,0.0,0.0,0.0,0.0,0.0,0.0,0.0,9072.2,0.0,55.0,5.0,249.79666666666668,0.0,0.0,0.0,0.0,0.0,0.0,0.0,0.0,1.404,1.404,0.0,0.0,0.0,55.0,616.79921,10000.0,85.000001,85.000001,85.000001,85.000001,395.0,0.0,0.0,0.0,1.0,333.33500000000004,49.881,49.881,47.18,47.18,34.0,-30.08,18.276,-35.07666666666667,22.52,0.0,1782.151,0.620000000000001,100.0,31.008,29.867,44.597,43.421,0.0,0.0,100.0,0.0,0.0,0.0,0.0,3355.285714285714,2970.2,4187.625,4071.1,304.696,305.33975,314.786,314.8475,22.0402,20.66,22.0637,21.5651,314.999998,314.999998,324.999988,324.999988,99.55907142857143,99.50733333333334,99.56938571428572,99.54931428571429,-0.023499999999999854,-0.18066666666666664,-0.23883333333333334,-0.015666666666666607,-0.04999999999999716,-0.045000000000001705,1.501,1.5715,38.751000000000005,30.124666666666666,38.897999999999996,35.782,55.9,35.5255,60.184,53.356,53.847,34.6335,58.735,51.6445,53.004000000000005,34.173,58.6135,51.032666666666664,-0.04349999999999987,-0.14000000000000012,0.10493000000000001,0.10705500000000001,0.0,217.32999999999998,217.18,214.0366666666667,214.0366666666667,0.0,0.0
29,0.0,0.0,0.0,1.0,1.0,0.0,0.0,1.0,0.0,100.0,1.0,1.1856,26.0,0.0,0.0,0.0,59.999996,0.0,26.0,26.0,26.0,26.0,-0.152625,0.25780000000000003,0.042550000000000004,290.405,-2.5505,-2.769333333333333,-1.5413999999999999,-1.6255000000000002,-177.32999999999998,216.01749999999998,190.353125,0.0,0.0,0.0,0.0,0.05876666666666652,-5.498166666666667,-5.498166666666667,-0.6351,-0.6285000000000001,-0.08244444444444454,0.010000000000000009,69.536,-0.1145,-0.25145,1.193999999999999,100.0,1.0,1.0,214.32999999999998,0.0,0.0,0.0,0.0,0.0,0.0,0.0,9084.7,0.0,55.0,5.0,250.30333333333334,1.0,0.0,0.0,0.0,0.0,0.0,0.0,0.0,1.4579999999999984,1.4579999999999984,0.0,0.0,1.0,55.0,616.79921,10000.0,85.000001,85.000001,85.000001,85.000001,395.0,0.0,0.0,0.0,1.0,166.665,49.759,49.759,46.265,46.265,34.0,-29.5675,19.54,-36.43666666666667,23.745,0.0,1782.099,0.46499999999999986,100.0,30.812,29.728,45.188,43.751,0.0,0.0,100.0,0.0,0.0,0.0,0.0,3402.285714285714,3059.2,4280.5,4146.5,304.568,304.98275,314.43125,314.598,22.0503,20.6657,22.075,21.5749,314.999998,314.999998,324.999988,324.999988,99.55907142857143,99.50736666666667,99.56955714285715,99.54945714285714,-0.01475000000000004,-0.18033333333333335,-0.22899999999999998,-0.0034999999999999476,-0.05333333333332746,-0.036666666666668846,1.4594999999999998,1.5135,38.814,30.160666666666664,38.969,35.8435,55.885,35.5695,60.226,53.4155,53.832,34.674,58.7745,51.701,52.989000000000004,34.212,58.65,51.08833333333333,-0.062000000000000055,-0.12449999999999983,0.103175,0.10943000000000001,0.0,217.70499999999998,217.60000000000002,214.32999999999998,214.32999999999998,0.0,0.0
30,0.0,0.0,0.0,1.0,1.0,0.0,0.0,1.0,0.0,100.0,1.0,1.1856,26.0,0.0,0.0,0.0,59.999996,0.0,26.0,26.0,26.0,26.0,-0.14212499999999995,0.26780000000000004,0.046200000000000005,289.978,-2.6053,-2.7624444444444443,-1.4828999999999999,-1.7019000000000002,-173.99,216.015,190.328125,0.0,0.0,0.0,0.0,0.060699999999999976,-5.498166666666667,-5.498166666666667,-0.6226,0.8645,-0.08288888888888879,0.33999999999999986,69.658,-0.10790000000000001,-0.24432500000000001,1.0460000000000012,100.0,1.0,1.0,214.71333333333334,0.0,0.0,0.0,0.0,0.0,0.0,0.0,9100.9,0.0,55.0,5.0,250.74333333333334,0.0,0.0,0.0,0.0,0.0,0.0,1.0,0.0,1.5060000000000002,1.5060000000000002,0.0,0.0,0.0,55.0,616.79921,10000.0,85.000001,85.000001,85.000001,85.000001,395.0,0.0,0.0,0.0,1.0,166.665,49.132999999999996,49.132999999999996,46.295,46.295,34.0,-30.1925,20.45,-36.346666666666664,25.4825,0.0,1782.051,0.28999999999999915,100.0,31.521,30.184,45.122,43.801,0.0,0.0,100.0,0.0,0.0,0.0,0.0,3492.857142857143,3093.6,4362.25,4203.0,304.253,305.06225,314.27075,314.42475,22.0596,20.6711,22.0849,21.5836,314.999998,314.999998,324.999988,324.999988,99.55908571428571,99.50738333333334,99.56968571428571,99.5496,0.004750000000000032,-0.15966666666666662,-0.22716666666666663,-0.0011666666666666492,-0.04999999999999716,-0.046666666666666856,1.451,1.4985,38.872,30.194333333333333,39.031,35.8975,55.875,35.614,60.2625,53.4705,53.823,34.7155,58.8085,51.7535,52.977999999999994,34.2515,58.681,51.13933333333333,-0.07899999999999996,-0.11699999999999999,0.114165,0.10178000000000001,0.0,218.115,218.03,214.71333333333334,214.71333333333334,0.0,0.0
31,0.0,0.0,0.0,1.0,1.0,0.0,0.0,1.0,0.0,100.0,1.0,1.1856,26.0,0.0,0.0,0.0,59.999996,0.0,26.0,26.0,26.0,26.0,-0.11862499999999998,0.2621,-0.022025,290.054,-2.6736,-2.741,-1.5669,-1.6778,-170.64,216.01,190.304,0.0,0.0,0.0,0.0,0.06266666666666654,-5.498166666666667,-5.498166666666667,-0.6135,-0.8140000000000001,-0.07466666666666644,0.16300000000000003,69.782,-0.0931,-0.25135,0.6920000000000011,100.0,1.0,1.0,215.00666666666666,0.0,0.0,0.0,0.0,0.0,0.0,0.0,9113.4,0.0,55.0,5.0,251.19,1.0,0.0,0.0,0.0,0.0,0.0,1.0,0.0,1.5539999999999985,1.5539999999999985,0.0,0.0,1.0,55.0,616.79921,10000.0,85.000001,85.000001,85.000001,85.000001,395.0,0.0,0.0,0.0,1.0,333.33500000000004,49.881,49.881,45.150999999999996,45.150999999999996,34.0,-27.4725,19.914,-36.989999999999995,27.052500000000002,0.0,1782.002,0.20500000000000185,100.0,31.101,30.240000000000002,45.649,44.352000000000004,0.0,0.0,100.0,0.0,0.0,0.0,0.0,3221.4285714285716,3013.4,4466.0,4228.5,305.2535,305.18,314.004,314.46075,22.0685,20.6763,22.0951,21.5924,314.999998,314.999998,324.999988,324.999988,99.55908571428571,99.5074,99.56984285714286,99.54974285714286,0.013500000000000068,-0.15633333333333332,-0.1961666666666666,0.030833333333333268,-0.046666666666666856,-0.051666666666669414,1.447,1.4695,38.928,30.227,39.095,35.953,55.86,35.6565,60.3035,53.5275,53.809,34.7545,58.847,51.8085,52.964,34.2885,58.717,51.19266666666667,-0.08699999999999997,-0.10400000000000009,0.09588,0.114445,0.0,218.445,218.39499999999998,215.00666666666666,215.00666666666666,0.0,0.0
32,0.0,0.0,0.0,1.0,1.0,0.0,0.0,1.0,0.0,100.0,1.0,1.1856,26.0,0.0,0.0,0.0,59.999996,0.0,26.0,26.0,26.0,26.0,-0.12262499999999998,0.2702,-0.063725,290.329,-2.6292,-2.675,-1.5974,-1.5764,-167.07999999999998,216.0,190.278375,0.0,0.0,0.0,0.0,0.06473333333333331,-5.498166666666667,-5.498166666666667,-0.6378,0.16649999999999998,-0.09233333333333338,-0.387,69.90899999999999,-0.0787,-0.2621,0.6239999999999997,100.0,1.0,1.0,215.57333333333332,0.0,0.0,0.0,0.0,0.0,0.0,0.0,9137.3,0.0,55.0,5.0,251.64666666666665,0.0,0.0,0.0,0.0,0.0,0.0,1.0,0.0,1.6050000000000004,1.6050000000000004,0.0,0.0,0.0,55.0,616.79921,10000.0,85.000001,85.000001,85.000001,85.000001,395.0,0.0,0.0,0.0,1.0,166.665,49.376999999999995,49.376999999999995,46.494,46.494,34.0,-28.3675,20.616,-34.05666666666667,24.375,0.0,1781.952,0.10500000000000043,100.0,31.174,30.408,45.0,44.013000000000005,0.0,0.0,100.0,0.0,0.0,0.0,0.0,3384.714285714286,3074.7,4236.0,4097.2,304.651,305.01825,314.70925,314.87625,22.0781,20.682,22.1056,21.6016,314.999998,314.999998,324.999988,324.999988,99.55908571428571,99.50741666666667,99.56998571428572,99.54988571428571,0.02400000000000002,-0.1363333333333333,-0.1885,0.03400000000000003,-0.04333333333332945,-0.04833333333333201,1.5339999999999998,1.5585,38.988,30.262666666666668,39.16,36.01,55.847,35.702,60.34,53.5835,53.796,34.796,58.8815,51.8625,52.95,34.3285,58.748,51.245,-0.08549999999999991,-0.10150000000000015,0.104675,0.101,0.0,218.845,218.805,215.57333333333332,215.57333333333332,0.0,0.0
33,0.0,0.0,0.0,1.0,1.0,0.0,0.0,1.0,0.0,100.0,1.0,1.1856,26.0,0.0,0.0,0.0,59.999996,0.0,26.0,26.0,26.0,26.0,-0.09787499999999993,0.25960000000000005,-0.032325,290.283,-2.618,-2.7328888888888887,-1.558,-1.5968,-163.72,215.99,190.25325,0.0,0.0,0.0,0.0,0.06666666666666654,-5.498166666666667,-5.498166666666667,-0.6373,-0.2975000000000001,-0.08811111111111147,0.6699999999999999,70.032,-0.0636,-0.245875,0.4400000000000004,100.0,1.0,1.0,215.82,0.0,0.0,0.0,0.0,0.0,0.0,0.0,9147.9,0.0,55.0,5.0,252.08666666666664,1.0,0.0,0.0,0.0,0.0,0.0,1.0,0.0,1.6529999999999987,1.6529999999999987,0.0,0.0,1.0,55.0,616.79921,10000.0,85.000001,85.000001,85.000001,85.000001,395.0,0.0,0.0,0.0,1.0,333.33500000000004,49.942,49.942,45.944,45.944,34.0,-25.935,20.948,-34.86,26.67,0.0,1781.904,0.0,100.0,31.058,30.12,45.127,44.166,0.0,0.0,100.0,0.0,0.0,0.0,0.0,3227.0,2984.0,4382.75,4250.0,305.1625,305.302,314.27825,314.40025,22.087,20.6872,22.1155,21.6103,314.999998,314.999998,324.999988,324.999988,99.55908571428571,99.50743333333334,99.57014285714286,99.55002857142857,0.0405000000000002,-0.12366666666666659,-0.1788333333333334,0.04299999999999993,-0.04999999999999716,-0.026666666666670835,1.4745,1.4895,39.044,30.295,39.222,36.064499999999995,55.833,35.7405,60.3765,53.6385,53.783,34.832,58.9155,51.915,52.936,34.3625,58.778999999999996,51.29633333333334,-0.09899999999999998,-0.09050000000000002,0.100055,0.106465,0.0,219.23000000000002,219.16,215.82,215.82,0.0,0.0
34,0.0,0.0,0.0,1.0,1.0,0.0,0.0,1.0,0.0,100.0,1.0,1.1856,26.0,0.0,0.0,0.0,59.999996,0.0,26.0,26.0,26.0,26.0,-0.06962499999999994,0.2553000000000001,-0.07097500000000001,290.68,-2.6436,-2.706888888888889,-1.6015000000000001,-1.6096,-159.93,215.975,190.223625,0.0,0.0,0.0,0.0,0.06889999999999996,-5.498166666666667,-5.498166666666667,-0.672,-0.8155000000000001,-0.04677777777777781,0.5760000000000001,70.167,-0.046200000000000005,-0.2584,0.2999999999999998,100.0,1.0,1.0,216.31666666666666,0.0,0.0,0.0,0.0,0.0,0.0,0.0,9168.9,0.0,55.0,5.0,252.57333333333332,0.0,0.0,0.0,0.0,0.0,0.0,1.0,0.0,1.7070000000000007,1.7070000000000007,0.0,0.0,0.0,55.0,616.79921,10000.0,85.000001,85.000001,85.000001,85.000001,395.0,0.0,0.0,0.0,1.0,166.665,50.217,50.217,46.89,46.89,34.0,-25.055,21.644,-31.813333333333336,26.655,0.0,1781.85,-0.02499999999999858,100.0,30.727,29.901,44.831,44.347,0.0,0.0,100.0,0.0,0.0,0.0,0.0,3139.714285714286,3005.3,4094.25,4126.6,305.266,305.22,314.97175,314.652,22.096899999999998,20.693,22.1266,21.6201,314.999998,314.999998,324.999988,324.999988,99.5591,99.50745,99.57028571428572,99.55018571428572,0.05224999999999991,-0.10633333333333339,-0.16533333333333333,0.05883333333333329,-0.02499999999999858,-0.07166666666666544,1.5175,1.5295,39.105000000000004,30.331333333333333,39.291,36.126,55.818,35.783500000000004,60.414,53.7,53.769,34.8715,58.9505,51.9745,52.92,34.4005,58.811,51.35433333333333,-0.09799999999999986,-0.08700000000000019,0.11002,0.10276,0.0,219.60500000000002,219.585,216.31666666666666,216.31666666666666,0.0,0.0
35,0.0,0.0,0.0,1.0,1.0,0.0,0.0,1.0,0.0,100.0,1.0,1.1856,26.0,0.0,0.0,0.0,59.999996,0.0,26.0,26.0,26.0,26.0,-0.05037499999999995,0.2533000000000001,-0.0519,290.665,-2.7072,-2.6546666666666665,-1.5748,-1.616,-156.56,215.96,190.195375,0.0,0.0,0.0,0.0,0.0708333333333333,-5.498166666666667,-5.498166666666667,-0.7102,-0.3425,-0.04933333333333367,-0.43699999999999983,70.286,-0.0313,-0.26375000000000004,0.16799999999999926,100.0,1.0,1.0,216.73666666666668,0.0,0.0,0.0,0.0,0.0,0.0,0.0,9186.6,0.0,55.0,5.0,253.00666666666666,1.0,0.0,0.0,0.0,0.0,0.0,1.0,0.0,1.754999999999999,1.754999999999999,0.0,0.0,1.0,55.0,616.79921,10000.0,85.000001,85.000001,85.000001,85.000001,395.0,0.0,0.0,0.0,1.0,333.33500000000004,49.744,49.744,46.524,46.524,34.0,-26.465,24.594,-29.823333333333334,26.48,0.0,1781.801,-0.019999999999999574,100.0,30.284,30.14,44.525999999999996,43.915,0.0,0.0,100.0,0.0,0.0,0.0,0.0,3318.714285714286,3338.8,4060.125,3981.5,304.966,304.26425,314.98275,315.027,22.1055,20.6984,22.136400000000002,21.6287,314.999998,314.999998,324.999988,324.999988,99.55911428571429,99.50746666666667,99.57042857142856,99.55032857142857,0.06499999999999995,-0.09033333333333338,-0.1386666666666666,0.07816666666666672,-0.046666666666666856,-0.04999999999999716,1.5394999999999999,1.548,39.159,30.365000000000002,39.352000000000004,36.1795,55.803,35.8225,60.447,53.752,53.754000000000005,34.908,58.9815,52.0245,52.905,34.4355,58.838499999999996,51.403,-0.09999999999999987,-0.08550000000000013,0.10773,0.102885,0.0,219.98000000000002,219.97,216.73666666666668,216.73666666666668,0.0,0.0
36,0.0,0.0,0.0,1.0,1.0,0.0,0.0,1.0,0.0,100.0,1.0,1.1856,26.0,0.0,0.0,0.0,59.999996,0.0,26.0,26.0,26.0,26.0,-0.04212499999999997,0.27280000000000015,0.022600000000000002,289.886,-2.7085,-2.620333333333333,-1.5437,-1.6103,-153.19,215.945,190.16575,0.0,0.0,0.0,0.0,0.07279999999999998,-5.498166666666667,-5.498166666666667,-0.6862,0.347,-0.08700000000000019,-0.552,70.408,-0.022500000000000003,-0.22790000000000002,0.24600000000000044,100.0,1.0,1.0,216.88666666666666,0.0,0.0,0.0,0.0,0.0,0.0,0.0,9193.1,0.0,55.0,5.0,253.44333333333333,0.0,0.0,0.0,0.0,0.0,0.0,1.0,0.0,1.8030000000000008,1.8030000000000008,0.0,0.0,0.0,55.0,616.79921,10000.0,85.000001,85.000001,85.000001,85.000001,395.0,0.0,0.0,0.0,1.0,333.33500000000004,49.667,49.667,45.731,45.731,34.0,-26.285,22.677999999999997,-33.61,32.225,0.0,1781.754,-0.07000000000000028,100.0,30.77,30.418,44.662,44.159,0.0,0.0,100.0,0.0,0.0,0.0,0.0,3349.857142857143,3104.0,4511.125,4539.2,304.8515,304.9895,313.9405,313.72475,22.1144,20.7039,22.1462,21.6375,314.999998,314.999998,324.999988,324.999988,99.55911428571429,99.50748333333334,99.57058571428571,99.55047142857143,0.07624999999999993,-0.08099999999999996,-0.133,0.09299999999999997,-0.03833333333332689,-0.05333333333332746,1.4209999999999998,1.4385,39.215,30.39933333333333,39.414,36.2345,55.792,35.8635,60.482,53.808,53.744,34.945499999999996,59.0135,52.0785,52.894,34.471000000000004,58.868,51.455333333333336,-0.10349999999999993,-0.08400000000000007,0.10609500000000001,0.10594500000000001,0.0,220.385,220.385,216.88666666666666,216.88666666666666,0.0,0.0
