,ABS Active,ABS Enabled,AID Allow Tire Blankets,AID Auto Blip,AID Auto Clutch,AID Auto Shift,AID Fuel Rate,AID Ideal Line,AID Mech Damage,AID Stability,AID Tire Wear Rate,Air Density,Air Temp,Ballast,Best Lap Delta,Best Lap Time,Brake Bias,Brake Pos,Brake Temp FL,Brake Temp FR,Brake Temp RL,Brake Temp RR,CG Accel Lateral,CG Accel Longitudinal,CG Accel Vertical,CG Height,Camber FL,Camber FR,Camber RL,Camber RR,Car Coord X,Car Coord Y,Car Coord Z,Car Damage Front,Car Damage Left,Car Damage Rear,Car Damage Right,Car Pos Norm,Caster FL,Caster FR,Chassis Pitch Angle,Chassis Pitch Rate,Chassis Roll Angle,Chassis Roll Rate,Chassis Velocity X,Chassis Velocity Y,Chassis Velocity Z,Chassis Yaw Rate,Clutch Pos,DRS Active,DRS Available,Drive Train Speed,ERS Heat Charging,ERS Is Charging,ERS Max Energy,ERS Power Level,ERS Recovery Level,Engine Brake Setting,Engine Limiter,Engine RPM,Flags,Fuel Level,Gear,Ground Speed,HR Sample Clock,In Pit,KERS Charge,KERS Deployed Energy,KERS Input,KERS Max Energy,LR Sample Clock,Lap Invalidated,Lap Time,Lap Time2,Last Lap Time,Last Sector Time,MR Sample Clock,Max Fuel,Max Power,Max RPM,Max Sus Travel FL,Max Sus Travel FR,Max Sus Travel RL,Max Sus Travel RR,Max Torque,Max Turbo Boost,Num Tires Off Track,Penalties Enabled,Position,Raw Data Sample Rate,Ride Height FL,Ride Height FR,Ride Height RL,Ride Height RR,Road Temp,Self Align Torque FL,Self Align Torque FR,Self Align Torque RL,Self Align Torque RR,Session Lap Count,Session Time Left,Steering Angle,Surface Grip,Suspension Travel FL,Suspension Travel FR,Suspension Travel RL,Suspension Travel RR,TC Active,TC Enabled,Throttle Pos,Tire Dirt Level FL,Tire Dirt Level FR,Tire Dirt Level RL,Tire Dirt Level RR,Tire Load FL,Tire Load FR,Tire Load RL,Tire Load RR,Tire Loaded Radius FL,Tire Loaded Radius FR,Tire Loaded Radius RL,Tire Loaded Radius RR,Tire Pressure FL,Tire Pressure FR,Tire Pressure RL,Tire Pressure RR,Tire Radius FL,Tire Radius FR,Tire Radius RL,Tire Radius RR,Tire Rubber Grip FL,Tire Rubber Grip FR,Tire Rubber Grip RL,Tire Rubber Grip RR,Tire Slip Angle FL,Tire Slip Angle FR,Tire Slip Angle RL,Tire Slip Angle RR,Tire Slip Ratio FL,Tire Slip Ratio FR,Tire Slip Ratio RL,Tire Slip Ratio RR,Tire Temp Core FL,Tire Temp Core FR,Tire Temp Core RL,Tire Temp Core RR,Tire Temp Inner FL,Tire Temp Inner FR,Tire Temp Inner RL,Tire Temp Inner RR,Tire Temp Middle FL,Tire Temp Middle FR,Tire Temp Middle RL,Tire Temp Middle RR,Tire Temp Outer FL,Tire Temp Outer FR,Tire Temp Outer RL,Tire Temp Outer RR,Toe In FL,Toe In FR,Toe In RL,Toe In RR,Turbo Boost,Wheel Angular Speed FL,Wheel Angular Speed FR,Wheel Angular Speed RL,Wheel Angular Speed RR,Wind Direction,Wind Speed
0,0.0,0.0,0.0,1.0,1.0,0.0,0.0,1.0,0.0,100.0,1.0,1.1856,26.0,0.0,0.0,0.0,59.99999,0.0,26.0,26.0,26.0,26.0,-0.014624999999999999,0.29610000000000003,0.10706666666666668,292.786,-2.7947,-2.603,-1.5691000000000002,-1.5024000000000002,-275.7,215.425,190.98725,0.0,0.0,0.0,0.0,0.0015666666666666667,-5.498166666666667,-5.498166666666667,-0.5723,1.7236666666666667,0.01011111111111096,0.15000000000000036,65.531,-0.026000000000000002,-0.232275,-0.03799999999999937,100.0,1.0,1.0,202.31666666666666,0.0,0.0,0.0,0.0,0.0,0.0,0.0,8575.4,0.0,55.0,5.0,235.88,0.0,0.0,0.0,0.0,0.0,0.0,0.0,0.0,0.0030000000000001137,0.0030000000000001137,0.0,0.0,0.0,55.0,616.79921,10000.0,85.0,85.0,85.0,85.0,395.0,0.0,0.0,0.0,1.0,20.0,50.171,50.171,48.766999999999996,48.766999999999996,34.0,-29.424999999999997,33.088,-28.64333333333333,26.8,0.0,1783.504,0.15500000000000114,100.0,27.865,27.786,40.522999999999996,40.341,0.0,0.0,100.0,0.0,0.0,0.0,0.0,3362.875,4353.0,4027.0,4136.1,304.503,301.325,315.04675,314.59,21.7741,20.5136,21.7727,21.3181,314.99999,314.99999,324.99998,324.99998,99.55888571428571,99.50716666666666,99.56551428571429,99.54548571428572,0.03249999999999997,-0.07724999999999993,-0.1274,0.096,-0.030000000000001137,-0.03499999999999659,1.5443333333333333,1.5710000000000002,37.088,29.21,37.08,34.238,56.285,34.467,59.177,51.737,54.208,33.65,57.8,50.0875,53.382999999999996,33.2225,57.7635,49.50933333333333,-0.07000000000000006,-0.08700000000000019,0.10133,0.11482,0.0,205.31,205.305,202.31666666666666,202.31666666666666,0.0,0.0
1,0.0,0.0,0.0,1.0,1.0,0.0,0.0,1.0,0.0,100.0,1.0,1.1856,26.0,0.0,0.0,0.0,59.999996,0.0,26.0,26.0,26.0,26.0,-0.04699999999999993,0.3417000000000001,0.19086666666666668,291.84,-2.6308,-2.6895714285714285,-1.6051000000000002,-1.5276,-272.36,215.4325,190.96725,0.0,0.0,0.0,0.0,0.0035333333333333336,-5.498166666666667,-5.498166666666667,-0.47940000000000005,-1.3096666666666668,-0.04400000000000004,-0.26900000000000013,65.689,-0.0207,-0.182425,0.5020000000000007,100.0,1.0,1.0,202.18666666666667,0.0,0.0,0.0,0.0,0.0,0.0,0.0,8569.9,0.0,55.0,5.0,236.44666666666666,1.0,0.0,0.0,0.0,0.0,0.0,0.0,0.0,0.053999999999998494,0.053999999999998494,0.0,0.0,1.0,55.0,616.79921,10000.0,85.000001,85.000001,85.000001,85.000001,395.0,0.0,0.0,0.0,1.0,333.33500000000004,53.635,53.635,46.844,46.844,34.0,-22.415,17.24,-38.32666666666667,39.925,0.0,1783.454,0.3000000000000007,100.0,28.083,27.809,42.609,43.052,0.0,0.0,100.0,0.0,0.0,0.0,0.0,2857.5,2465.7,4863.875,5674.1,306.2175,306.9526666666667,312.81925,310.89225,21.784,20.5187,21.7837,21.3274,314.999998,314.999998,324.999988,324.999988,99.55888571428571,99.50718333333333,99.56567142857143,99.54564285714285,0.041749999999999954,-0.09624999999999995,-0.1296,0.0808,-0.026666666666670835,-0.03166666666666629,1.298,1.3205,37.15,29.241999999999997,37.147999999999996,34.2965,56.269,34.506,59.225,51.8065,54.193,33.686,57.8445,50.153999999999996,53.366,33.2575,57.8055,49.574666666666666,-0.057499999999999885,-0.09799999999999986,0.104815,0.10951000000000001,0.0,205.79500000000002,205.76,202.18666666666667,202.18666666666667,0.0,0.0
2,0.0,0.0,0.0,1.0,1.0,0.0,0.0,1.0,0.0,100.0,1.0,1.1856,26.0,0.0,0.0,0.0,59.999996,0.0,26.0,26.0,26.0,26.0,-0.06674999999999998,0.3004,-0.0912,293.549,-2.66555,-2.640714285714286,-1.5749,-1.5104,-268.8,215.44,190.94725,0.0,0.0,0.0,0.0,0.0056,-5.498166666666667,-5.498166666666667,-0.5835,0.9636666666666667,-0.004222222222222349,1.6799999999999997,65.832,-0.0239,-0.27625,0.7400000000000002,100.0,1.0,1.0,203.66333333333333,0.0,0.0,0.0,0.0,0.0,0.0,0.0,8632.5,0.0,55.0,5.0,236.96666666666667,0.0,0.0,0.0,0.0,0.0,0.0,0.0,0.0,0.10800000000000054,0.10800000000000054,0.0,0.0,0.0,55.0,616.79921,10000.0,85.000001,85.000001,85.000001,85.000001,395.0,0.0,0.0,0.0,1.0,166.665,51.391999999999996,51.391999999999996,50.522,50.522,34.0,-28.5925,21.798000000000002,-24.86333333333333,19.515,0.0,1783.401,0.46999999999999886,100.0,28.584,28.063,41.922,41.809,0.0,0.0,100.0,0.0,0.0,0.0,0.0,3365.0,3149.8,3534.5,3422.5,304.5615,304.57933333333335,316.256,316.4245,21.7947,20.5242,21.7946,21.3364,314.999998,314.999998,324.999988,324.999988,99.5589,99.5072,99.56581428571428,99.54577142857143,0.022250000000000103,-0.11775000000000002,-0.15880000000000002,0.0692,-0.060000000000002274,-0.07499999999999574,1.7876666666666667,1.7945000000000002,37.217,29.2765,37.216,34.3525,56.254999999999995,34.5485,59.260999999999996,51.8585,54.179,33.725,57.8785,50.204499999999996,53.352000000000004,33.2945,57.836,49.624,-0.05600000000000005,-0.11799999999999988,0.104315,0.11036000000000001,0.0,206.26,206.19,203.66333333333333,203.66333333333333,0.0,0.0
3,0.0,0.0,0.0,1.0,1.0,0.0,0.0,1.0,0.0,100.0,1.0,1.1856,26.0,0.0,0.0,0.0,59.999996,0.0,26.0,26.0,26.0,26.0,-0.07374999999999998,0.30580000000000007,0.0206,292.679,-2.68105,-2.670857142857143,-1.5564,-1.4841,-265.64,215.4475,190.928125,0.0,0.0,0.0,0.0,0.0074333333333333335,-5.498166666666667,-5.498166666666667,-0.5046,0.43199999999999994,0.00822222222222213,-2.231,65.981,-0.035300000000000005,-0.19212500000000002,0.6720000000000006,100.0,1.0,1.0,203.42333333333335,0.0,0.0,0.0,0.0,0.0,0.0,0.0,8622.4,0.0,55.0,5.0,237.50333333333333,1.0,0.0,0.0,0.0,0.0,0.0,0.0,0.0,0.1559999999999988,0.1559999999999988,0.0,0.0,1.0,55.0,616.79921,10000.0,85.000001,85.000001,85.000001,85.000001,395.0,0.0,0.0,0.0,1.0,166.665,52.902,52.902,47.302,47.302,34.0,-24.0775,19.605999999999998,-34.83,27.3525,0.0,1783.352,0.6050000000000004,100.0,28.154,28.031,42.172,42.338,0.0,0.0,100.0,0.0,0.0,0.0,0.0,2866.25,2869.3,4555.0,4372.5,306.215,305.52933333333334,313.7575,313.83475,21.8038,20.5292,21.8046,21.345,314.999998,314.999998,324.999988,324.999988,99.5589,99.50721666666666,99.56594285714286,99.54591428571429,0.010499999999999954,-0.12149999999999994,-0.148,0.0638,-0.045000000000001705,-0.03499999999999659,1.434,1.4449999999999998,37.274,29.307499999999997,37.278,34.4065,56.236999999999995,34.588499999999996,59.2985,51.922,54.163,33.7615,57.9135,50.265,53.335,33.33,57.868,49.68366666666667,-0.03149999999999986,-0.12550000000000017,0.10503000000000001,0.103855,0.0,206.735,206.66500000000002,203.42333333333335,203.42333333333335,0.0,0.0
4,0.0,0.0,0.0,1.0,1.0,0.0,0.0,1.0,0.0,100.0,1.0,1.1856,26.0,0.0,0.0,0.0,59.999996,0.0,26.0,26.0,26.0,26.0,-0.07074999999999998,0.2872000000000001,0.017133333333333334,293.091,-2.66865,-2.7397142857142858,-1.49675,-1.594,-262.47,215.45,190.909875,0.0,0.0,0.0,0.0,0.009266666666666668,-5.498166666666667,-5.498166666666667,-0.5387000000000001,-0.9973333333333334,-0.04133333333333322,-0.4830000000000001,66.117,-0.043000000000000003,-0.242325,1.0259999999999998,100.0,1.0,1.0,204.07333333333332,0.0,0.0,0.0,0.0,0.0,0.0,0.0,8649.9,0.0,55.0,5.0,237.99666666666667,0.0,0.0,0.0,0.0,0.0,0.0,0.0,0.0,0.20400000000000063,0.20400000000000063,0.0,0.0,0.0,55.0,616.79921,10000.0,85.000001,85.000001,85.000001,85.000001,395.0,0.0,0.0,0.0,1.0,333.33500000000004,52.49,52.49,48.644999999999996,48.644999999999996,34.0,-27.6875,19.927999999999997,-30.563333333333333,23.7825,0.0,1783.304,0.6649999999999991,100.0,28.179,27.749,42.925,42.385,0.0,0.0,100.0,0.0,0.0,0.0,0.0,3206.625,2867.3,4043.0,3833.8,305.171,305.6453333333333,314.98075,315.271,21.813,20.534,21.8147,21.3535,314.999998,314.999998,324.999988,324.999988,99.5589,99.50723333333333,99.56608571428572,99.54604285714285,0.0035000000000000586,-0.12549999999999994,-0.18080000000000002,0.057,-0.07833333333332604,-0.060000000000002274,1.5343333333333333,1.5935000000000001,37.331,29.3375,37.342,34.4595,56.222,34.6255,59.338499999999996,51.9775,54.147999999999996,33.796,57.9505,50.3185,53.32,33.3625,57.9025,49.736000000000004,-0.024499999999999966,-0.12400000000000011,0.10963500000000001,0.10629500000000001,0.0,207.125,207.01999999999998,204.07333333333332,204.07333333333332,0.0,0.0
5,0.0,0.0,0.0,1.0,1.0,0.0,0.0,1.0,0.0,100.0,1.0,1.1856,26.0,0.0,0.0,0.0,59.999996,0.0,26.0,26.0,26.0,26.0,-0.080125,0.31220000000000003,-0.0371,293.289,-2.64255,-2.709,-1.5479500000000002,-1.5748,-258.9,215.4525,190.88875,0.0,0.0,0.0,0.0,0.011366666666666667,-5.498166666666667,-5.498166666666667,-0.5483,0.5,-0.026444444444444493,-0.2490000000000001,66.27,-0.0646,-0.23125,1.0359999999999996,100.0,1.0,1.0,204.64,0.0,0.0,0.0,0.0,0.0,0.0,0.0,8673.9,0.0,55.0,5.0,238.54666666666668,1.0,0.0,0.0,0.0,0.0,0.0,0.0,0.0,0.2579999999999991,0.2579999999999991,0.0,0.0,1.0,55.0,616.79921,10000.0,85.000001,85.000001,85.000001,85.000001,395.0,0.0,0.0,0.0,1.0,166.665,52.536,52.536,48.996,48.996,34.0,-26.119999999999997,20.0,-30.4,23.314999999999998,0.0,1783.251,0.21499999999999986,100.0,28.292,27.841,42.521,41.808,0.0,0.0,100.0,0.0,0.0,0.0,0.0,3086.625,2899.6,3935.0,3968.0,305.451,305.468,315.29025,315.0155,21.8234,20.5395,21.8257,21.3628,314.999998,314.999998,324.999988,324.999988,99.5589,99.50723333333333,99.56622857142857,99.54618571428571,0.009500000000000064,-0.12524999999999997,-0.1896,0.0364,-0.07666666666666799,-0.0833333333333286,1.5733333333333333,1.6270000000000002,37.396,29.372,37.41,34.5175,56.206,34.6685,59.376999999999995,52.038,54.132,33.836,57.9865,50.3765,53.303,33.400999999999996,57.9355,49.793,-0.04899999999999993,-0.10850000000000026,0.10304500000000001,0.109645,0.0,207.63,207.54000000000002,204.64,204.64,0.0,0.0
6,0.0,0.0,0.0,1.0,1.0,0.0,0.0,1.0,0.0,100.0,1.0,1.1856,26.0,0.0,0.0,0.0,59.999996,0.0,26.0,26.0,26.0,26.0,-0.10824999999999996,0.2833000000000001,0.05803333333333334,292.877,-2.667,-2.761285714285714,-1.49225,-1.5927,-255.71,215.4525,190.869125,0.0,0.0,0.0,0.0,0.0132,-5.498166666666667,-5.498166666666667,-0.5413,-0.3866666666666667,-0.04999999999999982,-0.5869999999999997,66.411,-0.0699,-0.21677500000000002,0.8799999999999999,100.0,1.0,1.0,204.88333333333333,0.0,0.0,0.0,0.0,0.0,0.0,0.0,8684.3,0.0,55.0,5.0,239.05,0.0,0.0,0.0,0.0,0.0,0.0,0.0,0.0,0.30600000000000094,0.30600000000000094,0.0,0.0,0.0,55.0,616.79921,10000.0,85.000001,85.000001,85.000001,85.000001,395.0,0.0,0.0,0.0,1.0,166.665,52.551,52.551,48.355000000000004,48.355000000000004,34.0,-28.485,19.381999999999998,-33.16,24.322499999999998,0.0,1783.203,0.370000000000001,100.0,28.27,27.696,42.841,42.058,0.0,0.0,100.0,0.0,0.0,0.0,0.0,3236.0,2810.1,4229.375,4056.2,305.121,305.8106666666667,314.523,314.72125,21.8326,20.5443,21.8356,21.371299999999998,314.999998,314.999998,324.999988,324.999988,99.55891428571428,99.50725,99.56637142857143,99.54632857142857,-0.00924999999999998,-0.13224999999999998,-0.19519999999999998,0.031,-0.03999999999999915,-0.06666666666666998,1.4973333333333332,1.5455,37.454,29.4015,37.473,34.570499999999996,56.19,34.7055,59.4155,52.096000000000004,54.117000000000004,33.8695,58.022,50.432,53.287,33.433,57.9685,49.84733333333333,-0.04949999999999988,-0.1030000000000002,0.108825,0.10813500000000001,0.0,208.035,207.965,204.88333333333333,204.88333333333333,0.0,0.0
7,0.0,0.0,0.0,1.0,1.0,0.0,0.0,1.0,0.0,100.0,1.0,1.1856,26.0,0.0,0.0,0.0,59.999996,0.0,26.0,26.0,26.0,26.0,-0.07550000000000001,0.2924,0.0057666666666666665,292.801,-2.61455,-2.7578571428571426,-1.5445,-1.6122,-252.52,215.45,190.84975,0.0,0.0,0.0,0.0,0.015066666666666666,-5.498166666666667,-5.498166666666667,-0.5452,0.22899999999999998,-0.040000000000000036,-0.21999999999999975,66.547,-0.0751,-0.2315,0.7240000000000002,100.0,1.0,1.0,205.36,0.0,0.0,0.0,0.0,0.0,0.0,0.0,8704.5,0.0,55.0,5.0,239.54000000000002,1.0,0.0,0.0,0.0,0.0,0.0,0.0,0.0,0.3539999999999992,0.3539999999999992,0.0,0.0,1.0,55.0,616.79921,10000.0,85.000001,85.000001,85.000001,85.000001,395.0,0.0,0.0,0.0,1.0,166.665,52.231,52.231,48.34,48.34,34.0,-26.445,20.758,-33.32,23.752499999999998,0.0,1783.155,-0.125,100.0,28.491,27.847,42.902,42.103,0.0,0.0,100.0,0.0,0.0,0.0,0.0,3218.25,2908.4,4172.625,3986.6000000000004,305.0985,305.38966666666664,314.72625,314.895,21.8419,20.5492,21.8456,21.3797,314.999998,314.999998,324.999988,324.999988,99.55891428571428,99.50726666666667,99.5665,99.54645714285714,0.02499999999999991,-0.12049999999999994,-0.2006,0.0264,-0.051666666666669414,-0.03833333333332689,1.537,1.5725000000000002,37.512,29.432499999999997,37.535,34.623,56.177,34.7445,59.4525,52.152,54.105000000000004,33.9055,58.0565,50.4855,53.274,33.4675,58.0005,49.89966666666667,-0.09349999999999992,-0.07100000000000017,0.10631000000000002,0.110655,0.0,208.465,208.39499999999998,205.36,205.36,0.0,0.0
8,0.0,0.0,0.0,1.0,1.0,0.0,0.0,1.0,0.0,100.0,1.0,1.1856,26.0,0.0,0.0,0.0,59.999996,0.0,26.0,26.0,26.0,26.0,-0.05074999999999996,0.2822,-0.0666,293.06,-2.67695,-2.702,-1.5533000000000001,-1.6102,-248.92000000000002,215.445,190.828125,0.0,0.0,0.0,0.0,0.017166666666666667,-5.498166666666667,-5.498166666666667,-0.5444,-0.07200000000000006,-0.03633333333333333,-0.9329999999999998,66.7,-0.0645,-0.230725,0.2599999999999998,100.0,1.0,1.0,205.85000000000002,0.0,0.0,0.0,0.0,0.0,0.0,0.0,8725.2,0.0,55.0,5.0,240.09333333333333,0.0,0.0,0.0,0.0,0.0,0.0,0.0,0.0,0.40800000000000125,0.40800000000000125,0.0,0.0,0.0,55.0,616.79921,10000.0,85.000001,85.000001,85.000001,85.000001,395.0,0.0,0.0,0.0,1.0,166.665,52.643,52.643,48.218,48.218,34.0,-25.1,21.189999999999998,-31.123333333333335,24.3975,0.0,1783.1,-0.15500000000000114,100.0,28.226,27.735,42.934,42.219,0.0,0.0,100.0,0.0,0.0,0.0,0.0,3065.0,2944.9,4080.625,3921.7,305.593,305.3183333333333,314.931,315.0535,21.8522,20.5548,21.8567,21.3893,314.999998,314.999998,324.999988,324.999988,99.55892857142857,99.50728333333333,99.56665714285714,99.54661428571428,0.03475000000000006,-0.10375000000000001,-0.1724,0.048799999999999996,-0.054999999999999716,-0.046666666666666856,1.5543333333333333,1.5645000000000002,37.577,29.4675,37.604,34.683,56.16,34.787,59.494,52.216,54.089,33.945,58.0955,50.5475,53.257,33.5055,58.036,49.96,-0.09650000000000003,-0.06800000000000006,0.10530500000000001,0.104385,0.0,208.92000000000002,208.89,205.85000000000002,205.85,0.0,0.0
9,0.0,0.0,0.0,1.0,1.0,0.0,0.0,1.0,0.0,100.0,1.0,1.1856,26.0,0.0,0.0,0.0,59.999996,0.0,26.0,26.0,26.0,26.0,-0.05637499999999995,0.2935000000000001,0.0030666666666666668,292.847,-2.65335,-2.7198571428571428,-1.51725,-1.5688,-245.92000000000002,215.44,190.809625,0.0,0.0,0.0,0.0,0.0189,-5.498166666666667,-5.498166666666667,-0.5434,0.19033333333333335,-0.04444444444444429,0.6539999999999999,66.828,-0.049300000000000004,-0.221975,0.09200000000000053,100.0,1.0,1.0,206.21666666666667,0.0,0.0,0.0,0.0,0.0,0.0,0.0,8740.8,0.0,55.0,5.0,240.55,1.0,0.0,0.0,0.0,0.0,0.0,0.0,0.0,0.4529999999999994,0.4529999999999994,0.0,0.0,1.0,55.0,616.79921,10000.0,85.000001,85.000001,85.000001,85.000001,395.0,0.0,0.0,0.0,1.0,166.665,52.338,52.338,48.462,48.462,34.0,-25.5075,22.688,-29.543333333333333,26.0375,0.0,1783.056,-0.245000000000001,100.0,28.392,27.591,42.933,42.136,0.0,0.0,100.0,0.0,0.0,0.0,0.0,3155.625,3045.6,4044.0,4089.1000000000004,305.188,305.173,314.96975,314.74025,21.8609,20.5594,21.866,21.397199999999998,314.999998,314.999998,324.999988,324.999988,99.55892857142857,99.5073,99.56678571428571,99.54672857142857,0.044499999999999984,-0.08750000000000002,-0.1552,0.069,-0.03499999999999659,-0.04999999999999716,1.5546666666666666,1.5594999999999999,37.631,29.496499999999997,37.662,34.732,56.147,34.822,59.528,52.268,54.076,33.977000000000004,58.1275,50.597,53.244,33.536,58.0655,50.00866666666667,-0.09650000000000003,-0.05799999999999983,0.11000000000000001,0.10551,0.0,209.29000000000002,209.285,206.21666666666667,206.21666666666667,0.0,0.0
10,0.0,0.0,0.0,1.0,1.0,0.0,0.0,1.0,0.0,100.0,1.0,1.1856,26.0,0.0,0.0,0.0,59.999996,0.0,26.0,26.0,26.0,26.0,-0.031000000000000028,0.29280000000000017,0.0357,292.725,-2.6662,-2.6965714285714286,-1.55685,-1.5518,-242.3,215.4325,190.787625,0.0,0.0,0.0,0.0,0.021,-5.498166666666667,-5.498166666666667,-0.5348,-0.18166666666666687,-0.015666666666666718,1.311,66.981,-0.0328,-0.219725,-0.11399999999999988,100.0,1.0,1.0,206.60000000000002,0.0,0.0,0.0,0.0,0.0,0.0,0.0,8757.1,0.0,55.0,5.0,241.10000000000002,0.0,0.0,0.0,0.0,0.0,0.0,1.0,0.0,0.5069999999999979,0.5069999999999979,0.0,0.0,0.0,55.0,616.79921,10000.0,85.000001,85.000001,85.000001,85.000001,395.0,0.0,0.0,0.0,1.0,166.665,52.673,52.673,48.019,48.019,34.0,-23.6025,23.004,-29.663333333333334,28.6525,0.0,1783.002,-0.36499999999999844,100.0,28.279,27.531,43.056,42.466,0.0,0.0,100.0,0.0,0.0,0.0,0.0,3003.375,3037.2,4107.25,4290.5,305.622,305.22433333333333,314.79375,314.244,21.871299999999998,20.565,21.8772,21.4068,314.999998,314.999998,324.999988,324.999988,99.55892857142857,99.5073,99.56694285714286,99.54688571428571,0.05950000000000011,-0.07224999999999993,-0.1328,0.0884,-0.03833333333332689,-0.04999999999999716,1.5316666666666667,1.5034999999999998,37.695,29.5315,37.732,34.792500000000004,56.132,34.863,59.57,52.333,54.062,34.0145,58.166,50.6595,53.229,33.572,58.101,50.07,-0.10499999999999998,-0.052000000000000046,0.10285000000000001,0.11160500000000001,0.0,209.76,209.785,206.60000000000002,206.60000000000002,0.0,0.0
11,0.0,0.0,0.0,1.0,1.0,0.0,0.0,1.0,0.0,100.0,1.0,1.1856,26.0,0.0,0.0,0.0,59.999996,0.0,26.0,26.0,26.0,26.0,-0.008000000000000007,0.2704,-0.018333333333333333,293.076,-2.67035,-2.695,-1.56105,-1.5323,-239.09,215.425,190.767875,0.0,0.0,0.0,0.0,0.022600000000000002,-5.498166666666667,-5.498166666666667,-0.556,-0.3800000000000001,0.0023333333333332984,0.6310000000000002,67.114,-0.0184,-0.23045000000000002,-0.2400000000000002,100.0,1.0,1.0,207.13333333333333,0.0,0.0,0.0,0.0,0.0,0.0,0.0,8779.7,0.0,55.0,5.0,241.57999999999998,1.0,0.0,0.0,0.0,0.0,0.0,1.0,0.0,0.5549999999999997,0.5549999999999997,0.0,0.0,1.0,55.0,616.79921,10000.0,85.000001,85.000001,85.000001,85.000001,395.0,0.0,0.0,0.0,1.0,166.665,52.689,52.689,48.615,48.615,34.0,-23.255,23.97,-27.2,27.177500000000002,0.0,1782.954,-0.7349999999999994,100.0,28.054,27.502,42.837,42.528,0.0,0.0,100.0,0.0,0.0,0.0,0.0,3023.25,3092.7,3901.625,4038.2,305.6295,305.0486666666667,315.33325,314.85975,21.8804,20.57,21.887,21.4153,314.999998,314.999998,324.999988,324.999988,99.55894285714285,99.50731666666667,99.56707142857142,99.54701428571428,0.07150000000000012,-0.06074999999999997,-0.1216,0.1096,-0.04999999999999716,-0.060000000000002274,1.565,1.5659999999999998,37.751999999999995,29.5625,37.794,34.846000000000004,56.117999999999995,34.8985,59.604,52.388999999999996,54.048,34.0475,58.198,50.713499999999996,53.215,33.6035,58.129999999999995,50.123,-0.11199999999999988,-0.04150000000000009,0.10604000000000001,0.10515000000000001,0.0,210.16500000000002,210.19,207.13333333333333,207.13333333333333,0.0,0.0
12,0.0,0.0,0.0,1.0,1.0,0.0,0.0,1.0,0.0,100.0,1.0,1.1856,26.0,0.0,0.0,0.0,59.999996,0.0,26.0,26.0,26.0,26.0,0.007749999999999924,0.2861,-0.0011,292.648,-2.71025,-2.6775714285714285,-1.564,-1.5428000000000002,-235.66,215.41750000000002,190.746,0.0,0.0,0.0,0.0,0.025466666666666665,-5.498166666666667,-5.498166666666667,-0.5475,0.46399999999999997,0.007888888888888834,-0.573,67.257,-0.0006000000000000001,-0.21130000000000002,-0.3439999999999994,100.0,1.0,1.0,207.48666666666668,0.0,0.0,0.0,0.0,0.0,0.0,0.0,8794.5,0.0,55.0,5.0,242.09333333333336,0.0,0.0,0.0,0.0,0.0,0.0,1.0,0.0,0.6059999999999981,0.6059999999999981,0.0,0.0,0.0,55.0,616.79921,10000.0,85.000001,85.000001,85.000001,85.000001,395.0,0.0,0.0,0.0,1.0,166.665,52.353,52.353,47.958,47.958,34.0,-24.6375,23.738,-29.166666666666668,28.655,0.0,1782.904,-0.3150000000000013,100.0,28.044,27.946,42.599000000000004,42.567,0.0,0.0,100.0,0.0,0.0,0.0,0.0,3100.625,3108.2,4159.25,4211.9,305.4835,304.81033333333335,314.77675,314.41,21.8901,20.575499999999998,21.8974,21.4243,314.999998,314.999998,324.999988,324.999988,99.55895714285714,99.50731666666667,99.56721428571429,99.54715714285715,0.06150000000000011,-0.07125000000000004,-0.1144,0.1042,-0.06499999999999773,-0.041666666666671404,1.5196666666666667,1.533,37.813,29.5965,37.858999999999995,34.902,56.105000000000004,34.938,59.641,52.449,54.036,34.084,58.2325,50.771,53.201,33.638,58.161500000000004,50.179,-0.09450000000000003,-0.06550000000000011,0.10940000000000001,0.10409,0.0,210.63,210.64499999999998,207.48666666666668,207.48666666666668,0.0,0.0
13,0.0,0.0,0.0,1.0,1.0,0.0,0.0,1.0,0.0,100.0,1.0,1.1856,26.0,0.0,0.0,0.0,59.999996,0.0,26.0,26.0,26.0,26.0,0.03125,0.2733000000000001,0.022333333333333337,292.45,-2.68335,-2.6905714285714284,-1.5574,-1.5506,-232.43,215.4125,190.72575,0.0,0.0,0.0,0.0,0.02673333333333333,-5.498166666666667,-5.498166666666667,-0.5417000000000001,-0.21833333333333327,0.003555555555555534,-0.44599999999999973,67.391,0.0045000000000000005,-0.22157500000000002,-0.20999999999999996,100.0,1.0,1.0,207.83666666666667,0.0,0.0,0.0,0.0,0.0,0.0,0.0,8809.4,0.0,55.0,5.0,242.57666666666665,1.0,0.0,0.0,0.0,0.0,0.0,1.0,0.0,0.6539999999999999,0.6539999999999999,0.0,0.0,1.0,55.0,616.79921,10000.0,85.000001,85.000001,85.000001,85.000001,395.0,0.0,0.0,0.0,1.0,166.665,52.353,52.353,47.76,47.76,34.0,-23.325,24.628,-29.27,29.68,0.0,1782.856,-0.40500000000000114,100.0,28.068,28.014,42.952,43.014,0.0,0.0,100.0,0.0,0.0,0.0,0.0,3147.0,3023.0,4182.625,4231.3,305.368,305.07733333333334,314.6785,314.3115,21.8992,20.5806,21.9074,21.433,314.999998,314.999998,324.999988,324.999988,99.55895714285714,99.50731666666667,99.56735714285715,99.54728571428572,0.09525000000000006,-0.03425,-0.11120000000000001,0.114,-0.041666666666671404,-0.01666666666666572,1.4976666666666667,1.4935,37.870000000000005,29.6285,37.921,34.9565,56.093,34.9745,59.6785,52.507999999999996,54.024,34.1175,58.266999999999996,50.828,53.189,33.670500000000004,58.1935,50.23466666666667,-0.11299999999999999,-0.04400000000000004,0.10831500000000001,0.10587,0.0,211.05,211.025,207.83666666666667,207.83666666666667,0.0,0.0
14,0.0,0.0,0.0,1.0,1.0,0.0,0.0,1.0,0.0,100.0,1.0,1.1856,26.0,0.0,0.0,0.0,59.999996,0.0,26.0,26.0,26.0,26.0,0.03237500000000004,0.27100000000000013,-0.026500000000000003,292.77,-2.69385,-2.706857142857143,-1.5682,-1.5468000000000002,-228.99,215.405,190.7045,0.0,0.0,0.0,0.0,0.028733333333333333,-5.498166666666667,-5.498166666666667,-0.5519000000000001,0.0086666666666666,0.019333333333333202,0.8890000000000002,67.53,0.0083,-0.2291,-0.3799999999999999,100.0,1.0,1.0,208.37333333333333,0.0,0.0,0.0,0.0,0.0,0.0,0.0,8832.2,0.0,55.0,5.0,243.07999999999998,0.0,0.0,0.0,0.0,0.0,0.0,1.0,0.0,0.7049999999999983,0.7049999999999983,0.0,0.0,0.0,55.0,616.79921,10000.0,85.000001,85.000001,85.000001,85.000001,395.0,0.0,0.0,0.0,1.0,166.665,52.504999999999995,52.504999999999995,48.187,48.187,34.0,-21.7075,25.439999999999998,-26.186666666666667,29.36,0.0,1782.804,-0.4450000000000003,100.0,28.131,27.932,42.92,42.978,0.0,0.0,100.0,0.0,0.0,0.0,0.0,2987.5,3090.0,3953.5,4122.9,305.6805,304.9936666666667,315.202,314.6675,21.9089,20.5861,21.9178,21.4421,314.999998,314.999998,324.999988,324.999988,99.55897142857143,99.50733333333334,99.56748571428571,99.54742857142857,0.1080000000000001,-0.029249999999999998,-0.0886,0.13219999999999998,-0.041666666666671404,-0.06333333333333258,1.558,1.5314999999999999,37.931,29.663,37.986999999999995,35.013,56.08,35.0125,59.715,52.5685,54.013,34.153,58.301,50.885999999999996,53.176,33.704499999999996,58.224000000000004,50.291666666666664,-0.11699999999999999,-0.04200000000000026,0.10219,0.11023500000000001,0.0,211.45499999999998,211.49,208.37333333333333,208.37333333333333,0.0,0.0
15,0.0,0.0,0.0,1.0,1.0,0.0,0.0,1.0,0.0,100.0,1.0,1.1856,26.0,0.0,0.0,0.0,59.999996,0.0,26.0,26.0,26.0,26.0,0.03237500000000004,0.26990000000000003,0.0032666666666666664,292.664,-2.6896,-2.6815714285714285,-1.5803500000000001,-1.5626,-225.74,215.4,190.684,0.0,0.0,0.0,0.0,0.030633333333333332,-5.498166666666667,-5.498166666666667,-0.546,0.19499999999999995,0.03122222222222204,0.585,67.663,0.0129,-0.21435,-0.39999999999999947,100.0,1.0,1.0,208.73333333333335,0.0,0.0,0.0,0.0,0.0,0.0,0.0,8847.4,0.0,55.0,5.0,243.55666666666667,1.0,0.0,0.0,0.0,0.0,0.0,1.0,0.0,0.7530000000000001,0.7530000000000001,0.0,0.0,1.0,55.0,616.79921,10000.0,85.000001,85.000001,85.000001,85.000001,395.0,0.0,0.0,0.0,1.0,333.33500000000004,52.504999999999995,52.504999999999995,48.004,48.004,34.0,-21.794999999999998,25.125999999999998,-27.18333333333333,30.7925,0.0,1782.756,-0.3299999999999983,100.0,28.059,27.971,42.758,43.019999999999996,0.0,0.0,100.0,0.0,0.0,0.0,0.0,2970.25,3108.4,4035.5,4196.8,305.733,304.9243333333333,315.012,314.463,21.9179,20.5912,21.927599999999998,21.4507,314.999998,314.999998,324.999988,324.999988,99.55898571428571,99.50733333333334,99.56762857142857,99.54757142857143,0.10149999999999992,-0.036250000000000004,-0.08940000000000001,0.1408,-0.03499999999999659,-0.051666666666669414,1.523,1.516,37.986999999999995,29.695,38.048,35.067,56.068,35.0485,59.7485,52.626,54.001000000000005,34.186,58.332499999999996,50.9415,53.164,33.736000000000004,58.253,50.346000000000004,-0.10349999999999993,-0.052000000000000046,0.09974000000000001,0.113485,0.0,211.88,211.9,208.73333333333335,208.73333333333335,0.0,0.0
16,0.0,0.0,0.0,1.0,1.0,0.0,0.0,1.0,0.0,100.0,1.0,1.1856,26.0,0.0,0.0,0.0,59.999996,0.0,26.0,26.0,26.0,26.0,0.03849999999999998,0.27270000000000016,0.0076,292.419,-2.7477,-2.6275714285714287,-1.55535,-1.5635000000000001,-222.29,215.39499999999998,190.661875,0.0,0.0,0.0,0.0,0.032633333333333334,-5.498166666666667,-5.498166666666667,-0.5564,-0.3863333333333332,0.01677777777777778,-1.0669999999999997,67.803,0.013300000000000001,-0.22740000000000002,-0.18599999999999994,100.0,1.0,1.0,209.14,0.0,0.0,0.0,0.0,0.0,0.0,0.0,8864.6,0.0,55.0,5.0,244.06333333333333,0.0,0.0,0.0,0.0,0.0,0.0,1.0,0.0,0.8039999999999985,0.8039999999999985,0.0,0.0,0.0,55.0,616.79921,10000.0,85.000001,85.000001,85.000001,85.000001,395.0,0.0,0.0,0.0,1.0,166.665,52.094,52.094,47.684,47.684,34.0,-24.27,24.869999999999997,-27.733333333333334,29.255,0.0,1782.706,-0.3150000000000013,100.0,27.881,28.229,42.946,43.287,0.0,0.0,100.0,0.0,0.0,0.0,0.0,3207.125,3148.2,4111.125,4043.2,305.2515,304.6863333333333,314.867,314.745,21.9274,20.5968,21.9382,21.4599,314.999998,314.999998,324.999988,324.999988,99.559,99.50733333333334,99.56777142857143,99.54772857142858,0.09824999999999995,-0.042749999999999955,-0.096,0.13440000000000002,-0.036666666666668846,-0.051666666666669414,1.528,1.5154999999999998,38.046,29.7295,38.114000000000004,35.1245,56.054,35.087,59.787,52.6875,53.988,34.2215,58.368,51.0005,53.149,33.769999999999996,58.2855,50.403999999999996,-0.10549999999999993,-0.05750000000000011,0.10434,0.11003500000000001,0.0,212.285,212.31,209.14,209.14,0.0,0.0
17,0.0,0.0,0.0,1.0,1.0,0.0,0.0,1.0,0.0,100.0,1.0,1.1856,26.0,0.0,0.0,0.0,59.999996,0.0,26.0,26.0,26.0,26.0,0.03475000000000006,0.2841,0.041600000000000005,292.191,-2.6224,-2.711,-1.50625,-1.5224,-218.62,215.39,190.638375,0.0,0.0,0.0,0.0,0.03476666666666667,-5.498166666666667,-5.498166666666667,-0.5524,0.20266666666666666,-0.0024444444444444713,-0.9159999999999999,67.95,0.0135,-0.220725,-0.1899999999999995,100.0,1.0,1.0,209.54000000000002,0.0,0.0,0.0,0.0,0.0,0.0,0.0,8881.7,0.0,55.0,5.0,244.59333333333336,1.0,0.0,0.0,0.0,0.0,0.0,1.0,0.0,0.8580000000000005,0.8580000000000005,0.0,0.0,1.0,55.0,616.79921,10000.0,85.000001,85.000001,85.000001,85.000001,395.0,0.0,0.0,0.0,1.0,166.665,52.063,52.063,47.394,47.394,34.0,-23.009999999999998,24.846,-28.596666666666668,29.3,0.0,1782.65,-0.19500000000000028,100.0,28.153,28.375,42.962,43.29,0.0,0.0,100.0,0.0,0.0,0.0,0.0,3132.875,3057.1,4238.5,4231.1,305.3505,304.8163333333333,314.569,314.36925,21.9375,20.6027,21.9493,21.4696,314.999998,314.999998,324.999988,324.999988,99.55901428571428,99.50735,99.56792857142857,99.54787142857143,0.0887500000000001,-0.04574999999999996,-0.1042,0.115,-0.06333333333333258,-0.041666666666671404,1.508,1.492,38.108999999999995,29.7665,38.183,35.185,56.042,35.1285,59.826,52.751,53.974999999999994,34.26,58.4045,51.062,53.135999999999996,33.807,58.3185,50.464,-0.09549999999999992,-0.059499999999999886,0.10795500000000001,0.10357500000000001,0.0,212.785,212.78,209.54000000000002,209.54000000000002,0.0,0.0
18,0.0,0.0,0.0,1.0,1.0,0.0,0.0,1.0,0.0,100.0,1.0,1.1856,26.0,0.0,0.0,0.0,59.999996,0.0,26.0,26.0,26.0,26.0,0.016874999999999973,0.28049999999999997,0.038400000000000004,292.175,-2.63965,-2.7418571428571425,-1.5364,-1.4871,-215.56,215.3875,190.618625,0.0,0.0,0.0,0.0,0.03656666666666667,-5.498166666666667,-5.498166666666667,-0.5622,-0.3503333333333334,0.0013333333333331865,0.7210000000000001,68.07300000000001,0.0086,-0.22655,-0.1120000000000001,100.0,1.0,1.0,209.91,0.0,0.0,0.0,0.0,0.0,0.0,0.0,8897.3,0.0,55.0,5.0,245.03333333333336,0.0,0.0,0.0,0.0,0.0,0.0,1.0,0.0,0.9029999999999987,0.9029999999999987,0.0,0.0,0.0,55.0,616.79921,10000.0,85.000001,85.000001,85.000001,85.000001,395.0,0.0,0.0,0.0,1.0,333.33500000000004,52.048,52.048,47.485,47.485,34.0,-22.53,26.122,-27.806666666666665,30.087500000000002,0.0,1782.605,-0.21499999999999986,100.0,28.213,28.115000000000002,43.15,43.283,0.0,0.0,100.0,0.0,0.0,0.0,0.0,3081.625,3185.2,4099.25,4309.3,305.404,304.6263333333333,314.79125,314.22525,21.9458,20.6074,21.9585,21.4777,314.999998,314.999998,324.999988,324.999988,99.55901428571428,99.50735,99.56805714285714,99.548,0.09624999999999995,-0.044749999999999956,-0.0994,0.12819999999999998,-0.054999999999999716,-0.03499999999999659,1.5030000000000001,1.4955000000000003,38.161,29.7965,38.241,35.236,56.028999999999996,35.162,59.859,52.805,53.964,34.291,58.4355,51.114,53.123,33.8365,58.3465,50.515,-0.09499999999999997,-0.06400000000000006,0.10711000000000001,0.11133000000000001,0.0,213.135,213.125,209.91,209.91,0.0,0.0
19,0.0,0.0,0.0,1.0,1.0,0.0,0.0,1.0,0.0,100.0,1.0,1.1856,26.0,0.0,0.0,0.0,59.999996,0.0,26.0,26.0,26.0,26.0,0.027875000000000094,0.2673000000000001,0.03333333333333333,292.038,-2.63965,-2.7098571428571425,-1.534,-1.6108,-211.88,215.385,190.5945,0.0,0.0,0.0,0.0,0.038700000000000005,-5.498166666666667,-5.498166666666667,-0.5541,0.5736666666666667,0.00855555555555565,0.6920000000000002,68.218,0.0039000000000000003,-0.2185,-0.1200000000000001,100.0,1.0,1.0,210.37333333333333,0.0,0.0,0.0,0.0,0.0,0.0,0.0,8917.0,0.0,55.0,5.0,245.55666666666667,1.0,0.0,0.0,0.0,0.0,0.0,1.0,0.0,0.9570000000000007,0.9570000000000007,0.0,0.0,1.0,55.0,616.79921,10000.0,85.000001,85.000001,85.000001,85.000001,395.0,0.0,0.0,0.0,1.0,166.665,51.772999999999996,51.772999999999996,47.653,47.653,34.0,-22.607499999999998,24.887999999999998,-27.576666666666668,30.8075,0.0,1782.551,-0.15500000000000114,100.0,28.734,28.479,43.118,43.344,0.0,0.0,100.0,0.0,0.0,0.0,0.0,3066.125,3114.0,4110.5,4247.4,305.4095,304.86033333333336,314.8275,314.3095,21.956,20.6134,21.9696,21.4874,314.999998,314.999998,324.999988,324.999988,99.55904285714286,99.50736666666667,99.5682,99.54815714285715,0.09275000000000011,-0.050999999999999934,-0.096,0.1178,-0.03833333333332689,-0.041666666666671404,1.5110000000000001,1.509,38.224999999999994,29.8335,38.31,35.2965,56.016999999999996,35.204499999999996,59.897,52.869,53.952,34.33,58.4705,51.1755,53.111,33.874,58.379,50.57533333333333,-0.09949999999999992,-0.06899999999999995,0.100805,0.10595,0.0,213.615,213.62,210.37333333333333,210.37333333333333,0.0,0.0
20,0.0,0.0,0.0,1.0,1.0,0.0,0.0,1.0,0.0,100.0,1.0,1.1856,26.0,0.0,0.0,0.0,59.999996,0.0,26.0,26.0,26.0,26.0,0.017249999999999988,0.25860000000000016,-0.0004,292.099,-2.6908,-2.6488571428571426,-1.5183499999999999,-1.5967,-208.6,215.3825,190.573375,0.0,0.0,0.0,0.0,0.040600000000000004,-5.498166666666667,-5.498166666666667,-0.559,-0.8443333333333334,0.006999999999999895,0.40700000000000003,68.348,0.0043,-0.230025,-0.047999999999999154,100.0,1.0,1.0,210.74333333333334,0.0,0.0,0.0,0.0,0.0,0.0,0.0,8932.6,0.0,55.0,5.0,246.02666666666664,0.0,0.0,0.0,0.0,0.0,0.0,0.0,0.0,1.004999999999999,1.004999999999999,0.0,0.0,0.0,55.0,616.79921,10000.0,85.000001,85.000001,85.000001,85.000001,395.0,0.0,0.0,0.0,1.0,166.665,52.094,52.094,47.226,47.226,34.0,-22.919999999999998,24.234,-27.79,29.927500000000002,0.0,1782.504,-0.09999999999999787,100.0,28.504,28.291,43.629,43.730000000000004,0.0,0.0,100.0,0.0,0.0,0.0,0.0,3023.125,3130.5,4097.5,4104.3,305.6465,304.944,314.8055,314.62275,21.9648,20.6186,21.9796,21.4962,314.999998,314.999998,324.999988,324.999988,99.55904285714286,99.50736666666667,99.56834285714285,99.5483,0.0847500000000001,-0.05325000000000002,-0.1036,0.1258,-0.03999999999999915,-0.046666666666666856,1.4986666666666668,1.4865,38.28,29.866,38.372,35.3515,56.004000000000005,35.2405,59.934,52.9275,53.939,34.3635,58.504999999999995,51.2315,53.097,33.9065,58.4105,50.63033333333333,-0.08699999999999997,-0.07200000000000006,0.10897000000000001,0.110295,0.0,213.97,213.97,210.74333333333334,210.74333333333334,0.0,0.0
21,0.0,0.0,0.0,1.0,1.0,0.0,0.0,1.0,0.0,100.0,1.0,1.1856,26.0,0.0,0.0,0.0,59.999996,0.0,26.0,26.0,26.0,26.0,-0.00275000000000003,0.2683,-0.06573333333333334,292.267,-2.70735,-2.6594285714285717,-1.5665499999999999,-1.5362,-205.32,215.38,190.55175,0.0,0.0,0.0,0.0,0.0425,-5.498166666666667,-5.498166666666667,-0.5802,0.0016666666666665941,-0.0012222222222222356,0.4710000000000001,68.474,-0.0011,-0.231625,0.02799999999999958,100.0,1.0,1.0,211.25666666666666,0.0,0.0,0.0,0.0,0.0,0.0,0.0,8954.4,0.0,55.0,5.0,246.48000000000002,1.0,0.0,0.0,0.0,0.0,0.0,0.0,0.0,1.0530000000000008,1.0530000000000008,0.0,0.0,1.0,55.0,616.79921,10000.0,85.000001,85.000001,85.000001,85.000001,395.0,0.0,0.0,0.0,1.0,166.665,51.849000000000004,51.849000000000004,47.897,47.897,34.0,-24.195,24.844,-27.64,27.767500000000002,0.0,1782.456,-0.19000000000000128,100.0,28.553,28.301000000000002,43.278,43.365,0.0,0.0,100.0,0.0,0.0,0.0,0.0,3147.625,3160.7,4017.125,4035.4,305.2715,304.844,315.09975,314.91625,21.9738,20.6238,21.9893,21.5047,314.999998,314.999998,324.999988,324.999988,99.55905714285714,99.50736666666667,99.56848571428571,99.54842857142857,0.08450000000000002,-0.04799999999999993,-0.1082,0.1202,-0.03999999999999915,-0.03499999999999659,1.5536666666666668,1.561,38.336,29.8985,38.433,35.4045,55.991,35.2775,59.967,52.9815,53.927,34.3975,58.5355,51.284,53.084,33.939,58.438,50.681333333333335,-0.09799999999999986,-0.06450000000000022,0.10076,0.11729500000000001,0.0,214.39499999999998,214.37,211.25666666666666,211.25666666666666,0.0,0.0
22,0.0,0.0,0.0,1.0,1.0,0.0,0.0,1.0,0.0,100.0,1.0,1.1856,26.0,0.0,0.0,0.0,59.999996,0.0,26.0,26.0,26.0,26.0,-0.008124999999999938,0.268,-0.009933333333333334,291.809,-2.7511,-2.6551428571428572,-1.6008,-1.5356,-201.82,215.3775,190.528,0.0,0.0,0.0,0.0,0.044533333333333334,-5.498166666666667,-5.498166666666667,-0.5633,0.133,0.004666666666666597,-0.5,68.612,-0.0066,-0.207425,-0.043999999999999595,100.0,1.0,1.0,211.51333333333332,0.0,0.0,0.0,0.0,0.0,0.0,0.0,8965.3,0.0,55.0,5.0,246.97333333333336,0.0,0.0,0.0,0.0,0.0,0.0,0.0,0.0,1.1039999999999992,1.1039999999999992,0.0,0.0,0.0,55.0,616.79921,10000.0,85.000001,85.000001,85.000001,85.000001,395.0,0.0,0.0,0.0,1.0,333.33500000000004,51.941,51.941,46.951,46.951,34.0,-24.455,23.83,-32.016666666666666,29.6575,0.0,1782.404,-0.33999999999999986,100.0,28.534,28.545,43.377,43.534,0.0,0.0,100.0,0.0,0.0,0.0,0.0,3144.0,3070.9,4341.25,4350.5,305.4605,305.00333333333333,314.377,314.10175,21.9833,20.6293,21.9998,21.5139,314.999998,314.999998,324.999988,324.999988,99.55907142857143,99.50738333333334,99.56862857142858,99.54857142857144,0.08224999999999993,-0.05525000000000002,-0.1242,0.09820000000000001,-0.03999999999999915,-0.03833333333332689,1.4773333333333334,1.4725000000000001,38.394999999999996,29.933500000000002,38.498999999999995,35.462,55.979,35.317,60.0045,53.042500000000004,53.915,34.434,58.571,51.3425,53.071,33.974000000000004,58.47,50.73833333333333,-0.10650000000000004,-0.052999999999999936,0.11264,0.10088000000000001,0.0,214.825,214.81,211.51333333333332,211.51333333333332,0.0,0.0
23,0.0,0.0,0.0,1.0,1.0,0.0,0.0,1.0,0.0,100.0,1.0,1.1856,26.0,0.0,0.0,0.0,59.999996,0.0,26.0,26.0,26.0,26.0,0.010750000000000037,0.26960000000000006,0.011600000000000001,291.702,-2.64665,-2.686428571428572,-1.6338,-1.5170000000000001,-198.12,215.375,190.503125,0.0,0.0,0.0,0.0,0.046700000000000005,-5.498166666666667,-5.498166666666667,-0.5778,-0.19566666666666688,-0.0023333333333335204,-0.5230000000000001,68.754,0.0001,-0.2323,-0.09399999999999942,100.0,1.0,1.0,212.0,0.0,0.0,0.0,0.0,0.0,0.0,0.0,8986.0,0.0,55.0,5.0,247.48666666666668,1.0,0.0,0.0,0.0,0.0,0.0,0.0,0.0,1.1580000000000013,1.1580000000000013,0.0,0.0,1.0,55.0,616.79921,10000.0,85.000001,85.000001,85.000001,85.000001,395.0,0.0,0.0,0.0,1.0,166.665,51.559,51.559,47.226,47.226,34.0,-24.4875,23.61,-30.85,28.490000000000002,0.0,1782.351,-0.245000000000001,100.0,28.744,28.617,43.621,43.785,0.0,0.0,100.0,0.0,0.0,0.0,0.0,3253.875,3049.9,4274.5,4155.8,304.997,304.96566666666666,314.56525,314.58075,21.9934,20.6353,22.011,21.5238,314.999998,314.999998,324.999988,324.999988,99.55908571428571,99.5074,99.56878571428571,99.54874285714286,0.08499999999999996,-0.06574999999999998,-0.1072,0.1154,-0.045000000000001705,-0.04333333333332945,1.5,1.5255,38.458,29.9705,38.569,35.5235,55.966,35.359,60.0445,53.107,53.903,34.473,58.608000000000004,51.4045,53.058,34.0115,58.504,50.799,-0.10050000000000003,-0.06550000000000011,0.102355,0.10931,0.0,215.245,215.245,212.0,212.0,0.0,0.0
24,0.0,0.0,0.0,1.0,1.0,0.0,0.0,1.0,0.0,100.0,1.0,1.1856,26.0,0.0,0.0,0.0,59.999996,0.0,26.0,26.0,26.0,26.0,0.016874999999999973,0.2722,-0.0431,292.099,-2.67315,-2.6632857142857143,-1.54825,-1.5634000000000001,-195.01999999999998,215.3725,190.481875,0.0,0.0,0.0,0.0,0.0485,-5.498166666666667,-5.498166666666667,-0.5896,-0.4546666666666668,0.013555555555555543,0.8659999999999997,68.873,0.0014,-0.22687500000000002,-0.1639999999999997,100.0,1.0,1.0,212.37666666666667,0.0,0.0,0.0,0.0,0.0,0.0,0.0,9001.9,0.0,55.0,5.0,247.91666666666666,0.0,0.0,0.0,0.0,0.0,0.0,0.0,0.0,1.2029999999999994,1.2029999999999994,0.0,0.0,0.0,55.0,616.79921,10000.0,85.000001,85.000001,85.000001,85.000001,395.0,0.0,0.0,0.0,1.0,333.33500000000004,52.216,52.216,47.241,47.241,34.0,-22.0925,24.055999999999997,-28.67666666666667,29.4025,0.0,1782.304,-0.259999999999998,100.0,28.694,28.387,43.617000000000004,43.65,0.0,0.0,100.0,0.0,0.0,0.0,0.0,2957.0,3044.1,4136.375,4159.4,305.829,305.18733333333336,314.743,314.57475,22.0017,20.6401,22.0202,21.5319,314.999998,314.999998,324.999988,324.999988,99.55908571428571,99.5074,99.56891428571429,99.54887142857143,0.08775,-0.04299999999999993,-0.109,0.1194,-0.03499999999999659,-0.045000000000001705,1.523,1.5194999999999999,38.51,30.000500000000002,38.626000000000005,35.5745,55.954,35.391999999999996,60.076,53.159,53.891,34.5035,58.6375,51.454499999999996,53.045,34.0405,58.5305,50.848333333333336,-0.10050000000000003,-0.0535000000000001,0.10953,0.10890500000000002,0.0,215.60000000000002,215.61,212.37666666666667,212.37666666666667,0.0,0.0
25,0.0,0.0,0.0,1.0,1.0,0.0,0.0,1.0,0.0,100.0,1.0,1.1856,26.0,0.0,0.0,0.0,59.999996,0.0,26.0,26.0,26.0,26.0,0.021374999999999922,0.2662,-0.03246666666666667,291.702,-2.7325,-2.6415714285714285,-1.59135,-1.5592000000000001,-191.5,215.3725,190.4565,0.0,0.0,0.0,0.0,0.05053333333333333,-5.498166666666667,-5.498166666666667,-0.6116,0.018333333333333313,0.014888888888888951,-0.8780000000000001,69.006,0.0071,-0.22760000000000002,-0.1979999999999995,100.0,1.0,1.0,212.83666666666667,0.0,0.0,0.0,0.0,0.0,0.0,0.0,9021.3,0.0,55.0,5.0,248.39666666666665,1.0,0.0,0.0,0.0,0.0,0.0,0.0,0.0,1.2540000000000013,1.2540000000000013,0.0,0.0,1.0,55.0,616.79921,10000.0,85.000001,85.000001,85.000001,85.000001,395.0,0.0,0.0,0.0,1.0,166.665,51.071,51.071,47.546,47.546,34.0,-25.91,26.02,-28.186666666666667,28.765,0.0,1782.255,-0.23000000000000043,100.0,28.715,28.783,43.375,43.561,0.0,0.0,100.0,0.0,0.0,0.0,0.0,3352.75,3280.0,4064.625,4111.5,304.873,304.324,315.05425,314.673,22.0111,20.6457,22.0306,21.5411,314.999998,314.999998,324.999988,324.999988,99.5591,99.5074,99.56905714285715,99.54901428571429,0.08750000000000013,-0.04674999999999996,-0.1062,0.1176,-0.036666666666668846,-0.05666666666667197,1.559,1.5425,38.569,30.0355,38.691,35.6315,55.94,35.4315,60.111,53.2175,53.878,34.54,58.67,51.510999999999996,53.031,34.0755,58.56,50.903333333333336,-0.10549999999999993,-0.06199999999999983,0.10892500000000001,0.09830000000000001,0.0,216.01,216.04500000000002,212.83666666666667,212.83666666666667,0.0,0.0
26,0.0,0.0,0.0,1.0,1.0,0.0,0.0,1.0,0.0,100.0,1.0,1.1856,26.0,0.0,0.0,0.0,59.999996,0.0,26.0,26.0,26.0,26.0,0.022625000000000117,0.278,0.08443333333333335,290.939,-2.69405,-2.7251428571428575,-1.55355,-1.5617,-187.98000000000002,215.37,190.430875,0.0,0.0,0.0,0.0,0.052566666666666664,-5.498166666666667,-5.498166666666667,-0.5789000000000001,0.4623333333333334,0.006888888888888944,0.9820000000000002,69.142,0.0085,-0.21245,-0.19399999999999995,100.0,1.0,1.0,213.03333333333333,0.0,0.0,0.0,0.0,0.0,0.0,0.0,9029.7,0.0,55.0,5.0,248.88333333333333,0.0,0.0,0.0,0.0,0.0,0.0,0.0,0.0,1.3049999999999997,1.3049999999999997,0.0,0.0,0.0,55.0,616.79921,10000.0,85.000001,85.000001,85.000001,85.000001,395.0,0.0,0.0,0.0,1.0,333.33500000000004,51.102000000000004,51.102000000000004,46.326,46.326,34.0,-23.5775,25.195999999999998,-30.823333333333334,33.325,0.0,1782.202,-0.28500000000000014,100.0,29.43,29.072,43.903999999999996,43.938,0.0,0.0,100.0,0.0,0.0,0.0,0.0,3178.375,3109.9,4440.875,4539.0,305.1695,304.912,314.01275,313.676,22.0208,20.6515,22.0412,21.5504,314.999998,314.999998,324.999988,324.999988,99.55911428571429,99.50741666666667,99.56921428571428,99.54917142857143,0.10250000000000004,-0.04574999999999996,-0.0932,0.1252,-0.03166666666666629,-0.051666666666669414,1.4393333333333334,1.4409999999999998,38.629999999999995,30.072,38.757,35.6905,55.93,35.475,60.1525,53.283,53.867999999999995,34.5805,58.7085,51.574,53.019999999999996,34.114,58.595,50.965333333333334,-0.11099999999999999,-0.0625,0.10549000000000001,0.10947000000000001,0.0,216.46,216.48000000000002,213.03333333333333,213.03333333333333,0.0,0.0
27,0.0,0.0,0.0,1.0,1.0,0.0,0.0,1.0,0.0,100.0,1.0,1.1856,26.0,0.0,0.0,0.0,59.999996,0.0,26.0,26.0,26.0,26.0,0.02675000000000005,0.24490000000000012,-0.03206666666666667,291.534,-2.74145,-2.6632857142857143,-1.6141,-1.5432000000000001,-184.66,215.37,190.407875,0.0,0.0,0.0,0.0,0.0545,-5.498166666666667,-5.498166666666667,-0.6005,-0.9393333333333334,0.016999999999999904,0.35299999999999976,69.265,0.008400000000000001,-0.244625,-0.2239999999999993,100.0,1.0,1.0,213.56666666666666,0.0,0.0,0.0,0.0,0.0,0.0,0.0,9052.3,0.0,55.0,5.0,249.32999999999998,1.0,0.0,0.0,0.0,0.0,0.0,0.0,0.0,1.352999999999998,1.352999999999998,0.0,0.0,1.0,55.0,616.79921,10000.0,85.000001,85.000001,85.000001,85.000001,395.0,0.0,0.0,0.0,1.0,166.665,51.513999999999996,51.513999999999996,46.555,46.555,34.0,-22.7225,25.496000000000002,-28.663333333333334,28.8625,0.0,1782.157,-0.3000000000000007,100.0,29.018,28.938,44.256,44.326,0.0,0.0,100.0,0.0,0.0,0.0,0.0,3029.5,3200.3,4104.375,4093.9,305.713,304.691,314.8865,314.79475,22.0296,20.6568,22.0512,21.5593,314.999998,314.999998,324.999988,324.999988,99.55911428571429,99.50741666666667,99.56934285714286,99.5493,0.10000000000000009,-0.04349999999999998,-0.0968,0.125,-0.036666666666668846,-0.041666666666671404,1.5126666666666666,1.499,38.685,30.105,38.82,35.7455,55.918,35.51,60.186,53.337,53.857,34.6125,58.74,51.626,53.007999999999996,34.144999999999996,58.6235,51.016,-0.10699999999999998,-0.05750000000000011,0.10734,0.10268500000000001,0.0,216.8,216.815,213.56666666666666,213.56666666666666,0.0,0.0
28,0.0,0.0,0.0,1.0,1.0,0.0,0.0,1.0,0.0,100.0,1.0,1.1856,26.0,0.0,0.0,0.0,59.999996,0.0,26.0,26.0,26.0,26.0,0.03887499999999999,0.26370000000000005,-0.06430000000000001,291.595,-2.66985,-2.652,-1.62395,-1.5741,-181.12,215.37,190.3825,0.0,0.0,0.0,0.0,0.05656666666666667,-5.498166666666667,-5.498166666666667,-0.61,0.4956666666666667,-0.0012222222222222356,-0.6480000000000001,69.396,0.008700000000000001,-0.224425,-0.19200000000000017,100.0,1.0,1.0,214.04333333333335,0.0,0.0,0.0,0.0,0.0,0.0,0.0,9072.5,0.0,55.0,5.0,249.79666666666668,0.0,0.0,0.0,0.0,0.0,0.0,0.0,0.0,1.404,1.404,0.0,0.0,0.0,55.0,616.79921,10000.0,85.000001,85.000001,85.000001,85.000001,395.0,0.0,0.0,0.0,1.0,333.33500000000004,51.269999999999996,51.269999999999996,47.211,47.211,34.0,-23.162499999999998,24.658,-28.626666666666665,29.4975,0.0,1782.103,-0.34499999999999886,100.0,29.116,29.105,43.623000000000005,43.902,0.0,0.0,100.0,0.0,0.0,0.0,0.0,3163.125,3114.2,4151.25,4088.4,305.309,304.81933333333336,314.89275,314.77125,22.039,20.6625,22.0615,21.5684,314.999998,314.999998,324.999988,324.999988,99.55914285714286,99.50743333333334,99.5695,99.54944285714285,0.10149999999999992,-0.04625000000000001,-0.0916,0.1318,-0.030000000000001137,-0.05666666666667197,1.5446666666666666,1.5325000000000002,38.744,30.1405,38.884,35.8025,55.906,35.5495,60.2195,53.394,53.845,34.649,58.7705,51.681,52.995000000000005,34.18,58.6515,51.06966666666666,-0.10949999999999993,-0.05799999999999983,0.096865,0.11268,0.0,217.23000000000002,217.26,214.04333333333335,214.04333333333335,0.0,0.0
29,0.0,0.0,0.0,1.0,1.0,0.0,0.0,1.0,0.0,100.0,1.0,1.1856,26.0,0.0,0.0,0.0,59.999996,0.0,26.0,26.0,26.0,26.0,0.04400000000000004,0.2671000000000001,0.0015,291.367,-2.6447,-2.7131428571428575,-1.5702500000000001,-1.556,-177.57999999999998,215.37,190.356,0.0,0.0,0.0,0.0,0.05863333333333334,-5.498166666666667,-5.498166666666667,-0.6143000000000001,-0.7396666666666667,-0.001777777777777878,0.6150000000000002,69.53,0.010400000000000001,-0.22407500000000002,-0.33999999999999986,100.0,1.0,1.0,214.2866666666667,0.0,0.0,0.0,0.0,0.0,0.0,0.0,9082.8,0.0,55.0,5.0,250.28333333333336,1.0,0.0,0.0,0.0,0.0,0.0,0.0,0.0,1.4549999999999983,1.4549999999999983,0.0,0.0,1.0,55.0,616.79921,10000.0,85.000001,85.000001,85.000001,85.000001,395.0,0.0,0.0,0.0,1.0,166.665,51.544,51.544,46.555,46.555,34.0,-21.375,25.310000000000002,-29.186666666666667,31.425,0.0,1782.054,-0.40500000000000114,100.0,29.024,28.896,44.107,44.166,0.0,0.0,100.0,0.0,0.0,0.0,0.0,3045.5,3129.7,4173.0,4322.4,305.622,304.87533333333334,314.646,314.187,22.0482,20.6681,22.0721,21.5778,314.999998,314.999998,324.999988,324.999988,99.55915714285715,99.50743333333334,99.56964285714285,99.54958571428571,0.11549999999999994,-0.044499999999999984,-0.1014,0.12840000000000001,-0.03333333333333144,-0.051666666666669414,1.466,1.472,38.802,30.176000000000002,38.951,35.861,55.893,35.588,60.257999999999996,53.4555,53.833,34.6845,58.807,51.74,52.982,34.214,58.6845,51.127,-0.121,-0.058499999999999996,0.112875,0.10988500000000001,0.0,217.625,217.65,214.2866666666667,214.2866666666667,0.0,0.0
30,0.0,0.0,0.0,1.0,1.0,0.0,0.0,1.0,0.0,100.0,1.0,1.1856,26.0,0.0,0.0,0.0,59.999996,0.0,26.0,26.0,26.0,26.0,0.04412499999999997,0.25540000000000007,0.013433333333333335,290.649,-2.71615,-2.6394285714285717,-1.64275,-1.4716,-174.03,215.3725,190.3295,0.0,0.0,0.0,0.0,0.060700000000000004,-5.498166666666667,-5.498166666666667,-0.6119,1.0196666666666667,0.0016666666666667052,-0.22799999999999976,69.658,0.0151,-0.227975,-0.35799999999999965,100.0,1.0,1.0,214.78,0.0,0.0,0.0,0.0,0.0,0.0,0.0,9103.8,0.0,55.0,5.0,250.74333333333334,0.0,0.0,0.0,0.0,0.0,0.0,1.0,0.0,1.5060000000000002,1.5060000000000002,0.0,0.0,0.0,55.0,616.79921,10000.0,85.000001,85.000001,85.000001,85.000001,395.0,0.0,0.0,0.0,1.0,166.665,49.927,49.927,46.616,46.616,34.0,-25.2975,26.692,-30.049999999999997,29.625,0.0,1782.004,-0.384999999999998,100.0,29.704,29.735,43.879,44.228,0.0,0.0,100.0,0.0,0.0,0.0,0.0,3405.375,3301.9,4288.75,4263.0,304.5295,304.07166666666666,314.63225,314.49525,22.0579,20.6741,22.0826,21.5871,314.999998,314.999998,324.999988,324.999988,99.55917142857143,99.50743333333334,99.5698,99.54974285714286,0.1120000000000001,-0.04149999999999998,-0.091,0.13419999999999999,-0.045000000000001705,-0.03999999999999915,1.52,1.508,38.861999999999995,30.213,39.016,35.919,55.885,35.629999999999995,60.293,53.5145,53.825,34.7235,58.839,51.797,52.973,34.2515,58.713499999999996,51.18266666666666,-0.123,-0.053999999999999826,0.10564000000000001,0.10715000000000001,0.0,218.065,218.075,214.78,214.78,0.0,0.0
31,0.0,0.0,0.0,1.0,1.0,0.0,0.0,1.0,0.0,100.0,1.0,1.1856,26.0,0.0,0.0,0.0,59.999996,0.0,26.0,26.0,26.0,26.0,0.031749999999999945,0.2541,0.05933333333333334,290.421,-2.69055,-2.623285714285714,-1.6463,-1.5483,-170.47,215.375,190.303875,0.0,0.0,0.0,0.0,0.06276666666666667,-5.498166666666667,-5.498166666666667,-0.5920000000000001,-0.44399999999999995,0.012777777777777777,0.6280000000000001,69.791,0.0189,-0.229075,-0.3539999999999992,100.0,1.0,1.0,215.03,0.0,0.0,0.0,0.0,0.0,0.0,0.0,9114.3,0.0,55.0,5.0,251.22,1.0,0.0,0.0,0.0,0.0,0.0,1.0,0.0,1.5569999999999986,1.5569999999999986,0.0,0.0,1.0,55.0,616.79921,10000.0,85.000001,85.000001,85.000001,85.000001,395.0,0.0,0.0,0.0,1.0,166.665,50.552,50.552,45.441,45.441,34.0,-22.305,27.232,-30.556666666666665,33.0375,0.0,1781.95,-0.379999999999999,100.0,29.59,29.558,44.684,44.915,0.0,0.0,100.0,0.0,0.0,0.0,0.0,3082.625,3386.0,4288.0,4384.2,305.4075,304.214,314.35625,313.97475,22.0672,20.6799,22.0933,21.5967,314.999998,314.999998,324.999988,324.999988,99.55918571428572,99.50745,99.56994285714286,99.5499,0.11424999999999996,-0.032749999999999946,-0.0854,0.1442,-0.04333333333332945,-0.05333333333332746,1.4386666666666668,1.4285,38.92,30.249499999999998,39.083,35.979,55.873999999999995,35.670500000000004,60.332499999999996,53.5785,53.815,34.760999999999996,58.8765,51.8585,52.961,34.287,58.747,51.242666666666665,-0.11250000000000004,-0.05699999999999994,0.10600000000000001,0.11138500000000001,0.0,218.45499999999998,218.47500000000002,215.03,215.03,0.0,0.0
32,0.0,0.0,0.0,1.0,1.0,0.0,0.0,1.0,0.0,100.0,1.0,1.1856,26.0,0.0,0.0,0.0,59.999996,0.0,26.0,26.0,26.0,26.0,0.05787500000000012,0.2562,-0.034800000000000005,291.046,-2.6856,-2.678,-1.5852,-1.6276000000000002,-166.91,215.3775,190.278375,0.0,0.0,0.0,0.0,0.06483333333333334,-5.498166666666667,-5.498166666666667,-0.6144000000000001,-0.3660000000000001,-0.010777777777777775,-0.6749999999999998,69.918,0.022600000000000002,-0.23865,-0.3439999999999994,100.0,1.0,1.0,215.55333333333334,0.0,0.0,0.0,0.0,0.0,0.0,0.0,9136.5,0.0,55.0,5.0,251.68,0.0,0.0,0.0,0.0,0.0,0.0,1.0,0.0,1.6080000000000005,1.6080000000000005,0.0,0.0,0.0,55.0,616.79921,10000.0,85.000001,85.000001,85.000001,85.000001,395.0,0.0,0.0,0.0,1.0,166.665,51.041,51.041,46.539,46.539,34.0,-22.655,24.912,-27.46333333333333,31.517500000000002,0.0,1781.901,-0.379999999999999,100.0,29.359,29.568,44.414,44.771,0.0,0.0,100.0,0.0,0.0,0.0,0.0,3144.625,3098.8,4082.875,4191.6,305.3995,304.895,314.95625,314.452,22.0764,20.6856,22.1037,21.606,314.999998,314.999998,324.999988,324.999988,99.5592,99.50745,99.57008571428571,99.55004285714286,0.11224999999999996,-0.041999999999999926,-0.0852,0.1338,-0.041666666666671404,-0.036666666666668846,1.522,1.5005000000000002,38.977000000000004,30.285,39.147999999999996,36.0375,55.861999999999995,35.71,60.3675,53.637,53.803,34.7975,58.908500000000004,51.915,52.949,34.322,58.775999999999996,51.297666666666665,-0.11549999999999994,-0.05699999999999994,0.105215,0.101205,0.0,218.84,218.845,215.55333333333334,215.55333333333334,0.0,0.0
33,0.0,0.0,0.0,1.0,1.0,0.0,0.0,1.0,0.0,100.0,1.0,1.1856,26.0,0.0,0.0,0.0,59.999996,0.0,26.0,26.0,26.0,26.0,0.033500000000000085,0.25270000000000015,-0.07200000000000001,291.122,-2.71525,-2.685714285714286,-1.5939,-1.5908,-163.76,215.3825,190.254625,0.0,0.0,0.0,0.0,0.06666666666666667,-5.498166666666667,-5.498166666666667,-0.6239,-0.21133333333333337,-0.008222222222222353,0.6500000000000004,70.032,0.022500000000000003,-0.22510000000000002,-0.31599999999999984,100.0,1.0,1.0,215.90333333333334,0.0,0.0,0.0,0.0,0.0,0.0,0.0,9151.3,0.0,55.0,5.0,252.08666666666664,1.0,0.0,0.0,0.0,0.0,0.0,1.0,0.0,1.6529999999999987,1.6529999999999987,0.0,0.0,1.0,55.0,616.79921,10000.0,85.000001,85.000001,85.000001,85.000001,395.0,0.0,0.0,0.0,1.0,166.665,51.117,51.117,46.661,46.661,34.0,-22.685,24.898,-28.42666666666667,31.1575,0.0,1781.857,-0.4299999999999997,100.0,29.387,29.424,44.266999999999996,44.528,0.0,0.0,100.0,0.0,0.0,0.0,0.0,3119.75,3087.3,4116.625,4217.4,305.438,304.9963333333333,314.88775,314.49075,22.0845,20.6906,22.1129,21.6142,314.999998,314.999998,324.999988,324.999988,99.55921428571429,99.50745,99.57021428571429,99.55018571428572,0.11424999999999996,-0.03974999999999995,-0.09640000000000001,0.1358,-0.051666666666669414,-0.03999999999999915,1.5233333333333334,1.512,39.028,30.316499999999998,39.206,36.088499999999996,55.852000000000004,35.743,60.397999999999996,53.6885,53.794,34.828,58.937,51.9645,52.938,34.3515,58.802,51.346000000000004,-0.11349999999999993,-0.053999999999999826,0.11701500000000001,0.099555,0.0,219.2,219.195,215.90333333333334,215.90333333333334,0.0,0.0
34,0.0,0.0,0.0,1.0,1.0,0.0,0.0,1.0,0.0,100.0,1.0,1.1856,26.0,0.0,0.0,0.0,59.999996,0.0,26.0,26.0,26.0,26.0,0.03762500000000002,0.2612000000000001,-0.08973333333333335,291.229,-2.65015,-2.670714285714286,-1.6277,-1.5309000000000001,-159.98000000000002,215.3875,190.224875,0.0,0.0,0.0,0.0,0.06886666666666666,-5.498166666666667,-5.498166666666667,-0.6557000000000001,-0.9896666666666667,0.01288888888888895,0.4980000000000002,70.169,0.025900000000000003,-0.23440000000000003,-0.4079999999999995,100.0,1.0,1.0,216.2733333333333,0.0,0.0,0.0,0.0,0.0,0.0,0.0,9167.0,0.0,55.0,5.0,252.58333333333334,0.0,0.0,0.0,0.0,0.0,0.0,1.0,0.0,1.7070000000000007,1.7070000000000007,0.0,0.0,0.0,55.0,616.79921,10000.0,85.000001,85.000001,85.000001,85.000001,395.0,0.0,0.0,0.0,1.0,166.665,51.407,51.407,46.814,46.814,34.0,-20.93,25.066000000000003,-28.35333333333333,30.6625,0.0,1781.803,-0.3999999999999986,100.0,29.32,29.318,44.181,44.685,0.0,0.0,100.0,0.0,0.0,0.0,0.0,3027.625,3074.8,4127.5,4234.0,305.722,305.156,314.88075,314.43825,22.0942,20.6965,22.1239,21.6241,314.999998,314.999998,324.999988,324.999988,99.55922857142858,99.50746666666667,99.57038571428572,99.55034285714285,0.123,-0.026000000000000023,-0.0836,0.1384,-0.03333333333333144,-0.05666666666667197,1.5093333333333332,1.504,39.089,30.3535,39.275,36.1505,55.839,35.7815,60.435,53.752,53.781,34.8635,58.971000000000004,52.025999999999996,52.924,34.3855,58.832,51.406,-0.119,-0.052999999999999936,0.10577,0.101135,0.0,219.57999999999998,219.625,216.2733333333333,216.2733333333333,0.0,0.0
35,0.0,0.0,0.0,1.0,1.0,0.0,0.0,1.0,0.0,100.0,1.0,1.1856,26.0,0.0,0.0,0.0,59.999996,0.0,26.0,26.0,26.0,26.0,0.056624999999999925,0.24560000000000004,-0.07426666666666666,291.016,-2.78415,-2.642857142857143,-1.5397,-1.5884,-156.39,215.39249999999998,190.19475,0.0,0.0,0.0,0.0,0.07093333333333333,-5.498166666666667,-5.498166666666667,-0.6930000000000001,0.058666666666666645,-0.007777777777777661,-1.21,70.295,0.028900000000000002,-0.2434,-0.32399999999999984,100.0,1.0,1.0,216.75333333333333,0.0,0.0,0.0,0.0,0.0,0.0,0.0,9187.3,0.0,55.0,5.0,253.03333333333336,1.0,0.0,0.0,0.0,0.0,0.0,1.0,0.0,1.7579999999999991,1.7579999999999991,0.0,0.0,1.0,55.0,616.79921,10000.0,85.000001,85.000001,85.000001,85.000001,395.0,0.0,0.0,0.0,1.0,166.665,50.522,50.522,46.448,46.448,34.0,-24.15,26.802,-27.189999999999998,30.22,0.0,1781.752,-0.18499999999999872,100.0,29.296,29.811,43.922,44.212,0.0,0.0,100.0,0.0,0.0,0.0,0.0,3183.0,3354.2,4151.875,4094.3,305.3035,304.06533333333334,314.90325,314.841,22.1033,20.7024,22.1343,21.6333,314.999998,314.999998,324.999988,324.999988,99.55924285714286,99.50746666666667,99.57052857142857,99.55048571428571,0.10725000000000007,-0.04674999999999996,-0.0856,0.1432,-0.03333333333333144,-0.051666666666669414,1.5466666666666666,1.5385,39.144999999999996,30.39,39.339,36.208,55.826,35.822,60.468,53.808,53.768,34.9015,59.001999999999995,52.08,52.911,34.422,58.86,51.458666666666666,-0.10399999999999987,-0.07450000000000001,0.10731,0.10372,0.0,219.985,220.03,216.75333333333333,216.75333333333333,0.0,0.0
36,0.0,0.0,0.0,1.0,1.0,0.0,0.0,1.0,0.0,100.0,1.0,1.1856,26.0,0.0,0.0,0.0,59.999996,0.0,26.0,26.0,26.0,26.0,0.04112500000000008,0.25270000000000015,0.04446666666666667,290.512,-2.6301,-2.7075714285714283,-1.65005,-1.5989,-153.23,215.4,190.167375,0.0,0.0,0.0,0.0,0.07276666666666666,-5.498166666666667,-5.498166666666667,-0.6714,0.254,-0.045111111111111324,0.23299999999999965,70.40899999999999,0.024300000000000002,-0.22,-0.16999999999999993,100.0,1.0,1.0,216.91333333333333,0.0,0.0,0.0,0.0,0.0,0.0,0.0,9194.1,0.0,55.0,5.0,253.44666666666666,0.0,0.0,0.0,0.0,0.0,0.0,1.0,0.0,1.8030000000000008,1.8030000000000008,0.0,0.0,0.0,55.0,616.79921,10000.0,85.000001,85.000001,85.000001,85.000001,395.0,0.0,0.0,0.0,1.0,333.33500000000004,50.735,50.735,46.021,46.021,34.0,-21.6375,25.34,-31.433333333333334,35.072500000000005,0.0,1781.704,-0.14999999999999858,100.0,29.762999999999998,29.647,44.243,44.482,0.0,0.0,100.0,0.0,0.0,0.0,0.0,3078.75,3120.3,4405.25,4506.5,305.314,304.83866666666665,314.16925,313.8165,22.1115,20.7076,22.1436,21.6416,314.999998,314.999998,324.999988,324.999988,99.55925714285715,99.50748333333334,99.57065714285714,99.55061428571429,0.11875000000000013,-0.04299999999999993,-0.084,0.1502,-0.041666666666671404,-0.03999999999999915,1.4413333333333334,1.431,39.197,30.4225,39.397,36.26,55.817,35.858000000000004,60.5005,53.862,53.76,34.9345,59.0325,52.132,52.902,34.4535,58.8875,51.50933333333333,-0.10250000000000004,-0.07399999999999984,0.10865000000000001,0.11560000000000001,0.0,220.375,220.39,216.91333333333333,216.91333333333333,0.0,0.0
