,ABS Active,ABS Enabled,AID Allow Tire Blankets,AID Auto Blip,AID Auto Clutch,AID Auto Shift,AID Fuel Rate,AID Ideal Line,AID Mech Damage,AID Stability,AID Tire Wear Rate,Air Density,Air Temp,Ballast,Best Lap Delta,Best Lap Time,Brake Bias,Brake Pos,Brake Temp FL,Brake Temp FR,Brake Temp RL,Brake Temp RR,CG Accel Lateral,CG Accel Longitudinal,CG Accel Vertical,CG Height,Camber FL,Camber FR,Camber RL,Camber RR,Car Coord X,Car Coord Y,Car Coord Z,Car Damage Front,Car Damage Left,Car Damage Rear,Car Damage Right,Car Pos Norm,Caster FL,Caster FR,Chassis Pitch Angle,Chassis Pitch Rate,Chassis Roll Angle,Chassis Roll Rate,Chassis Velocity X,Chassis Velocity Y,Chassis Velocity Z,Chassis Yaw Rate,Clutch Pos,DRS Active,DRS Available,Drive Train Speed,ERS Heat Charging,ERS Is Charging,ERS Max Energy,ERS Power Level,ERS Recovery Level,Engine Brake Setting,Engine Limiter,Engine RPM,Flags,Fuel Level,Gear,Ground Speed,HR Sample Clock,In Pit,KERS Charge,KERS Deployed Energy,KERS Input,KERS Max Energy,LR Sample Clock,Lap Invalidated,Lap Time,Lap Time2,Last Lap Time,Last Sector Time,MR Sample Clock,Max Fuel,Max Power,Max RPM,Max Sus Travel FL,Max Sus Travel FR,Max Sus Travel RL,Max Sus Travel RR,Max Torque,Max Turbo Boost,Num Tires Off Track,Penalties Enabled,Position,Raw Data Sample Rate,Ride Height FL,Ride Height FR,Ride Height RL,Ride Height RR,Road Temp,Self Align Torque FL,Self Align Torque FR,Self Align Torque RL,Self Align Torque RR,Session Lap Count,Session Time Left,Steering Angle,Surface Grip,Suspension Travel FL,Suspension Travel FR,Suspension Travel RL,Suspension Travel RR,TC Active,TC Enabled,Throttle Pos,Tire Dirt Level FL,Tire Dirt Level FR,Tire Dirt Level RL,Tire Dirt Level RR,Tire Load FL,Tire Load FR,Tire Load RL,Tire Load RR,Tire Loaded Radius FL,Tire Loaded Radius FR,Tire Loaded Radius RL,Tire Loaded Radius RR,Tire Pressure FL,Tire Pressure FR,Tire Pressure RL,Tire Pressure RR,Tire Radius FL,Tire Radius FR,Tire Radius RL,Tire Radius RR,Tire Rubber Grip FL,Tire Rubber Grip FR,Tire Rubber Grip RL,Tire Rubber Grip RR,Tire Slip Angle FL,Tire Slip Angle FR,Tire Slip Angle RL,Tire Slip Angle RR,Tire Slip Ratio FL,Tire Slip Ratio FR,Tire Slip Ratio RL,Tire Slip Ratio RR,Tire Temp Core FL,Tire Temp Core FR,Tire Temp Core RL,Tire Temp Core RR,Tire Temp Inner FL,Tire Temp Inner FR,Tire Temp Inner RL,Tire Temp Inner RR,Tire Temp Middle FL,Tire Temp Middle FR,Tire Temp Middle RL,Tire Temp Middle RR,Tire Temp Outer FL,Tire Temp Outer FR,Tire Temp Outer RL,Tire Temp Outer RR,Toe In FL,Toe In FR,Toe In RL,Toe In RR,Turbo Boost,Wheel Angular Speed FL,Wheel Angular Speed FR,Wheel Angular Speed RL,Wheel Angular Speed RR,Wind Direction,Wind Speed
0,0.0,1.0,0.0,1.0,1.0,0.0,0.0,1.0,0.0,100.0,1.0,1.1856,26.0,0.0,0.0,0.0,59.99999,0.0,26.0,26.0,26.0,26.0,-0.0825555555555555,0.28590000000000004,0.05723333333333334,293.808,-2.7144,-2.6553750000000003,-1.516,-1.5601,-275.28,216.29500000000002,190.985,0.0,0.0,0.0,0.0,0.0018333333333333333,-5.498166666666667,-5.498166666666667,-0.5463,1.226,-0.013444444444444592,-1.842,65.54599999999999,-0.0361,-0.21145,0.9420000000000002,100.0,1.0,1.0,202.38,0.0,0.0,0.0,0.0,0.0,0.0,0.0,8578.2,0.0,55.0,5.0,235.93333333333334,0.0,0.0,0.0,0.0,0.0,0.0,0.0,0.0,0.009000000000000341,0.009000000000000341,0.0,0.0,0.0,55.0,616.79921,10000.0,85.0,85.0,85.0,85.0,395.0,0.0,0.0,0.0,1.0,20.0,52.353,52.353,49.194,49.194,34.0,-26.335,24.03,-30.853333333333335,23.785,0.0,1783.667,0.740000000000002,100.0,27.667,27.351,40.627,40.639,0.0,1.0,100.0,0.0,0.0,0.0,0.0,3034.0,3423.5,4182.25,3871.0,305.6765,303.86066666666665,314.7095,315.1385,21.7713,20.512,21.7378,21.2813,314.99999,314.99999,324.99998,324.99998,99.5586,99.50708333333333,99.56405714285714,99.54408571428571,0.0033333333333334103,-0.11699999999999999,-0.1606,0.06,-0.05833333333333002,-0.05666666666667197,1.5493333333333332,1.5899999999999999,37.07,29.200333333333333,36.861000000000004,34.0085,56.171,34.4095,58.7115,51.269999999999996,54.099999999999994,33.5945,57.358000000000004,49.641999999999996,53.278,33.167,57.3315,49.069,-0.021499999999999853,-0.13750000000000018,0.10061,0.10644,0.0,205.425,205.325,202.38,202.38,0.0,0.0
1,0.0,1.0,0.0,1.0,1.0,0.0,0.0,1.0,0.0,100.0,1.0,1.1856,26.0,0.0,0.0,0.0,59.999996,0.0,26.0,26.0,26.0,26.0,-0.10544444444444445,0.2944,0.002533333333333333,292.77,-2.6209,-2.77225,-1.5194,-1.5155,-271.93,216.29000000000002,190.964875,0.0,0.0,0.0,0.0,0.0037666666666666664,-5.498166666666667,-5.498166666666667,-0.5053,-0.6616666666666666,-0.06300000000000017,-0.4419999999999997,65.7,-0.0539,-0.2088,1.3840000000000003,100.0,1.0,1.0,202.5366666666667,0.0,0.0,0.0,0.0,0.0,0.0,0.0,8584.8,0.0,55.0,5.0,236.49,1.0,0.0,0.0,0.0,0.0,0.0,0.0,0.0,0.05999999999999872,0.05999999999999872,0.0,0.0,1.0,55.0,616.79921,10000.0,85.000001,85.000001,85.000001,85.000001,395.0,0.0,0.0,0.0,1.0,333.33500000000004,53.177,53.177,48.218,48.218,34.0,-26.575,19.125,-33.96,28.802500000000002,0.0,1783.616,0.8500000000000014,100.0,27.979,27.109,42.813,41.887,0.0,1.0,100.0,0.0,0.0,0.0,0.0,3082.285714285714,2772.2,4309.375,4670.2,305.363,306.00533333333334,314.233,313.1035,21.7813,20.5171,21.7486,21.290399999999998,314.999998,314.999998,324.999988,324.999988,99.5586,99.5071,99.56421428571429,99.54422857142858,-0.004666666666666597,-0.1306666666666666,-0.1776,0.043166666666666666,-0.04333333333332945,-0.01999999999999602,1.3896666666666668,1.443,37.132999999999996,29.232,36.928,34.065,56.156,34.45,58.7575,51.337,54.085,33.632,57.400999999999996,49.706,53.262,33.203,57.372,49.13166666666667,-0.006000000000000005,-0.14000000000000012,0.100625,0.11828000000000001,0.0,205.86,205.72,202.5366666666667,202.5366666666667,0.0,0.0
2,0.0,1.0,0.0,1.0,1.0,0.0,0.0,1.0,0.0,100.0,1.0,1.1856,26.0,0.0,0.0,0.0,59.999996,0.0,26.0,26.0,26.0,26.0,-0.12022222222222212,0.2913000000000001,-0.031900000000000005,293.579,-2.6077,-2.7845,-1.49825,-1.6012,-268.58,216.2825,190.946125,0.0,0.0,0.0,0.0,0.005733333333333334,-5.498166666666667,-5.498166666666667,-0.5456,0.295,-0.04111111111111132,1.705,65.842,-0.0742,-0.25075000000000003,1.5939999999999994,100.0,1.0,1.0,203.42666666666668,0.0,0.0,0.0,0.0,0.0,0.0,0.0,8622.6,0.0,55.0,5.0,237.00333333333333,0.0,0.0,0.0,0.0,0.0,0.0,0.0,0.0,0.11100000000000065,0.11100000000000065,0.0,0.0,0.0,55.0,616.79921,10000.0,85.000001,85.000001,85.000001,85.000001,395.0,0.0,0.0,0.0,1.0,166.665,52.399,52.399,50.003,50.003,34.0,-29.9125,19.648333333333333,-29.453333333333333,20.5025,0.0,1783.567,0.6900000000000013,100.0,28.389,27.121,42.576,41.433,0.0,1.0,100.0,0.0,0.0,0.0,0.0,3325.142857142857,2944.0,3744.625,3788.9,304.713,305.38666666666666,315.66525,315.4815,21.7915,20.522100000000002,21.759,21.2991,314.999998,314.999998,324.999988,324.999988,99.5586,99.50713333333333,99.56434285714286,99.54435714285714,-0.02966666666666673,-0.15700000000000003,-0.22480000000000003,0.0021666666666666666,-0.03999999999999915,-0.04999999999999716,1.621,1.6906666666666665,37.197,29.262999999999998,36.994,34.119,56.144,34.49,58.797,51.3945,54.074,33.669,57.438,49.760999999999996,53.25,33.238,57.4065,49.18566666666666,-0.01749999999999985,-0.13450000000000006,0.107755,0.11027500000000001,0.0,206.31,206.16500000000002,203.42666666666668,203.42666666666668,0.0,0.0
3,0.0,1.0,0.0,1.0,1.0,0.0,0.0,1.0,0.0,100.0,1.0,1.1856,26.0,0.0,0.0,0.0,59.999996,0.0,26.0,26.0,26.0,26.0,-0.1286666666666666,0.3014000000000001,0.07376666666666666,293.472,-2.7274,-2.6967499999999998,-1.5096500000000002,-1.5964,-265.21,216.26999999999998,190.9265,0.0,0.0,0.0,0.0,0.007666666666666667,-5.498166666666667,-5.498166666666667,-0.5102,-0.14166666666666666,-0.0129999999999999,-0.2559999999999998,65.995,-0.0868,-0.200275,1.120000000000001,100.0,1.0,1.0,203.59,0.0,0.0,0.0,0.0,0.0,0.0,0.0,8629.4,0.0,55.0,5.0,237.55,1.0,0.0,0.0,0.0,0.0,0.0,0.0,0.0,0.16199999999999903,0.16199999999999903,0.0,0.0,1.0,55.0,616.79921,10000.0,85.000001,85.000001,85.000001,85.000001,395.0,0.0,0.0,0.0,1.0,111.11,53.68,53.68,48.096000000000004,48.096000000000004,34.0,-25.1375,18.723333333333333,-34.166666666666664,25.2325,0.0,1783.513,0.6550000000000011,100.0,27.901,26.89,42.584,41.555,0.0,1.0,100.0,0.0,0.0,0.0,0.0,2813.285714285714,2883.3,4253.625,4250.5,306.261,305.68233333333336,314.39525,314.28775,21.801099999999998,20.5272,21.7694,21.308,314.999998,314.999998,324.999988,324.999988,99.55861428571428,99.50713333333333,99.56448571428571,99.5445,-0.01866666666666661,-0.14700000000000002,-0.2038,0.020833333333333332,-0.05333333333332746,-0.06499999999999773,1.4913333333333332,1.5173333333333334,37.257,29.295333333333332,37.059,34.1745,56.125,34.5345,58.841,51.4625,54.056,33.71,57.479,49.826,53.230999999999995,33.2775,57.444,49.24966666666667,-0.028999999999999915,-0.1200000000000001,0.107175,0.11284500000000001,0.0,206.78,206.7,203.59,203.59,0.0,0.0
4,0.0,1.0,0.0,1.0,1.0,0.0,0.0,1.0,0.0,100.0,1.0,1.1856,26.0,0.0,0.0,0.0,59.999996,0.0,26.0,26.0,26.0,26.0,-0.1353333333333333,0.28190000000000004,-0.016166666666666666,293.61,-2.6458,-2.7513750000000003,-1.5141499999999999,-1.6449,-261.45,216.2525,190.90425,0.0,0.0,0.0,0.0,0.009866666666666668,-5.498166666666667,-5.498166666666667,-0.5495,-0.11466666666666668,-0.08822222222222242,-0.984,66.156,-0.08410000000000001,-0.23805,1.200000000000001,100.0,1.0,1.0,204.3,0.0,0.0,0.0,0.0,0.0,0.0,0.0,8659.6,0.0,55.0,5.0,238.13333333333333,0.0,0.0,0.0,0.0,0.0,0.0,0.0,0.0,0.2190000000000012,0.2190000000000012,0.0,0.0,0.0,55.0,616.79921,10000.0,85.000001,85.000001,85.000001,85.000001,395.0,0.0,0.0,0.0,1.0,83.335,52.75,52.75,49.194,49.194,34.0,-30.63,19.259999999999998,-31.5,21.2175,0.0,1783.457,0.5949999999999989,100.0,27.856,26.973,42.714,41.311,0.0,1.0,100.0,0.0,0.0,0.0,0.0,3375.0,2894.4,4016.875,3693.4,304.6635,305.459,315.0385,315.69325,21.8121,20.533,21.7811,21.3177,314.999998,314.999998,324.999988,324.999988,99.55861428571428,99.50715,99.56465714285714,99.54465714285715,-0.028666666666666618,-0.15233333333333332,-0.2066,0.015,-0.05666666666667197,-0.054999999999999716,1.5936666666666668,1.6296666666666666,37.325,29.331,37.132,34.2355,56.108000000000004,34.579,58.885999999999996,51.522999999999996,54.04,33.751,57.521,49.8845,53.215,33.3165,57.483000000000004,49.306666666666665,-0.03299999999999992,-0.11949999999999994,0.10411500000000001,0.10436000000000001,0.0,207.275,207.19,204.3,204.3,0.0,0.0
5,0.0,1.0,0.0,1.0,1.0,0.0,0.0,1.0,0.0,100.0,1.0,1.1856,26.0,0.0,0.0,0.0,59.999996,0.0,26.0,26.0,26.0,26.0,-0.1326666666666666,0.29990000000000006,0.008966666666666668,293.442,-2.6722,-2.7647500000000003,-1.5137,-1.5842,-258.47,216.235,190.886125,0.0,0.0,0.0,0.0,0.011600000000000001,-5.498166666666667,-5.498166666666667,-0.5333,0.2713333333333333,-0.07588888888888867,1.274,66.287,-0.0859,-0.212475,0.9600000000000009,100.0,1.0,1.0,204.54666666666668,0.0,0.0,0.0,0.0,0.0,0.0,0.0,8670.0,0.0,55.0,5.0,238.60333333333335,1.0,0.0,0.0,0.0,0.0,0.0,0.0,0.0,0.26399999999999935,0.26399999999999935,0.0,0.0,1.0,55.0,616.79921,10000.0,85.000001,85.000001,85.000001,85.000001,395.0,0.0,0.0,0.0,1.0,111.11,53.314,53.314,48.691,48.691,34.0,-26.8925,20.48,-33.25666666666666,24.22,0.0,1783.414,0.1999999999999993,100.0,27.939,26.637999999999998,42.726,41.25,0.0,1.0,100.0,0.0,0.0,0.0,0.0,3109.142857142857,2902.2,4190.75,4151.7,305.2965,305.66433333333333,314.58975,314.57475,21.8208,20.537399999999998,21.7903,21.325499999999998,314.999998,314.999998,324.999988,324.999988,99.55862857142857,99.50716666666666,99.56478571428572,99.54477142857142,0.00533333333333319,-0.12,-0.1998,0.021500000000000002,-0.03166666666666629,-0.06833333333332803,1.5130000000000001,1.549,37.379999999999995,29.359,37.19,34.284,56.095,34.6145,58.9225,51.577,54.028,33.783500000000004,57.5555,49.936,53.202,33.3475,57.515,49.357,-0.062000000000000055,-0.08550000000000013,0.10287,0.11467000000000001,0.0,207.66500000000002,207.615,204.54666666666668,204.54666666666668,0.0,0.0
6,0.0,1.0,0.0,1.0,1.0,0.0,0.0,1.0,0.0,100.0,1.0,1.1856,26.0,0.0,0.0,0.0,59.999996,0.0,26.0,26.0,26.0,26.0,-0.11522222222222211,0.2948000000000002,0.002366666666666667,293.411,-2.6388,-2.794625,-1.55625,-1.5811000000000002,-255.28,216.215,190.866875,0.0,0.0,0.0,0.0,0.013466666666666667,-5.498166666666667,-5.498166666666667,-0.5307000000000001,0.09666666666666668,-0.05888888888888877,0.9240000000000004,66.425,-0.0794,-0.214875,0.6099999999999994,100.0,1.0,1.0,204.98666666666668,0.0,0.0,0.0,0.0,0.0,0.0,0.0,8688.7,0.0,55.0,5.0,239.10000000000002,0.0,0.0,0.0,0.0,0.0,0.0,0.0,0.0,0.31200000000000117,0.31200000000000117,0.0,0.0,0.0,55.0,616.79921,10000.0,85.000001,85.000001,85.000001,85.000001,395.0,0.0,0.0,0.0,1.0,111.11,53.238,53.238,48.615,48.615,34.0,-25.862499999999997,21.46,-32.49333333333334,23.855,0.0,1783.363,-0.05000000000000071,100.0,27.882,26.815,42.772999999999996,41.558,0.0,1.0,100.0,0.0,0.0,0.0,0.0,3059.4285714285716,2944.8,4107.125,4085.8,305.4105,305.4583333333333,314.79475,314.73375,21.8301,20.5423,21.8002,21.3339,314.999998,314.999998,324.999988,324.999988,99.55862857142857,99.50718333333333,99.56491428571428,99.54491428571428,0.012333333333333307,-0.11299999999999999,-0.191,0.025,-0.03833333333332689,-0.054999999999999716,1.534,1.5670000000000002,37.438,29.389333333333333,37.251000000000005,34.337,56.081,34.653,58.9615,51.635999999999996,54.015,33.8185,57.591499999999996,49.9925,53.188,33.3815,57.5485,49.412,-0.07299999999999995,-0.07600000000000007,0.1092,0.096185,0.0,208.095,208.025,204.98666666666668,204.98666666666668,0.0,0.0
7,0.0,1.0,0.0,1.0,1.0,0.0,0.0,1.0,0.0,100.0,1.0,1.1856,26.0,0.0,0.0,0.0,59.999996,0.0,26.0,26.0,26.0,26.0,-0.06344444444444441,0.2801,0.031,293.259,-2.6117,-2.7483750000000002,-1.51855,-1.6212,-252.09,216.1925,190.847625,0.0,0.0,0.0,0.0,0.015300000000000001,-5.498166666666667,-5.498166666666667,-0.5345,0.10300000000000001,-0.045444444444444176,1.2229999999999999,66.562,-0.0641,-0.224225,0.31400000000000006,100.0,1.0,1.0,205.41666666666669,0.0,0.0,0.0,0.0,0.0,0.0,0.0,8706.8,0.0,55.0,5.0,239.59333333333333,1.0,0.0,0.0,0.0,0.0,0.0,0.0,0.0,0.35999999999999943,0.35999999999999943,0.0,0.0,1.0,55.0,616.79921,10000.0,85.000001,85.000001,85.000001,85.000001,395.0,0.0,0.0,0.0,1.0,333.33500000000004,52.856,52.856,48.843,48.843,34.0,-25.197499999999998,22.726666666666667,-30.31,26.0975,0.0,1783.316,-0.21499999999999986,100.0,28.014,26.928,42.775999999999996,41.803,0.0,1.0,100.0,0.0,0.0,0.0,0.0,3120.857142857143,3010.0,4000.25,4056.3,305.1745,305.2203333333333,315.0165,314.75725,21.8394,20.5472,21.8101,21.3423,314.999998,314.999998,324.999988,324.999988,99.55862857142857,99.5072,99.56505714285714,99.54504285714286,0.038000000000000256,-0.08666666666666656,-0.1758,0.059333333333333335,-0.026666666666670835,-0.036666666666668846,1.5350000000000001,1.5436666666666667,37.495999999999995,29.419666666666664,37.313,34.3895,56.068,34.69,59.0,51.6945,54.001999999999995,33.853,57.6275,50.048500000000004,53.174,33.414,57.582,49.467,-0.09149999999999991,-0.05449999999999999,0.1101,0.111015,0.0,208.48000000000002,208.45499999999998,205.41666666666669,205.41666666666669,0.0,0.0
8,0.0,1.0,0.0,1.0,1.0,0.0,0.0,1.0,0.0,100.0,1.0,1.1856,26.0,0.0,0.0,0.0,59.999996,0.0,26.0,26.0,26.0,26.0,-0.042333333333333334,0.28190000000000004,0.009833333333333333,293.457,-2.6989,-2.721,-1.5002499999999999,-1.572,-248.49,216.1625,190.82575,0.0,0.0,0.0,0.0,0.017400000000000002,-5.498166666666667,-5.498166666666667,-0.5404,-0.6196666666666666,-0.029888888888888854,0.593,66.71600000000001,-0.0425,-0.219525,-0.08799999999999919,100.0,1.0,1.0,205.84,0.0,0.0,0.0,0.0,0.0,0.0,0.0,8724.8,0.0,55.0,5.0,240.14666666666668,0.0,0.0,0.0,0.0,0.0,0.0,0.0,0.0,0.4139999999999979,0.4139999999999979,0.0,0.0,0.0,55.0,616.79921,10000.0,85.000001,85.000001,85.000001,85.000001,395.0,0.0,0.0,0.0,1.0,166.665,53.421,53.421,48.400999999999996,48.400999999999996,34.0,-23.975,23.35,-28.853333333333335,26.6,0.0,1783.264,-0.34999999999999787,100.0,27.451,26.842,42.75,41.93,0.0,1.0,100.0,0.0,0.0,0.0,0.0,3001.285714285714,3050.5,4012.0,4078.1000000000004,305.729,305.1956666666667,314.96275,314.6875,21.8496,20.5527,21.8211,21.3518,314.999998,314.999998,324.999988,324.999988,99.55862857142857,99.50721666666666,99.56521428571429,99.5452,0.05366666666666653,-0.07133333333333336,-0.1472,0.078,-0.045000000000001705,-0.05666666666667197,1.5263333333333333,1.5390000000000001,37.56,29.454,37.382,34.448499999999996,56.05,34.7305,59.043,51.7595,53.985,33.8905,57.667500000000004,50.111000000000004,53.156,33.45,57.619,49.528333333333336,-0.09799999999999986,-0.047499999999999876,0.10961000000000001,0.10347500000000001,0.0,208.945,208.935,205.84,205.84,0.0,0.0
9,0.0,1.0,0.0,1.0,1.0,0.0,0.0,1.0,0.0,100.0,1.0,1.1856,26.0,0.0,0.0,0.0,59.999996,0.0,26.0,26.0,26.0,26.0,-0.010333333333333306,0.2922,-0.0102,293.045,-2.627,-2.717,-1.55535,-1.5625,-245.49,216.14,190.807125,0.0,0.0,0.0,0.0,0.019166666666666665,-5.498166666666667,-5.498166666666667,-0.5361,0.7513333333333334,-0.03000000000000025,-0.31800000000000006,66.84100000000001,-0.024800000000000003,-0.21407500000000002,-0.11799999999999944,100.0,1.0,1.0,206.3,0.0,0.0,0.0,0.0,0.0,0.0,0.0,8744.3,0.0,55.0,5.0,240.60000000000002,1.0,0.0,0.0,0.0,0.0,0.0,0.0,0.0,0.45899999999999963,0.45899999999999963,0.0,0.0,1.0,55.0,616.79921,10000.0,85.000001,85.000001,85.000001,85.000001,395.0,0.0,0.0,0.0,1.0,333.33500000000004,52.399,52.399,49.010999999999996,49.010999999999996,34.0,-25.435000000000002,23.47833333333333,-29.083333333333336,27.09,0.0,1783.216,-0.47499999999999787,100.0,27.956,27.406,42.348,42.016,0.0,1.0,100.0,0.0,0.0,0.0,0.0,3322.5714285714284,2987.9,4078.25,4080.0,304.76,305.1413333333333,314.9825,314.708,21.8583,20.5574,21.8302,21.3596,314.999998,314.999998,324.999988,324.999988,99.55864285714286,99.50721666666666,99.56534285714285,99.54532857142857,0.07233333333333336,-0.06066666666666665,-0.13319999999999999,0.0925,-0.060000000000002274,-0.051666666666669414,1.5593333333333332,1.565,37.614000000000004,29.483666666666664,37.439,34.4975,56.039,34.768,59.0785,51.817,53.974000000000004,33.925,57.7005,50.166,53.144999999999996,33.483000000000004,57.649,49.58233333333334,-0.11499999999999999,-0.04200000000000026,0.10648,0.111295,0.0,209.36,209.35500000000002,206.3,206.3,0.0,0.0
10,0.0,1.0,0.0,1.0,1.0,0.0,0.0,1.0,0.0,100.0,1.0,1.1856,26.0,0.0,0.0,0.0,59.999996,0.0,26.0,26.0,26.0,26.0,0.015000000000000124,0.2733000000000001,0.04616666666666667,293.076,-2.7144,-2.6648750000000003,-1.5482,-1.5358,-241.67000000000002,216.10750000000002,190.784125,0.0,0.0,0.0,0.0,0.021366666666666666,-5.498166666666667,-5.498166666666667,-0.5277000000000001,-1.0150000000000001,0.021444444444444377,1.4649999999999999,67.005,-0.0026000000000000003,-0.21605000000000002,-0.5820000000000007,100.0,1.0,1.0,206.64,0.0,0.0,0.0,0.0,0.0,0.0,0.0,8758.6,0.0,55.0,5.0,241.18666666666667,0.0,0.0,0.0,0.0,0.0,0.0,1.0,0.0,0.5159999999999982,0.5159999999999982,0.0,0.0,0.0,55.0,616.79921,10000.0,85.000001,85.000001,85.000001,85.000001,395.0,0.0,0.0,0.0,1.0,111.11,53.436,53.436,47.852000000000004,47.852000000000004,34.0,-21.125,24.508333333333333,-28.283333333333335,30.145,0.0,1783.16,-0.620000000000001,100.0,27.625,27.146,42.899,42.706,0.0,1.0,100.0,0.0,0.0,0.0,0.0,2863.5714285714284,3042.7,4109.625,4256.3,306.1545,305.239,314.732,314.25925,21.869,20.563299999999998,21.8421,21.369799999999998,314.999998,314.999998,324.999988,324.999988,99.55865714285714,99.50723333333333,99.56548571428571,99.54548571428572,0.09699999999999998,-0.028666666666666618,-0.1052,0.123,-0.03333333333333144,-0.045000000000001705,1.5110000000000001,1.4809999999999999,37.681,29.520666666666664,37.513,34.5615,56.025,34.8065,59.123,51.885999999999996,53.961,33.960499999999996,57.742,50.2325,53.129999999999995,33.516999999999996,57.6875,49.647333333333336,-0.125,-0.020500000000000185,0.106065,0.10679000000000001,0.0,209.805,209.835,206.64,206.64,0.0,0.0
11,0.0,1.0,0.0,1.0,1.0,0.0,0.0,1.0,0.0,100.0,1.0,1.1856,26.0,0.0,0.0,0.0,59.999996,0.0,26.0,26.0,26.0,26.0,0.03833333333333333,0.29600000000000004,-0.06666666666666667,293.472,-2.7077,-2.6654999999999998,-1.5851000000000002,-1.5227,-238.45,216.08249999999998,190.764375,0.0,0.0,0.0,0.0,0.022600000000000002,-5.498166666666667,-5.498166666666667,-0.5612,0.14833333333333334,0.030888888888888966,0.06599999999999984,67.135,0.0151,-0.23017500000000002,-0.7000000000000002,100.0,1.0,1.0,207.30666666666667,0.0,0.0,0.0,0.0,0.0,0.0,0.0,8786.9,0.0,55.0,5.0,241.65666666666667,1.0,0.0,0.0,0.0,0.0,0.0,1.0,0.0,0.5640000000000001,0.5640000000000001,0.0,0.0,1.0,55.0,616.79921,10000.0,85.000001,85.000001,85.000001,85.000001,395.0,0.0,0.0,0.0,1.0,83.335,52.841,52.841,49.118,49.118,34.0,-21.46,26.53333333333333,-24.199999999999996,27.23,0.0,1783.112,-0.6649999999999991,100.0,27.598,27.494,42.173,42.479,0.0,1.0,100.0,0.0,0.0,0.0,0.0,2976.4285714285716,3173.0,3812.75,3914.1000000000004,305.705,304.7423333333333,315.61875,315.16125,21.878,20.5685,21.8517,21.3782,314.999998,314.999998,324.999988,324.999988,99.55865714285714,99.50723333333333,99.56562857142858,99.54561428571428,0.11433333333333362,-0.012666666666666604,-0.076,0.14133333333333334,-0.04333333333332945,-0.05833333333333002,1.6500000000000001,1.6400000000000001,37.736999999999995,29.552666666666667,37.573,34.614,56.012,34.843,59.155,51.942499999999995,53.948,33.994,57.772,50.286500000000004,53.117000000000004,33.549,57.7145,49.70066666666666,-0.127,-0.025500000000000078,0.10354000000000001,0.10575000000000001,0.0,210.22500000000002,210.275,207.30666666666667,207.30666666666667,0.0,0.0
12,0.0,1.0,0.0,1.0,1.0,0.0,0.0,1.0,0.0,100.0,1.0,1.1856,26.0,0.0,0.0,0.0,59.999996,0.0,26.0,26.0,26.0,26.0,0.06699999999999995,0.29190000000000005,0.04546666666666667,292.755,-2.7273,-2.6719999999999997,-1.5572,-1.5419,-235.01999999999998,216.0575,190.74225,0.0,0.0,0.0,0.0,0.025466666666666665,-5.498166666666667,-5.498166666666667,-0.544,0.221,0.016666666666666607,-0.685,67.28,0.031900000000000005,-0.20815,-0.6639999999999997,100.0,1.0,1.0,207.51999999999998,0.0,0.0,0.0,0.0,0.0,0.0,0.0,8796.0,0.0,55.0,5.0,242.18,0.0,0.0,0.0,0.0,0.0,0.0,1.0,0.0,0.6149999999999984,0.6149999999999984,0.0,0.0,0.0,55.0,616.79921,10000.0,85.000001,85.000001,85.000001,85.000001,395.0,0.0,0.0,0.0,1.0,83.335,52.612,52.612,47.867,47.867,34.0,-22.552500000000002,26.11,-27.75,31.015,0.0,1783.063,-0.5850000000000009,100.0,27.443,27.878,42.317,42.672,0.0,1.0,100.0,0.0,0.0,0.0,0.0,3143.4285714285716,3103.5,4208.125,4203.7,305.4055,304.764,314.609,314.364,21.8875,20.573999999999998,21.862099999999998,21.3872,314.999998,314.999998,324.999988,324.999988,99.55867142857143,99.50723333333333,99.56577142857142,99.54575714285714,0.1206666666666667,-0.014000000000000012,-0.08059999999999999,0.14683333333333334,-0.05833333333333002,-0.03999999999999915,1.5186666666666668,1.4976666666666667,37.797,29.587333333333333,37.638,34.67,56.0,34.881,59.196,52.004999999999995,53.937,34.028999999999996,57.8095,50.347,53.105000000000004,33.582499999999996,57.749,49.75966666666667,-0.12450000000000006,-0.03149999999999986,0.10783500000000001,0.10679000000000001,0.0,210.69,210.71,207.51999999999998,207.51999999999998,0.0,0.0
13,0.0,1.0,0.0,1.0,1.0,0.0,0.0,1.0,0.0,100.0,1.0,1.1856,26.0,0.0,0.0,0.0,59.999996,0.0,26.0,26.0,26.0,26.0,0.07200000000000006,0.26690000000000014,0.05926666666666667,292.496,-2.7033,-2.6717500000000003,-1.59325,-1.5063,-231.99,216.035,190.723125,0.0,0.0,0.0,0.0,0.027,-5.498166666666667,-5.498166666666667,-0.5398000000000001,-0.08733333333333333,0.026555555555555665,1.0520000000000005,67.405,0.0392,-0.217675,-0.8799999999999999,100.0,1.0,1.0,207.87333333333333,0.0,0.0,0.0,0.0,0.0,0.0,0.0,8811.0,0.0,55.0,5.0,242.63,1.0,0.0,0.0,0.0,0.0,0.0,1.0,0.0,0.6600000000000001,0.6600000000000001,0.0,0.0,1.0,55.0,616.79921,10000.0,85.000001,85.000001,85.000001,85.000001,395.0,0.0,0.0,0.0,1.0,83.335,52.414,52.414,47.913,47.913,34.0,-20.3275,28.223333333333333,-26.589999999999996,33.075,0.0,1783.016,-0.8499999999999979,100.0,27.867,27.861,42.604,43.061,0.0,1.0,100.0,0.0,0.0,0.0,0.0,3030.5714285714284,3198.1,4108.25,4369.9,305.52,304.69466666666665,314.7695,314.0365,21.896,20.5788,21.8714,21.3953,314.999998,314.999998,324.999988,324.999988,99.5587,99.50723333333333,99.5659,99.54588571428572,0.15100000000000025,0.021333333333333426,-0.060200000000000004,0.1665,-0.03999999999999915,-0.046666666666666856,1.4983333333333333,1.465,37.849999999999994,29.617666666666665,37.696,34.721000000000004,55.992000000000004,34.914500000000004,59.2305,52.063,53.928,34.0605,57.841499999999996,50.4025,53.095,33.6125,57.7785,49.81433333333334,-0.14250000000000007,-0.008999999999999897,0.11263000000000001,0.10139500000000001,0.0,211.06,211.11,207.87333333333333,207.87333333333333,0.0,0.0
14,0.0,1.0,0.0,1.0,1.0,0.0,0.0,1.0,0.0,100.0,1.0,1.1856,26.0,0.0,0.0,0.0,59.999996,0.0,26.0,26.0,26.0,26.0,0.10255555555555573,0.2732000000000001,-0.013300000000000001,292.77,-2.733,-2.6721250000000003,-1.6014,-1.5134,-228.35,216.01,190.7005,0.0,0.0,0.0,0.0,0.0291,-5.498166666666667,-5.498166666666667,-0.5495,-0.065,0.05588888888888888,1.013,67.553,0.0528,-0.22765000000000002,-1.064,100.0,1.0,1.0,208.41666666666669,0.0,0.0,0.0,0.0,0.0,0.0,0.0,8834.0,0.0,55.0,5.0,243.16333333333336,0.0,0.0,0.0,0.0,0.0,0.0,1.0,0.0,0.7139999999999986,0.7139999999999986,0.0,0.0,0.0,55.0,616.79921,10000.0,85.000001,85.000001,85.000001,85.000001,395.0,0.0,0.0,0.0,1.0,166.665,52.536,52.536,48.141,48.141,34.0,-19.84,29.015,-23.990000000000002,32.332499999999996,0.0,1782.961,-0.9600000000000009,100.0,27.696,27.964,42.499,43.230000000000004,0.0,1.0,100.0,0.0,0.0,0.0,0.0,2993.5714285714284,3225.3,3946.125,4180.1,305.7845,304.53433333333334,315.216,314.46925,21.9061,20.5847,21.8824,21.405,314.999998,314.999998,324.999988,324.999988,99.55871428571429,99.50723333333333,99.56604285714286,99.54604285714285,0.15833333333333366,0.030999999999999917,-0.0376,0.18733333333333335,-0.04333333333332945,-0.05666666666667197,1.566,1.518,37.913,29.654333333333334,37.765,34.781,55.980999999999995,34.9555,59.269999999999996,52.129999999999995,53.918,34.098,57.8785,50.467,53.084,33.6485,57.812,49.878,-0.14849999999999985,-0.004999999999999893,0.10284000000000001,0.10686000000000001,0.0,211.51,211.57,208.41666666666669,208.41666666666669,0.0,0.0
15,0.0,1.0,0.0,1.0,1.0,0.0,0.0,1.0,0.0,100.0,1.0,1.1856,26.0,0.0,0.0,0.0,59.999996,0.0,26.0,26.0,26.0,26.0,0.11844444444444435,0.28070000000000017,-0.06696666666666666,292.786,-2.7511,-2.6262499999999998,-1.6283,-1.512,-225.31,215.9925,190.6815,0.0,0.0,0.0,0.0,0.03086666666666667,-5.498166666666667,-5.498166666666667,-0.5394,0.17533333333333334,0.08255555555555572,-0.6389999999999998,67.67699999999999,0.065,-0.209825,-1.1559999999999997,100.0,1.0,1.0,208.76666666666665,0.0,0.0,0.0,0.0,0.0,0.0,0.0,8848.8,0.0,55.0,5.0,243.60666666666668,1.0,0.0,0.0,0.0,0.0,0.0,1.0,0.0,0.7590000000000003,0.7590000000000003,0.0,0.0,1.0,55.0,616.79921,10000.0,85.000001,85.000001,85.000001,85.000001,395.0,0.0,0.0,0.0,1.0,333.33500000000004,52.826,52.826,48.08,48.08,34.0,-18.4775,27.488333333333333,-24.743333333333332,34.0,0.0,1782.916,-0.9849999999999994,100.0,27.559,28.149,42.183,43.46,0.0,1.0,100.0,0.0,0.0,0.0,0.0,2851.4285714285716,3112.4,4028.0,4321.0,306.2515,304.709,315.17725,314.03475,21.9144,20.5896,21.8915,21.4131,314.999998,314.999998,324.999988,324.999988,99.55872857142857,99.50723333333333,99.56617142857142,99.54617142857143,0.16800000000000015,0.02633333333333332,-0.0362,0.189,-0.041666666666671404,-0.04333333333332945,1.5526666666666669,1.4903333333333333,37.965,29.685000000000002,37.822,34.8315,55.972,34.9895,59.302,52.187,53.91,34.1295,57.908,50.522,53.074,33.679,57.838499999999996,49.932,-0.15599999999999992,-0.004999999999999893,0.10647000000000001,0.10443500000000001,0.0,211.9,211.97500000000002,208.76666666666665,208.76666666666665,0.0,0.0
16,0.0,1.0,0.0,1.0,1.0,0.0,0.0,1.0,0.0,100.0,1.0,1.1856,26.0,0.0,0.0,0.0,59.999996,0.0,26.0,26.0,26.0,26.0,0.12022222222222223,0.2761,-0.0015666666666666667,292.709,-2.7983,-2.5841250000000002,-1.5967,-1.5159,-221.85,215.975,190.659375,0.0,0.0,0.0,0.0,0.0329,-5.498166666666667,-5.498166666666667,-0.5648000000000001,-0.5853333333333334,0.0664444444444443,0.0259999999999998,67.816,0.0786,-0.22812500000000002,-1.234,100.0,1.0,1.0,209.23333333333335,0.0,0.0,0.0,0.0,0.0,0.0,0.0,8868.6,0.0,55.0,5.0,244.11,0.0,0.0,0.0,0.0,0.0,0.0,1.0,0.0,0.8099999999999987,0.8099999999999987,0.0,0.0,0.0,55.0,616.79921,10000.0,85.000001,85.000001,85.000001,85.000001,395.0,0.0,0.0,0.0,1.0,166.665,52.353,52.353,48.035,48.035,34.0,-19.9175,30.21666666666667,-22.486666666666665,32.845,0.0,1782.868,-0.875,100.0,27.458,28.101,42.477000000000004,43.43,0.0,1.0,100.0,0.0,0.0,0.0,0.0,3037.142857142857,3355.4,3894.375,4111.3,305.7085,304.2576666666667,315.32325,314.636,21.9236,20.5952,21.902,21.4222,314.999998,314.999998,324.999988,324.999988,99.55874285714286,99.50725,99.56631428571428,99.54631428571429,0.17733333333333334,0.050000000000000044,-0.0156,0.21016666666666667,-0.03166666666666629,-0.06499999999999773,1.5693333333333332,1.52,38.022999999999996,29.720333333333336,37.887,34.8885,55.96,35.0295,59.341,52.2495,53.897999999999996,34.1665,57.944,50.582499999999996,53.061,33.715,57.872,49.991,-0.14700000000000002,-0.0024999999999999467,0.10426500000000001,0.10896000000000002,0.0,212.26999999999998,212.39499999999998,209.23333333333335,209.23333333333335,0.0,0.0
17,0.0,1.0,0.0,1.0,1.0,0.0,0.0,1.0,0.0,100.0,1.0,1.1856,26.0,0.0,0.0,0.0,59.999996,0.0,26.0,26.0,26.0,26.0,0.12022222222222223,0.2854000000000001,0.034,292.221,-2.7685,-2.559375,-1.643,-1.476,-218.39,215.96,190.63675,0.0,0.0,0.0,0.0,0.0349,-5.498166666666667,-5.498166666666667,-0.5484,0.39666666666666667,0.048555555555555685,-0.6269999999999998,67.956,0.0843,-0.20650000000000002,-1.1360000000000001,100.0,1.0,1.0,209.54000000000002,0.0,0.0,0.0,0.0,0.0,0.0,0.0,8881.6,0.0,55.0,5.0,244.61333333333334,1.0,0.0,0.0,0.0,0.0,0.0,1.0,0.0,0.8610000000000007,0.8610000000000007,0.0,0.0,1.0,55.0,616.79921,10000.0,85.000001,85.000001,85.000001,85.000001,395.0,0.0,0.0,0.0,1.0,333.33500000000004,52.261,52.261,47.424,47.424,34.0,-20.4225,27.495,-27.15,34.1725,0.0,1782.814,-0.9450000000000003,100.0,27.751,28.477,42.322,43.559,0.0,1.0,100.0,0.0,0.0,0.0,0.0,3118.857142857143,3120.1,4361.125,4353.3,305.517,304.798,314.35325,314.0635,21.9331,20.6009,21.9123,21.4313,314.999998,314.999998,324.999988,324.999988,99.55877142857143,99.50726666666667,99.56645714285715,99.54647142857142,0.17266666666666675,0.042333333333333334,-0.0274,0.19816666666666666,-0.04833333333333201,-0.05333333333332746,1.5236666666666667,1.4826666666666668,38.082,29.756,37.952,34.945499999999996,55.952,35.071,59.381,52.3135,53.89,34.205,57.981,50.6475,53.053,33.7535,57.9035,50.05533333333334,-0.15149999999999997,-0.002000000000000224,0.10897000000000001,0.102925,0.0,212.76,212.845,209.54000000000002,209.54000000000002,0.0,0.0
18,0.0,1.0,0.0,1.0,1.0,0.0,0.0,1.0,0.0,100.0,1.0,1.1856,26.0,0.0,0.0,0.0,59.999996,0.0,26.0,26.0,26.0,26.0,0.1467777777777779,0.27180000000000004,0.0083,292.267,-2.8019,-2.5305,-1.6609500000000001,-1.4183,-215.12,215.95,190.615625,0.0,0.0,0.0,0.0,0.0368,-5.498166666666667,-5.498166666666667,-0.5629000000000001,-0.46366666666666667,0.07488888888888878,-0.278,68.08500000000001,0.0863,-0.22742500000000002,-1.2379999999999995,100.0,1.0,1.0,210.00333333333333,0.0,0.0,0.0,0.0,0.0,0.0,0.0,8901.2,0.0,55.0,5.0,245.07999999999998,0.0,0.0,0.0,0.0,0.0,0.0,1.0,0.0,0.9089999999999989,0.9089999999999989,0.0,0.0,0.0,55.0,616.79921,10000.0,85.000001,85.000001,85.000001,85.000001,395.0,0.0,0.0,0.0,1.0,166.665,52.032,52.032,47.562,47.562,34.0,-20.2525,30.346666666666668,-24.276666666666664,32.705,0.0,1782.767,-1.1649999999999991,100.0,27.517,28.439,42.579,43.878,0.0,1.0,100.0,0.0,0.0,0.0,0.0,3139.5714285714284,3352.1,4056.75,4220.3,305.5095,304.119,315.03175,314.37575,21.9419,20.6063,21.9222,21.44,314.999998,314.999998,324.999988,324.999988,99.55878571428572,99.50726666666667,99.5666,99.54661428571428,0.18566666666666665,0.06033333333333335,-0.013000000000000001,0.211,-0.045000000000001705,-0.06666666666666998,1.5666666666666669,1.5036666666666667,38.137,29.789,38.013999999999996,35.0,55.944,35.1095,59.414500000000004,52.3745,53.882,34.2405,58.0125,50.703,53.043,33.786,57.934,50.10966666666667,-0.16799999999999993,0.0129999999999999,0.10197,0.10883000000000001,0.0,213.12,213.22,210.00333333333333,210.00333333333333,0.0,0.0
19,0.0,1.0,0.0,1.0,1.0,0.0,0.0,1.0,0.0,100.0,1.0,1.1856,26.0,0.0,0.0,0.0,59.999996,0.0,26.0,26.0,26.0,26.0,0.16799999999999993,0.28800000000000003,0.06333333333333334,291.885,-2.717,-2.635125,-1.59365,-1.4011,-211.64999999999998,215.9425,190.593125,0.0,0.0,0.0,0.0,0.03883333333333333,-5.498166666666667,-5.498166666666667,-0.5446,0.791,0.08577777777777773,0.923,68.223,0.09480000000000001,-0.2102,-1.7079999999999993,100.0,1.0,1.0,210.36,0.0,0.0,0.0,0.0,0.0,0.0,0.0,8916.4,0.0,55.0,5.0,245.57333333333332,1.0,0.0,0.0,0.0,0.0,0.0,1.0,0.0,0.9600000000000009,0.9600000000000009,0.0,0.0,1.0,55.0,616.79921,10000.0,85.000001,85.000001,85.000001,85.000001,395.0,0.0,0.0,0.0,1.0,111.11,51.819,51.819,47.302,47.302,34.0,-16.845,31.906666666666666,-23.296666666666667,36.870000000000005,0.0,1782.715,-1.5599999999999987,100.0,28.119,28.752,42.414,43.842,0.0,1.0,100.0,0.0,0.0,0.0,0.0,2938.714285714286,3292.8,4149.375,4578.5,305.7765,304.23333333333335,314.70525,313.62025,21.9514,20.612099999999998,21.9325,21.4491,314.999998,314.999998,324.999988,324.999988,99.55881428571429,99.50728333333333,99.56674285714286,99.54677142857143,0.21966666666666645,0.08699999999999997,0.0054,0.2285,-0.060000000000002274,-0.060000000000002274,1.5236666666666667,1.4546666666666668,38.196,29.825666666666663,38.078,35.057,55.937,35.1565,59.4525,52.4435,53.875,34.284,58.0475,50.7695,53.035,33.8275,57.9655,50.175,-0.19700000000000006,0.03949999999999987,0.10951000000000001,0.10698,0.0,213.585,213.695,210.36,210.36,0.0,0.0
20,0.0,1.0,0.0,1.0,1.0,0.0,0.0,1.0,0.0,100.0,1.0,1.1856,26.0,0.0,0.0,0.0,59.999996,0.0,26.0,26.0,26.0,26.0,0.2002222222222223,0.2673000000000001,-0.06793333333333335,292.374,-2.8294,-2.576125,-1.60845,-1.5157,-208.17000000000002,215.94,190.57075,0.0,0.0,0.0,0.0,0.04083333333333333,-5.498166666666667,-5.498166666666667,-0.5612,-1.204,0.09399999999999986,-0.835,68.361,0.1085,-0.22915000000000002,-1.8679999999999994,100.0,1.0,1.0,210.7733333333333,0.0,0.0,0.0,0.0,0.0,0.0,0.0,8933.9,0.0,55.0,5.0,246.07333333333332,0.0,0.0,0.0,0.0,0.0,0.0,0.0,0.0,1.0109999999999992,1.0109999999999992,0.0,0.0,0.0,55.0,616.79921,10000.0,85.000001,85.000001,85.000001,85.000001,395.0,0.0,0.0,0.0,1.0,83.335,52.628,52.628,47.211,47.211,34.0,-17.9425,29.828333333333333,-22.32,35.7975,0.0,1782.666,-1.1799999999999997,100.0,27.338,28.565,42.738,44.379000000000005,0.0,1.0,100.0,0.0,0.0,0.0,0.0,2885.5714285714284,3201.0,4021.375,4221.2,306.257,304.53,315.034,314.25525,21.9605,20.6178,21.9431,21.4585,314.999998,314.999998,324.999988,324.999988,99.55884285714286,99.5073,99.56688571428572,99.5469,0.20199999999999996,0.07433333333333336,0.0112,0.23800000000000002,-0.04333333333332945,-0.03499999999999659,1.522,1.4713333333333334,38.253,29.861333333333334,38.144,35.1155,55.927,35.197,59.49,52.506,53.866,34.3215,58.082499999999996,50.829499999999996,53.024,33.8635,57.9975,50.234,-0.17399999999999993,0.020499999999999963,0.10844000000000001,0.10790500000000001,0.0,213.93,214.075,210.7733333333333,210.7733333333333,0.0,0.0
21,0.0,1.0,0.0,1.0,1.0,0.0,0.0,1.0,0.0,100.0,1.0,1.1856,26.0,0.0,0.0,0.0,59.999996,0.0,26.0,26.0,26.0,26.0,0.1313333333333333,0.2834000000000001,-0.05983333333333334,292.465,-2.7862999999999998,-2.5873749999999998,-1.66135,-1.4859,-204.68,215.9425,190.5475,0.0,0.0,0.0,0.0,0.04286666666666667,-5.498166666666667,-5.498166666666667,-0.5749000000000001,0.6303333333333334,0.06711111111111112,0.05600000000000005,68.494,0.12100000000000001,-0.21752500000000002,-1.2000000000000002,100.0,1.0,1.0,211.32999999999998,0.0,0.0,0.0,0.0,0.0,0.0,0.0,8957.6,0.0,55.0,5.0,246.55,1.0,0.0,0.0,0.0,0.0,0.0,0.0,0.0,1.0620000000000012,1.0620000000000012,0.0,0.0,1.0,55.0,616.79921,10000.0,85.000001,85.000001,85.000001,85.000001,395.0,0.0,0.0,0.0,1.0,83.335,52.185,52.185,47.913,47.913,34.0,-20.7375,28.261666666666667,-22.496666666666663,34.35,0.0,1782.616,0.1999999999999993,100.0,27.818,28.568,42.193,43.818,0.0,1.0,100.0,0.0,0.0,0.0,0.0,2973.142857142857,3276.5,4068.375,4141.2,305.79,304.4,315.021,314.65525,21.9698,20.6236,21.9532,21.4675,314.999998,314.999998,324.999988,324.999988,99.55887142857142,99.5073,99.56702857142857,99.54705714285714,0.14733333333333354,0.019000000000000128,0.0212,0.2485,-0.046666666666666856,-0.06499999999999773,1.5916666666666668,1.5583333333333333,38.312,29.897666666666666,38.208,35.172,55.918,35.2395,59.5235,52.567499999999995,53.857,34.361,58.113,50.888999999999996,53.013999999999996,33.9015,58.025,50.29233333333333,-0.07800000000000007,-0.07600000000000007,0.10602500000000001,0.11501000000000001,0.0,214.41500000000002,214.51999999999998,211.32999999999998,211.32999999999998,0.0,0.0
22,0.0,1.0,0.0,1.0,1.0,0.0,0.0,1.0,0.0,100.0,1.0,1.1856,26.0,0.0,0.0,0.0,59.999996,0.0,26.0,26.0,26.0,26.0,0.09266666666666667,0.2662,-0.0017333333333333333,292.114,-2.708,-2.653375,-1.64535,-1.4867,-201.38,215.9475,190.525125,0.0,0.0,0.0,0.0,0.0448,-5.498166666666667,-5.498166666666667,-0.5573,-0.08433333333333333,0.062111111111111006,0.5750000000000002,68.624,0.0949,-0.2064,-0.05799999999999894,100.0,1.0,1.0,211.56,0.0,0.0,0.0,0.0,0.0,0.0,0.0,8967.2,0.0,55.0,5.0,247.01999999999998,0.0,0.0,0.0,0.0,0.0,0.0,0.0,0.0,1.1099999999999994,1.1099999999999994,0.0,0.0,0.0,55.0,616.79921,10000.0,85.000001,85.000001,85.000001,85.000001,395.0,0.0,0.0,0.0,1.0,166.665,52.49,52.49,46.997,46.997,34.0,-19.985,25.54,-25.773333333333333,34.6725,0.0,1782.566,0.6500000000000021,100.0,27.967,28.529,42.889,44.088,0.0,1.0,100.0,0.0,0.0,0.0,0.0,2797.714285714286,3159.6,4188.25,4379.3,306.2255,304.76033333333334,314.65075,314.02575,21.9786,20.629,21.9632,21.4763,314.999998,314.999998,324.999988,324.999988,99.55887142857142,99.5073,99.56717142857143,99.5472,0.1160000000000001,-0.03266666666666662,-0.0188,0.19933333333333333,-0.051666666666669414,-0.04333333333332945,1.4786666666666668,1.4786666666666668,38.366,29.931333333333335,38.269999999999996,35.227000000000004,55.907,35.2765,59.5615,52.6295,53.846000000000004,34.394999999999996,58.1485,50.948499999999996,53.001999999999995,33.9345,58.057,50.351,-0.034499999999999975,-0.13249999999999984,0.10221000000000001,0.10158,0.0,214.87,214.85500000000002,211.56,211.56,0.0,0.0
23,0.0,1.0,0.0,1.0,1.0,0.0,0.0,1.0,0.0,100.0,1.0,1.1856,26.0,0.0,0.0,0.0,59.999996,0.0,26.0,26.0,26.0,26.0,0.018888888888888955,0.2561,-0.0609,292.114,-2.7105,-2.6285,-1.6711,-1.49,-197.88,215.95499999999998,190.501625,0.0,0.0,0.0,0.0,0.04683333333333333,-5.498166666666667,-5.498166666666667,-0.5764,-0.014,0.026999999999999913,-1.141,68.757,0.0431,-0.230475,0.927999999999999,100.0,1.0,1.0,212.11666666666667,0.0,0.0,0.0,0.0,0.0,0.0,0.0,8990.8,0.0,55.0,5.0,247.5,1.0,0.0,0.0,0.0,0.0,0.0,0.0,0.0,1.1610000000000014,1.1610000000000014,0.0,0.0,1.0,55.0,616.79921,10000.0,85.000001,85.000001,85.000001,85.000001,395.0,0.0,0.0,0.0,1.0,166.665,51.650999999999996,51.650999999999996,48.004,48.004,34.0,-26.515,23.1,-28.443333333333335,26.96,0.0,1782.516,0.8449999999999989,100.0,28.349,28.591,43.05,44.083,0.0,1.0,100.0,0.0,0.0,0.0,0.0,3271.5714285714284,3101.4,4055.625,3967.5,304.995,304.813,315.1125,315.067,21.9881,20.6347,21.9736,21.485500000000002,314.999998,314.999998,324.999988,324.999988,99.55888571428571,99.50731666666667,99.56731428571429,99.54734285714285,0.056333333333333346,-0.07599999999999996,-0.092,0.12816666666666665,-0.061666666666667425,-0.054999999999999716,1.543,1.5713333333333335,38.426,29.967,38.335,35.2845,55.894,35.317499999999995,59.5985,52.692,53.833,34.433,58.183,51.0085,52.988,33.9705,58.088499999999996,50.41,-0.0129999999999999,-0.14400000000000013,0.09902000000000001,0.10576,0.0,215.305,215.22,212.11666666666667,212.11666666666667,0.0,0.0
24,0.0,1.0,0.0,1.0,1.0,0.0,0.0,1.0,0.0,100.0,1.0,1.1856,26.0,0.0,0.0,0.0,59.999996,0.0,26.0,26.0,26.0,26.0,-0.05222222222222217,0.27170000000000005,-0.0005,292.358,-2.7123,-2.662,-1.5721500000000002,-1.5386000000000002,-194.57999999999998,215.96,190.479,0.0,0.0,0.0,0.0,0.04873333333333334,-5.498166666666667,-5.498166666666667,-0.5822,-0.6586666666666666,0.01344444444444437,-0.43900000000000006,68.886,-0.0061,-0.217975,1.2520000000000007,100.0,1.0,1.0,212.38333333333333,0.0,0.0,0.0,0.0,0.0,0.0,0.0,9002.1,0.0,55.0,5.0,247.96,0.0,0.0,0.0,0.0,0.0,0.0,0.0,0.0,1.2089999999999996,1.2089999999999996,0.0,0.0,0.0,55.0,616.79921,10000.0,85.000001,85.000001,85.000001,85.000001,395.0,0.0,0.0,0.0,1.0,333.33500000000004,52.856,52.856,47.028,47.028,34.0,-24.855,19.82,-32.41,26.6675,0.0,1782.466,0.8599999999999994,100.0,28.048000000000002,28.134999999999998,43.391999999999996,43.739000000000004,0.0,1.0,100.0,0.0,0.0,0.0,0.0,2974.714285714286,2910.6,4322.75,4100.3,305.904,305.478,314.3605,314.696,21.9969,20.6398,21.9835,21.494,314.999998,314.999998,324.999988,324.999988,99.5589,99.50731666666667,99.56745714285714,99.54748571428571,0.027666666666666728,-0.1223333333333334,-0.14100000000000001,0.08333333333333333,-0.041666666666671404,-0.045000000000001705,1.48,1.5306666666666666,38.480999999999995,29.999000000000002,38.397,35.338,55.879000000000005,35.3545,59.635999999999996,52.749,53.819,34.4675,58.218,51.0635,52.973,34.0035,58.1205,50.464,-0.013500000000000068,-0.15399999999999991,0.099055,0.10992500000000001,0.0,215.695,215.60500000000002,212.38333333333333,212.38333333333333,0.0,0.0
25,0.0,1.0,0.0,1.0,1.0,0.0,0.0,1.0,0.0,100.0,1.0,1.1856,26.0,0.0,0.0,0.0,59.999996,0.0,26.0,26.0,26.0,26.0,-0.10755555555555552,0.25070000000000014,-0.04763333333333333,292.16,-2.7366,-2.663875,-1.5559,-1.5716,-191.06,215.9675,190.453625,0.0,0.0,0.0,0.0,0.050800000000000005,-5.498166666666667,-5.498166666666667,-0.6113000000000001,0.23866666666666667,-0.015444444444444372,-0.786,69.018,-0.053200000000000004,-0.223,1.4339999999999993,100.0,1.0,1.0,212.94666666666666,0.0,0.0,0.0,0.0,0.0,0.0,0.0,9026.0,0.0,55.0,5.0,248.43333333333334,1.0,0.0,0.0,0.0,0.0,0.0,0.0,0.0,1.259999999999998,1.259999999999998,0.0,0.0,1.0,55.0,616.79921,10000.0,85.000001,85.000001,85.000001,85.000001,395.0,0.0,0.0,0.0,1.0,166.665,51.559,51.559,47.928,47.928,34.0,-29.67,22.43,-30.953333333333333,24.1475,0.0,1782.417,0.75,100.0,28.429,28.1,43.342,43.134,0.0,1.0,100.0,0.0,0.0,0.0,0.0,3349.5714285714284,3302.5,4010.75,3964.9,304.749,304.461,315.12925,315.06775,22.0064,20.6454,21.9938,21.503,314.999998,314.999998,324.999988,324.999988,99.5589,99.50733333333334,99.5676,99.54764285714286,0.009666666666666934,-0.1293333333333333,-0.1794,0.051833333333333335,-0.03833333333332689,-0.02833333333332888,1.546,1.6073333333333335,38.54,30.034,38.461,35.394,55.861999999999995,35.397999999999996,59.6725,52.8065,53.803,34.5075,58.2515,51.1195,52.957,34.042,58.150999999999996,50.51833333333333,-0.018999999999999906,-0.14150000000000018,0.10443000000000001,0.10881,0.0,216.12,215.99,212.94666666666666,212.94666666666666,0.0,0.0
26,0.0,1.0,0.0,1.0,1.0,0.0,0.0,1.0,0.0,100.0,1.0,1.1856,26.0,0.0,0.0,0.0,59.999996,0.0,26.0,26.0,26.0,26.0,-0.13488888888888895,0.2639,0.0461,291.046,-2.6605,-2.7695,-1.58095,-1.5942,-187.54,215.97,190.427875,0.0,0.0,0.0,0.0,0.052833333333333336,-5.498166666666667,-5.498166666666667,-0.5671,0.436,-0.0642222222222224,-1.064,69.154,-0.0806,-0.19535,1.3239999999999998,100.0,1.0,1.0,213.05333333333334,0.0,0.0,0.0,0.0,0.0,0.0,0.0,9030.6,0.0,55.0,5.0,248.92666666666668,0.0,0.0,0.0,0.0,0.0,0.0,0.0,0.0,1.311,1.311,0.0,0.0,0.0,55.0,616.79921,10000.0,85.000001,85.000001,85.000001,85.000001,395.0,0.0,0.0,0.0,1.0,333.33500000000004,51.605000000000004,51.605000000000004,45.882999999999996,45.882999999999996,34.0,-29.0675,19.53666666666667,-40.596666666666664,26.62,0.0,1782.365,0.5650000000000013,100.0,29.261,28.516,44.337,43.49,0.0,1.0,100.0,0.0,0.0,0.0,0.0,3283.4285714285716,2895.4,4737.125,4455.9,304.91,305.43033333333335,313.43075,313.84225,22.0161,20.651,22.0045,21.5122,314.999998,314.999998,324.999988,324.999988,99.5589,99.50735,99.56775714285715,99.54778571428571,-0.007333333333333192,-0.15200000000000002,-0.2066,0.0135,-0.03999999999999915,-0.03166666666666629,1.401,1.4493333333333334,38.601,30.069,38.528,35.451499999999996,55.849000000000004,35.443,59.717,52.8685,53.791,34.549,58.2935,51.179,52.944,34.0815,58.189499999999995,50.57633333333334,-0.040000000000000036,-0.12300000000000022,0.10805500000000001,0.11098000000000001,0.0,216.575,216.45,213.05333333333334,213.05333333333334,0.0,0.0
27,0.0,1.0,0.0,1.0,1.0,0.0,0.0,1.0,0.0,100.0,1.0,1.1856,26.0,0.0,0.0,0.0,59.999996,0.0,26.0,26.0,26.0,26.0,-0.12677777777777777,0.24170000000000003,-0.08056666666666666,291.824,-2.6092,-2.751875,-1.56325,-1.6732,-184.01,215.97,190.403375,0.0,0.0,0.0,0.0,0.054900000000000004,-5.498166666666667,-5.498166666666667,-0.6048,-0.897,-0.07066666666666643,0.6050000000000004,69.28399999999999,-0.092,-0.24727500000000002,1.1579999999999995,100.0,1.0,1.0,213.69666666666666,0.0,0.0,0.0,0.0,0.0,0.0,0.0,9057.8,0.0,55.0,5.0,249.4,1.0,0.0,0.0,0.0,0.0,0.0,0.0,0.0,1.3619999999999983,1.3619999999999983,0.0,0.0,1.0,55.0,616.79921,10000.0,85.000001,85.000001,85.000001,85.000001,395.0,0.0,0.0,0.0,1.0,83.335,51.743,51.743,47.165,47.165,34.0,-28.235,20.456666666666667,-32.15,24.1575,0.0,1782.316,0.46499999999999986,100.0,29.176000000000002,28.067,44.9,43.595,0.0,1.0,100.0,0.0,0.0,0.0,0.0,3240.714285714286,3071.0,3970.375,3908.5,305.009,305.119,315.11525,315.16025,22.0256,20.6565,22.0152,21.5215,314.999998,314.999998,324.999988,324.999988,99.5589,99.50736666666667,99.5679,99.54792857142857,-0.008000000000000007,-0.15333333333333332,-0.2042,0.029,-0.03999999999999915,-0.06499999999999773,1.52,1.565,38.66,30.103,38.595,35.509,55.834,35.486,59.759,52.929,53.775999999999996,34.588499999999996,58.332499999999996,51.2365,52.928,34.1195,58.226,50.632666666666665,-0.04349999999999987,-0.12199999999999989,0.10276500000000001,0.11922,0.0,216.92000000000002,216.82,213.69666666666666,213.69666666666666,0.0,0.0
28,0.0,1.0,0.0,1.0,1.0,0.0,0.0,1.0,0.0,100.0,1.0,1.1856,26.0,0.0,0.0,0.0,59.999996,0.0,26.0,26.0,26.0,26.0,-0.138,0.27049999999999996,-0.038733333333333335,291.809,-2.6349,-2.731875,-1.5394999999999999,-1.6061,-180.26,215.9675,190.376125,0.0,0.0,0.0,0.0,0.05706666666666667,-5.498166666666667,-5.498166666666667,-0.5939,0.544,-0.07122222222222208,0.8239999999999998,69.424,-0.098,-0.20367500000000002,0.9979999999999993,100.0,1.0,1.0,214.06333333333333,0.0,0.0,0.0,0.0,0.0,0.0,0.0,9073.4,0.0,55.0,5.0,249.89666666666665,0.0,0.0,0.0,0.0,0.0,0.0,0.0,0.0,1.4160000000000004,1.4160000000000004,0.0,0.0,0.0,55.0,616.79921,10000.0,85.000001,85.000001,85.000001,85.000001,395.0,0.0,0.0,0.0,1.0,111.11,52.139,52.139,46.814,46.814,34.0,-26.6075,20.43333333333333,-35.78333333333333,25.1125,0.0,1782.261,0.245000000000001,100.0,29.179,27.944,44.352000000000004,43.106,0.0,1.0,100.0,0.0,0.0,0.0,0.0,3094.857142857143,2986.9,4352.5,4212.8,305.337,305.3833333333333,314.35725,314.526,22.035800000000002,20.6623,22.0261,21.531,314.999998,314.999998,324.999988,324.999988,99.55891428571428,99.5074,99.56805714285714,99.54808571428572,0.004666666666666597,-0.134,-0.2102,0.021666666666666667,-0.045000000000001705,-0.045000000000001705,1.492,1.5303333333333335,38.724000000000004,30.139333333333333,38.663,35.569,55.819,35.5315,59.799,52.99,53.762,34.631,58.3705,51.295500000000004,52.913,34.1595,58.2605,50.68966666666667,-0.06400000000000006,-0.09549999999999992,0.109155,0.11822500000000001,0.0,217.385,217.305,214.06333333333333,214.06333333333333,0.0,0.0
29,0.0,1.0,0.0,1.0,1.0,0.0,0.0,1.0,0.0,100.0,1.0,1.1856,26.0,0.0,0.0,0.0,59.999996,0.0,26.0,26.0,26.0,26.0,-0.12422222222222212,0.2459,-0.011233333333333333,291.687,-2.5812,-2.788125,-1.54525,-1.6071,-176.93,215.9625,190.35125,0.0,0.0,0.0,0.0,0.059000000000000004,-5.498166666666667,-5.498166666666667,-0.6118,-0.6713333333333333,-0.0694444444444442,0.7149999999999999,69.548,-0.0881,-0.222525,0.6300000000000008,100.0,1.0,1.0,214.39666666666668,0.0,0.0,0.0,0.0,0.0,0.0,0.0,9087.5,0.0,55.0,5.0,250.35000000000002,1.0,0.0,0.0,0.0,0.0,0.0,0.0,0.0,1.4639999999999986,1.4639999999999986,0.0,0.0,1.0,55.0,616.79921,10000.0,85.000001,85.000001,85.000001,85.000001,395.0,0.0,0.0,0.0,1.0,83.335,51.849000000000004,51.849000000000004,47.043,47.043,34.0,-27.494999999999997,21.53666666666667,-33.31333333333333,25.05,0.0,1782.212,0.1700000000000017,100.0,29.0,27.883,44.691,43.377,0.0,1.0,100.0,0.0,0.0,0.0,0.0,3262.142857142857,3043.3,4125.625,4169.1,304.903,305.165,314.76575,314.56625,22.0447,20.6674,22.0361,21.5397,314.999998,314.999998,324.999988,324.999988,99.55891428571428,99.5074,99.5682,99.54821428571428,0.009333333333333194,-0.1316666666666666,-0.1996,0.0235,-0.03333333333333144,-0.04333333333332945,1.4943333333333333,1.5136666666666665,38.778999999999996,30.171333333333333,38.726,35.623,55.804,35.571,59.839,53.0475,53.748000000000005,34.667,58.408,51.3505,52.897999999999996,34.1945,58.2945,50.74333333333333,-0.07299999999999995,-0.08950000000000014,0.10918000000000001,0.104215,0.0,217.715,217.655,214.39666666666668,214.39666666666668,0.0,0.0
30,0.0,1.0,0.0,1.0,1.0,0.0,0.0,1.0,0.0,100.0,1.0,1.1856,26.0,0.0,0.0,0.0,59.999996,0.0,26.0,26.0,26.0,26.0,-0.0975555555555555,0.2632000000000001,-0.005266666666666667,291.077,-2.6448,-2.7705,-1.48905,-1.6647,-173.79,215.95499999999998,190.327875,0.0,0.0,0.0,0.0,0.06083333333333334,-5.498166666666667,-5.498166666666667,-0.5992000000000001,0.8233333333333334,-0.06933333333333369,-0.32200000000000006,69.663,-0.075,-0.21295,0.6760000000000002,100.0,1.0,1.0,214.76666666666665,0.0,0.0,0.0,0.0,0.0,0.0,0.0,9103.2,0.0,55.0,5.0,250.76,0.0,0.0,0.0,0.0,0.0,0.0,1.0,0.0,1.5090000000000003,1.5090000000000003,0.0,0.0,0.0,55.0,616.79921,10000.0,85.000001,85.000001,85.000001,85.000001,395.0,0.0,0.0,0.0,1.0,166.665,50.797,50.797,46.86,46.86,34.0,-29.689999999999998,21.781666666666666,-33.763333333333335,26.04,0.0,1782.169,0.09499999999999886,100.0,29.721,28.751,44.461,43.519,0.0,1.0,100.0,0.0,0.0,0.0,0.0,3492.4285714285716,3058.6,4330.25,4101.7,304.3595,305.07666666666665,314.39175,314.622,22.0533,20.6725,22.0453,21.5478,314.999998,314.999998,324.999988,324.999988,99.55892857142857,99.50741666666667,99.56834285714285,99.54835714285714,0.020333333333333314,-0.126,-0.1886,0.0325,-0.04833333333333201,-0.030000000000001137,1.4916666666666667,1.4966666666666666,38.833,30.202666666666666,38.783,35.6735,55.795,35.6105,59.873,53.0995,53.739000000000004,34.7035,58.44,51.4005,52.888,34.2295,58.324,50.79233333333333,-0.08499999999999996,-0.08950000000000014,0.103845,0.11075000000000002,0.0,218.115,218.055,214.76666666666665,214.76666666666665,0.0,0.0
31,0.0,1.0,0.0,1.0,1.0,0.0,0.0,1.0,0.0,100.0,1.0,1.1856,26.0,0.0,0.0,0.0,59.999996,0.0,26.0,26.0,26.0,26.0,-0.07277777777777783,0.2571000000000001,0.023933333333333334,290.863,-2.7138999999999998,-2.645375,-1.54135,-1.6533,-170.24,215.9425,190.302125,0.0,0.0,0.0,0.0,0.0629,-5.498166666666667,-5.498166666666667,-0.5951000000000001,-0.709,-0.05444444444444452,0.6130000000000004,69.795,-0.0567,-0.22725,0.3000000000000007,100.0,1.0,1.0,215.06666666666666,0.0,0.0,0.0,0.0,0.0,0.0,0.0,9115.8,0.0,55.0,5.0,251.23666666666668,1.0,0.0,0.0,0.0,0.0,0.0,1.0,0.0,1.5599999999999987,1.5599999999999987,0.0,0.0,1.0,55.0,616.79921,10000.0,85.000001,85.000001,85.000001,85.000001,395.0,0.0,0.0,0.0,1.0,166.665,51.086,51.086,45.7,45.7,34.0,-27.237499999999997,23.133333333333333,-32.519999999999996,29.3475,0.0,1782.116,0.010000000000001563,100.0,29.435,28.722,45.159,44.08,0.0,1.0,100.0,0.0,0.0,0.0,0.0,3240.142857142857,3277.1,4265.375,4325.7,305.1005,304.6116666666667,314.401,314.23075,22.0627,20.6781,22.0561,21.5572,314.999998,314.999998,324.999988,324.999988,99.55892857142857,99.50743333333334,99.56848571428571,99.5485,0.034666666666666845,-0.10466666666666657,-0.1556,0.06533333333333333,-0.045000000000001705,-0.046666666666666856,1.4626666666666668,1.466,38.891999999999996,30.238333333333333,38.85,35.7325,55.78,35.653999999999996,59.9165,53.1625,53.724999999999994,34.7435,58.4805,51.461,52.873000000000005,34.2675,58.3615,50.85133333333333,-0.07850000000000001,-0.08400000000000007,0.10073000000000001,0.109975,0.0,218.465,218.44,215.06666666666666,215.06666666666666,0.0,0.0
32,0.0,1.0,0.0,1.0,1.0,0.0,0.0,1.0,0.0,100.0,1.0,1.1856,26.0,0.0,0.0,0.0,59.999996,0.0,26.0,26.0,26.0,26.0,-0.061999999999999944,0.2703,-0.0066,291.10699999999997,-2.6235,-2.75275,-1.6068500000000001,-1.5612,-166.67000000000002,215.93,190.276375,0.0,0.0,0.0,0.0,0.06496666666666667,-5.498166666666667,-5.498166666666667,-0.6082000000000001,0.168,-0.08011111111111147,-0.8239999999999998,69.922,-0.0441,-0.227975,0.2579999999999991,100.0,1.0,1.0,215.55,0.0,0.0,0.0,0.0,0.0,0.0,0.0,9136.3,0.0,55.0,5.0,251.69333333333333,0.0,0.0,0.0,0.0,0.0,0.0,1.0,0.0,1.6110000000000007,1.6110000000000007,0.0,0.0,0.0,55.0,616.79921,10000.0,85.000001,85.000001,85.000001,85.000001,395.0,0.0,0.0,0.0,1.0,166.665,51.285,51.285,46.402,46.402,34.0,-26.1625,22.566666666666666,-34.11666666666666,27.505,0.0,1782.065,-0.10500000000000043,100.0,29.322,28.868000000000002,44.644,43.954,0.0,1.0,100.0,0.0,0.0,0.0,0.0,3307.285714285714,3008.8,4353.0,4253.2,304.865,305.124,314.40475,314.389,22.0721,20.6838,22.0665,21.5664,314.999998,314.999998,324.999988,324.999988,99.55892857142857,99.50745,99.56864285714286,99.54865714285714,0.05466666666666642,-0.09666666666666657,-0.16280000000000003,0.07,-0.046666666666666856,-0.03999999999999915,1.508,1.5176666666666665,38.951,30.273666666666664,38.915,35.79,55.766999999999996,35.696,59.9535,53.221000000000004,53.712,34.7825,58.515,51.5175,52.86,34.305,58.393,50.906333333333336,-0.09699999999999998,-0.06999999999999984,0.10802,0.11155500000000002,0.0,218.89,218.845,215.55,215.55,0.0,0.0
33,0.0,1.0,0.0,1.0,1.0,0.0,0.0,1.0,0.0,100.0,1.0,1.1856,26.0,0.0,0.0,0.0,59.999996,0.0,26.0,26.0,26.0,26.0,-0.03266666666666662,0.25439999999999996,-0.027633333333333333,291.504,-2.6757,-2.729625,-1.5499,-1.6313,-163.11,215.91500000000002,190.249625,0.0,0.0,0.0,0.0,0.06703333333333333,-5.498166666666667,-5.498166666666667,-0.616,-0.52,-0.05799999999999983,1.359,70.05199999999999,-0.0333,-0.2174,0.11800000000000033,100.0,1.0,1.0,215.92333333333335,0.0,0.0,0.0,0.0,0.0,0.0,0.0,9152.2,0.0,55.0,5.0,252.16,1.0,0.0,0.0,0.0,0.0,0.0,1.0,0.0,1.661999999999999,1.661999999999999,0.0,0.0,1.0,55.0,616.79921,10000.0,85.000001,85.000001,85.000001,85.000001,395.0,0.0,0.0,0.0,1.0,166.665,51.849000000000004,51.849000000000004,46.814,46.814,34.0,-24.432499999999997,23.151666666666667,-30.71,29.2725,0.0,1782.015,-0.1999999999999993,100.0,29.151,28.393,44.620000000000005,43.99,0.0,1.0,100.0,0.0,0.0,0.0,0.0,3113.857142857143,3034.8,4115.375,4233.8,305.3915,305.24033333333335,314.81225,314.4,22.0814,20.6893,22.0769,21.5756,314.999998,314.999998,324.999988,324.999988,99.55894285714285,99.50746666666667,99.5688,99.5488,0.06633333333333358,-0.07733333333333337,-0.1474,0.085,-0.02833333333332888,-0.051666666666669414,1.4813333333333334,1.5043333333333333,39.009,30.308,38.980999999999995,35.8475,55.753,35.7345,59.9915,53.2815,53.699,34.818,58.5505,51.5755,52.846000000000004,34.338499999999996,58.4255,50.963,-0.09949999999999992,-0.0674999999999999,0.109545,0.10402000000000002,0.0,219.26,219.235,215.92333333333335,215.92333333333335,0.0,0.0
34,0.0,1.0,0.0,1.0,1.0,0.0,0.0,1.0,0.0,100.0,1.0,1.1856,26.0,0.0,0.0,0.0,59.999996,0.0,26.0,26.0,26.0,26.0,-0.03700000000000003,0.2631000000000001,-0.08873333333333334,291.946,-2.7102,-2.65075,-1.6212,-1.5564,-159.32,215.8975,190.21975,0.0,0.0,0.0,0.0,0.06923333333333334,-5.498166666666667,-5.498166666666667,-0.6542,-0.883,-0.024333333333333318,0.7880000000000003,70.187,-0.019700000000000002,-0.22690000000000002,-0.03399999999999981,100.0,1.0,1.0,216.38,0.0,0.0,0.0,0.0,0.0,0.0,0.0,9171.6,0.0,55.0,5.0,252.64666666666665,0.0,0.0,0.0,0.0,0.0,0.0,1.0,0.0,1.716000000000001,1.716000000000001,0.0,0.0,0.0,55.0,616.79921,10000.0,85.000001,85.000001,85.000001,85.000001,395.0,0.0,0.0,0.0,1.0,83.335,52.46,52.46,47.134,47.134,34.0,-22.545,22.994999999999997,-29.863333333333333,28.497500000000002,0.0,1781.962,-0.21499999999999986,100.0,28.72,28.151,44.223,43.973,0.0,1.0,100.0,0.0,0.0,0.0,0.0,2919.5714285714284,3035.8,4079.0,4195.3,305.906,305.2486666666667,315.0005,314.558,22.0911,20.6951,22.0879,21.5854,314.999998,314.999998,324.999988,324.999988,99.55895714285714,99.50746666666667,99.56895714285714,99.54895714285715,0.07866666666666644,-0.06433333333333335,-0.127,0.1,-0.041666666666671404,-0.041666666666671404,1.5496666666666667,1.53,39.07,30.344666666666665,39.049,35.909,55.736999999999995,35.7745,60.0295,53.3455,53.685,34.855000000000004,58.586,51.6365,52.83,34.374,58.457,51.022666666666666,-0.10050000000000003,-0.06300000000000017,0.09978500000000001,0.111155,0.0,219.66500000000002,219.64499999999998,216.38,216.38,0.0,0.0
35,0.0,1.0,0.0,1.0,1.0,0.0,0.0,1.0,0.0,100.0,1.0,1.1856,26.0,0.0,0.0,0.0,59.999996,0.0,26.0,26.0,26.0,26.0,-0.017555555555555546,0.23870000000000013,-0.08593333333333335,291.687,-2.6814999999999998,-2.6648750000000003,-1.5713,-1.5449000000000002,-155.95,215.8825,190.191125,0.0,0.0,0.0,0.0,0.0712,-5.498166666666667,-5.498166666666667,-0.6857000000000001,0.08700000000000001,-0.041888888888888864,-0.2450000000000001,70.306,-0.0088,-0.226325,-0.11799999999999944,100.0,1.0,1.0,216.84333333333333,0.0,0.0,0.0,0.0,0.0,0.0,0.0,9191.1,0.0,55.0,5.0,253.07666666666665,1.0,0.0,0.0,0.0,0.0,0.0,1.0,0.0,1.7639999999999993,1.7639999999999993,0.0,0.0,1.0,55.0,616.79921,10000.0,85.000001,85.000001,85.000001,85.000001,395.0,0.0,0.0,0.0,1.0,111.11,51.331,51.331,46.951,46.951,34.0,-24.1475,26.32,-28.093333333333334,26.8625,0.0,1781.913,-0.18499999999999872,100.0,28.714,28.691,43.936,43.546,0.0,1.0,100.0,0.0,0.0,0.0,0.0,3135.0,3370.6,4007.75,3974.5,305.303,304.067,315.1925,315.08575,22.0997,20.7006,22.0975,21.5939,314.999998,314.999998,324.999988,324.999988,99.55895714285714,99.50748333333334,99.56908571428572,99.5491,0.07966666666666677,-0.06399999999999995,-0.1182,0.10866666666666668,-0.01999999999999602,-0.06499999999999773,1.5573333333333332,1.5590000000000002,39.123000000000005,30.378666666666668,39.11,35.962,55.723,35.8135,60.0625,53.397999999999996,53.671,34.891,58.6165,51.6875,52.816,34.408500000000004,58.485,51.072,-0.09450000000000003,-0.07050000000000001,0.10724,0.102635,0.0,220.01999999999998,220.05,216.84333333333333,216.84333333333333,0.0,0.0
36,0.0,1.0,0.0,1.0,1.0,0.0,0.0,1.0,0.0,100.0,1.0,1.1856,26.0,0.0,0.0,0.0,59.999996,0.0,26.0,26.0,26.0,26.0,0.007222222222222241,0.25839999999999996,0.011000000000000001,291.122,-2.6195,-2.73625,-1.6388500000000001,-1.5979999999999999,-152.35999999999999,215.865,190.1595,0.0,0.0,0.0,0.0,0.0733,-5.498166666666667,-5.498166666666667,-0.6651,-0.28200000000000003,-0.08044444444444432,-1.222,70.437,-0.0022,-0.20335,0.0259999999999998,100.0,1.0,1.0,216.94666666666666,0.0,0.0,0.0,0.0,0.0,0.0,0.0,9195.6,0.0,55.0,5.0,253.54666666666668,0.0,0.0,0.0,0.0,0.0,0.0,1.0,0.0,1.8150000000000013,1.8150000000000013,0.0,0.0,0.0,55.0,616.79921,10000.0,85.000001,85.000001,85.000001,85.000001,395.0,0.0,0.0,0.0,1.0,111.11,52.109,52.109,45.914,45.914,34.0,-21.877499999999998,21.95,-34.663333333333334,31.365000000000002,0.0,1781.86,-0.1750000000000007,100.0,29.051000000000002,28.894,44.274,44.336,0.0,1.0,100.0,0.0,0.0,0.0,0.0,2961.285714285714,2811.6,4615.125,4400.8,305.833,305.588,313.8905,313.8935,22.109,20.7064,22.1081,21.6033,314.999998,314.999998,324.999988,324.999988,99.55897142857143,99.50748333333334,99.56925714285714,99.54925714285714,0.08366666666666678,-0.06966666666666665,-0.117,0.0985,-0.046666666666666856,-0.04833333333333201,1.4423333333333332,1.4426666666666668,39.181,30.414666666666665,39.175,36.021,55.711,35.8535,60.105000000000004,53.4645,53.659,34.9295,58.656,51.7515,52.804,34.445499999999996,58.521,51.13466666666667,-0.10050000000000003,-0.07100000000000017,0.103415,0.10304500000000001,0.0,220.45499999999998,220.46,216.94666666666666,216.94666666666666,0.0,0.0
