,ABS Active,ABS Enabled,AID Allow Tire Blankets,AID Auto Blip,AID Auto Clutch,AID Auto Shift,AID Fuel Rate,AID Ideal Line,AID Mech Damage,AID Stability,AID Tire Wear Rate,Air Density,Air Temp,Ballast,Best Lap Delta,Best Lap Time,Brake Bias,Brake Pos,Brake Temp FL,Brake Temp FR,Brake Temp RL,Brake Temp RR,CG Accel Lateral,CG Accel Longitudinal,CG Accel Vertical,CG Height,Camber FL,Camber FR,Camber RL,Camber RR,Car Coord X,Car Coord Y,Car Coord Z,Car Damage Front,Car Damage Left,Car Damage Rear,Car Damage Right,Car Pos Norm,Caster FL,Caster FR,Chassis Pitch Angle,Chassis Pitch Rate,Chassis Roll Angle,Chassis Roll Rate,Chassis Velocity X,Chassis Velocity Y,Chassis Velocity Z,Chassis Yaw Rate,Clutch Pos,DRS Active,DRS Available,Drive Train Speed,ERS Heat Charging,ERS Is Charging,ERS Max Energy,ERS Power Level,ERS Recovery Level,Engine Brake Setting,Engine Limiter,Engine RPM,Flags,Fuel Level,Gear,Ground Speed,HR Sample Clock,In Pit,KERS Charge,KERS Deployed Energy,KERS Input,KERS Max Energy,LR Sample Clock,Lap Invalidated,Lap Time,Lap Time2,Last Lap Time,Last Sector Time,MR Sample Clock,Max Fuel,Max Power,Max RPM,Max Sus Travel FL,Max Sus Travel FR,Max Sus Travel RL,Max Sus Travel RR,Max Torque,Max Turbo Boost,Num Tires Off Track,Penalties Enabled,Position,Raw Data Sample Rate,Ride Height FL,Ride Height FR,Ride Height RL,Ride Height RR,Road Temp,Self Align Torque FL,Self Align Torque FR,Self Align Torque RL,Self Align Torque RR,Session Lap Count,Session Time Left,Steering Angle,Surface Grip,Suspension Travel FL,Suspension Travel FR,Suspension Travel RL,Suspension Travel RR,TC Active,TC Enabled,Throttle Pos,Tire Dirt Level FL,Tire Dirt Level FR,Tire Dirt Level RL,Tire Dirt Level RR,Tire Load FL,Tire Load FR,Tire Load RL,Tire Load RR,Tire Loaded Radius FL,Tire Loaded Radius FR,Tire Loaded Radius RL,Tire Loaded Radius RR,Tire Pressure FL,Tire Pressure FR,Tire Pressure RL,Tire Pressure RR,Tire Radius FL,Tire Radius FR,Tire Radius RL,Tire Radius RR,Tire Rubber Grip FL,Tire Rubber Grip FR,Tire Rubber Grip RL,Tire Rubber Grip RR,Tire Slip Angle FL,Tire Slip Angle FR,Tire Slip Angle RL,Tire Slip Angle RR,Tire Slip Ratio FL,Tire Slip Ratio FR,Tire Slip Ratio RL,Tire Slip Ratio RR,Tire Temp Core FL,Tire Temp Core FR,Tire Temp Core RL,Tire Temp Core RR,Tire Temp Inner FL,Tire Temp Inner FR,Tire Temp Inner RL,Tire Temp Inner RR,Tire Temp Middle FL,Tire Temp Middle FR,Tire Temp Middle RL,Tire Temp Middle RR,Tire Temp Outer FL,Tire Temp Outer FR,Tire Temp Outer RL,Tire Temp Outer RR,Toe In FL,Toe In FR,Toe In RL,Toe In RR,Turbo Boost,Wheel Angular Speed FL,Wheel Angular Speed FR,Wheel Angular Speed RL,Wheel Angular Speed RR,Wind Direction,Wind Speed
0,0.0,1.0,0.0,1.0,1.0,0.0,0.0,1.0,0.0,100.0,1.0,1.1856,26.0,0.0,0.0,0.0,59.99999,0.0,26.0,26.0,26.0,26.0,-0.09888888888888892,0.2996000000000001,0.03553333333333333,294.067,-2.7052,-2.680888888888889,-1.50115,-1.5718999999999999,-275.61,216.29250000000002,190.98725,0.0,0.0,0.0,0.0,0.0016333333333333332,-5.498166666666667,-5.498166666666667,-0.5499,1.1613333333333333,-0.02444444444444427,-0.20399999999999996,65.508,-0.047,-0.21665,1.032,100.0,1.0,1.0,202.2733333333333,0.0,0.0,0.0,0.0,0.0,0.0,0.0,8573.6,0.0,55.0,5.0,235.8,0.0,0.0,0.0,0.0,0.0,0.0,0.0,0.0,0.0030000000000001137,0.0030000000000001137,0.0,0.0,0.0,55.0,616.79921,10000.0,85.0,85.0,85.0,85.0,395.0,0.0,0.0,0.0,1.0,20.0,52.75,52.75,49.652,49.652,34.0,-27.98,23.226,-30.466666666666665,24.052500000000002,0.0,1783.534,0.9200000000000017,100.0,27.338,26.647,40.743,40.32,0.0,1.0,100.0,0.0,0.0,0.0,0.0,3104.285714285714,3417.3,4078.375,3943.0,305.3435,303.98575,314.8946666666667,315.0035,21.7705,20.5129,21.7373,21.2794,314.99999,314.99999,324.99998,324.99998,99.55851428571428,99.50723333333333,99.56394285714286,99.54392857142857,-0.017249999999999988,-0.13575000000000004,-0.17400000000000002,0.0512,-0.06666666666666998,-0.061666666666667425,1.5556666666666668,1.572,37.066,29.205666666666666,36.858000000000004,33.9965,56.153,34.451499999999996,58.66,51.1945,54.084,33.637,57.309,49.573,53.263,33.2125,57.283500000000004,49.00333333333333,0.0,-0.14449999999999985,0.10906,0.09939,0.0,205.305,205.19,202.2733333333333,202.2733333333333,0.0,0.0
1,0.0,1.0,0.0,1.0,1.0,0.0,0.0,1.0,0.0,100.0,1.0,1.1856,26.0,0.0,0.0,0.0,59.999996,0.0,26.0,26.0,26.0,26.0,-0.13555555555555554,0.3098000000000001,-0.003,293.182,-2.6315,-2.7714444444444446,-1.5217,-1.5545,-272.07,216.28750000000002,190.966,0.0,0.0,0.0,0.0,0.0037,-5.498166666666667,-5.498166666666667,-0.49720000000000003,-0.5906666666666667,-0.0602222222222224,-0.45899999999999996,65.672,-0.062,-0.19840000000000002,1.4800000000000004,100.0,1.0,1.0,202.45333333333332,0.0,0.0,0.0,0.0,0.0,0.0,0.0,8581.3,0.0,55.0,5.0,236.38666666666666,1.0,0.0,0.0,0.0,0.0,0.0,0.0,0.0,0.05699999999999861,0.05699999999999861,0.0,0.0,1.0,55.0,616.79921,10000.0,85.000001,85.000001,85.000001,85.000001,395.0,0.0,0.0,0.0,1.0,166.665,53.757,53.757,48.431,48.431,34.0,-26.945,17.634,-33.51,28.97,0.0,1783.482,0.9100000000000001,100.0,27.58,26.8,42.782,41.547,0.0,1.0,100.0,0.0,0.0,0.0,0.0,3015.4285714285716,2679.7,4243.125,4750.4,305.563,306.29725,314.43233333333336,312.99625,21.781,20.5183,21.7487,21.289,314.999998,314.999998,324.999988,324.999988,99.55852857142857,99.50726666666667,99.5641,99.54407142857143,-0.028749999999999942,-0.15125,-0.185,0.029,-0.03166666666666629,-0.041666666666671404,1.4286666666666668,1.4625,37.131,29.239333333333335,36.929,34.0565,56.137,34.495,58.7085,51.2655,54.069,33.677,57.3545,49.641,53.247,33.251,57.3255,49.07,0.0034999999999998366,-0.1495000000000002,0.09753,0.10803000000000001,0.0,205.75,205.64499999999998,202.45333333333332,202.45333333333332,0.0,0.0
2,0.0,1.0,0.0,1.0,1.0,0.0,0.0,1.0,0.0,100.0,1.0,1.1856,26.0,0.0,0.0,0.0,59.999996,0.0,26.0,26.0,26.0,26.0,-0.16433333333333333,0.29590000000000005,-0.09286666666666667,293.762,-2.5915,-2.8103333333333333,-1.4776500000000001,-1.6207,-268.92,216.2825,190.94825,0.0,0.0,0.0,0.0,0.005533333333333334,-5.498166666666667,-5.498166666666667,-0.5467000000000001,-0.035333333333333335,-0.0602222222222224,2.5,65.805,-0.08220000000000001,-0.248125,1.7040000000000006,100.0,1.0,1.0,203.31,0.0,0.0,0.0,0.0,0.0,0.0,0.0,8617.6,0.0,55.0,5.0,236.87,0.0,0.0,0.0,0.0,0.0,0.0,0.0,0.0,0.10500000000000043,0.10500000000000043,0.0,0.0,0.0,55.0,616.79921,10000.0,85.000001,85.000001,85.000001,85.000001,395.0,0.0,0.0,0.0,1.0,166.665,52.567,52.567,50.14,50.14,34.0,-29.805,19.734,-29.98,20.0475,0.0,1783.434,0.6900000000000013,100.0,28.326,26.748,42.632,41.218,0.0,1.0,100.0,0.0,0.0,0.0,0.0,3330.5714285714284,2925.5,3786.75,3681.6,304.5325,305.5875,315.5303333333333,315.7735,21.7906,20.5229,21.758499999999998,21.2972,314.999998,314.999998,324.999988,324.999988,99.55852857142857,99.50726666666667,99.56422857142857,99.5442,-0.024249999999999994,-0.15325,-0.234,0.005,-0.04333333333332945,-0.03999999999999915,1.6413333333333333,1.7135,37.191,29.268,36.989999999999995,34.1075,56.126000000000005,34.5315,58.7455,51.32,54.059,33.710499999999996,57.388999999999996,49.6935,53.236,33.283,57.3575,49.12133333333333,-0.018000000000000016,-0.13450000000000006,0.10942500000000001,0.11126000000000001,0.0,206.185,206.04000000000002,203.31,203.31,0.0,0.0
3,0.0,1.0,0.0,1.0,1.0,0.0,0.0,1.0,0.0,100.0,1.0,1.1856,26.0,0.0,0.0,0.0,59.999996,0.0,26.0,26.0,26.0,26.0,-0.15644444444444439,0.31679999999999997,0.07546666666666667,293.442,-2.7224,-2.6993333333333336,-1.5062,-1.5944,-265.75,216.26999999999998,190.929625,0.0,0.0,0.0,0.0,0.007366666666666667,-5.498166666666667,-5.498166666666667,-0.5108,0.3746666666666667,-0.013666666666666938,0.46199999999999997,65.94800000000001,-0.0955,-0.20067500000000002,1.216000000000001,100.0,1.0,1.0,203.46,0.0,0.0,0.0,0.0,0.0,0.0,0.0,8624.0,0.0,55.0,5.0,237.38333333333333,1.0,0.0,0.0,0.0,0.0,0.0,0.0,0.0,0.1529999999999987,0.1529999999999987,0.0,0.0,1.0,55.0,616.79921,10000.0,85.000001,85.000001,85.000001,85.000001,395.0,0.0,0.0,0.0,1.0,166.665,53.513,53.513,48.203,48.203,34.0,-26.07,18.747999999999998,-34.769999999999996,24.0325,0.0,1783.386,0.5500000000000007,100.0,27.94,26.87,42.521,41.268,0.0,1.0,100.0,0.0,0.0,0.0,0.0,2884.0,2906.3,4266.25,4265.7,305.958,305.59375,314.367,314.29,21.7998,20.5278,21.7682,21.3055,314.999998,314.999998,324.999988,324.999988,99.55854285714285,99.5073,99.56435714285715,99.54434285714285,-0.021749999999999936,-0.15174999999999994,-0.21483333333333335,-0.0004,-0.023333333333326323,-0.051666666666669414,1.4983333333333333,1.532,37.248999999999995,29.298666666666666,37.051,34.1595,56.111999999999995,34.572,58.784,51.379999999999995,54.045,33.748,57.425,49.751,53.221000000000004,33.319,57.391,49.17766666666667,-0.030999999999999917,-0.11799999999999988,0.10974500000000001,0.09868,0.0,206.63,206.53,203.46,203.46,0.0,0.0
4,0.0,1.0,0.0,1.0,1.0,0.0,0.0,1.0,0.0,100.0,1.0,1.1856,26.0,0.0,0.0,0.0,59.999996,0.0,26.0,26.0,26.0,26.0,-0.14811111111111108,0.2663,-0.011300000000000001,293.701,-2.6596,-2.7463333333333333,-1.5243,-1.599,-262.39,216.255,190.91,0.0,0.0,0.0,0.0,0.009333333333333334,-5.498166666666667,-5.498166666666667,-0.5425,-0.722,-0.08144444444444421,-1.78,66.094,-0.0913,-0.23597500000000002,1.1579999999999995,100.0,1.0,1.0,204.04333333333335,0.0,0.0,0.0,0.0,0.0,0.0,0.0,8648.6,0.0,55.0,5.0,237.91,0.0,0.0,0.0,0.0,0.0,0.0,0.0,0.0,0.20400000000000063,0.20400000000000063,0.0,0.0,0.0,55.0,616.79921,10000.0,85.000001,85.000001,85.000001,85.000001,395.0,0.0,0.0,0.0,1.0,333.33500000000004,53.192,53.192,48.782,48.782,34.0,-29.7775,18.759999999999998,-33.13333333333333,20.58,0.0,1783.334,0.615000000000002,100.0,27.591,26.811,42.795,41.425,0.0,1.0,100.0,0.0,0.0,0.0,0.0,3277.857142857143,2861.3,4104.625,3684.5,305.0185,305.57025,314.79966666666667,315.623,21.8095,20.5329,21.7788,21.3144,314.999998,314.999998,324.999988,324.999988,99.55854285714285,99.50731666666667,99.5645,99.54448571428571,-0.03225,-0.15749999999999997,-0.215,0.0108,-0.03999999999999915,-0.03333333333333144,1.5493333333333332,1.6055000000000001,37.309,29.330333333333336,37.117999999999995,34.215,56.094,34.6135,58.827,51.4405,54.028999999999996,33.786,57.4655,49.809,53.204,33.3555,57.4285,49.23466666666667,-0.026499999999999968,-0.12250000000000005,0.11051000000000001,0.10803000000000001,0.0,207.05,206.935,204.04333333333335,204.04333333333335,0.0,0.0
5,0.0,1.0,0.0,1.0,1.0,0.0,0.0,1.0,0.0,100.0,1.0,1.1856,26.0,0.0,0.0,0.0,59.999996,0.0,26.0,26.0,26.0,26.0,-0.14522222222222214,0.2953000000000001,-0.014033333333333335,293.701,-2.6669,-2.774,-1.50725,-1.589,-259.01,216.2375,190.889625,0.0,0.0,0.0,0.0,0.011300000000000001,-5.498166666666667,-5.498166666666667,-0.5342,0.4103333333333333,-0.08333333333333348,1.153,66.241,-0.0922,-0.21115,1.0460000000000012,100.0,1.0,1.0,204.45,0.0,0.0,0.0,0.0,0.0,0.0,0.0,8665.9,0.0,55.0,5.0,238.43666666666667,1.0,0.0,0.0,0.0,0.0,0.0,0.0,0.0,0.254999999999999,0.254999999999999,0.0,0.0,1.0,55.0,616.79921,10000.0,85.000001,85.000001,85.000001,85.000001,395.0,0.0,0.0,0.0,1.0,333.33500000000004,53.558,53.558,48.996,48.996,34.0,-27.189999999999998,19.536,-33.656666666666666,23.3475,0.0,1783.283,0.14499999999999957,100.0,27.874,26.524,42.628,41.064,0.0,1.0,100.0,0.0,0.0,0.0,0.0,3089.714285714286,2838.7,4143.0,4093.0,305.36,305.8655,314.729,314.729,21.8194,20.5379,21.7892,21.323,314.999998,314.999998,324.999988,324.999988,99.55854285714285,99.50731666666667,99.56465714285714,99.54461428571429,-0.007750000000000035,-0.133,-0.222,0.0134,-0.03166666666666629,-0.061666666666667425,1.536,1.58,37.370999999999995,29.362333333333332,37.182,34.269,56.081,34.6545,58.8685,51.4995,54.016,33.823499999999996,57.5035,49.865,53.19,33.391,57.464,49.28966666666666,-0.05800000000000005,-0.09450000000000003,0.11298500000000002,0.114055,0.0,207.535,207.465,204.45,204.45,0.0,0.0
6,0.0,1.0,0.0,1.0,1.0,0.0,0.0,1.0,0.0,100.0,1.0,1.1856,26.0,0.0,0.0,0.0,59.999996,0.0,26.0,26.0,26.0,26.0,-0.12555555555555553,0.3033000000000001,0.014033333333333335,293.488,-2.635,-2.7475555555555555,-1.55015,-1.5838999999999999,-255.82999999999998,216.2175,190.87025,0.0,0.0,0.0,0.0,0.013133333333333335,-5.498166666666667,-5.498166666666667,-0.5308,0.08833333333333333,-0.0644444444444443,0.9040000000000001,66.38,-0.0835,-0.2141,0.6479999999999997,100.0,1.0,1.0,204.86333333333334,0.0,0.0,0.0,0.0,0.0,0.0,0.0,8683.4,0.0,55.0,5.0,238.93666666666667,0.0,0.0,0.0,0.0,0.0,0.0,0.0,0.0,0.3030000000000008,0.3030000000000008,0.0,0.0,0.0,55.0,616.79921,10000.0,85.000001,85.000001,85.000001,85.000001,395.0,0.0,0.0,0.0,1.0,166.665,53.177,53.177,48.766999999999996,48.766999999999996,34.0,-26.625,21.311999999999998,-32.64666666666666,23.43,0.0,1783.235,0.045000000000001705,100.0,27.805,26.653,42.75,41.41,0.0,1.0,100.0,0.0,0.0,0.0,0.0,3114.714285714286,2998.3,4071.25,4044.5,305.2305,305.338,314.889,314.843,21.8287,20.5428,21.7991,21.3315,314.999998,314.999998,324.999988,324.999988,99.55854285714285,99.50733333333334,99.56478571428572,99.54474285714285,0.007000000000000117,-0.11649999999999994,-0.20450000000000002,0.022,-0.04333333333332945,-0.036666666666668846,1.5456666666666667,1.568,37.429,29.392333333333333,37.244,34.3215,56.067,34.692499999999995,58.9075,51.5585,54.001999999999995,33.8585,57.5405,49.922,53.176,33.4245,57.4985,49.345,-0.07099999999999995,-0.07450000000000001,0.11021,0.10896000000000002,0.0,207.945,207.875,204.86333333333334,204.86333333333334,0.0,0.0
7,0.0,1.0,0.0,1.0,1.0,0.0,0.0,1.0,0.0,100.0,1.0,1.1856,26.0,0.0,0.0,0.0,59.999996,0.0,26.0,26.0,26.0,26.0,-0.08199999999999996,0.2882,0.0179,293.213,-2.6129,-2.7301111111111114,-1.5140500000000001,-1.6234,-252.44,216.1925,190.849875,0.0,0.0,0.0,0.0,0.0151,-5.498166666666667,-5.498166666666667,-0.5339,-0.012666666666666666,-0.05233333333333334,-0.17899999999999994,66.525,-0.06520000000000001,-0.223,0.39000000000000057,100.0,1.0,1.0,205.28,0.0,0.0,0.0,0.0,0.0,0.0,0.0,8701.1,0.0,55.0,5.0,239.46333333333334,1.0,0.0,0.0,0.0,0.0,0.0,0.0,0.0,0.3539999999999992,0.3539999999999992,0.0,0.0,1.0,55.0,616.79921,10000.0,85.000001,85.000001,85.000001,85.000001,395.0,0.0,0.0,0.0,1.0,333.33500000000004,52.826,52.826,48.828,48.828,34.0,-27.2575,22.004,-31.646666666666665,25.064999999999998,0.0,1783.184,-0.1750000000000007,100.0,27.76,26.892,42.699,41.764,0.0,1.0,100.0,0.0,0.0,0.0,0.0,3294.4285714285716,2963.6,4092.0,4047.7,304.8255,305.268,314.851,314.6835,21.8386,20.548,21.8095,21.3404,314.999998,314.999998,324.999988,324.999988,99.55855714285714,99.50735,99.56492857142857,99.54488571428571,0.02400000000000002,-0.09324999999999994,-0.18733333333333335,0.0376,-0.05666666666667197,-0.05333333333332746,1.5206666666666668,1.5434999999999999,37.491,29.424666666666667,37.31,34.3775,56.052,34.7315,58.949,51.621,53.988,33.8945,57.579,49.982,53.161,33.459,57.534,49.403666666666666,-0.08650000000000002,-0.05500000000000016,0.10706500000000001,0.107395,0.0,208.38,208.32999999999998,205.28,205.28,0.0,0.0
8,0.0,1.0,0.0,1.0,1.0,0.0,0.0,1.0,0.0,100.0,1.0,1.1856,26.0,0.0,0.0,0.0,59.999996,0.0,26.0,26.0,26.0,26.0,-0.03555555555555556,0.3105,0.030933333333333334,293.488,-2.6954,-2.7167777777777777,-1.4977,-1.5747,-249.04,216.16750000000002,190.82925,0.0,0.0,0.0,0.0,0.017066666666666667,-5.498166666666667,-5.498166666666667,-0.5354,-0.5906666666666667,-0.03188888888888908,0.831,66.672,-0.0459,-0.21395,-0.08000000000000007,100.0,1.0,1.0,205.66666666666669,0.0,0.0,0.0,0.0,0.0,0.0,0.0,8717.5,0.0,55.0,5.0,239.99,0.0,0.0,0.0,0.0,0.0,0.0,0.0,0.0,0.40500000000000114,0.40500000000000114,0.0,0.0,0.0,55.0,616.79921,10000.0,85.000001,85.000001,85.000001,85.000001,395.0,0.0,0.0,0.0,1.0,166.665,53.711,53.711,48.157,48.157,34.0,-23.485,22.997999999999998,-29.916666666666664,27.2975,0.0,1783.134,-0.3249999999999993,100.0,27.431,26.705,42.742000000000004,41.823,0.0,1.0,100.0,0.0,0.0,0.0,0.0,2921.714285714286,3006.5,4125.25,4166.7,305.931,305.336,314.66066666666666,314.46175,21.8482,20.5532,21.82,21.3493,314.999998,314.999998,324.999988,324.999988,99.55855714285714,99.50736666666667,99.56508571428571,99.54502857142857,0.0475000000000001,-0.0695,-0.148,0.07579999999999999,-0.046666666666666856,-0.05833333333333002,1.5230000000000001,1.522,37.551,29.457333333333334,37.375,34.4335,56.036,34.7695,58.9895,51.683,53.972,33.9295,57.617,50.0415,53.144999999999996,33.4925,57.569,49.461666666666666,-0.09549999999999992,-0.040999999999999925,0.10636000000000001,0.10701000000000001,0.0,208.79500000000002,208.79500000000002,205.66666666666669,205.66666666666669,0.0,0.0
9,0.0,1.0,0.0,1.0,1.0,0.0,0.0,1.0,0.0,100.0,1.0,1.1856,26.0,0.0,0.0,0.0,59.999996,0.0,26.0,26.0,26.0,26.0,-0.030888888888888855,0.2873000000000001,0.030933333333333334,293.152,-2.6836,-2.722,-1.554,-1.5535999999999999,-245.84,216.14249999999998,190.809375,0.0,0.0,0.0,0.0,0.018933333333333337,-5.498166666666667,-5.498166666666667,-0.5422,0.6396666666666666,-0.032444444444444276,0.7730000000000001,66.805,-0.0261,-0.21615,-0.18599999999999994,100.0,1.0,1.0,206.20333333333332,0.0,0.0,0.0,0.0,0.0,0.0,0.0,8740.2,0.0,55.0,5.0,240.47,1.0,0.0,0.0,0.0,0.0,0.0,0.0,0.0,0.4529999999999994,0.4529999999999994,0.0,0.0,1.0,55.0,616.79921,10000.0,85.000001,85.000001,85.000001,85.000001,395.0,0.0,0.0,0.0,1.0,333.33500000000004,52.444,52.444,49.21,49.21,34.0,-25.4575,24.683999999999997,-28.076666666666664,26.509999999999998,0.0,1783.084,-0.47499999999999787,100.0,27.936,27.184,42.386,41.854,0.0,1.0,100.0,0.0,0.0,0.0,0.0,3284.5714285714284,3102.9,3964.375,4077.4,304.792,304.9605,315.1836666666667,314.77125,21.8574,20.5582,21.8297,21.3577,314.999998,314.999998,324.999988,324.999988,99.55857142857143,99.50736666666667,99.56521428571429,99.54517142857142,0.0787500000000001,-0.052999999999999936,-0.132,0.0864,-0.03333333333333144,-0.05333333333332746,1.5716666666666668,1.577,37.608999999999995,29.488999999999997,37.435,34.4855,56.024,34.8065,59.025,51.74,53.961,33.964,57.65,50.096000000000004,53.132999999999996,33.525,57.599000000000004,49.51533333333333,-0.11499999999999999,-0.040000000000000036,0.10805000000000001,0.099705,0.0,209.22500000000002,209.24,206.20333333333332,206.20333333333332,0.0,0.0
10,0.0,1.0,0.0,1.0,1.0,0.0,0.0,1.0,0.0,100.0,1.0,1.1856,26.0,0.0,0.0,0.0,59.999996,0.0,26.0,26.0,26.0,26.0,0.010888888888888948,0.3017000000000001,-0.011733333333333333,292.984,-2.6626,-2.6977777777777776,-1.53525,-1.5327,-242.43,216.115,190.788625,0.0,0.0,0.0,0.0,0.020933333333333335,-5.498166666666667,-5.498166666666667,-0.5178,-0.4116666666666667,0.007888888888888834,0.395,66.952,-0.0067,-0.206325,-0.44599999999999973,100.0,1.0,1.0,206.44333333333333,0.0,0.0,0.0,0.0,0.0,0.0,0.0,8750.4,0.0,55.0,5.0,240.99666666666667,0.0,0.0,0.0,0.0,0.0,0.0,1.0,0.0,0.5040000000000013,0.5040000000000013,0.0,0.0,0.0,55.0,616.79921,10000.0,85.000001,85.000001,85.000001,85.000001,395.0,0.0,0.0,0.0,1.0,333.33500000000004,53.497,53.497,47.623,47.623,34.0,-21.2825,22.808,-30.233333333333334,29.7425,0.0,1783.034,-0.5899999999999999,100.0,27.687,27.329,42.765,42.72,0.0,1.0,100.0,0.0,0.0,0.0,0.0,2878.285714285714,2870.1,4317.25,4270.9,306.113,305.5475,314.29333333333335,314.156,21.8671,20.5635,21.8402,21.3668,314.999998,314.999998,324.999988,324.999988,99.55857142857143,99.50736666666667,99.56535714285714,99.5453,0.08499999999999996,-0.04525000000000001,-0.11233333333333333,0.11120000000000001,-0.03833333333332689,-0.060000000000002274,1.4896666666666667,1.4675,37.67,29.522,37.501000000000005,34.542500000000004,56.010999999999996,34.8435,59.067499999999995,51.8055,53.949,33.9975,57.689499999999995,50.158500000000004,53.12,33.5575,57.6355,49.577,-0.11799999999999988,-0.025500000000000078,0.10617000000000001,0.11492500000000001,0.0,209.66,209.685,206.44333333333333,206.44333333333333,0.0,0.0
11,0.0,1.0,0.0,1.0,1.0,0.0,0.0,1.0,0.0,100.0,1.0,1.1856,26.0,0.0,0.0,0.0,59.999996,0.0,26.0,26.0,26.0,26.0,0.027555555555555777,0.2663,-0.06396666666666667,293.488,-2.7058999999999997,-2.6852222222222224,-1.5907499999999999,-1.5232999999999999,-239.01,216.0875,190.767875,0.0,0.0,0.0,0.0,0.022600000000000002,-5.498166666666667,-5.498166666666667,-0.5614,-0.24266666666666667,0.03411111111111098,0.254,67.09100000000001,0.0112,-0.23705,-0.6399999999999997,100.0,1.0,1.0,207.18333333333334,0.0,0.0,0.0,0.0,0.0,0.0,0.0,8781.8,0.0,55.0,5.0,241.49666666666667,1.0,0.0,0.0,0.0,0.0,0.0,1.0,0.0,0.5549999999999997,0.5549999999999997,0.0,0.0,1.0,55.0,616.79921,10000.0,85.000001,85.000001,85.000001,85.000001,395.0,0.0,0.0,0.0,1.0,166.665,52.811,52.811,49.271,49.271,34.0,-21.625,26.759999999999998,-24.019999999999996,27.1325,0.0,1782.983,-0.6900000000000013,100.0,27.596,27.441,42.347,42.582,0.0,1.0,100.0,0.0,0.0,0.0,0.0,2999.285714285714,3189.9,3688.25,3881.6000000000004,305.677,304.6995,315.88166666666666,315.2105,21.8767,20.569,21.8505,21.3757,314.999998,314.999998,324.999988,324.999988,99.5586,99.50738333333334,99.56548571428571,99.54544285714286,0.11349999999999993,-0.015249999999999986,-0.09033333333333333,0.1416,-0.041666666666671404,-0.07000000000000028,1.6400000000000001,1.611,37.729,29.555999999999997,37.565,34.5985,55.997,34.8815,59.103,51.867,53.935,34.0325,57.722,50.2175,53.105000000000004,33.591,57.6655,49.63466666666667,-0.12850000000000006,-0.02499999999999991,0.109755,0.108395,0.0,210.075,210.13,207.18333333333334,207.18333333333334,0.0,0.0
12,0.0,1.0,0.0,1.0,1.0,0.0,0.0,1.0,0.0,100.0,1.0,1.1856,26.0,0.0,0.0,0.0,59.999996,0.0,26.0,26.0,26.0,26.0,0.05800000000000005,0.29100000000000015,0.041933333333333336,292.816,-2.7587,-2.6804444444444444,-1.55525,-1.5285,-235.59,216.06,190.74575,0.0,0.0,0.0,0.0,0.025466666666666665,-5.498166666666667,-5.498166666666667,-0.5458000000000001,0.28500000000000003,0.015222222222222026,-0.842,67.236,0.029400000000000003,-0.206575,-0.6899999999999995,100.0,1.0,1.0,207.40333333333334,0.0,0.0,0.0,0.0,0.0,0.0,0.0,8791.0,0.0,55.0,5.0,242.01999999999998,0.0,0.0,0.0,0.0,0.0,0.0,1.0,0.0,0.6059999999999981,0.6059999999999981,0.0,0.0,0.0,55.0,616.79921,10000.0,85.000001,85.000001,85.000001,85.000001,395.0,0.0,0.0,0.0,1.0,166.665,52.673,52.673,47.852000000000004,47.852000000000004,34.0,-22.855,26.246000000000002,-28.193333333333335,30.91,0.0,1782.933,-0.6699999999999982,100.0,27.423000000000002,27.802,42.28,42.609,0.0,1.0,100.0,0.0,0.0,0.0,0.0,3146.142857142857,3110.2,4254.625,4177.7,305.4235,304.79625,314.53433333333334,314.44275,21.8862,20.5745,21.8608,21.3847,314.999998,314.999998,324.999988,324.999988,99.5586,99.50738333333334,99.56564285714286,99.5456,0.12024999999999997,-0.012499999999999956,-0.08316666666666667,0.153,-0.04999999999999716,-0.03499999999999659,1.5183333333333333,1.49,37.789,29.590333333333334,37.629999999999995,34.6545,55.985,34.919,59.1425,51.9285,53.923,34.067499999999995,57.759,50.277,53.092,33.6245,57.6995,49.693333333333335,-0.1319999999999999,-0.027499999999999858,0.114515,0.10533000000000001,0.0,210.535,210.57999999999998,207.40333333333334,207.40333333333334,0.0,0.0
13,0.0,1.0,0.0,1.0,1.0,0.0,0.0,1.0,0.0,100.0,1.0,1.1856,26.0,0.0,0.0,0.0,59.999996,0.0,26.0,26.0,26.0,26.0,0.07644444444444431,0.2803,0.03933333333333333,292.511,-2.7382,-2.671111111111111,-1.62275,-1.5112,-232.35,216.0375,190.725375,0.0,0.0,0.0,0.0,0.02676666666666667,-5.498166666666667,-5.498166666666667,-0.5392,-0.07066666666666667,0.019888888888888845,-0.503,67.37,0.0414,-0.215975,-0.7839999999999998,100.0,1.0,1.0,207.75333333333333,0.0,0.0,0.0,0.0,0.0,0.0,0.0,8805.9,0.0,55.0,5.0,242.50333333333333,1.0,0.0,0.0,0.0,0.0,0.0,1.0,0.0,0.6539999999999999,0.6539999999999999,0.0,0.0,1.0,55.0,616.79921,10000.0,85.000001,85.000001,85.000001,85.000001,395.0,0.0,0.0,0.0,1.0,333.33500000000004,52.429,52.429,47.836,47.836,34.0,-22.0175,26.558,-27.806666666666665,32.115,0.0,1782.883,-0.8150000000000013,100.0,27.711,27.971,42.506,43.094,0.0,1.0,100.0,0.0,0.0,0.0,0.0,3164.142857142857,3084.7,4229.25,4287.7,305.339,304.8645,314.588,314.14525,21.8953,20.5797,21.8707,21.3933,314.999998,314.999998,324.999988,324.999988,99.55862857142857,99.50738333333334,99.56577142857142,99.54572857142857,0.139,0.00275000000000003,-0.060833333333333336,0.16,-0.03833333333332689,-0.023333333333326323,1.5103333333333333,1.4845,37.845,29.622999999999998,37.692,34.708,55.974999999999994,34.955,59.18,51.99,53.915,34.1005,57.794,50.3365,53.082,33.656,57.7315,49.751333333333335,-0.14250000000000007,-0.018000000000000238,0.101815,0.11074500000000001,0.0,210.94,210.985,207.75333333333333,207.75333333333333,0.0,0.0
14,0.0,1.0,0.0,1.0,1.0,0.0,0.0,1.0,0.0,100.0,1.0,1.1856,26.0,0.0,0.0,0.0,59.999996,0.0,26.0,26.0,26.0,26.0,0.08211111111111102,0.2735000000000001,-0.011266666666666668,292.801,-2.7365,-2.6162222222222224,-1.60025,-1.5105,-228.92000000000002,216.015,190.704125,0.0,0.0,0.0,0.0,0.02876666666666667,-5.498166666666667,-5.498166666666667,-0.5485,-0.11633333333333333,0.054444444444444295,1.338,67.509,0.0473,-0.228,-0.9679999999999991,100.0,1.0,1.0,208.28333333333333,0.0,0.0,0.0,0.0,0.0,0.0,0.0,8828.4,0.0,55.0,5.0,243.00666666666666,0.0,0.0,0.0,0.0,0.0,0.0,1.0,0.0,0.7049999999999983,0.7049999999999983,0.0,0.0,0.0,55.0,616.79921,10000.0,85.000001,85.000001,85.000001,85.000001,395.0,0.0,0.0,0.0,1.0,333.33500000000004,52.628,52.628,48.096000000000004,48.096000000000004,34.0,-19.2575,28.939999999999998,-25.046666666666667,32.2575,0.0,1782.832,-1.009999999999998,100.0,27.71,27.853,42.512,43.182,0.0,1.0,100.0,0.0,0.0,0.0,0.0,2917.857142857143,3260.7,3947.125,4221.4,305.8805,304.5205,315.17333333333335,314.41,21.9048,20.5852,21.8811,21.4024,314.999998,314.999998,324.999988,324.999988,99.55864285714286,99.5074,99.56591428571429,99.54587142857143,0.16225,0.03550000000000009,-0.0575,0.1802,-0.041666666666671404,-0.06499999999999773,1.558,1.5165,37.905,29.657666666666664,37.757,34.765,55.966,34.993,59.2175,52.0545,53.905,34.135999999999996,57.829,50.397999999999996,53.071,33.69,57.763,49.81166666666667,-0.15049999999999986,0.0020000000000000018,0.10806500000000001,0.11649500000000002,0.0,211.365,211.435,208.28333333333333,208.28333333333333,0.0,0.0
15,0.0,1.0,0.0,1.0,1.0,0.0,0.0,1.0,0.0,100.0,1.0,1.1856,26.0,0.0,0.0,0.0,59.999996,0.0,26.0,26.0,26.0,26.0,0.11011111111111105,0.27970000000000006,0.010733333333333333,292.847,-2.7093,-2.577,-1.6253000000000002,-1.4535,-225.67000000000002,215.995,190.683875,0.0,0.0,0.0,0.0,0.03066666666666667,-5.498166666666667,-5.498166666666667,-0.5396000000000001,0.28700000000000003,0.08233333333333315,0.988,67.642,0.0611,-0.20865,-1.226,100.0,1.0,1.0,208.67000000000002,0.0,0.0,0.0,0.0,0.0,0.0,0.0,8844.7,0.0,55.0,5.0,243.48000000000002,1.0,0.0,0.0,0.0,0.0,0.0,1.0,0.0,0.7530000000000001,0.7530000000000001,0.0,0.0,1.0,55.0,616.79921,10000.0,85.000001,85.000001,85.000001,85.000001,395.0,0.0,0.0,0.0,1.0,333.33500000000004,52.826,52.826,48.172,48.172,34.0,-17.88,28.608,-24.240000000000002,33.785,0.0,1782.785,-1.0,100.0,27.674,27.881,42.266999999999996,43.229,0.0,1.0,100.0,0.0,0.0,0.0,0.0,2799.5714285714284,3231.5,3941.25,4393.8,306.2085,304.6035,315.2266666666667,314.02025,21.9137,20.5905,21.8907,21.411,314.999998,314.999998,324.999988,324.999988,99.55865714285714,99.5074,99.56604285714286,99.54601428571429,0.16900000000000004,0.042750000000000066,-0.035666666666666666,0.19440000000000002,-0.026666666666670835,-0.061666666666667425,1.5493333333333332,1.51,37.961,29.690333333333335,37.817,34.8185,55.957,35.03,59.251999999999995,52.115,53.896,34.17,57.8605,50.456,53.062,33.723,57.792,49.869,-0.1519999999999999,0.0024999999999999467,0.11266000000000001,0.10552500000000001,0.0,211.775,211.875,208.67000000000002,208.67000000000002,0.0,0.0
16,0.0,1.0,0.0,1.0,1.0,0.0,0.0,1.0,0.0,100.0,1.0,1.1856,26.0,0.0,0.0,0.0,59.999996,0.0,26.0,26.0,26.0,26.0,0.1263333333333332,0.27570000000000006,-0.04833333333333333,292.847,-2.8055,-2.5828888888888892,-1.6001,-1.4537,-222.22,215.97750000000002,190.66175,0.0,0.0,0.0,0.0,0.03266666666666667,-5.498166666666667,-5.498166666666667,-0.5605,-0.7143333333333334,0.06677777777777782,-1.049,67.781,0.0757,-0.225475,-1.2079999999999993,100.0,1.0,1.0,209.0966666666667,0.0,0.0,0.0,0.0,0.0,0.0,0.0,8862.8,0.0,55.0,5.0,243.98666666666668,0.0,0.0,0.0,0.0,0.0,0.0,1.0,0.0,0.8039999999999985,0.8039999999999985,0.0,0.0,0.0,55.0,616.79921,10000.0,85.000001,85.000001,85.000001,85.000001,395.0,0.0,0.0,0.0,1.0,333.33500000000004,52.734,52.734,47.897,47.897,34.0,-20.7175,28.092,-23.543333333333337,31.7925,0.0,1782.734,-0.879999999999999,100.0,27.163,28.113,42.461,43.427,0.0,1.0,100.0,0.0,0.0,0.0,0.0,3026.142857142857,3196.7,3961.625,4141.1,305.849,304.5655,315.21866666666665,314.5465,21.9229,20.5961,21.9012,21.420099999999998,314.999998,314.999998,324.999988,324.999988,99.55867142857143,99.5074,99.5662,99.54617142857143,0.15549999999999997,0.03249999999999997,-0.02733333333333333,0.1986,-0.05333333333332746,-0.05833333333333002,1.5636666666666668,1.5145,38.018,29.72533333333333,37.882,34.8755,55.944,35.0695,59.291,52.1785,53.884,34.2065,57.897,50.5175,53.048,33.757999999999996,57.825,49.92933333333333,-0.139,-0.01100000000000012,0.10799,0.10323500000000001,0.0,212.185,212.265,209.0966666666667,209.0966666666667,0.0,0.0
17,0.0,1.0,0.0,1.0,1.0,0.0,0.0,1.0,0.0,100.0,1.0,1.1856,26.0,0.0,0.0,0.0,59.999996,0.0,26.0,26.0,26.0,26.0,0.10555555555555562,0.2922,-0.016833333333333336,292.526,-2.7602,-2.5692222222222223,-1.6379000000000001,-1.4767000000000001,-218.76,215.9625,190.63925,0.0,0.0,0.0,0.0,0.0347,-5.498166666666667,-5.498166666666667,-0.5493,0.547,0.04755555555555557,0.7250000000000001,67.92,0.0799,-0.205425,-1.1600000000000001,100.0,1.0,1.0,209.49,0.0,0.0,0.0,0.0,0.0,0.0,0.0,8879.5,0.0,55.0,5.0,244.48333333333335,1.0,0.0,0.0,0.0,0.0,0.0,1.0,0.0,0.8550000000000004,0.8550000000000004,0.0,0.0,1.0,55.0,616.79921,10000.0,85.000001,85.000001,85.000001,85.000001,395.0,0.0,0.0,0.0,1.0,333.33500000000004,52.49,52.49,47.836,47.836,34.0,-19.525,27.951999999999998,-24.869999999999997,34.25,0.0,1782.683,-0.9749999999999979,100.0,27.798000000000002,28.221,42.307,43.307,0.0,1.0,100.0,0.0,0.0,0.0,0.0,2987.857142857143,3155.3,4201.375,4323.8,305.7325,304.86125,314.69,314.2325,21.9324,20.6018,21.9114,21.4292,314.999998,314.999998,324.999988,324.999988,99.5587,99.5074,99.56634285714286,99.54631428571429,0.17274999999999996,0.04800000000000004,-0.01,0.2088,-0.046666666666666856,-0.06499999999999773,1.5543333333333333,1.494,38.078,29.761,37.946,34.932,55.936,35.111,59.3275,52.242,53.876000000000005,34.245,57.9305,50.5785,53.039,33.7945,57.8555,49.989333333333335,-0.1459999999999999,-0.0040000000000000036,0.09832,0.11099,0.0,212.655,212.745,209.49,209.49,0.0,0.0
18,0.0,1.0,0.0,1.0,1.0,0.0,0.0,1.0,0.0,100.0,1.0,1.1856,26.0,0.0,0.0,0.0,59.999996,0.0,26.0,26.0,26.0,26.0,0.12311111111111117,0.2741,-0.0152,292.526,-2.7951,-2.5425555555555555,-1.6568,-1.4219,-215.49,215.95,190.618125,0.0,0.0,0.0,0.0,0.0366,-5.498166666666667,-5.498166666666667,-0.5591,-0.5393333333333333,0.07388888888888889,1.2040000000000002,68.051,0.0804,-0.221925,-1.2759999999999998,100.0,1.0,1.0,209.9,0.0,0.0,0.0,0.0,0.0,0.0,0.0,8897.0,0.0,55.0,5.0,244.95666666666665,0.0,0.0,0.0,0.0,0.0,0.0,1.0,0.0,0.9029999999999987,0.9029999999999987,0.0,0.0,0.0,55.0,616.79921,10000.0,85.000001,85.000001,85.000001,85.000001,395.0,0.0,0.0,0.0,1.0,166.665,52.444,52.444,47.729,47.729,34.0,-18.3125,30.47,-23.923333333333332,32.760000000000005,0.0,1782.636,-1.254999999999999,100.0,27.543,28.062,42.615,43.746,0.0,1.0,100.0,0.0,0.0,0.0,0.0,2978.285714285714,3367.0,3993.625,4222.5,305.8315,304.289,315.12533333333334,314.439,21.9412,20.6071,21.9213,21.4379,314.999998,314.999998,324.999988,324.999988,99.55871428571429,99.50741666666667,99.56647142857143,99.54644285714286,0.20500000000000007,0.06374999999999997,-0.014833333333333334,0.2134,-0.026666666666670835,-0.061666666666667425,1.5676666666666668,1.512,38.132,29.794,38.007999999999996,34.9865,55.927,35.1485,59.3645,52.3035,53.867999999999995,34.2795,57.965,50.638,53.03,33.828,57.887,50.047666666666665,-0.1755,0.0129999999999999,0.10855000000000001,0.10525000000000001,0.0,213.01,213.10000000000002,209.9,209.9,0.0,0.0
19,0.0,1.0,0.0,1.0,1.0,0.0,0.0,1.0,0.0,100.0,1.0,1.1856,26.0,0.0,0.0,0.0,59.999996,0.0,26.0,26.0,26.0,26.0,0.1624444444444444,0.28049999999999997,0.029,292.023,-2.7729,-2.521777777777778,-1.67425,-1.4007999999999998,-212.01999999999998,215.9425,190.595625,0.0,0.0,0.0,0.0,0.0386,-5.498166666666667,-5.498166666666667,-0.5505,0.8220000000000001,0.08411111111111103,-0.489,68.188,0.0917,-0.21047500000000002,-1.62,100.0,1.0,1.0,210.31,0.0,0.0,0.0,0.0,0.0,0.0,0.0,8914.2,0.0,55.0,5.0,245.44666666666666,1.0,0.0,0.0,0.0,0.0,0.0,1.0,0.0,0.9540000000000006,0.9540000000000006,0.0,0.0,1.0,55.0,616.79921,10000.0,85.000001,85.000001,85.000001,85.000001,395.0,0.0,0.0,0.0,1.0,166.665,51.727000000000004,51.727000000000004,47.592,47.592,34.0,-18.98,30.856,-25.193333333333335,34.6225,0.0,1782.585,-1.4649999999999999,100.0,27.875,28.753,42.232,43.797,0.0,1.0,100.0,0.0,0.0,0.0,0.0,3130.4285714285716,3319.2,4179.875,4406.3,305.4265,304.14175,314.796,313.98725,21.9506,20.6129,21.9315,21.447,314.999998,314.999998,324.999988,324.999988,99.55874285714286,99.50743333333334,99.56661428571428,99.5466,0.20875,0.07950000000000013,-0.010166666666666666,0.2194,-0.046666666666666856,-0.046666666666666856,1.5536666666666668,1.4929999999999999,38.192,29.830666666666666,38.072,35.0435,55.922,35.192499999999995,59.3995,52.3675,53.861999999999995,34.320499999999996,57.9975,50.7,53.022999999999996,33.8675,57.9165,50.108666666666664,-0.18700000000000006,0.038000000000000034,0.101845,0.108475,0.0,213.47,213.59,210.31,210.31,0.0,0.0
20,0.0,1.0,0.0,1.0,1.0,0.0,0.0,1.0,0.0,100.0,1.0,1.1856,26.0,0.0,0.0,0.0,59.999996,0.0,26.0,26.0,26.0,26.0,0.20777777777777784,0.27760000000000007,0.04493333333333333,292.343,-2.8259,-2.584,-1.6077,-1.5158,-208.54,215.94,190.57325,0.0,0.0,0.0,0.0,0.040633333333333334,-5.498166666666667,-5.498166666666667,-0.554,-1.201,0.09699999999999998,0.679,68.327,0.10600000000000001,-0.2207,-1.9960000000000004,100.0,1.0,1.0,210.62333333333333,0.0,0.0,0.0,0.0,0.0,0.0,0.0,8927.5,0.0,55.0,5.0,245.95,0.0,0.0,0.0,0.0,0.0,0.0,0.0,0.0,1.004999999999999,1.004999999999999,0.0,0.0,0.0,55.0,616.79921,10000.0,85.000001,85.000001,85.000001,85.000001,395.0,0.0,0.0,0.0,1.0,166.665,52.872,52.872,46.951,46.951,34.0,-15.879999999999999,31.844,-22.060000000000002,38.057500000000005,0.0,1782.534,-1.634999999999998,100.0,27.341,28.299,42.803,44.224000000000004,0.0,1.0,100.0,0.0,0.0,0.0,0.0,2768.285714285714,3284.0,4068.75,4391.4,306.503,304.47125,314.838,313.862,21.959699999999998,20.6186,21.9421,21.4563,314.999998,314.999998,324.999988,324.999988,99.55877142857143,99.50743333333334,99.56675714285714,99.54675714285715,0.23425000000000007,0.10624999999999996,0.024,0.2464,-0.03166666666666629,-0.046666666666666856,1.514,1.4465,38.248000000000005,29.866333333333333,38.138,35.102000000000004,55.912,35.236,59.4405,52.435,53.852000000000004,34.361,58.0355,50.765,53.012,33.906,57.951,50.172666666666665,-0.2004999999999999,0.05400000000000005,0.10197,0.10626500000000001,0.0,213.835,213.97500000000002,210.62333333333333,210.62333333333333,0.0,0.0
21,0.0,1.0,0.0,1.0,1.0,0.0,0.0,1.0,0.0,100.0,1.0,1.1856,26.0,0.0,0.0,0.0,59.999996,0.0,26.0,26.0,26.0,26.0,0.19444444444444442,0.278,-0.06713333333333334,292.664,-2.802,-2.575555555555556,-1.67445,-1.4727000000000001,-205.05,215.94,190.550125,0.0,0.0,0.0,0.0,0.04266666666666667,-5.498166666666667,-5.498166666666667,-0.5770000000000001,0.55,0.08011111111111102,-1.131,68.459,0.1255,-0.221975,-1.7960000000000003,100.0,1.0,1.0,211.26999999999998,0.0,0.0,0.0,0.0,0.0,0.0,0.0,8954.9,0.0,55.0,5.0,246.42666666666668,1.0,0.0,0.0,0.0,0.0,0.0,0.0,0.0,1.056000000000001,1.056000000000001,0.0,0.0,1.0,55.0,616.79921,10000.0,85.000001,85.000001,85.000001,85.000001,395.0,0.0,0.0,0.0,1.0,166.665,52.292,52.292,48.203,48.203,34.0,-19.8475,28.83,-21.453333333333333,34.205,0.0,1782.483,-0.5899999999999999,100.0,27.49,28.693,42.01,43.917,0.0,1.0,100.0,0.0,0.0,0.0,0.0,3033.0,3208.4,3969.875,4095.8,305.793,304.508,315.31233333333336,314.71775,21.969,20.6245,21.9522,21.4653,314.999998,314.999998,324.999988,324.999988,99.55878571428572,99.50745,99.5669,99.5469,0.17775000000000007,0.04774999999999996,0.029333333333333333,0.2562,-0.06833333333332803,-0.06499999999999773,1.617,1.548,38.306,29.903,38.201,35.158500000000004,55.905,35.2805,59.473,52.497,53.845,34.402,58.0655,50.825,53.003,33.946,57.978,50.23133333333333,-0.13450000000000006,-0.026499999999999968,0.10404500000000001,0.10289000000000001,0.0,214.29500000000002,214.41500000000002,211.26999999999998,211.26999999999998,0.0,0.0
22,0.0,1.0,0.0,1.0,1.0,0.0,0.0,1.0,0.0,100.0,1.0,1.1856,26.0,0.0,0.0,0.0,59.999996,0.0,26.0,26.0,26.0,26.0,0.12166666666666681,0.27100000000000013,-0.0021000000000000003,292.145,-2.7246,-2.639555555555556,-1.6592,-1.4735,-201.56,215.9475,190.52625,0.0,0.0,0.0,0.0,0.044700000000000004,-5.498166666666667,-5.498166666666667,-0.5568000000000001,-0.004666666666666667,0.07733333333333325,0.6620000000000001,68.598,0.11850000000000001,-0.20600000000000002,-0.6179999999999994,100.0,1.0,1.0,211.48000000000002,0.0,0.0,0.0,0.0,0.0,0.0,0.0,8963.8,0.0,55.0,5.0,246.92666666666668,0.0,0.0,0.0,0.0,0.0,0.0,0.0,0.0,1.1069999999999993,1.1069999999999993,0.0,0.0,0.0,55.0,616.79921,10000.0,85.000001,85.000001,85.000001,85.000001,395.0,0.0,0.0,0.0,1.0,166.665,52.475,52.475,47.104,47.104,34.0,-19.395,26.918,-24.296666666666667,36.3675,0.0,1782.432,0.45500000000000185,100.0,27.806,28.551000000000002,42.66,44.117000000000004,0.0,1.0,100.0,0.0,0.0,0.0,0.0,2792.4285714285716,3214.6,4154.625,4431.3,306.2275,304.57875,314.72833333333335,313.94975,21.9783,20.6303,21.962699999999998,21.4746,314.999998,314.999998,324.999988,324.999988,99.55881428571429,99.50745,99.56704285714285,99.54704285714286,0.13375000000000004,-0.010000000000000009,0.004833333333333333,0.2276,-0.04999999999999716,-0.051666666666669414,1.5163333333333333,1.487,38.364000000000004,29.939,38.266999999999996,35.216499999999996,55.894,35.321,59.513,52.5635,53.834,34.439499999999995,58.1025,50.888999999999996,52.991,33.9815,58.0115,50.294333333333334,-0.05049999999999999,-0.11050000000000004,0.10632000000000001,0.099275,0.0,214.76,214.79500000000002,211.48000000000002,211.48000000000002,0.0,0.0
23,0.0,1.0,0.0,1.0,1.0,0.0,0.0,1.0,0.0,100.0,1.0,1.1856,26.0,0.0,0.0,0.0,59.999996,0.0,26.0,26.0,26.0,26.0,0.06433333333333335,0.252,-0.04556666666666667,292.191,-2.7295,-2.6124444444444443,-1.6855,-1.5624,-198.05,215.95749999999998,190.502875,0.0,0.0,0.0,0.0,0.046733333333333335,-5.498166666666667,-5.498166666666667,-0.5765,-0.09933333333333333,0.04444444444444429,-1.095,68.732,0.0752,-0.23190000000000002,0.5279999999999996,100.0,1.0,1.0,212.03333333333333,0.0,0.0,0.0,0.0,0.0,0.0,0.0,8987.3,0.0,55.0,5.0,247.40666666666667,1.0,0.0,0.0,0.0,0.0,0.0,0.0,0.0,1.1580000000000013,1.1580000000000013,0.0,0.0,1.0,55.0,616.79921,10000.0,85.000001,85.000001,85.000001,85.000001,395.0,0.0,0.0,0.0,1.0,166.665,51.697,51.697,48.203,48.203,34.0,-24.7975,24.131999999999998,-26.740000000000002,29.450000000000003,0.0,1782.381,0.7899999999999991,100.0,28.145,28.648,42.849000000000004,44.216,0.0,1.0,100.0,0.0,0.0,0.0,0.0,3252.714285714286,3134.6,3989.875,3937.0,305.043,304.7075,315.2823333333333,315.01,21.9877,20.636,21.9731,21.4838,314.999998,314.999998,324.999988,324.999988,99.55882857142858,99.50746666666667,99.56718571428571,99.54721428571429,0.09450000000000003,-0.055749999999999966,-0.06516666666666668,0.16219999999999998,-0.051666666666669414,-0.041666666666671404,1.54,1.5685,38.423,29.975,38.332,35.274,55.882,35.3605,59.5505,52.6275,53.823,34.476,58.137,50.95,52.979,34.016999999999996,58.043,50.35466666666667,-0.026000000000000023,-0.14000000000000012,0.10602500000000001,0.10123000000000001,0.0,215.195,215.15,212.03333333333333,212.03333333333333,0.0,0.0
24,0.0,1.0,0.0,1.0,1.0,0.0,0.0,1.0,0.0,100.0,1.0,1.1856,26.0,0.0,0.0,0.0,59.999996,0.0,26.0,26.0,26.0,26.0,-0.023333333333333317,0.27380000000000004,0.0009666666666666667,292.404,-2.7296,-2.647555555555556,-1.5843500000000001,-1.5249,-194.75,215.9675,190.48025,0.0,0.0,0.0,0.0,0.048633333333333334,-5.498166666666667,-5.498166666666667,-0.5799000000000001,-0.5730000000000001,0.02922222222222204,-0.604,68.86,0.0251,-0.216125,1.0239999999999991,100.0,1.0,1.0,212.30333333333334,0.0,0.0,0.0,0.0,0.0,0.0,0.0,8998.7,0.0,55.0,5.0,247.86666666666667,0.0,0.0,0.0,0.0,0.0,0.0,0.0,0.0,1.2059999999999995,1.2059999999999995,0.0,0.0,0.0,55.0,616.79921,10000.0,85.000001,85.000001,85.000001,85.000001,395.0,0.0,0.0,0.0,1.0,166.665,52.917,52.917,47.058,47.058,34.0,-24.1125,21.028,-30.823333333333334,28.002499999999998,0.0,1782.333,0.8599999999999994,100.0,27.91,28.184,43.19,43.874,0.0,1.0,100.0,0.0,0.0,0.0,0.0,2947.5714285714284,2943.6,4318.0,4111.1,305.9965,305.40275,314.37733333333335,314.667,21.9965,20.6412,21.983,21.4924,314.999998,314.999998,324.999988,324.999988,99.55884285714286,99.50746666666667,99.56732857142858,99.54734285714285,0.04299999999999993,-0.09550000000000003,-0.11083333333333333,0.1108,-0.03333333333333144,-0.046666666666666856,1.4953333333333332,1.525,38.477999999999994,30.007666666666665,38.394,35.3275,55.867000000000004,35.397,59.587,52.685,53.809,34.51,58.1715,51.006,52.964,34.0495,58.074,50.409333333333336,-0.012499999999999956,-0.14749999999999996,0.10362,0.109365,0.0,215.62,215.51999999999998,212.30333333333334,212.30333333333334,0.0,0.0
25,0.0,1.0,0.0,1.0,1.0,0.0,0.0,1.0,0.0,100.0,1.0,1.1856,26.0,0.0,0.0,0.0,59.999996,0.0,26.0,26.0,26.0,26.0,-0.07855555555555549,0.2612000000000001,-0.07043333333333333,292.252,-2.7535,-2.647555555555556,-1.56805,-1.5605,-191.24,215.97750000000002,190.454875,0.0,0.0,0.0,0.0,0.0507,-5.498166666666667,-5.498166666666667,-0.6119,0.08933333333333333,-0.0006666666666665932,-0.6839999999999999,68.992,-0.029500000000000002,-0.22435000000000002,1.3780000000000001,100.0,1.0,1.0,212.86666666666667,0.0,0.0,0.0,0.0,0.0,0.0,0.0,9022.6,0.0,55.0,5.0,248.34333333333336,1.0,0.0,0.0,0.0,0.0,0.0,0.0,0.0,1.256999999999998,1.256999999999998,0.0,0.0,1.0,55.0,616.79921,10000.0,85.000001,85.000001,85.000001,85.000001,395.0,0.0,0.0,0.0,1.0,166.665,51.712,51.712,47.928,47.928,34.0,-28.8375,22.997999999999998,-29.463333333333335,25.442500000000003,0.0,1782.281,0.8200000000000003,100.0,28.258,28.112000000000002,43.216,43.251,0.0,1.0,100.0,0.0,0.0,0.0,0.0,3286.5714285714284,3299.9,3987.625,3972.8,304.934,304.43275,315.1766666666667,315.03875,22.0059,20.6468,21.9933,21.5013,314.999998,314.999998,324.999988,324.999988,99.55884285714286,99.50748333333334,99.56747142857142,99.5475,0.017749999999999932,-0.11399999999999999,-0.15,0.0788,-0.04333333333332945,-0.051666666666669414,1.552,1.5945,38.537,30.042666666666666,38.458,35.3835,55.849999999999994,35.439499999999995,59.6235,52.7435,53.793,34.5495,58.205,51.062,52.947,34.087,58.105000000000004,50.464,-0.011500000000000066,-0.14800000000000013,0.10176500000000001,0.11765,0.0,216.04000000000002,215.935,212.86666666666667,212.86666666666667,0.0,0.0
26,0.0,1.0,0.0,1.0,1.0,0.0,0.0,1.0,0.0,100.0,1.0,1.1856,26.0,0.0,0.0,0.0,59.999996,0.0,26.0,26.0,26.0,26.0,-0.12744444444444447,0.2724,0.08020000000000001,291.183,-2.6677,-2.7603333333333335,-1.5878,-1.5811,-187.92000000000002,215.985,190.430625,0.0,0.0,0.0,0.0,0.0526,-5.498166666666667,-5.498166666666667,-0.5702,0.767,-0.049555555555555575,0.121,69.12,-0.06960000000000001,-0.1947,1.427999999999999,100.0,1.0,1.0,213.00333333333333,0.0,0.0,0.0,0.0,0.0,0.0,0.0,9028.4,0.0,55.0,5.0,248.80333333333334,0.0,0.0,0.0,0.0,0.0,0.0,0.0,0.0,1.3049999999999997,1.3049999999999997,0.0,0.0,0.0,55.0,616.79921,10000.0,85.000001,85.000001,85.000001,85.000001,395.0,0.0,0.0,0.0,1.0,166.665,51.422,51.422,46.204,46.204,34.0,-28.2,21.222,-38.42666666666666,27.5,0.0,1782.234,0.5899999999999999,100.0,29.298000000000002,28.464,44.062,43.312,0.0,1.0,100.0,0.0,0.0,0.0,0.0,3231.285714285714,3065.2,4601.125,4436.2,304.957,305.03625,313.70666666666665,313.96625,22.015,20.6522,22.0033,21.509900000000002,314.999998,314.999998,324.999988,324.999988,99.55884285714286,99.5075,99.56761428571428,99.54762857142858,0.00550000000000006,-0.13849999999999996,-0.19133333333333336,0.0368,-0.045000000000001705,-0.04999999999999716,1.4176666666666669,1.462,38.594,30.076333333333334,38.521,35.437,55.839,35.482,59.664,52.8015,53.782,34.588499999999996,58.243,51.118,52.935,34.1245,58.14,50.51866666666667,-0.03149999999999986,-0.133,0.10427000000000002,0.10876500000000001,0.0,216.47,216.36,213.00333333333333,213.00333333333333,0.0,0.0
27,0.0,1.0,0.0,1.0,1.0,0.0,0.0,1.0,0.0,100.0,1.0,1.1856,26.0,0.0,0.0,0.0,59.999996,0.0,26.0,26.0,26.0,26.0,-0.12311111111111106,0.23760000000000003,-0.005200000000000001,291.595,-2.6142,-2.749111111111111,-1.5606,-1.67,-184.6,215.99,190.4075,0.0,0.0,0.0,0.0,0.054533333333333336,-5.498166666666667,-5.498166666666667,-0.5968,-1.079,-0.06677777777777782,0.571,69.244,-0.0878,-0.242625,1.2240000000000002,100.0,1.0,1.0,213.48000000000002,0.0,0.0,0.0,0.0,0.0,0.0,0.0,9048.6,0.0,55.0,5.0,249.25333333333333,1.0,0.0,0.0,0.0,0.0,0.0,0.0,0.0,1.352999999999998,1.352999999999998,0.0,0.0,1.0,55.0,616.79921,10000.0,85.000001,85.000001,85.000001,85.000001,395.0,0.0,0.0,0.0,1.0,166.665,51.743,51.743,46.677,46.677,34.0,-27.7125,20.52,-33.769999999999996,24.814999999999998,0.0,1782.186,0.5150000000000006,100.0,29.126,28.076,44.946,43.742000000000004,0.0,1.0,100.0,0.0,0.0,0.0,0.0,3206.5714285714284,3078.2,4161.5,4021.4,305.028,305.13625,314.67566666666664,314.8445,22.0239,20.6573,22.0134,21.5187,314.999998,314.999998,324.999988,324.999988,99.55884285714286,99.50751666666666,99.56775714285715,99.54777142857142,-0.00024999999999997247,-0.15174999999999994,-0.1965,0.021,-0.03499999999999659,-0.045000000000001705,1.4773333333333334,1.5070000000000001,38.65,30.108333333333334,38.584,35.492,55.824,35.522,59.705,52.86,53.768,34.625,58.2815,51.174,52.92,34.1595,58.1755,50.57333333333334,-0.04349999999999987,-0.12550000000000017,0.10281000000000001,0.10493000000000001,0.0,216.785,216.68,213.48000000000002,213.48000000000002,0.0,0.0
28,0.0,1.0,0.0,1.0,1.0,0.0,0.0,1.0,0.0,100.0,1.0,1.1856,26.0,0.0,0.0,0.0,59.999996,0.0,26.0,26.0,26.0,26.0,-0.12788888888888894,0.2659,-0.04596666666666667,291.901,-2.6431,-2.7332222222222224,-1.5088,-1.6307,-181.07,215.9925,190.382125,0.0,0.0,0.0,0.0,0.056600000000000004,-5.498166666666667,-5.498166666666667,-0.6,0.653,-0.07533333333333347,-0.59,69.374,-0.0981,-0.21475,1.1899999999999995,100.0,1.0,1.0,213.98000000000002,0.0,0.0,0.0,0.0,0.0,0.0,0.0,9069.8,0.0,55.0,5.0,249.72,0.0,0.0,0.0,0.0,0.0,0.0,0.0,0.0,1.404,1.404,0.0,0.0,0.0,55.0,616.79921,10000.0,85.000001,85.000001,85.000001,85.000001,395.0,0.0,0.0,0.0,1.0,333.33500000000004,51.819,51.819,47.501,47.501,34.0,-29.86,19.119999999999997,-34.01,23.3325,0.0,1782.133,0.39000000000000057,100.0,29.067,28.095,44.184,43.139,0.0,1.0,100.0,0.0,0.0,0.0,0.0,3364.142857142857,2916.7,4193.375,4060.6000000000004,304.774,305.417,314.787,314.83325,22.0336,20.6628,22.023699999999998,21.5276,314.999998,314.999998,324.999988,324.999988,99.55885714285715,99.50753333333333,99.56791428571428,99.54791428571428,-0.013000000000000012,-0.15749999999999997,-0.219,0.0028,-0.05666666666667197,-0.046666666666666856,1.5213333333333332,1.561,38.71,30.142666666666663,38.647999999999996,35.5475,55.811,35.5655,59.742,52.917,53.754999999999995,34.665,58.3165,51.2285,52.907,34.1975,58.207,50.626333333333335,-0.05549999999999988,-0.10950000000000015,0.10018500000000001,0.10852500000000001,0.0,217.25,217.135,213.98000000000002,213.98000000000002,0.0,0.0
29,0.0,1.0,0.0,1.0,1.0,0.0,0.0,1.0,0.0,100.0,1.0,1.1856,26.0,0.0,0.0,0.0,59.999996,0.0,26.0,26.0,26.0,26.0,-0.11755555555555552,0.25450000000000017,0.04,291.58,-2.5888,-2.788222222222222,-1.5443500000000001,-1.6071,-177.31,215.99,190.35425,0.0,0.0,0.0,0.0,0.05876666666666667,-5.498166666666667,-5.498166666666667,-0.6085,-0.708,-0.07366666666666655,-0.72,69.516,-0.09430000000000001,-0.220475,0.9000000000000004,100.0,1.0,1.0,214.27666666666667,0.0,0.0,0.0,0.0,0.0,0.0,0.0,9082.3,0.0,55.0,5.0,250.23333333333335,1.0,0.0,0.0,0.0,0.0,0.0,0.0,0.0,1.4579999999999984,1.4579999999999984,0.0,0.0,1.0,55.0,616.79921,10000.0,85.000001,85.000001,85.000001,85.000001,395.0,0.0,0.0,0.0,1.0,166.665,51.757999999999996,51.757999999999996,46.753,46.753,34.0,-29.4625,20.43,-35.34,24.1375,0.0,1782.081,0.28000000000000114,100.0,28.79,27.965,44.61,43.403999999999996,0.0,1.0,100.0,0.0,0.0,0.0,0.0,3388.714285714286,2998.4,4268.0,4129.3,304.6915,305.0905,314.47833333333335,314.584,22.0435,20.6686,22.0349,21.5373,314.999998,314.999998,324.999988,324.999988,99.55885714285715,99.50755,99.56807142857143,99.54807142857143,-0.010000000000000009,-0.15474999999999994,-0.21033333333333334,0.0094,-0.060000000000002274,-0.026666666666670835,1.459,1.5035,38.772,30.178666666666665,38.718,35.6085,55.794,35.61,59.7875,52.9815,53.739000000000004,34.706,58.359,51.2905,52.89,34.237,58.2465,50.687,-0.06400000000000006,-0.10450000000000026,0.10136,0.11081500000000001,0.0,217.625,217.54000000000002,214.27666666666667,214.27666666666667,0.0,0.0
30,0.0,1.0,0.0,1.0,1.0,0.0,0.0,1.0,0.0,100.0,1.0,1.1856,26.0,0.0,0.0,0.0,59.999996,0.0,26.0,26.0,26.0,26.0,-0.12222222222222212,0.25950000000000006,0.06426666666666667,291.092,-2.636,-2.6813333333333333,-1.48295,-1.6682,-174.18,215.9875,190.33075,0.0,0.0,0.0,0.0,0.0606,-5.498166666666667,-5.498166666666667,-0.6018,0.834,-0.0733333333333337,0.8280000000000001,69.63,-0.0867,-0.2154,0.7800000000000002,100.0,1.0,1.0,214.64666666666668,0.0,0.0,0.0,0.0,0.0,0.0,0.0,9098.1,0.0,55.0,5.0,250.64333333333335,0.0,0.0,0.0,0.0,0.0,0.0,1.0,0.0,1.5030000000000001,1.5030000000000001,0.0,0.0,0.0,55.0,616.79921,10000.0,85.000001,85.000001,85.000001,85.000001,395.0,0.0,0.0,0.0,1.0,166.665,50.934,50.934,46.844,46.844,34.0,-29.322499999999998,20.775999999999996,-33.93666666666667,26.6875,0.0,1782.036,0.14000000000000057,100.0,29.747,28.488,44.563,43.326,0.0,1.0,100.0,0.0,0.0,0.0,0.0,3416.142857142857,3079.7,4308.5,4249.1,304.408,305.03575,314.3786666666667,314.319,22.0521,20.6736,22.0441,21.5454,314.999998,314.999998,324.999988,324.999988,99.55885714285715,99.50756666666666,99.56821428571429,99.5482,0.015249999999999986,-0.13424999999999998,-0.19316666666666665,0.024399999999999998,-0.054999999999999716,-0.045000000000001705,1.4653333333333334,1.4985,38.826,30.210333333333335,38.775999999999996,35.658500000000004,55.784,35.65,59.822,53.034,53.729,34.7435,58.391,51.3405,52.879000000000005,34.2725,58.2755,50.73566666666667,-0.07299999999999995,-0.09600000000000009,0.107005,0.10516500000000001,0.0,218.01,217.95499999999998,214.64666666666668,214.64666666666668,0.0,0.0
31,0.0,1.0,0.0,1.0,1.0,0.0,0.0,1.0,0.0,100.0,1.0,1.1856,26.0,0.0,0.0,0.0,59.999996,0.0,26.0,26.0,26.0,26.0,-0.0852222222222222,0.25970000000000004,-0.0102,291.092,-2.7116,-2.751888888888889,-1.5747,-1.6577,-170.63,215.98000000000002,190.305,0.0,0.0,0.0,0.0,0.06266666666666666,-5.498166666666667,-5.498166666666667,-0.5885,-0.627,-0.06388888888888866,-0.776,69.762,-0.0698,-0.21730000000000002,0.4479999999999995,100.0,1.0,1.0,214.95666666666668,0.0,0.0,0.0,0.0,0.0,0.0,0.0,9111.2,0.0,55.0,5.0,251.11666666666667,1.0,0.0,0.0,0.0,0.0,0.0,1.0,0.0,1.5539999999999985,1.5539999999999985,0.0,0.0,1.0,55.0,616.79921,10000.0,85.000001,85.000001,85.000001,85.000001,395.0,0.0,0.0,0.0,1.0,333.33500000000004,51.682,51.682,45.563,45.563,34.0,-27.740000000000002,20.854,-36.333333333333336,27.4175,0.0,1781.983,0.10500000000000043,100.0,29.205,28.643,45.084,44.055,0.0,1.0,100.0,0.0,0.0,0.0,0.0,3232.857142857143,2968.6,4482.25,4228.4,305.285,305.211,314.0203333333333,314.41575,22.0616,20.6792,22.0549,21.5547,314.999998,314.999998,324.999988,324.999988,99.55885714285715,99.50758333333333,99.56837142857142,99.54835714285714,0.016000000000000014,-0.13049999999999995,-0.18116666666666667,0.0422,-0.045000000000001705,-0.023333333333326323,1.4416666666666669,1.469,38.885,30.245333333333335,38.843,35.717,55.769,35.693,59.8655,53.0965,53.715,34.783,58.432,51.400999999999996,52.864000000000004,34.31,58.3135,50.794333333333334,-0.08050000000000002,-0.08650000000000002,0.101095,0.10314000000000001,0.0,218.38,218.335,214.95666666666668,214.95666666666668,0.0,0.0
32,0.0,1.0,0.0,1.0,1.0,0.0,0.0,1.0,0.0,100.0,1.0,1.1856,26.0,0.0,0.0,0.0,59.999996,0.0,26.0,26.0,26.0,26.0,-0.09933333333333338,0.2651000000000001,-0.042966666666666674,291.29,-2.6409,-2.6985555555555556,-1.5984500000000001,-1.5678,-167.07,215.9725,190.279375,0.0,0.0,0.0,0.0,0.06473333333333334,-5.498166666666667,-5.498166666666667,-0.6091,0.19633333333333336,-0.08522222222222231,0.21900000000000008,69.889,-0.055900000000000005,-0.22820000000000001,0.4139999999999997,100.0,1.0,1.0,215.51,0.0,0.0,0.0,0.0,0.0,0.0,0.0,9134.7,0.0,55.0,5.0,251.57333333333332,0.0,0.0,0.0,0.0,0.0,0.0,1.0,0.0,1.6050000000000004,1.6050000000000004,0.0,0.0,0.0,55.0,616.79921,10000.0,85.000001,85.000001,85.000001,85.000001,395.0,0.0,0.0,0.0,1.0,166.665,51.208,51.208,46.707,46.707,34.0,-27.1675,22.402,-32.61666666666666,25.8475,0.0,1781.934,0.045000000000001705,100.0,29.43,28.591,44.739000000000004,43.763,0.0,1.0,100.0,0.0,0.0,0.0,0.0,3306.714285714286,3127.8,4221.25,4145.6,304.7895,304.94325,314.7103333333333,314.75525,22.0711,20.685,22.0653,21.5639,314.999998,314.999998,324.999988,324.999988,99.55887142857142,99.5076,99.56851428571429,99.54848571428572,0.03875000000000006,-0.10799999999999998,-0.16233333333333336,0.0584,-0.045000000000001705,-0.04999999999999716,1.5366666666666668,1.5594999999999999,38.944,30.281,38.908,35.774,55.754999999999995,35.7365,59.903,53.155,53.702,34.823,58.467,51.457,52.85,34.3485,58.3455,50.84866666666667,-0.08050000000000002,-0.08850000000000025,0.1053,0.100485,0.0,218.775,218.74,215.51,215.51,0.0,0.0
33,0.0,1.0,0.0,1.0,1.0,0.0,0.0,1.0,0.0,100.0,1.0,1.1856,26.0,0.0,0.0,0.0,59.999996,0.0,26.0,26.0,26.0,26.0,-0.06788888888888889,0.2594000000000001,-0.0274,291.382,-2.6586,-2.7478888888888893,-1.5646499999999999,-1.5804,-163.70999999999998,215.96,190.25425,0.0,0.0,0.0,0.0,0.06670000000000001,-5.498166666666667,-5.498166666666667,-0.6096,-0.35733333333333334,-0.07377777777777794,1.467,70.012,-0.0459,-0.21445,0.274,100.0,1.0,1.0,215.76333333333332,0.0,0.0,0.0,0.0,0.0,0.0,0.0,9145.4,0.0,55.0,5.0,252.01666666666665,1.0,0.0,0.0,0.0,0.0,0.0,1.0,0.0,1.6529999999999987,1.6529999999999987,0.0,0.0,1.0,55.0,616.79921,10000.0,85.000001,85.000001,85.000001,85.000001,395.0,0.0,0.0,0.0,1.0,333.33500000000004,51.91,51.91,46.356,46.356,34.0,-25.09,22.6,-33.129999999999995,28.0625,0.0,1781.885,-0.06500000000000128,100.0,29.173000000000002,28.261,44.731,43.843,0.0,1.0,100.0,0.0,0.0,0.0,0.0,3130.857142857143,3038.9,4313.125,4307.0,305.3625,305.22675,314.386,314.2795,22.0799,20.6901,22.0752,21.572499999999998,314.999998,314.999998,324.999988,324.999988,99.55887142857142,99.50761666666666,99.56865714285715,99.54864285714285,0.05049999999999999,-0.09575,-0.156,0.06559999999999999,-0.036666666666668846,-0.046666666666666856,1.4726666666666668,1.4865,38.998999999999995,30.313333333333333,38.97,35.8285,55.742000000000004,35.7735,59.9405,53.2115,53.69,34.857,58.501999999999995,51.5115,52.837,34.381,58.3775,50.902,-0.09499999999999997,-0.07799999999999985,0.10676000000000001,0.103635,0.0,219.15,219.125,215.76333333333332,215.76333333333332,0.0,0.0
34,0.0,1.0,0.0,1.0,1.0,0.0,0.0,1.0,0.0,100.0,1.0,1.1856,26.0,0.0,0.0,0.0,59.999996,0.0,26.0,26.0,26.0,26.0,-0.053333333333333344,0.252,-0.08600000000000001,291.84,-2.6814999999999998,-2.6942222222222223,-1.60205,-1.5972,-160.14,215.9475,190.2265,0.0,0.0,0.0,0.0,0.06876666666666667,-5.498166666666667,-5.498166666666667,-0.6428,-0.8356666666666667,-0.04022222222222238,-0.09799999999999998,70.14,-0.034300000000000004,-0.225725,0.25399999999999956,100.0,1.0,1.0,216.23666666666668,0.0,0.0,0.0,0.0,0.0,0.0,0.0,9165.5,0.0,55.0,5.0,252.48000000000002,0.0,0.0,0.0,0.0,0.0,0.0,1.0,0.0,1.7040000000000006,1.7040000000000006,0.0,0.0,0.0,55.0,616.79921,10000.0,85.000001,85.000001,85.000001,85.000001,395.0,0.0,0.0,0.0,1.0,333.33500000000004,52.124,52.124,47.409,47.409,34.0,-26.115000000000002,21.718,-30.806666666666665,26.985,0.0,1781.833,-0.04499999999999815,100.0,28.649,28.093,44.284,43.971000000000004,0.0,1.0,100.0,0.0,0.0,0.0,0.0,3208.4285714285716,2962.2,4074.75,4116.8,305.131,305.34225,315.019,314.623,22.0891,20.6956,22.0855,21.5818,314.999998,314.999998,324.999988,324.999988,99.55888571428571,99.50763333333333,99.56881428571428,99.54878571428571,0.04875000000000007,-0.09324999999999994,-0.15016666666666667,0.0694,-0.06499999999999773,-0.03166666666666629,1.526,1.532,39.057,30.347666666666665,39.035,35.885999999999996,55.727000000000004,35.812,59.9765,53.272,53.676,34.8925,58.5355,51.5695,52.822,34.415,58.408,50.958666666666666,-0.08499999999999996,-0.07699999999999996,0.10470000000000002,0.10146500000000001,0.0,219.535,219.485,216.23666666666668,216.23666666666668,0.0,0.0
35,0.0,1.0,0.0,1.0,1.0,0.0,0.0,1.0,0.0,100.0,1.0,1.1856,26.0,0.0,0.0,0.0,59.999996,0.0,26.0,26.0,26.0,26.0,-0.025666666666666615,0.25170000000000003,-0.04456666666666667,291.809,-2.6794000000000002,-2.6786666666666665,-1.5686,-1.6099,-156.35,215.9325,190.194625,0.0,0.0,0.0,0.0,0.07096666666666666,-5.498166666666667,-5.498166666666667,-0.6847000000000001,-0.21666666666666667,-0.04999999999999982,-1.014,70.274,-0.0224,-0.22725,0.16000000000000014,100.0,1.0,1.0,216.72,0.0,0.0,0.0,0.0,0.0,0.0,0.0,9186.0,0.0,55.0,5.0,252.96333333333334,1.0,0.0,0.0,0.0,0.0,0.0,1.0,0.0,1.7579999999999991,1.7579999999999991,0.0,0.0,1.0,55.0,616.79921,10000.0,85.000001,85.000001,85.000001,85.000001,395.0,0.0,0.0,0.0,1.0,166.665,51.575,51.575,47.073,47.073,34.0,-26.2075,24.938,-29.07,26.7275,0.0,1781.781,-0.04499999999999815,100.0,28.487000000000002,28.48,43.967,43.492000000000004,0.0,1.0,100.0,0.0,0.0,0.0,0.0,3264.4285714285716,3277.8,4042.5,3933.9,305.0755,304.35675,315.0593333333333,315.13425,22.0988,20.7017,22.0965,21.5914,314.999998,314.999998,324.999988,324.999988,99.55888571428571,99.50765,99.56897142857143,99.54894285714286,0.05525000000000002,-0.07874999999999999,-0.1305,0.093,-0.04833333333333201,-0.05333333333332746,1.547,1.548,39.117000000000004,30.385333333333335,39.103,35.946,55.71,35.855000000000004,60.0145,53.3315,53.659,34.9325,58.571,51.627,52.805,34.453,58.44,51.01466666666667,-0.0814999999999999,-0.07750000000000012,0.10229,0.10288000000000001,0.0,219.945,219.92000000000002,216.72,216.72,0.0,0.0
36,0.0,1.0,0.0,1.0,1.0,0.0,0.0,1.0,0.0,100.0,1.0,1.1856,26.0,0.0,0.0,0.0,59.999996,0.0,26.0,26.0,26.0,26.0,-0.0431111111111111,0.27900000000000014,0.0465,290.863,-2.7338,-2.6446666666666667,-1.54105,-1.6011,-153.18,215.92000000000002,190.16675,0.0,0.0,0.0,0.0,0.0728,-5.498166666666667,-5.498166666666667,-0.6633,0.3196666666666667,-0.08099999999999996,0.08200000000000007,70.39,-0.017,-0.197275,0.1620000000000008,100.0,1.0,1.0,216.82666666666665,0.0,0.0,0.0,0.0,0.0,0.0,0.0,9190.5,0.0,55.0,5.0,253.37666666666667,0.0,0.0,0.0,0.0,0.0,0.0,1.0,0.0,1.8030000000000008,1.8030000000000008,0.0,0.0,0.0,55.0,616.79921,10000.0,85.000001,85.000001,85.000001,85.000001,395.0,0.0,0.0,0.0,1.0,333.33500000000004,51.315,51.315,46.143,46.143,34.0,-26.2175,24.148,-32.51,32.815,0.0,1781.734,-0.0799999999999983,100.0,29.126,28.62,44.224000000000004,43.761,0.0,1.0,100.0,0.0,0.0,0.0,0.0,3306.142857142857,3193.4,4481.125,4562.0,304.898,304.808,313.957,313.68025,22.107,20.7068,22.1057,21.5996,314.999998,314.999998,324.999988,324.999988,99.5589,99.50765,99.5691,99.54908571428571,0.07650000000000001,-0.06774999999999998,-0.11950000000000001,0.1018,-0.02833333333332888,-0.04833333333333201,1.4316666666666669,1.426,39.169,30.417666666666666,39.161,35.997,55.699,35.891999999999996,60.0485,53.385999999999996,53.649,34.966499999999996,58.603,51.679,52.794,34.4855,58.469,51.065333333333335,-0.08650000000000002,-0.07600000000000007,0.10848000000000001,0.10434,0.0,220.325,220.305,216.82666666666665,216.82666666666665,0.0,0.0
