,ABS Active,ABS Enabled,AID Allow Tire Blankets,AID Auto Blip,AID Auto Clutch,AID Auto Shift,AID Fuel Rate,AID Ideal Line,AID Mech Damage,AID Stability,AID Tire Wear Rate,Air Density,Air Temp,Ballast,Best Lap Delta,Best Lap Time,Brake Bias,Brake Pos,Brake Temp FL,Brake Temp FR,Brake Temp RL,Brake Temp RR,CG Accel Lateral,CG Accel Longitudinal,CG Accel Vertical,CG Height,Camber FL,Camber FR,Camber RL,Camber RR,Car Coord X,Car Coord Y,Car Coord Z,Car Damage Front,Car Damage Left,Car Damage Rear,Car Damage Right,Car Pos Norm,Caster FL,Caster FR,Chassis Pitch Angle,Chassis Pitch Rate,Chassis Roll Angle,Chassis Roll Rate,Chassis Velocity X,Chassis Velocity Y,Chassis Velocity Z,Chassis Yaw Rate,Clutch Pos,DRS Active,DRS Available,Drive Train Speed,ERS Heat Charging,ERS Is Charging,ERS Max Energy,ERS Power Level,ERS Recovery Level,Engine Brake Setting,Engine Limiter,Engine RPM,Flags,Fuel Level,Gear,Ground Speed,HR Sample Clock,In Pit,KERS Charge,KERS Deployed Energy,KERS Input,KERS Max Energy,LR Sample Clock,Lap Invalidated,Lap Time,Lap Time2,Last Lap Time,Last Sector Time,MR Sample Clock,Max Fuel,Max Power,Max RPM,Max Sus Travel FL,Max Sus Travel FR,Max Sus Travel RL,Max Sus Travel RR,Max Torque,Max Turbo Boost,Num Tires Off Track,Penalties Enabled,Position,Raw Data Sample Rate,Ride Height FL,Ride Height FR,Ride Height RL,Ride Height RR,Road Temp,Self Align Torque FL,Self Align Torque FR,Self Align Torque RL,Self Align Torque RR,Session Lap Count,Session Time Left,Steering Angle,Surface Grip,Suspension Travel FL,Suspension Travel FR,Suspension Travel RL,Suspension Travel RR,TC Active,TC Enabled,Throttle Pos,Tire Dirt Level FL,Tire Dirt Level FR,Tire Dirt Level RL,Tire Dirt Level RR,Tire Load FL,Tire Load FR,Tire Load RL,Tire Load RR,Tire Loaded Radius FL,Tire Loaded Radius FR,Tire Loaded Radius RL,Tire Loaded Radius RR,Tire Pressure FL,Tire Pressure FR,Tire Pressure RL,Tire Pressure RR,Tire Radius FL,Tire Radius FR,Tire Radius RL,Tire Radius RR,Tire Rubber Grip FL,Tire Rubber Grip FR,Tire Rubber Grip RL,Tire Rubber Grip RR,Tire Slip Angle FL,Tire Slip Angle FR,Tire Slip Angle RL,Tire Slip Angle RR,Tire Slip Ratio FL,Tire Slip Ratio FR,Tire Slip Ratio RL,Tire Slip Ratio RR,Tire Temp Core FL,Tire Temp Core FR,Tire Temp Core RL,Tire Temp Core RR,Tire Temp Inner FL,Tire Temp Inner FR,Tire Temp Inner RL,Tire Temp Inner RR,Tire Temp Middle FL,Tire Temp Middle FR,Tire Temp Middle RL,Tire Temp Middle RR,Tire Temp Outer FL,Tire Temp Outer FR,Tire Temp Outer RL,Tire Temp Outer RR,Toe In FL,Toe In FR,Toe In RL,Toe In RR,Turbo Boost,Wheel Angular Speed FL,Wheel Angular Speed FR,Wheel Angular Speed RL,Wheel Angular Speed RR,Wind Direction,Wind Speed
0,0.0,1.0,0.0,1.0,1.0,0.0,0.0,1.0,0.0,100.0,1.0,1.1856,26.0,0.0,0.0,0.0,59.99999,0.0,26.0,26.0,26.0,26.0,-0.028000000000000025,0.29780000000000006,0.08535000000000001,293.274,-2.7325,-2.6195555555555554,-1.5272000000000001,-1.5113,-275.77,215.64249999999998,190.987875,0.0,0.0,0.0,0.0,0.0015333333333333865,-5.498166666666667,-5.498166666666667,-0.5744,2.1555,-0.003555555555555756,0.03200000000000003,65.486,-0.0308,-0.23597500000000002,0.10999999999999943,100.0,1.0,1.0,202.18666666666667,0.0,0.0,0.0,0.0,0.0,0.0,0.0,8570.0,0.0,55.0,5.0,235.72,0.0,0.0,0.0,0.0,0.0,0.0,0.0,0.0,0.0030000000000001137,0.0030000000000001137,0.0,0.0,0.0,55.0,616.79921,10000.0,85.0,85.0,85.0,85.0,395.0,0.0,0.0,0.0,1.0,20.0,50.827,50.827,49.301,49.301,34.0,-28.1475,30.516,-29.113333333333333,26.57,0.0,1783.449,0.4499999999999993,100.0,27.977,27.559,40.177,39.824,0.0,1.0,100.0,0.0,0.0,0.0,0.0,3235.5714285714284,4153.8,4079.75,4153.4,304.8715,302.05975,314.9115,314.54625,21.7468,20.5119,21.7403,21.2725,314.99999,314.99999,324.99998,324.99998,99.55741428571429,99.50713333333333,99.56422857142857,99.54368571428571,0.018749999999999822,-0.09250000000000003,-0.14100000000000001,0.08800000000000008,-0.054999999999999716,-0.05571428571428072,1.5656666666666665,1.582,36.918,29.199333333333335,36.876999999999995,33.953,55.763999999999996,34.397999999999996,58.737,51.109,53.733000000000004,33.615,57.3905,49.503,52.934,33.2215,57.3735,48.94766666666666,-0.04849999999999999,-0.10950000000000015,0.10839000000000001,0.10552,0.0,205.215,205.20499999999998,202.18666666666667,202.18666666666667,0.0,0.0
1,0.0,1.0,0.0,1.0,1.0,0.0,0.0,1.0,0.0,100.0,1.0,1.1856,26.0,0.0,0.0,0.0,59.999996,0.0,26.0,26.0,26.0,26.0,-0.10999999999999999,0.32720000000000016,0.0591,292.389,-2.64,-2.7025555555555556,-1.5443,-1.3801,-272.23,215.6575,190.96675,0.0,0.0,0.0,0.0,0.0035999999999999366,-5.498166666666667,-5.498166666666667,-0.48860000000000003,-1.5855000000000001,-0.053444444444444184,0.10099999999999998,65.655,-0.031400000000000004,-0.198725,0.8200000000000003,100.0,1.0,1.0,202.12333333333333,0.0,0.0,0.0,0.0,0.0,0.0,0.0,8567.3,0.0,55.0,5.0,236.32666666666665,1.0,0.0,0.0,0.0,0.0,0.0,0.0,0.0,0.05699999999999861,0.05699999999999861,0.0,0.0,1.0,55.0,616.79921,10000.0,85.000001,85.000001,85.000001,85.000001,395.0,0.0,0.0,0.0,1.0,166.665,53.848,53.848,47.684,47.684,34.0,-23.412499999999998,16.416,-37.86666666666667,31.5425,0.0,1783.396,0.5700000000000003,100.0,28.003,27.509,42.391,42.672,0.0,1.0,100.0,0.0,0.0,0.0,0.0,2824.285714285714,2424.4,4718.625,5192.1,306.1295,307.0935,313.18725,311.617,21.7571,20.5172,21.7519,21.2823,314.999998,314.999998,324.999988,324.999988,99.55741428571429,99.50715,99.56438571428572,99.54385714285715,0.015249999999999986,-0.11399999999999999,-0.16149999999999998,0.05400000000000005,-0.036666666666668846,-0.02285714285714846,1.2993333333333332,1.3515000000000001,36.982,29.232333333333333,36.949,34.0145,55.747,34.439,58.789,51.184,53.716,33.6535,57.439499999999995,49.575,52.916,33.257999999999996,57.4195,49.01833333333333,-0.026499999999999968,-0.12400000000000011,0.10981,0.10243000000000001,0.0,205.68,205.585,202.12333333333333,202.12333333333333,0.0,0.0
2,0.0,1.0,0.0,1.0,1.0,0.0,0.0,1.0,0.0,100.0,1.0,1.1856,26.0,0.0,0.0,0.0,59.999996,0.0,26.0,26.0,26.0,26.0,-0.08624999999999994,0.2743,-0.117575,293.915,-2.632,-2.6531111111111114,-1.5272999999999999,-1.5144,-268.88,215.67000000000002,190.948,0.0,0.0,0.0,0.0,0.00553333333333339,-5.498166666666667,-5.498166666666667,-0.5841000000000001,0.6855,-0.013777777777777889,1.417,65.789,-0.0439,-0.27997500000000003,1.1600000000000001,100.0,1.0,1.0,203.52666666666667,0.0,0.0,0.0,0.0,0.0,0.0,0.0,8626.7,0.0,55.0,5.0,236.81,0.0,0.0,0.0,0.0,0.0,0.0,0.0,0.0,0.10800000000000054,0.10800000000000054,0.0,0.0,0.0,55.0,616.79921,10000.0,85.000001,85.000001,85.000001,85.000001,395.0,0.0,0.0,0.0,1.0,166.665,51.682,51.682,51.01,51.01,34.0,-29.1675,20.242,-25.833333333333336,18.064999999999998,0.0,1783.345,0.615000000000002,100.0,28.478,27.789,41.703,41.353,0.0,1.0,100.0,0.0,0.0,0.0,0.0,3372.0,3043.1,3511.875,3373.3,304.5485,304.91775,316.2895,316.504,21.7672,20.5223,21.7622,21.2907,314.999998,314.999998,324.999988,324.999988,99.55741428571429,99.50716666666666,99.56452857142857,99.54397142857142,0.003249999999999975,-0.13674999999999993,-0.19666666666666666,0.04066666666666685,-0.06499999999999773,-0.060000000000002274,1.748,1.809,37.045,29.264666666666663,37.013999999999996,34.067,55.735,34.480000000000004,58.824,51.2355,53.704,33.691,57.4725,49.6245,52.903999999999996,33.294,57.4495,49.067,-0.03499999999999992,-0.1299999999999999,0.11431500000000001,0.10503000000000001,0.0,206.155,206.04000000000002,203.52666666666667,203.52666666666667,0.0,0.0
3,0.0,1.0,0.0,1.0,1.0,0.0,0.0,1.0,0.0,100.0,1.0,1.1856,26.0,0.0,0.0,0.0,59.999996,0.0,26.0,26.0,26.0,26.0,-0.09087499999999993,0.30290000000000017,0.046875,293.015,-2.6494999999999997,-2.6825555555555556,-1.5101,-1.4889000000000001,-265.72,215.68,190.928875,0.0,0.0,0.0,0.0,0.007399999999999962,-5.498166666666667,-5.498166666666667,-0.5112,0.5680000000000001,-0.004999999999999893,-2.363,65.938,-0.0594,-0.19717500000000002,0.9720000000000013,100.0,1.0,1.0,203.35,0.0,0.0,0.0,0.0,0.0,0.0,0.0,8619.3,0.0,55.0,5.0,237.3466666666667,1.0,0.0,0.0,0.0,0.0,0.0,0.0,0.0,0.1559999999999988,0.1559999999999988,0.0,0.0,1.0,55.0,616.79921,10000.0,85.000001,85.000001,85.000001,85.000001,395.0,0.0,0.0,0.0,1.0,166.665,52.963,52.963,47.791,47.791,34.0,-26.2025,18.154,-35.593333333333334,24.78,0.0,1783.297,0.7349999999999994,100.0,27.955,27.92,41.972,41.858000000000004,0.0,1.0,100.0,0.0,0.0,0.0,0.0,3020.4285714285716,2788.5,4518.625,4211.5,305.8355,305.731,313.83525,314.233,21.7763,20.5273,21.772,21.2991,314.999998,314.999998,324.999988,324.999988,99.55741428571429,99.50718333333333,99.56465714285714,99.54411428571429,-0.01475000000000004,-0.14649999999999996,-0.18333333333333335,0.03983333333333339,-0.04333333333332945,-0.04571428571428271,1.4703333333333333,1.468,37.102000000000004,29.295333333333332,37.075,34.1195,55.719,34.5205,58.863,51.299,53.69,33.728,57.5085,49.6855,52.888,33.329499999999996,57.483000000000004,49.126666666666665,-0.020000000000000018,-0.13100000000000023,0.112195,0.10339500000000001,0.0,206.62,206.515,203.35000000000002,203.35,0.0,0.0
4,0.0,1.0,0.0,1.0,1.0,0.0,0.0,1.0,0.0,100.0,1.0,1.1856,26.0,0.0,0.0,0.0,59.999996,0.0,26.0,26.0,26.0,26.0,-0.10875000000000001,0.28380000000000005,-0.016475,293.243,-2.6764,-2.7524444444444445,-1.4594,-1.5996000000000001,-262.55,215.6875,190.9105,0.0,0.0,0.0,0.0,0.009233333333333316,-5.498166666666667,-5.498166666666667,-0.5383,-0.9805,-0.05655555555555569,-1.533,66.074,-0.0684,-0.24047500000000002,1.3100000000000005,100.0,1.0,1.0,203.92000000000002,0.0,0.0,0.0,0.0,0.0,0.0,0.0,8643.4,0.0,55.0,5.0,237.84,0.0,0.0,0.0,0.0,0.0,0.0,0.0,0.0,0.20400000000000063,0.20400000000000063,0.0,0.0,0.0,55.0,616.79921,10000.0,85.000001,85.000001,85.000001,85.000001,395.0,0.0,0.0,0.0,1.0,166.665,52.719,52.719,48.676,48.676,34.0,-29.060000000000002,18.518,-32.39666666666666,22.535,0.0,1783.249,0.8049999999999997,100.0,28.052,27.531,42.752,41.952,0.0,1.0,100.0,0.0,0.0,0.0,0.0,3238.714285714286,2801.2,4157.125,3842.1000000000004,305.142,305.7545,314.72425,315.1975,21.7854,20.532,21.7821,21.3075,314.999998,314.999998,324.999988,324.999988,99.55742857142857,99.5072,99.5648,99.54424285714286,-0.02200000000000002,-0.15300000000000002,-0.20733333333333337,0.026000000000000023,-0.04833333333333201,-0.06857142857143117,1.533,1.5725,37.159,29.325,37.138,34.172,55.705,34.5585,58.9045,51.3575,53.676,33.763,57.547,49.7415,52.873999999999995,33.363,57.5185,49.181666666666665,-0.018000000000000016,-0.14000000000000012,0.11079000000000001,0.10836000000000001,0.0,206.98000000000002,206.905,203.92000000000002,203.92000000000002,0.0,0.0
5,0.0,1.0,0.0,1.0,1.0,0.0,0.0,1.0,0.0,100.0,1.0,1.1856,26.0,0.0,0.0,0.0,59.999996,0.0,26.0,26.0,26.0,26.0,-0.14049999999999996,0.2881,-0.043125000000000004,293.503,-2.6848,-2.720777777777778,-1.5018,-1.6062,-259.17,215.6925,190.890625,0.0,0.0,0.0,0.0,0.011199999999999988,-5.498166666666667,-5.498166666666667,-0.5563,0.34950000000000003,-0.055888888888888655,0.86,66.219,-0.0833,-0.24070000000000003,1.2520000000000007,100.0,1.0,1.0,204.48666666666668,0.0,0.0,0.0,0.0,0.0,0.0,0.0,8667.5,0.0,55.0,5.0,238.36,1.0,0.0,0.0,0.0,0.0,0.0,0.0,0.0,0.254999999999999,0.254999999999999,0.0,0.0,1.0,55.0,616.79921,10000.0,85.000001,85.000001,85.000001,85.000001,395.0,0.0,0.0,0.0,1.0,166.665,52.536,52.536,49.438,49.438,34.0,-28.4825,19.212,-31.156666666666666,21.9675,0.0,1783.198,0.3949999999999996,100.0,28.511,27.345,42.47,41.227000000000004,0.0,1.0,100.0,0.0,0.0,0.0,0.0,3124.5714285714284,2961.8,3940.625,3901.2,305.209,305.47025,315.217,315.2015,21.7952,20.5371,21.7925,21.3162,314.999998,314.999998,324.999988,324.999988,99.55742857142857,99.50721666666666,99.56494285714285,99.54438571428571,-0.025499999999999856,-0.15425,-0.21633333333333338,0.011833333333333362,-0.06333333333333258,-0.057142857142849834,1.5813333333333333,1.638,37.22,29.357,37.203,34.226,55.692,34.6005,58.944,51.4155,53.663,33.8015,57.584,49.797,52.86,33.4,57.5525,49.236000000000004,-0.026999999999999913,-0.121,0.11325,0.10092500000000001,0.0,207.48000000000002,207.38,204.48666666666668,204.48666666666668,0.0,0.0
6,0.0,1.0,0.0,1.0,1.0,0.0,0.0,1.0,0.0,100.0,1.0,1.1856,26.0,0.0,0.0,0.0,59.999996,0.0,26.0,26.0,26.0,26.0,-0.14,0.29380000000000006,0.01755,293.198,-2.625,-2.786888888888889,-1.5476,-1.5774000000000001,-255.99,215.695,190.871125,0.0,0.0,0.0,0.0,0.013033333333333341,-5.498166666666667,-5.498166666666667,-0.5415,-0.07100000000000001,-0.06566666666666654,0.73,66.36,-0.0879,-0.21955000000000002,0.9979999999999993,100.0,1.0,1.0,204.7266666666667,0.0,0.0,0.0,0.0,0.0,0.0,0.0,8677.6,0.0,55.0,5.0,238.86666666666667,0.0,0.0,0.0,0.0,0.0,0.0,0.0,0.0,0.3030000000000008,0.3030000000000008,0.0,0.0,0.0,55.0,616.79921,10000.0,85.000001,85.000001,85.000001,85.000001,395.0,0.0,0.0,0.0,1.0,166.665,52.826,52.826,48.553,48.553,34.0,-27.497500000000002,19.366,-34.739999999999995,23.795,0.0,1783.151,0.5250000000000021,100.0,28.41,27.224,42.635,41.262,0.0,1.0,100.0,0.0,0.0,0.0,0.0,3091.5714285714284,2885.4,4263.875,4115.7,305.338,305.70625,314.388,314.6625,21.8044,20.5419,21.8025,21.3245,314.999998,314.999998,324.999988,324.999988,99.55742857142857,99.50723333333333,99.56508571428571,99.54451428571429,-0.023499999999999854,-0.15000000000000002,-0.20433333333333337,0.019166666666666554,-0.04833333333333201,-0.0714285714285694,1.5063333333333333,1.5394999999999999,37.277,29.387,37.266,34.2785,55.678,34.638999999999996,58.984,51.4745,53.65,33.837,57.6215,49.8535,52.846000000000004,33.4335,57.5875,49.291333333333334,-0.034499999999999975,-0.11900000000000022,0.09788000000000001,0.10824500000000001,0.0,207.9,207.835,204.7266666666667,204.7266666666667,0.0,0.0
7,0.0,1.0,0.0,1.0,1.0,0.0,0.0,1.0,0.0,100.0,1.0,1.1856,26.0,0.0,0.0,0.0,59.999996,0.0,26.0,26.0,26.0,26.0,-0.09762499999999996,0.2904,0.003975,293.015,-2.5942,-2.779111111111111,-1.5048,-1.6244,-252.6,215.6925,190.8505,0.0,0.0,0.0,0.0,0.014999999999999902,-5.498166666666667,-5.498166666666667,-0.5529000000000001,0.038,-0.0604444444444443,-0.4710000000000001,66.505,-0.0897,-0.24050000000000002,0.9640000000000004,100.0,1.0,1.0,205.24,0.0,0.0,0.0,0.0,0.0,0.0,0.0,8699.4,0.0,55.0,5.0,239.38666666666666,1.0,0.0,0.0,0.0,0.0,0.0,0.0,0.0,0.3539999999999992,0.3539999999999992,0.0,0.0,1.0,55.0,616.79921,10000.0,85.000001,85.000001,85.000001,85.000001,395.0,0.0,0.0,0.0,1.0,166.665,52.139,52.139,48.903999999999996,48.903999999999996,34.0,-27.82,20.009999999999998,-33.17333333333333,22.7575,0.0,1783.099,0.05999999999999872,100.0,28.649,27.725,42.664,41.56,0.0,1.0,100.0,0.0,0.0,0.0,0.0,3276.857142857143,2873.4,4116.0,3945.6000000000004,304.933,305.46875,314.806,314.95875,21.8142,20.5471,21.813,21.3334,314.999998,314.999998,324.999988,324.999988,99.55742857142857,99.50725,99.56521428571429,99.54465714285715,0.0015000000000000568,-0.137,-0.21750000000000003,0.010000000000000009,-0.061666666666667425,-0.02285714285714846,1.532,1.5865,37.339,29.419,37.332,34.334,55.665,34.6805,59.0255,51.536500000000004,53.638,33.875,57.66,49.913,52.833,33.47,57.623,49.349000000000004,-0.07250000000000001,-0.08199999999999985,0.10588,0.10586500000000001,0.0,208.35000000000002,208.235,205.24,205.24,0.0,0.0
8,0.0,1.0,0.0,1.0,1.0,0.0,0.0,1.0,0.0,100.0,1.0,1.1856,26.0,0.0,0.0,0.0,59.999996,0.0,26.0,26.0,26.0,26.0,-0.07424999999999993,0.28900000000000015,-0.015075,293.091,-2.6739,-2.7092222222222224,-1.4831,-1.6146,-249.01,215.69,190.828625,0.0,0.0,0.0,0.0,0.017100000000000004,-5.498166666666667,-5.498166666666667,-0.5566,-0.3365,-0.047555555555555795,-1.073,66.65899999999999,-0.07830000000000001,-0.24172500000000002,0.5060000000000002,100.0,1.0,1.0,205.68666666666667,0.0,0.0,0.0,0.0,0.0,0.0,0.0,8718.3,0.0,55.0,5.0,239.94333333333333,0.0,0.0,0.0,0.0,0.0,0.0,0.0,0.0,0.40800000000000125,0.40800000000000125,0.0,0.0,0.0,55.0,616.79921,10000.0,85.000001,85.000001,85.000001,85.000001,395.0,0.0,0.0,0.0,1.0,166.665,52.399,52.399,48.553,48.553,34.0,-26.7625,20.21,-31.346666666666664,23.865000000000002,0.0,1783.045,0.0,100.0,28.393,27.891,42.701,41.743,0.0,1.0,100.0,0.0,0.0,0.0,0.0,3146.5714285714284,2910.5,4077.625,3966.5,305.3975,305.4125,314.88925,314.889,21.8244,20.552599999999998,21.8242,21.3429,314.999998,314.999998,324.999988,324.999988,99.55744285714286,99.50726666666667,99.56537142857142,99.5448,0.01100000000000012,-0.123,-0.19366666666666665,0.028833333333333266,-0.054999999999999716,-0.03857142857143003,1.5376666666666665,1.5535,37.402,29.453333333333333,37.400999999999996,34.393,55.649,34.7235,59.069,51.6025,53.623000000000005,33.914500000000004,57.701,49.9755,52.817,33.5075,57.661,49.410666666666664,-0.08199999999999985,-0.07650000000000023,0.10803000000000001,0.10588,0.0,208.78,208.745,205.68666666666667,205.68666666666667,0.0,0.0
9,0.0,1.0,0.0,1.0,1.0,0.0,0.0,1.0,0.0,100.0,1.0,1.1856,26.0,0.0,0.0,0.0,59.999996,0.0,26.0,26.0,26.0,26.0,-0.07999999999999996,0.2823,0.012875000000000001,292.831,-2.5888,-2.7264444444444447,-1.533,-1.5730000000000002,-246.01,215.6825,190.810125,0.0,0.0,0.0,0.0,0.018866666666666587,-5.498166666666667,-5.498166666666667,-0.556,0.34450000000000003,-0.05433333333333357,0.929,66.785,-0.0645,-0.23625000000000002,0.26200000000000045,100.0,1.0,1.0,206.11,0.0,0.0,0.0,0.0,0.0,0.0,0.0,8736.2,0.0,55.0,5.0,240.39666666666668,1.0,0.0,0.0,0.0,0.0,0.0,0.0,0.0,0.4529999999999994,0.4529999999999994,0.0,0.0,1.0,55.0,616.79921,10000.0,85.000001,85.000001,85.000001,85.000001,395.0,0.0,0.0,0.0,1.0,333.33500000000004,51.865,51.865,48.888999999999996,48.888999999999996,34.0,-25.875,22.208,-30.716666666666665,25.2925,0.0,1782.999,-0.15500000000000114,100.0,28.883,27.826999999999998,42.674,41.602000000000004,0.0,1.0,100.0,0.0,0.0,0.0,0.0,3202.714285714286,3045.0,4046.75,4088.7,304.9765,305.206,314.9415,314.7425,21.833,20.5572,21.8334,21.3507,314.999998,314.999998,324.999988,324.999988,99.55744285714286,99.50728333333333,99.5655,99.54492857142857,0.03374999999999995,-0.09950000000000003,-0.1725,0.054166666666666696,-0.045000000000001705,-0.04571428571428271,1.5373333333333332,1.5575,37.456,29.482666666666667,37.459,34.442,55.638,34.7595,59.104,51.656,53.611000000000004,33.948,57.7335,50.027,52.806,33.539500000000004,57.691,49.461,-0.09199999999999986,-0.0674999999999999,0.106175,0.10611000000000001,0.0,209.195,209.15,206.11,206.11,0.0,0.0
10,0.0,1.0,0.0,1.0,1.0,0.0,0.0,1.0,0.0,100.0,1.0,1.1856,26.0,0.0,0.0,0.0,59.999996,0.0,26.0,26.0,26.0,26.0,-0.044749999999999956,0.29520000000000013,0.01165,292.709,-2.6534,-2.6950000000000003,-1.5007000000000001,-1.5551000000000001,-242.6,215.675,190.789375,0.0,0.0,0.0,0.0,0.02083333333333337,-5.498166666666667,-5.498166666666667,-0.5444,-0.322,-0.027888888888889074,-0.0030000000000001137,66.93,-0.0456,-0.23117500000000002,0.09799999999999898,100.0,1.0,1.0,206.44333333333333,0.0,0.0,0.0,0.0,0.0,0.0,0.0,8750.4,0.0,55.0,5.0,240.92000000000002,0.0,0.0,0.0,0.0,0.0,0.0,1.0,0.0,0.5040000000000013,0.5040000000000013,0.0,0.0,0.0,55.0,616.79921,10000.0,85.000001,85.000001,85.000001,85.000001,395.0,0.0,0.0,0.0,1.0,166.665,52.368,52.368,48.218,48.218,34.0,-25.244999999999997,20.445999999999998,-31.993333333333336,26.29,0.0,1782.949,-0.21999999999999886,100.0,28.648,28.063,42.788,42.172,0.0,1.0,100.0,0.0,0.0,0.0,0.0,3102.857142857143,2842.3,4235.875,4186.9,305.518,305.65525,314.5375,314.38475,21.8427,20.5624,21.843899999999998,21.3597,314.999998,314.999998,324.999988,324.999988,99.55744285714286,99.5073,99.56565714285715,99.54507142857143,0.033250000000000224,-0.09924999999999995,-0.17066666666666663,0.05600000000000005,-0.05833333333333002,-0.03999999999999915,1.5043333333333333,1.494,37.516999999999996,29.515,37.524,34.4985,55.625,34.7985,59.146,51.7195,53.599000000000004,33.9835,57.772999999999996,50.088,52.792,33.573499999999996,57.7275,49.52033333333333,-0.09349999999999992,-0.06000000000000005,0.11249500000000001,0.10504500000000001,0.0,209.63,209.595,206.44333333333333,206.44333333333333,0.0,0.0
11,0.0,1.0,0.0,1.0,1.0,0.0,0.0,1.0,0.0,100.0,1.0,1.1856,26.0,0.0,0.0,0.0,59.999996,0.0,26.0,26.0,26.0,26.0,-0.030625000000000013,0.2893000000000001,-0.054175,293.06,-2.6614,-2.6895555555555557,-1.5575,-1.5281,-239.18,215.66750000000002,190.7685,0.0,0.0,0.0,0.0,0.022599999999999953,-5.498166666666667,-5.498166666666667,-0.5727,-0.2435,0.000888888888888939,0.962,67.072,-0.0307,-0.2508,-0.08799999999999919,100.0,1.0,1.0,207.04000000000002,0.0,0.0,0.0,0.0,0.0,0.0,0.0,8775.6,0.0,55.0,5.0,241.43,1.0,0.0,0.0,0.0,0.0,0.0,1.0,0.0,0.5549999999999997,0.5549999999999997,0.0,0.0,1.0,55.0,616.79921,10000.0,85.000001,85.000001,85.000001,85.000001,395.0,0.0,0.0,0.0,1.0,166.665,52.094,52.094,49.025999999999996,49.025999999999996,34.0,-23.8725,23.436,-27.293333333333333,25.7425,0.0,1782.898,-0.5449999999999982,100.0,28.631,28.0,42.597,42.105000000000004,0.0,1.0,100.0,0.0,0.0,0.0,0.0,3029.142857142857,3113.5,3850.0,4003.3,305.525,305.02125,315.442,314.95325,21.8522,20.5677,21.8543,21.3687,314.999998,314.999998,324.999988,324.999988,99.55745714285715,99.5073,99.56578571428571,99.54521428571428,0.05799999999999983,-0.07599999999999996,-0.135,0.09083333333333332,-0.04999999999999716,-0.04999999999999716,1.5783333333333334,1.5979999999999999,37.576,29.548333333333332,37.589,34.5545,55.61,34.838,59.1835,51.781,53.585,34.019999999999996,57.808,50.147,52.778,33.6085,57.7595,49.57833333333333,-0.10149999999999992,-0.052999999999999936,0.10760000000000002,0.10179500000000001,0.0,210.04000000000002,210.03,207.04000000000002,207.04000000000002,0.0,0.0
12,0.0,1.0,0.0,1.0,1.0,0.0,0.0,1.0,0.0,100.0,1.0,1.1856,26.0,0.0,0.0,0.0,59.999996,0.0,26.0,26.0,26.0,26.0,-0.028749999999999942,0.2843,0.008925,292.664,-2.6894,-2.6855555555555557,-1.5332,-1.5486,-235.96,215.6575,190.747875,0.0,0.0,0.0,0.0,0.025466666666666526,-5.498166666666667,-5.498166666666667,-0.5641,0.3895,-0.0015555555555555323,0.902,67.207,-0.0158,-0.23062500000000002,-0.24399999999999977,100.0,1.0,1.0,207.35333333333335,0.0,0.0,0.0,0.0,0.0,0.0,0.0,8788.9,0.0,55.0,5.0,241.91333333333336,0.0,0.0,0.0,0.0,0.0,0.0,1.0,0.0,0.602999999999998,0.602999999999998,0.0,0.0,0.0,55.0,616.79921,10000.0,85.000001,85.000001,85.000001,85.000001,395.0,0.0,0.0,0.0,1.0,333.33500000000004,51.894999999999996,51.894999999999996,48.325,48.325,34.0,-24.6375,23.614,-28.183333333333334,29.0,0.0,1782.848,-0.26500000000000057,100.0,28.66,28.227,42.461,42.032,0.0,1.0,100.0,0.0,0.0,0.0,0.0,3059.142857142857,3153.0,4120.625,4192.2,305.425,304.87475,314.7795,314.5195,21.8612,20.5728,21.864,21.3771,314.999998,314.999998,324.999988,324.999988,99.55747142857143,99.50731666666667,99.56592857142857,99.54534285714286,0.052999999999999936,-0.07974999999999999,-0.10883333333333334,0.11299999999999999,-0.04833333333333201,-0.048571428571428044,1.532,1.5105,37.632999999999996,29.58,37.65,34.6065,55.599000000000004,34.875,59.22,51.839,53.574,34.054,57.841499999999996,50.203,52.766,33.641,57.7905,49.632999999999996,-0.08549999999999991,-0.07500000000000018,0.10315500000000001,0.10994000000000001,0.0,210.47500000000002,210.485,207.35333333333335,207.35333333333335,0.0,0.0
13,0.0,1.0,0.0,1.0,1.0,0.0,0.0,1.0,0.0,100.0,1.0,1.1856,26.0,0.0,0.0,0.0,59.999996,0.0,26.0,26.0,26.0,26.0,0.021374999999999922,0.28780000000000006,0.030475000000000002,292.313,-2.6635999999999997,-2.6944444444444446,-1.5631,-1.5576,-232.51999999999998,215.65,190.72625,0.0,0.0,0.0,0.0,0.026699999999999946,-5.498166666666667,-5.498166666666667,-0.5563,-0.1505,-0.00755555555555576,-0.46599999999999997,67.349,-0.0105,-0.23525000000000001,-0.05600000000000005,100.0,1.0,1.0,207.70666666666668,0.0,0.0,0.0,0.0,0.0,0.0,0.0,8803.9,0.0,55.0,5.0,242.43,1.0,0.0,0.0,0.0,0.0,0.0,1.0,0.0,0.6539999999999999,0.6539999999999999,0.0,0.0,1.0,55.0,616.79921,10000.0,85.000001,85.000001,85.000001,85.000001,395.0,0.0,0.0,0.0,1.0,333.33500000000004,51.712,51.712,48.019,48.019,34.0,-23.7575,23.686,-30.323333333333334,28.9325,0.0,1782.797,-0.4499999999999993,100.0,28.689,28.573,42.666,42.618,0.0,1.0,100.0,0.0,0.0,0.0,0.0,3193.857142857143,2986.4,4236.125,4216.5,305.2185,305.172,314.54375,314.32925,21.8709,20.5782,21.8746,21.3862,314.999998,314.999998,324.999988,324.999988,99.55748571428572,99.50731666666667,99.56605714285715,99.5455,0.09025000000000016,-0.05025000000000002,-0.12066666666666659,0.10133333333333328,-0.061666666666667425,-0.03142857142857025,1.4903333333333333,1.5030000000000001,37.693,29.613999999999997,37.716,34.6635,55.588,34.914500000000004,59.260999999999996,51.9035,53.563,34.0905,57.879999999999995,50.2645,52.754000000000005,33.6755,57.8255,49.693333333333335,-0.11749999999999994,-0.04600000000000026,0.10784500000000001,0.11074500000000001,0.0,210.92000000000002,210.88,207.70666666666668,207.70666666666668,0.0,0.0
14,0.0,1.0,0.0,1.0,1.0,0.0,0.0,1.0,0.0,100.0,1.0,1.1856,26.0,0.0,0.0,0.0,59.999996,0.0,26.0,26.0,26.0,26.0,0.014000000000000012,0.2884,-0.024625,292.48,-2.6793,-2.7024444444444446,-1.5633,-1.5463,-229.09,215.64,190.704875,0.0,0.0,0.0,0.0,0.028699999999999948,-5.498166666666667,-5.498166666666667,-0.5694,-0.08600000000000001,0.01644444444444426,1.192,67.489,-0.0014,-0.24975,-0.3639999999999999,100.0,1.0,1.0,208.2266666666667,0.0,0.0,0.0,0.0,0.0,0.0,0.0,8825.9,0.0,55.0,5.0,242.93333333333334,0.0,0.0,0.0,0.0,0.0,0.0,1.0,0.0,0.7049999999999983,0.7049999999999983,0.0,0.0,0.0,55.0,616.79921,10000.0,85.000001,85.000001,85.000001,85.000001,395.0,0.0,0.0,0.0,1.0,333.33500000000004,51.666,51.666,48.325,48.325,34.0,-22.165,25.528,-26.906666666666663,29.0675,0.0,1782.746,-0.39000000000000057,100.0,28.885,28.538,42.695,42.639,0.0,1.0,100.0,0.0,0.0,0.0,0.0,2996.0,3169.4,3974.5,4147.8,305.6065,304.7525,315.11325,314.594,21.8804,20.5837,21.884999999999998,21.3952,314.999998,314.999998,324.999988,324.999988,99.55748571428572,99.50731666666667,99.56621428571428,99.54562857142857,0.09675000000000011,-0.04425000000000001,-0.10033333333333339,0.12349999999999994,-0.041666666666671404,-0.06285714285714761,1.5536666666666665,1.542,37.753,29.648,37.781,34.72,55.576,34.953,59.299,51.966,53.552,34.126,57.9155,50.3245,52.742000000000004,33.71,57.858000000000004,49.75233333333333,-0.11450000000000005,-0.0535000000000001,0.10551500000000001,0.10616,0.0,211.335,211.34,208.2266666666667,208.2266666666667,0.0,0.0
15,0.0,1.0,0.0,1.0,1.0,0.0,0.0,1.0,0.0,100.0,1.0,1.1856,26.0,0.0,0.0,0.0,59.999996,0.0,26.0,26.0,26.0,26.0,0.02562500000000001,0.28910000000000013,0.0023250000000000002,292.358,-2.6795999999999998,-2.67,-1.5792000000000002,-1.558,-225.84,215.6325,190.684375,0.0,0.0,0.0,0.0,0.03056666666666652,-5.498166666666667,-5.498166666666667,-0.5626,0.2735,0.03222222222222215,0.951,67.622,0.0078000000000000005,-0.236075,-0.37600000000000033,100.0,1.0,1.0,208.59333333333333,0.0,0.0,0.0,0.0,0.0,0.0,0.0,8841.5,0.0,55.0,5.0,243.41,1.0,0.0,0.0,0.0,0.0,0.0,1.0,0.0,0.7530000000000001,0.7530000000000001,0.0,0.0,1.0,55.0,616.79921,10000.0,85.000001,85.000001,85.000001,85.000001,395.0,0.0,0.0,0.0,1.0,333.33500000000004,51.682,51.682,48.203,48.203,34.0,-21.785,25.27,-27.643333333333334,31.055,0.0,1782.699,-0.29499999999999815,100.0,28.921,28.644,42.541,42.706,0.0,1.0,100.0,0.0,0.0,0.0,0.0,2944.5714285714284,3156.4,4034.875,4288.0,305.751,304.77425,314.984,314.22125,21.8894,20.5889,21.8947,21.4037,314.999998,314.999998,324.999988,324.999988,99.5575,99.50733333333334,99.56634285714286,99.54577142857143,0.09575000000000022,-0.040999999999999925,-0.09883333333333333,0.1326666666666667,-0.046666666666666856,-0.04999999999999716,1.5243333333333333,1.5225,37.809,29.680333333333333,37.842,34.772999999999996,55.566,34.99,59.3345,52.0255,53.542,34.16,57.948499999999996,50.382,52.730999999999995,33.7425,57.888,49.80833333333334,-0.10549999999999993,-0.05650000000000022,0.108005,0.10723500000000001,0.0,211.76,211.775,208.59333333333333,208.59333333333333,0.0,0.0
16,0.0,1.0,0.0,1.0,1.0,0.0,0.0,1.0,0.0,100.0,1.0,1.1856,26.0,0.0,0.0,0.0,59.999996,0.0,26.0,26.0,26.0,26.0,0.03037500000000004,0.2773000000000001,-0.015950000000000002,292.328,-2.7446,-2.6143333333333336,-1.5554999999999999,-1.5559,-222.39,215.625,190.662375,0.0,0.0,0.0,0.0,0.03256666666666652,-5.498166666666667,-5.498166666666667,-0.5747,-0.522,0.018444444444444263,-1.322,67.762,0.0131,-0.247175,-0.1720000000000006,100.0,1.0,1.0,209.01333333333332,0.0,0.0,0.0,0.0,0.0,0.0,0.0,8859.4,0.0,55.0,5.0,243.91666666666666,0.0,0.0,0.0,0.0,0.0,0.0,1.0,0.0,0.8039999999999985,0.8039999999999985,0.0,0.0,0.0,55.0,616.79921,10000.0,85.000001,85.000001,85.000001,85.000001,395.0,0.0,0.0,0.0,1.0,333.33500000000004,51.605,51.605,47.897,47.897,34.0,-24.445,24.105999999999998,-27.74,29.1975,0.0,1782.648,-0.22499999999999787,100.0,28.42,28.831,42.730000000000004,42.949,0.0,1.0,100.0,0.0,0.0,0.0,0.0,3185.714285714286,3119.1,4095.25,4073.9,305.3455,304.7655,314.9,314.62525,21.8988,20.5943,21.9052,21.4128,314.999998,314.999998,324.999988,324.999988,99.55751428571429,99.50733333333334,99.56648571428572,99.54591428571429,0.08800000000000008,-0.051999999999999935,-0.10016666666666663,0.1293333333333333,-0.04333333333332945,-0.04999999999999716,1.5413333333333332,1.514,37.867999999999995,29.714666666666666,37.907,34.83,55.553,35.028999999999996,59.3745,52.088499999999996,53.528999999999996,34.196,57.9855,50.442,52.717,33.7765,57.922,49.867666666666665,-0.10450000000000004,-0.06400000000000006,0.11012500000000001,0.107935,0.0,212.15,212.175,209.01333333333332,209.01333333333332,0.0,0.0
17,0.0,1.0,0.0,1.0,1.0,0.0,0.0,1.0,0.0,100.0,1.0,1.1856,26.0,0.0,0.0,0.0,59.999996,0.0,26.0,26.0,26.0,26.0,0.0030000000000001137,0.27849999999999997,0.008425,292.114,-2.6985,-2.607555555555556,-1.5927,-1.5211000000000001,-218.93,215.615,190.640125,0.0,0.0,0.0,0.0,0.034599999999999964,-5.498166666666667,-5.498166666666667,-0.5684,0.265,-0.0038888888888890527,0.63,67.901,0.012100000000000001,-0.232825,-0.16799999999999926,100.0,1.0,1.0,209.42000000000002,0.0,0.0,0.0,0.0,0.0,0.0,0.0,8876.6,0.0,55.0,5.0,244.41333333333336,1.0,0.0,0.0,0.0,0.0,0.0,1.0,0.0,0.8550000000000004,0.8550000000000004,0.0,0.0,1.0,55.0,616.79921,10000.0,85.000001,85.000001,85.000001,85.000001,395.0,0.0,0.0,0.0,1.0,333.33500000000004,51.468,51.468,47.836,47.836,34.0,-23.3175,24.41,-29.36,29.8875,0.0,1782.596,-0.19000000000000128,100.0,28.963,28.72,42.717,42.754,0.0,1.0,100.0,0.0,0.0,0.0,0.0,3109.0,3162.5,4227.625,4238.8,305.336,304.86375,314.555,314.4025,21.9084,20.599899999999998,21.9155,21.4219,314.999998,314.999998,324.999988,324.999988,99.55752857142858,99.50735,99.56662857142857,99.54607142857142,0.09525000000000006,-0.046499999999999986,-0.09683333333333333,0.12949999999999995,-0.03166666666666629,-0.06285714285714761,1.5123333333333333,1.52,37.927,29.749333333333333,37.972,34.8865,55.542,35.0685,59.412,52.1505,53.519,34.2325,58.0205,50.5015,52.706,33.812,57.954,49.926,-0.09899999999999998,-0.07100000000000017,0.11122000000000001,0.10036500000000001,0.0,212.615,212.625,209.42000000000002,209.42000000000002,0.0,0.0
18,0.0,1.0,0.0,1.0,1.0,0.0,0.0,1.0,0.0,100.0,1.0,1.1856,26.0,0.0,0.0,0.0,59.999996,0.0,26.0,26.0,26.0,26.0,-0.0014999999999999458,0.29380000000000006,0.002225,291.992,-2.7128,-2.596,-1.5910000000000002,-1.4807000000000001,-215.67000000000002,215.61,190.619,0.0,0.0,0.0,0.0,0.03649999999999998,-5.498166666666667,-5.498166666666667,-0.5789000000000001,-0.4595,0.004222222222222127,1.106,68.032,0.0099,-0.24445,-0.1200000000000001,100.0,1.0,1.0,209.8,0.0,0.0,0.0,0.0,0.0,0.0,0.0,8892.6,0.0,55.0,5.0,244.88666666666666,0.0,0.0,0.0,0.0,0.0,0.0,1.0,0.0,0.9029999999999987,0.9029999999999987,0.0,0.0,0.0,55.0,616.79921,10000.0,85.000001,85.000001,85.000001,85.000001,395.0,0.0,0.0,0.0,1.0,333.33500000000004,51.3,51.3,47.729,47.729,34.0,-23.8375,25.694000000000003,-28.89,29.4175,0.0,1782.55,-0.1750000000000007,100.0,28.916,28.634,42.951,42.943,0.0,1.0,100.0,0.0,0.0,0.0,0.0,3146.0,3299.2,4153.125,4259.1,305.2675,304.50475,314.71525,314.34925,21.9173,20.605,21.9254,21.4305,314.999998,314.999998,324.999988,324.999988,99.55752857142858,99.50735,99.56677142857143,99.5462,0.09275000000000011,-0.040999999999999925,-0.10099999999999998,0.12766666666666682,-0.04333333333332945,-0.060000000000002274,1.5286666666666666,1.5135,37.983000000000004,29.781333333333336,38.034,34.9405,55.531,35.1045,59.4495,52.21,53.509,34.2655,58.0555,50.559,52.694,33.8435,57.986,49.982,-0.09499999999999997,-0.06499999999999995,0.10773500000000001,0.114665,0.0,213.0,213.0,209.8,209.8,0.0,0.0
19,0.0,1.0,0.0,1.0,1.0,0.0,0.0,1.0,0.0,100.0,1.0,1.1856,26.0,0.0,0.0,0.0,59.999996,0.0,26.0,26.0,26.0,26.0,0.015249999999999986,0.2873000000000001,0.07842500000000001,291.58,-2.6377,-2.6914444444444445,-1.5266000000000002,-1.4645000000000001,-212.2,215.60250000000002,190.596375,0.0,0.0,0.0,0.0,0.03849999999999998,-5.498166666666667,-5.498166666666667,-0.5726,0.7385,0.010333333333333306,-0.7690000000000001,68.169,0.0049,-0.239425,0.034000000000000696,100.0,1.0,1.0,210.20333333333332,0.0,0.0,0.0,0.0,0.0,0.0,0.0,8909.8,0.0,55.0,5.0,245.38,1.0,0.0,0.0,0.0,0.0,0.0,1.0,0.0,0.9540000000000006,0.9540000000000006,0.0,0.0,1.0,55.0,616.79921,10000.0,85.000001,85.000001,85.000001,85.000001,395.0,0.0,0.0,0.0,1.0,333.33500000000004,50.751,50.751,47.668,47.668,34.0,-24.3325,24.586,-29.216666666666665,30.1075,0.0,1782.498,-0.16499999999999915,100.0,29.256,29.302,42.75,43.103,0.0,1.0,100.0,0.0,0.0,0.0,0.0,3250.0,3140.6,4236.125,4388.1,305.0,304.543,314.571,314.00475,21.9269,20.6107,21.9358,21.4395,314.999998,314.999998,324.999988,324.999988,99.55754285714286,99.50736666666667,99.56691428571429,99.54634285714286,0.08499999999999996,-0.06674999999999998,-0.11066666666666658,0.12283333333333335,-0.04333333333332945,-0.057142857142849834,1.5033333333333334,1.501,38.043,29.816666666666666,38.099000000000004,34.997,55.521,35.146,59.4865,52.2725,53.498999999999995,34.304,58.09,50.619,52.684,33.879999999999995,58.0175,50.041,-0.09949999999999992,-0.07450000000000001,0.10683500000000001,0.12025000000000001,0.0,213.47500000000002,213.48000000000002,210.20333333333332,210.20333333333332,0.0,0.0
20,0.0,1.0,0.0,1.0,1.0,0.0,0.0,1.0,0.0,100.0,1.0,1.1856,26.0,0.0,0.0,0.0,59.999996,0.0,26.0,26.0,26.0,26.0,0.005749999999999922,0.25540000000000007,0.0026750000000000003,291.84,-2.7247,-2.6486666666666667,-1.533,-1.5909,-208.70999999999998,215.595,190.573875,0.0,0.0,0.0,0.0,0.04053333333333331,-5.498166666666667,-5.498166666666667,-0.5717,-0.9475,0.010000000000000009,0.6890000000000001,68.30799999999999,0.0011,-0.244725,-0.0699999999999994,100.0,1.0,1.0,210.58333333333331,0.0,0.0,0.0,0.0,0.0,0.0,0.0,8925.9,0.0,55.0,5.0,245.88,0.0,0.0,0.0,0.0,0.0,0.0,0.0,0.0,1.004999999999999,1.004999999999999,0.0,0.0,0.0,55.0,616.79921,10000.0,85.000001,85.000001,85.000001,85.000001,395.0,0.0,0.0,0.0,1.0,166.665,51.605,51.605,47.119,47.119,34.0,-22.7,24.214,-28.743333333333336,31.025000000000002,0.0,1782.448,-0.14999999999999858,100.0,29.018,28.878,43.527,43.484,0.0,1.0,100.0,0.0,0.0,0.0,0.0,2990.857142857143,3129.6,4144.25,4230.7,305.724,304.9775,314.656,314.29025,21.9362,20.6162,21.9463,21.4488,314.999998,314.999998,324.999988,324.999988,99.55755714285715,99.50736666666667,99.56705714285714,99.5465,0.09050000000000002,-0.052749999999999964,-0.10833333333333339,0.1260000000000001,-0.03333333333333144,-0.060000000000002274,1.475,1.4745,38.101,29.851,38.165,35.055,55.507999999999996,35.1845,59.5275,52.337,53.486999999999995,34.3395,58.128,50.681,52.67,33.914,58.0525,50.102000000000004,-0.09650000000000003,-0.06950000000000012,0.10917500000000001,0.10674000000000002,0.0,213.865,213.86,210.58333333333331,210.58333333333331,0.0,0.0
21,0.0,1.0,0.0,1.0,1.0,0.0,0.0,1.0,0.0,100.0,1.0,1.1856,26.0,0.0,0.0,0.0,59.999996,0.0,26.0,26.0,26.0,26.0,0.004250000000000087,0.28070000000000017,-0.0562,292.114,-2.6997,-2.6533333333333333,-1.5752000000000002,-1.5477,-205.23000000000002,215.59,190.550875,0.0,0.0,0.0,0.0,0.04256666666666653,-5.498166666666667,-5.498166666666667,-0.5946,0.1855,-0.00633333333333308,-0.863,68.44200000000001,-0.0009000000000000001,-0.246625,-0.012000000000000455,100.0,1.0,1.0,211.16666666666669,0.0,0.0,0.0,0.0,0.0,0.0,0.0,8950.5,0.0,55.0,5.0,246.36333333333334,1.0,0.0,0.0,0.0,0.0,0.0,0.0,0.0,1.056000000000001,1.056000000000001,0.0,0.0,1.0,55.0,616.79921,10000.0,85.000001,85.000001,85.000001,85.000001,395.0,0.0,0.0,0.0,1.0,166.665,51.285,51.285,48.096000000000004,48.096000000000004,34.0,-25.052500000000002,23.488,-28.373333333333335,27.25,0.0,1782.397,-0.17999999999999972,100.0,29.004,29.026,42.955,43.134,0.0,1.0,100.0,0.0,0.0,0.0,0.0,3250.857142857143,3064.0,4086.375,3999.5,305.121,304.968,314.97925,314.93325,21.9456,20.6217,21.9566,21.4577,314.999998,314.999998,324.999988,324.999988,99.55755714285715,99.50736666666667,99.5672,99.54664285714286,0.0794999999999999,-0.06325000000000003,-0.1133333333333334,0.11283333333333334,-0.05666666666667197,-0.047142857142851824,1.5859999999999999,1.576,38.16,29.885666666666665,38.229,35.111,55.497,35.224000000000004,59.563,52.3965,53.476,34.376,58.161,50.738,52.658,33.949,58.082499999999996,50.157666666666664,-0.10199999999999987,-0.0665,0.10526,0.10839000000000001,0.0,214.29500000000002,214.28,211.16666666666669,211.16666666666669,0.0,0.0
22,0.0,1.0,0.0,1.0,1.0,0.0,0.0,1.0,0.0,100.0,1.0,1.1856,26.0,0.0,0.0,0.0,59.999996,0.0,26.0,26.0,26.0,26.0,0.002874999999999961,0.27580000000000005,-0.008925,291.794,-2.7513,-2.6213333333333333,-1.596,-1.5341,-201.73000000000002,215.58249999999998,190.52725,0.0,0.0,0.0,0.0,0.04459999999999997,-5.498166666666667,-5.498166666666667,-0.5769000000000001,0.052000000000000005,0.004999999999999893,1.213,68.58,-0.0022,-0.2255,-0.10599999999999987,100.0,1.0,1.0,211.43,0.0,0.0,0.0,0.0,0.0,0.0,0.0,8961.8,0.0,55.0,5.0,246.85666666666668,0.0,0.0,0.0,0.0,0.0,0.0,0.0,0.0,1.1069999999999993,1.1069999999999993,0.0,0.0,0.0,55.0,616.79921,10000.0,85.000001,85.000001,85.000001,85.000001,395.0,0.0,0.0,0.0,1.0,166.665,51.575,51.575,47.211,47.211,34.0,-23.072499999999998,24.025999999999996,-30.556666666666665,30.9075,0.0,1782.346,-0.259999999999998,100.0,29.229,28.913,43.28,43.176,0.0,1.0,100.0,0.0,0.0,0.0,0.0,2997.0,3134.6,4245.75,4401.6,305.7525,305.0205,314.50075,314.04225,21.9549,20.627299999999998,21.9671,21.4669,314.999998,314.999998,324.999988,324.999988,99.55758571428571,99.50738333333334,99.56735714285715,99.54678571428572,0.08725000000000005,-0.05125000000000002,-0.11299999999999999,0.11633333333333318,-0.03166666666666629,-0.05285714285714249,1.495,1.483,38.218,29.920666666666666,38.295,35.168,55.485,35.2635,59.6025,52.4595,53.465,34.4125,58.198,50.799,52.646,33.984,58.1165,50.217,-0.10050000000000003,-0.06899999999999995,0.113875,0.10615000000000001,0.0,214.72,214.72500000000002,211.43,211.43,0.0,0.0
23,0.0,1.0,0.0,1.0,1.0,0.0,0.0,1.0,0.0,100.0,1.0,1.1856,26.0,0.0,0.0,0.0,59.999996,0.0,26.0,26.0,26.0,26.0,0.0013750000000001261,0.2782,-0.042875,291.656,-2.6633,-2.6535555555555557,-1.6472,-1.5093,-198.23000000000002,215.5775,190.50375,0.0,0.0,0.0,0.0,0.046633333333333304,-5.498166666666667,-5.498166666666667,-0.5933,-0.17250000000000001,0.00022222222222212373,-0.726,68.714,0.0007,-0.249225,-0.047999999999999154,100.0,1.0,1.0,211.93,0.0,0.0,0.0,0.0,0.0,0.0,0.0,8982.9,0.0,55.0,5.0,247.34333333333336,1.0,0.0,0.0,0.0,0.0,0.0,0.0,0.0,1.1580000000000013,1.1580000000000013,0.0,0.0,1.0,55.0,616.79921,10000.0,85.000001,85.000001,85.000001,85.000001,395.0,0.0,0.0,0.0,1.0,166.665,50.812,50.812,47.821,47.821,34.0,-25.509999999999998,23.823999999999998,-30.353333333333335,27.84,0.0,1782.295,-0.21999999999999886,100.0,29.265,29.235,43.288,43.485,0.0,1.0,100.0,0.0,0.0,0.0,0.0,3339.142857142857,3072.4,4164.125,4085.2,304.7845,304.90675,314.8415,314.73475,21.9643,20.6329,21.9776,21.4761,314.999998,314.999998,324.999988,324.999988,99.55758571428571,99.5074,99.5675,99.54694285714285,0.08124999999999982,-0.058499999999999996,-0.11699999999999999,0.11766666666666681,-0.04833333333333201,-0.04142857142856826,1.5406666666666666,1.5385,38.277,29.955666666666666,38.36,35.2255,55.474999999999994,35.3035,59.641,52.522,53.454,34.4495,58.234,50.859,52.635,34.0195,58.149,50.275999999999996,-0.09949999999999992,-0.0665,0.10579500000000001,0.11004000000000001,0.0,215.125,215.10500000000002,211.93,211.93,0.0,0.0
24,0.0,1.0,0.0,1.0,1.0,0.0,0.0,1.0,0.0,100.0,1.0,1.1856,26.0,0.0,0.0,0.0,59.999996,0.0,26.0,26.0,26.0,26.0,-0.010000000000000009,0.27160000000000006,-0.053725,291.931,-2.6834,-2.667111111111111,-1.5648,-1.5388000000000002,-195.14,215.5725,190.482625,0.0,0.0,0.0,0.0,0.04843333333333333,-5.498166666666667,-5.498166666666667,-0.6033000000000001,-0.3615,0.012444444444444258,1.408,68.833,0.0027,-0.24432500000000001,-0.14200000000000035,100.0,1.0,1.0,212.24333333333334,0.0,0.0,0.0,0.0,0.0,0.0,0.0,8996.3,0.0,55.0,5.0,247.77333333333334,0.0,0.0,0.0,0.0,0.0,0.0,0.0,0.0,1.2029999999999994,1.2029999999999994,0.0,0.0,0.0,55.0,616.79921,10000.0,85.000001,85.000001,85.000001,85.000001,395.0,0.0,0.0,0.0,1.0,333.33500000000004,51.666,51.666,47.348,47.348,34.0,-21.9875,24.044,-30.113333333333333,29.96,0.0,1782.248,-0.22499999999999787,100.0,29.274,28.809,43.296,43.325,0.0,1.0,100.0,0.0,0.0,0.0,0.0,2939.857142857143,3089.8,4275.0,4204.4,305.7855,305.1135,314.48375,314.50025,21.9725,20.6377,21.9868,21.4842,314.999998,314.999998,324.999988,324.999988,99.5576,99.5074,99.56764285714286,99.54707142857143,0.09100000000000019,-0.05225000000000002,-0.11099999999999999,0.13016666666666676,-0.030000000000001137,-0.047142857142851824,1.5113333333333334,1.5065,38.328,29.985666666666667,38.417,35.275999999999996,55.463,35.3395,59.677,52.5805,53.444,34.4825,58.2675,50.915,52.623000000000005,34.0515,58.1795,50.330666666666666,-0.10349999999999993,-0.06999999999999984,0.11113,0.11225500000000001,0.0,215.495,215.485,212.24333333333334,212.24333333333334,0.0,0.0
25,0.0,1.0,0.0,1.0,1.0,0.0,0.0,1.0,0.0,100.0,1.0,1.1856,26.0,0.0,0.0,0.0,59.999996,0.0,26.0,26.0,26.0,26.0,-0.00024999999999997247,0.26060000000000016,-0.014725,291.809,-2.7269,-2.6237777777777778,-1.6205,-1.5394,-191.42000000000002,215.565,190.455875,0.0,0.0,0.0,0.0,0.05056666666666654,-5.498166666666667,-5.498166666666667,-0.6254000000000001,0.075,0.018333333333333313,0.253,68.974,0.0045000000000000005,-0.24632500000000002,-0.1479999999999997,100.0,1.0,1.0,212.75666666666666,0.0,0.0,0.0,0.0,0.0,0.0,0.0,9017.9,0.0,55.0,5.0,248.28,1.0,0.0,0.0,0.0,0.0,0.0,0.0,0.0,1.256999999999998,1.256999999999998,0.0,0.0,1.0,55.0,616.79921,10000.0,85.000001,85.000001,85.000001,85.000001,395.0,0.0,0.0,0.0,1.0,166.665,50.766,50.766,47.974000000000004,47.974000000000004,34.0,-25.0125,26.712,-28.043333333333333,28.8225,0.0,1782.196,-0.26500000000000057,100.0,29.108,29.009,43.028999999999996,43.079,0.0,1.0,100.0,0.0,0.0,0.0,0.0,3258.5714285714284,3366.9,3995.625,4139.0,304.9815,304.21925,315.178,314.629,21.9823,20.6437,21.997700000000002,21.4938,314.999998,314.999998,324.999988,324.999988,99.55761428571428,99.5074,99.56778571428572,99.54721428571429,0.09175000000000022,-0.04125000000000001,-0.10499999999999998,0.1213333333333333,-0.03999999999999915,-0.047142857142851824,1.5413333333333332,1.548,38.39,30.023,38.486000000000004,35.336,55.451,35.3795,59.713,52.641,53.432,34.5195,58.301,50.9735,52.611000000000004,34.0865,58.21,50.38766666666667,-0.10199999999999987,-0.05799999999999983,0.10167000000000001,0.10846000000000001,0.0,215.93,215.925,212.75666666666666,212.75666666666666,0.0,0.0
26,0.0,1.0,0.0,1.0,1.0,0.0,0.0,1.0,0.0,100.0,1.0,1.1856,26.0,0.0,0.0,0.0,59.999996,0.0,26.0,26.0,26.0,26.0,0.0026250000000000995,0.27290000000000014,0.072725,290.97,-2.6614,-2.7203333333333335,-1.6084,-1.5274,-188.1,215.56,190.431875,0.0,0.0,0.0,0.0,0.05249999999999999,-5.498166666666667,-5.498166666666667,-0.5923,0.6625,0.006555555555555648,0.753,69.102,0.005,-0.222225,-0.2160000000000002,100.0,1.0,1.0,212.93333333333334,0.0,0.0,0.0,0.0,0.0,0.0,0.0,9025.5,0.0,55.0,5.0,248.74,0.0,0.0,0.0,0.0,0.0,0.0,0.0,0.0,1.3049999999999997,1.3049999999999997,0.0,0.0,0.0,55.0,616.79921,10000.0,85.000001,85.000001,85.000001,85.000001,395.0,0.0,0.0,0.0,1.0,166.665,50.644,50.644,46.555,46.555,34.0,-22.794999999999998,25.602,-32.43,32.1725,0.0,1782.148,-0.3249999999999993,100.0,29.755,29.459,43.423,43.457,0.0,1.0,100.0,0.0,0.0,0.0,0.0,3146.714285714286,3159.0,4510.375,4530.2,305.173,304.76175,313.9215,313.70825,21.9913,20.6491,22.0076,21.5025,314.999998,314.999998,324.999988,324.999988,99.55762857142857,99.50741666666667,99.56792857142857,99.54735714285714,0.10899999999999999,-0.04625000000000001,-0.09866666666666657,0.11716666666666686,-0.051666666666669414,-0.05285714285714249,1.443,1.443,38.446,30.057000000000002,38.548,35.3905,55.444,35.4185,59.7505,52.701,53.424,34.5555,58.336,51.031,52.602000000000004,34.121,58.242,50.44433333333333,-0.11650000000000005,-0.06300000000000017,0.10786000000000001,0.10373,0.0,216.35000000000002,216.36,212.93333333333334,212.93333333333334,0.0,0.0
27,0.0,1.0,0.0,1.0,1.0,0.0,0.0,1.0,0.0,100.0,1.0,1.1856,26.0,0.0,0.0,0.0,59.999996,0.0,26.0,26.0,26.0,26.0,0.03337499999999993,0.25450000000000017,-0.031100000000000003,291.443,-2.6869,-2.649888888888889,-1.6061,-1.6193000000000002,-184.57,215.555,190.40725,0.0,0.0,0.0,0.0,0.05456666666666654,-5.498166666666667,-5.498166666666667,-0.6136,-0.9925,0.008999999999999897,-0.847,69.23400000000001,0.0086,-0.2575,-0.19200000000000017,100.0,1.0,1.0,213.45666666666668,0.0,0.0,0.0,0.0,0.0,0.0,0.0,9047.7,0.0,55.0,5.0,249.21666666666667,1.0,0.0,0.0,0.0,0.0,0.0,0.0,0.0,1.355999999999998,1.355999999999998,0.0,0.0,1.0,55.0,616.79921,10000.0,85.000001,85.000001,85.000001,85.000001,395.0,0.0,0.0,0.0,1.0,166.665,51.086,51.086,46.753,46.753,34.0,-23.1175,23.886,-29.576666666666664,29.2075,0.0,1782.097,-0.25,100.0,29.268,29.559,43.935,44.150999999999996,0.0,1.0,100.0,0.0,0.0,0.0,0.0,3105.4285714285716,3086.9,4177.625,4013.1000000000004,305.564,304.876,314.76675,314.799,22.0006,20.6547,22.0183,21.5118,314.999998,314.999998,324.999988,324.999988,99.55764285714285,99.50741666666667,99.56807142857143,99.54751428571429,0.09224999999999994,-0.05899999999999994,-0.10699999999999998,0.12149999999999994,-0.045000000000001705,-0.03285714285714647,1.5193333333333334,1.5065,38.504000000000005,30.092333333333336,38.614000000000004,35.449,55.432,35.457499999999996,59.791,52.7645,53.413,34.591499999999996,58.3735,51.092,52.59,34.1555,58.275999999999996,50.50366666666667,-0.10749999999999993,-0.06950000000000012,0.10642000000000001,0.10760000000000002,0.0,216.70499999999998,216.7,213.45666666666668,213.45666666666668,0.0,0.0
28,0.0,1.0,0.0,1.0,1.0,0.0,0.0,1.0,0.0,100.0,1.0,1.1856,26.0,0.0,0.0,0.0,59.999996,0.0,26.0,26.0,26.0,26.0,0.03512500000000007,0.26180000000000003,-0.06485,291.504,-2.6649,-2.643222222222222,-1.6209,-1.5623,-181.25,215.55,190.38325,0.0,0.0,0.0,0.0,0.056499999999999995,-5.498166666666667,-5.498166666666667,-0.6244000000000001,0.545,-0.0023333333333335204,-0.9319999999999999,69.356,0.011300000000000001,-0.24450000000000002,-0.13600000000000012,100.0,1.0,1.0,213.94333333333333,0.0,0.0,0.0,0.0,0.0,0.0,0.0,9068.2,0.0,55.0,5.0,249.65333333333334,0.0,0.0,0.0,0.0,0.0,0.0,0.0,0.0,1.404,1.404,0.0,0.0,0.0,55.0,616.79921,10000.0,85.000001,85.000001,85.000001,85.000001,395.0,0.0,0.0,0.0,1.0,333.33500000000004,50.69,50.69,47.699,47.699,34.0,-24.02,24.497999999999998,-28.646666666666665,28.830000000000002,0.0,1782.048,-0.3249999999999993,100.0,29.467,29.585,43.361000000000004,43.691,0.0,1.0,100.0,0.0,0.0,0.0,0.0,3258.142857142857,3101.7,4086.25,4083.3,305.0365,304.8065,315.06225,314.7575,22.0094,20.6601,22.0279,21.5203,314.999998,314.999998,324.999988,324.999988,99.55764285714285,99.50743333333334,99.56821428571429,99.54764285714286,0.0987499999999999,-0.04699999999999993,-0.10566666666666658,0.12583333333333324,-0.06666666666666998,-0.03142857142857025,1.5613333333333332,1.57,38.559,30.125999999999998,38.674,35.501999999999995,55.423,35.496,59.823,52.820499999999996,53.403999999999996,34.6265,58.403,51.146,52.58,34.189,58.303,50.556333333333335,-0.11499999999999999,-0.06199999999999983,0.10611500000000001,0.108725,0.0,217.14499999999998,217.115,213.94333333333333,213.94333333333333,0.0,0.0
29,0.0,1.0,0.0,1.0,1.0,0.0,0.0,1.0,0.0,100.0,1.0,1.1856,26.0,0.0,0.0,0.0,59.999996,0.0,26.0,26.0,26.0,26.0,0.046624999999999917,0.2643,-0.0056,291.275,-2.6498,-2.696888888888889,-1.5713,-1.5469000000000002,-177.5,215.5475,190.35525,0.0,0.0,0.0,0.0,0.058666666666666534,-5.498166666666667,-5.498166666666667,-0.6238,-0.682,-0.00011111111111095084,-0.8620000000000001,69.498,0.0109,-0.23845000000000002,-0.21799999999999908,100.0,1.0,1.0,214.2,0.0,0.0,0.0,0.0,0.0,0.0,0.0,9079.2,0.0,55.0,5.0,250.16666666666666,1.0,0.0,0.0,0.0,0.0,0.0,0.0,0.0,1.4579999999999984,1.4579999999999984,0.0,0.0,1.0,55.0,616.79921,10000.0,85.000001,85.000001,85.000001,85.000001,395.0,0.0,0.0,0.0,1.0,166.665,51.163,51.163,46.783,46.783,34.0,-22.665,24.146,-29.386666666666663,30.985,0.0,1781.995,-0.3949999999999996,100.0,29.159,29.484,43.778999999999996,44.025999999999996,0.0,1.0,100.0,0.0,0.0,0.0,0.0,3160.285714285714,3026.4,4221.5,4272.6,305.426,304.984,314.602,314.204,22.019199999999998,20.6661,22.0391,21.5302,314.999998,314.999998,324.999988,324.999988,99.55767142857142,99.50743333333334,99.56837142857142,99.5478,0.10475000000000012,-0.051999999999999935,-0.10066666666666657,0.12883333333333336,-0.05666666666667197,-0.03714285714285381,1.479,1.47,38.620000000000005,30.163,38.744,35.5635,55.41,35.536500000000004,59.8655,52.8875,53.391999999999996,34.664500000000004,58.442499999999995,51.210499999999996,52.567,34.225,58.339,50.61933333333333,-0.12050000000000005,-0.058499999999999996,0.109325,0.10905500000000001,0.0,217.53,217.535,214.2,214.2,0.0,0.0
30,0.0,1.0,0.0,1.0,1.0,0.0,0.0,1.0,0.0,100.0,1.0,1.1856,26.0,0.0,0.0,0.0,59.999996,0.0,26.0,26.0,26.0,26.0,0.04699999999999993,0.24350000000000005,0.052575000000000004,290.71,-2.7029,-2.589777777777778,-1.5452,-1.6039,-174.37,215.54500000000002,190.332,0.0,0.0,0.0,0.0,0.0605,-5.498166666666667,-5.498166666666667,-0.6259,0.755,0.00022222222222212373,0.522,69.612,0.012700000000000001,-0.2446,-0.35599999999999987,100.0,1.0,1.0,214.65333333333334,0.0,0.0,0.0,0.0,0.0,0.0,0.0,9098.4,0.0,55.0,5.0,250.57666666666665,0.0,0.0,0.0,0.0,0.0,0.0,1.0,0.0,1.5030000000000001,1.5030000000000001,0.0,0.0,0.0,55.0,616.79921,10000.0,85.000001,85.000001,85.000001,85.000001,395.0,0.0,0.0,0.0,1.0,166.665,49.545,49.545,47.226,47.226,34.0,-24.8525,26.793999999999997,-27.106666666666666,31.415,0.0,1781.95,-0.33999999999999986,100.0,30.028,29.901,43.649,43.951,0.0,1.0,100.0,0.0,0.0,0.0,0.0,3397.142857142857,3387.5,4082.5,4175.0,304.4555,303.938,314.9435,314.50225,22.0276,20.6713,22.0482,21.5383,314.999998,314.999998,324.999988,324.999988,99.55767142857142,99.50743333333334,99.5685,99.54794285714286,0.11874999999999991,-0.04225000000000001,-0.08916666666666662,0.14200000000000013,-0.03333333333333144,-0.054285714285711606,1.521,1.494,38.672,30.195999999999998,38.801,35.6145,55.403999999999996,35.574,59.8965,52.9415,53.385999999999996,34.699,58.4715,51.2625,52.56,34.257999999999996,58.365,50.67033333333333,-0.12349999999999994,-0.05600000000000005,0.10598,0.11090000000000001,0.0,217.89,217.94,214.65333333333334,214.65333333333334,0.0,0.0
31,0.0,1.0,0.0,1.0,1.0,0.0,0.0,1.0,0.0,100.0,1.0,1.1856,26.0,0.0,0.0,0.0,59.999996,0.0,26.0,26.0,26.0,26.0,0.03037500000000004,0.2531000000000001,0.0477,290.451,-2.7532,-2.6177777777777775,-1.5943,-1.5002,-170.82,215.54250000000002,190.306125,0.0,0.0,0.0,0.0,0.06256666666666655,-5.498166666666667,-5.498166666666667,-0.603,-0.442,0.004888888888888943,-0.968,69.745,0.0158,-0.2369,-0.24600000000000044,100.0,1.0,1.0,214.86,0.0,0.0,0.0,0.0,0.0,0.0,0.0,9107.1,0.0,55.0,5.0,251.05666666666667,1.0,0.0,0.0,0.0,0.0,0.0,1.0,0.0,1.5539999999999985,1.5539999999999985,0.0,0.0,1.0,55.0,616.79921,10000.0,85.000001,85.000001,85.000001,85.000001,395.0,0.0,0.0,0.0,1.0,333.33500000000004,50.415,50.415,45.578,45.578,34.0,-23.695,25.124000000000002,-31.656666666666666,30.6025,0.0,1781.897,-0.40500000000000114,100.0,29.703,30.078,44.319,44.731,0.0,1.0,100.0,0.0,0.0,0.0,0.0,3214.857142857143,3192.6,4416.625,4345.6,305.3475,304.629,314.1,313.97825,22.0369,20.6771,22.058799999999998,21.5477,314.999998,314.999998,324.999988,324.999988,99.5577,99.50745,99.56864285714286,99.54808571428572,0.11224999999999996,-0.043749999999999956,-0.10083333333333333,0.11816666666666675,-0.03499999999999659,-0.0357142857142847,1.4373333333333334,1.4304999999999999,38.730999999999995,30.232,38.867999999999995,35.6735,55.394999999999996,35.614,59.938,53.007,53.376999999999995,34.736000000000004,58.51,51.3255,52.549,34.294,58.4005,50.73166666666667,-0.12050000000000005,-0.0535000000000001,0.11181,0.1018,0.0,218.3,218.305,214.86,214.86,0.0,0.0
32,0.0,1.0,0.0,1.0,1.0,0.0,0.0,1.0,0.0,100.0,1.0,1.1856,26.0,0.0,0.0,0.0,59.999996,0.0,26.0,26.0,26.0,26.0,0.011624999999999996,0.26900000000000013,-0.02755,290.833,-2.6726,-2.675,-1.6466,-1.5575,-167.26,215.54000000000002,190.280625,0.0,0.0,0.0,0.0,0.06463333333333332,-5.498166666666667,-5.498166666666667,-0.6239,-0.2525,-0.01288888888888895,0.504,69.872,0.020200000000000003,-0.251775,-0.38200000000000056,100.0,1.0,1.0,215.40666666666667,0.0,0.0,0.0,0.0,0.0,0.0,0.0,9130.3,0.0,55.0,5.0,251.51333333333332,0.0,0.0,0.0,0.0,0.0,0.0,1.0,0.0,1.6050000000000004,1.6050000000000004,0.0,0.0,0.0,55.0,616.79921,10000.0,85.000001,85.000001,85.000001,85.000001,395.0,0.0,0.0,0.0,1.0,166.665,50.461,50.461,46.539,46.539,34.0,-22.14,26.244,-29.333333333333336,31.815,0.0,1781.848,-0.3550000000000004,100.0,29.883,29.835,44.218,44.431,0.0,1.0,100.0,0.0,0.0,0.0,0.0,3114.4285714285716,3224.7,4200.125,4286.4,305.2955,304.66925,314.7125,314.376,22.0462,20.6829,22.0693,21.557,314.999998,314.999998,324.999988,324.999988,99.55771428571428,99.50745,99.5688,99.54824285714285,0.12024999999999997,-0.03325,-0.08766666666666656,0.14800000000000013,-0.02833333333332888,-0.05285714285714249,1.522,1.5145,38.789,30.268333333333334,38.933,35.731,55.385,35.6545,59.9745,53.068,53.367000000000004,34.772999999999996,58.544,51.384,52.538,34.329499999999996,58.431,50.788666666666664,-0.11599999999999988,-0.06099999999999994,0.10882000000000001,0.10820500000000001,0.0,218.685,218.70499999999998,215.40666666666667,215.40666666666667,0.0,0.0
33,0.0,1.0,0.0,1.0,1.0,0.0,0.0,1.0,0.0,100.0,1.0,1.1856,26.0,0.0,0.0,0.0,59.999996,0.0,26.0,26.0,26.0,26.0,0.025875000000000092,0.25480000000000014,-0.0562,291.092,-2.7054,-2.673888888888889,-1.5836999999999999,-1.594,-163.89999999999998,215.54000000000002,190.255625,0.0,0.0,0.0,0.0,0.06656666666666655,-5.498166666666667,-5.498166666666667,-0.6328,-0.2025,-0.014888888888889174,1.213,69.994,0.0204,-0.24150000000000002,-0.32399999999999984,100.0,1.0,1.0,215.76666666666665,0.0,0.0,0.0,0.0,0.0,0.0,0.0,9145.5,0.0,55.0,5.0,251.95,1.0,0.0,0.0,0.0,0.0,0.0,1.0,0.0,1.6529999999999987,1.6529999999999987,0.0,0.0,1.0,55.0,616.79921,10000.0,85.000001,85.000001,85.000001,85.000001,395.0,0.0,0.0,0.0,1.0,166.665,50.827,50.827,46.753,46.753,34.0,-22.1475,25.648,-28.09,31.712500000000002,0.0,1781.8,-0.34999999999999787,100.0,29.736,29.582,44.022999999999996,44.208,0.0,1.0,100.0,0.0,0.0,0.0,0.0,3067.5714285714284,3161.8,4155.5,4247.6,305.501,304.846,314.738,314.417,22.0548,20.688299999999998,22.079,21.5656,314.999998,314.999998,324.999988,324.999988,99.55772857142857,99.50745,99.56894285714286,99.54837142857143,0.11649999999999983,-0.03374999999999995,-0.08533333333333337,0.14016666666666677,-0.03166666666666629,-0.044285714285713595,1.5226666666666666,1.5005,38.843,30.301666666666666,38.994,35.785,55.375,35.6905,60.009,53.125,53.358000000000004,34.8065,58.576499999999996,51.439,52.528,34.361000000000004,58.46,50.84233333333333,-0.11699999999999999,-0.05799999999999983,0.10304500000000001,0.11172000000000001,0.0,219.07999999999998,219.07999999999998,215.76666666666665,215.76666666666665,0.0,0.0
34,0.0,1.0,0.0,1.0,1.0,0.0,0.0,1.0,0.0,100.0,1.0,1.1856,26.0,0.0,0.0,0.0,59.999996,0.0,26.0,26.0,26.0,26.0,0.03687499999999999,0.25140000000000007,-0.0697,291.382,-2.6507,-2.6656666666666666,-1.6388,-1.5576,-160.32999999999998,215.54000000000002,190.227875,0.0,0.0,0.0,0.0,0.06866666666666654,-5.498166666666667,-5.498166666666667,-0.6581,-0.8455,0.004888888888888943,-0.591,70.123,0.021400000000000002,-0.24625000000000002,-0.25,100.0,1.0,1.0,216.14666666666668,0.0,0.0,0.0,0.0,0.0,0.0,0.0,9161.7,0.0,55.0,5.0,252.41666666666666,0.0,0.0,0.0,0.0,0.0,0.0,1.0,0.0,1.7040000000000006,1.7040000000000006,0.0,0.0,0.0,55.0,616.79921,10000.0,85.000001,85.000001,85.000001,85.000001,395.0,0.0,0.0,0.0,1.0,333.33500000000004,51.269999999999996,51.269999999999996,47.211,47.211,34.0,-22.0,23.726,-29.73,29.900000000000002,0.0,1781.748,-0.379999999999999,100.0,29.299,29.415,43.712,44.309,0.0,1.0,100.0,0.0,0.0,0.0,0.0,3107.285714285714,2959.2,4189.25,4174.9,305.4975,305.177,314.79125,314.47175,22.0639,20.6939,22.0894,21.5749,314.999998,314.999998,324.999988,324.999988,99.55774285714286,99.50746666666667,99.56908571428572,99.54852857142858,0.11275000000000013,-0.04149999999999998,-0.09933333333333338,0.12400000000000011,-0.04333333333332945,-0.04285714285714448,1.5136666666666665,1.4985,38.899,30.336666666666666,39.059,35.843,55.364000000000004,35.7275,60.045,53.187,53.347,34.8405,58.6095,51.4985,52.516,34.394,58.49,50.900666666666666,-0.11599999999999988,-0.052999999999999936,0.108825,0.10980500000000001,0.0,219.45499999999998,219.46,216.14666666666665,216.14666666666668,0.0,0.0
35,0.0,1.0,0.0,1.0,1.0,0.0,0.0,1.0,0.0,100.0,1.0,1.1856,26.0,0.0,0.0,0.0,59.999996,0.0,26.0,26.0,26.0,26.0,0.030874999999999986,0.24740000000000006,-0.1061,291.489,-2.7105,-2.6101111111111113,-1.5354999999999999,-1.58,-156.75,215.54000000000002,190.198125,0.0,0.0,0.0,0.0,0.07073333333333331,-5.498166666666667,-5.498166666666667,-0.6986,-0.267,-0.0031111111111110645,0.17999999999999994,70.249,0.024900000000000002,-0.252975,-0.33200000000000074,100.0,1.0,1.0,216.61666666666667,0.0,0.0,0.0,0.0,0.0,0.0,0.0,9181.7,0.0,55.0,5.0,252.87,1.0,0.0,0.0,0.0,0.0,0.0,1.0,0.0,1.754999999999999,1.754999999999999,0.0,0.0,1.0,55.0,616.79921,10000.0,85.000001,85.000001,85.000001,85.000001,395.0,0.0,0.0,0.0,1.0,333.33500000000004,50.827,50.827,46.936,46.936,34.0,-22.7975,27.216,-25.753333333333337,30.2175,0.0,1781.696,-0.19000000000000128,100.0,29.107,29.437,43.553,43.658,0.0,1.0,100.0,0.0,0.0,0.0,0.0,3082.285714285714,3402.9,4082.5,4067.9,305.428,304.11425,314.98225,314.92,22.0728,20.6997,22.0997,21.584,314.999998,314.999998,324.999988,324.999988,99.55775714285714,99.50746666666667,99.56924285714285,99.54868571428571,0.10650000000000004,-0.035499999999999976,-0.06899999999999995,0.15183333333333326,-0.036666666666668846,-0.04142857142856826,1.5633333333333335,1.543,38.955,30.372999999999998,39.123,35.9,55.351,35.766999999999996,60.08,53.245,53.335,34.8775,58.641999999999996,51.554,52.503,34.429,58.5195,50.955,-0.10050000000000003,-0.0714999999999999,0.10232000000000001,0.1062,0.0,219.86,219.85500000000002,216.61666666666667,216.61666666666667,0.0,0.0
