,ABS Active,ABS Enabled,AID Allow Tire Blankets,AID Auto Blip,AID Auto Clutch,AID Auto Shift,AID Fuel Rate,AID Ideal Line,AID Mech Damage,AID Stability,AID Tire Wear Rate,Air Density,Air Temp,Ballast,Best Lap Delta,Best Lap Time,Brake Bias,Brake Pos,Brake Temp FL,Brake Temp FR,Brake Temp RL,Brake Temp RR,CG Accel Lateral,CG Accel Longitudinal,CG Accel Vertical,CG Height,Camber FL,Camber FR,Camber RL,Camber RR,Car Coord X,Car Coord Y,Car Coord Z,Car Damage Front,Car Damage Left,Car Damage Rear,Car Damage Right,Car Pos Norm,Caster FL,Caster FR,Chassis Pitch Angle,Chassis Pitch Rate,Chassis Roll Angle,Chassis Roll Rate,Chassis Velocity X,Chassis Velocity Y,Chassis Velocity Z,Chassis Yaw Rate,Clutch Pos,DRS Active,DRS Available,Drive Train Speed,ERS Heat Charging,ERS Is Charging,ERS Max Energy,ERS Power Level,ERS Recovery Level,Engine Brake Setting,Engine Limiter,Engine RPM,Flags,Fuel Level,Gear,Ground Speed,HR Sample Clock,In Pit,KERS Charge,KERS Deployed Energy,KERS Input,KERS Max Energy,LR Sample Clock,Lap Invalidated,Lap Time,Lap Time2,Last Lap Time,Last Sector Time,MR Sample Clock,Max Fuel,Max Power,Max RPM,Max Sus Travel FL,Max Sus Travel FR,Max Sus Travel RL,Max Sus Travel RR,Max Torque,Max Turbo Boost,Num Tires Off Track,Penalties Enabled,Position,Raw Data Sample Rate,Ride Height FL,Ride Height FR,Ride Height RL,Ride Height RR,Road Temp,Self Align Torque FL,Self Align Torque FR,Self Align Torque RL,Self Align Torque RR,Session Lap Count,Session Time Left,Steering Angle,Surface Grip,Suspension Travel FL,Suspension Travel FR,Suspension Travel RL,Suspension Travel RR,TC Active,TC Enabled,Throttle Pos,Tire Dirt Level FL,Tire Dirt Level FR,Tire Dirt Level RL,Tire Dirt Level RR,Tire Load FL,Tire Load FR,Tire Load RL,Tire Load RR,Tire Loaded Radius FL,Tire Loaded Radius FR,Tire Loaded Radius RL,Tire Loaded Radius RR,Tire Pressure FL,Tire Pressure FR,Tire Pressure RL,Tire Pressure RR,Tire Radius FL,Tire Radius FR,Tire Radius RL,Tire Radius RR,Tire Rubber Grip FL,Tire Rubber Grip FR,Tire Rubber Grip RL,Tire Rubber Grip RR,Tire Slip Angle FL,Tire Slip Angle FR,Tire Slip Angle RL,Tire Slip Angle RR,Tire Slip Ratio FL,Tire Slip Ratio FR,Tire Slip Ratio RL,Tire Slip Ratio RR,Tire Temp Core FL,Tire Temp Core FR,Tire Temp Core RL,Tire Temp Core RR,Tire Temp Inner FL,Tire Temp Inner FR,Tire Temp Inner RL,Tire Temp Inner RR,Tire Temp Middle FL,Tire Temp Middle FR,Tire Temp Middle RL,Tire Temp Middle RR,Tire Temp Outer FL,Tire Temp Outer FR,Tire Temp Outer RL,Tire Temp Outer RR,Toe In FL,Toe In FR,Toe In RL,Toe In RR,Turbo Boost,Wheel Angular Speed FL,Wheel Angular Speed FR,Wheel Angular Speed RL,Wheel Angular Speed RR,Wind Direction,Wind Speed
0,0.0,1.0,0.0,1.0,1.0,0.0,0.0,1.0,0.0,100.0,1.0,1.1856,26.0,0.0,0.0,0.0,59.99999,0.0,26.0,26.0,26.0,26.0,-0.06566666666666665,0.29580000000000006,0.023266666666666668,293.045,-2.69625,-2.4645555555555556,-1.5255,-1.5396,-275.67,215.975,190.986875,0.0,0.0,0.0,0.0,0.0016,-5.498166666666667,-5.498166666666667,-0.5712,1.9493333333333334,-0.012222222222222356,-0.393,65.476,-0.044000000000000004,-0.2404,0.636000000000001,100.0,1.0,1.0,202.16,0.0,0.0,0.0,0.0,0.0,0.0,0.0,8568.9,0.0,55.0,5.0,235.68,0.0,0.0,0.0,0.0,0.0,0.0,0.0,0.0,0.0030000000000001137,0.0030000000000001137,0.0,0.0,0.0,55.0,616.79921,10000.0,85.0,85.0,85.0,85.0,395.0,0.0,0.0,0.0,1.0,20.0,50.858000000000004,50.858000000000004,49.088,49.088,34.0,-27.555,23.310000000000002,-30.696666666666665,25.4525,0.0,1776.3,0.6799999999999997,100.0,28.615,28.185000000000002,40.66,40.347,0.0,1.0,100.0,0.0,0.0,0.0,0.0,3128.5714285714284,3671.9,4119.5,4080.0,305.1775,303.0275,314.7903333333333,314.70025,21.7842,20.5265,21.7541,21.2945,314.99999,314.99999,324.99998,324.99998,99.55871428571429,99.50723333333333,99.56407142857142,99.54411428571429,0.0009999999999998899,-0.129,-0.16233333333333336,0.06733333333333325,-0.060000000000002274,-0.05666666666667197,1.533,1.5665,37.150999999999996,29.290333333333333,36.963,34.0905,56.272999999999996,34.56,58.7425,51.323,54.187,33.7235,57.376999999999995,49.6905,53.355000000000004,33.2885,57.343,49.121,-0.030999999999999917,-0.12950000000000017,0.10579000000000001,0.11398000000000001,0.0,205.20499999999998,205.14499999999998,202.16,202.16,0.0,0.0
1,0.0,1.0,0.0,1.0,1.0,0.0,0.0,1.0,0.0,100.0,1.0,1.1856,26.0,0.0,0.0,0.0,59.999996,0.0,26.0,26.0,26.0,26.0,-0.13877777777777778,0.3066,0.06873333333333334,292.496,-2.61845,-2.8040000000000003,-1.5376,-1.3875,-272.13,215.995,190.965875,0.0,0.0,0.0,0.0,0.0036666666666666666,-5.498166666666667,-5.498166666666667,-0.5063,-1.3186666666666669,-0.06800000000000006,-0.274,65.64,-0.0538,-0.218025,1.1479999999999997,100.0,1.0,1.0,202.25666666666666,0.0,0.0,0.0,0.0,0.0,0.0,0.0,8573.0,0.0,55.0,5.0,236.27666666666667,1.0,0.0,0.0,0.0,0.0,0.0,0.0,0.0,0.05699999999999861,0.05699999999999861,0.0,0.0,1.0,55.0,616.79921,10000.0,85.000001,85.000001,85.000001,85.000001,395.0,0.0,0.0,0.0,1.0,166.665,53.085,53.085,48.08,48.08,34.0,-25.2225,17.552,-34.483333333333334,27.8975,0.0,1776.247,0.9349999999999987,100.0,28.708,27.541,43.06,42.193,0.0,1.0,100.0,0.0,0.0,0.0,0.0,2930.5714285714284,2646.5,4381.375,4829.6,305.8095,306.6195,314.05466666666666,312.698,21.7946,20.5318,21.7656,21.3042,314.999998,314.999998,324.999988,324.999988,99.55872857142857,99.50726666666667,99.56422857142857,99.54428571428572,-0.008999999999999897,-0.14733333333333332,-0.16783333333333333,0.04166666666666674,-0.021666666666668277,-0.051666666666669414,1.3705,1.396,37.216,29.323999999999998,37.035,34.150999999999996,56.254999999999995,34.6035,58.792500000000004,51.394999999999996,54.17,33.763,57.424,49.76,53.337,33.326499999999996,57.387,49.189,-0.0029999999999998916,-0.1535000000000002,0.10325000000000001,0.10333,0.0,205.64499999999998,205.57,202.25666666666666,202.25666666666666,0.0,0.0
2,0.0,1.0,0.0,1.0,1.0,0.0,0.0,1.0,0.0,100.0,1.0,1.1856,26.0,0.0,0.0,0.0,59.999996,0.0,26.0,26.0,26.0,26.0,-0.12388888888888894,0.2943,-0.1095,293.579,-2.582,-2.778666666666667,-1.4926,-1.6448,-268.78,216.0125,190.947125,0.0,0.0,0.0,0.0,0.0056,-5.498166666666667,-5.498166666666667,-0.5711,0.40700000000000003,-0.05655555555555569,1.899,65.78,-0.0721,-0.27065,1.6959999999999997,100.0,1.0,1.0,203.36,0.0,0.0,0.0,0.0,0.0,0.0,0.0,8619.7,0.0,55.0,5.0,236.77666666666667,0.0,0.0,0.0,0.0,0.0,0.0,0.0,0.0,0.10800000000000054,0.10800000000000054,0.0,0.0,0.0,55.0,616.79921,10000.0,85.000001,85.000001,85.000001,85.000001,395.0,0.0,0.0,0.0,1.0,166.665,51.682,51.682,50.552,50.552,34.0,-31.235,18.708,-28.943333333333335,19.315,0.0,1776.196,0.9849999999999994,100.0,29.09,27.688,42.421,41.069,0.0,1.0,100.0,0.0,0.0,0.0,0.0,3415.285714285714,2889.3,3688.25,3561.3,304.4425,305.543,315.81966666666665,316.1085,21.8047,20.5368,21.7759,21.3126,314.999998,314.999998,324.999988,324.999988,99.55872857142857,99.50728333333333,99.56437142857143,99.5444,-0.04299999999999993,-0.16933333333333334,-0.23283333333333334,0.0033333333333334103,-0.07166666666666544,-0.04833333333333201,1.6735,1.748,37.28,29.355,37.099000000000004,34.204,56.244,34.6435,58.831,51.448499999999996,54.158,33.8,57.46,49.811,53.325,33.362,57.42,49.239,-0.0029999999999998916,-0.15450000000000008,0.10177000000000001,0.10810000000000002,0.0,206.14,205.98000000000002,203.36,203.36,0.0,0.0
3,0.0,1.0,0.0,1.0,1.0,0.0,0.0,1.0,0.0,100.0,1.0,1.1856,26.0,0.0,0.0,0.0,59.999996,0.0,26.0,26.0,26.0,26.0,-0.1383333333333333,0.3135000000000001,0.03376666666666667,292.908,-2.6250999999999998,-2.678,-1.4979,-1.5855,-265.62,216.025,190.928375,0.0,0.0,0.0,0.0,0.0074333333333333335,-5.498166666666667,-5.498166666666667,-0.5227,0.34900000000000003,-0.02155555555555555,-1.6670000000000003,65.925,-0.0941,-0.21165,1.475999999999999,100.0,1.0,1.0,203.37333333333333,0.0,0.0,0.0,0.0,0.0,0.0,0.0,8620.3,0.0,55.0,5.0,237.3,1.0,0.0,0.0,0.0,0.0,0.0,0.0,0.0,0.1559999999999988,0.1559999999999988,0.0,0.0,1.0,55.0,616.79921,10000.0,85.000001,85.000001,85.000001,85.000001,395.0,0.0,0.0,0.0,1.0,166.665,52.505,52.505,48.065,48.065,34.0,-27.924999999999997,16.348,-37.33,24.137500000000003,0.0,1776.148,0.9450000000000003,100.0,28.623,28.048000000000002,42.400999999999996,41.402,0.0,1.0,100.0,0.0,0.0,0.0,0.0,3083.0,2748.9,4409.875,4207.4,305.654,305.85425,314.1093333333333,314.33775,21.8139,20.5417,21.7857,21.320999999999998,314.999998,314.999998,324.999988,324.999988,99.55872857142857,99.5073,99.5645,99.54454285714286,-0.046666666666666634,-0.18466666666666665,-0.23650000000000002,0.007833333333333359,-0.0899999999999963,-0.03833333333332689,1.453,1.516,37.337,29.385333333333335,37.16,34.2565,56.229,34.6845,58.8695,51.5095,54.144,33.838,57.496,49.87,53.31,33.397999999999996,57.4535,49.29666666666667,-0.008499999999999952,-0.14700000000000024,0.10840500000000002,0.11567500000000001,0.0,206.60000000000002,206.465,203.37333333333333,203.37333333333333,0.0,0.0
4,0.0,1.0,0.0,1.0,1.0,0.0,0.0,1.0,0.0,100.0,1.0,1.1856,26.0,0.0,0.0,0.0,59.999996,0.0,26.0,26.0,26.0,26.0,-0.16000000000000003,0.27380000000000004,-0.0037333333333333337,293.03,-2.64305,-2.7712222222222223,-1.43405,-1.5994,-262.45,216.0325,190.90975,0.0,0.0,0.0,0.0,0.009300000000000001,-5.498166666666667,-5.498166666666667,-0.5568000000000001,-0.9276666666666666,-0.08400000000000007,-2.013,66.063,-0.1038,-0.255125,1.6899999999999995,100.0,1.0,1.0,203.9,0.0,0.0,0.0,0.0,0.0,0.0,0.0,8642.6,0.0,55.0,5.0,237.79666666666668,0.0,0.0,0.0,0.0,0.0,0.0,0.0,0.0,0.20400000000000063,0.20400000000000063,0.0,0.0,0.0,55.0,616.79921,10000.0,85.000001,85.000001,85.000001,85.000001,395.0,0.0,0.0,0.0,1.0,166.665,52.048,52.048,48.553,48.553,34.0,-31.33,17.323999999999998,-34.50333333333333,19.7275,0.0,1776.1,1.0,100.0,28.686,27.95,42.907,41.552,0.0,1.0,100.0,0.0,0.0,0.0,0.0,3329.4285714285716,2805.5,4235.75,3732.8,304.898,305.72525,314.5566666666667,315.473,21.8232,20.5464,21.7956,21.3293,314.999998,314.999998,324.999988,324.999988,99.55874285714286,99.50731666666667,99.56464285714286,99.54467142857143,-0.05966666666666676,-0.18899999999999995,-0.24,-0.01533333333333331,-0.04833333333333201,-0.03166666666666629,1.517,1.6065,37.394999999999996,29.415,37.223,34.3085,56.214,34.724000000000004,58.9105,51.567,54.131,33.8745,57.5345,49.925,53.296,33.433,57.4895,49.35066666666667,-0.0024999999999999467,-0.15600000000000014,0.108535,0.10604000000000001,0.0,206.98000000000002,206.815,203.9,203.9,0.0,0.0
5,0.0,1.0,0.0,1.0,1.0,0.0,0.0,1.0,0.0,100.0,1.0,1.1856,26.0,0.0,0.0,0.0,59.999996,0.0,26.0,26.0,26.0,26.0,-0.1764444444444444,0.2985,-0.012700000000000001,293.152,-2.641,-2.749888888888889,-1.501,-1.6368,-259.08,216.04000000000002,190.889625,0.0,0.0,0.0,0.0,0.011233333333333333,-5.498166666666667,-5.498166666666667,-0.5627,0.3353333333333333,-0.08822222222222242,1.1400000000000001,66.209,-0.1203,-0.24465,1.612,100.0,1.0,1.0,204.38666666666666,0.0,0.0,0.0,0.0,0.0,0.0,0.0,8663.2,0.0,55.0,5.0,238.32333333333332,1.0,0.0,0.0,0.0,0.0,0.0,0.0,0.0,0.254999999999999,0.254999999999999,0.0,0.0,1.0,55.0,616.79921,10000.0,85.000001,85.000001,85.000001,85.000001,395.0,0.0,0.0,0.0,1.0,166.665,52.094,52.094,49.164,49.164,34.0,-28.487499999999997,17.868,-34.11,22.04,0.0,1776.049,0.629999999999999,100.0,29.265,27.740000000000002,42.711,40.933,0.0,1.0,100.0,0.0,0.0,0.0,0.0,3137.142857142857,2873.5,4088.75,4018.2,305.1785,305.79175,314.8673333333333,314.9285,21.833199999999998,20.5515,21.806,21.338,314.999998,314.999998,324.999988,324.999988,99.55874285714286,99.50735,99.56478571428572,99.54481428571428,-0.03166666666666673,-0.17633333333333334,-0.24683333333333335,-0.013000000000000012,-0.03499999999999659,-0.07499999999999574,1.5645,1.607,37.457,29.446666666666665,37.287,34.362,56.202,34.7665,58.951499999999996,51.6245,54.119,33.9135,57.573,49.980000000000004,53.284,33.47,57.525,49.404333333333334,-0.03749999999999987,-0.13249999999999984,0.10533000000000001,0.11185500000000001,0.0,207.45,207.345,204.38666666666666,204.38666666666666,0.0,0.0
6,0.0,1.0,0.0,1.0,1.0,0.0,0.0,1.0,0.0,100.0,1.0,1.1856,26.0,0.0,0.0,0.0,59.999996,0.0,26.0,26.0,26.0,26.0,-0.18122222222222217,0.28880000000000017,-0.0004333333333333333,292.77,-2.59095,-2.799888888888889,-1.52615,-1.5973,-255.9,216.04000000000002,190.87,0.0,0.0,0.0,0.0,0.0131,-5.498166666666667,-5.498166666666667,-0.5562,0.021,-0.08877777777777807,0.796,66.348,-0.1231,-0.239825,1.346,100.0,1.0,1.0,204.75333333333333,0.0,0.0,0.0,0.0,0.0,0.0,0.0,8678.8,0.0,55.0,5.0,238.82,0.0,0.0,0.0,0.0,0.0,0.0,0.0,0.0,0.3030000000000008,0.3030000000000008,0.0,0.0,0.0,55.0,616.79921,10000.0,85.000001,85.000001,85.000001,85.000001,395.0,0.0,0.0,0.0,1.0,166.665,51.758,51.758,48.629999999999995,48.629999999999995,34.0,-29.095,18.398,-35.763333333333335,22.0475,0.0,1776.001,0.6849999999999987,100.0,29.417,27.903,42.927,41.16,0.0,1.0,100.0,0.0,0.0,0.0,0.0,3173.0,2924.2,4196.0,4035.5,305.079,305.57,314.5706666666667,314.87575,21.8425,20.5563,21.8159,21.3463,314.999998,314.999998,324.999988,324.999988,99.55875714285715,99.50736666666667,99.56492857142857,99.54494285714286,-0.047666666666666746,-0.18466666666666665,-0.24583333333333335,-0.007833333333333359,-0.03999999999999915,-0.04999999999999716,1.524,1.5615,37.516,29.476666666666667,37.349000000000004,34.414500000000004,56.19,34.8065,58.992,51.683,54.108000000000004,33.9505,57.6105,50.0355,53.271,33.5055,57.5605,49.458666666666666,-0.028999999999999915,-0.13500000000000023,0.10969000000000001,0.11372000000000002,0.0,207.86,207.76,204.75333333333333,204.75333333333333,0.0,0.0
7,0.0,1.0,0.0,1.0,1.0,0.0,0.0,1.0,0.0,100.0,1.0,1.1856,26.0,0.0,0.0,0.0,59.999996,0.0,26.0,26.0,26.0,26.0,-0.13311111111111107,0.2816000000000001,0.023133333333333336,292.587,-2.5598,-2.791666666666667,-1.48455,-1.6437,-252.51,216.0375,190.849625,0.0,0.0,0.0,0.0,0.015066666666666666,-5.498166666666667,-5.498166666666667,-0.5661,-0.05333333333333334,-0.0825555555555555,-0.39600000000000013,66.493,-0.11570000000000001,-0.2592,1.1980000000000004,100.0,1.0,1.0,205.19666666666666,0.0,0.0,0.0,0.0,0.0,0.0,0.0,8697.5,0.0,55.0,5.0,239.3466666666667,1.0,0.0,0.0,0.0,0.0,0.0,0.0,0.0,0.3539999999999992,0.3539999999999992,0.0,0.0,1.0,55.0,616.79921,10000.0,85.000001,85.000001,85.000001,85.000001,395.0,0.0,0.0,0.0,1.0,166.665,51.254,51.254,48.965,48.965,34.0,-29.9025,19.088,-34.66,21.622500000000002,0.0,1775.95,0.23000000000000043,100.0,29.486,28.246000000000002,42.861000000000004,41.388,0.0,1.0,100.0,0.0,0.0,0.0,0.0,3392.142857142857,2889.2,4133.5,3954.1000000000004,304.5825,305.40875,314.7613333333333,314.92925,21.8525,20.5614,21.8264,21.3551,314.999998,314.999998,324.999988,324.999988,99.55875714285715,99.50738333333334,99.56507142857143,99.54508571428572,-0.025333333333333208,-0.16633333333333333,-0.24783333333333335,-0.02066666666666661,-0.054999999999999716,-0.04333333333332945,1.514,1.565,37.578,29.508666666666667,37.415,34.4695,56.178,34.8485,59.035,51.744,54.096000000000004,33.989,57.650999999999996,50.094,53.257999999999996,33.542500000000004,57.598,49.516,-0.06000000000000005,-0.10349999999999993,0.10773500000000001,0.10348500000000001,0.0,208.315,208.2,205.19666666666666,205.19666666666666,0.0,0.0
8,0.0,1.0,0.0,1.0,1.0,0.0,0.0,1.0,0.0,100.0,1.0,1.1856,26.0,0.0,0.0,0.0,59.999996,0.0,26.0,26.0,26.0,26.0,-0.1032222222222221,0.29280000000000017,0.0161,292.816,-2.64545,-2.7191111111111113,-1.46785,-1.6301999999999999,-248.92000000000002,216.03,190.82775,0.0,0.0,0.0,0.0,0.017166666666666667,-5.498166666666667,-5.498166666666667,-0.5678000000000001,-0.5283333333333334,-0.06566666666666654,-1.0150000000000001,66.648,-0.10310000000000001,-0.25322500000000003,0.7400000000000002,100.0,1.0,1.0,205.61,0.0,0.0,0.0,0.0,0.0,0.0,0.0,8715.1,0.0,55.0,5.0,239.90333333333334,0.0,0.0,0.0,0.0,0.0,0.0,0.0,0.0,0.40800000000000125,0.40800000000000125,0.0,0.0,0.0,55.0,616.79921,10000.0,85.000001,85.000001,85.000001,85.000001,395.0,0.0,0.0,0.0,1.0,166.665,51.987,51.987,48.400999999999996,48.400999999999996,34.0,-27.4175,18.786,-33.18666666666667,23.2675,0.0,1775.896,0.09499999999999886,100.0,29.078,28.336,42.859,41.527,0.0,1.0,100.0,0.0,0.0,0.0,0.0,3157.4285714285716,2847.7,4172.75,4024.4,305.458,305.6275,314.662,314.73775,21.8628,20.5668,21.8374,21.3645,314.999998,314.999998,324.999988,324.999988,99.55875714285715,99.5074,99.56522857142858,99.54522857142857,-0.010666666666666602,-0.14833333333333332,-0.2145,0.0033333333333334103,-0.04833333333333201,-0.04333333333332945,1.515,1.5425,37.643,29.542333333333332,37.483999999999995,34.5285,56.161,34.891999999999996,59.079499999999996,51.8085,54.08,34.028999999999996,57.692499999999995,50.156,53.242000000000004,33.5805,57.6365,49.57633333333334,-0.07850000000000001,-0.08349999999999991,0.0984,0.10947000000000001,0.0,208.765,208.685,205.61,205.61,0.0,0.0
9,0.0,1.0,0.0,1.0,1.0,0.0,0.0,1.0,0.0,100.0,1.0,1.1856,26.0,0.0,0.0,0.0,59.999996,0.0,26.0,26.0,26.0,26.0,-0.11511111111111105,0.29300000000000015,0.0332,292.557,-2.5619,-2.7487777777777778,-1.51735,-1.596,-245.91,216.0225,190.80925,0.0,0.0,0.0,0.0,0.0189,-5.498166666666667,-5.498166666666667,-0.5716,0.5613333333333334,-0.07044444444444453,0.907,66.773,-0.0891,-0.251975,0.5099999999999998,100.0,1.0,1.0,206.10000000000002,0.0,0.0,0.0,0.0,0.0,0.0,0.0,8735.8,0.0,55.0,5.0,240.35333333333335,1.0,0.0,0.0,0.0,0.0,0.0,0.0,0.0,0.4529999999999994,0.4529999999999994,0.0,0.0,1.0,55.0,616.79921,10000.0,85.000001,85.000001,85.000001,85.000001,395.0,0.0,0.0,0.0,1.0,333.33500000000004,50.980000000000004,50.980000000000004,49.286,49.286,34.0,-27.7425,21.336,-31.189999999999998,23.955,0.0,1775.85,-0.07499999999999929,100.0,29.675,28.378,42.659,41.334,0.0,1.0,100.0,0.0,0.0,0.0,0.0,3345.285714285714,3039.5,4026.0,4038.0,304.535,305.20725,315.0176666666667,314.88,21.8716,20.5715,21.8465,21.3723,314.999998,314.999998,324.999988,324.999988,99.55875714285715,99.50741666666667,99.56535714285714,99.54535714285714,0.01766666666666694,-0.125,-0.19383333333333336,0.03133333333333321,-0.046666666666666856,-0.046666666666666856,1.57,1.5885,37.698,29.571666666666665,37.541,34.577,56.147999999999996,34.929,59.114,51.861000000000004,54.068,34.063,57.7245,50.2065,53.229,33.6135,57.666,49.62566666666667,-0.08899999999999997,-0.07850000000000001,0.10640500000000001,0.10633500000000001,0.0,209.155,209.11,206.10000000000002,206.10000000000002,0.0,0.0
10,0.0,1.0,0.0,1.0,1.0,0.0,0.0,1.0,0.0,100.0,1.0,1.1856,26.0,0.0,0.0,0.0,59.999996,0.0,26.0,26.0,26.0,26.0,-0.058222222222222175,0.29180000000000006,0.03166666666666667,292.419,-2.6006,-2.726111111111111,-1.4967000000000001,-1.5766,-242.5,216.01,190.7885,0.0,0.0,0.0,0.0,0.020900000000000002,-5.498166666666667,-5.498166666666667,-0.5493,-0.401,-0.035222222222222044,0.14500000000000002,66.92,-0.0685,-0.239825,0.21600000000000108,100.0,1.0,1.0,206.36666666666667,0.0,0.0,0.0,0.0,0.0,0.0,0.0,8747.1,0.0,55.0,5.0,240.88,0.0,0.0,0.0,0.0,0.0,0.0,1.0,0.0,0.5040000000000013,0.5040000000000013,0.0,0.0,0.0,55.0,616.79921,10000.0,85.000001,85.000001,85.000001,85.000001,395.0,0.0,0.0,0.0,1.0,166.665,51.971000000000004,51.971000000000004,47.897,47.897,34.0,-24.445,19.305999999999997,-33.88333333333333,26.0475,0.0,1775.8,-0.21000000000000085,100.0,29.349,28.588,42.997,42.137,0.0,1.0,100.0,0.0,0.0,0.0,0.0,3044.285714285714,2763.0,4329.375,4194.3,305.702,305.87025,314.2796666666667,314.356,21.8814,20.5766,21.8571,21.3814,314.999998,314.999998,324.999988,324.999988,99.55877142857143,99.50743333333334,99.5655,99.5455,0.02833333333333332,-0.12,-0.187,0.043333333333333224,-0.03166666666666629,-0.045000000000001705,1.4745,1.478,37.759,29.604,37.607,34.6335,56.134,34.968,59.1575,51.9245,54.054,34.0995,57.7655,50.266999999999996,53.215,33.647999999999996,57.7035,49.685,-0.10749999999999993,-0.06199999999999983,0.10143500000000001,0.11112000000000001,0.0,209.595,209.565,206.36666666666667,206.36666666666667,0.0,0.0
11,0.0,1.0,0.0,1.0,1.0,0.0,0.0,1.0,0.0,100.0,1.0,1.1856,26.0,0.0,0.0,0.0,59.999996,0.0,26.0,26.0,26.0,26.0,-0.025222222222222146,0.2842,-0.08676666666666667,292.862,-2.65355,-2.700555555555556,-1.55485,-1.5279,-238.89,215.9975,190.7665,0.0,0.0,0.0,0.0,0.022600000000000002,-5.498166666666667,-5.498166666666667,-0.5882000000000001,-0.12866666666666665,-0.00655555555555587,-0.94,67.06700000000001,-0.0436,-0.26732500000000003,0.03200000000000003,100.0,1.0,1.0,207.07999999999998,0.0,0.0,0.0,0.0,0.0,0.0,0.0,8777.4,0.0,55.0,5.0,241.41333333333336,1.0,0.0,0.0,0.0,0.0,0.0,1.0,0.0,0.5579999999999998,0.5579999999999998,0.0,0.0,1.0,55.0,616.79921,10000.0,85.000001,85.000001,85.000001,85.000001,395.0,0.0,0.0,0.0,1.0,166.665,51.391999999999996,51.391999999999996,49.301,49.301,34.0,-25.6475,22.061999999999998,-27.43,24.355,0.0,1775.746,-0.22499999999999787,100.0,29.073,28.762,42.5,42.041,0.0,1.0,100.0,0.0,0.0,0.0,0.0,3206.714285714286,3003.4,3813.125,3873.0,305.2355,305.09775,315.609,315.227,21.8916,20.5822,21.868,21.3908,314.999998,314.999998,324.999988,324.999988,99.55877142857143,99.50745,99.56565714285715,99.54565714285714,0.04700000000000015,-0.09566666666666657,-0.1525,0.08200000000000007,-0.061666666666667425,-0.036666666666668846,1.6295,1.6065,37.822,29.639,37.675,34.692499999999995,56.117000000000004,35.0105,59.196,51.988,54.039,34.1385,57.8015,50.328,53.198,33.6855,57.737,49.745,-0.09999999999999987,-0.06700000000000017,0.10641500000000001,0.11514500000000001,0.0,210.04500000000002,210.01999999999998,207.07999999999998,207.07999999999998,0.0,0.0
12,0.0,1.0,0.0,1.0,1.0,0.0,0.0,1.0,0.0,100.0,1.0,1.1856,26.0,0.0,0.0,0.0,59.999996,0.0,26.0,26.0,26.0,26.0,-0.03200000000000003,0.2895000000000001,0.010933333333333333,292.419,-2.69775,-2.702777777777778,-1.5197,-1.5864,-235.87,215.985,190.747125,0.0,0.0,0.0,0.0,0.025466666666666665,-5.498166666666667,-5.498166666666667,-0.5754,0.27366666666666667,-0.01922222222222203,0.755,67.195,-0.0261,-0.24172500000000002,-0.1039999999999992,100.0,1.0,1.0,207.29333333333335,0.0,0.0,0.0,0.0,0.0,0.0,0.0,8786.5,0.0,55.0,5.0,241.87333333333333,0.0,0.0,0.0,0.0,0.0,0.0,1.0,0.0,0.602999999999998,0.602999999999998,0.0,0.0,0.0,55.0,616.79921,10000.0,85.000001,85.000001,85.000001,85.000001,395.0,0.0,0.0,0.0,1.0,333.33500000000004,51.391999999999996,51.391999999999996,48.218,48.218,34.0,-24.439999999999998,23.747999999999998,-29.903333333333336,29.1075,0.0,1775.699,-0.19500000000000028,100.0,29.232,28.679000000000002,42.537,41.854,0.0,1.0,100.0,0.0,0.0,0.0,0.0,3095.5714285714284,3133.0,4192.625,4179.6,305.364,304.952,314.59766666666667,314.5365,21.9001,20.587,21.8771,21.398600000000002,314.999998,314.999998,324.999988,324.999988,99.55878571428572,99.50745,99.56578571428571,99.54577142857143,0.06666666666666643,-0.07599999999999996,-0.13116666666666665,0.10616666666666674,-0.03499999999999659,-0.05666666666667197,1.5045,1.5085,37.876000000000005,29.669,37.732,34.7415,56.104,35.045500000000004,59.2315,52.042,54.025999999999996,34.170500000000004,57.8345,50.379999999999995,53.185,33.716499999999996,57.766999999999996,49.79566666666666,-0.09949999999999992,-0.07250000000000023,0.11301000000000001,0.11232500000000001,0.0,210.435,210.45,207.29333333333335,207.29333333333335,0.0,0.0
13,0.0,1.0,0.0,1.0,1.0,0.0,0.0,1.0,0.0,100.0,1.0,1.1856,26.0,0.0,0.0,0.0,59.999996,0.0,26.0,26.0,26.0,26.0,0.0020000000000000018,0.28459999999999996,0.04386666666666667,291.977,-2.6734,-2.6927777777777777,-1.55125,-1.575,-232.43,215.9675,190.72525,0.0,0.0,0.0,0.0,0.02673333333333333,-5.498166666666667,-5.498166666666667,-0.5684,-0.06766666666666667,-0.019888888888889067,-0.4750000000000001,67.338,-0.0179,-0.247375,-0.02200000000000024,100.0,1.0,1.0,207.66333333333333,0.0,0.0,0.0,0.0,0.0,0.0,0.0,8802.0,0.0,55.0,5.0,242.39,1.0,0.0,0.0,0.0,0.0,0.0,1.0,0.0,0.6539999999999999,0.6539999999999999,0.0,0.0,1.0,55.0,616.79921,10000.0,85.000001,85.000001,85.000001,85.000001,395.0,0.0,0.0,0.0,1.0,333.33500000000004,51.025,51.025,48.065,48.065,34.0,-24.6725,23.596,-31.28666666666666,28.692500000000003,0.0,1775.649,-0.3000000000000007,100.0,29.363,29.104,42.673,42.479,0.0,1.0,100.0,0.0,0.0,0.0,0.0,3262.4285714285716,2989.4,4270.25,4224.2,305.0655,305.1575,314.468,314.315,21.9098,20.5924,21.8876,21.4077,314.999998,314.999998,324.999988,324.999988,99.55878571428572,99.50746666666667,99.56592857142857,99.54591428571429,0.08466666666666667,-0.053333333333333344,-0.13666666666666666,0.09033333333333338,-0.036666666666668846,-0.04833333333333201,1.4965,1.4985,37.937,29.702666666666666,37.798,34.7985,56.092,35.0845,59.272,52.105000000000004,54.013999999999996,34.207,57.8725,50.4405,53.173,33.751,57.8025,49.855000000000004,-0.11949999999999994,-0.04700000000000015,0.10647000000000001,0.10612,0.0,210.88,210.865,207.66333333333333,207.66333333333333,0.0,0.0
14,0.0,1.0,0.0,1.0,1.0,0.0,0.0,1.0,0.0,100.0,1.0,1.1856,26.0,0.0,0.0,0.0,59.999996,0.0,26.0,26.0,26.0,26.0,-0.0040000000000000036,0.2774000000000001,-0.015266666666666666,292.114,-2.6713,-2.6373333333333333,-1.56005,-1.5453999999999999,-229.0,215.9525,190.704,0.0,0.0,0.0,0.0,0.028733333333333333,-5.498166666666667,-5.498166666666667,-0.5800000000000001,-0.166,0.012222222222222134,1.43,67.47800000000001,-0.0067,-0.2624,-0.25399999999999956,100.0,1.0,1.0,208.16333333333333,0.0,0.0,0.0,0.0,0.0,0.0,0.0,8823.3,0.0,55.0,5.0,242.89333333333335,0.0,0.0,0.0,0.0,0.0,0.0,1.0,0.0,0.7049999999999983,0.7049999999999983,0.0,0.0,0.0,55.0,616.79921,10000.0,85.000001,85.000001,85.000001,85.000001,395.0,0.0,0.0,0.0,1.0,333.33500000000004,50.980000000000004,50.980000000000004,48.233000000000004,48.233000000000004,34.0,-22.447499999999998,24.95,-27.426666666666662,29.15,0.0,1775.598,-0.33500000000000085,100.0,29.597,29.089,42.766999999999996,42.602000000000004,0.0,1.0,100.0,0.0,0.0,0.0,0.0,3008.285714285714,3215.6,4006.75,4184.7,305.5765,304.706,315.023,314.519,21.9195,20.5979,21.898,21.4168,314.999998,314.999998,324.999988,324.999988,99.5588,99.50746666666667,99.56605714285715,99.54607142857142,0.09100000000000019,-0.050999999999999934,-0.10483333333333333,0.11816666666666675,-0.03499999999999659,-0.05833333333333002,1.5414999999999999,1.5274999999999999,37.997,29.736666666666665,37.863,34.855000000000004,56.079,35.1235,59.3105,52.167500000000004,54.001999999999995,34.2425,57.908500000000004,50.5005,53.16,33.7855,57.835,49.913666666666664,-0.10999999999999988,-0.059499999999999886,0.10465,0.10452,0.0,211.29500000000002,211.315,208.16333333333333,208.16333333333333,0.0,0.0
15,0.0,1.0,0.0,1.0,1.0,0.0,0.0,1.0,0.0,100.0,1.0,1.1856,26.0,0.0,0.0,0.0,59.999996,0.0,26.0,26.0,26.0,26.0,0.0022222222222221255,0.28669999999999995,-0.0119,292.053,-2.63825,-2.599666666666667,-1.5830000000000002,-1.4914,-225.75,215.94,190.683625,0.0,0.0,0.0,0.0,0.030633333333333332,-5.498166666666667,-5.498166666666667,-0.5730000000000001,0.326,0.03688888888888897,1.367,67.61,0.0033,-0.24927500000000002,-0.2939999999999987,100.0,1.0,1.0,208.56,0.0,0.0,0.0,0.0,0.0,0.0,0.0,8840.1,0.0,55.0,5.0,243.37,1.0,0.0,0.0,0.0,0.0,0.0,1.0,0.0,0.7530000000000001,0.7530000000000001,0.0,0.0,1.0,55.0,616.79921,10000.0,85.000001,85.000001,85.000001,85.000001,395.0,0.0,0.0,0.0,1.0,166.665,51.041,51.041,48.233000000000004,48.233000000000004,34.0,-20.9575,24.444,-27.659999999999997,30.2875,0.0,1775.551,-0.3099999999999987,100.0,29.698999999999998,29.240000000000002,42.59,42.661,0.0,1.0,100.0,0.0,0.0,0.0,0.0,2894.142857142857,3190.2,4009.375,4356.3,305.8595,304.77425,315.04566666666665,314.12925,21.9286,20.603,21.9077,21.4253,314.999998,314.999998,324.999988,324.999988,99.55881428571429,99.50748333333334,99.5662,99.5462,0.0983333333333336,-0.04966666666666664,-0.10200000000000001,0.12650000000000006,-0.04333333333332945,-0.060000000000002274,1.522,1.5175,38.054,29.769,37.923,34.908,56.068,35.16,59.346000000000004,52.226,53.991,34.2765,57.941,50.557,53.147999999999996,33.818,57.865,49.969,-0.11099999999999999,-0.06150000000000011,0.10906,0.10704000000000001,0.0,211.715,211.73000000000002,208.56,208.56,0.0,0.0
16,0.0,1.0,0.0,1.0,1.0,0.0,0.0,1.0,0.0,100.0,1.0,1.1856,26.0,0.0,0.0,0.0,59.999996,0.0,26.0,26.0,26.0,26.0,0.018888888888888955,0.278,-0.031433333333333334,292.16,-2.74045,-2.601111111111111,-1.55945,-1.4912999999999998,-222.3,215.9225,190.661625,0.0,0.0,0.0,0.0,0.032633333333333334,-5.498166666666667,-5.498166666666667,-0.5905,-0.672,0.020333333333333314,-1.4900000000000002,67.751,0.0122,-0.26275000000000004,-0.22000000000000064,100.0,1.0,1.0,208.98000000000002,0.0,0.0,0.0,0.0,0.0,0.0,0.0,8857.8,0.0,55.0,5.0,243.87666666666667,0.0,0.0,0.0,0.0,0.0,0.0,1.0,0.0,0.8039999999999985,0.8039999999999985,0.0,0.0,0.0,55.0,616.79921,10000.0,85.000001,85.000001,85.000001,85.000001,395.0,0.0,0.0,0.0,1.0,166.665,51.102,51.102,47.989,47.989,34.0,-24.1575,23.276,-27.616666666666667,27.950000000000003,0.0,1775.5,-0.14499999999999957,100.0,29.019,29.448,42.763,42.86,0.0,1.0,100.0,0.0,0.0,0.0,0.0,3155.5714285714284,3096.0,4044.5,4102.8,305.499,304.85775,315.038,314.625,21.9379,20.6085,21.9182,21.4344,314.999998,314.999998,324.999988,324.999988,99.55882857142858,99.50748333333334,99.56634285714286,99.54634285714286,0.0863333333333336,-0.06366666666666665,-0.10516666666666667,0.11933333333333329,-0.03333333333333144,-0.04333333333332945,1.544,1.5225,38.111999999999995,29.803333333333335,37.989000000000004,34.965,56.053,35.198499999999996,59.3855,52.288,53.977000000000004,34.3125,57.978,50.6165,53.132999999999996,33.8525,57.899,50.02766666666667,-0.09999999999999987,-0.07299999999999995,0.10724,0.10212,0.0,212.10500000000002,212.125,208.98000000000002,208.98000000000002,0.0,0.0
17,0.0,1.0,0.0,1.0,1.0,0.0,0.0,1.0,0.0,100.0,1.0,1.1856,26.0,0.0,0.0,0.0,59.999996,0.0,26.0,26.0,26.0,26.0,-0.010444444444444478,0.2864,-0.0038,291.977,-2.6893,-2.599222222222222,-1.59195,-1.5194999999999999,-218.84,215.91,190.63925,0.0,0.0,0.0,0.0,0.034633333333333335,-5.498166666666667,-5.498166666666667,-0.5797,0.483,-0.003444444444444361,0.923,67.889,0.0112,-0.24245,-0.12599999999999945,100.0,1.0,1.0,209.39,0.0,0.0,0.0,0.0,0.0,0.0,0.0,8875.3,0.0,55.0,5.0,244.37333333333333,1.0,0.0,0.0,0.0,0.0,0.0,1.0,0.0,0.8550000000000004,0.8550000000000004,0.0,0.0,1.0,55.0,616.79921,10000.0,85.000001,85.000001,85.000001,85.000001,395.0,0.0,0.0,0.0,1.0,166.665,50.995,50.995,48.035,48.035,34.0,-22.7025,23.823999999999998,-29.726666666666667,29.9175,0.0,1775.449,-0.18499999999999872,100.0,29.667,29.333,42.63,42.623000000000005,0.0,1.0,100.0,0.0,0.0,0.0,0.0,3071.0,3093.2,4238.5,4262.8,305.443,305.1235,314.585,314.40225,21.9476,20.6141,21.9285,21.4434,314.999998,314.999998,324.999988,324.999988,99.55884285714286,99.5075,99.5665,99.5465,0.10066666666666668,-0.04266666666666663,-0.10466666666666667,0.12883333333333336,-0.041666666666671404,-0.04833333333333201,1.526,1.5305,38.172,29.838,38.053,35.021,56.042,35.2385,59.4225,52.349000000000004,53.967,34.349000000000004,58.013,50.675,53.120999999999995,33.8875,57.9305,50.085,-0.10050000000000003,-0.06899999999999995,0.10905500000000001,0.105465,0.0,212.62,212.595,209.39,209.39,0.0,0.0
18,0.0,1.0,0.0,1.0,1.0,0.0,0.0,1.0,0.0,100.0,1.0,1.1856,26.0,0.0,0.0,0.0,59.999996,0.0,26.0,26.0,26.0,26.0,0.005333333333333412,0.2834000000000001,0.004,291.779,-2.72245,-2.569111111111111,-1.6047,-1.4677,-215.38,215.89499999999998,190.61675,0.0,0.0,0.0,0.0,0.03666666666666667,-5.498166666666667,-5.498166666666667,-0.5913,-0.5416666666666666,0.013111111111111073,-0.5940000000000001,68.028,0.008700000000000001,-0.2574,-0.023999999999999133,100.0,1.0,1.0,209.81333333333333,0.0,0.0,0.0,0.0,0.0,0.0,0.0,8893.3,0.0,55.0,5.0,244.87333333333333,0.0,0.0,0.0,0.0,0.0,0.0,1.0,0.0,0.9059999999999988,0.9059999999999988,0.0,0.0,0.0,55.0,616.79921,10000.0,85.000001,85.000001,85.000001,85.000001,395.0,0.0,0.0,0.0,1.0,166.665,50.705,50.705,47.821,47.821,34.0,-24.509999999999998,24.036,-29.67,27.4325,0.0,1775.398,-0.2049999999999983,100.0,29.323999999999998,29.443,42.875,43.115,0.0,1.0,100.0,0.0,0.0,0.0,0.0,3251.4285714285716,3200.6,4152.5,4138.3,305.2065,304.6115,314.82166666666666,314.57775,21.9571,20.6196,21.939,21.4525,314.999998,314.999998,324.999988,324.999988,99.55885714285715,99.5075,99.56662857142857,99.54664285714286,0.0943333333333336,-0.05833333333333335,-0.11566666666666667,0.11250000000000004,-0.04333333333332945,-0.036666666666668846,1.536,1.5425,38.232,29.872333333333334,38.119,35.0785,56.028999999999996,35.275999999999996,59.4625,52.412,53.954,34.384,58.05,50.7355,53.108000000000004,33.921,57.9645,50.144333333333336,-0.10650000000000004,-0.07250000000000023,0.108005,0.10643000000000001,0.0,212.995,212.98000000000002,209.81333333333333,209.81333333333333,0.0,0.0
19,0.0,1.0,0.0,1.0,1.0,0.0,0.0,1.0,0.0,100.0,1.0,1.1856,26.0,0.0,0.0,0.0,59.999996,0.0,26.0,26.0,26.0,26.0,-0.0038888888888889417,0.2982,0.05903333333333334,291.229,-2.6289,-2.681111111111111,-1.6124,-1.4607,-211.89999999999998,215.88,190.594125,0.0,0.0,0.0,0.0,0.03866666666666667,-5.498166666666667,-5.498166666666667,-0.5796,0.8923333333333334,0.01766666666666672,0.9390000000000001,68.166,0.0086,-0.24775,-0.1120000000000001,100.0,1.0,1.0,210.19666666666666,0.0,0.0,0.0,0.0,0.0,0.0,0.0,8909.5,0.0,55.0,5.0,245.36666666666667,1.0,0.0,0.0,0.0,0.0,0.0,1.0,0.0,0.9570000000000007,0.9570000000000007,0.0,0.0,1.0,55.0,616.79921,10000.0,85.000001,85.000001,85.000001,85.000001,395.0,0.0,0.0,0.0,1.0,166.665,50.125,50.125,47.47,47.47,34.0,-22.61,25.976,-29.956666666666663,30.887500000000003,0.0,1775.347,-0.19000000000000128,100.0,30.079,29.724,42.866,43.013,0.0,1.0,100.0,0.0,0.0,0.0,0.0,3125.142857142857,3253.8,4272.125,4451.0,305.168,304.37575,314.493,313.959,21.9668,20.6253,21.9493,21.4616,314.999998,314.999998,324.999988,324.999988,99.55887142857142,99.5075,99.56678571428571,99.54678571428572,0.10366666666666635,-0.05133333333333334,-0.09566666666666668,0.13116666666666688,-0.04999999999999716,-0.04833333333333201,1.504,1.5045,38.293,29.908,38.183,35.135,56.019,35.317499999999995,59.4995,52.4735,53.945,34.4225,58.0845,50.795500000000004,53.097,33.958,57.996,50.203,-0.10450000000000004,-0.07650000000000023,0.10095000000000001,0.115945,0.0,213.485,213.445,210.19666666666666,210.19666666666666,0.0,0.0
20,0.0,1.0,0.0,1.0,1.0,0.0,0.0,1.0,0.0,100.0,1.0,1.1856,26.0,0.0,0.0,0.0,59.999996,0.0,26.0,26.0,26.0,26.0,-0.0021111111111110636,0.27760000000000007,-0.0038666666666666667,291.611,-2.7262,-2.635888888888889,-1.5399,-1.5829,-208.63,215.8675,190.573125,0.0,0.0,0.0,0.0,0.04056666666666667,-5.498166666666667,-5.498166666666667,-0.5854,-1.0936666666666668,0.012222222222222134,0.741,68.297,0.0064,-0.254375,-0.129999999999999,100.0,1.0,1.0,210.51999999999998,0.0,0.0,0.0,0.0,0.0,0.0,0.0,8923.1,0.0,55.0,5.0,245.84333333333336,0.0,0.0,0.0,0.0,0.0,0.0,0.0,0.0,1.004999999999999,1.004999999999999,0.0,0.0,0.0,55.0,616.79921,10000.0,85.000001,85.000001,85.000001,85.000001,395.0,0.0,0.0,0.0,1.0,333.33500000000004,51.254,51.254,46.982,46.982,34.0,-21.7825,23.926000000000002,-27.993333333333332,31.895,0.0,1775.296,-0.15500000000000114,100.0,29.491,29.419,43.551,43.463,0.0,1.0,100.0,0.0,0.0,0.0,0.0,2914.285714285714,3125.4,4163.25,4304.8,305.969,305.02375,314.61133333333333,314.093,21.9756,20.6304,21.9593,21.4703,314.999998,314.999998,324.999988,324.999988,99.55887142857142,99.50751666666666,99.56692857142858,99.54692857142857,0.09699999999999998,-0.05566666666666664,-0.08966666666666667,0.1313333333333333,-0.026666666666670835,-0.04999999999999716,1.4795,1.4729999999999999,38.347,29.939999999999998,38.245999999999995,35.189499999999995,56.004000000000005,35.3555,59.5405,52.5375,53.931,34.457499999999996,58.123,50.8565,53.082,33.9915,58.0315,50.263,-0.10149999999999992,-0.07350000000000012,0.10015,0.11246,0.0,213.815,213.815,210.51999999999998,210.51999999999998,0.0,0.0
21,0.0,1.0,0.0,1.0,1.0,0.0,0.0,1.0,0.0,100.0,1.0,1.1856,26.0,0.0,0.0,0.0,59.999996,0.0,26.0,26.0,26.0,26.0,-0.013111111111111073,0.27500000000000013,-0.0475,291.962,-2.63725,-2.695888888888889,-1.60255,-1.5442,-205.35,215.85500000000002,190.551375,0.0,0.0,0.0,0.0,0.04246666666666667,-5.498166666666667,-5.498166666666667,-0.6081,0.36833333333333335,-0.0024444444444444713,0.46799999999999997,68.42099999999999,-0.0002,-0.26155,-0.04800000000000004,100.0,1.0,1.0,211.15333333333334,0.0,0.0,0.0,0.0,0.0,0.0,0.0,8950.0,0.0,55.0,5.0,246.29000000000002,1.0,0.0,0.0,0.0,0.0,0.0,0.0,0.0,1.0530000000000008,1.0530000000000008,0.0,0.0,1.0,55.0,616.79921,10000.0,85.000001,85.000001,85.000001,85.000001,395.0,0.0,0.0,0.0,1.0,333.33500000000004,50.674,50.674,48.34,48.34,34.0,-22.78,25.0,-27.943333333333335,27.62,0.0,1775.25,-0.23499999999999943,100.0,29.781,29.496000000000002,42.899,43.0,0.0,1.0,100.0,0.0,0.0,0.0,0.0,3096.857142857143,3162.8,3991.125,4024.4,305.306,304.818,315.208,314.94875,21.9846,20.6357,21.969,21.4788,314.999998,314.999998,324.999988,324.999988,99.55888571428571,99.50751666666666,99.56705714285714,99.54705714285714,0.0950000000000002,-0.053333333333333344,-0.11333333333333333,0.12016666666666675,-0.051666666666669414,-0.06833333333332803,1.5855,1.5905,38.403999999999996,29.973333333333336,38.306,35.2425,55.994,35.3905,59.570499999999996,52.589,53.921,34.49,58.1505,50.9065,53.072,34.022999999999996,58.0565,50.31166666666667,-0.10450000000000004,-0.07100000000000017,0.11291500000000002,0.10747000000000001,0.0,214.255,214.22500000000002,211.15333333333334,211.15333333333334,0.0,0.0
22,0.0,1.0,0.0,1.0,1.0,0.0,0.0,1.0,0.0,100.0,1.0,1.1856,26.0,0.0,0.0,0.0,59.999996,0.0,26.0,26.0,26.0,26.0,0.01866666666666661,0.26849999999999996,0.0082,291.428,-2.62285,-2.693777777777778,-1.59605,-1.5333999999999999,-201.86,215.84,190.527625,0.0,0.0,0.0,0.0,0.044500000000000005,-5.498166666666667,-5.498166666666667,-0.5872,0.11133333333333333,0.0015555555555555323,-0.593,68.56,0.0007,-0.240675,-0.0259999999999998,100.0,1.0,1.0,211.37666666666667,0.0,0.0,0.0,0.0,0.0,0.0,0.0,8959.5,0.0,55.0,5.0,246.79000000000002,0.0,0.0,0.0,0.0,0.0,0.0,0.0,0.0,1.1039999999999992,1.1039999999999992,0.0,0.0,0.0,55.0,616.79921,10000.0,85.000001,85.000001,85.000001,85.000001,395.0,0.0,0.0,0.0,1.0,333.33500000000004,50.735,50.735,47.18,47.18,34.0,-22.9225,23.104,-30.886666666666663,29.28,0.0,1775.199,-0.23499999999999943,100.0,29.747,29.820999999999998,43.213,43.344,0.0,1.0,100.0,0.0,0.0,0.0,0.0,3091.0,2997.3,4282.375,4279.5,305.527,305.03925,314.517,314.25725,21.9941,20.6413,21.9795,21.488,314.999998,314.999998,324.999988,324.999988,99.5589,99.50753333333333,99.5672,99.54721428571429,0.08199999999999985,-0.07099999999999995,-0.11466666666666668,0.10383333333333322,-0.05666666666667197,-0.03833333333332689,1.482,1.4895,38.463,30.008,38.372,35.2995,55.982,35.4295,59.611,52.6515,53.909,34.5265,58.1885,50.966499999999996,53.059,34.0575,58.091,50.370333333333335,-0.10250000000000004,-0.07399999999999984,0.10248,0.10858000000000001,0.0,214.695,214.64,211.37666666666667,211.37666666666667,0.0,0.0
23,0.0,1.0,0.0,1.0,1.0,0.0,0.0,1.0,0.0,100.0,1.0,1.1856,26.0,0.0,0.0,0.0,59.999996,0.0,26.0,26.0,26.0,26.0,0.008444444444444477,0.2552000000000001,-0.001966666666666667,291.412,-2.65145,-2.6433333333333335,-1.5264,-1.5949,-198.35,215.8275,190.504125,0.0,0.0,0.0,0.0,0.046533333333333336,-5.498166666666667,-5.498166666666667,-0.6066,-0.33866666666666667,0.00533333333333319,0.789,68.694,0.0014,-0.267225,-0.07000000000000028,100.0,1.0,1.0,211.89,0.0,0.0,0.0,0.0,0.0,0.0,0.0,8981.2,0.0,55.0,5.0,247.27333333333334,1.0,0.0,0.0,0.0,0.0,0.0,0.0,0.0,1.1550000000000011,1.1550000000000011,0.0,0.0,1.0,55.0,616.79921,10000.0,85.000001,85.000001,85.000001,85.000001,395.0,0.0,0.0,0.0,1.0,333.33500000000004,50.064,50.064,48.187,48.187,34.0,-24.2275,25.038,-26.32666666666666,29.0275,0.0,1775.148,-0.22499999999999787,100.0,30.101,29.736,43.394,43.499,0.0,1.0,100.0,0.0,0.0,0.0,0.0,3294.285714285714,3211.3,3896.125,4057.7,304.8455,304.7095,315.288,314.769,22.0035,20.6469,21.99,21.4972,314.999998,314.999998,324.999988,324.999988,99.55891428571428,99.50753333333333,99.56734285714286,99.54734285714285,0.10033333333333339,-0.05066666666666664,-0.10733333333333334,0.12116666666666687,-0.045000000000001705,-0.05333333333332746,1.526,1.532,38.522,30.043333333333333,38.437,35.3575,55.97,35.4695,59.649,52.714,53.897999999999996,34.563,58.2235,51.0265,53.047,34.093,58.1235,50.42933333333333,-0.11199999999999988,-0.07399999999999984,0.10737000000000001,0.107855,0.0,215.055,215.07,211.89,211.89,0.0,0.0
24,0.0,1.0,0.0,1.0,1.0,0.0,0.0,1.0,0.0,100.0,1.0,1.1856,26.0,0.0,0.0,0.0,59.999996,0.0,26.0,26.0,26.0,26.0,-0.011333333333333306,0.28480000000000016,-0.06996666666666666,291.641,-2.67775,-2.652,-1.5712000000000002,-1.5329,-195.05,215.815,190.48175,0.0,0.0,0.0,0.0,0.04846666666666667,-5.498166666666667,-5.498166666666667,-0.6113000000000001,-0.427,0.01822222222222214,1.588,68.82300000000001,0.006900000000000001,-0.2565,-0.19399999999999906,100.0,1.0,1.0,212.19333333333333,0.0,0.0,0.0,0.0,0.0,0.0,0.0,8994.1,0.0,55.0,5.0,247.73333333333335,0.0,0.0,0.0,0.0,0.0,0.0,0.0,0.0,1.2029999999999994,1.2029999999999994,0.0,0.0,0.0,55.0,616.79921,10000.0,85.000001,85.000001,85.000001,85.000001,395.0,0.0,0.0,0.0,1.0,166.665,51.147,51.147,47.241,47.241,34.0,-20.884999999999998,23.71,-29.740000000000002,30.0425,0.0,1775.101,-0.21000000000000085,100.0,29.928,29.490000000000002,43.346000000000004,43.382,0.0,1.0,100.0,0.0,0.0,0.0,0.0,2878.4285714285716,3080.3,4239.125,4218.2,305.9695,305.17525,314.471,314.486,22.0123,20.6521,21.9998,21.5058,314.999998,314.999998,324.999988,324.999988,99.55892857142857,99.50755,99.56748571428571,99.5475,0.10466666666666669,-0.054333333333333345,-0.10533333333333333,0.131,-0.041666666666671404,-0.03999999999999915,1.5145,1.5035,38.577,30.075666666666663,38.498999999999995,35.411500000000004,55.958,35.5055,59.685,52.7715,53.887,34.5965,58.2575,51.082,53.035,34.1245,58.153999999999996,50.483333333333334,-0.10299999999999998,-0.07100000000000017,0.10952500000000001,0.10637,0.0,215.45499999999998,215.45,212.19333333333333,212.19333333333333,0.0,0.0
25,0.0,1.0,0.0,1.0,1.0,0.0,0.0,1.0,0.0,100.0,1.0,1.1856,26.0,0.0,0.0,0.0,59.999996,0.0,26.0,26.0,26.0,26.0,0.018444444444444485,0.25970000000000004,-0.060566666666666664,291.656,-2.7521,-2.607,-1.58705,-1.5354999999999999,-191.54,215.8025,190.4565,0.0,0.0,0.0,0.0,0.0505,-5.498166666666667,-5.498166666666667,-0.6424000000000001,-0.07833333333333332,0.01866666666666661,-1.2610000000000001,68.95400000000001,0.008400000000000001,-0.2655,-0.0860000000000003,100.0,1.0,1.0,212.72333333333333,0.0,0.0,0.0,0.0,0.0,0.0,0.0,9016.5,0.0,55.0,5.0,248.21,1.0,0.0,0.0,0.0,0.0,0.0,0.0,0.0,1.2540000000000013,1.2540000000000013,0.0,0.0,1.0,55.0,616.79921,10000.0,85.000001,85.000001,85.000001,85.000001,395.0,0.0,0.0,0.0,1.0,166.665,50.262,50.262,48.08,48.08,34.0,-25.8975,24.866,-27.28,28.0075,0.0,1775.049,-0.23000000000000043,100.0,29.51,29.86,42.926,43.205,0.0,1.0,100.0,0.0,0.0,0.0,0.0,3330.857142857143,3243.8,3969.75,4043.2,305.0135,304.419,315.27066666666667,314.8425,22.0216,20.6577,22.0101,21.5149,314.999998,314.999998,324.999988,324.999988,99.55894285714285,99.50755,99.56762857142857,99.54764285714286,0.08566666666666656,-0.058666666666666645,-0.10633333333333334,0.12216666666666676,-0.046666666666666856,-0.051666666666669414,1.5735,1.559,38.635,30.111,38.563,35.468,55.945,35.545,59.7205,52.831,53.873999999999995,34.632999999999996,58.2905,51.138999999999996,53.021,34.16,58.184,50.53966666666666,-0.10149999999999992,-0.07399999999999984,0.10705500000000001,0.11603500000000001,0.0,215.875,215.86,212.72333333333333,212.72333333333333,0.0,0.0
26,0.0,1.0,0.0,1.0,1.0,0.0,0.0,1.0,0.0,100.0,1.0,1.1856,26.0,0.0,0.0,0.0,59.999996,0.0,26.0,26.0,26.0,26.0,-0.0005555555555555314,0.2835000000000001,0.07326666666666666,290.604,-2.69705,-2.6885555555555554,-1.63075,-1.532,-188.01999999999998,215.79000000000002,190.430875,0.0,0.0,0.0,0.0,0.052566666666666664,-5.498166666666667,-5.498166666666667,-0.6003000000000001,0.8280000000000001,0.002555555555555644,0.859,69.09100000000001,0.007500000000000001,-0.231625,-0.16999999999999993,100.0,1.0,1.0,212.9,0.0,0.0,0.0,0.0,0.0,0.0,0.0,9024.1,0.0,55.0,5.0,248.7,0.0,0.0,0.0,0.0,0.0,0.0,0.0,0.0,1.3049999999999997,1.3049999999999997,0.0,0.0,0.0,55.0,616.79921,10000.0,85.000001,85.000001,85.000001,85.000001,395.0,0.0,0.0,0.0,1.0,333.33500000000004,49.957,49.957,46.417,46.417,34.0,-22.695,25.564,-32.25,32.8775,0.0,1774.998,-0.34499999999999886,100.0,30.436,30.146,43.504,43.519999999999996,0.0,1.0,100.0,0.0,0.0,0.0,0.0,3129.857142857143,3184.5,4509.625,4531.9,305.219,304.68625,313.93733333333336,313.724,22.0312,20.6636,22.0206,21.5241,314.999998,314.999998,324.999988,324.999988,99.55895714285714,99.50756666666666,99.56778571428572,99.54778571428571,0.1163333333333334,-0.04566666666666663,-0.091,0.12816666666666676,-0.045000000000001705,-0.060000000000002274,1.4565,1.446,38.695,30.147333333333336,38.629000000000005,35.525999999999996,55.936,35.5865,59.76,52.894,53.864999999999995,34.6715,58.3275,51.2,53.010999999999996,34.197,58.218,50.599000000000004,-0.11850000000000005,-0.0665,0.10179500000000001,0.10983000000000001,0.0,216.325,216.325,212.9,212.9,0.0,0.0
27,0.0,1.0,0.0,1.0,1.0,0.0,0.0,1.0,0.0,100.0,1.0,1.1856,26.0,0.0,0.0,0.0,59.999996,0.0,26.0,26.0,26.0,26.0,0.014222222222222136,0.2513000000000001,-0.024466666666666668,290.955,-2.6676,-2.654777777777778,-1.6266,-1.6043,-184.7,215.7775,190.407625,0.0,0.0,0.0,0.0,0.0545,-5.498166666666667,-5.498166666666667,-0.6215,-1.1106666666666667,0.006555555555555648,0.942,69.215,0.007500000000000001,-0.2691,-0.24200000000000088,100.0,1.0,1.0,213.36666666666667,0.0,0.0,0.0,0.0,0.0,0.0,0.0,9043.9,0.0,55.0,5.0,249.15,1.0,0.0,0.0,0.0,0.0,0.0,0.0,0.0,1.352999999999998,1.352999999999998,0.0,0.0,1.0,55.0,616.79921,10000.0,85.000001,85.000001,85.000001,85.000001,395.0,0.0,0.0,0.0,1.0,333.33500000000004,50.385,50.385,46.6,46.6,34.0,-21.5025,25.48,-29.18,31.12,0.0,1774.95,-0.370000000000001,100.0,30.132,29.971,44.223,44.21,0.0,1.0,100.0,0.0,0.0,0.0,0.0,3007.714285714286,3221.1,4109.0,4163.6,305.611,304.70925,314.8,314.511,22.04,20.6689,22.0306,21.533,314.999998,314.999998,324.999988,324.999988,99.55895714285714,99.50756666666666,99.56791428571428,99.54792857142857,0.11333333333333373,-0.04466666666666663,-0.09866666666666668,0.1373333333333333,-0.04833333333333201,-0.030000000000001137,1.4849999999999999,1.4895,38.75,30.180333333333333,38.691,35.581,55.924,35.6225,59.7985,52.954,53.852999999999994,34.705,58.363,51.2575,52.998000000000005,34.229,58.2505,50.65533333333333,-0.11450000000000005,-0.06300000000000017,0.106715,0.10742000000000002,0.0,216.64499999999998,216.65,213.36666666666667,213.36666666666667,0.0,0.0
28,0.0,1.0,0.0,1.0,1.0,0.0,0.0,1.0,0.0,100.0,1.0,1.1856,26.0,0.0,0.0,0.0,59.999996,0.0,26.0,26.0,26.0,26.0,0.010111111111111182,0.26260000000000017,-0.0403,291.138,-2.6497,-2.6404444444444444,-1.61875,-1.5662,-180.95999999999998,215.765,190.38075,0.0,0.0,0.0,0.0,0.056666666666666664,-5.498166666666667,-5.498166666666667,-0.6327,0.6523333333333334,-0.0009999999999998899,0.896,69.35300000000001,0.011600000000000001,-0.252275,-0.3019999999999996,100.0,1.0,1.0,213.91,0.0,0.0,0.0,0.0,0.0,0.0,0.0,9066.9,0.0,55.0,5.0,249.64333333333335,0.0,0.0,0.0,0.0,0.0,0.0,0.0,0.0,1.407,1.407,0.0,0.0,0.0,55.0,616.79921,10000.0,85.000001,85.000001,85.000001,85.000001,395.0,0.0,0.0,0.0,1.0,166.665,50.079,50.079,47.546,47.546,34.0,-22.1025,25.64,-28.07666666666666,29.6525,0.0,1774.897,-0.35999999999999943,100.0,30.361,30.035,43.481,43.678,0.0,1.0,100.0,0.0,0.0,0.0,0.0,3097.857142857143,3229.6,4091.875,4169.5,305.266,304.6545,315.032,314.60625,22.05,20.675,22.0415,21.5426,314.999998,314.999998,324.999988,324.999988,99.55898571428571,99.50758333333333,99.56807142857143,99.54808571428572,0.11500000000000021,-0.04066666666666663,-0.09266666666666667,0.12433333333333318,-0.03333333333333144,-0.061666666666667425,1.553,1.5335,38.813,30.218333333333334,38.759,35.641,55.913,35.664500000000004,59.8345,53.016,53.843,34.744,58.3965,51.317,52.986999999999995,34.266,58.2805,50.71366666666667,-0.11599999999999988,-0.06300000000000017,0.10686000000000001,0.09734500000000001,0.0,217.115,217.12,213.91,213.91,0.0,0.0
29,0.0,1.0,0.0,1.0,1.0,0.0,0.0,1.0,0.0,100.0,1.0,1.1856,26.0,0.0,0.0,0.0,59.999996,0.0,26.0,26.0,26.0,26.0,0.03400000000000003,0.2590000000000001,0.0238,290.787,-2.6377,-2.6905555555555556,-1.57455,-1.5469,-177.63,215.755,190.355875,0.0,0.0,0.0,0.0,0.058600000000000006,-5.498166666666667,-5.498166666666667,-0.6349,-0.6506666666666666,0.00477777777777777,1.1,69.48,0.015700000000000002,-0.252625,-0.2959999999999994,100.0,1.0,1.0,214.12333333333333,0.0,0.0,0.0,0.0,0.0,0.0,0.0,9075.9,0.0,55.0,5.0,250.10333333333335,1.0,0.0,0.0,0.0,0.0,0.0,0.0,0.0,1.4549999999999983,1.4549999999999983,0.0,0.0,1.0,55.0,616.79921,10000.0,85.000001,85.000001,85.000001,85.000001,395.0,0.0,0.0,0.0,1.0,166.665,50.217,50.217,46.509,46.509,34.0,-21.7975,26.048,-28.843333333333334,32.5375,0.0,1774.849,-0.36499999999999844,100.0,30.089,30.006,43.963,43.986000000000004,0.0,1.0,100.0,0.0,0.0,0.0,0.0,3067.4285714285716,3244.2,4189.375,4357.3,305.4725,304.5275,314.573,314.114,22.0587,20.6803,22.0514,21.5514,314.999998,314.999998,324.999988,324.999988,99.55898571428571,99.50758333333333,99.56821428571429,99.54822857142857,0.11066666666666647,-0.04733333333333334,-0.09,0.14583333333333326,-0.036666666666668846,-0.045000000000001705,1.4595,1.467,38.867000000000004,30.251666666666665,38.821,35.696,55.9,35.701,59.8725,53.0755,53.831,34.7775,58.432,51.3745,52.974000000000004,34.298,58.313,50.769333333333336,-0.11349999999999993,-0.06599999999999984,0.10542000000000001,0.11356500000000001,0.0,217.465,217.47,214.12333333333333,214.12333333333333,0.0,0.0
30,0.0,1.0,0.0,1.0,1.0,0.0,0.0,1.0,0.0,100.0,1.0,1.1856,26.0,0.0,0.0,0.0,59.999996,0.0,26.0,26.0,26.0,26.0,0.028888888888888964,0.25970000000000004,0.0529,290.359,-2.69295,-2.5815555555555556,-1.54555,-1.6034,-174.29,215.745,190.331,0.0,0.0,0.0,0.0,0.06053333333333334,-5.498166666666667,-5.498166666666667,-0.6354000000000001,0.792,-0.0003333333333332966,0.651,69.601,0.0164,-0.25772500000000004,-0.32399999999999984,100.0,1.0,1.0,214.57999999999998,0.0,0.0,0.0,0.0,0.0,0.0,0.0,9095.3,0.0,55.0,5.0,250.53666666666666,0.0,0.0,0.0,0.0,0.0,0.0,1.0,0.0,1.5030000000000001,1.5030000000000001,0.0,0.0,0.0,55.0,616.79921,10000.0,85.000001,85.000001,85.000001,85.000001,395.0,0.0,0.0,0.0,1.0,166.665,49.042,49.042,47.058,47.058,34.0,-24.122500000000002,26.759999999999998,-27.636666666666663,31.9525,0.0,1774.8,-0.3949999999999996,100.0,30.76,30.546,43.718,43.979,0.0,1.0,100.0,0.0,0.0,0.0,0.0,3353.857142857143,3354.8,4155.5,4256.9,304.5935,304.15175,314.76166666666666,314.30525,22.0677,20.6859,22.0611,21.5601,314.999998,314.999998,324.999988,324.999988,99.559,99.50758333333333,99.56835714285714,99.54837142857143,0.1246666666666667,-0.03200000000000003,-0.08633333333333333,0.13766666666666683,-0.036666666666668846,-0.07000000000000028,1.5025,1.4954999999999998,38.923,30.287,38.882,35.7505,55.893,35.7405,59.9055,53.132999999999996,53.824,34.814,58.463,51.43,52.966,34.3335,58.341,50.82366666666667,-0.125,-0.05799999999999983,0.10628000000000001,0.10887500000000001,0.0,217.87,217.925,214.57999999999998,214.57999999999998,0.0,0.0
31,0.0,1.0,0.0,1.0,1.0,0.0,0.0,1.0,0.0,100.0,1.0,1.1856,26.0,0.0,0.0,0.0,59.999996,0.0,26.0,26.0,26.0,26.0,0.01722222222222225,0.25229999999999997,-0.0007666666666666667,290.222,-2.75425,-2.566111111111111,-1.5908,-1.5048,-170.53,215.73250000000002,190.303625,0.0,0.0,0.0,0.0,0.06273333333333334,-5.498166666666667,-5.498166666666667,-0.6189,-0.6126666666666667,0.005222222222222239,0.889,69.741,0.021,-0.25575000000000003,-0.3879999999999999,100.0,1.0,1.0,214.90333333333334,0.0,0.0,0.0,0.0,0.0,0.0,0.0,9109.0,0.0,55.0,5.0,251.04333333333335,1.0,0.0,0.0,0.0,0.0,0.0,1.0,0.0,1.5569999999999986,1.5569999999999986,0.0,0.0,1.0,55.0,616.79921,10000.0,85.000001,85.000001,85.000001,85.000001,395.0,0.0,0.0,0.0,1.0,166.665,49.637,49.637,45.67,45.67,34.0,-22.6125,26.37,-29.066666666666663,31.0875,0.0,1774.747,-0.3550000000000004,100.0,30.59,30.58,44.494,44.649,0.0,1.0,100.0,0.0,0.0,0.0,0.0,3086.857142857143,3379.3,4268.125,4248.1,305.5005,304.32425,314.38933333333335,314.3435,22.0776,20.692,22.072400000000002,21.57,314.999998,314.999998,324.999988,324.999988,99.55901428571428,99.50758333333333,99.56851428571429,99.54852857142858,0.11900000000000022,-0.03633333333333333,-0.07833333333333332,0.14616666666666678,-0.03333333333333144,-0.03333333333333144,1.4685,1.4529999999999998,38.985,30.325333333333333,38.952,35.813,55.881,35.7825,59.949,53.2005,53.813,34.853,58.5035,51.4945,52.953,34.371,58.378,50.88733333333333,-0.119,-0.06400000000000006,0.102995,0.11095500000000001,0.0,218.275,218.29000000000002,214.90333333333334,214.90333333333334,0.0,0.0
32,0.0,1.0,0.0,1.0,1.0,0.0,0.0,1.0,0.0,100.0,1.0,1.1856,26.0,0.0,0.0,0.0,59.999996,0.0,26.0,26.0,26.0,26.0,0.02155555555555555,0.26580000000000004,-0.024966666666666668,290.421,-2.68615,-2.667888888888889,-1.641,-1.5128,-167.18,215.725,190.2795,0.0,0.0,0.0,0.0,0.06466666666666666,-5.498166666666667,-5.498166666666667,-0.6372,-0.076,-0.019777777777777672,0.366,69.861,0.0224,-0.2647,-0.363999999999999,100.0,1.0,1.0,215.38,0.0,0.0,0.0,0.0,0.0,0.0,0.0,9129.2,0.0,55.0,5.0,251.47333333333336,0.0,0.0,0.0,0.0,0.0,0.0,1.0,0.0,1.6050000000000004,1.6050000000000004,0.0,0.0,0.0,55.0,616.79921,10000.0,85.000001,85.000001,85.000001,85.000001,395.0,0.0,0.0,0.0,1.0,333.33500000000004,49.591,49.591,46.524,46.524,34.0,-22.345,26.396,-28.846666666666664,31.3125,0.0,1774.698,-0.34999999999999787,100.0,30.647,30.611,44.204,44.403999999999996,0.0,1.0,100.0,0.0,0.0,0.0,0.0,3173.714285714286,3245.6,4209.125,4298.8,305.1885,304.60875,314.713,314.3765,22.0864,20.6975,22.0821,21.5787,314.999998,314.999998,324.999988,324.999988,99.55904285714286,99.5076,99.56864285714286,99.54867142857142,0.1280000000000001,-0.03300000000000003,-0.07933333333333333,0.14850000000000008,-0.02499999999999858,-0.060000000000002274,1.5305,1.5095,39.04,30.359666666666666,39.013,35.867,55.870999999999995,35.820499999999996,59.9825,53.257,53.803,34.888,58.5345,51.5495,52.943,34.4045,58.406,50.940666666666665,-0.12050000000000005,-0.06599999999999984,0.10908500000000002,0.10648500000000001,0.0,218.64499999999998,218.685,215.38,215.38,0.0,0.0
33,0.0,1.0,0.0,1.0,1.0,0.0,0.0,1.0,0.0,100.0,1.0,1.1856,26.0,0.0,0.0,0.0,59.999996,0.0,26.0,26.0,26.0,26.0,0.025666666666666726,0.25970000000000004,-0.0531,290.665,-2.6878,-2.6692222222222224,-1.5799,-1.5945,-163.82,215.7175,190.2545,0.0,0.0,0.0,0.0,0.06663333333333334,-5.498166666666667,-5.498166666666667,-0.6462,-0.3303333333333333,-0.020000000000000018,1.5979999999999999,69.983,0.024200000000000003,-0.259525,-0.33000000000000007,100.0,1.0,1.0,215.71,0.0,0.0,0.0,0.0,0.0,0.0,0.0,9143.2,0.0,55.0,5.0,251.91333333333336,1.0,0.0,0.0,0.0,0.0,0.0,1.0,0.0,1.6529999999999987,1.6529999999999987,0.0,0.0,1.0,55.0,616.79921,10000.0,85.000001,85.000001,85.000001,85.000001,395.0,0.0,0.0,0.0,1.0,333.33500000000004,50.049,50.049,46.646,46.646,34.0,-21.7475,25.753999999999998,-28.413333333333334,32.1725,0.0,1774.649,-0.3150000000000013,100.0,30.593,30.332,44.120000000000005,44.283,0.0,1.0,100.0,0.0,0.0,0.0,0.0,3058.0,3183.8,4177.875,4280.9,305.5325,304.80075,314.66266666666667,314.35675,22.0951,20.7029,22.092,21.5875,314.999998,314.999998,324.999988,324.999988,99.55905714285714,99.5076,99.5688,99.54881428571429,0.1206666666666667,-0.03466666666666662,-0.08700000000000001,0.14349999999999996,-0.04333333333332945,-0.04833333333333201,1.5055,1.5025,39.094,30.393,39.075,35.9215,55.861000000000004,35.856,60.018,53.314,53.794,34.921,58.567499999999995,51.604,52.932,34.436,58.436,50.994,-0.11699999999999999,-0.06550000000000011,0.109325,0.10415500000000001,0.0,219.04000000000002,219.055,215.71,215.71,0.0,0.0
34,0.0,1.0,0.0,1.0,1.0,0.0,0.0,1.0,0.0,100.0,1.0,1.1856,26.0,0.0,0.0,0.0,59.999996,0.0,26.0,26.0,26.0,26.0,0.02155555555555555,0.25860000000000016,-0.030100000000000002,291.046,-2.71895,-2.659666666666667,-1.6482,-1.5526,-160.04,215.71,190.225,0.0,0.0,0.0,0.0,0.06883333333333334,-5.498166666666667,-5.498166666666667,-0.6768000000000001,-0.78,0.012111111111110962,1.373,70.118,0.0227,-0.26580000000000004,-0.23600000000000065,100.0,1.0,1.0,216.15,0.0,0.0,0.0,0.0,0.0,0.0,0.0,9161.8,0.0,55.0,5.0,252.40333333333334,0.0,0.0,0.0,0.0,0.0,0.0,1.0,0.0,1.7070000000000007,1.7070000000000007,0.0,0.0,0.0,55.0,616.79921,10000.0,85.000001,85.000001,85.000001,85.000001,395.0,0.0,0.0,0.0,1.0,166.665,50.385,50.385,47.394,47.394,34.0,-21.195,25.718,-28.03666666666666,30.7875,0.0,1774.597,-0.3049999999999997,100.0,30.294,29.971,43.744,44.191,0.0,1.0,100.0,0.0,0.0,0.0,0.0,2972.857142857143,3202.1,4058.0,4228.3,305.651,304.85425,315.02066666666667,314.4415,22.1048,20.7088,22.102899999999998,21.5973,314.999998,314.999998,324.999988,324.999988,99.55907142857143,99.50761666666666,99.56895714285714,99.54897142857143,0.12733333333333352,-0.03433333333333333,-0.08383333333333333,0.13800000000000012,-0.045000000000001705,-0.07000000000000028,1.5215,1.5285,39.155,30.430333333333333,39.143,35.983000000000004,55.848,35.8955,60.055,53.379,53.781,34.957499999999996,58.602000000000004,51.667,52.918,34.471000000000004,58.467,51.055,-0.11599999999999988,-0.06800000000000006,0.103315,0.10719500000000001,0.0,219.45,219.465,216.15,216.15,0.0,0.0
35,0.0,1.0,0.0,1.0,1.0,0.0,0.0,1.0,0.0,100.0,1.0,1.1856,26.0,0.0,0.0,0.0,59.999996,0.0,26.0,26.0,26.0,26.0,0.02822222222222215,0.25360000000000005,-0.020300000000000002,291.10699999999997,-2.70055,-2.597,-1.6177000000000001,-1.513,-156.45999999999998,215.7025,190.195125,0.0,0.0,0.0,0.0,0.0709,-5.498166666666667,-5.498166666666667,-0.7157,-0.20966666666666667,-0.009222222222222243,-1.4250000000000003,70.245,0.022500000000000003,-0.271575,-0.23000000000000043,100.0,1.0,1.0,216.61333333333334,0.0,0.0,0.0,0.0,0.0,0.0,0.0,9181.4,0.0,55.0,5.0,252.86,1.0,0.0,0.0,0.0,0.0,0.0,1.0,0.0,1.7579999999999991,1.7579999999999991,0.0,0.0,1.0,55.0,616.79921,10000.0,85.000001,85.000001,85.000001,85.000001,395.0,0.0,0.0,0.0,1.0,166.665,49.957,49.957,47.089,47.089,34.0,-23.36,26.104,-28.056666666666665,27.8925,0.0,1774.545,-0.23499999999999943,100.0,29.754,30.415,43.4,43.746,0.0,1.0,100.0,0.0,0.0,0.0,0.0,3221.857142857143,3323.7,4067.375,3983.6000000000004,305.2455,304.16,315.0156666666667,314.99875,22.1139,20.7147,22.1131,21.6064,314.999998,314.999998,324.999988,324.999988,99.55908571428571,99.50761666666666,99.5691,99.54911428571428,0.11299999999999999,-0.04699999999999993,-0.093,0.13349999999999995,-0.054999999999999716,-0.036666666666668846,1.5445,1.545,39.212,30.466666666666665,39.207,36.04,55.835,35.935,60.09,53.436,53.768,34.994,58.6345,51.722,52.905,34.5065,58.4965,51.109,-0.11349999999999993,-0.07200000000000006,0.107185,0.10508,0.0,219.85000000000002,219.845,216.61333333333334,216.61333333333334,0.0,0.0
36,0.0,1.0,0.0,1.0,1.0,0.0,0.0,1.0,0.0,100.0,1.0,1.1856,26.0,0.0,0.0,0.0,59.999996,0.0,26.0,26.0,26.0,26.0,0.018333333333333313,0.25950000000000006,0.07026666666666667,290.344,-2.74275,-2.642444444444444,-1.56575,-1.5565,-153.29,215.6975,190.1675,0.0,0.0,0.0,0.0,0.07273333333333334,-5.498166666666667,-5.498166666666667,-0.6944,0.34933333333333333,-0.04811111111111144,0.19699999999999995,70.36,0.020800000000000003,-0.2384,-0.09799999999999898,100.0,1.0,1.0,216.7733333333333,0.0,0.0,0.0,0.0,0.0,0.0,0.0,9188.3,0.0,55.0,5.0,253.26999999999998,0.0,0.0,0.0,0.0,0.0,0.0,1.0,0.0,1.8030000000000008,1.8030000000000008,0.0,0.0,0.0,55.0,616.79921,10000.0,85.000001,85.000001,85.000001,85.000001,395.0,0.0,0.0,0.0,1.0,333.33500000000004,49.728,49.728,46.57,46.57,34.0,-24.3975,25.626,-29.613333333333337,34.29,0.0,1774.498,-0.14000000000000057,100.0,30.429000000000002,30.358,43.726,43.891999999999996,0.0,1.0,100.0,0.0,0.0,0.0,0.0,3276.857142857143,3237.5,4382.375,4508.8,304.977,304.67175,314.21733333333333,313.80375,22.1221,20.7199,22.1223,21.6146,314.999998,314.999998,324.999988,324.999988,99.5591,99.50761666666666,99.56922857142857,99.54925714285714,0.11266666666666669,-0.04266666666666663,-0.079,0.14800000000000013,-0.04999999999999716,-0.04999999999999716,1.456,1.4355,39.263,30.499333333333333,39.263999999999996,36.091499999999996,55.826,35.971000000000004,60.123,53.49,53.76,35.0275,58.665,51.774,52.894999999999996,34.5385,58.524,51.16,-0.10399999999999987,-0.08050000000000024,0.099,0.114555,0.0,220.23000000000002,220.24,216.7733333333333,216.7733333333333,0.0,0.0
