,ABS Active,ABS Enabled,AID Allow Tire Blankets,AID Auto Blip,AID Auto Clutch,AID Auto Shift,AID Fuel Rate,AID Ideal Line,AID Mech Damage,AID Stability,AID Tire Wear Rate,Air Density,Air Temp,Ballast,Best Lap Delta,Best Lap Time,Brake Bias,Brake Pos,Brake Temp FL,Brake Temp FR,Brake Temp RL,Brake Temp RR,CG Accel Lateral,CG Accel Longitudinal,CG Accel Vertical,CG Height,Camber FL,Camber FR,Camber RL,Camber RR,Car Coord X,Car Coord Y,Car Coord Z,Car Damage Front,Car Damage Left,Car Damage Rear,Car Damage Right,Car Pos Norm,Caster FL,Caster FR,Chassis Pitch Angle,Chassis Pitch Rate,Chassis Roll Angle,Chassis Roll Rate,Chassis Velocity X,Chassis Velocity Y,Chassis Velocity Z,Chassis Yaw Rate,Clutch Pos,DRS Active,DRS Available,Drive Train Speed,ERS Heat Charging,ERS Is Charging,ERS Max Energy,ERS Power Level,ERS Recovery Level,Engine Brake Setting,Engine Limiter,Engine RPM,Flags,Fuel Level,Gear,Ground Speed,HR Sample Clock,In Pit,KERS Charge,KERS Deployed Energy,KERS Input,KERS Max Energy,LR Sample Clock,Lap Invalidated,Lap Time,Lap Time2,Last Lap Time,Last Sector Time,MR Sample Clock,Max Fuel,Max Power,Max RPM,Max Sus Travel FL,Max Sus Travel FR,Max Sus Travel RL,Max Sus Travel RR,Max Torque,Max Turbo Boost,Num Tires Off Track,Penalties Enabled,Position,Raw Data Sample Rate,Ride Height FL,Ride Height FR,Ride Height RL,Ride Height RR,Road Temp,Self Align Torque FL,Self Align Torque FR,Self Align Torque RL,Self Align Torque RR,Session Lap Count,Session Time Left,Steering Angle,Surface Grip,Suspension Travel FL,Suspension Travel FR,Suspension Travel RL,Suspension Travel RR,TC Active,TC Enabled,Throttle Pos,Tire Dirt Level FL,Tire Dirt Level FR,Tire Dirt Level RL,Tire Dirt Level RR,Tire Load FL,Tire Load FR,Tire Load RL,Tire Load RR,Tire Loaded Radius FL,Tire Loaded Radius FR,Tire Loaded Radius RL,Tire Loaded Radius RR,Tire Pressure FL,Tire Pressure FR,Tire Pressure RL,Tire Pressure RR,Tire Radius FL,Tire Radius FR,Tire Radius RL,Tire Radius RR,Tire Rubber Grip FL,Tire Rubber Grip FR,Tire Rubber Grip RL,Tire Rubber Grip RR,Tire Slip Angle FL,Tire Slip Angle FR,Tire Slip Angle RL,Tire Slip Angle RR,Tire Slip Ratio FL,Tire Slip Ratio FR,Tire Slip Ratio RL,Tire Slip Ratio RR,Tire Temp Core FL,Tire Temp Core FR,Tire Temp Core RL,Tire Temp Core RR,Tire Temp Inner FL,Tire Temp Inner FR,Tire Temp Inner RL,Tire Temp Inner RR,Tire Temp Middle FL,Tire Temp Middle FR,Tire Temp Middle RL,Tire Temp Middle RR,Tire Temp Outer FL,Tire Temp Outer FR,Tire Temp Outer RL,Tire Temp Outer RR,Toe In FL,Toe In FR,Toe In RL,Toe In RR,Turbo Boost,Wheel Angular Speed FL,Wheel Angular Speed FR,Wheel Angular Speed RL,Wheel Angular Speed RR,Wind Direction,Wind Speed
0,0.0,1.0,0.0,1.0,1.0,0.0,0.0,1.0,0.0,100.0,1.0,1.1856,26.0,0.0,0.0,0.0,59.99999,0.0,26.0,26.0,26.0,26.0,-0.07733333333333337,0.29280000000000017,-0.1298,292.282,-2.675,-2.59575,-1.5241,-1.548125,-275.68,216.29500000000002,190.985875,0.0,0.0,0.0,0.0,0.0015999999999999348,-5.498166666666667,-5.498166666666667,-0.6161,1.8880000000000001,0.0014444444444443594,-0.7160000000000002,65.526,-0.028900000000000002,-0.2953,0.927999999999999,100.0,1.0,1.0,202.29666666666668,0.0,0.0,0.0,0.0,0.0,0.0,0.0,8574.6,0.0,55.0,5.0,235.86333333333334,0.0,0.0,0.0,0.0,0.0,0.0,0.0,0.0,0.0030000000000001137,0.0030000000000001137,0.0,0.0,0.0,55.0,616.79921,10000.0,85.0,85.0,85.0,85.0,395.0,0.0,0.0,0.0,1.0,20.0,49.010999999999996,49.010999999999996,49.606,49.606,34.0,-24.615000000000002,22.903333333333332,-30.659999999999997,25.795,0.0,1782.091,0.7349999999999994,100.0,31.203,30.734,40.332,40.5,0.0,1.0,100.0,0.0,0.0,0.0,0.0,2953.166666666667,3398.4,4155.5,4072.3,305.708,303.9075,314.77166666666665,314.69725,21.7978,20.5253,21.7412,21.2821,314.99999,314.99999,324.99998,324.99998,99.55975714285714,99.50748333333334,99.56411428571428,99.54398571428571,0.02574999999999994,-0.12424999999999997,-0.15983333333333338,0.07299999999999995,-0.04999999999999716,-0.046666666666666856,1.5550000000000002,1.5725,37.236000000000004,29.283,36.882,34.013,56.599000000000004,34.686,58.7405,51.2815,54.513,33.832499999999996,57.385,49.6505,53.693,33.3805,57.3595,49.077666666666666,-0.035499999999999865,-0.1495000000000002,0.11081,0.10847000000000001,0.0,205.365,205.265,202.29666666666668,202.29666666666668,0.0,0.0
1,0.0,1.0,0.0,1.0,1.0,0.0,0.0,1.0,0.0,100.0,1.0,1.1856,26.0,0.0,0.0,0.0,59.999996,0.0,26.0,26.0,26.0,26.0,-0.0895555555555555,0.32420000000000004,0.33940000000000003,291.412,-2.5811,-2.72825,-1.52245,-1.555375,-272.33,216.29000000000002,190.96575,0.0,0.0,0.0,0.0,0.0035333333333333883,-5.498166666666667,-5.498166666666667,-0.559,-0.8190000000000001,-0.0604444444444443,-0.7269999999999999,65.679,-0.047900000000000005,-0.26105,1.3160000000000007,100.0,1.0,1.0,202.48333333333335,0.0,0.0,0.0,0.0,0.0,0.0,0.0,8582.5,0.0,55.0,5.0,236.42000000000002,1.0,0.0,0.0,0.0,0.0,0.0,0.0,0.0,0.053999999999998494,0.053999999999998494,0.0,0.0,1.0,55.0,616.79921,10000.0,85.000001,85.000001,85.000001,85.000001,395.0,0.0,0.0,0.0,1.0,333.33500000000004,50.034,50.034,48.248,48.248,34.0,-26.125,18.810000000000002,-33.693333333333335,29.37,0.0,1782.039,0.865000000000002,100.0,31.078,30.024,42.777,41.647999999999996,0.0,1.0,100.0,0.0,0.0,0.0,0.0,3167.333333333333,2874.9,4322.75,4677.9,305.349,305.8845,314.2183333333333,313.179,21.8078,20.5305,21.7519,21.2912,314.999998,314.999998,324.999988,324.999988,99.55977142857142,99.5075,99.56427142857143,99.54412857142857,0.010250000000000092,-0.14549999999999996,-0.17149999999999999,0.043500000000000094,-0.07833333333332604,-0.060000000000002274,1.408,1.454,37.298,29.316,36.95,34.07,56.582,34.7285,58.787,51.3475,54.497,33.8715,57.4285,49.714,53.677,33.418,57.4,49.13966666666666,-0.026999999999999913,-0.16449999999999987,0.10339500000000001,0.10966500000000001,0.0,205.84,205.70499999999998,202.48333333333335,202.48333333333335,0.0,0.0
2,0.0,1.0,0.0,1.0,1.0,0.0,0.0,1.0,0.0,100.0,1.0,1.1856,26.0,0.0,0.0,0.0,59.999996,0.0,26.0,26.0,26.0,26.0,-0.1363333333333333,0.3024,0.19758,292.023,-2.5513,-2.753125,-1.488,-1.611875,-268.78,216.28,190.94575,0.0,0.0,0.0,0.0,0.005599999999999938,-5.498166666666667,-5.498166666666667,-0.6083000000000001,-0.12333333333333334,-0.05011111111111122,2.63,65.831,-0.07150000000000001,-0.31627500000000003,1.6039999999999992,100.0,1.0,1.0,203.39666666666668,0.0,0.0,0.0,0.0,0.0,0.0,0.0,8621.2,0.0,55.0,5.0,236.96333333333334,0.0,0.0,0.0,0.0,0.0,0.0,0.0,0.0,0.10800000000000054,0.10800000000000054,0.0,0.0,0.0,55.0,616.79921,10000.0,85.000001,85.000001,85.000001,85.000001,395.0,0.0,0.0,0.0,1.0,166.665,48.981,48.981,50.018,50.018,34.0,-29.7475,19.866666666666667,-29.64,20.515,0.0,1781.987,0.7349999999999994,100.0,31.571,30.128,42.674,41.354,0.0,1.0,100.0,0.0,0.0,0.0,0.0,3456.833333333333,3071.8,3760.625,3741.4,304.348,305.235,315.59,315.61975,21.8187,20.535899999999998,21.762999999999998,21.3004,314.999998,314.999998,324.999988,324.999988,99.55977142857142,99.50751666666666,99.56442857142856,99.54427142857143,-0.008999999999999897,-0.16274999999999995,-0.22516666666666663,0.00550000000000006,-0.07499999999999574,-0.0833333333333286,1.6019999999999999,1.6680000000000001,37.367000000000004,29.349333333333334,37.019,34.1275,56.568,34.771,58.829499999999996,51.409,54.483999999999995,33.911,57.468,49.772999999999996,53.663,33.4555,57.437,49.19733333333333,-0.03649999999999998,-0.15149999999999997,0.10873000000000001,0.104275,0.0,206.29500000000002,206.15,203.39666666666668,203.39666666666668,0.0,0.0
3,0.0,1.0,0.0,1.0,1.0,0.0,0.0,1.0,0.0,100.0,1.0,1.1856,26.0,0.0,0.0,0.0,59.999996,0.0,26.0,26.0,26.0,26.0,-0.14500000000000002,0.31530000000000014,0.24278000000000002,291.763,-2.6913,-2.6390000000000002,-1.5177,-1.587875,-265.62,216.26999999999998,190.927125,0.0,0.0,0.0,0.0,0.007433333333333292,-5.498166666666667,-5.498166666666667,-0.5694,-0.15533333333333335,-0.0043333333333333,-0.3959999999999999,65.973,-0.0848,-0.26535000000000003,1.216000000000001,100.0,1.0,1.0,203.5366666666667,0.0,0.0,0.0,0.0,0.0,0.0,0.0,8627.1,0.0,55.0,5.0,237.4766666666667,1.0,0.0,0.0,0.0,0.0,0.0,0.0,0.0,0.1559999999999988,0.1559999999999988,0.0,0.0,1.0,55.0,616.79921,10000.0,85.000001,85.000001,85.000001,85.000001,395.0,0.0,0.0,0.0,1.0,166.665,50.095,50.095,48.004,48.004,34.0,-26.35,17.86333333333333,-34.879999999999995,24.5075,0.0,1781.94,0.5949999999999989,100.0,30.951999999999998,30.35,42.596000000000004,41.602000000000004,0.0,1.0,100.0,0.0,0.0,0.0,0.0,3015.666666666667,2946.9,4264.125,4253.0,305.8045,305.5305,314.3813333333333,314.228,21.828,20.5408,21.7728,21.308799999999998,314.999998,314.999998,324.999988,324.999988,99.55977142857142,99.50753333333333,99.56455714285714,99.54441428571428,-0.008000000000000007,-0.16625,-0.21099999999999997,0.008166666666666655,-0.06666666666666998,-0.045000000000001705,1.464,1.512,37.425,29.38,37.08,34.18,56.551,34.812,58.8675,51.47,54.468,33.948499999999996,57.5035,49.8315,53.646,33.492,57.4695,49.254666666666665,-0.04800000000000004,-0.13850000000000007,0.10182000000000001,0.10485000000000001,0.0,206.735,206.635,203.5366666666667,203.5366666666667,0.0,0.0
4,0.0,1.0,0.0,1.0,1.0,0.0,0.0,1.0,0.0,100.0,1.0,1.1856,26.0,0.0,0.0,0.0,59.999996,0.0,26.0,26.0,26.0,26.0,-0.14733333333333332,0.27760000000000007,-0.2859,291.946,-2.6169000000000002,-2.684375,-1.5332,-1.593375,-262.25,216.255,190.907375,0.0,0.0,0.0,0.0,0.009399999999999964,-5.498166666666667,-5.498166666666667,-0.6054,-0.4296666666666667,-0.07177777777777772,-1.1720000000000002,66.12,-0.08460000000000001,-0.309425,1.1760000000000002,100.0,1.0,1.0,204.13,0.0,0.0,0.0,0.0,0.0,0.0,0.0,8652.3,0.0,55.0,5.0,238.00333333333333,0.0,0.0,0.0,0.0,0.0,0.0,0.0,0.0,0.20700000000000074,0.20700000000000074,0.0,0.0,0.0,55.0,616.79921,10000.0,85.000001,85.000001,85.000001,85.000001,395.0,0.0,0.0,0.0,1.0,166.665,49.515,49.515,48.706,48.706,34.0,-27.740000000000002,17.956666666666667,-32.75666666666667,21.240000000000002,0.0,1781.888,0.5350000000000001,100.0,31.149,30.563,42.858000000000004,41.598,0.0,1.0,100.0,0.0,0.0,0.0,0.0,3218.5,2849.3,4065.625,3715.0,304.9865,305.538,314.88933333333335,315.57525,21.8379,20.546,21.7833,21.3177,314.999998,314.999998,324.999988,324.999988,99.55978571428571,99.50755,99.5647,99.54454285714286,-0.0007500000000000284,-0.16349999999999998,-0.21450000000000002,0.023500000000000076,-0.023333333333326323,-0.03166666666666629,1.5710000000000002,1.6145,37.486999999999995,29.412333333333336,37.146,34.2355,56.533,34.8535,58.91,51.5305,54.451,33.987,57.543,49.8895,53.628,33.5285,57.5065,49.31166666666667,-0.05449999999999999,-0.13649999999999984,0.10503000000000001,0.11121500000000001,0.0,207.125,207.015,204.13,204.13,0.0,0.0
5,0.0,1.0,0.0,1.0,1.0,0.0,0.0,1.0,0.0,100.0,1.0,1.1856,26.0,0.0,0.0,0.0,59.999996,0.0,26.0,26.0,26.0,26.0,-0.13077777777777777,0.2832000000000001,-0.27686,291.84,-2.6256,-2.70175,-1.51885,-1.57975,-259.07,216.2375,190.888125,0.0,0.0,0.0,0.0,0.011266666666666536,-5.498166666666667,-5.498166666666667,-0.5989,0.776,-0.07299999999999995,0.34199999999999986,66.258,-0.0896,-0.28675,1.0660000000000007,100.0,1.0,1.0,204.5,0.0,0.0,0.0,0.0,0.0,0.0,0.0,8668.0,0.0,55.0,5.0,238.49666666666667,1.0,0.0,0.0,0.0,0.0,0.0,0.0,0.0,0.254999999999999,0.254999999999999,0.0,0.0,1.0,55.0,616.79921,10000.0,85.000001,85.000001,85.000001,85.000001,395.0,0.0,0.0,0.0,1.0,166.665,49.744,49.744,48.798,48.798,34.0,-25.655,17.855,-33.58,22.92,0.0,1781.841,0.15500000000000114,100.0,31.569,30.599,42.622,41.381,0.0,1.0,100.0,0.0,0.0,0.0,0.0,3056.333333333333,2738.6,4176.625,4096.0,305.3895,305.925,314.7126666666667,314.71275,21.8474,20.5508,21.7931,21.3259,314.999998,314.999998,324.999988,324.999988,99.55978571428571,99.50756666666666,99.56482857142858,99.54467142857143,0.015249999999999986,-0.14774999999999994,-0.21150000000000002,0.006833333333333469,-0.03833333333332689,-0.01833333333333087,1.525,1.576,37.546,29.442666666666668,37.207,34.287,56.519,34.891999999999996,58.948,51.5865,54.438,34.0225,57.5785,49.943,53.614999999999995,33.563,57.539,49.364,-0.08000000000000007,-0.10899999999999999,0.10355,0.10179,0.0,207.60000000000002,207.495,204.5,204.5,0.0,0.0
6,0.0,1.0,0.0,1.0,1.0,0.0,0.0,1.0,0.0,100.0,1.0,1.1856,26.0,0.0,0.0,0.0,59.999996,0.0,26.0,26.0,26.0,26.0,-0.10977777777777786,0.2957000000000001,0.22921999999999998,291.443,-2.5879,-2.741,-1.55625,-1.58225,-255.69,216.215,190.867375,0.0,0.0,0.0,0.0,0.01323333333333332,-5.498166666666667,-5.498166666666667,-0.6002000000000001,-0.36933333333333335,-0.06077777777777804,0.07299999999999995,66.404,-0.0826,-0.28750000000000003,0.7000000000000011,100.0,1.0,1.0,204.92666666666668,0.0,0.0,0.0,0.0,0.0,0.0,0.0,8686.1,0.0,55.0,5.0,239.03,0.0,0.0,0.0,0.0,0.0,0.0,0.0,0.0,0.30600000000000094,0.30600000000000094,0.0,0.0,0.0,55.0,616.79921,10000.0,85.000001,85.000001,85.000001,85.000001,395.0,0.0,0.0,0.0,1.0,166.665,49.057,49.057,48.492,48.492,34.0,-26.6425,20.795,-32.67,23.1025,0.0,1781.789,0.05999999999999872,100.0,31.5,30.57,42.863,41.785,0.0,1.0,100.0,0.0,0.0,0.0,0.0,3293.333333333333,3074.4,4124.5,4016.8,304.955,305.0935,314.766,314.842,21.8574,20.5561,21.8036,21.3349,314.999998,314.999998,324.999988,324.999988,99.55978571428571,99.50758333333333,99.56497142857143,99.54481428571428,0.028999999999999915,-0.14225,-0.19033333333333335,0.016000000000000014,-0.07499999999999574,-0.06499999999999773,1.5196666666666667,1.5385,37.608999999999995,29.475666666666665,37.272999999999996,34.343,56.504000000000005,34.9335,58.9895,51.649,54.423,34.061,57.6175,50.003,53.599000000000004,33.5995,57.575,49.422666666666665,-0.09349999999999992,-0.10199999999999987,0.10063000000000001,0.10271500000000001,0.0,208.03,207.97,204.92666666666668,204.92666666666668,0.0,0.0
7,0.0,1.0,0.0,1.0,1.0,0.0,0.0,1.0,0.0,100.0,1.0,1.1856,26.0,0.0,0.0,0.0,59.999996,0.0,26.0,26.0,26.0,26.0,-0.06855555555555548,0.2681,-0.15606,291.10699999999997,-2.555,-2.69025,-1.51845,-1.62325,-252.3,216.1925,190.846875,0.0,0.0,0.0,0.0,0.015199999999999991,-5.498166666666667,-5.498166666666667,-0.6051000000000001,0.4246666666666667,-0.04700000000000015,0.5959999999999999,66.55,-0.0654,-0.307875,0.3460000000000001,100.0,1.0,1.0,205.34333333333333,0.0,0.0,0.0,0.0,0.0,0.0,0.0,8703.8,0.0,55.0,5.0,239.55,1.0,0.0,0.0,0.0,0.0,0.0,0.0,0.0,0.3569999999999993,0.3569999999999993,0.0,0.0,1.0,55.0,616.79921,10000.0,85.000001,85.000001,85.000001,85.000001,395.0,0.0,0.0,0.0,1.0,166.665,48.553,48.553,48.522999999999996,48.522999999999996,34.0,-25.07,21.023333333333333,-31.339999999999996,25.6625,0.0,1781.738,-0.21999999999999886,100.0,32.03,31.073,42.918,42.013,0.0,1.0,100.0,0.0,0.0,0.0,0.0,3209.333333333333,2984.9,4084.125,4093.8,304.8545,305.06825,314.865,314.6515,21.8674,20.5614,21.8141,21.3439,314.999998,314.999998,324.999988,324.999988,99.5598,99.5076,99.56511428571429,99.54495714285714,0.04925000000000024,-0.11675000000000002,-0.18266666666666664,0.04499999999999993,-0.021666666666668277,-0.02833333333332888,1.536,1.5525,37.671,29.508666666666667,37.338,34.3995,56.489999999999995,34.9745,59.031,51.7115,54.41,34.099000000000004,57.6565,50.063,53.585,33.635999999999996,57.611,49.48133333333333,-0.11599999999999988,-0.07850000000000001,0.10244500000000001,0.103275,0.0,208.44,208.42000000000002,205.34333333333333,205.34333333333333,0.0,0.0
8,0.0,1.0,0.0,1.0,1.0,0.0,0.0,1.0,0.0,100.0,1.0,1.1856,26.0,0.0,0.0,0.0,59.999996,0.0,26.0,26.0,26.0,26.0,-0.04122222222222216,0.3064,0.22552,291.306,-2.6476,-2.65275,-1.50815,-1.576,-248.9,216.16500000000002,190.826125,0.0,0.0,0.0,0.0,0.017166666666666552,-5.498166666666667,-5.498166666666667,-0.6058,-0.966,-0.028777777777778013,0.07600000000000007,66.695,-0.0437,-0.2943,-0.06200000000000028,100.0,1.0,1.0,205.74,0.0,0.0,0.0,0.0,0.0,0.0,0.0,8720.6,0.0,55.0,5.0,240.07666666666665,0.0,0.0,0.0,0.0,0.0,0.0,0.0,0.0,0.40800000000000125,0.40800000000000125,0.0,0.0,0.0,55.0,616.79921,10000.0,85.000001,85.000001,85.000001,85.000001,395.0,0.0,0.0,0.0,1.0,166.665,49.408,49.408,47.821,47.821,34.0,-23.63,21.986666666666665,-30.226666666666667,26.54,0.0,1781.688,-0.33500000000000085,100.0,31.235,30.879,43.061,42.324,0.0,1.0,100.0,0.0,0.0,0.0,0.0,3137.0,3087.9,4112.125,4113.5,305.5625,305.16625,314.70533333333333,314.52175,21.8772,20.5667,21.8246,21.352899999999998,314.999998,314.999998,324.999988,324.999988,99.5598,99.50761666666666,99.56527142857144,99.5451,0.07350000000000012,-0.09575,-0.15216666666666656,0.0665,-0.05666666666667197,-0.06833333333332803,1.5026666666666668,1.5110000000000001,37.732,29.542,37.403999999999996,34.4555,56.474999999999994,35.0145,59.072,51.7735,54.394999999999996,34.1355,57.6945,50.1225,53.57,33.671,57.646,49.53966666666666,-0.127,-0.07200000000000006,0.106435,0.10494500000000001,0.0,208.9,208.89,205.74,205.74,0.0,0.0
9,0.0,1.0,0.0,1.0,1.0,0.0,0.0,1.0,0.0,100.0,1.0,1.1856,26.0,0.0,0.0,0.0,59.999996,0.0,26.0,26.0,26.0,26.0,-0.021222222222222142,0.27570000000000006,-0.2281,291.092,-2.6326,-2.6571249999999997,-1.5626,-1.554375,-245.9,216.14249999999998,190.807625,0.0,0.0,0.0,0.0,0.018899999999999917,-5.498166666666667,-5.498166666666667,-0.6095,0.9766666666666667,-0.029666666666666952,0.1439999999999999,66.821,-0.0239,-0.29955000000000004,-0.1979999999999995,100.0,1.0,1.0,206.24666666666667,0.0,0.0,0.0,0.0,0.0,0.0,0.0,8742.0,0.0,55.0,5.0,240.52666666666667,1.0,0.0,0.0,0.0,0.0,0.0,0.0,0.0,0.4529999999999994,0.4529999999999994,0.0,0.0,1.0,55.0,616.79921,10000.0,85.000001,85.000001,85.000001,85.000001,395.0,0.0,0.0,0.0,1.0,166.665,48.34,48.34,48.813,48.813,34.0,-24.4725,22.6,-28.483333333333334,26.8225,0.0,1781.642,-0.4250000000000007,100.0,31.873,31.397,42.646,42.233000000000004,0.0,1.0,100.0,0.0,0.0,0.0,0.0,3314.333333333333,3023.2,3991.25,4078.5,304.669,304.97475,315.152,314.755,21.8859,20.5715,21.8337,21.3607,314.999998,314.999998,324.999988,324.999988,99.55981428571428,99.50761666666666,99.56538571428571,99.54522857142857,0.09575000000000022,-0.07899999999999996,-0.13549999999999995,0.09099999999999997,-0.03166666666666629,-0.02833333333332888,1.5873333333333335,1.5675,37.787,29.572,37.461,34.5045,56.464,35.05,59.105000000000004,51.827,54.385,34.1685,57.725,50.174,53.559,33.703,57.674,49.59,-0.13850000000000007,-0.0625,0.10598,0.09974500000000001,0.0,209.265,209.26999999999998,206.24666666666667,206.24666666666667,0.0,0.0
10,0.0,1.0,0.0,1.0,1.0,0.0,0.0,1.0,0.0,100.0,1.0,1.1856,26.0,0.0,0.0,0.0,59.999996,0.0,26.0,26.0,26.0,26.0,0.004555555555555646,0.3036000000000001,0.23816,290.924,-2.6139,-2.6466250000000002,-1.5431,-1.535125,-242.48,216.115,190.786875,0.0,0.0,0.0,0.0,0.02089999999999992,-5.498166666666667,-5.498166666666667,-0.5844,-0.9166666666666666,0.0129999999999999,1.208,66.967,-0.0033,-0.281175,-0.4299999999999997,100.0,1.0,1.0,206.49,0.0,0.0,0.0,0.0,0.0,0.0,0.0,8752.4,0.0,55.0,5.0,241.05333333333334,0.0,0.0,0.0,0.0,0.0,0.0,1.0,0.0,0.5040000000000013,0.5040000000000013,0.0,0.0,0.0,55.0,616.79921,10000.0,85.000001,85.000001,85.000001,85.000001,395.0,0.0,0.0,0.0,1.0,166.665,49.408,49.408,47.287,47.287,34.0,-20.705,22.6,-29.96,30.2425,0.0,1781.592,-0.5599999999999987,100.0,31.446,31.189,43.104,43.036,0.0,1.0,100.0,0.0,0.0,0.0,0.0,3007.833333333333,3019.6,4273.375,4303.3,305.868,305.36325,314.308,314.07925,21.8958,20.5769,21.8443,21.3699,314.999998,314.999998,324.999988,324.999988,99.55982857142857,99.50763333333333,99.56554285714286,99.54537142857143,0.11175000000000024,-0.06574999999999998,-0.10766666666666658,0.11299999999999999,-0.054999999999999716,-0.05333333333332746,1.4636666666666667,1.4475,37.849000000000004,29.605333333333334,37.527,34.562,56.453,35.088,59.147,51.8925,54.373999999999995,34.204,57.7645,50.2365,53.547,33.7365,57.710499999999996,49.651666666666664,-0.14649999999999985,-0.06199999999999983,0.09962000000000001,0.11155000000000001,0.0,209.72500000000002,209.74,206.49,206.49,0.0,0.0
11,0.0,1.0,0.0,1.0,1.0,0.0,0.0,1.0,0.0,100.0,1.0,1.1856,26.0,0.0,0.0,0.0,59.999996,0.0,26.0,26.0,26.0,26.0,0.041888888888888864,0.274,0.19394000000000003,291.458,-2.6605,-2.622625,-1.6001,-1.5190000000000001,-238.86,216.085,190.764875,0.0,0.0,0.0,0.0,0.022599999999999953,-5.498166666666667,-5.498166666666667,-0.6291,-0.46366666666666667,0.039555555555555566,-0.42500000000000027,67.114,0.0132,-0.310825,-0.597999999999999,100.0,1.0,1.0,207.25,0.0,0.0,0.0,0.0,0.0,0.0,0.0,8784.6,0.0,55.0,5.0,241.58333333333334,1.0,0.0,0.0,0.0,0.0,0.0,1.0,0.0,0.5579999999999998,0.5579999999999998,0.0,0.0,1.0,55.0,616.79921,10000.0,85.000001,85.000001,85.000001,85.000001,395.0,0.0,0.0,0.0,1.0,166.665,48.737,48.737,48.935,48.935,34.0,-21.47,25.951666666666668,-23.936666666666667,26.91,0.0,1781.537,-0.6699999999999982,100.0,31.257,31.393,42.498000000000005,42.925,0.0,1.0,100.0,0.0,0.0,0.0,0.0,3164.0,3268.4,3713.25,3891.9,305.416,304.515,315.8346666666667,315.16325,21.906,20.5827,21.8552,21.3795,314.999998,314.999998,324.999988,324.999988,99.55984285714285,99.50763333333333,99.56568571428572,99.54551428571429,0.13275000000000015,-0.03674999999999995,-0.08166666666666655,0.13450000000000006,-0.051666666666669414,-0.06499999999999773,1.637,1.6015000000000001,37.912,29.642,37.595,34.6215,56.439,35.129,59.184,51.957499999999996,54.361000000000004,34.242,57.7985,50.2995,53.532,33.7735,57.7415,49.71333333333333,-0.15399999999999991,-0.04999999999999982,0.09799500000000001,0.10456000000000001,0.0,210.17000000000002,210.21,207.25,207.25,0.0,0.0
12,0.0,1.0,0.0,1.0,1.0,0.0,0.0,1.0,0.0,100.0,1.0,1.1856,26.0,0.0,0.0,0.0,59.999996,0.0,26.0,26.0,26.0,26.0,0.04755555555555557,0.26049999999999995,-0.20570000000000002,290.894,-2.7018,-2.62025,-1.5542,-1.5275,-235.84,216.0625,190.745375,0.0,0.0,0.0,0.0,0.025466666666666526,-5.498166666666667,-5.498166666666667,-0.6142000000000001,0.661,0.01866666666666661,-0.2400000000000002,67.242,0.0281,-0.28750000000000003,-0.742,100.0,1.0,1.0,207.41,0.0,0.0,0.0,0.0,0.0,0.0,0.0,8791.4,0.0,55.0,5.0,242.04333333333335,0.0,0.0,0.0,0.0,0.0,0.0,1.0,0.0,0.602999999999998,0.602999999999998,0.0,0.0,0.0,55.0,616.79921,10000.0,85.000001,85.000001,85.000001,85.000001,395.0,0.0,0.0,0.0,1.0,333.33500000000004,48.706,48.706,47.638,47.638,34.0,-20.85,24.866666666666667,-28.019999999999996,30.900000000000002,0.0,1781.491,-0.6799999999999997,100.0,31.558,31.843,42.457,42.782,0.0,1.0,100.0,0.0,0.0,0.0,0.0,3023.166666666667,3082.7,4250.875,4219.8,305.5595,304.82625,314.534,314.41175,21.9144,20.5876,21.8644,21.3874,314.999998,314.999998,324.999988,324.999988,99.55985714285714,99.50765,99.56581428571428,99.54565714285714,0.13724999999999987,-0.02849999999999997,-0.08166666666666655,0.14916666666666667,-0.01666666666666572,-0.041666666666671404,1.533,1.5070000000000001,37.965,29.672666666666665,37.652,34.671,56.428,35.163,59.2195,52.0125,54.351,34.272999999999996,57.8315,50.352000000000004,53.522,33.8035,57.7715,49.76466666666666,-0.15049999999999986,-0.045500000000000096,0.11191500000000001,0.09771,0.0,210.55,210.61,207.41,207.41,0.0,0.0
13,0.0,1.0,0.0,1.0,1.0,0.0,0.0,1.0,0.0,100.0,1.0,1.1856,26.0,0.0,0.0,0.0,59.999996,0.0,26.0,26.0,26.0,26.0,0.07655555555555571,0.30790000000000006,0.24772,290.421,-2.6828,-2.616375,-1.6294,-1.5105,-232.41,216.0375,190.7235,0.0,0.0,0.0,0.0,0.026766666666666605,-5.498166666666667,-5.498166666666667,-0.608,-0.4403333333333333,0.024777777777777787,0.2869999999999999,67.384,0.0385,-0.291775,-0.8099999999999996,100.0,1.0,1.0,207.8,0.0,0.0,0.0,0.0,0.0,0.0,0.0,8807.9,0.0,55.0,5.0,242.55666666666667,1.0,0.0,0.0,0.0,0.0,0.0,1.0,0.0,0.6539999999999999,0.6539999999999999,0.0,0.0,1.0,55.0,616.79921,10000.0,85.000001,85.000001,85.000001,85.000001,395.0,0.0,0.0,0.0,1.0,333.33500000000004,48.248,48.248,47.516,47.516,34.0,-20.91,27.181666666666665,-27.626666666666665,32.265,0.0,1781.44,-0.8399999999999999,100.0,31.626,31.802,42.855000000000004,43.387,0.0,1.0,100.0,0.0,0.0,0.0,0.0,3241.166666666667,3268.9,4181.375,4324.0,305.17,304.54375,314.633,314.0685,21.9242,20.5933,21.8749,21.3966,314.999998,314.999998,324.999988,324.999988,99.55987142857143,99.50765,99.56595714285714,99.54578571428571,0.16349999999999998,-0.006249999999999978,-0.059666666666666646,0.15533333333333332,-0.04999999999999716,-0.061666666666667425,1.4903333333333333,1.4635,38.025999999999996,29.708,37.718,34.7285,56.419,35.201499999999996,59.259,52.0775,54.342,34.309,57.8685,50.414500000000004,53.512,33.838,57.8055,49.82633333333334,-0.16649999999999987,-0.035499999999999865,0.10085500000000001,0.10672500000000001,0.0,211.005,211.04500000000002,207.8,207.8,0.0,0.0
14,0.0,1.0,0.0,1.0,1.0,0.0,0.0,1.0,0.0,100.0,1.0,1.1856,26.0,0.0,0.0,0.0,59.999996,0.0,26.0,26.0,26.0,26.0,0.09866666666666668,0.26350000000000007,-0.2687,290.634,-2.6748,-2.5561249999999998,-1.60195,-1.51625,-228.97,216.015,190.70225,0.0,0.0,0.0,0.0,0.028766666666666607,-5.498166666666667,-5.498166666666667,-0.6178,0.16233333333333336,0.05077777777777781,0.6399999999999999,67.524,0.0492,-0.311375,-0.9539999999999997,100.0,1.0,1.0,208.30333333333334,0.0,0.0,0.0,0.0,0.0,0.0,0.0,8829.2,0.0,55.0,5.0,243.05666666666667,0.0,0.0,0.0,0.0,0.0,0.0,1.0,0.0,0.7049999999999983,0.7049999999999983,0.0,0.0,0.0,55.0,616.79921,10000.0,85.000001,85.000001,85.000001,85.000001,395.0,0.0,0.0,0.0,1.0,333.33500000000004,48.37,48.37,47.729,47.729,34.0,-18.5275,26.241666666666667,-25.339999999999996,32.230000000000004,0.0,1781.389,-0.9649999999999999,100.0,31.979,32.191,42.775999999999996,43.514,0.0,1.0,100.0,0.0,0.0,0.0,0.0,2912.0,3158.7,4017.125,4223.2,305.8335,304.6105,315.05066666666664,314.394,21.933799999999998,20.5989,21.8853,21.4058,314.999998,314.999998,324.999988,324.999988,99.5599,99.50765,99.5661,99.54594285714286,0.16725000000000012,0.0012499999999999734,-0.0528333333333334,0.17883333333333318,-0.02499999999999858,-0.021666666666668277,1.5546666666666666,1.5305,38.087,29.743000000000002,37.783,34.786,56.41,35.239,59.297,52.141999999999996,54.333,34.344,57.9035,50.4765,53.501000000000005,33.8715,57.8375,49.887,-0.16949999999999998,-0.026000000000000245,0.10747000000000001,0.11080500000000001,0.0,211.405,211.46,208.30333333333334,208.30333333333334,0.0,0.0
15,0.0,1.0,0.0,1.0,1.0,0.0,0.0,1.0,0.0,100.0,1.0,1.1856,26.0,0.0,0.0,0.0,59.999996,0.0,26.0,26.0,26.0,26.0,0.11244444444444435,0.27090000000000014,-0.26002,290.588,-2.6484,-2.51275,-1.6329,-1.458875,-225.72,215.995,190.681875,0.0,0.0,0.0,0.0,0.0306333333333334,-5.498166666666667,-5.498166666666667,-0.6113000000000001,0.7613333333333334,0.08111111111111113,0.6679999999999999,67.655,0.061900000000000004,-0.29707500000000003,-1.177999999999999,100.0,1.0,1.0,208.7,0.0,0.0,0.0,0.0,0.0,0.0,0.0,8846.1,0.0,55.0,5.0,243.53,1.0,0.0,0.0,0.0,0.0,0.0,1.0,0.0,0.7530000000000001,0.7530000000000001,0.0,0.0,1.0,55.0,616.79921,10000.0,85.000001,85.000001,85.000001,85.000001,395.0,0.0,0.0,0.0,1.0,166.665,48.416,48.416,47.76,47.76,34.0,-16.9725,26.27,-24.926666666666662,33.8825,0.0,1781.342,-1.0,100.0,32.018,32.314,42.557,43.56,0.0,1.0,100.0,0.0,0.0,0.0,0.0,2811.166666666667,3158.8,3993.25,4399.4,306.0855,304.58675,315.14933333333335,314.00425,21.943,20.6042,21.8951,21.4143,314.999998,314.999998,324.999988,324.999988,99.55991428571429,99.50765,99.56622857142857,99.54608571428571,0.18299999999999983,0.010499999999999954,-0.040999999999999925,0.19333333333333336,-0.03333333333333144,-0.01833333333333087,1.5526666666666666,1.506,38.143,29.776333333333334,37.844,34.8395,56.402,35.275,59.3315,52.202,54.325,34.3775,57.935,50.5345,53.492000000000004,33.903999999999996,57.866,49.943666666666665,-0.1775,-0.021500000000000075,0.10674000000000002,0.10899,0.0,211.835,211.9,208.7,208.7,0.0,0.0
16,0.0,1.0,0.0,1.0,1.0,0.0,0.0,1.0,0.0,100.0,1.0,1.1856,26.0,0.0,0.0,0.0,59.999996,0.0,26.0,26.0,26.0,26.0,0.12955555555555565,0.27490000000000014,0.22032,290.68,-2.7549,-2.545,-1.6108500000000001,-1.4535,-222.26999999999998,215.975,190.659875,0.0,0.0,0.0,0.0,0.0326333333333334,-5.498166666666667,-5.498166666666667,-0.6282,-1.0956666666666668,0.07455555555555571,-0.40200000000000014,67.795,0.076,-0.304025,-1.2439999999999998,100.0,1.0,1.0,209.13333333333333,0.0,0.0,0.0,0.0,0.0,0.0,0.0,8864.4,0.0,55.0,5.0,244.03666666666666,0.0,0.0,0.0,0.0,0.0,0.0,1.0,0.0,0.8039999999999985,0.8039999999999985,0.0,0.0,0.0,55.0,616.79921,10000.0,85.000001,85.000001,85.000001,85.000001,395.0,0.0,0.0,0.0,1.0,166.665,48.538,48.538,47.47,47.47,34.0,-19.294999999999998,28.225,-23.516666666666666,33.075,0.0,1781.292,-0.879999999999999,100.0,31.136,32.150999999999996,42.859,43.823,0.0,1.0,100.0,0.0,0.0,0.0,0.0,3095.0,3342.5,3947.0,4194.9,305.7255,304.336,315.203,314.4085,21.9524,20.6099,21.9055,21.4235,314.999998,314.999998,324.999988,324.999988,99.55994285714286,99.50766666666667,99.56637142857143,99.54622857142857,0.18800000000000017,0.016750000000000043,-0.02300000000000002,0.21183333333333332,-0.04999999999999716,-0.054999999999999716,1.5393333333333334,1.495,38.202,29.811999999999998,37.91,34.897,56.391,35.314,59.3705,52.2665,54.314,34.4135,57.9715,50.5965,53.480000000000004,33.9385,57.899,50.004999999999995,-0.17399999999999993,-0.03049999999999997,0.10185500000000001,0.114405,0.0,212.235,212.32,209.13333333333333,209.13333333333333,0.0,0.0
17,0.0,1.0,0.0,1.0,1.0,0.0,0.0,1.0,0.0,100.0,1.0,1.1856,26.0,0.0,0.0,0.0,59.999996,0.0,26.0,26.0,26.0,26.0,0.11544444444444446,0.26760000000000006,-0.28564,290.48199999999997,-2.7077999999999998,-2.50225,-1.6468,-1.4775,-218.81,215.9625,190.6375,0.0,0.0,0.0,0.0,0.03466666666666651,-5.498166666666667,-5.498166666666667,-0.6157,0.9846666666666667,0.05111111111111111,-0.16500000000000004,67.934,0.0824,-0.2881,-1.1679999999999993,100.0,1.0,1.0,209.5366666666667,0.0,0.0,0.0,0.0,0.0,0.0,0.0,8881.5,0.0,55.0,5.0,244.53,1.0,0.0,0.0,0.0,0.0,0.0,1.0,0.0,0.8550000000000004,0.8550000000000004,0.0,0.0,1.0,55.0,616.79921,10000.0,85.000001,85.000001,85.000001,85.000001,395.0,0.0,0.0,0.0,1.0,166.665,48.431,48.431,47.485,47.485,34.0,-18.12,25.715,-26.03,34.1475,0.0,1781.24,-0.9050000000000011,100.0,31.848,32.467,42.519,43.753,0.0,1.0,100.0,0.0,0.0,0.0,0.0,2961.333333333333,3059.4,4242.625,4307.8,305.747,304.90575,314.65833333333336,314.262,21.9621,20.6157,21.9158,21.4326,314.999998,314.999998,324.999988,324.999988,99.55995714285714,99.50766666666667,99.56651428571429,99.54638571428572,0.19125000000000014,0.022250000000000103,-0.024833333333333374,0.21133333333333337,-0.041666666666671404,-0.021666666666668277,1.5536666666666665,1.517,38.263,29.848333333333336,37.974000000000004,34.9535,56.384,35.354,59.406,52.33,54.307,34.4505,58.0045,50.6575,53.472,33.9745,57.929,50.065,-0.16849999999999987,-0.02950000000000008,0.10873500000000001,0.10997000000000001,0.0,212.695,212.76999999999998,209.5366666666667,209.5366666666667,0.0,0.0
18,0.0,1.0,0.0,1.0,1.0,0.0,0.0,1.0,0.0,100.0,1.0,1.1856,26.0,0.0,0.0,0.0,59.999996,0.0,26.0,26.0,26.0,26.0,0.13111111111111118,0.28269999999999995,0.24442,290.298,-2.7443,-2.47925,-1.6623999999999999,-1.425,-215.34,215.95,190.615,0.0,0.0,0.0,0.0,0.036666666666666514,-5.498166666666667,-5.498166666666667,-0.6299,-0.9176666666666666,0.07455555555555571,0.41900000000000004,68.072,0.0838,-0.3005,-1.2479999999999993,100.0,1.0,1.0,209.96333333333334,0.0,0.0,0.0,0.0,0.0,0.0,0.0,8899.6,0.0,55.0,5.0,245.03333333333336,0.0,0.0,0.0,0.0,0.0,0.0,1.0,0.0,0.9059999999999988,0.9059999999999988,0.0,0.0,0.0,55.0,616.79921,10000.0,85.000001,85.000001,85.000001,85.000001,395.0,0.0,0.0,0.0,1.0,166.665,48.05,48.05,47.287,47.287,34.0,-18.7175,29.82,-24.476666666666667,32.832499999999996,0.0,1781.189,-1.1649999999999991,100.0,31.435,32.186,42.94,44.161,0.0,1.0,100.0,0.0,0.0,0.0,0.0,3183.166666666667,3472.6,4023.5,4219.4,305.4495,304.01275,315.06333333333333,314.392,21.9716,20.6214,21.9263,21.4418,314.999998,314.999998,324.999988,324.999988,99.55998571428572,99.50768333333333,99.56667142857142,99.54652857142857,0.21275000000000022,0.03974999999999995,-0.01849999999999996,0.21133333333333337,-0.060000000000002274,-0.05333333333332746,1.5463333333333333,1.4935,38.322,29.883666666666667,38.04,35.0115,56.375,35.393,59.445499999999996,52.3955,54.299,34.487,58.041,50.7205,53.462,34.0095,57.9625,50.127,-0.19399999999999995,-0.015000000000000124,0.10501,0.11118000000000001,0.0,213.085,213.17000000000002,209.96333333333334,209.96333333333334,0.0,0.0
19,0.0,1.0,0.0,1.0,1.0,0.0,0.0,1.0,0.0,100.0,1.0,1.1856,26.0,0.0,0.0,0.0,59.999996,0.0,26.0,26.0,26.0,26.0,0.1671111111111112,0.2743,-0.14322000000000001,289.81,-2.6623,-2.5772500000000003,-1.6794,-1.405375,-211.86,215.9425,190.592375,0.0,0.0,0.0,0.0,0.03869999999999996,-5.498166666666667,-5.498166666666667,-0.6137,1.373,0.08655555555555572,0.22299999999999986,68.209,0.0925,-0.29207500000000003,-1.6660000000000004,100.0,1.0,1.0,210.32666666666665,0.0,0.0,0.0,0.0,0.0,0.0,0.0,8915.0,0.0,55.0,5.0,245.52333333333334,1.0,0.0,0.0,0.0,0.0,0.0,1.0,0.0,0.9570000000000007,0.9570000000000007,0.0,0.0,1.0,55.0,616.79921,10000.0,85.000001,85.000001,85.000001,85.000001,395.0,0.0,0.0,0.0,1.0,166.665,47.623,47.623,46.936,46.936,34.0,-15.997499999999999,30.325,-25.32,36.475,0.0,1781.138,-1.5199999999999996,100.0,32.087,32.819,42.638,44.147000000000006,0.0,1.0,100.0,0.0,0.0,0.0,0.0,3001.666666666667,3294.3,4245.875,4541.1,305.518,303.9895,314.62766666666664,313.712,21.9813,20.6274,21.9366,21.451,314.999998,314.999998,324.999988,324.999988,99.56001428571429,99.50768333333333,99.5668,99.54667142857143,0.238,0.053749999999999964,-0.0013333333333332975,0.22766666666666668,-0.03333333333333144,-0.030000000000001137,1.5443333333333333,1.4705,38.382999999999996,29.921,38.104,35.069,56.370999999999995,35.4365,59.4815,52.46,54.294,34.5275,58.074,50.783500000000004,53.457,34.048500000000004,57.9925,50.18866666666666,-0.21649999999999991,0.008499999999999952,0.09865,0.10609500000000001,0.0,213.525,213.655,210.32666666666665,210.32666666666665,0.0,0.0
20,0.0,1.0,0.0,1.0,1.0,0.0,0.0,1.0,0.0,100.0,1.0,1.1856,26.0,0.0,0.0,0.0,59.999996,0.0,26.0,26.0,26.0,26.0,0.20133333333333336,0.29300000000000015,0.22186,290.283,-2.7807,-2.519,-1.6167500000000001,-1.5170000000000001,-208.38,215.94,190.570125,0.0,0.0,0.0,0.0,0.0407333333333334,-5.498166666666667,-5.498166666666667,-0.6231,-1.7273333333333334,0.09933333333333327,0.06099999999999994,68.348,0.10840000000000001,-0.3009,-1.9699999999999998,100.0,1.0,1.0,210.69666666666666,0.0,0.0,0.0,0.0,0.0,0.0,0.0,8930.7,0.0,55.0,5.0,246.02666666666664,0.0,0.0,0.0,0.0,0.0,0.0,0.0,0.0,1.0079999999999991,1.0079999999999991,0.0,0.0,0.0,55.0,616.79921,10000.0,85.000001,85.000001,85.000001,85.000001,395.0,0.0,0.0,0.0,1.0,166.665,48.706,48.706,46.661,46.661,34.0,-16.6475,30.52,-22.22333333333333,36.9025,0.0,1781.088,-1.370000000000001,100.0,30.951999999999998,32.326,43.185,44.756,0.0,1.0,100.0,0.0,0.0,0.0,0.0,2995.666666666667,3354.5,4023.875,4303.2,306.0295,304.3325,314.944,314.04325,21.9906,20.6331,21.9472,21.4604,314.999998,314.999998,324.999988,324.999988,99.56004285714286,99.50768333333333,99.56694285714286,99.54682857142858,0.23824999999999985,0.07299999999999995,0.01766666666666672,0.23883333333333323,-0.060000000000002274,-0.05666666666667197,1.5173333333333334,1.434,38.441,29.957,38.17,35.1275,56.361999999999995,35.478,59.5215,52.527,54.285,34.566,58.1115,50.848,53.446,34.085499999999996,58.0265,50.252,-0.20950000000000002,0.009500000000000064,0.11174,0.098445,0.0,213.89499999999998,214.05,210.69666666666666,210.69666666666666,0.0,0.0
21,0.0,1.0,0.0,1.0,1.0,0.0,0.0,1.0,0.0,100.0,1.0,1.1856,26.0,0.0,0.0,0.0,59.999996,0.0,26.0,26.0,26.0,26.0,0.16366666666666685,0.2614000000000001,-0.3524,290.619,-2.6941,-2.5638750000000003,-1.6802000000000001,-1.474625,-205.3,215.94,190.54975,0.0,0.0,0.0,0.0,0.04249999999999998,-5.498166666666667,-5.498166666666667,-0.645,0.8623333333333334,0.08266666666666667,-0.7240000000000002,68.463,0.12490000000000001,-0.30935,-1.532,100.0,1.0,1.0,211.29333333333335,0.0,0.0,0.0,0.0,0.0,0.0,0.0,8955.9,0.0,55.0,5.0,246.44,1.0,0.0,0.0,0.0,0.0,0.0,0.0,0.0,1.0530000000000008,1.0530000000000008,0.0,0.0,1.0,55.0,616.79921,10000.0,85.000001,85.000001,85.000001,85.000001,395.0,0.0,0.0,0.0,1.0,333.33500000000004,48.203,48.203,48.004,48.004,34.0,-18.425,27.125,-21.116666666666667,34.135000000000005,0.0,1781.041,-0.28500000000000014,100.0,31.58,32.758,42.328,44.254000000000005,0.0,1.0,100.0,0.0,0.0,0.0,0.0,2947.833333333333,3191.5,3924.5,4082.0,305.732,304.40175,315.4186666666667,314.778,21.9989,20.6383,21.9562,21.4684,314.999998,314.999998,324.999988,324.999988,99.56007142857143,99.5077,99.56707142857142,99.54697142857142,0.1807500000000002,0.009000000000000119,0.030000000000000027,0.2603333333333333,-0.03833333333332689,-0.03499999999999659,1.643,1.5715,38.492999999999995,29.989666666666665,38.226,35.1775,56.355000000000004,35.515,59.55,52.5815,54.278999999999996,34.6005,58.1375,50.9005,53.439,34.119,58.0495,50.304,-0.13050000000000006,-0.06999999999999984,0.10099000000000001,0.111695,0.0,214.305,214.41,211.29333333333335,211.29333333333335,0.0,0.0
22,0.0,1.0,0.0,1.0,1.0,0.0,0.0,1.0,0.0,100.0,1.0,1.1856,26.0,0.0,0.0,0.0,59.999996,0.0,26.0,26.0,26.0,26.0,0.12477777777777788,0.29080000000000017,0.22344000000000003,289.993,-2.669,-2.581375,-1.66035,-1.481375,-201.81,215.945,190.525875,0.0,0.0,0.0,0.0,0.044533333333333314,-5.498166666666667,-5.498166666666667,-0.6249,-0.41100000000000003,0.07266666666666666,0.0,68.602,0.1095,-0.281575,-0.22999999999999954,100.0,1.0,1.0,211.49333333333334,0.0,0.0,0.0,0.0,0.0,0.0,0.0,8964.5,0.0,55.0,5.0,246.94333333333333,0.0,0.0,0.0,0.0,0.0,0.0,0.0,0.0,1.1039999999999992,1.1039999999999992,0.0,0.0,0.0,55.0,616.79921,10000.0,85.000001,85.000001,85.000001,85.000001,395.0,0.0,0.0,0.0,1.0,333.33500000000004,48.111000000000004,48.111000000000004,46.783,46.783,34.0,-20.7,25.72,-25.443333333333335,34.555,0.0,1780.99,0.625,100.0,31.599,32.563,42.929,44.516000000000005,0.0,1.0,100.0,0.0,0.0,0.0,0.0,3051.0,3305.9,4196.125,4338.4,305.693,304.35,314.637,314.118,22.0084,20.6441,21.9667,21.4777,314.999998,314.999998,324.999988,324.999988,99.56008571428572,99.5077,99.56722857142857,99.54711428571429,0.13474999999999993,-0.04299999999999993,-0.007833333333333359,0.20416666666666683,-0.051666666666669414,-0.08500000000000085,1.478,1.4615,38.552,30.026,38.292,35.2355,56.344,35.555,59.59,52.6475,54.269,34.6375,58.1745,50.964,53.427,34.1545,58.0835,50.366,-0.05800000000000005,-0.14449999999999985,0.10307500000000001,0.103355,0.0,214.78,214.825,211.49333333333334,211.49333333333334,0.0,0.0
23,0.0,1.0,0.0,1.0,1.0,0.0,0.0,1.0,0.0,100.0,1.0,1.1856,26.0,0.0,0.0,0.0,59.999996,0.0,26.0,26.0,26.0,26.0,0.030888888888888966,0.24570000000000003,-0.24818000000000004,289.902,-2.6669,-2.5564999999999998,-1.5599500000000002,-1.5718750000000001,-198.31,215.9525,190.502375,0.0,0.0,0.0,0.0,0.046566666666666534,-5.498166666666667,-5.498166666666667,-0.6453,0.07466666666666667,0.04055555555555568,-0.7829999999999999,68.736,0.0585,-0.31880000000000003,0.8360000000000003,100.0,1.0,1.0,212.0,0.0,0.0,0.0,0.0,0.0,0.0,0.0,8985.9,0.0,55.0,5.0,247.42333333333335,1.0,0.0,0.0,0.0,0.0,0.0,0.0,0.0,1.1550000000000011,1.1550000000000011,0.0,0.0,1.0,55.0,616.79921,10000.0,85.000001,85.000001,85.000001,85.000001,395.0,0.0,0.0,0.0,1.0,333.33500000000004,47.394,47.394,47.668,47.668,34.0,-24.4525,22.361666666666665,-25.856666666666662,29.9225,0.0,1780.938,0.8500000000000014,100.0,32.27,32.859,43.264,44.539,0.0,1.0,100.0,0.0,0.0,0.0,0.0,3281.5,3118.1,3999.875,4017.3,304.767,304.67675,315.1023333333333,314.8275,22.0179,20.65,21.9772,21.4869,314.999998,314.999998,324.999988,324.999988,99.5601,99.5077,99.56737142857143,99.54725714285715,0.09949999999999992,-0.08324999999999994,-0.0741666666666666,0.15316666666666667,-0.01833333333333087,-0.011666666666670267,1.5286666666666666,1.548,38.611999999999995,30.062333333333335,38.358000000000004,35.293,56.332,35.5965,59.6275,52.7115,54.257,34.676,58.2095,51.0255,53.414,34.1915,58.115,50.42666666666666,-0.03949999999999987,-0.16999999999999993,0.102675,0.10227000000000001,0.0,215.2,215.125,212.0,212.0,0.0,0.0
24,0.0,1.0,0.0,1.0,1.0,0.0,0.0,1.0,0.0,100.0,1.0,1.1856,26.0,0.0,0.0,0.0,59.999996,0.0,26.0,26.0,26.0,26.0,-0.04055555555555557,0.26890000000000014,-0.30662,290.222,-2.6607,-2.5955000000000004,-1.5830000000000002,-1.535625,-195.0,215.96,190.479875,0.0,0.0,0.0,0.0,0.04849999999999999,-5.498166666666667,-5.498166666666667,-0.6445000000000001,0.04,0.02344444444444438,-0.2360000000000002,68.864,0.0053,-0.301925,1.1400000000000006,100.0,1.0,1.0,212.31,0.0,0.0,0.0,0.0,0.0,0.0,0.0,8999.0,0.0,55.0,5.0,247.88,0.0,0.0,0.0,0.0,0.0,0.0,0.0,0.0,1.2029999999999994,1.2029999999999994,0.0,0.0,0.0,55.0,616.79921,10000.0,85.000001,85.000001,85.000001,85.000001,395.0,0.0,0.0,0.0,1.0,166.665,48.737,48.737,46.631,46.631,34.0,-22.395,19.39333333333333,-33.17333333333333,27.7925,0.0,1780.891,0.8550000000000004,100.0,32.309,32.278,43.527,44.171,0.0,1.0,100.0,0.0,0.0,0.0,0.0,2874.0,2914.5,4403.125,4139.7,305.9965,305.3715,314.16333333333336,314.63625,22.0268,20.6552,21.987099999999998,21.4955,314.999998,314.999998,324.999988,324.999988,99.56011428571429,99.50771666666667,99.5675,99.5474,0.06199999999999983,-0.122,-0.1386666666666666,0.10116666666666685,-0.01666666666666572,-0.026666666666670835,1.484,1.533,38.668,30.095,38.42,35.347,56.318,35.635,59.664500000000004,52.769,54.244,34.7115,58.244,51.081,53.4,34.226,58.146,50.481,-0.03499999999999992,-0.1695000000000002,0.10503000000000001,0.11005000000000001,0.0,215.61,215.535,212.31,212.31,0.0,0.0
25,0.0,1.0,0.0,1.0,1.0,0.0,0.0,1.0,0.0,100.0,1.0,1.1856,26.0,0.0,0.0,0.0,59.999996,0.0,26.0,26.0,26.0,26.0,-0.0842222222222222,0.2652000000000001,0.19646,290.344,-2.7001,-2.596,-1.5686,-1.5675000000000001,-191.49,215.9675,190.45475,0.0,0.0,0.0,0.0,0.05053333333333332,-5.498166666666667,-5.498166666666667,-0.6782,-0.3933333333333333,-0.005555555555555536,-0.9950000000000001,68.995,-0.0422,-0.3039,1.4339999999999993,100.0,1.0,1.0,212.87,0.0,0.0,0.0,0.0,0.0,0.0,0.0,9022.8,0.0,55.0,5.0,248.35666666666668,1.0,0.0,0.0,0.0,0.0,0.0,0.0,0.0,1.2540000000000013,1.2540000000000013,0.0,0.0,1.0,55.0,616.79921,10000.0,85.000001,85.000001,85.000001,85.000001,395.0,0.0,0.0,0.0,1.0,333.33500000000004,47.928,47.928,47.592,47.592,34.0,-29.23,21.193333333333335,-30.68,24.31,0.0,1780.84,0.8150000000000013,100.0,31.929000000000002,31.893,43.598,43.566,0.0,1.0,100.0,0.0,0.0,0.0,0.0,3416.0,3320.4,4001.375,3958.6000000000004,304.812,304.46325,315.146,315.084,22.0363,20.6609,21.9976,21.5045,314.999998,314.999998,324.999988,324.999988,99.56011428571429,99.50773333333333,99.56765714285714,99.54754285714286,0.019000000000000128,-0.14300000000000002,-0.1708333333333334,0.056499999999999995,-0.07499999999999574,-0.05333333333332746,1.5343333333333335,1.6,38.727000000000004,30.130333333333333,38.485,35.403,56.302,35.6785,59.701499999999996,52.827,54.227999999999994,34.751999999999995,58.2785,51.137,53.384,34.265,58.178,50.535333333333334,-0.03499999999999992,-0.17249999999999988,0.10445000000000002,0.103855,0.0,216.065,215.94,212.87,212.87,0.0,0.0
26,0.0,1.0,0.0,1.0,1.0,0.0,0.0,1.0,0.0,100.0,1.0,1.1856,26.0,0.0,0.0,0.0,59.999996,0.0,26.0,26.0,26.0,26.0,-0.13688888888888895,0.28490000000000015,0.29548,289.215,-2.6206,-2.7045000000000003,-1.59295,-1.58625,-187.76,215.9725,190.4275,0.0,0.0,0.0,0.0,0.05269999999999997,-5.498166666666667,-5.498166666666667,-0.6306,0.2703333333333333,-0.05011111111111122,-0.2709999999999999,69.139,-0.07880000000000001,-0.267625,1.4380000000000006,100.0,1.0,1.0,213.03333333333333,0.0,0.0,0.0,0.0,0.0,0.0,0.0,9029.8,0.0,55.0,5.0,248.87333333333333,0.0,0.0,0.0,0.0,0.0,0.0,0.0,0.0,1.3079999999999998,1.3079999999999998,0.0,0.0,0.0,55.0,616.79921,10000.0,85.000001,85.000001,85.000001,85.000001,395.0,0.0,0.0,0.0,1.0,166.665,47.729,47.729,45.760999999999996,45.760999999999996,34.0,-28.6575,19.726666666666667,-39.733333333333334,26.87,0.0,1780.788,0.5899999999999999,100.0,32.744,32.157,44.433,43.761,0.0,1.0,100.0,0.0,0.0,0.0,0.0,3387.666666666667,3079.0,4661.375,4458.5,304.7115,305.08125,313.5686666666667,313.87325,22.0468,20.6669,22.0089,21.5142,314.999998,314.999998,324.999988,324.999988,99.56011428571429,99.50775,99.56781428571429,99.5477,0.014000000000000234,-0.16200000000000003,-0.2008333333333333,0.020333333333333314,-0.07333333333333059,-0.06499999999999773,1.4,1.45,38.792,30.168333333333333,38.555,35.464,56.289,35.7275,59.747,52.891999999999996,54.215,34.7975,58.321,51.1995,53.370000000000005,34.3085,58.217,50.596666666666664,-0.05400000000000005,-0.14849999999999985,0.105495,0.107115,0.0,216.56,216.42000000000002,213.03333333333333,213.03333333333333,0.0,0.0
27,0.0,1.0,0.0,1.0,1.0,0.0,0.0,1.0,0.0,100.0,1.0,1.1856,26.0,0.0,0.0,0.0,59.999996,0.0,26.0,26.0,26.0,26.0,-0.12611111111111106,0.2399,-0.2556,289.658,-2.5662,-2.6835,-1.5681,-1.669,-184.64,215.975,190.405875,0.0,0.0,0.0,0.0,0.05453333333333332,-5.498166666666667,-5.498166666666667,-0.6658000000000001,-0.8833333333333334,-0.06466666666666665,-0.2250000000000001,69.256,-0.0915,-0.32155,1.2220000000000013,100.0,1.0,1.0,213.49,0.0,0.0,0.0,0.0,0.0,0.0,0.0,9049.1,0.0,55.0,5.0,249.29333333333335,1.0,0.0,0.0,0.0,0.0,0.0,0.0,0.0,1.352999999999998,1.352999999999998,0.0,0.0,1.0,55.0,616.79921,10000.0,85.000001,85.000001,85.000001,85.000001,395.0,0.0,0.0,0.0,1.0,333.33500000000004,47.882,47.882,46.417,46.417,34.0,-26.9,18.333333333333332,-35.413333333333334,24.6175,0.0,1780.74,0.5150000000000006,100.0,32.949,32.195,45.056,44.051,0.0,1.0,100.0,0.0,0.0,0.0,0.0,3200.0,2938.8,4226.125,4032.6000000000004,305.012,305.30275,314.58366666666666,314.79825,22.0552,20.6718,22.0184,21.5224,314.999998,314.999998,324.999988,324.999988,99.56012857142858,99.50778333333334,99.56795714285714,99.54784285714285,0.008249999999999869,-0.17099999999999993,-0.21566666666666656,0.01750000000000007,-0.01999999999999602,-0.02833333333332888,1.473,1.534,38.845,30.198666666666668,38.614999999999995,35.515,56.272999999999996,35.768,59.788,52.95,54.201,34.835,58.3595,51.254999999999995,53.355000000000004,34.3445,58.251999999999995,50.650999999999996,-0.06549999999999989,-0.14000000000000012,0.101885,0.10838,0.0,216.8,216.72,213.49,213.49,0.0,0.0
28,0.0,1.0,0.0,1.0,1.0,0.0,0.0,1.0,0.0,100.0,1.0,1.1856,26.0,0.0,0.0,0.0,59.999996,0.0,26.0,26.0,26.0,26.0,-0.1356666666666666,0.28390000000000004,0.23186,289.749,-2.5892,-2.6731249999999998,-1.5171999999999999,-1.63025,-181.11,215.9725,190.38025,0.0,0.0,0.0,0.0,0.05656666666666654,-5.498166666666667,-5.498166666666667,-0.6732,0.262,-0.06933333333333369,0.22499999999999987,69.384,-0.09920000000000001,-0.296825,1.177999999999999,100.0,1.0,1.0,214.01666666666665,0.0,0.0,0.0,0.0,0.0,0.0,0.0,9071.4,0.0,55.0,5.0,249.76,0.0,0.0,0.0,0.0,0.0,0.0,0.0,0.0,1.404,1.404,0.0,0.0,0.0,55.0,616.79921,10000.0,85.000001,85.000001,85.000001,85.000001,395.0,0.0,0.0,0.0,1.0,166.665,47.455,47.455,47.226,47.226,34.0,-29.405,19.295,-33.57333333333334,23.900000000000002,0.0,1780.692,0.27500000000000213,100.0,33.068,32.068,44.488,43.441,0.0,1.0,100.0,0.0,0.0,0.0,0.0,3466.666666666667,3127.2,4120.875,4085.5,304.514,305.02025,314.849,314.787,22.065,20.6774,22.0287,21.5314,314.999998,314.999998,324.999988,324.999988,99.56012857142858,99.5078,99.5681,99.54798571428572,0.007000000000000117,-0.17125,-0.21783333333333332,0.01100000000000012,-0.06499999999999773,-0.07499999999999574,1.5143333333333335,1.5645,38.906,30.233666666666664,38.679,35.571,56.26,35.8105,59.8225,53.0035,54.189,34.874,58.3915,51.306,53.342,34.382,58.2815,50.70066666666666,-0.07699999999999996,-0.13100000000000023,0.10758000000000001,0.11100000000000002,0.0,217.29000000000002,217.18,214.01666666666665,214.01666666666665,0.0,0.0
29,0.0,1.0,0.0,1.0,1.0,0.0,0.0,1.0,0.0,100.0,1.0,1.1856,26.0,0.0,0.0,0.0,59.999996,0.0,26.0,26.0,26.0,26.0,-0.12177777777777776,0.24239999999999995,-0.1333,289.276,-2.5275,-2.723625,-1.5516,-1.609875,-177.57,215.9675,190.353875,0.0,0.0,0.0,0.0,0.058633333333333315,-5.498166666666667,-5.498166666666667,-0.6754,-0.2966666666666667,-0.06755555555555581,-0.03100000000000014,69.519,-0.09340000000000001,-0.30525,0.798,100.0,1.0,1.0,214.23666666666668,0.0,0.0,0.0,0.0,0.0,0.0,0.0,9080.7,0.0,55.0,5.0,250.24333333333334,1.0,0.0,0.0,0.0,0.0,0.0,0.0,0.0,1.4549999999999983,1.4549999999999983,0.0,0.0,1.0,55.0,616.79921,10000.0,85.000001,85.000001,85.000001,85.000001,395.0,0.0,0.0,0.0,1.0,333.33500000000004,47.409,47.409,46.082,46.082,34.0,-26.77,20.243333333333332,-36.15,26.0575,0.0,1780.639,0.1750000000000007,100.0,33.097,32.24,44.914,43.704,0.0,1.0,100.0,0.0,0.0,0.0,0.0,3311.0,3059.4,4356.375,4245.7,304.7065,304.83075,314.25,314.35575,22.0746,20.6829,22.0394,21.5407,314.999998,314.999998,324.999988,324.999988,99.56012857142858,99.50781666666667,99.56825714285715,99.54812857142858,0.02574999999999994,-0.15800000000000003,-0.2071666666666666,0.02849999999999997,-0.03333333333333144,-0.01999999999999602,1.4646666666666666,1.486,38.966,30.268333333333334,38.745999999999995,35.629,56.244,35.8535,59.866,53.0655,54.173,34.914,58.4325,51.3655,53.326,34.420500000000004,58.319,50.75866666666667,-0.09149999999999991,-0.1160000000000001,0.10461000000000001,0.11242500000000001,0.0,217.62,217.555,214.23666666666668,214.23666666666668,0.0,0.0
30,0.0,1.0,0.0,1.0,1.0,0.0,0.0,1.0,0.0,100.0,1.0,1.1856,26.0,0.0,0.0,0.0,59.999996,0.0,26.0,26.0,26.0,26.0,-0.10766666666666658,0.2581,-0.16612000000000002,288.94,-2.5892,-2.614125,-1.4945,-1.6665,-174.23000000000002,215.96,190.329,0.0,0.0,0.0,0.0,0.060566666666666547,-5.498166666666667,-5.498166666666667,-0.6689,1.3513333333333333,-0.06788888888888867,0.10599999999999987,69.64,-0.082,-0.3037,0.7200000000000006,100.0,1.0,1.0,214.67333333333335,0.0,0.0,0.0,0.0,0.0,0.0,0.0,9099.2,0.0,55.0,5.0,250.68,0.0,0.0,0.0,0.0,0.0,0.0,1.0,0.0,1.5030000000000001,1.5030000000000001,0.0,0.0,0.0,55.0,616.79921,10000.0,85.000001,85.000001,85.000001,85.000001,395.0,0.0,0.0,0.0,1.0,333.33500000000004,46.783,46.783,46.432,46.432,34.0,-28.2725,19.13,-34.79,27.2325,0.0,1780.59,0.054999999999999716,100.0,33.701,32.748,44.78,43.78,0.0,1.0,100.0,0.0,0.0,0.0,0.0,3448.666666666667,3013.9,4361.25,4262.3,304.254,304.9435,314.317,314.2725,22.084,20.6884,22.0492,21.5493,314.999998,314.999998,324.999988,324.999988,99.56012857142858,99.50783333333334,99.5684,99.54827142857143,0.03600000000000003,-0.15300000000000002,-0.19866666666666666,0.03283333333333327,-0.045000000000001705,-0.03166666666666629,1.4676666666666667,1.506,39.025,30.302666666666667,38.808,35.683,56.233999999999995,35.897999999999996,59.902,53.1215,54.164,34.955,58.466,51.4195,53.315,34.4595,58.35,50.811,-0.10349999999999993,-0.11249999999999982,0.10873000000000001,0.10739000000000001,0.0,218.055,217.97,214.67333333333335,214.67333333333335,0.0,0.0
31,0.0,1.0,0.0,1.0,1.0,0.0,0.0,1.0,0.0,100.0,1.0,1.1856,26.0,0.0,0.0,0.0,59.999996,0.0,26.0,26.0,26.0,26.0,-0.07944444444444443,0.26990000000000003,0.21994000000000002,289.047,-2.6673999999999998,-2.688625,-1.5853000000000002,-1.6560000000000001,-170.67000000000002,215.95,190.30325,0.0,0.0,0.0,0.0,0.06263333333333332,-5.498166666666667,-5.498166666666667,-0.6545000000000001,-1.1976666666666667,-0.05355555555555558,0.1279999999999999,69.772,-0.0632,-0.2947,0.29800000000000004,100.0,1.0,1.0,214.9766666666667,0.0,0.0,0.0,0.0,0.0,0.0,0.0,9112.1,0.0,55.0,5.0,251.15666666666667,1.0,0.0,0.0,0.0,0.0,0.0,1.0,0.0,1.5539999999999985,1.5539999999999985,0.0,0.0,1.0,55.0,616.79921,10000.0,85.000001,85.000001,85.000001,85.000001,395.0,0.0,0.0,0.0,1.0,166.665,47.623,47.623,45.197,45.197,34.0,-26.7075,21.155,-35.4,28.990000000000002,0.0,1780.541,0.0,100.0,32.936,32.514,45.381,44.454,0.0,1.0,100.0,0.0,0.0,0.0,0.0,3332.0,3123.3,4443.875,4245.9,305.117,304.997,314.0203333333333,314.38525,22.0935,20.6941,22.06,21.5587,314.999998,314.999998,324.999988,324.999988,99.56014285714286,99.50785,99.56855714285714,99.54841428571429,0.048249999999999904,-0.133,-0.16549999999999998,0.06783333333333319,-0.061666666666667425,-0.046666666666666856,1.442,1.4505,39.085,30.338,38.875,35.742,56.219,35.9415,59.946,53.184,54.15,34.9955,58.507,51.4795,53.3,34.498,58.388,50.86966666666667,-0.10949999999999993,-0.10400000000000009,0.10471000000000001,0.11071500000000001,0.0,218.41,218.38,214.9766666666667,214.9766666666667,0.0,0.0
32,0.0,1.0,0.0,1.0,1.0,0.0,0.0,1.0,0.0,100.0,1.0,1.1856,26.0,0.0,0.0,0.0,59.999996,0.0,26.0,26.0,26.0,26.0,-0.07722222222222219,0.25370000000000004,-0.34254,289.215,-2.5994,-2.682,-1.6142,-1.5582500000000001,-167.11,215.9375,190.277625,0.0,0.0,0.0,0.0,0.06469999999999998,-5.498166666666667,-5.498166666666667,-0.6797000000000001,0.497,-0.07422222222222219,-0.5020000000000002,69.898,-0.0502,-0.315375,0.27399999999999913,100.0,1.0,1.0,215.53333333333333,0.0,0.0,0.0,0.0,0.0,0.0,0.0,9135.7,0.0,55.0,5.0,251.60666666666668,0.0,0.0,0.0,0.0,0.0,0.0,1.0,0.0,1.6050000000000004,1.6050000000000004,0.0,0.0,0.0,55.0,616.79921,10000.0,85.000001,85.000001,85.000001,85.000001,395.0,0.0,0.0,0.0,1.0,333.33500000000004,47.043,47.043,46.402,46.402,34.0,-25.3925,21.481666666666666,-33.01,26.1925,0.0,1780.488,-0.08500000000000085,100.0,33.41,32.943,44.8,44.137,0.0,1.0,100.0,0.0,0.0,0.0,0.0,3298.166666666667,3049.4,4237.625,4152.7,304.7735,304.9115,314.71,314.72425,22.1031,20.6999,22.0703,21.5678,314.999998,314.999998,324.999988,324.999988,99.56014285714286,99.50786666666667,99.56871428571428,99.54857142857144,0.06800000000000006,-0.11775000000000002,-0.16349999999999998,0.06633333333333336,-0.030000000000001137,-0.036666666666668846,1.5310000000000001,1.5630000000000002,39.144999999999996,30.374333333333333,38.94,35.799,56.206,35.988,59.985,53.246,54.137,35.0385,58.544,51.539,53.287,34.539500000000004,58.4215,50.928,-0.11599999999999988,-0.09600000000000009,0.10502,0.105325,0.0,218.79000000000002,218.78,215.53333333333333,215.53333333333333,0.0,0.0
33,0.0,1.0,0.0,1.0,1.0,0.0,0.0,1.0,0.0,100.0,1.0,1.1856,26.0,0.0,0.0,0.0,59.999996,0.0,26.0,26.0,26.0,26.0,-0.05611111111111111,0.27100000000000013,0.225,289.185,-2.6129,-2.6795,-1.54885,-1.63825,-163.54,215.9225,190.25075,0.0,0.0,0.0,0.0,0.06679999999999997,-5.498166666666667,-5.498166666666667,-0.6827000000000001,-0.8653333333333334,-0.06622222222222218,0.702,70.029,-0.034300000000000004,-0.297325,0.13400000000000034,100.0,1.0,1.0,215.81666666666666,0.0,0.0,0.0,0.0,0.0,0.0,0.0,9147.6,0.0,55.0,5.0,252.07999999999998,1.0,0.0,0.0,0.0,0.0,0.0,1.0,0.0,1.6559999999999988,1.6559999999999988,0.0,0.0,1.0,55.0,616.79921,10000.0,85.000001,85.000001,85.000001,85.000001,395.0,0.0,0.0,0.0,1.0,166.665,47.516,47.516,46.126999999999995,46.126999999999995,34.0,-25.265,21.994999999999997,-32.20666666666666,29.6725,0.0,1780.439,-0.129999999999999,100.0,33.047,32.425,44.952,44.344,0.0,1.0,100.0,0.0,0.0,0.0,0.0,3325.166666666667,3134.3,4263.5,4281.4,304.9965,305.01225,314.43266666666665,314.26375,22.1127,20.7055,22.0809,21.5771,314.999998,314.999998,324.999988,324.999988,99.56017142857142,99.50788333333334,99.56884285714285,99.54871428571428,0.07074999999999987,-0.11249999999999993,-0.14883333333333337,0.07916666666666683,-0.051666666666669414,-0.06666666666666998,1.4663333333333333,1.4595,39.204,30.409666666666666,39.004999999999995,35.857,56.193,36.025999999999996,60.0225,53.303,54.125,35.073499999999996,58.5785,51.594,53.274,34.573,58.453,50.98133333333333,-0.11850000000000005,-0.09549999999999992,0.10648,0.10635000000000001,0.0,219.195,219.19,215.81666666666666,215.81666666666666,0.0,0.0
34,0.0,1.0,0.0,1.0,1.0,0.0,0.0,1.0,0.0,100.0,1.0,1.1856,26.0,0.0,0.0,0.0,59.999996,0.0,26.0,26.0,26.0,26.0,-0.04366666666666663,0.27080000000000015,0.20606,289.536,-2.627,-2.62925,-1.6141,-1.594125,-160.18,215.91,190.224625,0.0,0.0,0.0,0.0,0.06873333333333331,-5.498166666666667,-5.498166666666667,-0.7152000000000001,-1.2113333333333334,-0.03100000000000014,0.6079999999999999,70.149,-0.0234,-0.3103,0.11599999999999966,100.0,1.0,1.0,216.25666666666666,0.0,0.0,0.0,0.0,0.0,0.0,0.0,9166.4,0.0,55.0,5.0,252.51333333333332,0.0,0.0,0.0,0.0,0.0,0.0,1.0,0.0,1.7040000000000006,1.7040000000000006,0.0,0.0,0.0,55.0,616.79921,10000.0,85.000001,85.000001,85.000001,85.000001,395.0,0.0,0.0,0.0,1.0,166.665,47.653,47.653,47.012,47.012,34.0,-24.3375,22.738333333333333,-30.426666666666662,28.1075,0.0,1780.391,-0.19000000000000128,100.0,32.885,32.167,44.638,44.382999999999996,0.0,1.0,100.0,0.0,0.0,0.0,0.0,3267.0,3186.5,4061.25,4161.3,305.0085,304.884,315.019,314.516,22.1215,20.7108,22.0906,21.5859,314.999998,314.999998,324.999988,324.999988,99.56017142857142,99.5079,99.569,99.54885714285714,0.08725000000000005,-0.09399999999999997,-0.1386666666666666,0.08333333333333326,-0.07000000000000028,-0.05333333333332746,1.5030000000000001,1.5110000000000001,39.259,30.442666666666668,39.066,35.911500000000004,56.181,36.0635,60.056,53.36,54.113,35.1085,58.61,51.6485,53.260999999999996,34.6065,58.4815,51.034666666666666,-0.11949999999999994,-0.08950000000000014,0.10332000000000001,0.10813500000000001,0.0,219.57,219.53,216.25666666666666,216.25666666666666,0.0,0.0
35,0.0,1.0,0.0,1.0,1.0,0.0,0.0,1.0,0.0,100.0,1.0,1.1856,26.0,0.0,0.0,0.0,59.999996,0.0,26.0,26.0,26.0,26.0,-0.023666666666666614,0.24140000000000006,-0.30408,289.612,-2.6339,-2.5915,-1.5867499999999999,-1.60125,-156.6,215.89249999999998,190.194625,0.0,0.0,0.0,0.0,0.0708333333333333,-5.498166666666667,-5.498166666666667,-0.7514000000000001,0.08266666666666668,-0.034666666666666845,-0.45299999999999985,70.275,-0.012,-0.31835,-0.05200000000000049,100.0,1.0,1.0,216.69666666666666,0.0,0.0,0.0,0.0,0.0,0.0,0.0,9185.0,0.0,55.0,5.0,252.96666666666667,1.0,0.0,0.0,0.0,0.0,0.0,1.0,0.0,1.754999999999999,1.754999999999999,0.0,0.0,1.0,55.0,616.79921,10000.0,85.000001,85.000001,85.000001,85.000001,395.0,0.0,0.0,0.0,1.0,333.33500000000004,47.394,47.394,46.509,46.509,34.0,-23.299999999999997,24.136666666666667,-29.403333333333336,28.0725,0.0,1780.34,-0.1999999999999993,100.0,32.65,32.682,44.302,43.944,0.0,1.0,100.0,0.0,0.0,0.0,0.0,3175.333333333333,3285.6,4076.25,4020.4,305.121,304.265,314.9526666666667,314.936,22.1307,20.7166,22.1009,21.595,314.999998,314.999998,324.999988,324.999988,99.56018571428571,99.50791666666667,99.56914285714285,99.54901428571429,0.09825000000000017,-0.08124999999999993,-0.12549999999999994,0.10899999999999999,-0.023333333333326323,-0.03499999999999659,1.548,1.5554999999999999,39.317,30.479,39.131,35.9685,56.166,36.1045,60.091499999999996,53.417500000000004,54.099999999999994,35.1465,58.643,51.704,53.247,34.643,58.5115,51.08833333333333,-0.11999999999999988,-0.08800000000000008,0.10877500000000001,0.10297500000000001,0.0,219.93,219.94,216.69666666666666,216.69666666666666,0.0,0.0
36,0.0,1.0,0.0,1.0,1.0,0.0,0.0,1.0,0.0,100.0,1.0,1.1856,26.0,0.0,0.0,0.0,59.999996,0.0,26.0,26.0,26.0,26.0,-0.019888888888888845,0.24950000000000006,-0.15526,288.788,-2.6866,-2.5702499999999997,-1.55435,-1.59575,-153.22,215.8775,190.165125,0.0,0.0,0.0,0.0,0.07279999999999998,-5.498166666666667,-5.498166666666667,-0.7275,0.7673333333333334,-0.07233333333333336,-0.7309999999999999,70.398,-0.0032,-0.28197500000000003,0.03200000000000003,100.0,1.0,1.0,216.84,0.0,0.0,0.0,0.0,0.0,0.0,0.0,9191.1,0.0,55.0,5.0,253.40666666666667,0.0,0.0,0.0,0.0,0.0,0.0,1.0,0.0,1.8030000000000008,1.8030000000000008,0.0,0.0,0.0,55.0,616.79921,10000.0,85.000001,85.000001,85.000001,85.000001,395.0,0.0,0.0,0.0,1.0,166.665,47.287,47.287,45.760999999999996,45.760999999999996,34.0,-24.38,22.176666666666666,-33.086666666666666,33.195,0.0,1780.293,-0.14000000000000057,100.0,33.089,32.97,44.399,44.235,0.0,1.0,100.0,0.0,0.0,0.0,0.0,3284.833333333333,3062.5,4548.875,4575.9,304.928,304.92925,313.8953333333333,313.649,22.1397,20.7222,22.1107,21.6037,314.999998,314.999998,324.999988,324.999988,99.5602,99.50791666666667,99.56928571428571,99.54914285714285,0.10349999999999993,-0.07899999999999996,-0.11883333333333335,0.10866666666666669,-0.01999999999999602,-0.03999999999999915,1.441,1.439,39.373000000000005,30.514,39.192,36.0235,56.156,36.1445,60.1275,53.4755,54.09,35.1835,58.6765,51.7595,53.236000000000004,34.679,58.542,51.143,-0.12199999999999989,-0.09299999999999997,0.11037500000000001,0.100985,0.0,220.35000000000002,220.335,216.84,216.84,0.0,0.0
