,ABS Active,ABS Enabled,AID Allow Tire Blankets,AID Auto Blip,AID Auto Clutch,AID Auto Shift,AID Fuel Rate,AID Ideal Line,AID Mech Damage,AID Stability,AID Tire Wear Rate,Air Density,Air Temp,Ballast,Best Lap Delta,Best Lap Time,Brake Bias,Brake Pos,Brake Temp FL,Brake Temp FR,Brake Temp RL,Brake Temp RR,CG Accel Lateral,CG Accel Longitudinal,CG Accel Vertical,CG Height,Camber FL,Camber FR,Camber RL,Camber RR,Car Coord X,Car Coord Y,Car Coord Z,Car Damage Front,Car Damage Left,Car Damage Rear,Car Damage Right,Car Pos Norm,Caster FL,Caster FR,Chassis Pitch Angle,Chassis Pitch Rate,Chassis Roll Angle,Chassis Roll Rate,Chassis Velocity X,Chassis Velocity Y,Chassis Velocity Z,Chassis Yaw Rate,Clutch Pos,DRS Active,DRS Available,Drive Train Speed,ERS Heat Charging,ERS Is Charging,ERS Max Energy,ERS Power Level,ERS Recovery Level,Engine Brake Setting,Engine Limiter,Engine RPM,Flags,Fuel Level,Gear,Ground Speed,HR Sample Clock,In Pit,KERS Charge,KERS Deployed Energy,KERS Input,KERS Max Energy,LR Sample Clock,Lap Invalidated,Lap Time,Lap Time2,Last Lap Time,Last Sector Time,MR Sample Clock,Max Fuel,Max Power,Max RPM,Max Sus Travel FL,Max Sus Travel FR,Max Sus Travel RL,Max Sus Travel RR,Max Torque,Max Turbo Boost,Num Tires Off Track,Penalties Enabled,Position,Raw Data Sample Rate,Ride Height FL,Ride Height FR,Ride Height RL,Ride Height RR,Road Temp,Self Align Torque FL,Self Align Torque FR,Self Align Torque RL,Self Align Torque RR,Session Lap Count,Session Time Left,Steering Angle,Surface Grip,Suspension Travel FL,Suspension Travel FR,Suspension Travel RL,Suspension Travel RR,TC Active,TC Enabled,Throttle Pos,Tire Dirt Level FL,Tire Dirt Level FR,Tire Dirt Level RL,Tire Dirt Level RR,Tire Load FL,Tire Load FR,Tire Load RL,Tire Load RR,Tire Loaded Radius FL,Tire Loaded Radius FR,Tire Loaded Radius RL,Tire Loaded Radius RR,Tire Pressure FL,Tire Pressure FR,Tire Pressure RL,Tire Pressure RR,Tire Radius FL,Tire Radius FR,Tire Radius RL,Tire Radius RR,Tire Rubber Grip FL,Tire Rubber Grip FR,Tire Rubber Grip RL,Tire Rubber Grip RR,Tire Slip Angle FL,Tire Slip Angle FR,Tire Slip Angle RL,Tire Slip Angle RR,Tire Slip Ratio FL,Tire Slip Ratio FR,Tire Slip Ratio RL,Tire Slip Ratio RR,Tire Temp Core FL,Tire Temp Core FR,Tire Temp Core RL,Tire Temp Core RR,Tire Temp Inner FL,Tire Temp Inner FR,Tire Temp Inner RL,Tire Temp Inner RR,Tire Temp Middle FL,Tire Temp Middle FR,Tire Temp Middle RL,Tire Temp Middle RR,Tire Temp Outer FL,Tire Temp Outer FR,Tire Temp Outer RL,Tire Temp Outer RR,Toe In FL,Toe In FR,Toe In RL,Toe In RR,Turbo Boost,Wheel Angular Speed FL,Wheel Angular Speed FR,Wheel Angular Speed RL,Wheel Angular Speed RR,Wind Direction,Wind Speed
0,0.0,1.0,0.0,1.0,1.0,0.0,0.0,1.0,0.0,100.0,1.0,1.1856,26.0,0.0,0.0,0.0,59.99999,0.0,26.0,26.0,26.0,26.0,-0.09288888888888891,0.2885,0.00975,291.397,-2.6424,-2.3991249999999997,-1.5146000000000002,-1.528,-275.79,216.1225,190.985625,0.0,0.0,0.0,0.0,0.0015333333333333865,-5.498166666666667,-5.498166666666667,-0.6551,1.6406666666666667,-0.002666666666666817,0.47900000000000004,65.532,-0.041,-0.339575,0.9100000000000001,100.0,1.0,1.0,202.32999999999998,0.0,0.0,0.0,0.0,0.0,0.0,0.0,8576.0,0.0,55.0,5.0,235.88666666666666,0.0,0.0,0.0,0.0,0.0,0.0,0.0,0.0,0.0030000000000001137,0.0030000000000001137,0.0,0.0,0.0,55.0,616.79921,10000.0,85.0,85.0,85.0,85.0,395.0,0.0,0.0,0.0,1.0,20.0,46.921,46.921,49.713,49.713,34.0,-25.427500000000002,21.536,-29.456666666666663,25.61,0.0,1783.731,0.8099999999999987,100.0,32.903,32.1685,40.453,40.258,0.0,1.0,100.0,0.0,0.0,0.0,0.0,3053.714285714286,3650.3,4042.5,4083.6000000000004,305.311,303.2993333333333,314.97,314.68175,21.79025,20.5305,21.7495,21.2851,314.99999,314.99999,324.99998,324.99998,99.55957142857143,99.50773333333333,99.56448571428571,99.54415714285715,0.025250000000000217,-0.1413333333333333,-0.15349999999999997,0.07316666666666682,-0.03499999999999659,-0.054999999999999716,1.5266666666666666,1.569,37.189,29.3155,36.934,34.032,56.525,34.792,58.8495,51.332499999999996,54.46,33.9365,57.489,49.702,53.656,33.4845,57.4595,49.129,-0.04400000000000004,-0.16300000000000026,0.10078000000000001,0.10729000000000001,0.0,205.365,205.29000000000002,202.32999999999998,202.32999999999998,0.0,0.0
1,0.0,1.0,0.0,1.0,1.0,0.0,0.0,1.0,0.0,100.0,1.0,1.1856,26.0,0.0,0.0,0.0,59.999996,0.0,26.0,26.0,26.0,26.0,-0.1597777777777778,0.32340000000000013,0.07695,290.68,-2.5473,-2.76175,-1.5023,-1.3916000000000002,-272.25,216.1275,190.964625,0.0,0.0,0.0,0.0,0.0035999999999999366,-5.498166666666667,-5.498166666666667,-0.5798,-0.5706666666666667,-0.07933333333333348,0.041,65.696,-0.0572,-0.2944,1.1959999999999997,100.0,1.0,1.0,202.4766666666667,0.0,0.0,0.0,0.0,0.0,0.0,0.0,8582.2,0.0,55.0,5.0,236.4766666666667,1.0,0.0,0.0,0.0,0.0,0.0,0.0,0.0,0.05699999999999861,0.05699999999999861,0.0,0.0,1.0,55.0,616.79921,10000.0,85.000001,85.000001,85.000001,85.000001,395.0,0.0,0.0,0.0,1.0,166.665,48.843,48.843,48.096000000000004,48.096000000000004,34.0,-23.975,17.996,-35.14666666666666,26.3825,0.0,1783.68,0.9250000000000007,100.0,32.956,31.248,42.92,41.74,0.0,1.0,100.0,0.0,0.0,0.0,0.0,2955.0,2809.3,4446.75,4716.7,305.6385,306.1426666666667,313.88275,313.07475,21.80075,20.5361,21.7609,21.2948,314.999998,314.999998,324.999988,324.999988,99.55958571428572,99.50776666666667,99.56465714285714,99.54431428571428,0.016750000000000043,-0.15933333333333333,-0.17933333333333334,0.03433333333333333,-0.046666666666666856,-0.026666666666670835,1.3913333333333333,1.4485000000000001,37.254999999999995,29.3505,37.006,34.0925,56.507,34.838,58.899,51.403,54.443,33.9785,57.535,49.769999999999996,53.638999999999996,33.5255,57.503,49.19533333333334,-0.03349999999999986,-0.1705000000000001,0.1018,0.10186500000000001,0.0,205.845,205.73000000000002,202.4766666666667,202.4766666666667,0.0,0.0
2,0.0,1.0,0.0,1.0,1.0,0.0,0.0,1.0,0.0,100.0,1.0,1.1856,26.0,0.0,0.0,0.0,59.999996,0.0,26.0,26.0,26.0,26.0,-0.1711111111111111,0.3124,-0.09052500000000001,291.473,-2.5009,-2.7424999999999997,-1.4788000000000001,-1.6646,-269.09,216.1275,190.946875,0.0,0.0,0.0,0.0,0.005433333333333401,-5.498166666666667,-5.498166666666667,-0.639,-0.333,-0.07011111111111124,3.849,65.828,-0.0712,-0.35465,1.6600000000000001,100.0,1.0,1.0,203.41,0.0,0.0,0.0,0.0,0.0,0.0,0.0,8621.8,0.0,55.0,5.0,236.95666666666668,0.0,0.0,0.0,0.0,0.0,0.0,0.0,0.0,0.10500000000000043,0.10500000000000043,0.0,0.0,0.0,55.0,616.79921,10000.0,85.000001,85.000001,85.000001,85.000001,395.0,0.0,0.0,0.0,1.0,166.665,47.577,47.577,50.201,50.201,34.0,-29.08,18.15,-28.84,20.34,0.0,1783.632,1.0899999999999999,100.0,33.388,31.4225,42.845,41.243,0.0,1.0,100.0,0.0,0.0,0.0,0.0,3355.857142857143,3008.2,3764.875,3570.2,304.3785,305.50966666666665,315.51375,316.0925,21.810375,20.5408,21.7708,21.3029,314.999998,314.999998,324.999988,324.999988,99.55958571428572,99.50778333333334,99.56478571428572,99.54444285714285,-0.01949999999999985,-0.18833333333333335,-0.2111666666666666,0.01766666666666672,-0.03166666666666629,-0.07000000000000028,1.6536666666666666,1.705,37.315,29.38,37.068,34.1435,56.495000000000005,34.876,58.937,51.456,54.431,34.013999999999996,57.571,49.820499999999996,53.626999999999995,33.559,57.536,49.245,-0.020999999999999908,-0.1825000000000001,0.10410000000000001,0.11164500000000001,0.0,206.23000000000002,206.14499999999998,203.41,203.41,0.0,0.0
3,0.0,1.0,0.0,1.0,1.0,0.0,0.0,1.0,0.0,100.0,1.0,1.1856,26.0,0.0,0.0,0.0,59.999996,0.0,26.0,26.0,26.0,26.0,-0.1487777777777778,0.30279999999999996,0.021325,290.939,-2.5758,-2.6094999999999997,-1.5087000000000002,-1.5766,-265.73,216.125,190.927,0.0,0.0,0.0,0.0,0.0073666666666665215,-5.498166666666667,-5.498166666666667,-0.6034,0.5013333333333333,-0.014444444444444482,-1.846,65.98,-0.0925,-0.303725,1.597999999999999,100.0,1.0,1.0,203.56333333333333,0.0,0.0,0.0,0.0,0.0,0.0,0.0,8628.3,0.0,55.0,5.0,237.49666666666667,1.0,0.0,0.0,0.0,0.0,0.0,0.0,0.0,0.1559999999999988,0.1559999999999988,0.0,0.0,1.0,55.0,616.79921,10000.0,85.000001,85.000001,85.000001,85.000001,395.0,0.0,0.0,0.0,1.0,166.665,48.126,48.126,48.141,48.141,34.0,-28.314999999999998,14.98,-36.63666666666666,22.98,0.0,1783.58,0.9750000000000014,100.0,32.615,32.3645,42.389,41.415,0.0,1.0,100.0,0.0,0.0,0.0,0.0,3203.285714285714,2781.5,4346.0,4203.0,305.329,305.66766666666666,314.2735,314.34925,21.820375,20.5461,21.7812,21.311799999999998,314.999998,314.999998,324.999988,324.999988,99.5596,99.5078,99.56492857142857,99.5446,-0.03699999999999992,-0.21166666666666656,-0.23416666666666663,-0.0086666666666666,-0.02833333333332888,-0.030000000000001137,1.463,1.54,37.376999999999995,29.413,37.132999999999996,34.198499999999996,56.479,34.9215,58.9765,51.519999999999996,54.417,34.056,57.6075,49.882,53.611000000000004,33.5995,57.5695,49.30533333333334,-0.03149999999999986,-0.17799999999999994,0.10866500000000001,0.10595,0.0,206.75,206.625,203.56333333333333,203.56333333333333,0.0,0.0
4,0.0,1.0,0.0,1.0,1.0,0.0,0.0,1.0,0.0,100.0,1.0,1.1856,26.0,0.0,0.0,0.0,59.999996,0.0,26.0,26.0,26.0,26.0,-0.15555555555555556,0.2956000000000001,-0.029225,291.046,-2.5906,-2.708125,-1.4408,-1.5975000000000001,-262.56,216.12,190.908375,0.0,0.0,0.0,0.0,0.009233333333333316,-5.498166666666667,-5.498166666666667,-0.627,-0.8663333333333334,-0.08433333333333337,-2.845,66.118,-0.1019,-0.334,1.6739999999999995,100.0,1.0,1.0,204.04333333333335,0.0,0.0,0.0,0.0,0.0,0.0,0.0,8648.7,0.0,55.0,5.0,237.99666666666667,0.0,0.0,0.0,0.0,0.0,0.0,0.0,0.0,0.20400000000000063,0.20400000000000063,0.0,0.0,0.0,55.0,616.79921,10000.0,85.000001,85.000001,85.000001,85.000001,395.0,0.0,0.0,0.0,1.0,166.665,47.989,47.989,48.294,48.294,34.0,-30.057499999999997,15.984,-35.5,20.435000000000002,0.0,1783.533,0.9800000000000004,100.0,32.671,32.1145,42.980000000000004,41.636,0.0,1.0,100.0,0.0,0.0,0.0,0.0,3362.0,2781.6,4287.125,3770.8,304.8795,305.7063333333333,314.447,315.348,21.829625,20.551,21.7912,21.3202,314.999998,314.999998,324.999988,324.999988,99.5596,99.50781666666667,99.56505714285714,99.54472857142858,-0.03624999999999989,-0.20699999999999996,-0.2483333333333334,-0.0071666666666666545,-0.051666666666669414,-0.021666666666668277,1.52,1.5825,37.435,29.4435,37.195,34.251,56.464,34.962,59.016999999999996,51.5785,54.402,34.0935,57.646,49.9375,53.595,33.6355,57.6055,49.36,-0.028000000000000025,-0.17649999999999988,0.10927500000000001,0.10801500000000001,0.0,207.155,206.99,204.04333333333335,204.04333333333335,0.0,0.0
5,0.0,1.0,0.0,1.0,1.0,0.0,0.0,1.0,0.0,100.0,1.0,1.1856,26.0,0.0,0.0,0.0,59.999996,0.0,26.0,26.0,26.0,26.0,-0.18788888888888888,0.2984,-0.034275,291.061,-2.5751,-2.699,-1.4949,-1.6422,-259.18,216.11,190.888125,0.0,0.0,0.0,0.0,0.011199999999999988,-5.498166666666667,-5.498166666666667,-0.6401,0.04933333333333334,-0.0950000000000002,1.725,66.264,-0.1121,-0.332975,1.5020000000000007,100.0,1.0,1.0,204.51666666666665,0.0,0.0,0.0,0.0,0.0,0.0,0.0,8668.7,0.0,55.0,5.0,238.5233333333333,1.0,0.0,0.0,0.0,0.0,0.0,0.0,0.0,0.254999999999999,0.254999999999999,0.0,0.0,1.0,55.0,616.79921,10000.0,85.000001,85.000001,85.000001,85.000001,395.0,0.0,0.0,0.0,1.0,166.665,47.729,47.729,49.132999999999996,49.132999999999996,34.0,-27.63,17.458,-33.843333333333334,22.5775,0.0,1783.481,0.7600000000000016,100.0,33.64,31.825499999999998,42.808,40.919,0.0,1.0,100.0,0.0,0.0,0.0,0.0,3142.142857142857,2968.4,4106.5,4049.8,305.099,305.5903333333333,314.78875,314.85,21.83975,20.5561,21.8017,21.3289,314.999998,314.999998,324.999988,324.999988,99.5596,99.50785,99.56521428571429,99.54485714285714,-0.021499999999999853,-0.18999999999999995,-0.23483333333333334,-0.009166666666666656,-0.046666666666666856,-0.06499999999999773,1.534,1.5865,37.498999999999995,29.4755,37.26,34.3055,56.451,35.004999999999995,59.059,51.6365,54.388999999999996,34.132999999999996,57.685,49.9935,53.582,33.6735,57.6415,49.41433333333333,-0.040999999999999925,-0.16000000000000014,0.10403000000000001,0.10585000000000001,0.0,207.635,207.495,204.51666666666665,204.51666666666665,0.0,0.0
6,0.0,1.0,0.0,1.0,1.0,0.0,0.0,1.0,0.0,100.0,1.0,1.1856,26.0,0.0,0.0,0.0,59.999996,0.0,26.0,26.0,26.0,26.0,-0.15666666666666662,0.28880000000000017,-0.005925000000000001,290.68,-2.5362999999999998,-2.722875,-1.5333,-1.5914000000000001,-255.8,216.095,190.867375,0.0,0.0,0.0,0.0,0.013166666666666549,-5.498166666666667,-5.498166666666667,-0.6397,0.09366666666666668,-0.08788888888888868,-1.2530000000000001,66.40899999999999,-0.1126,-0.33295,1.3680000000000003,100.0,1.0,1.0,204.94333333333333,0.0,0.0,0.0,0.0,0.0,0.0,0.0,8686.8,0.0,55.0,5.0,239.04666666666668,0.0,0.0,0.0,0.0,0.0,0.0,0.0,0.0,0.30600000000000094,0.30600000000000094,0.0,0.0,0.0,55.0,616.79921,10000.0,85.000001,85.000001,85.000001,85.000001,395.0,0.0,0.0,0.0,1.0,166.665,47.134,47.134,48.706,48.706,34.0,-29.35,16.474,-36.653333333333336,21.3325,0.0,1783.43,0.4499999999999993,100.0,33.603,32.6865,42.717,41.266,0.0,1.0,100.0,0.0,0.0,0.0,0.0,3368.0,2804.4,4249.0,3983.2,304.7555,305.5966666666667,314.5515,314.9025,21.849875,20.5613,21.8122,21.3378,314.999998,314.999998,324.999988,324.999988,99.55961428571429,99.50786666666667,99.56535714285714,99.545,-0.026999999999999913,-0.20266666666666666,-0.2543333333333334,-0.014333333333333309,-0.06833333333332803,-0.030000000000001137,1.5203333333333333,1.5790000000000002,37.562,29.508499999999998,37.326,34.361,56.437,35.049,59.1015,51.698,54.376000000000005,34.1735,57.7245,50.052,53.568,33.712,57.6785,49.471666666666664,-0.06800000000000006,-0.14300000000000024,0.10745500000000001,0.11044500000000002,0.0,208.07999999999998,207.945,204.94333333333333,204.94333333333333,0.0,0.0
7,0.0,1.0,0.0,1.0,1.0,0.0,0.0,1.0,0.0,100.0,1.0,1.1856,26.0,0.0,0.0,0.0,59.999996,0.0,26.0,26.0,26.0,26.0,-0.1433333333333333,0.2774000000000001,0.039,290.268,-2.498,-2.7251250000000002,-1.4937,-1.639,-252.41,216.075,190.846625,0.0,0.0,0.0,0.0,0.015133333333333332,-5.498166666666667,-5.498166666666667,-0.644,0.03166666666666667,-0.07122222222222208,1.81,66.555,-0.1042,-0.34835,0.9540000000000006,100.0,1.0,1.0,205.36666666666667,0.0,0.0,0.0,0.0,0.0,0.0,0.0,8704.7,0.0,55.0,5.0,239.57,1.0,0.0,0.0,0.0,0.0,0.0,0.0,0.0,0.3569999999999993,0.3569999999999993,0.0,0.0,1.0,55.0,616.79921,10000.0,85.000001,85.000001,85.000001,85.000001,395.0,0.0,0.0,0.0,1.0,166.665,46.57,46.57,48.644999999999996,48.644999999999996,34.0,-26.1875,19.968,-33.126666666666665,24.3675,0.0,1783.38,0.18499999999999872,100.0,34.224000000000004,32.605000000000004,43.065,41.545,0.0,1.0,100.0,0.0,0.0,0.0,0.0,3246.285714285714,3106.6,4094.125,4081.3,304.731,305.0083333333333,314.758,314.71225,21.86,20.5666,21.8227,21.3467,314.999998,314.999998,324.999988,324.999988,99.55961428571429,99.50788333333334,99.5655,99.54512857142858,0.020000000000000018,-0.16366666666666663,-0.21783333333333332,0.017333333333333423,-0.036666666666668846,-0.07166666666666544,1.5046666666666666,1.5390000000000001,37.625,29.5415,37.391999999999996,34.417,56.423,35.0925,59.144,51.7605,54.363,34.213499999999996,57.7645,50.1115,53.554,33.7505,57.7155,49.53,-0.09450000000000003,-0.12400000000000011,0.10744500000000001,0.11121,0.0,208.505,208.41500000000002,205.36666666666667,205.36666666666667,0.0,0.0
8,0.0,1.0,0.0,1.0,1.0,0.0,0.0,1.0,0.0,100.0,1.0,1.1856,26.0,0.0,0.0,0.0,59.999996,0.0,26.0,26.0,26.0,26.0,-0.0808888888888889,0.2855000000000001,0.018975000000000002,290.466,-2.5974,-2.6416250000000003,-1.4838,-1.6224,-249.01,216.0525,190.826,0.0,0.0,0.0,0.0,0.017100000000000004,-5.498166666666667,-5.498166666666667,-0.6447,-0.41533333333333333,-0.05444444444444452,-1.223,66.7,-0.0862,-0.34605,0.5419999999999998,100.0,1.0,1.0,205.76,0.0,0.0,0.0,0.0,0.0,0.0,0.0,8721.4,0.0,55.0,5.0,240.09333333333333,0.0,0.0,0.0,0.0,0.0,0.0,0.0,0.0,0.40800000000000125,0.40800000000000125,0.0,0.0,0.0,55.0,616.79921,10000.0,85.000001,85.000001,85.000001,85.000001,395.0,0.0,0.0,0.0,1.0,166.665,47.333,47.333,48.019,48.019,34.0,-26.25,17.96,-33.24333333333334,23.965,0.0,1783.329,0.010000000000001563,100.0,33.298,32.9735,43.044,41.966,0.0,1.0,100.0,0.0,0.0,0.0,0.0,3254.0,2884.3,4190.25,4063.8,305.1655,305.42533333333336,314.61325,314.628,21.87,20.5719,21.8333,21.3557,314.999998,314.999998,324.999988,324.999988,99.55961428571429,99.5079,99.56565714285715,99.54528571428571,0.028750000000000053,-0.16100000000000003,-0.20650000000000002,0.012166666666666659,-0.05666666666667197,-0.046666666666666856,1.5013333333333332,1.5230000000000001,37.687,29.5745,37.458,34.473,56.407,35.1345,59.186,51.822,54.348,34.2525,57.8035,50.171,53.539,33.788,57.751999999999995,49.588,-0.11549999999999994,-0.10400000000000009,0.10600000000000001,0.104675,0.0,208.935,208.88,205.76,205.76,0.0,0.0
9,0.0,1.0,0.0,1.0,1.0,0.0,0.0,1.0,0.0,100.0,1.0,1.1856,26.0,0.0,0.0,0.0,59.999996,0.0,26.0,26.0,26.0,26.0,-0.09288888888888891,0.2795000000000001,0.008700000000000001,290.329,-2.5736,-2.666375,-1.5344,-1.5836000000000001,-246.01,216.03,190.807625,0.0,0.0,0.0,0.0,0.01883333333333337,-5.498166666666667,-5.498166666666667,-0.6495000000000001,0.39,-0.05433333333333357,1.409,66.825,-0.0687,-0.34385,0.3179999999999996,100.0,1.0,1.0,206.24333333333334,0.0,0.0,0.0,0.0,0.0,0.0,0.0,8741.9,0.0,55.0,5.0,240.54333333333335,1.0,0.0,0.0,0.0,0.0,0.0,0.0,0.0,0.4529999999999994,0.4529999999999994,0.0,0.0,1.0,55.0,616.79921,10000.0,85.000001,85.000001,85.000001,85.000001,395.0,0.0,0.0,0.0,1.0,166.665,46.402,46.402,49.025999999999996,49.025999999999996,34.0,-25.310000000000002,21.003999999999998,-30.163333333333334,25.455,0.0,1783.284,-0.1999999999999993,100.0,34.152,32.9515,42.743,41.667,0.0,1.0,100.0,0.0,0.0,0.0,0.0,3293.0,3136.1,4003.375,4092.5,304.683,304.99033333333335,315.0455,314.75525,21.878875,20.5767,21.8424,21.3635,314.999998,314.999998,324.999988,324.999988,99.55962857142858,99.50791666666667,99.56577142857142,99.5454,0.0625,-0.131,-0.17066666666666663,0.055500000000000105,-0.03166666666666629,-0.05666666666667197,1.5556666666666668,1.5739999999999998,37.742999999999995,29.6045,37.515,34.522,56.396,35.1725,59.22,51.8755,54.337,34.2875,57.835499999999996,50.222,53.527,33.8215,57.781,49.63766666666667,-0.12050000000000005,-0.10400000000000009,0.10884500000000001,0.11061000000000001,0.0,209.32,209.28,206.24333333333334,206.24333333333334,0.0,0.0
10,0.0,1.0,0.0,1.0,1.0,0.0,0.0,1.0,0.0,100.0,1.0,1.1856,26.0,0.0,0.0,0.0,59.999996,0.0,26.0,26.0,26.0,26.0,-0.06766666666666665,0.2835000000000001,0.009975000000000001,290.131,-2.586,-2.6525,-1.5119,-1.5662,-242.39,216.0,190.7855,0.0,0.0,0.0,0.0,0.02093333333333336,-5.498166666666667,-5.498166666666667,-0.6305000000000001,-0.30633333333333335,-0.01577777777777767,2.602,66.979,-0.0453,-0.333725,-0.08799999999999919,100.0,1.0,1.0,206.56,0.0,0.0,0.0,0.0,0.0,0.0,0.0,8755.4,0.0,55.0,5.0,241.0966666666667,0.0,0.0,0.0,0.0,0.0,0.0,1.0,0.0,0.5069999999999979,0.5069999999999979,0.0,0.0,0.0,55.0,616.79921,10000.0,85.000001,85.000001,85.000001,85.000001,395.0,0.0,0.0,0.0,1.0,166.665,47.256,47.256,47.668,47.668,34.0,-21.695,21.572000000000003,-31.116666666666664,28.4225,0.0,1783.23,-0.3000000000000007,100.0,33.846000000000004,32.869,43.223,42.409,0.0,1.0,100.0,0.0,0.0,0.0,0.0,2966.5714285714284,3070.4,4216.75,4281.1,305.652,305.24066666666664,314.459,314.2455,21.889375,20.5824,21.8537,21.3731,314.999998,314.999998,324.999988,324.999988,99.55962857142858,99.50793333333333,99.56592857142857,99.54555714285715,0.08325000000000005,-0.10166666666666657,-0.14900000000000002,0.0798333333333332,-0.030000000000001137,-0.05666666666667197,1.488,1.479,37.809,29.64,37.585,34.582,56.382999999999996,35.215,59.265,51.942499999999995,54.324,34.327,57.876999999999995,50.286500000000004,53.513,33.8595,57.8195,49.701,-0.1299999999999999,-0.08850000000000025,0.10580500000000001,0.109615,0.0,209.765,209.775,206.56,206.56,0.0,0.0
11,0.0,1.0,0.0,1.0,1.0,0.0,0.0,1.0,0.0,100.0,1.0,1.1856,26.0,0.0,0.0,0.0,59.999996,0.0,26.0,26.0,26.0,26.0,-0.025222222222222146,0.2755000000000001,-0.053000000000000005,290.604,-2.6058,-2.6235,-1.5772,-1.5459,-239.18,215.9725,190.766,0.0,0.0,0.0,0.0,0.022599999999999953,-5.498166666666667,-5.498166666666667,-0.6594,-0.28933333333333333,0.018444444444444263,1.415,67.111,-0.024800000000000003,-0.355325,-0.25399999999999956,100.0,1.0,1.0,207.16333333333333,0.0,0.0,0.0,0.0,0.0,0.0,0.0,8780.9,0.0,55.0,5.0,241.57333333333332,1.0,0.0,0.0,0.0,0.0,0.0,1.0,0.0,0.5549999999999997,0.5549999999999997,0.0,0.0,1.0,55.0,616.79921,10000.0,85.000001,85.000001,85.000001,85.000001,395.0,0.0,0.0,0.0,1.0,333.33500000000004,46.982,46.982,48.874,48.874,34.0,-21.095,23.492,-26.576666666666668,27.002499999999998,0.0,1783.18,-0.35999999999999943,100.0,33.593,33.085,42.699,42.405,0.0,1.0,100.0,0.0,0.0,0.0,0.0,2986.5714285714284,3214.1,3784.75,4035.1000000000004,305.584,304.75933333333336,315.592,314.87475,21.898625,20.5875,21.8634,21.3816,314.999998,314.999998,324.999988,324.999988,99.55964285714286,99.50795,99.56605714285715,99.54568571428571,0.10599999999999987,-0.07966666666666666,-0.12816666666666665,0.10616666666666674,-0.036666666666668846,-0.04833333333333201,1.6046666666666667,1.5965000000000003,37.867000000000004,29.672,37.647,34.635,56.370000000000005,35.2535,59.2995,52.0005,54.312,34.362,57.9095,50.342,53.5,33.8935,57.849000000000004,49.75566666666667,-0.1379999999999999,-0.08050000000000024,0.10926000000000001,0.10581000000000002,0.0,210.15,210.17000000000002,207.16333333333333,207.16333333333333,0.0,0.0
12,0.0,1.0,0.0,1.0,1.0,0.0,0.0,1.0,0.0,100.0,1.0,1.1856,26.0,0.0,0.0,0.0,59.999996,0.0,26.0,26.0,26.0,26.0,-0.024222222222222145,0.27859999999999996,0.01485,290.222,-2.6503,-2.620875,-1.5369000000000002,-1.5724,-235.95,215.945,190.745375,0.0,0.0,0.0,0.0,0.025466666666666526,-5.498166666666667,-5.498166666666667,-0.6577000000000001,0.11800000000000001,-0.0013333333333331865,1.117,67.24600000000001,-0.0082,-0.3382,-0.27200000000000024,100.0,1.0,1.0,207.46,0.0,0.0,0.0,0.0,0.0,0.0,0.0,8793.4,0.0,55.0,5.0,242.05666666666667,0.0,0.0,0.0,0.0,0.0,0.0,1.0,0.0,0.602999999999998,0.602999999999998,0.0,0.0,0.0,55.0,616.79921,10000.0,85.000001,85.000001,85.000001,85.000001,395.0,0.0,0.0,0.0,1.0,166.665,46.707,46.707,48.126,48.126,34.0,-22.035,24.05,-28.366666666666664,29.9025,0.0,1783.134,-0.4299999999999997,100.0,33.63,33.2455,42.525999999999996,42.223,0.0,1.0,100.0,0.0,0.0,0.0,0.0,3088.5714285714284,3259.1,4139.25,4162.9,305.315,304.62833333333333,314.7165,314.579,21.907875,20.5928,21.8733,21.39,314.999998,314.999998,324.999988,324.999988,99.55965714285715,99.50795,99.5662,99.54582857142857,0.11224999999999996,-0.07499999999999996,-0.10733333333333339,0.12850000000000006,-0.03833333333332689,-0.061666666666667425,1.5293333333333334,1.5100000000000002,37.924,29.705,37.708,34.688,56.358000000000004,35.291,59.336,52.0585,54.301,34.3975,57.9435,50.397999999999996,53.488,33.927,57.8805,49.81033333333333,-0.133,-0.08199999999999985,0.10388000000000001,0.10513000000000002,0.0,210.60000000000002,210.61,207.46,207.46,0.0,0.0
13,0.0,1.0,0.0,1.0,1.0,0.0,0.0,1.0,0.0,100.0,1.0,1.1856,26.0,0.0,0.0,0.0,59.999996,0.0,26.0,26.0,26.0,26.0,0.0040000000000000036,0.28070000000000017,0.03555,289.581,-2.5901,-2.61425,-1.5708,-1.5609000000000002,-232.32,215.91500000000002,190.722125,0.0,0.0,0.0,0.0,0.026799999999999935,-5.498166666666667,-5.498166666666667,-0.6489,0.005666666666666667,0.0020000000000000018,1.744,67.397,0.0038,-0.33855,-0.41000000000000014,100.0,1.0,1.0,207.84,0.0,0.0,0.0,0.0,0.0,0.0,0.0,8809.6,0.0,55.0,5.0,242.60000000000002,1.0,0.0,0.0,0.0,0.0,0.0,1.0,0.0,0.657,0.657,0.0,0.0,1.0,55.0,616.79921,10000.0,85.000001,85.000001,85.000001,85.000001,395.0,0.0,0.0,0.0,1.0,166.665,46.173,46.173,47.745,47.745,34.0,-20.425,25.034,-28.996666666666666,31.775000000000002,0.0,1783.079,-0.5,100.0,34.19,33.6305,42.91,42.843,0.0,1.0,100.0,0.0,0.0,0.0,0.0,3082.4285714285716,3255.0,4174.875,4339.7,305.261,304.63466666666665,314.602,314.12825,21.91825,20.5987,21.8844,21.3997,314.999998,314.999998,324.999988,324.999988,99.55967142857143,99.50796666666666,99.56635714285714,99.54598571428572,0.13649999999999984,-0.050999999999999934,-0.10133333333333339,0.135,-0.030000000000001137,-0.05833333333333002,1.4973333333333334,1.4875000000000003,37.989000000000004,29.741999999999997,37.778,34.748,56.348,35.3335,59.3785,52.126,54.291,34.4365,57.983000000000004,50.4625,53.477000000000004,33.965,57.9165,49.873666666666665,-0.1519999999999999,-0.07200000000000006,0.108685,0.11389,0.0,211.04000000000002,211.07999999999998,207.84,207.84,0.0,0.0
14,0.0,1.0,0.0,1.0,1.0,0.0,0.0,1.0,0.0,100.0,1.0,1.1856,26.0,0.0,0.0,0.0,59.999996,0.0,26.0,26.0,26.0,26.0,0.04755555555555557,0.28070000000000017,0.026825,289.551,-2.6273,-2.54175,-1.5841,-1.5322,-228.87,215.8875,190.700625,0.0,0.0,0.0,0.0,0.028799999999999937,-5.498166666666667,-5.498166666666667,-0.6575000000000001,-0.183,0.027555555555555555,-0.856,67.537,0.0175,-0.355325,-0.42600000000000016,100.0,1.0,1.0,208.31666666666666,0.0,0.0,0.0,0.0,0.0,0.0,0.0,8829.8,0.0,55.0,5.0,243.10333333333335,0.0,0.0,0.0,0.0,0.0,0.0,1.0,0.0,0.7079999999999984,0.7079999999999984,0.0,0.0,0.0,55.0,616.79921,10000.0,85.000001,85.000001,85.000001,85.000001,395.0,0.0,0.0,0.0,1.0,166.665,46.066,46.066,47.638,47.638,34.0,-22.08,23.13,-28.466666666666665,29.7175,0.0,1783.028,-0.46499999999999986,100.0,33.809,34.224000000000004,42.859,43.364000000000004,0.0,1.0,100.0,0.0,0.0,0.0,0.0,3229.285714285714,3155.8,4114.875,4186.3,305.238,304.56466666666665,314.8675,314.394,21.928,20.6043,21.8949,21.4088,314.999998,314.999998,324.999988,324.999988,99.55968571428572,99.50796666666666,99.5665,99.54611428571428,0.12375000000000025,-0.06899999999999995,-0.10216666666666663,0.1286666666666667,-0.060000000000002274,-0.04833333333333201,1.5183333333333335,1.52,38.05,29.777,37.843,34.805,56.338,35.373,59.417500000000004,52.189499999999995,54.282,34.4735,58.019,50.5235,53.467,34.0005,57.9495,49.93333333333334,-0.14949999999999997,-0.07399999999999984,0.10102000000000001,0.10610000000000001,0.0,211.48000000000002,211.505,208.31666666666666,208.31666666666666,0.0,0.0
15,0.0,1.0,0.0,1.0,1.0,0.0,0.0,1.0,0.0,100.0,1.0,1.1856,26.0,0.0,0.0,0.0,59.999996,0.0,26.0,26.0,26.0,26.0,0.02633333333333332,0.28259999999999996,-0.026625000000000003,289.658,-2.6261,-2.51325,-1.6038000000000001,-1.481,-225.82999999999998,215.8625,190.681625,0.0,0.0,0.0,0.0,0.03056666666666652,-5.498166666666667,-5.498166666666667,-0.6531,0.23,0.052444444444444294,1.814,67.66,0.0281,-0.349325,-0.6039999999999992,100.0,1.0,1.0,208.7,0.0,0.0,0.0,0.0,0.0,0.0,0.0,8846.0,0.0,55.0,5.0,243.55,1.0,0.0,0.0,0.0,0.0,0.0,1.0,0.0,0.7530000000000001,0.7530000000000001,0.0,0.0,1.0,55.0,616.79921,10000.0,85.000001,85.000001,85.000001,85.000001,395.0,0.0,0.0,0.0,1.0,333.33500000000004,46.219,46.219,47.897,47.897,34.0,-19.0675,25.178,-26.203333333333333,32.25,0.0,1782.981,-0.40500000000000114,100.0,34.192,34.007,42.725,43.233000000000004,0.0,1.0,100.0,0.0,0.0,0.0,0.0,2916.857142857143,3326.9,3986.375,4365.6,305.7945,304.405,315.0735,314.096,21.936625,20.6093,21.9041,21.4169,314.999998,314.999998,324.999988,324.999988,99.5597,99.50798333333333,99.56662857142857,99.54625714285714,0.14575000000000005,-0.04066666666666663,-0.07050000000000001,0.16366666666666685,-0.02833333333332888,-0.061666666666667425,1.5253333333333334,1.5140000000000002,38.104,29.808500000000002,37.900999999999996,34.8555,56.329,35.4105,59.452,52.249,54.272999999999996,34.507999999999996,58.0515,50.581,53.457,34.034,57.979,49.99,-0.14749999999999996,-0.07750000000000012,0.105215,0.11116500000000001,0.0,211.85000000000002,211.89499999999998,208.7,208.7,0.0,0.0
16,0.0,1.0,0.0,1.0,1.0,0.0,0.0,1.0,0.0,100.0,1.0,1.1856,26.0,0.0,0.0,0.0,59.999996,0.0,26.0,26.0,26.0,26.0,0.056111111111111,0.2794000000000001,-0.02185,289.886,-2.7037,-2.515625,-1.5826,-1.5354,-222.38,215.835,190.659875,0.0,0.0,0.0,0.0,0.03256666666666652,-5.498166666666667,-5.498166666666667,-0.6621,-0.4393333333333333,0.04122222222222205,-2.0,67.799,0.036000000000000004,-0.3512,-0.3700000000000001,100.0,1.0,1.0,209.13,0.0,0.0,0.0,0.0,0.0,0.0,0.0,8864.2,0.0,55.0,5.0,244.05,0.0,0.0,0.0,0.0,0.0,0.0,1.0,0.0,0.8039999999999985,0.8039999999999985,0.0,0.0,0.0,55.0,616.79921,10000.0,85.000001,85.000001,85.000001,85.000001,395.0,0.0,0.0,0.0,1.0,333.33500000000004,46.677,46.677,47.623,47.623,34.0,-22.11,22.927999999999997,-27.106666666666662,30.6925,0.0,1782.931,-0.3099999999999987,100.0,33.131,34.0625,42.772,43.409,0.0,1.0,100.0,0.0,0.0,0.0,0.0,3187.4285714285716,3119.3,4075.5,4131.8,305.45,304.6863333333333,314.98925,314.4705,21.946125,20.615,21.9146,21.426,314.999998,314.999998,324.999988,324.999988,99.55971428571429,99.50798333333333,99.56677142857143,99.5464,0.1299999999999999,-0.06066666666666665,-0.08383333333333332,0.15316666666666667,-0.054999999999999716,-0.054999999999999716,1.5326666666666666,1.5095,38.163,29.844,37.966,34.9125,56.318,35.448,59.489,52.308,54.262,34.542500000000004,58.085499999999996,50.638,53.445,34.067,58.0105,50.04566666666666,-0.13850000000000007,-0.08550000000000013,0.10750000000000001,0.11134500000000001,0.0,212.285,212.32,209.13,209.13,0.0,0.0
17,0.0,1.0,0.0,1.0,1.0,0.0,0.0,1.0,0.0,100.0,1.0,1.1856,26.0,0.0,0.0,0.0,59.999996,0.0,26.0,26.0,26.0,26.0,0.01577777777777789,0.28790000000000004,-0.007850000000000001,289.764,-2.6414999999999997,-2.5242500000000003,-1.605,-1.5085000000000002,-218.92000000000002,215.8075,190.6375,0.0,0.0,0.0,0.0,0.034599999999999964,-5.498166666666667,-5.498166666666667,-0.6567000000000001,0.23133333333333334,0.005777777777777882,1.033,67.938,0.0329,-0.3346,-0.41000000000000014,100.0,1.0,1.0,209.53333333333333,0.0,0.0,0.0,0.0,0.0,0.0,0.0,8881.4,0.0,55.0,5.0,244.55,1.0,0.0,0.0,0.0,0.0,0.0,1.0,0.0,0.8550000000000004,0.8550000000000004,0.0,0.0,1.0,55.0,616.79921,10000.0,85.000001,85.000001,85.000001,85.000001,395.0,0.0,0.0,0.0,1.0,333.33500000000004,46.432,46.432,47.806,47.806,34.0,-20.0975,24.945999999999998,-27.923333333333332,31.8525,0.0,1782.879,-0.33500000000000085,100.0,33.923,33.6185,42.663,43.007,0.0,1.0,100.0,0.0,0.0,0.0,0.0,3069.857142857143,3275.7,4208.375,4262.8,305.395,304.6166666666667,314.5985,314.36975,21.955750000000002,20.6207,21.9251,21.4351,314.999998,314.999998,324.999988,324.999988,99.55974285714285,99.508,99.56691428571429,99.54655714285714,0.15100000000000025,-0.03700000000000003,-0.07050000000000001,0.16533333333333333,-0.02833333333332888,-0.06333333333333258,1.526,1.5,38.223,29.8795,38.032,34.9695,56.308,35.4895,59.5285,52.374,54.251999999999995,34.5815,58.1225,50.701499999999996,53.434,34.1045,58.044,50.108000000000004,-0.1399999999999999,-0.08550000000000013,0.108795,0.106925,0.0,212.72500000000002,212.76999999999998,209.53333333333333,209.53333333333333,0.0,0.0
18,0.0,1.0,0.0,1.0,1.0,0.0,0.0,1.0,0.0,100.0,1.0,1.1856,26.0,0.0,0.0,0.0,59.999996,0.0,26.0,26.0,26.0,26.0,0.01722222222222225,0.2735000000000001,-0.018250000000000002,289.581,-2.6628,-2.50625,-1.6111,-1.4647000000000001,-215.65,215.785,190.616375,0.0,0.0,0.0,0.0,0.03649999999999998,-5.498166666666667,-5.498166666666667,-0.6672,-0.3686666666666667,0.02388888888888885,1.766,68.068,0.0327,-0.346775,-0.3719999999999999,100.0,1.0,1.0,209.92666666666668,0.0,0.0,0.0,0.0,0.0,0.0,0.0,8898.0,0.0,55.0,5.0,245.01999999999998,0.0,0.0,0.0,0.0,0.0,0.0,1.0,0.0,0.9029999999999987,0.9029999999999987,0.0,0.0,0.0,55.0,616.79921,10000.0,85.000001,85.000001,85.000001,85.000001,395.0,0.0,0.0,0.0,1.0,333.33500000000004,46.234,46.234,47.577,47.577,34.0,-21.0,25.567999999999998,-27.246666666666663,30.69,0.0,1782.832,-0.29499999999999815,100.0,33.822,33.5985,43.031,43.245000000000005,0.0,1.0,100.0,0.0,0.0,0.0,0.0,3106.857142857143,3414.4,4103.375,4265.8,305.296,304.2273333333333,314.83475,314.37725,21.96475,20.6261,21.935,21.4438,314.999998,314.999998,324.999988,324.999988,99.55975714285714,99.508,99.56704285714285,99.54668571428572,0.14150000000000018,-0.04533333333333334,-0.07099999999999995,0.15583333333333327,-0.02499999999999858,-0.03833333333332689,1.521,1.5150000000000001,38.28,29.913,38.094,35.0235,56.299,35.524,59.563,52.43,54.242999999999995,34.613,58.1545,50.754999999999995,53.424,34.135,58.073499999999996,50.160666666666664,-0.12949999999999995,-0.09200000000000008,0.10543500000000001,0.10510000000000001,0.0,213.09,213.115,209.92666666666668,209.92666666666668,0.0,0.0
19,0.0,1.0,0.0,1.0,1.0,0.0,0.0,1.0,0.0,100.0,1.0,1.1856,26.0,0.0,0.0,0.0,59.999996,0.0,26.0,26.0,26.0,26.0,0.03600000000000003,0.2751000000000001,0.0517,289.017,-2.5866,-2.597625,-1.629,-1.4500000000000002,-212.18,215.7625,190.593625,0.0,0.0,0.0,0.0,0.03849999999999998,-5.498166666666667,-5.498166666666667,-0.6599,0.6733333333333333,0.027111111111111086,-1.21,68.205,0.0318,-0.341625,-0.22599999999999998,100.0,1.0,1.0,210.31,0.0,0.0,0.0,0.0,0.0,0.0,0.0,8914.3,0.0,55.0,5.0,245.51,1.0,0.0,0.0,0.0,0.0,0.0,1.0,0.0,0.9540000000000006,0.9540000000000006,0.0,0.0,1.0,55.0,616.79921,10000.0,85.000001,85.000001,85.000001,85.000001,395.0,0.0,0.0,0.0,1.0,333.33500000000004,45.441,45.441,47.287,47.287,34.0,-22.0175,24.412,-30.633333333333333,31.07,0.0,1782.781,-0.28500000000000014,100.0,34.192,34.535,42.739000000000004,43.444,0.0,1.0,100.0,0.0,0.0,0.0,0.0,3317.4285714285716,3199.2,4327.375,4378.4,304.8915,304.2506666666667,314.44525,314.018,21.9745,20.6319,21.9454,21.4529,314.999998,314.999998,324.999988,324.999988,99.55977142857142,99.50801666666666,99.56718571428571,99.54682857142858,0.13375000000000004,-0.06533333333333335,-0.09699999999999998,0.14416666666666678,-0.04833333333333201,-0.060000000000002274,1.4983333333333333,1.488,38.341,29.9495,38.159,35.081,56.29,35.5655,59.6005,52.493,54.235,34.652,58.189,50.8155,53.415,34.1725,58.105000000000004,50.220333333333336,-0.14300000000000002,-0.09200000000000008,0.107465,0.10980000000000001,0.0,213.57999999999998,213.595,210.31,210.31,0.0,0.0
20,0.0,1.0,0.0,1.0,1.0,0.0,0.0,1.0,0.0,100.0,1.0,1.1856,26.0,0.0,0.0,0.0,59.999996,0.0,26.0,26.0,26.0,26.0,0.02822222222222215,0.2845,0.0095,289.307,-2.6776999999999997,-2.560625,-1.5531000000000001,-1.5757,-208.7,215.7375,190.57125,0.0,0.0,0.0,0.0,0.04053333333333331,-5.498166666666667,-5.498166666666667,-0.6584,-0.7863333333333334,0.02966666666666673,1.161,68.343,0.0281,-0.34805,-0.3120000000000003,100.0,1.0,1.0,210.67666666666668,0.0,0.0,0.0,0.0,0.0,0.0,0.0,8929.8,0.0,55.0,5.0,246.01,0.0,0.0,0.0,0.0,0.0,0.0,0.0,0.0,1.004999999999999,1.004999999999999,0.0,0.0,0.0,55.0,616.79921,10000.0,85.000001,85.000001,85.000001,85.000001,395.0,0.0,0.0,0.0,1.0,333.33500000000004,46.57,46.57,46.722,46.722,34.0,-20.0175,24.826,-27.123333333333335,33.1475,0.0,1782.73,-0.28500000000000014,100.0,33.786,33.839,43.665,43.903999999999996,0.0,1.0,100.0,0.0,0.0,0.0,0.0,2972.0,3280.1,4140.375,4304.2,305.707,304.5783333333333,314.66925,314.105,21.984,20.6376,21.956,21.4623,314.999998,314.999998,324.999988,324.999988,99.55978571428571,99.50801666666666,99.56734285714286,99.54698571428571,0.14300000000000024,-0.04933333333333334,-0.07366666666666666,0.15683333333333338,-0.02833333333332888,-0.061666666666667425,1.4853333333333334,1.4695,38.4,29.985,38.224999999999994,35.138999999999996,56.278999999999996,35.605000000000004,59.6405,52.5575,54.224000000000004,34.6885,58.2265,50.878,53.403,34.208,58.138999999999996,50.281333333333336,-0.13250000000000006,-0.09149999999999991,0.106505,0.11273500000000002,0.0,213.95,213.98000000000002,210.67666666666668,210.67666666666668,0.0,0.0
21,0.0,1.0,0.0,1.0,1.0,0.0,0.0,1.0,0.0,100.0,1.0,1.1856,26.0,0.0,0.0,0.0,59.999996,0.0,26.0,26.0,26.0,26.0,0.014222222222222136,0.27480000000000016,-0.058275,289.749,-2.6407,-2.569875,-1.6164,-1.5358,-205.41,215.7175,190.549625,0.0,0.0,0.0,0.0,0.04243333333333332,-5.498166666666667,-5.498166666666667,-0.6805,0.025333333333333333,0.01200000000000001,1.046,68.469,0.024300000000000002,-0.351075,-0.3460000000000001,100.0,1.0,1.0,211.23000000000002,0.0,0.0,0.0,0.0,0.0,0.0,0.0,8953.3,0.0,55.0,5.0,246.46333333333334,1.0,0.0,0.0,0.0,0.0,0.0,0.0,0.0,1.0530000000000008,1.0530000000000008,0.0,0.0,1.0,55.0,616.79921,10000.0,85.000001,85.000001,85.000001,85.000001,395.0,0.0,0.0,0.0,1.0,166.665,46.341,46.341,48.004,48.004,34.0,-20.1775,25.052,-26.97,29.585,0.0,1782.684,-0.3099999999999987,100.0,34.116,33.8155,43.025999999999996,43.342,0.0,1.0,100.0,0.0,0.0,0.0,0.0,3049.5714285714284,3272.6,4021.625,4109.5,305.4705,304.661,315.08425,314.749,21.993125,20.643,21.9658,21.4708,314.999998,314.999998,324.999988,324.999988,99.5598,99.50803333333333,99.56747142857142,99.54711428571429,0.14575000000000005,-0.043333333333333335,-0.08216666666666661,0.14500000000000002,-0.02833333333332888,-0.045000000000001705,1.5723333333333334,1.56,38.457,30.0185,38.286,35.192499999999995,56.269,35.6425,59.6735,52.614,54.215,34.7235,58.257,50.9325,53.391999999999996,34.2415,58.167,50.334666666666664,-0.1359999999999999,-0.08499999999999996,0.10651000000000001,0.104785,0.0,214.35500000000002,214.375,211.23000000000002,211.23000000000002,0.0,0.0
22,0.0,1.0,0.0,1.0,1.0,0.0,0.0,1.0,0.0,100.0,1.0,1.1856,26.0,0.0,0.0,0.0,59.999996,0.0,26.0,26.0,26.0,26.0,0.05755555555555558,0.27680000000000016,-0.006175,289.246,-2.5751,-2.612625,-1.6089,-1.5219,-201.92000000000002,215.695,190.525875,0.0,0.0,0.0,0.0,0.04446666666666654,-5.498166666666667,-5.498166666666667,-0.6728000000000001,0.12033333333333333,0.01388888888888884,-0.907,68.606,0.0251,-0.3388,-0.266,100.0,1.0,1.0,211.53,0.0,0.0,0.0,0.0,0.0,0.0,0.0,8966.0,0.0,55.0,5.0,246.95333333333335,0.0,0.0,0.0,0.0,0.0,0.0,0.0,0.0,1.1039999999999992,1.1039999999999992,0.0,0.0,0.0,55.0,616.79921,10000.0,85.000001,85.000001,85.000001,85.000001,395.0,0.0,0.0,0.0,1.0,166.665,46.021,46.021,47.134,47.134,34.0,-20.947499999999998,22.79,-29.563333333333333,30.63,0.0,1782.633,-0.3150000000000013,100.0,34.107,34.547,43.15,43.603,0.0,1.0,100.0,0.0,0.0,0.0,0.0,3174.0,3037.2,4264.375,4259.6,305.3725,304.83733333333333,314.575,314.29975,22.00275,20.648699999999998,21.9763,21.48,314.999998,314.999998,324.999988,324.999988,99.55982857142857,99.50803333333333,99.56761428571428,99.54725714285715,0.12950000000000017,-0.07166666666666666,-0.09250000000000003,0.13549999999999995,-0.05333333333332746,-0.036666666666668846,1.5106666666666668,1.4945,38.516999999999996,30.054499999999997,38.352000000000004,35.25,56.26,35.6825,59.7125,52.6765,54.206,34.7605,58.2935,50.992,53.382,34.277,58.2,50.39333333333333,-0.14250000000000007,-0.09050000000000002,0.10200000000000001,0.10846000000000001,0.0,214.805,214.81,211.53,211.53,0.0,0.0
23,0.0,1.0,0.0,1.0,1.0,0.0,0.0,1.0,0.0,100.0,1.0,1.1856,26.0,0.0,0.0,0.0,59.999996,0.0,26.0,26.0,26.0,26.0,0.030444444444444274,0.25970000000000004,-0.0001,288.986,-2.6056,-2.5642500000000004,-1.6694,-1.5830000000000002,-198.41,215.675,190.502125,0.0,0.0,0.0,0.0,0.046499999999999986,-5.498166666666667,-5.498166666666667,-0.6817000000000001,-0.151,0.023777777777777898,1.289,68.74000000000001,0.025,-0.35497500000000004,-0.2599999999999998,100.0,1.0,1.0,211.99333333333334,0.0,0.0,0.0,0.0,0.0,0.0,0.0,8985.6,0.0,55.0,5.0,247.44,1.0,0.0,0.0,0.0,0.0,0.0,0.0,0.0,1.1550000000000011,1.1550000000000011,0.0,0.0,1.0,55.0,616.79921,10000.0,85.000001,85.000001,85.000001,85.000001,395.0,0.0,0.0,0.0,1.0,166.665,45.394999999999996,45.394999999999996,47.546,47.546,34.0,-21.33,25.376,-27.946666666666665,31.677500000000002,0.0,1782.582,-0.3200000000000003,100.0,34.599000000000004,34.3795,43.494,43.909,0.0,1.0,100.0,0.0,0.0,0.0,0.0,3237.142857142857,3339.2,4054.875,4163.2,304.9495,304.3856666666667,315.03875,314.53725,22.0125,20.6546,21.9868,21.4893,314.999998,314.999998,324.999988,324.999988,99.55984285714285,99.50803333333333,99.56775714285715,99.54741428571428,0.14375000000000027,-0.05066666666666664,-0.08033333333333337,0.15850000000000009,-0.04333333333332945,-0.041666666666671404,1.5413333333333332,1.524,38.578,30.091,38.418,35.308,56.25,35.7235,59.7505,52.74,54.196,34.798500000000004,58.329,51.0535,53.372,34.3135,58.232,50.45333333333333,-0.13949999999999996,-0.09250000000000025,0.103815,0.11040000000000001,0.0,215.20499999999998,215.22,211.99333333333334,211.99333333333334,0.0,0.0
24,0.0,1.0,0.0,1.0,1.0,0.0,0.0,1.0,0.0,100.0,1.0,1.1856,26.0,0.0,0.0,0.0,59.999996,0.0,26.0,26.0,26.0,26.0,0.04933333333333323,0.2742,-0.0431,289.337,-2.6404,-2.5655,-1.5893000000000002,-1.5230000000000001,-194.89999999999998,215.655,190.478375,0.0,0.0,0.0,0.0,0.048566666666666536,-5.498166666666667,-5.498166666666667,-0.6911,-0.48033333333333333,0.028111111111110976,-0.9440000000000001,68.875,0.0263,-0.35545000000000004,-0.2699999999999996,100.0,1.0,1.0,212.34,0.0,0.0,0.0,0.0,0.0,0.0,0.0,9000.4,0.0,55.0,5.0,247.92333333333335,0.0,0.0,0.0,0.0,0.0,0.0,0.0,0.0,1.2059999999999995,1.2059999999999995,0.0,0.0,0.0,55.0,616.79921,10000.0,85.000001,85.000001,85.000001,85.000001,395.0,0.0,0.0,0.0,1.0,166.665,46.463,46.463,46.967,46.967,34.0,-21.52,22.414,-29.586666666666666,29.5775,0.0,1782.531,-0.34499999999999886,100.0,33.837,34.2615,43.366,43.955,0.0,1.0,100.0,0.0,0.0,0.0,0.0,3173.4285714285716,3031.0,4289.75,4173.9,305.448,304.973,314.45275,314.46775,22.022,20.6603,21.9974,21.4985,314.999998,314.999998,324.999988,324.999988,99.55985714285714,99.50805,99.56791428571428,99.54755714285714,0.12924999999999986,-0.06633333333333336,-0.09216666666666662,0.1283333333333332,-0.05666666666667197,-0.04333333333332945,1.51,1.4994999999999998,38.638,30.1265,38.483000000000004,35.366,56.239999999999995,35.7625,59.789,52.8025,54.187,34.8345,58.3645,51.1135,53.361000000000004,34.3485,58.2645,50.51233333333333,-0.13949999999999996,-0.08150000000000013,0.10193500000000001,0.10705500000000001,0.0,215.625,215.64,212.34,212.34,0.0,0.0
25,0.0,1.0,0.0,1.0,1.0,0.0,0.0,1.0,0.0,100.0,1.0,1.1856,26.0,0.0,0.0,0.0,59.999996,0.0,26.0,26.0,26.0,26.0,0.04888888888888898,0.2715000000000001,-0.05455,289.49,-2.7085,-2.525375,-1.6036000000000001,-1.5230000000000001,-191.6,215.6375,190.45475,0.0,0.0,0.0,0.0,0.05046666666666655,-5.498166666666667,-5.498166666666667,-0.7131000000000001,-0.076,0.03299999999999992,-1.687,68.999,0.027800000000000002,-0.35475,-0.28000000000000025,100.0,1.0,1.0,212.82999999999998,0.0,0.0,0.0,0.0,0.0,0.0,0.0,9021.1,0.0,55.0,5.0,248.37333333333333,1.0,0.0,0.0,0.0,0.0,0.0,0.0,0.0,1.2540000000000013,1.2540000000000013,0.0,0.0,1.0,55.0,616.79921,10000.0,85.000001,85.000001,85.000001,85.000001,395.0,0.0,0.0,0.0,1.0,166.665,45.914,45.914,47.806,47.806,34.0,-23.3825,23.97,-27.563333333333333,29.0225,0.0,1782.483,-0.39000000000000057,100.0,33.664,34.3985,42.909,43.572,0.0,1.0,100.0,0.0,0.0,0.0,0.0,3359.142857142857,3213.9,4036.75,4086.3,304.981,304.4153333333333,315.13125,314.703,22.031,20.6657,22.0071,21.5071,314.999998,314.999998,324.999988,324.999988,99.55987142857143,99.50805,99.56804285714286,99.5477,0.1339999999999999,-0.05799999999999994,-0.09566666666666657,0.13616666666666677,-0.07000000000000028,-0.03166666666666629,1.5583333333333333,1.5425,38.694,30.161,38.544,35.4195,56.230000000000004,35.8,59.822,52.8595,54.177,34.8695,58.394999999999996,51.1685,53.35,34.382,58.292500000000004,50.566,-0.14300000000000002,-0.08349999999999991,0.11331000000000001,0.10357500000000001,0.0,216.015,216.005,212.82999999999998,212.82999999999998,0.0,0.0
26,0.0,1.0,0.0,1.0,1.0,0.0,0.0,1.0,0.0,100.0,1.0,1.1856,26.0,0.0,0.0,0.0,59.999996,0.0,26.0,26.0,26.0,26.0,0.02300000000000013,0.2715000000000001,0.062325000000000005,288.422,-2.608,-2.62925,-1.6545,-1.5142,-188.07,215.62,190.429125,0.0,0.0,0.0,0.0,0.05253333333333332,-5.498166666666667,-5.498166666666667,-0.6832,0.629,0.02644444444444427,1.281,69.135,0.029,-0.32805,-0.4679999999999991,100.0,1.0,1.0,213.0366666666667,0.0,0.0,0.0,0.0,0.0,0.0,0.0,9029.9,0.0,55.0,5.0,248.86,0.0,0.0,0.0,0.0,0.0,0.0,0.0,0.0,1.3049999999999997,1.3049999999999997,0.0,0.0,0.0,55.0,616.79921,10000.0,85.000001,85.000001,85.000001,85.000001,395.0,0.0,0.0,0.0,1.0,166.665,45.364,45.364,46.371,46.371,34.0,-20.169999999999998,25.938,-31.08,34.385000000000005,0.0,1782.431,-0.41000000000000014,100.0,34.77,34.666,43.454,43.845,0.0,1.0,100.0,0.0,0.0,0.0,0.0,3116.142857142857,3302.0,4461.625,4548.1,305.186,304.40866666666665,314.04175,313.67575,22.040625,20.6717,22.0176,21.5164,314.999998,314.999998,324.999988,324.999988,99.5599,99.50806666666666,99.56818571428572,99.54785714285714,0.15249999999999986,-0.04699999999999993,-0.07033333333333336,0.15583333333333327,-0.02833333333332888,-0.04999999999999716,1.4443333333333332,1.4380000000000002,38.754000000000005,30.198,38.61,35.478,56.223,35.841499999999996,59.8605,52.923,54.17,34.908,58.4315,51.2295,53.342,34.4195,58.325,50.626,-0.14649999999999985,-0.08499999999999996,0.10851500000000001,0.11044000000000001,0.0,216.445,216.47,213.0366666666667,213.0366666666667,0.0,0.0
27,0.0,1.0,0.0,1.0,1.0,0.0,0.0,1.0,0.0,100.0,1.0,1.1856,26.0,0.0,0.0,0.0,59.999996,0.0,26.0,26.0,26.0,26.0,0.043777777777777915,0.24980000000000002,-0.0142,288.635,-2.6241,-2.567125,-1.5968,-1.5868,-184.75,215.60500000000002,190.40575,0.0,0.0,0.0,0.0,0.05446666666666655,-5.498166666666667,-5.498166666666667,-0.6972,-0.8466666666666667,0.028666666666666618,1.326,69.259,0.029300000000000003,-0.35960000000000003,-0.41799999999999926,100.0,1.0,1.0,213.48000000000002,0.0,0.0,0.0,0.0,0.0,0.0,0.0,9048.7,0.0,55.0,5.0,249.30666666666667,1.0,0.0,0.0,0.0,0.0,0.0,0.0,0.0,1.352999999999998,1.352999999999998,0.0,0.0,1.0,55.0,616.79921,10000.0,85.000001,85.000001,85.000001,85.000001,395.0,0.0,0.0,0.0,1.0,166.665,45.760999999999996,45.760999999999996,46.188,46.188,34.0,-19.0075,26.04,-27.843333333333334,32.760000000000005,0.0,1782.384,-0.4549999999999983,100.0,34.513,34.511,44.249,44.601,0.0,1.0,100.0,0.0,0.0,0.0,0.0,2981.5714285714284,3359.1,4151.5,4229.8,305.6235,304.325,314.69075,314.37125,22.049500000000002,20.6772,22.0276,21.5253,314.999998,314.999998,324.999988,324.999988,99.55991428571429,99.50808333333333,99.56834285714285,99.548,0.15900000000000025,-0.04066666666666663,-0.07399999999999995,0.16116666666666668,-0.01833333333333087,-0.041666666666671404,1.4836666666666667,1.4735,38.81,30.2325,38.673,35.533500000000004,56.213,35.8795,59.897999999999996,52.9835,54.16,34.9435,58.466,51.288,53.331,34.453,58.357,50.683,-0.1479999999999999,-0.08150000000000013,0.10342000000000001,0.11038500000000001,0.0,216.765,216.805,213.48000000000002,213.48000000000002,0.0,0.0
28,0.0,1.0,0.0,1.0,1.0,0.0,0.0,1.0,0.0,100.0,1.0,1.1856,26.0,0.0,0.0,0.0,59.999996,0.0,26.0,26.0,26.0,26.0,0.055777777777777926,0.25750000000000006,-0.052225,288.91,-2.6079,-2.5543750000000003,-1.6384,-1.5505,-181.22,215.5875,190.380375,0.0,0.0,0.0,0.0,0.056499999999999995,-5.498166666666667,-5.498166666666667,-0.7137,0.2813333333333333,0.011222222222222022,-1.594,69.388,0.0297,-0.355425,-0.3700000000000001,100.0,1.0,1.0,214.00666666666666,0.0,0.0,0.0,0.0,0.0,0.0,0.0,9071.0,0.0,55.0,5.0,249.77333333333334,0.0,0.0,0.0,0.0,0.0,0.0,0.0,0.0,1.404,1.404,0.0,0.0,0.0,55.0,616.79921,10000.0,85.000001,85.000001,85.000001,85.000001,395.0,0.0,0.0,0.0,1.0,333.33500000000004,45.379999999999995,45.379999999999995,47.409,47.409,34.0,-21.7975,23.61,-28.54,29.822499999999998,0.0,1782.331,-0.48999999999999844,100.0,34.493,34.9335,43.407,44.166,0.0,1.0,100.0,0.0,0.0,0.0,0.0,3311.4285714285716,3132.0,4122.625,4107.6,304.989,304.637,315.00025,314.665,22.059125,20.6831,22.038,21.5345,314.999998,314.999998,324.999988,324.999988,99.55994285714286,99.50808333333333,99.56848571428571,99.54814285714286,0.14124999999999988,-0.05733333333333335,-0.09250000000000003,0.13883333333333336,-0.054999999999999716,-0.04999999999999716,1.5513333333333335,1.5205000000000002,38.869,30.2695,38.736999999999995,35.5905,56.205,35.92,59.933,53.0435,54.152,34.981,58.4985,51.346000000000004,53.322,34.489,58.385999999999996,50.739333333333335,-0.15349999999999997,-0.08000000000000007,0.10377000000000002,0.10985500000000001,0.0,217.22500000000002,217.23000000000002,214.00666666666666,214.00666666666666,0.0,0.0
29,0.0,1.0,0.0,1.0,1.0,0.0,0.0,1.0,0.0,100.0,1.0,1.1856,26.0,0.0,0.0,0.0,59.999996,0.0,26.0,26.0,26.0,26.0,0.07244444444444431,0.2491000000000001,-0.008475,288.773,-2.5941,-2.60975,-1.5868,-1.5374,-177.47,215.5725,190.3525,0.0,0.0,0.0,0.0,0.058699999999999974,-5.498166666666667,-5.498166666666667,-0.7149,-0.41633333333333333,0.012222222222222134,-1.325,69.529,0.0342,-0.34925,-0.4479999999999995,100.0,1.0,1.0,214.31333333333333,0.0,0.0,0.0,0.0,0.0,0.0,0.0,9083.9,0.0,55.0,5.0,250.28,1.0,0.0,0.0,0.0,0.0,0.0,0.0,0.0,1.4579999999999984,1.4579999999999984,0.0,0.0,1.0,55.0,616.79921,10000.0,85.000001,85.000001,85.000001,85.000001,395.0,0.0,0.0,0.0,1.0,166.665,45.853,45.853,46.6,46.6,34.0,-20.982499999999998,23.628,-28.553333333333335,31.69,0.0,1782.278,-0.495000000000001,100.0,34.128,34.741,43.794,44.403999999999996,0.0,1.0,100.0,0.0,0.0,0.0,0.0,3234.4285714285716,3072.2,4216.5,4265.7,305.2865,304.73766666666666,314.6455,314.23225,22.069,20.6893,22.0491,21.5444,314.999998,314.999998,324.999988,324.999988,99.55995714285714,99.50808333333333,99.56864285714286,99.5483,0.14150000000000018,-0.05899999999999994,-0.08266666666666656,0.1443333333333332,-0.03999999999999915,-0.03166666666666629,1.4833333333333334,1.4545,38.931,30.308,38.807,35.6525,56.194,35.9615,59.974000000000004,53.11,54.141999999999996,35.0195,58.536500000000004,51.41,53.311,34.5265,58.421,50.802,-0.15300000000000002,-0.07750000000000012,0.10279,0.10550500000000002,0.0,217.63,217.64499999999998,214.31333333333333,214.31333333333333,0.0,0.0
30,0.0,1.0,0.0,1.0,1.0,0.0,0.0,1.0,0.0,100.0,1.0,1.1856,26.0,0.0,0.0,0.0,59.999996,0.0,26.0,26.0,26.0,26.0,0.0625555555555557,0.25160000000000005,0.0453,288.208,-2.647,-2.5067500000000003,-1.5592000000000001,-1.5948,-174.32999999999998,215.56,190.32925,0.0,0.0,0.0,0.0,0.0605,-5.498166666666667,-5.498166666666667,-0.7104,0.7076666666666667,0.014666666666666606,1.143,69.643,0.0371,-0.349125,-0.597999999999999,100.0,1.0,1.0,214.71333333333334,0.0,0.0,0.0,0.0,0.0,0.0,0.0,9100.9,0.0,55.0,5.0,250.69,0.0,0.0,0.0,0.0,0.0,0.0,1.0,0.0,1.5030000000000001,1.5030000000000001,0.0,0.0,0.0,55.0,616.79921,10000.0,85.000001,85.000001,85.000001,85.000001,395.0,0.0,0.0,0.0,1.0,166.665,44.479,44.479,46.875,46.875,34.0,-21.759999999999998,26.664,-26.14666666666666,33.5275,0.0,1782.234,-0.46000000000000085,100.0,35.032,34.9315,43.718,44.275999999999996,0.0,1.0,100.0,0.0,0.0,0.0,0.0,3343.714285714286,3478.5,4114.75,4259.1,304.5755,303.753,314.8355,314.318,22.0775,20.6947,22.0583,21.552599999999998,314.999998,314.999998,324.999988,324.999988,99.55997142857143,99.5081,99.56877142857142,99.54842857142857,0.1625000000000001,-0.04266666666666663,-0.05999999999999994,0.1691666666666667,-0.045000000000001705,-0.046666666666666856,1.5030000000000001,1.4805000000000001,38.985,30.342,38.864000000000004,35.7035,56.189,35.9995,60.0055,53.165,54.137,35.0545,58.566,51.4625,53.304,34.5605,58.4475,50.85366666666667,-0.14900000000000002,-0.08300000000000018,0.10416,0.109215,0.0,218.005,218.03,214.71333333333334,214.71333333333334,0.0,0.0
31,0.0,1.0,0.0,1.0,1.0,0.0,0.0,1.0,0.0,100.0,1.0,1.1856,26.0,0.0,0.0,0.0,59.999996,0.0,26.0,26.0,26.0,26.0,0.06133333333333324,0.2571000000000001,0.02655,287.918,-2.7044,-2.525875,-1.6115,-1.4877,-170.78,215.55,190.303375,0.0,0.0,0.0,0.0,0.06256666666666655,-5.498166666666667,-5.498166666666667,-0.6937,-0.446,0.02055555555555566,-1.409,69.775,0.0395,-0.3457,-0.4059999999999997,100.0,1.0,1.0,214.96666666666667,0.0,0.0,0.0,0.0,0.0,0.0,0.0,9111.7,0.0,55.0,5.0,251.16666666666666,1.0,0.0,0.0,0.0,0.0,0.0,1.0,0.0,1.5539999999999985,1.5539999999999985,0.0,0.0,1.0,55.0,616.79921,10000.0,85.000001,85.000001,85.000001,85.000001,395.0,0.0,0.0,0.0,1.0,333.33500000000004,45.150999999999996,45.150999999999996,45.41,45.41,34.0,-22.3925,24.47,-30.686666666666664,31.745,0.0,1782.181,-0.48999999999999844,100.0,34.505,35.2975,44.383,45.164,0.0,1.0,100.0,0.0,0.0,0.0,0.0,3325.0,3270.4,4374.5,4329.9,305.117,304.3213333333333,314.22,314.02175,22.087,20.7007,22.0689,21.5621,314.999998,314.999998,324.999988,324.999988,99.55998571428572,99.5081,99.56892857142857,99.54858571428572,0.14825,-0.056333333333333346,-0.08650000000000002,0.14400000000000013,-0.045000000000001705,-0.026666666666670835,1.449,1.4250000000000003,39.044,30.378999999999998,38.931,35.763,56.18,36.0405,60.046,53.230000000000004,54.129000000000005,35.0925,58.604,51.525,53.295,34.597,58.4815,50.915,-0.15449999999999986,-0.08349999999999991,0.10814000000000001,0.10655,0.0,218.39499999999998,218.42000000000002,214.96666666666667,214.96666666666667,0.0,0.0
32,0.0,1.0,0.0,1.0,1.0,0.0,0.0,1.0,0.0,100.0,1.0,1.1856,26.0,0.0,0.0,0.0,59.999996,0.0,26.0,26.0,26.0,26.0,0.05366666666666675,0.2692000000000001,-0.0269,288.239,-2.6168,-2.591875,-1.6602999999999999,-1.5453000000000001,-167.22,215.54000000000002,190.27775,0.0,0.0,0.0,0.0,0.06463333333333332,-5.498166666666667,-5.498166666666667,-0.7125,-0.2606666666666667,0.0029999999999998916,0.975,69.902,0.037200000000000004,-0.3608,-0.5499999999999998,100.0,1.0,1.0,215.45333333333332,0.0,0.0,0.0,0.0,0.0,0.0,0.0,9132.3,0.0,55.0,5.0,251.62333333333333,0.0,0.0,0.0,0.0,0.0,0.0,1.0,0.0,1.6050000000000004,1.6050000000000004,0.0,0.0,0.0,55.0,616.79921,10000.0,85.000001,85.000001,85.000001,85.000001,395.0,0.0,0.0,0.0,1.0,166.665,45.212,45.212,46.204,46.204,34.0,-18.875,26.536,-27.823333333333338,34.61,0.0,1782.132,-0.5300000000000011,100.0,34.971000000000004,34.927,44.246,44.722,0.0,1.0,100.0,0.0,0.0,0.0,0.0,3076.5714285714284,3365.5,4233.625,4403.9,305.3395,304.301,314.60475,314.1155,22.096375000000002,20.7067,22.0793,21.5714,314.999998,314.999998,324.999988,324.999988,99.56001428571429,99.50811666666667,99.56907142857143,99.54874285714286,0.17649999999999988,-0.03700000000000003,-0.04849999999999999,0.18100000000000005,-0.045000000000001705,-0.041666666666671404,1.5096666666666667,1.4825,39.102000000000004,30.417,38.995999999999995,35.8215,56.172,36.0815,60.082499999999996,53.292,54.120000000000005,35.1305,58.6375,51.585,53.285,34.6335,58.512,50.973333333333336,-0.16049999999999986,-0.08400000000000007,0.09224,0.11467500000000001,0.0,218.79500000000002,218.805,215.45333333333332,215.45333333333332,0.0,0.0
33,0.0,1.0,0.0,1.0,1.0,0.0,0.0,1.0,0.0,100.0,1.0,1.1856,26.0,0.0,0.0,0.0,59.999996,0.0,26.0,26.0,26.0,26.0,0.03966666666666674,0.26480000000000015,-0.04245,288.635,-2.6464,-2.59175,-1.5954000000000002,-1.5845,-163.86,215.53,190.252875,0.0,0.0,0.0,0.0,0.06659999999999999,-5.498166666666667,-5.498166666666667,-0.7245,-0.23966666666666667,-0.0016666666666669272,1.7570000000000001,70.023,0.036000000000000004,-0.356375,-0.5860000000000003,100.0,1.0,1.0,215.8466666666667,0.0,0.0,0.0,0.0,0.0,0.0,0.0,9148.9,0.0,55.0,5.0,252.06,1.0,0.0,0.0,0.0,0.0,0.0,1.0,0.0,1.6529999999999987,1.6529999999999987,0.0,0.0,1.0,55.0,616.79921,10000.0,85.000001,85.000001,85.000001,85.000001,395.0,0.0,0.0,0.0,1.0,166.665,45.609,45.609,46.692,46.692,34.0,-19.349999999999998,25.834,-27.200000000000003,33.3625,0.0,1782.084,-0.5350000000000001,100.0,34.726,34.634,44.025999999999996,44.399,0.0,1.0,100.0,0.0,0.0,0.0,0.0,3084.857142857143,3296.3,4129.375,4297.4,305.393,304.50866666666667,314.782,314.32375,22.105249999999998,20.7123,22.0891,21.5802,314.999998,314.999998,324.999988,324.999988,99.56004285714286,99.50811666666667,99.5692,99.54888571428572,0.17200000000000015,-0.03866666666666663,-0.06833333333333336,0.16583333333333328,-0.036666666666668846,-0.051666666666669414,1.5176666666666665,1.499,39.157,30.4515,39.057,35.876,56.164,36.118,60.117,53.349000000000004,54.113,35.165,58.6695,51.6395,53.275999999999996,34.6665,58.541,51.026666666666664,-0.15900000000000003,-0.08050000000000024,0.10364500000000001,0.10852,0.0,219.155,219.185,215.8466666666667,215.8466666666667,0.0,0.0
34,0.0,1.0,0.0,1.0,1.0,0.0,0.0,1.0,0.0,100.0,1.0,1.1856,26.0,0.0,0.0,0.0,59.999996,0.0,26.0,26.0,26.0,26.0,0.07733333333333325,0.2623,-0.052725,289.062,-2.5945,-2.5798750000000004,-1.6335000000000002,-1.5439,-160.28,215.525,190.225125,0.0,0.0,0.0,0.0,0.06866666666666654,-5.498166666666667,-5.498166666666667,-0.7465,-0.7000000000000001,0.019555555555555548,-0.993,70.151,0.039900000000000005,-0.355175,-0.476,100.0,1.0,1.0,216.23666666666668,0.0,0.0,0.0,0.0,0.0,0.0,0.0,9165.4,0.0,55.0,5.0,252.51999999999998,0.0,0.0,0.0,0.0,0.0,0.0,1.0,0.0,1.7040000000000006,1.7040000000000006,0.0,0.0,0.0,55.0,616.79921,10000.0,85.000001,85.000001,85.000001,85.000001,395.0,0.0,0.0,0.0,1.0,166.665,46.295,46.295,47.134,47.134,34.0,-20.2,23.148,-29.18,31.3575,0.0,1782.032,-0.48999999999999844,100.0,34.012,34.41,43.564,44.548,0.0,1.0,100.0,0.0,0.0,0.0,0.0,3189.285714285714,3005.2,4203.25,4192.6,305.4335,304.9456666666667,314.7595,314.42425,22.1145,20.718,22.0995,21.5895,314.999998,314.999998,324.999988,324.999988,99.56005714285715,99.50813333333333,99.56935714285714,99.54902857142856,0.15149999999999997,-0.050999999999999934,-0.08716666666666661,0.15183333333333326,-0.07333333333333059,-0.026666666666670835,1.5063333333333333,1.496,39.216,30.487499999999997,39.122,35.9345,56.153999999999996,36.156,60.1525,53.411,54.102999999999994,35.2,58.7025,51.699,53.266,34.7005,58.570499999999996,51.085,-0.15349999999999997,-0.07750000000000012,0.1116,0.1053,0.0,219.56,219.56,216.23666666666668,216.23666666666668,0.0,0.0
35,0.0,1.0,0.0,1.0,1.0,0.0,0.0,1.0,0.0,100.0,1.0,1.1856,26.0,0.0,0.0,0.0,59.999996,0.0,26.0,26.0,26.0,26.0,0.05555555555555558,0.2451000000000001,-0.1012,289.154,-2.6614,-2.521875,-1.5517,-1.5650000000000002,-156.7,215.51749999999998,190.195375,0.0,0.0,0.0,0.0,0.07076666666666653,-5.498166666666667,-5.498166666666667,-0.785,-0.404,0.01588888888888884,0.8260000000000001,70.278,0.046,-0.3599,-0.5599999999999996,100.0,1.0,1.0,216.68666666666667,0.0,0.0,0.0,0.0,0.0,0.0,0.0,9184.6,0.0,55.0,5.0,252.97666666666666,1.0,0.0,0.0,0.0,0.0,0.0,1.0,0.0,1.754999999999999,1.754999999999999,0.0,0.0,1.0,55.0,616.79921,10000.0,85.000001,85.000001,85.000001,85.000001,395.0,0.0,0.0,0.0,1.0,333.33500000000004,45.914,45.914,46.86,46.86,34.0,-19.4625,27.1,-25.163333333333334,32.03,0.0,1781.981,-0.34999999999999787,100.0,33.917,34.409,43.432,43.863,0.0,1.0,100.0,0.0,0.0,0.0,0.0,3015.4285714285716,3500.7,4066.375,4132.8,305.564,303.914,314.99625,314.7815,22.123625,20.724,22.1098,21.5987,314.999998,314.999998,324.999988,324.999988,99.56007142857143,99.50813333333333,99.5695,99.54918571428571,0.16225000000000023,-0.035666666666666624,-0.05366666666666664,0.1801666666666668,-0.03166666666666629,-0.04833333333333201,1.5463333333333333,1.5380000000000003,39.272999999999996,30.525,39.186,35.992,56.141999999999996,36.196,60.187,53.4695,54.092,35.237,58.735,51.756,53.253,34.736000000000004,58.5995,51.14033333333333,-0.14349999999999996,-0.08800000000000008,0.09993,0.109755,0.0,219.925,219.96,216.68666666666667,216.68666666666667,0.0,0.0
36,0.0,1.0,0.0,1.0,1.0,0.0,0.0,1.0,0.0,100.0,1.0,1.1856,26.0,0.0,0.0,0.0,59.999996,0.0,26.0,26.0,26.0,26.0,0.04633333333333334,0.25680000000000014,0.056925,288.345,-2.5752,-2.56775,-1.5796000000000001,-1.5428000000000002,-153.32999999999998,215.515,190.166,0.0,0.0,0.0,0.0,0.07273333333333332,-5.498166666666667,-5.498166666666667,-0.7744000000000001,0.22433333333333336,-0.03000000000000025,0.562,70.399,0.0444,-0.334525,-0.3779999999999992,100.0,1.0,1.0,216.90333333333334,0.0,0.0,0.0,0.0,0.0,0.0,0.0,9193.7,0.0,55.0,5.0,253.41,0.0,0.0,0.0,0.0,0.0,0.0,1.0,0.0,1.8030000000000008,1.8030000000000008,0.0,0.0,0.0,55.0,616.79921,10000.0,85.000001,85.000001,85.000001,85.000001,395.0,0.0,0.0,0.0,1.0,166.665,45.349000000000004,45.349000000000004,46.661,46.661,34.0,-19.515,26.259999999999998,-28.016666666666666,35.0325,0.0,1781.934,-0.25,100.0,34.633,34.601,43.572,44.109,0.0,1.0,100.0,0.0,0.0,0.0,0.0,3153.285714285714,3386.0,4323.25,4490.8,304.994,304.28766666666667,314.35225,313.847,22.1325,20.7297,22.1196,21.6075,314.999998,314.999998,324.999988,324.999988,99.5601,99.50813333333333,99.56964285714285,99.54932857142857,0.16825,-0.040999999999999925,-0.055499999999999994,0.16933333333333334,-0.041666666666671404,-0.054999999999999716,1.4586666666666668,1.4525000000000001,39.329,30.560499999999998,39.248000000000005,36.047,56.135,36.2345,60.221000000000004,53.5275,54.085,35.272999999999996,58.7665,51.812,53.245000000000005,34.771,58.628,51.19533333333334,-0.14050000000000007,-0.09750000000000014,0.109075,0.10694000000000001,0.0,220.35000000000002,220.385,216.90333333333334,216.90333333333334,0.0,0.0
