,ABS Active,ABS Enabled,AID Allow Tire Blankets,AID Auto Blip,AID Auto Clutch,AID Auto Shift,AID Fuel Rate,AID Ideal Line,AID Mech Damage,AID Stability,AID Tire Wear Rate,Air Density,Air Temp,Ballast,Best Lap Delta,Best Lap Time,Brake Bias,Brake Pos,Brake Temp FL,Brake Temp FR,Brake Temp RL,Brake Temp RR,CG Accel Lateral,CG Accel Longitudinal,CG Accel Vertical,CG Height,Camber FL,Camber FR,Camber RL,Camber RR,Car Coord X,Car Coord Y,Car Coord Z,Car Damage Front,Car Damage Left,Car Damage Rear,Car Damage Right,Car Pos Norm,Caster FL,Caster FR,Chassis Pitch Angle,Chassis Pitch Rate,Chassis Roll Angle,Chassis Roll Rate,Chassis Velocity X,Chassis Velocity Y,Chassis Velocity Z,Chassis Yaw Rate,Clutch Pos,DRS Active,DRS Available,Drive Train Speed,ERS Heat Charging,ERS Is Charging,ERS Max Energy,ERS Power Level,ERS Recovery Level,Engine Brake Setting,Engine Limiter,Engine RPM,Flags,Fuel Level,Gear,Ground Speed,HR Sample Clock,In Pit,KERS Charge,KERS Deployed Energy,KERS Input,KERS Max Energy,LR Sample Clock,Lap Invalidated,Lap Time,Lap Time2,Last Lap Time,Last Sector Time,MR Sample Clock,Max Fuel,Max Power,Max RPM,Max Sus Travel FL,Max Sus Travel FR,Max Sus Travel RL,Max Sus Travel RR,Max Torque,Max Turbo Boost,Num Tires Off Track,Penalties Enabled,Position,Raw Data Sample Rate,Ride Height FL,Ride Height FR,Ride Height RL,Ride Height RR,Road Temp,Self Align Torque FL,Self Align Torque FR,Self Align Torque RL,Self Align Torque RR,Session Lap Count,Session Time Left,Steering Angle,Surface Grip,Suspension Travel FL,Suspension Travel FR,Suspension Travel RL,Suspension Travel RR,TC Active,TC Enabled,Throttle Pos,Tire Dirt Level FL,Tire Dirt Level FR,Tire Dirt Level RL,Tire Dirt Level RR,Tire Load FL,Tire Load FR,Tire Load RL,Tire Load RR,Tire Loaded Radius FL,Tire Loaded Radius FR,Tire Loaded Radius RL,Tire Loaded Radius RR,Tire Pressure FL,Tire Pressure FR,Tire Pressure RL,Tire Pressure RR,Tire Radius FL,Tire Radius FR,Tire Radius RL,Tire Radius RR,Tire Rubber Grip FL,Tire Rubber Grip FR,Tire Rubber Grip RL,Tire Rubber Grip RR,Tire Slip Angle FL,Tire Slip Angle FR,Tire Slip Angle RL,Tire Slip Angle RR,Tire Slip Ratio FL,Tire Slip Ratio FR,Tire Slip Ratio RL,Tire Slip Ratio RR,Tire Temp Core FL,Tire Temp Core FR,Tire Temp Core RL,Tire Temp Core RR,Tire Temp Inner FL,Tire Temp Inner FR,Tire Temp Inner RL,Tire Temp Inner RR,Tire Temp Middle FL,Tire Temp Middle FR,Tire Temp Middle RL,Tire Temp Middle RR,Tire Temp Outer FL,Tire Temp Outer FR,Tire Temp Outer RL,Tire Temp Outer RR,Toe In FL,Toe In FR,Toe In RL,Toe In RR,Turbo Boost,Wheel Angular Speed FL,Wheel Angular Speed FR,Wheel Angular Speed RL,Wheel Angular Speed RR,Wind Direction,Wind Speed
0,0.0,1.0,0.0,1.0,1.0,0.0,0.0,1.0,0.0,100.0,1.0,1.1856,26.0,0.0,0.0,0.0,59.99999,0.0,26.0,26.0,26.0,26.0,-0.0915555555555555,0.3026,0.020800000000000003,293.9,-2.707,-2.660222222222222,-1.50895,-1.5645,-275.63,216.29000000000002,190.98725,0.0,0.0,0.0,0.0,0.0016333333333333755,-5.498166666666667,-5.498166666666667,-0.5497000000000001,1.5055,-0.017875000000000085,-1.362,65.521,-0.0475,-0.215225,1.0499999999999998,100.0,1.0,1.0,202.28,0.0,0.0,0.0,0.0,0.0,0.0,0.0,8573.9,0.0,55.0,5.0,235.8466666666667,0.0,0.0,0.0,0.0,0.0,0.0,0.0,0.0,0.0030000000000001137,0.0030000000000001137,0.0,0.0,0.0,55.0,616.79921,10000.0,85.0,85.0,85.0,85.0,395.0,0.0,0.0,0.0,1.0,20.0,52.582,52.582,49.454,49.454,34.0,-26.557499999999997,22.468,-32.11,23.9325,0.0,1783.578,0.7750000000000021,100.0,27.794,27.156,40.548,40.474000000000004,0.0,1.0,100.0,0.0,0.0,0.0,0.0,3003.142857142857,3314.0,4200.5,3986.7,305.739,304.1675,314.66525,314.85,21.769,20.503,21.7349,21.2779,314.99999,314.99999,324.99998,324.99998,99.55841428571429,99.50695,99.56385714285715,99.54385714285715,-0.010666666666666602,-0.133,-0.1845,0.0458,-0.051666666666669414,-0.04833333333333201,1.5545,1.6095,37.056,29.144,36.843,33.987,56.120000000000005,34.297,58.632999999999996,51.1905,54.052,33.512,57.284,49.567499999999995,53.230999999999995,33.1115,57.259,48.99733333333333,-0.016000000000000014,-0.13600000000000012,0.10640000000000001,0.10683000000000001,0.0,205.335,205.245,202.28,202.28,0.0,0.0
1,0.0,1.0,0.0,1.0,1.0,0.0,0.0,1.0,0.0,100.0,1.0,1.1856,26.0,0.0,0.0,0.0,59.999996,0.0,26.0,26.0,26.0,26.0,-0.10766666666666658,0.3206,0.2089,292.892,-2.62545,-2.7764444444444445,-1.51865,-1.5615,-272.09,216.285,190.965875,0.0,0.0,0.0,0.0,0.003666666666666596,-5.498166666666667,-5.498166666666667,-0.5017,-0.8375000000000001,-0.0674999999999999,-1.0920000000000005,65.684,-0.0621,-0.19985,1.4560000000000004,100.0,1.0,1.0,202.49,0.0,0.0,0.0,0.0,0.0,0.0,0.0,8582.7,0.0,55.0,5.0,236.43333333333334,1.0,0.0,0.0,0.0,0.0,0.0,0.0,0.0,0.05699999999999861,0.05699999999999861,0.0,0.0,1.0,55.0,616.79921,10000.0,85.000001,85.000001,85.000001,85.000001,395.0,0.0,0.0,0.0,1.0,166.665,53.345,53.345,48.263999999999996,48.263999999999996,34.0,-27.97,18.014,-34.333333333333336,28.265,0.0,1783.524,0.8850000000000016,100.0,27.734,27.01,42.968,41.748000000000005,0.0,1.0,100.0,0.0,0.0,0.0,0.0,3177.714285714286,2711.8,4280.75,4698.7,305.2575,306.1895,314.37075,313.1175,21.7794,20.5084,21.746299999999998,21.2875,314.999998,314.999998,324.999988,324.999988,99.55841428571429,99.50696666666667,99.56401428571428,99.54401428571428,-0.020000000000000018,-0.14866666666666672,-0.194,0.023600000000000003,-0.08166666666667055,-0.03833333333332689,1.4135,1.486,37.122,29.177333333333333,36.915,34.047,56.102999999999994,34.3405,58.6825,51.260999999999996,54.037,33.552,57.33,49.6355,53.214,33.15,57.3025,49.06366666666666,-0.0035000000000000586,-0.14550000000000018,0.10666500000000001,0.10899500000000001,0.0,205.84,205.69,202.49,202.49,0.0,0.0
2,0.0,1.0,0.0,1.0,1.0,0.0,0.0,1.0,0.0,100.0,1.0,1.1856,26.0,0.0,0.0,0.0,59.999996,0.0,26.0,26.0,26.0,26.0,-0.14100000000000001,0.29370000000000007,-0.00545,293.51800000000003,-2.58835,-2.806222222222222,-1.48075,-1.6212,-268.94,216.2775,190.948125,0.0,0.0,0.0,0.0,0.005499999999999949,-5.498166666666667,-5.498166666666667,-0.5482,-0.0050000000000001155,-0.06150000000000011,1.843,65.818,-0.0787,-0.251125,1.6620000000000008,100.0,1.0,1.0,203.34666666666666,0.0,0.0,0.0,0.0,0.0,0.0,0.0,8619.1,0.0,55.0,5.0,236.91333333333333,0.0,0.0,0.0,0.0,0.0,0.0,0.0,0.0,0.10500000000000043,0.10500000000000043,0.0,0.0,0.0,55.0,616.79921,10000.0,85.000001,85.000001,85.000001,85.000001,395.0,0.0,0.0,0.0,1.0,333.33500000000004,52.277,52.277,49.973,49.973,34.0,-30.92,19.288,-30.246666666666666,19.887500000000003,0.0,1783.475,0.7349999999999994,100.0,28.47,27.094,42.812,41.400999999999996,0.0,1.0,100.0,0.0,0.0,0.0,0.0,3431.0,2884.4,3799.5,3686.7,304.3785,305.63225,315.51425,315.7425,21.7891,20.512999999999998,21.7561,21.2957,314.999998,314.999998,324.999988,324.999988,99.55841428571429,99.50698333333334,99.56414285714285,99.54414285714286,-0.030999999999999917,-0.15733333333333333,-0.23633333333333334,-0.001,-0.03833333333332689,-0.03166666666666629,1.6335,1.699,37.182,29.206,36.976,34.098,56.093,34.378,58.72,51.3155,54.025999999999996,33.5865,57.365,49.6875,53.203,33.183,57.3345,49.114666666666665,-0.018999999999999906,-0.13500000000000023,0.10519500000000001,0.10298500000000001,0.0,206.24,206.07999999999998,203.3466666666667,203.34666666666666,0.0,0.0
3,0.0,1.0,0.0,1.0,1.0,0.0,0.0,1.0,0.0,100.0,1.0,1.1856,26.0,0.0,0.0,0.0,59.999996,0.0,26.0,26.0,26.0,26.0,-0.14611111111111108,0.3256000000000001,-0.038975,293.289,-2.7233,-2.6905555555555556,-1.5112,-1.5937000000000001,-265.77,216.26749999999998,190.929625,0.0,0.0,0.0,0.0,0.0073666666666665215,-5.498166666666667,-5.498166666666667,-0.5102,0.5429999999999999,-0.01362500000000022,-0.7389999999999999,65.961,-0.0915,-0.20320000000000002,1.2520000000000007,100.0,1.0,1.0,203.50333333333333,0.0,0.0,0.0,0.0,0.0,0.0,0.0,8625.8,0.0,55.0,5.0,237.42666666666668,1.0,0.0,0.0,0.0,0.0,0.0,0.0,0.0,0.1529999999999987,0.1529999999999987,0.0,0.0,1.0,55.0,616.79921,10000.0,85.000001,85.000001,85.000001,85.000001,395.0,0.0,0.0,0.0,1.0,333.33500000000004,53.36,53.36,48.035,48.035,34.0,-26.115000000000002,17.759999999999998,-35.56666666666666,24.3625,0.0,1783.425,0.6000000000000014,100.0,28.103,27.19,42.552,41.53,0.0,1.0,100.0,0.0,0.0,0.0,0.0,2887.857142857143,2800.9,4333.125,4206.7,306.0035,305.715,314.28975,314.3655,21.7984,20.5178,21.7659,21.304,314.999998,314.999998,324.999988,324.999988,99.55841428571429,99.507,99.56428571428572,99.54427142857143,-0.023666666666666725,-0.15999999999999992,-0.22033333333333335,0.0116,-0.04333333333332945,-0.04833333333333201,1.5135,1.53,37.239999999999995,29.236333333333334,37.037,34.15,56.078,34.419,58.757999999999996,51.3755,54.012,33.624,57.4005,49.745,53.189,33.2185,57.368,49.17133333333334,-0.038000000000000034,-0.11699999999999999,0.10573,0.11586500000000001,0.0,206.685,206.57,203.50333333333333,203.50333333333333,0.0,0.0
4,0.0,1.0,0.0,1.0,1.0,0.0,0.0,1.0,0.0,100.0,1.0,1.1856,26.0,0.0,0.0,0.0,59.999996,0.0,26.0,26.0,26.0,26.0,-0.1534444444444445,0.27859999999999996,-0.017475,293.533,-2.6564,-2.746888888888889,-1.52645,-1.6027,-262.4,216.2525,190.91,0.0,0.0,0.0,0.0,0.009299999999999975,-5.498166666666667,-5.498166666666667,-0.5436,-0.8375000000000001,-0.07850000000000001,-0.7309999999999999,66.107,-0.091,-0.23717500000000002,1.1079999999999997,100.0,1.0,1.0,204.08333333333331,0.0,0.0,0.0,0.0,0.0,0.0,0.0,8650.3,0.0,55.0,5.0,237.95666666666668,0.0,0.0,0.0,0.0,0.0,0.0,0.0,0.0,0.20400000000000063,0.20400000000000063,0.0,0.0,0.0,55.0,616.79921,10000.0,85.000001,85.000001,85.000001,85.000001,395.0,0.0,0.0,0.0,1.0,166.665,52.979,52.979,48.676,48.676,34.0,-28.755,19.83,-32.56666666666666,21.035,0.0,1783.376,0.5949999999999989,100.0,27.891,26.786,42.992000000000004,41.556,0.0,1.0,100.0,0.0,0.0,0.0,0.0,3197.714285714286,2983.1,4051.25,3694.0,305.14,305.371,314.86,315.62225,21.808,20.5229,21.7765,21.3128,314.999998,314.999998,324.999988,324.999988,99.55842857142858,99.50701666666667,99.56442857142856,99.54441428571428,-0.024666666666666615,-0.14933333333333332,-0.211,0.019,-0.02499999999999858,-0.054999999999999716,1.546,1.6065,37.3,29.268,37.102999999999994,34.205,56.06,34.461,58.8015,51.436,53.995999999999995,33.6625,57.441,49.8035,53.171,33.2555,57.4055,49.228,-0.03149999999999986,-0.1160000000000001,0.10893000000000001,0.10989000000000002,0.0,207.065,207.0,204.08333333333331,204.08333333333331,0.0,0.0
5,0.0,1.0,0.0,1.0,1.0,0.0,0.0,1.0,0.0,100.0,1.0,1.1856,26.0,0.0,0.0,0.0,59.999996,0.0,26.0,26.0,26.0,26.0,-0.1363333333333333,0.2957000000000001,-0.010025000000000001,293.564,-2.6699,-2.767444444444444,-1.5094500000000002,-1.5906,-259.03,216.235,190.889625,0.0,0.0,0.0,0.0,0.011266666666666536,-5.498166666666667,-5.498166666666667,-0.5348,0.38,-0.0847500000000001,-0.18999999999999995,66.254,-0.0917,-0.21252500000000002,1.1340000000000003,100.0,1.0,1.0,204.49333333333334,0.0,0.0,0.0,0.0,0.0,0.0,0.0,8667.8,0.0,55.0,5.0,238.48333333333335,1.0,0.0,0.0,0.0,0.0,0.0,0.0,0.0,0.254999999999999,0.254999999999999,0.0,0.0,1.0,55.0,616.79921,10000.0,85.000001,85.000001,85.000001,85.000001,395.0,0.0,0.0,0.0,1.0,333.33500000000004,53.406,53.406,48.874,48.874,34.0,-28.655,18.535999999999998,-34.24666666666667,22.587500000000002,0.0,1783.323,0.21000000000000085,100.0,27.842,26.803,42.659,41.282,0.0,1.0,100.0,0.0,0.0,0.0,0.0,3198.714285714286,2756.8,4193.75,4038.5,305.207,305.95675,314.66725,314.7895,21.818,20.528,21.7868,21.3215,314.999998,314.999998,324.999988,324.999988,99.55842857142858,99.50703333333334,99.56457142857143,99.54454285714286,-0.021333333333333204,-0.14500000000000002,-0.22383333333333336,0.003,-0.041666666666671404,-0.03833333333332689,1.523,1.566,37.361999999999995,29.299666666666667,37.168,34.2595,56.047,34.5025,58.843,51.495,53.983000000000004,33.7005,57.480000000000004,49.8595,53.158,33.292,57.4415,49.283,-0.05600000000000005,-0.09650000000000025,0.10660000000000001,0.11175000000000002,0.0,207.57,207.45499999999998,204.49333333333334,204.49333333333334,0.0,0.0
6,0.0,1.0,0.0,1.0,1.0,0.0,0.0,1.0,0.0,100.0,1.0,1.1856,26.0,0.0,0.0,0.0,59.999996,0.0,26.0,26.0,26.0,26.0,-0.11922222222222212,0.29890000000000017,0.005925000000000001,293.365,-2.63505,-2.798222222222222,-1.5538500000000002,-1.5831,-255.65,216.2125,190.869,0.0,0.0,0.0,0.0,0.01323333333333332,-5.498166666666667,-5.498166666666667,-0.5304,0.10399999999999998,-0.06237499999999985,0.8820000000000001,66.4,-0.0864,-0.21480000000000002,0.7039999999999997,100.0,1.0,1.0,204.91666666666669,0.0,0.0,0.0,0.0,0.0,0.0,0.0,8685.6,0.0,55.0,5.0,239.01,0.0,0.0,0.0,0.0,0.0,0.0,0.0,0.0,0.30600000000000094,0.30600000000000094,0.0,0.0,0.0,55.0,616.79921,10000.0,85.000001,85.000001,85.000001,85.000001,395.0,0.0,0.0,0.0,1.0,166.665,53.101,53.101,48.615,48.615,34.0,-26.39,21.575999999999997,-32.81,23.7275,0.0,1783.275,0.03999999999999915,100.0,27.919,26.792,42.824,41.537,0.0,1.0,100.0,0.0,0.0,0.0,0.0,3091.714285714286,2965.1,4094.25,4067.3,305.3055,305.36825,314.82675,314.78075,21.8278,20.5331,21.7973,21.3304,314.999998,314.999998,324.999988,324.999988,99.55842857142858,99.50705,99.56471428571429,99.5447,0.007000000000000117,-0.1156666666666668,-0.2025,0.024399999999999998,-0.02833333333332888,-0.05666666666667197,1.5505,1.565,37.424,29.331666666666663,37.233000000000004,34.315,56.032,34.5435,58.8845,51.558,53.969,33.738,57.519,49.9195,53.143,33.328,57.4775,49.342,-0.06800000000000006,-0.07650000000000023,0.10178500000000001,0.10203500000000001,0.0,208.01,207.945,204.91666666666669,204.91666666666669,0.0,0.0
7,0.0,1.0,0.0,1.0,1.0,0.0,0.0,1.0,0.0,100.0,1.0,1.1856,26.0,0.0,0.0,0.0,59.999996,0.0,26.0,26.0,26.0,26.0,-0.09333333333333338,0.29190000000000005,0.045950000000000005,293.121,-2.60665,-2.735333333333333,-1.51235,-1.6268,-252.46,216.19,190.849875,0.0,0.0,0.0,0.0,0.015100000000000002,-5.498166666666667,-5.498166666666667,-0.5349,0.0030000000000000027,-0.05125000000000002,1.178,66.537,-0.07,-0.22465000000000002,0.3639999999999999,100.0,1.0,1.0,205.31666666666666,0.0,0.0,0.0,0.0,0.0,0.0,0.0,8702.6,0.0,55.0,5.0,239.50666666666666,1.0,0.0,0.0,0.0,0.0,0.0,0.0,0.0,0.3539999999999992,0.3539999999999992,0.0,0.0,1.0,55.0,616.79921,10000.0,85.000001,85.000001,85.000001,85.000001,395.0,0.0,0.0,0.0,1.0,166.665,52.704,52.704,48.766999999999996,48.766999999999996,34.0,-26.2,22.604,-30.883333333333333,25.69,0.0,1783.226,-0.254999999999999,100.0,28.017,26.84,42.861000000000004,41.772999999999996,0.0,1.0,100.0,0.0,0.0,0.0,0.0,3209.0,3062.1,4038.875,4094.2,304.916,305.1295,314.9115,314.65225,21.8371,20.5379,21.8072,21.3388,314.999998,314.999998,324.999988,324.999988,99.55842857142858,99.50706666666666,99.56485714285714,99.54482857142857,0.03299999999999992,-0.09566666666666679,-0.18183333333333335,0.0442,-0.02499999999999858,-0.04833333333333201,1.5374999999999999,1.546,37.482,29.362000000000002,37.295,34.3675,56.018,34.581,58.924,51.6165,53.956,33.772999999999996,57.5555,49.976,53.129000000000005,33.361,57.5115,49.397,-0.09450000000000003,-0.05600000000000005,0.10884,0.10995500000000001,0.0,208.405,208.38,205.31666666666666,205.31666666666666,0.0,0.0
8,0.0,1.0,0.0,1.0,1.0,0.0,0.0,1.0,0.0,100.0,1.0,1.1856,26.0,0.0,0.0,0.0,59.999996,0.0,26.0,26.0,26.0,26.0,-0.036111111111111094,0.2852000000000001,-0.038825,293.411,-2.69625,-2.715222222222222,-1.4988000000000001,-1.5531000000000001,-249.06,216.16500000000002,190.82925,0.0,0.0,0.0,0.0,0.017066666666666563,-5.498166666666667,-5.498166666666667,-0.5351,-0.47150000000000003,-0.03474999999999984,-0.43999999999999995,66.684,-0.0499,-0.21527500000000002,-0.02799999999999958,100.0,1.0,1.0,205.70333333333332,0.0,0.0,0.0,0.0,0.0,0.0,0.0,8719.0,0.0,55.0,5.0,240.03,0.0,0.0,0.0,0.0,0.0,0.0,0.0,0.0,0.40500000000000114,0.40500000000000114,0.0,0.0,0.0,55.0,616.79921,10000.0,85.000001,85.000001,85.000001,85.000001,395.0,0.0,0.0,0.0,1.0,333.33500000000004,53.619,53.619,48.065,48.065,34.0,-23.634999999999998,21.854,-30.856666666666666,26.7475,0.0,1783.174,-0.35999999999999943,100.0,27.466,26.946,42.730000000000004,41.971000000000004,0.0,1.0,100.0,0.0,0.0,0.0,0.0,2964.857142857143,2899.9,4190.125,4122.6,305.8995,305.472,314.58375,314.522,21.8466,20.5431,21.8176,21.3477,314.999998,314.999998,324.999988,324.999988,99.55844285714285,99.50706666666666,99.565,99.54497142857143,0.051000000000000156,-0.07966666666666677,-0.15683333333333335,0.07540000000000001,-0.03333333333333144,-0.02833333333332888,1.5175,1.506,37.542,29.394333333333336,37.36,34.4235,56.001999999999995,34.6195,58.965,51.6785,53.94,33.808,57.594,50.0355,53.113,33.3945,57.5465,49.455,-0.11149999999999993,-0.04300000000000015,0.10389000000000001,0.11280000000000001,0.0,208.84,208.82999999999998,205.70333333333332,205.70333333333332,0.0,0.0
9,0.0,1.0,0.0,1.0,1.0,0.0,0.0,1.0,0.0,100.0,1.0,1.1856,26.0,0.0,0.0,0.0,59.999996,0.0,26.0,26.0,26.0,26.0,-0.006333333333333302,0.2811000000000001,-0.019700000000000002,293.121,-2.6845499999999998,-2.721,-1.55375,-1.5558,-245.85,216.14,190.809375,0.0,0.0,0.0,0.0,0.018933333333333358,-5.498166666666667,-5.498166666666667,-0.5427000000000001,0.6174999999999999,-0.0365000000000002,-0.41999999999999993,66.81700000000001,-0.030500000000000003,-0.217675,-0.09999999999999964,100.0,1.0,1.0,206.25333333333333,0.0,0.0,0.0,0.0,0.0,0.0,0.0,8742.3,0.0,55.0,5.0,240.51,1.0,0.0,0.0,0.0,0.0,0.0,0.0,0.0,0.4529999999999994,0.4529999999999994,0.0,0.0,1.0,55.0,616.79921,10000.0,85.000001,85.000001,85.000001,85.000001,395.0,0.0,0.0,0.0,1.0,166.665,52.368,52.368,49.149,49.149,34.0,-26.82,23.928,-28.553333333333335,26.315,0.0,1783.126,-0.5,100.0,27.865,27.36,42.41,41.958,0.0,1.0,100.0,0.0,0.0,0.0,0.0,3381.142857142857,3007.2,3994.75,4020.9,304.654,305.082,315.15225,314.8465,21.8558,20.5482,21.8273,21.3561,314.999998,314.999998,324.999988,324.999988,99.55844285714285,99.50708333333333,99.56512857142857,99.5451,0.06466666666666665,-0.05499999999999994,-0.1385,0.0892,-0.041666666666671404,-0.051666666666669414,1.5775,1.5775,37.599000000000004,29.426000000000002,37.42,34.4755,55.989999999999995,34.657,59.0005,51.7355,53.929,33.843,57.626999999999995,50.09,53.1,33.4275,57.577,49.50866666666667,-0.11799999999999988,-0.03299999999999992,0.10436500000000001,0.11361500000000001,0.0,209.26,209.26999999999998,206.25333333333333,206.25333333333333,0.0,0.0
10,0.0,1.0,0.0,1.0,1.0,0.0,0.0,1.0,0.0,100.0,1.0,1.1856,26.0,0.0,0.0,0.0,59.999996,0.0,26.0,26.0,26.0,26.0,0.0041111111111111764,0.2874000000000001,0.0539,292.953,-2.6585,-2.709111111111111,-1.53295,-1.5349,-242.44,216.1125,190.788625,0.0,0.0,0.0,0.0,0.02093333333333336,-5.498166666666667,-5.498166666666667,-0.5182,-0.49750000000000005,0.008375000000000021,1.839,66.964,-0.0091,-0.206425,-0.5599999999999996,100.0,1.0,1.0,206.48000000000002,0.0,0.0,0.0,0.0,0.0,0.0,0.0,8751.9,0.0,55.0,5.0,241.04000000000002,0.0,0.0,0.0,0.0,0.0,0.0,1.0,0.0,0.5040000000000013,0.5040000000000013,0.0,0.0,0.0,55.0,616.79921,10000.0,85.000001,85.000001,85.000001,85.000001,395.0,0.0,0.0,0.0,1.0,333.33500000000004,53.452,53.452,47.607,47.607,34.0,-20.3675,24.064,-29.443333333333335,30.305,0.0,1783.075,-0.620000000000001,100.0,27.818,27.161,42.900999999999996,42.592,0.0,1.0,100.0,0.0,0.0,0.0,0.0,2819.714285714286,2982.7,4247.25,4344.1,306.158,305.3935,314.369,314.064,21.8655,20.5534,21.8378,21.3652,314.999998,314.999998,324.999988,324.999988,99.55845714285714,99.50708333333333,99.56527142857144,99.54524285714285,0.09866666666666646,-0.03600000000000003,-0.10633333333333334,0.11120000000000001,-0.03499999999999659,-0.045000000000001705,1.4815,1.459,37.659,29.459,37.486000000000004,34.5325,55.977999999999994,34.6945,59.043,51.801,53.917,33.876999999999995,57.6665,50.153,53.088,33.460499999999996,57.6135,49.57033333333334,-0.1279999999999999,-0.023499999999999854,0.108115,0.10865000000000001,0.0,209.7,209.74,206.48000000000002,206.48000000000002,0.0,0.0
11,0.0,1.0,0.0,1.0,1.0,0.0,0.0,1.0,0.0,100.0,1.0,1.1856,26.0,0.0,0.0,0.0,59.999996,0.0,26.0,26.0,26.0,26.0,0.026222222222222147,0.27259999999999995,-0.074075,293.549,-2.7087,-2.686,-1.5901,-1.5235,-238.82,216.08249999999998,190.76675,0.0,0.0,0.0,0.0,0.022599999999999953,-5.498166666666667,-5.498166666666667,-0.5611,-0.06899999999999995,0.033625000000000016,0.27300000000000013,67.111,0.0131,-0.235025,-0.6639999999999997,100.0,1.0,1.0,207.25,0.0,0.0,0.0,0.0,0.0,0.0,0.0,8784.6,0.0,55.0,5.0,241.57,1.0,0.0,0.0,0.0,0.0,0.0,1.0,0.0,0.5579999999999998,0.5579999999999998,0.0,0.0,1.0,55.0,616.79921,10000.0,85.000001,85.000001,85.000001,85.000001,395.0,0.0,0.0,0.0,1.0,166.665,52.872,52.872,49.271,49.271,34.0,-21.645,26.560000000000002,-23.953333333333333,27.240000000000002,0.0,1783.023,-0.634999999999998,100.0,27.531,27.424,42.256,42.511,0.0,1.0,100.0,0.0,0.0,0.0,0.0,2996.5714285714284,3178.6,3709.25,3886.7,305.6755,304.72875,315.8345,315.209,21.8755,20.5592,21.8487,21.3746,314.999998,314.999998,324.999988,324.999988,99.55847142857142,99.5071,99.56542857142857,99.54538571428571,0.11333333333333373,-0.01766666666666672,-0.08600000000000001,0.1432,-0.036666666666668846,-0.06666666666666998,1.6465,1.611,37.722,29.494666666666667,37.554,34.591499999999996,55.963,34.7345,59.0805,51.866,53.903,33.914,57.701,50.215,53.072,33.496,57.644999999999996,49.63166666666667,-0.127,-0.032500000000000195,0.10236500000000001,0.10992500000000001,0.0,210.14,210.2,207.25,207.25,0.0,0.0
12,0.0,1.0,0.0,1.0,1.0,0.0,0.0,1.0,0.0,100.0,1.0,1.1856,26.0,0.0,0.0,0.0,59.999996,0.0,26.0,26.0,26.0,26.0,0.06077777777777782,0.2833000000000001,0.030025000000000003,292.969,-2.7633,-2.679777777777778,-1.55305,-1.5241,-235.8,216.06,190.74725,0.0,0.0,0.0,0.0,0.025466666666666526,-5.498166666666667,-5.498166666666667,-0.5455,0.29400000000000004,0.01737499999999992,-0.8970000000000002,67.24000000000001,0.028,-0.20565,-0.637999999999999,100.0,1.0,1.0,207.40666666666667,0.0,0.0,0.0,0.0,0.0,0.0,0.0,8791.2,0.0,55.0,5.0,242.03,0.0,0.0,0.0,0.0,0.0,0.0,1.0,0.0,0.602999999999998,0.602999999999998,0.0,0.0,0.0,55.0,616.79921,10000.0,85.000001,85.000001,85.000001,85.000001,395.0,0.0,0.0,0.0,1.0,333.33500000000004,52.872,52.872,47.928,47.928,34.0,-22.915,26.042,-27.88,30.5275,0.0,1782.976,-0.6750000000000007,100.0,27.28,27.703,42.196,42.552,0.0,1.0,100.0,0.0,0.0,0.0,0.0,3130.714285714286,3095.6,4241.625,4170.5,305.4685,304.8415,314.56475,314.45775,21.8839,20.564,21.8578,21.3825,314.999998,314.999998,324.999988,324.999988,99.55848571428571,99.5071,99.56554285714286,99.54551428571429,0.11699999999999999,-0.014333333333333309,-0.07983333333333333,0.15,-0.036666666666668846,-0.036666666666668846,1.516,1.5145,37.774,29.52466666666667,37.611000000000004,34.6405,55.952,34.7685,59.1155,51.920500000000004,53.891999999999996,33.945499999999996,57.734,50.268,53.061,33.525999999999996,57.675,49.68333333333334,-0.12949999999999995,-0.027499999999999858,0.10639000000000001,0.10924,0.0,210.54500000000002,210.60500000000002,207.40666666666667,207.40666666666667,0.0,0.0
13,0.0,1.0,0.0,1.0,1.0,0.0,0.0,1.0,0.0,100.0,1.0,1.1856,26.0,0.0,0.0,0.0,59.999996,0.0,26.0,26.0,26.0,26.0,0.07433333333333336,0.2772000000000001,0.036825000000000004,292.557,-2.7397,-2.6706666666666665,-1.59015,-1.5390000000000001,-232.17000000000002,216.0325,190.72425,0.0,0.0,0.0,0.0,0.026899999999999924,-5.498166666666667,-5.498166666666667,-0.5397000000000001,-0.13800000000000012,0.02224999999999988,-0.492,67.39,0.0362,-0.21655000000000002,-0.8260000000000005,100.0,1.0,1.0,207.82,0.0,0.0,0.0,0.0,0.0,0.0,0.0,8808.7,0.0,55.0,5.0,242.57333333333332,1.0,0.0,0.0,0.0,0.0,0.0,1.0,0.0,0.657,0.657,0.0,0.0,1.0,55.0,616.79921,10000.0,85.000001,85.000001,85.000001,85.000001,395.0,0.0,0.0,0.0,1.0,166.665,52.46,52.46,47.928,47.928,34.0,-21.8325,27.076,-27.573333333333334,32.21,0.0,1782.923,-0.8599999999999994,100.0,27.658,27.948,42.454,43.086,0.0,1.0,100.0,0.0,0.0,0.0,0.0,3160.0,3089.8,4190.125,4286.9,305.353,304.84825,314.64825,314.14425,21.8941,20.5698,21.8689,21.3922,314.999998,314.999998,324.999988,324.999988,99.5585,99.5071,99.5657,99.54567142857142,0.1426666666666665,0.014666666666666828,-0.07033333333333333,0.15380000000000002,-0.051666666666669414,-0.03999999999999915,1.511,1.4755,37.838,29.561333333333334,37.681,34.701499999999996,55.942,34.809,59.1575,51.99,53.882,33.983000000000004,57.772999999999996,50.3345,53.05,33.562,57.711,49.748666666666665,-0.14949999999999997,-0.00550000000000006,0.104785,0.10474000000000001,0.0,211.01,211.05,207.82,207.82,0.0,0.0
14,0.0,1.0,0.0,1.0,1.0,0.0,0.0,1.0,0.0,100.0,1.0,1.1856,26.0,0.0,0.0,0.0,59.999996,0.0,26.0,26.0,26.0,26.0,0.09866666666666668,0.26380000000000003,-0.007025,292.77,-2.73865,-2.6127777777777776,-1.5989,-1.5119,-228.93,216.0125,190.70425,0.0,0.0,0.0,0.0,0.028766666666666607,-5.498166666666667,-5.498166666666667,-0.5497000000000001,-0.16999999999999993,0.050249999999999906,-0.03600000000000003,67.521,0.0499,-0.22937500000000002,-0.9639999999999995,100.0,1.0,1.0,208.31333333333333,0.0,0.0,0.0,0.0,0.0,0.0,0.0,8829.6,0.0,55.0,5.0,243.04666666666668,0.0,0.0,0.0,0.0,0.0,0.0,1.0,0.0,0.7049999999999983,0.7049999999999983,0.0,0.0,0.0,55.0,616.79921,10000.0,85.000001,85.000001,85.000001,85.000001,395.0,0.0,0.0,0.0,1.0,333.33500000000004,52.567,52.567,48.111,48.111,34.0,-20.7475,27.15,-25.273333333333333,31.6725,0.0,1782.874,-0.9349999999999987,100.0,27.574,28.022,42.424,43.277,0.0,1.0,100.0,0.0,0.0,0.0,0.0,3048.857142857143,3168.5,4008.875,4153.5,305.6815,304.6265,315.08125,314.50075,21.9031,20.575,21.8787,21.4008,314.999998,314.999998,324.999988,324.999988,99.55851428571428,99.5071,99.56582857142857,99.54581428571429,0.14700000000000024,0.010333333333333083,-0.05416666666666667,0.1782,-0.06333333333333258,-0.03999999999999915,1.5554999999999999,1.5165,37.894,29.593666666666664,37.742000000000004,34.754999999999995,55.932,34.8455,59.1935,52.05,53.873000000000005,34.0165,57.806,50.3925,53.04,33.594,57.741,49.80533333333334,-0.15049999999999986,-0.004999999999999893,0.09894000000000001,0.1159,0.0,211.425,211.45499999999998,208.31333333333333,208.31333333333333,0.0,0.0
15,0.0,1.0,0.0,1.0,1.0,0.0,0.0,1.0,0.0,100.0,1.0,1.1856,26.0,0.0,0.0,0.0,59.999996,0.0,26.0,26.0,26.0,26.0,0.11266666666666669,0.28980000000000006,-0.043225,292.816,-2.71615,-2.5695555555555556,-1.6278000000000001,-1.4515,-225.68,215.9925,190.683875,0.0,0.0,0.0,0.0,0.03066666666666651,-5.498166666666667,-5.498166666666667,-0.5402,0.281,0.08237499999999986,-0.3160000000000003,67.653,0.0641,-0.211125,-1.1499999999999995,100.0,1.0,1.0,208.7,0.0,0.0,0.0,0.0,0.0,0.0,0.0,8846.0,0.0,55.0,5.0,243.52333333333334,1.0,0.0,0.0,0.0,0.0,0.0,1.0,0.0,0.7530000000000001,0.7530000000000001,0.0,0.0,1.0,55.0,616.79921,10000.0,85.000001,85.000001,85.000001,85.000001,395.0,0.0,0.0,0.0,1.0,333.33500000000004,52.795,52.795,48.187,48.187,34.0,-18.8075,27.195999999999998,-24.72,32.665,0.0,1782.826,-1.0,100.0,27.562,28.089,42.156,43.357,0.0,1.0,100.0,0.0,0.0,0.0,0.0,2883.714285714286,3132.4,3989.125,4328.2,306.1165,304.72475,315.16475,314.09575,21.912,20.5802,21.8883,21.4093,314.999998,314.999998,324.999988,324.999988,99.55854285714285,99.50711666666666,99.56597142857143,99.54595714285715,0.15933333333333355,0.02833333333333332,-0.04,0.18359999999999999,-0.04999999999999716,-0.04833333333333201,1.5665,1.517,37.95,29.626333333333335,37.802,34.808,55.924,34.8825,59.2275,52.1105,53.864000000000004,34.0505,57.838,50.4505,53.03,33.6265,57.769999999999996,49.86266666666667,-0.15500000000000003,0.0015000000000000568,0.10468000000000001,0.10834500000000001,0.0,211.82999999999998,211.89499999999998,208.7,208.7,0.0,0.0
16,0.0,1.0,0.0,1.0,1.0,0.0,0.0,1.0,0.0,100.0,1.0,1.1856,26.0,0.0,0.0,0.0,59.999996,0.0,26.0,26.0,26.0,26.0,0.12977777777777777,0.27049999999999996,-0.0489,292.816,-2.80705,-2.5789999999999997,-1.60025,-1.5129000000000001,-222.03,215.9725,190.6605,0.0,0.0,0.0,0.0,0.03279999999999994,-5.498166666666667,-5.498166666666667,-0.5632,-0.671,0.06812499999999999,-1.112,67.801,0.0766,-0.227725,-1.202,100.0,1.0,1.0,209.17000000000002,0.0,0.0,0.0,0.0,0.0,0.0,0.0,8866.0,0.0,55.0,5.0,244.05666666666667,0.0,0.0,0.0,0.0,0.0,0.0,1.0,0.0,0.8069999999999986,0.8069999999999986,0.0,0.0,0.0,55.0,616.79921,10000.0,85.000001,85.000001,85.000001,85.000001,395.0,0.0,0.0,0.0,1.0,166.665,52.567,52.567,47.989,47.989,34.0,-20.662499999999998,28.936,-23.303333333333335,32.4725,0.0,1782.773,-0.8949999999999996,100.0,27.213,28.172,42.385,43.466,0.0,1.0,100.0,0.0,0.0,0.0,0.0,3074.142857142857,3241.8,3941.5,4098.8,305.7405,304.44125,315.24825,314.607,21.9218,20.586199999999998,21.8994,21.419,314.999998,314.999998,324.999988,324.999988,99.55855714285714,99.50711666666666,99.56611428571429,99.5461,0.16500000000000004,0.04366666666666674,-0.025,0.2022,-0.060000000000002274,-0.02499999999999858,1.5645,1.5035,38.010999999999996,29.663333333333334,37.870999999999995,34.8685,55.91,34.925,59.269,52.178,53.851,34.09,57.8765,50.5155,53.016,33.664500000000004,57.805,49.92666666666666,-0.15049999999999986,0.0,0.10734500000000001,0.109685,0.0,212.245,212.315,209.17000000000002,209.17000000000002,0.0,0.0
17,0.0,1.0,0.0,1.0,1.0,0.0,0.0,1.0,0.0,100.0,1.0,1.1856,26.0,0.0,0.0,0.0,59.999996,0.0,26.0,26.0,26.0,26.0,0.12444444444444436,0.28380000000000005,0.010325,292.496,-2.7682,-2.560666666666667,-1.64165,-1.4753,-218.76999999999998,215.96,190.63925,0.0,0.0,0.0,0.0,0.03466666666666651,-5.498166666666667,-5.498166666666667,-0.5504,0.512,0.04712499999999986,-0.7410000000000001,67.932,0.0824,-0.206025,-1.1479999999999997,100.0,1.0,1.0,209.51666666666665,0.0,0.0,0.0,0.0,0.0,0.0,0.0,8880.7,0.0,55.0,5.0,244.52666666666664,1.0,0.0,0.0,0.0,0.0,0.0,1.0,0.0,0.8550000000000004,0.8550000000000004,0.0,0.0,1.0,55.0,616.79921,10000.0,85.000001,85.000001,85.000001,85.000001,395.0,0.0,0.0,0.0,1.0,166.665,52.429,52.429,47.806,47.806,34.0,-20.09,27.102,-26.099999999999998,33.065,0.0,1782.725,-0.9299999999999997,100.0,27.67,28.427,42.199,43.437,0.0,1.0,100.0,0.0,0.0,0.0,0.0,3096.714285714286,3079.4,4255.25,4269.1,305.5945,304.9365,314.62825,314.293,21.9308,20.5915,21.9091,21.4275,314.999998,314.999998,324.999988,324.999988,99.55857142857143,99.50713333333333,99.56625714285714,99.54624285714286,0.17600000000000016,0.04300000000000015,-0.025333333333333333,0.19480000000000003,-0.04833333333333201,-0.045000000000001705,1.546,1.5035,38.067,29.697,37.932,34.922,55.903,34.964,59.3035,52.2375,53.844,34.126,57.908500000000004,50.573,53.007999999999996,33.6995,57.834,49.983000000000004,-0.15049999999999986,-0.004999999999999893,0.11036000000000001,0.10006000000000001,0.0,212.695,212.78,209.51666666666665,209.51666666666665,0.0,0.0
18,0.0,1.0,0.0,1.0,1.0,0.0,0.0,1.0,0.0,100.0,1.0,1.1856,26.0,0.0,0.0,0.0,59.999996,0.0,26.0,26.0,26.0,26.0,0.13955555555555565,0.2763,-0.036775,292.511,-2.799,-2.538222222222222,-1.65645,-1.4220000000000002,-215.5,215.9475,190.618125,0.0,0.0,0.0,0.0,0.036566666666666525,-5.498166666666667,-5.498166666666667,-0.5594,-0.5425,0.07099999999999995,-0.10999999999999988,68.062,0.0862,-0.222175,-1.218,100.0,1.0,1.0,209.93666666666667,0.0,0.0,0.0,0.0,0.0,0.0,0.0,8898.4,0.0,55.0,5.0,244.99666666666667,0.0,0.0,0.0,0.0,0.0,0.0,1.0,0.0,0.9029999999999987,0.9029999999999987,0.0,0.0,0.0,55.0,616.79921,10000.0,85.000001,85.000001,85.000001,85.000001,395.0,0.0,0.0,0.0,1.0,166.665,52.399,52.399,47.729,47.729,34.0,-19.775,29.224,-24.706666666666663,32.08,0.0,1782.677,-1.1499999999999986,100.0,27.416,28.25,42.551,43.827,0.0,1.0,100.0,0.0,0.0,0.0,0.0,3086.0,3262.4,4048.625,4179.1,305.6785,304.42525,315.0485,314.484,21.9396,20.5968,21.9189,21.4362,314.999998,314.999998,324.999988,324.999988,99.5586,99.50713333333333,99.56638571428572,99.54638571428572,0.18666666666666654,0.055333333333333456,-0.023,0.2062,-0.04833333333333201,-0.041666666666671404,1.557,1.511,38.122,29.729666666666667,37.992999999999995,34.9765,55.894,35.001999999999995,59.3405,52.299,53.836,34.161500000000004,57.942499999999995,50.6325,52.998000000000005,33.733000000000004,57.8655,50.041333333333334,-0.16149999999999998,0.012499999999999956,0.112875,0.10521000000000001,0.0,213.055,213.13,209.93666666666667,209.93666666666667,0.0,0.0
19,0.0,1.0,0.0,1.0,1.0,0.0,0.0,1.0,0.0,100.0,1.0,1.1856,26.0,0.0,0.0,0.0,59.999996,0.0,26.0,26.0,26.0,26.0,0.16488888888888886,0.29510000000000014,0.052000000000000005,291.916,-2.723,-2.6310000000000002,-1.6756,-1.4006,-211.82,215.94,190.59425,0.0,0.0,0.0,0.0,0.0387333333333334,-5.498166666666667,-5.498166666666667,-0.5483,0.7929999999999999,0.08549999999999991,-0.556,68.208,0.094,-0.21045,-1.612,100.0,1.0,1.0,210.32666666666665,0.0,0.0,0.0,0.0,0.0,0.0,0.0,8915.0,0.0,55.0,5.0,245.51999999999998,1.0,0.0,0.0,0.0,0.0,0.0,1.0,0.0,0.9570000000000007,0.9570000000000007,0.0,0.0,1.0,55.0,616.79921,10000.0,85.000001,85.000001,85.000001,85.000001,395.0,0.0,0.0,0.0,1.0,166.665,51.743,51.743,47.379,47.379,34.0,-17.74,31.067999999999998,-25.453333333333333,34.9275,0.0,1782.624,-1.5599999999999987,100.0,27.909,28.829,42.269999999999996,43.89,0.0,1.0,100.0,0.0,0.0,0.0,0.0,3074.0,3255.8,4228.375,4466.7,305.5335,304.15825,314.67375,313.819,21.9497,20.602899999999998,21.9298,21.4459,314.999998,314.999998,324.999988,324.999988,99.55862857142857,99.50713333333333,99.56654285714286,99.54654285714285,0.21799999999999997,0.07133333333333347,-0.0071666666666666675,0.2134,-0.054999999999999716,-0.045000000000001705,1.5425,1.484,38.185,29.768333333333334,38.061,35.037,55.888,35.0495,59.3785,52.368,53.83,34.2055,57.978,50.699,52.989999999999995,33.775,57.8975,50.10666666666667,-0.1944999999999999,0.03200000000000003,0.10586000000000001,0.10364000000000001,0.0,213.54000000000002,213.63,210.32666666666665,210.32666666666665,0.0,0.0
20,0.0,1.0,0.0,1.0,1.0,0.0,0.0,1.0,0.0,100.0,1.0,1.1856,26.0,0.0,0.0,0.0,59.999996,0.0,26.0,26.0,26.0,26.0,0.20599999999999996,0.26449999999999996,-0.048350000000000004,292.297,-2.8274,-2.5765555555555557,-1.61005,-1.5143,-208.55,215.9375,190.57325,0.0,0.0,0.0,0.0,0.0406333333333333,-5.498166666666667,-5.498166666666667,-0.5546,-1.1015000000000001,0.09575,-0.637,68.338,0.1068,-0.2228,-1.9580000000000002,100.0,1.0,1.0,210.66,0.0,0.0,0.0,0.0,0.0,0.0,0.0,8929.1,0.0,55.0,5.0,245.99,0.0,0.0,0.0,0.0,0.0,0.0,0.0,0.0,1.004999999999999,1.004999999999999,0.0,0.0,0.0,55.0,616.79921,10000.0,85.000001,85.000001,85.000001,85.000001,395.0,0.0,0.0,0.0,1.0,166.665,52.811,52.811,46.906,46.906,34.0,-15.9925,30.548000000000002,-23.189999999999998,37.165,0.0,1782.576,-1.7949999999999982,100.0,27.361,28.557000000000002,42.718,44.373000000000005,0.0,1.0,100.0,0.0,0.0,0.0,0.0,2807.4285714285716,3174.5,4141.75,4329.4,306.472,304.60775,314.74575,313.9375,21.958199999999998,20.6083,21.9397,21.4547,314.999998,314.999998,324.999988,324.999988,99.55865714285714,99.50715,99.56668571428571,99.54668571428572,0.2363333333333335,0.0990000000000002,0.010833333333333334,0.2386,-0.03333333333333144,-0.04999999999999716,1.5145,1.4405,38.239000000000004,29.801666666666666,38.123000000000005,35.092,55.879000000000005,35.0905,59.417,52.431,53.821,34.243,58.0135,50.7595,52.980000000000004,33.8115,57.9295,50.166333333333334,-0.21699999999999986,0.05600000000000005,0.10416,0.10918000000000001,0.0,213.865,214.01,210.66,210.66,0.0,0.0
21,0.0,1.0,0.0,1.0,1.0,0.0,0.0,1.0,0.0,100.0,1.0,1.1856,26.0,0.0,0.0,0.0,59.999996,0.0,26.0,26.0,26.0,26.0,0.2012222222222222,0.27960000000000007,-0.0752,292.603,-2.7515,-2.621666666666667,-1.67795,-1.4689,-205.26,215.9375,190.5515,0.0,0.0,0.0,0.0,0.04253333333333331,-5.498166666666667,-5.498166666666667,-0.5802,0.49049999999999994,0.08387499999999992,-1.024,68.462,0.12710000000000002,-0.2272,-1.9580000000000002,100.0,1.0,1.0,211.29333333333335,0.0,0.0,0.0,0.0,0.0,0.0,0.0,8955.9,0.0,55.0,5.0,246.43666666666667,1.0,0.0,0.0,0.0,0.0,0.0,0.0,0.0,1.0530000000000008,1.0530000000000008,0.0,0.0,1.0,55.0,616.79921,10000.0,85.000001,85.000001,85.000001,85.000001,395.0,0.0,0.0,0.0,1.0,166.665,52.139,52.139,48.294,48.294,34.0,-18.6325,29.518,-20.676666666666662,33.587500000000006,0.0,1782.527,-0.759999999999998,100.0,27.582,28.783,42.027,43.974000000000004,0.0,1.0,100.0,0.0,0.0,0.0,0.0,3017.714285714286,3214.3,3911.25,4071.4,305.7635,304.4015,315.44925,314.77825,21.9669,20.6138,21.9493,21.4632,314.999998,314.999998,324.999988,324.999988,99.55867142857143,99.50716666666666,99.56681428571429,99.54682857142858,0.19399999999999995,0.05033333333333356,0.0375,0.2518,-0.06333333333333258,-0.04833333333333201,1.629,1.5715,38.293,29.836,38.183,35.144999999999996,55.873000000000005,35.1335,59.4475,52.489,53.815,34.283,58.0415,50.816,52.973,33.8495,57.955,50.221666666666664,-0.14949999999999997,-0.013500000000000068,0.10499000000000001,0.10276,0.0,214.29500000000002,214.44,211.29333333333335,211.29333333333335,0.0,0.0
22,0.0,1.0,0.0,1.0,1.0,0.0,0.0,1.0,0.0,100.0,1.0,1.1856,26.0,0.0,0.0,0.0,59.999996,0.0,26.0,26.0,26.0,26.0,0.1517777777777778,0.26560000000000006,0.007125,292.099,-2.72465,-2.632777777777778,-1.66165,-1.4703,-201.76999999999998,215.945,190.52775,0.0,0.0,0.0,0.0,0.04456666666666653,-5.498166666666667,-5.498166666666667,-0.5579000000000001,0.11049999999999993,0.0814999999999999,0.8210000000000002,68.601,0.1283,-0.2081,-0.8140000000000001,100.0,1.0,1.0,211.50333333333333,0.0,0.0,0.0,0.0,0.0,0.0,0.0,8964.8,0.0,55.0,5.0,246.93666666666667,0.0,0.0,0.0,0.0,0.0,0.0,0.0,0.0,1.1039999999999992,1.1039999999999992,0.0,0.0,0.0,55.0,616.79921,10000.0,85.000001,85.000001,85.000001,85.000001,395.0,0.0,0.0,0.0,1.0,333.33500000000004,52.261,52.261,47.119,47.119,34.0,-19.235,27.866,-23.383333333333333,37.0475,0.0,1782.475,0.4499999999999993,100.0,27.862000000000002,28.671,42.609,44.126999999999995,0.0,1.0,100.0,0.0,0.0,0.0,0.0,2827.0,3249.8,4142.25,4410.5,306.1055,304.4405,314.759,314.01075,21.9762,20.6195,21.959699999999998,21.4725,314.999998,314.999998,324.999988,324.999988,99.5587,99.50716666666666,99.56695714285715,99.54698571428571,0.14533333333333331,0.004666666666666597,0.02266666666666667,0.24280000000000002,-0.05333333333332746,-0.03166666666666629,1.4915,1.4585,38.351,29.872,38.248000000000005,35.203,55.863,35.1745,59.4875,52.556,53.805,34.321,58.079,50.879999999999995,52.962,33.885999999999996,57.989,50.284666666666666,-0.052999999999999936,-0.10450000000000026,0.10551500000000001,0.102275,0.0,214.76,214.815,211.50333333333333,211.50333333333333,0.0,0.0
23,0.0,1.0,0.0,1.0,1.0,0.0,0.0,1.0,0.0,100.0,1.0,1.1856,26.0,0.0,0.0,0.0,59.999996,0.0,26.0,26.0,26.0,26.0,0.05355555555555558,0.2541,-0.0247,292.191,-2.7331,-2.607555555555556,-1.6888,-1.558,-198.06,215.95499999999998,190.502875,0.0,0.0,0.0,0.0,0.04673333333333329,-5.498166666666667,-5.498166666666667,-0.5762,-0.14100000000000001,0.05187499999999989,0.04800000000000004,68.742,0.08320000000000001,-0.23147500000000001,0.476,100.0,1.0,1.0,212.07333333333332,0.0,0.0,0.0,0.0,0.0,0.0,0.0,8989.1,0.0,55.0,5.0,247.44666666666666,1.0,0.0,0.0,0.0,0.0,0.0,0.0,0.0,1.1580000000000013,1.1580000000000013,0.0,0.0,1.0,55.0,616.79921,10000.0,85.000001,85.000001,85.000001,85.000001,395.0,0.0,0.0,0.0,1.0,166.665,51.712,51.712,48.218,48.218,34.0,-24.155,25.332,-25.756666666666668,30.59,0.0,1782.422,0.8200000000000003,100.0,28.236,28.522,42.853,44.198,0.0,1.0,100.0,0.0,0.0,0.0,0.0,3146.857142857143,3246.3,3939.5,3980.4,305.21,304.554,315.34275,314.94825,21.9861,20.6256,21.9708,21.4823,314.999998,314.999998,324.999988,324.999988,99.55871428571429,99.50716666666666,99.56711428571428,99.54714285714286,0.09266666666666667,-0.044333333333333114,-0.050166666666666665,0.1784,-0.03499999999999659,-0.045000000000001705,1.531,1.546,38.413,29.91,38.317,35.2645,55.849999999999994,35.217,59.527,52.6235,53.792,34.36,58.1155,50.945499999999996,52.948,33.924,58.022,50.349000000000004,-0.01550000000000007,-0.1459999999999999,0.10305500000000001,0.10621000000000001,0.0,215.21,215.2,212.07333333333332,212.07333333333332,0.0,0.0
24,0.0,1.0,0.0,1.0,1.0,0.0,0.0,1.0,0.0,100.0,1.0,1.1856,26.0,0.0,0.0,0.0,59.999996,0.0,26.0,26.0,26.0,26.0,-0.013777777777777778,0.28800000000000003,0.005775000000000001,292.358,-2.7345,-2.641222222222222,-1.58775,-1.5211999999999999,-194.95999999999998,215.965,190.48175,0.0,0.0,0.0,0.0,0.04853333333333332,-5.498166666666667,-5.498166666666667,-0.5779000000000001,-0.49,0.03412499999999996,-0.5950000000000002,68.863,0.0309,-0.21527500000000002,1.056,100.0,1.0,1.0,212.30666666666667,0.0,0.0,0.0,0.0,0.0,0.0,0.0,8999.0,0.0,55.0,5.0,247.88,0.0,0.0,0.0,0.0,0.0,0.0,0.0,0.0,1.2029999999999994,1.2029999999999994,0.0,0.0,0.0,55.0,616.79921,10000.0,85.000001,85.000001,85.000001,85.000001,395.0,0.0,0.0,0.0,1.0,166.665,52.902,52.902,47.043,47.043,34.0,-24.03,21.11,-31.133333333333333,27.9075,0.0,1782.378,0.8599999999999994,100.0,27.9,28.256,43.083,43.95,0.0,1.0,100.0,0.0,0.0,0.0,0.0,2959.142857142857,2935.1,4356.125,4111.7,305.9665,305.41775,314.27025,314.66675,21.9942,20.6304,21.98,21.4903,314.999998,314.999998,324.999988,324.999988,99.55871428571429,99.50718333333333,99.56724285714286,99.54727142857143,0.04899999999999993,-0.09033333333333315,-0.10916666666666668,0.1108,-0.045000000000001705,-0.036666666666668846,1.4945,1.5334999999999999,38.464,29.940333333333335,38.375,35.314499999999995,55.837,35.2515,59.5615,52.678,53.778999999999996,34.391999999999996,58.1475,50.998,52.935,33.954499999999996,58.051,50.400666666666666,-0.009500000000000064,-0.15249999999999986,0.10380500000000001,0.10663500000000001,0.0,215.625,215.525,212.30666666666667,212.30666666666667,0.0,0.0
25,0.0,1.0,0.0,1.0,1.0,0.0,0.0,1.0,0.0,100.0,1.0,1.1856,26.0,0.0,0.0,0.0,59.999996,0.0,26.0,26.0,26.0,26.0,-0.07366666666666666,0.26439999999999997,-0.0762,292.358,-2.7611,-2.6406666666666667,-1.5735000000000001,-1.554,-191.45,215.975,190.4565,0.0,0.0,0.0,0.0,0.05056666666666654,-5.498166666666667,-5.498166666666667,-0.6129,-0.04800000000000004,0.00649999999999995,-0.669,68.995,-0.0267,-0.22695,1.3500000000000005,100.0,1.0,1.0,212.87333333333333,0.0,0.0,0.0,0.0,0.0,0.0,0.0,9023.0,0.0,55.0,5.0,248.35333333333335,1.0,0.0,0.0,0.0,0.0,0.0,0.0,0.0,1.2540000000000013,1.2540000000000013,0.0,0.0,1.0,55.0,616.79921,10000.0,85.000001,85.000001,85.000001,85.000001,395.0,0.0,0.0,0.0,1.0,166.665,51.926,51.926,47.943,47.943,34.0,-28.197499999999998,22.858,-29.573333333333334,25.2225,0.0,1782.326,0.8350000000000009,100.0,28.152,28.088,43.155,43.311,0.0,1.0,100.0,0.0,0.0,0.0,0.0,3237.4285714285716,3293.7,3972.25,3979.0,305.117,304.46325,315.207,315.05325,22.0035,20.636,21.9904,21.499299999999998,314.999998,314.999998,324.999988,324.999988,99.55872857142857,99.5072,99.56738571428572,99.54741428571428,0.020999999999999908,-0.11399999999999988,-0.15333333333333335,0.0762,-0.04999999999999716,-0.054999999999999716,1.5505,1.5985,38.522,29.97533333333333,38.44,35.3705,55.82,35.294,59.598,52.7365,53.763,34.431,58.1815,51.0545,52.918,33.992,58.082,50.455666666666666,-0.014499999999999957,-0.14700000000000024,0.10398,0.111475,0.0,216.04500000000002,215.935,212.87333333333333,212.87333333333333,0.0,0.0
26,0.0,1.0,0.0,1.0,1.0,0.0,0.0,1.0,0.0,100.0,1.0,1.1856,26.0,0.0,0.0,0.0,59.999996,0.0,26.0,26.0,26.0,26.0,-0.11666666666666659,0.2773000000000001,0.060525,291.168,-2.67255,-2.7567777777777778,-1.5871,-1.5812,-187.93,215.985,190.430625,0.0,0.0,0.0,0.0,0.05259999999999998,-5.498166666666667,-5.498166666666667,-0.5699000000000001,0.7384999999999999,-0.05287500000000023,-1.359,69.131,-0.06810000000000001,-0.19467500000000001,1.5039999999999996,100.0,1.0,1.0,213.02666666666667,0.0,0.0,0.0,0.0,0.0,0.0,0.0,9029.5,0.0,55.0,5.0,248.84333333333336,0.0,0.0,0.0,0.0,0.0,0.0,0.0,0.0,1.3049999999999997,1.3049999999999997,0.0,0.0,0.0,55.0,616.79921,10000.0,85.000001,85.000001,85.000001,85.000001,395.0,0.0,0.0,0.0,1.0,333.33500000000004,51.407,51.407,46.158,46.158,34.0,-29.252499999999998,19.921999999999997,-39.05333333333333,26.087500000000002,0.0,1782.274,0.6600000000000001,100.0,29.15,28.62,43.997,43.443,0.0,1.0,100.0,0.0,0.0,0.0,0.0,3333.857142857143,2958.9,4662.375,4363.7,304.834,305.173,313.62975,314.05725,22.0132,20.6417,22.001,21.508499999999998,314.999998,314.999998,324.999988,324.999988,99.55872857142857,99.50721666666666,99.56754285714285,99.54755714285714,0.0006666666666665932,-0.15333333333333332,-0.19383333333333336,0.0212,-0.06499999999999773,-0.03833333333332689,1.416,1.4825,38.583,30.010666666666665,38.506,35.428,55.808,35.3395,59.641,52.798,53.751999999999995,34.473,58.2215,51.1135,52.905,34.032,58.119,50.513333333333335,-0.03349999999999986,-0.13900000000000023,0.10387,0.107115,0.0,216.535,216.38,213.02666666666667,213.02666666666667,0.0,0.0
27,0.0,1.0,0.0,1.0,1.0,0.0,0.0,1.0,0.0,100.0,1.0,1.1856,26.0,0.0,0.0,0.0,59.999996,0.0,26.0,26.0,26.0,26.0,-0.10655555555555551,0.2603,-0.0167,291.55,-2.61845,-2.745888888888889,-1.5622,-1.6711,-184.6,215.99,190.4075,0.0,0.0,0.0,0.0,0.05453333333333332,-5.498166666666667,-5.498166666666667,-0.5968,-1.0875,-0.06987500000000013,-0.802,69.255,-0.0881,-0.24222500000000002,1.3239999999999998,100.0,1.0,1.0,213.51,0.0,0.0,0.0,0.0,0.0,0.0,0.0,9049.9,0.0,55.0,5.0,249.29333333333335,1.0,0.0,0.0,0.0,0.0,0.0,0.0,0.0,1.352999999999998,1.352999999999998,0.0,0.0,1.0,55.0,616.79921,10000.0,85.000001,85.000001,85.000001,85.000001,395.0,0.0,0.0,0.0,1.0,333.33500000000004,51.712,51.712,46.646,46.646,34.0,-29.125,19.994,-34.86,23.7925,0.0,1782.226,0.5650000000000013,100.0,29.006,28.241,44.903999999999996,43.846000000000004,0.0,1.0,100.0,0.0,0.0,0.0,0.0,3317.4285714285716,2977.6,4216.125,3974.4,304.875,305.24225,314.614,314.8895,22.022199999999998,20.6468,22.0111,21.5172,314.999998,314.999998,324.999988,324.999988,99.55872857142857,99.50723333333333,99.56768571428572,99.5477,-0.011666666666666714,-0.14966666666666661,-0.20816666666666667,0.0078,-0.04333333333332945,-0.05333333333332746,1.468,1.5325,38.638,30.042333333333332,38.57,35.4825,55.793,35.3795,59.6825,52.8565,53.738,34.51,58.2605,51.1695,52.89,34.067499999999995,58.155,50.568,-0.045499999999999874,-0.12400000000000011,0.101095,0.10811000000000001,0.0,216.825,216.72,213.51,213.51,0.0,0.0
28,0.0,1.0,0.0,1.0,1.0,0.0,0.0,1.0,0.0,100.0,1.0,1.1856,26.0,0.0,0.0,0.0,59.999996,0.0,26.0,26.0,26.0,26.0,-0.1454444444444445,0.2674000000000001,-0.063625,291.824,-2.63795,-2.7383333333333333,-1.5070999999999999,-1.6335000000000002,-181.07,215.9925,190.382125,0.0,0.0,0.0,0.0,0.056599999999999984,-5.498166666666667,-5.498166666666667,-0.6001000000000001,0.679,-0.07474999999999987,0.7090000000000001,69.385,-0.10020000000000001,-0.215,1.21,100.0,1.0,1.0,214.01333333333332,0.0,0.0,0.0,0.0,0.0,0.0,0.0,9071.2,0.0,55.0,5.0,249.76,0.0,0.0,0.0,0.0,0.0,0.0,0.0,0.0,1.404,1.404,0.0,0.0,0.0,55.0,616.79921,10000.0,85.000001,85.000001,85.000001,85.000001,395.0,0.0,0.0,0.0,1.0,166.665,51.743,51.743,47.44,47.44,34.0,-28.825,19.754,-33.55,23.8525,0.0,1782.177,0.375,100.0,29.282,27.994,44.329,43.109,0.0,1.0,100.0,0.0,0.0,0.0,0.0,3265.4285714285716,3013.9,4151.5,4099.7,304.88,305.29425,314.83225,314.787,22.0318,20.6523,22.0214,21.5262,314.999998,314.999998,324.999988,324.999988,99.55872857142857,99.50725,99.56782857142858,99.54785714285714,-0.0076666666666667105,-0.15666666666666673,-0.21666666666666667,0.008199999999999999,-0.036666666666668846,-0.046666666666666856,1.5225,1.5625,38.699,30.076666666666668,38.634,35.5385,55.78,35.424,59.7195,52.9135,53.724999999999994,34.551,58.295,51.224000000000004,52.876999999999995,34.1065,58.1865,50.621,-0.04849999999999999,-0.1200000000000001,0.10333,0.10511500000000001,0.0,217.275,217.17000000000002,214.01333333333332,214.01333333333332,0.0,0.0
29,0.0,1.0,0.0,1.0,1.0,0.0,0.0,1.0,0.0,100.0,1.0,1.1856,26.0,0.0,0.0,0.0,59.999996,0.0,26.0,26.0,26.0,26.0,-0.13244444444444448,0.26070000000000015,0.043775,291.443,-2.5829,-2.79,-1.54425,-1.6139000000000001,-177.53,215.9925,190.35575,0.0,0.0,0.0,0.0,0.058666666666666534,-5.498166666666667,-5.498166666666667,-0.6059,-0.7444999999999999,-0.0754999999999999,-0.7200000000000002,69.519,-0.0984,-0.21752500000000002,0.96,100.0,1.0,1.0,214.26,0.0,0.0,0.0,0.0,0.0,0.0,0.0,9081.7,0.0,55.0,5.0,250.24333333333334,1.0,0.0,0.0,0.0,0.0,0.0,0.0,0.0,1.4549999999999983,1.4549999999999983,0.0,0.0,1.0,55.0,616.79921,10000.0,85.000001,85.000001,85.000001,85.000001,395.0,0.0,0.0,0.0,1.0,333.33500000000004,51.666,51.666,46.478,46.478,34.0,-29.455,20.637999999999998,-36.236666666666665,24.1575,0.0,1782.124,0.28999999999999915,100.0,28.839,28.011,44.703,43.451,0.0,1.0,100.0,0.0,0.0,0.0,0.0,3391.857142857143,3017.6,4328.0,4148.4,304.676,304.999,314.326,314.52325,22.0412,20.6577,22.0321,21.5354,314.999998,314.999998,324.999988,324.999988,99.55874285714286,99.50726666666667,99.568,99.548,-0.010000000000000009,-0.15466666666666673,-0.21666666666666667,0.0044,-0.036666666666668846,-0.04833333333333201,1.4655,1.4915,38.757999999999996,30.110333333333333,38.701,35.596000000000004,55.763999999999996,35.466499999999996,59.763,52.975,53.71,34.59,58.336,51.283,52.861000000000004,34.1435,58.224000000000004,50.678333333333335,-0.0625,-0.10400000000000009,0.10452,0.10328000000000001,0.0,217.63,217.56,214.26,214.26,0.0,0.0
30,0.0,1.0,0.0,1.0,1.0,0.0,0.0,1.0,0.0,100.0,1.0,1.1856,26.0,0.0,0.0,0.0,59.999996,0.0,26.0,26.0,26.0,26.0,-0.11477777777777776,0.26249999999999996,0.049475000000000005,291.046,-2.63455,-2.7814444444444444,-1.48085,-1.6723,-173.98000000000002,215.99,190.32925,0.0,0.0,0.0,0.0,0.060733333333333306,-5.498166666666667,-5.498166666666667,-0.6005,0.8009999999999999,-0.07500000000000018,0.9969999999999999,69.648,-0.0902,-0.21435,0.8420000000000005,100.0,1.0,1.0,214.71,0.0,0.0,0.0,0.0,0.0,0.0,0.0,9100.7,0.0,55.0,5.0,250.71,0.0,0.0,0.0,0.0,0.0,0.0,1.0,0.0,1.5060000000000002,1.5060000000000002,0.0,0.0,0.0,55.0,616.79921,10000.0,85.000001,85.000001,85.000001,85.000001,395.0,0.0,0.0,0.0,1.0,166.665,50.858000000000004,50.858000000000004,46.829,46.829,34.0,-29.3275,21.916,-33.75333333333333,26.645,0.0,1782.075,0.1750000000000007,100.0,29.901,28.539,44.673,43.35,0.0,1.0,100.0,0.0,0.0,0.0,0.0,3409.5714285714284,3122.2,4287.0,4210.2,304.4365,305.07825,314.42325,314.42475,22.051,20.6633,22.0425,21.5445,314.999998,314.999998,324.999988,324.999988,99.55874285714286,99.50728333333333,99.56814285714286,99.54814285714286,0.013333333333333197,-0.1326666666666667,-0.19416666666666665,0.029,-0.04333333333332945,-0.06333333333333258,1.468,1.508,38.819,30.146,38.766,35.6535,55.753,35.512,59.802,53.034,53.699,34.632,58.372,51.3395,52.849000000000004,34.1835,58.2575,50.734,-0.07450000000000001,-0.0950000000000002,0.10096500000000001,0.10921000000000002,0.0,218.07999999999998,218.01,214.71,214.71,0.0,0.0
31,0.0,1.0,0.0,1.0,1.0,0.0,0.0,1.0,0.0,100.0,1.0,1.1856,26.0,0.0,0.0,0.0,59.999996,0.0,26.0,26.0,26.0,26.0,-0.09633333333333338,0.2553000000000001,-0.0004,290.985,-2.7033,-2.7560000000000002,-1.57245,-1.663,-170.63,215.98250000000002,190.305,0.0,0.0,0.0,0.0,0.06266666666666654,-5.498166666666667,-5.498166666666667,-0.5906,-0.764,-0.06412500000000021,0.609,69.773,-0.07540000000000001,-0.22112500000000002,0.4120000000000008,100.0,1.0,1.0,214.98666666666668,0.0,0.0,0.0,0.0,0.0,0.0,0.0,9112.5,0.0,55.0,5.0,251.15666666666667,1.0,0.0,0.0,0.0,0.0,0.0,1.0,0.0,1.5539999999999985,1.5539999999999985,0.0,0.0,1.0,55.0,616.79921,10000.0,85.000001,85.000001,85.000001,85.000001,395.0,0.0,0.0,0.0,1.0,333.33500000000004,51.513999999999996,51.513999999999996,45.501999999999995,45.501999999999995,34.0,-26.9625,21.612,-35.75333333333333,28.017500000000002,0.0,1782.025,0.10999999999999943,100.0,29.468,28.592,45.262,43.985,0.0,1.0,100.0,0.0,0.0,0.0,0.0,3167.714285714286,3073.1,4409.625,4278.7,305.3455,305.07325,314.096,314.35425,22.0599,20.6686,22.0527,21.5534,314.999998,314.999998,324.999988,324.999988,99.55874285714286,99.5073,99.56828571428571,99.54828571428571,0.021333333333333204,-0.129,-0.18133333333333335,0.0458,-0.04333333333332945,-0.041666666666671404,1.443,1.4665,38.873999999999995,30.178666666666665,38.829,35.7085,55.738,35.553,59.8435,53.0935,53.686,34.67,58.411500000000004,51.3965,52.835,34.2195,58.2935,50.78933333333333,-0.0814999999999999,-0.08599999999999985,0.10948000000000001,0.10702500000000001,0.0,218.405,218.37,214.98666666666668,214.98666666666668,0.0,0.0
32,0.0,1.0,0.0,1.0,1.0,0.0,0.0,1.0,0.0,100.0,1.0,1.1856,26.0,0.0,0.0,0.0,59.999996,0.0,26.0,26.0,26.0,26.0,-0.08166666666666655,0.2661,-0.045775,291.275,-2.64375,-2.695555555555556,-1.59875,-1.5701,-167.07,215.975,190.279375,0.0,0.0,0.0,0.0,0.06473333333333331,-5.498166666666667,-5.498166666666667,-0.6104,0.21599999999999997,-0.08862499999999995,-0.9340000000000002,69.9,-0.0592,-0.230325,0.4939999999999998,100.0,1.0,1.0,215.54666666666668,0.0,0.0,0.0,0.0,0.0,0.0,0.0,9136.3,0.0,55.0,5.0,251.61,0.0,0.0,0.0,0.0,0.0,0.0,1.0,0.0,1.6050000000000004,1.6050000000000004,0.0,0.0,0.0,55.0,616.79921,10000.0,85.000001,85.000001,85.000001,85.000001,395.0,0.0,0.0,0.0,1.0,166.665,51.132,51.132,46.722,46.722,34.0,-28.384999999999998,21.484,-33.61666666666666,25.5725,0.0,1781.976,0.08000000000000185,100.0,29.351,28.787,44.671,43.803,0.0,1.0,100.0,0.0,0.0,0.0,0.0,3411.0,3026.2,4256.0,4104.8,304.6515,305.08,314.664,314.81575,22.0694,20.6743,22.0631,21.5625,314.999998,314.999998,324.999988,324.999988,99.55875714285715,99.50731666666667,99.56844285714286,99.54842857142857,0.029666666666666952,-0.11333333333333329,-0.17683333333333334,0.0574,-0.03333333333333144,-0.05833333333333002,1.54,1.5585,38.934,30.214333333333336,38.894,35.7655,55.724999999999994,35.597,59.8815,53.1515,53.673,34.71,58.4465,51.4525,52.821,34.2585,58.3255,50.843666666666664,-0.0814999999999999,-0.09050000000000002,0.11021500000000001,0.10663,0.0,218.805,218.76999999999998,215.54666666666668,215.54666666666668,0.0,0.0
33,0.0,1.0,0.0,1.0,1.0,0.0,0.0,1.0,0.0,100.0,1.0,1.1856,26.0,0.0,0.0,0.0,59.999996,0.0,26.0,26.0,26.0,26.0,-0.06255555555555548,0.2634000000000001,-0.0357,291.382,-2.6585,-2.7457777777777777,-1.56355,-1.5830000000000002,-163.70999999999998,215.965,190.25425,0.0,0.0,0.0,0.0,0.06669999999999998,-5.498166666666667,-5.498166666666667,-0.6108,-0.3640000000000001,-0.07762499999999983,0.1459999999999999,70.022,-0.0502,-0.2156,0.4299999999999997,100.0,1.0,1.0,215.80333333333334,0.0,0.0,0.0,0.0,0.0,0.0,0.0,9147.1,0.0,55.0,5.0,252.05333333333334,1.0,0.0,0.0,0.0,0.0,0.0,1.0,0.0,1.6529999999999987,1.6529999999999987,0.0,0.0,1.0,55.0,616.79921,10000.0,85.000001,85.000001,85.000001,85.000001,395.0,0.0,0.0,0.0,1.0,166.665,51.865,51.865,46.371,46.371,34.0,-26.5475,21.387999999999998,-33.97333333333333,27.4875,0.0,1781.927,-0.07499999999999929,100.0,29.099,28.466,44.653999999999996,43.908,0.0,1.0,100.0,0.0,0.0,0.0,0.0,3224.142857142857,2936.1,4360.25,4241.6,305.2395,305.379,314.33975,314.37025,22.0783,20.6794,22.073,21.5712,314.999998,314.999998,324.999988,324.999988,99.55875714285715,99.50733333333334,99.56858571428572,99.54857142857144,0.03266666666666662,-0.10799999999999987,-0.1655,0.062,-0.03499999999999659,-0.05333333333332746,1.4689999999999999,1.4875,38.989000000000004,30.246333333333332,38.956,35.82,55.711,35.6345,59.919,53.2085,53.66,34.7445,58.4815,51.507,52.808,34.291,58.358000000000004,50.897,-0.08250000000000002,-0.07850000000000001,0.10061500000000001,0.11096,0.0,219.18,219.155,215.80333333333334,215.80333333333334,0.0,0.0
34,0.0,1.0,0.0,1.0,1.0,0.0,0.0,1.0,0.0,100.0,1.0,1.1856,26.0,0.0,0.0,0.0,59.999996,0.0,26.0,26.0,26.0,26.0,-0.06499999999999995,0.24940000000000007,-0.058875000000000004,291.733,-2.67355,-2.6976666666666667,-1.60175,-1.5998,-160.14,215.95,190.226375,0.0,0.0,0.0,0.0,0.06876666666666653,-5.498166666666667,-5.498166666666667,-0.6435000000000001,-0.7410000000000001,-0.040750000000000064,1.093,70.15,-0.039,-0.226225,0.1979999999999995,100.0,1.0,1.0,216.26999999999998,0.0,0.0,0.0,0.0,0.0,0.0,0.0,9166.8,0.0,55.0,5.0,252.51333333333332,0.0,0.0,0.0,0.0,0.0,0.0,1.0,0.0,1.7040000000000006,1.7040000000000006,0.0,0.0,0.0,55.0,616.79921,10000.0,85.000001,85.000001,85.000001,85.000001,395.0,0.0,0.0,0.0,1.0,333.33500000000004,52.016999999999996,52.016999999999996,47.348,47.348,34.0,-25.0275,22.666,-30.966666666666665,27.7025,0.0,1781.874,-0.10999999999999943,100.0,28.93,28.070999999999998,44.400999999999996,43.94,0.0,1.0,100.0,0.0,0.0,0.0,0.0,3111.5714285714284,3042.4,4061.25,4168.1,305.237,305.23475,315.0185,314.5615,22.0875,20.6849,22.0834,21.5804,314.999998,314.999998,324.999988,324.999988,99.55875714285715,99.50735,99.56872857142857,99.54871428571428,0.056333333333333346,-0.08366666666666678,-0.154,0.076,-0.045000000000001705,-0.054999999999999716,1.5155,1.526,39.047,30.28033333333333,39.021,35.8775,55.697,35.6735,59.955,53.2685,53.646,34.7805,58.5155,51.565,52.793,34.3255,58.3885,50.95333333333333,-0.09099999999999997,-0.07100000000000017,0.10889000000000001,0.11028,0.0,219.55,219.54000000000002,216.26999999999998,216.26999999999998,0.0,0.0
35,0.0,1.0,0.0,1.0,1.0,0.0,0.0,1.0,0.0,100.0,1.0,1.1856,26.0,0.0,0.0,0.0,59.999996,0.0,26.0,26.0,26.0,26.0,-0.04455555555555557,0.252,-0.058175000000000004,291.718,-2.6747,-2.6813333333333333,-1.5685,-1.6113,-156.35,215.9375,190.1945,0.0,0.0,0.0,0.0,0.07096666666666651,-5.498166666666667,-5.498166666666667,-0.6857000000000001,-0.22999999999999998,-0.049125000000000085,-0.03299999999999992,70.28399999999999,-0.0263,-0.230075,0.10400000000000009,100.0,1.0,1.0,216.76,0.0,0.0,0.0,0.0,0.0,0.0,0.0,9187.7,0.0,55.0,5.0,253.0,1.0,0.0,0.0,0.0,0.0,0.0,1.0,0.0,1.7579999999999991,1.7579999999999991,0.0,0.0,1.0,55.0,616.79921,10000.0,85.000001,85.000001,85.000001,85.000001,395.0,0.0,0.0,0.0,1.0,166.665,51.453,51.453,47.012,47.012,34.0,-25.21,25.875999999999998,-28.626666666666665,26.9225,0.0,1781.823,-0.08500000000000085,100.0,28.729,28.422,44.09,43.5,0.0,1.0,100.0,0.0,0.0,0.0,0.0,3184.714285714286,3370.4,4003.625,3952.3,305.1815,304.2185,315.1045,315.10275,22.0971,20.6909,22.0943,21.59,314.999998,314.999998,324.999988,324.999988,99.55877142857143,99.50735,99.5689,99.54888571428572,0.06366666666666676,-0.07299999999999995,-0.12733333333333333,0.0942,-0.036666666666668846,-0.061666666666667425,1.553,1.5505,39.107,30.317999999999998,39.089,35.9375,55.679,35.717,59.9935,53.3285,53.629999999999995,34.821,58.551,51.6225,52.775999999999996,34.364,58.420500000000004,51.00966666666667,-0.09149999999999991,-0.07600000000000007,0.10259000000000001,0.11276000000000001,0.0,219.97,219.97500000000002,216.76,216.76,0.0,0.0
36,0.0,1.0,0.0,1.0,1.0,0.0,0.0,1.0,0.0,100.0,1.0,1.1856,26.0,0.0,0.0,0.0,59.999996,0.0,26.0,26.0,26.0,26.0,-0.038111111111111096,0.27760000000000007,0.0538,290.802,-2.7346,-2.6386666666666665,-1.5416,-1.6029,-153.18,215.9225,190.166625,0.0,0.0,0.0,0.0,0.07279999999999998,-5.498166666666667,-5.498166666666667,-0.6642,0.3435,-0.08462499999999995,-1.3970000000000002,70.4,-0.020300000000000002,-0.1995,0.25399999999999956,100.0,1.0,1.0,216.85666666666668,0.0,0.0,0.0,0.0,0.0,0.0,0.0,9191.7,0.0,55.0,5.0,253.41333333333336,0.0,0.0,0.0,0.0,0.0,0.0,1.0,0.0,1.8030000000000008,1.8030000000000008,0.0,0.0,0.0,55.0,616.79921,10000.0,85.000001,85.000001,85.000001,85.000001,395.0,0.0,0.0,0.0,1.0,333.33500000000004,51.208,51.208,46.126999999999995,46.126999999999995,34.0,-27.5975,22.762,-33.64666666666666,31.55,0.0,1781.775,-0.11499999999999844,100.0,29.066,28.887999999999998,44.175,43.869,0.0,1.0,100.0,0.0,0.0,0.0,0.0,3411.285714285714,3078.4,4542.5,4504.1,304.7605,304.97525,313.89525,313.7405,22.1054,20.696,22.1035,21.5982,314.999998,314.999998,324.999988,324.999988,99.55878571428572,99.50736666666667,99.56902857142857,99.54901428571429,0.06333333333333346,-0.08033333333333315,-0.13133333333333336,0.0874,-0.03499999999999659,-0.051666666666669414,1.428,1.442,39.159,30.35,39.147,35.989,55.669,35.754,60.0275,53.382999999999996,53.620000000000005,34.855000000000004,58.583,51.675,52.765,34.397,58.45,51.06033333333333,-0.08650000000000002,-0.07799999999999985,0.10361000000000001,0.10298,0.0,220.35500000000002,220.34,216.85666666666668,216.85666666666668,0.0,0.0
