,ABS Active,ABS Enabled,AID Allow Tire Blankets,AID Auto Blip,AID Auto Clutch,AID Auto Shift,AID Fuel Rate,AID Ideal Line,AID Mech Damage,AID Stability,AID Tire Wear Rate,Air Density,Air Temp,Ballast,Best Lap Delta,Best Lap Time,Brake Bias,Brake Pos,Brake Temp FL,Brake Temp FR,Brake Temp RL,Brake Temp RR,CG Accel Lateral,CG Accel Longitudinal,CG Accel Vertical,CG Height,Camber FL,Camber FR,Camber RL,Camber RR,Car Coord X,Car Coord Y,Car Coord Z,Car Damage Front,Car Damage Left,Car Damage Rear,Car Damage Right,Car Pos Norm,Caster FL,Caster FR,Chassis Pitch Angle,Chassis Pitch Rate,Chassis Roll Angle,Chassis Roll Rate,Chassis Velocity X,Chassis Velocity Y,Chassis Velocity Z,Chassis Yaw Rate,Clutch Pos,DRS Active,DRS Available,Drive Train Speed,ERS Heat Charging,ERS Is Charging,ERS Max Energy,ERS Power Level,ERS Recovery Level,Engine Brake Setting,Engine Limiter,Engine RPM,Flags,Fuel Level,Gear,Ground Speed,HR Sample Clock,In Pit,KERS Charge,KERS Deployed Energy,KERS Input,KERS Max Energy,LR Sample Clock,Lap Invalidated,Lap Time,Lap Time2,Last Lap Time,Last Sector Time,MR Sample Clock,Max Fuel,Max Power,Max RPM,Max Sus Travel FL,Max Sus Travel FR,Max Sus Travel RL,Max Sus Travel RR,Max Torque,Max Turbo Boost,Num Tires Off Track,Penalties Enabled,Position,Raw Data Sample Rate,Ride Height FL,Ride Height FR,Ride Height RL,Ride Height RR,Road Temp,Self Align Torque FL,Self Align Torque FR,Self Align Torque RL,Self Align Torque RR,Session Lap Count,Session Time Left,Steering Angle,Surface Grip,Suspension Travel FL,Suspension Travel FR,Suspension Travel RL,Suspension Travel RR,TC Active,TC Enabled,Throttle Pos,Tire Dirt Level FL,Tire Dirt Level FR,Tire Dirt Level RL,Tire Dirt Level RR,Tire Load FL,Tire Load FR,Tire Load RL,Tire Load RR,Tire Loaded Radius FL,Tire Loaded Radius FR,Tire Loaded Radius RL,Tire Loaded Radius RR,Tire Pressure FL,Tire Pressure FR,Tire Pressure RL,Tire Pressure RR,Tire Radius FL,Tire Radius FR,Tire Radius RL,Tire Radius RR,Tire Rubber Grip FL,Tire Rubber Grip FR,Tire Rubber Grip RL,Tire Rubber Grip RR,Tire Slip Angle FL,Tire Slip Angle FR,Tire Slip Angle RL,Tire Slip Angle RR,Tire Slip Ratio FL,Tire Slip Ratio FR,Tire Slip Ratio RL,Tire Slip Ratio RR,Tire Temp Core FL,Tire Temp Core FR,Tire Temp Core RL,Tire Temp Core RR,Tire Temp Inner FL,Tire Temp Inner FR,Tire Temp Inner RL,Tire Temp Inner RR,Tire Temp Middle FL,Tire Temp Middle FR,Tire Temp Middle RL,Tire Temp Middle RR,Tire Temp Outer FL,Tire Temp Outer FR,Tire Temp Outer RL,Tire Temp Outer RR,Toe In FL,Toe In FR,Toe In RL,Toe In RR,Turbo Boost,Wheel Angular Speed FL,Wheel Angular Speed FR,Wheel Angular Speed RL,Wheel Angular Speed RR,Wind Direction,Wind Speed
0,0.0,1.0,0.0,1.0,1.0,0.0,0.0,1.0,0.0,100.0,1.0,1.1856,26.0,0.0,0.0,0.0,59.99999,0.0,26.0,26.0,26.0,26.0,-0.07150000000000001,0.3025,0.05575,294.022,-2.7218,-2.6580000000000004,-1.5190000000000001,-1.5565555555555557,-275.52,216.29500000000002,190.986625,0.0,0.0,0.0,0.0,0.0016666666666665941,-5.498166666666667,-5.498166666666667,-0.5471,1.0375,-0.0068749999999999645,-0.6699999999999999,65.516,-0.030600000000000002,-0.21230000000000002,0.9900000000000002,100.0,1.0,1.0,202.29000000000002,0.0,0.0,0.0,0.0,0.0,0.0,0.0,8574.3,0.0,55.0,5.0,235.82666666666665,0.0,0.0,0.0,0.0,0.0,0.0,0.0,0.0,0.006000000000000227,0.006000000000000227,0.0,0.0,0.0,55.0,616.79921,10000.0,85.0,85.0,85.0,85.0,395.0,0.0,0.0,0.0,1.0,20.0,52.704,52.704,49.5,49.5,34.0,-26.1025,23.755,-29.123333333333335,24.7875,0.0,1783.467,0.8000000000000007,100.0,27.45,26.957,40.657,40.596000000000004,0.0,1.0,100.0,0.0,0.0,0.0,0.0,3002.5714285714284,3431.4,4068.25,3941.1000000000004,305.724,303.9393333333333,314.92475,314.98775,21.776,20.5117,21.7304,21.2756,314.99999,314.99999,324.99998,324.99998,99.55884285714286,99.50711666666666,99.56364285714285,99.5438,0.0044999999999999485,-0.12224999999999997,-0.14416666666666667,0.07116666666666682,-0.04999999999999716,-0.07333333333333059,1.5554999999999999,1.5895,37.099999999999994,29.198,36.815,33.973,56.263999999999996,34.418,58.5625,51.161,54.182,33.5925,57.214,49.539500000000004,53.352000000000004,33.155,57.188,48.96966666666667,-0.011500000000000066,-0.13900000000000023,0.10024000000000001,0.11091000000000001,0.0,205.32,205.24,202.29000000000002,202.29000000000002,0.0,0.0
1,0.0,1.0,0.0,1.0,1.0,0.0,0.0,1.0,0.0,100.0,1.0,1.1856,26.0,0.0,0.0,0.0,59.999996,0.0,26.0,26.0,26.0,26.0,-0.09399999999999997,0.31590000000000007,0.234,292.953,-2.6358,-2.766222222222222,-1.525,-1.550888888888889,-272.17,216.29000000000002,190.966375,0.0,0.0,0.0,0.0,0.0036333333333333773,-5.498166666666667,-5.498166666666667,-0.4994,-0.5545,-0.05624999999999991,-1.0339999999999998,65.67,-0.051000000000000004,-0.19445,1.4120000000000008,100.0,1.0,1.0,202.43,0.0,0.0,0.0,0.0,0.0,0.0,0.0,8580.3,0.0,55.0,5.0,236.38333333333333,1.0,0.0,0.0,0.0,0.0,0.0,0.0,0.0,0.05699999999999861,0.05699999999999861,0.0,0.0,1.0,55.0,616.79921,10000.0,85.000001,85.000001,85.000001,85.000001,395.0,0.0,0.0,0.0,1.0,333.33500000000004,53.452,53.452,48.263999999999996,48.263999999999996,34.0,-27.310000000000002,18.325,-34.53333333333333,29.8875,0.0,1783.415,0.8449999999999989,100.0,27.588,27.037,42.589,41.729,0.0,1.0,100.0,0.0,0.0,0.0,0.0,3152.4285714285716,2716.9,4376.5,4727.5,305.3195,306.1596666666667,314.143,313.05775,21.786,20.5168,21.7411,21.2847,314.999998,314.999998,324.999988,324.999988,99.55884285714286,99.50713333333333,99.5638,99.54394285714285,-0.007750000000000035,-0.13974999999999993,-0.17799999999999994,0.04733333333333323,-0.061666666666667425,-0.054999999999999716,1.398,1.463,37.163,29.23,36.882,34.028999999999996,56.248000000000005,34.4585,58.609,51.2275,54.167,33.629999999999995,57.2575,49.603,53.336,33.191,57.2285,49.032333333333334,-0.007500000000000062,-0.14400000000000013,0.10057,0.11002,0.0,205.78,205.66500000000002,202.43,202.43,0.0,0.0
2,0.0,1.0,0.0,1.0,1.0,0.0,0.0,1.0,0.0,100.0,1.0,1.1856,26.0,0.0,0.0,0.0,59.999996,0.0,26.0,26.0,26.0,26.0,-0.11937500000000001,0.27670000000000017,-0.029525000000000003,293.64,-2.612,-2.785333333333333,-1.4967000000000001,-1.6006666666666667,-268.62,216.2825,190.9465,0.0,0.0,0.0,0.0,0.005699999999999927,-5.498166666666667,-5.498166666666667,-0.547,0.24649999999999994,-0.04125000000000023,1.613,65.821,-0.0709,-0.250925,1.5419999999999998,100.0,1.0,1.0,203.36333333333334,0.0,0.0,0.0,0.0,0.0,0.0,0.0,8619.8,0.0,55.0,5.0,236.92666666666668,0.0,0.0,0.0,0.0,0.0,0.0,0.0,0.0,0.11100000000000065,0.11100000000000065,0.0,0.0,0.0,55.0,616.79921,10000.0,85.000001,85.000001,85.000001,85.000001,395.0,0.0,0.0,0.0,1.0,166.665,52.414,52.414,50.095,50.095,34.0,-29.935000000000002,19.87,-29.256666666666668,20.915,0.0,1783.362,0.7250000000000014,100.0,28.318,27.082,42.497,41.387,0.0,1.0,100.0,0.0,0.0,0.0,0.0,3344.857142857143,2945.4,3749.375,3768.7,304.653,305.38733333333334,315.6515,315.52875,21.7968,20.522100000000002,21.7521,21.2939,314.999998,314.999998,324.999988,324.999988,99.55885714285715,99.50715,99.56394285714286,99.54408571428571,-0.024499999999999966,-0.15225,-0.22066666666666657,0.012666666666666604,-0.04999999999999716,-0.02499999999999858,1.629,1.6684999999999999,37.230000000000004,29.262666666666668,36.951,34.087,56.235,34.5005,58.6515,51.289500000000004,54.155,33.6685,57.297,49.6625,53.323,33.228,57.2655,49.090666666666664,-0.01550000000000007,-0.13500000000000023,0.10774500000000001,0.10618500000000002,0.0,206.25,206.10000000000002,203.36333333333334,203.36333333333334,0.0,0.0
3,0.0,1.0,0.0,1.0,1.0,0.0,0.0,1.0,0.0,100.0,1.0,1.1856,26.0,0.0,0.0,0.0,59.999996,0.0,26.0,26.0,26.0,26.0,-0.12887499999999996,0.3074000000000001,-0.051275,293.442,-2.7301,-2.690888888888889,-1.51,-1.5927777777777778,-265.46,216.26999999999998,190.928,0.0,0.0,0.0,0.0,0.007533333333333392,-5.498166666666667,-5.498166666666667,-0.5097,0.3295,-0.012500000000000178,-1.0680000000000005,65.964,-0.08270000000000001,-0.2024,1.2140000000000004,100.0,1.0,1.0,203.49666666666667,0.0,0.0,0.0,0.0,0.0,0.0,0.0,8625.5,0.0,55.0,5.0,237.44333333333333,1.0,0.0,0.0,0.0,0.0,0.0,0.0,0.0,0.15899999999999892,0.15899999999999892,0.0,0.0,1.0,55.0,616.79921,10000.0,85.000001,85.000001,85.000001,85.000001,395.0,0.0,0.0,0.0,1.0,166.665,53.619,53.619,48.111,48.111,34.0,-25.3975,17.848333333333333,-34.906666666666666,24.085,0.0,1783.315,0.6449999999999996,100.0,27.919,27.093,42.416,41.539,0.0,1.0,100.0,0.0,0.0,0.0,0.0,2835.142857142857,2776.2,4332.875,4205.9,306.1865,305.806,314.29,314.3505,21.806,20.5269,21.7619,21.3022,314.999998,314.999998,324.999988,324.999988,99.55885714285715,99.50716666666666,99.56407142857142,99.54422857142858,-0.018749999999999933,-0.15274999999999994,-0.20566666666666666,0.006333333333333302,-0.04999999999999716,-0.05333333333332746,1.4869999999999999,1.528,37.288,29.293333333333333,37.012,34.138999999999996,56.219,34.5405,58.6905,51.35,54.138999999999996,33.7055,57.3335,49.7205,53.307,33.2635,57.299,49.147333333333336,-0.03249999999999997,-0.12250000000000005,0.09975,0.10662500000000001,0.0,206.685,206.60000000000002,203.49666666666667,203.49666666666667,0.0,0.0
4,0.0,1.0,0.0,1.0,1.0,0.0,0.0,1.0,0.0,100.0,1.0,1.1856,26.0,0.0,0.0,0.0,59.999996,0.0,26.0,26.0,26.0,26.0,-0.135,0.2814000000000001,-0.021400000000000002,293.61,-2.6629,-2.740111111111111,-1.5286,-1.5974444444444444,-262.29,216.255,190.909375,0.0,0.0,0.0,0.0,0.009366666666666523,-5.498166666666667,-5.498166666666667,-0.5445,-0.6875,-0.07762499999999983,-1.7170000000000005,66.102,-0.08610000000000001,-0.23625000000000002,1.2240000000000002,100.0,1.0,1.0,204.07333333333332,0.0,0.0,0.0,0.0,0.0,0.0,0.0,8649.9,0.0,55.0,5.0,237.93666666666667,0.0,0.0,0.0,0.0,0.0,0.0,0.0,0.0,0.20700000000000074,0.20700000000000074,0.0,0.0,0.0,55.0,616.79921,10000.0,85.000001,85.000001,85.000001,85.000001,395.0,0.0,0.0,0.0,1.0,166.665,53.024,53.024,48.798,48.798,34.0,-29.622500000000002,19.19333333333333,-32.50666666666666,21.195,0.0,1783.267,0.5549999999999997,100.0,27.699,26.924,42.771,41.508,0.0,1.0,100.0,0.0,0.0,0.0,0.0,3281.4285714285716,2890.0,4090.5,3687.4,305.003,305.47766666666666,314.8295,315.62225,21.8152,20.5317,21.7718,21.3105,314.999998,314.999998,324.999988,324.999988,99.55885714285715,99.50718333333333,99.56421428571429,99.54435714285714,-0.026499999999999968,-0.15049999999999997,-0.2058333333333333,0.02416666666666667,-0.061666666666667425,-0.03333333333333144,1.571,1.6019999999999999,37.345,29.323333333333334,37.074,34.1905,56.202,34.58,58.731,51.4065,54.123000000000005,33.7415,57.3715,49.7745,53.29,33.298,57.3345,49.20033333333333,-0.026999999999999913,-0.11949999999999994,0.105675,0.11368500000000001,0.0,207.09,206.985,204.07333333333332,204.07333333333332,0.0,0.0
5,0.0,1.0,0.0,1.0,1.0,0.0,0.0,1.0,0.0,100.0,1.0,1.1856,26.0,0.0,0.0,0.0,59.999996,0.0,26.0,26.0,26.0,26.0,-0.133625,0.30010000000000003,-0.009850000000000001,293.594,-2.6669,-2.768666666666667,-1.5091999999999999,-1.5876666666666668,-258.92,216.2375,190.889,0.0,0.0,0.0,0.0,0.011333333333333306,-5.498166666666667,-5.498166666666667,-0.5356000000000001,0.393,-0.0807500000000001,1.157,66.249,-0.0908,-0.214375,1.0239999999999991,100.0,1.0,1.0,204.46666666666667,0.0,0.0,0.0,0.0,0.0,0.0,0.0,8666.6,0.0,55.0,5.0,238.46333333333334,1.0,0.0,0.0,0.0,0.0,0.0,0.0,0.0,0.2579999999999991,0.2579999999999991,0.0,0.0,1.0,55.0,616.79921,10000.0,85.000001,85.000001,85.000001,85.000001,395.0,0.0,0.0,0.0,1.0,333.33500000000004,53.406,53.406,48.92,48.92,34.0,-27.0325,19.94833333333333,-33.21,23.54,0.0,1783.215,0.13500000000000156,100.0,27.959,26.644,42.652,41.137,0.0,1.0,100.0,0.0,0.0,0.0,0.0,3098.4285714285716,2856.2,4152.0,4103.5,305.3295,305.804,314.69825,314.69825,21.8251,20.5368,21.7821,21.3192,314.999998,314.999998,324.999988,324.999988,99.55887142857142,99.5072,99.56435714285715,99.5445,-0.0014999999999999458,-0.125,-0.20866666666666667,0.015833333333333366,-0.045000000000001705,-0.05833333333333002,1.5205,1.578,37.407,29.355,37.138,34.245,56.188,34.6205,58.7725,51.466,54.11,33.778999999999996,57.41,49.8315,53.275999999999996,33.3335,57.3705,49.256,-0.057499999999999885,-0.08550000000000013,0.10172,0.11073000000000001,0.0,207.565,207.48000000000002,204.46666666666667,204.46666666666667,0.0,0.0
6,0.0,1.0,0.0,1.0,1.0,0.0,0.0,1.0,0.0,100.0,1.0,1.1856,26.0,0.0,0.0,0.0,59.999996,0.0,26.0,26.0,26.0,26.0,-0.118,0.28980000000000006,0.0034000000000000002,293.411,-2.6356,-2.797111111111111,-1.5539,-1.583,-255.73,216.2175,190.869625,0.0,0.0,0.0,0.0,0.01319999999999999,-5.498166666666667,-5.498166666666667,-0.5313,0.121,-0.06125000000000025,0.9670000000000001,66.387,-0.0829,-0.21532500000000002,0.6699999999999999,100.0,1.0,1.0,204.88666666666666,0.0,0.0,0.0,0.0,0.0,0.0,0.0,8684.4,0.0,55.0,5.0,238.96333333333334,0.0,0.0,0.0,0.0,0.0,0.0,0.0,0.0,0.30600000000000094,0.30600000000000094,0.0,0.0,0.0,55.0,616.79921,10000.0,85.000001,85.000001,85.000001,85.000001,395.0,0.0,0.0,0.0,1.0,166.665,53.101,53.101,48.706,48.706,34.0,-26.682499999999997,21.608333333333334,-32.35666666666667,24.052500000000002,0.0,1783.167,0.07000000000000028,100.0,27.874,26.755,42.758,41.494,0.0,1.0,100.0,0.0,0.0,0.0,0.0,3099.714285714286,2981.4,4075.375,4049.6000000000004,305.276,305.3233333333333,314.8735,314.8275,21.8344,20.5417,21.792,21.3276,314.999998,314.999998,324.999988,324.999988,99.55887142857142,99.50721666666666,99.56448571428571,99.54462857142858,0.0022500000000000853,-0.118,-0.19599999999999995,0.033333333333333215,-0.03499999999999659,-0.054999999999999716,1.5414999999999999,1.5625,37.465,29.385333333333335,37.2,34.2975,56.174,34.658500000000004,58.812,51.525,54.096000000000004,33.814,57.447,49.888,53.262,33.367,57.4045,49.31133333333334,-0.06600000000000006,-0.08099999999999996,0.09824000000000001,0.10747500000000001,0.0,207.95499999999998,207.91,204.88666666666666,204.88666666666666,0.0,0.0
7,0.0,1.0,0.0,1.0,1.0,0.0,0.0,1.0,0.0,100.0,1.0,1.1856,26.0,0.0,0.0,0.0,59.999996,0.0,26.0,26.0,26.0,26.0,-0.06699999999999995,0.28380000000000005,0.023525,293.198,-2.6159,-2.726888888888889,-1.5168,-1.624111111111111,-252.34,216.1925,190.84925,0.0,0.0,0.0,0.0,0.01516666666666655,-5.498166666666667,-5.498166666666667,-0.5342,0.00649999999999995,-0.05025000000000013,-0.19399999999999995,66.532,-0.0663,-0.22412500000000002,0.4120000000000008,100.0,1.0,1.0,205.31,0.0,0.0,0.0,0.0,0.0,0.0,0.0,8702.3,0.0,55.0,5.0,239.49,1.0,0.0,0.0,0.0,0.0,0.0,0.0,0.0,0.3569999999999993,0.3569999999999993,0.0,0.0,1.0,55.0,616.79921,10000.0,85.000001,85.000001,85.000001,85.000001,395.0,0.0,0.0,0.0,1.0,333.33500000000004,52.795,52.795,48.798,48.798,34.0,-26.9125,21.87166666666667,-31.513333333333335,25.21,0.0,1783.115,-0.245000000000001,100.0,27.803,26.976,42.693,41.874,0.0,1.0,100.0,0.0,0.0,0.0,0.0,3266.4285714285716,2951.4,4084.875,4018.4,304.886,305.25266666666664,314.866,314.75925,21.8442,20.5468,21.8024,21.3365,314.999998,314.999998,324.999988,324.999988,99.55887142857142,99.50721666666666,99.56464285714286,99.54477142857142,0.027249999999999996,-0.09475,-0.18566666666666665,0.04416666666666669,-0.046666666666666856,-0.04833333333333201,1.5245,1.535,37.525999999999996,29.417666666666666,37.265,34.3535,56.159,34.698,58.8535,51.5875,54.082,33.8505,57.486,49.948,53.247,33.402,57.4405,49.37,-0.09250000000000003,-0.053999999999999826,0.10608500000000001,0.110075,0.0,208.41,208.365,205.31,205.31,0.0,0.0
8,0.0,1.0,0.0,1.0,1.0,0.0,0.0,1.0,0.0,100.0,1.0,1.1856,26.0,0.0,0.0,0.0,59.999996,0.0,26.0,26.0,26.0,26.0,-0.035499999999999976,0.29190000000000005,0.02445,293.472,-2.6967,-2.717888888888889,-1.4976,-1.5751111111111111,-248.95,216.16750000000002,190.828625,0.0,0.0,0.0,0.0,0.017133333333333334,-5.498166666666667,-5.498166666666667,-0.5356000000000001,-0.5895000000000001,-0.03175000000000017,0.7389999999999999,66.679,-0.0463,-0.21482500000000002,-0.11799999999999944,100.0,1.0,1.0,205.69666666666666,0.0,0.0,0.0,0.0,0.0,0.0,0.0,8718.7,0.0,55.0,5.0,240.01333333333332,0.0,0.0,0.0,0.0,0.0,0.0,0.0,0.0,0.40800000000000125,0.40800000000000125,0.0,0.0,0.0,55.0,616.79921,10000.0,85.000001,85.000001,85.000001,85.000001,395.0,0.0,0.0,0.0,1.0,333.33500000000004,53.68,53.68,48.157,48.157,34.0,-23.355,23.12166666666667,-29.726666666666667,27.19,0.0,1783.065,-0.35999999999999943,100.0,27.447,26.746,42.793,41.884,0.0,1.0,100.0,0.0,0.0,0.0,0.0,2922.714285714286,3005.0,4101.375,4148.6,305.9305,305.3353333333333,314.72125,314.50725,21.8538,20.552,21.8128,21.345399999999998,314.999998,314.999998,324.999988,324.999988,99.55887142857142,99.50723333333333,99.56478571428572,99.5449,0.05125000000000002,-0.06625000000000003,-0.14749999999999996,0.07566666666666677,-0.03833333333332689,-0.041666666666671404,1.5105,1.5105,37.586,29.45,37.33,34.409,56.141999999999996,34.736,58.894999999999996,51.6495,54.066,33.8855,57.5245,50.0075,53.230000000000004,33.4355,57.476,49.428333333333335,-0.10050000000000003,-0.039000000000000146,0.10830500000000001,0.10546000000000001,0.0,208.825,208.805,205.69666666666666,205.69666666666666,0.0,0.0
9,0.0,1.0,0.0,1.0,1.0,0.0,0.0,1.0,0.0,100.0,1.0,1.1856,26.0,0.0,0.0,0.0,59.999996,0.0,26.0,26.0,26.0,26.0,-0.01100000000000001,0.27070000000000016,-0.00825,293.076,-2.6267,-2.716222222222222,-1.5546,-1.5614444444444444,-245.54,216.14,190.8075,0.0,0.0,0.0,0.0,0.019133333333333336,-5.498166666666667,-5.498166666666667,-0.5385,0.74,-0.033250000000000224,-0.2469999999999999,66.821,-0.025,-0.2137,-0.11799999999999944,100.0,1.0,1.0,206.23666666666668,0.0,0.0,0.0,0.0,0.0,0.0,0.0,8741.6,0.0,55.0,5.0,240.5233333333333,1.0,0.0,0.0,0.0,0.0,0.0,0.0,0.0,0.45899999999999963,0.45899999999999963,0.0,0.0,1.0,55.0,616.79921,10000.0,85.000001,85.000001,85.000001,85.000001,395.0,0.0,0.0,0.0,1.0,166.665,52.429,52.429,49.057,49.057,34.0,-25.6675,23.509999999999998,-28.956666666666663,26.735,0.0,1783.015,-0.46000000000000085,100.0,27.926,27.356,42.337,41.984,0.0,1.0,100.0,0.0,0.0,0.0,0.0,3321.5714285714284,2992.8,4071.375,4079.5,304.761,305.127,314.999,314.70925,21.8637,20.5574,21.8231,21.3543,314.999998,314.999998,324.999988,324.999988,99.55888571428571,99.50723333333333,99.56491428571428,99.54505714285715,0.06725000000000003,-0.06099999999999994,-0.132,0.08633333333333337,-0.04999999999999716,-0.041666666666671404,1.558,1.57,37.647999999999996,29.483666666666664,37.394,34.464,56.129999999999995,34.7755,58.933,51.710499999999996,54.054,33.922,57.5595,50.066,53.217,33.4705,57.5085,49.48566666666667,-0.11499999999999999,-0.046499999999999986,0.10295000000000001,0.10347500000000001,0.0,209.3,209.29500000000002,206.23666666666668,206.23666666666668,0.0,0.0
10,0.0,1.0,0.0,1.0,1.0,0.0,0.0,1.0,0.0,100.0,1.0,1.1856,26.0,0.0,0.0,0.0,59.999996,0.0,26.0,26.0,26.0,26.0,0.022499999999999964,0.28310000000000013,0.04905,293.045,-2.7056,-2.703222222222222,-1.541,-1.543,-242.13,216.1125,190.786875,0.0,0.0,0.0,0.0,0.021100000000000008,-5.498166666666667,-5.498166666666667,-0.5214,-0.7565,0.014874999999999972,1.671,66.968,-0.006500000000000001,-0.2093,-0.5279999999999996,100.0,1.0,1.0,206.51,0.0,0.0,0.0,0.0,0.0,0.0,0.0,8753.2,0.0,55.0,5.0,241.05333333333334,0.0,0.0,0.0,0.0,0.0,0.0,1.0,0.0,0.509999999999998,0.509999999999998,0.0,0.0,0.0,55.0,616.79921,10000.0,85.000001,85.000001,85.000001,85.000001,395.0,0.0,0.0,0.0,1.0,166.665,53.497,53.497,47.684,47.684,34.0,-20.755,24.375,-28.96333333333333,30.905,0.0,1782.964,-0.629999999999999,100.0,27.707,27.143,42.872,42.65,0.0,1.0,100.0,0.0,0.0,0.0,0.0,2816.0,2997.7,4191.875,4308.7,306.2485,305.36333333333334,314.521,314.13975,21.8733,20.5626,21.8336,21.3634,314.999998,314.999998,324.999988,324.999988,99.5589,99.50725,99.56505714285714,99.5452,0.09549999999999992,-0.030000000000000027,-0.10483333333333333,0.12583333333333324,-0.03166666666666629,-0.03999999999999915,1.4865,1.4655,37.708,29.516666666666666,37.46,34.5215,56.116,34.812,58.9755,51.775999999999996,54.041,33.956,57.5995,50.129,53.203,33.503,57.545500000000004,49.547666666666665,-0.12349999999999994,-0.02300000000000013,0.10686500000000002,0.10677,0.0,209.70499999999998,209.72500000000002,206.51,206.51,0.0,0.0
11,0.0,1.0,0.0,1.0,1.0,0.0,0.0,1.0,0.0,100.0,1.0,1.1856,26.0,0.0,0.0,0.0,59.999996,0.0,26.0,26.0,26.0,26.0,0.026499999999999968,0.2843,-0.07355,293.533,-2.7055,-2.687555555555556,-1.5892,-1.5235555555555558,-238.91,216.085,190.76725,0.0,0.0,0.0,0.0,0.022599999999999953,-5.498166666666667,-5.498166666666667,-0.562,-0.14149999999999996,0.03287499999999999,0.2610000000000001,67.098,0.0122,-0.23695000000000002,-0.6720000000000006,100.0,1.0,1.0,207.20666666666668,0.0,0.0,0.0,0.0,0.0,0.0,0.0,8782.7,0.0,55.0,5.0,241.52333333333334,1.0,0.0,0.0,0.0,0.0,0.0,1.0,0.0,0.5579999999999998,0.5579999999999998,0.0,0.0,1.0,55.0,616.79921,10000.0,85.000001,85.000001,85.000001,85.000001,395.0,0.0,0.0,0.0,1.0,333.33500000000004,52.811,52.811,49.271,49.271,34.0,-21.607499999999998,26.735,-23.666666666666664,26.885,0.0,1782.914,-0.6750000000000007,100.0,27.563,27.434,42.278999999999996,42.513,0.0,1.0,100.0,0.0,0.0,0.0,0.0,3006.4285714285716,3184.9,3701.125,3877.4,305.646,304.71433333333334,315.8505,315.225,21.8823,20.5678,21.8432,21.3718,314.999998,314.999998,324.999988,324.999988,99.5589,99.50725,99.5652,99.54532857142857,0.11549999999999994,-0.015000000000000013,-0.08233333333333337,0.1383333333333332,-0.04333333333332945,-0.061666666666667425,1.662,1.6285,37.763999999999996,29.548666666666666,37.519999999999996,34.573499999999996,56.102999999999994,34.848,59.009,51.8335,54.028,33.989,57.6305,50.1845,53.19,33.5345,57.573499999999996,49.60166666666667,-0.127,-0.022499999999999964,0.10404000000000001,0.11195500000000001,0.0,210.10500000000002,210.14499999999998,207.20666666666668,207.20666666666668,0.0,0.0
12,0.0,1.0,0.0,1.0,1.0,0.0,0.0,1.0,0.0,100.0,1.0,1.1856,26.0,0.0,0.0,0.0,59.999996,0.0,26.0,26.0,26.0,26.0,0.04787500000000011,0.29000000000000004,0.01835,292.923,-2.7586,-2.6833333333333336,-1.5558,-1.524888888888889,-235.69,216.0625,190.7465,0.0,0.0,0.0,0.0,0.025466666666666526,-5.498166666666667,-5.498166666666667,-0.5453,0.30599999999999994,0.02012499999999995,0.718,67.235,0.0291,-0.206175,-0.7220000000000004,100.0,1.0,1.0,207.39666666666668,0.0,0.0,0.0,0.0,0.0,0.0,0.0,8790.7,0.0,55.0,5.0,242.01666666666665,0.0,0.0,0.0,0.0,0.0,0.0,1.0,0.0,0.6059999999999981,0.6059999999999981,0.0,0.0,0.0,55.0,616.79921,10000.0,85.000001,85.000001,85.000001,85.000001,395.0,0.0,0.0,0.0,1.0,166.665,52.826,52.826,47.928,47.928,34.0,-21.8875,27.255,-26.630000000000003,31.6275,0.0,1782.867,-0.6799999999999997,100.0,27.471,27.58,42.317,42.484,0.0,1.0,100.0,0.0,0.0,0.0,0.0,3027.714285714286,3199.5,4173.25,4235.4,305.5915,304.705,314.64125,314.3815,21.8913,20.5729,21.852899999999998,21.3802,314.999998,314.999998,324.999988,324.999988,99.55892857142857,99.50725,99.56532857142857,99.54545714285715,0.12450000000000006,-0.004249999999999976,-0.06466666666666665,0.16199999999999992,-0.036666666666668846,-0.05666666666667197,1.529,1.511,37.821,29.581,37.581,34.626,56.091,34.884,59.0465,51.891999999999996,54.016999999999996,34.022,57.6655,50.2405,53.178,33.5665,57.6055,49.657,-0.12450000000000006,-0.026499999999999968,0.1077,0.11328500000000001,0.0,210.515,210.59,207.39666666666668,207.39666666666668,0.0,0.0
13,0.0,1.0,0.0,1.0,1.0,0.0,0.0,1.0,0.0,100.0,1.0,1.1856,26.0,0.0,0.0,0.0,59.999996,0.0,26.0,26.0,26.0,26.0,0.07387499999999991,0.2821,0.03615,292.526,-2.7401,-2.670888888888889,-1.5916000000000001,-1.5052222222222222,-232.26,216.0375,190.72475,0.0,0.0,0.0,0.0,0.026833333333333376,-5.498166666666667,-5.498166666666667,-0.5386000000000001,-0.1140000000000001,0.022375000000000034,-0.5950000000000002,67.377,0.038200000000000005,-0.21480000000000002,-0.8159999999999998,100.0,1.0,1.0,207.78,0.0,0.0,0.0,0.0,0.0,0.0,0.0,8807.1,0.0,55.0,5.0,242.53,1.0,0.0,0.0,0.0,0.0,0.0,1.0,0.0,0.657,0.657,0.0,0.0,1.0,55.0,616.79921,10000.0,85.000001,85.000001,85.000001,85.000001,395.0,0.0,0.0,0.0,1.0,166.665,52.475,52.475,47.867,47.867,34.0,-21.985,26.926666666666666,-27.663333333333334,31.205000000000002,0.0,1782.816,-0.8550000000000004,100.0,27.65,27.955,42.475,43.135,0.0,1.0,100.0,0.0,0.0,0.0,0.0,3155.857142857143,3089.8,4209.0,4286.7,305.369,304.84933333333333,314.60325,314.145,21.9009,20.5785,21.8634,21.3893,314.999998,314.999998,324.999988,324.999988,99.55894285714285,99.50726666666667,99.56547142857143,99.54561428571428,0.13874999999999993,0.010750000000000037,-0.06766666666666665,0.1443333333333332,-0.04999999999999716,-0.05833333333333002,1.4945,1.4765,37.881,29.615333333333332,37.646,34.683,56.081,34.922,59.0865,51.957499999999996,54.007,34.0575,57.7025,50.3035,53.166,33.6,57.6395,49.718666666666664,-0.1459999999999999,-0.006000000000000227,0.10848000000000001,0.09625,0.0,210.97500000000002,211.015,207.78,207.78,0.0,0.0
14,0.0,1.0,0.0,1.0,1.0,0.0,0.0,1.0,0.0,100.0,1.0,1.1856,26.0,0.0,0.0,0.0,59.999996,0.0,26.0,26.0,26.0,26.0,0.0827500000000001,0.2823,-0.0115,292.77,-2.735,-2.6164444444444444,-1.5988,-1.5116666666666667,-228.82,216.0125,190.7035,0.0,0.0,0.0,0.0,0.028833333333333377,-5.498166666666667,-5.498166666666667,-0.5488000000000001,-0.10699999999999998,0.05262499999999992,1.341,67.517,0.0522,-0.2285,-1.0579999999999998,100.0,1.0,1.0,208.3,0.0,0.0,0.0,0.0,0.0,0.0,0.0,8829.1,0.0,55.0,5.0,243.03333333333336,0.0,0.0,0.0,0.0,0.0,0.0,1.0,0.0,0.7079999999999984,0.7079999999999984,0.0,0.0,0.0,55.0,616.79921,10000.0,85.000001,85.000001,85.000001,85.000001,395.0,0.0,0.0,0.0,1.0,333.33500000000004,52.582,52.582,48.08,48.08,34.0,-19.425,28.786666666666665,-24.476666666666667,32.019999999999996,0.0,1782.765,-0.9549999999999983,100.0,27.727,27.885,42.542,43.197,0.0,1.0,100.0,0.0,0.0,0.0,0.0,2927.285714285714,3264.8,3945.75,4220.5,305.8495,304.5043333333333,315.173,314.4095,21.9105,20.584,21.8737,21.3984,314.999998,314.999998,324.999988,324.999988,99.55895714285714,99.50726666666667,99.56561428571429,99.54575714285714,0.15999999999999992,0.030750000000000055,-0.046499999999999986,0.17500000000000004,-0.045000000000001705,-0.046666666666666856,1.558,1.5125,37.941,29.64966666666667,37.711,34.74,56.071,34.960499999999996,59.1245,52.0215,53.997,34.0925,57.738,50.365,53.156,33.634,57.672,49.778999999999996,-0.1499999999999999,-0.0030000000000001137,0.101845,0.10681500000000001,0.0,211.38,211.46,208.3,208.3,0.0,0.0
15,0.0,1.0,0.0,1.0,1.0,0.0,0.0,1.0,0.0,100.0,1.0,1.1856,26.0,0.0,0.0,0.0,59.999996,0.0,26.0,26.0,26.0,26.0,0.11575000000000002,0.2833000000000001,0.019075,292.831,-2.7455,-2.571777777777778,-1.6280999999999999,-1.4512222222222222,-225.57,215.995,190.683125,0.0,0.0,0.0,0.0,0.03073333333333339,-5.498166666666667,-5.498166666666667,-0.5389,0.244,0.08499999999999996,0.8900000000000001,67.648,0.06570000000000001,-0.20802500000000002,-1.1799999999999997,100.0,1.0,1.0,208.69,0.0,0.0,0.0,0.0,0.0,0.0,0.0,8845.5,0.0,55.0,5.0,243.50666666666666,1.0,0.0,0.0,0.0,0.0,0.0,1.0,0.0,0.7560000000000002,0.7560000000000002,0.0,0.0,1.0,55.0,616.79921,10000.0,85.000001,85.000001,85.000001,85.000001,395.0,0.0,0.0,0.0,1.0,166.665,52.856,52.856,48.126,48.126,34.0,-18.055,28.406666666666666,-23.979999999999997,34.129999999999995,0.0,1782.718,-0.9849999999999994,100.0,27.686,27.93,42.262,43.287,0.0,1.0,100.0,0.0,0.0,0.0,0.0,2778.0,3236.5,3934.0,4409.6,306.3295,304.588,315.24125,313.974,21.9194,20.589199999999998,21.8833,21.407,314.999998,314.999998,324.999988,324.999988,99.55897142857143,99.50726666666667,99.56574285714285,99.5459,0.16700000000000004,0.038000000000000034,-0.031333333333333324,0.19833333333333325,-0.03166666666666629,-0.061666666666667425,1.556,1.5085,37.997,29.682666666666666,37.771,34.7935,56.061,34.997,59.159,52.082499999999996,53.988,34.1265,57.769999999999996,50.423500000000004,53.144999999999996,33.667,57.701,49.836666666666666,-0.15149999999999997,0.0004999999999999449,0.10383,0.11474500000000001,0.0,211.805,211.89,208.69,208.69,0.0,0.0
16,0.0,1.0,0.0,1.0,1.0,0.0,0.0,1.0,0.0,100.0,1.0,1.1856,26.0,0.0,0.0,0.0,59.999996,0.0,26.0,26.0,26.0,26.0,0.12987499999999996,0.27659999999999996,-0.05745,292.816,-2.8069,-2.5796666666666668,-1.6002,-1.5126666666666668,-222.12,215.975,190.661125,0.0,0.0,0.0,0.0,0.03273333333333339,-5.498166666666667,-5.498166666666667,-0.562,-0.6755,0.06787499999999991,-0.9780000000000002,67.788,0.0777,-0.225575,-1.2320000000000002,100.0,1.0,1.0,209.13333333333333,0.0,0.0,0.0,0.0,0.0,0.0,0.0,8864.3,0.0,55.0,5.0,244.01,0.0,0.0,0.0,0.0,0.0,0.0,1.0,0.0,0.8069999999999986,0.8069999999999986,0.0,0.0,0.0,55.0,616.79921,10000.0,85.000001,85.000001,85.000001,85.000001,395.0,0.0,0.0,0.0,1.0,166.665,52.643,52.643,47.928,47.928,34.0,-20.06,28.303333333333335,-23.243333333333332,32.54,0.0,1782.666,-0.8649999999999984,100.0,27.246,28.158,42.439,43.504,0.0,1.0,100.0,0.0,0.0,0.0,0.0,3021.285714285714,3220.5,3961.0,4099.7,305.848,304.4886666666667,315.218,314.5925,21.9287,20.5948,21.8937,21.4161,314.999998,314.999998,324.999988,324.999988,99.55898571428571,99.50726666666667,99.5659,99.54604285714285,0.1705000000000001,0.03299999999999992,-0.022166666666666557,0.20500000000000007,-0.026666666666670835,-0.04999999999999716,1.574,1.5235,38.054,29.717666666666666,37.836,34.8505,56.048,35.037,59.198499999999996,52.1455,53.976,34.1635,57.8065,50.4845,53.132,33.7025,57.7345,49.89666666666667,-0.14700000000000002,-0.008999999999999897,0.10798,0.11254000000000002,0.0,212.2,212.28,209.13333333333333,209.13333333333333,0.0,0.0
17,0.0,1.0,0.0,1.0,1.0,0.0,0.0,1.0,0.0,100.0,1.0,1.1856,26.0,0.0,0.0,0.0,59.999996,0.0,26.0,26.0,26.0,26.0,0.10987499999999994,0.28300000000000014,-0.005975,292.404,-2.7644,-2.563777777777778,-1.6421000000000001,-1.475111111111111,-218.66,215.96,190.6385,0.0,0.0,0.0,0.0,0.034733333333333394,-5.498166666666667,-5.498166666666667,-0.5492,0.47950000000000004,0.05174999999999996,0.823,67.928,0.082,-0.20565,-1.1820000000000004,100.0,1.0,1.0,209.49333333333334,0.0,0.0,0.0,0.0,0.0,0.0,0.0,8879.7,0.0,55.0,5.0,244.51,1.0,0.0,0.0,0.0,0.0,0.0,1.0,0.0,0.8580000000000005,0.8580000000000005,0.0,0.0,1.0,55.0,616.79921,10000.0,85.000001,85.000001,85.000001,85.000001,395.0,0.0,0.0,0.0,1.0,333.33500000000004,52.368,52.368,47.653,47.653,34.0,-19.005,28.456666666666667,-26.006666666666668,34.2375,0.0,1782.615,-0.9649999999999999,100.0,27.859,28.28,42.31,43.41,0.0,1.0,100.0,0.0,0.0,0.0,0.0,2988.714285714286,3193.1,4237.25,4359.0,305.732,304.7536666666667,314.583,314.141,21.9382,20.6005,21.904,21.4252,314.999998,314.999998,324.999988,324.999988,99.55901428571428,99.50728333333333,99.56604285714286,99.54618571428571,0.18575000000000008,0.05249999999999999,-0.022333333333333316,0.2028333333333332,-0.051666666666669414,-0.030000000000001137,1.5215,1.5,38.114000000000004,29.753333333333334,37.9,34.9075,56.041,35.0785,59.2355,52.2095,53.968,34.202,57.841,50.546,53.123,33.7395,57.7655,49.957,-0.15500000000000003,-0.002000000000000224,0.11066000000000001,0.102245,0.0,212.68,212.75,209.49333333333334,209.49333333333334,0.0,0.0
18,0.0,1.0,0.0,1.0,1.0,0.0,0.0,1.0,0.0,100.0,1.0,1.1856,26.0,0.0,0.0,0.0,59.999996,0.0,26.0,26.0,26.0,26.0,0.12674999999999992,0.26960000000000006,-0.0063,292.45,-2.7971,-2.538222222222222,-1.6594,-1.418777777777778,-215.39,215.95,190.6175,0.0,0.0,0.0,0.0,0.036633333333333296,-5.498166666666667,-5.498166666666667,-0.561,-0.5190000000000001,0.07674999999999987,1.129,68.05799999999999,0.08320000000000001,-0.2245,-1.29,100.0,1.0,1.0,209.93,0.0,0.0,0.0,0.0,0.0,0.0,0.0,8898.2,0.0,55.0,5.0,244.98000000000002,0.0,0.0,0.0,0.0,0.0,0.0,1.0,0.0,0.9059999999999988,0.9059999999999988,0.0,0.0,0.0,55.0,616.79921,10000.0,85.000001,85.000001,85.000001,85.000001,395.0,0.0,0.0,0.0,1.0,166.665,52.292,52.292,47.684,47.684,34.0,-18.925,30.803333333333335,-24.189999999999998,33.135000000000005,0.0,1782.568,-1.1649999999999991,100.0,27.591,28.161,42.588,43.765,0.0,1.0,100.0,0.0,0.0,0.0,0.0,2993.5714285714284,3396.1,3998.375,4239.4,305.7855,304.1813333333333,315.1095,314.39275,21.947,20.6058,21.9138,21.4339,314.999998,314.999998,324.999988,324.999988,99.55904285714286,99.5073,99.56617142857142,99.54632857142857,0.19399999999999995,0.06499999999999995,-0.01766666666666661,0.21766666666666667,-0.03999999999999915,-0.03999999999999915,1.552,1.503,38.169,29.78633333333333,37.961,34.962,56.031,35.1165,59.2725,52.271,53.959,34.2375,57.8755,50.6055,53.113,33.7735,57.797,50.01533333333333,-0.16599999999999993,0.010499999999999954,0.10209000000000001,0.116235,0.0,213.03,213.115,209.93,209.93,0.0,0.0
19,0.0,1.0,0.0,1.0,1.0,0.0,0.0,1.0,0.0,100.0,1.0,1.1856,26.0,0.0,0.0,0.0,59.999996,0.0,26.0,26.0,26.0,26.0,0.16874999999999996,0.2895000000000001,0.04295,291.916,-2.721,-2.522333333333333,-1.6758000000000002,-1.4011111111111112,-211.92000000000002,215.9425,190.594875,0.0,0.0,0.0,0.0,0.038666666666666516,-5.498166666666667,-5.498166666666667,-0.55,0.8335,0.08462499999999995,-0.5569999999999999,68.195,0.0913,-0.21130000000000002,-1.597999999999999,100.0,1.0,1.0,210.31666666666666,0.0,0.0,0.0,0.0,0.0,0.0,0.0,8914.6,0.0,55.0,5.0,245.47333333333336,1.0,0.0,0.0,0.0,0.0,0.0,1.0,0.0,0.9570000000000007,0.9570000000000007,0.0,0.0,1.0,55.0,616.79921,10000.0,85.000001,85.000001,85.000001,85.000001,395.0,0.0,0.0,0.0,1.0,166.665,51.666,51.666,47.455,47.455,34.0,-17.665,30.79,-25.293333333333337,34.9875,0.0,1782.516,-1.5650000000000013,100.0,27.945,28.841,42.25,43.862,0.0,1.0,100.0,0.0,0.0,0.0,0.0,3094.0,3322.1,4210.375,4433.0,305.473,304.126,314.71975,313.91075,21.9565,20.6117,21.924,21.4431,314.999998,314.999998,324.999988,324.999988,99.55905714285714,99.5073,99.56631428571428,99.54647142857142,0.22225000000000006,0.07699999999999996,-0.006833333333333358,0.21999999999999997,-0.05666666666667197,-0.03499999999999659,1.5434999999999999,1.4789999999999999,38.227999999999994,29.823,38.025,35.019,56.025999999999996,35.161,59.3085,52.335499999999996,53.953,34.2785,57.908500000000004,50.668,53.106,33.813,57.827,50.077,-0.19900000000000007,0.03649999999999998,0.105175,0.10377000000000002,0.0,213.49,213.595,210.31666666666666,210.31666666666666,0.0,0.0
20,0.0,1.0,0.0,1.0,1.0,0.0,0.0,1.0,0.0,100.0,1.0,1.1856,26.0,0.0,0.0,0.0,59.999996,0.0,26.0,26.0,26.0,26.0,0.18262500000000004,0.27570000000000006,0.047475,292.328,-2.8262,-2.5826666666666664,-1.6072000000000002,-1.5167777777777778,-208.44,215.94,190.5725,0.0,0.0,0.0,0.0,0.04069999999999996,-5.498166666666667,-5.498166666666667,-0.5567,-1.2755,0.09487500000000004,0.41400000000000015,68.334,0.1095,-0.223775,-1.9320000000000004,100.0,1.0,1.0,210.65666666666667,0.0,0.0,0.0,0.0,0.0,0.0,0.0,8928.9,0.0,55.0,5.0,245.97666666666666,0.0,0.0,0.0,0.0,0.0,0.0,0.0,0.0,1.0079999999999991,1.0079999999999991,0.0,0.0,0.0,55.0,616.79921,10000.0,85.000001,85.000001,85.000001,85.000001,395.0,0.0,0.0,0.0,1.0,166.665,52.75,52.75,46.982,46.982,34.0,-17.305,30.39666666666667,-22.056666666666665,36.8425,0.0,1782.465,-0.9600000000000009,100.0,27.432,28.368000000000002,42.85,44.296,0.0,1.0,100.0,0.0,0.0,0.0,0.0,2787.714285714286,3288.0,4045.25,4320.3,306.457,304.456,314.8985,314.02925,21.9656,20.6173,21.9345,21.4524,314.999998,314.999998,324.999988,324.999988,99.55908571428571,99.50731666666667,99.56647142857143,99.54662857142857,0.2015,0.07000000000000006,0.02100000000000013,0.2370000000000001,-0.03833333333332689,-0.06499999999999773,1.5125,1.451,38.285,29.858333333333334,38.091,35.0775,56.015,35.2035,59.3495,52.403,53.943,34.318,57.9465,50.733000000000004,53.094,33.851,57.862,50.14066666666667,-0.15799999999999992,0.008999999999999897,0.11016500000000001,0.09823000000000001,0.0,213.85500000000002,213.995,210.65666666666667,210.65666666666667,0.0,0.0
21,0.0,1.0,0.0,1.0,1.0,0.0,0.0,1.0,0.0,100.0,1.0,1.1856,26.0,0.0,0.0,0.0,59.999996,0.0,26.0,26.0,26.0,26.0,0.139,0.27290000000000014,-0.07037500000000001,292.572,-2.7342,-2.637,-1.6627,-1.4881111111111112,-205.14999999999998,215.94,190.55075,0.0,0.0,0.0,0.0,0.04259999999999997,-5.498166666666667,-5.498166666666667,-0.5787,0.542,0.06712499999999988,-0.08599999999999985,68.458,0.12290000000000001,-0.224675,-1.2299999999999995,100.0,1.0,1.0,211.26666666666665,0.0,0.0,0.0,0.0,0.0,0.0,0.0,8954.8,0.0,55.0,5.0,246.42000000000002,1.0,0.0,0.0,0.0,0.0,0.0,0.0,0.0,1.056000000000001,1.056000000000001,0.0,0.0,1.0,55.0,616.79921,10000.0,85.000001,85.000001,85.000001,85.000001,395.0,0.0,0.0,0.0,1.0,166.665,52.17,52.17,48.172,48.172,34.0,-20.1725,28.361666666666665,-21.299999999999997,33.805,0.0,1782.419,0.07000000000000028,100.0,27.859,28.59,42.234,43.853,0.0,1.0,100.0,0.0,0.0,0.0,0.0,2944.285714285714,3250.2,3959.625,4068.0,305.8085,304.47866666666664,315.297,314.8245,21.9744,20.6228,21.944,21.4609,314.999998,314.999998,324.999988,324.999988,99.5591,99.50731666666667,99.5666,99.54677142857143,0.14575000000000005,0.016750000000000043,0.027666666666666728,0.2526666666666668,-0.04833333333333201,-0.051666666666669414,1.6345,1.563,38.34,29.892666666666663,38.15,35.1305,56.006,35.243,59.381,52.460499999999996,53.934,34.355000000000004,57.9755,50.7885,53.084,33.885999999999996,57.888,50.195,-0.0794999999999999,-0.08199999999999985,0.106605,0.10226500000000001,0.0,214.305,214.385,211.26666666666665,211.26666666666665,0.0,0.0
22,0.0,1.0,0.0,1.0,1.0,0.0,0.0,1.0,0.0,100.0,1.0,1.1856,26.0,0.0,0.0,0.0,59.999996,0.0,26.0,26.0,26.0,26.0,0.09737499999999999,0.2694000000000001,0.013075,292.023,-2.7114000000000003,-2.648777777777778,-1.6478000000000002,-1.487888888888889,-201.66,215.945,190.526875,0.0,0.0,0.0,0.0,0.0446333333333333,-5.498166666666667,-5.498166666666667,-0.5566,0.09099999999999997,0.05874999999999986,-0.8260000000000001,68.59700000000001,0.0917,-0.20597500000000002,0.21199999999999974,100.0,1.0,1.0,211.48333333333335,0.0,0.0,0.0,0.0,0.0,0.0,0.0,8964.0,0.0,55.0,5.0,246.92000000000002,0.0,0.0,0.0,0.0,0.0,0.0,0.0,0.0,1.1069999999999993,1.1069999999999993,0.0,0.0,0.0,55.0,616.79921,10000.0,85.000001,85.000001,85.000001,85.000001,395.0,0.0,0.0,0.0,1.0,166.665,52.292,52.292,46.982,46.982,34.0,-21.8825,24.705,-27.57,33.605000000000004,0.0,1782.367,0.6550000000000011,100.0,27.843,28.703,42.775999999999996,44.15,0.0,1.0,100.0,0.0,0.0,0.0,0.0,2961.0,3099.5,4250.875,4338.3,305.907,304.731,314.576,314.1025,21.9837,20.6286,21.9545,21.4702,314.999998,314.999998,324.999988,324.999988,99.55911428571429,99.50731666666667,99.56674285714286,99.54691428571428,0.09899999999999998,-0.04425000000000001,-0.04399999999999993,0.1875,-0.07166666666666544,-0.01833333333333087,1.474,1.4949999999999999,38.397999999999996,29.928333333333335,38.215,35.1885,55.994,35.2825,59.4215,52.525999999999996,53.922,34.3915,58.0135,50.8515,53.071,33.9215,57.9225,50.257333333333335,-0.02849999999999997,-0.1299999999999999,0.10504000000000001,0.11090000000000001,0.0,214.79000000000002,214.765,211.48333333333335,211.48333333333335,0.0,0.0
23,0.0,1.0,0.0,1.0,1.0,0.0,0.0,1.0,0.0,100.0,1.0,1.1856,26.0,0.0,0.0,0.0,59.999996,0.0,26.0,26.0,26.0,26.0,0.010000000000000009,0.24690000000000012,-0.019175,292.084,-2.7055,-2.6355555555555554,-1.545,-1.5825555555555557,-198.16,215.9525,190.5035,0.0,0.0,0.0,0.0,0.04666666666666652,-5.498166666666667,-5.498166666666667,-0.5753,-0.2370000000000001,0.026124999999999954,-0.07100000000000017,68.731,0.037200000000000004,-0.2321,0.9120000000000008,100.0,1.0,1.0,212.0233333333333,0.0,0.0,0.0,0.0,0.0,0.0,0.0,8986.9,0.0,55.0,5.0,247.40333333333334,1.0,0.0,0.0,0.0,0.0,0.0,0.0,0.0,1.1580000000000013,1.1580000000000013,0.0,0.0,1.0,55.0,616.79921,10000.0,85.000001,85.000001,85.000001,85.000001,395.0,0.0,0.0,0.0,1.0,166.665,51.682,51.682,48.111,48.111,34.0,-25.36,24.064999999999998,-26.013333333333335,28.62,0.0,1782.315,0.8049999999999997,100.0,28.43,28.394,43.222,44.073,0.0,1.0,100.0,0.0,0.0,0.0,0.0,3205.0,3200.3,3905.875,3969.6000000000004,305.0275,304.708,315.27025,314.96475,21.9931,20.6343,21.9649,21.4794,314.999998,314.999998,324.999988,324.999988,99.55912857142857,99.50731666666667,99.56688571428572,99.54707142857143,0.07200000000000006,-0.06974999999999998,-0.09350000000000003,0.133,-0.045000000000001705,-0.03499999999999659,1.5135,1.5525,38.457,29.964,38.281,35.2465,55.980000000000004,35.323499999999996,59.4595,52.5895,53.909,34.429,58.0485,50.9125,53.057,33.957499999999996,57.954499999999996,50.317,-0.01849999999999996,-0.14550000000000018,0.10384,0.10675000000000001,0.0,215.2,215.115,212.0233333333333,212.0233333333333,0.0,0.0
24,0.0,1.0,0.0,1.0,1.0,0.0,0.0,1.0,0.0,100.0,1.0,1.1856,26.0,0.0,0.0,0.0,59.999996,0.0,26.0,26.0,26.0,26.0,-0.052749999999999964,0.2650000000000001,-0.109575,292.389,-2.7027,-2.673,-1.5657,-1.5461111111111112,-194.86,215.95749999999998,190.481,0.0,0.0,0.0,0.0,0.048566666666666536,-5.498166666666667,-5.498166666666667,-0.5787,-0.5935000000000001,0.00912500000000005,0.6240000000000001,68.85900000000001,-0.0106,-0.21675,1.1739999999999995,100.0,1.0,1.0,212.30666666666667,0.0,0.0,0.0,0.0,0.0,0.0,0.0,8998.9,0.0,55.0,5.0,247.86333333333334,0.0,0.0,0.0,0.0,0.0,0.0,0.0,0.0,1.2059999999999995,1.2059999999999995,0.0,0.0,0.0,55.0,616.79921,10000.0,85.000001,85.000001,85.000001,85.000001,395.0,0.0,0.0,0.0,1.0,166.665,52.917,52.917,47.058,47.058,34.0,-24.1175,20.793333333333333,-31.88,27.142500000000002,0.0,1782.268,0.8099999999999987,100.0,28.232,27.983,43.496,43.666,0.0,1.0,100.0,0.0,0.0,0.0,0.0,2909.142857142857,2949.2,4291.375,4103.9,305.9665,305.50966666666665,314.347,314.728,22.002,20.6394,21.9747,21.488,314.999998,314.999998,324.999988,324.999988,99.55912857142857,99.50733333333334,99.56702857142857,99.54721428571429,0.03275000000000006,-0.10424999999999995,-0.1363333333333333,0.09050000000000002,-0.041666666666671404,-0.036666666666668846,1.4855,1.516,38.512,29.996000000000002,38.342,35.3,55.965,35.3605,59.4975,52.6465,53.894,34.463499999999996,58.084,50.9675,53.042,33.9905,57.9865,50.370666666666665,-0.011500000000000066,-0.14500000000000002,0.10263000000000001,0.11055500000000001,0.0,215.615,215.51,212.30666666666667,212.30666666666667,0.0,0.0
25,0.0,1.0,0.0,1.0,1.0,0.0,0.0,1.0,0.0,100.0,1.0,1.1856,26.0,0.0,0.0,0.0,59.999996,0.0,26.0,26.0,26.0,26.0,-0.08199999999999996,0.25980000000000003,-0.042825,292.282,-2.7459,-2.6563333333333334,-1.5591,-1.5676666666666668,-191.34,215.9625,190.455625,0.0,0.0,0.0,0.0,0.05063333333333331,-5.498166666666667,-5.498166666666667,-0.6125,0.06599999999999995,-0.013875000000000082,-1.67,68.991,-0.0543,-0.22487500000000002,1.4079999999999995,100.0,1.0,1.0,212.86666666666667,0.0,0.0,0.0,0.0,0.0,0.0,0.0,9022.7,0.0,55.0,5.0,248.34,1.0,0.0,0.0,0.0,0.0,0.0,0.0,0.0,1.256999999999998,1.256999999999998,0.0,0.0,1.0,55.0,616.79921,10000.0,85.000001,85.000001,85.000001,85.000001,395.0,0.0,0.0,0.0,1.0,333.33500000000004,51.757999999999996,51.757999999999996,47.928,47.928,34.0,-30.25,21.34166666666667,-31.24,23.87,0.0,1782.216,0.7250000000000014,100.0,28.212,28.161,43.301,43.152,0.0,1.0,100.0,0.0,0.0,0.0,0.0,3387.857142857143,3176.8,4024.625,3947.0,304.812,304.64666666666665,315.13075,315.06925,22.011400000000002,20.6449,21.985,21.4969,314.999998,314.999998,324.999988,324.999988,99.55914285714286,99.50735,99.56717142857143,99.54735714285714,0.0020000000000000018,-0.13449999999999995,-0.1831666666666666,0.048833333333333284,-0.04833333333333201,-0.03499999999999659,1.547,1.603,38.571,30.030666666666665,38.407,35.356,55.948,35.403,59.5345,52.704499999999996,53.878,34.503,58.1185,51.0235,53.025,34.0285,58.018,50.425333333333334,-0.02299999999999991,-0.14100000000000001,0.10445000000000002,0.11034000000000001,0.0,216.04000000000002,215.905,212.86666666666667,212.86666666666667,0.0,0.0
26,0.0,1.0,0.0,1.0,1.0,0.0,0.0,1.0,0.0,100.0,1.0,1.1856,26.0,0.0,0.0,0.0,59.999996,0.0,26.0,26.0,26.0,26.0,-0.13649999999999995,0.2784,0.048775,291.077,-2.66,-2.772555555555556,-1.5791,-1.593888888888889,-187.61,215.965,190.428375,0.0,0.0,0.0,0.0,0.05279999999999996,-5.498166666666667,-5.498166666666667,-0.5674,0.5005,-0.06475000000000009,-1.0659999999999998,69.135,-0.0811,-0.195825,1.3339999999999996,100.0,1.0,1.0,213.00333333333333,0.0,0.0,0.0,0.0,0.0,0.0,0.0,9028.4,0.0,55.0,5.0,248.86,0.0,0.0,0.0,0.0,0.0,0.0,0.0,0.0,1.311,1.311,0.0,0.0,0.0,55.0,616.79921,10000.0,85.000001,85.000001,85.000001,85.000001,395.0,0.0,0.0,0.0,1.0,166.665,51.559,51.559,45.959,45.959,34.0,-29.174999999999997,19.496666666666666,-40.61,26.38,0.0,1782.163,0.5300000000000011,100.0,29.235,28.523,44.286,43.442,0.0,1.0,100.0,0.0,0.0,0.0,0.0,3306.714285714286,2893.5,4730.0,4444.5,304.835,305.432,313.44675,313.8735,22.0218,20.6509,21.996299999999998,21.5067,314.999998,314.999998,324.999988,324.999988,99.55914285714286,99.50736666666667,99.56734285714286,99.54751428571429,-0.0040000000000000036,-0.15325,-0.20966666666666656,0.01200000000000001,-0.041666666666671404,-0.051666666666669414,1.409,1.4645,38.635999999999996,30.067999999999998,38.477000000000004,35.417,55.934,35.451,59.5815,52.769999999999996,53.864999999999995,34.547,58.1625,51.0865,53.010999999999996,34.070499999999996,58.059,50.487,-0.04499999999999993,-0.12849999999999984,0.11030000000000001,0.10914000000000001,0.0,216.515,216.39,213.00333333333333,213.00333333333333,0.0,0.0
27,0.0,1.0,0.0,1.0,1.0,0.0,0.0,1.0,0.0,100.0,1.0,1.1856,26.0,0.0,0.0,0.0,59.999996,0.0,26.0,26.0,26.0,26.0,-0.11937500000000001,0.25150000000000006,-0.0414,291.733,-2.6174,-2.746888888888889,-1.5636,-1.6694444444444443,-184.29,215.965,190.405375,0.0,0.0,0.0,0.0,0.0547333333333333,-5.498166666666667,-5.498166666666667,-0.6008,-0.9995,-0.07050000000000001,-0.6440000000000001,69.258,-0.0908,-0.24527500000000002,1.1460000000000008,100.0,1.0,1.0,213.57333333333332,0.0,0.0,0.0,0.0,0.0,0.0,0.0,9052.7,0.0,55.0,5.0,249.30333333333334,1.0,0.0,0.0,0.0,0.0,0.0,0.0,0.0,1.3589999999999982,1.3589999999999982,0.0,0.0,1.0,55.0,616.79921,10000.0,85.000001,85.000001,85.000001,85.000001,395.0,0.0,0.0,0.0,1.0,166.665,51.788,51.788,46.844,46.844,34.0,-28.869999999999997,20.25333333333333,-33.629999999999995,23.6575,0.0,1782.115,0.4200000000000017,100.0,28.965,28.201999999999998,44.885,43.708,0.0,1.0,100.0,0.0,0.0,0.0,0.0,3316.857142857143,2983.2,4081.5,3923.0,304.98,305.2266666666667,314.87375,315.05575,22.0307,20.656,22.0064,21.5154,314.999998,314.999998,324.999988,324.999988,99.55914285714286,99.5074,99.56748571428571,99.54765714285715,-0.009499999999999953,-0.14525,-0.21166666666666656,0.014499999999999957,-0.04833333333333201,-0.045000000000001705,1.5075,1.5414999999999999,38.692,30.1,38.54,35.4715,55.919,35.491,59.622,52.8275,53.851,34.584,58.2005,51.1415,52.995999999999995,34.106,58.094,50.54066666666667,-0.05449999999999999,-0.1080000000000001,0.09957,0.113195,0.0,216.84,216.74,213.57333333333332,213.57333333333332,0.0,0.0
28,0.0,1.0,0.0,1.0,1.0,0.0,0.0,1.0,0.0,100.0,1.0,1.1856,26.0,0.0,0.0,0.0,59.999996,0.0,26.0,26.0,26.0,26.0,-0.11449999999999994,0.27290000000000014,-0.051375000000000004,291.885,-2.6471,-2.732333333333333,-1.5114,-1.628888888888889,-180.95999999999998,215.9625,190.381375,0.0,0.0,0.0,0.0,0.05666666666666653,-5.498166666666667,-5.498166666666667,-0.5995,0.6475,-0.07350000000000012,-0.5540000000000003,69.381,-0.0946,-0.2142,1.0620000000000012,100.0,1.0,1.0,213.99333333333334,0.0,0.0,0.0,0.0,0.0,0.0,0.0,9070.4,0.0,55.0,5.0,249.74666666666667,0.0,0.0,0.0,0.0,0.0,0.0,0.0,0.0,1.407,1.407,0.0,0.0,0.0,55.0,616.79921,10000.0,85.000001,85.000001,85.000001,85.000001,395.0,0.0,0.0,0.0,1.0,166.665,51.819,51.819,47.47,47.47,34.0,-29.59,19.543333333333333,-34.07,23.8525,0.0,1782.067,0.20500000000000185,100.0,29.058,28.118000000000002,44.191,43.13,0.0,1.0,100.0,0.0,0.0,0.0,0.0,3330.285714285714,2922.6,4191.625,4065.7,304.79,305.401,314.78675,314.7875,22.0398,20.6612,22.016,21.5238,314.999998,314.999998,324.999988,324.999988,99.55915714285715,99.5074,99.56761428571428,99.54778571428571,-0.01100000000000001,-0.14800000000000002,-0.22050000000000003,0.012833333333333474,-0.045000000000001705,-0.046666666666666856,1.5294999999999999,1.572,38.748999999999995,30.132666666666665,38.6,35.524,55.906,35.532,59.657,52.882,53.839,34.6215,58.233000000000004,51.1935,52.983000000000004,34.141999999999996,58.1235,50.591,-0.0625,-0.09699999999999998,0.10662,0.11292500000000001,0.0,217.26,217.17000000000002,213.99333333333334,213.99333333333334,0.0,0.0
29,0.0,1.0,0.0,1.0,1.0,0.0,0.0,1.0,0.0,100.0,1.0,1.1856,26.0,0.0,0.0,0.0,59.999996,0.0,26.0,26.0,26.0,26.0,-0.11275000000000002,0.2541,0.016375,291.565,-2.5867,-2.7893333333333334,-1.5469,-1.6056666666666668,-177.42000000000002,215.95499999999998,190.355,0.0,0.0,0.0,0.0,0.058733333333333304,-5.498166666666667,-5.498166666666667,-0.6069,-0.7025000000000001,-0.06700000000000017,0.7709999999999999,69.515,-0.0855,-0.218775,0.6340000000000003,100.0,1.0,1.0,214.26,0.0,0.0,0.0,0.0,0.0,0.0,0.0,9081.7,0.0,55.0,5.0,250.23000000000002,1.0,0.0,0.0,0.0,0.0,0.0,0.0,0.0,1.4579999999999984,1.4579999999999984,0.0,0.0,1.0,55.0,616.79921,10000.0,85.000001,85.000001,85.000001,85.000001,395.0,0.0,0.0,0.0,1.0,333.33500000000004,51.788,51.788,46.661,46.661,34.0,-27.5625,21.83,-33.873333333333335,25.97,0.0,1782.014,0.14499999999999957,100.0,28.91,27.869,44.685,43.368,0.0,1.0,100.0,0.0,0.0,0.0,0.0,3261.285714285714,3092.9,4218.625,4202.5,304.905,304.9533333333333,314.50925,314.4775,22.0493,20.6666,22.0266,21.5331,314.999998,314.999998,324.999988,324.999988,99.55915714285715,99.50741666666667,99.56778571428572,99.54794285714286,0.008750000000000036,-0.136,-0.18933333333333335,0.034666666666666845,-0.02833333333332888,-0.05833333333333002,1.4695,1.4895,38.808,30.166333333333334,38.666,35.582,55.89,35.573,59.7,52.9435,53.823,34.66,58.2735,51.2525,52.966,34.1785,58.161,50.648666666666664,-0.07000000000000006,-0.09600000000000009,0.10740500000000001,0.11040000000000001,0.0,217.595,217.56,214.26,214.26,0.0,0.0
30,0.0,1.0,0.0,1.0,1.0,0.0,0.0,1.0,0.0,100.0,1.0,1.1856,26.0,0.0,0.0,0.0,59.999996,0.0,26.0,26.0,26.0,26.0,-0.08975,0.26470000000000016,-0.007325000000000001,291.138,-2.6512000000000002,-2.766,-1.4933,-1.6585555555555558,-173.87,215.945,190.3285,0.0,0.0,0.0,0.0,0.060766666666666524,-5.498166666666667,-5.498166666666667,-0.5996,0.8200000000000001,-0.06612499999999999,-0.3919999999999999,69.644,-0.0718,-0.213425,0.6500000000000004,100.0,1.0,1.0,214.70666666666668,0.0,0.0,0.0,0.0,0.0,0.0,0.0,9100.6,0.0,55.0,5.0,250.69333333333333,0.0,0.0,0.0,0.0,0.0,0.0,1.0,0.0,1.5090000000000003,1.5090000000000003,0.0,0.0,0.0,55.0,616.79921,10000.0,85.000001,85.000001,85.000001,85.000001,395.0,0.0,0.0,0.0,1.0,166.665,50.888,50.888,46.921,46.921,34.0,-29.4175,21.735,-33.849999999999994,26.06,0.0,1781.965,0.030000000000001137,100.0,29.64,28.729,44.394999999999996,43.508,0.0,1.0,100.0,0.0,0.0,0.0,0.0,3482.0,3042.3,4317.375,4115.5,304.391,305.1236666666667,314.4235,314.5775,22.059,20.6724,22.037,21.5423,314.999998,314.999998,324.999988,324.999988,99.55915714285715,99.50743333333334,99.56792857142857,99.54808571428572,0.025249999999999995,-0.12324999999999997,-0.19033333333333335,0.03249999999999997,-0.03333333333333144,-0.04833333333333201,1.4775,1.4975,38.869,30.202333333333335,38.732,35.638999999999996,55.878,35.618,59.739,53.003,53.812,34.701,58.31,51.31,52.955,34.218,58.1945,50.70433333333334,-0.08850000000000002,-0.08400000000000007,0.10439000000000001,0.11252500000000001,0.0,218.05,218.0,214.70666666666668,214.70666666666668,0.0,0.0
31,0.0,1.0,0.0,1.0,1.0,0.0,0.0,1.0,0.0,100.0,1.0,1.1856,26.0,0.0,0.0,0.0,59.999996,0.0,26.0,26.0,26.0,26.0,-0.08274999999999999,0.24660000000000015,-0.012975,290.97,-2.7202,-2.641111111111111,-1.5438,-1.6502222222222223,-170.51999999999998,215.935,190.30425,0.0,0.0,0.0,0.0,0.06273333333333331,-5.498166666666667,-5.498166666666667,-0.5914,-0.6325000000000001,-0.05337499999999995,-0.694,69.769,-0.055,-0.22165,0.2699999999999996,100.0,1.0,1.0,214.97,0.0,0.0,0.0,0.0,0.0,0.0,0.0,9111.8,0.0,55.0,5.0,251.14333333333335,1.0,0.0,0.0,0.0,0.0,0.0,1.0,0.0,1.5569999999999986,1.5569999999999986,0.0,0.0,1.0,55.0,616.79921,10000.0,85.000001,85.000001,85.000001,85.000001,395.0,0.0,0.0,0.0,1.0,333.33500000000004,51.422,51.422,45.593,45.593,34.0,-27.3275,21.755,-34.156666666666666,28.31,0.0,1781.915,-0.03500000000000014,100.0,29.251,28.793,44.984,44.155,0.0,1.0,100.0,0.0,0.0,0.0,0.0,3246.5714285714284,3114.6,4415.625,4238.9,305.2235,304.96366666666665,314.11275,314.385,22.0679,20.6777,22.0471,21.551099999999998,314.999998,314.999998,324.999988,324.999988,99.55917142857143,99.50745,99.56807142857143,99.54822857142857,0.03125,-0.10849999999999993,-0.16133333333333333,0.05916666666666681,-0.02833333333332888,-0.036666666666668846,1.4585,1.4705,38.924,30.235333333333333,38.795,35.6945,55.864000000000004,35.658,59.7805,53.0625,53.799,34.738,58.3485,51.3675,52.94,34.253,58.230000000000004,50.760333333333335,-0.08899999999999997,-0.0754999999999999,0.10506000000000001,0.10867500000000001,0.0,218.385,218.365,214.97,214.97,0.0,0.0
32,0.0,1.0,0.0,1.0,1.0,0.0,0.0,1.0,0.0,100.0,1.0,1.1856,26.0,0.0,0.0,0.0,59.999996,0.0,26.0,26.0,26.0,26.0,-0.06562499999999993,0.2632000000000001,-0.0363,291.183,-2.6534,-2.7474444444444446,-1.6077,-1.5582222222222222,-166.95999999999998,215.92000000000002,190.278625,0.0,0.0,0.0,0.0,0.06479999999999997,-5.498166666666667,-5.498166666666667,-0.6082000000000001,0.20699999999999996,-0.07387500000000014,0.35699999999999976,69.896,-0.0412,-0.228225,0.18399999999999928,100.0,1.0,1.0,215.50333333333333,0.0,0.0,0.0,0.0,0.0,0.0,0.0,9134.5,0.0,55.0,5.0,251.59666666666666,0.0,0.0,0.0,0.0,0.0,0.0,1.0,0.0,1.6080000000000005,1.6080000000000005,0.0,0.0,0.0,55.0,616.79921,10000.0,85.000001,85.000001,85.000001,85.000001,395.0,0.0,0.0,0.0,1.0,166.665,51.224000000000004,51.224000000000004,46.57,46.57,34.0,-26.1725,23.971666666666668,-32.36666666666666,27.845,0.0,1781.866,-0.14000000000000057,100.0,29.396,28.709,44.637,43.879,0.0,1.0,100.0,0.0,0.0,0.0,0.0,3275.857142857143,3127.0,4265.125,4229.5,304.8805,304.9273333333333,314.58825,314.54175,22.0773,20.6834,22.0575,21.560299999999998,314.999998,314.999998,324.999988,324.999988,99.55917142857143,99.50746666666667,99.56822857142858,99.54837142857143,0.05675000000000008,-0.08199999999999996,-0.14600000000000002,0.08450000000000002,-0.05333333333332746,-0.060000000000002274,1.526,1.536,38.983000000000004,30.271333333333335,38.858999999999995,35.751999999999995,55.851,35.7005,59.817499999999995,53.1215,53.786,34.7775,58.3835,51.424,52.927,34.291,58.262,50.815333333333335,-0.09450000000000003,-0.07050000000000001,0.10816,0.1078,0.0,218.81,218.785,215.50333333333333,215.50333333333333,0.0,0.0
33,0.0,1.0,0.0,1.0,1.0,0.0,0.0,1.0,0.0,100.0,1.0,1.1856,26.0,0.0,0.0,0.0,59.999996,0.0,26.0,26.0,26.0,26.0,-0.04425000000000001,0.25980000000000003,-0.0233,291.397,-2.6728,-2.732555555555556,-1.5497,-1.6286666666666667,-163.61,215.9075,190.2535,0.0,0.0,0.0,0.0,0.06673333333333331,-5.498166666666667,-5.498166666666667,-0.612,-0.44100000000000006,-0.05912499999999987,1.411,70.019,-0.031100000000000003,-0.216725,0.0779999999999994,100.0,1.0,1.0,215.8,0.0,0.0,0.0,0.0,0.0,0.0,0.0,9147.0,0.0,55.0,5.0,252.04000000000002,1.0,0.0,0.0,0.0,0.0,0.0,1.0,0.0,1.6559999999999988,1.6559999999999988,0.0,0.0,1.0,55.0,616.79921,10000.0,85.000001,85.000001,85.000001,85.000001,395.0,0.0,0.0,0.0,1.0,166.665,51.834,51.834,46.478,46.478,34.0,-24.2725,23.451666666666668,-31.316666666666663,29.815,0.0,1781.817,-0.25,100.0,29.117,28.415,44.61,43.992000000000004,0.0,1.0,100.0,0.0,0.0,0.0,0.0,3120.0,3053.1,4215.875,4306.4,305.408,305.18066666666664,314.53975,314.26375,22.086100000000002,20.6886,22.0674,21.569,314.999998,314.999998,324.999988,324.999988,99.55918571428572,99.50748333333334,99.56837142857142,99.54851428571429,0.06974999999999998,-0.07474999999999998,-0.1413333333333333,0.08433333333333337,-0.03833333333332689,-0.045000000000001705,1.4829999999999999,1.4869999999999999,39.038,30.303666666666665,38.921,35.8065,55.838,35.7365,59.8545,53.179,53.774,34.8105,58.418,51.479,52.914,34.3225,58.2935,50.86933333333333,-0.10099999999999998,-0.06800000000000006,0.10752500000000001,0.106145,0.0,219.17000000000002,219.14,215.8,215.8,0.0,0.0
34,0.0,1.0,0.0,1.0,1.0,0.0,0.0,1.0,0.0,100.0,1.0,1.1856,26.0,0.0,0.0,0.0,59.999996,0.0,26.0,26.0,26.0,26.0,-0.01924999999999999,0.25860000000000016,-0.06585,291.763,-2.6938,-2.709,-1.6151,-1.584888888888889,-160.03,215.89,190.225625,0.0,0.0,0.0,0.0,0.0688333333333333,-5.498166666666667,-5.498166666666667,-0.6468,-0.808,-0.024624999999999897,-0.10099999999999998,70.147,-0.0176,-0.226325,-0.007999999999999119,100.0,1.0,1.0,216.26333333333332,0.0,0.0,0.0,0.0,0.0,0.0,0.0,9166.5,0.0,55.0,5.0,252.5,0.0,0.0,0.0,0.0,0.0,0.0,1.0,0.0,1.7070000000000007,1.7070000000000007,0.0,0.0,0.0,55.0,616.79921,10000.0,85.000001,85.000001,85.000001,85.000001,395.0,0.0,0.0,0.0,1.0,333.33500000000004,52.109,52.109,47.333,47.333,34.0,-24.6425,22.873333333333335,-30.376666666666665,27.88,0.0,1781.765,-0.23000000000000043,100.0,28.674,28.273,44.197,44.115,0.0,1.0,100.0,0.0,0.0,0.0,0.0,3153.714285714286,2969.9,4073.25,4130.5,305.3135,305.2513333333333,315.01875,314.59225,22.0953,20.6941,22.0777,21.5783,314.999998,314.999998,324.999988,324.999988,99.55918571428572,99.50748333333334,99.56851428571429,99.54867142857142,0.07299999999999995,-0.07125000000000004,-0.1373333333333333,0.08733333333333326,-0.05333333333332746,-0.03166666666666629,1.5125,1.5275,39.096000000000004,30.33833333333333,38.986000000000004,35.864,55.823,35.7765,59.8925,53.243,53.759,34.8475,58.4535,51.5405,52.897999999999996,34.358000000000004,58.3255,50.92933333333333,-0.10399999999999987,-0.05799999999999983,0.11011000000000001,0.10006500000000002,0.0,219.555,219.51,216.26333333333332,216.26333333333332,0.0,0.0
35,0.0,1.0,0.0,1.0,1.0,0.0,0.0,1.0,0.0,100.0,1.0,1.1856,26.0,0.0,0.0,0.0,59.999996,0.0,26.0,26.0,26.0,26.0,0.009500000000000064,0.25050000000000017,-0.042675000000000005,291.763,-2.6909,-2.665,-1.5965,-1.5995555555555556,-156.24,215.8725,190.193625,0.0,0.0,0.0,0.0,0.07103333333333339,-5.498166666666667,-5.498166666666667,-0.6851,-0.13650000000000007,-0.03849999999999998,-1.0350000000000001,70.28,-0.0023,-0.228325,-0.07599999999999962,100.0,1.0,1.0,216.75666666666666,0.0,0.0,0.0,0.0,0.0,0.0,0.0,9187.6,0.0,55.0,5.0,252.98666666666668,1.0,0.0,0.0,0.0,0.0,0.0,1.0,0.0,1.7609999999999992,1.7609999999999992,0.0,0.0,1.0,55.0,616.79921,10000.0,85.000001,85.000001,85.000001,85.000001,395.0,0.0,0.0,0.0,1.0,166.665,51.453,51.453,47.012,47.012,34.0,-25.1375,25.708333333333332,-28.196666666666665,27.5125,0.0,1781.713,-0.16499999999999915,100.0,28.477,28.684,43.91,43.637,0.0,1.0,100.0,0.0,0.0,0.0,0.0,3248.5714285714284,3313.9,4006.5,3940.6000000000004,305.1515,304.234,315.15025,315.11825,22.1049,20.7002,22.0886,21.5879,314.999998,314.999998,324.999988,324.999988,99.5592,99.5075,99.56868571428572,99.54881428571429,0.07725000000000004,-0.0665,-0.11166666666666658,0.11250000000000004,-0.04833333333333201,-0.061666666666667425,1.545,1.564,39.156,30.376333333333335,39.054,35.9245,55.807,35.817,59.9285,53.3,53.745000000000005,34.885,58.487,51.5955,52.882999999999996,34.394,58.3555,50.98266666666667,-0.09749999999999992,-0.06999999999999984,0.10603000000000001,0.10729000000000001,0.0,219.965,219.965,216.75666666666666,216.75666666666666,0.0,0.0
