,ABS Active,ABS Enabled,AID Allow Tire Blankets,AID Auto Blip,AID Auto Clutch,AID Auto Shift,AID Fuel Rate,AID Ideal Line,AID Mech Damage,AID Stability,AID Tire Wear Rate,Air Density,Air Temp,Ballast,Best Lap Delta,Best Lap Time,Brake Bias,Brake Pos,Brake Temp FL,Brake Temp FR,Brake Temp RL,Brake Temp RR,CG Accel Lateral,CG Accel Longitudinal,CG Accel Vertical,CG Height,Camber FL,Camber FR,Camber RL,Camber RR,Car Coord X,Car Coord Y,Car Coord Z,Car Damage Front,Car Damage Left,Car Damage Rear,Car Damage Right,Car Pos Norm,Caster FL,Caster FR,Chassis Pitch Angle,Chassis Pitch Rate,Chassis Roll Angle,Chassis Roll Rate,Chassis Velocity X,Chassis Velocity Y,Chassis Velocity Z,Chassis Yaw Rate,Clutch Pos,DRS Active,DRS Available,Drive Train Speed,ERS Heat Charging,ERS Is Charging,ERS Max Energy,ERS Power Level,ERS Recovery Level,Engine Brake Setting,Engine Limiter,Engine RPM,Flags,Fuel Level,Gear,Ground Speed,HR Sample Clock,In Pit,KERS Charge,KERS Deployed Energy,KERS Input,KERS Max Energy,LR Sample Clock,Lap Invalidated,Lap Time,Lap Time2,Last Lap Time,Last Sector Time,MR Sample Clock,Max Fuel,Max Power,Max RPM,Max Sus Travel FL,Max Sus Travel FR,Max Sus Travel RL,Max Sus Travel RR,Max Torque,Max Turbo Boost,Num Tires Off Track,Penalties Enabled,Position,Raw Data Sample Rate,Ride Height FL,Ride Height FR,Ride Height RL,Ride Height RR,Road Temp,Self Align Torque FL,Self Align Torque FR,Self Align Torque RL,Self Align Torque RR,Session Lap Count,Session Time Left,Steering Angle,Surface Grip,Suspension Travel FL,Suspension Travel FR,Suspension Travel RL,Suspension Travel RR,TC Active,TC Enabled,Throttle Pos,Tire Dirt Level FL,Tire Dirt Level FR,Tire Dirt Level RL,Tire Dirt Level RR,Tire Load FL,Tire Load FR,Tire Load RL,Tire Load RR,Tire Loaded Radius FL,Tire Loaded Radius FR,Tire Loaded Radius RL,Tire Loaded Radius RR,Tire Pressure FL,Tire Pressure FR,Tire Pressure RL,Tire Pressure RR,Tire Radius FL,Tire Radius FR,Tire Radius RL,Tire Radius RR,Tire Rubber Grip FL,Tire Rubber Grip FR,Tire Rubber Grip RL,Tire Rubber Grip RR,Tire Slip Angle FL,Tire Slip Angle FR,Tire Slip Angle RL,Tire Slip Angle RR,Tire Slip Ratio FL,Tire Slip Ratio FR,Tire Slip Ratio RL,Tire Slip Ratio RR,Tire Temp Core FL,Tire Temp Core FR,Tire Temp Core RL,Tire Temp Core RR,Tire Temp Inner FL,Tire Temp Inner FR,Tire Temp Inner RL,Tire Temp Inner RR,Tire Temp Middle FL,Tire Temp Middle FR,Tire Temp Middle RL,Tire Temp Middle RR,Tire Temp Outer FL,Tire Temp Outer FR,Tire Temp Outer RL,Tire Temp Outer RR,Toe In FL,Toe In FR,Toe In RL,Toe In RR,Turbo Boost,Wheel Angular Speed FL,Wheel Angular Speed FR,Wheel Angular Speed RL,Wheel Angular Speed RR,Wind Direction,Wind Speed
0,0.0,1.0,0.0,1.0,1.0,0.0,0.0,1.0,0.0,100.0,1.0,1.1856,26.0,0.0,0.0,0.0,59.99999,0.0,26.0,26.0,26.0,26.0,-0.07850000000000001,0.3106,0.04996666666666667,294.006,-2.7151,-2.663875,-1.5134,-1.5614,-275.53,216.29500000000002,190.98675,0.0,0.0,0.0,0.0,0.0016666666666666668,-5.498166666666667,-5.498166666666667,-0.5464,1.1273333333333333,-0.01288888888888895,-0.5379999999999998,65.523,-0.04,-0.21205000000000002,1.0220000000000002,100.0,1.0,1.0,202.30666666666667,0.0,0.0,0.0,0.0,0.0,0.0,0.0,8575.0,0.0,55.0,5.0,235.85000000000002,0.0,0.0,0.0,0.0,0.0,0.0,0.0,0.0,0.006000000000000227,0.006000000000000227,0.0,0.0,0.0,55.0,616.79921,10000.0,85.0,85.0,85.0,85.0,395.0,0.0,0.0,0.0,1.0,20.0,52.734,52.734,49.469,49.469,34.0,-26.63,23.805999999999997,-30.013333333333332,24.44,0.0,1783.698,0.8449999999999989,100.0,27.446,26.887999999999998,40.691,40.495000000000005,0.0,1.0,100.0,0.0,0.0,0.0,0.0,3018.857142857143,3413.9,4092.3333333333335,3957.9,305.647,303.9843333333333,314.86325,314.95675,21.7612,20.5076,21.738599999999998,21.2766,314.99999,314.99999,324.99998,324.99998,99.55797142857143,99.50706666666666,99.56407142857142,99.54385714285715,-0.005249999999999977,-0.11966666666666681,-0.15949999999999998,0.06150000000000011,-0.03999999999999915,-0.06666666666666998,1.561,1.6005,37.007,29.172666666666665,36.866,33.979,55.967,34.335,58.701,51.186,53.911,33.545,57.35,49.5615,53.095,33.14,57.326,48.98866666666667,-0.008499999999999952,-0.13649999999999984,0.10442000000000001,0.11336,0.0,205.34,205.26,202.30666666666667,202.30666666666667,0.0,0.0
1,0.0,1.0,0.0,1.0,1.0,0.0,0.0,1.0,0.0,100.0,1.0,1.1856,26.0,0.0,0.0,0.0,59.999996,0.0,26.0,26.0,26.0,26.0,-0.10599999999999998,0.33530000000000015,0.218,293.045,-2.63355,-2.769375,-1.5216,-1.5523,-272.18,216.29250000000002,190.9665,0.0,0.0,0.0,0.0,0.003633333333333334,-5.498166666666667,-5.498166666666667,-0.4983,-0.5826666666666667,-0.0602222222222224,-1.014,65.67699999999999,-0.057300000000000004,-0.19417500000000001,1.4600000000000009,100.0,1.0,1.0,202.45333333333332,0.0,0.0,0.0,0.0,0.0,0.0,0.0,8581.3,0.0,55.0,5.0,236.40666666666667,1.0,0.0,0.0,0.0,0.0,0.0,0.0,0.0,0.05699999999999861,0.05699999999999861,0.0,0.0,1.0,55.0,616.79921,10000.0,85.000001,85.000001,85.000001,85.000001,395.0,0.0,0.0,0.0,1.0,333.33500000000004,53.558,53.558,48.325,48.325,34.0,-27.557499999999997,18.212,-34.53666666666667,28.5125,0.0,1783.645,0.9250000000000007,100.0,27.517,26.92,42.608000000000004,41.63,0.0,1.0,100.0,0.0,0.0,0.0,0.0,3150.285714285714,2698.4,4362.555555555556,4714.5,305.319,306.2203333333333,314.173,313.08775,21.771,20.5127,21.749299999999998,21.2856,314.999998,314.999998,324.999988,324.999988,99.55798571428572,99.50708333333333,99.56421428571429,99.544,-0.014499999999999957,-0.1393333333333333,-0.1811666666666666,0.027166666666666783,-0.06499999999999773,-0.036666666666668846,1.4004999999999999,1.468,37.069,29.204333333333334,36.933,34.035,55.952,34.3765,58.747,51.2525,53.897,33.583,57.393,49.625,53.08,33.1765,57.3665,49.05133333333333,-0.0004999999999999449,-0.13500000000000023,0.10117000000000001,0.11083000000000001,0.0,205.79500000000002,205.675,202.45333333333332,202.45333333333332,0.0,0.0
2,0.0,1.0,0.0,1.0,1.0,0.0,0.0,1.0,0.0,100.0,1.0,1.1856,26.0,0.0,0.0,0.0,59.999996,0.0,26.0,26.0,26.0,26.0,-0.12424999999999997,0.3014000000000001,-0.0329,293.686,-2.60875,-2.789625,-1.4943,-1.6036000000000001,-268.63,216.2825,190.9465,0.0,0.0,0.0,0.0,0.0057,-5.498166666666667,-5.498166666666667,-0.5467000000000001,0.24533333333333335,-0.044222222222222385,1.6159999999999997,65.828,-0.0758,-0.24927500000000002,1.5879999999999992,100.0,1.0,1.0,203.39333333333332,0.0,0.0,0.0,0.0,0.0,0.0,0.0,8621.1,0.0,55.0,5.0,236.95,0.0,0.0,0.0,0.0,0.0,0.0,0.0,0.0,0.11100000000000065,0.11100000000000065,0.0,0.0,0.0,55.0,616.79921,10000.0,85.000001,85.000001,85.000001,85.000001,395.0,0.0,0.0,0.0,1.0,166.665,52.475,52.475,50.14,50.14,34.0,-30.185000000000002,19.91,-29.71333333333333,20.572499999999998,0.0,1783.593,0.75,100.0,28.273,26.989,42.496,41.296,0.0,1.0,100.0,0.0,0.0,0.0,0.0,3348.714285714286,2940.5,3745.6666666666665,3769.8,304.6375,305.4026666666667,315.66625,315.52825,21.7817,20.5179,21.7604,21.2948,314.999998,314.999998,324.999988,324.999988,99.55798571428572,99.5071,99.56437142857143,99.54414285714286,-0.030000000000000027,-0.15100000000000002,-0.23083333333333333,0.0040000000000000036,-0.04833333333333201,-0.04833333333333201,1.6105,1.6615,37.135999999999996,29.237000000000002,37.001999999999995,34.0925,55.94,34.4185,58.789,51.314,53.885,33.6215,57.432,49.6845,53.068,33.213499999999996,57.4025,49.10966666666667,-0.01749999999999985,-0.1280000000000001,0.10489000000000001,0.11116500000000001,0.0,206.275,206.12,203.39333333333332,203.39333333333332,0.0,0.0
3,0.0,1.0,0.0,1.0,1.0,0.0,0.0,1.0,0.0,100.0,1.0,1.1856,26.0,0.0,0.0,0.0,59.999996,0.0,26.0,26.0,26.0,26.0,-0.14674999999999994,0.31710000000000016,-0.05003333333333333,293.503,-2.7233,-2.6956249999999997,-1.5072999999999999,-1.595,-265.47,216.2725,190.928,0.0,0.0,0.0,0.0,0.007533333333333333,-5.498166666666667,-5.498166666666667,-0.5096,0.318,-0.01644444444444426,-1.13,65.97200000000001,-0.08650000000000001,-0.20145000000000002,1.2520000000000007,100.0,1.0,1.0,203.5233333333333,0.0,0.0,0.0,0.0,0.0,0.0,0.0,8626.6,0.0,55.0,5.0,237.46666666666667,1.0,0.0,0.0,0.0,0.0,0.0,0.0,0.0,0.15899999999999892,0.15899999999999892,0.0,0.0,1.0,55.0,616.79921,10000.0,85.000001,85.000001,85.000001,85.000001,395.0,0.0,0.0,0.0,1.0,166.665,53.696,53.696,48.172,48.172,34.0,-26.0,17.768,-35.57,24.06,0.0,1783.545,0.6500000000000021,100.0,27.858,27.01,42.406,41.435,0.0,1.0,100.0,0.0,0.0,0.0,0.0,2854.5714285714284,2771.1,4334.444444444444,4205.3,306.1255,305.8206666666667,314.28975,314.35,21.7908,20.5228,21.7702,21.3032,314.999998,314.999998,324.999988,324.999988,99.558,99.50713333333333,99.5645,99.54427142857143,-0.03125,-0.15500000000000003,-0.21816666666666662,0.004833333333333467,-0.045000000000001705,-0.01999999999999602,1.4825,1.5215,37.193,29.267333333333333,37.064,34.144999999999996,55.925,34.459,58.8275,51.3745,53.870999999999995,33.659,57.468,49.7425,53.053,33.249,57.4355,49.166333333333334,-0.02200000000000002,-0.12400000000000011,0.11074,0.10227000000000001,0.0,206.695,206.595,203.5233333333333,203.5233333333333,0.0,0.0
4,0.0,1.0,0.0,1.0,1.0,0.0,0.0,1.0,0.0,100.0,1.0,1.1856,26.0,0.0,0.0,0.0,59.999996,0.0,26.0,26.0,26.0,26.0,-0.14125,0.27849999999999997,-0.017633333333333334,293.671,-2.6612,-2.74425,-1.52495,-1.5994000000000002,-262.3,216.2575,190.9095,0.0,0.0,0.0,0.0,0.009366666666666667,-5.498166666666667,-5.498166666666667,-0.5449,-0.7086666666666667,-0.08033333333333337,-1.615,66.10900000000001,-0.0873,-0.236275,1.2059999999999995,100.0,1.0,1.0,204.09333333333333,0.0,0.0,0.0,0.0,0.0,0.0,0.0,8650.8,0.0,55.0,5.0,237.96333333333334,0.0,0.0,0.0,0.0,0.0,0.0,0.0,0.0,0.20700000000000074,0.20700000000000074,0.0,0.0,0.0,55.0,616.79921,10000.0,85.000001,85.000001,85.000001,85.000001,395.0,0.0,0.0,0.0,1.0,166.665,53.07,53.07,48.859,48.859,34.0,-29.78,19.16,-32.97333333333333,20.995,0.0,1783.498,0.629999999999999,100.0,27.671,26.849,42.754,41.417,0.0,1.0,100.0,0.0,0.0,0.0,0.0,3285.714285714286,2886.1,4091.4444444444443,3682.1,304.988,305.493,314.82925,315.63725,21.7999,20.5275,21.7802,21.3114,314.999998,314.999998,324.999988,324.999988,99.558,99.50713333333333,99.56464285714286,99.5444,-0.029749999999999943,-0.15133333333333332,-0.21499999999999997,0.019333333333333425,-0.05333333333332746,-0.054999999999999716,1.5594999999999999,1.5915,37.248999999999995,29.297,37.126000000000005,34.1965,55.909,34.498,58.868,51.431,53.855999999999995,33.6945,57.506,49.7965,53.037,33.283500000000004,57.471000000000004,49.21933333333333,-0.02849999999999997,-0.12049999999999983,0.10220000000000001,0.10864000000000001,0.0,207.07999999999998,207.005,204.09333333333333,204.09333333333333,0.0,0.0
5,0.0,1.0,0.0,1.0,1.0,0.0,0.0,1.0,0.0,100.0,1.0,1.1856,26.0,0.0,0.0,0.0,59.999996,0.0,26.0,26.0,26.0,26.0,-0.13924999999999998,0.2986,-0.013066666666666666,293.61,-2.66895,-2.7675,-1.509,-1.5867,-258.92,216.24,190.889,0.0,0.0,0.0,0.0,0.011333333333333334,-5.498166666666667,-5.498166666666667,-0.5356000000000001,0.41100000000000003,-0.08055555555555571,1.1399999999999997,66.256,-0.0902,-0.21345,1.0259999999999998,100.0,1.0,1.0,204.48666666666668,0.0,0.0,0.0,0.0,0.0,0.0,0.0,8667.4,0.0,55.0,5.0,238.49,1.0,0.0,0.0,0.0,0.0,0.0,0.0,0.0,0.2579999999999991,0.2579999999999991,0.0,0.0,1.0,55.0,616.79921,10000.0,85.000001,85.000001,85.000001,85.000001,395.0,0.0,0.0,0.0,1.0,166.665,53.436,53.436,48.935,48.935,34.0,-27.275,19.692,-33.13333333333333,23.6675,0.0,1783.445,0.19000000000000128,100.0,27.926,26.618,42.619,41.109,0.0,1.0,100.0,0.0,0.0,0.0,0.0,3097.142857142857,2856.4,4154.0,4104.7,305.3285,305.80333333333334,314.69775,314.698,21.8098,20.5326,21.7906,21.3201,314.999998,314.999998,324.999988,324.999988,99.558,99.50715,99.56478571428572,99.54454285714286,-0.007500000000000062,-0.1313333333333333,-0.20883333333333332,0.016666666666666607,-0.03499999999999659,-0.021666666666668277,1.5394999999999999,1.5505,37.311,29.328666666666663,37.191,34.251,55.896,34.539500000000004,58.909,51.4905,53.843,33.7325,57.5445,49.853,53.022999999999996,33.3195,57.5065,49.27466666666667,-0.05149999999999988,-0.09100000000000019,0.10350500000000001,0.11150000000000002,0.0,207.595,207.47500000000002,204.48666666666668,204.48666666666668,0.0,0.0
6,0.0,1.0,0.0,1.0,1.0,0.0,0.0,1.0,0.0,100.0,1.0,1.1856,26.0,0.0,0.0,0.0,59.999996,0.0,26.0,26.0,26.0,26.0,-0.11837500000000001,0.28280000000000016,0.003033333333333333,293.442,-2.6349,-2.7995,-1.5512000000000001,-1.5838999999999999,-255.74,216.22,190.869625,0.0,0.0,0.0,0.0,0.0132,-5.498166666666667,-5.498166666666667,-0.5312,0.11,-0.06311111111111156,0.9780000000000002,66.394,-0.0834,-0.2149,0.7000000000000002,100.0,1.0,1.0,204.89666666666668,0.0,0.0,0.0,0.0,0.0,0.0,0.0,8684.9,0.0,55.0,5.0,238.98666666666668,0.0,0.0,0.0,0.0,0.0,0.0,0.0,0.0,0.30600000000000094,0.30600000000000094,0.0,0.0,0.0,55.0,616.79921,10000.0,85.000001,85.000001,85.000001,85.000001,395.0,0.0,0.0,0.0,1.0,166.665,53.116,53.116,48.721000000000004,48.721000000000004,34.0,-26.35,21.836,-32.32333333333333,23.615000000000002,0.0,1783.398,0.030000000000001137,100.0,27.865,26.726,42.74,41.458,0.0,1.0,100.0,0.0,0.0,0.0,0.0,3103.142857142857,2981.1,4088.4444444444443,4050.4,305.26,305.3226666666667,314.8425,314.82725,21.8191,20.537399999999998,21.8005,21.3285,314.999998,314.999998,324.999988,324.999988,99.558,99.50716666666666,99.56491428571428,99.54467142857143,0.01075000000000026,-0.11299999999999999,-0.1931666666666666,0.024499999999999966,-0.03166666666666629,-0.02833333333332888,1.5374999999999999,1.5625,37.369,29.359,37.253,34.303,55.882,34.5775,58.948499999999996,51.5495,53.83,33.7675,57.581,49.9095,53.01,33.353,57.5405,49.33,-0.07050000000000001,-0.07600000000000007,0.10196500000000001,0.1086,0.0,207.98000000000002,207.905,204.89666666666668,204.89666666666668,0.0,0.0
7,0.0,1.0,0.0,1.0,1.0,0.0,0.0,1.0,0.0,100.0,1.0,1.1856,26.0,0.0,0.0,0.0,59.999996,0.0,26.0,26.0,26.0,26.0,-0.07637499999999997,0.2925,0.0187,293.198,-2.615,-2.7262500000000003,-1.5157,-1.6235,-252.35,216.195,190.84925,0.0,0.0,0.0,0.0,0.015166666666666667,-5.498166666666667,-5.498166666666667,-0.5344,0.009333333333333334,-0.05122222222222206,-0.24799999999999978,66.539,-0.06620000000000001,-0.22435000000000002,0.39200000000000035,100.0,1.0,1.0,205.32333333333332,0.0,0.0,0.0,0.0,0.0,0.0,0.0,8703.0,0.0,55.0,5.0,239.51333333333332,1.0,0.0,0.0,0.0,0.0,0.0,0.0,0.0,0.3569999999999993,0.3569999999999993,0.0,0.0,1.0,55.0,616.79921,10000.0,85.000001,85.000001,85.000001,85.000001,395.0,0.0,0.0,0.0,1.0,166.665,52.795,52.795,48.813,48.813,34.0,-27.2725,21.614,-31.28,24.6625,0.0,1783.347,-0.18499999999999872,100.0,27.805,26.972,42.729,41.827,0.0,1.0,100.0,0.0,0.0,0.0,0.0,3274.0,2950.7,4075.222222222222,4029.6000000000004,304.856,305.25233333333335,314.896,314.7285,21.8289,20.5426,21.811,21.3374,314.999998,314.999998,324.999988,324.999988,99.558,99.50718333333333,99.56505714285714,99.54481428571428,0.020500000000000185,-0.10099999999999998,-0.18266666666666664,0.03316666666666679,-0.060000000000002274,-0.06333333333333258,1.5185,1.5534999999999999,37.431,29.391333333333336,37.319,34.359,55.867999999999995,34.6175,58.9895,51.612,53.817,33.804,57.6195,49.9695,52.995000000000005,33.388,57.576,49.388666666666666,-0.08650000000000002,-0.05900000000000016,0.10210000000000001,0.10038000000000001,0.0,208.42000000000002,208.385,205.32333333333332,205.32333333333332,0.0,0.0
8,0.0,1.0,0.0,1.0,1.0,0.0,0.0,1.0,0.0,100.0,1.0,1.1856,26.0,0.0,0.0,0.0,59.999996,0.0,26.0,26.0,26.0,26.0,-0.03574999999999995,0.2973000000000001,0.029,293.472,-2.6923,-2.7197500000000003,-1.4954,-1.5773000000000001,-248.95,216.17000000000002,190.828625,0.0,0.0,0.0,0.0,0.017133333333333334,-5.498166666666667,-5.498166666666667,-0.536,-0.5976666666666667,-0.0341111111111112,0.7840000000000003,66.685,-0.046200000000000005,-0.2156,-0.07600000000000051,100.0,1.0,1.0,205.71,0.0,0.0,0.0,0.0,0.0,0.0,0.0,8719.3,0.0,55.0,5.0,240.04000000000002,0.0,0.0,0.0,0.0,0.0,0.0,0.0,0.0,0.40800000000000125,0.40800000000000125,0.0,0.0,0.0,55.0,616.79921,10000.0,85.000001,85.000001,85.000001,85.000001,395.0,0.0,0.0,0.0,1.0,166.665,53.665,53.665,48.157,48.157,34.0,-23.375,22.914,-29.62666666666667,27.195,0.0,1783.296,-0.34499999999999886,100.0,27.461,26.723,42.801,41.842,0.0,1.0,100.0,0.0,0.0,0.0,0.0,2930.4285714285716,3004.9,4108.222222222223,4148.6,305.8995,305.335,314.70575,314.507,21.8385,20.5478,21.8215,21.3464,314.999998,314.999998,324.999988,324.999988,99.55801428571428,99.50718333333333,99.56521428571429,99.54495714285714,0.051750000000000185,-0.07200000000000006,-0.14583333333333337,0.07533333333333325,-0.03166666666666629,-0.054999999999999716,1.52,1.514,37.489999999999995,29.423333333333332,37.384,34.414500000000004,55.852000000000004,34.6555,59.03,51.674,53.801,33.8395,57.6575,50.028999999999996,52.979,33.4215,57.611,49.447,-0.10349999999999993,-0.04600000000000026,0.10839000000000001,0.1097,0.0,208.835,208.84,205.71,205.71,0.0,0.0
9,0.0,1.0,0.0,1.0,1.0,0.0,0.0,1.0,0.0,100.0,1.0,1.1856,26.0,0.0,0.0,0.0,59.999996,0.0,26.0,26.0,26.0,26.0,-0.021499999999999964,0.28180000000000005,0.03373333333333333,293.167,-2.6836,-2.723125,-1.55445,-1.5548000000000002,-245.75,216.14499999999998,190.808875,0.0,0.0,0.0,0.0,0.019,-5.498166666666667,-5.498166666666667,-0.5409,0.6753333333333333,-0.03188888888888908,0.8919999999999999,66.819,-0.028900000000000002,-0.21495,-0.15799999999999947,100.0,1.0,1.0,206.25333333333333,0.0,0.0,0.0,0.0,0.0,0.0,0.0,8742.3,0.0,55.0,5.0,240.51666666666665,1.0,0.0,0.0,0.0,0.0,0.0,0.0,0.0,0.4559999999999995,0.4559999999999995,0.0,0.0,1.0,55.0,616.79921,10000.0,85.000001,85.000001,85.000001,85.000001,395.0,0.0,0.0,0.0,1.0,333.33500000000004,52.444,52.444,49.21,49.21,34.0,-25.275,24.73,-28.113333333333333,27.315,0.0,1783.246,-0.5199999999999996,100.0,27.945,27.152,42.382,41.839,0.0,1.0,100.0,0.0,0.0,0.0,0.0,3282.0,3098.4,3964.4444444444443,4090.5,304.791,304.975,315.1825,314.73975,21.8477,20.5528,21.8312,21.3547,314.999998,314.999998,324.999988,324.999988,99.55802857142857,99.5072,99.56534285714285,99.54508571428572,0.08225000000000016,-0.05133333333333323,-0.1333333333333333,0.09916666666666685,-0.03333333333333144,-0.05666666666667197,1.579,1.5695,37.548,29.455,37.445,34.467,55.841,34.693,59.065,51.731,53.79,33.874,57.69,50.084,52.967,33.454,57.641,49.50066666666667,-0.121,-0.0405000000000002,0.107645,0.11199500000000001,0.0,209.26999999999998,209.285,206.25333333333333,206.25333333333333,0.0,0.0
10,0.0,1.0,0.0,1.0,1.0,0.0,0.0,1.0,0.0,100.0,1.0,1.1856,26.0,0.0,0.0,0.0,59.999996,0.0,26.0,26.0,26.0,26.0,0.007749999999999924,0.2996000000000001,-0.015600000000000001,293.03,-2.6666499999999997,-2.6967499999999998,-1.5366,-1.5308000000000002,-242.34,216.1175,190.788125,0.0,0.0,0.0,0.0,0.020966666666666668,-5.498166666666667,-5.498166666666667,-0.5189,-0.49833333333333335,0.0086666666666666,0.29899999999999993,66.96600000000001,-0.0079,-0.20750000000000002,-0.476,100.0,1.0,1.0,206.4766666666667,0.0,0.0,0.0,0.0,0.0,0.0,0.0,8751.8,0.0,55.0,5.0,241.04666666666668,0.0,0.0,0.0,0.0,0.0,0.0,1.0,0.0,0.5069999999999979,0.5069999999999979,0.0,0.0,0.0,55.0,616.79921,10000.0,85.000001,85.000001,85.000001,85.000001,395.0,0.0,0.0,0.0,1.0,333.33500000000004,53.543,53.543,47.653,47.653,34.0,-21.0225,22.454,-29.99,28.9675,0.0,1783.195,-0.6099999999999994,100.0,27.651,27.307,42.745000000000005,42.683,0.0,1.0,100.0,0.0,0.0,0.0,0.0,2869.285714285714,2870.7,4300.222222222223,4268.5,306.1425,305.54633333333334,314.3385,314.15525,21.8574,20.558,21.8418,21.3638,314.999998,314.999998,324.999988,324.999988,99.55802857142857,99.50721666666666,99.56548571428571,99.54522857142857,0.09050000000000002,-0.05433333333333312,-0.11083333333333334,0.09800000000000009,-0.04333333333332945,-0.045000000000001705,1.494,1.4725,37.608000000000004,29.487666666666666,37.510999999999996,34.524,55.828,34.730000000000004,59.1075,51.797,53.778999999999996,33.908,57.7295,50.147,52.955,33.487,57.677,49.562666666666665,-0.12650000000000006,-0.02950000000000008,0.10289000000000001,0.10702,0.0,209.715,209.73000000000002,206.4766666666667,206.4766666666667,0.0,0.0
11,0.0,1.0,0.0,1.0,1.0,0.0,0.0,1.0,0.0,100.0,1.0,1.1856,26.0,0.0,0.0,0.0,59.999996,0.0,26.0,26.0,26.0,26.0,0.028000000000000025,0.2679,-0.07283333333333335,293.533,-2.7055,-2.686875,-1.58905,-1.5243,-238.92000000000002,216.09,190.767375,0.0,0.0,0.0,0.0,0.022600000000000002,-5.498166666666667,-5.498166666666667,-0.5619000000000001,-0.13933333333333334,0.03266666666666662,0.31400000000000006,67.104,0.0118,-0.236875,-0.6520000000000001,100.0,1.0,1.0,207.23000000000002,0.0,0.0,0.0,0.0,0.0,0.0,0.0,8783.7,0.0,55.0,5.0,241.54666666666668,1.0,0.0,0.0,0.0,0.0,0.0,1.0,0.0,0.5579999999999998,0.5579999999999998,0.0,0.0,1.0,55.0,616.79921,10000.0,85.000001,85.000001,85.000001,85.000001,395.0,0.0,0.0,0.0,1.0,333.33500000000004,52.826,52.826,49.316,49.316,34.0,-21.8625,26.677999999999997,-24.063333333333333,27.2375,0.0,1783.145,-0.6999999999999993,100.0,27.564,27.426000000000002,42.272,42.497,0.0,1.0,100.0,0.0,0.0,0.0,0.0,3004.0,3185.3,3703.0,3884.3,305.6455,304.71366666666665,315.85025,315.20925,21.8669,20.5635,21.8521,21.372700000000002,314.999998,314.999998,324.999988,324.999988,99.55804285714285,99.50721666666666,99.56562857142858,99.54538571428571,0.10899999999999999,-0.01633333333333331,-0.08933333333333338,0.14400000000000013,-0.02833333333332888,-0.051666666666669414,1.643,1.6199999999999999,37.668,29.52166666666667,37.576,34.579499999999996,55.815,34.768,59.1425,51.858000000000004,53.765,33.943,57.762,50.2055,52.941,33.5205,57.707,49.620333333333335,-0.1279999999999999,-0.02450000000000019,0.109365,0.11062500000000001,0.0,210.12,210.175,207.23000000000002,207.23000000000002,0.0,0.0
12,0.0,1.0,0.0,1.0,1.0,0.0,0.0,1.0,0.0,100.0,1.0,1.1856,26.0,0.0,0.0,0.0,59.999996,0.0,26.0,26.0,26.0,26.0,0.056499999999999995,0.27890000000000015,0.03486666666666667,292.892,-2.76245,-2.6793750000000003,-1.5562,-1.5243,-235.49,216.0625,190.74525,0.0,0.0,0.0,0.0,0.025466666666666665,-5.498166666666667,-5.498166666666667,-0.545,0.28600000000000003,0.01677777777777778,-0.823,67.25,0.030000000000000002,-0.2068,-0.6579999999999995,100.0,1.0,1.0,207.43666666666667,0.0,0.0,0.0,0.0,0.0,0.0,0.0,8792.5,0.0,55.0,5.0,242.06666666666666,0.0,0.0,0.0,0.0,0.0,0.0,1.0,0.0,0.6089999999999982,0.6089999999999982,0.0,0.0,0.0,55.0,616.79921,10000.0,85.000001,85.000001,85.000001,85.000001,395.0,0.0,0.0,0.0,1.0,166.665,52.734,52.734,47.882,47.882,34.0,-23.005,26.274,-28.106666666666666,30.8425,0.0,1783.095,-0.6900000000000013,100.0,27.32,27.754,42.219,42.556,0.0,1.0,100.0,0.0,0.0,0.0,0.0,3145.714285714286,3105.1,4247.666666666667,4187.3,305.407,304.81033333333335,314.549,314.41125,21.8764,20.5689,21.8625,21.3817,314.999998,314.999998,324.999988,324.999988,99.55805714285714,99.50721666666666,99.56577142857142,99.54551428571429,0.11775000000000002,-0.010333333333333306,-0.08250000000000002,0.15183333333333326,-0.04999999999999716,-0.02833333333332888,1.5185,1.502,37.727000000000004,29.555999999999997,37.641,34.6355,55.803,34.8065,59.1825,51.92,53.754000000000005,33.9785,57.799,50.2655,52.928,33.5545,57.741,49.679,-0.12749999999999995,-0.02499999999999991,0.110365,0.11403500000000001,0.0,210.585,210.63,207.43666666666667,207.43666666666667,0.0,0.0
13,0.0,1.0,0.0,1.0,1.0,0.0,0.0,1.0,0.0,100.0,1.0,1.1856,26.0,0.0,0.0,0.0,59.999996,0.0,26.0,26.0,26.0,26.0,0.0685,0.29110000000000014,0.05343333333333334,292.557,-2.7016,-2.674,-1.5907499999999999,-1.5070999999999999,-232.06,216.0375,190.7235,0.0,0.0,0.0,0.0,0.02696666666666667,-5.498166666666667,-5.498166666666667,-0.5396000000000001,-0.12,0.025111111111111084,1.029,67.392,0.0381,-0.21685000000000001,-0.8439999999999994,100.0,1.0,1.0,207.82666666666665,0.0,0.0,0.0,0.0,0.0,0.0,0.0,8809.0,0.0,55.0,5.0,242.58333333333334,1.0,0.0,0.0,0.0,0.0,0.0,1.0,0.0,0.6600000000000001,0.6600000000000001,0.0,0.0,1.0,55.0,616.79921,10000.0,85.000001,85.000001,85.000001,85.000001,395.0,0.0,0.0,0.0,1.0,166.665,52.475,52.475,47.943,47.943,34.0,-20.44,27.882,-26.596666666666664,32.6125,0.0,1783.044,-0.9050000000000011,100.0,27.817,27.804000000000002,42.552,43.004,0.0,1.0,100.0,0.0,0.0,0.0,0.0,3034.857142857143,3189.3,4119.333333333333,4361.6,305.506,304.72633333333334,314.73975,314.0525,21.8859,20.5744,21.873,21.3909,314.999998,314.999998,324.999988,324.999988,99.55807142857142,99.50721666666666,99.56591428571429,99.54567142857142,0.14875000000000016,0.014666666666666828,-0.059833333333333405,0.16100000000000003,-0.030000000000001137,-0.046666666666666856,1.5035,1.4869999999999999,37.787,29.590333333333334,37.706,34.693,55.793,34.8445,59.2215,51.986000000000004,53.745000000000005,34.013999999999996,57.835499999999996,50.3285,52.918,33.588,57.774,49.741,-0.14900000000000002,-0.007000000000000117,0.1029,0.10934,0.0,211.0,211.055,207.82666666666665,207.82666666666665,0.0,0.0
14,0.0,1.0,0.0,1.0,1.0,0.0,0.0,1.0,0.0,100.0,1.0,1.1856,26.0,0.0,0.0,0.0,59.999996,0.0,26.0,26.0,26.0,26.0,0.08499999999999996,0.28080000000000016,-0.010933333333333333,292.786,-2.73545,-2.61625,-1.59855,-1.5112999999999999,-228.82,216.01749999999998,190.7035,0.0,0.0,0.0,0.0,0.028833333333333332,-5.498166666666667,-5.498166666666667,-0.5495,-0.10733333333333334,0.05366666666666675,1.2880000000000003,67.523,0.050800000000000005,-0.2286,-1.1059999999999999,100.0,1.0,1.0,208.31666666666666,0.0,0.0,0.0,0.0,0.0,0.0,0.0,8829.8,0.0,55.0,5.0,243.05333333333334,0.0,0.0,0.0,0.0,0.0,0.0,1.0,0.0,0.7079999999999984,0.7079999999999984,0.0,0.0,0.0,55.0,616.79921,10000.0,85.000001,85.000001,85.000001,85.000001,395.0,0.0,0.0,0.0,1.0,166.665,52.567,52.567,48.096000000000004,48.096000000000004,34.0,-19.6175,28.868,-24.623333333333335,32.165,0.0,1782.996,-0.9450000000000003,100.0,27.732,27.89,42.51,43.179,0.0,1.0,100.0,0.0,0.0,0.0,0.0,2926.857142857143,3268.8,3948.222222222222,4227.2,305.849,304.4886666666667,315.17275,314.394,21.8949,20.5796,21.8827,21.3994,314.999998,314.999998,324.999988,324.999988,99.55808571428571,99.50723333333333,99.56604285714286,99.5458,0.15500000000000025,0.03166666666666673,-0.04966666666666664,0.1765000000000001,-0.03333333333333144,-0.060000000000002274,1.5625,1.5105,37.843,29.622666666666667,37.766999999999996,34.7465,55.785,34.881,59.257,52.046,53.736000000000004,34.0475,57.8685,50.3865,52.908,33.6205,57.804,49.797666666666665,-0.14849999999999985,0.0004999999999999449,0.11146500000000001,0.10479000000000001,0.0,211.4,211.49,208.31666666666666,208.31666666666666,0.0,0.0
15,0.0,1.0,0.0,1.0,1.0,0.0,0.0,1.0,0.0,100.0,1.0,1.1856,26.0,0.0,0.0,0.0,59.999996,0.0,26.0,26.0,26.0,26.0,0.13137500000000002,0.2922,-0.05593333333333334,292.786,-2.75065,-2.624625,-1.6285500000000002,-1.4512,-225.37,215.995,190.681875,0.0,0.0,0.0,0.0,0.030833333333333334,-5.498166666666667,-5.498166666666667,-0.5394,0.19933333333333333,0.0822222222222222,-0.581,67.663,0.0682,-0.2096,-1.1799999999999997,100.0,1.0,1.0,208.72,0.0,0.0,0.0,0.0,0.0,0.0,0.0,8846.9,0.0,55.0,5.0,243.56,1.0,0.0,0.0,0.0,0.0,0.0,1.0,0.0,0.7590000000000003,0.7590000000000003,0.0,0.0,1.0,55.0,616.79921,10000.0,85.000001,85.000001,85.000001,85.000001,395.0,0.0,0.0,0.0,1.0,166.665,52.826,52.826,48.111,48.111,34.0,-18.64,27.753999999999998,-24.566666666666663,33.325,0.0,1782.945,-0.9549999999999983,100.0,27.538,28.112000000000002,42.159,43.405,0.0,1.0,100.0,0.0,0.0,0.0,0.0,2862.714285714286,3120.3,3985.1111111111113,4365.4,306.2225,304.6793333333333,315.17975,313.98875,21.9043,20.5852,21.893,21.4085,314.999998,314.999998,324.999988,324.999988,99.5581,99.50723333333333,99.56618571428571,99.54595714285715,0.16575000000000006,0.03100000000000014,-0.03633333333333333,0.1885000000000001,-0.05333333333332746,-0.04833333333333201,1.551,1.5105,37.902,29.657333333333334,37.832,34.8035,55.775,34.92,59.2935,52.1105,53.727000000000004,34.0835,57.902,50.448499999999996,52.897999999999996,33.655,57.8345,49.859,-0.15399999999999991,-0.0015000000000000568,0.10605500000000001,0.10603000000000001,0.0,211.845,211.93,208.72,208.72,0.0,0.0
16,0.0,1.0,0.0,1.0,1.0,0.0,0.0,1.0,0.0,100.0,1.0,1.1856,26.0,0.0,0.0,0.0,59.999996,0.0,26.0,26.0,26.0,26.0,0.11762500000000009,0.27970000000000006,-0.0024000000000000002,292.786,-2.8031,-2.5825,-1.6,-1.5145,-221.92000000000002,215.97750000000002,190.659875,0.0,0.0,0.0,0.0,0.03286666666666667,-5.498166666666667,-5.498166666666667,-0.5645,-0.6226666666666666,0.07033333333333314,0.09299999999999997,67.80199999999999,0.0781,-0.22840000000000002,-1.2120000000000006,100.0,1.0,1.0,209.18666666666667,0.0,0.0,0.0,0.0,0.0,0.0,0.0,8866.6,0.0,55.0,5.0,244.06333333333333,0.0,0.0,0.0,0.0,0.0,0.0,1.0,0.0,0.8099999999999987,0.8099999999999987,0.0,0.0,0.0,55.0,616.79921,10000.0,85.000001,85.000001,85.000001,85.000001,395.0,0.0,0.0,0.0,1.0,166.665,52.475,52.475,48.065,48.065,34.0,-20.0825,30.106,-22.366666666666664,32.95,0.0,1782.894,-0.75,100.0,27.351,28.060000000000002,42.441,43.381,0.0,1.0,100.0,0.0,0.0,0.0,0.0,3020.0,3357.4,3879.8888888888887,4135.1,305.755,304.25866666666667,315.35475,314.576,21.9134,20.5908,21.9035,21.4176,314.999998,314.999998,324.999988,324.999988,99.55814285714285,99.50723333333333,99.56632857142857,99.5461,0.17125000000000012,0.04733333333333345,-0.01416666666666666,0.20850000000000013,-0.03499999999999659,-0.06833333333332803,1.567,1.5265,37.959,29.692333333333334,37.897,34.86,55.763,34.960499999999996,59.332499999999996,52.173500000000004,53.715,34.121,57.938,50.5095,52.885,33.691,57.8675,49.919,-0.13949999999999996,-0.013500000000000068,0.10446000000000001,0.10866,0.0,212.245,212.335,209.18666666666667,209.18666666666667,0.0,0.0
17,0.0,1.0,0.0,1.0,1.0,0.0,0.0,1.0,0.0,100.0,1.0,1.1856,26.0,0.0,0.0,0.0,59.999996,0.0,26.0,26.0,26.0,26.0,0.09850000000000003,0.2935000000000001,0.03726666666666667,292.328,-2.76625,-2.5625,-1.6372,-1.479,-218.46,215.9625,190.637125,0.0,0.0,0.0,0.0,0.03486666666666667,-5.498166666666667,-5.498166666666667,-0.5486,0.43,0.043333333333333224,-0.8329999999999997,67.94200000000001,0.08030000000000001,-0.205275,-0.7879999999999994,100.0,1.0,1.0,209.51333333333332,0.0,0.0,0.0,0.0,0.0,0.0,0.0,8880.5,0.0,55.0,5.0,244.56333333333333,1.0,0.0,0.0,0.0,0.0,0.0,1.0,0.0,0.8610000000000007,0.8610000000000007,0.0,0.0,1.0,55.0,616.79921,10000.0,85.000001,85.000001,85.000001,85.000001,395.0,0.0,0.0,0.0,1.0,166.665,52.353,52.353,47.562,47.562,34.0,-22.095,25.869999999999997,-27.156666666666666,33.817499999999995,0.0,1782.842,-0.28000000000000114,100.0,27.715,28.395,42.281,43.492000000000004,0.0,1.0,100.0,0.0,0.0,0.0,0.0,3123.714285714286,3096.8,4351.111111111111,4311.7,305.502,304.875,314.38425,314.171,21.9229,20.5965,21.9138,21.4267,314.999998,314.999998,324.999988,324.999988,99.55815714285714,99.50723333333333,99.56647142857143,99.54624285714286,0.1352500000000001,0.007333333333333414,-0.03049999999999997,0.19933333333333336,-0.06499999999999773,-0.03833333333332689,1.522,1.4935,38.018,29.727666666666664,37.961,34.9165,55.754999999999995,35.001,59.3695,52.2375,53.708,34.158,57.9725,50.571,52.876000000000005,33.7265,57.8985,49.97933333333333,-0.10349999999999993,-0.04899999999999993,0.10709,0.11359500000000002,0.0,212.755,212.79000000000002,209.51333333333332,209.51333333333332,0.0,0.0
18,0.0,1.0,0.0,1.0,1.0,0.0,0.0,1.0,0.0,100.0,1.0,1.1856,26.0,0.0,0.0,0.0,59.999996,0.0,26.0,26.0,26.0,26.0,0.06412499999999999,0.2791000000000001,0.0041333333333333335,292.297,-2.7874,-2.543875,-1.64155,-1.4355,-215.19,215.9525,190.616125,0.0,0.0,0.0,0.0,0.03676666666666667,-5.498166666666667,-5.498166666666667,-0.5614,-0.4573333333333333,0.052999999999999936,-0.7069999999999999,68.072,0.06910000000000001,-0.224925,-0.22599999999999998,100.0,1.0,1.0,209.96,0.0,0.0,0.0,0.0,0.0,0.0,0.0,8899.4,0.0,55.0,5.0,245.03333333333336,0.0,0.0,0.0,0.0,0.0,0.0,1.0,0.0,0.9089999999999989,0.9089999999999989,0.0,0.0,0.0,55.0,616.79921,10000.0,85.000001,85.000001,85.000001,85.000001,395.0,0.0,0.0,0.0,1.0,166.665,52.109,52.109,47.562,47.562,34.0,-24.325,26.369999999999997,-26.453333333333333,30.2725,0.0,1782.795,0.03500000000000014,100.0,27.578,28.261,42.695,43.761,0.0,1.0,100.0,0.0,0.0,0.0,0.0,3181.857142857143,3292.7,4116.222222222223,4164.7,305.372,304.30333333333334,314.89525,314.514,21.9316,20.6017,21.9237,21.435299999999998,314.999998,314.999998,324.999988,324.999988,99.55817142857143,99.50723333333333,99.56661428571428,99.5464,0.09925000000000006,-0.019333333333333202,-0.04916666666666658,0.1705000000000001,-0.051666666666669414,-0.04833333333333201,1.534,1.523,38.073,29.760666666666665,38.022999999999996,34.9705,55.744,35.037,59.406,52.298500000000004,53.697,34.1915,58.0065,50.629999999999995,52.864000000000004,33.759,57.9295,50.037,-0.0685,-0.08099999999999996,0.09640000000000001,0.10419500000000001,0.0,213.12,213.14,209.96,209.96,0.0,0.0
19,0.0,1.0,0.0,1.0,1.0,0.0,0.0,1.0,0.0,100.0,1.0,1.1856,26.0,0.0,0.0,0.0,59.999996,0.0,26.0,26.0,26.0,26.0,0.029749999999999943,0.2957000000000001,0.04463333333333333,291.885,-2.6814999999999998,-2.6723749999999997,-1.55345,-1.4415,-211.72,215.9425,190.5935,0.0,0.0,0.0,0.0,0.03876666666666667,-5.498166666666667,-5.498166666666667,-0.5467000000000001,0.803,0.04177777777777769,0.43100000000000005,68.21000000000001,0.0455,-0.20977500000000002,0.11600000000000055,100.0,1.0,1.0,210.32333333333332,0.0,0.0,0.0,0.0,0.0,0.0,0.0,8914.8,0.0,55.0,5.0,245.52666666666664,1.0,0.0,0.0,0.0,0.0,0.0,1.0,0.0,0.9600000000000009,0.9600000000000009,0.0,0.0,1.0,55.0,616.79921,10000.0,85.000001,85.000001,85.000001,85.000001,395.0,0.0,0.0,0.0,1.0,166.665,51.788,51.788,47.272,47.272,34.0,-22.6725,26.266,-27.106666666666666,31.8625,0.0,1782.744,0.26000000000000156,100.0,28.373,28.451999999999998,42.766,43.55,0.0,1.0,100.0,0.0,0.0,0.0,0.0,3053.142857142857,3215.6,4242.333333333333,4453.2,305.4245,304.4646666666667,314.477,313.92575,21.9412,20.6074,21.934,21.4444,314.999998,314.999998,324.999988,324.999988,99.55818571428571,99.50725,99.56674285714286,99.54652857142857,0.09799999999999986,-0.035666666666666735,-0.0615,0.15366666666666684,-0.036666666666668846,-0.054999999999999716,1.503,1.512,38.132,29.796333333333333,38.088,35.0275,55.733999999999995,35.078,59.443,52.3615,53.687,34.2295,58.0405,50.6905,52.852999999999994,33.795,57.961,50.097,-0.06000000000000005,-0.09799999999999986,0.104105,0.105535,0.0,213.60500000000002,213.585,210.32333333333332,210.32333333333332,0.0,0.0
20,0.0,1.0,0.0,1.0,1.0,0.0,0.0,1.0,0.0,100.0,1.0,1.1856,26.0,0.0,0.0,0.0,59.999996,0.0,26.0,26.0,26.0,26.0,0.014124999999999943,0.25280000000000014,-0.019533333333333337,292.374,-2.7645,-2.64475,-1.54475,-1.5802,-208.23000000000002,215.9325,190.57125,0.0,0.0,0.0,0.0,0.0408,-5.498166666666667,-5.498166666666667,-0.5588000000000001,-1.161,0.01866666666666661,-1.325,68.348,0.0171,-0.2263,0.4560000000000004,100.0,1.0,1.0,210.72333333333333,0.0,0.0,0.0,0.0,0.0,0.0,0.0,8931.8,0.0,55.0,5.0,246.02666666666664,0.0,0.0,0.0,0.0,0.0,0.0,0.0,0.0,1.0109999999999992,1.0109999999999992,0.0,0.0,0.0,55.0,616.79921,10000.0,85.000001,85.000001,85.000001,85.000001,395.0,0.0,0.0,0.0,1.0,166.665,52.689,52.689,47.15,47.15,34.0,-24.5275,22.810000000000002,-28.80333333333333,29.455000000000002,0.0,1782.693,0.379999999999999,100.0,27.697,28.085,43.381,43.806,0.0,1.0,100.0,0.0,0.0,0.0,0.0,3066.285714285714,3034.3,4159.777777777777,4107.2,305.722,305.067,314.69925,314.54625,21.9504,20.6129,21.9446,21.4536,314.999998,314.999998,324.999988,324.999988,99.55818571428571,99.50725,99.5669,99.54668571428572,0.06475000000000009,-0.07099999999999995,-0.10649999999999993,0.1206666666666667,-0.041666666666671404,-0.046666666666666856,1.4815,1.503,38.19,29.830333333333336,38.153999999999996,35.085,55.718,35.1165,59.484,52.4255,53.672,34.265,58.079,50.752,52.838,33.829,57.9965,50.157,-0.04949999999999988,-0.10400000000000009,0.10731,0.10336500000000001,0.0,213.985,213.945,210.72333333333333,210.72333333333333,0.0,0.0
21,0.0,1.0,0.0,1.0,1.0,0.0,0.0,1.0,0.0,100.0,1.0,1.1856,26.0,0.0,0.0,0.0,59.999996,0.0,26.0,26.0,26.0,26.0,-0.04662500000000003,0.2836000000000001,-0.07453333333333334,292.648,-2.7041,-2.7225,-1.5932,-1.5546,-205.16,215.9225,190.55075,0.0,0.0,0.0,0.0,0.0426,-5.498166666666667,-5.498166666666667,-0.5762,0.5246666666666666,-0.01188888888888906,0.002000000000000224,68.465,-0.0079,-0.22205,0.6320000000000006,100.0,1.0,1.0,211.2866666666667,0.0,0.0,0.0,0.0,0.0,0.0,0.0,8955.6,0.0,55.0,5.0,246.44666666666666,1.0,0.0,0.0,0.0,0.0,0.0,0.0,0.0,1.056000000000001,1.056000000000001,0.0,0.0,1.0,55.0,616.79921,10000.0,85.000001,85.000001,85.000001,85.000001,395.0,0.0,0.0,0.0,1.0,333.33500000000004,52.338,52.338,48.187,48.187,34.0,-25.24,23.54,-28.81,26.42,0.0,1782.647,0.3049999999999997,100.0,28.266,27.936,42.971000000000004,43.111000000000004,0.0,1.0,100.0,0.0,0.0,0.0,0.0,3114.714285714286,3090.2,4056.6666666666665,3978.1000000000004,305.3475,304.99833333333333,315.05275,315.053,21.9588,20.6178,21.9537,21.4614,314.999998,314.999998,324.999988,324.999988,99.5582,99.50726666666667,99.56702857142857,99.5468,0.052999999999999936,-0.07933333333333326,-0.1223333333333334,0.10083333333333333,-0.05333333333332746,-0.05333333333332746,1.5835,1.5939999999999999,38.242999999999995,29.861,38.211,35.1335,55.707,35.153,59.5145,52.4765,53.661,34.2985,58.1075,50.801,52.826,33.8615,58.022,50.205,-0.047499999999999876,-0.10400000000000009,0.10196000000000001,0.11041500000000001,0.0,214.41500000000002,214.345,211.2866666666667,211.2866666666667,0.0,0.0
22,0.0,1.0,0.0,1.0,1.0,0.0,0.0,1.0,0.0,100.0,1.0,1.1856,26.0,0.0,0.0,0.0,59.999996,0.0,26.0,26.0,26.0,26.0,-0.037374999999999936,0.26280000000000014,0.003633333333333334,292.16,-2.6303,-2.73125,-1.58305,-1.5479,-201.66,215.9125,190.527,0.0,0.0,0.0,0.0,0.04463333333333333,-5.498166666666667,-5.498166666666667,-0.5557,0.029333333333333333,-0.015111111111111075,-0.6040000000000001,68.604,-0.029300000000000003,-0.2039,0.6960000000000006,100.0,1.0,1.0,211.50666666666666,0.0,0.0,0.0,0.0,0.0,0.0,0.0,8964.9,0.0,55.0,5.0,246.94666666666666,0.0,0.0,0.0,0.0,0.0,0.0,0.0,0.0,1.1069999999999993,1.1069999999999993,0.0,0.0,0.0,55.0,616.79921,10000.0,85.000001,85.000001,85.000001,85.000001,395.0,0.0,0.0,0.0,1.0,333.33500000000004,52.46,52.46,47.058,47.058,34.0,-24.8625,21.778,-33.156666666666666,27.2325,0.0,1782.595,0.1999999999999993,100.0,28.247,28.079,43.476,43.323,0.0,1.0,100.0,0.0,0.0,0.0,0.0,3079.142857142857,2946.9,4306.333333333333,4272.6,305.5395,305.23533333333336,314.43825,314.27,21.9683,20.6232,21.9643,21.4705,314.999998,314.999998,324.999988,324.999988,99.5582,99.50726666666667,99.56717142857143,99.54695714285714,0.03575000000000017,-0.09933333333333327,-0.15466666666666662,0.06400000000000006,-0.05666666666667197,-0.05666666666667197,1.4655,1.4955,38.302,29.895333333333333,38.277,35.191,55.694,35.1935,59.5565,52.539,53.647999999999996,34.336,58.1465,50.8615,52.812,33.897,58.058,50.263999999999996,-0.0605,-0.09350000000000014,0.10735000000000001,0.10162,0.0,214.82999999999998,214.775,211.50666666666666,211.50666666666666,0.0,0.0
23,0.0,1.0,0.0,1.0,1.0,0.0,0.0,1.0,0.0,100.0,1.0,1.1856,26.0,0.0,0.0,0.0,59.999996,0.0,26.0,26.0,26.0,26.0,-0.06362499999999993,0.24980000000000002,-0.008166666666666668,292.175,-2.64565,-2.696625,-1.62575,-1.6211,-198.16,215.9025,190.503625,0.0,0.0,0.0,0.0,0.04666666666666667,-5.498166666666667,-5.498166666666667,-0.5754,-0.20400000000000001,-0.02488888888888896,0.4990000000000001,68.737,-0.036000000000000004,-0.23012500000000002,0.5579999999999998,100.0,1.0,1.0,212.04333333333335,0.0,0.0,0.0,0.0,0.0,0.0,0.0,8987.7,0.0,55.0,5.0,247.43,1.0,0.0,0.0,0.0,0.0,0.0,0.0,0.0,1.1580000000000013,1.1580000000000013,0.0,0.0,1.0,55.0,616.79921,10000.0,85.000001,85.000001,85.000001,85.000001,395.0,0.0,0.0,0.0,1.0,333.33500000000004,51.743,51.743,48.187,48.187,34.0,-26.65,23.004,-30.55666666666667,26.017500000000002,0.0,1782.544,0.16000000000000014,100.0,28.75,27.946,43.733000000000004,43.354,0.0,1.0,100.0,0.0,0.0,0.0,0.0,3289.285714285714,3117.2,3983.4444444444443,3962.9,304.7525,304.982,315.23675,314.99475,21.977899999999998,20.6288,21.9748,21.4797,314.999998,314.999998,324.999988,324.999988,99.55821428571429,99.50728333333333,99.56732857142858,99.5471,0.048249999999999904,-0.09033333333333315,-0.15783333333333338,0.07033333333333336,-0.03499999999999659,-0.051666666666669414,1.529,1.5425,38.361999999999995,29.929666666666666,38.342,35.248,55.68,35.235,59.5955,52.6005,53.635999999999996,34.374,58.183,50.920500000000004,52.799,33.9335,58.091499999999996,50.321666666666665,-0.0694999999999999,-0.09250000000000025,0.10996500000000001,0.10136,0.0,215.20499999999998,215.17000000000002,212.04333333333335,212.04333333333335,0.0,0.0
24,0.0,1.0,0.0,1.0,1.0,0.0,0.0,1.0,0.0,100.0,1.0,1.1856,26.0,0.0,0.0,0.0,59.999996,0.0,26.0,26.0,26.0,26.0,-0.06137499999999996,0.2803,-0.047233333333333336,292.389,-2.67185,-2.704625,-1.54715,-1.562,-194.86,215.89,190.481,0.0,0.0,0.0,0.0,0.04856666666666667,-5.498166666666667,-5.498166666666667,-0.5798,-0.594,-0.013111111111111295,1.1520000000000001,68.866,-0.035300000000000005,-0.21725,0.38200000000000056,100.0,1.0,1.0,212.32333333333332,0.0,0.0,0.0,0.0,0.0,0.0,0.0,8999.6,0.0,55.0,5.0,247.89,0.0,0.0,0.0,0.0,0.0,0.0,0.0,0.0,1.2059999999999995,1.2059999999999995,0.0,0.0,0.0,55.0,616.79921,10000.0,85.000001,85.000001,85.000001,85.000001,395.0,0.0,0.0,0.0,1.0,333.33500000000004,52.872,52.872,47.089,47.089,34.0,-23.88,21.63,-31.74,27.2625,0.0,1782.496,0.10999999999999943,100.0,28.428,27.654,43.816,43.228,0.0,1.0,100.0,0.0,0.0,0.0,0.0,2941.714285714286,2984.3,4257.555555555556,4162.9,305.8595,305.43233333333336,314.438,314.5905,21.9867,20.6338,21.9846,21.4882,314.999998,314.999998,324.999988,324.999988,99.55821428571429,99.5073,99.56745714285714,99.54724285714286,0.040000000000000036,-0.09699999999999998,-0.1456666666666666,0.07850000000000001,-0.03833333333332689,-0.045000000000001705,1.498,1.506,38.417,29.961333333333336,38.403999999999996,35.3015,55.667,35.272,59.632999999999996,52.6575,53.622,34.408,58.218,50.9755,52.785,33.966,58.1235,50.37533333333333,-0.06699999999999995,-0.08999999999999986,0.10408,0.102455,0.0,215.615,215.565,212.32333333333332,212.32333333333332,0.0,0.0
25,0.0,1.0,0.0,1.0,1.0,0.0,0.0,1.0,0.0,100.0,1.0,1.1856,26.0,0.0,0.0,0.0,59.999996,0.0,26.0,26.0,26.0,26.0,-0.06137499999999996,0.26049999999999995,-0.032433333333333335,292.191,-2.73175,-2.669,-1.5567,-1.5691000000000002,-191.13,215.8725,190.454125,0.0,0.0,0.0,0.0,0.05073333333333333,-5.498166666666667,-5.498166666666667,-0.6104,0.211,-0.015444444444444372,-0.06699999999999973,69.005,-0.036000000000000004,-0.22275,0.39400000000000013,100.0,1.0,1.0,212.89333333333332,0.0,0.0,0.0,0.0,0.0,0.0,0.0,9023.8,0.0,55.0,5.0,248.39333333333335,1.0,0.0,0.0,0.0,0.0,0.0,0.0,0.0,1.259999999999998,1.259999999999998,0.0,0.0,1.0,55.0,616.79921,10000.0,85.000001,85.000001,85.000001,85.000001,395.0,0.0,0.0,0.0,1.0,166.665,51.62,51.62,47.974000000000004,47.974000000000004,34.0,-27.665,24.448,-28.55666666666667,25.925,0.0,1782.444,-0.03500000000000014,100.0,28.474,27.994,43.441,42.978,0.0,1.0,100.0,0.0,0.0,0.0,0.0,3321.5714285714284,3298.3,3971.8888888888887,4028.3,304.8115,304.416,315.22175,314.91625,21.9966,20.6397,21.9955,21.497799999999998,314.999998,314.999998,324.999988,324.999988,99.55821428571429,99.50731666666667,99.56761428571428,99.5474,0.04700000000000015,-0.08733333333333326,-0.1373333333333333,0.07650000000000001,-0.030000000000001137,-0.06499999999999773,1.552,1.577,38.479,29.997999999999998,38.472,35.361,55.650999999999996,35.316,59.671,52.72,53.607,34.449,58.2535,51.035,52.769,34.004999999999995,58.156,50.434,-0.07800000000000007,-0.08300000000000018,0.09827000000000001,0.10384,0.0,216.035,216.025,212.89333333333332,212.89333333333332,0.0,0.0
26,0.0,1.0,0.0,1.0,1.0,0.0,0.0,1.0,0.0,100.0,1.0,1.1856,26.0,0.0,0.0,0.0,59.999996,0.0,26.0,26.0,26.0,26.0,-0.05037499999999995,0.2743,0.08483333333333334,291.122,-2.68495,-2.7424999999999997,-1.6069,-1.5613000000000001,-187.82,215.85750000000002,190.429875,0.0,0.0,0.0,0.0,0.05266666666666667,-5.498166666666667,-5.498166666666667,-0.5702,0.617,-0.028000000000000025,0.8450000000000002,69.135,-0.0354,-0.19717500000000002,0.22599999999999998,100.0,1.0,1.0,213.01,0.0,0.0,0.0,0.0,0.0,0.0,0.0,9028.7,0.0,55.0,5.0,248.85666666666668,0.0,0.0,0.0,0.0,0.0,0.0,0.0,0.0,1.3079999999999998,1.3079999999999998,0.0,0.0,0.0,55.0,616.79921,10000.0,85.000001,85.000001,85.000001,85.000001,395.0,0.0,0.0,0.0,1.0,166.665,51.437,51.437,46.126999999999995,46.126999999999995,34.0,-24.607499999999998,24.116,-34.94333333333333,30.9775,0.0,1782.396,-0.23000000000000043,100.0,29.228,28.54,44.025,43.447,0.0,1.0,100.0,0.0,0.0,0.0,0.0,3177.285714285714,3096.5,4575.888888888889,4550.5,305.1095,304.9583333333333,313.76725,313.70575,22.0057,20.645,22.0055,21.5065,314.999998,314.999998,324.999988,324.999988,99.55822857142857,99.50731666666667,99.56775714285715,99.54754285714286,0.07900000000000018,-0.07233333333333314,-0.13183333333333336,0.08483333333333332,-0.03999999999999915,-0.05666666666667197,1.435,1.4355,38.536,30.031666666666666,38.534,35.4155,55.641,35.356,59.711,52.7795,53.598,34.486,58.2905,51.0925,52.757999999999996,34.0405,58.19,50.49,-0.10250000000000004,-0.06599999999999984,0.09490000000000001,0.10945500000000001,0.0,216.465,216.45,213.01,213.01,0.0,0.0
27,0.0,1.0,0.0,1.0,1.0,0.0,0.0,1.0,0.0,100.0,1.0,1.1856,26.0,0.0,0.0,0.0,59.999996,0.0,26.0,26.0,26.0,26.0,-0.02387499999999998,0.2471000000000001,-0.051000000000000004,291.763,-2.6627,-2.699625,-1.6056,-1.6269,-184.29,215.8425,190.405375,0.0,0.0,0.0,0.0,0.05473333333333334,-5.498166666666667,-5.498166666666667,-0.6011000000000001,-0.978,-0.02388888888888907,-0.581,69.265,-0.025400000000000002,-0.245125,0.07200000000000095,100.0,1.0,1.0,213.59333333333333,0.0,0.0,0.0,0.0,0.0,0.0,0.0,9053.4,0.0,55.0,5.0,249.32999999999998,1.0,0.0,0.0,0.0,0.0,0.0,0.0,0.0,1.3589999999999982,1.3589999999999982,0.0,0.0,1.0,55.0,616.79921,10000.0,85.000001,85.000001,85.000001,85.000001,395.0,0.0,0.0,0.0,1.0,166.665,51.834,51.834,46.829,46.829,34.0,-25.169999999999998,23.256,-30.176666666666666,27.2025,0.0,1782.344,-0.259999999999998,100.0,28.652,28.523,44.454,44.074,0.0,1.0,100.0,0.0,0.0,0.0,0.0,3202.142857142857,3073.0,4028.0,3972.2,305.3315,304.9356666666667,315.01075,314.9335,22.0151,20.6506,22.0161,21.5158,314.999998,314.999998,324.999988,324.999988,99.55824285714286,99.50733333333334,99.56791428571428,99.54768571428572,0.058250000000000135,-0.08133333333333326,-0.1423333333333333,0.08816666666666673,-0.03999999999999915,-0.045000000000001705,1.525,1.5215,38.594,30.066,38.601,35.4735,55.628,35.396,59.7515,52.842,53.585,34.522999999999996,58.3285,51.152,52.745000000000005,34.076,58.2245,50.54833333333333,-0.09850000000000003,-0.06499999999999995,0.10511500000000001,0.11257500000000001,0.0,216.815,216.785,213.59333333333333,213.59333333333333,0.0,0.0
28,0.0,1.0,0.0,1.0,1.0,0.0,0.0,1.0,0.0,100.0,1.0,1.1856,26.0,0.0,0.0,0.0,59.999996,0.0,26.0,26.0,26.0,26.0,-0.00737500000000002,0.26370000000000005,-0.059800000000000006,291.87,-2.6554,-2.682,-1.5845,-1.5842,-180.95999999999998,215.825,190.381375,0.0,0.0,0.0,0.0,0.056666666666666664,-5.498166666666667,-5.498166666666667,-0.5996,0.6793333333333333,-0.024222222222222367,-0.4670000000000001,69.388,-0.0151,-0.213975,-0.05399999999999938,100.0,1.0,1.0,214.02666666666667,0.0,0.0,0.0,0.0,0.0,0.0,0.0,9071.8,0.0,55.0,5.0,249.76999999999998,0.0,0.0,0.0,0.0,0.0,0.0,0.0,0.0,1.407,1.407,0.0,0.0,0.0,55.0,616.79921,10000.0,85.000001,85.000001,85.000001,85.000001,395.0,0.0,0.0,0.0,1.0,333.33500000000004,51.804,51.804,47.485,47.485,34.0,-24.56,23.374000000000002,-30.41,27.605,0.0,1782.296,-0.33500000000000085,100.0,28.736,28.467,43.716,43.64,0.0,1.0,100.0,0.0,0.0,0.0,0.0,3220.5714285714284,3029.6,4142.333333333333,4110.0,305.096,305.0643333333333,314.95325,314.68025,22.0239,20.6559,22.0258,21.5242,314.999998,314.999998,324.999988,324.999988,99.55825714285714,99.50733333333334,99.56804285714286,99.54781428571428,0.07925000000000004,-0.06566666666666676,-0.14016666666666666,0.08883333333333332,-0.03833333333332689,-0.05666666666667197,1.547,1.543,38.65,30.099,38.661,35.5265,55.617000000000004,35.434,59.784,52.897,53.575,34.558,58.359,51.2055,52.733999999999995,34.1095,58.251999999999995,50.6,-0.11099999999999999,-0.05549999999999988,0.11394000000000001,0.102885,0.0,217.24,217.235,214.02666666666667,214.02666666666667,0.0,0.0
29,0.0,1.0,0.0,1.0,1.0,0.0,0.0,1.0,0.0,100.0,1.0,1.1856,26.0,0.0,0.0,0.0,59.999996,0.0,26.0,26.0,26.0,26.0,0.012375000000000025,0.2518,0.0012333333333333335,291.672,-2.65035,-2.7251250000000002,-1.56375,-1.5586,-177.20999999999998,215.805,190.3535,0.0,0.0,0.0,0.0,0.05883333333333334,-5.498166666666667,-5.498166666666667,-0.6089,-0.7683333333333334,-0.01200000000000001,-0.5659999999999998,69.53,-0.002,-0.22062500000000002,-0.21200000000000063,100.0,1.0,1.0,214.31,0.0,0.0,0.0,0.0,0.0,0.0,0.0,9083.9,0.0,55.0,5.0,250.28333333333336,1.0,0.0,0.0,0.0,0.0,0.0,0.0,0.0,1.4609999999999985,1.4609999999999985,0.0,0.0,1.0,55.0,616.79921,10000.0,85.000001,85.000001,85.000001,85.000001,395.0,0.0,0.0,0.0,1.0,166.665,51.926,51.926,46.875,46.875,34.0,-24.0225,24.415999999999997,-29.14333333333333,29.18,0.0,1782.242,-0.34999999999999787,100.0,28.369,28.415,44.025999999999996,44.037,0.0,1.0,100.0,0.0,0.0,0.0,0.0,3215.4285714285716,3054.9,4154.444444444444,4207.2,305.2405,304.921,314.7525,314.385,22.0336,20.6617,22.037,21.5341,314.999998,314.999998,324.999988,324.999988,99.55827142857143,99.50735,99.5682,99.54798571428572,0.08599999999999985,-0.05699999999999994,-0.10816666666666663,0.10333333333333328,-0.051666666666669414,-0.03499999999999659,1.478,1.4769999999999999,38.71,30.136,38.730999999999995,35.588,55.602999999999994,35.475,59.827,52.963499999999996,53.561,34.596000000000004,58.399,51.269,52.719,34.1455,58.2885,50.66266666666667,-0.10549999999999993,-0.053999999999999826,0.10453000000000001,0.10409,0.0,217.64,217.625,214.31,214.31,0.0,0.0
30,0.0,1.0,0.0,1.0,1.0,0.0,0.0,1.0,0.0,100.0,1.0,1.1856,26.0,0.0,0.0,0.0,59.999996,0.0,26.0,26.0,26.0,26.0,0.011374999999999913,0.25770000000000004,0.0563,291.138,-2.7016,-2.615125,-1.53795,-1.6138,-174.07999999999998,215.79000000000002,190.330125,0.0,0.0,0.0,0.0,0.06066666666666667,-5.498166666666667,-5.498166666666667,-0.6032000000000001,0.8656666666666667,-0.011222222222222022,0.6990000000000003,69.644,0.008700000000000001,-0.21730000000000002,-0.2759999999999998,100.0,1.0,1.0,214.73000000000002,0.0,0.0,0.0,0.0,0.0,0.0,0.0,9101.6,0.0,55.0,5.0,250.69,0.0,0.0,0.0,0.0,0.0,0.0,1.0,0.0,1.5060000000000002,1.5060000000000002,0.0,0.0,0.0,55.0,616.79921,10000.0,85.000001,85.000001,85.000001,85.000001,395.0,0.0,0.0,0.0,1.0,166.665,50.735,50.735,47.043,47.043,34.0,-24.69,25.604,-28.173333333333336,31.305,0.0,1782.198,-0.34499999999999886,100.0,29.361,29.009,43.9,43.96,0.0,1.0,100.0,0.0,0.0,0.0,0.0,3323.714285714286,3240.6,4164.777777777777,4201.2,304.697,304.50033333333334,314.74375,314.43975,22.0421,20.667,22.0461,21.5422,314.999998,314.999998,324.999988,324.999988,99.55827142857143,99.50735,99.56834285714285,99.54811428571429,0.10850000000000026,-0.04166666666666674,-0.09733333333333338,0.1326666666666667,-0.03499999999999659,-0.07166666666666544,1.5015,1.494,38.763,30.168333333333333,38.788,35.6385,55.596000000000004,35.513,59.8585,53.016999999999996,53.555,34.6305,58.4285,51.321,52.711,34.179,58.3155,50.713,-0.11499999999999999,-0.05799999999999983,0.10614000000000001,0.10797500000000002,0.0,218.015,218.04500000000002,214.73000000000002,214.73000000000002,0.0,0.0
31,0.0,1.0,0.0,1.0,1.0,0.0,0.0,1.0,0.0,100.0,1.0,1.1856,26.0,0.0,0.0,0.0,59.999996,0.0,26.0,26.0,26.0,26.0,0.018625000000000114,0.2559,-0.001,290.833,-2.773,-2.589375,-1.5906500000000001,-1.6053000000000002,-170.31,215.7725,190.30275,0.0,0.0,0.0,0.0,0.06286666666666667,-5.498166666666667,-5.498166666666667,-0.5911000000000001,-0.61,0.0016666666666667052,0.706,69.783,0.015300000000000001,-0.223425,-0.3099999999999996,100.0,1.0,1.0,215.04000000000002,0.0,0.0,0.0,0.0,0.0,0.0,0.0,9114.8,0.0,55.0,5.0,251.19333333333333,1.0,0.0,0.0,0.0,0.0,0.0,1.0,0.0,1.5599999999999987,1.5599999999999987,0.0,0.0,1.0,55.0,616.79921,10000.0,85.000001,85.000001,85.000001,85.000001,395.0,0.0,0.0,0.0,1.0,166.665,51.056,51.056,45.653999999999996,45.653999999999996,34.0,-23.447499999999998,27.201999999999998,-28.866666666666667,32.53,0.0,1782.144,-0.46000000000000085,100.0,29.011,29.061,44.620000000000005,44.701,0.0,1.0,100.0,0.0,0.0,0.0,0.0,3152.4285714285716,3397.5,4219.0,4316.1,305.345,304.2,314.5085,314.26175,22.0518,20.6731,22.0574,21.5521,314.999998,314.999998,324.999988,324.999988,99.55828571428572,99.50736666666667,99.5685,99.54827142857143,0.11525000000000007,-0.027666666666666728,-0.08266666666666656,0.13766666666666683,-0.026666666666670835,-0.046666666666666856,1.4709999999999999,1.4545,38.824,30.206666666666663,38.858999999999995,35.701,55.584,35.5555,59.9025,53.085499999999996,53.543,34.67,58.4695,51.3865,52.699,34.216499999999996,58.3525,50.77733333333333,-0.11999999999999988,-0.04850000000000021,0.10494500000000001,0.11073000000000001,0.0,218.41,218.41500000000002,215.04000000000002,215.04000000000002,0.0,0.0
32,0.0,1.0,0.0,1.0,1.0,0.0,0.0,1.0,0.0,100.0,1.0,1.1856,26.0,0.0,0.0,0.0,59.999996,0.0,26.0,26.0,26.0,26.0,0.011749999999999927,0.26870000000000016,-0.05003333333333333,291.168,-2.6765,-2.6965000000000003,-1.63855,-1.5150000000000001,-166.95999999999998,215.7575,190.278625,0.0,0.0,0.0,0.0,0.0648,-5.498166666666667,-5.498166666666667,-0.6064,0.025666666666666667,-0.023333333333333428,0.18900000000000006,69.903,0.017400000000000002,-0.22785000000000002,-0.39999999999999947,100.0,1.0,1.0,215.49666666666667,0.0,0.0,0.0,0.0,0.0,0.0,0.0,9134.1,0.0,55.0,5.0,251.62333333333333,0.0,0.0,0.0,0.0,0.0,0.0,1.0,0.0,1.6080000000000005,1.6080000000000005,0.0,0.0,0.0,55.0,616.79921,10000.0,85.000001,85.000001,85.000001,85.000001,395.0,0.0,0.0,0.0,1.0,166.665,51.331,51.331,46.417,46.417,34.0,-22.13,26.442,-29.68,30.915,0.0,1782.095,-0.5199999999999996,100.0,29.002,29.055,44.263,44.463,0.0,1.0,100.0,0.0,0.0,0.0,0.0,3130.285714285714,3168.5,4236.666666666667,4320.6,305.263,304.774,314.6495,314.298,22.0606,20.6785,22.0671,21.5608,314.999998,314.999998,324.999988,324.999988,99.5583,99.50736666666667,99.56862857142858,99.54841428571429,0.12375000000000025,-0.022333333333333316,-0.09033333333333338,0.13766666666666683,-0.036666666666668846,-0.054999999999999716,1.514,1.523,38.878,30.240666666666666,38.919,35.754999999999995,55.575,35.5935,59.936,53.1425,53.534,34.705,58.5005,51.4415,52.688,34.25,58.381,50.83133333333333,-0.123,-0.04249999999999998,0.104025,0.10951500000000002,0.0,218.79500000000002,218.815,215.49666666666667,215.49666666666667,0.0,0.0
33,0.0,1.0,0.0,1.0,1.0,0.0,0.0,1.0,0.0,100.0,1.0,1.1856,26.0,0.0,0.0,0.0,59.999996,0.0,26.0,26.0,26.0,26.0,0.026874999999999982,0.25670000000000015,-0.050300000000000004,291.382,-2.71975,-2.68425,-1.5862,-1.5976,-163.6,215.7425,190.2535,0.0,0.0,0.0,0.0,0.06676666666666667,-5.498166666666667,-5.498166666666667,-0.6145,-0.33866666666666667,-0.01644444444444426,1.2249999999999996,70.025,0.0234,-0.21660000000000001,-0.4119999999999999,100.0,1.0,1.0,215.8466666666667,0.0,0.0,0.0,0.0,0.0,0.0,0.0,9149.0,0.0,55.0,5.0,252.06333333333333,1.0,0.0,0.0,0.0,0.0,0.0,1.0,0.0,1.6559999999999988,1.6559999999999988,0.0,0.0,1.0,55.0,616.79921,10000.0,85.000001,85.000001,85.000001,85.000001,395.0,0.0,0.0,0.0,1.0,333.33500000000004,51.727000000000004,51.727000000000004,46.616,46.616,34.0,-22.0775,25.584,-28.34,32.34,0.0,1782.046,-0.5150000000000006,100.0,28.83,28.83,44.186,44.422,0.0,1.0,100.0,0.0,0.0,0.0,0.0,3086.0,3102.3,4159.555555555556,4292.1,305.4995,304.99666666666667,314.73675,314.2935,22.0692,20.6838,22.0769,21.569499999999998,314.999998,314.999998,324.999988,324.999988,99.55831428571429,99.50736666666667,99.56878571428571,99.54855714285715,0.12349999999999994,-0.02499999999999991,-0.08716666666666661,0.14066666666666672,-0.04999999999999716,-0.04833333333333201,1.4975,1.474,38.933,30.273333333333333,38.980999999999995,35.8095,55.565,35.628,59.971000000000004,53.2,53.525,34.737,58.533,51.497,52.678,34.2805,58.41,50.885333333333335,-0.127,-0.044500000000000206,0.10939000000000002,0.11126000000000001,0.0,219.175,219.185,215.8466666666667,215.8466666666667,0.0,0.0
34,0.0,1.0,0.0,1.0,1.0,0.0,0.0,1.0,0.0,100.0,1.0,1.1856,26.0,0.0,0.0,0.0,59.999996,0.0,26.0,26.0,26.0,26.0,0.040000000000000036,0.24550000000000005,-0.07423333333333335,291.733,-2.74985,-2.607375,-1.65795,-1.5213,-159.82,215.725,190.223875,0.0,0.0,0.0,0.0,0.06896666666666666,-5.498166666666667,-5.498166666666667,-0.6463,-0.7393333333333334,0.0173333333333332,0.8700000000000001,70.161,0.0313,-0.226,-0.4399999999999995,100.0,1.0,1.0,216.28,0.0,0.0,0.0,0.0,0.0,0.0,0.0,9167.4,0.0,55.0,5.0,252.55666666666667,0.0,0.0,0.0,0.0,0.0,0.0,1.0,0.0,1.7100000000000009,1.7100000000000009,0.0,0.0,0.0,55.0,616.79921,10000.0,85.000001,85.000001,85.000001,85.000001,395.0,0.0,0.0,0.0,1.0,166.665,52.124,52.124,47.073,47.073,34.0,-21.0525,25.445999999999998,-27.566666666666666,31.175,0.0,1781.994,-0.4800000000000004,100.0,28.572,28.55,43.889,44.462,0.0,1.0,100.0,0.0,0.0,0.0,0.0,2931.285714285714,3120.6,4065.6666666666665,4254.1,305.8165,304.914,315.018,314.4075,22.0789,20.6897,22.0878,21.5793,314.999998,314.999998,324.999988,324.999988,99.55832857142858,99.50738333333334,99.56892857142857,99.54871428571428,0.12775000000000025,-0.016666666666666607,-0.0718333333333333,0.14850000000000008,-0.046666666666666856,-0.03499999999999659,1.528,1.503,38.992999999999995,30.310333333333332,39.049,35.871,55.553,35.667,60.007999999999996,53.266,53.513,34.7725,58.567,51.5605,52.665,34.315,58.441,50.94733333333333,-0.11799999999999988,-0.0405000000000002,0.095625,0.10958500000000002,0.0,219.57,219.57999999999998,216.28,216.28,0.0,0.0
35,0.0,1.0,0.0,1.0,1.0,0.0,0.0,1.0,0.0,100.0,1.0,1.1856,26.0,0.0,0.0,0.0,59.999996,0.0,26.0,26.0,26.0,26.0,0.04049999999999998,0.2439,-0.05873333333333334,291.718,-2.72155,-2.61675,-1.6251,-1.5127000000000002,-156.45,215.7125,190.195625,0.0,0.0,0.0,0.0,0.0709,-5.498166666666667,-5.498166666666667,-0.6839000000000001,-0.29133333333333333,-0.002888888888889163,-0.1419999999999999,70.28,0.0369,-0.23185,-0.5259999999999998,100.0,1.0,1.0,216.73333333333335,0.0,0.0,0.0,0.0,0.0,0.0,0.0,9186.6,0.0,55.0,5.0,252.98333333333335,1.0,0.0,0.0,0.0,0.0,0.0,1.0,0.0,1.7579999999999991,1.7579999999999991,0.0,0.0,1.0,55.0,616.79921,10000.0,85.000001,85.000001,85.000001,85.000001,395.0,0.0,0.0,0.0,1.0,166.665,51.498,51.498,46.875,46.875,34.0,-21.8825,28.116,-26.386666666666663,29.225,0.0,1781.946,-0.36499999999999844,100.0,28.416,28.809,43.719,44.007000000000005,0.0,1.0,100.0,0.0,0.0,0.0,0.0,3079.0,3417.0,3981.5555555555557,4006.3,305.503,304.05133333333333,315.151,314.98125,22.0873,20.6951,22.0975,21.5879,314.999998,314.999998,324.999988,324.999988,99.55835714285715,99.50738333333334,99.56907142857143,99.54885714285714,0.12775000000000025,-0.02066666666666661,-0.0708333333333333,0.15700000000000003,-0.02499999999999858,-0.051666666666669414,1.555,1.53,39.046,30.344666666666665,39.11,35.9245,55.54,35.7035,60.0405,53.320499999999996,53.501000000000005,34.807,58.5975,51.613,52.652,34.348,58.468,50.998333333333335,-0.11599999999999988,-0.052999999999999936,0.11417000000000001,0.105895,0.0,219.92000000000002,219.965,216.73333333333335,216.73333333333335,0.0,0.0
