,ABS Active,ABS Enabled,AID Allow Tire Blankets,AID Auto Blip,AID Auto Clutch,AID Auto Shift,AID Fuel Rate,AID Ideal Line,AID Mech Damage,AID Stability,AID Tire Wear Rate,Air Density,Air Temp,Ballast,Best Lap Delta,Best Lap Time,Brake Bias,Brake Pos,Brake Temp FL,Brake Temp FR,Brake Temp RL,Brake Temp RR,CG Accel Lateral,CG Accel Longitudinal,CG Accel Vertical,CG Height,Camber FL,Camber FR,Camber RL,Camber RR,Car Coord X,Car Coord Y,Car Coord Z,Car Damage Front,Car Damage Left,Car Damage Rear,Car Damage Right,Car Pos Norm,Caster FL,Caster FR,Chassis Pitch Angle,Chassis Pitch Rate,Chassis Roll Angle,Chassis Roll Rate,Chassis Velocity X,Chassis Velocity Y,Chassis Velocity Z,Chassis Yaw Rate,Clutch Pos,DRS Active,DRS Available,Drive Train Speed,ERS Heat Charging,ERS Is Charging,ERS Max Energy,ERS Power Level,ERS Recovery Level,Engine Brake Setting,Engine Limiter,Engine RPM,Flags,Fuel Level,Gear,Ground Speed,HR Sample Clock,In Pit,KERS Charge,KERS Deployed Energy,KERS Input,KERS Max Energy,LR Sample Clock,Lap Invalidated,Lap Time,Lap Time2,Last Lap Time,Last Sector Time,MR Sample Clock,Max Fuel,Max Power,Max RPM,Max Sus Travel FL,Max Sus Travel FR,Max Sus Travel RL,Max Sus Travel RR,Max Torque,Max Turbo Boost,Num Tires Off Track,Penalties Enabled,Position,Raw Data Sample Rate,Ride Height FL,Ride Height FR,Ride Height RL,Ride Height RR,Road Temp,Self Align Torque FL,Self Align Torque FR,Self Align Torque RL,Self Align Torque RR,Session Lap Count,Session Time Left,Steering Angle,Surface Grip,Suspension Travel FL,Suspension Travel FR,Suspension Travel RL,Suspension Travel RR,TC Active,TC Enabled,Throttle Pos,Tire Dirt Level FL,Tire Dirt Level FR,Tire Dirt Level RL,Tire Dirt Level RR,Tire Load FL,Tire Load FR,Tire Load RL,Tire Load RR,Tire Loaded Radius FL,Tire Loaded Radius FR,Tire Loaded Radius RL,Tire Loaded Radius RR,Tire Pressure FL,Tire Pressure FR,Tire Pressure RL,Tire Pressure RR,Tire Radius FL,Tire Radius FR,Tire Radius RL,Tire Radius RR,Tire Rubber Grip FL,Tire Rubber Grip FR,Tire Rubber Grip RL,Tire Rubber Grip RR,Tire Slip Angle FL,Tire Slip Angle FR,Tire Slip Angle RL,Tire Slip Angle RR,Tire Slip Ratio FL,Tire Slip Ratio FR,Tire Slip Ratio RL,Tire Slip Ratio RR,Tire Temp Core FL,Tire Temp Core FR,Tire Temp Core RL,Tire Temp Core RR,Tire Temp Inner FL,Tire Temp Inner FR,Tire Temp Inner RL,Tire Temp Inner RR,Tire Temp Middle FL,Tire Temp Middle FR,Tire Temp Middle RL,Tire Temp Middle RR,Tire Temp Outer FL,Tire Temp Outer FR,Tire Temp Outer RL,Tire Temp Outer RR,Toe In FL,Toe In FR,Toe In RL,Toe In RR,Turbo Boost,Wheel Angular Speed FL,Wheel Angular Speed FR,Wheel Angular Speed RL,Wheel Angular Speed RR,Wind Direction,Wind Speed
0,0.0,1.0,0.0,1.0,1.0,0.0,0.0,1.0,0.0,100.0,1.0,1.1856,26.0,0.0,0.0,0.0,59.99999,0.0,26.0,26.0,26.0,26.0,-0.04688888888888887,0.2933000000000001,0.0553,293.64,-2.7216,-2.6291111111111114,-1.53185,-1.5244,-275.78,215.72750000000002,190.98825,0.0,0.0,0.0,0.0,0.0015333333333333334,-5.498166666666667,-5.498166666666667,-0.5526,1.9184999999999999,-0.008222222222222353,-0.040000000000000036,65.501,-0.032,-0.21895,0.21999999999999975,100.0,1.0,1.0,202.23333333333335,0.0,0.0,0.0,0.0,0.0,0.0,0.0,8572.0,0.0,55.0,5.0,235.7733333333333,0.0,0.0,0.0,0.0,0.0,0.0,0.0,0.0,0.0030000000000001137,0.0030000000000001137,0.0,0.0,0.0,55.0,616.79921,10000.0,85.0,85.0,85.0,85.0,395.0,0.0,0.0,0.0,1.0,20.0,51.757999999999996,51.757999999999996,49.271,49.271,34.0,-28.025,29.871666666666666,-28.926666666666666,26.335,0.0,1783.368,0.45500000000000185,100.0,27.207,26.786,40.343,40.048,0.0,1.0,100.0,0.0,0.0,0.0,0.0,3196.5,4091.6000000000004,4055.222222222222,4110.8,304.9625,302.258,314.972,314.62225,21.77188888888889,20.5111,21.7479,21.2811,314.99999,314.99999,324.99998,324.99998,99.55867142857143,99.50716666666666,99.56431428571429,99.54398571428571,0.01175000000000015,-0.09650000000000003,-0.14049999999999996,0.08333333333333326,-0.051666666666669414,-0.060000000000002274,1.5673333333333335,1.555,37.074,29.194,36.924,34.007,56.214,34.442499999999995,58.7645,51.216499999999996,54.138999999999996,33.631,57.409,49.593,53.313,33.21,57.381,49.022666666666666,-0.03949999999999987,-0.10550000000000015,0.10538000000000002,0.10782000000000001,0.0,205.245,205.22500000000002,202.23333333333335,202.23333333333335,0.0,0.0
1,0.0,1.0,0.0,1.0,1.0,0.0,0.0,1.0,0.0,100.0,1.0,1.1856,26.0,0.0,0.0,0.0,59.999996,0.0,26.0,26.0,26.0,26.0,-0.10188888888888892,0.32089999999999996,0.09076666666666666,292.801,-2.6483,-2.713222222222222,-1.5423,-1.3787,-272.24,215.73000000000002,190.967125,0.0,0.0,0.0,0.0,0.0036000000000000003,-5.498166666666667,-5.498166666666667,-0.47950000000000004,-1.553,-0.05522222222222206,-0.04699999999999971,65.668,-0.0327,-0.186225,0.8940000000000001,100.0,1.0,1.0,202.21,0.0,0.0,0.0,0.0,0.0,0.0,0.0,8571.0,0.0,55.0,5.0,236.37333333333333,1.0,0.0,0.0,0.0,0.0,0.0,0.0,0.0,0.05699999999999861,0.05699999999999861,0.0,0.0,1.0,55.0,616.79921,10000.0,85.000001,85.000001,85.000001,85.000001,395.0,0.0,0.0,0.0,1.0,166.665,54.413,54.413,47.821,47.821,34.0,-23.915,16.665,-36.70333333333333,30.8325,0.0,1783.316,0.5949999999999989,100.0,27.368,26.841,42.391999999999996,42.504,0.0,1.0,100.0,0.0,0.0,0.0,0.0,2868.5,2446.9,4663.888888888889,5114.1,306.052,307.0156666666667,313.323,311.85925,21.782222222222224,20.5164,21.7594,21.2909,314.999998,314.999998,324.999988,324.999988,99.55867142857143,99.50718333333333,99.56445714285714,99.54414285714286,0.013250000000000206,-0.11424999999999996,-0.15183333333333338,0.05400000000000005,-0.008333333333325754,-0.01833333333333087,1.306,1.3695,37.138999999999996,29.2275,36.997,34.068,56.196,34.4805,58.8135,51.287,54.122,33.6655,57.455,49.6605,53.296,33.2435,57.4245,49.089,-0.02299999999999991,-0.1200000000000001,0.10516500000000001,0.10576500000000001,0.0,205.72500000000002,205.65,202.21,202.21,0.0,0.0
2,0.0,1.0,0.0,1.0,1.0,0.0,0.0,1.0,0.0,100.0,1.0,1.1856,26.0,0.0,0.0,0.0,59.999996,0.0,26.0,26.0,26.0,26.0,-0.1133333333333334,0.2905,-0.09123333333333335,294.144,-2.6252,-2.676333333333333,-1.5173999999999999,-1.5274,-269.09,215.73000000000002,190.9495,0.0,0.0,0.0,0.0,0.005433333333333333,-5.498166666666667,-5.498166666666667,-0.5731,0.22050000000000003,-0.023666666666666725,2.4830000000000005,65.795,-0.043300000000000005,-0.27145,1.1620000000000008,100.0,1.0,1.0,203.5,0.0,0.0,0.0,0.0,0.0,0.0,0.0,8625.6,0.0,55.0,5.0,236.83333333333331,0.0,0.0,0.0,0.0,0.0,0.0,0.0,0.0,0.10500000000000043,0.10500000000000043,0.0,0.0,0.0,55.0,616.79921,10000.0,85.000001,85.000001,85.000001,85.000001,395.0,0.0,0.0,0.0,1.0,166.665,52.292,52.292,50.964,50.964,34.0,-28.8475,21.244999999999997,-25.233333333333334,18.53,0.0,1783.268,0.625,100.0,28.051000000000002,26.983,41.897,41.412,0.0,1.0,100.0,0.0,0.0,0.0,0.0,3315.75,3115.5,3520.5555555555557,3357.8,304.579,304.887,316.21375,316.55025,21.791666666666668,20.5212,21.7691,21.2988,314.999998,314.999998,324.999988,324.999988,99.55868571428572,99.5072,99.56458571428571,99.54427142857143,0.0007500000000000284,-0.127,-0.1805,0.051833333333333176,-0.061666666666667425,-0.046666666666666856,1.7530000000000001,1.8095,37.198,29.2575,37.057,34.118,56.183,34.518,58.847,51.335499999999996,54.11,33.7,57.4865,49.707499999999996,53.283,33.2765,57.453,49.135333333333335,-0.025499999999999856,-0.12400000000000011,0.10263000000000001,0.11193000000000002,0.0,206.155,206.04000000000002,203.5,203.5,0.0,0.0
3,0.0,1.0,0.0,1.0,1.0,0.0,0.0,1.0,0.0,100.0,1.0,1.1856,26.0,0.0,0.0,0.0,59.999996,0.0,26.0,26.0,26.0,26.0,-0.10077777777777785,0.33210000000000006,0.15123333333333333,293.335,-2.6536,-2.696111111111111,-1.51105,-1.4851,-265.93,215.72750000000002,190.930375,0.0,0.0,0.0,0.0,0.007266666666666668,-5.498166666666667,-5.498166666666667,-0.5046,0.71,-0.0012222222222222356,-0.8730000000000002,65.94200000000001,-0.0587,-0.18655000000000002,0.9199999999999999,100.0,1.0,1.0,203.39,0.0,0.0,0.0,0.0,0.0,0.0,0.0,8620.9,0.0,55.0,5.0,237.36,1.0,0.0,0.0,0.0,0.0,0.0,0.0,0.0,0.1529999999999987,0.1529999999999987,0.0,0.0,1.0,55.0,616.79921,10000.0,85.000001,85.000001,85.000001,85.000001,395.0,0.0,0.0,0.0,1.0,166.665,53.513,53.513,47.928,47.928,34.0,-24.6275,19.945,-34.79666666666667,25.962500000000002,0.0,1783.22,0.6799999999999997,100.0,27.673000000000002,27.115000000000002,41.925,41.564,0.0,1.0,100.0,0.0,0.0,0.0,0.0,2877.5,2938.7,4453.555555555556,4307.7,306.11,305.471,313.9565,314.09475,21.80088888888889,20.5262,21.7789,21.3072,314.999998,314.999998,324.999988,324.999988,99.55868571428572,99.50721666666666,99.56471428571429,99.5444,-0.004750000000000032,-0.12849999999999995,-0.17599999999999993,0.05283333333333329,-0.036666666666668846,-0.06333333333333258,1.4406666666666668,1.485,37.254999999999995,29.2885,37.117999999999995,34.17,56.167,34.5585,58.8845,51.397999999999996,54.095,33.7375,57.521,49.7675,53.266999999999996,33.312,57.485,49.194,-0.02299999999999991,-0.125,0.10938,0.10923000000000001,0.0,206.63,206.565,203.39,203.39,0.0,0.0
4,0.0,1.0,0.0,1.0,1.0,0.0,0.0,1.0,0.0,100.0,1.0,1.1856,26.0,0.0,0.0,0.0,59.999996,0.0,26.0,26.0,26.0,26.0,-0.11322222222222211,0.28900000000000015,-0.006166666666666667,293.579,-2.6844,-2.7663333333333333,-1.4575,-1.6004,-262.56,215.7225,190.910875,0.0,0.0,0.0,0.0,0.009233333333333333,-5.498166666666667,-5.498166666666667,-0.5294,-0.905,-0.05900000000000016,-1.3049999999999997,66.089,-0.06810000000000001,-0.23095000000000002,1.322000000000001,100.0,1.0,1.0,203.96333333333334,0.0,0.0,0.0,0.0,0.0,0.0,0.0,8645.3,0.0,55.0,5.0,237.89,0.0,0.0,0.0,0.0,0.0,0.0,0.0,0.0,0.20400000000000063,0.20400000000000063,0.0,0.0,0.0,55.0,616.79921,10000.0,85.000001,85.000001,85.000001,85.000001,395.0,0.0,0.0,0.0,1.0,166.665,53.314,53.314,48.737,48.737,34.0,-29.165,19.023333333333333,-31.906666666666666,22.7275,0.0,1783.168,0.745000000000001,100.0,27.451,26.849,42.723,41.844,0.0,1.0,100.0,0.0,0.0,0.0,0.0,3242.375,2833.7,4142.444444444444,3841.3,305.1265,305.6773333333333,314.754,315.212,21.810666666666666,20.5312,21.7896,21.3161,314.999998,314.999998,324.999988,324.999988,99.5587,99.50723333333333,99.56487142857142,99.54454285714286,-0.020999999999999908,-0.14874999999999994,-0.20033333333333336,0.02983333333333338,-0.051666666666669414,-0.04333333333332945,1.532,1.571,37.316,29.32,37.185,34.226,56.15,34.5985,58.9285,51.46,54.079,33.7745,57.5625,49.827,53.251000000000005,33.3475,57.5235,49.25233333333333,-0.016999999999999904,-0.13050000000000006,0.10747000000000001,0.11570500000000002,0.0,207.015,206.935,203.96333333333334,203.96333333333334,0.0,0.0
5,0.0,1.0,0.0,1.0,1.0,0.0,0.0,1.0,0.0,100.0,1.0,1.1856,26.0,0.0,0.0,0.0,59.999996,0.0,26.0,26.0,26.0,26.0,-0.1376666666666666,0.30290000000000017,-0.04593333333333333,293.869,-2.6974,-2.7334444444444443,-1.5032,-1.6054,-259.18,215.715,190.891125,0.0,0.0,0.0,0.0,0.0112,-5.498166666666667,-5.498166666666667,-0.541,0.44799999999999995,-0.054888888888888765,0.79,66.23400000000001,-0.0848,-0.224275,1.2599999999999998,100.0,1.0,1.0,204.51333333333332,0.0,0.0,0.0,0.0,0.0,0.0,0.0,8668.5,0.0,55.0,5.0,238.41333333333333,1.0,0.0,0.0,0.0,0.0,0.0,0.0,0.0,0.254999999999999,0.254999999999999,0.0,0.0,1.0,55.0,616.79921,10000.0,85.000001,85.000001,85.000001,85.000001,395.0,0.0,0.0,0.0,1.0,333.33500000000004,53.391,53.391,49.438,49.438,34.0,-27.7275,20.108333333333334,-30.64,23.067500000000003,0.0,1783.117,0.28999999999999915,100.0,27.708,26.604,42.427,41.216,0.0,1.0,100.0,0.0,0.0,0.0,0.0,3112.75,2935.5,3956.777777777778,3931.3,305.269,305.531,315.18575,315.1245,21.820555555555554,20.5364,21.8,21.3248,314.999998,314.999998,324.999988,324.999988,99.5587,99.50723333333333,99.565,99.54467142857143,-0.007749999999999924,-0.13049999999999995,-0.20366666666666666,0.02983333333333338,-0.046666666666666856,-0.06499999999999773,1.6003333333333334,1.6380000000000001,37.378,29.3525,37.25,34.28,56.135999999999996,34.6395,58.9675,51.518,54.065,33.8125,57.599000000000004,49.8825,53.236000000000004,33.3835,57.557,49.306666666666665,-0.04049999999999998,-0.1030000000000002,0.10401500000000001,0.11947500000000001,0.0,207.525,207.4,204.51333333333332,204.51333333333332,0.0,0.0
6,0.0,1.0,0.0,1.0,1.0,0.0,0.0,1.0,0.0,100.0,1.0,1.1856,26.0,0.0,0.0,0.0,59.999996,0.0,26.0,26.0,26.0,26.0,-0.13288888888888895,0.3056000000000001,0.004866666666666667,293.594,-2.6423,-2.797777777777778,-1.5499,-1.5726,-256.0,215.70499999999998,190.871625,0.0,0.0,0.0,0.0,0.013033333333333334,-5.498166666666667,-5.498166666666667,-0.5247,-0.04600000000000004,-0.06388888888888866,0.6379999999999999,66.374,-0.0869,-0.2021,0.8739999999999997,100.0,1.0,1.0,204.78,0.0,0.0,0.0,0.0,0.0,0.0,0.0,8679.9,0.0,55.0,5.0,238.91666666666669,0.0,0.0,0.0,0.0,0.0,0.0,0.0,0.0,0.3030000000000008,0.3030000000000008,0.0,0.0,0.0,55.0,616.79921,10000.0,85.000001,85.000001,85.000001,85.000001,395.0,0.0,0.0,0.0,1.0,333.33500000000004,53.711,53.711,48.538,48.538,34.0,-27.174999999999997,20.026666666666667,-34.71,23.765,0.0,1783.069,0.34499999999999886,100.0,27.498,26.381,42.627,41.351,0.0,1.0,100.0,0.0,0.0,0.0,0.0,3089.75,2881.2,4254.0,4102.1,305.3675,305.70533333333333,314.4175,314.692,21.829777777777778,20.5411,21.81,21.333199999999998,314.999998,314.999998,324.999988,324.999988,99.5587,99.50725,99.56514285714286,99.54481428571428,-0.0129999999999999,-0.13524999999999998,-0.20499999999999996,0.02200000000000002,-0.041666666666671404,-0.060000000000002274,1.5073333333333334,1.547,37.436,29.381999999999998,37.312,34.332,56.120999999999995,34.677,59.0075,51.577,54.05,33.8465,57.635999999999996,49.9385,53.221000000000004,33.4165,57.591499999999996,49.361666666666665,-0.04499999999999993,-0.10150000000000015,0.10445000000000002,0.11063500000000001,0.0,207.935,207.87,204.78,204.78,0.0,0.0
7,0.0,1.0,0.0,1.0,1.0,0.0,0.0,1.0,0.0,100.0,1.0,1.1856,26.0,0.0,0.0,0.0,59.999996,0.0,26.0,26.0,26.0,26.0,-0.08833333333333337,0.2894000000000001,-0.0011333333333333334,293.488,-2.6129,-2.784666666666667,-1.5101,-1.6183,-252.61,215.69,190.851,0.0,0.0,0.0,0.0,0.015000000000000001,-5.498166666666667,-5.498166666666667,-0.5347000000000001,0.03649999999999998,-0.05411111111111122,-0.351,66.519,-0.08310000000000001,-0.21962500000000001,0.7960000000000003,100.0,1.0,1.0,205.2866666666667,0.0,0.0,0.0,0.0,0.0,0.0,0.0,8701.3,0.0,55.0,5.0,239.43666666666667,1.0,0.0,0.0,0.0,0.0,0.0,0.0,0.0,0.3539999999999992,0.3539999999999992,0.0,0.0,1.0,55.0,616.79921,10000.0,85.000001,85.000001,85.000001,85.000001,395.0,0.0,0.0,0.0,1.0,333.33500000000004,53.177,53.177,48.903999999999996,48.903999999999996,34.0,-27.490000000000002,20.549999999999997,-32.20666666666666,23.0,0.0,1783.018,-0.03999999999999915,100.0,27.671,26.829,42.628,41.614000000000004,0.0,1.0,100.0,0.0,0.0,0.0,0.0,3228.25,2865.5,4090.222222222222,3955.0,305.0845,305.5133333333333,314.866,314.9425,21.839666666666666,20.5463,21.8205,21.342,314.999998,314.999998,324.999988,324.999988,99.55871428571429,99.50726666666667,99.56528571428571,99.54495714285714,0.0022500000000000853,-0.12224999999999997,-0.20350000000000001,0.014499999999999957,-0.03499999999999659,-0.04833333333333201,1.5536666666666665,1.5765,37.498000000000005,29.4145,37.378,34.3875,56.105999999999995,34.7175,59.0485,51.638,54.037,33.884,57.674,49.9975,53.206,33.452,57.626999999999995,49.419333333333334,-0.07600000000000007,-0.07500000000000018,0.100135,0.10874500000000001,0.0,208.365,208.31,205.2866666666667,205.2866666666667,0.0,0.0
8,0.0,1.0,0.0,1.0,1.0,0.0,0.0,1.0,0.0,100.0,1.0,1.1856,26.0,0.0,0.0,0.0,59.999996,0.0,26.0,26.0,26.0,26.0,-0.07033333333333336,0.27300000000000013,0.0028333333333333335,293.503,-2.689,-2.719888888888889,-1.492,-1.6108,-249.22,215.6725,190.830375,0.0,0.0,0.0,0.0,0.017,-5.498166666666667,-5.498166666666667,-0.5371,-0.262,-0.03833333333333311,0.6379999999999999,66.664,-0.07060000000000001,-0.219425,0.33200000000000074,100.0,1.0,1.0,205.70333333333332,0.0,0.0,0.0,0.0,0.0,0.0,0.0,8719.0,0.0,55.0,5.0,239.96,0.0,0.0,0.0,0.0,0.0,0.0,0.0,0.0,0.40500000000000114,0.40500000000000114,0.0,0.0,0.0,55.0,616.79921,10000.0,85.000001,85.000001,85.000001,85.000001,395.0,0.0,0.0,0.0,1.0,166.665,53.406,53.406,48.462,48.462,34.0,-24.9725,22.196666666666665,-30.743333333333332,25.7725,0.0,1782.968,-0.16000000000000014,100.0,27.546,26.786,42.792,41.724000000000004,0.0,1.0,100.0,0.0,0.0,0.0,0.0,3010.875,3024.5,4046.6666666666665,4070.7,305.5945,305.25966666666665,314.919,314.72075,21.849444444444444,20.5515,21.831,21.3509,314.999998,314.999998,324.999988,324.999988,99.55871428571429,99.50728333333333,99.56544285714286,99.5451,0.032500000000000195,-0.09424999999999994,-0.18233333333333335,0.054166666666666696,-0.023333333333326323,-0.045000000000001705,1.526,1.5515,37.559,29.447,37.444,34.4435,56.09,34.7575,59.089,51.7,54.021,33.920500000000004,57.712,50.057,53.19,33.487,57.662,49.477333333333334,-0.08799999999999986,-0.06099999999999994,0.10305500000000001,0.10748500000000001,0.0,208.81,208.765,205.70333333333332,205.70333333333332,0.0,0.0
9,0.0,1.0,0.0,1.0,1.0,0.0,0.0,1.0,0.0,100.0,1.0,1.1856,26.0,0.0,0.0,0.0,59.999996,0.0,26.0,26.0,26.0,26.0,-0.05877777777777782,0.2775000000000001,0.0152,293.274,-2.6118,-2.7324444444444445,-1.5417,-1.5655000000000001,-246.01,215.655,190.810625,0.0,0.0,0.0,0.0,0.018833333333333334,-5.498166666666667,-5.498166666666667,-0.536,0.3395,-0.04644444444444451,0.8250000000000002,66.799,-0.0533,-0.2134,0.07200000000000095,100.0,1.0,1.0,206.14666666666668,0.0,0.0,0.0,0.0,0.0,0.0,0.0,8737.8,0.0,55.0,5.0,240.44666666666666,1.0,0.0,0.0,0.0,0.0,0.0,0.0,0.0,0.4529999999999994,0.4529999999999994,0.0,0.0,1.0,55.0,616.79921,10000.0,85.000001,85.000001,85.000001,85.000001,395.0,0.0,0.0,0.0,1.0,333.33500000000004,52.917,52.917,48.798,48.798,34.0,-25.0475,23.141666666666666,-29.80666666666667,26.085,0.0,1782.918,-0.3150000000000013,100.0,27.833,26.934,42.672,41.765,0.0,1.0,100.0,0.0,0.0,0.0,0.0,3166.0,3035.5,4038.6666666666665,4105.7,305.1135,305.2203333333333,314.97125,314.696,21.858666666666664,20.5565,21.8408,21.3593,314.999998,314.999998,324.999988,324.999988,99.55871428571429,99.5073,99.56557142857143,99.54522857142857,0.0495000000000001,-0.07650000000000001,-0.15466666666666662,0.06766666666666676,-0.04833333333333201,-0.04833333333333201,1.5506666666666666,1.5415,37.617000000000004,29.478,37.504999999999995,34.4955,56.077,34.7945,59.126,51.757,54.007999999999996,33.955,57.7465,50.1115,53.176,33.519999999999996,57.6935,49.531,-0.10149999999999992,-0.047499999999999876,0.10389500000000002,0.113475,0.0,209.22500000000002,209.215,206.14666666666668,206.14666666666668,0.0,0.0
10,0.0,1.0,0.0,1.0,1.0,0.0,0.0,1.0,0.0,100.0,1.0,1.1856,26.0,0.0,0.0,0.0,59.999996,0.0,26.0,26.0,26.0,26.0,-0.024333333333333318,0.2966,-0.0015333333333333334,293.152,-2.6773,-2.700555555555556,-1.5105,-1.548,-242.6,215.6375,190.789875,0.0,0.0,0.0,0.0,0.020833333333333336,-5.498166666666667,-5.498166666666667,-0.5253,-0.2865,-0.01922222222222203,0.1980000000000004,66.945,-0.0323,-0.20952500000000002,-0.10999999999999943,100.0,1.0,1.0,206.48000000000002,0.0,0.0,0.0,0.0,0.0,0.0,0.0,8751.9,0.0,55.0,5.0,240.97,0.0,0.0,0.0,0.0,0.0,0.0,1.0,0.0,0.5040000000000013,0.5040000000000013,0.0,0.0,0.0,55.0,616.79921,10000.0,85.000001,85.000001,85.000001,85.000001,395.0,0.0,0.0,0.0,1.0,333.33500000000004,53.36,53.36,48.187,48.187,34.0,-24.235,21.776666666666664,-30.546666666666667,27.2975,0.0,1782.868,-0.34499999999999886,100.0,27.604,27.093,42.763,42.334,0.0,1.0,100.0,0.0,0.0,0.0,0.0,3070.625,2881.9,4209.222222222223,4197.8,305.5935,305.5473333333333,314.5975,314.3685,21.868444444444442,20.5617,21.8513,21.3683,314.999998,314.999998,324.999988,324.999988,99.55871428571429,99.5073,99.56571428571428,99.54537142857143,0.05624999999999991,-0.07424999999999993,-0.14549999999999996,0.07716666666666683,-0.03333333333333144,-0.030000000000001137,1.5193333333333334,1.516,37.678,29.5105,37.571,34.552,56.063,34.832499999999996,59.167500000000004,51.820499999999996,53.995000000000005,33.99,57.785,50.1725,53.162,33.5535,57.729,49.590666666666664,-0.10349999999999993,-0.045500000000000096,0.10347,0.10934,0.0,209.65,209.64,206.48000000000002,206.48000000000002,0.0,0.0
11,0.0,1.0,0.0,1.0,1.0,0.0,0.0,1.0,0.0,100.0,1.0,1.1856,26.0,0.0,0.0,0.0,59.999996,0.0,26.0,26.0,26.0,26.0,-0.01144444444444448,0.27960000000000007,-0.047400000000000005,293.533,-2.6871,-2.693,-1.5685,-1.5202,-239.18,215.615,190.769,0.0,0.0,0.0,0.0,0.022600000000000002,-5.498166666666667,-5.498166666666667,-0.5515,-0.23049999999999993,0.011888888888888838,0.9110000000000005,67.08500000000001,-0.015700000000000002,-0.22667500000000002,-0.31599999999999984,100.0,1.0,1.0,207.07333333333332,0.0,0.0,0.0,0.0,0.0,0.0,0.0,8777.0,0.0,55.0,5.0,241.48000000000002,1.0,0.0,0.0,0.0,0.0,0.0,1.0,0.0,0.5549999999999997,0.5549999999999997,0.0,0.0,1.0,55.0,616.79921,10000.0,85.000001,85.000001,85.000001,85.000001,395.0,0.0,0.0,0.0,1.0,166.665,53.238,53.238,48.95,48.95,34.0,-22.865,24.668333333333333,-26.45,26.650000000000002,0.0,1782.818,-0.47499999999999787,100.0,27.451,27.021,42.525999999999996,42.299,0.0,1.0,100.0,0.0,0.0,0.0,0.0,3003.5,3116.7,3846.5555555555557,4022.1000000000004,305.6315,304.98966666666666,315.4565,314.90675,21.87811111111111,20.567,21.8617,21.377299999999998,314.999998,314.999998,324.999988,324.999988,99.55872857142857,99.50731666666667,99.56584285714285,99.54551428571429,0.08174999999999999,-0.048250000000000015,-0.11566666666666658,0.10683333333333334,-0.03499999999999659,-0.060000000000002274,1.5886666666666667,1.5825,37.738,29.544,37.635,34.608000000000004,56.048,34.8705,59.204,51.8825,53.980999999999995,34.025,57.8195,50.232,53.147,33.587,57.7605,49.648666666666664,-0.11050000000000004,-0.04499999999999993,0.10611000000000001,0.110755,0.0,210.06,210.09,207.07333333333332,207.07333333333332,0.0,0.0
12,0.0,1.0,0.0,1.0,1.0,0.0,0.0,1.0,0.0,100.0,1.0,1.1856,26.0,0.0,0.0,0.0,59.999996,0.0,26.0,26.0,26.0,26.0,0.01855555555555566,0.2856000000000001,0.010633333333333333,293.106,-2.7195,-2.683666666666667,-1.54725,-1.538,-235.76,215.595,190.747125,0.0,0.0,0.0,0.0,0.025466666666666665,-5.498166666666667,-5.498166666666667,-0.5417000000000001,0.38849999999999996,0.007444444444444365,-0.6390000000000002,67.229,-0.0002,-0.2044,-0.29799999999999915,100.0,1.0,1.0,207.41333333333333,0.0,0.0,0.0,0.0,0.0,0.0,0.0,8791.4,0.0,55.0,5.0,241.99333333333334,0.0,0.0,0.0,0.0,0.0,0.0,1.0,0.0,0.6059999999999981,0.6059999999999981,0.0,0.0,0.0,55.0,616.79921,10000.0,85.000001,85.000001,85.000001,85.000001,395.0,0.0,0.0,0.0,1.0,166.665,52.994,52.994,48.187,48.187,34.0,-23.982499999999998,24.613333333333333,-28.713333333333335,28.3775,0.0,1782.768,-0.46999999999999886,100.0,27.343,27.439,42.316,42.386,0.0,1.0,100.0,0.0,0.0,0.0,0.0,3118.25,3059.2,4173.888888888889,4154.1,305.454,304.96433333333334,314.73225,314.5335,21.887777777777778,20.572400000000002,21.872,21.3862,314.999998,314.999998,324.999988,324.999988,99.55874285714286,99.50731666666667,99.566,99.54565714285714,0.08174999999999999,-0.04125000000000001,-0.10916666666666663,0.1096666666666668,-0.041666666666671404,-0.03833333333332689,1.5353333333333334,1.532,37.798,29.578,37.7,34.6635,56.035,34.909,59.242,51.944,53.968,34.0605,57.855000000000004,50.291,53.134,33.621,57.793,49.707,-0.10899999999999999,-0.03849999999999998,0.10269,0.10724500000000001,0.0,210.535,210.565,207.41333333333333,207.41333333333333,0.0,0.0
13,0.0,1.0,0.0,1.0,1.0,0.0,0.0,1.0,0.0,100.0,1.0,1.1856,26.0,0.0,0.0,0.0,59.999996,0.0,26.0,26.0,26.0,26.0,0.03200000000000003,0.28510000000000013,0.027800000000000002,292.77,-2.6952,-2.692555555555556,-1.5787,-1.5444,-232.53,215.5775,190.72675,0.0,0.0,0.0,0.0,0.0267,-5.498166666666667,-5.498166666666667,-0.5367000000000001,-0.20950000000000002,0.009888888888888836,-0.47299999999999986,67.363,0.0111,-0.21100000000000002,-0.3979999999999997,100.0,1.0,1.0,207.75333333333333,0.0,0.0,0.0,0.0,0.0,0.0,0.0,8805.9,0.0,55.0,5.0,242.48000000000002,1.0,0.0,0.0,0.0,0.0,0.0,1.0,0.0,0.6539999999999999,0.6539999999999999,0.0,0.0,1.0,55.0,616.79921,10000.0,85.000001,85.000001,85.000001,85.000001,395.0,0.0,0.0,0.0,1.0,333.33500000000004,52.795,52.795,47.958,47.958,34.0,-23.055,24.85,-29.456666666666663,30.0325,0.0,1782.717,-0.5749999999999993,100.0,27.58,27.61,42.646,42.835,0.0,1.0,100.0,0.0,0.0,0.0,0.0,3141.75,3016.5,4199.555555555556,4237.2,305.3855,305.09433333333334,314.6345,314.28275,21.89677777777778,20.5776,21.8819,21.3948,314.999998,314.999998,324.999988,324.999988,99.55875714285715,99.50731666666667,99.56614285714285,99.5458,0.1027499999999999,-0.027249999999999996,-0.10666666666666658,0.12083333333333335,-0.04999999999999716,-0.03833333333332689,1.499,1.4845,37.855000000000004,29.61,37.762,34.7175,56.022,34.947,59.2825,52.0085,53.956,34.095,57.8925,50.353,53.120999999999995,33.6545,57.8275,49.76766666666666,-0.12250000000000005,-0.033500000000000085,0.11158000000000001,0.10743000000000001,0.0,210.95,210.95499999999998,207.75333333333333,207.75333333333333,0.0,0.0
14,0.0,1.0,0.0,1.0,1.0,0.0,0.0,1.0,0.0,100.0,1.0,1.1856,26.0,0.0,0.0,0.0,59.999996,0.0,26.0,26.0,26.0,26.0,0.04033333333333333,0.28059999999999996,-0.0171,292.984,-2.7061,-2.7039999999999997,-1.57325,-1.5376,-229.09,215.5575,190.705375,0.0,0.0,0.0,0.0,0.02866666666666667,-5.498166666666667,-5.498166666666667,-0.5499,-0.05400000000000005,0.025555555555555554,1.1669999999999998,67.503,0.0194,-0.22642500000000002,-0.46999999999999975,100.0,1.0,1.0,208.27666666666667,0.0,0.0,0.0,0.0,0.0,0.0,0.0,8828.0,0.0,55.0,5.0,242.98333333333335,0.0,0.0,0.0,0.0,0.0,0.0,1.0,0.0,0.7049999999999983,0.7049999999999983,0.0,0.0,0.0,55.0,616.79921,10000.0,85.000001,85.000001,85.000001,85.000001,395.0,0.0,0.0,0.0,1.0,333.33500000000004,52.75,52.75,48.325,48.325,34.0,-21.7,26.576666666666668,-25.823333333333334,30.0075,0.0,1782.666,-0.5300000000000011,100.0,27.72,27.622,42.628,42.812,0.0,1.0,100.0,0.0,0.0,0.0,0.0,2990.0,3151.7,3954.8888888888887,4141.9,305.6515,304.797,315.1735,314.60825,21.906444444444446,20.5831,21.8923,21.4039,314.999998,314.999998,324.999988,324.999988,99.55875714285715,99.50731666666667,99.56628571428571,99.54594285714286,0.11175000000000024,-0.015499999999999958,-0.07999999999999996,0.14516666666666667,-0.02833333333332888,-0.06333333333333258,1.5626666666666666,1.5415,37.915,29.644,37.827,34.774,56.01,34.9845,59.32,52.071,53.945,34.129999999999995,57.9275,50.413,53.108000000000004,33.688,57.8595,49.82633333333334,-0.11499999999999999,-0.035499999999999865,0.10422500000000001,0.10834,0.0,211.36,211.405,208.27666666666667,208.27666666666667,0.0,0.0
15,0.0,1.0,0.0,1.0,1.0,0.0,0.0,1.0,0.0,100.0,1.0,1.1856,26.0,0.0,0.0,0.0,59.999996,0.0,26.0,26.0,26.0,26.0,0.047111111111111104,0.2774000000000001,0.014733333333333334,292.877,-2.7077,-2.6734444444444443,-1.58965,-1.5478,-225.85,215.54000000000002,190.684875,0.0,0.0,0.0,0.0,0.03056666666666667,-5.498166666666667,-5.498166666666667,-0.5425,0.26449999999999996,0.04377777777777769,0.766,67.636,0.025500000000000002,-0.21225000000000002,-0.5800000000000001,100.0,1.0,1.0,208.63666666666666,0.0,0.0,0.0,0.0,0.0,0.0,0.0,8843.3,0.0,55.0,5.0,243.46,1.0,0.0,0.0,0.0,0.0,0.0,1.0,0.0,0.7530000000000001,0.7530000000000001,0.0,0.0,1.0,55.0,616.79921,10000.0,85.000001,85.000001,85.000001,85.000001,395.0,0.0,0.0,0.0,1.0,333.33500000000004,52.78,52.78,48.157,48.157,34.0,-20.9875,26.336666666666666,-26.606666666666666,31.5,0.0,1782.619,-0.4549999999999983,100.0,27.726,27.711,42.46,42.889,0.0,1.0,100.0,0.0,0.0,0.0,0.0,2922.125,3148.3,4015.4444444444443,4276.6,305.857,304.78866666666664,315.04425,314.251,21.915333333333333,20.5883,21.9021,21.412399999999998,314.999998,314.999998,324.999988,324.999988,99.55877142857143,99.50733333333334,99.56641428571429,99.54607142857142,0.11549999999999994,-0.01474999999999993,-0.07950000000000002,0.14516666666666667,-0.051666666666669414,-0.04833333333333201,1.534,1.518,37.971000000000004,29.676499999999997,37.888,34.8275,56.0,35.018,59.3525,52.127,53.935,34.161,57.957499999999996,50.467,53.097,33.7175,57.887,49.879333333333335,-0.11549999999999994,-0.03699999999999992,0.10905500000000001,0.09855000000000001,0.0,211.79500000000002,211.81,208.63666666666666,208.63666666666666,0.0,0.0
16,0.0,1.0,0.0,1.0,1.0,0.0,0.0,1.0,0.0,100.0,1.0,1.1856,26.0,0.0,0.0,0.0,59.999996,0.0,26.0,26.0,26.0,26.0,0.05888888888888899,0.27290000000000014,-0.008333333333333333,292.786,-2.7691,-2.6189999999999998,-1.5645,-1.5477,-222.39,215.5225,190.662875,0.0,0.0,0.0,0.0,0.03256666666666667,-5.498166666666667,-5.498166666666667,-0.5538000000000001,-0.49950000000000006,0.02777777777777768,-1.1639999999999997,67.776,0.031900000000000005,-0.22382500000000002,-0.3379999999999992,100.0,1.0,1.0,209.05666666666667,0.0,0.0,0.0,0.0,0.0,0.0,0.0,8861.2,0.0,55.0,5.0,243.96666666666667,0.0,0.0,0.0,0.0,0.0,0.0,1.0,0.0,0.8039999999999985,0.8039999999999985,0.0,0.0,0.0,55.0,616.79921,10000.0,85.000001,85.000001,85.000001,85.000001,395.0,0.0,0.0,0.0,1.0,333.33500000000004,52.628,52.628,47.882,47.882,34.0,-23.64,25.433333333333334,-26.75,29.97,0.0,1782.568,-0.34999999999999787,100.0,27.353,27.893,42.633,43.139,0.0,1.0,100.0,0.0,0.0,0.0,0.0,3151.125,3133.5,4088.222222222222,4066.4,305.4365,304.734,314.9145,314.655,21.924777777777777,20.5938,21.9126,21.4215,314.999998,314.999998,324.999988,324.999988,99.55878571428572,99.50733333333334,99.56655714285715,99.54621428571429,0.10550000000000015,-0.024249999999999994,-0.0781666666666666,0.14866666666666672,-0.03166666666666629,-0.04333333333332945,1.5276666666666667,1.5175,38.03,29.711,37.954,34.8845,55.986000000000004,35.056,59.391999999999996,52.19,53.921,34.196,57.994,50.5275,53.083,33.751,57.920500000000004,49.939,-0.10399999999999987,-0.052000000000000046,0.10939000000000002,0.11080000000000001,0.0,212.185,212.215,209.05666666666667,209.05666666666667,0.0,0.0
17,0.0,1.0,0.0,1.0,1.0,0.0,0.0,1.0,0.0,100.0,1.0,1.1856,26.0,0.0,0.0,0.0,59.999996,0.0,26.0,26.0,26.0,26.0,0.030444444444444274,0.2865,0.019433333333333334,292.496,-2.7277,-2.6066666666666665,-1.6059999999999999,-1.5112,-218.93,215.5075,190.640625,0.0,0.0,0.0,0.0,0.0346,-5.498166666666667,-5.498166666666667,-0.5506,0.22750000000000004,0.008444444444444255,0.43400000000000016,67.91499999999999,0.0303,-0.212975,-0.3799999999999999,100.0,1.0,1.0,209.46333333333334,0.0,0.0,0.0,0.0,0.0,0.0,0.0,8878.3,0.0,55.0,5.0,244.46333333333334,1.0,0.0,0.0,0.0,0.0,0.0,1.0,0.0,0.8550000000000004,0.8550000000000004,0.0,0.0,1.0,55.0,616.79921,10000.0,85.000001,85.000001,85.000001,85.000001,395.0,0.0,0.0,0.0,1.0,333.33500000000004,52.382999999999996,52.382999999999996,47.729,47.729,34.0,-23.0075,26.151666666666667,-28.193333333333335,30.985,0.0,1782.517,-0.3049999999999997,100.0,27.872,27.878,42.677,42.996,0.0,1.0,100.0,0.0,0.0,0.0,0.0,3107.5,3209.4,4206.555555555556,4241.9,305.3655,304.67966666666666,314.615,314.38625,21.93422222222222,20.5994,21.9229,21.4305,314.999998,314.999998,324.999988,324.999988,99.5588,99.50733333333334,99.5667,99.54635714285715,0.1080000000000001,-0.01649999999999996,-0.0761666666666666,0.15250000000000008,-0.015000000000000568,-0.07166666666666544,1.528,1.522,38.089,29.746000000000002,38.018,34.941,55.974999999999994,35.0945,59.429,52.252,53.91,34.2315,58.0285,50.5875,53.071,33.7855,57.952,49.99733333333333,-0.10199999999999987,-0.05149999999999988,0.11179000000000001,0.10318000000000001,0.0,212.635,212.675,209.46333333333334,209.46333333333334,0.0,0.0
18,0.0,1.0,0.0,1.0,1.0,0.0,0.0,1.0,0.0,100.0,1.0,1.1856,26.0,0.0,0.0,0.0,59.999996,0.0,26.0,26.0,26.0,26.0,0.01722222222222225,0.2754000000000001,0.022033333333333335,292.374,-2.6567,-2.5986666666666665,-1.59925,-1.4746000000000001,-215.67000000000002,215.4925,190.6195,0.0,0.0,0.0,0.0,0.036500000000000005,-5.498166666666667,-5.498166666666667,-0.5591,-0.38549999999999995,0.012444444444444258,0.9430000000000005,68.04599999999999,0.0275,-0.222475,-0.28200000000000003,100.0,1.0,1.0,209.82666666666665,0.0,0.0,0.0,0.0,0.0,0.0,0.0,8893.8,0.0,55.0,5.0,244.93666666666667,0.0,0.0,0.0,0.0,0.0,0.0,1.0,0.0,0.9029999999999987,0.9029999999999987,0.0,0.0,0.0,55.0,616.79921,10000.0,85.000001,85.000001,85.000001,85.000001,395.0,0.0,0.0,0.0,1.0,166.665,52.292,52.292,47.577,47.577,34.0,-22.24,26.56,-28.2,30.88,0.0,1782.47,-0.3099999999999987,100.0,27.811,27.777,42.885,43.146,0.0,1.0,100.0,0.0,0.0,0.0,0.0,3090.875,3311.5,4168.888888888889,4293.2,305.3445,304.427,314.684,314.257,21.94311111111111,20.6045,21.9328,21.4391,314.999998,314.999998,324.999988,324.999988,99.55881428571429,99.50735,99.56682857142857,99.5465,0.10899999999999999,-0.026249999999999996,-0.08216666666666661,0.15000000000000013,-0.03333333333333144,-0.05833333333333002,1.5163333333333333,1.506,38.144999999999996,29.778,38.08,34.9945,55.963,35.129999999999995,59.466,52.3115,53.899,34.2645,58.063,50.6445,53.059,33.8165,57.9835,50.053666666666665,-0.09850000000000003,-0.05600000000000005,0.10787000000000001,0.10681,0.0,213.04000000000002,213.075,209.82666666666665,209.82666666666665,0.0,0.0
19,0.0,1.0,0.0,1.0,1.0,0.0,0.0,1.0,0.0,100.0,1.0,1.1856,26.0,0.0,0.0,0.0,59.999996,0.0,26.0,26.0,26.0,26.0,0.0454444444444444,0.2804,0.05893333333333334,292.114,-2.6635999999999997,-2.6946666666666665,-1.5357,-1.5949,-212.2,215.48000000000002,190.59675,0.0,0.0,0.0,0.0,0.0385,-5.498166666666667,-5.498166666666667,-0.5529000000000001,0.6435,0.018999999999999906,-0.7450000000000001,68.18299999999999,0.0221,-0.216125,-0.2079999999999993,100.0,1.0,1.0,210.25666666666666,0.0,0.0,0.0,0.0,0.0,0.0,0.0,8912.1,0.0,55.0,5.0,245.43,1.0,0.0,0.0,0.0,0.0,0.0,1.0,0.0,0.9540000000000006,0.9540000000000006,0.0,0.0,1.0,55.0,616.79921,10000.0,85.000001,85.000001,85.000001,85.000001,395.0,0.0,0.0,0.0,1.0,166.665,51.91,51.91,47.714,47.714,34.0,-23.375,25.391666666666666,-28.009999999999998,31.72,0.0,1782.419,-0.26500000000000057,100.0,28.175,28.386,42.696,43.311,0.0,1.0,100.0,0.0,0.0,0.0,0.0,3177.0,3109.4,4189.555555555556,4308.8,305.229,304.66433333333333,314.6925,314.037,21.95277777777778,20.6102,21.9431,21.4482,314.999998,314.999998,324.999988,324.999988,99.55882857142858,99.50735,99.56697142857143,99.54665714285714,0.09775,-0.04074999999999995,-0.09250000000000003,0.12549999999999994,-0.04833333333333201,-0.051666666666669414,1.501,1.4985,38.205,29.813499999999998,38.144999999999996,35.051,55.952,35.1695,59.5025,52.374,53.888999999999996,34.301,58.097,50.705,53.047,33.8515,58.0145,50.11266666666667,-0.09999999999999987,-0.05500000000000016,0.10780500000000001,0.10415500000000001,0.0,213.49,213.515,210.25666666666666,210.25666666666666,0.0,0.0
20,0.0,1.0,0.0,1.0,1.0,0.0,0.0,1.0,0.0,100.0,1.0,1.1856,26.0,0.0,0.0,0.0,59.999996,0.0,26.0,26.0,26.0,26.0,0.03055555555555567,0.2572000000000001,0.0007,292.297,-2.7522,-2.654333333333333,-1.54085,-1.5811000000000002,-208.72,215.4675,190.574375,0.0,0.0,0.0,0.0,0.04053333333333333,-5.498166666666667,-5.498166666666667,-0.5528000000000001,-0.8420000000000001,0.01966666666666672,0.5920000000000005,68.322,0.018500000000000003,-0.223275,-0.18599999999999994,100.0,1.0,1.0,210.62666666666667,0.0,0.0,0.0,0.0,0.0,0.0,0.0,8927.7,0.0,55.0,5.0,245.93,0.0,0.0,0.0,0.0,0.0,0.0,0.0,0.0,1.004999999999999,1.004999999999999,0.0,0.0,0.0,55.0,616.79921,10000.0,85.000001,85.000001,85.000001,85.000001,395.0,0.0,0.0,0.0,1.0,166.665,52.551,52.551,47.226,47.226,34.0,-22.7075,25.141666666666666,-27.543333333333333,31.1625,0.0,1782.368,-0.245000000000001,100.0,27.958,27.96,43.39,43.662,0.0,1.0,100.0,0.0,0.0,0.0,0.0,3003.125,3144.6,4118.0,4196.2,305.7085,304.9,314.7315,314.381,21.96211111111111,20.6157,21.9537,21.4574,314.999998,314.999998,324.999988,324.999988,99.55884285714286,99.50735,99.56712857142857,99.5468,0.09850000000000003,-0.03600000000000003,-0.08799999999999997,0.1373333333333333,-0.03333333333333144,-0.046666666666666856,1.4766666666666666,1.474,38.263,29.848,38.211,35.109,55.938,35.207499999999996,59.542500000000004,52.4385,53.875,34.336,58.1345,50.766999999999996,53.033,33.885,58.049,50.17333333333333,-0.09349999999999992,-0.058499999999999996,0.10575000000000001,0.10798,0.0,213.88,213.9,210.62666666666667,210.62666666666667,0.0,0.0
21,0.0,1.0,0.0,1.0,1.0,0.0,0.0,1.0,0.0,100.0,1.0,1.1856,26.0,0.0,0.0,0.0,59.999996,0.0,26.0,26.0,26.0,26.0,0.028444444444444272,0.2734000000000001,-0.042833333333333334,292.587,-2.7268,-2.653777777777778,-1.5876000000000001,-1.5243,-205.23000000000002,215.45499999999998,190.551375,0.0,0.0,0.0,0.0,0.04256666666666667,-5.498166666666667,-5.498166666666667,-0.5740000000000001,0.09550000000000003,0.006111111111110956,-0.7279999999999998,68.456,0.0159,-0.224,-0.1739999999999995,100.0,1.0,1.0,211.21,0.0,0.0,0.0,0.0,0.0,0.0,0.0,8952.4,0.0,55.0,5.0,246.41,1.0,0.0,0.0,0.0,0.0,0.0,0.0,0.0,1.056000000000001,1.056000000000001,0.0,0.0,1.0,55.0,616.79921,10000.0,85.000001,85.000001,85.000001,85.000001,395.0,0.0,0.0,0.0,1.0,166.665,52.322,52.322,48.004,48.004,34.0,-24.455,24.731666666666666,-27.883333333333333,27.655,0.0,1782.317,-0.28500000000000014,100.0,27.88,28.022,42.926,43.334,0.0,1.0,100.0,0.0,0.0,0.0,0.0,3208.875,3100.6,4058.8888888888887,4020.1000000000004,305.242,304.8756666666667,315.0395,314.902,21.971555555555554,20.6212,21.964,21.4664,314.999998,314.999998,324.999988,324.999988,99.55885714285715,99.50736666666667,99.56727142857143,99.54694285714285,0.09074999999999989,-0.04074999999999995,-0.10316666666666663,0.123,-0.041666666666671404,-0.03333333333333144,1.5693333333333332,1.56,38.323,29.8825,38.275,35.165,55.926,35.2455,59.578,52.498,53.864000000000004,34.371,58.167500000000004,50.824,53.019999999999996,33.919,58.0785,50.22966666666667,-0.09899999999999998,-0.052999999999999936,0.10185500000000001,0.10739000000000001,0.0,214.335,214.31,211.21,211.21,0.0,0.0
22,0.0,1.0,0.0,1.0,1.0,0.0,0.0,1.0,0.0,100.0,1.0,1.1856,26.0,0.0,0.0,0.0,59.999996,0.0,26.0,26.0,26.0,26.0,0.015333333333333421,0.27849999999999997,0.0037666666666666664,292.191,-2.7656,-2.6243333333333334,-1.6056,-1.5234,-201.73000000000002,215.4425,190.52775,0.0,0.0,0.0,0.0,0.0446,-5.498166666666667,-5.498166666666667,-0.5573,0.03749999999999998,0.01588888888888884,1.0670000000000002,68.594,0.012100000000000001,-0.20047500000000001,-0.23599999999999977,100.0,1.0,1.0,211.46,0.0,0.0,0.0,0.0,0.0,0.0,0.0,8963.0,0.0,55.0,5.0,246.90666666666667,0.0,0.0,0.0,0.0,0.0,0.0,0.0,0.0,1.1069999999999993,1.1069999999999993,0.0,0.0,0.0,55.0,616.79921,10000.0,85.000001,85.000001,85.000001,85.000001,395.0,0.0,0.0,0.0,1.0,166.665,52.504999999999995,52.504999999999995,47.165,47.165,34.0,-22.925,25.238333333333333,-29.599999999999998,32.1475,0.0,1782.267,-0.379999999999999,100.0,28.046,27.924,43.18,43.32,0.0,1.0,100.0,0.0,0.0,0.0,0.0,3037.375,3179.5,4249.111111111111,4423.9,305.645,304.8516666666667,314.5,313.98075,21.98111111111111,20.6268,21.9744,21.4756,314.999998,314.999998,324.999988,324.999988,99.55887142857142,99.50736666666667,99.56741428571429,99.5471,0.10250000000000004,-0.03374999999999995,-0.09216666666666662,0.1373333333333333,-0.036666666666668846,-0.04333333333332945,1.4916666666666667,1.475,38.382,29.9175,38.34,35.2225,55.914,35.284,59.617,52.561,53.852000000000004,34.407,58.204,50.8845,53.007,33.953,58.112,50.288666666666664,-0.10299999999999998,-0.05549999999999988,0.10323,0.11463500000000001,0.0,214.755,214.76999999999998,211.46,211.46,0.0,0.0
23,0.0,1.0,0.0,1.0,1.0,0.0,0.0,1.0,0.0,100.0,1.0,1.1856,26.0,0.0,0.0,0.0,59.999996,0.0,26.0,26.0,26.0,26.0,0.014888888888888951,0.26750000000000007,-0.017266666666666666,292.038,-2.6695,-2.6768888888888887,-1.64615,-1.4988000000000001,-198.23000000000002,215.43,190.504125,0.0,0.0,0.0,0.0,0.04663333333333333,-5.498166666666667,-5.498166666666667,-0.5730000000000001,-0.20450000000000013,0.011888888888888838,-0.7149999999999999,68.72800000000001,0.0132,-0.224725,-0.21999999999999975,100.0,1.0,1.0,211.94,0.0,0.0,0.0,0.0,0.0,0.0,0.0,8983.3,0.0,55.0,5.0,247.39333333333335,1.0,0.0,0.0,0.0,0.0,0.0,0.0,0.0,1.1580000000000013,1.1580000000000013,0.0,0.0,1.0,55.0,616.79921,10000.0,85.000001,85.000001,85.000001,85.000001,395.0,0.0,0.0,0.0,1.0,166.665,51.941,51.941,47.546,47.546,34.0,-23.73,25.25,-29.89666666666667,28.5925,0.0,1782.215,-0.375,100.0,28.173000000000002,28.27,43.252,43.671,0.0,1.0,100.0,0.0,0.0,0.0,0.0,3244.875,3087.0,4209.666666666667,4153.0,305.0135,304.83,314.719,314.5665,21.990555555555556,20.6324,21.9849,21.4848,314.999998,314.999998,324.999988,324.999988,99.55887142857142,99.50736666666667,99.56757142857143,99.54722857142858,0.10499999999999998,-0.03300000000000003,-0.09916666666666663,0.123,-0.041666666666671404,-0.051666666666669414,1.528,1.5265,38.441,29.9525,38.406,35.28,55.902,35.323,59.6555,52.6235,53.841,34.443,58.2395,50.945,52.995000000000005,33.9875,58.1445,50.348,-0.11450000000000005,-0.04200000000000026,0.10691,0.112375,0.0,215.155,215.16500000000002,211.94,211.94,0.0,0.0
24,0.0,1.0,0.0,1.0,1.0,0.0,0.0,1.0,0.0,100.0,1.0,1.1856,26.0,0.0,0.0,0.0,59.999996,0.0,26.0,26.0,26.0,26.0,0.014333333333333309,0.26060000000000016,-0.049300000000000004,292.374,-2.6898,-2.663666666666667,-1.5513,-1.5333999999999999,-195.13,215.4225,190.483,0.0,0.0,0.0,0.0,0.048433333333333335,-5.498166666666667,-5.498166666666667,-0.5832,-0.347,0.021444444444444377,1.1710000000000003,68.84700000000001,0.016300000000000002,-0.221725,-0.3260000000000005,100.0,1.0,1.0,212.29666666666668,0.0,0.0,0.0,0.0,0.0,0.0,0.0,8998.5,0.0,55.0,5.0,247.82,0.0,0.0,0.0,0.0,0.0,0.0,0.0,0.0,1.2029999999999994,1.2029999999999994,0.0,0.0,0.0,55.0,616.79921,10000.0,85.000001,85.000001,85.000001,85.000001,395.0,0.0,0.0,0.0,1.0,333.33500000000004,52.658,52.658,47.318,47.318,34.0,-21.4575,24.8,-27.703333333333333,30.29,0.0,1782.168,-0.375,100.0,28.144,27.915,43.302,43.543,0.0,1.0,100.0,0.0,0.0,0.0,0.0,2948.625,3087.2,4183.666666666667,4189.7,305.8,305.082,314.607,314.53,21.99877777777778,20.6373,21.994,21.4928,314.999998,314.999998,324.999988,324.999988,99.55888571428571,99.50738333333334,99.5677,99.54737142857142,0.10650000000000004,-0.033499999999999974,-0.08233333333333337,0.13949999999999996,-0.03499999999999659,-0.045000000000001705,1.526,1.4985,38.492999999999995,29.983,38.463,35.3305,55.891,35.356,59.6885,52.6775,53.83,34.473,58.269999999999996,50.997,52.983999999999995,34.016999999999996,58.172,50.399,-0.10549999999999993,-0.051000000000000156,0.103285,0.10902500000000001,0.0,215.525,215.54000000000002,212.29666666666668,212.29666666666668,0.0,0.0
25,0.0,1.0,0.0,1.0,1.0,0.0,0.0,1.0,0.0,100.0,1.0,1.1856,26.0,0.0,0.0,0.0,59.999996,0.0,26.0,26.0,26.0,26.0,0.03633333333333333,0.26900000000000013,-0.0114,292.175,-2.7548,-2.6385555555555555,-1.5997,-1.5447000000000002,-191.41,215.4125,190.45625,0.0,0.0,0.0,0.0,0.0506,-5.498166666666667,-5.498166666666667,-0.6019,0.08150000000000002,0.03133333333333321,0.2999999999999998,68.988,0.016800000000000002,-0.218775,-0.33200000000000074,100.0,1.0,1.0,212.7866666666667,0.0,0.0,0.0,0.0,0.0,0.0,0.0,9019.3,0.0,55.0,5.0,248.32999999999998,1.0,0.0,0.0,0.0,0.0,0.0,0.0,0.0,1.256999999999998,1.256999999999998,0.0,0.0,1.0,55.0,616.79921,10000.0,85.000001,85.000001,85.000001,85.000001,395.0,0.0,0.0,0.0,1.0,166.665,51.788,51.788,47.775,47.775,34.0,-24.1175,27.8,-26.973333333333333,30.195,0.0,1782.116,-0.41999999999999815,100.0,28.028,28.133,43.043,43.375,0.0,1.0,100.0,0.0,0.0,0.0,0.0,3226.125,3360.6,4014.8888888888887,4171.8,305.088,304.218,315.1315,314.552,22.008777777777777,20.6433,22.0049,21.5025,314.999998,314.999998,324.999988,324.999988,99.5589,99.50738333333334,99.56784285714286,99.54752857142857,0.11100000000000021,-0.019499999999999962,-0.08566666666666656,0.13983333333333325,-0.04999999999999716,-0.04833333333333201,1.5403333333333333,1.534,38.555,30.0205,38.531,35.3905,55.876999999999995,35.397,59.7265,52.742,53.817,34.510999999999996,58.3055,51.0585,52.969,34.053,58.204,50.45933333333333,-0.11499999999999999,-0.040999999999999925,0.10685000000000001,0.10598500000000001,0.0,215.97,215.98000000000002,212.7866666666667,212.7866666666667,0.0,0.0
26,0.0,1.0,0.0,1.0,1.0,0.0,0.0,1.0,0.0,100.0,1.0,1.1856,26.0,0.0,0.0,0.0,59.999996,0.0,26.0,26.0,26.0,26.0,0.023111111111111082,0.2902,0.07343333333333334,291.412,-2.6855,-2.7224444444444442,-1.5594999999999999,-1.5335,-188.1,215.4025,190.43225,0.0,0.0,0.0,0.0,0.052500000000000005,-5.498166666666667,-5.498166666666667,-0.5742,0.473,0.017444444444444374,0.6630000000000003,69.116,0.0227,-0.200075,-0.47999999999999954,100.0,1.0,1.0,212.9766666666667,0.0,0.0,0.0,0.0,0.0,0.0,0.0,9027.3,0.0,55.0,5.0,248.79000000000002,0.0,0.0,0.0,0.0,0.0,0.0,0.0,0.0,1.3049999999999997,1.3049999999999997,0.0,0.0,0.0,55.0,616.79921,10000.0,85.000001,85.000001,85.000001,85.000001,395.0,0.0,0.0,0.0,1.0,166.665,51.727000000000004,51.727000000000004,46.57,46.57,34.0,-22.5325,26.155,-30.07,33.650000000000006,0.0,1782.069,-0.35999999999999943,100.0,28.724,28.553,43.458,43.728,0.0,1.0,100.0,0.0,0.0,0.0,0.0,3111.375,3132.5,4430.777777777777,4524.6,305.325,304.8523333333333,314.029,313.72275,22.017666666666667,20.648699999999998,22.0148,21.5112,314.999998,314.999998,324.999988,324.999988,99.55892857142857,99.50738333333334,99.56798571428571,99.54767142857143,0.11249999999999982,-0.02674999999999994,-0.08150000000000002,0.14166666666666683,-0.051666666666669414,-0.060000000000002274,1.458,1.441,38.611000000000004,30.054499999999997,38.592,35.445,55.867999999999995,35.435,59.7635,52.802,53.808,34.546,58.34,51.1165,52.96,34.0865,58.2355,50.516,-0.11099999999999999,-0.052000000000000046,0.116095,0.099095,0.0,216.38,216.41,212.9766666666667,212.9766666666667,0.0,0.0
27,0.0,1.0,0.0,1.0,1.0,0.0,0.0,1.0,0.0,100.0,1.0,1.1856,26.0,0.0,0.0,0.0,59.999996,0.0,26.0,26.0,26.0,26.0,0.040999999999999925,0.25250000000000017,-0.04336666666666667,291.855,-2.7579,-2.655111111111111,-1.6169,-1.6068,-184.78,215.39499999999998,190.409125,0.0,0.0,0.0,0.0,0.05443333333333334,-5.498166666666667,-5.498166666666667,-0.5937,-0.8895,0.024222222222222145,0.8970000000000002,69.24000000000001,0.0281,-0.23570000000000002,-0.41600000000000037,100.0,1.0,1.0,213.46333333333334,0.0,0.0,0.0,0.0,0.0,0.0,0.0,9048.0,0.0,55.0,5.0,249.24,1.0,0.0,0.0,0.0,0.0,0.0,0.0,0.0,1.352999999999998,1.352999999999998,0.0,0.0,1.0,55.0,616.79921,10000.0,85.000001,85.000001,85.000001,85.000001,395.0,0.0,0.0,0.0,1.0,166.665,52.016999999999996,52.016999999999996,46.707,46.707,34.0,-22.3925,26.273333333333333,-27.596666666666664,31.09,0.0,1782.02,-0.3150000000000013,100.0,28.424,28.459,43.929,44.14,0.0,1.0,100.0,0.0,0.0,0.0,0.0,3006.0,3238.1,4117.555555555556,4102.1,305.7305,304.601,314.82775,314.66175,22.026555555555554,20.654,22.0247,21.52,314.999998,314.999998,324.999988,324.999988,99.55892857142857,99.5074,99.56812857142857,99.5478,0.1080000000000001,-0.03125,-0.07266666666666666,0.14716666666666667,-0.046666666666666856,-0.060000000000002274,1.5103333333333333,1.488,38.666,30.0875,38.655,35.5,55.857,35.471000000000004,59.801,52.8615,53.797,34.579499999999996,58.375,51.173500000000004,52.948,34.1185,58.2675,50.572,-0.10549999999999993,-0.05650000000000022,0.10731500000000001,0.10527500000000001,0.0,216.715,216.76,213.46333333333334,213.46333333333334,0.0,0.0
28,0.0,1.0,0.0,1.0,1.0,0.0,0.0,1.0,0.0,100.0,1.0,1.1856,26.0,0.0,0.0,0.0,59.999996,0.0,26.0,26.0,26.0,26.0,0.06533333333333324,0.27659999999999996,-0.07223333333333334,292.007,-2.698,-2.639555555555556,-1.6372,-1.5553,-181.24,215.3875,190.38375,0.0,0.0,0.0,0.0,0.0565,-5.498166666666667,-5.498166666666667,-0.6037,0.517,0.014777777777777779,-0.9399999999999995,69.37,0.0287,-0.22075,-0.3039999999999994,100.0,1.0,1.0,213.9766666666667,0.0,0.0,0.0,0.0,0.0,0.0,0.0,9069.7,0.0,55.0,5.0,249.70333333333335,0.0,0.0,0.0,0.0,0.0,0.0,0.0,0.0,1.404,1.404,0.0,0.0,0.0,55.0,616.79921,10000.0,85.000001,85.000001,85.000001,85.000001,395.0,0.0,0.0,0.0,1.0,333.33500000000004,51.849000000000004,51.849000000000004,47.531,47.531,34.0,-22.8525,25.631666666666668,-27.413333333333334,29.81,0.0,1781.968,-0.39000000000000057,100.0,28.369,28.682000000000002,43.295,43.863,0.0,1.0,100.0,0.0,0.0,0.0,0.0,3167.5,3120.5,4079.6666666666665,4097.5,305.3255,304.76,315.06175,314.7115,22.035888888888888,20.6598,22.0349,21.529,314.999998,314.999998,324.999988,324.999988,99.55895714285714,99.5074,99.56827142857144,99.54795714285714,0.11450000000000005,-0.02300000000000002,-0.07699999999999996,0.14316666666666666,-0.05833333333333002,-0.054999999999999716,1.5543333333333333,1.5575,38.724000000000004,30.1235,38.718,35.5565,55.846000000000004,35.5105,59.835,52.921,53.786,34.616,58.4065,51.231,52.936,34.1535,58.296,50.62833333333333,-0.11299999999999999,-0.047499999999999876,0.09935000000000001,0.10491500000000001,0.0,217.18,217.175,213.9766666666667,213.9766666666667,0.0,0.0
29,0.0,1.0,0.0,1.0,1.0,0.0,0.0,1.0,0.0,100.0,1.0,1.1856,26.0,0.0,0.0,0.0,59.999996,0.0,26.0,26.0,26.0,26.0,0.059555555555555584,0.26900000000000013,-0.015133333333333335,291.855,-2.7655,-2.706666666666667,-1.57695,-1.5421,-177.49,215.3825,190.35575,0.0,0.0,0.0,0.0,0.058666666666666666,-5.498166666666667,-5.498166666666667,-0.6042000000000001,-0.6839999999999999,0.007222222222222241,-0.8680000000000003,69.512,0.026600000000000002,-0.21407500000000002,-0.34999999999999964,100.0,1.0,1.0,214.23333333333335,0.0,0.0,0.0,0.0,0.0,0.0,0.0,9080.6,0.0,55.0,5.0,250.21666666666667,1.0,0.0,0.0,0.0,0.0,0.0,0.0,0.0,1.4579999999999984,1.4579999999999984,0.0,0.0,1.0,55.0,616.79921,10000.0,85.000001,85.000001,85.000001,85.000001,395.0,0.0,0.0,0.0,1.0,166.665,52.353,52.353,46.844,46.844,34.0,-23.695,25.178333333333335,-28.61,31.04,0.0,1781.915,-0.48999999999999844,100.0,28.027,28.455,43.687,44.165,0.0,1.0,100.0,0.0,0.0,0.0,0.0,3179.125,3007.4,4204.111111111111,4271.3,305.5595,305.07433333333336,314.64675,314.21825,22.045666666666666,20.6657,22.0461,21.538899999999998,314.999998,314.999998,324.999988,324.999988,99.55895714285714,99.5074,99.56842857142857,99.54811428571429,0.10499999999999998,-0.023249999999999993,-0.08783333333333332,0.13250000000000006,-0.051666666666669414,-0.03499999999999659,1.49,1.4825,38.785,30.1605,38.788,35.618,55.832,35.55,59.8765,52.988,53.774,34.6525,58.445499999999996,51.295500000000004,52.922,34.1885,58.3315,50.69133333333333,-0.11699999999999999,-0.04200000000000026,0.10672000000000001,0.09898000000000001,0.0,217.59,217.595,214.23333333333335,214.23333333333335,0.0,0.0
30,0.0,1.0,0.0,1.0,1.0,0.0,0.0,1.0,0.0,100.0,1.0,1.1856,26.0,0.0,0.0,0.0,59.999996,0.0,26.0,26.0,26.0,26.0,0.06322222222222229,0.24570000000000003,0.035,291.26,-2.64,-2.718111111111111,-1.6452,-1.5944,-174.36,215.3775,190.3325,0.0,0.0,0.0,0.0,0.060500000000000005,-5.498166666666667,-5.498166666666667,-0.6095,0.635,0.010555555555555651,0.6820000000000004,69.625,0.028800000000000003,-0.221,-0.5220000000000002,100.0,1.0,1.0,214.71666666666667,0.0,0.0,0.0,0.0,0.0,0.0,0.0,9101.0,0.0,55.0,5.0,250.62333333333333,0.0,0.0,0.0,0.0,0.0,0.0,1.0,0.0,1.5030000000000001,1.5030000000000001,0.0,0.0,0.0,55.0,616.79921,10000.0,85.000001,85.000001,85.000001,85.000001,395.0,0.0,0.0,0.0,1.0,166.665,50.491,50.491,47.394,47.394,34.0,-23.8125,30.06833333333333,-27.226666666666663,31.1325,0.0,1781.87,-0.46999999999999886,100.0,29.057,28.933,43.525,44.001000000000005,0.0,1.0,100.0,0.0,0.0,0.0,0.0,3372.625,3491.8,4074.6666666666665,4124.5,304.6215,303.84233333333333,315.12275,314.6385,22.054,20.6709,22.0552,21.547,314.999998,314.999998,324.999988,324.999988,99.55898571428571,99.5074,99.56855714285714,99.54824285714285,0.12049999999999983,-0.015000000000000013,-0.0711666666666666,0.14916666666666667,-0.036666666666668846,-0.07666666666666799,1.5306666666666666,1.5050000000000001,38.838,30.1935,38.845,35.6685,55.825,35.586,59.9075,53.0415,53.766999999999996,34.686,58.474000000000004,51.347,52.914,34.2205,58.3575,50.74166666666667,-0.11799999999999988,-0.04499999999999993,0.10334000000000002,0.106285,0.0,217.94,217.995,214.71666666666667,214.71666666666667,0.0,0.0
31,0.0,1.0,0.0,1.0,1.0,0.0,0.0,1.0,0.0,100.0,1.0,1.1856,26.0,0.0,0.0,0.0,59.999996,0.0,26.0,26.0,26.0,26.0,0.04266666666666685,0.2623,0.06380000000000001,290.71,-2.7833,-2.6135555555555556,-1.6527,-1.5321,-170.81,215.375,190.3065,0.0,0.0,0.0,0.0,0.06256666666666666,-5.498166666666667,-5.498166666666667,-0.5865,-0.29400000000000004,0.021666666666666723,-0.6399999999999997,69.758,0.0318,-0.21725,-0.39200000000000035,100.0,1.0,1.0,214.89,0.0,0.0,0.0,0.0,0.0,0.0,0.0,9108.3,0.0,55.0,5.0,251.10333333333335,1.0,0.0,0.0,0.0,0.0,0.0,1.0,0.0,1.5539999999999985,1.5539999999999985,0.0,0.0,1.0,55.0,616.79921,10000.0,85.000001,85.000001,85.000001,85.000001,395.0,0.0,0.0,0.0,1.0,333.33500000000004,51.178,51.178,45.516999999999996,45.516999999999996,34.0,-23.5975,26.648333333333333,-31.936666666666667,32.89,0.0,1781.817,-0.5,100.0,28.828,29.253,44.165,44.793,0.0,1.0,100.0,0.0,0.0,0.0,0.0,3201.75,3270.4,4445.444444444444,4460.5,305.3465,304.39933333333335,314.03825,313.6875,22.063333333333333,20.6768,22.0658,21.5564,314.999998,314.999998,324.999988,324.999988,99.559,99.5074,99.56871428571428,99.5484,0.11975000000000025,-0.024249999999999994,-0.08499999999999996,0.1313333333333333,-0.03999999999999915,-0.045000000000001705,1.4263333333333335,1.4225,38.896,30.23,38.911,35.728,55.815,35.626,59.948499999999996,53.107,53.757,34.723,58.5125,51.41,52.903,34.256,58.391999999999996,50.803333333333335,-0.123,-0.04499999999999993,0.11175000000000002,0.10552500000000001,0.0,218.35000000000002,218.365,214.89,214.89,0.0,0.0
32,0.0,1.0,0.0,1.0,1.0,0.0,0.0,1.0,0.0,100.0,1.0,1.1856,26.0,0.0,0.0,0.0,59.999996,0.0,26.0,26.0,26.0,26.0,0.04922222222222228,0.26370000000000005,-0.0449,291.29,-2.7038,-2.6753333333333336,-1.59455,-1.5422,-167.25,215.3725,190.281125,0.0,0.0,0.0,0.0,0.06463333333333333,-5.498166666666667,-5.498166666666667,-0.6057,-0.28,0.004111111111110954,0.32399999999999984,69.886,0.034,-0.23367500000000002,-0.5679999999999996,100.0,1.0,1.0,215.43666666666667,0.0,0.0,0.0,0.0,0.0,0.0,0.0,9131.6,0.0,55.0,5.0,251.56333333333333,0.0,0.0,0.0,0.0,0.0,0.0,1.0,0.0,1.6050000000000004,1.6050000000000004,0.0,0.0,0.0,55.0,616.79921,10000.0,85.000001,85.000001,85.000001,85.000001,395.0,0.0,0.0,0.0,1.0,166.665,51.513999999999996,51.513999999999996,46.509,46.509,34.0,-21.224999999999998,27.065,-26.669999999999998,32.8425,0.0,1781.768,-0.5,100.0,28.838,29.012999999999998,44.175,44.606,0.0,1.0,100.0,0.0,0.0,0.0,0.0,3061.125,3198.7,4107.444444444444,4317.2,305.493,304.69866666666667,314.821,314.284,22.072555555555557,20.6826,22.0762,21.5657,314.999998,314.999998,324.999988,324.999988,99.559,99.50741666666667,99.56885714285714,99.54854285714286,0.137,-0.009499999999999953,-0.06266666666666665,0.1645000000000001,-0.045000000000001705,-0.036666666666668846,1.5333333333333334,1.5005,38.954,30.266,38.976,35.786,55.805,35.6655,59.985,53.1685,53.747,34.7595,58.546,51.4695,52.891999999999996,34.291,58.4225,50.861000000000004,-0.1259999999999999,-0.04200000000000026,0.10215,0.10727500000000001,0.0,218.74,218.745,215.43666666666667,215.43666666666667,0.0,0.0
33,0.0,1.0,0.0,1.0,1.0,0.0,0.0,1.0,0.0,100.0,1.0,1.1856,26.0,0.0,0.0,0.0,59.999996,0.0,26.0,26.0,26.0,26.0,0.05177777777777792,0.25649999999999995,-0.07276666666666666,291.626,-2.7331,-2.69,-1.5969,-1.5807,-163.89,215.3725,190.256125,0.0,0.0,0.0,0.0,0.0666,-5.498166666666667,-5.498166666666667,-0.6146,-0.17500000000000004,-0.00011111111111095084,0.968,70.007,0.0349,-0.21832500000000002,-0.49799999999999933,100.0,1.0,1.0,215.84,0.0,0.0,0.0,0.0,0.0,0.0,0.0,9148.7,0.0,55.0,5.0,251.99666666666667,1.0,0.0,0.0,0.0,0.0,0.0,1.0,0.0,1.6529999999999987,1.6529999999999987,0.0,0.0,1.0,55.0,616.79921,10000.0,85.000001,85.000001,85.000001,85.000001,395.0,0.0,0.0,0.0,1.0,166.665,51.894999999999996,51.894999999999996,46.921,46.921,34.0,-21.6925,26.551666666666666,-27.136666666666663,31.7825,0.0,1781.72,-0.509999999999998,100.0,28.65,28.693,43.923,44.351,0.0,1.0,100.0,0.0,0.0,0.0,0.0,3054.0,3136.2,4096.444444444444,4208.6,305.592,304.891,314.9045,314.50725,22.081222222222223,20.6879,22.0859,21.5744,314.999998,314.999998,324.999988,324.999988,99.55902857142857,99.50741666666667,99.569,99.54868571428571,0.12924999999999986,-0.010499999999999954,-0.07266666666666666,0.15266666666666673,-0.036666666666668846,-0.054999999999999716,1.5136666666666665,1.5110000000000001,39.007999999999996,30.299500000000002,39.037,35.8395,55.794,35.7005,60.0185,53.225,53.736999999999995,34.792,58.5775,51.5235,52.881,34.322,58.4505,50.914,-0.12199999999999989,-0.04200000000000026,0.10091000000000001,0.10752,0.0,219.11,219.14499999999998,215.84,215.84,0.0,0.0
34,0.0,1.0,0.0,1.0,1.0,0.0,0.0,1.0,0.0,100.0,1.0,1.1856,26.0,0.0,0.0,0.0,59.999996,0.0,26.0,26.0,26.0,26.0,0.07077777777777783,0.25340000000000007,-0.06043333333333334,291.87,-2.6776999999999997,-2.667888888888889,-1.6312,-1.5630000000000002,-160.32,215.3725,190.22825,0.0,0.0,0.0,0.0,0.06866666666666667,-5.498166666666667,-5.498166666666667,-0.6382,-0.847,0.01866666666666661,-0.30400000000000027,70.136,0.0368,-0.21987500000000001,-0.4479999999999995,100.0,1.0,1.0,216.19666666666666,0.0,0.0,0.0,0.0,0.0,0.0,0.0,9163.8,0.0,55.0,5.0,252.46333333333334,0.0,0.0,0.0,0.0,0.0,0.0,1.0,0.0,1.7040000000000006,1.7040000000000006,0.0,0.0,0.0,55.0,616.79921,10000.0,85.000001,85.000001,85.000001,85.000001,395.0,0.0,0.0,0.0,1.0,333.33500000000004,52.429,52.429,47.058,47.058,34.0,-21.19,24.723333333333333,-28.076666666666664,31.275000000000002,0.0,1781.668,-0.48499999999999943,100.0,28.161,28.467,43.724000000000004,44.497,0.0,1.0,100.0,0.0,0.0,0.0,0.0,3037.125,2977.9,4153.777777777777,4175.3,305.7105,305.176,314.83675,314.4865,22.090333333333334,20.6935,22.0963,21.5836,314.999998,314.999998,324.999988,324.999988,99.55904285714286,99.50743333333334,99.56914285714285,99.54884285714286,0.12424999999999997,-0.019499999999999962,-0.07350000000000001,0.14933333333333332,-0.054999999999999716,-0.04999999999999716,1.504,1.5,39.065,30.3345,39.102000000000004,35.897999999999996,55.782,35.737,60.0545,53.287,53.724999999999994,34.8255,58.6105,51.5835,52.867999999999995,34.3545,58.4805,50.97233333333333,-0.12050000000000005,-0.04150000000000009,0.105745,0.11424500000000001,0.0,219.505,219.515,216.19666666666666,216.19666666666666,0.0,0.0
35,0.0,1.0,0.0,1.0,1.0,0.0,0.0,1.0,0.0,100.0,1.0,1.1856,26.0,0.0,0.0,0.0,59.999996,0.0,26.0,26.0,26.0,26.0,0.052000000000000046,0.24970000000000003,-0.10063333333333334,291.885,-2.8095,-2.6486666666666667,-1.546,-1.5732,-156.74,215.375,190.1985,0.0,0.0,0.0,0.0,0.07073333333333334,-5.498166666666667,-5.498166666666667,-0.6773,-0.19999999999999996,0.006666666666666599,-0.052999999999999936,70.262,0.0396,-0.22637500000000002,-0.5,100.0,1.0,1.0,216.68333333333334,0.0,0.0,0.0,0.0,0.0,0.0,0.0,9184.4,0.0,55.0,5.0,252.92000000000002,1.0,0.0,0.0,0.0,0.0,0.0,1.0,0.0,1.754999999999999,1.754999999999999,0.0,0.0,1.0,55.0,616.79921,10000.0,85.000001,85.000001,85.000001,85.000001,395.0,0.0,0.0,0.0,1.0,333.33500000000004,51.772999999999996,51.772999999999996,46.951,46.951,34.0,-22.9775,28.291666666666668,-24.89,30.39,0.0,1781.616,-0.3200000000000003,100.0,28.149,28.65,43.534,43.967,0.0,1.0,100.0,0.0,0.0,0.0,0.0,3072.25,3387.4,4042.777777777778,4025.5,305.5195,304.14366666666666,315.103,315.0255,22.099333333333334,20.6994,22.1066,21.5927,314.999998,314.999998,324.999988,324.999988,99.55905714285714,99.50743333333334,99.56928571428571,99.54898571428572,0.12024999999999997,-0.01749999999999996,-0.05733333333333335,0.1661666666666668,-0.04833333333333201,-0.045000000000001705,1.5826666666666667,1.5525,39.120999999999995,30.371000000000002,39.166,35.954499999999996,55.769,35.775999999999996,60.088499999999996,53.345,53.712,34.8615,58.6425,51.638999999999996,52.854,34.388999999999996,58.509,51.027,-0.10499999999999998,-0.05449999999999999,0.10443500000000001,0.10978,0.0,219.89,219.91,216.68333333333334,216.68333333333334,0.0,0.0
