,ABS Active,ABS Enabled,AID Allow Tire Blankets,AID Auto Blip,AID Auto Clutch,AID Auto Shift,AID Fuel Rate,AID Ideal Line,AID Mech Damage,AID Stability,AID Tire Wear Rate,Air Density,Air Temp,Ballast,Best Lap Delta,Best Lap Time,Brake Bias,Brake Pos,Brake Temp FL,Brake Temp FR,Brake Temp RL,Brake Temp RR,CG Accel Lateral,CG Accel Longitudinal,CG Accel Vertical,CG Height,Camber FL,Camber FR,Camber RL,Camber RR,Car Coord X,Car Coord Y,Car Coord Z,Car Damage Front,Car Damage Left,Car Damage Rear,Car Damage Right,Car Pos Norm,Caster FL,Caster FR,Chassis Pitch Angle,Chassis Pitch Rate,Chassis Roll Angle,Chassis Roll Rate,Chassis Velocity X,Chassis Velocity Y,Chassis Velocity Z,Chassis Yaw Rate,Clutch Pos,DRS Active,DRS Available,Drive Train Speed,ERS Heat Charging,ERS Is Charging,ERS Max Energy,ERS Power Level,ERS Recovery Level,Engine Brake Setting,Engine Limiter,Engine RPM,Flags,Fuel Level,Gear,Ground Speed,HR Sample Clock,In Pit,KERS Charge,KERS Deployed Energy,KERS Input,KERS Max Energy,LR Sample Clock,Lap Invalidated,Lap Time,Lap Time2,Last Lap Time,Last Sector Time,MR Sample Clock,Max Fuel,Max Power,Max RPM,Max Sus Travel FL,Max Sus Travel FR,Max Sus Travel RL,Max Sus Travel RR,Max Torque,Max Turbo Boost,Num Tires Off Track,Penalties Enabled,Position,Raw Data Sample Rate,Ride Height FL,Ride Height FR,Ride Height RL,Ride Height RR,Road Temp,Self Align Torque FL,Self Align Torque FR,Self Align Torque RL,Self Align Torque RR,Session Lap Count,Session Time Left,Steering Angle,Surface Grip,Suspension Travel FL,Suspension Travel FR,Suspension Travel RL,Suspension Travel RR,TC Active,TC Enabled,Throttle Pos,Tire Dirt Level FL,Tire Dirt Level FR,Tire Dirt Level RL,Tire Dirt Level RR,Tire Load FL,Tire Load FR,Tire Load RL,Tire Load RR,Tire Loaded Radius FL,Tire Loaded Radius FR,Tire Loaded Radius RL,Tire Loaded Radius RR,Tire Pressure FL,Tire Pressure FR,Tire Pressure RL,Tire Pressure RR,Tire Radius FL,Tire Radius FR,Tire Radius RL,Tire Radius RR,Tire Rubber Grip FL,Tire Rubber Grip FR,Tire Rubber Grip RL,Tire Rubber Grip RR,Tire Slip Angle FL,Tire Slip Angle FR,Tire Slip Angle RL,Tire Slip Angle RR,Tire Slip Ratio FL,Tire Slip Ratio FR,Tire Slip Ratio RL,Tire Slip Ratio RR,Tire Temp Core FL,Tire Temp Core FR,Tire Temp Core RL,Tire Temp Core RR,Tire Temp Inner FL,Tire Temp Inner FR,Tire Temp Inner RL,Tire Temp Inner RR,Tire Temp Middle FL,Tire Temp Middle FR,Tire Temp Middle RL,Tire Temp Middle RR,Tire Temp Outer FL,Tire Temp Outer FR,Tire Temp Outer RL,Tire Temp Outer RR,Toe In FL,Toe In FR,Toe In RL,Toe In RR,Turbo Boost,Wheel Angular Speed FL,Wheel Angular Speed FR,Wheel Angular Speed RL,Wheel Angular Speed RR,Wind Direction,Wind Speed
0,0.0,1.0,0.0,1.0,1.0,0.0,0.0,1.0,0.0,100.0,1.0,1.1856,26.0,0.0,0.0,0.0,59.99999,0.0,26.0,26.0,26.0,26.0,-0.09275,0.30300000000000016,0.004866666666666667,294.006,-2.7128,-2.661375,-1.512,-1.5618750000000001,-275.69,216.29000000000002,190.987625,0.0,0.0,0.0,0.0,0.0016,-5.498166666666667,-5.498166666666667,-0.5488000000000001,1.457,-0.014250000000000096,-1.214,65.516,-0.042,-0.21355000000000002,1.032000000000001,100.0,1.0,1.0,202.26999999999998,0.0,0.0,0.0,0.0,0.0,0.0,0.0,8573.5,0.0,55.0,5.0,235.82666666666665,0.0,0.0,0.0,0.0,0.0,0.0,0.0,0.0,0.0030000000000001137,0.0030000000000001137,0.0,0.0,0.0,55.0,616.79921,10000.0,85.0,85.0,85.0,85.0,395.0,0.0,0.0,0.0,1.0,20.0,52.78,52.78,49.591,49.591,34.0,-26.064999999999998,22.772,-31.783333333333335,24.240000000000002,0.0,1783.5157142857142,0.75,100.0,27.705,27.043,40.519,40.479,0.0,1.0,100.0,0.0,0.0,0.0,0.0,2973.285714285714,3301.6,4168.75,3999.6,305.8305,304.22833333333335,314.74175,314.81975,21.774571428571427,20.5105,21.73825,21.28377777777778,314.99999,314.99999,324.99998,324.99998,99.55878571428572,99.50713333333333,99.56395714285715,99.5441,-0.004750000000000032,-0.12424999999999997,-0.1828333333333334,0.049833333333333174,-0.060000000000002274,-0.05333333333332746,1.5534999999999999,1.597,37.091,29.1905,36.864000000000004,34.024,56.244,34.432,58.669,51.256,54.165,33.6095,57.3155,49.6315,53.336,33.1765,57.286500000000004,49.062,-0.022499999999999964,-0.129,0.11777000000000001,0.1073,0.0,205.34,205.25,202.26999999999998,202.26999999999998,0.0,0.0
1,0.0,1.0,0.0,1.0,1.0,0.0,0.0,1.0,0.0,100.0,1.0,1.1856,26.0,0.0,0.0,0.0,59.999996,0.0,26.0,26.0,26.0,26.0,-0.12387499999999996,0.3006,-0.0218,292.984,-2.623,-2.775125,-1.5194,-1.55775,-272.34,216.285,190.967375,0.0,0.0,0.0,0.0,0.0035333333333333336,-5.498166666666667,-5.498166666666667,-0.4989,-0.4585,-0.06337500000000018,-0.133,65.67099999999999,-0.053200000000000004,-0.19555,1.3500000000000005,100.0,1.0,1.0,202.46333333333334,0.0,0.0,0.0,0.0,0.0,0.0,0.0,8581.6,0.0,55.0,5.0,236.38333333333333,1.0,0.0,0.0,0.0,0.0,0.0,0.0,0.0,0.053999999999998494,0.053999999999998494,0.0,0.0,1.0,55.0,616.79921,10000.0,85.000001,85.000001,85.000001,85.000001,395.0,0.0,0.0,0.0,1.0,333.33500000000004,53.421,53.421,48.278999999999996,48.278999999999996,34.0,-26.9375,17.984,-34.22,29.21666666666667,0.0,1783.462857142857,0.9400000000000013,100.0,27.85,26.993,42.841,41.532,0.0,1.0,100.0,0.0,0.0,0.0,0.0,3070.857142857143,2698.2,4309.875,4690.7,305.3805,306.2513333333333,314.24925,313.17925,21.78442857142857,20.5156,21.749,21.29277777777778,314.999998,314.999998,324.999988,324.999988,99.5588,99.50715,99.56411428571428,99.54422857142858,-0.015249999999999986,-0.14600000000000002,-0.1845,0.04066666666666685,-0.03333333333333144,-0.045000000000001705,1.4084999999999999,1.472,37.153,29.2225,36.932,34.08,56.227999999999994,34.473,58.716,51.3215,54.149,33.647,57.359,49.6945,53.32,33.2125,57.328,49.1235,-0.0009999999999998899,-0.14849999999999985,0.10629500000000001,0.11444000000000001,0.0,205.75,205.655,202.46333333333334,202.46333333333334,0.0,0.0
2,0.0,1.0,0.0,1.0,1.0,0.0,0.0,1.0,0.0,100.0,1.0,1.1856,26.0,0.0,0.0,0.0,59.999996,0.0,26.0,26.0,26.0,26.0,-0.15425,0.2824,-0.06596666666666666,293.579,-2.5968,-2.798,-1.4867,-1.61025,-268.79,216.2775,190.947375,0.0,0.0,0.0,0.0,0.0056,-5.498166666666667,-5.498166666666667,-0.5488000000000001,0.249,-0.048875000000000224,2.7880000000000003,65.821,-0.0752,-0.25315,1.62,100.0,1.0,1.0,203.37333333333333,0.0,0.0,0.0,0.0,0.0,0.0,0.0,8620.2,0.0,55.0,5.0,236.92666666666668,0.0,0.0,0.0,0.0,0.0,0.0,0.0,0.0,0.10800000000000054,0.10800000000000054,0.0,0.0,0.0,55.0,616.79921,10000.0,85.000001,85.000001,85.000001,85.000001,395.0,0.0,0.0,0.0,1.0,166.665,52.307,52.307,50.064,50.064,34.0,-29.4025,20.165999999999997,-29.333333333333336,20.38,0.0,1783.41,0.7600000000000016,100.0,28.565,26.942,42.67,41.322,0.0,1.0,100.0,0.0,0.0,0.0,0.0,3289.142857142857,3011.9,3745.375,3747.1,304.6375,305.327,315.636,315.62,21.795285714285715,20.5208,21.760125,21.302,314.999998,314.999998,324.999988,324.999988,99.5588,99.50718333333333,99.56425714285714,99.54438571428571,-0.02300000000000002,-0.15625,-0.22283333333333333,0.003666666666666707,-0.04999999999999716,-0.05666666666667197,1.6095,1.686,37.22,29.255,37.0,34.138,56.215,34.516,58.757999999999996,51.384,54.137,33.686,57.3985,49.754,53.307,33.25,57.364,49.182,-0.01949999999999985,-0.13750000000000018,0.103815,0.10221500000000001,0.0,206.26,206.10500000000002,203.37333333333333,203.37333333333333,0.0,0.0
3,0.0,1.0,0.0,1.0,1.0,0.0,0.0,1.0,0.0,100.0,1.0,1.1856,26.0,0.0,0.0,0.0,59.999996,0.0,26.0,26.0,26.0,26.0,-0.14600000000000002,0.30279999999999996,-0.05066666666666667,293.396,-2.7234,-2.691125,-1.5094,-1.5935000000000001,-265.83,216.26749999999998,190.93,0.0,0.0,0.0,0.0,0.007333333333333333,-5.498166666666667,-5.498166666666667,-0.51,0.584,-0.013374999999999915,-0.8340000000000001,65.956,-0.0889,-0.202125,1.2760000000000007,100.0,1.0,1.0,203.49,0.0,0.0,0.0,0.0,0.0,0.0,0.0,8625.1,0.0,55.0,5.0,237.41,1.0,0.0,0.0,0.0,0.0,0.0,0.0,0.0,0.1529999999999987,0.1529999999999987,0.0,0.0,1.0,55.0,616.79921,10000.0,85.000001,85.000001,85.000001,85.000001,395.0,0.0,0.0,0.0,1.0,166.665,53.482,53.482,48.157,48.157,34.0,-26.1025,17.66,-35.693333333333335,23.736666666666668,0.0,1783.3657142857144,0.620000000000001,100.0,28.076999999999998,27.151,42.423,41.448,0.0,1.0,100.0,0.0,0.0,0.0,0.0,2859.714285714286,2782.4,4341.375,4197.1,306.08,305.77566666666667,314.275,314.39625,21.803857142857144,20.5254,21.76925,21.30988888888889,314.999998,314.999998,324.999988,324.999988,99.5588,99.5072,99.56438571428572,99.54451428571429,-0.03125,-0.15900000000000003,-0.21866666666666656,0.0020000000000000018,-0.030000000000001137,-0.03999999999999915,1.4849999999999999,1.538,37.274,29.2835,37.058,34.187,56.201,34.553,58.794,51.44,54.123000000000005,33.721000000000004,57.432,49.808,53.292,33.283,57.394999999999996,49.235,-0.026499999999999968,-0.12150000000000016,0.105315,0.10232500000000001,0.0,206.655,206.575,203.49,203.49,0.0,0.0
4,0.0,1.0,0.0,1.0,1.0,0.0,0.0,1.0,0.0,100.0,1.0,1.1856,26.0,0.0,0.0,0.0,59.999996,0.0,26.0,26.0,26.0,26.0,-0.133,0.2964,-0.021433333333333335,293.594,-2.6565000000000003,-2.746375,-1.5224,-1.602,-262.26,216.2525,190.909125,0.0,0.0,0.0,0.0,0.0094,-5.498166666666667,-5.498166666666667,-0.5467000000000001,-0.664,-0.0831249999999999,-1.581,66.111,-0.0892,-0.238575,1.2160000000000002,100.0,1.0,1.0,204.11666666666667,0.0,0.0,0.0,0.0,0.0,0.0,0.0,8651.8,0.0,55.0,5.0,237.97,0.0,0.0,0.0,0.0,0.0,0.0,0.0,0.0,0.20700000000000074,0.20700000000000074,0.0,0.0,0.0,55.0,616.79921,10000.0,85.000001,85.000001,85.000001,85.000001,395.0,0.0,0.0,0.0,1.0,166.665,52.933,52.933,48.828,48.828,34.0,-30.0975,19.014000000000003,-32.583333333333336,20.876666666666665,0.0,1783.3114285714287,0.5749999999999993,100.0,27.784,26.929000000000002,42.833,41.467,0.0,1.0,100.0,0.0,0.0,0.0,0.0,3306.0,2890.4,4079.75,3661.4,304.9265,305.47766666666666,314.85925,315.6975,21.814142857142855,20.5308,21.780375,21.319222222222223,314.999998,314.999998,324.999988,324.999988,99.55881428571429,99.50721666666666,99.56454285714285,99.54465714285715,-0.032749999999999946,-0.15625,-0.21233333333333337,0.021166666666666556,-0.04833333333333201,-0.045000000000001705,1.581,1.615,37.339,29.3175,37.126999999999995,34.245000000000005,56.182,34.597,58.8395,51.5035,54.105999999999995,33.7615,57.4745,49.869,53.274,33.322,57.435,49.2945,-0.027499999999999858,-0.12250000000000005,0.10948500000000001,0.11018000000000001,0.0,207.085,207.005,204.11666666666667,204.11666666666667,0.0,0.0
5,0.0,1.0,0.0,1.0,1.0,0.0,0.0,1.0,0.0,100.0,1.0,1.1856,26.0,0.0,0.0,0.0,59.999996,0.0,26.0,26.0,26.0,26.0,-0.12624999999999997,0.30610000000000004,-0.020833333333333336,293.579,-2.6710000000000003,-2.763875,-1.5091,-1.58725,-259.08,216.235,190.889875,0.0,0.0,0.0,0.0,0.011233333333333333,-5.498166666666667,-5.498166666666667,-0.5358,0.431,-0.0831249999999999,-0.18500000000000005,66.249,-0.0926,-0.21365,1.0979999999999999,100.0,1.0,1.0,204.46333333333334,0.0,0.0,0.0,0.0,0.0,0.0,0.0,8666.5,0.0,55.0,5.0,238.46666666666667,1.0,0.0,0.0,0.0,0.0,0.0,0.0,0.0,0.254999999999999,0.254999999999999,0.0,0.0,1.0,55.0,616.79921,10000.0,85.000001,85.000001,85.000001,85.000001,395.0,0.0,0.0,0.0,1.0,333.33500000000004,53.375,53.375,48.92,48.92,34.0,-27.93,18.862000000000002,-33.596666666666664,22.78666666666667,0.0,1783.2628571428572,0.21499999999999986,100.0,27.884,26.826,42.594,41.258,0.0,1.0,100.0,0.0,0.0,0.0,0.0,3182.5714285714284,2759.8,4194.75,4039.5,305.253,305.941,314.6675,314.78975,21.823571428571427,20.5356,21.790125,21.327333333333332,314.999998,314.999998,324.999988,324.999988,99.55881428571429,99.50723333333333,99.56467142857143,99.54478571428571,-0.007499999999999951,-0.13649999999999995,-0.21466666666666656,0.007833333333333359,-0.0799999999999983,-0.041666666666671404,1.5635,1.57,37.397,29.3475,37.188,34.296,56.169,34.635999999999996,58.8785,51.559,54.093,33.7965,57.510999999999996,49.922,53.260999999999996,33.3555,57.4685,49.346000000000004,-0.06099999999999994,-0.08850000000000025,0.10142000000000001,0.115015,0.0,207.595,207.48000000000002,204.46333333333334,204.46333333333334,0.0,0.0
6,0.0,1.0,0.0,1.0,1.0,0.0,0.0,1.0,0.0,100.0,1.0,1.1856,26.0,0.0,0.0,0.0,59.999996,0.0,26.0,26.0,26.0,26.0,-0.10387499999999994,0.2862,-0.0059,293.381,-2.6401,-2.73925,-1.5542,-1.583625,-255.9,216.215,190.870625,0.0,0.0,0.0,0.0,0.0131,-5.498166666666667,-5.498166666666667,-0.5315,0.053,-0.06487500000000024,-0.5190000000000001,66.388,-0.08710000000000001,-0.21607500000000002,0.8200000000000003,100.0,1.0,1.0,204.88666666666666,0.0,0.0,0.0,0.0,0.0,0.0,0.0,8684.3,0.0,55.0,5.0,238.96333333333334,0.0,0.0,0.0,0.0,0.0,0.0,0.0,0.0,0.3030000000000008,0.3030000000000008,0.0,0.0,0.0,55.0,616.79921,10000.0,85.000001,85.000001,85.000001,85.000001,395.0,0.0,0.0,0.0,1.0,333.33500000000004,53.04,53.04,48.721000000000004,48.721000000000004,34.0,-28.055,20.240000000000002,-33.24666666666667,22.946666666666665,0.0,1783.2142857142858,0.05999999999999872,100.0,27.754,26.932,42.734,41.628,0.0,1.0,100.0,0.0,0.0,0.0,0.0,3235.714285714286,2900.5,4122.25,3981.9,305.0925,305.44433333333336,314.8275,314.919,21.832857142857144,20.540399999999998,21.8,21.33577777777778,314.999998,314.999998,324.999988,324.999988,99.55881428571429,99.50723333333333,99.56481428571429,99.54492857142857,-0.004249999999999976,-0.12649999999999995,-0.20699999999999996,0.019000000000000128,-0.04833333333333201,-0.03166666666666629,1.543,1.564,37.455,29.377499999999998,37.25,34.349000000000004,56.155,34.674,58.917500000000004,51.618,54.08,33.8315,57.548,49.9785,53.247,33.388999999999996,57.5025,49.4015,-0.07200000000000006,-0.08050000000000024,0.10041000000000001,0.10673,0.0,207.98000000000002,207.9,204.88666666666666,204.88666666666666,0.0,0.0
7,0.0,1.0,0.0,1.0,1.0,0.0,0.0,1.0,0.0,100.0,1.0,1.1856,26.0,0.0,0.0,0.0,59.999996,0.0,26.0,26.0,26.0,26.0,-0.07524999999999993,0.2904,0.0213,293.167,-2.6124,-2.751125,-1.5147,-1.624625,-252.31,216.19,190.849,0.0,0.0,0.0,0.0,0.015166666666666667,-5.498166666666667,-5.498166666666667,-0.5342,0.0275,-0.05250000000000021,-0.21700000000000008,66.542,-0.0693,-0.2247,0.3879999999999999,100.0,1.0,1.0,205.33666666666667,0.0,0.0,0.0,0.0,0.0,0.0,0.0,8703.5,0.0,55.0,5.0,239.5233333333333,1.0,0.0,0.0,0.0,0.0,0.0,0.0,0.0,0.3569999999999993,0.3569999999999993,0.0,0.0,1.0,55.0,616.79921,10000.0,85.000001,85.000001,85.000001,85.000001,395.0,0.0,0.0,0.0,1.0,166.665,52.78,52.78,48.782,48.782,34.0,-26.65,21.664,-31.503333333333334,24.78666666666667,0.0,1783.1614285714286,-0.254999999999999,100.0,27.88,27.009999999999998,42.765,41.889,0.0,1.0,100.0,0.0,0.0,0.0,0.0,3262.285714285714,2931.8,4081.25,4014.1,304.9015,305.283,314.88075,314.774,21.843285714285713,20.5459,21.811125,21.345222222222223,314.999998,314.999998,324.999988,324.999988,99.55882857142858,99.50725,99.56495714285714,99.54507142857143,0.031500000000000083,-0.10175000000000001,-0.1868333333333334,0.036833333333333274,-0.06833333333332803,-0.06499999999999773,1.525,1.542,37.521,29.412,37.319,34.408,56.138999999999996,34.716,58.9615,51.684,54.065,33.8705,57.588499999999996,50.0415,53.230999999999995,33.426,57.5405,49.463,-0.09399999999999986,-0.05449999999999999,0.10400500000000001,0.10277000000000001,0.0,208.44,208.39499999999998,205.33666666666667,205.33666666666667,0.0,0.0
8,0.0,1.0,0.0,1.0,1.0,0.0,0.0,1.0,0.0,100.0,1.0,1.1856,26.0,0.0,0.0,0.0,59.999996,0.0,26.0,26.0,26.0,26.0,-0.03974999999999995,0.29370000000000007,-0.0257,293.427,-2.6969000000000003,-2.713375,-1.4981,-1.55375,-249.11,216.16500000000002,190.829625,0.0,0.0,0.0,0.0,0.017033333333333334,-5.498166666666667,-5.498166666666667,-0.5345,-0.467,-0.03474999999999984,-0.42600000000000016,66.679,-0.0478,-0.214375,-0.07000000000000028,100.0,1.0,1.0,205.69333333333333,0.0,0.0,0.0,0.0,0.0,0.0,0.0,8718.6,0.0,55.0,5.0,240.01666666666665,0.0,0.0,0.0,0.0,0.0,0.0,0.0,0.0,0.40500000000000114,0.40500000000000114,0.0,0.0,0.0,55.0,616.79921,10000.0,85.000001,85.000001,85.000001,85.000001,395.0,0.0,0.0,0.0,1.0,166.665,53.65,53.65,48.065,48.065,34.0,-23.88,21.708,-31.169999999999998,26.490000000000002,0.0,1783.1142857142856,-0.33999999999999986,100.0,27.448,26.929000000000002,42.714,41.971000000000004,0.0,1.0,100.0,0.0,0.0,0.0,0.0,2965.714285714286,2896.1,4211.5,4124.5,305.9,305.48766666666666,314.538,314.522,21.852285714285713,20.5508,21.820999999999998,21.353666666666665,314.999998,314.999998,324.999988,324.999988,99.55882857142858,99.50726666666667,99.5651,99.5452,0.045500000000000096,-0.08224999999999993,-0.15933333333333333,0.07033333333333336,-0.05333333333332746,-0.045000000000001705,1.515,1.512,37.577,29.4425,37.381,34.46,56.123999999999995,34.751999999999995,59.0,51.742,54.05,33.9035,57.6245,50.097,53.215,33.458,57.573499999999996,49.5175,-0.10499999999999998,-0.04700000000000015,0.108145,0.11212000000000001,0.0,208.82999999999998,208.825,205.69333333333333,205.69333333333333,0.0,0.0
9,0.0,1.0,0.0,1.0,1.0,0.0,0.0,1.0,0.0,100.0,1.0,1.1856,26.0,0.0,0.0,0.0,59.999996,0.0,26.0,26.0,26.0,26.0,-0.03025,0.2803,0.035833333333333335,293.076,-2.6833,-2.723125,-1.5549,-1.555375,-245.71,216.1375,190.8085,0.0,0.0,0.0,0.0,0.019033333333333336,-5.498166666666667,-5.498166666666667,-0.5411,0.7005,-0.03224999999999989,0.8519999999999999,66.821,-0.0251,-0.2155,-0.19200000000000017,100.0,1.0,1.0,206.25,0.0,0.0,0.0,0.0,0.0,0.0,0.0,8742.2,0.0,55.0,5.0,240.52666666666667,1.0,0.0,0.0,0.0,0.0,0.0,0.0,0.0,0.4559999999999995,0.4559999999999995,0.0,0.0,1.0,55.0,616.79921,10000.0,85.000001,85.000001,85.000001,85.000001,395.0,0.0,0.0,0.0,1.0,166.665,52.368,52.368,49.164,49.164,34.0,-25.799999999999997,24.908,-28.233333333333334,27.063333333333333,0.0,1783.0628571428572,-0.4450000000000003,100.0,28.032,27.247,42.441,41.906,0.0,1.0,100.0,0.0,0.0,0.0,0.0,3288.4285714285716,3093.7,3987.375,4092.0,304.7755,304.99,315.16675,314.73975,21.862142857142857,20.5561,21.83125,21.362444444444446,314.999998,314.999998,324.999988,324.999988,99.55884285714286,99.50726666666667,99.56524285714286,99.54534285714286,0.07200000000000006,-0.04574999999999996,-0.1316666666666666,0.09366666666666679,-0.02499999999999858,-0.05833333333333002,1.567,1.566,37.638999999999996,29.476,37.445,34.516,56.111000000000004,34.791,59.0375,51.8025,54.037,33.94,57.6595,50.155,53.202,33.493,57.606,49.5745,-0.10899999999999999,-0.040000000000000036,0.106325,0.10980000000000001,0.0,209.26999999999998,209.29500000000002,206.25,206.25,0.0,0.0
10,0.0,1.0,0.0,1.0,1.0,0.0,0.0,1.0,0.0,100.0,1.0,1.1856,26.0,0.0,0.0,0.0,59.999996,0.0,26.0,26.0,26.0,26.0,0.006000000000000005,0.28370000000000006,0.05243333333333334,292.953,-2.6591,-2.707875,-1.5332,-1.5355,-242.5,216.1125,190.789,0.0,0.0,0.0,0.0,0.020900000000000002,-5.498166666666667,-5.498166666666667,-0.5177,-0.439,0.008375000000000021,1.831,66.96000000000001,-0.006,-0.205425,-0.492,100.0,1.0,1.0,206.46666666666667,0.0,0.0,0.0,0.0,0.0,0.0,0.0,8751.4,0.0,55.0,5.0,241.02666666666667,0.0,0.0,0.0,0.0,0.0,0.0,1.0,0.0,0.5040000000000013,0.5040000000000013,0.0,0.0,0.0,55.0,616.79921,10000.0,85.000001,85.000001,85.000001,85.000001,395.0,0.0,0.0,0.0,1.0,333.33500000000004,53.436,53.436,47.592,47.592,34.0,-20.7125,23.962,-29.356666666666662,30.683333333333334,0.0,1783.0142857142857,-0.5999999999999979,100.0,27.805,27.165,42.864000000000004,42.587,0.0,1.0,100.0,0.0,0.0,0.0,0.0,2827.714285714286,2978.0,4261.125,4345.8,306.1275,305.4096666666667,314.33875,314.06425,21.871285714285715,20.5611,21.84125,21.371111111111112,314.999998,314.999998,324.999988,324.999988,99.55884285714286,99.50728333333333,99.56537142857142,99.54548571428572,0.09200000000000008,-0.03749999999999998,-0.10216666666666663,0.11716666666666686,-0.03166666666666629,-0.05666666666667197,1.4755,1.454,37.696,29.506999999999998,37.507999999999996,34.569,56.098,34.826,59.0775,51.864,54.025999999999996,33.972,57.697,50.214,53.19,33.5235,57.64,49.6325,-0.11599999999999988,-0.03000000000000025,0.105425,0.10384,0.0,209.67000000000002,209.715,206.46666666666667,206.46666666666667,0.0,0.0
11,0.0,1.0,0.0,1.0,1.0,0.0,0.0,1.0,0.0,100.0,1.0,1.1856,26.0,0.0,0.0,0.0,59.999996,0.0,26.0,26.0,26.0,26.0,0.057374999999999954,0.27649999999999997,-0.09696666666666667,293.518,-2.71,-2.68175,-1.5911,-1.522875,-239.07999999999998,216.085,190.768375,0.0,0.0,0.0,0.0,0.022600000000000002,-5.498166666666667,-5.498166666666667,-0.561,-0.257,0.03237500000000004,-0.6640000000000001,67.098,0.0122,-0.23845000000000002,-0.5960000000000001,100.0,1.0,1.0,207.20333333333332,0.0,0.0,0.0,0.0,0.0,0.0,0.0,8782.6,0.0,55.0,5.0,241.52666666666667,1.0,0.0,0.0,0.0,0.0,0.0,1.0,0.0,0.5549999999999997,0.5549999999999997,0.0,0.0,1.0,55.0,616.79921,10000.0,85.000001,85.000001,85.000001,85.000001,395.0,0.0,0.0,0.0,1.0,166.665,52.841,52.841,49.271,49.271,34.0,-22.755,25.836,-24.21666666666666,26.613333333333333,0.0,1782.962857142857,-0.6550000000000011,100.0,27.414,27.563,42.314,42.624,0.0,1.0,100.0,0.0,0.0,0.0,0.0,3093.142857142857,3091.4,3704.125,3856.0,305.5395,304.83666666666664,315.866,315.2405,21.880857142857142,20.5665,21.8515,21.38,314.999998,314.999998,324.999988,324.999988,99.55885714285715,99.50728333333333,99.56551428571429,99.54562857142857,0.10299999999999998,-0.018749999999999933,-0.09333333333333338,0.13416666666666677,-0.05833333333333002,-0.060000000000002274,1.648,1.613,37.754999999999995,29.5405,37.572,34.625,56.084,34.864000000000004,59.1135,51.925,54.012,34.0065,57.730000000000004,50.272999999999996,53.175,33.5565,57.670500000000004,49.69,-0.12149999999999994,-0.020999999999999908,0.10667000000000001,0.111515,0.0,210.11,210.135,207.20333333333332,207.20333333333332,0.0,0.0
12,0.0,1.0,0.0,1.0,1.0,0.0,0.0,1.0,0.0,100.0,1.0,1.1856,26.0,0.0,0.0,0.0,59.999996,0.0,26.0,26.0,26.0,26.0,0.05675000000000008,0.2896000000000001,0.021433333333333335,292.938,-2.7585,-2.684625,-1.556,-1.52475,-235.65,216.0575,190.74625,0.0,0.0,0.0,0.0,0.025466666666666665,-5.498166666666667,-5.498166666666667,-0.5448000000000001,0.2935,0.02024999999999988,0.694,67.244,0.029500000000000002,-0.20565,-0.7279999999999998,100.0,1.0,1.0,207.41666666666669,0.0,0.0,0.0,0.0,0.0,0.0,0.0,8791.6,0.0,55.0,5.0,242.04666666666668,0.0,0.0,0.0,0.0,0.0,0.0,1.0,0.0,0.6059999999999981,0.6059999999999981,0.0,0.0,0.0,55.0,616.79921,10000.0,85.000001,85.000001,85.000001,85.000001,395.0,0.0,0.0,0.0,1.0,166.665,52.826,52.826,47.913,47.913,34.0,-21.7225,27.374,-26.509999999999998,31.523333333333333,0.0,1782.912857142857,-0.6699999999999982,100.0,27.451999999999998,27.565,42.299,42.469,0.0,1.0,100.0,0.0,0.0,0.0,0.0,3028.714285714286,3198.9,4181.5,4242.4,305.5905,304.70433333333335,314.6255,314.366,21.890428571428572,20.572,21.861875,21.389,314.999998,314.999998,324.999988,324.999988,99.55887142857142,99.50728333333333,99.56565714285715,99.54575714285714,0.12850000000000006,-0.0014999999999999458,-0.06166666666666665,0.15749999999999997,-0.051666666666669414,-0.046666666666666856,1.5354999999999999,1.501,37.815,29.575,37.637,34.681,56.071,34.902,59.1525,51.9865,54.0,34.0415,57.7665,50.332,53.162,33.5905,57.704,49.7485,-0.12850000000000006,-0.027499999999999858,0.104995,0.10568000000000001,0.0,210.575,210.61,207.41666666666669,207.41666666666669,0.0,0.0
13,0.0,1.0,0.0,1.0,1.0,0.0,0.0,1.0,0.0,100.0,1.0,1.1856,26.0,0.0,0.0,0.0,59.999996,0.0,26.0,26.0,26.0,26.0,0.07062499999999994,0.28280000000000016,0.05316666666666667,292.572,-2.7338,-2.675875,-1.6238000000000001,-1.5075,-232.42000000000002,216.035,190.725875,0.0,0.0,0.0,0.0,0.02673333333333333,-5.498166666666667,-5.498166666666667,-0.5385,-0.0575,0.02387499999999987,0.9750000000000001,67.378,0.0381,-0.21305000000000002,-0.8979999999999997,100.0,1.0,1.0,207.78,0.0,0.0,0.0,0.0,0.0,0.0,0.0,8807.1,0.0,55.0,5.0,242.53,1.0,0.0,0.0,0.0,0.0,0.0,1.0,0.0,0.6539999999999999,0.6539999999999999,0.0,0.0,1.0,55.0,616.79921,10000.0,85.000001,85.000001,85.000001,85.000001,395.0,0.0,0.0,0.0,1.0,333.33500000000004,52.504999999999995,52.504999999999995,47.867,47.867,34.0,-20.55,28.33,-27.416666666666664,33.09,0.0,1782.8642857142856,-0.8449999999999989,100.0,27.77,27.746000000000002,42.544,42.955,0.0,1.0,100.0,0.0,0.0,0.0,0.0,3049.4285714285716,3184.0,4159.0,4359.4,305.5065,304.742,314.679,314.0685,21.899428571428572,20.5772,21.87175,21.397666666666666,314.999998,314.999998,324.999988,324.999988,99.55888571428571,99.5073,99.5658,99.5459,0.15474999999999994,0.02675000000000005,-0.06233333333333335,0.16983333333333328,-0.05666666666667197,-0.03833333333332689,1.5155,1.4849999999999999,37.872,29.6075,37.698,34.735,56.062,34.937,59.19,52.048,53.989999999999995,34.075,57.801,50.3915,53.150999999999996,33.622,57.7355,49.8065,-0.14849999999999985,-0.004999999999999893,0.11362000000000001,0.10461000000000001,0.0,210.98000000000002,211.01999999999998,207.78,207.78,0.0,0.0
14,0.0,1.0,0.0,1.0,1.0,0.0,0.0,1.0,0.0,100.0,1.0,1.1856,26.0,0.0,0.0,0.0,59.999996,0.0,26.0,26.0,26.0,26.0,0.1023750000000001,0.28200000000000003,-0.014400000000000001,292.77,-2.7378,-2.61475,-1.6320000000000001,-1.51275,-228.98,216.0125,190.7045,0.0,0.0,0.0,0.0,0.028733333333333333,-5.498166666666667,-5.498166666666667,-0.5483,-0.17250000000000001,0.04937499999999995,0.03600000000000003,67.517,0.0512,-0.227575,-0.9500000000000002,100.0,1.0,1.0,208.30333333333334,0.0,0.0,0.0,0.0,0.0,0.0,0.0,8829.2,0.0,55.0,5.0,243.03333333333336,0.0,0.0,0.0,0.0,0.0,0.0,1.0,0.0,0.7049999999999983,0.7049999999999983,0.0,0.0,0.0,55.0,616.79921,10000.0,85.000001,85.000001,85.000001,85.000001,395.0,0.0,0.0,0.0,1.0,333.33500000000004,52.597,52.597,48.08,48.08,34.0,-20.599999999999998,27.628,-25.746666666666663,31.71666666666667,0.0,1782.8114285714287,-0.9250000000000007,100.0,27.576999999999998,27.995,42.475,43.283,0.0,1.0,100.0,0.0,0.0,0.0,0.0,3043.142857142857,3155.8,4022.0,4161.0,305.697,304.6723333333333,315.08075,314.48575,21.909,20.5827,21.882125,21.406777777777776,314.999998,314.999998,324.999988,324.999988,99.5589,99.5073,99.56592857142857,99.54604285714285,0.14949999999999997,0.024499999999999966,-0.0528333333333334,0.1778333333333333,-0.054999999999999716,-0.04999999999999716,1.5465,1.52,37.931,29.642,37.763,34.792,56.052,34.976,59.228,52.112,53.980999999999995,34.11,57.8365,50.4525,53.141,33.656,57.7675,49.8665,-0.14849999999999985,-0.002000000000000224,0.09857,0.11724500000000002,0.0,211.39,211.46,208.30333333333334,208.30333333333334,0.0,0.0
15,0.0,1.0,0.0,1.0,1.0,0.0,0.0,1.0,0.0,100.0,1.0,1.1856,26.0,0.0,0.0,0.0,59.999996,0.0,26.0,26.0,26.0,26.0,0.12149999999999994,0.27580000000000005,-0.04336666666666667,292.786,-2.7153,-2.569125,-1.6344,-1.452125,-225.74,215.9925,190.68425,0.0,0.0,0.0,0.0,0.030633333333333332,-5.498166666666667,-5.498166666666667,-0.5399,0.28700000000000003,0.08287500000000003,-0.16999999999999993,67.649,0.0625,-0.21080000000000002,-1.096,100.0,1.0,1.0,208.70333333333332,0.0,0.0,0.0,0.0,0.0,0.0,0.0,8846.1,0.0,55.0,5.0,243.50666666666666,1.0,0.0,0.0,0.0,0.0,0.0,1.0,0.0,0.7530000000000001,0.7530000000000001,0.0,0.0,1.0,55.0,616.79921,10000.0,85.000001,85.000001,85.000001,85.000001,395.0,0.0,0.0,0.0,1.0,333.33500000000004,52.765,52.765,48.141,48.141,34.0,-18.79,27.276,-24.943333333333335,32.763333333333335,0.0,1782.7642857142857,-1.004999999999999,100.0,27.57,28.082,42.207,43.393,0.0,1.0,100.0,0.0,0.0,0.0,0.0,2893.285714285714,3138.8,3984.25,4318.7,306.086,304.71,315.18,314.1265,21.918,20.588,21.891750000000002,21.415333333333333,314.999998,314.999998,324.999988,324.999988,99.55892857142857,99.5073,99.56605714285715,99.54618571428571,0.16125000000000012,0.02950000000000008,-0.04183333333333339,0.1861666666666668,-0.04999999999999716,-0.04833333333333201,1.5434999999999999,1.508,37.988,29.674999999999997,37.824,34.846000000000004,56.043,35.012,59.262,52.172,53.972,34.144,57.868,50.5105,53.131,33.6885,57.7965,49.923500000000004,-0.15599999999999992,-0.000500000000000167,0.10493500000000001,0.11039500000000001,0.0,211.825,211.875,208.70333333333332,208.70333333333332,0.0,0.0
16,0.0,1.0,0.0,1.0,1.0,0.0,0.0,1.0,0.0,100.0,1.0,1.1856,26.0,0.0,0.0,0.0,59.999996,0.0,26.0,26.0,26.0,26.0,0.12637500000000013,0.2693000000000001,-0.05323333333333334,292.816,-2.8059000000000003,-2.58175,-1.6004,-1.5133750000000001,-222.07999999999998,215.9725,190.660875,0.0,0.0,0.0,0.0,0.03276666666666667,-5.498166666666667,-5.498166666666667,-0.5618000000000001,-0.6845,0.06662499999999993,-1.1400000000000001,67.797,0.0779,-0.22625,-1.266,100.0,1.0,1.0,209.14666666666668,0.0,0.0,0.0,0.0,0.0,0.0,0.0,8864.9,0.0,55.0,5.0,244.04333333333335,0.0,0.0,0.0,0.0,0.0,0.0,1.0,0.0,0.8069999999999986,0.8069999999999986,0.0,0.0,0.0,55.0,616.79921,10000.0,85.000001,85.000001,85.000001,85.000001,395.0,0.0,0.0,0.0,1.0,166.665,52.628,52.628,47.943,47.943,34.0,-20.419999999999998,28.644,-23.563333333333333,32.343333333333334,0.0,1782.7114285714285,-0.870000000000001,100.0,27.218,28.157,42.438,43.501,0.0,1.0,100.0,0.0,0.0,0.0,0.0,3054.4285714285716,3225.1,3953.75,4092.4,305.8015,304.503,315.218,314.6075,21.927857142857142,20.5939,21.90275,21.425,314.999998,314.999998,324.999988,324.999988,99.55894285714285,99.50731666666667,99.56622857142857,99.54634285714286,0.16674999999999995,0.04025000000000012,-0.02983333333333338,0.2015,-0.046666666666666856,-0.046666666666666856,1.5855,1.5190000000000001,38.049,29.712,37.891999999999996,34.906,56.028999999999996,35.055,59.303,52.239,53.959,34.183,57.906,50.5755,53.116,33.726,57.8315,49.987,-0.14900000000000002,-0.0034999999999998366,0.1135,0.10598500000000001,0.0,212.22500000000002,212.315,209.14666666666668,209.14666666666668,0.0,0.0
17,0.0,1.0,0.0,1.0,1.0,0.0,0.0,1.0,0.0,100.0,1.0,1.1856,26.0,0.0,0.0,0.0,59.999996,0.0,26.0,26.0,26.0,26.0,0.12949999999999995,0.29059999999999997,0.00030000000000000003,292.511,-2.7676,-2.5629999999999997,-1.6406,-1.475125,-218.82999999999998,215.96,190.639625,0.0,0.0,0.0,0.0,0.034633333333333335,-5.498166666666667,-5.498166666666667,-0.5505,0.518,0.047499999999999876,-0.6550000000000002,67.928,0.08310000000000001,-0.20647500000000002,-1.1219999999999999,100.0,1.0,1.0,209.51666666666665,0.0,0.0,0.0,0.0,0.0,0.0,0.0,8880.7,0.0,55.0,5.0,244.51,1.0,0.0,0.0,0.0,0.0,0.0,1.0,0.0,0.8550000000000004,0.8550000000000004,0.0,0.0,1.0,55.0,616.79921,10000.0,85.000001,85.000001,85.000001,85.000001,395.0,0.0,0.0,0.0,1.0,333.33500000000004,52.46,52.46,47.867,47.867,34.0,-20.235,27.024,-25.866666666666667,32.96666666666667,0.0,1782.662857142857,-0.9149999999999991,100.0,27.671,28.416,42.226,43.452,0.0,1.0,100.0,0.0,0.0,0.0,0.0,3092.285714285714,3079.6,4230.625,4253.4,305.61,304.937,314.6895,314.33875,21.936857142857143,20.5993,21.9125,21.433444444444444,314.999998,314.999998,324.999988,324.999988,99.55895714285714,99.50731666666667,99.56635714285714,99.54647142857142,0.17149999999999999,0.04049999999999998,-0.024833333333333374,0.19633333333333325,-0.04999999999999716,-0.045000000000001705,1.5465,1.5070000000000001,38.105000000000004,29.7455,37.953,34.959,56.022,35.093,59.3375,52.2985,53.951,34.219,57.938,50.6325,53.108000000000004,33.7605,57.86,50.0435,-0.14549999999999996,-0.010499999999999954,0.11379000000000002,0.09921500000000001,0.0,212.685,212.745,209.51666666666665,209.51666666666665,0.0,0.0
18,0.0,1.0,0.0,1.0,1.0,0.0,0.0,1.0,0.0,100.0,1.0,1.1856,26.0,0.0,0.0,0.0,59.999996,0.0,26.0,26.0,26.0,26.0,0.1316250000000001,0.28669999999999995,-0.05946666666666667,292.511,-2.8004,-2.536625,-1.6582,-1.4215,-215.56,215.9475,190.6185,0.0,0.0,0.0,0.0,0.036533333333333334,-5.498166666666667,-5.498166666666667,-0.5587,-0.542,0.07200000000000006,-0.14500000000000002,68.05799999999999,0.0855,-0.2214,-1.2060000000000004,100.0,1.0,1.0,209.92666666666668,0.0,0.0,0.0,0.0,0.0,0.0,0.0,8898.0,0.0,55.0,5.0,244.98333333333335,0.0,0.0,0.0,0.0,0.0,0.0,1.0,0.0,0.9029999999999987,0.9029999999999987,0.0,0.0,0.0,55.0,616.79921,10000.0,85.000001,85.000001,85.000001,85.000001,395.0,0.0,0.0,0.0,1.0,333.33500000000004,52.444,52.444,47.699,47.699,34.0,-19.62,29.232,-24.729999999999997,31.956666666666667,0.0,1782.6157142857144,-1.1499999999999986,100.0,27.442,28.245,42.553,43.844,0.0,1.0,100.0,0.0,0.0,0.0,0.0,3058.4285714285716,3253.2,4043.25,4179.6,305.755,304.4563333333333,315.06375,314.48425,21.945571428571427,20.6046,21.92225,21.44222222222222,314.999998,314.999998,324.999988,324.999988,99.55898571428571,99.50731666666667,99.5665,99.54662857142857,0.18575000000000008,0.05824999999999991,-0.024499999999999966,0.20399999999999996,-0.046666666666666856,-0.054999999999999716,1.5665,1.514,38.16,29.7785,38.013999999999996,35.013999999999996,56.013,35.131,59.3745,52.36,53.942,34.254,57.972,50.692,53.098,33.7945,57.8915,50.1015,-0.16849999999999987,0.01200000000000001,0.11024500000000001,0.10663500000000001,0.0,213.04000000000002,213.12,209.92666666666668,209.92666666666668,0.0,0.0
19,0.0,1.0,0.0,1.0,1.0,0.0,0.0,1.0,0.0,100.0,1.0,1.1856,26.0,0.0,0.0,0.0,59.999996,0.0,26.0,26.0,26.0,26.0,0.15437499999999993,0.2922,0.03366666666666667,291.977,-2.7699,-2.526625,-1.6737000000000002,-1.4015,-212.09,215.94,190.595875,0.0,0.0,0.0,0.0,0.03856666666666667,-5.498166666666667,-5.498166666666667,-0.5515,0.845,0.0871249999999999,0.96,68.195,0.092,-0.211475,-1.5899999999999999,100.0,1.0,1.0,210.32999999999998,0.0,0.0,0.0,0.0,0.0,0.0,0.0,8915.2,0.0,55.0,5.0,245.47333333333336,1.0,0.0,0.0,0.0,0.0,0.0,1.0,0.0,0.9540000000000006,0.9540000000000006,0.0,0.0,1.0,55.0,616.79921,10000.0,85.000001,85.000001,85.000001,85.000001,395.0,0.0,0.0,0.0,1.0,333.33500000000004,51.650999999999996,51.650999999999996,47.592,47.592,34.0,-18.0075,31.852,-24.1,35.096666666666664,0.0,1782.5628571428572,-1.5399999999999991,100.0,28.079,28.631,42.343,43.736000000000004,0.0,1.0,100.0,0.0,0.0,0.0,0.0,3037.4285714285716,3416.6,4113.125,4449.2,305.5325,304.00466666666665,314.9025,313.95625,21.955,20.6104,21.9325,21.451333333333334,314.999998,314.999998,324.999988,324.999988,99.559,99.50733333333334,99.56662857142857,99.54677142857143,0.21900000000000008,0.08250000000000002,0.002666666666666595,0.22399999999999998,-0.026666666666670835,-0.07333333333333059,1.5494999999999999,1.51,38.219,29.814999999999998,38.078,35.071,56.006,35.175,59.41,52.4245,53.936,34.295,58.004999999999995,50.754,53.09,33.834,57.921,50.1625,-0.1924999999999999,0.02849999999999997,0.10067000000000001,0.10722000000000001,0.0,213.49,213.61,210.32999999999998,210.32999999999998,0.0,0.0
20,0.0,1.0,0.0,1.0,1.0,0.0,0.0,1.0,0.0,100.0,1.0,1.1856,26.0,0.0,0.0,0.0,59.999996,0.0,26.0,26.0,26.0,26.0,0.21387500000000004,0.274,0.0395,292.313,-2.8232,-2.58425,-1.6076000000000001,-1.5170000000000001,-208.39999999999998,215.9375,190.57225,0.0,0.0,0.0,0.0,0.0407,-5.498166666666667,-5.498166666666667,-0.5569000000000001,-1.26,0.09599999999999986,0.581,68.342,0.1062,-0.22445,-2.062,100.0,1.0,1.0,210.69333333333333,0.0,0.0,0.0,0.0,0.0,0.0,0.0,8930.5,0.0,55.0,5.0,246.00666666666666,0.0,0.0,0.0,0.0,0.0,0.0,0.0,0.0,1.0079999999999991,1.0079999999999991,0.0,0.0,0.0,55.0,616.79921,10000.0,85.000001,85.000001,85.000001,85.000001,395.0,0.0,0.0,0.0,1.0,166.665,52.734,52.734,47.012,47.012,34.0,-15.739999999999998,32.246,-22.306666666666665,36.980000000000004,0.0,1782.5114285714285,-1.7949999999999982,100.0,27.432,28.387,42.849000000000004,44.312,0.0,1.0,100.0,0.0,0.0,0.0,0.0,2790.5714285714284,3289.7,4034.75,4321.5,306.441,304.455,314.91325,314.044,21.964714285714287,20.6164,21.943625,21.461222222222222,314.999998,314.999998,324.999988,324.999988,99.55904285714286,99.50735,99.56678571428571,99.54694285714285,0.24075000000000002,0.11424999999999996,0.01516666666666655,0.24016666666666686,-0.026666666666670835,-0.04999999999999716,1.5155,1.456,38.278999999999996,29.8525,38.147999999999996,35.132999999999996,55.995999999999995,35.222,59.4525,52.4955,53.926,34.338,58.0445,50.8225,53.079,33.875,57.957,50.230000000000004,-0.2084999999999999,0.0645,0.11528000000000001,0.10130000000000002,0.0,213.865,214.03,210.69333333333333,210.69333333333333,0.0,0.0
21,0.0,1.0,0.0,1.0,1.0,0.0,0.0,1.0,0.0,100.0,1.0,1.1856,26.0,0.0,0.0,0.0,59.999996,0.0,26.0,26.0,26.0,26.0,0.19300000000000006,0.2711000000000001,-0.0533,292.603,-2.7995,-2.625,-1.6804000000000001,-1.468,-205.12,215.94,190.5505,0.0,0.0,0.0,0.0,0.042633333333333336,-5.498166666666667,-5.498166666666667,-0.5783,0.5445,0.08799999999999986,0.33599999999999985,68.46600000000001,0.1285,-0.2238,-2.1660000000000004,100.0,1.0,1.0,211.29333333333335,0.0,0.0,0.0,0.0,0.0,0.0,0.0,8956.0,0.0,55.0,5.0,246.45,1.0,0.0,0.0,0.0,0.0,0.0,0.0,0.0,1.056000000000001,1.056000000000001,0.0,0.0,1.0,55.0,616.79921,10000.0,85.000001,85.000001,85.000001,85.000001,395.0,0.0,0.0,0.0,1.0,166.665,52.231,52.231,48.187,48.187,34.0,-17.7425,31.384,-20.39333333333333,34.943333333333335,0.0,1782.462857142857,-1.0399999999999991,100.0,27.694,28.624000000000002,42.086,43.915,0.0,1.0,100.0,0.0,0.0,0.0,0.0,2911.4285714285716,3306.9,3910.625,4140.6,305.975,304.30966666666666,315.41875,314.656,21.97342857142857,20.622,21.953125,21.46977777777778,314.999998,314.999998,324.999988,324.999988,99.55905714285714,99.50735,99.56692857142858,99.54707142857143,0.2097500000000001,0.0767500000000001,0.04416666666666669,0.2650000000000001,-0.03833333333332689,-0.04833333333333201,1.6335,1.5510000000000002,38.334,29.887,38.207,35.186,55.989999999999995,35.265,59.483000000000004,52.5535,53.92,34.378,58.073,50.8785,53.072,33.9135,57.9825,50.285,-0.16249999999999987,0.0040000000000000036,0.107865,0.10196000000000001,0.0,214.3,214.44,211.29333333333335,211.29333333333335,0.0,0.0
22,0.0,1.0,0.0,1.0,1.0,0.0,0.0,1.0,0.0,100.0,1.0,1.1856,26.0,0.0,0.0,0.0,59.999996,0.0,26.0,26.0,26.0,26.0,0.17537500000000006,0.2713000000000001,0.021333333333333336,292.068,-2.7323,-2.6252500000000003,-1.6672,-1.5153750000000001,-201.82999999999998,215.945,190.528125,0.0,0.0,0.0,0.0,0.044533333333333334,-5.498166666666667,-5.498166666666667,-0.5572,0.1345,0.08812500000000001,0.8180000000000001,68.59700000000001,0.1346,-0.2069,-1.008,100.0,1.0,1.0,211.49,0.0,0.0,0.0,0.0,0.0,0.0,0.0,8964.4,0.0,55.0,5.0,246.92333333333335,0.0,0.0,0.0,0.0,0.0,0.0,0.0,0.0,1.1039999999999992,1.1039999999999992,0.0,0.0,0.0,55.0,616.79921,10000.0,85.000001,85.000001,85.000001,85.000001,395.0,0.0,0.0,0.0,1.0,333.33500000000004,52.185,52.185,47.104,47.104,34.0,-19.1025,28.484,-22.926666666666662,38.35666666666667,0.0,1782.4142857142858,0.3200000000000003,100.0,27.819,28.712,42.569,44.21,0.0,1.0,100.0,0.0,0.0,0.0,0.0,2827.5714285714284,3272.7,4133.0,4385.5,306.106,304.36466666666666,314.7895,314.012,21.982142857142858,20.6274,21.963,21.478555555555555,314.999998,314.999998,324.999988,324.999988,99.55908571428571,99.50736666666667,99.56705714285714,99.54721428571429,0.15050000000000008,0.015249999999999986,0.02966666666666673,0.25916666666666677,-0.03499999999999659,-0.051666666666669414,1.513,1.465,38.388999999999996,29.9215,38.268,35.241,55.980999999999995,35.304,59.5205,52.6165,53.911,34.414,58.1075,50.939,53.061,33.948499999999996,58.013999999999996,50.3445,-0.06349999999999989,-0.09450000000000003,0.10668000000000001,0.110795,0.0,214.735,214.815,211.49,211.49,0.0,0.0
23,0.0,1.0,0.0,1.0,1.0,0.0,0.0,1.0,0.0,100.0,1.0,1.1856,26.0,0.0,0.0,0.0,59.999996,0.0,26.0,26.0,26.0,26.0,0.09475000000000011,0.256,-0.0363,292.038,-2.7467,-2.5943750000000003,-1.5722,-1.552375,-198.32,215.95499999999998,190.504625,0.0,0.0,0.0,0.0,0.04656666666666667,-5.498166666666667,-5.498166666666667,-0.5756,-0.2665,0.05812499999999998,-1.197,68.731,0.0966,-0.23340000000000002,0.30600000000000005,100.0,1.0,1.0,211.99,0.0,0.0,0.0,0.0,0.0,0.0,0.0,8985.5,0.0,55.0,5.0,247.40666666666667,1.0,0.0,0.0,0.0,0.0,0.0,0.0,0.0,1.1550000000000011,1.1550000000000011,0.0,0.0,1.0,55.0,616.79921,10000.0,85.000001,85.000001,85.000001,85.000001,395.0,0.0,0.0,0.0,1.0,333.33500000000004,51.635999999999996,51.635999999999996,47.989,47.989,34.0,-24.6575,25.06,-23.53333333333333,31.633333333333333,0.0,1782.3614285714286,0.7899999999999991,100.0,28.026,28.791,42.829,44.428,0.0,1.0,100.0,0.0,0.0,0.0,0.0,3252.5714285714284,3152.2,3963.125,4011.8,305.0435,304.646,315.19425,314.79725,21.99157142857143,20.6332,21.973375,21.48788888888889,314.999998,314.999998,324.999988,324.999988,99.5591,99.50736666666667,99.5672,99.54737142857142,0.10125000000000006,-0.033499999999999974,-0.030000000000000027,0.19199999999999995,-0.06833333333332803,-0.030000000000001137,1.5225,1.534,38.447,29.9575,38.333,35.299,55.968,35.343,59.558,52.681,53.899,34.451,58.1425,51.0015,53.048,33.9835,58.045500000000004,50.406,-0.020999999999999908,-0.13549999999999995,0.10669500000000001,0.10708000000000001,0.0,215.195,215.155,211.99,211.99,0.0,0.0
24,0.0,1.0,0.0,1.0,1.0,0.0,0.0,1.0,0.0,100.0,1.0,1.1856,26.0,0.0,0.0,0.0,59.999996,0.0,26.0,26.0,26.0,26.0,-0.006624999999999992,0.27649999999999997,-0.10666666666666667,292.389,-2.7362,-2.639125,-1.5909,-1.5173750000000001,-194.82,215.9675,190.48075,0.0,0.0,0.0,0.0,0.048600000000000004,-5.498166666666667,-5.498166666666667,-0.5796,-0.611,0.04037500000000005,0.4119999999999999,68.867,0.0391,-0.217925,0.9239999999999995,100.0,1.0,1.0,212.32666666666665,0.0,0.0,0.0,0.0,0.0,0.0,0.0,8999.7,0.0,55.0,5.0,247.89333333333335,0.0,0.0,0.0,0.0,0.0,0.0,0.0,0.0,1.2059999999999995,1.2059999999999995,0.0,0.0,0.0,55.0,616.79921,10000.0,85.000001,85.000001,85.000001,85.000001,395.0,0.0,0.0,0.0,1.0,166.665,52.917,52.917,47.089,47.089,34.0,-23.035,22.104,-29.443333333333335,29.223333333333333,0.0,1782.3128571428572,0.9299999999999997,100.0,27.972,28.185000000000002,43.161,43.927,0.0,1.0,100.0,0.0,0.0,0.0,0.0,2855.857142857143,3014.4,4263.0,4145.4,306.1335,305.29566666666665,314.42275,314.62075,22.000857142857143,20.6387,21.98375,21.497,314.999998,314.999998,324.999988,324.999988,99.55911428571429,99.50736666666667,99.56735714285715,99.54751428571429,0.05425000000000013,-0.07874999999999999,-0.09016666666666662,0.13083333333333336,-0.026666666666670835,-0.05666666666667197,1.498,1.51,38.504999999999995,29.991999999999997,38.399,35.355999999999995,55.953,35.382,59.5965,52.7425,53.884,34.487,58.178,51.061,53.033,34.018,58.078,50.464,-0.006000000000000005,-0.15149999999999997,0.11218000000000002,0.10235000000000001,0.0,215.635,215.555,212.32666666666665,212.32666666666665,0.0,0.0
25,0.0,1.0,0.0,1.0,1.0,0.0,0.0,1.0,0.0,100.0,1.0,1.1856,26.0,0.0,0.0,0.0,59.999996,0.0,26.0,26.0,26.0,26.0,-0.05812499999999998,0.2652000000000001,-0.07616666666666666,292.374,-2.7671,-2.636375,-1.5758,-1.5505,-191.51,215.98000000000002,190.456875,0.0,0.0,0.0,0.0,0.05053333333333333,-5.498166666666667,-5.498166666666667,-0.6131,-0.0765,0.009624999999999995,-0.633,68.991,-0.015000000000000001,-0.227075,1.3739999999999997,100.0,1.0,1.0,212.86333333333334,0.0,0.0,0.0,0.0,0.0,0.0,0.0,9022.6,0.0,55.0,5.0,248.34,1.0,0.0,0.0,0.0,0.0,0.0,0.0,0.0,1.2540000000000013,1.2540000000000013,0.0,0.0,1.0,55.0,616.79921,10000.0,85.000001,85.000001,85.000001,85.000001,395.0,0.0,0.0,0.0,1.0,333.33500000000004,51.956,51.956,47.958,47.958,34.0,-28.1575,22.724,-29.113333333333337,25.98,0.0,1782.2642857142857,0.9649999999999999,100.0,28.146,28.116,43.129,43.346000000000004,0.0,1.0,100.0,0.0,0.0,0.0,0.0,3213.5714285714284,3290.9,3974.875,3973.8,305.193,304.479,315.207,315.06875,22.009571428571427,20.644,21.9935,21.505444444444443,314.999998,314.999998,324.999988,324.999988,99.55911428571429,99.50738333333334,99.56748571428571,99.54765714285715,0.01750000000000007,-0.11549999999999994,-0.14316666666666666,0.09383333333333321,-0.03333333333333144,-0.051666666666669414,1.553,1.6059999999999999,38.56,30.025,38.459,35.409,55.937,35.422,59.6305,52.7975,53.869,34.5235,58.2095,51.1135,53.016999999999996,34.0535,58.1065,50.5155,0.002000000000000224,-0.16000000000000014,0.10794500000000001,0.11744500000000001,0.0,216.035,215.91,212.86333333333334,212.86333333333334,0.0,0.0
26,0.0,1.0,0.0,1.0,1.0,0.0,0.0,1.0,0.0,100.0,1.0,1.1856,26.0,0.0,0.0,0.0,59.999996,0.0,26.0,26.0,26.0,26.0,-0.11975000000000002,0.27170000000000005,0.09806666666666666,291.153,-2.6693,-2.760375,-1.5878999999999999,-1.582625,-187.78,215.99,190.429625,0.0,0.0,0.0,0.0,0.052700000000000004,-5.498166666666667,-5.498166666666667,-0.5684,0.6890000000000001,-0.049875000000000114,0.1319999999999999,69.135,-0.0654,-0.193475,1.4879999999999995,100.0,1.0,1.0,213.0233333333333,0.0,0.0,0.0,0.0,0.0,0.0,0.0,9029.2,0.0,55.0,5.0,248.86,0.0,0.0,0.0,0.0,0.0,0.0,0.0,0.0,1.3079999999999998,1.3079999999999998,0.0,0.0,0.0,55.0,616.79921,10000.0,85.000001,85.000001,85.000001,85.000001,395.0,0.0,0.0,0.0,1.0,166.665,51.498,51.498,46.097,46.097,34.0,-28.145,20.892,-38.72,27.453333333333333,0.0,1782.2114285714285,0.7699999999999996,100.0,29.301000000000002,28.428,44.135,43.377,0.0,1.0,100.0,0.0,0.0,0.0,0.0,3213.714285714286,3045.6,4637.625,4485.5,305.0165,305.112,313.6295,313.8885,22.01985714285714,20.65,22.00475,21.51522222222222,314.999998,314.999998,324.999988,324.999988,99.55911428571429,99.5074,99.56765714285714,99.54781428571428,0.00275000000000003,-0.14225,-0.18933333333333335,0.03133333333333321,-0.01999999999999602,-0.05666666666667197,1.4035,1.478,38.625,30.063,38.53,35.47,55.923,35.47,59.676,52.8625,53.855999999999995,34.567499999999995,58.251999999999995,51.176,53.001999999999995,34.0955,58.1455,50.577,-0.021499999999999853,-0.14400000000000013,0.110575,0.10153000000000001,0.0,216.5,216.4,213.0233333333333,213.0233333333333,0.0,0.0
27,0.0,1.0,0.0,1.0,1.0,0.0,0.0,1.0,0.0,100.0,1.0,1.1856,26.0,0.0,0.0,0.0,59.999996,0.0,26.0,26.0,26.0,26.0,-0.11599999999999999,0.25649999999999995,-0.005933333333333334,291.55,-2.6196,-2.7455,-1.5615,-1.6712500000000001,-184.66,215.9975,190.408,0.0,0.0,0.0,0.0,0.0545,-5.498166666666667,-5.498166666666667,-0.5949,-1.071,-0.07062500000000016,-0.9100000000000001,69.251,-0.0867,-0.24072500000000002,1.4299999999999997,100.0,1.0,1.0,213.49333333333334,0.0,0.0,0.0,0.0,0.0,0.0,0.0,9049.2,0.0,55.0,5.0,249.28,1.0,0.0,0.0,0.0,0.0,0.0,0.0,0.0,1.352999999999998,1.352999999999998,0.0,0.0,1.0,55.0,616.79921,10000.0,85.000001,85.000001,85.000001,85.000001,395.0,0.0,0.0,0.0,1.0,166.665,51.727000000000004,51.727000000000004,46.6,46.6,34.0,-29.497500000000002,19.317999999999998,-35.739999999999995,23.87,0.0,1782.1657142857143,0.6999999999999993,100.0,28.97,28.211,44.88,43.843,0.0,1.0,100.0,0.0,0.0,0.0,0.0,3320.857142857143,2968.0,4241.75,3997.2,304.86,305.273,314.55325,314.82875,22.028285714285715,20.6548,22.01425,21.523444444444443,314.999998,314.999998,324.999988,324.999988,99.55911428571429,99.50741666666667,99.56778571428572,99.54794285714286,-0.018749999999999933,-0.16400000000000003,-0.22066666666666657,0.005666666666666709,-0.05833333333333002,-0.036666666666668846,1.47,1.53,38.677,30.0925,38.589,35.521,55.909,35.507,59.7145,52.917,53.843,34.602000000000004,58.2885,51.228,52.989000000000004,34.1285,58.1795,50.6275,-0.028999999999999915,-0.13350000000000017,0.105205,0.10808000000000001,0.0,216.825,216.69,213.49333333333334,213.49333333333334,0.0,0.0
28,0.0,1.0,0.0,1.0,1.0,0.0,0.0,1.0,0.0,100.0,1.0,1.1856,26.0,0.0,0.0,0.0,59.999996,0.0,26.0,26.0,26.0,26.0,-0.133,0.26839999999999997,-0.0412,291.855,-2.6412,-2.738,-1.505,-1.6360000000000001,-180.92000000000002,216.0025,190.381,0.0,0.0,0.0,0.0,0.056666666666666664,-5.498166666666667,-5.498166666666667,-0.5979,0.6525,-0.07975000000000021,-0.593,69.389,-0.1048,-0.211325,1.3940000000000001,100.0,1.0,1.0,214.01666666666665,0.0,0.0,0.0,0.0,0.0,0.0,0.0,9071.4,0.0,55.0,5.0,249.77333333333334,0.0,0.0,0.0,0.0,0.0,0.0,0.0,0.0,1.407,1.407,0.0,0.0,0.0,55.0,616.79921,10000.0,85.000001,85.000001,85.000001,85.000001,395.0,0.0,0.0,0.0,1.0,166.665,51.849000000000004,51.849000000000004,47.379,47.379,34.0,-29.9925,18.924,-34.913333333333334,22.763333333333335,0.0,1782.1114285714286,0.46499999999999986,100.0,29.121,28.08,44.295,43.169,0.0,1.0,100.0,0.0,0.0,0.0,0.0,3327.0,2900.1,4225.25,4051.2,304.805,305.4773333333333,314.71,314.833,22.03857142857143,20.6606,22.025125,21.532888888888888,314.999998,314.999998,324.999988,324.999988,99.55911428571429,99.50743333333334,99.56794285714285,99.5481,-0.022249999999999992,-0.16000000000000003,-0.23083333333333333,-0.007833333333333359,-0.060000000000002274,-0.04333333333332945,1.514,1.5750000000000002,38.741,30.128999999999998,38.657,35.58,55.894999999999996,35.554,59.754,52.977000000000004,53.83,34.644999999999996,58.3255,51.286,52.975,34.1695,58.213,50.6835,-0.04600000000000004,-0.11399999999999988,0.10795500000000001,0.10222500000000001,0.0,217.3,217.175,214.01666666666665,214.01666666666665,0.0,0.0
29,0.0,1.0,0.0,1.0,1.0,0.0,0.0,1.0,0.0,100.0,1.0,1.1856,26.0,0.0,0.0,0.0,59.999996,0.0,26.0,26.0,26.0,26.0,-0.15500000000000003,0.2563,0.04783333333333333,291.428,-2.5766999999999998,-2.796875,-1.5378,-1.62,-177.59,216.0025,190.356125,0.0,0.0,0.0,0.0,0.05863333333333334,-5.498166666666667,-5.498166666666667,-0.6055,-0.7695,-0.08087500000000025,-0.714,69.515,-0.1052,-0.21625,1.088,100.0,1.0,1.0,214.24666666666667,0.0,0.0,0.0,0.0,0.0,0.0,0.0,9081.1,0.0,55.0,5.0,250.23000000000002,1.0,0.0,0.0,0.0,0.0,0.0,0.0,0.0,1.4549999999999983,1.4549999999999983,0.0,0.0,1.0,55.0,616.79921,10000.0,85.000001,85.000001,85.000001,85.000001,395.0,0.0,0.0,0.0,1.0,333.33500000000004,51.650999999999996,51.650999999999996,46.448,46.448,34.0,-30.177500000000002,20.375999999999998,-37.07,24.060000000000002,0.0,1782.0614285714287,0.370000000000001,100.0,28.865000000000002,27.909,44.724000000000004,43.394,0.0,1.0,100.0,0.0,0.0,0.0,0.0,3409.285714285714,3033.6,4356.375,4138.6,304.6305,304.95366666666666,314.25,314.554,22.047428571428572,20.6657,22.035125,21.541555555555554,314.999998,314.999998,324.999988,324.999988,99.55912857142857,99.50745,99.56808571428571,99.54824285714285,-0.023499999999999965,-0.16474999999999995,-0.2273333333333334,0.00216666666666665,-0.046666666666666856,-0.03499999999999659,1.454,1.49,38.797,30.1605,38.72,35.635,55.879999999999995,35.593,59.795500000000004,53.0345,53.815,34.6815,58.364,51.341,52.96,34.204499999999996,58.249,50.737,-0.05600000000000005,-0.10899999999999999,0.10495000000000002,0.107355,0.0,217.62,217.53,214.24666666666667,214.24666666666667,0.0,0.0
30,0.0,1.0,0.0,1.0,1.0,0.0,0.0,1.0,0.0,100.0,1.0,1.1856,26.0,0.0,0.0,0.0,59.999996,0.0,26.0,26.0,26.0,26.0,-0.13824999999999998,0.27770000000000006,0.03816666666666667,290.985,-2.6327,-2.68275,-1.479,-1.695375,-174.25,216.0,190.331125,0.0,0.0,0.0,0.0,0.060566666666666664,-5.498166666666667,-5.498166666666667,-0.6035,0.8325,-0.0831249999999999,-0.6240000000000001,69.637,-0.0979,-0.21805000000000002,0.976,100.0,1.0,1.0,214.66666666666669,0.0,0.0,0.0,0.0,0.0,0.0,0.0,9099.0,0.0,55.0,5.0,250.66666666666666,0.0,0.0,0.0,0.0,0.0,0.0,1.0,0.0,1.5030000000000001,1.5030000000000001,0.0,0.0,0.0,55.0,616.79921,10000.0,85.000001,85.000001,85.000001,85.000001,395.0,0.0,0.0,0.0,1.0,333.33500000000004,50.827,50.827,46.768,46.768,34.0,-31.1,19.567999999999998,-35.64333333333333,25.89666666666667,0.0,1782.0157142857142,0.22500000000000142,100.0,29.762,28.679000000000002,44.59,43.397,0.0,1.0,100.0,0.0,0.0,0.0,0.0,3518.857142857143,2974.2,4382.25,4200.5,304.2545,305.173,314.2715,314.34925,22.056714285714285,20.671,22.045,21.55011111111111,314.999998,314.999998,324.999988,324.999988,99.55912857142857,99.50748333333334,99.56824285714286,99.54837142857143,-0.005249999999999977,-0.14800000000000002,-0.21483333333333332,0.007500000000000062,-0.07166666666666544,-0.054999999999999716,1.464,1.502,38.854,30.194,38.781,35.689,55.870000000000005,35.635999999999996,59.832,53.0895,53.805,34.7215,58.3985,51.394,52.949,34.2425,58.2805,50.789,-0.06899999999999995,-0.0950000000000002,0.1029,0.106825,0.0,218.065,217.97500000000002,214.66666666666669,214.66666666666669,0.0,0.0
31,0.0,1.0,0.0,1.0,1.0,0.0,0.0,1.0,0.0,100.0,1.0,1.1856,26.0,0.0,0.0,0.0,59.999996,0.0,26.0,26.0,26.0,26.0,-0.11675000000000002,0.2579,0.0022333333333333333,291.0,-2.6994,-2.761125,-1.5676999999999999,-1.6652500000000001,-170.69,215.995,190.305375,0.0,0.0,0.0,0.0,0.06263333333333335,-5.498166666666667,-5.498166666666667,-0.5893,-0.7085,-0.06925000000000026,0.5529999999999999,69.769,-0.08220000000000001,-0.22005000000000002,0.49799999999999933,100.0,1.0,1.0,214.96666666666667,0.0,0.0,0.0,0.0,0.0,0.0,0.0,9111.6,0.0,55.0,5.0,251.14333333333335,1.0,0.0,0.0,0.0,0.0,0.0,1.0,0.0,1.5539999999999985,1.5539999999999985,0.0,0.0,1.0,55.0,616.79921,10000.0,85.000001,85.000001,85.000001,85.000001,395.0,0.0,0.0,0.0,1.0,333.33500000000004,51.528999999999996,51.528999999999996,45.441,45.441,34.0,-27.25,21.304000000000002,-35.763333333333335,27.296666666666667,0.0,1781.9642857142858,0.14499999999999957,100.0,29.5,28.584,45.308,43.921,0.0,1.0,100.0,0.0,0.0,0.0,0.0,3157.5714285714284,3056.4,4429.75,4284.7,305.376,305.11966666666666,314.05075,314.3545,22.066142857142857,20.6766,22.05575,21.559555555555555,314.999998,314.999998,324.999988,324.999988,99.55912857142857,99.5075,99.56838571428571,99.54852857142858,0.011249999999999982,-0.13424999999999998,-0.17999999999999994,0.03133333333333321,-0.03999999999999915,-0.046666666666666856,1.452,1.466,38.914,30.229,38.848,35.747,55.854,35.68,59.8765,53.152,53.791,34.762,58.44,51.454,52.933,34.281,58.3185,50.8475,-0.07200000000000006,-0.09250000000000025,0.10455500000000001,0.10157000000000001,0.0,218.39499999999998,218.35000000000002,214.96666666666667,214.96666666666667,0.0,0.0
32,0.0,1.0,0.0,1.0,1.0,0.0,0.0,1.0,0.0,100.0,1.0,1.1856,26.0,0.0,0.0,0.0,59.999996,0.0,26.0,26.0,26.0,26.0,-0.09399999999999997,0.2572000000000001,-0.054,291.336,-2.6539,-2.699875,-1.5929,-1.574,-167.13,215.985,190.27975,0.0,0.0,0.0,0.0,0.06470000000000001,-5.498166666666667,-5.498166666666667,-0.6111,0.1625,-0.09437499999999988,-0.815,69.895,-0.0661,-0.231225,0.556,100.0,1.0,1.0,215.55,0.0,0.0,0.0,0.0,0.0,0.0,0.0,9136.4,0.0,55.0,5.0,251.59666666666666,0.0,0.0,0.0,0.0,0.0,0.0,1.0,0.0,1.6050000000000004,1.6050000000000004,0.0,0.0,0.0,55.0,616.79921,10000.0,85.000001,85.000001,85.000001,85.000001,395.0,0.0,0.0,0.0,1.0,166.665,51.163,51.163,46.814,46.814,34.0,-29.009999999999998,21.228,-33.70333333333333,24.956666666666667,0.0,1781.9142857142858,0.10000000000000142,100.0,29.372,28.753,44.719,43.727000000000004,0.0,1.0,100.0,0.0,0.0,0.0,0.0,3427.285714285714,3011.6,4229.5,4065.0,304.6065,305.1413333333333,314.72525,314.92275,22.075714285714284,20.682299999999998,22.066125,21.568666666666665,314.999998,314.999998,324.999988,324.999988,99.55914285714286,99.5075,99.56854285714286,99.54867142857142,0.02200000000000002,-0.11724999999999997,-0.1841666666666666,0.04933333333333323,-0.05333333333332746,-0.05833333333333002,1.5305,1.5430000000000001,38.973,30.264499999999998,38.913,35.804,55.84,35.724000000000004,59.914,53.21,53.777,34.802,58.4755,51.5095,52.919,34.3195,58.351,50.900999999999996,-0.0754999999999999,-0.08749999999999991,0.11307,0.10744500000000001,0.0,218.805,218.76,215.55,215.55,0.0,0.0
33,0.0,1.0,0.0,1.0,1.0,0.0,0.0,1.0,0.0,100.0,1.0,1.1856,26.0,0.0,0.0,0.0,59.999996,0.0,26.0,26.0,26.0,26.0,-0.08437499999999998,0.26370000000000005,-0.0347,291.336,-2.6586,-2.74775,-1.5369000000000002,-1.58225,-163.56,215.975,190.253125,0.0,0.0,0.0,0.0,0.06676666666666667,-5.498166666666667,-5.498166666666667,-0.6124,-0.404,-0.07500000000000018,1.4220000000000002,70.026,-0.0568,-0.2157,0.39000000000000057,100.0,1.0,1.0,215.81333333333333,0.0,0.0,0.0,0.0,0.0,0.0,0.0,9147.5,0.0,55.0,5.0,252.07,1.0,0.0,0.0,0.0,0.0,0.0,1.0,0.0,1.6559999999999988,1.6559999999999988,0.0,0.0,1.0,55.0,616.79921,10000.0,85.000001,85.000001,85.000001,85.000001,395.0,0.0,0.0,0.0,1.0,166.665,51.804,51.804,46.432,46.432,34.0,-25.622500000000002,22.168,-32.86,27.74666666666667,0.0,1781.8628571428571,-0.05999999999999872,100.0,29.281,28.357,44.784,43.794,0.0,1.0,100.0,0.0,0.0,0.0,0.0,3132.857142857143,3024.0,4244.0,4320.0,305.3165,305.272,314.47825,314.248,22.085142857142856,20.6878,22.076625,21.57788888888889,314.999998,314.999998,324.999988,324.999988,99.55914285714286,99.50753333333333,99.5687,99.54881428571429,0.03974999999999995,-0.10324999999999995,-0.16866666666666663,0.05783333333333318,-0.03499999999999659,-0.04833333333333201,1.4775,1.4929999999999999,39.032,30.298499999999997,38.979,35.861999999999995,55.826,35.763,59.9535,53.269999999999996,53.763,34.838499999999996,58.5125,51.567499999999995,52.903999999999996,34.3545,58.3845,50.957499999999996,-0.08549999999999991,-0.07650000000000023,0.106925,0.107355,0.0,219.2,219.16500000000002,215.81333333333333,215.81333333333333,0.0,0.0
34,0.0,1.0,0.0,1.0,1.0,0.0,0.0,1.0,0.0,100.0,1.0,1.1856,26.0,0.0,0.0,0.0,59.999996,0.0,26.0,26.0,26.0,26.0,-0.08024999999999993,0.24580000000000002,-0.058300000000000005,291.702,-2.7193,-2.705875,-1.5949,-1.605625,-160.2,215.9625,190.226875,0.0,0.0,0.0,0.0,0.06873333333333334,-5.498166666666667,-5.498166666666667,-0.6433,-0.7485,-0.04712499999999986,1.08,70.147,-0.0463,-0.227725,0.30600000000000005,100.0,1.0,1.0,216.25,0.0,0.0,0.0,0.0,0.0,0.0,0.0,9166.0,0.0,55.0,5.0,252.50333333333333,0.0,0.0,0.0,0.0,0.0,0.0,1.0,0.0,1.7040000000000006,1.7040000000000006,0.0,0.0,0.0,55.0,616.79921,10000.0,85.000001,85.000001,85.000001,85.000001,395.0,0.0,0.0,0.0,1.0,333.33500000000004,51.971000000000004,51.971000000000004,47.379,47.379,34.0,-26.1,22.322000000000003,-31.303333333333335,27.613333333333333,0.0,1781.8142857142857,-0.120000000000001,100.0,28.992,28.087,44.441,43.865,0.0,1.0,100.0,0.0,0.0,0.0,0.0,3175.142857142857,3027.8,4077.375,4181.2,305.1585,305.311,314.97325,314.5315,22.093857142857143,20.6929,22.086375,21.586666666666666,314.999998,314.999998,324.999988,324.999988,99.55915714285715,99.50753333333333,99.56882857142857,99.54895714285715,0.052000000000000046,-0.09024999999999994,-0.15833333333333333,0.07000000000000006,-0.023333333333326323,-0.04999999999999716,1.505,1.52,39.087,30.3305,39.04,35.916,55.811,35.8,59.988,53.327,53.75,34.8725,58.544,51.6215,52.89,34.387,58.4135,51.0105,-0.09099999999999997,-0.07350000000000012,0.103965,0.11121,0.0,219.54000000000002,219.515,216.25,216.25,0.0,0.0
35,0.0,1.0,0.0,1.0,1.0,0.0,0.0,1.0,0.0,100.0,1.0,1.1856,26.0,0.0,0.0,0.0,59.999996,0.0,26.0,26.0,26.0,26.0,-0.04249999999999998,0.258,-0.06383333333333334,291.733,-2.6726,-2.68425,-1.5659,-1.61175,-156.41,215.9475,190.195125,0.0,0.0,0.0,0.0,0.07093333333333333,-5.498166666666667,-5.498166666666667,-0.6873,-0.308,-0.05162500000000003,0.0040000000000000036,70.281,-0.031400000000000004,-0.23190000000000002,0.05600000000000005,100.0,1.0,1.0,216.74666666666667,0.0,0.0,0.0,0.0,0.0,0.0,0.0,9187.1,0.0,55.0,5.0,252.98666666666668,1.0,0.0,0.0,0.0,0.0,0.0,1.0,0.0,1.7579999999999991,1.7579999999999991,0.0,0.0,1.0,55.0,616.79921,10000.0,85.000001,85.000001,85.000001,85.000001,395.0,0.0,0.0,0.0,1.0,166.665,51.422,51.422,47.028,47.028,34.0,-25.68,25.78,-28.876666666666665,26.46666666666667,0.0,1781.7614285714285,-0.07000000000000028,100.0,28.772,28.426000000000002,44.120000000000005,43.464,0.0,1.0,100.0,0.0,0.0,0.0,0.0,3198.285714285714,3359.9,3995.75,3941.0,305.1515,304.26466666666664,315.11975,315.1335,22.103428571428573,20.698900000000002,22.097375,21.596222222222224,314.999998,314.999998,324.999988,324.999988,99.55915714285715,99.50755,99.569,99.54911428571428,0.05525000000000002,-0.07324999999999993,-0.13516666666666666,0.08783333333333321,-0.04333333333332945,-0.03999999999999915,1.5625,1.5670000000000002,39.147,30.368000000000002,39.108000000000004,35.976,55.794,35.843,60.025999999999996,53.3865,53.733000000000004,34.912,58.579499999999996,51.679,52.873000000000005,34.4245,58.446,51.0665,-0.08299999999999996,-0.07500000000000018,0.105635,0.10169500000000001,0.0,219.95,219.935,216.74666666666667,216.74666666666667,0.0,0.0
