,ABS Active,ABS Enabled,AID Allow Tire Blankets,AID Auto Blip,AID Auto Clutch,AID Auto Shift,AID Fuel Rate,AID Ideal Line,AID Mech Damage,AID Stability,AID Tire Wear Rate,Air Density,Air Temp,Ballast,Best Lap Delta,Best Lap Time,Brake Bias,Brake Pos,Brake Temp FL,Brake Temp FR,Brake Temp RL,Brake Temp RR,CG Accel Lateral,CG Accel Longitudinal,CG Accel Vertical,CG Height,Camber FL,Camber FR,Camber RL,Camber RR,Car Coord X,Car Coord Y,Car Coord Z,Car Damage Front,Car Damage Left,Car Damage Rear,Car Damage Right,Car Pos Norm,Caster FL,Caster FR,Chassis Pitch Angle,Chassis Pitch Rate,Chassis Roll Angle,Chassis Roll Rate,Chassis Velocity X,Chassis Velocity Y,Chassis Velocity Z,Chassis Yaw Rate,Clutch Pos,DRS Active,DRS Available,Drive Train Speed,ERS Heat Charging,ERS Is Charging,ERS Max Energy,ERS Power Level,ERS Recovery Level,Engine Brake Setting,Engine Limiter,Engine RPM,Flags,Fuel Level,Gear,Ground Speed,HR Sample Clock,In Pit,KERS Charge,KERS Deployed Energy,KERS Input,KERS Max Energy,LR Sample Clock,Lap Invalidated,Lap Time,Lap Time2,Last Lap Time,Last Sector Time,MR Sample Clock,Max Fuel,Max Power,Max RPM,Max Sus Travel FL,Max Sus Travel FR,Max Sus Travel RL,Max Sus Travel RR,Max Torque,Max Turbo Boost,Num Tires Off Track,Penalties Enabled,Position,Raw Data Sample Rate,Ride Height FL,Ride Height FR,Ride Height RL,Ride Height RR,Road Temp,Self Align Torque FL,Self Align Torque FR,Self Align Torque RL,Self Align Torque RR,Session Lap Count,Session Time Left,Steering Angle,Surface Grip,Suspension Travel FL,Suspension Travel FR,Suspension Travel RL,Suspension Travel RR,TC Active,TC Enabled,Throttle Pos,Tire Dirt Level FL,Tire Dirt Level FR,Tire Dirt Level RL,Tire Dirt Level RR,Tire Load FL,Tire Load FR,Tire Load RL,Tire Load RR,Tire Loaded Radius FL,Tire Loaded Radius FR,Tire Loaded Radius RL,Tire Loaded Radius RR,Tire Pressure FL,Tire Pressure FR,Tire Pressure RL,Tire Pressure RR,Tire Radius FL,Tire Radius FR,Tire Radius RL,Tire Radius RR,Tire Rubber Grip FL,Tire Rubber Grip FR,Tire Rubber Grip RL,Tire Rubber Grip RR,Tire Slip Angle FL,Tire Slip Angle FR,Tire Slip Angle RL,Tire Slip Angle RR,Tire Slip Ratio FL,Tire Slip Ratio FR,Tire Slip Ratio RL,Tire Slip Ratio RR,Tire Temp Core FL,Tire Temp Core FR,Tire Temp Core RL,Tire Temp Core RR,Tire Temp Inner FL,Tire Temp Inner FR,Tire Temp Inner RL,Tire Temp Inner RR,Tire Temp Middle FL,Tire Temp Middle FR,Tire Temp Middle RL,Tire Temp Middle RR,Tire Temp Outer FL,Tire Temp Outer FR,Tire Temp Outer RL,Tire Temp Outer RR,Toe In FL,Toe In FR,Toe In RL,Toe In RR,Turbo Boost,Wheel Angular Speed FL,Wheel Angular Speed FR,Wheel Angular Speed RL,Wheel Angular Speed RR,Wind Direction,Wind Speed
0,0.0,1.0,0.0,1.0,1.0,0.0,0.0,1.0,0.0,100.0,1.0,1.1856,26.0,0.0,0.0,0.0,59.99999,0.0,26.0,26.0,26.0,26.0,-0.031888888888888856,0.3013000000000001,0.2107,293.106,-2.79615,-2.6132222222222223,-1.5635,-1.5016,-275.73,215.4075,190.98775,0.0,0.0,0.0,0.0,0.0015666666666666051,-5.498166666666667,-5.498166666666667,-0.5663,2.0215,0.005222222222222239,-0.5230000000000001,65.5,-0.030500000000000003,-0.226275,-0.02400000000000002,100.0,1.0,1.0,202.22,0.0,0.0,0.0,0.0,0.0,0.0,0.0,8571.4,0.0,55.0,5.0,235.7733333333333,0.0,0.0,0.0,0.0,0.0,0.0,0.0,0.0,0.0030000000000001137,0.0030000000000001137,0.0,0.0,0.0,55.0,616.79921,10000.0,85.0,85.0,85.0,85.0,395.0,0.0,0.0,0.0,1.0,20.0,50.735,50.735,48.965,48.965,34.0,-30.1,32.86,-29.72,26.5075,0.0,1783.806,0.05000000000000071,100.0,27.43,27.382,40.245000000000005,40.099000000000004,0.0,1.0,100.0,0.0,0.0,0.0,0.0,3404.714285714286,4268.2,4110.25,4134.6,304.474,301.57125,314.88075,314.5155,21.767,20.5123,21.7382,21.2822,314.99999,314.99999,324.99998,324.99998,99.55844285714285,99.50716666666666,99.56394285714286,99.54404285714286,0.02450000000000019,-0.07133333333333325,-0.138,0.08699999999999997,-0.03166666666666629,-0.07428571428571473,1.55,1.541,37.044,29.201999999999998,36.864000000000004,34.0135,56.128,34.434,58.6505,51.238,54.06,33.6215,57.297,49.6145,53.238,33.198499999999996,57.2685,49.04566666666666,-0.07699999999999996,-0.07650000000000023,0.10663,0.11335,0.0,205.235,205.245,202.22,202.22,0.0,0.0
1,0.0,1.0,0.0,1.0,1.0,0.0,0.0,1.0,0.0,100.0,1.0,1.1856,26.0,0.0,0.0,0.0,59.999996,0.0,26.0,26.0,26.0,26.0,-0.056222222222222173,0.3299000000000001,0.17182,292.282,-2.635,-2.700555555555556,-1.5995,-1.5266000000000002,-272.39,215.41500000000002,190.967875,0.0,0.0,0.0,0.0,0.0034999999999999476,-5.498166666666667,-5.498166666666667,-0.4698,-1.5135,-0.0477777777777777,-0.2560000000000002,65.66,-0.020900000000000002,-0.17035,0.44399999999999906,100.0,1.0,1.0,202.10333333333332,0.0,0.0,0.0,0.0,0.0,0.0,0.0,8566.4,0.0,55.0,5.0,236.34,1.0,0.0,0.0,0.0,0.0,0.0,0.0,0.0,0.053999999999998494,0.053999999999998494,0.0,0.0,1.0,55.0,616.79921,10000.0,85.000001,85.000001,85.000001,85.000001,395.0,0.0,0.0,0.0,1.0,333.33500000000004,54.337,54.337,46.967,46.967,34.0,-22.1525,16.852,-38.56,39.845,0.0,1783.753,0.3150000000000013,100.0,27.551,27.251,42.508,42.839,0.0,1.0,100.0,0.0,0.0,0.0,0.0,2809.5714285714284,2417.0,4859.625,5602.6,306.373,307.1225,312.80625,311.04675,21.7766,20.5174,21.7491,21.2915,314.999998,314.999998,324.999988,324.999988,99.55845714285714,99.50718333333333,99.56408571428571,99.54418571428572,0.03750000000000009,-0.09766666666666679,-0.134,0.08766666666666678,-0.03166666666666629,-0.018571428571426907,1.2816666666666667,1.3125,37.104,29.2335,36.932,34.072,56.111000000000004,34.4715,58.7,51.3095,54.044,33.6565,57.3435,49.683,53.221000000000004,33.232,57.312,49.11266666666667,-0.050999999999999934,-0.09699999999999998,0.106925,0.11632500000000001,0.0,205.67000000000002,205.655,202.10333333333332,202.10333333333332,0.0,0.0
2,0.0,1.0,0.0,1.0,1.0,0.0,0.0,1.0,0.0,100.0,1.0,1.1856,26.0,0.0,0.0,0.0,59.999996,0.0,26.0,26.0,26.0,26.0,-0.06866666666666665,0.2881,-0.08424,293.793,-2.66965,-2.6484444444444444,-1.5732,-1.5079,-268.84,215.4225,190.94775,0.0,0.0,0.0,0.0,0.005566666666666609,-5.498166666666667,-5.498166666666667,-0.5822,0.9695,-0.0038888888888890527,1.697,65.801,-0.025500000000000002,-0.2715,0.7300000000000004,100.0,1.0,1.0,203.59333333333333,0.0,0.0,0.0,0.0,0.0,0.0,0.0,8629.6,0.0,55.0,5.0,236.85666666666668,0.0,0.0,0.0,0.0,0.0,0.0,0.0,0.0,0.10800000000000054,0.10800000000000054,0.0,0.0,0.0,55.0,616.79921,10000.0,85.000001,85.000001,85.000001,85.000001,395.0,0.0,0.0,0.0,1.0,166.665,51.682,51.682,50.705,50.705,34.0,-29.240000000000002,22.485999999999997,-24.863333333333337,19.3325,0.0,1783.701,0.4450000000000003,100.0,28.22,27.677,41.723,41.632,0.0,1.0,100.0,0.0,0.0,0.0,0.0,3373.142857142857,3179.0,3517.625,3407.1,304.533,304.47425,316.288,316.4565,21.7873,20.5228,21.759900000000002,21.3004,314.999998,314.999998,324.999988,324.999988,99.55845714285714,99.50718333333333,99.56424285714286,99.54431428571428,0.01075000000000026,-0.1096666666666668,-0.16233333333333333,0.0685,-0.07166666666666544,-0.07000000000000028,1.7806666666666666,1.7945,37.17,29.2675,36.998999999999995,34.1275,56.097,34.5135,58.7375,51.363,54.03,33.695499999999996,57.378,49.7345,53.207,33.269,57.344,49.163666666666664,-0.044499999999999984,-0.11249999999999982,0.10905500000000001,0.10770500000000001,0.0,206.18,206.10500000000002,203.59333333333333,203.59333333333333,0.0,0.0
3,0.0,1.0,0.0,1.0,1.0,0.0,0.0,1.0,0.0,100.0,1.0,1.1856,26.0,0.0,0.0,0.0,59.999996,0.0,26.0,26.0,26.0,26.0,-0.07099999999999995,0.31510000000000016,-0.00728,292.877,-2.68445,-2.6774444444444443,-1.554,-1.4824,-265.68,215.4275,190.9285,0.0,0.0,0.0,0.0,0.007399999999999962,-5.498166666666667,-5.498166666666667,-0.4983,0.538,0.0067777777777777715,-2.431,65.952,-0.0362,-0.185775,0.6600000000000001,100.0,1.0,1.0,203.34,0.0,0.0,0.0,0.0,0.0,0.0,0.0,8618.9,0.0,55.0,5.0,237.39333333333332,1.0,0.0,0.0,0.0,0.0,0.0,0.0,0.0,0.1559999999999988,0.1559999999999988,0.0,0.0,1.0,55.0,616.79921,10000.0,85.000001,85.000001,85.000001,85.000001,395.0,0.0,0.0,0.0,1.0,166.665,53.314,53.314,47.348,47.348,34.0,-23.73,19.706,-35.49333333333334,27.552500000000002,0.0,1783.653,0.5450000000000017,100.0,27.818,27.628,42.061,42.236000000000004,0.0,1.0,100.0,0.0,0.0,0.0,0.0,2848.5714285714284,2861.1,4577.25,4392.9,306.262,305.5155,313.683,313.76025,21.7963,20.5278,21.7697,21.3089,314.999998,314.999998,324.999988,324.999988,99.55845714285714,99.5072,99.56437142857143,99.54445714285714,0.016000000000000014,-0.11966666666666681,-0.15533333333333332,0.0645,-0.030000000000001137,-0.015714285714281573,1.4183333333333334,1.4355,37.227000000000004,29.299,37.061,34.1805,56.08,34.5535,58.777,51.428,54.013999999999996,33.732,57.415,49.797,53.19,33.3045,57.3775,49.225,-0.039000000000000035,-0.11949999999999994,0.10927,0.10348500000000001,0.0,206.64,206.57,203.34,203.34,0.0,0.0
4,0.0,1.0,0.0,1.0,1.0,0.0,0.0,1.0,0.0,100.0,1.0,1.1856,26.0,0.0,0.0,0.0,59.999996,0.0,26.0,26.0,26.0,26.0,-0.07066666666666666,0.28500000000000014,0.0047,293.381,-2.6745,-2.748666666666667,-1.4909,-1.5947,-262.51,215.43,190.910375,0.0,0.0,0.0,0.0,0.009266666666666534,-5.498166666666667,-5.498166666666667,-0.5314,-0.954,-0.04466666666666663,-0.6590000000000003,66.087,-0.0417,-0.23675000000000002,0.9920000000000009,100.0,1.0,1.0,203.99333333333334,0.0,0.0,0.0,0.0,0.0,0.0,0.0,8646.5,0.0,55.0,5.0,237.88666666666666,0.0,0.0,0.0,0.0,0.0,0.0,0.0,0.0,0.20400000000000063,0.20400000000000063,0.0,0.0,0.0,55.0,616.79921,10000.0,85.000001,85.000001,85.000001,85.000001,395.0,0.0,0.0,0.0,1.0,166.665,52.994,52.994,48.766999999999996,48.766999999999996,34.0,-28.1575,19.588,-29.839999999999996,23.947499999999998,0.0,1783.605,0.6999999999999993,100.0,27.71,27.221,42.824,42.228,0.0,1.0,100.0,0.0,0.0,0.0,0.0,3217.0,2848.3,4046.875,3829.1,305.157,305.66175,314.967,315.25725,21.8056,20.5326,21.7797,21.3173,314.999998,314.999998,324.999988,324.999988,99.55845714285714,99.50721666666666,99.5645,99.5446,-0.0044999999999999485,-0.1333333333333333,-0.16866666666666663,0.05966666666666676,-0.06333333333333258,-0.04714285714285893,1.5503333333333333,1.579,37.285,29.3285,37.123000000000005,34.233000000000004,56.065,34.591,58.8185,51.485,54.0,33.7665,57.4535,49.8515,53.175,33.3375,57.4135,49.278333333333336,-0.02100000000000002,-0.12700000000000022,0.10610000000000001,0.10688,0.0,207.035,206.95,203.99333333333334,203.99333333333334,0.0,0.0
5,0.0,1.0,0.0,1.0,1.0,0.0,0.0,1.0,0.0,100.0,1.0,1.1856,26.0,0.0,0.0,0.0,59.999996,0.0,26.0,26.0,26.0,26.0,-0.10255555555555551,0.3015000000000001,-0.03896,293.747,-2.6466,-2.702111111111111,-1.5409000000000002,-1.5758,-259.13,215.4325,190.89075,0.0,0.0,0.0,0.0,0.011199999999999988,-5.498166666666667,-5.498166666666667,-0.5399,0.567,-0.028444444444444272,0.7039999999999997,66.233,-0.0618,-0.22535000000000002,1.0359999999999996,100.0,1.0,1.0,204.52666666666667,0.0,0.0,0.0,0.0,0.0,0.0,0.0,8669.2,0.0,55.0,5.0,238.41,1.0,0.0,0.0,0.0,0.0,0.0,0.0,0.0,0.254999999999999,0.254999999999999,0.0,0.0,1.0,55.0,616.79921,10000.0,85.000001,85.000001,85.000001,85.000001,395.0,0.0,0.0,0.0,1.0,166.665,53.238,53.238,49.254999999999995,49.254999999999995,34.0,-25.765,21.092,-29.626666666666665,23.3625,0.0,1783.554,0.16000000000000014,100.0,27.757,26.934,42.382,41.546,0.0,1.0,100.0,0.0,0.0,0.0,0.0,3018.0,2997.7,3903.25,3954.0,305.5135,305.317,315.32275,315.0785,21.8154,20.5378,21.79,21.3259,314.999998,314.999998,324.999988,324.999988,99.55847142857142,99.50723333333333,99.56464285714286,99.54472857142858,0.007000000000000117,-0.11233333333333317,-0.1818333333333334,0.04166666666666674,-0.03333333333333144,-0.058571428571426054,1.5899999999999999,1.6505,37.346000000000004,29.361,37.188,34.287,56.05,34.632,58.8565,51.5435,53.985,33.804,57.4895,49.9075,53.16,33.3735,57.4465,49.333333333333336,-0.05249999999999999,-0.10050000000000026,0.10643000000000001,0.109295,0.0,207.51,207.41500000000002,204.52666666666667,204.52666666666667,0.0,0.0
6,0.0,1.0,0.0,1.0,1.0,0.0,0.0,1.0,0.0,100.0,1.0,1.1856,26.0,0.0,0.0,0.0,59.999996,0.0,26.0,26.0,26.0,26.0,-0.10233333333333339,0.30600000000000005,-0.01314,293.533,-2.67585,-2.782222222222222,-1.4861,-1.5654,-255.95,215.4325,190.87125,0.0,0.0,0.0,0.0,0.01306666666666656,-5.498166666666667,-5.498166666666667,-0.5268,-0.26750000000000007,-0.05033333333333356,0.44599999999999973,66.374,-0.0664,-0.20397500000000002,0.7699999999999996,100.0,1.0,1.0,204.75666666666666,0.0,0.0,0.0,0.0,0.0,0.0,0.0,8678.9,0.0,55.0,5.0,238.91666666666669,0.0,0.0,0.0,0.0,0.0,0.0,0.0,0.0,0.3030000000000008,0.3030000000000008,0.0,0.0,0.0,55.0,616.79921,10000.0,85.000001,85.000001,85.000001,85.000001,395.0,0.0,0.0,0.0,1.0,166.665,53.65,53.65,48.599000000000004,48.599000000000004,34.0,-27.112499999999997,20.384,-31.923333333333336,24.67,0.0,1783.507,0.4450000000000003,100.0,27.492,26.551000000000002,42.623000000000005,41.644999999999996,0.0,1.0,100.0,0.0,0.0,0.0,0.0,3087.857142857143,2868.4,4199.875,4108.2,305.398,305.751,314.51,314.662,21.8245,20.5426,21.7999,21.3343,314.999998,314.999998,324.999988,324.999988,99.55847142857142,99.50723333333333,99.56478571428572,99.54485714285714,-0.00550000000000006,-0.11966666666666681,-0.17833333333333334,0.040166666666666684,-0.04999999999999716,-0.03857142857143003,1.5216666666666665,1.55,37.403,29.391,37.248999999999995,34.3395,56.034,34.6685,58.8965,51.603,53.97,33.838,57.5265,49.9645,53.144,33.4055,57.481,49.388999999999996,-0.03649999999999998,-0.10400000000000009,0.10545,0.10344,0.0,207.94,207.85500000000002,204.75666666666666,204.75666666666666,0.0,0.0
7,0.0,1.0,0.0,1.0,1.0,0.0,0.0,1.0,0.0,100.0,1.0,1.1856,26.0,0.0,0.0,0.0,59.999996,0.0,26.0,26.0,26.0,26.0,-0.06766666666666665,0.29920000000000013,-0.00044000000000000007,293.488,-2.6236,-2.773,-1.5384,-1.6093000000000002,-252.56,215.43,190.850625,0.0,0.0,0.0,0.0,0.015033333333333343,-5.498166666666667,-5.498166666666667,-0.5348,0.11149999999999993,-0.042888888888888754,-0.2530000000000001,66.518,-0.07050000000000001,-0.216875,0.6959999999999997,100.0,1.0,1.0,205.29333333333335,0.0,0.0,0.0,0.0,0.0,0.0,0.0,8701.6,0.0,55.0,5.0,239.43666666666667,1.0,0.0,0.0,0.0,0.0,0.0,0.0,0.0,0.3539999999999992,0.3539999999999992,0.0,0.0,1.0,55.0,616.79921,10000.0,85.000001,85.000001,85.000001,85.000001,395.0,0.0,0.0,0.0,1.0,166.665,53.253,53.253,48.752,48.752,34.0,-26.59,20.939999999999998,-32.903333333333336,23.4325,0.0,1783.456,-0.09499999999999886,100.0,27.626,26.953,42.558,41.746,0.0,1.0,100.0,0.0,0.0,0.0,0.0,3185.5714285714284,2859.0,4153.875,3943.7,305.222,305.544,314.75825,314.98825,21.8344,20.5478,21.8104,21.3431,314.999998,314.999998,324.999988,324.999988,99.55848571428571,99.50725,99.56492857142857,99.545,0.015249999999999986,-0.10866666666666669,-0.19766666666666666,0.027166666666666783,-0.04833333333333201,-0.028571428571432023,1.5376666666666665,1.57,37.465,29.4235,37.315,34.3945,56.019999999999996,34.709,58.9375,51.6635,53.956,33.875,57.565,50.0225,53.129999999999995,33.4415,57.5165,49.44566666666667,-0.08050000000000002,-0.07250000000000023,0.10888,0.107035,0.0,208.37,208.29500000000002,205.29333333333335,205.29333333333335,0.0,0.0
8,0.0,1.0,0.0,1.0,1.0,0.0,0.0,1.0,0.0,100.0,1.0,1.1856,26.0,0.0,0.0,0.0,59.999996,0.0,26.0,26.0,26.0,26.0,-0.04933333333333334,0.2864,-0.02534,293.51800000000003,-2.6913,-2.707777777777778,-1.5517,-1.6025,-248.97,215.425,190.828875,0.0,0.0,0.0,0.0,0.017133333333333334,-5.498166666666667,-5.498166666666667,-0.5372,-0.09499999999999997,-0.033666666666666956,-1.138,66.67099999999999,-0.0591,-0.21955000000000002,0.2759999999999998,100.0,1.0,1.0,205.76333333333332,0.0,0.0,0.0,0.0,0.0,0.0,0.0,8721.6,0.0,55.0,5.0,239.99,0.0,0.0,0.0,0.0,0.0,0.0,0.0,0.0,0.40800000000000125,0.40800000000000125,0.0,0.0,0.0,55.0,616.79921,10000.0,85.000001,85.000001,85.000001,85.000001,395.0,0.0,0.0,0.0,1.0,166.665,53.345,53.345,48.492,48.492,34.0,-26.025,21.552,-30.97,24.55,0.0,1783.401,-0.125,100.0,27.354,27.073999999999998,42.573,41.897,0.0,1.0,100.0,0.0,0.0,0.0,0.0,3124.857142857143,2937.5,4092.0,3928.5,305.4725,305.32025,314.90225,315.00925,21.8447,20.5533,21.8214,21.3526,314.999998,314.999998,324.999988,324.999988,99.55848571428571,99.50726666666667,99.56508571428571,99.54515714285715,0.027249999999999996,-0.09499999999999997,-0.16799999999999993,0.05233333333333334,-0.061666666666667425,-0.03142857142857025,1.5546666666666666,1.5605,37.53,29.458,37.384,34.454,56.003,34.7515,58.9805,51.729,53.941,33.914,57.605000000000004,50.085499999999996,53.113,33.4785,57.5535,49.507333333333335,-0.08850000000000002,-0.06000000000000005,0.10250000000000001,0.10779000000000001,0.0,208.84,208.775,205.76333333333332,205.76333333333332,0.0,0.0
9,0.0,1.0,0.0,1.0,1.0,0.0,0.0,1.0,0.0,100.0,1.0,1.1856,26.0,0.0,0.0,0.0,59.999996,0.0,26.0,26.0,26.0,26.0,-0.041444444444444395,0.2965,0.008940000000000002,293.32,-2.6694,-2.7279999999999998,-1.5159,-1.5613000000000001,-245.96,215.41750000000002,190.8105,0.0,0.0,0.0,0.0,0.018866666666666587,-5.498166666666667,-5.498166666666667,-0.5348,0.1775,-0.040777777777778024,0.7250000000000001,66.799,-0.046,-0.212725,0.08000000000000007,100.0,1.0,1.0,206.13,0.0,0.0,0.0,0.0,0.0,0.0,0.0,8737.1,0.0,55.0,5.0,240.44666666666666,1.0,0.0,0.0,0.0,0.0,0.0,0.0,0.0,0.4529999999999994,0.4529999999999994,0.0,0.0,1.0,55.0,616.79921,10000.0,85.000001,85.000001,85.000001,85.000001,395.0,0.0,0.0,0.0,1.0,333.33500000000004,53.085,53.085,48.706,48.706,34.0,-24.8625,23.146,-29.299999999999997,26.2775,0.0,1783.356,-0.259999999999998,100.0,27.688,26.902,42.609,41.838,0.0,1.0,100.0,0.0,0.0,0.0,0.0,3115.4285714285716,3046.3,4044.375,4115.3,305.2815,305.18975,314.941,314.66575,21.8534,20.558,21.8306,21.360500000000002,314.999998,314.999998,324.999988,324.999988,99.55848571428571,99.50728333333333,99.5652,99.54527142857143,0.054749999999999854,-0.07766666666666677,-0.14816666666666656,0.0718333333333332,-0.03833333333332689,-0.060000000000002274,1.532,1.5545,37.584,29.487000000000002,37.441,34.503,55.989999999999995,34.786,59.016,51.783,53.928,33.946,57.638,50.137,53.1,33.509,57.584,49.558,-0.09450000000000003,-0.06000000000000005,0.10998500000000001,0.10540000000000001,0.0,209.21,209.22,206.13,206.13,0.0,0.0
10,0.0,1.0,0.0,1.0,1.0,0.0,0.0,1.0,0.0,100.0,1.0,1.1856,26.0,0.0,0.0,0.0,59.999996,0.0,26.0,26.0,26.0,26.0,-0.017111111111111077,0.29490000000000016,0.0001,293.228,-2.676,-2.7013333333333334,-1.5558,-1.5481,-242.55,215.4125,190.789625,0.0,0.0,0.0,0.0,0.02086666666666659,-5.498166666666667,-5.498166666666667,-0.5292,-0.1915,-0.01922222222222203,0.004999999999999893,66.944,-0.0341,-0.210625,-0.02200000000000024,100.0,1.0,1.0,206.51,0.0,0.0,0.0,0.0,0.0,0.0,0.0,8753.2,0.0,55.0,5.0,240.97,0.0,0.0,0.0,0.0,0.0,0.0,1.0,0.0,0.5040000000000013,0.5040000000000013,0.0,0.0,0.0,55.0,616.79921,10000.0,85.000001,85.000001,85.000001,85.000001,395.0,0.0,0.0,0.0,1.0,166.665,53.299,53.299,48.416,48.416,34.0,-24.695,22.624000000000002,-30.689999999999998,26.9325,0.0,1783.306,-0.384999999999998,100.0,27.522,27.044,42.617000000000004,42.251,0.0,1.0,100.0,0.0,0.0,0.0,0.0,3106.857142857143,2921.5,4156.625,4182.5,305.4865,305.4105,314.7345,314.41375,21.8631,20.5632,21.841,21.3694,314.999998,314.999998,324.999988,324.999988,99.5585,99.5073,99.56535714285714,99.54541428571429,0.052999999999999936,-0.06266666666666665,-0.1466666666666666,0.07216666666666671,-0.051666666666669414,-0.05285714285714249,1.5273333333333334,1.512,37.644,29.52,37.506,34.559,55.977000000000004,34.824,59.057,51.8455,53.916,33.9815,57.6765,50.197,53.086,33.542500000000004,57.6195,49.61666666666667,-0.10549999999999993,-0.038000000000000256,0.105755,0.106065,0.0,209.675,209.64,206.51,206.51,0.0,0.0
11,0.0,1.0,0.0,1.0,1.0,0.0,0.0,1.0,0.0,100.0,1.0,1.1856,26.0,0.0,0.0,0.0,59.999996,0.0,26.0,26.0,26.0,26.0,0.017555555555555546,0.2825,-0.04194,293.472,-2.7027,-2.6951111111111112,-1.5631,-1.5234,-238.93,215.4025,190.767375,0.0,0.0,0.0,0.0,0.022599999999999953,-5.498166666666667,-5.498166666666667,-0.5509000000000001,-0.3015000000000001,0.0058888888888888324,-0.40500000000000025,67.094,-0.016,-0.22462500000000002,-0.242,100.0,1.0,1.0,207.06666666666666,0.0,0.0,0.0,0.0,0.0,0.0,0.0,8776.9,0.0,55.0,5.0,241.51,1.0,0.0,0.0,0.0,0.0,0.0,1.0,0.0,0.5579999999999998,0.5579999999999998,0.0,0.0,1.0,55.0,616.79921,10000.0,85.000001,85.000001,85.000001,85.000001,395.0,0.0,0.0,0.0,1.0,166.665,53.253,53.253,48.874,48.874,34.0,-24.325,23.805999999999997,-27.866666666666667,27.017500000000002,0.0,1783.252,-0.5249999999999986,100.0,27.223,27.12,42.391,42.296,0.0,1.0,100.0,0.0,0.0,0.0,0.0,3120.857142857143,3019.1,3942.625,4040.7,305.463,305.111,315.25825,314.7845,21.8733,20.5688,21.852,21.3789,314.999998,314.999998,324.999988,324.999988,99.5585,99.5073,99.5655,99.54557142857144,0.06999999999999984,-0.05333333333333323,-0.13,0.10633333333333339,-0.061666666666667425,-0.044285714285713595,1.5776666666666666,1.558,37.708,29.555,37.575,34.6185,55.961,34.8645,59.0975,51.911,53.900999999999996,34.0185,57.714,50.26,53.071,33.578,57.653999999999996,49.678333333333335,-0.11049999999999993,-0.03500000000000014,0.10819500000000001,0.11407500000000001,0.0,210.12,210.11,207.06666666666666,207.06666666666666,0.0,0.0
12,0.0,1.0,0.0,1.0,1.0,0.0,0.0,1.0,0.0,100.0,1.0,1.1856,26.0,0.0,0.0,0.0,59.999996,0.0,26.0,26.0,26.0,26.0,0.00377777777777788,0.2946,-0.0029000000000000002,293.182,-2.70145,-2.6846666666666668,-1.5622,-1.5350000000000001,-235.91,215.3975,190.748125,0.0,0.0,0.0,0.0,0.025466666666666526,-5.498166666666667,-5.498166666666667,-0.5436,0.43299999999999994,0.014555555555555655,0.8289999999999997,67.22,-0.0009000000000000001,-0.20705,-0.39999999999999947,100.0,1.0,1.0,207.39,0.0,0.0,0.0,0.0,0.0,0.0,0.0,8790.5,0.0,55.0,5.0,241.96333333333334,0.0,0.0,0.0,0.0,0.0,0.0,1.0,0.0,0.602999999999998,0.602999999999998,0.0,0.0,0.0,55.0,616.79921,10000.0,85.000001,85.000001,85.000001,85.000001,395.0,0.0,0.0,0.0,1.0,333.33500000000004,52.994,52.994,48.385999999999996,48.385999999999996,34.0,-23.275,24.787999999999997,-27.240000000000002,29.2325,0.0,1783.206,-0.384999999999998,100.0,27.537,27.276,42.321,42.2,0.0,1.0,100.0,0.0,0.0,0.0,0.0,3000.714285714286,3159.7,4068.75,4209.9,305.623,304.828,314.91575,314.47275,21.8818,20.5736,21.8611,21.3868,314.999998,314.999998,324.999988,324.999988,99.55851428571428,99.5073,99.56562857142858,99.54568571428571,0.07474999999999987,-0.05400000000000005,-0.09366666666666656,0.12033333333333318,-0.05833333333333002,-0.05142857142857338,1.561,1.5375,37.760999999999996,29.585,37.632,34.667500000000004,55.95,34.8985,59.1315,51.965,53.89,34.05,57.7455,50.312,53.059,33.6085,57.683,49.72933333333333,-0.09950000000000003,-0.05500000000000016,0.10617000000000001,0.10430500000000001,0.0,210.515,210.535,207.39,207.39,0.0,0.0
13,0.0,1.0,0.0,1.0,1.0,0.0,0.0,1.0,0.0,100.0,1.0,1.1856,26.0,0.0,0.0,0.0,59.999996,0.0,26.0,26.0,26.0,26.0,0.04555555555555557,0.28190000000000004,0.02052,292.862,-2.69545,-2.6926666666666668,-1.5581,-1.5432000000000001,-232.48,215.39,190.7265,0.0,0.0,0.0,0.0,0.026699999999999946,-5.498166666666667,-5.498166666666667,-0.5379,-0.2550000000000001,0.008444444444444255,-0.44399999999999995,67.363,0.0033,-0.213475,-0.2779999999999996,100.0,1.0,1.0,207.75,0.0,0.0,0.0,0.0,0.0,0.0,0.0,8805.8,0.0,55.0,5.0,242.48000000000002,1.0,0.0,0.0,0.0,0.0,0.0,1.0,0.0,0.6539999999999999,0.6539999999999999,0.0,0.0,1.0,55.0,616.79921,10000.0,85.000001,85.000001,85.000001,85.000001,395.0,0.0,0.0,0.0,1.0,166.665,52.887,52.887,48.065,48.065,34.0,-22.855,25.13,-29.049999999999997,29.337500000000002,0.0,1783.155,-0.5850000000000009,100.0,27.547,27.561,42.58,42.752,0.0,1.0,100.0,0.0,0.0,0.0,0.0,3128.4285714285716,3016.5,4177.875,4224.7,305.431,305.095,314.68,314.313,21.8913,20.579,21.8716,21.396,314.999998,314.999998,324.999988,324.999988,99.55852857142857,99.50731666666667,99.56577142857142,99.54584285714286,0.10450000000000026,-0.02066666666666661,-0.10899999999999999,0.11133333333333328,-0.05333333333332746,-0.04999999999999716,1.5143333333333335,1.5025,37.821,29.619,37.697,34.7245,55.937,34.937,59.1725,52.028999999999996,53.878,34.085,57.783500000000004,50.3735,53.046,33.6425,57.718,49.78966666666666,-0.123,-0.02499999999999991,0.10822000000000001,0.10494500000000001,0.0,210.945,210.94,207.75,207.75,0.0,0.0
14,0.0,1.0,0.0,1.0,1.0,0.0,0.0,1.0,0.0,100.0,1.0,1.1856,26.0,0.0,0.0,0.0,59.999996,0.0,26.0,26.0,26.0,26.0,0.031777777777777905,0.27570000000000006,-0.030000000000000002,293.106,-2.70425,-2.7096666666666667,-1.5664,-1.5411000000000001,-229.04,215.3825,190.705125,0.0,0.0,0.0,0.0,0.028699999999999948,-5.498166666666667,-5.498166666666667,-0.5508000000000001,-0.015000000000000124,0.022555555555555662,0.968,67.503,0.01,-0.2257,-0.4059999999999997,100.0,1.0,1.0,208.28,0.0,0.0,0.0,0.0,0.0,0.0,0.0,8828.3,0.0,55.0,5.0,242.98000000000002,0.0,0.0,0.0,0.0,0.0,0.0,1.0,0.0,0.7049999999999983,0.7049999999999983,0.0,0.0,0.0,55.0,616.79921,10000.0,85.000001,85.000001,85.000001,85.000001,395.0,0.0,0.0,0.0,1.0,166.665,52.872,52.872,48.492,48.492,34.0,-22.455,25.759999999999998,-26.293333333333337,29.27,0.0,1783.104,-0.4349999999999987,100.0,27.72,27.553,42.563,42.68,0.0,1.0,100.0,0.0,0.0,0.0,0.0,2981.285714285714,3110.3,3951.25,4124.1,305.682,304.9495,315.1885,314.654,21.9009,20.5845,21.881999999999998,21.405,314.999998,314.999998,324.999988,324.999988,99.55854285714285,99.50731666666667,99.56591428571429,99.54598571428572,0.09125000000000005,-0.02633333333333332,-0.09250000000000003,0.13366666666666682,-0.03499999999999659,-0.04285714285714448,1.5683333333333334,1.552,37.879999999999995,29.653,37.762,34.781,55.925,34.975,59.210499999999996,52.091499999999996,53.866,34.1205,57.819,50.433,53.033,33.676,57.75,49.848333333333336,-0.10499999999999998,-0.04300000000000015,0.10784,0.106465,0.0,211.35500000000002,211.385,208.28,208.28,0.0,0.0
15,0.0,1.0,0.0,1.0,1.0,0.0,0.0,1.0,0.0,100.0,1.0,1.1856,26.0,0.0,0.0,0.0,59.999996,0.0,26.0,26.0,26.0,26.0,0.05566666666666675,0.2722,-0.02584,293.015,-2.69615,-2.6854444444444443,-1.5535,-1.5598,-225.59,215.3775,190.683375,0.0,0.0,0.0,0.0,0.03069999999999995,-5.498166666666667,-5.498166666666667,-0.5437000000000001,0.1925,0.026111111111110974,-0.8069999999999999,67.643,0.016300000000000002,-0.21205000000000002,-0.3179999999999996,100.0,1.0,1.0,208.68,0.0,0.0,0.0,0.0,0.0,0.0,0.0,8845.2,0.0,55.0,5.0,243.48666666666668,1.0,0.0,0.0,0.0,0.0,0.0,1.0,0.0,0.7560000000000002,0.7560000000000002,0.0,0.0,1.0,55.0,616.79921,10000.0,85.000001,85.000001,85.000001,85.000001,395.0,0.0,0.0,0.0,1.0,166.665,52.933,52.933,48.294,48.294,34.0,-23.025,24.13,-27.563333333333333,29.712500000000002,0.0,1783.053,-0.34499999999999886,100.0,27.531,27.766,42.372,42.806,0.0,1.0,100.0,0.0,0.0,0.0,0.0,3069.0,2978.7,4099.625,4114.5,305.6125,305.15425,314.90625,314.57075,21.9104,20.59,21.8923,21.414,314.999998,314.999998,324.999988,324.999988,99.55854285714285,99.50731666666667,99.56605714285715,99.54612857142857,0.08924999999999983,-0.036666666666666625,-0.09650000000000003,0.133,-0.061666666666667425,-0.0357142857142847,1.5343333333333335,1.5185,37.94,29.686999999999998,37.827,34.8375,55.913,35.013,59.2485,52.153999999999996,53.854,34.1555,57.854,50.4935,53.019999999999996,33.7095,57.7825,49.907666666666664,-0.10350000000000004,-0.0495000000000001,0.10601500000000001,0.11367500000000001,0.0,211.825,211.82,208.68,208.68,0.0,0.0
16,0.0,1.0,0.0,1.0,1.0,0.0,0.0,1.0,0.0,100.0,1.0,1.1856,26.0,0.0,0.0,0.0,59.999996,0.0,26.0,26.0,26.0,26.0,0.03288888888888897,0.26870000000000016,0.0005200000000000001,292.77,-2.752,-2.6336666666666666,-1.5323,-1.5575999999999999,-222.14,215.3725,190.66125,0.0,0.0,0.0,0.0,0.03273333333333339,-5.498166666666667,-5.498166666666667,-0.5537000000000001,-0.31899999999999995,0.02111111111111108,0.351,67.783,0.0179,-0.224225,-0.266,100.0,1.0,1.0,209.0966666666667,0.0,0.0,0.0,0.0,0.0,0.0,0.0,8862.8,0.0,55.0,5.0,243.99333333333334,0.0,0.0,0.0,0.0,0.0,0.0,1.0,0.0,0.8069999999999986,0.8069999999999986,0.0,0.0,0.0,55.0,616.79921,10000.0,85.000001,85.000001,85.000001,85.000001,395.0,0.0,0.0,0.0,1.0,166.665,52.49,52.49,47.989,47.989,34.0,-23.3375,25.912,-26.093333333333334,29.8725,0.0,1783.002,-0.28999999999999915,100.0,27.655,27.743,42.734,42.923,0.0,1.0,100.0,0.0,0.0,0.0,0.0,3090.5714285714284,3232.3,4026.625,4074.4,305.4205,304.596,314.99,314.73075,21.9198,20.5955,21.9027,21.423099999999998,314.999998,314.999998,324.999988,324.999988,99.55855714285714,99.50731666666667,99.5662,99.54627142857143,0.10175000000000001,-0.033333333333333215,-0.08250000000000002,0.14500000000000002,-0.05333333333332746,-0.04571428571428271,1.5376666666666665,1.5150000000000001,37.998999999999995,29.7215,37.891999999999996,34.8945,55.899,35.0515,59.288,52.217,53.841,34.191,57.891,50.554,53.006,33.7435,57.816,49.967,-0.10299999999999998,-0.06050000000000022,0.10013000000000001,0.11476000000000001,0.0,212.235,212.25,209.0966666666667,209.0966666666667,0.0,0.0
17,0.0,1.0,0.0,1.0,1.0,0.0,0.0,1.0,0.0,100.0,1.0,1.1856,26.0,0.0,0.0,0.0,59.999996,0.0,26.0,26.0,26.0,26.0,0.04322222222222227,0.2833000000000001,0.03944,292.511,-2.6304,-2.7133333333333334,-1.5483,-1.5187,-218.68,215.3675,190.639125,0.0,0.0,0.0,0.0,0.034733333333333394,-5.498166666666667,-5.498166666666667,-0.5511,0.15649999999999997,-0.0024444444444444713,-1.0830000000000002,67.923,0.0164,-0.217175,-0.19599999999999973,100.0,1.0,1.0,209.47,0.0,0.0,0.0,0.0,0.0,0.0,0.0,8878.7,0.0,55.0,5.0,244.49333333333334,1.0,0.0,0.0,0.0,0.0,0.0,1.0,0.0,0.8580000000000005,0.8580000000000005,0.0,0.0,1.0,55.0,616.79921,10000.0,85.000001,85.000001,85.000001,85.000001,395.0,0.0,0.0,0.0,1.0,166.665,52.399,52.399,47.653,47.653,34.0,-23.065,24.874000000000002,-28.636666666666663,30.1725,0.0,1782.951,-0.16499999999999915,100.0,27.782,28.017,42.673,43.028999999999996,0.0,1.0,100.0,0.0,0.0,0.0,0.0,3135.285714285714,3058.6,4233.875,4203.6,305.352,304.80275,314.57025,314.4165,21.9294,20.601,21.9131,21.4321,314.999998,314.999998,324.999988,324.999988,99.55857142857143,99.50733333333334,99.56634285714286,99.54641428571429,0.08950000000000014,-0.04600000000000004,-0.09616666666666662,0.13816666666666677,-0.045000000000001705,-0.044285714285713595,1.5256666666666665,1.5025,38.059,29.7565,37.957,34.951,55.887,35.0905,59.326499999999996,52.278999999999996,53.829,34.227000000000004,57.927,50.614,52.994,33.7785,57.849000000000004,50.025666666666666,-0.09299999999999997,-0.06150000000000011,0.10663500000000001,0.11254000000000002,0.0,212.68,212.685,209.47,209.47,0.0,0.0
18,0.0,1.0,0.0,1.0,1.0,0.0,0.0,1.0,0.0,100.0,1.0,1.1856,26.0,0.0,0.0,0.0,59.999996,0.0,26.0,26.0,26.0,26.0,0.02400000000000002,0.2781,0.04134,292.404,-2.6515,-2.749777777777778,-1.5309,-1.4875,-215.62,215.365,190.61925,0.0,0.0,0.0,0.0,0.03649999999999998,-5.498166666666667,-5.498166666666667,-0.5594,-0.2935000000000001,-0.0021111111111111747,0.815,68.04599999999999,0.0152,-0.2233,-0.1559999999999997,100.0,1.0,1.0,209.82333333333332,0.0,0.0,0.0,0.0,0.0,0.0,0.0,8893.7,0.0,55.0,5.0,244.93666666666667,0.0,0.0,0.0,0.0,0.0,0.0,1.0,0.0,0.9029999999999987,0.9029999999999987,0.0,0.0,0.0,55.0,616.79921,10000.0,85.000001,85.000001,85.000001,85.000001,395.0,0.0,0.0,0.0,1.0,333.33500000000004,52.353,52.353,47.668,47.668,34.0,-23.107499999999998,26.406,-27.14666666666666,30.6725,0.0,1782.904,-0.16000000000000014,100.0,27.925,27.774,42.975,43.057,0.0,1.0,100.0,0.0,0.0,0.0,0.0,3080.4285714285716,3179.8,4114.0,4304.7,305.39,304.62825,314.732,314.227,21.9378,20.6058,21.9222,21.4402,314.999998,314.999998,324.999988,324.999988,99.55857142857143,99.50733333333334,99.56647142857143,99.54654285714285,0.08550000000000013,-0.038999999999999924,-0.08599999999999997,0.139,-0.03833333333332689,-0.04571428571428271,1.505,1.483,38.111000000000004,29.7865,38.013999999999996,35.001,55.875,35.1235,59.3615,52.3345,53.818,34.257999999999996,57.9595,50.667,52.982,33.8075,57.879,50.077666666666666,-0.08750000000000002,-0.06450000000000022,0.10459500000000001,0.104955,0.0,213.06,213.04000000000002,209.82333333333332,209.82333333333332,0.0,0.0
19,0.0,1.0,0.0,1.0,1.0,0.0,0.0,1.0,0.0,100.0,1.0,1.1856,26.0,0.0,0.0,0.0,59.999996,0.0,26.0,26.0,26.0,26.0,0.03966666666666674,0.2703,0.04224,292.191,-2.63505,-2.7110000000000003,-1.5323,-1.6083,-212.14999999999998,215.3625,190.5965,0.0,0.0,0.0,0.0,0.03853333333333331,-5.498166666666667,-5.498166666666667,-0.5528000000000001,0.5385,0.005222222222222239,-0.6560000000000001,68.182,0.010100000000000001,-0.2164,-0.013999999999999346,100.0,1.0,1.0,210.26,0.0,0.0,0.0,0.0,0.0,0.0,0.0,8912.2,0.0,55.0,5.0,245.43,1.0,0.0,0.0,0.0,0.0,0.0,1.0,0.0,0.9540000000000006,0.9540000000000006,0.0,0.0,1.0,55.0,616.79921,10000.0,85.000001,85.000001,85.000001,85.000001,395.0,0.0,0.0,0.0,1.0,333.33500000000004,51.987,51.987,47.775,47.775,34.0,-23.77,24.5,-28.58,30.1,0.0,1782.853,-0.129999999999999,100.0,28.287,28.325,42.839,43.251,0.0,1.0,100.0,0.0,0.0,0.0,0.0,3179.5714285714284,3046.3,4180.625,4222.2,305.2285,304.87825,314.708,314.26625,21.947400000000002,20.6114,21.9326,21.4492,314.999998,314.999998,324.999988,324.999988,99.5586,99.50735,99.56661428571428,99.54668571428572,0.08300000000000018,-0.050999999999999934,-0.10516666666666663,0.10466666666666669,-0.06833333333332803,-0.05571428571428072,1.4963333333333333,1.48,38.171,29.8215,38.079,35.0575,55.864000000000004,35.1635,59.399,52.3965,53.807,34.2945,57.9945,50.7265,52.97,33.843,57.9105,50.13633333333333,-0.09050000000000002,-0.06400000000000006,0.105395,0.09884000000000001,0.0,213.535,213.5,210.26,210.26,0.0,0.0
20,0.0,1.0,0.0,1.0,1.0,0.0,0.0,1.0,0.0,100.0,1.0,1.1856,26.0,0.0,0.0,0.0,59.999996,0.0,26.0,26.0,26.0,26.0,0.016444444444444484,0.2633000000000001,-0.01006,292.358,-2.70055,-2.650888888888889,-1.5181,-1.5913,-208.67000000000002,215.36,190.574,0.0,0.0,0.0,0.0,0.04056666666666653,-5.498166666666667,-5.498166666666667,-0.5543,-0.7350000000000001,0.011333333333333195,0.6379999999999999,68.32,0.0039000000000000003,-0.22535000000000002,-0.017999999999999794,100.0,1.0,1.0,210.66,0.0,0.0,0.0,0.0,0.0,0.0,0.0,8929.2,0.0,55.0,5.0,245.92666666666668,0.0,0.0,0.0,0.0,0.0,0.0,0.0,0.0,1.004999999999999,1.004999999999999,0.0,0.0,0.0,55.0,616.79921,10000.0,85.000001,85.000001,85.000001,85.000001,395.0,0.0,0.0,0.0,1.0,333.33500000000004,52.49,52.49,47.394,47.394,34.0,-22.845,24.677999999999997,-27.436666666666667,29.7625,0.0,1782.803,-0.14499999999999957,100.0,28.065,27.934,43.419,43.568,0.0,1.0,100.0,0.0,0.0,0.0,0.0,3012.285714285714,3139.5,4082.125,4132.9,305.6325,304.93025,314.8225,314.54825,21.9568,20.6169,21.9431,21.4584,314.999998,314.999998,324.999988,324.999988,99.5586,99.50735,99.56677142857143,99.54684285714286,0.08749999999999991,-0.04466666666666663,-0.09933333333333338,0.1200000000000001,-0.03166666666666629,-0.044285714285713595,1.4966666666666666,1.4905,38.230000000000004,29.856,38.144,35.115,55.849999999999994,35.202,59.439499999999995,52.460499999999996,53.794,34.3305,58.032,50.788,52.956,33.876999999999995,57.945499999999996,50.196333333333335,-0.09050000000000002,-0.06800000000000006,0.10654500000000001,0.10141000000000001,0.0,213.89499999999998,213.89499999999998,210.66,210.66,0.0,0.0
21,0.0,1.0,0.0,1.0,1.0,0.0,0.0,1.0,0.0,100.0,1.0,1.1856,26.0,0.0,0.0,0.0,59.999996,0.0,26.0,26.0,26.0,26.0,-0.012222222222222134,0.27290000000000014,-0.05468,292.633,-2.7137000000000002,-2.6674444444444445,-1.5646,-1.5338,-205.38,215.35750000000002,190.5525,0.0,0.0,0.0,0.0,0.04246666666666654,-5.498166666666667,-5.498166666666667,-0.5737,-0.02950000000000008,-0.0006666666666665932,0.5219999999999998,68.447,0.002,-0.225225,-0.040000000000000036,100.0,1.0,1.0,211.18,0.0,0.0,0.0,0.0,0.0,0.0,0.0,8951.1,0.0,55.0,5.0,246.38333333333333,1.0,0.0,0.0,0.0,0.0,0.0,0.0,0.0,1.0530000000000008,1.0530000000000008,0.0,0.0,1.0,55.0,616.79921,10000.0,85.000001,85.000001,85.000001,85.000001,395.0,0.0,0.0,0.0,1.0,333.33500000000004,52.414,52.414,48.096000000000004,48.096000000000004,34.0,-24.085,24.881999999999998,-27.369999999999997,27.392500000000002,0.0,1782.755,-0.17999999999999972,100.0,28.06,27.788,43.106,43.187,0.0,1.0,100.0,0.0,0.0,0.0,0.0,3129.285714285714,3163.0,4012.875,4036.8,305.3035,304.87625,315.086,314.9025,21.9657,20.6221,21.9528,21.4669,314.999998,314.999998,324.999988,324.999988,99.55861428571428,99.50735,99.5669,99.54697142857142,0.08499999999999996,-0.04833333333333312,-0.10466666666666657,0.11333333333333329,-0.03999999999999915,-0.05285714285714249,1.5646666666666667,1.5585,38.286,29.887999999999998,38.205,35.168,55.838,35.2385,59.474000000000004,52.516,53.782,34.364,58.064,50.842,52.943,33.9095,57.9745,50.249,-0.09050000000000002,-0.06899999999999995,0.10580500000000001,0.09686,0.0,214.305,214.29500000000002,211.18,211.18,0.0,0.0
22,0.0,1.0,0.0,1.0,1.0,0.0,0.0,1.0,0.0,100.0,1.0,1.1856,26.0,0.0,0.0,0.0,59.999996,0.0,26.0,26.0,26.0,26.0,0.003444444444444583,0.27570000000000006,-0.0039000000000000003,292.206,-2.75685,-2.666333333333333,-1.5952000000000002,-1.5335,-201.89,215.35500000000002,190.52875,0.0,0.0,0.0,0.0,0.044499999999999984,-5.498166666666667,-5.498166666666667,-0.5587,0.11399999999999999,0.0021111111111109526,-0.508,68.58500000000001,0.0025,-0.200825,-0.08799999999999919,100.0,1.0,1.0,211.45333333333332,0.0,0.0,0.0,0.0,0.0,0.0,0.0,8962.7,0.0,55.0,5.0,246.87666666666667,0.0,0.0,0.0,0.0,0.0,0.0,0.0,0.0,1.1039999999999992,1.1039999999999992,0.0,0.0,0.0,55.0,616.79921,10000.0,85.000001,85.000001,85.000001,85.000001,395.0,0.0,0.0,0.0,1.0,166.665,52.49,52.49,47.211,47.211,34.0,-24.5325,23.848,-31.636666666666663,30.1625,0.0,1782.705,-0.23499999999999943,100.0,27.999,28.02,43.132,43.286,0.0,1.0,100.0,0.0,0.0,0.0,0.0,3165.857142857143,3048.2,4336.5,4312.0,305.432,305.06575,314.37825,314.17925,21.9752,20.6276,21.9632,21.476,314.999998,314.999998,324.999988,324.999988,99.55862857142857,99.50736666666667,99.56704285714285,99.54712857142857,0.08499999999999996,-0.05266666666666664,-0.12049999999999994,0.11433333333333318,-0.03166666666666629,-0.04571428571428271,1.4866666666666668,1.479,38.345,29.923000000000002,38.269999999999996,35.225,55.826,35.278,59.5135,52.578,53.771,34.4,58.101,50.900999999999996,52.93,33.944,58.007999999999996,50.307,-0.10050000000000003,-0.05600000000000005,0.10616500000000001,0.11161000000000001,0.0,214.72500000000002,214.745,211.45333333333332,211.45333333333332,0.0,0.0
23,0.0,1.0,0.0,1.0,1.0,0.0,0.0,1.0,0.0,100.0,1.0,1.1856,26.0,0.0,0.0,0.0,59.999996,0.0,26.0,26.0,26.0,26.0,-0.01011111111111107,0.28080000000000016,0.013840000000000002,292.023,-2.65705,-2.6879999999999997,-1.6369,-1.5407000000000002,-198.39,215.35250000000002,190.50525,0.0,0.0,0.0,0.0,0.046533333333333315,-5.498166666666667,-5.498166666666667,-0.5723,-0.25950000000000006,0.0067777777777777715,0.6600000000000001,68.72,0.0041,-0.223725,-0.13200000000000056,100.0,1.0,1.0,211.90333333333334,0.0,0.0,0.0,0.0,0.0,0.0,0.0,8981.8,0.0,55.0,5.0,247.36333333333334,1.0,0.0,0.0,0.0,0.0,0.0,0.0,0.0,1.1550000000000011,1.1550000000000011,0.0,0.0,1.0,55.0,616.79921,10000.0,85.000001,85.000001,85.000001,85.000001,395.0,0.0,0.0,0.0,1.0,333.33500000000004,51.926,51.926,47.501,47.501,34.0,-23.669999999999998,25.310000000000002,-29.71,29.4375,0.0,1782.653,-0.21499999999999986,100.0,28.376,28.061,43.423,43.499,0.0,1.0,100.0,0.0,0.0,0.0,0.0,3176.4285714285716,3176.6,4180.25,4208.8,305.075,304.75425,314.7195,314.49075,21.9847,20.6333,21.9737,21.4852,314.999998,314.999998,324.999988,324.999988,99.55862857142857,99.50736666666667,99.56718571428571,99.54727142857143,0.09425000000000017,-0.04833333333333312,-0.10183333333333333,0.12116666666666687,-0.030000000000001137,-0.05714285714285694,1.5353333333333334,1.5335,38.403999999999996,29.958,38.336,35.2825,55.814,35.317499999999995,59.5525,52.6405,53.759,34.437,58.1375,50.9615,52.917,33.979,58.0415,50.36633333333333,-0.09599999999999997,-0.06499999999999995,0.11001000000000001,0.107825,0.0,215.125,215.135,211.90333333333334,211.90333333333334,0.0,0.0
24,0.0,1.0,0.0,1.0,1.0,0.0,0.0,1.0,0.0,100.0,1.0,1.1856,26.0,0.0,0.0,0.0,59.999996,0.0,26.0,26.0,26.0,26.0,0.00911111111111107,0.2795000000000001,-0.0419,292.404,-2.6829,-2.671777777777778,-1.5465,-1.5604,-195.09,215.35,190.482625,0.0,0.0,0.0,0.0,0.04846666666666655,-5.498166666666667,-5.498166666666667,-0.5846,-0.385,0.01388888888888884,1.105,68.84700000000001,0.0043,-0.222675,-0.13399999999999945,100.0,1.0,1.0,212.29666666666668,0.0,0.0,0.0,0.0,0.0,0.0,0.0,8998.5,0.0,55.0,5.0,247.82,0.0,0.0,0.0,0.0,0.0,0.0,0.0,0.0,1.2029999999999994,1.2029999999999994,0.0,0.0,0.0,55.0,616.79921,10000.0,85.000001,85.000001,85.000001,85.000001,395.0,0.0,0.0,0.0,1.0,166.665,52.658,52.658,47.409,47.409,34.0,-22.0675,24.272,-28.366666666666667,29.705000000000002,0.0,1782.606,-0.245000000000001,100.0,28.216,27.856,43.379,43.449,0.0,1.0,100.0,0.0,0.0,0.0,0.0,2960.857142857143,3086.0,4148.125,4167.9,305.7695,305.09725,314.68375,314.561,21.9935,20.6384,21.9835,21.4938,314.999998,314.999998,324.999988,324.999988,99.55864285714286,99.50738333333334,99.56732857142858,99.54741428571428,0.09250000000000025,-0.047666666666666746,-0.10099999999999998,0.12566666666666682,-0.03166666666666629,-0.05571428571428072,1.5196666666666667,1.5175,38.459,29.990000000000002,38.397,35.336,55.801,35.353,59.588,52.698,53.747,34.4695,58.170500000000004,51.016999999999996,52.905,34.0105,58.0715,50.42033333333333,-0.09699999999999998,-0.06349999999999989,0.10290500000000001,0.106355,0.0,215.525,215.54500000000002,212.29666666666668,212.29666666666668,0.0,0.0
25,0.0,1.0,0.0,1.0,1.0,0.0,0.0,1.0,0.0,100.0,1.0,1.1856,26.0,0.0,0.0,0.0,59.999996,0.0,26.0,26.0,26.0,26.0,0.02933333333333321,0.26890000000000014,-0.021580000000000002,292.206,-2.7471,-2.647777777777778,-1.5895000000000001,-1.5335,-191.57,215.35,190.457375,0.0,0.0,0.0,0.0,0.05049999999999999,-5.498166666666667,-5.498166666666667,-0.6025,0.017000000000000015,0.018333333333333313,-0.875,68.98,0.0035,-0.2195,-0.11599999999999966,100.0,1.0,1.0,212.75333333333333,0.0,0.0,0.0,0.0,0.0,0.0,0.0,9017.8,0.0,55.0,5.0,248.3,1.0,0.0,0.0,0.0,0.0,0.0,0.0,0.0,1.2540000000000013,1.2540000000000013,0.0,0.0,1.0,55.0,616.79921,10000.0,85.000001,85.000001,85.000001,85.000001,395.0,0.0,0.0,0.0,1.0,166.665,51.865,51.865,47.775,47.775,34.0,-25.7175,25.802,-28.233333333333334,28.2025,0.0,1782.555,-0.28999999999999915,100.0,27.983,28.188,43.091,43.35,0.0,1.0,100.0,0.0,0.0,0.0,0.0,3322.5714285714284,3237.8,4066.75,4116.6,304.966,304.44775,315.04075,314.65875,22.0028,20.644,21.9939,21.5028,314.999998,314.999998,324.999988,324.999988,99.55865714285714,99.50738333333334,99.56748571428571,99.54755714285714,0.0887500000000001,-0.04466666666666663,-0.10649999999999993,0.11349999999999993,-0.05666666666667197,-0.04714285714285893,1.546,1.55,38.518,30.025,38.462,35.393,55.788,35.3925,59.625,52.757999999999996,53.733999999999995,34.506,58.204499999999996,51.0745,52.891,34.045500000000004,58.1025,50.477000000000004,-0.10399999999999998,-0.05149999999999988,0.1029,0.102775,0.0,215.95499999999998,215.94,212.75333333333333,212.75333333333333,0.0,0.0
26,0.0,1.0,0.0,1.0,1.0,0.0,0.0,1.0,0.0,100.0,1.0,1.1856,26.0,0.0,0.0,0.0,59.999996,0.0,26.0,26.0,26.0,26.0,0.012777777777777777,0.28190000000000004,0.0799,291.412,-2.70265,-2.7334444444444443,-1.5502,-1.5589,-188.05,215.35,190.431875,0.0,0.0,0.0,0.0,0.05253333333333332,-5.498166666666667,-5.498166666666667,-0.5751000000000001,0.387,0.00822222222222213,0.8529999999999998,69.116,0.0057,-0.202325,-0.25200000000000067,100.0,1.0,1.0,212.97333333333333,0.0,0.0,0.0,0.0,0.0,0.0,0.0,9027.1,0.0,55.0,5.0,248.79000000000002,0.0,0.0,0.0,0.0,0.0,0.0,0.0,0.0,1.3049999999999997,1.3049999999999997,0.0,0.0,0.0,55.0,616.79921,10000.0,85.000001,85.000001,85.000001,85.000001,395.0,0.0,0.0,0.0,1.0,333.33500000000004,51.697,51.697,46.646,46.646,34.0,-23.5975,25.235999999999997,-30.763333333333335,32.975,0.0,1782.503,-0.3150000000000013,100.0,28.844,28.491,43.579,43.647,0.0,1.0,100.0,0.0,0.0,0.0,0.0,3158.5714285714284,3108.1,4422.875,4508.2,305.2325,304.944,314.0445,313.73825,22.0123,20.6498,22.0044,21.5121,314.999998,314.999998,324.999988,324.999988,99.55867142857143,99.5074,99.56762857142857,99.5477,0.10000000000000009,-0.045333333333333226,-0.09683333333333333,0.1260000000000001,-0.045000000000001705,-0.04571428571428271,1.4496666666666667,1.452,38.577,30.061,38.527,35.4505,55.778,35.433,59.665,52.8215,53.724999999999994,34.5435,58.242,51.1355,52.879999999999995,34.0815,58.1365,50.53666666666666,-0.10899999999999999,-0.05650000000000022,0.10700000000000001,0.103065,0.0,216.39499999999998,216.39499999999998,212.97333333333333,212.97333333333333,0.0,0.0
27,0.0,1.0,0.0,1.0,1.0,0.0,0.0,1.0,0.0,100.0,1.0,1.1856,26.0,0.0,0.0,0.0,59.999996,0.0,26.0,26.0,26.0,26.0,0.012333333333333307,0.25340000000000007,-0.04932,291.824,-2.75095,-2.671444444444444,-1.6117,-1.5391,-184.73000000000002,215.35,190.40875,0.0,0.0,0.0,0.0,0.05446666666666655,-5.498166666666667,-5.498166666666667,-0.5949,-0.823,0.018000000000000016,0.827,69.24000000000001,0.0079,-0.23670000000000002,-0.24600000000000044,100.0,1.0,1.0,213.47333333333333,0.0,0.0,0.0,0.0,0.0,0.0,0.0,9048.4,0.0,55.0,5.0,249.23666666666668,1.0,0.0,0.0,0.0,0.0,0.0,0.0,0.0,1.352999999999998,1.352999999999998,0.0,0.0,1.0,55.0,616.79921,10000.0,85.000001,85.000001,85.000001,85.000001,395.0,0.0,0.0,0.0,1.0,333.33500000000004,51.926,51.926,46.707,46.707,34.0,-23.0125,25.932000000000002,-28.85333333333333,29.1475,0.0,1782.455,-0.3150000000000013,100.0,28.531,28.453,44.03,44.058,0.0,1.0,100.0,0.0,0.0,0.0,0.0,3030.714285714286,3222.6,4117.875,4125.5,305.654,304.632,314.82725,314.72025,22.0211,20.655,22.0144,21.5209,314.999998,314.999998,324.999988,324.999988,99.55867142857143,99.5074,99.56775714285715,99.54784285714285,0.09675000000000011,-0.03966666666666674,-0.09883333333333333,0.1263333333333332,-0.03499999999999659,-0.060000000000002274,1.5146666666666666,1.493,38.632,30.094,38.59,35.5055,55.766,35.47,59.7025,52.8805,53.713,34.5775,58.277,51.192499999999995,52.867999999999995,34.114,58.169,50.592,-0.10399999999999998,-0.05799999999999983,0.10637,0.104245,0.0,216.71,216.735,213.47333333333333,213.47333333333333,0.0,0.0
28,0.0,1.0,0.0,1.0,1.0,0.0,0.0,1.0,0.0,100.0,1.0,1.1856,26.0,0.0,0.0,0.0,59.999996,0.0,26.0,26.0,26.0,26.0,0.033222222222222264,0.2743,-0.0597,291.962,-2.6845,-2.6532222222222224,-1.6282,-1.5661,-181.19,215.35,190.383375,0.0,0.0,0.0,0.0,0.056533333333333324,-5.498166666666667,-5.498166666666667,-0.6022000000000001,0.5245,0.00377777777777788,-1.0419999999999998,69.37,0.008700000000000001,-0.21865,-0.2060000000000004,100.0,1.0,1.0,213.96666666666667,0.0,0.0,0.0,0.0,0.0,0.0,0.0,9069.3,0.0,55.0,5.0,249.70333333333335,0.0,0.0,0.0,0.0,0.0,0.0,0.0,0.0,1.404,1.404,0.0,0.0,0.0,55.0,616.79921,10000.0,85.000001,85.000001,85.000001,85.000001,395.0,0.0,0.0,0.0,1.0,333.33500000000004,51.865,51.865,47.409,47.409,34.0,-23.64,24.796,-29.203333333333333,28.6825,0.0,1782.403,-0.370000000000001,100.0,28.435,28.619,43.422,43.781,0.0,1.0,100.0,0.0,0.0,0.0,0.0,3183.5714285714284,3091.6,4130.25,4091.5,305.28,304.8515,314.94,314.727,22.0304,20.6607,22.0247,21.5299,314.999998,314.999998,324.999988,324.999988,99.5587,99.5074,99.56791428571428,99.548,0.09675000000000011,-0.03933333333333322,-0.10599999999999998,0.11833333333333318,-0.04833333333333201,-0.05285714285714249,1.5506666666666666,1.55,38.69,30.1295,38.653999999999996,35.562,55.754999999999995,35.5095,59.7375,52.94,53.702,34.6145,58.3095,51.2495,52.855999999999995,34.1495,58.198,50.647999999999996,-0.10649999999999993,-0.04999999999999982,0.10685000000000001,0.10636500000000002,0.0,217.16500000000002,217.175,213.96666666666667,213.96666666666667,0.0,0.0
29,0.0,1.0,0.0,1.0,1.0,0.0,0.0,1.0,0.0,100.0,1.0,1.1856,26.0,0.0,0.0,0.0,59.999996,0.0,26.0,26.0,26.0,26.0,0.0321111111111112,0.25680000000000014,-0.022080000000000002,291.809,-2.65545,-2.7225555555555556,-1.5672000000000001,-1.5525,-177.64999999999998,215.35,190.357,0.0,0.0,0.0,0.0,0.058599999999999985,-5.498166666666667,-5.498166666666667,-0.6026,-0.6500000000000001,-0.00044444444444424747,0.8580000000000001,69.504,0.013000000000000001,-0.213125,-0.36799999999999944,100.0,1.0,1.0,214.21333333333334,0.0,0.0,0.0,0.0,0.0,0.0,0.0,9079.7,0.0,55.0,5.0,250.19,1.0,0.0,0.0,0.0,0.0,0.0,0.0,0.0,1.4549999999999983,1.4549999999999983,0.0,0.0,1.0,55.0,616.79921,10000.0,85.000001,85.000001,85.000001,85.000001,395.0,0.0,0.0,0.0,1.0,166.665,52.368,52.368,46.722,46.722,34.0,-21.759999999999998,25.706,-28.46333333333333,31.62,0.0,1782.355,-0.39000000000000057,100.0,28.307,28.241,43.918,43.977000000000004,0.0,1.0,100.0,0.0,0.0,0.0,0.0,2998.0,3105.5,4174.375,4326.7,305.715,304.98325,314.61675,314.173,22.0396,20.6663,22.0352,21.5392,314.999998,314.999998,324.999988,324.999988,99.55871428571429,99.5074,99.56805714285714,99.54814285714286,0.10075000000000012,-0.030333333333333323,-0.08883333333333332,0.13283333333333336,-0.03166666666666629,-0.04571428571428271,1.4763333333333333,1.4735,38.747,30.1645,38.72,35.62,55.742000000000004,35.5475,59.778,53.0025,53.69,34.649,58.347,51.3095,52.842,34.1825,58.2325,50.70666666666666,-0.10799999999999998,-0.04700000000000015,0.10393000000000001,0.105605,0.0,217.54500000000002,217.565,214.21333333333334,214.21333333333334,0.0,0.0
30,0.0,1.0,0.0,1.0,1.0,0.0,0.0,1.0,0.0,100.0,1.0,1.1856,26.0,0.0,0.0,0.0,59.999996,0.0,26.0,26.0,26.0,26.0,0.047222222222222276,0.2479,0.02974,291.229,-2.6329,-2.724555555555556,-1.6398000000000001,-1.6,-174.31,215.35250000000002,190.332125,0.0,0.0,0.0,0.0,0.06053333333333333,-5.498166666666667,-5.498166666666667,-0.6087,0.7025,0.004555555555555646,0.7159999999999997,69.625,0.013900000000000001,-0.21915,-0.3420000000000005,100.0,1.0,1.0,214.72,0.0,0.0,0.0,0.0,0.0,0.0,0.0,9101.2,0.0,55.0,5.0,250.62333333333333,0.0,0.0,0.0,0.0,0.0,0.0,1.0,0.0,1.5030000000000001,1.5030000000000001,0.0,0.0,0.0,55.0,616.79921,10000.0,85.000001,85.000001,85.000001,85.000001,395.0,0.0,0.0,0.0,1.0,166.665,50.491,50.491,47.256,47.256,34.0,-24.565,29.256,-28.633333333333333,29.802500000000002,0.0,1782.306,-0.41000000000000014,100.0,29.103,28.878,43.619,43.955,0.0,1.0,100.0,0.0,0.0,0.0,0.0,3398.5714285714284,3485.3,4118.5,4101.9,304.56,303.858,315.0155,314.699,22.0486,20.6718,22.045,21.5479,314.999998,314.999998,324.999988,324.999988,99.55872857142857,99.50741666666667,99.5682,99.54828571428571,0.10749999999999993,-0.03299999999999992,-0.09366666666666656,0.1280000000000001,-0.036666666666668846,-0.06857142857142406,1.5363333333333333,1.5355,38.804,30.198999999999998,38.781,35.674,55.733999999999995,35.586,59.8115,53.0595,53.682,34.685,58.3785,51.3645,52.833,34.217,58.260999999999996,50.760333333333335,-0.11649999999999994,-0.05049999999999999,0.099945,0.10682000000000001,0.0,217.95499999999998,217.97,214.72,214.72,0.0,0.0
31,0.0,1.0,0.0,1.0,1.0,0.0,0.0,1.0,0.0,100.0,1.0,1.1856,26.0,0.0,0.0,0.0,59.999996,0.0,26.0,26.0,26.0,26.0,0.03888888888888897,0.2590000000000001,0.06584,290.68,-2.7668,-2.6295555555555556,-1.6442999999999999,-1.5432000000000001,-170.55,215.35500000000002,190.304625,0.0,0.0,0.0,0.0,0.06269999999999998,-5.498166666666667,-5.498166666666667,-0.5863,-0.3640000000000001,0.014888888888888951,0.8239999999999998,69.766,0.0206,-0.21945,-0.41000000000000014,100.0,1.0,1.0,214.92000000000002,0.0,0.0,0.0,0.0,0.0,0.0,0.0,9109.7,0.0,55.0,5.0,251.13333333333333,1.0,0.0,0.0,0.0,0.0,0.0,1.0,0.0,1.5569999999999986,1.5569999999999986,0.0,0.0,1.0,55.0,616.79921,10000.0,85.000001,85.000001,85.000001,85.000001,395.0,0.0,0.0,0.0,1.0,166.665,51.01,51.01,45.563,45.563,34.0,-23.19,27.516,-30.343333333333334,33.2875,0.0,1782.252,-0.3999999999999986,100.0,29.07,29.094,44.484,44.678,0.0,1.0,100.0,0.0,0.0,0.0,0.0,3148.714285714286,3391.4,4318.125,4447.9,305.3155,304.2005,314.2665,313.809,22.0585,20.678,22.0562,21.5579,314.999998,314.999998,324.999988,324.999988,99.55874285714286,99.50741666666667,99.56835714285714,99.54844285714286,0.12024999999999997,-0.028666666666666618,-0.07733333333333337,0.1403333333333332,-0.015000000000000568,-0.044285714285713595,1.4363333333333332,1.429,38.864999999999995,30.237499999999997,38.852000000000004,35.737,55.723,35.6285,59.8555,53.1285,53.672,34.7245,58.4195,51.431,52.822,34.254999999999995,58.2985,50.825,-0.11749999999999994,-0.0535000000000001,0.10458,0.109645,0.0,218.345,218.38,214.92000000000002,214.92000000000002,0.0,0.0
32,0.0,1.0,0.0,1.0,1.0,0.0,0.0,1.0,0.0,100.0,1.0,1.1856,26.0,0.0,0.0,0.0,59.999996,0.0,26.0,26.0,26.0,26.0,0.03933333333333322,0.26239999999999997,-0.0397,291.275,-2.69705,-2.6806666666666668,-1.589,-1.5491000000000001,-167.2,215.35750000000002,190.28075,0.0,0.0,0.0,0.0,0.06466666666666654,-5.498166666666667,-5.498166666666667,-0.6061000000000001,-0.3185,-0.0023333333333335204,0.3999999999999999,69.886,0.0229,-0.23422500000000002,-0.4039999999999999,100.0,1.0,1.0,215.44,0.0,0.0,0.0,0.0,0.0,0.0,0.0,9131.7,0.0,55.0,5.0,251.56333333333333,0.0,0.0,0.0,0.0,0.0,0.0,1.0,0.0,1.6050000000000004,1.6050000000000004,0.0,0.0,0.0,55.0,616.79921,10000.0,85.000001,85.000001,85.000001,85.000001,395.0,0.0,0.0,0.0,1.0,166.665,51.513999999999996,51.513999999999996,46.539,46.539,34.0,-21.985,26.206,-27.126666666666665,32.337500000000006,0.0,1782.203,-0.3999999999999986,100.0,28.936,28.979,44.298,44.574,0.0,1.0,100.0,0.0,0.0,0.0,0.0,3066.285714285714,3187.0,4085.75,4318.3,305.478,304.745,314.867,314.284,22.0672,20.6834,22.066,21.5666,314.999998,314.999998,324.999988,324.999988,99.55875714285715,99.50743333333334,99.5685,99.54858571428572,0.11900000000000022,-0.028000000000000025,-0.07450000000000001,0.1523333333333332,-0.045000000000001705,-0.06857142857142406,1.5086666666666666,1.4955,38.92,30.2715,38.913,35.791,55.712,35.666,59.89,53.1855,53.661,34.759,58.451499999999996,51.486000000000004,52.81,34.288,58.327,50.879,-0.11349999999999993,-0.0535000000000001,0.102665,0.10834,0.0,218.735,218.76,215.44,215.44,0.0,0.0
33,0.0,1.0,0.0,1.0,1.0,0.0,0.0,1.0,0.0,100.0,1.0,1.1856,26.0,0.0,0.0,0.0,59.999996,0.0,26.0,26.0,26.0,26.0,0.0431111111111111,0.26,-0.07434,291.626,-2.72505,-2.6959999999999997,-1.5904,-1.5897000000000001,-163.84,215.3625,190.25575,0.0,0.0,0.0,0.0,0.06659999999999999,-5.498166666666667,-5.498166666666667,-0.6148,-0.14700000000000002,-0.0076666666666667105,0.8679999999999999,70.006,0.023100000000000002,-0.21755000000000002,-0.38200000000000056,100.0,1.0,1.0,215.8466666666667,0.0,0.0,0.0,0.0,0.0,0.0,0.0,9148.9,0.0,55.0,5.0,251.99666666666667,1.0,0.0,0.0,0.0,0.0,0.0,1.0,0.0,1.6529999999999987,1.6529999999999987,0.0,0.0,1.0,55.0,616.79921,10000.0,85.000001,85.000001,85.000001,85.000001,395.0,0.0,0.0,0.0,1.0,333.33500000000004,51.865,51.865,46.906,46.906,34.0,-22.355,25.665999999999997,-27.490000000000002,31.580000000000002,0.0,1782.155,-0.41999999999999815,100.0,28.724,28.679000000000002,44.01,44.312,0.0,1.0,100.0,0.0,0.0,0.0,0.0,3079.285714285714,3107.2,4109.375,4191.1,305.5155,304.9825,314.87375,314.553,22.0759,20.6887,22.0758,21.5752,314.999998,314.999998,324.999988,324.999988,99.55875714285715,99.50743333333334,99.56864285714286,99.54872857142857,0.11724999999999985,-0.02633333333333332,-0.08016666666666661,0.14883333333333337,-0.021666666666668277,-0.054285714285711606,1.5236666666666667,1.5030000000000001,38.974000000000004,30.304499999999997,38.974000000000004,35.845,55.702,35.701,59.924,53.242,53.650999999999996,34.7915,58.483000000000004,51.54,52.799,34.319,58.356,50.931666666666665,-0.11599999999999999,-0.047499999999999876,0.10454500000000001,0.11355000000000001,0.0,219.10000000000002,219.14,215.8466666666667,215.8466666666667,0.0,0.0
34,0.0,1.0,0.0,1.0,1.0,0.0,0.0,1.0,0.0,100.0,1.0,1.1856,26.0,0.0,0.0,0.0,59.999996,0.0,26.0,26.0,26.0,26.0,0.05366666666666675,0.2594000000000001,-0.06698,291.87,-2.6696,-2.673111111111111,-1.6265,-1.5276,-160.26999999999998,215.3675,190.227875,0.0,0.0,0.0,0.0,0.06869999999999998,-5.498166666666667,-5.498166666666667,-0.6392,-0.8745,0.013555555555555543,-0.1990000000000003,70.136,0.024900000000000002,-0.219925,-0.3039999999999994,100.0,1.0,1.0,216.19333333333333,0.0,0.0,0.0,0.0,0.0,0.0,0.0,9163.6,0.0,55.0,5.0,252.46333333333334,0.0,0.0,0.0,0.0,0.0,0.0,1.0,0.0,1.7040000000000006,1.7040000000000006,0.0,0.0,0.0,55.0,616.79921,10000.0,85.000001,85.000001,85.000001,85.000001,395.0,0.0,0.0,0.0,1.0,333.33500000000004,52.429,52.429,47.073,47.073,34.0,-21.9,23.832,-28.473333333333336,30.57,0.0,1782.103,-0.3999999999999986,100.0,28.262,28.469,43.815,44.449,0.0,1.0,100.0,0.0,0.0,0.0,0.0,3062.4285714285716,2958.0,4151.375,4208.4,305.724,305.25225,314.8365,314.48475,22.0851,20.6943,22.086199999999998,21.5845,314.999998,314.999998,324.999988,324.999988,99.55878571428572,99.50743333333334,99.56878571428571,99.54887142857143,0.10850000000000026,-0.03833333333333311,-0.08416666666666661,0.14216666666666677,-0.03999999999999915,-0.034285714285715585,1.5233333333333334,1.5065,39.032,30.3395,39.038,35.9035,55.689,35.7375,59.960499999999996,53.3035,53.638999999999996,34.825,58.516999999999996,51.5995,52.786,34.3515,58.3865,50.989666666666665,-0.11149999999999993,-0.04999999999999982,0.10079,0.11699000000000001,0.0,219.49,219.5,216.19333333333333,216.19333333333333,0.0,0.0
35,0.0,1.0,0.0,1.0,1.0,0.0,0.0,1.0,0.0,100.0,1.0,1.1856,26.0,0.0,0.0,0.0,59.999996,0.0,26.0,26.0,26.0,26.0,0.05899999999999994,0.26060000000000016,-0.04508,291.763,-2.8023,-2.6535555555555557,-1.5373,-1.5813000000000001,-156.48000000000002,215.375,190.196125,0.0,0.0,0.0,0.0,0.07089999999999996,-5.498166666666667,-5.498166666666667,-0.6782,-0.044499999999999984,-0.004999999999999893,-1.3420000000000005,70.27,0.025400000000000002,-0.22537500000000002,-0.3020000000000005,100.0,1.0,1.0,216.69333333333333,0.0,0.0,0.0,0.0,0.0,0.0,0.0,9184.9,0.0,55.0,5.0,252.94666666666666,1.0,0.0,0.0,0.0,0.0,0.0,1.0,0.0,1.7579999999999991,1.7579999999999991,0.0,0.0,1.0,55.0,616.79921,10000.0,85.000001,85.000001,85.000001,85.000001,395.0,0.0,0.0,0.0,1.0,166.665,51.666,51.666,46.814,46.814,34.0,-24.44,26.728,-27.026666666666664,29.735,0.0,1782.051,-0.245000000000001,100.0,28.143,28.849,43.519999999999996,43.953,0.0,1.0,100.0,0.0,0.0,0.0,0.0,3187.5714285714284,3283.8,4147.0,4041.3,305.336,304.2805,314.90425,314.949,22.0947,20.700499999999998,22.097,21.5942,314.999998,314.999998,324.999988,324.999988,99.55878571428572,99.50745,99.56894285714286,99.54902857142856,0.10424999999999995,-0.03633333333333311,-0.08533333333333337,0.14600000000000013,-0.0833333333333286,-0.02571428571428669,1.5603333333333333,1.5495,39.092,30.378,39.107,35.963499999999996,55.675,35.7795,59.9975,53.3645,53.625,34.864,58.5515,51.658,52.771,34.3885,58.417500000000004,51.047333333333334,-0.10399999999999998,-0.06000000000000005,0.10628000000000001,0.10378000000000001,0.0,219.94,219.92000000000002,216.69333333333333,216.69333333333333,0.0,0.0
36,0.0,1.0,0.0,1.0,1.0,0.0,0.0,1.0,0.0,100.0,1.0,1.1856,26.0,0.0,0.0,0.0,59.999996,0.0,26.0,26.0,26.0,26.0,0.035222222222222266,0.25229999999999997,0.060360000000000004,291.122,-2.6458,-2.7153333333333336,-1.6463,-1.5922,-153.31,215.3825,190.168625,0.0,0.0,0.0,0.0,0.07273333333333332,-5.498166666666667,-5.498166666666667,-0.6621,0.15100000000000002,-0.04222222222222216,0.21199999999999974,70.385,0.021500000000000002,-0.20315,-0.1979999999999995,100.0,1.0,1.0,216.8466666666667,0.0,0.0,0.0,0.0,0.0,0.0,0.0,9191.4,0.0,55.0,5.0,253.35666666666668,0.0,0.0,0.0,0.0,0.0,0.0,1.0,0.0,1.8030000000000008,1.8030000000000008,0.0,0.0,0.0,55.0,616.79921,10000.0,85.000001,85.000001,85.000001,85.000001,395.0,0.0,0.0,0.0,1.0,333.33500000000004,51.575,51.575,46.417,46.417,34.0,-22.1275,25.97,-30.869999999999997,34.1125,0.0,1782.005,-0.21000000000000085,100.0,28.885,28.727,43.855000000000004,44.14,0.0,1.0,100.0,0.0,0.0,0.0,0.0,3076.4285714285716,3149.8,4387.0,4474.3,305.3155,304.7795,314.201,313.87875,22.1028,20.7056,22.1063,21.6024,314.999998,314.999998,324.999988,324.999988,99.55881428571429,99.50745,99.56908571428572,99.54917142857143,0.1107499999999999,-0.03533333333333322,-0.07866666666666666,0.14166666666666683,-0.045000000000001705,-0.048571428571428044,1.4496666666666667,1.4445000000000001,39.143,30.41,39.164,36.015,55.666,35.814499999999995,60.031,53.4195,53.617000000000004,34.8965,58.582499999999996,51.711,52.762,34.42,58.445499999999996,51.099000000000004,-0.09999999999999998,-0.06499999999999995,0.10568500000000002,0.107365,0.0,220.31,220.3,216.8466666666667,216.8466666666667,0.0,0.0
