,ABS Active,ABS Enabled,AID Allow Tire Blankets,AID Auto Blip,AID Auto Clutch,AID Auto Shift,AID Fuel Rate,AID Ideal Line,AID Mech Damage,AID Stability,AID Tire Wear Rate,Air Density,Air Temp,Ballast,Best Lap Delta,Best Lap Time,Brake Bias,Brake Pos,Brake Temp FL,Brake Temp FR,Brake Temp RL,Brake Temp RR,CG Accel Lateral,CG Accel Longitudinal,CG Accel Vertical,CG Height,Camber FL,Camber FR,Camber RL,Camber RR,Car Coord X,Car Coord Y,Car Coord Z,Car Damage Front,Car Damage Left,Car Damage Rear,Car Damage Right,Car Pos Norm,Caster FL,Caster FR,Chassis Pitch Angle,Chassis Pitch Rate,Chassis Roll Angle,Chassis Roll Rate,Chassis Velocity X,Chassis Velocity Y,Chassis Velocity Z,Chassis Yaw Rate,Clutch Pos,DRS Active,DRS Available,Drive Train Speed,ERS Heat Charging,ERS Is Charging,ERS Max Energy,ERS Power Level,ERS Recovery Level,Engine Brake Setting,Engine Limiter,Engine RPM,Flags,Fuel Level,Gear,Ground Speed,HR Sample Clock,In Pit,KERS Charge,KERS Deployed Energy,KERS Input,KERS Max Energy,LR Sample Clock,Lap Invalidated,Lap Time,Lap Time2,Last Lap Time,Last Sector Time,MR Sample Clock,Max Fuel,Max Power,Max RPM,Max Sus Travel FL,Max Sus Travel FR,Max Sus Travel RL,Max Sus Travel RR,Max Torque,Max Turbo Boost,Num Tires Off Track,Penalties Enabled,Position,Raw Data Sample Rate,Ride Height FL,Ride Height FR,Ride Height RL,Ride Height RR,Road Temp,Self Align Torque FL,Self Align Torque FR,Self Align Torque RL,Self Align Torque RR,Session Lap Count,Session Time Left,Steering Angle,Surface Grip,Suspension Travel FL,Suspension Travel FR,Suspension Travel RL,Suspension Travel RR,TC Active,TC Enabled,Throttle Pos,Tire Dirt Level FL,Tire Dirt Level FR,Tire Dirt Level RL,Tire Dirt Level RR,Tire Load FL,Tire Load FR,Tire Load RL,Tire Load RR,Tire Loaded Radius FL,Tire Loaded Radius FR,Tire Loaded Radius RL,Tire Loaded Radius RR,Tire Pressure FL,Tire Pressure FR,Tire Pressure RL,Tire Pressure RR,Tire Radius FL,Tire Radius FR,Tire Radius RL,Tire Radius RR,Tire Rubber Grip FL,Tire Rubber Grip FR,Tire Rubber Grip RL,Tire Rubber Grip RR,Tire Slip Angle FL,Tire Slip Angle FR,Tire Slip Angle RL,Tire Slip Angle RR,Tire Slip Ratio FL,Tire Slip Ratio FR,Tire Slip Ratio RL,Tire Slip Ratio RR,Tire Temp Core FL,Tire Temp Core FR,Tire Temp Core RL,Tire Temp Core RR,Tire Temp Inner FL,Tire Temp Inner FR,Tire Temp Inner RL,Tire Temp Inner RR,Tire Temp Middle FL,Tire Temp Middle FR,Tire Temp Middle RL,Tire Temp Middle RR,Tire Temp Outer FL,Tire Temp Outer FR,Tire Temp Outer RL,Tire Temp Outer RR,Toe In FL,Toe In FR,Toe In RL,Toe In RR,Turbo Boost,Wheel Angular Speed FL,Wheel Angular Speed FR,Wheel Angular Speed RL,Wheel Angular Speed RR,Wind Direction,Wind Speed
0,0.0,1.0,0.0,1.0,1.0,0.0,0.0,1.0,0.0,100.0,1.0,1.1856,26.0,0.0,0.0,0.0,59.99999,0.0,26.0,26.0,26.0,26.0,-0.08044444444444443,0.30990000000000006,0.040025000000000005,293.915,-2.7173,-2.6626666666666665,-1.51265,-1.5591111111111111,-275.61,216.29250000000002,190.987125,0.0,0.0,0.0,0.0,0.0016333333333333755,-5.498166666666667,-5.498166666666667,-0.5453,1.52,-0.014874999999999972,-0.17399999999999993,65.493,-0.0329,-0.217375,0.96,100.0,1.0,1.0,202.20666666666668,0.0,0.0,0.0,0.0,0.0,0.0,0.0,8570.8,0.0,55.0,5.0,235.74333333333334,0.0,0.0,0.0,0.0,0.0,0.0,0.0,0.0,0.0030000000000001137,0.0030000000000001137,0.0,0.0,0.0,55.0,616.79921,10000.0,85.0,85.0,85.0,85.0,395.0,0.0,0.0,0.0,1.0,20.0,52.567,52.567,49.5,49.5,34.0,-26.64,23.906,-29.89,25.3575,0.0,1783.494,0.7850000000000001,100.0,27.411,27.027,40.542,40.475,0.0,1.0,100.0,0.0,0.0,0.0,0.0,3068.333333333333,3417.7,4134.75,4016.6000000000004,305.42,303.9705,314.7585,314.8365,21.767777777777777,20.5127,21.7373,21.281,314.99999,314.99999,324.99998,324.99998,99.55828571428572,99.50718333333333,99.5638,99.54395714285714,0.010250000000000092,-0.11824999999999997,-0.14883333333333335,0.07150000000000001,-0.041666666666671404,-0.04833333333333201,1.548,1.5925,37.049,29.204,36.858000000000004,34.006,56.054,34.4185,58.609,51.201,53.992000000000004,33.607,57.2595,49.579499999999996,53.174,33.184,57.2325,49.010999999999996,-0.01550000000000007,-0.13600000000000012,0.10077000000000001,0.10601000000000001,0.0,205.245,205.17000000000002,202.20666666666668,202.20666666666668,0.0,0.0
1,0.0,1.0,0.0,1.0,1.0,0.0,0.0,1.0,0.0,100.0,1.0,1.1856,26.0,0.0,0.0,0.0,59.999996,0.0,26.0,26.0,26.0,26.0,-0.11122222222222211,0.3196000000000001,-0.007125,293.091,-2.641,-2.761111111111111,-1.53285,-1.5466666666666669,-272.07,216.28750000000002,190.966,0.0,0.0,0.0,0.0,0.0036999999999999256,-5.498166666666667,-5.498166666666667,-0.4973,-0.7475,-0.04962500000000025,-0.5350000000000001,65.657,-0.047900000000000005,-0.20067500000000002,1.3239999999999998,100.0,1.0,1.0,202.40333333333334,0.0,0.0,0.0,0.0,0.0,0.0,0.0,8579.1,0.0,55.0,5.0,236.33333333333331,1.0,0.0,0.0,0.0,0.0,0.0,0.0,0.0,0.05699999999999861,0.05699999999999861,0.0,0.0,1.0,55.0,616.79921,10000.0,85.000001,85.000001,85.000001,85.000001,395.0,0.0,0.0,0.0,1.0,166.665,53.665,53.665,48.34,48.34,34.0,-26.285,18.092,-32.68333333333334,29.8975,0.0,1783.442,0.9100000000000001,100.0,27.578,26.979,42.806,41.832,0.0,1.0,100.0,0.0,0.0,0.0,0.0,2997.833333333333,2696.2,4214.875,4730.4,305.6255,306.25225,314.4945,313.043,21.778222222222222,20.518,21.7487,21.2906,314.999998,314.999998,324.999988,324.999988,99.5583,99.50721666666666,99.56395714285715,99.54411428571429,-0.014499999999999957,-0.13974999999999993,-0.17266666666666666,0.04883333333333334,-0.04333333333332945,-0.05333333333332746,1.4475,1.4685000000000001,37.114000000000004,29.237499999999997,36.929,34.066,56.038,34.4585,58.655,51.2695,53.977000000000004,33.6435,57.3025,49.644999999999996,53.158,33.2195,57.2725,49.075,0.0024999999999999467,-0.14800000000000013,0.105035,0.11133000000000001,0.0,205.71,205.615,202.40333333333334,202.40333333333334,0.0,0.0
2,0.0,1.0,0.0,1.0,1.0,0.0,0.0,1.0,0.0,100.0,1.0,1.1856,26.0,0.0,0.0,0.0,59.999996,0.0,26.0,26.0,26.0,26.0,-0.14888888888888885,0.2761,-0.1136,293.671,-2.5967000000000002,-2.798888888888889,-1.48445,-1.613,-268.92,216.28,190.948125,0.0,0.0,0.0,0.0,0.00553333333333339,-5.498166666666667,-5.498166666666667,-0.5482,0.05499999999999994,-0.052000000000000046,2.394,65.78999999999999,-0.0697,-0.24957500000000002,1.6020000000000003,100.0,1.0,1.0,203.28333333333333,0.0,0.0,0.0,0.0,0.0,0.0,0.0,8616.5,0.0,55.0,5.0,236.81333333333333,0.0,0.0,0.0,0.0,0.0,0.0,0.0,0.0,0.10500000000000043,0.10500000000000043,0.0,0.0,0.0,55.0,616.79921,10000.0,85.000001,85.000001,85.000001,85.000001,395.0,0.0,0.0,0.0,1.0,166.665,52.429,52.429,50.11,50.11,34.0,-29.2775,20.244,-29.560000000000002,20.3,0.0,1783.394,0.7349999999999994,100.0,28.374,26.975,42.601,41.372,0.0,1.0,100.0,0.0,0.0,0.0,0.0,3324.5,2925.9,3777.0,3683.0,304.548,305.55775,315.56175,315.7745,21.787666666666667,20.5226,21.7584,21.2987,314.999998,314.999998,324.999988,324.999988,99.5583,99.50721666666666,99.56408571428571,99.54422857142858,-0.013000000000000012,-0.139,-0.22216666666666665,0.01,-0.01999999999999602,-0.03499999999999659,1.6125,1.6804999999999999,37.173,29.2665,36.989999999999995,34.117,56.027,34.4945,58.6915,51.323499999999996,53.967,33.677,57.3365,49.6965,53.146,33.2515,57.304,49.12566666666667,-0.01849999999999996,-0.13200000000000012,0.11184500000000001,0.10266000000000002,0.0,206.14499999999998,205.995,203.28333333333333,203.28333333333333,0.0,0.0
3,0.0,1.0,0.0,1.0,1.0,0.0,0.0,1.0,0.0,100.0,1.0,1.1856,26.0,0.0,0.0,0.0,59.999996,0.0,26.0,26.0,26.0,26.0,-0.133,0.31420000000000003,-0.022725000000000002,293.365,-2.7326,-2.6884444444444444,-1.51635,-1.5904444444444443,-265.56,216.26749999999998,190.928375,0.0,0.0,0.0,0.0,0.0074666666666665105,-5.498166666666667,-5.498166666666667,-0.5094000000000001,0.375,-0.009374999999999911,-1.0260000000000002,65.943,-0.08560000000000001,-0.202575,1.234,100.0,1.0,1.0,203.42333333333335,0.0,0.0,0.0,0.0,0.0,0.0,0.0,8622.3,0.0,55.0,5.0,237.36,1.0,0.0,0.0,0.0,0.0,0.0,0.0,0.0,0.1559999999999988,0.1559999999999988,0.0,0.0,1.0,55.0,616.79921,10000.0,85.000001,85.000001,85.000001,85.000001,395.0,0.0,0.0,0.0,1.0,166.665,53.513,53.513,48.035,48.035,34.0,-25.86,18.072000000000003,-35.95,24.947499999999998,0.0,1783.343,0.615000000000002,100.0,27.875,27.144,42.458,41.551,0.0,1.0,100.0,0.0,0.0,0.0,0.0,2888.0,2807.4,4338.5,4240.6,306.035,305.701,314.27625,314.26025,21.797444444444444,20.5278,21.7688,21.3076,314.999998,314.999998,324.999988,324.999988,99.5583,99.50723333333333,99.56422857142857,99.54438571428571,-0.016000000000000014,-0.15274999999999994,-0.223,0.018833333333333334,-0.02833333333332888,-0.04333333333332945,1.4925,1.538,37.233999999999995,29.298499999999997,37.055,34.1725,56.010999999999996,34.5375,58.733000000000004,51.3875,53.951,33.716499999999996,57.375,49.7585,53.131,33.289,57.3395,49.186,-0.03349999999999986,-0.12349999999999994,0.11345000000000001,0.11209000000000001,0.0,206.625,206.51,203.42333333333335,203.42333333333335,0.0,0.0
4,0.0,1.0,0.0,1.0,1.0,0.0,0.0,1.0,0.0,100.0,1.0,1.1856,26.0,0.0,0.0,0.0,59.999996,0.0,26.0,26.0,26.0,26.0,-0.13322222222222213,0.27700000000000014,-0.025625000000000002,293.655,-2.663,-2.738777777777778,-1.5295,-1.5975555555555556,-262.39,216.2525,190.91,0.0,0.0,0.0,0.0,0.009333333333333305,-5.498166666666667,-5.498166666666667,-0.5433,-0.732,-0.07687500000000025,-1.7720000000000002,66.08,-0.0876,-0.2373,1.1760000000000002,100.0,1.0,1.0,204.00333333333333,0.0,0.0,0.0,0.0,0.0,0.0,0.0,8647.0,0.0,55.0,5.0,237.85666666666668,0.0,0.0,0.0,0.0,0.0,0.0,0.0,0.0,0.20400000000000063,0.20400000000000063,0.0,0.0,0.0,55.0,616.79921,10000.0,85.000001,85.000001,85.000001,85.000001,395.0,0.0,0.0,0.0,1.0,166.665,53.101,53.101,48.766999999999996,48.766999999999996,34.0,-29.21,19.078,-32.79,21.1875,0.0,1783.296,0.5650000000000013,100.0,27.661,26.897,42.777,41.54,0.0,1.0,100.0,0.0,0.0,0.0,0.0,3253.5,2874.5,4096.75,3673.5,305.081,305.52525,314.81575,315.65425,21.806444444444445,20.5326,21.7787,21.3159,314.999998,314.999998,324.999988,324.999988,99.5583,99.50725,99.56435714285715,99.54451428571429,-0.023749999999999938,-0.15025,-0.20800000000000002,0.026166666666666668,-0.03999999999999915,-0.046666666666666856,1.5474999999999999,1.6035,37.291,29.3285,37.117000000000004,34.224000000000004,55.995000000000005,34.576499999999996,58.7735,51.4445,53.936,33.7525,57.413,49.8125,53.114,33.323499999999996,57.375,49.239333333333335,-0.03149999999999986,-0.11350000000000016,0.10199000000000001,0.11340000000000001,0.0,206.985,206.905,204.00333333333333,204.00333333333333,0.0,0.0
5,0.0,1.0,0.0,1.0,1.0,0.0,0.0,1.0,0.0,100.0,1.0,1.1856,26.0,0.0,0.0,0.0,59.999996,0.0,26.0,26.0,26.0,26.0,-0.13222222222222213,0.30790000000000006,-0.015075,293.671,-2.6701,-2.7672222222222222,-1.5099,-1.5867777777777778,-259.01,216.235,190.889625,0.0,0.0,0.0,0.0,0.011299999999999977,-5.498166666666667,-5.498166666666667,-0.5348,0.4295,-0.08012500000000022,1.133,66.226,-0.09050000000000001,-0.21235,1.0020000000000007,100.0,1.0,1.0,204.40666666666667,0.0,0.0,0.0,0.0,0.0,0.0,0.0,8664.0,0.0,55.0,5.0,238.38333333333333,1.0,0.0,0.0,0.0,0.0,0.0,0.0,0.0,0.254999999999999,0.254999999999999,0.0,0.0,1.0,55.0,616.79921,10000.0,85.000001,85.000001,85.000001,85.000001,395.0,0.0,0.0,0.0,1.0,166.665,53.513,53.513,48.965,48.965,34.0,-27.105,19.744,-33.20666666666666,23.442500000000003,0.0,1783.244,0.245000000000001,100.0,27.883,26.602,42.615,41.103,0.0,1.0,100.0,0.0,0.0,0.0,0.0,3088.0,2842.6,4143.125,4098.5,305.3605,305.85075,314.72975,314.7145,21.816444444444443,20.5377,21.789,21.3245,314.999998,314.999998,324.999988,324.999988,99.55831428571429,99.50726666666667,99.5645,99.54464285714286,-0.005499999999999949,-0.127,-0.21283333333333335,0.015666666666666666,-0.036666666666668846,-0.026666666666670835,1.544,1.5865,37.352000000000004,29.360500000000002,37.181,34.278,55.980999999999995,34.617,58.814499999999995,51.503,53.923,33.789500000000004,57.451499999999996,49.869,53.101,33.359,57.4105,49.294333333333334,-0.05449999999999999,-0.08599999999999985,0.10956500000000001,0.10887000000000001,0.0,207.51,207.39499999999998,204.40666666666667,204.40666666666667,0.0,0.0
6,0.0,1.0,0.0,1.0,1.0,0.0,0.0,1.0,0.0,100.0,1.0,1.1856,26.0,0.0,0.0,0.0,59.999996,0.0,26.0,26.0,26.0,26.0,-0.10044444444444445,0.2895000000000001,-0.005275,293.457,-2.6414,-2.7941111111111114,-1.5538500000000002,-1.582,-255.63,216.215,190.869,0.0,0.0,0.0,0.0,0.01323333333333332,-5.498166666666667,-5.498166666666667,-0.5304,0.08799999999999997,-0.06412500000000021,-0.5609999999999999,66.373,-0.0839,-0.21432500000000002,0.7300000000000004,100.0,1.0,1.0,204.84666666666666,0.0,0.0,0.0,0.0,0.0,0.0,0.0,8682.8,0.0,55.0,5.0,238.91333333333333,0.0,0.0,0.0,0.0,0.0,0.0,0.0,0.0,0.30600000000000094,0.30600000000000094,0.0,0.0,0.0,55.0,616.79921,10000.0,85.000001,85.000001,85.000001,85.000001,395.0,0.0,0.0,0.0,1.0,166.665,53.177,53.177,48.706,48.706,34.0,-27.4175,20.415999999999997,-33.336666666666666,23.035,0.0,1783.193,-0.06499999999999773,100.0,27.654,26.886,42.67,41.556,0.0,1.0,100.0,0.0,0.0,0.0,0.0,3202.833333333333,2863.8,4140.625,4010.9,305.1545,305.507,314.7825,314.8435,21.82622222222222,20.5428,21.7995,21.3334,314.999998,314.999998,324.999988,324.999988,99.55831428571429,99.50728333333333,99.56465714285714,99.54478571428571,0.004250000000000087,-0.12775000000000003,-0.20383333333333334,0.0175,-0.03333333333333144,-0.02833333333332888,1.5274999999999999,1.5670000000000002,37.414,29.3925,37.247,34.334,55.967,34.6575,58.8565,51.566,53.909,33.826499999999996,57.4905,49.929,53.086,33.3945,57.4465,49.35333333333333,-0.07899999999999996,-0.07650000000000023,0.10407500000000001,0.10735000000000001,0.0,207.91500000000002,207.85000000000002,204.8466666666667,204.84666666666666,0.0,0.0
7,0.0,1.0,0.0,1.0,1.0,0.0,0.0,1.0,0.0,100.0,1.0,1.1856,26.0,0.0,0.0,0.0,59.999996,0.0,26.0,26.0,26.0,26.0,-0.06977777777777783,0.2883,0.047275000000000005,293.243,-2.6089,-2.755333333333333,-1.5145,-1.6251111111111112,-252.24,216.19,190.848625,0.0,0.0,0.0,0.0,0.015233333333333321,-5.498166666666667,-5.498166666666667,-0.5343,0.0675,-0.04899999999999993,1.209,66.519,-0.0666,-0.22410000000000002,0.3360000000000003,100.0,1.0,1.0,205.2733333333333,0.0,0.0,0.0,0.0,0.0,0.0,0.0,8700.8,0.0,55.0,5.0,239.44,1.0,0.0,0.0,0.0,0.0,0.0,0.0,0.0,0.3569999999999993,0.3569999999999993,0.0,0.0,1.0,55.0,616.79921,10000.0,85.000001,85.000001,85.000001,85.000001,395.0,0.0,0.0,0.0,1.0,166.665,52.841,52.841,48.828,48.828,34.0,-25.615000000000002,22.772,-30.496666666666663,25.7575,0.0,1783.142,-0.22499999999999787,100.0,27.974,26.838,42.769999999999996,41.752,0.0,1.0,100.0,0.0,0.0,0.0,0.0,3151.833333333333,3020.9,4021.875,4066.6000000000004,305.0705,305.1775,314.958,314.72925,21.836,20.5479,21.8099,21.3423,314.999998,314.999998,324.999988,324.999988,99.55831428571429,99.5073,99.5648,99.54492857142857,0.03499999999999992,-0.09024999999999994,-0.17616666666666667,0.050833333333333335,-0.04833333333333201,-0.05333333333332746,1.5335,1.554,37.474999999999994,29.424500000000002,37.312,34.3895,55.952,34.697,58.897999999999996,51.6285,53.894999999999996,33.8635,57.528999999999996,49.989,53.071,33.429,57.4825,49.41166666666666,-0.09450000000000003,-0.05699999999999994,0.10773500000000001,0.11167,0.0,208.36,208.32,205.2733333333333,205.2733333333333,0.0,0.0
8,0.0,1.0,0.0,1.0,1.0,0.0,0.0,1.0,0.0,100.0,1.0,1.1856,26.0,0.0,0.0,0.0,59.999996,0.0,26.0,26.0,26.0,26.0,-0.048666666666666636,0.28880000000000017,0.029425,293.457,-2.6976,-2.716222222222222,-1.5008,-1.5747777777777778,-249.05,216.16500000000002,190.82925,0.0,0.0,0.0,0.0,0.017066666666666563,-5.498166666666667,-5.498166666666667,-0.5352,-0.5780000000000001,-0.030625000000000124,0.736,66.657,-0.0471,-0.21380000000000002,-0.11000000000000032,100.0,1.0,1.0,205.63,0.0,0.0,0.0,0.0,0.0,0.0,0.0,8715.9,0.0,55.0,5.0,239.93333333333334,0.0,0.0,0.0,0.0,0.0,0.0,0.0,0.0,0.40500000000000114,0.40500000000000114,0.0,0.0,0.0,55.0,616.79921,10000.0,85.000001,85.000001,85.000001,85.000001,395.0,0.0,0.0,0.0,1.0,333.33500000000004,53.68,53.68,48.126,48.126,34.0,-23.2575,22.738,-30.436666666666667,27.185,0.0,1783.092,-0.3550000000000004,100.0,27.482,26.749,42.774,41.877,0.0,1.0,100.0,0.0,0.0,0.0,0.0,2908.166666666667,3004.6,4119.75,4166.1,305.978,305.3365,314.67675,314.46275,21.845111111111112,20.5528,21.8198,21.3507,314.999998,314.999998,324.999988,324.999988,99.55832857142858,99.5073,99.56492857142857,99.54507142857143,0.05049999999999999,-0.07550000000000001,-0.1585,0.07233333333333333,-0.05666666666667197,-0.05666666666667197,1.5215,1.5055,37.532,29.455,37.373000000000005,34.4415,55.937,34.733000000000004,58.9365,51.6865,53.881,33.8965,57.565,50.045,53.056,33.461,57.5155,49.46633333333333,-0.09899999999999998,-0.04249999999999998,0.10812000000000001,0.10545,0.0,208.76,208.755,205.63,205.63,0.0,0.0
9,0.0,1.0,0.0,1.0,1.0,0.0,0.0,1.0,0.0,100.0,1.0,1.1856,26.0,0.0,0.0,0.0,59.999996,0.0,26.0,26.0,26.0,26.0,-0.012888888888888839,0.28710000000000013,-0.013725000000000001,293.076,-2.6258,-2.718888888888889,-1.5537,-1.5554444444444444,-245.65,216.1375,190.808125,0.0,0.0,0.0,0.0,0.019066666666666565,-5.498166666666667,-5.498166666666667,-0.5405,0.6970000000000001,-0.03500000000000014,-0.32099999999999995,66.799,-0.0247,-0.21525,-0.137999999999999,100.0,1.0,1.0,206.18,0.0,0.0,0.0,0.0,0.0,0.0,0.0,8739.2,0.0,55.0,5.0,240.44666666666666,1.0,0.0,0.0,0.0,0.0,0.0,0.0,0.0,0.4559999999999995,0.4559999999999995,0.0,0.0,1.0,55.0,616.79921,10000.0,85.000001,85.000001,85.000001,85.000001,395.0,0.0,0.0,0.0,1.0,166.665,52.353,52.353,49.103,49.103,34.0,-25.9375,23.77,-29.093333333333334,26.6875,0.0,1783.043,-0.509999999999998,100.0,27.911,27.376,42.34,41.978,0.0,1.0,100.0,0.0,0.0,0.0,0.0,3351.0,2997.7,4053.0,4052.8,304.671,305.1135,315.046,314.7865,21.854888888888887,20.5582,21.8301,21.3595,314.999998,314.999998,324.999988,324.999988,99.55832857142858,99.50731666666667,99.56507142857143,99.5452,0.06675000000000009,-0.05625000000000002,-0.13933333333333334,0.09083333333333334,-0.04333333333332945,-0.05666666666667197,1.5705,1.5635,37.593,29.488500000000002,37.438,34.497,55.925,34.7725,58.9745,51.747,53.869,33.933,57.6005,50.103,53.043,33.496,57.548,49.52333333333333,-0.11250000000000004,-0.03699999999999992,0.106105,0.11403,0.0,209.21,209.23000000000002,206.18,206.18,0.0,0.0
10,0.0,1.0,0.0,1.0,1.0,0.0,0.0,1.0,0.0,100.0,1.0,1.1856,26.0,0.0,0.0,0.0,59.999996,0.0,26.0,26.0,26.0,26.0,0.006666666666666599,0.30190000000000006,-0.0074,292.969,-2.6629,-2.703555555555556,-1.5363,-1.5325555555555557,-242.44,216.1125,190.788625,0.0,0.0,0.0,0.0,0.02093333333333336,-5.498166666666667,-5.498166666666667,-0.5184,-0.39050000000000007,0.008124999999999938,0.359,66.938,-0.006200000000000001,-0.207625,-0.4379999999999997,100.0,1.0,1.0,206.39666666666668,0.0,0.0,0.0,0.0,0.0,0.0,0.0,8748.4,0.0,55.0,5.0,240.94666666666666,0.0,0.0,0.0,0.0,0.0,0.0,1.0,0.0,0.5040000000000013,0.5040000000000013,0.0,0.0,0.0,55.0,616.79921,10000.0,85.000001,85.000001,85.000001,85.000001,395.0,0.0,0.0,0.0,1.0,333.33500000000004,53.452,53.452,47.607,47.607,34.0,-21.2075,22.462,-30.136666666666663,29.16,0.0,1782.993,-0.6050000000000004,100.0,27.701,27.367,42.775,42.724000000000004,0.0,1.0,100.0,0.0,0.0,0.0,0.0,2887.166666666667,2868.8,4311.0,4270.6,306.083,305.548,314.3095,314.157,21.864,20.5631,21.84,21.3681,314.999998,314.999998,324.999988,324.999988,99.55834285714286,99.50731666666667,99.56521428571429,99.54534285714286,0.08899999999999997,-0.055499999999999994,-0.11133333333333333,0.10083333333333333,-0.03999999999999915,-0.03833333333332689,1.491,1.4735,37.65,29.5195,37.5,34.5505,55.913,34.8075,59.0145,51.809,53.857,33.965,57.638,50.162,53.031,33.5265,57.582499999999996,49.58133333333333,-0.12949999999999995,-0.03100000000000014,0.09811500000000001,0.10474000000000001,0.0,209.62,209.64,206.39666666666668,206.39666666666668,0.0,0.0
11,0.0,1.0,0.0,1.0,1.0,0.0,0.0,1.0,0.0,100.0,1.0,1.1856,26.0,0.0,0.0,0.0,59.999996,0.0,26.0,26.0,26.0,26.0,0.030888888888888966,0.27070000000000016,-0.0724,293.51800000000003,-2.706,-2.687666666666667,-1.58995,-1.524,-239.01999999999998,216.085,190.768,0.0,0.0,0.0,0.0,0.022599999999999953,-5.498166666666667,-5.498166666666667,-0.561,-0.22449999999999992,0.03299999999999992,0.30999999999999994,67.076,0.013300000000000001,-0.23695000000000002,-0.6720000000000006,100.0,1.0,1.0,207.14,0.0,0.0,0.0,0.0,0.0,0.0,0.0,8779.9,0.0,55.0,5.0,241.44666666666666,1.0,0.0,0.0,0.0,0.0,0.0,1.0,0.0,0.5549999999999997,0.5549999999999997,0.0,0.0,1.0,55.0,616.79921,10000.0,85.000001,85.000001,85.000001,85.000001,395.0,0.0,0.0,0.0,1.0,166.665,52.826,52.826,49.254999999999995,49.254999999999995,34.0,-21.83,26.632,-24.00333333333333,27.32,0.0,1782.943,-0.5949999999999989,100.0,27.555,27.412,42.342,42.562,0.0,1.0,100.0,0.0,0.0,0.0,0.0,3001.333333333333,3180.8,3687.5,3875.7,305.663,304.731,315.8825,315.2265,21.873444444444445,20.5685,21.8503,21.377,314.999998,314.999998,324.999988,324.999988,99.55835714285715,99.50731666666667,99.56534285714285,99.54548571428572,0.10949999999999993,-0.01649999999999996,-0.09083333333333334,0.14666666666666667,-0.04833333333333201,-0.060000000000002274,1.6475,1.6125,37.709,29.552999999999997,37.564,34.606,55.899,34.845,59.0505,51.87,53.844,34.0,57.671,50.221000000000004,53.016999999999996,33.56,57.613,49.638999999999996,-0.12199999999999989,-0.02499999999999991,0.10995,0.10922000000000001,0.0,210.025,210.07,207.14,207.14,0.0,0.0
12,0.0,1.0,0.0,1.0,1.0,0.0,0.0,1.0,0.0,100.0,1.0,1.1856,26.0,0.0,0.0,0.0,59.999996,0.0,26.0,26.0,26.0,26.0,0.06466666666666687,0.2902,0.038975,292.862,-2.7575,-2.679333333333333,-1.5566,-1.5255555555555558,-235.59,216.06,190.745875,0.0,0.0,0.0,0.0,0.025466666666666526,-5.498166666666667,-5.498166666666667,-0.5457000000000001,0.263,0.016249999999999876,-0.8049999999999999,67.221,0.031,-0.206575,-0.6600000000000001,100.0,1.0,1.0,207.35000000000002,0.0,0.0,0.0,0.0,0.0,0.0,0.0,8788.8,0.0,55.0,5.0,241.96666666666667,0.0,0.0,0.0,0.0,0.0,0.0,1.0,0.0,0.6059999999999981,0.6059999999999981,0.0,0.0,0.0,55.0,616.79921,10000.0,85.000001,85.000001,85.000001,85.000001,395.0,0.0,0.0,0.0,1.0,166.665,52.704,52.704,47.913,47.913,34.0,-23.1425,26.266,-27.71666666666666,30.552500000000002,0.0,1782.893,-0.48499999999999943,100.0,27.362000000000002,27.764,42.241,42.593,0.0,1.0,100.0,0.0,0.0,0.0,0.0,3149.166666666667,3110.3,4246.875,4177.5,305.4085,304.79725,314.5505,314.4435,21.883,20.573999999999998,21.8607,21.3859,314.999998,314.999998,324.999988,324.999988,99.55837142857143,99.50731666666667,99.56548571428571,99.54562857142857,0.11424999999999996,-0.011749999999999927,-0.07566666666666667,0.14816666666666667,-0.04999999999999716,-0.046666666666666856,1.5230000000000001,1.509,37.769,29.5875,37.629000000000005,34.662,55.887,34.882999999999996,59.09,51.932,53.832,34.035,57.708,50.2805,53.004,33.5935,57.647,49.69766666666666,-0.119,-0.028500000000000192,0.10886000000000001,0.10901000000000001,0.0,210.505,210.535,207.35000000000002,207.35000000000002,0.0,0.0
13,0.0,1.0,0.0,1.0,1.0,0.0,0.0,1.0,0.0,100.0,1.0,1.1856,26.0,0.0,0.0,0.0,59.999996,0.0,26.0,26.0,26.0,26.0,0.07011111111111101,0.2882,0.057550000000000004,292.542,-2.7368,-2.672777777777778,-1.59175,-1.506,-232.16,216.035,190.724125,0.0,0.0,0.0,0.0,0.026899999999999924,-5.498166666666667,-5.498166666666667,-0.5395,-0.07200000000000006,0.026000000000000023,1.11,67.364,0.038900000000000004,-0.21705000000000002,-0.8739999999999997,100.0,1.0,1.0,207.74,0.0,0.0,0.0,0.0,0.0,0.0,0.0,8805.4,0.0,55.0,5.0,242.48000000000002,1.0,0.0,0.0,0.0,0.0,0.0,1.0,0.0,0.657,0.657,0.0,0.0,1.0,55.0,616.79921,10000.0,85.000001,85.000001,85.000001,85.000001,395.0,0.0,0.0,0.0,1.0,166.665,52.444,52.444,47.913,47.913,34.0,-20.755,28.253999999999998,-26.123333333333335,32.837500000000006,0.0,1782.843,-0.8249999999999993,100.0,27.841,27.814,42.589,42.995000000000005,0.0,1.0,100.0,0.0,0.0,0.0,0.0,3046.333333333333,3193.3,4112.25,4368.9,305.507,304.7125,314.75675,314.03875,21.892555555555557,20.5795,21.8712,21.395,314.999998,314.999998,324.999988,324.999988,99.55838571428572,99.50733333333334,99.56564285714286,99.54577142857143,0.15050000000000008,0.022250000000000103,-0.05216666666666667,0.163,-0.030000000000001137,-0.03833333333332689,1.5115,1.4755,37.829,29.622,37.695,34.719,55.876999999999995,34.9215,59.129999999999995,51.9975,53.823,34.070499999999996,57.745,50.3435,52.994,33.6275,57.6805,49.75933333333333,-0.14250000000000007,-0.008999999999999897,0.10688,0.10402000000000002,0.0,210.925,210.97500000000002,207.74,207.74,0.0,0.0
14,0.0,1.0,0.0,1.0,1.0,0.0,0.0,1.0,0.0,100.0,1.0,1.1856,26.0,0.0,0.0,0.0,59.999996,0.0,26.0,26.0,26.0,26.0,0.08411111111111103,0.28780000000000006,-0.010575000000000001,292.816,-2.7340999999999998,-2.6189999999999998,-1.5957,-1.5124444444444445,-228.92000000000002,216.0125,190.70425,0.0,0.0,0.0,0.0,0.028766666666666607,-5.498166666666667,-5.498166666666667,-0.5484,-0.13749999999999996,0.051124999999999865,1.2690000000000001,67.495,0.0519,-0.22812500000000002,-1.0199999999999996,100.0,1.0,1.0,208.2266666666667,0.0,0.0,0.0,0.0,0.0,0.0,0.0,8825.9,0.0,55.0,5.0,242.95666666666665,0.0,0.0,0.0,0.0,0.0,0.0,1.0,0.0,0.7049999999999983,0.7049999999999983,0.0,0.0,0.0,55.0,616.79921,10000.0,85.000001,85.000001,85.000001,85.000001,395.0,0.0,0.0,0.0,1.0,333.33500000000004,52.643,52.643,48.111,48.111,34.0,-19.65,28.352,-24.623333333333328,31.7625,0.0,1782.792,-0.9250000000000007,100.0,27.7,27.824,42.478,43.147,0.0,1.0,100.0,0.0,0.0,0.0,0.0,2927.0,3251.9,3970.25,4214.5,305.851,304.55175,315.11325,314.42625,21.901555555555554,20.5847,21.881,21.4036,314.999998,314.999998,324.999988,324.999988,99.5584,99.50733333333334,99.56577142857142,99.54591428571429,0.15399999999999991,0.023249999999999993,-0.0465,0.17166666666666666,-0.026666666666670835,-0.07166666666666544,1.557,1.5225,37.885,29.6545,37.756,34.7725,55.867999999999995,34.957499999999996,59.1655,52.0575,53.814,34.1035,57.778,50.400999999999996,52.983999999999995,33.6595,57.710499999999996,49.816,-0.14749999999999996,-0.0024999999999999467,0.10558500000000001,0.10239000000000001,0.0,211.3,211.405,208.2266666666667,208.2266666666667,0.0,0.0
15,0.0,1.0,0.0,1.0,1.0,0.0,0.0,1.0,0.0,100.0,1.0,1.1856,26.0,0.0,0.0,0.0,59.999996,0.0,26.0,26.0,26.0,26.0,0.11333333333333329,0.28459999999999996,0.012225,292.877,-2.7102,-2.575555555555556,-1.6295000000000002,-1.453111111111111,-225.68,215.9925,190.683875,0.0,0.0,0.0,0.0,0.03066666666666651,-5.498166666666667,-5.498166666666667,-0.5403,0.28600000000000003,0.08274999999999988,1.103,67.627,0.0653,-0.209625,-1.2039999999999997,100.0,1.0,1.0,208.62666666666667,0.0,0.0,0.0,0.0,0.0,0.0,0.0,8842.9,0.0,55.0,5.0,243.43,1.0,0.0,0.0,0.0,0.0,0.0,1.0,0.0,0.7530000000000001,0.7530000000000001,0.0,0.0,1.0,55.0,616.79921,10000.0,85.000001,85.000001,85.000001,85.000001,395.0,0.0,0.0,0.0,1.0,166.665,52.841,52.841,48.218,48.218,34.0,-17.775,28.516,-23.96666666666667,33.6275,0.0,1782.746,-0.9600000000000009,100.0,27.665,27.859,42.216,43.18,0.0,1.0,100.0,0.0,0.0,0.0,0.0,2793.5,3235.7,3935.625,4388.3,306.225,304.5895,315.2425,314.03625,21.910444444444444,20.5899,21.8906,21.4122,314.999998,314.999998,324.999988,324.999988,99.55841428571429,99.50735,99.5659,99.54605714285714,0.17074999999999996,0.040000000000000036,-0.03066666666666667,0.19316666666666665,-0.02499999999999858,-0.05833333333333002,1.5590000000000002,1.516,37.94,29.686999999999998,37.816,34.826,55.858999999999995,34.994,59.2,52.1175,53.805,34.1375,57.8095,50.459,52.974000000000004,33.692,57.7395,49.873,-0.15049999999999986,0.0009999999999998899,0.10322,0.10763,0.0,211.73000000000002,211.815,208.62666666666667,208.62666666666667,0.0,0.0
16,0.0,1.0,0.0,1.0,1.0,0.0,0.0,1.0,0.0,100.0,1.0,1.1856,26.0,0.0,0.0,0.0,59.999996,0.0,26.0,26.0,26.0,26.0,0.13422222222222224,0.26249999999999996,-0.05765,292.892,-2.8099,-2.578333333333333,-1.6007,-1.451888888888889,-222.23,215.975,190.661875,0.0,0.0,0.0,0.0,0.03266666666666651,-5.498166666666667,-5.498166666666667,-0.5607,-0.7,0.06937499999999996,-1.068,67.767,0.0765,-0.22475,-1.186,100.0,1.0,1.0,209.05333333333334,0.0,0.0,0.0,0.0,0.0,0.0,0.0,8861.1,0.0,55.0,5.0,243.93333333333334,0.0,0.0,0.0,0.0,0.0,0.0,1.0,0.0,0.8039999999999985,0.8039999999999985,0.0,0.0,0.0,55.0,616.79921,10000.0,85.000001,85.000001,85.000001,85.000001,395.0,0.0,0.0,0.0,1.0,166.665,52.75,52.75,47.943,47.943,34.0,-20.275,28.134,-23.186666666666667,31.8425,0.0,1782.695,-0.870000000000001,100.0,27.167,28.112000000000002,42.388,43.408,0.0,1.0,100.0,0.0,0.0,0.0,0.0,2998.333333333333,3201.3,3961.875,4147.9,305.9255,304.551,315.2195,314.532,21.919555555555554,20.5955,21.9011,21.4213,314.999998,314.999998,324.999988,324.999988,99.55842857142858,99.50735,99.56604285714286,99.5462,0.16175000000000006,0.03374999999999995,-0.01933333333333333,0.199,-0.041666666666671404,-0.04333333333332945,1.5525,1.5154999999999998,37.997,29.722,37.882,34.882999999999996,55.847,35.034,59.239,52.1815,53.793,34.174,57.846000000000004,50.5205,52.961,33.727000000000004,57.772999999999996,49.93333333333334,-0.139,-0.00749999999999984,0.10653000000000001,0.1039,0.0,212.14499999999998,212.20499999999998,209.05333333333334,209.05333333333334,0.0,0.0
17,0.0,1.0,0.0,1.0,1.0,0.0,0.0,1.0,0.0,100.0,1.0,1.1856,26.0,0.0,0.0,0.0,59.999996,0.0,26.0,26.0,26.0,26.0,0.11277777777777787,0.28310000000000013,-0.0213,292.526,-2.7595,-2.568666666666667,-1.6364,-1.4777777777777779,-218.76999999999998,215.96,190.63925,0.0,0.0,0.0,0.0,0.03466666666666651,-5.498166666666667,-5.498166666666667,-0.5501,0.5295,0.04699999999999993,0.734,67.906,0.0801,-0.20585,-1.154,100.0,1.0,1.0,209.45,0.0,0.0,0.0,0.0,0.0,0.0,0.0,8877.8,0.0,55.0,5.0,244.43333333333334,1.0,0.0,0.0,0.0,0.0,0.0,1.0,0.0,0.8550000000000004,0.8550000000000004,0.0,0.0,1.0,55.0,616.79921,10000.0,85.000001,85.000001,85.000001,85.000001,395.0,0.0,0.0,0.0,1.0,166.665,52.475,52.475,47.836,47.836,34.0,-19.0,28.032,-25.35,34.730000000000004,0.0,1782.644,-0.9299999999999997,100.0,27.814,28.236,42.28,43.295,0.0,1.0,100.0,0.0,0.0,0.0,0.0,2997.166666666667,3160.0,4212.375,4323.9,305.7025,304.84675,314.66025,314.2335,21.929111111111112,20.6012,21.9113,21.4303,314.999998,314.999998,324.999988,324.999988,99.55845714285714,99.50735,99.5662,99.54634285714286,0.18625000000000003,0.04899999999999993,-0.0165,0.2175,-0.030000000000001137,-0.06833333333332803,1.5365,1.494,38.057,29.7575,37.946,34.939499999999995,55.839,35.075,59.2755,52.2445,53.786,34.2125,57.879999999999995,50.5815,52.952,33.763999999999996,57.8035,49.99333333333333,-0.14900000000000002,-0.004999999999999893,0.102955,0.11592000000000001,0.0,212.595,212.70499999999998,209.45,209.45,0.0,0.0
18,0.0,1.0,0.0,1.0,1.0,0.0,0.0,1.0,0.0,100.0,1.0,1.1856,26.0,0.0,0.0,0.0,59.999996,0.0,26.0,26.0,26.0,26.0,0.13377777777777777,0.26990000000000003,-0.015275,292.419,-2.8026,-2.5345555555555555,-1.6593499999999999,-1.4186666666666667,-215.3,215.95,190.616875,0.0,0.0,0.0,0.0,0.036699999999999955,-5.498166666666667,-5.498166666666667,-0.5609000000000001,-0.48649999999999993,0.07374999999999998,-0.19199999999999995,68.045,0.0804,-0.224275,-1.2320000000000002,100.0,1.0,1.0,209.88666666666666,0.0,0.0,0.0,0.0,0.0,0.0,0.0,8896.4,0.0,55.0,5.0,244.93333333333334,0.0,0.0,0.0,0.0,0.0,0.0,1.0,0.0,0.9059999999999988,0.9059999999999988,0.0,0.0,0.0,55.0,616.79921,10000.0,85.000001,85.000001,85.000001,85.000001,395.0,0.0,0.0,0.0,1.0,166.665,52.246,52.246,47.653,47.653,34.0,-20.025,29.692,-25.08,32.035,0.0,1782.594,-1.2800000000000011,100.0,27.413,28.299,42.542,43.836,0.0,1.0,100.0,0.0,0.0,0.0,0.0,3113.5,3316.3,4042.875,4203.5,305.588,304.2435,315.06475,314.424,21.938333333333333,20.6068,21.9218,21.4396,314.999998,314.999998,324.999988,324.999988,99.55848571428571,99.50736666666667,99.56634285714286,99.5465,0.1865000000000001,0.0535000000000001,-0.028833333333333332,0.20216666666666666,-0.03333333333333144,-0.06833333333332803,1.5375,1.517,38.114999999999995,29.7925,38.010999999999996,34.9975,55.83,35.1155,59.314499999999995,52.31,53.777,34.25,57.916,50.6445,52.942,33.8,57.8365,50.05533333333334,-0.16649999999999987,0.0129999999999999,0.110435,0.1043,0.0,212.99,213.09,209.88666666666666,209.88666666666666,0.0,0.0
19,0.0,1.0,0.0,1.0,1.0,0.0,0.0,1.0,0.0,100.0,1.0,1.1856,26.0,0.0,0.0,0.0,59.999996,0.0,26.0,26.0,26.0,26.0,0.1624444444444444,0.29370000000000007,0.033775,292.007,-2.7698,-2.5234444444444444,-1.6727,-1.4026666666666667,-212.03,215.9425,190.595625,0.0,0.0,0.0,0.0,0.03859999999999997,-5.498166666666667,-5.498166666666667,-0.5476,0.8235,0.08537499999999998,-0.4850000000000001,68.174,0.09090000000000001,-0.21015,-1.5999999999999996,100.0,1.0,1.0,210.26666666666665,0.0,0.0,0.0,0.0,0.0,0.0,0.0,8912.4,0.0,55.0,5.0,245.39666666666665,1.0,0.0,0.0,0.0,0.0,0.0,1.0,0.0,0.9540000000000006,0.9540000000000006,0.0,0.0,1.0,55.0,616.79921,10000.0,85.000001,85.000001,85.000001,85.000001,395.0,0.0,0.0,0.0,1.0,333.33500000000004,51.712,51.712,47.562,47.562,34.0,-18.875,30.95,-25.18,34.682500000000005,0.0,1782.543,-1.5350000000000001,100.0,27.9,28.754,42.26,43.817,0.0,1.0,100.0,0.0,0.0,0.0,0.0,3130.333333333333,3313.9,4185.75,4400.6,305.4275,304.15825,314.78175,314.00325,21.947222222222223,20.6123,21.9314,21.4481,314.999998,314.999998,324.999988,324.999988,99.55851428571428,99.50736666666667,99.56647142857143,99.54664285714286,0.21025000000000005,0.08200000000000007,-0.009833333333333335,0.2215,-0.05333333333332746,-0.05666666666667197,1.558,1.496,38.17,29.826999999999998,38.071,35.051,55.825,35.16,59.3505,52.375,53.771,34.291,57.9495,50.707,52.935,33.8395,57.867,50.11666666666667,-0.19599999999999995,0.03749999999999987,0.11027,0.11148000000000001,0.0,213.445,213.535,210.26666666666665,210.26666666666665,0.0,0.0
20,0.0,1.0,0.0,1.0,1.0,0.0,0.0,1.0,0.0,100.0,1.0,1.1856,26.0,0.0,0.0,0.0,59.999996,0.0,26.0,26.0,26.0,26.0,0.209888888888889,0.2654000000000001,0.045125000000000005,292.328,-2.8225,-2.584111111111111,-1.60655,-1.5144444444444445,-208.55,215.9375,190.57325,0.0,0.0,0.0,0.0,0.0406333333333333,-5.498166666666667,-5.498166666666667,-0.5537000000000001,-1.206,0.09687500000000004,0.679,68.313,0.10690000000000001,-0.22025,-2.0839999999999996,100.0,1.0,1.0,210.58333333333331,0.0,0.0,0.0,0.0,0.0,0.0,0.0,8925.9,0.0,55.0,5.0,245.9,0.0,0.0,0.0,0.0,0.0,0.0,0.0,0.0,1.004999999999999,1.004999999999999,0.0,0.0,0.0,55.0,616.79921,10000.0,85.000001,85.000001,85.000001,85.000001,395.0,0.0,0.0,0.0,1.0,333.33500000000004,52.841,52.841,46.89,46.89,34.0,-15.502499999999998,31.954,-21.89333333333333,37.7575,0.0,1782.492,-1.7749999999999986,100.0,27.378,28.33,42.846000000000004,44.275999999999996,0.0,1.0,100.0,0.0,0.0,0.0,0.0,2758.5,3278.7,4068.625,4384.9,306.5345,304.487,314.839,313.87825,21.956222222222223,20.6179,21.942,21.4575,314.999998,314.999998,324.999988,324.999988,99.55852857142857,99.50738333333334,99.56661428571428,99.54678571428572,0.24150000000000005,0.11050000000000004,0.02733333333333333,0.241,-0.046666666666666856,-0.04333333333332945,1.506,1.4344999999999999,38.227000000000004,29.862000000000002,38.137,35.1095,55.816,35.2005,59.388999999999996,52.4375,53.763,34.3285,57.985,50.7675,52.925,33.8755,57.8995,50.17633333333333,-0.21199999999999997,0.0605,0.1096,0.09942000000000001,0.0,213.79000000000002,213.94,210.58333333333331,210.58333333333331,0.0,0.0
21,0.0,1.0,0.0,1.0,1.0,0.0,0.0,1.0,0.0,100.0,1.0,1.1856,26.0,0.0,0.0,0.0,59.999996,0.0,26.0,26.0,26.0,26.0,0.23122222222222222,0.28,-0.0707,292.618,-2.8044000000000002,-2.622111111111111,-1.68255,-1.464777777777778,-205.06,215.94,190.550125,0.0,0.0,0.0,0.0,0.0426333333333333,-5.498166666666667,-5.498166666666667,-0.5771000000000001,0.5425,0.08837499999999987,-0.804,68.446,0.13,-0.222025,-2.286,100.0,1.0,1.0,211.22333333333333,0.0,0.0,0.0,0.0,0.0,0.0,0.0,8953.0,0.0,55.0,5.0,246.37666666666667,1.0,0.0,0.0,0.0,0.0,0.0,0.0,0.0,1.056000000000001,1.056000000000001,0.0,0.0,1.0,55.0,616.79921,10000.0,85.000001,85.000001,85.000001,85.000001,395.0,0.0,0.0,0.0,1.0,166.665,52.292,52.292,48.157,48.157,34.0,-17.2775,31.451999999999998,-20.77666666666667,34.72,0.0,1782.442,-1.0599999999999987,100.0,27.486,28.759999999999998,42.008,43.978,0.0,1.0,100.0,0.0,0.0,0.0,0.0,3011.166666666667,3203.4,3949.125,4120.8,305.8545,304.448,315.359,314.65725,21.965555555555554,20.6238,21.9521,21.4665,314.999998,314.999998,324.999988,324.999988,99.55855714285714,99.5074,99.56675714285714,99.54694285714285,0.23350000000000004,0.10075000000000012,0.04066666666666666,0.2638333333333333,-0.045000000000001705,-0.05333333333332746,1.6440000000000001,1.5485,38.284,29.8985,38.2,35.1655,55.81,35.2475,59.422,52.5,53.757,34.372,58.0155,50.8275,52.918,33.917,57.9265,50.23533333333333,-0.1944999999999999,0.030999999999999917,0.10057500000000001,0.10841,0.0,214.235,214.39499999999998,211.22333333333333,211.22333333333333,0.0,0.0
22,0.0,1.0,0.0,1.0,1.0,0.0,0.0,1.0,0.0,100.0,1.0,1.1856,26.0,0.0,0.0,0.0,59.999996,0.0,26.0,26.0,26.0,26.0,0.16822222222222227,0.2742,-0.00022500000000000002,292.16,-2.7441,-2.6176666666666666,-1.6779000000000002,-1.4536666666666667,-201.57,215.9475,190.526375,0.0,0.0,0.0,0.0,0.04466666666666652,-5.498166666666667,-5.498166666666667,-0.5576,-0.02200000000000002,0.10012500000000002,0.804,68.584,0.14120000000000002,-0.20722500000000002,-1.3499999999999996,100.0,1.0,1.0,211.43666666666667,0.0,0.0,0.0,0.0,0.0,0.0,0.0,8962.1,0.0,55.0,5.0,246.87666666666667,0.0,0.0,0.0,0.0,0.0,0.0,0.0,0.0,1.1069999999999993,1.1069999999999993,0.0,0.0,0.0,55.0,616.79921,10000.0,85.000001,85.000001,85.000001,85.000001,395.0,0.0,0.0,0.0,1.0,166.665,52.429,52.429,47.134,47.134,34.0,-18.1825,28.740000000000002,-22.5,38.635000000000005,0.0,1782.391,0.06500000000000128,100.0,27.671,28.7,42.465,44.259,0.0,1.0,100.0,0.0,0.0,0.0,0.0,2751.333333333333,3266.3,4110.75,4474.0,306.3515,304.411,314.83625,313.844,21.974777777777778,20.6296,21.9625,21.4758,314.999998,314.999998,324.999988,324.999988,99.55857142857143,99.5074,99.5669,99.5471,0.1605000000000001,0.025249999999999995,0.03716666666666667,0.2655,-0.04333333333332945,-0.046666666666666856,1.522,1.4695,38.342,29.935000000000002,38.266,35.224000000000004,55.802,35.29,59.4615,52.568,53.748000000000005,34.411500000000004,58.052,50.893,52.908,33.955,57.96,50.29966666666667,-0.08199999999999985,-0.07699999999999996,0.10821000000000001,0.11052000000000001,0.0,214.675,214.78,211.43666666666667,211.43666666666667,0.0,0.0
23,0.0,1.0,0.0,1.0,1.0,0.0,0.0,1.0,0.0,100.0,1.0,1.1856,26.0,0.0,0.0,0.0,59.999996,0.0,26.0,26.0,26.0,26.0,0.10633333333333339,0.25690000000000013,-0.01055,292.13,-2.7534,-2.5895555555555556,-1.5801,-1.543777777777778,-198.28,215.95749999999998,190.504375,0.0,0.0,0.0,0.0,0.046599999999999975,-5.498166666666667,-5.498166666666667,-0.5768,-0.2925,0.06987499999999991,-0.019000000000000128,68.71000000000001,0.1115,-0.23355,0.017999999999999794,100.0,1.0,1.0,211.94333333333333,0.0,0.0,0.0,0.0,0.0,0.0,0.0,8983.4,0.0,55.0,5.0,247.32999999999998,1.0,0.0,0.0,0.0,0.0,0.0,0.0,0.0,1.1550000000000011,1.1550000000000011,0.0,0.0,1.0,55.0,616.79921,10000.0,85.000001,85.000001,85.000001,85.000001,395.0,0.0,0.0,0.0,1.0,166.665,51.682,51.682,48.126,48.126,34.0,-23.1,26.451999999999998,-22.019999999999996,32.754999999999995,0.0,1782.345,0.740000000000002,100.0,28.073,28.675,42.711,44.382000000000005,0.0,1.0,100.0,0.0,0.0,0.0,0.0,3139.0,3282.4,3891.375,4048.0,305.2275,304.44875,315.30225,314.768,21.983444444444444,20.6351,21.9723,21.4845,314.999998,314.999998,324.999988,324.999988,99.5586,99.5074,99.56704285714285,99.54722857142858,0.11925000000000008,-0.022749999999999937,-0.0061666666666666675,0.2125,-0.03166666666666629,-0.04833333333333201,1.5185,1.5345,38.397,29.969,38.327,35.2785,55.791,35.328,59.4965,52.629,53.738,34.4465,58.0845,50.952,52.896,33.989,57.9895,50.35766666666667,-0.028999999999999915,-0.13450000000000006,0.10763500000000001,0.10799,0.0,215.085,215.115,211.94333333333333,211.94333333333333,0.0,0.0
24,0.0,1.0,0.0,1.0,1.0,0.0,0.0,1.0,0.0,100.0,1.0,1.1856,26.0,0.0,0.0,0.0,59.999996,0.0,26.0,26.0,26.0,26.0,0.011666666666666714,0.2659,-0.0008500000000000001,292.404,-2.7529,-2.624888888888889,-1.59855,-1.5098888888888888,-194.76999999999998,215.9725,190.480375,0.0,0.0,0.0,0.0,0.048633333333333306,-5.498166666666667,-5.498166666666667,-0.5812,-0.5915000000000001,0.04812499999999997,-0.6100000000000001,68.846,0.053000000000000005,-0.217675,0.976,100.0,1.0,1.0,212.26,0.0,0.0,0.0,0.0,0.0,0.0,0.0,8996.9,0.0,55.0,5.0,247.81666666666666,0.0,0.0,0.0,0.0,0.0,0.0,0.0,0.0,1.2059999999999995,1.2059999999999995,0.0,0.0,0.0,55.0,616.79921,10000.0,85.000001,85.000001,85.000001,85.000001,395.0,0.0,0.0,0.0,1.0,166.665,52.887,52.887,47.104,47.104,34.0,-23.35,21.57,-29.18,29.7725,0.0,1782.294,1.0300000000000011,100.0,27.817,28.349,42.934,44.038,0.0,1.0,100.0,0.0,0.0,0.0,0.0,2912.0,2977.0,4309.75,4116.9,306.105,305.29625,314.3935,314.6525,21.99277777777778,20.6406,21.9828,21.4936,314.999998,314.999998,324.999988,324.999988,99.55861428571428,99.50741666666667,99.56718571428571,99.54738571428571,0.058499999999999996,-0.08424999999999994,-0.07866666666666668,0.14833333333333334,-0.046666666666666856,-0.03999999999999915,1.504,1.521,38.455,30.003999999999998,38.391999999999996,35.335,55.775999999999996,35.3665,59.5355,52.691,53.724000000000004,34.4825,58.1205,51.012,52.882,34.0235,58.022,50.416333333333334,0.0009999999999998899,-0.16100000000000003,0.10198000000000002,0.12154000000000001,0.0,215.565,215.495,212.26,212.26,0.0,0.0
25,0.0,1.0,0.0,1.0,1.0,0.0,0.0,1.0,0.0,100.0,1.0,1.1856,26.0,0.0,0.0,0.0,59.999996,0.0,26.0,26.0,26.0,26.0,-0.06655555555555548,0.26660000000000017,-0.07212500000000001,292.282,-2.7697,-2.633222222222222,-1.5738500000000002,-1.5512222222222223,-191.25,215.9875,190.455,0.0,0.0,0.0,0.0,0.05066666666666653,-5.498166666666667,-5.498166666666667,-0.6136,0.09450000000000003,0.008499999999999952,-0.9020000000000001,68.977,-0.0106,-0.2263,1.4379999999999997,100.0,1.0,1.0,212.82666666666665,0.0,0.0,0.0,0.0,0.0,0.0,0.0,9021.0,0.0,55.0,5.0,248.29333333333335,1.0,0.0,0.0,0.0,0.0,0.0,0.0,0.0,1.256999999999998,1.256999999999998,0.0,0.0,1.0,55.0,616.79921,10000.0,85.000001,85.000001,85.000001,85.000001,395.0,0.0,0.0,0.0,1.0,166.665,51.727000000000004,51.727000000000004,48.004,48.004,34.0,-28.515,23.334,-28.97,25.7875,0.0,1782.242,1.0749999999999993,100.0,28.196,28.204,43.03,43.347,0.0,1.0,100.0,0.0,0.0,0.0,0.0,3273.333333333333,3312.0,3993.625,3959.7,304.9805,304.388,315.16225,315.07025,22.002111111111113,20.6462,21.9931,21.5026,314.999998,314.999998,324.999988,324.999988,99.55861428571428,99.50743333333334,99.56732857142858,99.54752857142857,0.02499999999999991,-0.10599999999999998,-0.136,0.08983333333333333,-0.05833333333333002,-0.06333333333333258,1.5390000000000001,1.5875,38.513,30.039,38.457,35.391,55.76,35.409,59.5715,52.7495,53.708,34.5215,58.153999999999996,51.068,52.864999999999995,34.061,58.052,50.471333333333334,-0.0015000000000000568,-0.16349999999999998,0.10821000000000001,0.11086000000000001,0.0,216.005,215.89499999999998,212.82666666666665,212.82666666666665,0.0,0.0
26,0.0,1.0,0.0,1.0,1.0,0.0,0.0,1.0,0.0,100.0,1.0,1.1856,26.0,0.0,0.0,0.0,59.999996,0.0,26.0,26.0,26.0,26.0,-0.11911111111111106,0.28059999999999996,0.054975,291.138,-2.6752,-2.754777777777778,-1.5883,-1.5836666666666668,-187.73000000000002,216.0,190.42925,0.0,0.0,0.0,0.0,0.0527333333333333,-5.498166666666667,-5.498166666666667,-0.5687,0.5985,-0.05224999999999991,-1.3330000000000002,69.114,-0.0629,-0.195725,1.7379999999999995,100.0,1.0,1.0,212.95666666666668,0.0,0.0,0.0,0.0,0.0,0.0,0.0,9026.5,0.0,55.0,5.0,248.78333333333336,0.0,0.0,0.0,0.0,0.0,0.0,0.0,0.0,1.3079999999999998,1.3079999999999998,0.0,0.0,0.0,55.0,616.79921,10000.0,85.000001,85.000001,85.000001,85.000001,395.0,0.0,0.0,0.0,1.0,166.665,51.528999999999996,51.528999999999996,46.082,46.082,34.0,-29.6,19.29,-39.123333333333335,26.9325,0.0,1782.191,0.9450000000000003,100.0,29.124,28.642,44.044,43.522,0.0,1.0,100.0,0.0,0.0,0.0,0.0,3324.5,2919.7,4697.0,4409.1,304.8655,305.31175,313.53925,313.9815,22.011777777777777,20.6519,22.0038,21.5118,314.999998,314.999998,324.999988,324.999988,99.55862857142857,99.50745,99.56748571428571,99.54767142857143,-0.008749999999999925,-0.16074999999999995,-0.18883333333333335,0.029166666666666667,-0.04333333333332945,-0.06499999999999773,1.42,1.469,38.574,30.0745,38.522999999999996,35.448499999999996,55.747,35.454499999999996,59.615,52.8115,53.696,34.5635,58.195,51.1275,52.852000000000004,34.101,58.09,50.529333333333334,-0.010999999999999899,-0.15900000000000025,0.09684000000000001,0.11517000000000001,0.0,216.46,216.335,212.95666666666668,212.95666666666668,0.0,0.0
27,0.0,1.0,0.0,1.0,1.0,0.0,0.0,1.0,0.0,100.0,1.0,1.1856,26.0,0.0,0.0,0.0,59.999996,0.0,26.0,26.0,26.0,26.0,-0.12577777777777777,0.24970000000000003,-0.029725,291.687,-2.6189,-2.744888888888889,-1.56165,-1.6703333333333332,-184.41,216.0075,190.40625,0.0,0.0,0.0,0.0,0.05466666666666653,-5.498166666666667,-5.498166666666667,-0.6008,-1.0699999999999998,-0.07050000000000001,-0.9319999999999999,69.238,-0.09570000000000001,-0.24550000000000002,1.6620000000000008,100.0,1.0,1.0,213.49,0.0,0.0,0.0,0.0,0.0,0.0,0.0,9049.1,0.0,55.0,5.0,249.23333333333335,1.0,0.0,0.0,0.0,0.0,0.0,0.0,0.0,1.355999999999998,1.355999999999998,0.0,0.0,1.0,55.0,616.79921,10000.0,85.000001,85.000001,85.000001,85.000001,395.0,0.0,0.0,0.0,1.0,166.665,51.743,51.743,46.814,46.814,34.0,-29.875,19.086,-34.92666666666666,23.08,0.0,1782.143,0.754999999999999,100.0,28.976,28.254,44.802,43.741,0.0,1.0,100.0,0.0,0.0,0.0,0.0,3311.666666666667,2975.2,4142.75,3931.3,304.906,305.25875,314.72275,315.027,22.020666666666667,20.657,22.0138,21.5205,314.999998,314.999998,324.999988,324.999988,99.55862857142857,99.50746666666667,99.56762857142857,99.54781428571428,-0.03049999999999997,-0.17074999999999996,-0.22533333333333336,0.0013333333333333333,-0.041666666666671404,-0.036666666666668846,1.4985,1.5415,38.629000000000005,30.106,38.587,35.503,55.733000000000004,35.495,59.656,52.869,53.683,34.601,58.2335,51.183,52.838,34.137,58.1255,50.583333333333336,-0.018999999999999906,-0.14000000000000012,0.10277000000000001,0.1111,0.0,216.79000000000002,216.64,213.49,213.49,0.0,0.0
28,0.0,1.0,0.0,1.0,1.0,0.0,0.0,1.0,0.0,100.0,1.0,1.1856,26.0,0.0,0.0,0.0,59.999996,0.0,26.0,26.0,26.0,26.0,-0.15066666666666662,0.2681,-0.04,291.885,-2.6337,-2.742888888888889,-1.4969999999999999,-1.6406666666666667,-181.07999999999998,216.015,190.38225,0.0,0.0,0.0,0.0,0.056599999999999984,-5.498166666666667,-5.498166666666667,-0.6017,0.6815,-0.08662500000000017,-0.724,69.36,-0.11560000000000001,-0.21702500000000002,1.5700000000000003,100.0,1.0,1.0,213.94,0.0,0.0,0.0,0.0,0.0,0.0,0.0,9068.2,0.0,55.0,5.0,249.67000000000002,0.0,0.0,0.0,0.0,0.0,0.0,0.0,0.0,1.404,1.404,0.0,0.0,0.0,55.0,616.79921,10000.0,85.000001,85.000001,85.000001,85.000001,395.0,0.0,0.0,0.0,1.0,166.665,51.772999999999996,51.772999999999996,47.531,47.531,34.0,-31.285,18.314,-35.443333333333335,22.0275,0.0,1782.096,0.5800000000000018,100.0,29.172,28.08,44.232,43.064,0.0,1.0,100.0,0.0,0.0,0.0,0.0,3392.5,2891.8,4218.5,4024.8,304.683,305.49475,314.72675,314.9255,22.029777777777777,20.6621,22.023600000000002,21.5288,314.999998,314.999998,324.999988,324.999988,99.55862857142857,99.50748333333334,99.56777142857143,99.54795714285714,-0.040000000000000036,-0.17474999999999996,-0.24466666666666667,-0.018333333333333333,-0.04333333333332945,-0.051666666666669414,1.5110000000000001,1.588,38.686,30.1385,38.647,35.555,55.722,35.537,59.6915,52.9225,53.672,34.6395,58.2665,51.234,52.827,34.173500000000004,58.1555,50.632999999999996,-0.03749999999999987,-0.13050000000000006,0.113,0.10869000000000001,0.0,217.21,217.075,213.94,213.94,0.0,0.0
29,0.0,1.0,0.0,1.0,1.0,0.0,0.0,1.0,0.0,100.0,1.0,1.1856,26.0,0.0,0.0,0.0,59.999996,0.0,26.0,26.0,26.0,26.0,-0.17355555555555557,0.25470000000000015,0.0022,291.489,-2.5672,-2.8056666666666668,-1.5317,-1.625,-177.54,216.01749999999998,190.355875,0.0,0.0,0.0,0.0,0.058633333333333315,-5.498166666666667,-5.498166666666667,-0.6062000000000001,-0.722,-0.08562499999999984,0.6679999999999999,69.495,-0.11410000000000001,-0.2174,1.1320000000000006,100.0,1.0,1.0,214.19,0.0,0.0,0.0,0.0,0.0,0.0,0.0,9078.8,0.0,55.0,5.0,250.15666666666667,1.0,0.0,0.0,0.0,0.0,0.0,0.0,0.0,1.4549999999999983,1.4549999999999983,0.0,0.0,1.0,55.0,616.79921,10000.0,85.000001,85.000001,85.000001,85.000001,395.0,0.0,0.0,0.0,1.0,333.33500000000004,51.682,51.682,46.539,46.539,34.0,-29.54,20.64,-36.480000000000004,23.7925,0.0,1782.042,0.5199999999999996,100.0,29.068,27.726,44.845,43.2,0.0,1.0,100.0,0.0,0.0,0.0,0.0,3309.5,3097.2,4284.5,4180.9,304.738,304.92475,314.34275,314.52475,22.03922222222222,20.6675,22.0342,21.538,314.999998,314.999998,324.999988,324.999988,99.55862857142857,99.5075,99.56792857142857,99.5481,-0.02849999999999997,-0.16799999999999993,-0.22916666666666666,-0.007333333333333333,-0.036666666666668846,-0.054999999999999716,1.454,1.5,38.745000000000005,30.172,38.714,35.6125,55.708,35.579499999999996,59.736,52.983000000000004,53.658,34.679,58.308,51.292,52.812,34.2115,58.1945,50.68966666666667,-0.04249999999999998,-0.11549999999999994,0.1097,0.10226,0.0,217.555,217.47,214.19,214.19,0.0,0.0
30,0.0,1.0,0.0,1.0,1.0,0.0,0.0,1.0,0.0,100.0,1.0,1.1856,26.0,0.0,0.0,0.0,59.999996,0.0,26.0,26.0,26.0,26.0,-0.1601111111111111,0.2744,0.05865,291.046,-2.6222,-2.696888888888889,-1.47065,-1.7033333333333334,-174.2,216.015,190.330875,0.0,0.0,0.0,0.0,0.06059999999999999,-5.498166666666667,-5.498166666666667,-0.6029,0.7675,-0.08912500000000012,0.764,69.617,-0.10640000000000001,-0.21680000000000002,1.1179999999999994,100.0,1.0,1.0,214.5966666666667,0.0,0.0,0.0,0.0,0.0,0.0,0.0,9096.0,0.0,55.0,5.0,250.59333333333336,0.0,0.0,0.0,0.0,0.0,0.0,1.0,0.0,1.5030000000000001,1.5030000000000001,0.0,0.0,0.0,55.0,616.79921,10000.0,85.000001,85.000001,85.000001,85.000001,395.0,0.0,0.0,0.0,1.0,333.33500000000004,50.888,50.888,46.814,46.814,34.0,-30.8475,19.798000000000002,-35.17,25.9725,0.0,1781.994,0.365000000000002,100.0,29.887,28.381999999999998,44.711,43.197,0.0,1.0,100.0,0.0,0.0,0.0,0.0,3451.666666666667,3055.3,4343.125,4234.0,304.301,305.11325,314.288,314.33525,22.048444444444446,20.6728,22.044,21.546599999999998,314.999998,314.999998,324.999988,324.999988,99.55864285714286,99.50753333333333,99.56807142857143,99.54824285714285,-0.012249999999999983,-0.15574999999999994,-0.2135,0.0041666666666666675,-0.041666666666671404,-0.045000000000001705,1.4685000000000001,1.505,38.803,30.205,38.775,35.666,55.698,35.6235,59.772999999999996,53.0385,53.65,34.7195,58.3435,51.3455,52.802,34.2495,58.2265,50.74166666666667,-0.057499999999999885,-0.10899999999999999,0.097085,0.11314,0.0,218.0,217.885,214.5966666666667,214.5966666666667,0.0,0.0
31,0.0,1.0,0.0,1.0,1.0,0.0,0.0,1.0,0.0,100.0,1.0,1.1856,26.0,0.0,0.0,0.0,59.999996,0.0,26.0,26.0,26.0,26.0,-0.1203333333333334,0.26750000000000007,0.001675,291.046,-2.6992,-2.764333333333333,-1.5627,-1.6703333333333332,-170.64999999999998,216.01,190.305125,0.0,0.0,0.0,0.0,0.06266666666666654,-5.498166666666667,-5.498166666666667,-0.5890000000000001,-0.6154999999999999,-0.07737499999999997,-0.7590000000000001,69.749,-0.0954,-0.2195,0.7460000000000004,100.0,1.0,1.0,214.9,0.0,0.0,0.0,0.0,0.0,0.0,0.0,9108.8,0.0,55.0,5.0,251.07,1.0,0.0,0.0,0.0,0.0,0.0,1.0,0.0,1.5539999999999985,1.5539999999999985,0.0,0.0,1.0,55.0,616.79921,10000.0,85.000001,85.000001,85.000001,85.000001,395.0,0.0,0.0,0.0,1.0,166.665,51.635999999999996,51.635999999999996,45.516999999999996,45.516999999999996,34.0,-28.7425,19.686,-37.486666666666665,26.09,0.0,1781.945,0.1999999999999993,100.0,29.355,28.619,45.195,43.899,0.0,1.0,100.0,0.0,0.0,0.0,0.0,3241.0,2944.8,4512.375,4232.4,305.255,305.28875,313.945,314.4015,22.05788888888889,20.6784,22.0548,21.5559,314.999998,314.999998,324.999988,324.999988,99.55864285714286,99.50755,99.56822857142858,99.54838571428571,-0.008000000000000007,-0.15700000000000003,-0.2015,0.014333333333333335,-0.054999999999999716,-0.02833333333332888,1.4615,1.4765000000000001,38.861999999999995,30.240000000000002,38.842,35.7245,55.684,35.667500000000004,59.818,53.101,53.635999999999996,34.76,58.3855,51.405,52.787,34.2885,58.2655,50.79966666666667,-0.0685,-0.09750000000000014,0.09553500000000001,0.11322000000000002,0.0,218.37,218.26999999999998,214.9,214.9,0.0,0.0
32,0.0,1.0,0.0,1.0,1.0,0.0,0.0,1.0,0.0,100.0,1.0,1.1856,26.0,0.0,0.0,0.0,59.999996,0.0,26.0,26.0,26.0,26.0,-0.12611111111111106,0.24829999999999997,-0.055775000000000005,291.367,-2.6438,-2.711777777777778,-1.58405,-1.5805555555555557,-167.09,216.0,190.2795,0.0,0.0,0.0,0.0,0.06473333333333331,-5.498166666666667,-5.498166666666667,-0.6107,0.19099999999999995,-0.10000000000000009,0.17599999999999993,69.875,-0.08310000000000001,-0.2303,0.6280000000000001,100.0,1.0,1.0,215.48666666666668,0.0,0.0,0.0,0.0,0.0,0.0,0.0,9133.7,0.0,55.0,5.0,251.52333333333334,0.0,0.0,0.0,0.0,0.0,0.0,1.0,0.0,1.6050000000000004,1.6050000000000004,0.0,0.0,0.0,55.0,616.79921,10000.0,85.000001,85.000001,85.000001,85.000001,395.0,0.0,0.0,0.0,1.0,333.33500000000004,51.224000000000004,51.224000000000004,46.829,46.829,34.0,-28.16,21.516,-33.839999999999996,24.825000000000003,0.0,1781.892,0.10000000000000142,100.0,29.537,28.537,44.807,43.565,0.0,1.0,100.0,0.0,0.0,0.0,0.0,3328.166666666667,3073.4,4216.375,4098.0,304.729,305.112,314.72625,314.878,22.067333333333334,20.684,22.0652,21.565,314.999998,314.999998,324.999988,324.999988,99.55864285714286,99.50756666666666,99.56837142857142,99.54854285714286,0.02200000000000002,-0.121,-0.19066666666666665,0.042,-0.04333333333332945,-0.04999999999999716,1.5295,1.5565,38.921,30.275,38.907,35.781,55.67,35.7115,59.856,53.158500000000004,53.623000000000005,34.8005,58.421,51.460499999999996,52.772999999999996,34.3275,58.298,50.85366666666667,-0.08000000000000007,-0.08349999999999991,0.10729000000000001,0.11241000000000001,0.0,218.75,218.695,215.48666666666668,215.48666666666668,0.0,0.0
33,0.0,1.0,0.0,1.0,1.0,0.0,0.0,1.0,0.0,100.0,1.0,1.1856,26.0,0.0,0.0,0.0,59.999996,0.0,26.0,26.0,26.0,26.0,-0.09199999999999997,0.26849999999999996,-0.037375,291.397,-2.6425,-2.7644444444444445,-1.5511,-1.5934444444444444,-163.73000000000002,215.99,190.254375,0.0,0.0,0.0,0.0,0.06666666666666654,-5.498166666666667,-5.498166666666667,-0.6118,-0.35250000000000004,-0.08800000000000008,1.456,69.999,-0.0698,-0.21365,0.4299999999999997,100.0,1.0,1.0,215.73333333333335,0.0,0.0,0.0,0.0,0.0,0.0,0.0,9144.2,0.0,55.0,5.0,251.96666666666667,1.0,0.0,0.0,0.0,0.0,0.0,1.0,0.0,1.6529999999999987,1.6529999999999987,0.0,0.0,1.0,55.0,616.79921,10000.0,85.000001,85.000001,85.000001,85.000001,395.0,0.0,0.0,0.0,1.0,333.33500000000004,51.865,51.865,46.371,46.371,34.0,-26.1625,21.732,-34.50333333333334,27.2225,0.0,1781.844,-0.03500000000000014,100.0,29.274,28.215,44.82,43.632,0.0,1.0,100.0,0.0,0.0,0.0,0.0,3163.166666666667,2997.8,4326.375,4290.8,305.2715,305.35,314.35625,314.326,22.07611111111111,20.6891,22.075,21.5737,314.999998,314.999998,324.999988,324.999988,99.55865714285714,99.50758333333333,99.56852857142857,99.54868571428571,0.028999999999999915,-0.11199999999999999,-0.18283333333333335,0.04933333333333334,-0.026666666666670835,-0.05833333333333002,1.47,1.49,38.976,30.307000000000002,38.969,35.835499999999996,55.655,35.751,59.8965,53.219,53.608999999999995,34.837,58.459,51.5185,52.759,34.362,58.332499999999996,50.91,-0.08549999999999991,-0.07799999999999985,0.103245,0.10545,0.0,219.11,219.075,215.73333333333335,215.73333333333335,0.0,0.0
34,0.0,1.0,0.0,1.0,1.0,0.0,0.0,1.0,0.0,100.0,1.0,1.1856,26.0,0.0,0.0,0.0,59.999996,0.0,26.0,26.0,26.0,26.0,-0.07388888888888889,0.25660000000000016,-0.0902,291.763,-2.6659,-2.707666666666667,-1.5918999999999999,-1.608,-160.16,215.97750000000002,190.226625,0.0,0.0,0.0,0.0,0.06873333333333331,-5.498166666666667,-5.498166666666667,-0.644,-0.817,-0.053749999999999964,-0.09800000000000009,70.126,-0.0526,-0.227775,0.33200000000000074,100.0,1.0,1.0,216.2,0.0,0.0,0.0,0.0,0.0,0.0,0.0,9163.9,0.0,55.0,5.0,252.43,0.0,0.0,0.0,0.0,0.0,0.0,1.0,0.0,1.7040000000000006,1.7040000000000006,0.0,0.0,0.0,55.0,616.79921,10000.0,85.000001,85.000001,85.000001,85.000001,395.0,0.0,0.0,0.0,1.0,166.665,52.032,52.032,47.44,47.44,34.0,-26.6675,21.235999999999997,-31.926666666666662,26.165,0.0,1781.795,-0.03999999999999915,100.0,28.862000000000002,28.058,44.409,43.861000000000004,0.0,1.0,100.0,0.0,0.0,0.0,0.0,3226.333333333333,2950.7,4092.75,4109.8,305.055,305.37375,314.97425,314.63925,22.085333333333335,20.6946,22.0854,21.5829,314.999998,314.999998,324.999988,324.999988,99.55865714285714,99.50758333333333,99.56867142857143,99.54881428571429,0.037250000000000005,-0.10575000000000001,-0.17033333333333334,0.051166666666666666,-0.04833333333333201,-0.04999999999999716,1.5085000000000002,1.5234999999999999,39.034,30.341,39.034,35.893,55.641,35.7885,59.931,53.2755,53.595,34.8715,58.491,51.5725,52.745000000000005,34.394999999999996,58.362,50.962666666666664,-0.08799999999999986,-0.07500000000000018,0.1039,0.10618000000000001,0.0,219.495,219.45,216.2,216.2,0.0,0.0
35,0.0,1.0,0.0,1.0,1.0,0.0,0.0,1.0,0.0,100.0,1.0,1.1856,26.0,0.0,0.0,0.0,59.999996,0.0,26.0,26.0,26.0,26.0,-0.05744444444444441,0.25760000000000005,-0.02765,291.794,-2.7168,-2.6933333333333334,-1.5594999999999999,-1.621,-156.57999999999998,215.9625,190.196625,0.0,0.0,0.0,0.0,0.0708333333333333,-5.498166666666667,-5.498166666666667,-0.6863,-0.5030000000000001,-0.06050000000000022,-0.1260000000000001,70.253,-0.0359,-0.23120000000000002,0.17600000000000016,100.0,1.0,1.0,216.65,0.0,0.0,0.0,0.0,0.0,0.0,0.0,9183.0,0.0,55.0,5.0,252.88666666666666,1.0,0.0,0.0,0.0,0.0,0.0,1.0,0.0,1.754999999999999,1.754999999999999,0.0,0.0,1.0,55.0,616.79921,10000.0,85.000001,85.000001,85.000001,85.000001,395.0,0.0,0.0,0.0,1.0,166.665,51.59,51.59,47.012,47.012,34.0,-26.927500000000002,24.83,-29.413333333333334,26.875,0.0,1781.744,-0.030000000000001137,100.0,28.731,28.238,44.175,43.351,0.0,1.0,100.0,0.0,0.0,0.0,0.0,3256.333333333333,3322.8,4052.5,3939.3,305.136,304.38875,314.96925,315.12025,22.094444444444445,20.7002,22.0957,21.5919,314.999998,314.999998,324.999988,324.999988,99.55865714285714,99.5076,99.56881428571428,99.54897142857143,0.04400000000000004,-0.08875,-0.13516666666666666,0.093,-0.041666666666671404,-0.05833333333333002,1.5390000000000001,1.557,39.09,30.3765,39.098,35.9495,55.623999999999995,35.829,59.9675,53.3315,53.579,34.909,58.525,51.6265,52.727999999999994,34.431,58.393,51.01566666666667,-0.08199999999999985,-0.08000000000000007,0.09944000000000001,0.1145,0.0,219.87,219.865,216.65,216.65,0.0,0.0
36,0.0,1.0,0.0,1.0,1.0,0.0,0.0,1.0,0.0,100.0,1.0,1.1856,26.0,0.0,0.0,0.0,59.999996,0.0,26.0,26.0,26.0,26.0,-0.04699999999999993,0.2724,0.057850000000000006,290.771,-2.6236,-2.645888888888889,-1.5336,-1.607777777777778,-152.99,215.945,190.165,0.0,0.0,0.0,0.0,0.0729333333333333,-5.498166666666667,-5.498166666666667,-0.6651,0.3005,-0.09187499999999993,-1.1310000000000002,70.384,-0.0296,-0.20092500000000002,0.28000000000000025,100.0,1.0,1.0,216.79666666666668,0.0,0.0,0.0,0.0,0.0,0.0,0.0,9189.2,0.0,55.0,5.0,253.35333333333335,0.0,0.0,0.0,0.0,0.0,0.0,1.0,0.0,1.806000000000001,1.806000000000001,0.0,0.0,0.0,55.0,616.79921,10000.0,85.000001,85.000001,85.000001,85.000001,395.0,0.0,0.0,0.0,1.0,166.665,51.163,51.163,46.158,46.158,34.0,-25.53,23.096,-34.343333333333334,30.915,0.0,1781.693,-0.120000000000001,100.0,29.164,28.82,44.226,43.81,0.0,1.0,100.0,0.0,0.0,0.0,0.0,3303.166666666667,3086.8,4540.25,4521.2,304.7065,304.945,313.8965,313.696,22.10377777777778,20.706,22.1061,21.6012,314.999998,314.999998,324.999988,324.999988,99.55867142857143,99.50761666666666,99.56897142857143,99.54912857142857,0.07250000000000001,-0.07599999999999996,-0.14516666666666667,0.07283333333333333,-0.04999999999999716,-0.03333333333333144,1.4215,1.443,39.149,30.4125,39.163,36.007,55.611999999999995,35.8715,60.0065,53.3925,53.568,34.948,58.5615,51.685,52.715,34.4685,58.426,51.07266666666666,-0.09749999999999992,-0.06850000000000023,0.108285,0.10621000000000001,0.0,220.32,220.3,216.79666666666668,216.79666666666668,0.0,0.0
