,ABS Active,ABS Enabled,AID Allow Tire Blankets,AID Auto Blip,AID Auto Clutch,AID Auto Shift,AID Fuel Rate,AID Ideal Line,AID Mech Damage,AID Stability,AID Tire Wear Rate,Air Density,Air Temp,Ballast,Best Lap Delta,Best Lap Time,Brake Bias,Brake Pos,Brake Temp FL,Brake Temp FR,Brake Temp RL,Brake Temp RR,CG Accel Lateral,CG Accel Longitudinal,CG Accel Vertical,CG Height,Camber FL,Camber FR,Camber RL,Camber RR,Car Coord X,Car Coord Y,Car Coord Z,Car Damage Front,Car Damage Left,Car Damage Rear,Car Damage Right,Car Pos Norm,Caster FL,Caster FR,Chassis Pitch Angle,Chassis Pitch Rate,Chassis Roll Angle,Chassis Roll Rate,Chassis Velocity X,Chassis Velocity Y,Chassis Velocity Z,Chassis Yaw Rate,Clutch Pos,DRS Active,DRS Available,Drive Train Speed,ERS Heat Charging,ERS Is Charging,ERS Max Energy,ERS Power Level,ERS Recovery Level,Engine Brake Setting,Engine Limiter,Engine RPM,Flags,Fuel Level,Gear,Ground Speed,HR Sample Clock,In Pit,KERS Charge,KERS Deployed Energy,KERS Input,KERS Max Energy,LR Sample Clock,Lap Invalidated,Lap Time,Lap Time2,Last Lap Time,Last Sector Time,MR Sample Clock,Max Fuel,Max Power,Max RPM,Max Sus Travel FL,Max Sus Travel FR,Max Sus Travel RL,Max Sus Travel RR,Max Torque,Max Turbo Boost,Num Tires Off Track,Penalties Enabled,Position,Raw Data Sample Rate,Ride Height FL,Ride Height FR,Ride Height RL,Ride Height RR,Road Temp,Self Align Torque FL,Self Align Torque FR,Self Align Torque RL,Self Align Torque RR,Session Lap Count,Session Time Left,Steering Angle,Surface Grip,Suspension Travel FL,Suspension Travel FR,Suspension Travel RL,Suspension Travel RR,TC Active,TC Enabled,Throttle Pos,Tire Dirt Level FL,Tire Dirt Level FR,Tire Dirt Level RL,Tire Dirt Level RR,Tire Load FL,Tire Load FR,Tire Load RL,Tire Load RR,Tire Loaded Radius FL,Tire Loaded Radius FR,Tire Loaded Radius RL,Tire Loaded Radius RR,Tire Pressure FL,Tire Pressure FR,Tire Pressure RL,Tire Pressure RR,Tire Radius FL,Tire Radius FR,Tire Radius RL,Tire Radius RR,Tire Rubber Grip FL,Tire Rubber Grip FR,Tire Rubber Grip RL,Tire Rubber Grip RR,Tire Slip Angle FL,Tire Slip Angle FR,Tire Slip Angle RL,Tire Slip Angle RR,Tire Slip Ratio FL,Tire Slip Ratio FR,Tire Slip Ratio RL,Tire Slip Ratio RR,Tire Temp Core FL,Tire Temp Core FR,Tire Temp Core RL,Tire Temp Core RR,Tire Temp Inner FL,Tire Temp Inner FR,Tire Temp Inner RL,Tire Temp Inner RR,Tire Temp Middle FL,Tire Temp Middle FR,Tire Temp Middle RL,Tire Temp Middle RR,Tire Temp Outer FL,Tire Temp Outer FR,Tire Temp Outer RL,Tire Temp Outer RR,Toe In FL,Toe In FR,Toe In RL,Toe In RR,Turbo Boost,Wheel Angular Speed FL,Wheel Angular Speed FR,Wheel Angular Speed RL,Wheel Angular Speed RR,Wind Direction,Wind Speed
0,0.0,1.0,0.0,1.0,1.0,0.0,0.0,1.0,0.0,100.0,1.0,1.1856,26.0,0.0,0.0,0.0,59.99999,0.0,26.0,26.0,26.0,26.0,-0.07455555555555549,0.3055000000000001,0.041,292.969,-2.6948,-2.627222222222222,-1.52075,-1.5552000000000001,-275.63,216.2975,190.98625,0.0,0.0,0.0,0.0,0.0016333333333333332,-5.498166666666667,-5.498166666666667,-0.5791000000000001,1.436,-0.005374999999999908,-1.046,65.536,-0.029900000000000003,-0.24765,0.9660000000000002,100.0,1.0,1.0,202.33666666666667,0.0,0.0,0.0,0.0,0.0,0.0,0.0,8576.3,0.0,55.0,5.0,235.9,0.0,0.0,0.0,0.0,0.0,0.0,0.0,0.0,0.0030000000000001137,0.0030000000000001137,0.0,0.0,0.0,55.0,616.79921,10000.0,85.0,85.0,85.0,85.0,395.0,0.0,0.0,0.0,1.0,20.0,50.781,50.781,49.301,49.301,34.0,-25.482499999999998,23.298000000000002,-30.573333333333334,25.215,0.0,1783.564,0.7650000000000006,100.0,29.422,28.905,40.644,40.739000000000004,0.0,1.0,100.0,0.0,0.0,0.0,0.0,3017.0,3398.0,4160.75,4013.6000000000004,305.723,303.968,314.74075,314.78825,21.7691,20.512999999999998,21.7394,21.2779,314.99999,314.99999,324.99998,324.99998,99.55825714285714,99.50713333333333,99.56412857142857,99.54392857142857,0.016249999999999876,-0.12124999999999997,-0.156,0.06766666666666667,-0.05333333333332746,-0.05333333333332746,1.538,1.576,37.057,29.2065,36.870999999999995,33.9865,56.068,34.45,58.7325,51.2335,54.024,33.6545,57.379,49.6035,53.225,33.25,57.3535,49.02766666666667,-0.026499999999999968,-0.14049999999999985,0.10658000000000001,0.10867,0.0,205.38,205.3,202.33666666666667,202.33666666666667,0.0,0.0
1,0.0,1.0,0.0,1.0,1.0,0.0,0.0,1.0,0.0,100.0,1.0,1.1856,26.0,0.0,0.0,0.0,59.999996,0.0,26.0,26.0,26.0,26.0,-0.10366666666666657,0.2881,0.11886666666666668,291.977,-2.6071,-2.744222222222222,-1.5272999999999999,-1.5564,-272.09,216.29250000000002,190.964875,0.0,0.0,0.0,0.0,0.0037,-5.498166666666667,-5.498166666666667,-0.5295,-0.7304999999999999,-0.060125000000000206,-1.137,65.699,-0.047400000000000005,-0.23520000000000002,1.3539999999999992,100.0,1.0,1.0,202.53,0.0,0.0,0.0,0.0,0.0,0.0,0.0,8584.5,0.0,55.0,5.0,236.48333333333335,1.0,0.0,0.0,0.0,0.0,0.0,0.0,0.0,0.05699999999999861,0.05699999999999861,0.0,0.0,1.0,55.0,616.79921,10000.0,85.000001,85.000001,85.000001,85.000001,395.0,0.0,0.0,0.0,1.0,166.665,51.59,51.59,48.065,48.065,34.0,-26.39,18.564,-33.71,29.740000000000002,0.0,1783.51,0.8850000000000016,100.0,29.522,28.676000000000002,43.049,41.959,0.0,1.0,100.0,0.0,0.0,0.0,0.0,3113.857142857143,2780.8,4290.375,4734.4,305.363,305.97425,314.3395,313.02525,21.7796,20.5185,21.750799999999998,21.2875,314.999998,314.999998,324.999988,324.999988,99.55827142857143,99.50715,99.56428571428572,99.54407142857143,0.0012500000000001954,-0.14149999999999996,-0.17716666666666667,0.042333333333333334,-0.045000000000001705,-0.021666666666668277,1.404,1.46,37.122,29.240499999999997,36.942,34.047,56.051,34.4945,58.7815,51.3045,54.007999999999996,33.695499999999996,57.4245,49.6715,53.208,33.289500000000004,57.3965,49.09466666666667,-0.01749999999999985,-0.15450000000000008,0.10779000000000001,0.10433500000000001,0.0,205.85000000000002,205.755,202.53,202.53,0.0,0.0
2,0.0,1.0,0.0,1.0,1.0,0.0,0.0,1.0,0.0,100.0,1.0,1.1856,26.0,0.0,0.0,0.0,59.999996,0.0,26.0,26.0,26.0,26.0,-0.1413333333333333,0.2835000000000001,-0.0505,292.755,-2.5611,-2.790111111111111,-1.47905,-1.6256,-268.93,216.285,190.947375,0.0,0.0,0.0,0.0,0.005533333333333334,-5.498166666666667,-5.498166666666667,-0.5729000000000001,0.133,-0.06274999999999986,2.2250000000000005,65.832,-0.0678,-0.28297500000000003,1.58,100.0,1.0,1.0,203.39666666666668,0.0,0.0,0.0,0.0,0.0,0.0,0.0,8621.3,0.0,55.0,5.0,236.96666666666667,0.0,0.0,0.0,0.0,0.0,0.0,0.0,0.0,0.10500000000000043,0.10500000000000043,0.0,0.0,0.0,55.0,616.79921,10000.0,85.000001,85.000001,85.000001,85.000001,395.0,0.0,0.0,0.0,1.0,333.33500000000004,50.797,50.797,49.85,49.85,34.0,-29.4625,19.778,-29.509999999999998,20.6825,0.0,1783.461,0.7650000000000006,100.0,30.084,28.444,42.931,41.503,0.0,1.0,100.0,0.0,0.0,0.0,0.0,3380.0,2935.0,3810.125,3685.1,304.4385,305.494,315.48275,315.75675,21.7892,20.5232,21.7606,21.2957,314.999998,314.999998,324.999988,324.999988,99.55827142857143,99.50716666666666,99.56441428571429,99.54421428571429,-0.013749999999999929,-0.15125,-0.2175,0.015166666666666667,-0.02833333333332888,-0.03499999999999659,1.6336666666666666,1.6873333333333334,37.182,29.27,37.004000000000005,34.098,56.04,34.532,58.819,51.3585,53.998000000000005,33.730000000000004,57.4595,49.723,53.197,33.3225,57.429,49.14533333333333,-0.028999999999999915,-0.14150000000000018,0.10657000000000001,0.10741500000000001,0.0,206.29000000000002,206.13,203.39666666666668,203.39666666666668,0.0,0.0
3,0.0,1.0,0.0,1.0,1.0,0.0,0.0,1.0,0.0,100.0,1.0,1.1856,26.0,0.0,0.0,0.0,59.999996,0.0,26.0,26.0,26.0,26.0,-0.137,0.29720000000000013,0.021466666666666665,292.603,-2.7107,-2.667,-1.51855,-1.5923,-265.57,216.2725,190.92775,0.0,0.0,0.0,0.0,0.0074666666666666675,-5.498166666666667,-5.498166666666667,-0.5334,0.26,-0.007624999999999993,-0.16599999999999993,65.98400000000001,-0.0825,-0.2268,1.2220000000000013,100.0,1.0,1.0,203.56,0.0,0.0,0.0,0.0,0.0,0.0,0.0,8628.2,0.0,55.0,5.0,237.51333333333332,1.0,0.0,0.0,0.0,0.0,0.0,0.0,0.0,0.1559999999999988,0.1559999999999988,0.0,0.0,1.0,55.0,616.79921,10000.0,85.000001,85.000001,85.000001,85.000001,395.0,0.0,0.0,0.0,1.0,166.665,52.048,52.048,47.882,47.882,34.0,-25.64,17.622,-35.07666666666667,24.8,0.0,1783.412,0.6500000000000021,100.0,29.344,28.623,42.748000000000005,41.682,0.0,1.0,100.0,0.0,0.0,0.0,0.0,2882.5714285714284,2835.1,4273.125,4259.6,306.0325,305.7285,314.39575,314.25775,21.7989,20.5284,21.771,21.3045,314.999998,314.999998,324.999988,324.999988,99.55827142857143,99.50718333333333,99.56455714285714,99.54434285714285,-0.01574999999999993,-0.16200000000000003,-0.21516666666666667,0.013833333333333335,-0.06499999999999773,-0.051666666666669414,1.4733333333333334,1.534,37.242999999999995,29.302500000000002,37.069,34.153,56.024,34.575,58.8595,51.4225,53.982,33.7695,57.4975,49.7845,53.18,33.36,57.464,49.205333333333336,-0.03299999999999992,-0.13750000000000018,0.10845500000000001,0.10960500000000001,0.0,206.775,206.67000000000002,203.56,203.56,0.0,0.0
4,0.0,1.0,0.0,1.0,1.0,0.0,0.0,1.0,0.0,100.0,1.0,1.1856,26.0,0.0,0.0,0.0,59.999996,0.0,26.0,26.0,26.0,26.0,-0.15200000000000002,0.29180000000000006,-0.013566666666666666,292.74,-2.6501,-2.709888888888889,-1.5397,-1.5942,-262.4,216.26,190.909125,0.0,0.0,0.0,0.0,0.009333333333333334,-5.498166666666667,-5.498166666666667,-0.5652,-0.7035,-0.06899999999999995,-1.382,66.12100000000001,-0.0852,-0.2601,1.2119999999999997,100.0,1.0,1.0,204.13,0.0,0.0,0.0,0.0,0.0,0.0,0.0,8652.4,0.0,55.0,5.0,238.01,0.0,0.0,0.0,0.0,0.0,0.0,0.0,0.0,0.20400000000000063,0.20400000000000063,0.0,0.0,0.0,55.0,616.79921,10000.0,85.000001,85.000001,85.000001,85.000001,395.0,0.0,0.0,0.0,1.0,166.665,51.528999999999996,51.528999999999996,48.385999999999996,48.385999999999996,34.0,-29.0125,19.002000000000002,-32.666666666666664,21.1525,0.0,1783.364,0.5399999999999991,100.0,29.076,28.474,43.103,41.838,0.0,1.0,100.0,0.0,0.0,0.0,0.0,3255.285714285714,2932.3,4065.25,3733.5,305.0015,305.43125,314.87425,315.51425,21.808,20.5332,21.7809,21.3128,314.999998,314.999998,324.999988,324.999988,99.55827142857143,99.50721666666666,99.5647,99.54448571428571,-0.018999999999999906,-0.15474999999999994,-0.20883333333333334,0.017666666666666667,-0.04833333333333201,-0.051666666666669414,1.5526666666666666,1.6056666666666666,37.3,29.3325,37.131,34.2055,56.007999999999996,34.6145,58.8985,51.480000000000004,53.967,33.8055,57.534,49.8395,53.165,33.394999999999996,57.498,49.25966666666667,-0.03499999999999992,-0.13050000000000006,0.10688,0.101025,0.0,207.14499999999998,207.04000000000002,204.13,204.13,0.0,0.0
5,0.0,1.0,0.0,1.0,1.0,0.0,0.0,1.0,0.0,100.0,1.0,1.1856,26.0,0.0,0.0,0.0,59.999996,0.0,26.0,26.0,26.0,26.0,-0.13511111111111107,0.33420000000000005,-0.015866666666666668,292.664,-2.646,-2.7443333333333335,-1.5131000000000001,-1.5937999999999999,-259.02,216.24,190.888625,0.0,0.0,0.0,0.0,0.011266666666666668,-5.498166666666667,-5.498166666666667,-0.559,0.28400000000000003,-0.08362500000000006,0.33099999999999996,66.269,-0.0912,-0.238175,1.0739999999999998,100.0,1.0,1.0,204.51999999999998,0.0,0.0,0.0,0.0,0.0,0.0,0.0,8668.9,0.0,55.0,5.0,238.5366666666667,1.0,0.0,0.0,0.0,0.0,0.0,0.0,0.0,0.254999999999999,0.254999999999999,0.0,0.0,1.0,55.0,616.79921,10000.0,85.000001,85.000001,85.000001,85.000001,395.0,0.0,0.0,0.0,1.0,333.33500000000004,51.772999999999996,51.772999999999996,48.584,48.584,34.0,-26.915,19.009999999999998,-33.666666666666664,22.947499999999998,0.0,1783.31,0.129999999999999,100.0,29.5,28.372,42.966,41.563,0.0,1.0,100.0,0.0,0.0,0.0,0.0,3155.714285714286,2800.1,4175.75,4051.1000000000004,305.2515,305.91025,314.6815,314.7885,21.818,20.5383,21.7913,21.3216,314.999998,314.999998,324.999988,324.999988,99.55828571428572,99.50723333333333,99.56485714285714,99.54462857142858,0.007249999999999979,-0.13475000000000004,-0.21666666666666667,0.009333333333333334,-0.04999999999999716,-0.08166666666667055,1.5546666666666666,1.5846666666666667,37.361999999999995,29.3645,37.196,34.26,55.994,34.6575,58.942,51.543,53.953,33.8455,57.575,49.9,53.15,33.4325,57.5355,49.318666666666665,-0.07450000000000001,-0.09600000000000009,0.10627,0.10907000000000001,0.0,207.635,207.54000000000002,204.51999999999998,204.51999999999998,0.0,0.0
6,0.0,1.0,0.0,1.0,1.0,0.0,0.0,1.0,0.0,100.0,1.0,1.1856,26.0,0.0,0.0,0.0,59.999996,0.0,26.0,26.0,26.0,26.0,-0.11222222222222211,0.2864,0.0022,292.267,-2.612,-2.7697777777777777,-1.56125,-1.5892,-255.64,216.22,190.867875,0.0,0.0,0.0,0.0,0.013233333333333335,-5.498166666666667,-5.498166666666667,-0.5573,0.11749999999999994,-0.06162500000000026,0.26400000000000023,66.41499999999999,-0.0838,-0.24127500000000002,0.6779999999999999,100.0,1.0,1.0,204.96666666666667,0.0,0.0,0.0,0.0,0.0,0.0,0.0,8687.8,0.0,55.0,5.0,239.06333333333333,0.0,0.0,0.0,0.0,0.0,0.0,0.0,0.0,0.30600000000000094,0.30600000000000094,0.0,0.0,0.0,55.0,616.79921,10000.0,85.000001,85.000001,85.000001,85.000001,395.0,0.0,0.0,0.0,1.0,166.665,51.178,51.178,48.203,48.203,34.0,-26.6825,20.488,-33.03,23.4875,0.0,1783.262,0.03999999999999915,100.0,29.64,28.69,43.183,42.01,0.0,1.0,100.0,0.0,0.0,0.0,0.0,3171.857142857143,2952.2,4110.625,4035.9,305.152,305.32175,314.82575,314.82575,21.8279,20.5435,21.8018,21.3305,314.999998,314.999998,324.999988,324.999988,99.55828571428572,99.50723333333333,99.56498571428571,99.54475714285714,0.01100000000000012,-0.13624999999999998,-0.201,0.02266666666666667,-0.02833333333332888,-0.04833333333333201,1.5313333333333334,1.576,37.424,29.397,37.260999999999996,34.3155,55.980000000000004,34.696,58.981,51.602000000000004,53.94,33.881,57.611,49.9565,53.135999999999996,33.466499999999996,57.569,49.373666666666665,-0.08099999999999996,-0.08850000000000025,0.10917,0.10130000000000002,0.0,208.04500000000002,207.97500000000002,204.96666666666667,204.96666666666667,0.0,0.0
7,0.0,1.0,0.0,1.0,1.0,0.0,0.0,1.0,0.0,100.0,1.0,1.1856,26.0,0.0,0.0,0.0,59.999996,0.0,26.0,26.0,26.0,26.0,-0.06622222222222218,0.28669999999999995,0.0439,291.885,-2.5838,-2.723,-1.5260500000000001,-1.6312,-252.25,216.195,190.84725,0.0,0.0,0.0,0.0,0.015233333333333335,-5.498166666666667,-5.498166666666667,-0.5599000000000001,0.057499999999999996,-0.048875000000000224,0.42500000000000027,66.561,-0.06470000000000001,-0.252575,0.3200000000000003,100.0,1.0,1.0,205.39333333333332,0.0,0.0,0.0,0.0,0.0,0.0,0.0,8705.8,0.0,55.0,5.0,239.59,1.0,0.0,0.0,0.0,0.0,0.0,0.0,0.0,0.3569999999999993,0.3569999999999993,0.0,0.0,1.0,55.0,616.79921,10000.0,85.000001,85.000001,85.000001,85.000001,395.0,0.0,0.0,0.0,1.0,166.665,50.69,50.69,48.126,48.126,34.0,-25.5425,21.816,-31.493333333333336,25.9875,0.0,1783.21,-0.21999999999999886,100.0,29.889,28.928,43.391,42.438,0.0,1.0,100.0,0.0,0.0,0.0,0.0,3246.857142857143,3018.2,4062.375,4067.2,304.8695,305.0985,314.89475,314.68125,21.8378,20.5488,21.8122,21.3395,314.999998,314.999998,324.999988,324.999988,99.55828571428572,99.50725,99.56512857142857,99.5449,0.04875000000000007,-0.10775000000000001,-0.18666666666666665,0.052000000000000005,-0.03499999999999659,-0.046666666666666856,1.5303333333333335,1.546,37.486000000000004,29.429499999999997,37.327,34.372,55.967,34.737,59.022,51.664500000000004,53.927,33.9185,57.6495,50.0165,53.122,33.5025,57.6045,49.43233333333333,-0.11050000000000004,-0.06599999999999984,0.11105500000000001,0.11029000000000001,0.0,208.47500000000002,208.45499999999998,205.39333333333332,205.39333333333332,0.0,0.0
8,0.0,1.0,0.0,1.0,1.0,0.0,0.0,1.0,0.0,100.0,1.0,1.1856,26.0,0.0,0.0,0.0,59.999996,0.0,26.0,26.0,26.0,26.0,-0.039111111111111097,0.29469999999999996,0.005533333333333334,292.099,-2.6715,-2.684222222222222,-1.5086,-1.5585,-249.05,216.17000000000002,190.827875,0.0,0.0,0.0,0.0,0.017066666666666667,-5.498166666666667,-5.498166666666667,-0.5603,-0.5110000000000001,-0.030749999999999833,0.22599999999999998,66.69800000000001,-0.045200000000000004,-0.245375,-0.0420000000000007,100.0,1.0,1.0,205.74,0.0,0.0,0.0,0.0,0.0,0.0,0.0,8720.5,0.0,55.0,5.0,240.08333333333331,0.0,0.0,0.0,0.0,0.0,0.0,0.0,0.0,0.40500000000000114,0.40500000000000114,0.0,0.0,0.0,55.0,616.79921,10000.0,85.000001,85.000001,85.000001,85.000001,395.0,0.0,0.0,0.0,1.0,333.33500000000004,51.559,51.559,47.409,47.409,34.0,-23.3325,21.91,-30.596666666666664,26.9475,0.0,1783.161,-0.34499999999999886,100.0,29.388,28.907,43.416,42.587,0.0,1.0,100.0,0.0,0.0,0.0,0.0,2990.4285714285716,2970.4,4154.25,4167.8,305.7765,305.3495,314.62875,314.44475,21.846899999999998,20.5537,21.8221,21.3479,314.999998,314.999998,324.999988,324.999988,99.5583,99.50726666666667,99.56525714285715,99.54504285714286,0.06050000000000022,-0.08450000000000002,-0.15433333333333335,0.07266666666666667,-0.045000000000001705,-0.05833333333333002,1.5206666666666666,1.5150000000000001,37.543,29.4605,37.388,34.4245,55.952,34.774,59.061,51.723,53.913,33.9525,57.6855,50.0725,53.108000000000004,33.535,57.638,49.48733333333333,-0.11299999999999999,-0.05799999999999983,0.106145,0.104525,0.0,208.89499999999998,208.885,205.74,205.74,0.0,0.0
9,0.0,1.0,0.0,1.0,1.0,0.0,0.0,1.0,0.0,100.0,1.0,1.1856,26.0,0.0,0.0,0.0,59.999996,0.0,26.0,26.0,26.0,26.0,-0.02211111111111108,0.28469999999999995,0.0051333333333333335,291.885,-2.6612999999999998,-2.6885555555555554,-1.56715,-1.56,-245.84,216.14499999999998,190.808125,0.0,0.0,0.0,0.0,0.018933333333333337,-5.498166666666667,-5.498166666666667,-0.5664,0.643,-0.03049999999999997,0.18999999999999995,66.831,-0.024900000000000002,-0.24615,-0.18399999999999928,100.0,1.0,1.0,206.29666666666668,0.0,0.0,0.0,0.0,0.0,0.0,0.0,8744.2,0.0,55.0,5.0,240.56333333333333,1.0,0.0,0.0,0.0,0.0,0.0,0.0,0.0,0.4529999999999994,0.4529999999999994,0.0,0.0,1.0,55.0,616.79921,10000.0,85.000001,85.000001,85.000001,85.000001,395.0,0.0,0.0,0.0,1.0,333.33500000000004,50.43,50.43,48.538,48.538,34.0,-25.525,23.86,-28.53,26.81,0.0,1783.113,-0.46999999999999886,100.0,29.806,29.259,42.984,42.608000000000004,0.0,1.0,100.0,0.0,0.0,0.0,0.0,3346.5714285714284,3069.9,3986.875,4052.3,304.6835,304.974,315.15125,314.8,21.8562,20.5588,21.8318,21.3563,314.999998,314.999998,324.999988,324.999988,99.5583,99.50726666666667,99.5654,99.54517142857142,0.08225000000000016,-0.06099999999999994,-0.13433333333333333,0.09266666666666667,-0.051666666666669414,-0.04999999999999716,1.5693333333333332,1.5643333333333334,37.601,29.4925,37.449,34.477000000000004,55.941,34.8115,59.096000000000004,51.78,53.903,33.987,57.718,50.1275,53.096000000000004,33.568,57.667500000000004,49.541,-0.1299999999999999,-0.04850000000000021,0.10659,0.10643000000000001,0.0,209.325,209.32999999999998,206.29666666666668,206.29666666666668,0.0,0.0
10,0.0,1.0,0.0,1.0,1.0,0.0,0.0,1.0,0.0,100.0,1.0,1.1856,26.0,0.0,0.0,0.0,59.999996,0.0,26.0,26.0,26.0,26.0,0.021444444444444377,0.29170000000000007,0.016666666666666666,291.763,-2.6791,-2.665111111111111,-1.5477500000000002,-1.5376,-242.23,216.115,190.786125,0.0,0.0,0.0,0.0,0.021033333333333334,-5.498166666666667,-5.498166666666667,-0.5446,-0.6420000000000001,0.014000000000000012,1.0040000000000004,66.986,-0.0031000000000000003,-0.236825,-0.5139999999999993,100.0,1.0,1.0,206.54666666666668,0.0,0.0,0.0,0.0,0.0,0.0,0.0,8754.8,0.0,55.0,5.0,241.12333333333333,0.0,0.0,0.0,0.0,0.0,0.0,1.0,0.0,0.5069999999999979,0.5069999999999979,0.0,0.0,0.0,55.0,616.79921,10000.0,85.000001,85.000001,85.000001,85.000001,395.0,0.0,0.0,0.0,1.0,166.665,51.528999999999996,51.528999999999996,47.043,47.043,34.0,-20.755,22.875999999999998,-29.33,30.2925,0.0,1783.06,-0.5700000000000003,100.0,29.576999999999998,29.241,43.414,43.31,0.0,1.0,100.0,0.0,0.0,0.0,0.0,2871.285714285714,2941.2,4250.5,4302.1,306.1405,305.438,314.42825,314.12325,21.8664,20.5644,21.843,21.366,314.999998,314.999998,324.999988,324.999988,99.55831428571429,99.50728333333333,99.56555714285714,99.54531428571428,0.10024999999999995,-0.04974999999999996,-0.10333333333333333,0.11666666666666667,-0.03833333333332689,-0.023333333333326323,1.5076666666666667,1.4733333333333334,37.665,29.5275,37.519,34.5375,55.929,34.851,59.1405,51.8495,53.891,34.0235,57.7595,50.194,53.083,33.603,57.706,49.60633333333333,-0.1359999999999999,-0.04249999999999998,0.10049000000000001,0.10625000000000001,0.0,209.76999999999998,209.79000000000002,206.54666666666668,206.54666666666668,0.0,0.0
11,0.0,1.0,0.0,1.0,1.0,0.0,0.0,1.0,0.0,100.0,1.0,1.1856,26.0,0.0,0.0,0.0,59.999996,0.0,26.0,26.0,26.0,26.0,0.04577777777777792,0.27980000000000005,-0.0828,292.267,-2.6853,-2.650666666666667,-1.6016,-1.5275,-239.01,216.09,190.766625,0.0,0.0,0.0,0.0,0.022600000000000002,-5.498166666666667,-5.498166666666667,-0.5856,-0.20700000000000007,0.03749999999999987,-0.1589999999999998,67.117,0.013900000000000001,-0.267125,-0.6059999999999999,100.0,1.0,1.0,207.25,0.0,0.0,0.0,0.0,0.0,0.0,0.0,8784.6,0.0,55.0,5.0,241.59333333333333,1.0,0.0,0.0,0.0,0.0,0.0,1.0,0.0,0.5549999999999997,0.5549999999999997,0.0,0.0,1.0,55.0,616.79921,10000.0,85.000001,85.000001,85.000001,85.000001,395.0,0.0,0.0,0.0,1.0,166.665,50.827,50.827,48.644999999999996,48.644999999999996,34.0,-21.675,25.65,-24.310000000000002,27.5925,0.0,1783.012,-0.6449999999999996,100.0,29.381,29.471,42.838,43.177,0.0,1.0,100.0,0.0,0.0,0.0,0.0,3060.142857142857,3160.8,3720.125,3907.1000000000004,305.5535,304.698,315.81925,315.13275,21.8754,20.5695,21.8526,21.3745,314.999998,314.999998,324.999988,324.999988,99.55832857142858,99.50728333333333,99.56568571428572,99.54545714285715,0.11825000000000019,-0.03025,-0.08750000000000001,0.14516666666666667,-0.045000000000001705,-0.06333333333333258,1.6253333333333333,1.6086666666666667,37.721000000000004,29.5595,37.579,34.5905,55.917,34.8875,59.1735,51.907,53.879999999999995,34.0575,57.79,50.2495,53.071,33.6355,57.7335,49.660666666666664,-0.137,-0.03699999999999992,0.10467000000000001,0.10949500000000001,0.0,210.16500000000002,210.20499999999998,207.25,207.25,0.0,0.0
12,0.0,1.0,0.0,1.0,1.0,0.0,0.0,1.0,0.0,100.0,1.0,1.1856,26.0,0.0,0.0,0.0,59.999996,0.0,26.0,26.0,26.0,26.0,0.05311111111111111,0.2905,0.0115,291.748,-2.7355,-2.648777777777778,-1.56075,-1.53,-235.79,216.065,190.746,0.0,0.0,0.0,0.0,0.025466666666666665,-5.498166666666667,-5.498166666666667,-0.5727,0.251,0.021374999999999922,-0.17300000000000004,67.253,0.028300000000000002,-0.238325,-0.6479999999999997,100.0,1.0,1.0,207.45666666666668,0.0,0.0,0.0,0.0,0.0,0.0,0.0,8793.4,0.0,55.0,5.0,242.08333333333334,0.0,0.0,0.0,0.0,0.0,0.0,1.0,0.0,0.602999999999998,0.602999999999998,0.0,0.0,0.0,55.0,616.79921,10000.0,85.000001,85.000001,85.000001,85.000001,395.0,0.0,0.0,0.0,1.0,166.665,50.827,50.827,47.424,47.424,34.0,-21.98,26.282,-27.236666666666665,31.095,0.0,1782.965,-0.6750000000000007,100.0,29.307,29.628,42.774,43.086,0.0,1.0,100.0,0.0,0.0,0.0,0.0,3090.857142857143,3165.9,4185.25,4179.6,305.4985,304.71875,314.65525,314.472,21.8843,20.5747,21.8624,21.3829,314.999998,314.999998,324.999988,324.999988,99.55835714285715,99.5073,99.56581428571428,99.5456,0.12700000000000022,-0.015000000000000013,-0.07383333333333333,0.15833333333333335,-0.030000000000001137,-0.045000000000001705,1.5270000000000001,1.5076666666666667,37.777,29.592,37.64,34.643,55.906,34.9235,59.210499999999996,51.9655,53.869,34.0905,57.8245,50.3055,53.06,33.667500000000004,57.765,49.716,-0.13749999999999996,-0.03949999999999987,0.10342000000000001,0.11454500000000001,0.0,210.575,210.64499999999998,207.45666666666668,207.45666666666668,0.0,0.0
13,0.0,1.0,0.0,1.0,1.0,0.0,0.0,1.0,0.0,100.0,1.0,1.1856,26.0,0.0,0.0,0.0,59.999996,0.0,26.0,26.0,26.0,26.0,0.07111111111111112,0.28059999999999996,0.03826666666666667,291.306,-2.7116,-2.645666666666667,-1.60005,-1.5149,-232.15,216.0375,190.722875,0.0,0.0,0.0,0.0,0.0269,-5.498166666666667,-5.498166666666667,-0.5635,-0.03499999999999992,0.023499999999999854,0.22299999999999986,67.404,0.0374,-0.24277500000000002,-0.8520000000000003,100.0,1.0,1.0,207.86,0.0,0.0,0.0,0.0,0.0,0.0,0.0,8810.4,0.0,55.0,5.0,242.62333333333333,1.0,0.0,0.0,0.0,0.0,0.0,1.0,0.0,0.657,0.657,0.0,0.0,1.0,55.0,616.79921,10000.0,85.000001,85.000001,85.000001,85.000001,395.0,0.0,0.0,0.0,1.0,166.665,50.491,50.491,47.302,47.302,34.0,-20.83,27.114,-27.49,32.3725,0.0,1782.91,-0.8550000000000004,100.0,29.648,29.811,43.095,43.646,0.0,1.0,100.0,0.0,0.0,0.0,0.0,3123.857142857143,3148.9,4169.625,4331.1,305.367,304.75575,314.66275,314.08225,21.8944,20.5806,21.8735,21.3926,314.999998,314.999998,324.999988,324.999988,99.55837142857143,99.5073,99.56597142857143,99.54574285714286,0.15474999999999994,0.009000000000000119,-0.06733333333333333,0.15766666666666665,-0.03833333333332689,-0.04833333333333201,1.4986666666666668,1.4823333333333333,37.84,29.628999999999998,37.709,34.7035,55.897,34.9645,59.251999999999995,52.0345,53.86,34.1285,57.863,50.372,53.049,33.7035,57.8005,49.781,-0.15799999999999992,-0.016000000000000014,0.10498500000000001,0.103035,0.0,211.05,211.11,207.86,207.86,0.0,0.0
14,0.0,1.0,0.0,1.0,1.0,0.0,0.0,1.0,0.0,100.0,1.0,1.1856,26.0,0.0,0.0,0.0,59.999996,0.0,26.0,26.0,26.0,26.0,0.10422222222222222,0.2845,-0.0025666666666666667,291.473,-2.7042,-2.5854444444444447,-1.6084,-1.5186000000000002,-228.71,216.015,190.7015,0.0,0.0,0.0,0.0,0.028900000000000002,-5.498166666666667,-5.498166666666667,-0.5736,-0.1785000000000001,0.05312499999999987,0.5580000000000003,67.543,0.0514,-0.25522500000000004,-1.032,100.0,1.0,1.0,208.37666666666667,0.0,0.0,0.0,0.0,0.0,0.0,0.0,8832.3,0.0,55.0,5.0,243.12666666666667,0.0,0.0,0.0,0.0,0.0,0.0,1.0,0.0,0.7079999999999984,0.7079999999999984,0.0,0.0,0.0,55.0,616.79921,10000.0,85.000001,85.000001,85.000001,85.000001,395.0,0.0,0.0,0.0,1.0,166.665,50.537,50.537,47.424,47.424,34.0,-19.3825,27.822,-24.880000000000003,32.0225,0.0,1782.86,-0.9499999999999993,100.0,29.622,29.917,43.124,43.897999999999996,0.0,1.0,100.0,0.0,0.0,0.0,0.0,2984.714285714286,3252.4,3969.5,4206.6,305.7715,304.45725,315.156,314.408,21.9039,20.586199999999998,21.8839,21.401699999999998,314.999998,314.999998,324.999988,324.999988,99.55838571428572,99.5073,99.56611428571429,99.54588571428572,0.1625000000000001,0.015000000000000124,-0.049833333333333334,0.17666666666666667,-0.05333333333332746,-0.06833333333332803,1.565,1.5336666666666665,37.899,29.6635,37.774,34.7605,55.888,35.0025,59.29,52.0985,53.851,34.1635,57.897999999999996,50.4335,53.039,33.737,57.832499999999996,49.84133333333333,-0.15649999999999986,-0.015000000000000124,0.10942500000000001,0.10436000000000001,0.0,211.48000000000002,211.55,208.37666666666667,208.37666666666667,0.0,0.0
15,0.0,1.0,0.0,1.0,1.0,0.0,0.0,1.0,0.0,100.0,1.0,1.1856,26.0,0.0,0.0,0.0,59.999996,0.0,26.0,26.0,26.0,26.0,0.12222222222222223,0.2823,-0.014766666666666666,291.443,-2.7191,-2.539888888888889,-1.6368,-1.4598,-225.47,215.995,190.681125,0.0,0.0,0.0,0.0,0.0308,-5.498166666666667,-5.498166666666667,-0.5649000000000001,0.24849999999999994,0.08399999999999985,0.17700000000000005,67.675,0.0659,-0.23852500000000001,-1.1959999999999997,100.0,1.0,1.0,208.75666666666666,0.0,0.0,0.0,0.0,0.0,0.0,0.0,8848.5,0.0,55.0,5.0,243.60000000000002,1.0,0.0,0.0,0.0,0.0,0.0,1.0,0.0,0.7560000000000002,0.7560000000000002,0.0,0.0,1.0,55.0,616.79921,10000.0,85.000001,85.000001,85.000001,85.000001,395.0,0.0,0.0,0.0,1.0,166.665,50.674,50.674,47.394,47.394,34.0,-17.849999999999998,27.490000000000002,-24.513333333333335,33.8575,0.0,1782.811,-0.9699999999999989,100.0,29.613,30.07,42.879,44.055,0.0,1.0,100.0,0.0,0.0,0.0,0.0,2864.5714285714284,3225.2,3973.5,4386.5,306.145,304.525,315.179,313.988,21.9129,20.5915,21.8936,21.4103,314.999998,314.999998,324.999988,324.999988,99.5584,99.5073,99.56624285714285,99.54604285714285,0.18049999999999988,0.022750000000000048,-0.03383333333333333,0.19283333333333336,-0.036666666666668846,-0.04999999999999716,1.5476666666666667,1.4976666666666667,37.955,29.697,37.835,34.814499999999995,55.879999999999995,35.039,59.324,52.1595,53.844,34.1975,57.93,50.492,53.03,33.7695,57.861,49.898666666666664,-0.16149999999999998,-0.01750000000000007,0.111115,0.10618000000000001,0.0,211.88,211.97,208.75666666666666,208.75666666666666,0.0,0.0
16,0.0,1.0,0.0,1.0,1.0,0.0,0.0,1.0,0.0,100.0,1.0,1.1856,26.0,0.0,0.0,0.0,59.999996,0.0,26.0,26.0,26.0,26.0,0.12433333333333318,0.2681,-0.03346666666666667,291.489,-2.7851,-2.545777777777778,-1.6155,-1.4573,-222.21,215.97750000000002,190.660375,0.0,0.0,0.0,0.0,0.03266666666666667,-5.498166666666667,-5.498166666666667,-0.5841000000000001,-0.6839999999999999,0.0754999999999999,-0.3919999999999999,67.806,0.078,-0.254975,-1.2539999999999996,100.0,1.0,1.0,209.17000000000002,0.0,0.0,0.0,0.0,0.0,0.0,0.0,8865.9,0.0,55.0,5.0,244.07666666666665,0.0,0.0,0.0,0.0,0.0,0.0,1.0,0.0,0.8039999999999985,0.8039999999999985,0.0,0.0,0.0,55.0,616.79921,10000.0,85.000001,85.000001,85.000001,85.000001,395.0,0.0,0.0,0.0,1.0,333.33500000000004,50.659,50.659,47.134,47.134,34.0,-19.205,28.508,-23.310000000000002,32.815,0.0,1782.762,-0.870000000000001,100.0,29.148,30.124,43.153999999999996,44.185,0.0,1.0,100.0,0.0,0.0,0.0,0.0,2999.857142857143,3273.2,3944.875,4182.5,305.8475,304.41125,315.2325,314.4685,21.9215,20.5968,21.9035,21.4189,314.999998,314.999998,324.999988,324.999988,99.55842857142858,99.50731666666667,99.56638571428572,99.54617142857143,0.18374999999999986,0.03499999999999992,-0.02033333333333333,0.21016666666666667,-0.054999999999999716,-0.05666666666667197,1.564,1.506,38.01,29.73,37.897,34.868,55.870000000000005,35.076499999999996,59.361,52.219,53.833,34.232,57.964,50.5495,53.019,33.803,57.8925,49.955666666666666,-0.16249999999999987,-0.01100000000000012,0.11089500000000001,0.106745,0.0,212.25,212.345,209.17000000000002,209.17000000000002,0.0,0.0
17,0.0,1.0,0.0,1.0,1.0,0.0,0.0,1.0,0.0,100.0,1.0,1.1856,26.0,0.0,0.0,0.0,59.999996,0.0,26.0,26.0,26.0,26.0,0.13144444444444447,0.28400000000000003,-0.007266666666666668,291.153,-2.7434000000000003,-2.533777777777778,-1.6504500000000002,-1.4824,-218.55,215.9625,190.636625,0.0,0.0,0.0,0.0,0.034800000000000005,-5.498166666666667,-5.498166666666667,-0.5715,0.402,0.05149999999999988,0.08300000000000018,67.953,0.0845,-0.2328,-1.1679999999999993,100.0,1.0,1.0,209.56,0.0,0.0,0.0,0.0,0.0,0.0,0.0,8882.5,0.0,55.0,5.0,244.60333333333335,1.0,0.0,0.0,0.0,0.0,0.0,1.0,0.0,0.8580000000000005,0.8580000000000005,0.0,0.0,1.0,55.0,616.79921,10000.0,85.000001,85.000001,85.000001,85.000001,395.0,0.0,0.0,0.0,1.0,166.665,50.491,50.491,46.997,46.997,34.0,-18.7225,27.284,-25.793333333333337,34.504999999999995,0.0,1782.71,-0.8999999999999986,100.0,29.657,30.253,42.909,44.150999999999996,0.0,1.0,100.0,0.0,0.0,0.0,0.0,3044.285714285714,3150.6,4282.875,4329.8,305.654,304.79825,314.5055,314.17,21.9316,20.602899999999998,21.9144,21.4285,314.999998,314.999998,324.999988,324.999988,99.55844285714285,99.50731666666667,99.56652857142858,99.54632857142857,0.19499999999999984,0.038000000000000034,-0.012,0.20883333333333334,-0.03833333333332689,-0.06499999999999773,1.5406666666666666,1.4863333333333333,38.073,29.768,37.965,34.928,55.863,35.12,59.4,52.286500000000004,53.826,34.272,58.0,50.6145,53.010999999999996,33.841499999999996,57.925,50.019333333333336,-0.16649999999999987,-0.01650000000000018,0.10972000000000001,0.108505,0.0,212.745,212.845,209.56,209.56,0.0,0.0
18,0.0,1.0,0.0,1.0,1.0,0.0,0.0,1.0,0.0,100.0,1.0,1.1856,26.0,0.0,0.0,0.0,59.999996,0.0,26.0,26.0,26.0,26.0,0.1387777777777779,0.28,-0.015333333333333334,291.122,-2.7725,-2.5076666666666667,-1.6666500000000002,-1.4260000000000002,-215.28,215.9525,190.6155,0.0,0.0,0.0,0.0,0.0367,-5.498166666666667,-5.498166666666667,-0.5867,-0.5105,0.07624999999999993,0.44799999999999995,68.083,0.08660000000000001,-0.252875,-1.2679999999999998,100.0,1.0,1.0,209.99666666666667,0.0,0.0,0.0,0.0,0.0,0.0,0.0,8901.0,0.0,55.0,5.0,245.07333333333332,0.0,0.0,0.0,0.0,0.0,0.0,1.0,0.0,0.9059999999999988,0.9059999999999988,0.0,0.0,0.0,55.0,616.79921,10000.0,85.000001,85.000001,85.000001,85.000001,395.0,0.0,0.0,0.0,1.0,166.665,50.171,50.171,47.028,47.028,34.0,-19.0825,30.08,-23.726666666666667,32.61,0.0,1782.662,-1.134999999999998,100.0,29.477,30.239,43.189,44.466,0.0,1.0,100.0,0.0,0.0,0.0,0.0,3084.4285714285716,3391.9,4027.0,4217.0,305.5855,304.104,315.07775,314.42175,21.9404,20.6082,21.9243,21.4372,314.999998,314.999998,324.999988,324.999988,99.55845714285714,99.50731666666667,99.56667142857142,99.54647142857142,0.19850000000000012,0.05325000000000002,-0.0038333333333333336,0.20983333333333334,-0.030000000000001137,-0.06833333333332803,1.5573333333333332,1.5153333333333334,38.126999999999995,29.801499999999997,38.027,34.9825,55.855000000000004,35.1575,59.4365,52.348,53.819,34.307,58.034,50.673500000000004,53.001999999999995,33.875,57.9555,50.077333333333335,-0.17399999999999993,0.0015000000000000568,0.09894000000000001,0.11001000000000001,0.0,213.12,213.21,209.99666666666667,209.99666666666667,0.0,0.0
19,0.0,1.0,0.0,1.0,1.0,0.0,0.0,1.0,0.0,100.0,1.0,1.1856,26.0,0.0,0.0,0.0,59.999996,0.0,26.0,26.0,26.0,26.0,0.1604444444444444,0.29780000000000006,0.0429,290.634,-2.7476000000000003,-2.4913333333333334,-1.68645,-1.4062999999999999,-212.01,215.945,190.594125,0.0,0.0,0.0,0.0,0.0386,-5.498166666666667,-5.498166666666667,-0.5750000000000001,0.856,0.08962500000000007,0.2120000000000002,68.213,0.09240000000000001,-0.24052500000000002,-1.5879999999999992,100.0,1.0,1.0,210.36333333333334,0.0,0.0,0.0,0.0,0.0,0.0,0.0,8916.6,0.0,55.0,5.0,245.53666666666666,1.0,0.0,0.0,0.0,0.0,0.0,1.0,0.0,0.9540000000000006,0.9540000000000006,0.0,0.0,1.0,55.0,616.79921,10000.0,85.000001,85.000001,85.000001,85.000001,395.0,0.0,0.0,0.0,1.0,333.33500000000004,49.591,49.591,46.829,46.829,34.0,-17.7775,30.862,-25.573333333333338,35.3575,0.0,1782.613,-1.5350000000000001,100.0,29.963,30.747,42.899,44.472,0.0,1.0,100.0,0.0,0.0,0.0,0.0,3099.714285714286,3399.6,4185.875,4469.3,305.425,303.9725,314.74925,313.864,21.9493,20.6138,21.934,21.4458,314.999998,314.999998,324.999988,324.999988,99.5585,99.50731666666667,99.5668,99.54661428571428,0.22675,0.06899999999999995,-0.012166666666666666,0.2205,-0.030000000000001137,-0.03499999999999659,1.5503333333333333,1.4836666666666667,38.183,29.836,38.087,35.036500000000004,55.851,35.199,59.47,52.408500000000004,53.814,34.3455,58.065,50.732,52.995999999999995,33.912,57.9835,50.135,-0.20550000000000002,0.02299999999999991,0.10570500000000001,0.102355,0.0,213.525,213.65,210.36333333333334,210.36333333333334,0.0,0.0
20,0.0,1.0,0.0,1.0,1.0,0.0,0.0,1.0,0.0,100.0,1.0,1.1856,26.0,0.0,0.0,0.0,59.999996,0.0,26.0,26.0,26.0,26.0,0.1902222222222223,0.26870000000000016,-0.0046,290.985,-2.8002000000000002,-2.5518888888888887,-1.61955,-1.5229,-208.53,215.9425,190.57175,0.0,0.0,0.0,0.0,0.040633333333333334,-5.498166666666667,-5.498166666666667,-0.5804,-1.1665,0.09775,-0.03500000000000014,68.351,0.10590000000000001,-0.25377500000000003,-1.936,100.0,1.0,1.0,210.7,0.0,0.0,0.0,0.0,0.0,0.0,0.0,8930.8,0.0,55.0,5.0,246.03666666666666,0.0,0.0,0.0,0.0,0.0,0.0,0.0,0.0,1.004999999999999,1.004999999999999,0.0,0.0,0.0,55.0,616.79921,10000.0,85.000001,85.000001,85.000001,85.000001,395.0,0.0,0.0,0.0,1.0,333.33500000000004,50.72,50.72,46.249,46.249,34.0,-16.0975,30.236,-22.35,37.6625,0.0,1782.561,-1.5449999999999982,100.0,29.292,30.54,43.444,45.044,0.0,1.0,100.0,0.0,0.0,0.0,0.0,2847.857142857143,3242.4,4092.5,4338.0,306.3185,304.5,314.8215,313.95225,21.9585,20.6195,21.944499999999998,21.4552,314.999998,314.999998,324.999988,324.999988,99.55851428571428,99.50733333333334,99.56694285714286,99.54675714285715,0.23525000000000018,0.08174999999999999,0.02333333333333333,0.244,-0.046666666666666856,-0.03166666666666629,1.5216666666666665,1.425,38.241,29.872,38.153,35.095,55.842,35.242,59.5105,52.476,53.806,34.385,58.1025,50.797,52.986000000000004,33.95,58.018,50.199,-0.2044999999999999,0.028999999999999915,0.10403000000000001,0.10324000000000001,0.0,213.91500000000002,214.04500000000002,210.7,210.7,0.0,0.0
21,0.0,1.0,0.0,1.0,1.0,0.0,0.0,1.0,0.0,100.0,1.0,1.1856,26.0,0.0,0.0,0.0,59.999996,0.0,26.0,26.0,26.0,26.0,0.17100000000000004,0.28070000000000017,-0.0635,291.367,-2.7221,-2.5967777777777776,-1.6828,-1.4801,-205.25,215.9425,190.550125,0.0,0.0,0.0,0.0,0.04253333333333333,-5.498166666666667,-5.498166666666667,-0.6041000000000001,0.488,0.08199999999999985,-0.536,68.475,0.1232,-0.257,-1.6760000000000002,100.0,1.0,1.0,211.32666666666665,0.0,0.0,0.0,0.0,0.0,0.0,0.0,8957.4,0.0,55.0,5.0,246.48333333333335,1.0,0.0,0.0,0.0,0.0,0.0,0.0,0.0,1.0530000000000008,1.0530000000000008,0.0,0.0,1.0,55.0,616.79921,10000.0,85.000001,85.000001,85.000001,85.000001,395.0,0.0,0.0,0.0,1.0,333.33500000000004,50.201,50.201,47.668,47.668,34.0,-18.564999999999998,28.740000000000002,-21.586666666666666,34.3825,0.0,1782.512,-0.46999999999999886,100.0,29.596,30.667,42.629,44.525,0.0,1.0,100.0,0.0,0.0,0.0,0.0,2984.714285714286,3258.7,3936.875,4097.8,305.762,304.35525,315.37225,314.73175,21.9673,20.6251,21.954,21.4637,314.999998,314.999998,324.999988,324.999988,99.55854285714285,99.50735,99.56707142857142,99.5469,0.18625000000000025,0.028999999999999915,0.025,0.2585,-0.05333333333332746,-0.041666666666671404,1.6173333333333333,1.5510000000000002,38.296,29.907,38.213,35.1485,55.836,35.283,59.541,52.5345,53.8,34.423,58.1305,50.8535,52.979,33.9865,58.043,50.254333333333335,-0.1339999999999999,-0.04899999999999993,0.11032000000000002,0.11123000000000001,0.0,214.34,214.445,211.32666666666665,211.32666666666665,0.0,0.0
22,0.0,1.0,0.0,1.0,1.0,0.0,0.0,1.0,0.0,100.0,1.0,1.1856,26.0,0.0,0.0,0.0,59.999996,0.0,26.0,26.0,26.0,26.0,0.12688888888888883,0.2579,0.011266666666666668,290.848,-2.693,-2.6101111111111113,-1.66375,-1.485,-201.75,215.95,190.526375,0.0,0.0,0.0,0.0,0.04456666666666667,-5.498166666666667,-5.498166666666667,-0.5842,0.0685,0.07274999999999987,-0.08299999999999974,68.614,0.114,-0.23785,-0.3799999999999999,100.0,1.0,1.0,211.54666666666668,0.0,0.0,0.0,0.0,0.0,0.0,0.0,8966.6,0.0,55.0,5.0,246.98000000000002,0.0,0.0,0.0,0.0,0.0,0.0,0.0,0.0,1.1039999999999992,1.1039999999999992,0.0,0.0,0.0,55.0,616.79921,10000.0,85.000001,85.000001,85.000001,85.000001,395.0,0.0,0.0,0.0,1.0,166.665,50.247,50.247,46.585,46.585,34.0,-20.2575,25.424,-24.86,35.7725,0.0,1782.463,0.5850000000000009,100.0,29.785,30.666,43.171,44.75,0.0,1.0,100.0,0.0,0.0,0.0,0.0,2916.4285714285716,3201.7,4187.375,4336.0,305.9365,304.50125,314.697,314.14725,21.9767,20.6309,21.9645,21.473,314.999998,314.999998,324.999988,324.999988,99.55855714285714,99.50735,99.56722857142857,99.54704285714286,0.12824999999999998,-0.03874999999999995,0.0,0.22833333333333336,-0.04333333333332945,-0.03999999999999915,1.5046666666666666,1.471,38.354,29.942999999999998,38.278,35.2065,55.826,35.323,59.581,52.6,53.79,34.460499999999996,58.167500000000004,50.917,52.968,34.022,58.077,50.31666666666666,-0.047499999999999876,-0.13500000000000023,0.10333500000000001,0.109615,0.0,214.815,214.835,211.54666666666668,211.54666666666668,0.0,0.0
23,0.0,1.0,0.0,1.0,1.0,0.0,0.0,1.0,0.0,100.0,1.0,1.1856,26.0,0.0,0.0,0.0,59.999996,0.0,26.0,26.0,26.0,26.0,0.03866666666666685,0.24850000000000017,-0.017566666666666668,290.817,-2.6982,-2.5874444444444444,-1.5662,-1.5756000000000001,-198.25,215.95749999999998,190.502875,0.0,0.0,0.0,0.0,0.0466,-5.498166666666667,-5.498166666666667,-0.6018,-0.20550000000000002,0.04162500000000002,-0.5449999999999999,68.747,0.0666,-0.262175,0.7279999999999998,100.0,1.0,1.0,212.06,0.0,0.0,0.0,0.0,0.0,0.0,0.0,8988.5,0.0,55.0,5.0,247.46333333333334,1.0,0.0,0.0,0.0,0.0,0.0,0.0,0.0,1.1550000000000011,1.1550000000000011,0.0,0.0,1.0,55.0,616.79921,10000.0,85.000001,85.000001,85.000001,85.000001,395.0,0.0,0.0,0.0,1.0,166.665,49.622,49.622,47.485,47.485,34.0,-25.0025,23.642,-25.119999999999997,30.462500000000002,0.0,1782.413,0.870000000000001,100.0,30.149,30.579,43.56,44.783,0.0,1.0,100.0,0.0,0.0,0.0,0.0,3271.4285714285716,3192.0,3950.375,4004.5,304.904,304.63025,315.193,314.85725,21.9861,20.6367,21.975,21.4822,314.999998,314.999998,324.999988,324.999988,99.55857142857143,99.50735,99.56737142857143,99.5472,0.08924999999999983,-0.07025000000000003,-0.064,0.164,-0.046666666666666856,-0.046666666666666856,1.5186666666666666,1.528,38.413,29.979,38.344,35.263999999999996,55.814,35.364,59.6185,52.664,53.778,34.4985,58.2025,50.9785,52.955,34.059,58.1085,50.377,-0.02200000000000002,-0.15900000000000025,0.10777500000000001,0.10842500000000001,0.0,215.255,215.195,212.06,212.06,0.0,0.0
24,0.0,1.0,0.0,1.0,1.0,0.0,0.0,1.0,0.0,100.0,1.0,1.1856,26.0,0.0,0.0,0.0,59.999996,0.0,26.0,26.0,26.0,26.0,-0.03022222222222215,0.27649999999999997,-0.031933333333333334,291.046,-2.6903,-2.627666666666667,-1.5848,-1.5406,-194.94,215.965,190.48025,0.0,0.0,0.0,0.0,0.04853333333333333,-5.498166666666667,-5.498166666666667,-0.604,-0.5429999999999999,0.02112500000000006,-0.15799999999999992,68.875,0.012,-0.24775,1.1460000000000008,100.0,1.0,1.0,212.33666666666667,0.0,0.0,0.0,0.0,0.0,0.0,0.0,9000.2,0.0,55.0,5.0,247.92666666666668,0.0,0.0,0.0,0.0,0.0,0.0,0.0,0.0,1.2029999999999994,1.2029999999999994,0.0,0.0,0.0,55.0,616.79921,10000.0,85.000001,85.000001,85.000001,85.000001,395.0,0.0,0.0,0.0,1.0,166.665,50.797,50.797,46.402,46.402,34.0,-23.84,20.768,-32.10666666666667,27.8875,0.0,1782.363,0.8949999999999996,100.0,30.106,30.115000000000002,43.912,44.431,0.0,1.0,100.0,0.0,0.0,0.0,0.0,2961.5714285714284,2982.6,4349.875,4125.5,305.889,305.34075,314.25475,314.65125,21.9949,20.6419,21.9849,21.4908,314.999998,314.999998,324.999988,324.999988,99.55858571428571,99.50736666666667,99.56751428571428,99.54734285714285,0.04700000000000015,-0.10375000000000001,-0.12583333333333332,0.10283333333333333,-0.05833333333333002,-0.054999999999999716,1.472,1.5246666666666666,38.468,30.011499999999998,38.405,35.317499999999995,55.801,35.402,59.6555,52.722,53.765,34.533500000000004,58.2365,51.0345,52.941,34.0925,58.1395,50.431666666666665,-0.018999999999999906,-0.15450000000000008,0.10923500000000001,0.10664000000000001,0.0,215.68,215.585,212.33666666666667,212.33666666666667,0.0,0.0
25,0.0,1.0,0.0,1.0,1.0,0.0,0.0,1.0,0.0,100.0,1.0,1.1856,26.0,0.0,0.0,0.0,59.999996,0.0,26.0,26.0,26.0,26.0,-0.09344444444444444,0.2734000000000001,-0.060866666666666666,291.031,-2.7155,-2.6274444444444445,-1.56555,-1.5756000000000001,-191.22,215.975,190.4535,0.0,0.0,0.0,0.0,0.0507,-5.498166666666667,-5.498166666666667,-0.6377,0.15949999999999998,-0.013125000000000053,-1.2369999999999999,69.015,-0.0417,-0.2579,1.4619999999999997,100.0,1.0,1.0,212.93666666666667,0.0,0.0,0.0,0.0,0.0,0.0,0.0,9025.7,0.0,55.0,5.0,248.42666666666668,1.0,0.0,0.0,0.0,0.0,0.0,0.0,0.0,1.256999999999998,1.256999999999998,0.0,0.0,1.0,55.0,616.79921,10000.0,85.000001,85.000001,85.000001,85.000001,395.0,0.0,0.0,0.0,1.0,166.665,49.728,49.728,47.394,47.394,34.0,-29.415,21.274,-30.956666666666663,24.46,0.0,1782.309,0.879999999999999,100.0,30.256,30.098,43.889,43.696,0.0,1.0,100.0,0.0,0.0,0.0,0.0,3369.142857142857,3239.2,4006.25,3962.3,304.7645,304.52325,315.15975,315.0525,22.0049,20.6478,21.9958,21.5004,314.999998,314.999998,324.999988,324.999988,99.5586,99.50738333333334,99.56767142857143,99.5475,0.0129999999999999,-0.139,-0.17866666666666667,0.057,-0.04833333333333201,-0.05666666666667197,1.5473333333333334,1.6063333333333334,38.53,30.049,38.474000000000004,35.3775,55.784,35.448,59.694,52.783500000000004,53.748999999999995,34.576,58.2725,51.0935,52.924,34.132999999999996,58.172,50.489666666666665,-0.020499999999999963,-0.16100000000000003,0.11266000000000001,0.10414500000000002,0.0,216.12,216.0,212.93666666666667,212.93666666666667,0.0,0.0
26,0.0,1.0,0.0,1.0,1.0,0.0,0.0,1.0,0.0,100.0,1.0,1.1856,26.0,0.0,0.0,0.0,59.999996,0.0,26.0,26.0,26.0,26.0,-0.1386666666666666,0.2734000000000001,0.06430000000000001,289.963,-2.6347,-2.7412222222222224,-1.58695,-1.5963,-187.7,215.98000000000002,190.427875,0.0,0.0,0.0,0.0,0.05273333333333334,-5.498166666666667,-5.498166666666667,-0.5934,0.528,-0.05975000000000019,-0.33699999999999974,69.151,-0.0776,-0.226575,1.4800000000000004,100.0,1.0,1.0,213.06,0.0,0.0,0.0,0.0,0.0,0.0,0.0,9030.9,0.0,55.0,5.0,248.91666666666666,0.0,0.0,0.0,0.0,0.0,0.0,0.0,0.0,1.3079999999999998,1.3079999999999998,0.0,0.0,0.0,55.0,616.79921,10000.0,85.000001,85.000001,85.000001,85.000001,395.0,0.0,0.0,0.0,1.0,166.665,49.606,49.606,45.532,45.532,34.0,-28.41,19.294,-40.599999999999994,26.7975,0.0,1782.26,0.6649999999999991,100.0,31.162,30.37,44.663,43.889,0.0,1.0,100.0,0.0,0.0,0.0,0.0,3298.285714285714,2963.5,4718.625,4453.9,304.848,305.2785,313.46125,313.90325,22.0146,20.6535,22.0065,21.5096,314.999998,314.999998,324.999988,324.999988,99.5586,99.5074,99.56782857142858,99.54764285714286,0.006000000000000227,-0.16325,-0.20700000000000002,0.018000000000000002,-0.041666666666671404,-0.03166666666666629,1.3900000000000001,1.46,38.591,30.0845,38.541,35.435,55.772,35.494,59.7375,52.8455,53.738,34.6185,58.3135,51.153,52.912,34.173500000000004,58.21,50.548,-0.04049999999999998,-0.14749999999999996,0.11042500000000001,0.108395,0.0,216.57999999999998,216.43,213.06,213.06,0.0,0.0
27,0.0,1.0,0.0,1.0,1.0,0.0,0.0,1.0,0.0,100.0,1.0,1.1856,26.0,0.0,0.0,0.0,59.999996,0.0,26.0,26.0,26.0,26.0,-0.13177777777777777,0.24520000000000008,-0.043133333333333336,290.558,-2.5944000000000003,-2.7145555555555556,-1.57125,-1.6716000000000002,-184.37,215.98250000000002,190.404875,0.0,0.0,0.0,0.0,0.05466666666666667,-5.498166666666667,-5.498166666666667,-0.6299,-1.1320000000000001,-0.06400000000000006,-0.03100000000000014,69.274,-0.095,-0.280875,1.3040000000000003,100.0,1.0,1.0,213.61,0.0,0.0,0.0,0.0,0.0,0.0,0.0,9054.2,0.0,55.0,5.0,249.36333333333334,1.0,0.0,0.0,0.0,0.0,0.0,0.0,0.0,1.355999999999998,1.355999999999998,0.0,0.0,1.0,55.0,616.79921,10000.0,85.000001,85.000001,85.000001,85.000001,395.0,0.0,0.0,0.0,1.0,166.665,49.759,49.759,46.448,46.448,34.0,-28.2275,19.256,-33.92,23.905,0.0,1782.209,0.5599999999999987,100.0,30.959,30.108,45.232,44.19,0.0,1.0,100.0,0.0,0.0,0.0,0.0,3254.285714285714,3068.8,4080.375,3934.3,304.9805,305.05825,314.8425,315.05525,22.0235,20.6587,22.0166,21.5183,314.999998,314.999998,324.999988,324.999988,99.5586,99.50741666666667,99.56797142857143,99.54778571428571,-0.008249999999999869,-0.17425000000000002,-0.214,0.017833333333333333,-0.04999999999999716,-0.04333333333332945,1.4996666666666667,1.5430000000000001,38.647,30.116500000000002,38.604,35.4895,55.757999999999996,35.5355,59.7785,52.903,53.724000000000004,34.6565,58.352000000000004,51.2085,52.897999999999996,34.21,58.245,50.60166666666667,-0.04600000000000004,-0.13500000000000023,0.09582,0.116485,0.0,216.9,216.76,213.61,213.61,0.0,0.0
28,0.0,1.0,0.0,1.0,1.0,0.0,0.0,1.0,0.0,100.0,1.0,1.1856,26.0,0.0,0.0,0.0,59.999996,0.0,26.0,26.0,26.0,26.0,-0.13855555555555554,0.27290000000000014,-0.0465,290.68,-2.6055,-2.703222222222222,-1.5126,-1.6368,-180.84,215.98250000000002,190.37925,0.0,0.0,0.0,0.0,0.05673333333333334,-5.498166666666667,-5.498166666666667,-0.63,0.659,-0.07462500000000016,-0.04800000000000004,69.404,-0.1043,-0.2489,1.1920000000000002,100.0,1.0,1.0,214.05666666666667,0.0,0.0,0.0,0.0,0.0,0.0,0.0,9073.1,0.0,55.0,5.0,249.82999999999998,0.0,0.0,0.0,0.0,0.0,0.0,0.0,0.0,1.407,1.407,0.0,0.0,0.0,55.0,616.79921,10000.0,85.000001,85.000001,85.000001,85.000001,395.0,0.0,0.0,0.0,1.0,166.665,49.728,49.728,47.012,47.012,34.0,-28.1025,19.092,-34.56333333333333,23.8475,0.0,1782.159,0.33000000000000185,100.0,31.25,30.117,44.6,43.487,0.0,1.0,100.0,0.0,0.0,0.0,0.0,3269.5714285714284,2969.6,4212.125,4083.3,304.8655,305.324,314.70925,314.77125,22.0331,20.6642,22.0269,21.5273,314.999998,314.999998,324.999988,324.999988,99.5586,99.50745,99.56811428571429,99.54792857142857,0.0027500000000002522,-0.15949999999999998,-0.22316666666666665,0.008166666666666666,-0.046666666666666856,-0.061666666666667425,1.5103333333333333,1.5616666666666665,38.707,30.1515,38.668,35.545500000000004,55.745000000000005,35.58,59.8155,52.960499999999996,53.712,34.6975,58.3865,51.263,52.884,34.249,58.277,50.655,-0.06899999999999995,-0.11450000000000005,0.109255,0.11182500000000001,0.0,217.32999999999998,217.245,214.05666666666667,214.05666666666667,0.0,0.0
29,0.0,1.0,0.0,1.0,1.0,0.0,0.0,1.0,0.0,100.0,1.0,1.1856,26.0,0.0,0.0,0.0,59.999996,0.0,26.0,26.0,26.0,26.0,-0.12344444444444447,0.2470000000000001,0.04396666666666667,290.329,-2.5549,-2.760666666666667,-1.5489000000000002,-1.6153,-177.29,215.97750000000002,190.35275,0.0,0.0,0.0,0.0,0.058800000000000005,-5.498166666666667,-5.498166666666667,-0.6382,-0.6125,-0.07387500000000014,0.15100000000000025,69.538,-0.096,-0.255325,0.8239999999999998,100.0,1.0,1.0,214.32999999999998,0.0,0.0,0.0,0.0,0.0,0.0,0.0,9084.6,0.0,55.0,5.0,250.31,1.0,0.0,0.0,0.0,0.0,0.0,0.0,0.0,1.4579999999999984,1.4579999999999984,0.0,0.0,1.0,55.0,616.79921,10000.0,85.000001,85.000001,85.000001,85.000001,395.0,0.0,0.0,0.0,1.0,166.665,49.622,49.622,46.265,46.265,34.0,-28.4425,20.72,-35.446666666666665,25.29,0.0,1782.109,0.26000000000000156,100.0,30.921,29.976,45.126,43.805,0.0,1.0,100.0,0.0,0.0,0.0,0.0,3371.0,3063.0,4255.375,4173.0,304.644,304.98275,314.47725,314.52175,22.0426,20.6697,22.0375,21.5365,314.999998,314.999998,324.999988,324.999988,99.5586,99.50746666666667,99.56827142857144,99.54808571428572,0.004249999999999865,-0.15174999999999994,-0.21383333333333335,0.02416666666666667,-0.02499999999999858,-0.061666666666667425,1.4706666666666668,1.5093333333333332,38.766,30.185499999999998,38.735,35.6035,55.729,35.623,59.859,53.0215,53.697,34.737,58.4275,51.322,52.869,34.287,58.314499999999995,50.712,-0.07200000000000006,-0.10599999999999987,0.10963500000000001,0.11280000000000001,0.0,217.685,217.63,214.32999999999998,214.32999999999998,0.0,0.0
30,0.0,1.0,0.0,1.0,1.0,0.0,0.0,1.0,0.0,100.0,1.0,1.1856,26.0,0.0,0.0,0.0,59.999996,0.0,26.0,26.0,26.0,26.0,-0.11099999999999999,0.26570000000000005,0.025733333333333334,289.886,-2.6197,-2.741,-1.49615,-1.6712,-173.95,215.9725,190.327875,0.0,0.0,0.0,0.0,0.06073333333333334,-5.498166666666667,-5.498166666666667,-0.6267,0.8725,-0.06925000000000026,0.31000000000000005,69.66,-0.0862,-0.24735000000000001,0.7920000000000007,100.0,1.0,1.0,214.74,0.0,0.0,0.0,0.0,0.0,0.0,0.0,9102.0,0.0,55.0,5.0,250.75,0.0,0.0,0.0,0.0,0.0,0.0,1.0,0.0,1.5060000000000002,1.5060000000000002,0.0,0.0,0.0,55.0,616.79921,10000.0,85.000001,85.000001,85.000001,85.000001,395.0,0.0,0.0,0.0,1.0,166.665,48.874,48.874,46.356,46.356,34.0,-29.0175,21.046,-33.983333333333334,26.715,0.0,1782.06,0.120000000000001,100.0,31.678,30.598,45.009,43.915,0.0,1.0,100.0,0.0,0.0,0.0,0.0,3469.4285714285716,3090.3,4314.625,4192.8,304.329,305.06175,314.39225,314.42425,22.0518,20.6751,22.0474,21.5452,314.999998,314.999998,324.999988,324.999988,99.55861428571428,99.50748333333334,99.56841428571428,99.54821428571428,0.027000000000000135,-0.14125,-0.19016666666666665,0.03133333333333333,-0.04999999999999716,-0.045000000000001705,1.4663333333333333,1.5026666666666668,38.824,30.2195,38.796,35.657,55.719,35.6665,59.8955,53.0775,53.688,34.7775,58.4615,51.3755,52.858999999999995,34.3255,58.3455,50.76466666666666,-0.09199999999999986,-0.10499999999999998,0.09677000000000001,0.11202000000000001,0.0,218.115,218.05,214.74,214.74,0.0,0.0
31,0.0,1.0,0.0,1.0,1.0,0.0,0.0,1.0,0.0,100.0,1.0,1.1856,26.0,0.0,0.0,0.0,59.999996,0.0,26.0,26.0,26.0,26.0,-0.08466666666666656,0.25550000000000006,0.004,289.825,-2.6864,-2.6212222222222223,-1.58345,-1.6618,-170.61,215.9625,190.303625,0.0,0.0,0.0,0.0,0.06266666666666666,-5.498166666666667,-5.498166666666667,-0.6192000000000001,-0.7845,-0.058499999999999996,-0.11399999999999988,69.78399999999999,-0.0728,-0.25685,0.41600000000000037,100.0,1.0,1.0,215.00666666666666,0.0,0.0,0.0,0.0,0.0,0.0,0.0,9113.4,0.0,55.0,5.0,251.19666666666666,1.0,0.0,0.0,0.0,0.0,0.0,1.0,0.0,1.5539999999999985,1.5539999999999985,0.0,0.0,1.0,55.0,616.79921,10000.0,85.000001,85.000001,85.000001,85.000001,395.0,0.0,0.0,0.0,1.0,333.33500000000004,49.454,49.454,45.074,45.074,34.0,-26.735,20.872,-35.623333333333335,28.07,0.0,1782.012,0.015000000000000568,100.0,31.248,30.683,45.501,44.527,0.0,1.0,100.0,0.0,0.0,0.0,0.0,3246.0,3128.7,4473.875,4247.1,305.192,305.009,314.004,314.38425,22.0606,20.6805,22.0575,21.554,314.999998,314.999998,324.999988,324.999988,99.55861428571428,99.5075,99.56855714285714,99.54835714285714,0.03825000000000012,-0.125,-0.1675,0.050166666666666665,-0.04833333333333201,-0.03999999999999915,1.4543333333333333,1.46,38.879000000000005,30.253,38.858999999999995,35.7125,55.706,35.707499999999996,59.937,53.137,53.675,34.815,58.5,51.433,52.845,34.3615,58.3815,50.82033333333333,-0.10250000000000004,-0.09050000000000002,0.09694000000000001,0.10892500000000001,0.0,218.445,218.39499999999998,215.00666666666666,215.00666666666666,0.0,0.0
32,0.0,1.0,0.0,1.0,1.0,0.0,0.0,1.0,0.0,100.0,1.0,1.1856,26.0,0.0,0.0,0.0,59.999996,0.0,26.0,26.0,26.0,26.0,-0.08155555555555549,0.27070000000000016,-0.0297,290.039,-2.593,-2.718777777777778,-1.6095000000000002,-1.5670000000000002,-166.84,215.95,190.2765,0.0,0.0,0.0,0.0,0.06486666666666667,-5.498166666666667,-5.498166666666667,-0.6394000000000001,0.23299999999999998,-0.07962500000000006,-0.2599999999999998,69.918,-0.0551,-0.265175,0.3160000000000007,100.0,1.0,1.0,215.56,0.0,0.0,0.0,0.0,0.0,0.0,0.0,9136.8,0.0,55.0,5.0,251.68,0.0,0.0,0.0,0.0,0.0,0.0,1.0,0.0,1.6080000000000005,1.6080000000000005,0.0,0.0,0.0,55.0,616.79921,10000.0,85.000001,85.000001,85.000001,85.000001,395.0,0.0,0.0,0.0,1.0,166.665,49.118,49.118,46.188,46.188,34.0,-26.25,21.9,-33.50333333333333,26.6825,0.0,1781.96,-0.03500000000000014,100.0,31.371,30.762,44.965,44.244,0.0,1.0,100.0,0.0,0.0,0.0,0.0,3327.714285714286,3094.7,4300.125,4221.5,304.743,304.94125,314.51125,314.5405,22.0707,20.6866,22.0685,21.5637,314.999998,314.999998,324.999988,324.999988,99.55862857142857,99.50751666666666,99.56871428571428,99.54851428571429,0.052000000000000046,-0.12024999999999997,-0.16066666666666665,0.061,-0.051666666666669414,-0.04833333333333201,1.5236666666666667,1.5376666666666665,38.942,30.291,38.928,35.772999999999996,55.693,35.7545,59.9765,53.198499999999996,53.663,34.8585,58.5375,51.492,52.831,34.403,58.415,50.878,-0.09899999999999998,-0.0950000000000002,0.10389000000000001,0.101985,0.0,218.875,218.835,215.56,215.56,0.0,0.0
33,0.0,1.0,0.0,1.0,1.0,0.0,0.0,1.0,0.0,100.0,1.0,1.1856,26.0,0.0,0.0,0.0,59.999996,0.0,26.0,26.0,26.0,26.0,-0.06144444444444441,0.25429999999999997,-0.03423333333333333,290.146,-2.6357,-2.7119999999999997,-1.545,-1.5829,-163.69,215.9375,190.252875,0.0,0.0,0.0,0.0,0.06670000000000001,-5.498166666666667,-5.498166666666667,-0.6401,-0.33750000000000013,-0.06999999999999984,0.6920000000000002,70.033,-0.0449,-0.24982500000000002,0.23399999999999999,100.0,1.0,1.0,215.83333333333331,0.0,0.0,0.0,0.0,0.0,0.0,0.0,9148.5,0.0,55.0,5.0,252.09333333333336,1.0,0.0,0.0,0.0,0.0,0.0,1.0,0.0,1.6529999999999987,1.6529999999999987,0.0,0.0,1.0,55.0,616.79921,10000.0,85.000001,85.000001,85.000001,85.000001,395.0,0.0,0.0,0.0,1.0,333.33500000000004,49.759,49.759,45.944,45.944,34.0,-24.9925,22.098,-32.82,28.302500000000002,0.0,1781.913,-0.16499999999999915,100.0,31.128,30.423000000000002,45.059,44.402,0.0,1.0,100.0,0.0,0.0,0.0,0.0,3200.142857142857,3023.6,4313.875,4280.2,305.2395,305.17975,314.3705,314.30875,22.0789,20.6915,22.0778,21.5719,314.999998,314.999998,324.999988,324.999988,99.55862857142857,99.50753333333333,99.56885714285714,99.54864285714285,0.05975000000000019,-0.09975,-0.155,0.07233333333333333,-0.051666666666669414,-0.04833333333333201,1.4733333333333334,1.488,38.992999999999995,30.3215,38.986000000000004,35.824,55.681,35.789500000000004,60.010999999999996,53.2515,53.650999999999996,34.891,58.5695,51.543,52.819,34.434,58.4445,50.92766666666667,-0.10749999999999993,-0.07750000000000012,0.10669000000000001,0.10880500000000001,0.0,219.22500000000002,219.2,215.83333333333331,215.83333333333331,0.0,0.0
34,0.0,1.0,0.0,1.0,1.0,0.0,0.0,1.0,0.0,100.0,1.0,1.1856,26.0,0.0,0.0,0.0,59.999996,0.0,26.0,26.0,26.0,26.0,-0.0441111111111111,0.25550000000000006,-0.06910000000000001,290.512,-2.6522,-2.663666666666667,-1.6125500000000001,-1.5988,-160.11,215.9225,190.225,0.0,0.0,0.0,0.0,0.06876666666666667,-5.498166666666667,-5.498166666666667,-0.6713,-0.794,-0.035250000000000004,0.5780000000000003,70.161,-0.030500000000000003,-0.259925,0.11000000000000032,100.0,1.0,1.0,216.29333333333335,0.0,0.0,0.0,0.0,0.0,0.0,0.0,9167.9,0.0,55.0,5.0,252.55666666666667,0.0,0.0,0.0,0.0,0.0,0.0,1.0,0.0,1.7040000000000006,1.7040000000000006,0.0,0.0,0.0,55.0,616.79921,10000.0,85.000001,85.000001,85.000001,85.000001,395.0,0.0,0.0,0.0,1.0,166.665,49.957,49.957,46.814,46.814,34.0,-24.384999999999998,22.244,-30.336666666666666,27.9575,0.0,1781.864,-0.18499999999999872,100.0,30.829,30.154,44.794,44.542,0.0,1.0,100.0,0.0,0.0,0.0,0.0,3151.4285714285716,3042.2,4087.5,4147.4,305.206,305.173,314.97225,314.57625,22.0882,20.697,22.0881,21.5811,314.999998,314.999998,324.999988,324.999988,99.55864285714286,99.50753333333333,99.56901428571429,99.54878571428571,0.07250000000000023,-0.08824999999999994,-0.1345,0.0825,-0.04999999999999716,-0.05333333333332746,1.5206666666666666,1.5143333333333335,39.052,30.3565,39.051,35.882,55.667,35.829,60.0475,53.312,53.638999999999996,34.927,58.6035,51.601,52.806,34.4685,58.4755,50.984,-0.10599999999999987,-0.07750000000000012,0.10374000000000001,0.10838500000000001,0.0,219.57999999999998,219.575,216.29333333333335,216.29333333333335,0.0,0.0
35,0.0,1.0,0.0,1.0,1.0,0.0,0.0,1.0,0.0,100.0,1.0,1.1856,26.0,0.0,0.0,0.0,59.999996,0.0,26.0,26.0,26.0,26.0,-0.016444444444444484,0.24380000000000002,-0.05193333333333334,290.527,-2.6616,-2.6421111111111113,-1.6029499999999999,-1.6064,-156.32,215.905,190.193125,0.0,0.0,0.0,0.0,0.07100000000000001,-5.498166666666667,-5.498166666666667,-0.7110000000000001,-0.13850000000000007,-0.03874999999999984,-0.524,70.295,-0.016300000000000002,-0.26285000000000003,-0.02799999999999958,100.0,1.0,1.0,216.79333333333335,0.0,0.0,0.0,0.0,0.0,0.0,0.0,9189.0,0.0,55.0,5.0,253.03666666666666,1.0,0.0,0.0,0.0,0.0,0.0,1.0,0.0,1.7579999999999991,1.7579999999999991,0.0,0.0,1.0,55.0,616.79921,10000.0,85.000001,85.000001,85.000001,85.000001,395.0,0.0,0.0,0.0,1.0,166.665,49.5,49.5,46.478,46.478,34.0,-24.669999999999998,25.458,-28.98,27.6225,0.0,1781.809,-0.19500000000000028,100.0,30.396,30.495,44.487,44.063,0.0,1.0,100.0,0.0,0.0,0.0,0.0,3248.5714285714284,3369.4,4003.75,3993.6000000000004,305.044,304.1415,315.1345,314.9955,22.0979,20.7032,22.0991,21.5907,314.999998,314.999998,324.999988,324.999988,99.55865714285714,99.50755,99.56915714285714,99.54895714285715,0.08400000000000007,-0.07550000000000001,-0.12566666666666668,0.10166666666666667,-0.051666666666669414,-0.030000000000001137,1.5466666666666666,1.5373333333333332,39.111999999999995,30.3945,39.119,35.942,55.652,35.873,60.085,53.3725,53.623999999999995,34.9675,58.6385,51.659,52.79,34.5075,58.507,51.04066666666667,-0.10699999999999998,-0.07450000000000001,0.107425,0.10787500000000001,0.0,220.015,219.98000000000002,216.79333333333335,216.79333333333335,0.0,0.0
36,0.0,1.0,0.0,1.0,1.0,0.0,0.0,1.0,0.0,100.0,1.0,1.1856,26.0,0.0,0.0,0.0,59.999996,0.0,26.0,26.0,26.0,26.0,-0.012555555555555542,0.27449999999999997,0.06053333333333334,289.688,-2.6116,-2.607333333333333,-1.5535,-1.605,-152.94,215.8875,190.163625,0.0,0.0,0.0,0.0,0.07293333333333334,-5.498166666666667,-5.498166666666667,-0.6880000000000001,0.18999999999999995,-0.07774999999999999,-0.657,70.418,-0.007200000000000001,-0.23195000000000002,0.05200000000000049,100.0,1.0,1.0,216.89666666666668,0.0,0.0,0.0,0.0,0.0,0.0,0.0,9193.5,0.0,55.0,5.0,253.47666666666666,0.0,0.0,0.0,0.0,0.0,0.0,1.0,0.0,1.806000000000001,1.806000000000001,0.0,0.0,0.0,55.0,616.79921,10000.0,85.000001,85.000001,85.000001,85.000001,395.0,0.0,0.0,0.0,1.0,166.665,49.393,49.393,45.609,45.609,34.0,-23.232499999999998,23.496,-32.526666666666664,33.5125,0.0,1781.761,-0.16000000000000014,100.0,30.943,30.692,44.644,44.429,0.0,1.0,100.0,0.0,0.0,0.0,0.0,3182.857142857143,3164.2,4479.375,4567.6,304.9945,304.7905,314.0015,313.6175,22.1068,20.7087,22.1089,21.5995,314.999998,314.999998,324.999988,324.999988,99.55865714285714,99.50756666666666,99.5693,99.5491,0.0987499999999999,-0.07174999999999998,-0.11866666666666667,0.11216666666666668,-0.07000000000000028,-0.023333333333326323,1.4453333333333334,1.4443333333333332,39.167,30.429000000000002,39.181,35.997,55.643,35.912,60.1215,53.431,53.614999999999995,35.004,58.6725,51.7155,52.78,34.542500000000004,58.5375,51.095666666666666,-0.10949999999999993,-0.07850000000000001,0.109655,0.11130500000000002,0.0,220.43,220.39,216.89666666666668,216.89666666666668,0.0,0.0
