,ABS Active,ABS Enabled,AID Allow Tire Blankets,AID Auto Blip,AID Auto Clutch,AID Auto Shift,AID Fuel Rate,AID Ideal Line,AID Mech Damage,AID Stability,AID Tire Wear Rate,Air Density,Air Temp,Ballast,Best Lap Delta,Best Lap Time,Brake Bias,Brake Pos,Brake Temp FL,Brake Temp FR,Brake Temp RL,Brake Temp RR,CG Accel Lateral,CG Accel Longitudinal,CG Accel Vertical,CG Height,Camber FL,Camber FR,Camber RL,Camber RR,Car Coord X,Car Coord Y,Car Coord Z,Car Damage Front,Car Damage Left,Car Damage Rear,Car Damage Right,Car Pos Norm,Caster FL,Caster FR,Chassis Pitch Angle,Chassis Pitch Rate,Chassis Roll Angle,Chassis Roll Rate,Chassis Velocity X,Chassis Velocity Y,Chassis Velocity Z,Chassis Yaw Rate,Clutch Pos,DRS Active,DRS Available,Drive Train Speed,ERS Heat Charging,ERS Is Charging,ERS Max Energy,ERS Power Level,ERS Recovery Level,Engine Brake Setting,Engine Limiter,Engine RPM,Flags,Fuel Level,Gear,Ground Speed,HR Sample Clock,In Pit,KERS Charge,KERS Deployed Energy,KERS Input,KERS Max Energy,LR Sample Clock,Lap Invalidated,Lap Time,Lap Time2,Last Lap Time,Last Sector Time,MR Sample Clock,Max Fuel,Max Power,Max RPM,Max Sus Travel FL,Max Sus Travel FR,Max Sus Travel RL,Max Sus Travel RR,Max Torque,Max Turbo Boost,Num Tires Off Track,Penalties Enabled,Position,Raw Data Sample Rate,Ride Height FL,Ride Height FR,Ride Height RL,Ride Height RR,Road Temp,Self Align Torque FL,Self Align Torque FR,Self Align Torque RL,Self Align Torque RR,Session Lap Count,Session Time Left,Steering Angle,Surface Grip,Suspension Travel FL,Suspension Travel FR,Suspension Travel RL,Suspension Travel RR,TC Active,TC Enabled,Throttle Pos,Tire Dirt Level FL,Tire Dirt Level FR,Tire Dirt Level RL,Tire Dirt Level RR,Tire Load FL,Tire Load FR,Tire Load RL,Tire Load RR,Tire Loaded Radius FL,Tire Loaded Radius FR,Tire Loaded Radius RL,Tire Loaded Radius RR,Tire Pressure FL,Tire Pressure FR,Tire Pressure RL,Tire Pressure RR,Tire Radius FL,Tire Radius FR,Tire Radius RL,Tire Radius RR,Tire Rubber Grip FL,Tire Rubber Grip FR,Tire Rubber Grip RL,Tire Rubber Grip RR,Tire Slip Angle FL,Tire Slip Angle FR,Tire Slip Angle RL,Tire Slip Angle RR,Tire Slip Ratio FL,Tire Slip Ratio FR,Tire Slip Ratio RL,Tire Slip Ratio RR,Tire Temp Core FL,Tire Temp Core FR,Tire Temp Core RL,Tire Temp Core RR,Tire Temp Inner FL,Tire Temp Inner FR,Tire Temp Inner RL,Tire Temp Inner RR,Tire Temp Middle FL,Tire Temp Middle FR,Tire Temp Middle RL,Tire Temp Middle RR,Tire Temp Outer FL,Tire Temp Outer FR,Tire Temp Outer RL,Tire Temp Outer RR,Toe In FL,Toe In FR,Toe In RL,Toe In RR,Turbo Boost,Wheel Angular Speed FL,Wheel Angular Speed FR,Wheel Angular Speed RL,Wheel Angular Speed RR,Wind Direction,Wind Speed
0,0.0,1.0,0.0,1.0,1.0,0.0,0.0,1.0,0.0,100.0,1.0,1.1856,26.0,0.0,0.0,0.0,59.99999,0.0,26.0,26.0,26.0,26.0,-0.0427777777777778,0.30889999999999995,0.15463333333333334,292.175,-2.6818,-2.4424444444444444,-1.5323,-1.5361111111111112,-275.67,215.84,190.986125,0.0,0.0,0.0,0.0,0.0015999999999999348,-5.498166666666667,-5.498166666666667,-0.5965,1.6125,-0.010250000000000092,-1.1560000000000001,65.512,-0.0378,-0.266025,0.5359999999999996,100.0,1.0,1.0,202.26333333333332,0.0,0.0,0.0,0.0,0.0,0.0,0.0,8573.2,0.0,55.0,5.0,235.81333333333333,0.0,0.0,0.0,0.0,0.0,0.0,0.0,0.0,0.0030000000000001137,0.0030000000000001137,0.0,0.0,0.0,55.0,616.79921,10000.0,85.0,85.0,85.0,85.0,395.0,0.0,0.0,0.0,1.0,20.0,49.072,49.072,48.751999999999995,48.751999999999995,34.0,-28.314999999999998,24.276,-30.426666666666666,25.0625,0.0,1783.58,0.5650000000000013,100.0,29.825,29.57,40.744,40.525999999999996,0.0,1.0,100.0,0.0,0.0,0.0,0.0,3272.857142857143,3865.1000000000004,4113.5,4029.9,304.946,302.3845,314.83425,314.744,21.7825,20.5223,21.7399,21.2867,314.99999,314.99999,324.99998,324.99998,99.55925714285715,99.50738333333334,99.56402857142857,99.54418571428572,0.007750000000000146,-0.13249999999999995,-0.15766666666666665,0.0665,-0.03833333333332689,-0.06666666666666998,1.5390000000000001,1.5695,37.141,29.264333333333333,36.873999999999995,34.042,56.394,34.6225,58.6905,51.315,54.324,33.781,57.334,49.6875,53.51,33.3365,57.3035,49.116,-0.04299999999999993,-0.133,0.10994000000000001,0.10451,0.0,205.29500000000002,205.26999999999998,202.26333333333332,202.26333333333332,0.0,0.0
1,0.0,1.0,0.0,1.0,1.0,0.0,0.0,1.0,0.0,100.0,1.0,1.1856,26.0,0.0,0.0,0.0,59.999996,0.0,26.0,26.0,26.0,26.0,-0.12055555555555553,0.31510000000000016,0.0013666666666666666,291.534,-2.602,-2.686888888888889,-1.5390000000000001,-1.3863333333333332,-272.33,215.85750000000002,190.96625,0.0,0.0,0.0,0.0,0.0035333333333333883,-5.498166666666667,-5.498166666666667,-0.5203,-0.938,-0.06325000000000003,-0.1080000000000001,65.669,-0.0488,-0.232025,1.0920000000000005,100.0,1.0,1.0,202.26999999999998,0.0,0.0,0.0,0.0,0.0,0.0,0.0,8573.4,0.0,55.0,5.0,236.37666666666667,1.0,0.0,0.0,0.0,0.0,0.0,0.0,0.0,0.053999999999998494,0.053999999999998494,0.0,0.0,1.0,55.0,616.79921,10000.0,85.000001,85.000001,85.000001,85.000001,395.0,0.0,0.0,0.0,1.0,333.33500000000004,51.743,51.743,47.592,47.592,34.0,-23.59,16.032,-37.36,29.3775,0.0,1783.527,0.7050000000000018,100.0,30.114,29.211,42.756,42.394,0.0,1.0,100.0,0.0,0.0,0.0,0.0,2877.0,2488.9,4657.625,5047.8,305.9295,306.848,313.36725,312.11725,21.7924,20.5275,21.750799999999998,21.2959,314.999998,314.999998,324.999988,324.999988,99.55925714285715,99.5074,99.56418571428571,99.54434285714285,0.01750000000000007,-0.13874999999999993,-0.168,0.04066666666666685,-0.03333333333333144,-0.01833333333333087,1.335,1.3875,37.203,29.296666666666667,36.942,34.0995,56.376999999999995,34.663,58.7395,51.3835,54.307,33.819,57.379999999999995,49.753,53.492999999999995,33.373,57.347,49.18033333333334,-0.03400000000000003,-0.13500000000000023,0.104355,0.10477,0.0,205.76,205.65,202.26999999999998,202.26999999999998,0.0,0.0
2,0.0,1.0,0.0,1.0,1.0,0.0,0.0,1.0,0.0,100.0,1.0,1.1856,26.0,0.0,0.0,0.0,59.999996,0.0,26.0,26.0,26.0,26.0,-0.12577777777777777,0.28380000000000005,-0.11636666666666667,292.923,-2.576,-2.661,-1.5051999999999999,-1.5464444444444443,-268.98,215.8725,190.947625,0.0,0.0,0.0,0.0,0.005499999999999949,-5.498166666666667,-5.498166666666667,-0.6037,0.276,-0.04375000000000018,1.601,65.807,-0.0597,-0.31122500000000003,1.4060000000000006,100.0,1.0,1.0,203.49,0.0,0.0,0.0,0.0,0.0,0.0,0.0,8625.3,0.0,55.0,5.0,236.87666666666667,0.0,0.0,0.0,0.0,0.0,0.0,0.0,0.0,0.10500000000000043,0.10500000000000043,0.0,0.0,0.0,55.0,616.79921,10000.0,85.000001,85.000001,85.000001,85.000001,395.0,0.0,0.0,0.0,1.0,166.665,50.11,50.11,50.613,50.613,34.0,-30.835,17.868,-27.163333333333334,17.5325,0.0,1783.478,0.875,100.0,30.338,29.237000000000002,42.396,41.469,0.0,1.0,100.0,0.0,0.0,0.0,0.0,3469.285714285714,2921.6,3619.375,3357.6,304.273,305.3295,315.98525,316.52,21.802599999999998,20.5325,21.7611,21.3045,314.999998,314.999998,324.999988,324.999988,99.55925714285715,99.50743333333334,99.56432857142858,99.54447142857143,-0.023249999999999993,-0.17274999999999996,-0.20700000000000002,0.017333333333333423,-0.07000000000000028,-0.06666666666666998,1.721,1.764,37.266,29.328333333333333,37.007,34.153,56.363,34.704,58.7775,51.4365,54.295,33.8565,57.4155,49.804,53.480000000000004,33.408500000000004,57.379999999999995,49.230333333333334,-0.025499999999999856,-0.16000000000000014,0.10261,0.09842500000000001,0.0,206.2,206.075,203.49,203.49,0.0,0.0
3,0.0,1.0,0.0,1.0,1.0,0.0,0.0,1.0,0.0,100.0,1.0,1.1856,26.0,0.0,0.0,0.0,59.999996,0.0,26.0,26.0,26.0,26.0,-0.12244444444444447,0.30469999999999997,0.03216666666666667,292.236,-2.6106,-2.671222222222222,-1.5037,-1.580111111111111,-265.81,215.885,190.928625,0.0,0.0,0.0,0.0,0.007333333333333303,-5.498166666666667,-5.498166666666667,-0.5439,0.5465,-0.014750000000000263,-2.042,65.952,-0.0801,-0.2338,1.2799999999999994,100.0,1.0,1.0,203.45333333333332,0.0,0.0,0.0,0.0,0.0,0.0,0.0,8623.6,0.0,55.0,5.0,237.39666666666668,1.0,0.0,0.0,0.0,0.0,0.0,0.0,0.0,0.1529999999999987,0.1529999999999987,0.0,0.0,1.0,55.0,616.79921,10000.0,85.000001,85.000001,85.000001,85.000001,395.0,0.0,0.0,0.0,1.0,166.665,51.178,51.178,47.821,47.821,34.0,-26.42,16.8,-36.099999999999994,24.1075,0.0,1783.43,0.865000000000002,100.0,29.998,29.556,42.291,41.66,0.0,1.0,100.0,0.0,0.0,0.0,0.0,3012.857142857143,2768.6,4459.625,4179.0,305.8805,305.79075,313.986,314.42775,21.811799999999998,20.5375,21.7708,21.3129,314.999998,314.999998,324.999988,324.999988,99.55927142857144,99.50745,99.56445714285714,99.54461428571429,-0.030999999999999917,-0.17525000000000002,-0.20333333333333334,0.011500000000000066,-0.060000000000002274,-0.05833333333333002,1.4555,1.4949999999999999,37.324,29.359333333333332,37.068,34.2055,56.347,34.7455,58.8155,51.498,54.278999999999996,33.894999999999996,57.451,49.863,53.464,33.445499999999996,57.413,49.288333333333334,-0.024499999999999966,-0.15600000000000014,0.09571,0.10693000000000001,0.0,206.69,206.585,203.45333333333332,203.45333333333332,0.0,0.0
4,0.0,1.0,0.0,1.0,1.0,0.0,0.0,1.0,0.0,100.0,1.0,1.1856,26.0,0.0,0.0,0.0,59.999996,0.0,26.0,26.0,26.0,26.0,-0.15644444444444439,0.2825,-0.024266666666666666,292.191,-2.6249,-2.749888888888889,-1.4432,-1.598,-262.45,215.89499999999998,190.908875,0.0,0.0,0.0,0.0,0.009299999999999975,-5.498166666666667,-5.498166666666667,-0.5799000000000001,-1.141,-0.0731250000000001,-0.1160000000000001,66.099,-0.09290000000000001,-0.282025,1.548,100.0,1.0,1.0,203.99666666666667,0.0,0.0,0.0,0.0,0.0,0.0,0.0,8646.7,0.0,55.0,5.0,237.93,0.0,0.0,0.0,0.0,0.0,0.0,0.0,0.0,0.20400000000000063,0.20400000000000063,0.0,0.0,0.0,55.0,616.79921,10000.0,85.000001,85.000001,85.000001,85.000001,395.0,0.0,0.0,0.0,1.0,333.33500000000004,50.507,50.507,48.462,48.462,34.0,-29.22,18.65,-32.849999999999994,21.692500000000003,0.0,1783.378,0.8900000000000006,100.0,30.316,29.259,43.120000000000005,41.745000000000005,0.0,1.0,100.0,0.0,0.0,0.0,0.0,3224.4285714285716,2966.8,4141.75,3829.7,305.003,305.47875,314.677,315.288,21.8216,20.5426,21.781399999999998,21.3218,314.999998,314.999998,324.999988,324.999988,99.55927142857144,99.50746666666667,99.5646,99.54474285714285,-0.03349999999999986,-0.1745,-0.22033333333333335,0.013166666666666549,-0.05833333333333002,-0.06833333333332803,1.525,1.5915,37.385,29.391,37.134,34.2615,56.331,34.787,58.86,51.5595,54.263999999999996,33.9335,57.4925,49.922,53.448,33.4825,57.451499999999996,49.346000000000004,-0.010999999999999899,-0.15900000000000025,0.10740500000000001,0.10783500000000001,0.0,207.085,206.965,203.99666666666667,203.99666666666667,0.0,0.0
5,0.0,1.0,0.0,1.0,1.0,0.0,0.0,1.0,0.0,100.0,1.0,1.1856,26.0,0.0,0.0,0.0,59.999996,0.0,26.0,26.0,26.0,26.0,-0.16755555555555557,0.31220000000000003,-0.0074333333333333335,292.328,-2.6359,-2.7125555555555554,-1.5131999999999999,-1.6236666666666668,-258.87,215.9,190.887625,0.0,0.0,0.0,0.0,0.011366666666666525,-5.498166666666667,-5.498166666666667,-0.5878,0.44099999999999995,-0.07399999999999984,1.075,66.254,-0.1097,-0.275575,1.4440000000000008,100.0,1.0,1.0,204.5233333333333,0.0,0.0,0.0,0.0,0.0,0.0,0.0,8669.0,0.0,55.0,5.0,238.48333333333335,1.0,0.0,0.0,0.0,0.0,0.0,0.0,0.0,0.2579999999999991,0.2579999999999991,0.0,0.0,1.0,55.0,616.79921,10000.0,85.000001,85.000001,85.000001,85.000001,395.0,0.0,0.0,0.0,1.0,166.665,50.491,50.491,49.025999999999996,49.025999999999996,34.0,-28.5425,18.154,-33.730000000000004,22.5175,0.0,1783.325,0.629999999999999,100.0,30.665,29.293,42.729,41.15,0.0,1.0,100.0,0.0,0.0,0.0,0.0,3161.0,2942.7,4089.0,4029.4,305.1005,305.545,314.86475,314.8955,21.8323,20.5481,21.7924,21.331,314.999998,314.999998,324.999988,324.999988,99.55928571428572,99.50748333333334,99.56475714285715,99.54488571428571,-0.027499999999999858,-0.1745,-0.23450000000000001,-0.00216666666666665,-0.061666666666667425,-0.05666666666667197,1.5535,1.5955,37.452,29.425333333333334,37.203,34.319,56.317,34.832499999999996,58.903,51.621,54.251000000000005,33.9755,57.533,49.981,53.433,33.5225,57.489,49.403666666666666,-0.04049999999999998,-0.13649999999999984,0.10330500000000001,0.109825,0.0,207.59,207.46,204.5233333333333,204.5233333333333,0.0,0.0
6,0.0,1.0,0.0,1.0,1.0,0.0,0.0,1.0,0.0,100.0,1.0,1.1856,26.0,0.0,0.0,0.0,59.999996,0.0,26.0,26.0,26.0,26.0,-0.16522222222222216,0.30600000000000005,0.009933333333333334,292.038,-2.5768,-2.772333333333333,-1.5345,-1.5915555555555556,-255.69,215.9025,190.868125,0.0,0.0,0.0,0.0,0.01323333333333332,-5.498166666666667,-5.498166666666667,-0.5796,-0.15700000000000003,-0.08112500000000011,0.81,66.393,-0.11130000000000001,-0.265925,1.154,100.0,1.0,1.0,204.84,0.0,0.0,0.0,0.0,0.0,0.0,0.0,8682.4,0.0,55.0,5.0,238.98333333333335,0.0,0.0,0.0,0.0,0.0,0.0,0.0,0.0,0.30600000000000094,0.30600000000000094,0.0,0.0,0.0,55.0,616.79921,10000.0,85.000001,85.000001,85.000001,85.000001,395.0,0.0,0.0,0.0,1.0,166.665,50.461,50.461,48.462,48.462,34.0,-27.52,17.938,-35.59,22.5925,0.0,1783.277,0.41499999999999915,100.0,30.798000000000002,29.393,42.962,41.326,0.0,1.0,100.0,0.0,0.0,0.0,0.0,3122.0,2882.9,4244.75,4087.3,305.2145,305.70475,314.4315,314.7365,21.8417,20.5529,21.8023,21.3394,314.999998,314.999998,324.999988,324.999988,99.55928571428572,99.5075,99.5649,99.54502857142857,-0.02499999999999991,-0.1825,-0.22783333333333336,-0.0016666666666665941,-0.041666666666671404,-0.05833333333333002,1.504,1.573,37.510999999999996,29.455333333333336,37.263999999999996,34.3715,56.303,34.8725,58.944,51.68,54.236999999999995,34.012,57.571,50.037,53.42,33.5575,57.524,49.458666666666666,-0.04600000000000004,-0.13350000000000017,0.10482500000000002,0.10312500000000001,0.0,208.0,207.905,204.84,204.84,0.0,0.0
7,0.0,1.0,0.0,1.0,1.0,0.0,0.0,1.0,0.0,100.0,1.0,1.1856,26.0,0.0,0.0,0.0,59.999996,0.0,26.0,26.0,26.0,26.0,-0.12177777777777776,0.27760000000000007,0.022500000000000003,291.763,-2.5431,-2.7655555555555558,-1.4919,-1.6391111111111112,-252.5,215.9,190.848625,0.0,0.0,0.0,0.0,0.015066666666666562,-5.498166666666667,-5.498166666666667,-0.5927,0.08499999999999996,-0.07100000000000017,1.2850000000000001,66.52799999999999,-0.1087,-0.2888,1.0679999999999996,100.0,1.0,1.0,205.31666666666666,0.0,0.0,0.0,0.0,0.0,0.0,0.0,8702.6,0.0,55.0,5.0,239.47333333333333,1.0,0.0,0.0,0.0,0.0,0.0,0.0,0.0,0.3539999999999992,0.3539999999999992,0.0,0.0,1.0,55.0,616.79921,10000.0,85.000001,85.000001,85.000001,85.000001,395.0,0.0,0.0,0.0,1.0,166.665,49.652,49.652,48.751999999999995,48.751999999999995,34.0,-27.307499999999997,20.6,-32.666666666666664,23.442500000000003,0.0,1783.229,0.11500000000000199,100.0,31.144,29.681,43.06,41.525,0.0,1.0,100.0,0.0,0.0,0.0,0.0,3268.4285714285716,3040.0,4058.5,4012.0,304.7325,305.14725,314.86575,314.881,21.8512,20.5578,21.8122,21.3478,314.999998,314.999998,324.999988,324.999988,99.55928571428572,99.50751666666666,99.56502857142857,99.54515714285715,0.007750000000000146,-0.14725,-0.21883333333333335,0.010499999999999954,-0.02833333333332888,-0.05833333333333002,1.5245,1.562,37.57,29.486,37.326,34.424,56.291,34.9125,58.9835,51.7375,54.226,34.049,57.6085,50.092,53.407,33.593,57.559,49.51233333333333,-0.08599999999999985,-0.09850000000000003,0.09879500000000001,0.11470500000000002,0.0,208.41,208.32999999999998,205.31666666666666,205.31666666666666,0.0,0.0
8,0.0,1.0,0.0,1.0,1.0,0.0,0.0,1.0,0.0,100.0,1.0,1.1856,26.0,0.0,0.0,0.0,59.999996,0.0,26.0,26.0,26.0,26.0,-0.10188888888888892,0.28310000000000013,0.018433333333333336,291.87,-2.6271,-2.690777777777778,-1.4771,-1.628888888888889,-249.1,215.89499999999998,190.828,0.0,0.0,0.0,0.0,0.017033333333333345,-5.498166666666667,-5.498166666666667,-0.5913,-0.5010000000000001,-0.06075000000000008,-1.214,66.674,-0.09620000000000001,-0.282675,0.6120000000000001,100.0,1.0,1.0,205.69666666666666,0.0,0.0,0.0,0.0,0.0,0.0,0.0,8718.7,0.0,55.0,5.0,239.99666666666667,0.0,0.0,0.0,0.0,0.0,0.0,0.0,0.0,0.40500000000000114,0.40500000000000114,0.0,0.0,0.0,55.0,616.79921,10000.0,85.000001,85.000001,85.000001,85.000001,395.0,0.0,0.0,0.0,1.0,166.665,50.278,50.278,48.111,48.111,34.0,-26.552500000000002,18.6,-34.17333333333333,23.9075,0.0,1783.178,0.019999999999999574,100.0,30.740000000000002,29.992,43.036,41.83,0.0,1.0,100.0,0.0,0.0,0.0,0.0,3140.714285714286,2868.2,4194.5,4035.0,305.4575,305.549,314.59925,314.7055,21.8611,20.563,21.8227,21.3568,314.999998,314.999998,324.999988,324.999988,99.55928571428572,99.50753333333333,99.56517142857143,99.5453,0.003750000000000142,-0.15100000000000002,-0.22633333333333336,0.014666666666666606,-0.051666666666669414,-0.03499999999999659,1.5070000000000001,1.5385,37.632,29.518666666666668,37.391999999999996,34.4795,56.274,34.954,59.025999999999996,51.799,54.21,34.0875,57.647999999999996,50.1515,53.391,33.6295,57.5955,49.57,-0.09399999999999986,-0.08749999999999991,0.10709,0.11345500000000001,0.0,208.845,208.78,205.69666666666666,205.69666666666666,0.0,0.0
9,0.0,1.0,0.0,1.0,1.0,0.0,0.0,1.0,0.0,100.0,1.0,1.1856,26.0,0.0,0.0,0.0,59.999996,0.0,26.0,26.0,26.0,26.0,-0.08566666666666656,0.2855000000000001,-0.015066666666666666,291.672,-2.5487,-2.7031111111111112,-1.5268000000000002,-1.584,-245.9,215.8875,190.80825,0.0,0.0,0.0,0.0,0.018899999999999917,-5.498166666666667,-5.498166666666667,-0.5954,0.5035000000000001,-0.06400000000000006,-0.41900000000000004,66.80799999999999,-0.0789,-0.28442500000000004,0.4640000000000004,100.0,1.0,1.0,206.19666666666666,0.0,0.0,0.0,0.0,0.0,0.0,0.0,8740.0,0.0,55.0,5.0,240.48000000000002,1.0,0.0,0.0,0.0,0.0,0.0,0.0,0.0,0.4529999999999994,0.4529999999999994,0.0,0.0,1.0,55.0,616.79921,10000.0,85.000001,85.000001,85.000001,85.000001,395.0,0.0,0.0,0.0,1.0,333.33500000000004,49.377,49.377,48.965,48.965,34.0,-27.8825,20.0,-32.28333333333333,23.2425,0.0,1783.128,-0.0799999999999983,100.0,31.066,30.195999999999998,42.774,41.7,0.0,1.0,100.0,0.0,0.0,0.0,0.0,3436.714285714286,2944.7,4079.125,4003.4,304.4565,305.29625,314.93975,314.8935,21.8705,20.568,21.8324,21.365099999999998,314.999998,314.999998,324.999988,324.999988,99.55928571428572,99.50756666666666,99.56532857142857,99.54544285714286,0.02499999999999991,-0.134,-0.203,0.022499999999999964,-0.06333333333333258,-0.03333333333333144,1.544,1.568,37.691,29.549999999999997,37.453,34.532,56.260999999999996,34.996,59.066,51.8585,54.197,34.126,57.6855,50.2085,53.376999999999995,33.667,57.629999999999995,49.626,-0.10050000000000003,-0.08749999999999991,0.106995,0.10247,0.0,209.26999999999998,209.21,206.19666666666666,206.19666666666666,0.0,0.0
10,0.0,1.0,0.0,1.0,1.0,0.0,0.0,1.0,0.0,100.0,1.0,1.1856,26.0,0.0,0.0,0.0,59.999996,0.0,26.0,26.0,26.0,26.0,-0.06366666666666665,0.2996000000000001,-0.026600000000000002,291.595,-2.6148,-2.702,-1.5019,-1.5596666666666668,-242.49,215.8775,190.7875,0.0,0.0,0.0,0.0,0.02089999999999992,-5.498166666666667,-5.498166666666667,-0.5779000000000001,-0.39549999999999996,-0.02574999999999994,2.097,66.95400000000001,-0.058,-0.272475,0.05200000000000138,100.0,1.0,1.0,206.48000000000002,0.0,0.0,0.0,0.0,0.0,0.0,0.0,8751.9,0.0,55.0,5.0,241.00666666666666,0.0,0.0,0.0,0.0,0.0,0.0,1.0,0.0,0.5040000000000013,0.5040000000000013,0.0,0.0,0.0,55.0,616.79921,10000.0,85.000001,85.000001,85.000001,85.000001,395.0,0.0,0.0,0.0,1.0,333.33500000000004,50.293,50.293,47.867,47.867,34.0,-22.375,20.75,-31.013333333333335,27.535,0.0,1783.077,-0.19500000000000028,100.0,31.203,30.019,43.191,42.196,0.0,1.0,100.0,0.0,0.0,0.0,0.0,2892.285714285714,2938.3,4205.875,4289.3,305.898,305.57775,314.491,314.2315,21.8804,20.5732,21.843,21.374200000000002,314.999998,314.999998,324.999988,324.999988,99.5593,99.50756666666666,99.56545714285714,99.54557142857144,0.05600000000000005,-0.10724999999999996,-0.15266666666666667,0.0648333333333333,-0.04833333333333201,-0.03166666666666629,1.498,1.4849999999999999,37.751999999999995,29.582666666666668,37.519,34.588499999999996,56.247,35.033500000000004,59.1065,51.919,54.184,34.1605,57.723,50.266,53.363,33.6995,57.665,49.68233333333333,-0.11099999999999999,-0.07650000000000023,0.09299500000000001,0.11116500000000001,0.0,209.7,209.67000000000002,206.48000000000002,206.48000000000002,0.0,0.0
11,0.0,1.0,0.0,1.0,1.0,0.0,0.0,1.0,0.0,100.0,1.0,1.1856,26.0,0.0,0.0,0.0,59.999996,0.0,26.0,26.0,26.0,26.0,-0.015444444444444483,0.29259999999999997,-0.07313333333333334,291.916,-2.6262,-2.6817777777777776,-1.5559,-1.5327777777777778,-239.07,215.8675,190.766625,0.0,0.0,0.0,0.0,0.022599999999999953,-5.498166666666667,-5.498166666666667,-0.6165,-0.2925,-0.00812500000000016,-0.806,67.094,-0.0392,-0.30055000000000004,0.02999999999999936,100.0,1.0,1.0,207.13666666666666,0.0,0.0,0.0,0.0,0.0,0.0,0.0,8779.7,0.0,55.0,5.0,241.51,1.0,0.0,0.0,0.0,0.0,0.0,1.0,0.0,0.5549999999999997,0.5549999999999997,0.0,0.0,1.0,55.0,616.79921,10000.0,85.000001,85.000001,85.000001,85.000001,395.0,0.0,0.0,0.0,1.0,333.33500000000004,49.606,49.606,49.057,49.057,34.0,-25.325,21.922,-28.313333333333333,24.3575,0.0,1783.026,-0.17999999999999972,100.0,30.809,30.412,42.652,42.216,0.0,1.0,100.0,0.0,0.0,0.0,0.0,3229.714285714286,3032.1,3863.5,3888.6000000000004,305.173,305.0205,315.4705,315.18,21.8901,20.5786,21.8533,21.3832,314.999998,314.999998,324.999988,324.999988,99.55931428571428,99.50758333333333,99.5656,99.54571428571428,0.052999999999999936,-0.10050000000000003,-0.15966666666666665,0.07816666666666672,-0.054999999999999716,-0.05833333333333002,1.6099999999999999,1.6055,37.813,29.616333333333333,37.583,34.6445,56.232,35.074,59.144,51.979,54.169,34.198,57.757999999999996,50.324,53.348,33.7355,57.697,49.739333333333335,-0.10599999999999987,-0.07799999999999985,0.10856,0.11445500000000002,0.0,210.11,210.10000000000002,207.13666666666666,207.13666666666666,0.0,0.0
12,0.0,1.0,0.0,1.0,1.0,0.0,0.0,1.0,0.0,100.0,1.0,1.1856,26.0,0.0,0.0,0.0,59.999996,0.0,26.0,26.0,26.0,26.0,-0.01488888888888884,0.2872000000000001,0.0244,291.443,-2.6474,-2.6693333333333333,-1.5252,-1.5824444444444443,-235.84,215.85500000000002,190.746,0.0,0.0,0.0,0.0,0.025466666666666526,-5.498166666666667,-5.498166666666667,-0.6044,0.38,-0.01725000000000021,-0.8959999999999999,67.229,-0.0236,-0.277675,-0.047999999999999154,100.0,1.0,1.0,207.39666666666668,0.0,0.0,0.0,0.0,0.0,0.0,0.0,8790.7,0.0,55.0,5.0,241.99666666666667,0.0,0.0,0.0,0.0,0.0,0.0,1.0,0.0,0.602999999999998,0.602999999999998,0.0,0.0,0.0,55.0,616.79921,10000.0,85.000001,85.000001,85.000001,85.000001,395.0,0.0,0.0,0.0,1.0,333.33500000000004,49.484,49.484,48.05,48.05,34.0,-24.715,22.323999999999998,-31.283333333333335,27.509999999999998,0.0,1782.979,-0.254999999999999,100.0,30.818,30.645,42.552,42.165,0.0,1.0,100.0,0.0,0.0,0.0,0.0,3246.285714285714,3046.1,4263.875,4116.0,305.0875,304.98025,314.51925,314.59525,21.8992,20.5838,21.8631,21.3916,314.999998,314.999998,324.999988,324.999988,99.55931428571428,99.50758333333333,99.56572857142856,99.54584285714286,0.0754999999999999,-0.09099999999999997,-0.14783333333333334,0.08533333333333326,-0.03499999999999659,-0.06333333333333258,1.516,1.5245,37.870000000000005,29.648666666666664,37.644,34.6975,56.219,35.112,59.1815,52.036500000000004,54.158,34.233000000000004,57.7935,50.379,53.335,33.7695,57.7295,49.793,-0.119,-0.07799999999999985,0.11288500000000001,0.100235,0.0,210.555,210.575,207.39666666666668,207.39666666666668,0.0,0.0
13,0.0,1.0,0.0,1.0,1.0,0.0,0.0,1.0,0.0,100.0,1.0,1.1856,26.0,0.0,0.0,0.0,59.999996,0.0,26.0,26.0,26.0,26.0,0.0018888888888888289,0.28180000000000005,0.039,291.092,-2.6189,-2.669888888888889,-1.5571000000000002,-1.5742222222222222,-232.41,215.8425,190.72425,0.0,0.0,0.0,0.0,0.026766666666666605,-5.498166666666667,-5.498166666666667,-0.5954,-0.11850000000000005,-0.012125000000000163,1.484,67.372,-0.0131,-0.28135,-0.25399999999999956,100.0,1.0,1.0,207.76999999999998,0.0,0.0,0.0,0.0,0.0,0.0,0.0,8806.7,0.0,55.0,5.0,242.51,1.0,0.0,0.0,0.0,0.0,0.0,1.0,0.0,0.6539999999999999,0.6539999999999999,0.0,0.0,1.0,55.0,616.79921,10000.0,85.000001,85.000001,85.000001,85.000001,395.0,0.0,0.0,0.0,1.0,333.33500000000004,49.301,49.301,47.836,47.836,34.0,-22.23,24.276,-29.9,30.6325,0.0,1782.928,-0.25,100.0,31.23,30.623,43.014,42.593,0.0,1.0,100.0,0.0,0.0,0.0,0.0,3121.4285714285716,3137.4,4175.75,4306.3,305.2165,304.9415,314.58825,314.206,21.909,20.5893,21.8736,21.4007,314.999998,314.999998,324.999988,324.999988,99.55932857142857,99.5076,99.56588571428571,99.546,0.10749999999999993,-0.05725000000000002,-0.122,0.11516666666666686,-0.04999999999999716,-0.05333333333332746,1.5,1.4849999999999999,37.931,29.683,37.71,34.7545,56.208,35.152,59.223,52.1005,54.146,34.269999999999996,57.8315,50.4405,53.323,33.805,57.765,49.853,-0.13149999999999995,-0.06450000000000022,0.11493,0.11116500000000001,0.0,210.99,210.98000000000002,207.76999999999998,207.76999999999998,0.0,0.0
14,0.0,1.0,0.0,1.0,1.0,0.0,0.0,1.0,0.0,100.0,1.0,1.1856,26.0,0.0,0.0,0.0,59.999996,0.0,26.0,26.0,26.0,26.0,0.010888888888888948,0.27690000000000015,0.004233333333333334,291.26,-2.6513999999999998,-2.605,-1.5649000000000002,-1.5474444444444444,-228.97,215.82999999999998,190.703,0.0,0.0,0.0,0.0,0.028766666666666607,-5.498166666666667,-5.498166666666667,-0.6082000000000001,-0.2015,0.011249999999999982,-0.577,67.512,-0.0006000000000000001,-0.2959,-0.1739999999999995,100.0,1.0,1.0,208.28,0.0,0.0,0.0,0.0,0.0,0.0,0.0,8828.3,0.0,55.0,5.0,243.01333333333332,0.0,0.0,0.0,0.0,0.0,0.0,1.0,0.0,0.7049999999999983,0.7049999999999983,0.0,0.0,0.0,55.0,616.79921,10000.0,85.000001,85.000001,85.000001,85.000001,395.0,0.0,0.0,0.0,1.0,333.33500000000004,49.271,49.271,48.096000000000004,48.096000000000004,34.0,-23.415,22.85,-28.92,28.05,0.0,1782.876,-0.3200000000000003,100.0,31.004,30.951,42.774,42.875,0.0,1.0,100.0,0.0,0.0,0.0,0.0,3157.142857142857,3132.6,4055.875,4112.3,305.3765,304.734,314.99025,314.593,21.9187,20.5948,21.884,21.4098,314.999998,314.999998,324.999988,324.999988,99.55932857142857,99.50761666666666,99.56602857142857,99.54614285714285,0.08775000000000022,-0.08174999999999999,-0.127,0.1060000000000001,-0.04999999999999716,-0.02833333333332888,1.534,1.5365,37.992000000000004,29.717333333333336,37.775,34.8115,56.195,35.192,59.2615,52.163,54.135,34.307,57.8675,50.5005,53.31,33.84,57.798,49.912,-0.11599999999999988,-0.07799999999999985,0.109835,0.108795,0.0,211.4,211.41,208.28,208.28,0.0,0.0
15,0.0,1.0,0.0,1.0,1.0,0.0,0.0,1.0,0.0,100.0,1.0,1.1856,26.0,0.0,0.0,0.0,59.999996,0.0,26.0,26.0,26.0,26.0,0.027444444444444382,0.2813000000000001,0.003633333333333334,291.183,-2.653,-2.633111111111111,-1.5814,-1.497111111111111,-225.73,215.8175,190.6825,0.0,0.0,0.0,0.0,0.0306333333333334,-5.498166666666667,-5.498166666666667,-0.6008,0.246,0.030750000000000055,-0.694,67.644,0.0059,-0.2817,-0.20999999999999996,100.0,1.0,1.0,208.65333333333334,0.0,0.0,0.0,0.0,0.0,0.0,0.0,8844.0,0.0,55.0,5.0,243.49,1.0,0.0,0.0,0.0,0.0,0.0,1.0,0.0,0.7530000000000001,0.7530000000000001,0.0,0.0,1.0,55.0,616.79921,10000.0,85.000001,85.000001,85.000001,85.000001,395.0,0.0,0.0,0.0,1.0,333.33500000000004,49.316,49.316,48.019,48.019,34.0,-22.294999999999998,23.274,-28.043333333333337,29.6575,0.0,1782.828,-0.3000000000000007,100.0,31.047,31.047,42.616,42.946,0.0,1.0,100.0,0.0,0.0,0.0,0.0,3086.714285714286,3077.5,4087.375,4280.6,305.5815,304.8035,314.937,314.20375,21.9279,20.6,21.8938,21.4184,314.999998,314.999998,324.999988,324.999988,99.55934285714285,99.50761666666666,99.56615714285714,99.54628571428572,0.10000000000000009,-0.0695,-0.09966666666666667,0.1213333333333333,-0.030000000000001137,-0.04999999999999716,1.524,1.503,38.049,29.75,37.836,34.865,56.185,35.229,59.297,52.2215,54.123999999999995,34.341499999999996,57.900999999999996,50.557,53.299,33.8735,57.8285,49.967333333333336,-0.12349999999999994,-0.0714999999999999,0.10232000000000001,0.10972000000000001,0.0,211.815,211.835,208.65333333333334,208.65333333333334,0.0,0.0
16,0.0,1.0,0.0,1.0,1.0,0.0,0.0,1.0,0.0,100.0,1.0,1.1856,26.0,0.0,0.0,0.0,59.999996,0.0,26.0,26.0,26.0,26.0,0.0301111111111112,0.26570000000000005,-0.021266666666666666,291.214,-2.7089,-2.583333333333333,-1.5554000000000001,-1.558,-222.07,215.805,190.65925,0.0,0.0,0.0,0.0,0.03276666666666661,-5.498166666666667,-5.498166666666667,-0.6203000000000001,-0.607,0.016249999999999876,-1.509,67.792,0.0089,-0.297775,-0.1299999999999999,100.0,1.0,1.0,209.12,0.0,0.0,0.0,0.0,0.0,0.0,0.0,8863.8,0.0,55.0,5.0,244.02333333333334,0.0,0.0,0.0,0.0,0.0,0.0,1.0,0.0,0.8069999999999986,0.8069999999999986,0.0,0.0,0.0,55.0,616.79921,10000.0,85.000001,85.000001,85.000001,85.000001,395.0,0.0,0.0,0.0,1.0,166.665,49.164,49.164,47.928,47.928,34.0,-24.365,23.622,-27.553333333333335,28.915,0.0,1782.777,-0.17999999999999972,100.0,30.786,31.137,42.854,43.0,0.0,1.0,100.0,0.0,0.0,0.0,0.0,3252.4285714285716,3166.3,4040.5,4035.7,305.2365,304.65625,315.0205,314.73025,21.9379,20.6059,21.9049,21.428,314.999998,314.999998,324.999988,324.999988,99.55935714285714,99.50763333333333,99.5663,99.54642857142858,0.09375,-0.06525000000000003,-0.10416666666666667,0.131,-0.051666666666669414,-0.03999999999999915,1.532,1.5294999999999999,38.111999999999995,29.786666666666665,37.905,34.925,56.169,35.2705,59.339,52.2875,54.11,34.379999999999995,57.94,50.6205,53.283,33.9105,57.8645,50.029666666666664,-0.11349999999999993,-0.07850000000000001,0.10440500000000001,0.10978,0.0,212.255,212.265,209.12,209.12,0.0,0.0
17,0.0,1.0,0.0,1.0,1.0,0.0,0.0,1.0,0.0,100.0,1.0,1.1856,26.0,0.0,0.0,0.0,59.999996,0.0,26.0,26.0,26.0,26.0,-0.006333333333333302,0.28770000000000007,0.016033333333333333,290.894,-2.6631,-2.5780000000000003,-1.5922,-1.5242222222222221,-218.61,215.79250000000002,190.63675,0.0,0.0,0.0,0.0,0.03476666666666661,-5.498166666666667,-5.498166666666667,-0.6061000000000001,0.40149999999999997,-0.005625000000000213,0.9139999999999999,67.931,0.0067,-0.276775,-0.11799999999999944,100.0,1.0,1.0,209.48666666666668,0.0,0.0,0.0,0.0,0.0,0.0,0.0,8879.3,0.0,55.0,5.0,244.52333333333334,1.0,0.0,0.0,0.0,0.0,0.0,1.0,0.0,0.8580000000000005,0.8580000000000005,0.0,0.0,1.0,55.0,616.79921,10000.0,85.000001,85.000001,85.000001,85.000001,395.0,0.0,0.0,0.0,1.0,166.665,49.133,49.133,47.546,47.546,34.0,-22.585,23.726,-30.303333333333335,30.7825,0.0,1782.725,-0.23000000000000043,100.0,31.337,31.009999999999998,42.869,42.826,0.0,1.0,100.0,0.0,0.0,0.0,0.0,3127.142857142857,3155.5,4321.0,4323.1,305.2735,304.907,314.3545,314.23275,21.9476,20.6115,21.9153,21.4371,314.999998,314.999998,324.999988,324.999988,99.55938571428571,99.50763333333333,99.56645714285715,99.54657142857143,0.10875000000000012,-0.05449999999999999,-0.09983333333333333,0.12983333333333325,-0.03999999999999915,-0.061666666666667425,1.5055,1.484,38.173,29.822,37.971000000000004,34.9815,56.159,35.311,59.3775,52.349000000000004,54.099999999999994,34.417500000000004,57.9755,50.6795,53.272,33.9465,57.897,50.087666666666664,-0.11349999999999993,-0.08150000000000013,0.10204,0.108475,0.0,212.71,212.74,209.48666666666668,209.48666666666668,0.0,0.0
18,0.0,1.0,0.0,1.0,1.0,0.0,0.0,1.0,0.0,100.0,1.0,1.1856,26.0,0.0,0.0,0.0,59.999996,0.0,26.0,26.0,26.0,26.0,-0.009666666666666601,0.29259999999999997,0.0019,290.787,-2.6856999999999998,-2.5564444444444443,-1.5998999999999999,-1.4775555555555557,-215.35,215.7825,190.61575,0.0,0.0,0.0,0.0,0.036666666666666514,-5.498166666666667,-5.498166666666667,-0.6199,-0.5075000000000001,0.01012499999999994,1.063,68.061,0.0043,-0.29252500000000003,-0.11799999999999944,100.0,1.0,1.0,209.89333333333332,0.0,0.0,0.0,0.0,0.0,0.0,0.0,8896.5,0.0,55.0,5.0,244.99333333333334,0.0,0.0,0.0,0.0,0.0,0.0,1.0,0.0,0.9059999999999988,0.9059999999999988,0.0,0.0,0.0,55.0,616.79921,10000.0,85.000001,85.000001,85.000001,85.000001,395.0,0.0,0.0,0.0,1.0,166.665,48.843,48.843,47.562,47.562,34.0,-23.3775,25.118,-29.056666666666665,29.1575,0.0,1782.677,-0.23499999999999943,100.0,31.272,30.983,43.152,43.115,0.0,1.0,100.0,0.0,0.0,0.0,0.0,3168.714285714286,3351.8,4124.375,4246.2,305.22,304.3505,314.78975,314.39325,21.9566,20.6167,21.9252,21.4457,314.999998,314.999998,324.999988,324.999988,99.55938571428571,99.50765,99.5666,99.54671428571429,0.10175000000000001,-0.055499999999999994,-0.10583333333333333,0.1266666666666667,-0.046666666666666856,-0.054999999999999716,1.5185,1.525,38.229,29.854333333333333,38.032,35.036,56.147,35.347,59.415,52.408500000000004,54.088,34.451,58.0105,50.7365,53.26,33.9785,57.929,50.14333333333333,-0.11399999999999988,-0.08050000000000024,0.109185,0.109005,0.0,213.095,213.085,209.89333333333332,209.89333333333332,0.0,0.0
19,0.0,1.0,0.0,1.0,1.0,0.0,0.0,1.0,0.0,100.0,1.0,1.1856,26.0,0.0,0.0,0.0,59.999996,0.0,26.0,26.0,26.0,26.0,-0.006000000000000005,0.2815000000000001,0.06863333333333334,290.359,-2.604,-2.662777777777778,-1.6106,-1.4652222222222222,-212.07999999999998,215.7725,190.594375,0.0,0.0,0.0,0.0,0.03856666666666653,-5.498166666666667,-5.498166666666667,-0.6098,0.9495,0.014375000000000027,0.883,68.19,0.003,-0.28442500000000004,-0.09999999999999964,100.0,1.0,1.0,210.2733333333333,0.0,0.0,0.0,0.0,0.0,0.0,0.0,8912.7,0.0,55.0,5.0,245.45666666666665,1.0,0.0,0.0,0.0,0.0,0.0,1.0,0.0,0.9540000000000006,0.9540000000000006,0.0,0.0,1.0,55.0,616.79921,10000.0,85.000001,85.000001,85.000001,85.000001,395.0,0.0,0.0,0.0,1.0,166.665,48.355000000000004,48.355000000000004,47.363,47.363,34.0,-22.7275,25.552,-30.346666666666664,30.5975,0.0,1782.629,-0.21499999999999986,100.0,31.676000000000002,31.347,43.01,43.095,0.0,1.0,100.0,0.0,0.0,0.0,0.0,3194.5714285714284,3297.3,4260.0,4449.3,304.968,304.2215,314.52225,313.9575,21.9658,20.6222,21.9349,21.4543,314.999998,314.999998,324.999988,324.999988,99.5594,99.50765,99.56672857142857,99.54685714285715,0.1080000000000001,-0.06599999999999995,-0.1055,0.12383333333333324,-0.04833333333333201,-0.054999999999999716,1.5015,1.4925,38.286,29.888333333333335,38.093,35.089,56.138,35.387,59.45,52.466499999999996,54.08,34.4875,58.043,50.793,53.25,34.013999999999996,57.9585,50.19833333333334,-0.11349999999999993,-0.08599999999999985,0.10547000000000001,0.10791500000000001,0.0,213.555,213.53,210.2733333333333,210.2733333333333,0.0,0.0
20,0.0,1.0,0.0,1.0,1.0,0.0,0.0,1.0,0.0,100.0,1.0,1.1856,26.0,0.0,0.0,0.0,59.999996,0.0,26.0,26.0,26.0,26.0,0.022777777777777786,0.27160000000000006,0.008666666666666668,290.802,-2.7031,-2.6126666666666667,-1.5358,-1.5892222222222223,-208.59,215.76,190.572,0.0,0.0,0.0,0.0,0.04059999999999997,-5.498166666666667,-5.498166666666667,-0.6102000000000001,-1.1455000000000002,0.007374999999999909,-1.367,68.32900000000001,0.0032,-0.28855000000000003,-0.04999999999999982,100.0,1.0,1.0,210.62666666666667,0.0,0.0,0.0,0.0,0.0,0.0,0.0,8927.7,0.0,55.0,5.0,245.95666666666665,0.0,0.0,0.0,0.0,0.0,0.0,0.0,0.0,1.004999999999999,1.004999999999999,0.0,0.0,0.0,55.0,616.79921,10000.0,85.000001,85.000001,85.000001,85.000001,395.0,0.0,0.0,0.0,1.0,166.665,49.53,49.53,46.967,46.967,34.0,-23.0525,22.084000000000003,-29.806666666666665,29.57,0.0,1782.578,-0.16999999999999815,100.0,31.0,31.258,43.546,43.684,0.0,1.0,100.0,0.0,0.0,0.0,0.0,3098.0,2982.8,4230.625,4175.3,305.693,305.18925,314.548,314.31975,21.9752,20.6277,21.9456,21.4635,314.999998,314.999998,324.999988,324.999988,99.55941428571428,99.50766666666667,99.56688571428572,99.547,0.09224999999999994,-0.07250000000000001,-0.11750000000000001,0.1060000000000001,-0.05333333333332746,-0.026666666666670835,1.4865,1.486,38.345,29.923000000000002,38.16,35.147,56.123999999999995,35.4255,59.4915,52.5305,54.066,34.5235,58.082,50.8545,53.235,34.048500000000004,57.9945,50.259,-0.11050000000000004,-0.08250000000000002,0.112265,0.09879,0.0,213.91500000000002,213.91,210.62666666666667,210.62666666666667,0.0,0.0
21,0.0,1.0,0.0,1.0,1.0,0.0,0.0,1.0,0.0,100.0,1.0,1.1856,26.0,0.0,0.0,0.0,59.999996,0.0,26.0,26.0,26.0,26.0,0.02055555555555566,0.27849999999999997,-0.06963333333333334,291.061,-2.6679,-2.618666666666667,-1.6018,-1.5484444444444443,-205.31,215.75,190.55025,0.0,0.0,0.0,0.0,0.04249999999999998,-5.498166666666667,-5.498166666666667,-0.6359,0.3295,-0.007249999999999979,-0.915,68.45400000000001,0.0006000000000000001,-0.294375,0.02800000000000047,100.0,1.0,1.0,211.22333333333333,0.0,0.0,0.0,0.0,0.0,0.0,0.0,8953.0,0.0,55.0,5.0,246.40666666666667,1.0,0.0,0.0,0.0,0.0,0.0,0.0,0.0,1.0530000000000008,1.0530000000000008,0.0,0.0,1.0,55.0,616.79921,10000.0,85.000001,85.000001,85.000001,85.000001,395.0,0.0,0.0,0.0,1.0,166.665,48.965,48.965,48.141,48.141,34.0,-24.56,22.972,-28.433333333333337,27.525,0.0,1782.53,-0.17999999999999972,100.0,31.203,31.282,43.007,43.198,0.0,1.0,100.0,0.0,0.0,0.0,0.0,3303.714285714286,3079.1,4071.0,3994.8,304.983,304.9215,315.05375,314.9625,21.9843,20.633,21.9552,21.472,314.999998,314.999998,324.999988,324.999988,99.55942857142857,99.50768333333333,99.56701428571428,99.54712857142857,0.09375,-0.07125000000000004,-0.11133333333333333,0.12016666666666675,-0.05666666666667197,-0.03833333333332689,1.589,1.5875,38.402,29.956333333333333,38.22,35.2,56.113,35.463499999999996,59.5245,52.585499999999996,54.056,34.5585,58.113,50.9075,53.224000000000004,34.082,58.0225,50.31066666666666,-0.11450000000000005,-0.07500000000000018,0.101165,0.116665,0.0,214.34,214.31,211.22333333333333,211.22333333333333,0.0,0.0
22,0.0,1.0,0.0,1.0,1.0,0.0,0.0,1.0,0.0,100.0,1.0,1.1856,26.0,0.0,0.0,0.0,59.999996,0.0,26.0,26.0,26.0,26.0,0.0032222222222222374,0.26880000000000015,-0.0074333333333333335,290.634,-2.5987,-2.672555555555556,-1.6014,-1.5322222222222222,-201.82,215.74,190.526625,0.0,0.0,0.0,0.0,0.044533333333333314,-5.498166666666667,-5.498166666666667,-0.6135,0.14749999999999996,0.008750000000000036,1.294,68.592,-0.0043,-0.27265,-0.0779999999999994,100.0,1.0,1.0,211.46,0.0,0.0,0.0,0.0,0.0,0.0,0.0,8963.1,0.0,55.0,5.0,246.90333333333334,0.0,0.0,0.0,0.0,0.0,0.0,0.0,0.0,1.1039999999999992,1.1039999999999992,0.0,0.0,0.0,55.0,616.79921,10000.0,85.000001,85.000001,85.000001,85.000001,395.0,0.0,0.0,0.0,1.0,166.665,49.21,49.21,46.982,46.982,34.0,-20.537499999999998,23.997999999999998,-30.72,31.085,0.0,1782.479,-0.2749999999999986,100.0,31.547,31.201999999999998,43.417,43.371,0.0,1.0,100.0,0.0,0.0,0.0,0.0,2905.714285714286,3133.2,4233.125,4399.0,305.8305,304.854,314.53075,314.05725,21.9939,20.6387,21.9657,21.4812,314.999998,314.999998,324.999988,324.999988,99.55944285714286,99.50768333333333,99.56715714285714,99.54728571428572,0.1030000000000002,-0.06725000000000003,-0.115,0.12116666666666687,-0.026666666666670835,-0.051666666666669414,1.474,1.4915,38.462,29.991666666666667,38.286,35.2575,56.102000000000004,35.504,59.565,52.649,54.045,34.596000000000004,58.1505,50.968,53.212,34.118,58.0565,50.370333333333335,-0.11549999999999994,-0.08099999999999996,0.10617000000000001,0.10890500000000002,0.0,214.76,214.765,211.46,211.46,0.0,0.0
23,0.0,1.0,0.0,1.0,1.0,0.0,0.0,1.0,0.0,100.0,1.0,1.1856,26.0,0.0,0.0,0.0,59.999996,0.0,26.0,26.0,26.0,26.0,0.018888888888888955,0.25760000000000005,-0.05736666666666666,290.588,-2.632,-2.619222222222222,-1.6499000000000001,-1.5987777777777779,-198.32,215.73000000000002,190.503125,0.0,0.0,0.0,0.0,0.046566666666666534,-5.498166666666667,-5.498166666666667,-0.6336,-0.244,0.0007500000000000284,-0.778,68.726,-0.0035,-0.298725,0.013999999999999346,100.0,1.0,1.0,211.98333333333335,0.0,0.0,0.0,0.0,0.0,0.0,0.0,8985.1,0.0,55.0,5.0,247.38666666666666,1.0,0.0,0.0,0.0,0.0,0.0,0.0,0.0,1.1550000000000011,1.1550000000000011,0.0,0.0,1.0,55.0,616.79921,10000.0,85.000001,85.000001,85.000001,85.000001,395.0,0.0,0.0,0.0,1.0,333.33500000000004,48.416,48.416,47.958,47.958,34.0,-25.072499999999998,23.366,-29.56,27.262500000000003,0.0,1782.427,-0.245000000000001,100.0,31.516,31.52,43.394999999999996,43.702,0.0,1.0,100.0,0.0,0.0,0.0,0.0,3399.285714285714,3092.0,4070.625,3954.3,304.6315,304.845,315.08475,314.94975,22.0035,20.6443,21.9762,21.4904,314.999998,314.999998,324.999988,324.999988,99.55944285714286,99.50768333333333,99.5673,99.54742857142857,0.09474999999999989,-0.06599999999999995,-0.11833333333333333,0.10216666666666674,-0.03999999999999915,-0.04999999999999716,1.55,1.554,38.522,30.027,38.351,35.315,56.09,35.544,59.6035,52.711,54.033,34.632999999999996,58.1865,51.028,53.2,34.1535,58.0895,50.428666666666665,-0.11850000000000005,-0.06950000000000012,0.10143500000000001,0.11092,0.0,215.15,215.15,211.98333333333335,211.98333333333335,0.0,0.0
24,0.0,1.0,0.0,1.0,1.0,0.0,0.0,1.0,0.0,100.0,1.0,1.1856,26.0,0.0,0.0,0.0,59.999996,0.0,26.0,26.0,26.0,26.0,0.011888888888888838,0.28500000000000014,-0.024866666666666665,290.802,-2.6591,-2.6207777777777777,-1.5739,-1.5323333333333333,-195.01,215.72,190.4805,0.0,0.0,0.0,0.0,0.04849999999999999,-5.498166666666667,-5.498166666666667,-0.6408,-0.4790000000000001,0.014999999999999902,-0.536,68.854,0.0005,-0.289925,-0.09399999999999942,100.0,1.0,1.0,212.27666666666667,0.0,0.0,0.0,0.0,0.0,0.0,0.0,8997.7,0.0,55.0,5.0,247.84666666666666,0.0,0.0,0.0,0.0,0.0,0.0,0.0,0.0,1.2029999999999994,1.2029999999999994,0.0,0.0,0.0,55.0,616.79921,10000.0,85.000001,85.000001,85.000001,85.000001,395.0,0.0,0.0,0.0,1.0,333.33500000000004,49.408,49.408,47.134,47.134,34.0,-22.4425,22.014000000000003,-30.726666666666663,28.3075,0.0,1782.379,-0.23000000000000043,100.0,31.333,31.376,43.316,43.586,0.0,1.0,100.0,0.0,0.0,0.0,0.0,3064.714285714286,2957.4,4315.125,4164.2,305.693,305.28025,314.393,314.51475,22.0124,20.6496,21.986,21.499,314.999998,314.999998,324.999988,324.999988,99.55945714285714,99.5077,99.56744285714285,99.54757142857143,0.09350000000000014,-0.07025000000000003,-0.1135,0.10516666666666685,-0.061666666666667425,-0.04333333333332945,1.509,1.5165,38.578,30.059666666666665,38.413,35.369,56.078,35.58,59.64,52.769,54.022,34.6665,58.22,51.0835,53.188,34.186,58.1205,50.483000000000004,-0.11299999999999999,-0.0794999999999999,0.10203000000000001,0.10178000000000001,0.0,215.575,215.54000000000002,212.27666666666667,212.27666666666667,0.0,0.0
25,0.0,1.0,0.0,1.0,1.0,0.0,0.0,1.0,0.0,100.0,1.0,1.1856,26.0,0.0,0.0,0.0,59.999996,0.0,26.0,26.0,26.0,26.0,0.020777777777777784,0.26839999999999997,-0.021366666666666666,290.604,-2.7209,-2.587888888888889,-1.5848,-1.5406666666666669,-191.29,215.71,190.45375,0.0,0.0,0.0,0.0,0.05066666666666653,-5.498166666666667,-5.498166666666667,-0.6703,0.14700000000000002,0.01475000000000004,-1.1840000000000002,68.993,0.0015,-0.29907500000000004,-0.04999999999999982,100.0,1.0,1.0,212.82999999999998,0.0,0.0,0.0,0.0,0.0,0.0,0.0,9021.0,0.0,55.0,5.0,248.35000000000002,1.0,0.0,0.0,0.0,0.0,0.0,0.0,0.0,1.256999999999998,1.256999999999998,0.0,0.0,1.0,55.0,616.79921,10000.0,85.000001,85.000001,85.000001,85.000001,395.0,0.0,0.0,0.0,1.0,166.665,48.218,48.218,47.928,47.928,34.0,-25.615,25.098,-28.03333333333333,27.995,0.0,1782.327,-0.28000000000000114,100.0,31.342,31.537,43.037,43.32,0.0,1.0,100.0,0.0,0.0,0.0,0.0,3425.285714285714,3326.7,4011.0,4048.5,304.6905,304.15675,315.162,314.79525,22.0224,20.6556,21.9969,21.5086,314.999998,314.999998,324.999988,324.999988,99.55948571428571,99.5077,99.5676,99.54772857142858,0.10400000000000009,-0.0655,-0.11333333333333333,0.11966666666666681,-0.046666666666666856,-0.041666666666671404,1.5525,1.571,38.64,30.097666666666665,38.480999999999995,35.429,56.065,35.6235,59.678,52.832,54.009,34.7065,58.2555,51.1445,53.174,34.2245,58.1525,50.54266666666666,-0.11850000000000005,-0.07850000000000001,0.10444500000000001,0.111295,0.0,216.0,215.99,212.82999999999998,212.82999999999998,0.0,0.0
26,0.0,1.0,0.0,1.0,1.0,0.0,0.0,1.0,0.0,100.0,1.0,1.1856,26.0,0.0,0.0,0.0,59.999996,0.0,26.0,26.0,26.0,26.0,0.014555555555555655,0.2763,0.05856666666666666,289.734,-2.6814,-2.6606666666666667,-1.6381000000000001,-1.5301111111111112,-187.98000000000002,215.7,190.42975,0.0,0.0,0.0,0.0,0.05256666666666654,-5.498166666666667,-5.498166666666667,-0.6259,0.8335,0.002874999999999961,-0.8450000000000002,69.122,0.004200000000000001,-0.2667,-0.15399999999999991,100.0,1.0,1.0,212.98333333333335,0.0,0.0,0.0,0.0,0.0,0.0,0.0,9027.6,0.0,55.0,5.0,248.81,0.0,0.0,0.0,0.0,0.0,0.0,0.0,0.0,1.3049999999999997,1.3049999999999997,0.0,0.0,0.0,55.0,616.79921,10000.0,85.000001,85.000001,85.000001,85.000001,395.0,0.0,0.0,0.0,1.0,333.33500000000004,48.400999999999996,48.400999999999996,46.219,46.219,34.0,-23.79,23.518,-34.45666666666666,32.1325,0.0,1782.278,-0.33999999999999986,100.0,31.826,31.937,43.586,43.829,0.0,1.0,100.0,0.0,0.0,0.0,0.0,3278.857142857143,3039.9,4597.875,4493.5,305.0035,304.88225,313.783,313.7225,22.0315,20.6612,22.0069,21.5174,314.999998,314.999998,324.999988,324.999988,99.5595,99.50771666666667,99.56774285714286,99.54787142857143,0.11100000000000021,-0.06399999999999995,-0.11433333333333333,0.11749999999999994,-0.03166666666666629,-0.03999999999999915,1.448,1.4255,38.697,30.132333333333335,38.543,35.4835,56.057,35.663,59.716499999999996,52.891999999999996,54.001999999999995,34.7435,58.2915,51.202,53.165,34.2595,58.1855,50.599000000000004,-0.1279999999999999,-0.0714999999999999,0.11120000000000001,0.107435,0.0,216.425,216.425,212.98333333333335,212.98333333333335,0.0,0.0
27,0.0,1.0,0.0,1.0,1.0,0.0,0.0,1.0,0.0,100.0,1.0,1.1856,26.0,0.0,0.0,0.0,59.999996,0.0,26.0,26.0,26.0,26.0,0.02244444444444449,0.2538,-0.0381,290.222,-2.6504,-2.623666666666667,-1.6296,-1.6014444444444444,-184.66,215.69,190.406625,0.0,0.0,0.0,0.0,0.05449999999999999,-5.498166666666667,-5.498166666666667,-0.6496000000000001,-1.2285,0.004624999999999879,-1.0590000000000002,69.24600000000001,0.0103,-0.3014,-0.20999999999999996,100.0,1.0,1.0,213.46666666666667,0.0,0.0,0.0,0.0,0.0,0.0,0.0,9048.1,0.0,55.0,5.0,249.26,1.0,0.0,0.0,0.0,0.0,0.0,0.0,0.0,1.352999999999998,1.352999999999998,0.0,0.0,1.0,55.0,616.79921,10000.0,85.000001,85.000001,85.000001,85.000001,395.0,0.0,0.0,0.0,1.0,333.33500000000004,48.798,48.798,46.509,46.509,34.0,-22.6225,23.148,-30.416666666666664,29.3375,0.0,1782.229,-0.28999999999999915,100.0,31.511,31.794,44.174,44.403,0.0,1.0,100.0,0.0,0.0,0.0,0.0,3142.142857142857,3076.7,4184.0,4051.1000000000004,305.487,304.906,314.70625,314.692,22.0403,20.6665,22.0169,21.5262,314.999998,314.999998,324.999988,324.999988,99.5595,99.50773333333333,99.56788571428571,99.548,0.10250000000000004,-0.06899999999999995,-0.113,0.12083333333333335,-0.054999999999999716,-0.05333333333332746,1.5,1.5005,38.751999999999995,30.165666666666667,38.605999999999995,35.539,56.045,35.6995,59.754999999999995,52.951499999999996,53.989999999999995,34.777,58.3275,51.2595,53.153,34.292,58.2185,50.655,-0.12050000000000005,-0.07699999999999996,0.105245,0.10640000000000001,0.0,216.74,216.745,213.46666666666667,213.46666666666667,0.0,0.0
28,0.0,1.0,0.0,1.0,1.0,0.0,0.0,1.0,0.0,100.0,1.0,1.1856,26.0,0.0,0.0,0.0,59.999996,0.0,26.0,26.0,26.0,26.0,0.030888888888888966,0.26690000000000014,-0.05346666666666666,290.283,-2.6325,-2.613666666666667,-1.6211,-1.5732222222222223,-180.91,215.6825,190.3795,0.0,0.0,0.0,0.0,0.05669999999999997,-5.498166666666667,-5.498166666666667,-0.6611,0.7155,-0.0036249999999999893,-0.7589999999999999,69.383,0.013300000000000001,-0.28665,-0.16799999999999926,100.0,1.0,1.0,213.99666666666667,0.0,0.0,0.0,0.0,0.0,0.0,0.0,9070.5,0.0,55.0,5.0,249.75333333333333,0.0,0.0,0.0,0.0,0.0,0.0,0.0,0.0,1.407,1.407,0.0,0.0,0.0,55.0,616.79921,10000.0,85.000001,85.000001,85.000001,85.000001,395.0,0.0,0.0,0.0,1.0,166.665,48.37,48.37,47.318,47.318,34.0,-23.29,23.904,-29.566666666666663,29.375,0.0,1782.176,-0.3200000000000003,100.0,31.744,31.846,43.479,43.826,0.0,1.0,100.0,0.0,0.0,0.0,0.0,3259.5714285714284,3134.1,4181.5,4155.8,305.005,304.69775,314.86225,314.60375,22.0504,20.6727,22.0278,21.535800000000002,314.999998,314.999998,324.999988,324.999988,99.55952857142857,99.50773333333333,99.56802857142857,99.54815714285715,0.10924999999999985,-0.06174999999999997,-0.1075,0.11883333333333335,-0.04999999999999716,-0.03833333333332689,1.5495,1.5374999999999999,38.815,30.204333333333334,38.673,35.599000000000004,56.035,35.743,59.7915,53.013999999999996,53.980000000000004,34.817,58.361,51.3195,53.141999999999996,34.3305,58.2485,50.71366666666667,-0.127,-0.07450000000000001,0.105205,0.10779000000000001,0.0,217.215,217.22,213.99666666666667,213.99666666666667,0.0,0.0
29,0.0,1.0,0.0,1.0,1.0,0.0,0.0,1.0,0.0,100.0,1.0,1.1856,26.0,0.0,0.0,0.0,59.999996,0.0,26.0,26.0,26.0,26.0,0.03944444444444439,0.2593000000000001,0.018066666666666665,290.024,-2.6189999999999998,-2.6624444444444446,-1.5756999999999999,-1.5473333333333332,-177.57999999999998,215.6725,190.354625,0.0,0.0,0.0,0.0,0.058633333333333315,-5.498166666666667,-5.498166666666667,-0.6625,-0.7404999999999999,0.0006249999999998757,-1.0380000000000003,69.51,0.0167,-0.28592500000000004,-0.29600000000000026,100.0,1.0,1.0,214.20666666666668,0.0,0.0,0.0,0.0,0.0,0.0,0.0,9079.4,0.0,55.0,5.0,250.21,1.0,0.0,0.0,0.0,0.0,0.0,0.0,0.0,1.4549999999999983,1.4549999999999983,0.0,0.0,1.0,55.0,616.79921,10000.0,85.000001,85.000001,85.000001,85.000001,395.0,0.0,0.0,0.0,1.0,333.33500000000004,48.644999999999996,48.644999999999996,46.463,46.463,34.0,-22.315,24.112000000000002,-30.076666666666664,30.830000000000002,0.0,1782.126,-0.33500000000000085,100.0,31.479,31.806,43.92,44.197,0.0,1.0,100.0,0.0,0.0,0.0,0.0,3212.285714285714,3098.7,4268.0,4285.9,305.3025,304.75425,314.47975,314.1735,22.0591,20.678,22.0377,21.5446,314.999998,314.999998,324.999988,324.999988,99.55952857142857,99.50773333333333,99.56817142857143,99.5483,0.11525000000000007,-0.0615,-0.10266666666666667,0.12250000000000005,-0.04999999999999716,-0.041666666666671404,1.4545,1.461,38.870000000000005,30.237666666666666,38.736000000000004,35.653999999999996,56.022999999999996,35.778999999999996,59.83,53.073499999999996,53.969,34.851,58.397,51.3765,53.129000000000005,34.363,58.2815,50.769666666666666,-0.1279999999999999,-0.07100000000000017,0.11196,0.09949000000000001,0.0,217.57999999999998,217.57999999999998,214.20666666666668,214.20666666666668,0.0,0.0
30,0.0,1.0,0.0,1.0,1.0,0.0,0.0,1.0,0.0,100.0,1.0,1.1856,26.0,0.0,0.0,0.0,59.999996,0.0,26.0,26.0,26.0,26.0,0.032444444444444276,0.26080000000000014,0.0053,289.581,-2.6764,-2.5553333333333335,-1.5473,-1.6064444444444443,-174.24,215.66500000000002,190.32975,0.0,0.0,0.0,0.0,0.060566666666666547,-5.498166666666667,-5.498166666666667,-0.6632,0.95,-0.003375000000000128,-0.7370000000000001,69.63,0.0222,-0.29352500000000004,-0.2779999999999996,100.0,1.0,1.0,214.69,0.0,0.0,0.0,0.0,0.0,0.0,0.0,9099.9,0.0,55.0,5.0,250.64333333333335,0.0,0.0,0.0,0.0,0.0,0.0,1.0,0.0,1.5030000000000001,1.5030000000000001,0.0,0.0,0.0,55.0,616.79921,10000.0,85.000001,85.000001,85.000001,85.000001,395.0,0.0,0.0,0.0,1.0,166.665,47.318,47.318,47.043,47.043,34.0,-25.435,24.857999999999997,-27.83,30.6375,0.0,1782.08,-0.28000000000000114,100.0,32.131,32.266,43.696,44.152,0.0,1.0,100.0,0.0,0.0,0.0,0.0,3516.142857142857,3277.4,4185.0,4145.6,304.271,304.14975,314.7595,314.50125,22.0682,20.6837,22.0475,21.5533,314.999998,314.999998,324.999988,324.999988,99.55955714285714,99.50775,99.56831428571428,99.54844285714286,0.11825000000000019,-0.05874999999999997,-0.088,0.1293333333333333,-0.05833333333333002,-0.041666666666671404,1.5175,1.4995,38.927,30.273333333333333,38.797,35.7085,56.016,35.8195,59.8635,53.131,53.962,34.8885,58.4285,51.432,53.120999999999995,34.399,58.31,50.82366666666667,-0.12850000000000006,-0.0794999999999999,0.10699000000000002,0.10129500000000001,0.0,217.985,218.0,214.69,214.69,0.0,0.0
31,0.0,1.0,0.0,1.0,1.0,0.0,0.0,1.0,0.0,100.0,1.0,1.1856,26.0,0.0,0.0,0.0,59.999996,0.0,26.0,26.0,26.0,26.0,0.037111111111111095,0.248,0.016133333333333336,289.429,-2.7224,-2.5842222222222224,-1.5961,-1.5007777777777778,-170.48000000000002,215.66,190.302625,0.0,0.0,0.0,0.0,0.06276666666666653,-5.498166666666667,-5.498166666666667,-0.6423,-0.5920000000000001,0.004874999999999963,-1.1430000000000002,69.77,0.020300000000000002,-0.284875,-0.2160000000000002,100.0,1.0,1.0,214.99,0.0,0.0,0.0,0.0,0.0,0.0,0.0,9112.6,0.0,55.0,5.0,251.14666666666665,1.0,0.0,0.0,0.0,0.0,0.0,1.0,0.0,1.5569999999999986,1.5569999999999986,0.0,0.0,1.0,55.0,616.79921,10000.0,85.000001,85.000001,85.000001,85.000001,395.0,0.0,0.0,0.0,1.0,166.665,48.08,48.08,45.578,45.578,34.0,-23.0775,25.003999999999998,-30.386666666666663,30.14,0.0,1782.026,-0.370000000000001,100.0,31.907,32.326,44.473,44.914,0.0,1.0,100.0,0.0,0.0,0.0,0.0,3229.0,3255.4,4335.625,4202.3,305.331,304.429,314.3265,314.342,22.0781,20.6899,22.058799999999998,21.563299999999998,314.999998,314.999998,324.999988,324.999988,99.55957142857143,99.50775,99.56847142857143,99.5486,0.12199999999999989,-0.052749999999999964,-0.0925,0.133,-0.054999999999999716,-0.02499999999999858,1.4575,1.4415,38.988,30.311999999999998,38.867000000000004,35.771,56.004000000000005,35.8625,59.907,53.199,53.951,34.928,58.469,51.4975,53.108999999999995,34.4375,58.347,50.888,-0.12749999999999995,-0.07650000000000023,0.10415500000000001,0.10683500000000001,0.0,218.39499999999998,218.38,214.99,214.99,0.0,0.0
32,0.0,1.0,0.0,1.0,1.0,0.0,0.0,1.0,0.0,100.0,1.0,1.1856,26.0,0.0,0.0,0.0,59.999996,0.0,26.0,26.0,26.0,26.0,0.022666666666666613,0.2683,0.006,289.566,-2.6302,-2.6573333333333333,-1.5697,-1.568,-166.91,215.6525,190.276875,0.0,0.0,0.0,0.0,0.0648333333333333,-5.498166666666667,-5.498166666666667,-0.6647000000000001,-0.23750000000000004,-0.022625000000000117,0.6119999999999999,69.898,0.0223,-0.29805000000000004,-0.387999999999999,100.0,1.0,1.0,215.45666666666668,0.0,0.0,0.0,0.0,0.0,0.0,0.0,9132.4,0.0,55.0,5.0,251.60666666666668,0.0,0.0,0.0,0.0,0.0,0.0,1.0,0.0,1.6080000000000005,1.6080000000000005,0.0,0.0,0.0,55.0,616.79921,10000.0,85.000001,85.000001,85.000001,85.000001,395.0,0.0,0.0,0.0,1.0,166.665,48.08,48.08,46.356,46.356,34.0,-21.8275,25.608,-27.866666666666667,32.6375,0.0,1781.976,-0.33999999999999986,100.0,32.164,32.095,44.364000000000004,44.566,0.0,1.0,100.0,0.0,0.0,0.0,0.0,3180.142857142857,3244.6,4187.5,4358.8,305.126,304.60675,314.622,314.207,22.0875,20.6958,22.0692,21.5726,314.999998,314.999998,324.999988,324.999988,99.55958571428572,99.50776666666667,99.56862857142858,99.54875714285714,0.12950000000000017,-0.04849999999999999,-0.07833333333333332,0.14683333333333337,-0.021666666666668277,-0.06333333333333258,1.5125,1.4969999999999999,39.047,30.348666666666666,38.932,35.8285,55.994,35.903,59.9435,53.2595,53.941,34.9655,58.503,51.556,53.098,34.4735,58.378,50.945,-0.12549999999999994,-0.0754999999999999,0.10744000000000001,0.10819500000000001,0.0,218.765,218.8,215.45666666666668,215.45666666666668,0.0,0.0
33,0.0,1.0,0.0,1.0,1.0,0.0,0.0,1.0,0.0,100.0,1.0,1.1856,26.0,0.0,0.0,0.0,59.999996,0.0,26.0,26.0,26.0,26.0,0.038000000000000034,0.2593000000000001,-0.020533333333333334,289.856,-2.6784,-2.632777777777778,-1.5887,-1.5943333333333334,-163.76999999999998,215.6475,190.25325,0.0,0.0,0.0,0.0,0.06666666666666654,-5.498166666666667,-5.498166666666667,-0.6735,-0.268,-0.016249999999999876,-0.3919999999999999,70.012,0.0224,-0.291125,-0.22200000000000042,100.0,1.0,1.0,215.80666666666667,0.0,0.0,0.0,0.0,0.0,0.0,0.0,9147.3,0.0,55.0,5.0,252.01666666666665,1.0,0.0,0.0,0.0,0.0,0.0,1.0,0.0,1.6529999999999987,1.6529999999999987,0.0,0.0,1.0,55.0,616.79921,10000.0,85.000001,85.000001,85.000001,85.000001,395.0,0.0,0.0,0.0,1.0,166.665,48.385999999999996,48.385999999999996,46.555,46.555,34.0,-22.8175,23.631999999999998,-30.053333333333335,31.015,0.0,1781.93,-0.33999999999999986,100.0,31.906,32.147,44.052,44.492000000000004,0.0,1.0,100.0,0.0,0.0,0.0,0.0,3224.0,3066.0,4241.625,4233.1,305.2865,304.90575,314.61525,314.3705,22.0957,20.7009,22.0784,21.5808,314.999998,314.999998,324.999988,324.999988,99.5596,99.50776666666667,99.56875714285714,99.54888571428572,0.11925000000000008,-0.05874999999999997,-0.10816666666666667,0.125,-0.05833333333333002,-0.03999999999999915,1.504,1.4795,39.098,30.380333333333333,38.989999999999995,35.8795,55.985,35.937,59.9765,53.313,53.932,34.997,58.534,51.607,53.088,34.5035,58.4055,50.99466666666667,-0.131,-0.07799999999999985,0.11311500000000001,0.098945,0.0,219.14499999999998,219.14499999999998,215.80666666666667,215.80666666666667,0.0,0.0
34,0.0,1.0,0.0,1.0,1.0,0.0,0.0,1.0,0.0,100.0,1.0,1.1856,26.0,0.0,0.0,0.0,59.999996,0.0,26.0,26.0,26.0,26.0,0.023555555555555552,0.25250000000000017,-0.03246666666666667,290.131,-2.6117,-2.6335555555555556,-1.6491,-1.5567777777777778,-160.19,215.64249999999998,190.225375,0.0,0.0,0.0,0.0,0.06873333333333331,-5.498166666666667,-5.498166666666667,-0.7027,-0.8495000000000001,0.011624999999999996,1.284,70.14,0.0213,-0.29915,-0.2860000000000005,100.0,1.0,1.0,216.20333333333332,0.0,0.0,0.0,0.0,0.0,0.0,0.0,9164.0,0.0,55.0,5.0,252.48000000000002,0.0,0.0,0.0,0.0,0.0,0.0,1.0,0.0,1.7040000000000006,1.7040000000000006,0.0,0.0,0.0,55.0,616.79921,10000.0,85.000001,85.000001,85.000001,85.000001,395.0,0.0,0.0,0.0,1.0,333.33500000000004,48.676,48.676,47.18,47.18,34.0,-20.4375,24.752000000000002,-28.446666666666665,31.7425,0.0,1781.877,-0.3150000000000013,100.0,31.957,31.705,43.896,44.384,0.0,1.0,100.0,0.0,0.0,0.0,0.0,3054.142857142857,3125.2,4094.875,4249.5,305.5405,304.9165,314.913,314.3945,22.105,20.7066,22.0888,21.5901,314.999998,314.999998,324.999988,324.999988,99.55961428571429,99.50778333333334,99.5689,99.54902857142856,0.13375000000000004,-0.03974999999999995,-0.08383333333333333,0.14933333333333332,-0.04833333333333201,-0.05333333333332746,1.505,1.5,39.156,30.416,39.055,35.938,55.973,35.9745,60.0125,53.375,53.921,35.032,58.567,51.6665,53.076,34.537,58.4355,51.053,-0.1299999999999999,-0.0714999999999999,0.10663,0.11130500000000002,0.0,219.515,219.51999999999998,216.20333333333335,216.20333333333332,0.0,0.0
35,0.0,1.0,0.0,1.0,1.0,0.0,0.0,1.0,0.0,100.0,1.0,1.1856,26.0,0.0,0.0,0.0,59.999996,0.0,26.0,26.0,26.0,26.0,0.044666666666666854,0.25429999999999997,-0.014933333333333335,290.146,-2.677,-2.571111111111111,-1.6206,-1.5152222222222222,-156.61,215.64,190.1955,0.0,0.0,0.0,0.0,0.07079999999999997,-5.498166666666667,-5.498166666666667,-0.7443000000000001,-0.23350000000000004,-0.008375000000000021,-1.323,70.267,0.0235,-0.308225,-0.2060000000000004,100.0,1.0,1.0,216.66,0.0,0.0,0.0,0.0,0.0,0.0,0.0,9183.4,0.0,55.0,5.0,252.93666666666667,1.0,0.0,0.0,0.0,0.0,0.0,1.0,0.0,1.754999999999999,1.754999999999999,0.0,0.0,1.0,55.0,616.79921,10000.0,85.000001,85.000001,85.000001,85.000001,395.0,0.0,0.0,0.0,1.0,166.665,48.187,48.187,46.844,46.844,34.0,-23.27,25.71,-27.946666666666665,28.627499999999998,0.0,1781.828,-0.19500000000000028,100.0,31.492,32.075,43.591,43.921,0.0,1.0,100.0,0.0,0.0,0.0,0.0,3250.5714285714284,3361.8,4109.875,4003.9,305.153,304.052,314.8925,314.93675,22.1141,20.7125,22.0991,21.5992,314.999998,314.999998,324.999988,324.999988,99.55962857142858,99.50778333333334,99.56905714285715,99.54918571428571,0.11549999999999994,-0.05625000000000002,-0.083,0.14366666666666683,-0.060000000000002274,-0.04833333333333201,1.5485,1.5385,39.213,30.453,39.119,35.995,55.96,36.015,60.048,53.432,53.909,35.0695,58.6,51.7215,53.062,34.573499999999996,58.4655,51.107,-0.11699999999999999,-0.08300000000000018,0.10196000000000001,0.111975,0.0,219.905,219.925,216.66,216.66,0.0,0.0
36,0.0,1.0,0.0,1.0,1.0,0.0,0.0,1.0,0.0,100.0,1.0,1.1856,26.0,0.0,0.0,0.0,59.999996,0.0,26.0,26.0,26.0,26.0,0.031222222222222262,0.258,0.0059,289.459,-2.6008,-2.6132222222222223,-1.5694,-1.5574444444444444,-153.24,215.6375,190.166125,0.0,0.0,0.0,0.0,0.07276666666666654,-5.498166666666667,-5.498166666666667,-0.7191000000000001,0.44399999999999995,-0.049875000000000114,-1.4,70.389,0.0183,-0.27245,0.0259999999999998,100.0,1.0,1.0,216.84333333333333,0.0,0.0,0.0,0.0,0.0,0.0,0.0,9191.1,0.0,55.0,5.0,253.37333333333333,0.0,0.0,0.0,0.0,0.0,0.0,1.0,0.0,1.8030000000000008,1.8030000000000008,0.0,0.0,0.0,55.0,616.79921,10000.0,85.000001,85.000001,85.000001,85.000001,395.0,0.0,0.0,0.0,1.0,166.665,48.141,48.141,46.341,46.341,34.0,-22.9,23.52,-31.33,33.0275,0.0,1781.78,-0.14999999999999858,100.0,31.918,32.249,43.81,44.237,0.0,1.0,100.0,0.0,0.0,0.0,0.0,3277.857142857143,3092.8,4464.25,4467.7,304.873,304.853,314.094,313.8175,22.123,20.7181,22.1089,21.608,314.999998,314.999998,324.999988,324.999988,99.55964285714286,99.50778333333334,99.5692,99.54932857142857,0.11699999999999999,-0.06225000000000003,-0.09716666666666668,0.1306666666666667,-0.04333333333332945,-0.045000000000001705,1.4445000000000001,1.4455,39.269,30.488333333333333,39.181,36.05,55.951,36.054,60.0835,53.49,53.9,35.106,58.632999999999996,51.7775,53.053,34.608000000000004,58.4955,51.16166666666666,-0.11650000000000005,-0.08999999999999986,0.10270000000000001,0.11379500000000001,0.0,220.32,220.325,216.84333333333336,216.84333333333333,0.0,0.0
