,ABS Active,ABS Enabled,AID Allow Tire Blankets,AID Auto Blip,AID Auto Clutch,AID Auto Shift,AID Fuel Rate,AID Ideal Line,AID Mech Damage,AID Stability,AID Tire Wear Rate,Air Density,Air Temp,Ballast,Best Lap Delta,Best Lap Time,Brake Bias,Brake Pos,Brake Temp FL,Brake Temp FR,Brake Temp RL,Brake Temp RR,CG Accel Lateral,CG Accel Longitudinal,CG Accel Vertical,CG Height,Camber FL,Camber FR,Camber RL,Camber RR,Car Coord X,Car Coord Y,Car Coord Z,Car Damage Front,Car Damage Left,Car Damage Rear,Car Damage Right,Car Pos Norm,Caster FL,Caster FR,Chassis Pitch Angle,Chassis Pitch Rate,Chassis Roll Angle,Chassis Roll Rate,Chassis Velocity X,Chassis Velocity Y,Chassis Velocity Z,Chassis Yaw Rate,Clutch Pos,DRS Active,DRS Available,Drive Train Speed,ERS Heat Charging,ERS Is Charging,ERS Max Energy,ERS Power Level,ERS Recovery Level,Engine Brake Setting,Engine Limiter,Engine RPM,Flags,Fuel Level,Gear,Ground Speed,HR Sample Clock,In Pit,KERS Charge,KERS Deployed Energy,KERS Input,KERS Max Energy,LR Sample Clock,Lap Invalidated,Lap Time,Lap Time2,Last Lap Time,Last Sector Time,MR Sample Clock,Max Fuel,Max Power,Max RPM,Max Sus Travel FL,Max Sus Travel FR,Max Sus Travel RL,Max Sus Travel RR,Max Torque,Max Turbo Boost,Num Tires Off Track,Penalties Enabled,Position,Raw Data Sample Rate,Ride Height FL,Ride Height FR,Ride Height RL,Ride Height RR,Road Temp,Self Align Torque FL,Self Align Torque FR,Self Align Torque RL,Self Align Torque RR,Session Lap Count,Session Time Left,Steering Angle,Surface Grip,Suspension Travel FL,Suspension Travel FR,Suspension Travel RL,Suspension Travel RR,TC Active,TC Enabled,Throttle Pos,Tire Dirt Level FL,Tire Dirt Level FR,Tire Dirt Level RL,Tire Dirt Level RR,Tire Load FL,Tire Load FR,Tire Load RL,Tire Load RR,Tire Loaded Radius FL,Tire Loaded Radius FR,Tire Loaded Radius RL,Tire Loaded Radius RR,Tire Pressure FL,Tire Pressure FR,Tire Pressure RL,Tire Pressure RR,Tire Radius FL,Tire Radius FR,Tire Radius RL,Tire Radius RR,Tire Rubber Grip FL,Tire Rubber Grip FR,Tire Rubber Grip RL,Tire Rubber Grip RR,Tire Slip Angle FL,Tire Slip Angle FR,Tire Slip Angle RL,Tire Slip Angle RR,Tire Slip Ratio FL,Tire Slip Ratio FR,Tire Slip Ratio RL,Tire Slip Ratio RR,Tire Temp Core FL,Tire Temp Core FR,Tire Temp Core RL,Tire Temp Core RR,Tire Temp Inner FL,Tire Temp Inner FR,Tire Temp Inner RL,Tire Temp Inner RR,Tire Temp Middle FL,Tire Temp Middle FR,Tire Temp Middle RL,Tire Temp Middle RR,Tire Temp Outer FL,Tire Temp Outer FR,Tire Temp Outer RL,Tire Temp Outer RR,Toe In FL,Toe In FR,Toe In RL,Toe In RR,Turbo Boost,Wheel Angular Speed FL,Wheel Angular Speed FR,Wheel Angular Speed RL,Wheel Angular Speed RR,Wind Direction,Wind Speed
0,0.0,0.0,0.0,1.0,1.0,0.0,0.0,1.0,0.0,0.0,1.0,1.1856,26.0,0.0,0.0,0.0,59.99999,0.0,26.0,26.0,26.0,26.0,-0.030555555555555558,0.30380000000000007,0.11460000000000001,293.213,-2.7393,-2.4694000000000003,-1.52875,-1.5146000000000002,-275.5,215.685,190.986375,0.0,0.0,0.0,0.0,0.0017000000000000001,-5.498166666666667,-5.498166666666667,-0.5518000000000001,2.3736666666666664,-0.007333333333333414,-0.7269999999999999,65.513,-0.035,-0.218725,0.22600000000000087,100.0,1.0,1.0,202.23000000000002,0.0,0.0,0.0,0.0,0.0,0.0,0.0,8571.8,0.0,55.0,5.0,235.81333333333333,0.0,0.0,0.0,0.0,0.0,0.0,0.0,0.0,0.006000000000000227,0.006000000000000227,0.0,0.0,0.0,55.0,616.79921,10000.0,85.0,85.0,85.0,85.0,395.0,0.0,0.0,0.0,1.0,20.0,51.132,51.132,48.569,48.569,34.0,-28.6425,27.038333333333334,-29.75,26.57,0.0,1783.052,0.4299999999999997,100.0,27.442,27.519,40.423,40.049,0.0,0.0,100.0,0.0,0.0,0.0,0.0,3222.714285714286,3935.4,4156.625,4161.6,304.915,301.95725,314.72775,314.53025,21.7678,20.5109,21.7714,21.3146,314.99999,314.99999,324.99998,324.99998,99.55848571428571,99.50708333333333,99.56504285714286,99.54521428571428,0.00633333333333308,-0.10333333333333328,-0.13766666666666666,0.08283333333333333,-0.023333333333326323,-0.046666666666666856,1.5434999999999999,1.549,37.049,29.192999999999998,37.071,34.216499999999996,56.159,34.3715,59.0005,51.6455,54.085,33.581,57.629999999999995,50.0015,53.257999999999996,33.1785,57.5935,49.425666666666665,-0.04299999999999993,-0.10699999999999998,0.10360000000000001,0.10750000000000001,0.0,205.285,205.25,202.23000000000002,202.23000000000002,0.0,0.0
1,0.0,0.0,0.0,1.0,1.0,0.0,0.0,1.0,0.0,0.0,1.0,1.1856,26.0,0.0,0.0,0.0,59.999996,0.0,26.0,26.0,26.0,26.0,-0.1012222222222221,0.3105,0.2291,292.648,-2.6486,-2.7106,-1.54275,-1.3847,-272.15,215.7025,190.9665,0.0,0.0,0.0,0.0,0.003633333333333334,-5.498166666666667,-5.498166666666667,-0.4828,-1.9186666666666667,-0.056111111111111445,-0.6680000000000001,65.67,-0.040400000000000005,-0.18982500000000002,0.9600000000000009,100.0,1.0,1.0,202.21666666666667,0.0,0.0,0.0,0.0,0.0,0.0,0.0,8571.3,0.0,55.0,5.0,236.38,1.0,0.0,0.0,0.0,0.0,0.0,0.0,0.0,0.05699999999999861,0.05699999999999861,0.0,0.0,1.0,55.0,616.79921,10000.0,85.000001,85.000001,85.000001,85.000001,395.0,0.0,0.0,0.0,1.0,333.33500000000004,54.275999999999996,54.275999999999996,47.76,47.76,34.0,-24.6925,16.428333333333335,-37.49666666666667,29.9525,0.0,1783.001,0.5599999999999987,100.0,27.421,26.919,42.522999999999996,42.964,0.0,0.0,100.0,0.0,0.0,0.0,0.0,2933.714285714286,2453.7,4665.25,5042.1,305.9765,307.001,313.33825,312.02725,21.7775,20.5157,21.7823,21.323999999999998,314.999998,314.999998,324.999988,324.999988,99.55848571428571,99.5071,99.5652,99.54537142857143,0.005666666666666931,-0.12233333333333318,-0.16433333333333336,0.04566666666666667,-0.06499999999999773,-0.051666666666669414,1.2985,1.3535,37.11,29.223333333333336,37.138999999999996,34.275,56.141,34.408500000000004,59.0485,51.7155,54.068,33.615,57.675,50.0685,53.241,33.2115,57.635999999999996,49.49133333333333,-0.022499999999999964,-0.11650000000000005,0.10473500000000001,0.10796000000000001,0.0,205.75,205.66500000000002,202.21666666666667,202.21666666666667,0.0,0.0
2,0.0,0.0,0.0,1.0,1.0,0.0,0.0,1.0,0.0,0.0,1.0,1.1856,26.0,0.0,0.0,0.0,59.999996,0.0,26.0,26.0,26.0,26.0,-0.11511111111111105,0.2943,-0.10263333333333333,294.098,-2.6253,-2.6676,-1.52315,-1.5196,-268.8,215.715,190.94775,0.0,0.0,0.0,0.0,0.0056,-5.498166666666667,-5.498166666666667,-0.5710000000000001,0.758,-0.016666666666666607,2.62,65.806,-0.053700000000000005,-0.264925,1.1820000000000004,100.0,1.0,1.0,203.54666666666668,0.0,0.0,0.0,0.0,0.0,0.0,0.0,8627.6,0.0,55.0,5.0,236.87333333333333,0.0,0.0,0.0,0.0,0.0,0.0,0.0,0.0,0.10800000000000054,0.10800000000000054,0.0,0.0,0.0,55.0,616.79921,10000.0,85.000001,85.000001,85.000001,85.000001,395.0,0.0,0.0,0.0,1.0,333.33500000000004,52.246,52.246,50.919,50.919,34.0,-28.54,20.866666666666667,-25.763333333333335,18.725,0.0,1782.949,0.620000000000001,100.0,28.238,27.131,41.888,41.28,0.0,0.0,100.0,0.0,0.0,0.0,0.0,3268.5714285714284,3093.1,3529.125,3427.3,304.7,304.94725,316.228,316.412,21.7876,20.5208,21.7926,21.3324,314.999998,314.999998,324.999988,324.999988,99.55848571428571,99.5071,99.56532857142857,99.5455,-0.0023333333333332984,-0.1299999999999999,-0.19016666666666665,0.04583333333333334,-0.041666666666671404,-0.06333333333333258,1.7395,1.7895,37.173,29.255333333333333,37.204,34.3275,56.128,34.4495,59.0835,51.7645,54.055,33.6525,57.707499999999996,50.116,53.227000000000004,33.2475,57.6655,49.538,-0.026499999999999968,-0.12749999999999995,0.10468500000000001,0.11124500000000001,0.0,206.19,206.095,203.54666666666668,203.54666666666668,0.0,0.0
3,0.0,0.0,0.0,1.0,1.0,0.0,0.0,1.0,0.0,0.0,1.0,1.1856,26.0,0.0,0.0,0.0,59.999996,0.0,26.0,26.0,26.0,26.0,-0.11022222222222211,0.2924,0.1371,293.228,-2.644,-2.7042,-1.5042499999999999,-1.4981,-265.64,215.725,190.928625,0.0,0.0,0.0,0.0,0.0074333333333333335,-5.498166666666667,-5.498166666666667,-0.5024000000000001,0.42733333333333334,-0.01088888888888917,-1.034,65.95400000000001,-0.06570000000000001,-0.187975,0.8920000000000012,100.0,1.0,1.0,203.4,0.0,0.0,0.0,0.0,0.0,0.0,0.0,8621.4,0.0,55.0,5.0,237.4,1.0,0.0,0.0,0.0,0.0,0.0,0.0,0.0,0.1559999999999988,0.1559999999999988,0.0,0.0,1.0,55.0,616.79921,10000.0,85.000001,85.000001,85.000001,85.000001,395.0,0.0,0.0,0.0,1.0,333.33500000000004,53.436,53.436,47.775,47.775,34.0,-25.4025,19.163333333333334,-35.06,25.3375,0.0,1782.901,0.7699999999999996,100.0,27.793,27.144,42.198,41.695,0.0,0.0,100.0,0.0,0.0,0.0,0.0,2922.0,2905.6,4479.25,4239.8,305.9875,305.57675,313.88,314.2625,21.7968,20.5258,21.8024,21.3409,314.999998,314.999998,324.999988,324.999988,99.5585,99.50713333333333,99.56547142857143,99.54564285714285,-0.015666666666666718,-0.14300000000000002,-0.17833333333333334,0.04566666666666667,-0.05666666666667197,-0.036666666666668846,1.4495,1.4729999999999999,37.230000000000004,29.286,37.265,34.3805,56.111999999999995,34.49,59.122,51.826499999999996,54.04,33.69,57.7435,50.1755,53.211,33.283,57.699,49.596333333333334,-0.020499999999999963,-0.131,0.10547500000000001,0.11243000000000002,0.0,206.66500000000002,206.59,203.4,203.4,0.0,0.0
4,0.0,0.0,0.0,1.0,1.0,0.0,0.0,1.0,0.0,0.0,1.0,1.1856,26.0,0.0,0.0,0.0,59.999996,0.0,26.0,26.0,26.0,26.0,-0.12844444444444447,0.2956000000000001,-0.03616666666666667,293.564,-2.6398,-2.7800000000000002,-1.4474,-1.5897999999999999,-262.07,215.735,190.908125,0.0,0.0,0.0,0.0,0.0095,-5.498166666666667,-5.498166666666667,-0.5371,-0.8273333333333334,-0.0645555555555557,0.3540000000000001,66.108,-0.0742,-0.23845000000000002,1.3279999999999994,100.0,1.0,1.0,204.05333333333334,0.0,0.0,0.0,0.0,0.0,0.0,0.0,8649.1,0.0,55.0,5.0,237.96,0.0,0.0,0.0,0.0,0.0,0.0,0.0,0.0,0.21000000000000085,0.21000000000000085,0.0,0.0,0.0,55.0,616.79921,10000.0,85.000001,85.000001,85.000001,85.000001,395.0,0.0,0.0,0.0,1.0,166.665,53.162,53.162,48.798,48.798,34.0,-28.5125,19.725,-31.33,22.04,0.0,1782.848,0.8300000000000018,100.0,27.738,26.701999999999998,42.885,41.705,0.0,0.0,100.0,0.0,0.0,0.0,0.0,3175.4285714285716,2948.0,4087.375,3788.8,305.0945,305.50875,314.8285,315.409,21.8072,20.5311,21.8137,21.3503,314.999998,314.999998,324.999988,324.999988,99.5585,99.50713333333333,99.56562857142858,99.54578571428571,-0.024333333333333318,-0.15166666666666662,-0.2015,0.028833333333333332,-0.051666666666669414,-0.06499999999999773,1.551,1.5945,37.295,29.319333333333333,37.336,34.439499999999995,56.095,34.533500000000004,59.167,51.888999999999996,54.024,33.730000000000004,57.786,50.235,53.195,33.3215,57.7385,49.654666666666664,-0.007000000000000006,-0.139,0.10604000000000001,0.103815,0.0,207.085,206.995,204.05333333333334,204.05333333333334,0.0,0.0
5,0.0,0.0,0.0,1.0,1.0,0.0,0.0,1.0,0.0,0.0,1.0,1.1856,26.0,0.0,0.0,0.0,59.999996,0.0,26.0,26.0,26.0,26.0,-0.13255555555555554,0.3045,-0.032100000000000004,293.793,-2.6948,-2.7356,-1.5019,-1.609,-258.9,215.74,190.88925,0.0,0.0,0.0,0.0,0.011366666666666667,-5.498166666666667,-5.498166666666667,-0.5383,0.5473333333333333,-0.05755555555555558,0.7570000000000001,66.244,-0.09000000000000001,-0.21975,1.3640000000000008,100.0,1.0,1.0,204.53333333333333,0.0,0.0,0.0,0.0,0.0,0.0,0.0,8669.5,0.0,55.0,5.0,238.45,1.0,0.0,0.0,0.0,0.0,0.0,0.0,0.0,0.2579999999999991,0.2579999999999991,0.0,0.0,1.0,55.0,616.79921,10000.0,85.000001,85.000001,85.000001,85.000001,395.0,0.0,0.0,0.0,1.0,166.665,53.36,53.36,49.271,49.271,34.0,-27.9775,19.611666666666665,-31.536666666666665,22.5775,0.0,1782.801,0.3949999999999996,100.0,27.776,26.622,42.519,41.230000000000004,0.0,0.0,100.0,0.0,0.0,0.0,0.0,3112.0,2924.6,3993.5,3975.5,305.268,305.56025,315.109,315.0325,21.8165,20.535899999999998,21.8235,21.3586,314.999998,314.999998,324.999988,324.999988,99.5585,99.50715,99.56575714285714,99.54591428571429,-0.014666666666666606,-0.14100000000000001,-0.2125,0.0125,-0.04833333333333201,-0.04999999999999716,1.567,1.6315,37.352999999999994,29.349333333333334,37.397,34.491,56.082,34.573,59.203,51.942499999999995,54.012,33.7665,57.8195,50.286500000000004,53.181,33.356,57.7695,49.705,-0.040999999999999925,-0.11099999999999999,0.10494500000000001,0.11539,0.0,207.57,207.45499999999998,204.53333333333333,204.53333333333333,0.0,0.0
6,0.0,0.0,0.0,1.0,1.0,0.0,0.0,1.0,0.0,0.0,1.0,1.1856,26.0,0.0,0.0,0.0,59.999996,0.0,26.0,26.0,26.0,26.0,-0.1416666666666666,0.2922,0.02596666666666667,293.533,-2.6355,-2.8023,-1.5007000000000001,-1.5827,-255.51,215.7425,190.8685,0.0,0.0,0.0,0.0,0.013333333333333334,-5.498166666666667,-5.498166666666667,-0.525,-0.182,-0.07422222222222219,-0.9409999999999998,66.393,-0.095,-0.204025,1.152000000000001,100.0,1.0,1.0,204.83333333333331,0.0,0.0,0.0,0.0,0.0,0.0,0.0,8682.1,0.0,55.0,5.0,238.98666666666668,0.0,0.0,0.0,0.0,0.0,0.0,0.0,0.0,0.30900000000000105,0.30900000000000105,0.0,0.0,0.0,55.0,616.79921,10000.0,85.000001,85.000001,85.000001,85.000001,395.0,0.0,0.0,0.0,1.0,166.665,53.68,53.68,48.477000000000004,48.477000000000004,34.0,-28.955,17.98833333333333,-35.74666666666667,22.695,0.0,1782.75,0.5350000000000001,100.0,27.433,26.519,42.745000000000005,41.51,0.0,0.0,100.0,0.0,0.0,0.0,0.0,3203.0,2741.0,4302.125,4045.5,305.1835,305.93375,314.35625,314.75225,21.8263,20.5409,21.834,21.3675,314.999998,314.999998,324.999988,324.999988,99.55851428571428,99.50718333333333,99.5659,99.54605714285714,-0.03433333333333333,-0.16599999999999993,-0.229,0.0023333333333333335,-0.036666666666668846,-0.045000000000001705,1.4929999999999999,1.5190000000000001,37.414,29.380666666666666,37.463,34.547,56.067,34.6135,59.2455,52.004,53.997,33.8035,57.859,50.345,53.166,33.3915,57.8055,49.76233333333333,-0.028000000000000025,-0.11749999999999994,0.11011000000000001,0.10948000000000001,0.0,208.0,207.89,204.83333333333331,204.83333333333331,0.0,0.0
7,0.0,0.0,0.0,1.0,1.0,0.0,0.0,1.0,0.0,0.0,1.0,1.1856,26.0,0.0,0.0,0.0,59.999996,0.0,26.0,26.0,26.0,26.0,-0.10966666666666658,0.28259999999999996,-0.018533333333333336,293.564,-2.6003,-2.7983000000000002,-1.55285,-1.6258,-252.12,215.74,190.848,0.0,0.0,0.0,0.0,0.015300000000000001,-5.498166666666667,-5.498166666666667,-0.5339,0.14366666666666666,-0.05866666666666642,1.2400000000000002,66.537,-0.098,-0.21807500000000002,0.8840000000000003,100.0,1.0,1.0,205.36666666666667,0.0,0.0,0.0,0.0,0.0,0.0,0.0,8704.7,0.0,55.0,5.0,239.50333333333333,1.0,0.0,0.0,0.0,0.0,0.0,0.0,0.0,0.35999999999999943,0.35999999999999943,0.0,0.0,1.0,55.0,616.79921,10000.0,85.000001,85.000001,85.000001,85.000001,395.0,0.0,0.0,0.0,1.0,166.665,53.268,53.268,48.92,48.92,34.0,-26.2125,20.846666666666664,-32.71,23.2025,0.0,1782.699,0.030000000000001137,100.0,27.916,26.631,42.85,41.494,0.0,0.0,100.0,0.0,0.0,0.0,0.0,3083.285714285714,2927.1,4042.0,3965.2,305.2975,305.5275,314.98575,315.017,21.836199999999998,20.5461,21.8445,21.3764,314.999998,314.999998,324.999988,324.999988,99.55851428571428,99.50718333333333,99.56604285714286,99.5462,0.0030000000000001137,-0.125,-0.213,0.017833333333333333,-0.02499999999999858,-0.046666666666666856,1.5665,1.5899999999999999,37.476,29.413,37.528,34.603,56.054,34.655,59.2855,52.063,53.983999999999995,33.841499999999996,57.8965,50.402,53.152,33.4275,57.8405,49.81766666666667,-0.07199999999999995,-0.07600000000000007,0.10332500000000001,0.111185,0.0,208.435,208.36,205.36666666666667,205.36666666666667,0.0,0.0
8,0.0,0.0,0.0,1.0,1.0,0.0,0.0,1.0,0.0,0.0,1.0,1.1856,26.0,0.0,0.0,0.0,59.999996,0.0,26.0,26.0,26.0,26.0,-0.09288888888888891,0.2895000000000001,-0.009333333333333334,293.503,-2.6785,-2.7309,-1.4828999999999999,-1.6197,-248.93,215.7375,190.8285,0.0,0.0,0.0,0.0,0.017166666666666667,-5.498166666666667,-5.498166666666667,-0.5371,-0.299,-0.0477777777777777,0.42399999999999993,66.675,-0.0859,-0.218525,0.4660000000000011,100.0,1.0,1.0,205.74333333333334,0.0,0.0,0.0,0.0,0.0,0.0,0.0,8720.7,0.0,55.0,5.0,240.0,0.0,0.0,0.0,0.0,0.0,0.0,0.0,0.0,0.40800000000000125,0.40800000000000125,0.0,0.0,0.0,55.0,616.79921,10000.0,85.000001,85.000001,85.000001,85.000001,395.0,0.0,0.0,0.0,1.0,333.33500000000004,53.436,53.436,48.462,48.462,34.0,-25.7425,21.368333333333332,-30.966666666666665,24.2925,0.0,1782.649,-0.030000000000001137,100.0,27.583,26.711,42.938,41.691,0.0,0.0,100.0,0.0,0.0,0.0,0.0,3024.0,3010.0,4016.75,4040.9,305.564,305.30525,314.97975,314.8115,21.845399999999998,20.5509,21.8544,21.384900000000002,314.999998,314.999998,324.999988,324.999988,99.55851428571428,99.50721666666666,99.56618571428571,99.54632857142857,0.014333333333333087,-0.11399999999999988,-0.19433333333333336,0.026833333333333334,-0.03499999999999659,-0.05333333333332746,1.5274999999999999,1.5474999999999999,37.534,29.443333333333335,37.59,34.6555,56.038,34.693,59.323499999999996,52.1205,53.969,33.8765,57.932,50.457,53.137,33.461,57.873,49.87133333333333,-0.07750000000000001,-0.07299999999999995,0.10886000000000001,0.10266000000000002,0.0,208.835,208.785,205.74333333333334,205.74333333333334,0.0,0.0
9,0.0,0.0,0.0,1.0,1.0,0.0,0.0,1.0,0.0,0.0,1.0,1.1856,26.0,0.0,0.0,0.0,59.999996,0.0,26.0,26.0,26.0,26.0,-0.07255555555555548,0.28170000000000006,0.015933333333333334,293.213,-2.5984,-2.7475,-1.5302,-1.5777,-245.72,215.73000000000002,190.80875,0.0,0.0,0.0,0.0,0.019,-5.498166666666667,-5.498166666666667,-0.5343,0.435,-0.05866666666666642,0.9020000000000001,66.81,-0.07050000000000001,-0.21115,0.28800000000000026,100.0,1.0,1.0,206.18,0.0,0.0,0.0,0.0,0.0,0.0,0.0,8739.2,0.0,55.0,5.0,240.48666666666668,1.0,0.0,0.0,0.0,0.0,0.0,0.0,0.0,0.4559999999999995,0.4559999999999995,0.0,0.0,1.0,55.0,616.79921,10000.0,85.000001,85.000001,85.000001,85.000001,395.0,0.0,0.0,0.0,1.0,166.665,52.872,52.872,48.813,48.813,34.0,-26.21,22.201666666666668,-30.82,25.2875,0.0,1782.602,-0.1750000000000007,100.0,28.001,26.848,42.806,41.704,0.0,0.0,100.0,0.0,0.0,0.0,0.0,3193.857142857143,3014.1,4055.5,4101.9,305.021,305.281,314.94,314.72575,21.8547,20.5559,21.8642,21.3933,314.999998,314.999998,324.999988,324.999988,99.55851428571428,99.50721666666666,99.56631428571428,99.54645714285714,0.026333333333333098,-0.09833333333333316,-0.17483333333333334,0.050166666666666665,-0.04333333333332945,-0.04833333333333201,1.5485,1.552,37.592,29.474,37.652,34.708,56.025,34.731,59.36,52.176,53.957,33.911500000000004,57.966,50.51,53.123000000000005,33.4945,57.9045,49.92333333333333,-0.08850000000000002,-0.05899999999999994,0.107075,0.11078,0.0,209.275,209.23000000000002,206.18,206.18,0.0,0.0
10,0.0,0.0,0.0,1.0,1.0,0.0,0.0,1.0,0.0,0.0,1.0,1.1856,26.0,0.0,0.0,0.0,59.999996,0.0,26.0,26.0,26.0,26.0,-0.0421111111111111,0.29280000000000017,-0.015566666666666666,293.182,-2.6706,-2.7099,-1.50285,-1.5553,-242.31,215.7225,190.788125,0.0,0.0,0.0,0.0,0.021,-5.498166666666667,-5.498166666666667,-0.5258,-0.458,-0.027222222222222037,0.13200000000000012,66.955,-0.0512,-0.2109,0.07399999999999984,100.0,1.0,1.0,206.50666666666666,0.0,0.0,0.0,0.0,0.0,0.0,0.0,8753.1,0.0,55.0,5.0,241.01,0.0,0.0,0.0,0.0,0.0,0.0,1.0,0.0,0.5069999999999979,0.5069999999999979,0.0,0.0,0.0,55.0,616.79921,10000.0,85.000001,85.000001,85.000001,85.000001,395.0,0.0,0.0,0.0,1.0,166.665,53.436,53.436,48.172,48.172,34.0,-25.11,21.02166666666667,-31.483333333333334,26.2425,0.0,1782.552,-0.245000000000001,100.0,27.63,26.946,42.936,42.251,0.0,0.0,100.0,0.0,0.0,0.0,0.0,3072.0,2873.8,4198.5,4187.2,305.593,305.5775,314.62775,314.39875,21.8644,20.561,21.8748,21.4024,314.999998,314.999998,324.999988,324.999988,99.55852857142857,99.50723333333333,99.56647142857143,99.5466,0.03400000000000025,-0.09399999999999986,-0.16533333333333336,0.05583333333333334,-0.041666666666671404,-0.03999999999999915,1.4929999999999999,1.5085,37.653,29.506666666666668,37.718,34.765,56.01,34.7695,59.4015,52.238,53.943,33.947,58.0045,50.5695,53.108999999999995,33.5285,57.9405,49.98166666666667,-0.09999999999999998,-0.05499999999999994,0.10322500000000001,0.11135500000000001,0.0,209.68,209.67000000000002,206.50666666666666,206.50666666666666,0.0,0.0
11,0.0,0.0,0.0,1.0,1.0,0.0,0.0,1.0,0.0,0.0,1.0,1.1856,26.0,0.0,0.0,0.0,59.999996,0.0,26.0,26.0,26.0,26.0,-0.016111111111111076,0.27900000000000014,-0.06526666666666667,293.549,-2.6797,-2.7016999999999998,-1.5554000000000001,-1.5286,-238.69,215.7125,190.765875,0.0,0.0,0.0,0.0,0.022600000000000002,-5.498166666666667,-5.498166666666667,-0.5531,-0.058666666666666666,-0.0032222222222220154,-0.6059999999999999,67.104,-0.033800000000000004,-0.224975,-0.05600000000000005,100.0,1.0,1.0,207.15,0.0,0.0,0.0,0.0,0.0,0.0,0.0,8780.3,0.0,55.0,5.0,241.54666666666668,1.0,0.0,0.0,0.0,0.0,0.0,1.0,0.0,0.5609999999999999,0.5609999999999999,0.0,0.0,1.0,55.0,616.79921,10000.0,85.000001,85.000001,85.000001,85.000001,395.0,0.0,0.0,0.0,1.0,166.665,53.192,53.192,48.996,48.996,34.0,-24.9675,23.231666666666666,-28.393333333333334,25.1,0.0,1782.498,-0.4400000000000013,100.0,27.364,27.114,42.483000000000004,42.157,0.0,0.0,100.0,0.0,0.0,0.0,0.0,3140.714285714286,3005.2,3917.0,3967.4,305.4015,305.14075,315.37825,314.98175,21.8747,20.5667,21.8858,21.4119,314.999998,314.999998,324.999988,324.999988,99.55852857142857,99.50723333333333,99.56661428571428,99.54675714285715,0.05466666666666642,-0.06633333333333313,-0.149,0.08033333333333333,-0.060000000000002274,-0.046666666666666856,1.577,1.589,37.717,29.541666666666664,37.786,34.8245,55.994,34.811,59.439,52.301,53.927,33.985,58.04,50.629999999999995,53.092,33.565,57.9725,50.041,-0.10599999999999998,-0.04150000000000009,0.10933500000000002,0.113835,0.0,210.14499999999998,210.14499999999998,207.15,207.15,0.0,0.0
12,0.0,0.0,0.0,1.0,1.0,0.0,0.0,1.0,0.0,0.0,1.0,1.1856,26.0,0.0,0.0,0.0,59.999996,0.0,26.0,26.0,26.0,26.0,-0.011777777777777776,0.27670000000000017,0.006933333333333333,293.106,-2.7014,-2.7029,-1.53205,-1.5495999999999999,-235.67000000000002,215.70499999999998,190.746625,0.0,0.0,0.0,0.0,0.025466666666666665,-5.498166666666667,-5.498166666666667,-0.5428000000000001,0.33166666666666667,-0.003666666666666707,0.73,67.231,-0.0179,-0.20525000000000002,-0.19599999999999973,100.0,1.0,1.0,207.41,0.0,0.0,0.0,0.0,0.0,0.0,0.0,8791.3,0.0,55.0,5.0,242.00333333333333,0.0,0.0,0.0,0.0,0.0,0.0,1.0,0.0,0.6059999999999981,0.6059999999999981,0.0,0.0,0.0,55.0,616.79921,10000.0,85.000001,85.000001,85.000001,85.000001,395.0,0.0,0.0,0.0,1.0,166.665,52.979,52.979,48.203,48.203,34.0,-24.23,24.405,-28.9,28.642500000000002,0.0,1782.452,-0.29499999999999815,100.0,27.573,27.174,42.532,42.093,0.0,0.0,100.0,0.0,0.0,0.0,0.0,3048.285714285714,3142.2,4133.375,4206.8,305.4845,304.88825,314.76325,314.488,21.8832,20.5714,21.895,21.4199,314.999998,314.999998,324.999988,324.999988,99.55854285714285,99.50723333333333,99.56674285714286,99.54688571428571,0.062333333333333574,-0.06299999999999994,-0.11983333333333333,0.10333333333333333,-0.02499999999999858,-0.046666666666666856,1.5190000000000001,1.517,37.769999999999996,29.571333333333335,37.844,34.874,55.980999999999995,34.8455,59.473,52.354,53.915,34.016999999999996,58.0715,50.681,53.08,33.595,58.001999999999995,50.091,-0.08899999999999997,-0.06099999999999994,0.104705,0.10719000000000001,0.0,210.535,210.565,207.41,207.41,0.0,0.0
13,0.0,0.0,0.0,1.0,1.0,0.0,0.0,1.0,0.0,0.0,1.0,1.1856,26.0,0.0,0.0,0.0,59.999996,0.0,26.0,26.0,26.0,26.0,0.016666666666666607,0.27980000000000005,0.027700000000000002,292.786,-2.6747,-2.7116,-1.56125,-1.5604,-232.24,215.695,190.724875,0.0,0.0,0.0,0.0,0.02686666666666667,-5.498166666666667,-5.498166666666667,-0.5381,-0.217,-0.00955555555555554,-0.4049999999999998,67.374,-0.0098,-0.2146,-0.1639999999999997,100.0,1.0,1.0,207.78,0.0,0.0,0.0,0.0,0.0,0.0,0.0,8807.0,0.0,55.0,5.0,242.51666666666665,1.0,0.0,0.0,0.0,0.0,0.0,1.0,0.0,0.657,0.657,0.0,0.0,1.0,55.0,616.79921,10000.0,85.000001,85.000001,85.000001,85.000001,395.0,0.0,0.0,0.0,1.0,333.33500000000004,52.765,52.765,48.05,48.05,34.0,-23.849999999999998,24.166666666666664,-30.22,29.41,0.0,1782.4,-0.3299999999999983,100.0,27.706,27.502,42.739000000000004,42.65,0.0,0.0,100.0,0.0,0.0,0.0,0.0,3174.4285714285716,3001.2,4208.125,4229.8,305.278,305.14,314.6185,314.31275,21.8929,20.5768,21.9056,21.429,314.999998,314.999998,324.999988,324.999988,99.55854285714285,99.50725,99.56688571428572,99.54701428571428,0.08700000000000019,-0.04466666666666663,-0.124,0.10533333333333333,-0.06499999999999773,-0.045000000000001705,1.4965,1.4825,37.83,29.605,37.91,34.9315,55.969,34.884,59.513,52.4165,53.903,34.0525,58.109,50.741,53.067,33.629,58.036,50.14966666666667,-0.11349999999999993,-0.040000000000000036,0.107325,0.10834500000000001,0.0,210.99,210.97500000000002,207.78,207.78,0.0,0.0
14,0.0,0.0,0.0,1.0,1.0,0.0,0.0,1.0,0.0,0.0,1.0,1.1856,26.0,0.0,0.0,0.0,59.999996,0.0,26.0,26.0,26.0,26.0,0.025111111111111084,0.27280000000000015,-0.02986666666666667,293.03,-2.7011,-2.7088,-1.56555,-1.5453000000000001,-228.59,215.685,190.70225,0.0,0.0,0.0,0.0,0.02896666666666667,-5.498166666666667,-5.498166666666667,-0.5505,-0.05633333333333334,0.014666666666666606,-0.43699999999999983,67.522,0.0001,-0.226475,-0.24600000000000044,100.0,1.0,1.0,208.33666666666667,0.0,0.0,0.0,0.0,0.0,0.0,0.0,8830.6,0.0,55.0,5.0,243.05,0.0,0.0,0.0,0.0,0.0,0.0,1.0,0.0,0.7109999999999985,0.7109999999999985,0.0,0.0,0.0,55.0,616.79921,10000.0,85.000001,85.000001,85.000001,85.000001,395.0,0.0,0.0,0.0,1.0,166.665,52.811,52.811,48.385999999999996,48.385999999999996,34.0,-23.685,24.003333333333334,-27.75,28.055,0.0,1782.347,-0.379999999999999,100.0,27.637,27.707,42.65,42.765,0.0,0.0,100.0,0.0,0.0,0.0,0.0,3093.142857142857,3013.7,3996.75,4082.3,305.5435,305.05525,315.172,314.654,21.903,20.5826,21.9166,21.4387,314.999998,314.999998,324.999988,324.999988,99.55855714285714,99.50726666666667,99.56704285714285,99.54717142857143,0.07933333333333348,-0.052999999999999936,-0.11433333333333333,0.111,-0.045000000000001705,-0.05666666666667197,1.5385,1.5375,37.894,29.641,37.979,34.9915,55.955,34.925,59.552,52.481,53.89,34.0905,58.1455,50.803,53.053,33.6655,58.069,50.21033333333334,-0.10449999999999993,-0.046499999999999986,0.10393500000000001,0.10645500000000001,0.0,211.435,211.45,208.33666666666667,208.33666666666667,0.0,0.0
15,0.0,0.0,0.0,1.0,1.0,0.0,0.0,1.0,0.0,0.0,1.0,1.1856,26.0,0.0,0.0,0.0,59.999996,0.0,26.0,26.0,26.0,26.0,0.036222222222222156,0.27500000000000013,0.0083,292.923,-2.6954,-2.6855,-1.57895,-1.558,-225.55,215.675,190.683125,0.0,0.0,0.0,0.0,0.03073333333333333,-5.498166666666667,-5.498166666666667,-0.5414,0.22633333333333336,0.03222222222222215,0.6470000000000002,67.646,0.006,-0.2101,-0.347999999999999,100.0,1.0,1.0,208.66333333333333,0.0,0.0,0.0,0.0,0.0,0.0,0.0,8844.5,0.0,55.0,5.0,243.49666666666667,1.0,0.0,0.0,0.0,0.0,0.0,1.0,0.0,0.7560000000000002,0.7560000000000002,0.0,0.0,1.0,55.0,616.79921,10000.0,85.000001,85.000001,85.000001,85.000001,395.0,0.0,0.0,0.0,1.0,333.33500000000004,52.902,52.902,48.218,48.218,34.0,-21.645,25.12,-26.753333333333334,31.09,0.0,1782.301,-0.3049999999999997,100.0,27.823,27.601,42.589,42.762,0.0,0.0,100.0,0.0,0.0,0.0,0.0,2922.0,3103.0,4021.125,4269.3,305.8715,304.94075,315.04375,314.28125,21.9115,20.5874,21.9258,21.4467,314.999998,314.999998,324.999988,324.999988,99.55857142857143,99.50726666666667,99.56715714285714,99.5473,0.09633333333333338,-0.03600000000000003,-0.0845,0.13383333333333333,-0.04833333333333201,-0.046666666666666856,1.534,1.4965,37.947,29.671333333333333,38.036,35.042,55.944,34.959,59.5845,52.5355,53.879999999999995,34.1215,58.175,50.8555,53.041,33.695499999999996,58.0965,50.26166666666667,-0.10499999999999998,-0.050000000000000044,0.10228000000000001,0.10794500000000001,0.0,211.82999999999998,211.835,208.66333333333333,208.66333333333333,0.0,0.0
16,0.0,0.0,0.0,1.0,1.0,0.0,0.0,1.0,0.0,0.0,1.0,1.1856,26.0,0.0,0.0,0.0,59.999996,0.0,26.0,26.0,26.0,26.0,0.0257777777777779,0.26649999999999996,-0.0161,292.831,-2.7543,-2.6341,-1.5525,-1.5587,-222.1,215.66750000000002,190.661,0.0,0.0,0.0,0.0,0.03273333333333333,-5.498166666666667,-5.498166666666667,-0.5578000000000001,-0.4736666666666667,0.01633333333333331,-1.144,67.786,0.011000000000000001,-0.225525,-0.1479999999999997,100.0,1.0,1.0,209.10666666666668,0.0,0.0,0.0,0.0,0.0,0.0,0.0,8863.2,0.0,55.0,5.0,244.00333333333333,0.0,0.0,0.0,0.0,0.0,0.0,1.0,0.0,0.8069999999999986,0.8069999999999986,0.0,0.0,0.0,55.0,616.79921,10000.0,85.000001,85.000001,85.000001,85.000001,395.0,0.0,0.0,0.0,1.0,333.33500000000004,52.582,52.582,48.004,48.004,34.0,-25.009999999999998,24.83,-27.273333333333333,28.325,0.0,1782.25,-0.19500000000000028,100.0,27.417,27.771,42.752,42.978,0.0,0.0,100.0,0.0,0.0,0.0,0.0,3217.0,3134.2,4056.875,4017.5,305.282,304.73325,315.005,314.80675,21.9209,20.5929,21.9363,21.4558,314.999998,314.999998,324.999988,324.999988,99.55857142857143,99.50726666666667,99.56731428571429,99.54744285714285,0.08333333333333348,-0.04200000000000004,-0.097,0.12266666666666667,-0.05666666666667197,-0.04999999999999716,1.5314999999999999,1.533,38.006,29.705666666666666,38.102000000000004,35.099000000000004,55.93,34.9975,59.623,52.596000000000004,53.866,34.1575,58.2115,50.914,53.027,33.7295,58.1295,50.319,-0.09350000000000003,-0.056499999999999995,0.10303000000000001,0.10433500000000001,0.0,212.26,212.255,209.10666666666668,209.10666666666668,0.0,0.0
17,0.0,0.0,0.0,1.0,1.0,0.0,0.0,1.0,0.0,0.0,1.0,1.1856,26.0,0.0,0.0,0.0,59.999996,0.0,26.0,26.0,26.0,26.0,0.006111111111111178,0.28070000000000017,0.021933333333333336,292.419,-2.7115,-2.623,-1.59105,-1.5239,-218.64,215.6575,190.638625,0.0,0.0,0.0,0.0,0.03476666666666667,-5.498166666666667,-5.498166666666667,-0.5479,0.24966666666666668,-0.004555555555555646,0.5939999999999999,67.925,0.0088,-0.20852500000000002,-0.10200000000000031,100.0,1.0,1.0,209.47,0.0,0.0,0.0,0.0,0.0,0.0,0.0,8878.6,0.0,55.0,5.0,244.50333333333333,1.0,0.0,0.0,0.0,0.0,0.0,1.0,0.0,0.8580000000000005,0.8580000000000005,0.0,0.0,1.0,55.0,616.79921,10000.0,85.000001,85.000001,85.000001,85.000001,395.0,0.0,0.0,0.0,1.0,333.33500000000004,52.444,52.444,47.592,47.592,34.0,-23.697499999999998,25.05,-29.743333333333336,30.517500000000002,0.0,1782.199,-0.1999999999999993,100.0,28.003,27.744,42.853,42.875,0.0,0.0,100.0,0.0,0.0,0.0,0.0,3126.857142857143,3158.2,4305.5,4289.5,305.304,304.862,314.416,314.30925,21.9305,20.5984,21.9467,21.4649,314.999998,314.999998,324.999988,324.999988,99.5586,99.50728333333333,99.56745714285714,99.54758571428572,0.09266666666666667,-0.03400000000000003,-0.0925,0.13066666666666665,-0.03166666666666629,-0.06499999999999773,1.5045,1.4965,38.066,29.740000000000002,38.167,35.156,55.918,35.037,59.66,52.656,53.854,34.1935,58.246,50.972,53.013999999999996,33.763999999999996,58.161,50.376,-0.09150000000000003,-0.06000000000000005,0.10140500000000001,0.11243500000000001,0.0,212.685,212.715,209.47,209.47,0.0,0.0
18,0.0,0.0,0.0,1.0,1.0,0.0,0.0,1.0,0.0,0.0,1.0,1.1856,26.0,0.0,0.0,0.0,59.999996,0.0,26.0,26.0,26.0,26.0,-0.007000000000000006,0.27680000000000016,0.022500000000000003,292.328,-2.6465,-2.6075,-1.5945,-1.4804,-215.37,215.65,190.6175,0.0,0.0,0.0,0.0,0.03666666666666667,-5.498166666666667,-5.498166666666667,-0.5607,-0.396,0.004999999999999893,0.9359999999999999,68.056,0.0044,-0.22425,-0.09999999999999964,100.0,1.0,1.0,209.87,0.0,0.0,0.0,0.0,0.0,0.0,0.0,8895.7,0.0,55.0,5.0,244.97333333333336,0.0,0.0,0.0,0.0,0.0,0.0,1.0,0.0,0.9059999999999988,0.9059999999999988,0.0,0.0,0.0,55.0,616.79921,10000.0,85.000001,85.000001,85.000001,85.000001,395.0,0.0,0.0,0.0,1.0,166.665,52.185,52.185,47.562,47.562,34.0,-23.3975,26.023333333333333,-29.673333333333336,29.0925,0.0,1782.152,-0.22500000000000142,100.0,27.926,27.724,43.079,43.072,0.0,0.0,100.0,0.0,0.0,0.0,0.0,3134.5714285714284,3318.0,4155.875,4257.3,305.2065,304.396,314.72925,314.36325,21.9394,20.6035,21.9566,21.4736,314.999998,314.999998,324.999988,324.999988,99.5586,99.50728333333333,99.56758571428571,99.54772857142858,0.08933333333333371,-0.04133333333333322,-0.1125,0.12066666666666667,-0.061666666666667425,-0.04333333333332945,1.501,1.5055,38.120999999999995,29.772,38.229,35.21,55.905,35.0725,59.6965,52.714,53.842,34.2265,58.2795,51.0275,53.001000000000005,33.796,58.192,50.43033333333334,-0.09850000000000003,-0.0625,0.11121500000000001,0.107605,0.0,213.10000000000002,213.07,209.87,209.87,0.0,0.0
19,0.0,0.0,0.0,1.0,1.0,0.0,0.0,1.0,0.0,0.0,1.0,1.1856,26.0,0.0,0.0,0.0,59.999996,0.0,26.0,26.0,26.0,26.0,0.01677777777777778,0.27990000000000004,0.06726666666666667,292.068,-2.653,-2.7036,-1.5283,-1.6032000000000002,-211.89999999999998,215.64249999999998,190.594875,0.0,0.0,0.0,0.0,0.03866666666666667,-5.498166666666667,-5.498166666666667,-0.5493,0.6743333333333333,0.010333333333333306,-0.8580000000000001,68.193,0.0026000000000000003,-0.212875,-0.04600000000000026,100.0,1.0,1.0,210.27666666666667,0.0,0.0,0.0,0.0,0.0,0.0,0.0,8912.9,0.0,55.0,5.0,245.47,1.0,0.0,0.0,0.0,0.0,0.0,1.0,0.0,0.9570000000000007,0.9570000000000007,0.0,0.0,1.0,55.0,616.79921,10000.0,85.000001,85.000001,85.000001,85.000001,395.0,0.0,0.0,0.0,1.0,166.665,51.956,51.956,47.562,47.562,34.0,-24.1025,24.145,-29.736666666666665,31.240000000000002,0.0,1782.1,-0.14999999999999858,100.0,28.301000000000002,28.352,42.877,43.25,0.0,0.0,100.0,0.0,0.0,0.0,0.0,3174.142857142857,3047.0,4241.0,4323.8,305.2435,304.8625,314.58525,314.00625,21.948999999999998,20.6092,21.967,21.4827,314.999998,314.999998,324.999988,324.999988,99.55861428571428,99.5073,99.56772857142857,99.54787142857143,0.07833333333333359,-0.058666666666666645,-0.11733333333333333,0.10983333333333332,-0.06499999999999773,-0.06666666666666998,1.48,1.4795,38.182,29.807333333333332,38.293,35.266999999999996,55.894,35.1135,59.7325,52.775,53.832,34.263999999999996,58.313,51.086,52.989999999999995,33.832,58.2225,50.488,-0.09650000000000003,-0.06299999999999994,0.10629000000000001,0.11066000000000001,0.0,213.555,213.535,210.27666666666667,210.27666666666667,0.0,0.0
20,0.0,0.0,0.0,1.0,1.0,0.0,0.0,1.0,0.0,0.0,1.0,1.1856,26.0,0.0,0.0,0.0,59.999996,0.0,26.0,26.0,26.0,26.0,0.017444444444444374,0.25750000000000006,-0.02436666666666667,292.435,-2.7187,-2.6503,-1.5314999999999999,-1.5923,-208.20999999999998,215.635,190.571125,0.0,0.0,0.0,0.0,0.04083333333333333,-5.498166666666667,-5.498166666666667,-0.5598000000000001,-0.9530000000000001,0.005555555555555536,-0.9729999999999999,68.339,0.0008,-0.228975,0.04400000000000048,100.0,1.0,1.0,210.73666666666668,0.0,0.0,0.0,0.0,0.0,0.0,0.0,8932.4,0.0,55.0,5.0,245.99666666666667,0.0,0.0,0.0,0.0,0.0,0.0,0.0,0.0,1.0109999999999992,1.0109999999999992,0.0,0.0,0.0,55.0,616.79921,10000.0,85.000001,85.000001,85.000001,85.000001,395.0,0.0,0.0,0.0,1.0,166.665,52.536,52.536,47.44,47.44,34.0,-24.3925,23.456666666666667,-28.143333333333334,28.1875,0.0,1782.048,-0.129999999999999,100.0,27.826,28.006,43.46,43.615,0.0,0.0,100.0,0.0,0.0,0.0,0.0,3145.714285714286,3039.4,4093.875,4033.7,305.4485,305.0515,314.882,314.7595,21.959,20.6149,21.9782,21.4925,314.999998,314.999998,324.999988,324.999988,99.55862857142857,99.5073,99.56788571428571,99.54802857142857,0.07666666666666666,-0.057666666666666755,-0.10983333333333332,0.106,-0.05833333333333002,-0.054999999999999716,1.5025,1.513,38.242999999999995,29.843333333333334,38.364000000000004,35.3285,55.879000000000005,35.153999999999996,59.7745,52.8405,53.817,34.302,58.3525,51.149,52.974000000000004,33.868,58.2585,50.54966666666667,-0.09050000000000002,-0.06800000000000006,0.100095,0.106315,0.0,213.96,213.95,210.73666666666668,210.73666666666668,0.0,0.0
21,0.0,0.0,0.0,1.0,1.0,0.0,0.0,1.0,0.0,0.0,1.0,1.1856,26.0,0.0,0.0,0.0,59.999996,0.0,26.0,26.0,26.0,26.0,-0.014000000000000012,0.27049999999999996,-0.051800000000000006,292.572,-2.7073,-2.6725,-1.57305,-1.5503,-205.13,215.63,190.55075,0.0,0.0,0.0,0.0,0.0426,-5.498166666666667,-5.498166666666667,-0.5739000000000001,0.23166666666666666,-0.006111111111111178,0.5140000000000002,68.458,-0.0025,-0.222275,-0.047999999999999154,100.0,1.0,1.0,211.21666666666667,0.0,0.0,0.0,0.0,0.0,0.0,0.0,8952.6,0.0,55.0,5.0,246.42000000000002,1.0,0.0,0.0,0.0,0.0,0.0,0.0,0.0,1.056000000000001,1.056000000000001,0.0,0.0,1.0,55.0,616.79921,10000.0,85.000001,85.000001,85.000001,85.000001,395.0,0.0,0.0,0.0,1.0,333.33500000000004,52.383,52.383,48.035,48.035,34.0,-23.6275,24.838333333333335,-28.253333333333334,27.895,0.0,1782.001,-0.18499999999999872,100.0,28.176000000000002,27.837,43.089,43.109,0.0,0.0,100.0,0.0,0.0,0.0,0.0,3118.142857142857,3151.7,4055.75,4041.8,305.3335,304.90575,315.009,314.902,21.9673,20.6198,21.9872,21.5005,314.999998,314.999998,324.999988,324.999988,99.55864285714286,99.50731666666667,99.56801428571428,99.54815714285715,0.09200000000000008,-0.04800000000000004,-0.1125,0.11766666666666667,-0.04333333333332945,-0.054999999999999716,1.5565,1.558,38.296,29.874000000000002,38.42,35.378,55.867999999999995,35.189,59.8045,52.891,53.807,34.334,58.3805,51.198,52.963,33.8985,58.284,50.59733333333333,-0.09750000000000003,-0.06350000000000011,0.10910500000000001,0.10689000000000001,0.0,214.34,214.35500000000002,211.21666666666667,211.21666666666667,0.0,0.0
22,0.0,0.0,0.0,1.0,1.0,0.0,0.0,1.0,0.0,0.0,1.0,1.1856,26.0,0.0,0.0,0.0,59.999996,0.0,26.0,26.0,26.0,26.0,0.007333333333333414,0.27680000000000016,-0.0094,292.282,-2.7724,-2.6284,-1.59745,-1.5311,-201.64,215.6225,190.527,0.0,0.0,0.0,0.0,0.04463333333333333,-5.498166666666667,-5.498166666666667,-0.5578000000000001,-0.034666666666666665,0.0033333333333331883,-0.581,68.596,-0.0037,-0.20247500000000002,-0.016000000000000014,100.0,1.0,1.0,211.46333333333334,0.0,0.0,0.0,0.0,0.0,0.0,0.0,8963.2,0.0,55.0,5.0,246.91666666666666,0.0,0.0,0.0,0.0,0.0,0.0,0.0,0.0,1.1069999999999993,1.1069999999999993,0.0,0.0,0.0,55.0,616.79921,10000.0,85.000001,85.000001,85.000001,85.000001,395.0,0.0,0.0,0.0,1.0,333.33500000000004,52.658,52.658,47.211,47.211,34.0,-24.73,22.868333333333332,-31.3,29.5325,0.0,1781.95,-0.21999999999999886,100.0,27.973,28.061,43.193,43.337,0.0,0.0,100.0,0.0,0.0,0.0,0.0,3113.285714285714,3010.0,4308.25,4331.0,305.6295,305.2025,314.45425,314.13325,21.9768,20.6254,21.997799999999998,21.5097,314.999998,314.999998,324.999988,324.999988,99.55864285714286,99.50731666666667,99.56815714285715,99.5483,0.07133333333333347,-0.05933333333333324,-0.11800000000000001,0.101,-0.04333333333332945,-0.04333333333332945,1.4855,1.4925,38.355000000000004,29.908666666666665,38.486000000000004,35.4355,55.855000000000004,35.2285,59.8435,52.9525,53.794,34.37,58.417,51.257,52.95,33.933,58.317,50.655,-0.09399999999999997,-0.06099999999999994,0.10552,0.10504000000000001,0.0,214.775,214.775,211.46333333333334,211.46333333333334,0.0,0.0
23,0.0,0.0,0.0,1.0,1.0,0.0,0.0,1.0,0.0,0.0,1.0,1.1856,26.0,0.0,0.0,0.0,59.999996,0.0,26.0,26.0,26.0,26.0,-0.021333333333333315,0.24490000000000012,0.0007666666666666667,292.175,-2.673,-2.67,-1.64615,-1.5088,-198.14,215.615,190.503625,0.0,0.0,0.0,0.0,0.04666666666666667,-5.498166666666667,-5.498166666666667,-0.5754,-0.171,0.0021111111111109526,0.6230000000000002,68.73,-0.0016,-0.22712500000000002,-0.06200000000000028,100.0,1.0,1.0,211.98333333333335,0.0,0.0,0.0,0.0,0.0,0.0,0.0,8985.2,0.0,55.0,5.0,247.4,1.0,0.0,0.0,0.0,0.0,0.0,0.0,0.0,1.1580000000000013,1.1580000000000013,0.0,0.0,1.0,55.0,616.79921,10000.0,85.000001,85.000001,85.000001,85.000001,395.0,0.0,0.0,0.0,1.0,333.33500000000004,51.894999999999996,51.894999999999996,47.882,47.882,34.0,-24.5325,25.191666666666666,-29.586666666666666,28.105,0.0,1781.899,-0.23999999999999844,100.0,28.416,28.009999999999998,43.348,43.4,0.0,0.0,100.0,0.0,0.0,0.0,0.0,3221.142857142857,3182.1,4107.125,4119.3,304.967,304.76825,314.932,314.73375,21.9863,20.631,22.0082,21.5189,314.999998,314.999998,324.999988,324.999988,99.55865714285714,99.50731666666667,99.5683,99.54845714285715,0.08666666666666645,-0.04733333333333323,-0.10966666666666668,0.11800000000000001,-0.06499999999999773,-0.04333333333332945,1.5345,1.527,38.414,29.943666666666665,38.552,35.493,55.843,35.268,59.881,53.0135,53.783,34.407,58.451499999999996,51.3155,52.937,33.9685,58.3485,50.71233333333333,-0.09550000000000003,-0.06299999999999994,0.10526500000000001,0.10772500000000002,0.0,215.195,215.16500000000002,211.98333333333335,211.98333333333335,0.0,0.0
24,0.0,0.0,0.0,1.0,1.0,0.0,0.0,1.0,0.0,0.0,1.0,1.1856,26.0,0.0,0.0,0.0,59.999996,0.0,26.0,26.0,26.0,26.0,0.00955555555555554,0.2662,-0.039933333333333335,292.496,-2.706,-2.6739,-1.53745,-1.5596999999999999,-194.63,215.60750000000002,190.4795,0.0,0.0,0.0,0.0,0.0487,-5.498166666666667,-5.498166666666667,-0.5850000000000001,-0.4683333333333333,0.01344444444444437,-0.238,68.86500000000001,0.0005,-0.22055000000000002,-0.07200000000000006,100.0,1.0,1.0,212.33666666666667,0.0,0.0,0.0,0.0,0.0,0.0,0.0,9000.2,0.0,55.0,5.0,247.88666666666666,0.0,0.0,0.0,0.0,0.0,0.0,0.0,0.0,1.2089999999999996,1.2089999999999996,0.0,0.0,0.0,55.0,616.79921,10000.0,85.000001,85.000001,85.000001,85.000001,395.0,0.0,0.0,0.0,1.0,166.665,52.872,52.872,47.424,47.424,34.0,-23.07,23.176666666666666,-29.63,28.990000000000002,0.0,1781.85,-0.25,100.0,27.929,27.907,43.284,43.445,0.0,0.0,100.0,0.0,0.0,0.0,0.0,3007.4285714285716,2987.6,4194.0,4141.8,305.7995,305.23375,314.66775,314.56025,21.9957,20.6364,22.0187,21.5281,314.999998,314.999998,324.999988,324.999988,99.55867142857143,99.50733333333334,99.56845714285714,99.5486,0.07833333333333359,-0.05800000000000005,-0.12166666666666667,0.11316666666666668,-0.04999999999999716,-0.041666666666671404,1.513,1.509,38.473,29.977666666666664,38.617000000000004,35.5505,55.829,35.306,59.918,53.073499999999996,53.769999999999996,34.442,58.486,51.3735,52.923,34.001999999999995,58.379999999999995,50.769,-0.09499999999999997,-0.05899999999999994,0.10756,0.11481000000000001,0.0,215.57999999999998,215.57999999999998,212.33666666666667,212.33666666666667,0.0,0.0
25,0.0,0.0,0.0,1.0,1.0,0.0,0.0,1.0,0.0,0.0,1.0,1.1856,26.0,0.0,0.0,0.0,59.999996,0.0,26.0,26.0,26.0,26.0,-0.006000000000000005,0.2679,-0.0006333333333333333,292.175,-2.7651,-2.6396,-1.61965,-1.5357,-191.11,215.60250000000002,190.454125,0.0,0.0,0.0,0.0,0.05076666666666667,-5.498166666666667,-5.498166666666667,-0.6039,0.222,0.016999999999999904,0.07100000000000017,68.998,0.0013000000000000002,-0.21932500000000002,-0.1479999999999997,100.0,1.0,1.0,212.82,0.0,0.0,0.0,0.0,0.0,0.0,0.0,9020.7,0.0,55.0,5.0,248.36666666666667,1.0,0.0,0.0,0.0,0.0,0.0,0.0,0.0,1.259999999999998,1.259999999999998,0.0,0.0,1.0,55.0,616.79921,10000.0,85.000001,85.000001,85.000001,85.000001,395.0,0.0,0.0,0.0,1.0,166.665,51.666,51.666,47.852000000000004,47.852000000000004,34.0,-25.8175,27.053333333333335,-28.026666666666664,28.23,0.0,1781.798,-0.3049999999999997,100.0,28.162,28.089,43.106,43.198,0.0,0.0,100.0,0.0,0.0,0.0,0.0,3280.714285714286,3347.2,4025.125,4133.0,304.919,304.248,315.13075,314.67325,22.005,20.6421,22.029,21.5372,314.999998,314.999998,324.999988,324.999988,99.55867142857143,99.50733333333334,99.5686,99.54874285714286,0.08666666666666645,-0.033666666666666734,-0.10133333333333333,0.111,-0.036666666666668846,-0.05833333333333002,1.5554999999999999,1.5394999999999999,38.532,30.012999999999998,38.681,35.6075,55.816,35.346000000000004,59.9525,53.132,53.757,34.4785,58.5185,51.43,52.909,34.037,58.409,50.824333333333335,-0.09750000000000003,-0.05449999999999999,0.10467000000000001,0.10185000000000001,0.0,216.01,216.015,212.82,212.82,0.0,0.0
26,0.0,0.0,0.0,1.0,1.0,0.0,0.0,1.0,0.0,0.0,1.0,1.1856,26.0,0.0,0.0,0.0,59.999996,0.0,26.0,26.0,26.0,26.0,0.011111111111111072,0.2896000000000001,0.08976666666666666,291.29,-2.6706,-2.7361,-1.54805,-1.5319,-187.8,215.595,190.43,0.0,0.0,0.0,0.0,0.052700000000000004,-5.498166666666667,-5.498166666666667,-0.5719000000000001,0.4176666666666667,0.00477777777777777,0.8599999999999999,69.127,0.0058000000000000005,-0.2001,-0.24600000000000044,100.0,1.0,1.0,212.96666666666667,0.0,0.0,0.0,0.0,0.0,0.0,0.0,9026.9,0.0,55.0,5.0,248.82999999999998,0.0,0.0,0.0,0.0,0.0,0.0,0.0,0.0,1.3079999999999998,1.3079999999999998,0.0,0.0,0.0,55.0,616.79921,10000.0,85.000001,85.000001,85.000001,85.000001,395.0,0.0,0.0,0.0,1.0,166.665,51.666,51.666,46.371,46.371,34.0,-23.0175,25.425,-30.866666666666664,32.865,0.0,1781.75,-0.3049999999999997,100.0,28.871,28.534,43.688,43.699,0.0,0.0,100.0,0.0,0.0,0.0,0.0,3134.5714285714284,3110.0,4496.5,4571.1,305.2475,304.92825,313.89125,313.66075,22.014,20.6475,22.039,21.546,314.999998,314.999998,324.999988,324.999988,99.5587,99.50735,99.56874285714285,99.54888571428572,0.1030000000000002,-0.04200000000000004,-0.08816666666666667,0.12216666666666667,-0.03999999999999915,-0.061666666666667425,1.444,1.4405000000000001,38.588,30.046666666666667,38.744,35.6625,55.807,35.384,59.9905,53.1905,53.748000000000005,34.513999999999996,58.5535,51.4865,52.899,34.071,58.4415,50.879666666666665,-0.10899999999999999,-0.05600000000000005,0.10216000000000001,0.10376,0.0,216.42000000000002,216.44,212.96666666666667,212.96666666666667,0.0,0.0
27,0.0,0.0,0.0,1.0,1.0,0.0,0.0,1.0,0.0,0.0,1.0,1.1856,26.0,0.0,0.0,0.0,59.999996,0.0,26.0,26.0,26.0,26.0,0.02388888888888885,0.25980000000000003,-0.04686666666666667,291.87,-2.7432,-2.6695,-1.6061,-1.6196000000000002,-184.48000000000002,215.59,190.406875,0.0,0.0,0.0,0.0,0.0546,-5.498166666666667,-5.498166666666667,-0.5979,-0.9450000000000001,0.009777777777777885,0.633,69.25,0.0092,-0.240425,-0.2560000000000002,100.0,1.0,1.0,213.51,0.0,0.0,0.0,0.0,0.0,0.0,0.0,9050.0,0.0,55.0,5.0,249.27333333333334,1.0,0.0,0.0,0.0,0.0,0.0,0.0,0.0,1.355999999999998,1.355999999999998,0.0,0.0,1.0,55.0,616.79921,10000.0,85.000001,85.000001,85.000001,85.000001,395.0,0.0,0.0,0.0,1.0,166.665,52.016999999999996,52.016999999999996,46.753,46.753,34.0,-23.05,25.835,-28.43,29.7875,0.0,1781.702,-0.2699999999999996,100.0,28.497,28.416,44.121,44.077,0.0,0.0,100.0,0.0,0.0,0.0,0.0,3029.714285714286,3210.3,4095.75,4051.7,305.6685,304.69225,314.903,314.798,22.0228,20.6528,22.049,21.5548,314.999998,314.999998,324.999988,324.999988,99.55871428571429,99.50735,99.56888571428571,99.54902857142856,0.09399999999999986,-0.03833333333333311,-0.09566666666666668,0.12833333333333335,-0.045000000000001705,-0.06499999999999773,1.5110000000000001,1.5095,38.643,30.079666666666668,38.806,35.7175,55.794,35.421,60.0265,53.2485,53.736000000000004,34.548,58.5875,51.542,52.885999999999996,34.1035,58.472,50.93366666666667,-0.09999999999999998,-0.05750000000000011,0.10861000000000001,0.10610000000000001,0.0,216.76,216.76999999999998,213.51,213.51,0.0,0.0
28,0.0,0.0,0.0,1.0,1.0,0.0,0.0,1.0,0.0,0.0,1.0,1.1856,26.0,0.0,0.0,0.0,59.999996,0.0,26.0,26.0,26.0,26.0,0.016888888888888953,0.26750000000000007,-0.03933333333333333,291.946,-2.6751,-2.6638,-1.6186,-1.5743,-180.73000000000002,215.58249999999998,190.379875,0.0,0.0,0.0,0.0,0.0568,-5.498166666666667,-5.498166666666667,-0.5991000000000001,0.623,-0.0015555555555555323,0.5790000000000002,69.388,0.0097,-0.21100000000000002,-0.22999999999999954,100.0,1.0,1.0,213.99666666666667,0.0,0.0,0.0,0.0,0.0,0.0,0.0,9070.6,0.0,55.0,5.0,249.76999999999998,0.0,0.0,0.0,0.0,0.0,0.0,0.0,0.0,1.4100000000000001,1.4100000000000001,0.0,0.0,0.0,55.0,616.79921,10000.0,85.000001,85.000001,85.000001,85.000001,395.0,0.0,0.0,0.0,1.0,166.665,52.016999999999996,52.016999999999996,47.195,47.195,34.0,-22.0275,25.443333333333335,-29.326666666666664,30.565,0.0,1781.649,-0.33999999999999986,100.0,28.626,28.369,43.501,43.676,0.0,0.0,100.0,0.0,0.0,0.0,0.0,3023.714285714286,3161.6,4197.25,4196.9,305.5385,304.80475,314.7705,314.573,22.0328,20.6588,22.0598,21.5644,314.999998,314.999998,324.999988,324.999988,99.55871428571429,99.50735,99.56902857142857,99.54918571428571,0.10633333333333361,-0.036666666666666625,-0.09933333333333333,0.135,-0.04333333333332945,-0.04833333333333201,1.553,1.523,38.705,30.117333333333335,38.873999999999995,35.7775,55.783,35.463,60.062,53.3095,53.724999999999994,34.587,58.6205,51.601,52.873999999999995,34.1405,58.501999999999995,50.99133333333333,-0.10799999999999998,-0.05699999999999994,0.107285,0.107355,0.0,217.235,217.245,213.99666666666667,213.99666666666667,0.0,0.0
29,0.0,0.0,0.0,1.0,1.0,0.0,0.0,1.0,0.0,0.0,1.0,1.1856,26.0,0.0,0.0,0.0,59.999996,0.0,26.0,26.0,26.0,26.0,0.0257777777777779,0.2553000000000001,-0.0105,291.794,-2.6576,-2.7181,-1.5714000000000001,-1.5513,-177.39999999999998,215.57999999999998,190.355,0.0,0.0,0.0,0.0,0.05873333333333334,-5.498166666666667,-5.498166666666667,-0.6055,-0.7033333333333334,0.0014444444444443594,0.835,69.515,0.010400000000000001,-0.21530000000000002,-0.3039999999999994,100.0,1.0,1.0,214.25,0.0,0.0,0.0,0.0,0.0,0.0,0.0,9081.3,0.0,55.0,5.0,250.22666666666666,1.0,0.0,0.0,0.0,0.0,0.0,0.0,0.0,1.4579999999999984,1.4579999999999984,0.0,0.0,1.0,55.0,616.79921,10000.0,85.000001,85.000001,85.000001,85.000001,395.0,0.0,0.0,0.0,1.0,166.665,52.2,52.2,46.799,46.799,34.0,-21.955,25.733333333333334,-28.593333333333334,31.8275,0.0,1781.6,-0.39000000000000057,100.0,28.332,28.258,43.929,43.979,0.0,0.0,100.0,0.0,0.0,0.0,0.0,3037.857142857143,3133.6,4133.875,4320.9,305.592,304.8765,314.73825,314.203,22.0415,20.664,22.0698,21.5732,314.999998,314.999998,324.999988,324.999988,99.55872857142857,99.50736666666667,99.56917142857142,99.54932857142857,0.10466666666666669,-0.035666666666666735,-0.09666666666666668,0.13783333333333334,-0.030000000000001137,-0.045000000000001705,1.4745,1.4705,38.759,30.150333333333336,38.936,35.832499999999996,55.769999999999996,35.499,60.099000000000004,53.368,53.713,34.62,58.655,51.657,52.861000000000004,34.172,58.533,51.046,-0.10549999999999993,-0.04699999999999993,0.11044000000000001,0.10975000000000001,0.0,217.57999999999998,217.57999999999998,214.25,214.25,0.0,0.0
30,0.0,0.0,0.0,1.0,1.0,0.0,0.0,1.0,0.0,0.0,1.0,1.1856,26.0,0.0,0.0,0.0,59.999996,0.0,26.0,26.0,26.0,26.0,0.027444444444444382,0.24819999999999998,0.0438,291.214,-2.6749,-2.6052,-1.63595,-1.6063,-174.06,215.575,190.330125,0.0,0.0,0.0,0.0,0.06066666666666667,-5.498166666666667,-5.498166666666667,-0.6047,0.8716666666666667,-0.0009999999999998899,0.581,69.635,0.013600000000000001,-0.21755000000000002,-0.2999999999999998,100.0,1.0,1.0,214.72333333333333,0.0,0.0,0.0,0.0,0.0,0.0,0.0,9101.4,0.0,55.0,5.0,250.66,0.0,0.0,0.0,0.0,0.0,0.0,1.0,0.0,1.5060000000000002,1.5060000000000002,0.0,0.0,0.0,55.0,616.79921,10000.0,85.000001,85.000001,85.000001,85.000001,395.0,0.0,0.0,0.0,1.0,333.33500000000004,50.659,50.659,47.134,47.134,34.0,-24.37,26.268333333333334,-29.156666666666666,30.62,0.0,1781.551,-0.34499999999999886,100.0,29.251,29.04,43.698,43.963,0.0,0.0,100.0,0.0,0.0,0.0,0.0,3286.142857142857,3308.2,4186.125,4130.9,304.7295,304.2565,314.863,314.638,22.0505,20.6696,22.0796,21.5819,314.999998,314.999998,324.999988,324.999988,99.55874285714286,99.50736666666667,99.56931428571428,99.54947142857142,0.10499999999999998,-0.03933333333333322,-0.09166666666666667,0.13433333333333333,-0.03333333333333144,-0.05333333333332746,1.5165,1.5045,38.815,30.185000000000002,38.997,35.8865,55.762,35.5385,60.132,53.423500000000004,53.705,34.6565,58.685,51.711,52.852000000000004,34.207,58.5605,51.09866666666667,-0.10799999999999998,-0.0605,0.10812500000000001,0.11239,0.0,217.985,218.005,214.72333333333333,214.72333333333333,0.0,0.0
31,0.0,0.0,0.0,1.0,1.0,0.0,0.0,1.0,0.0,0.0,1.0,1.1856,26.0,0.0,0.0,0.0,59.999996,0.0,26.0,26.0,26.0,26.0,0.023333333333333428,0.25660000000000016,0.0369,290.863,-2.7666,-2.632,-1.593,-1.5015,-170.51,215.57,190.30425,0.0,0.0,0.0,0.0,0.06273333333333334,-5.498166666666667,-5.498166666666667,-0.5896,-0.4513333333333333,0.00477777777777777,-0.7679999999999998,69.768,0.0164,-0.22240000000000001,-0.266,100.0,1.0,1.0,214.97333333333333,0.0,0.0,0.0,0.0,0.0,0.0,0.0,9111.9,0.0,55.0,5.0,251.14,1.0,0.0,0.0,0.0,0.0,0.0,1.0,0.0,1.5569999999999986,1.5569999999999986,0.0,0.0,1.0,55.0,616.79921,10000.0,85.000001,85.000001,85.000001,85.000001,395.0,0.0,0.0,0.0,1.0,166.665,51.086,51.086,45.715,45.715,34.0,-24.7675,26.261666666666667,-30.81,30.1175,0.0,1781.502,-0.3949999999999996,100.0,28.835,29.22,44.368,44.777,0.0,0.0,100.0,0.0,0.0,0.0,0.0,3257.5714285714284,3273.8,4335.125,4247.8,305.1935,304.38375,314.32675,314.25075,22.0598,20.6754,22.0903,21.5914,314.999998,314.999998,324.999988,324.999988,99.55875714285715,99.50736666666667,99.56947142857143,99.54961428571428,0.10099999999999998,-0.03766666666666674,-0.09983333333333333,0.125,-0.04999999999999716,-0.03999999999999915,1.447,1.442,38.873999999999995,30.221,39.064,35.946,55.751000000000005,35.5785,60.172,53.487,53.694,34.6935,58.723,51.772,52.84,34.2425,58.595,51.15833333333333,-0.11049999999999993,-0.05049999999999999,0.10854000000000001,0.10244,0.0,218.39,218.375,214.97333333333333,214.97333333333333,0.0,0.0
32,0.0,0.0,0.0,1.0,1.0,0.0,0.0,1.0,0.0,0.0,1.0,1.1856,26.0,0.0,0.0,0.0,59.999996,0.0,26.0,26.0,26.0,26.0,0.046111111111111214,0.25890000000000013,-0.0032,291.367,-2.6894,-2.6918,-1.577,-1.6316000000000002,-166.73000000000002,215.5675,190.27725,0.0,0.0,0.0,0.0,0.06493333333333334,-5.498166666666667,-5.498166666666667,-0.6069,-0.2616666666666667,-0.01855555555555588,-1.134,69.904,0.019,-0.23045000000000002,-0.3020000000000005,100.0,1.0,1.0,215.48666666666668,0.0,0.0,0.0,0.0,0.0,0.0,0.0,9133.7,0.0,55.0,5.0,251.62666666666667,0.0,0.0,0.0,0.0,0.0,0.0,1.0,0.0,1.6110000000000007,1.6110000000000007,0.0,0.0,0.0,55.0,616.79921,10000.0,85.000001,85.000001,85.000001,85.000001,395.0,0.0,0.0,0.0,1.0,166.665,51.59,51.59,46.677,46.677,34.0,-23.1225,25.10333333333333,-28.04,31.945,0.0,1781.448,-0.35999999999999943,100.0,28.737000000000002,29.022,44.146,44.601,0.0,0.0,100.0,0.0,0.0,0.0,0.0,3165.142857142857,3073.8,4136.125,4213.8,305.3405,304.9265,314.83575,314.332,22.0696,20.6815,22.1013,21.6012,314.999998,314.999998,324.999988,324.999988,99.55877142857143,99.50738333333334,99.56962857142857,99.54977142857143,0.10633333333333361,-0.03600000000000003,-0.0895,0.1355,-0.03999999999999915,-0.045000000000001705,1.5115,1.505,38.935,30.259333333333334,39.132999999999996,36.0075,55.739000000000004,35.6205,60.2095,53.5505,53.683,34.732,58.7575,51.833,52.828,34.2795,58.626,51.217666666666666,-0.11449999999999994,-0.050000000000000044,0.10651000000000001,0.10553000000000001,0.0,218.785,218.81,215.48666666666668,215.48666666666668,0.0,0.0
33,0.0,0.0,0.0,1.0,1.0,0.0,0.0,1.0,0.0,0.0,1.0,1.1856,26.0,0.0,0.0,0.0,59.999996,0.0,26.0,26.0,26.0,26.0,0.03255555555555567,0.2631000000000001,-0.0371,291.595,-2.7352,-2.6819,-1.5889,-1.5912000000000002,-163.38,215.5675,190.252125,0.0,0.0,0.0,0.0,0.06686666666666667,-5.498166666666667,-5.498166666666667,-0.6163000000000001,-0.296,-0.015111111111111075,-0.10999999999999988,70.024,0.0206,-0.21705000000000002,-0.21999999999999975,100.0,1.0,1.0,215.87,0.0,0.0,0.0,0.0,0.0,0.0,0.0,9150.0,0.0,55.0,5.0,252.06333333333333,1.0,0.0,0.0,0.0,0.0,0.0,1.0,0.0,1.658999999999999,1.658999999999999,0.0,0.0,1.0,55.0,616.79921,10000.0,85.000001,85.000001,85.000001,85.000001,395.0,0.0,0.0,0.0,1.0,166.665,51.849000000000004,51.849000000000004,46.982,46.982,34.0,-23.7975,24.338333333333335,-28.906666666666666,30.275000000000002,0.0,1781.399,-0.36499999999999844,100.0,28.572,28.728,43.979,44.365,0.0,0.0,100.0,0.0,0.0,0.0,0.0,3194.4285714285716,3020.4,4131.375,4172.7,305.317,305.089,314.859,314.50775,22.0783,20.6867,22.1111,21.6099,314.999998,314.999998,324.999988,324.999988,99.55878571428572,99.50738333333334,99.56975714285714,99.54991428571428,0.10533333333333372,-0.04066666666666663,-0.10266666666666667,0.12266666666666667,-0.05333333333332746,-0.054999999999999716,1.4975,1.4969999999999999,38.989000000000004,30.292,39.194,36.0615,55.727999999999994,35.6555,60.243,53.6055,53.672,34.7645,58.789,51.8855,52.816,34.3105,58.6545,51.269333333333336,-0.11149999999999993,-0.05449999999999999,0.11101000000000001,0.09959000000000001,0.0,219.175,219.17000000000002,215.87,215.87,0.0,0.0
34,0.0,0.0,0.0,1.0,1.0,0.0,0.0,1.0,0.0,0.0,1.0,1.1856,26.0,0.0,0.0,0.0,59.999996,0.0,26.0,26.0,26.0,26.0,0.03344444444444439,0.2532000000000001,-0.07923333333333334,291.855,-2.6654999999999998,-2.682,-1.6235,-1.5272000000000001,-160.01,215.565,190.22575,0.0,0.0,0.0,0.0,0.06883333333333334,-5.498166666666667,-5.498166666666667,-0.6425000000000001,-0.8596666666666667,0.009888888888888836,-0.16400000000000015,70.146,0.0229,-0.2223,-0.2679999999999998,100.0,1.0,1.0,216.23000000000002,0.0,0.0,0.0,0.0,0.0,0.0,0.0,9165.1,0.0,55.0,5.0,252.5,0.0,0.0,0.0,0.0,0.0,0.0,1.0,0.0,1.7070000000000007,1.7070000000000007,0.0,0.0,0.0,55.0,616.79921,10000.0,85.000001,85.000001,85.000001,85.000001,395.0,0.0,0.0,0.0,1.0,166.665,52.292,52.292,47.211,47.211,34.0,-22.56,24.545,-28.633333333333333,30.1075,0.0,1781.35,-0.3150000000000013,100.0,28.321,28.397,43.838,44.407,0.0,0.0,100.0,0.0,0.0,0.0,0.0,3108.5714285714284,3041.1,4127.25,4182.0,305.571,305.1575,314.91225,314.53075,22.0868,20.692,22.1209,21.6186,314.999998,314.999998,324.999988,324.999988,99.5588,99.5074,99.56991428571429,99.55005714285714,0.10199999999999987,-0.03633333333333311,-0.09166666666666667,0.1355,-0.046666666666666856,-0.046666666666666856,1.5190000000000001,1.49,39.043,30.325,39.254999999999995,36.1165,55.716,35.69,60.2755,53.662,53.661,34.7965,58.819,51.9405,52.804,34.341,58.6815,51.32266666666666,-0.10749999999999993,-0.05249999999999999,0.1073,0.10781500000000001,0.0,219.535,219.54000000000002,216.23000000000002,216.23000000000002,0.0,0.0
35,0.0,0.0,0.0,1.0,1.0,0.0,0.0,1.0,0.0,0.0,1.0,1.1856,26.0,0.0,0.0,0.0,59.999996,0.0,26.0,26.0,26.0,26.0,0.0387777777777778,0.24960000000000004,-0.028900000000000002,291.809,-2.7205,-2.6231999999999998,-1.6167,-1.5188000000000001,-156.22,215.565,190.193875,0.0,0.0,0.0,0.0,0.07103333333333334,-5.498166666666667,-5.498166666666667,-0.6815,-0.10366666666666667,-0.012444444444444258,-1.414,70.28,0.0239,-0.226,-0.25399999999999956,100.0,1.0,1.0,216.73333333333335,0.0,0.0,0.0,0.0,0.0,0.0,0.0,9186.5,0.0,55.0,5.0,252.98333333333335,1.0,0.0,0.0,0.0,0.0,0.0,1.0,0.0,1.7609999999999992,1.7609999999999992,0.0,0.0,1.0,55.0,616.79921,10000.0,85.000001,85.000001,85.000001,85.000001,395.0,0.0,0.0,0.0,1.0,166.665,51.62,51.62,46.906,46.906,34.0,-23.86,26.571666666666665,-27.783333333333335,28.4425,0.0,1781.298,-0.19500000000000028,100.0,28.164,28.815,43.595,43.873000000000005,0.0,0.0,100.0,0.0,0.0,0.0,0.0,3172.714285714286,3316.9,4040.125,4007.4,305.381,304.1885,315.08975,314.966,22.0964,20.6982,22.1318,21.6283,314.999998,314.999998,324.999988,324.999988,99.55881428571429,99.5074,99.57005714285714,99.55021428571429,0.09666666666666668,-0.04033333333333311,-0.09266666666666667,0.1385,-0.054999999999999716,-0.03999999999999915,1.55,1.5354999999999999,39.102000000000004,30.363333333333333,39.324,36.1765,55.701,35.7325,60.3115,53.7215,53.646,34.835499999999996,58.8525,51.9975,52.788,34.3785,58.7115,51.37866666666667,-0.09899999999999998,-0.07000000000000006,0.10894500000000001,0.11228,0.0,219.95499999999998,219.95499999999998,216.73333333333335,216.73333333333335,0.0,0.0
36,0.0,0.0,0.0,1.0,1.0,0.0,0.0,1.0,0.0,0.0,1.0,1.1856,26.0,0.0,0.0,0.0,59.999996,0.0,26.0,26.0,26.0,26.0,0.04033333333333333,0.26170000000000004,0.0264,291.199,-2.643,-2.7135,-1.65705,-1.5814,-152.84,215.565,190.164375,0.0,0.0,0.0,0.0,0.07300000000000001,-5.498166666666667,-5.498166666666667,-0.6625,0.057,-0.05500000000000016,-1.405,70.402,0.018500000000000003,-0.201625,-0.03000000000000025,100.0,1.0,1.0,216.87333333333333,0.0,0.0,0.0,0.0,0.0,0.0,0.0,9192.4,0.0,55.0,5.0,253.42333333333335,0.0,0.0,0.0,0.0,0.0,0.0,1.0,0.0,1.809000000000001,1.809000000000001,0.0,0.0,0.0,55.0,616.79921,10000.0,85.000001,85.000001,85.000001,85.000001,395.0,0.0,0.0,0.0,1.0,166.665,51.879999999999995,51.879999999999995,46.356,46.356,34.0,-22.43,23.705,-33.25333333333333,33.2775,0.0,1781.25,-0.14000000000000057,100.0,28.734,28.883,43.863,44.281,0.0,0.0,100.0,0.0,0.0,0.0,0.0,3049.142857142857,2944.6,4491.5,4477.2,305.545,305.102,314.2125,313.8165,22.1051,20.7036,22.1416,21.6371,314.999998,314.999998,324.999988,324.999988,99.55882857142858,99.5074,99.5702,99.55035714285714,0.09399999999999986,-0.05266666666666664,-0.10716666666666667,0.12766666666666668,-0.045000000000001705,-0.04333333333332945,1.439,1.4489999999999998,39.157,30.397666666666666,39.385,36.232,55.691,35.769999999999996,60.3465,53.778999999999996,53.637,34.8705,58.885,52.0535,52.778,34.412,58.741,51.433,-0.09050000000000002,-0.07050000000000001,0.11544000000000001,0.10730500000000001,0.0,220.365,220.35000000000002,216.87333333333333,216.87333333333333,0.0,0.0
