,ABS Active,ABS Enabled,AID Allow Tire Blankets,AID Auto Blip,AID Auto Clutch,AID Auto Shift,AID Fuel Rate,AID Ideal Line,AID Mech Damage,AID Stability,AID Tire Wear Rate,Air Density,Air Temp,Ballast,Best Lap Delta,Best Lap Time,Brake Bias,Brake Pos,Brake Temp FL,Brake Temp FR,Brake Temp RL,Brake Temp RR,CG Accel Lateral,CG Accel Longitudinal,CG Accel Vertical,CG Height,Camber FL,Camber FR,Camber RL,Camber RR,Car Coord X,Car Coord Y,Car Coord Z,Car Damage Front,Car Damage Left,Car Damage Rear,Car Damage Right,Car Pos Norm,Caster FL,Caster FR,Chassis Pitch Angle,Chassis Pitch Rate,Chassis Roll Angle,Chassis Roll Rate,Chassis Velocity X,Chassis Velocity Y,Chassis Velocity Z,Chassis Yaw Rate,Clutch Pos,DRS Active,DRS Available,Drive Train Speed,ERS Heat Charging,ERS Is Charging,ERS Max Energy,ERS Power Level,ERS Recovery Level,Engine Brake Setting,Engine Limiter,Engine RPM,Flags,Fuel Level,Gear,Ground Speed,HR Sample Clock,In Pit,KERS Charge,KERS Deployed Energy,KERS Input,KERS Max Energy,LR Sample Clock,Lap Invalidated,Lap Time,Lap Time2,Last Lap Time,Last Sector Time,MR Sample Clock,Max Fuel,Max Power,Max RPM,Max Sus Travel FL,Max Sus Travel FR,Max Sus Travel RL,Max Sus Travel RR,Max Torque,Max Turbo Boost,Num Tires Off Track,Penalties Enabled,Position,Raw Data Sample Rate,Ride Height FL,Ride Height FR,Ride Height RL,Ride Height RR,Road Temp,Self Align Torque FL,Self Align Torque FR,Self Align Torque RL,Self Align Torque RR,Session Lap Count,Session Time Left,Steering Angle,Surface Grip,Suspension Travel FL,Suspension Travel FR,Suspension Travel RL,Suspension Travel RR,TC Active,TC Enabled,Throttle Pos,Tire Dirt Level FL,Tire Dirt Level FR,Tire Dirt Level RL,Tire Dirt Level RR,Tire Load FL,Tire Load FR,Tire Load RL,Tire Load RR,Tire Loaded Radius FL,Tire Loaded Radius FR,Tire Loaded Radius RL,Tire Loaded Radius RR,Tire Pressure FL,Tire Pressure FR,Tire Pressure RL,Tire Pressure RR,Tire Radius FL,Tire Radius FR,Tire Radius RL,Tire Radius RR,Tire Rubber Grip FL,Tire Rubber Grip FR,Tire Rubber Grip RL,Tire Rubber Grip RR,Tire Slip Angle FL,Tire Slip Angle FR,Tire Slip Angle RL,Tire Slip Angle RR,Tire Slip Ratio FL,Tire Slip Ratio FR,Tire Slip Ratio RL,Tire Slip Ratio RR,Tire Temp Core FL,Tire Temp Core FR,Tire Temp Core RL,Tire Temp Core RR,Tire Temp Inner FL,Tire Temp Inner FR,Tire Temp Inner RL,Tire Temp Inner RR,Tire Temp Middle FL,Tire Temp Middle FR,Tire Temp Middle RL,Tire Temp Middle RR,Tire Temp Outer FL,Tire Temp Outer FR,Tire Temp Outer RL,Tire Temp Outer RR,Toe In FL,Toe In FR,Toe In RL,Toe In RR,Turbo Boost,Wheel Angular Speed FL,Wheel Angular Speed FR,Wheel Angular Speed RL,Wheel Angular Speed RR,Wind Direction,Wind Speed
0,0.0,0.0,0.0,1.0,1.0,0.0,0.0,1.0,0.0,0.0,1.0,1.1856,26.0,0.0,0.0,0.0,59.99999,0.0,26.0,26.0,26.0,26.0,-0.06777777777777783,0.29720000000000013,0.065875,293.976,-2.7232,-2.657,-1.5199500000000001,-1.5559,-275.55,216.29250000000002,190.98675,0.0,0.0,0.0,0.0,0.0016666666666665941,-5.498166666666667,-5.498166666666667,-0.5473,1.071,-0.00550000000000006,-0.6429999999999998,65.547,-0.03279999999999994,-0.21255000000000002,0.9579999999999993,100.0,1.0,1.0,202.37666666666667,0.0,0.0,0.0,0.0,0.0,0.0,0.0,8577.9,0.0,55.0,5.0,235.94,0.0,0.0,0.0,0.0,0.0,0.0,0.0,0.0,0.006000000000000227,0.006000000000000227,0.0,0.0,0.0,55.0,616.79921,10000.0,85.0,85.0,85.0,85.0,395.0,0.0,0.0,0.0,1.0,20.0,52.719,52.719,49.484,49.484,34.0,-26.4425,24.092,-29.606666666666666,25.165,0.0,1783.6125,0.8099999999999987,100.0,27.41,26.965,40.635,40.621,0.0,0.0,100.0,0.0,0.0,0.0,0.0,3017.714285714286,3432.7,4086.375,3966.3,305.6765,303.93725,314.8925,314.94,21.795,20.512999999999998,21.767125,21.3079,314.99999,314.99999,324.99998,324.99998,99.55988571428571,99.50716666666666,99.56522857142858,99.54505714285715,0.000500000000000167,-0.1153333333333334,-0.15149999999999997,0.07550000000000012,-0.051666666666669414,-0.07333333333333059,1.5685,1.593,37.219,29.206,37.045,34.175,56.631,34.498999999999995,59.0875,51.5775,54.521,33.6575,57.716,49.9365,53.677,33.209,57.6835,49.3605,-0.009000000000000008,-0.137,0.10621000000000001,0.11242,0.0,205.41,205.335,202.37666666666667,202.37666666666667,0.0,0.0
1,0.0,0.0,0.0,1.0,1.0,0.0,0.0,1.0,0.0,0.0,1.0,1.1856,26.0,0.0,0.0,0.0,59.999996,0.0,26.0,26.0,26.0,26.0,-0.09777777777777785,0.30800000000000005,0.18782500000000002,292.984,-2.6346,-2.7646,-1.52075,-1.5510000000000002,-272.21,216.28750000000002,190.966625,0.0,0.0,0.0,0.0,0.0035999999999999366,-5.498166666666667,-5.498166666666667,-0.4985,-0.7415,-0.056375000000000064,-0.6339999999999999,65.703,-0.05119999999999991,-0.196475,1.4139999999999997,100.0,1.0,1.0,202.49,0.0,0.0,0.0,0.0,0.0,0.0,0.0,8582.8,0.0,55.0,5.0,236.5,1.0,0.0,0.0,0.0,0.0,0.0,0.0,0.0,0.05699999999999861,0.05699999999999861,0.0,0.0,1.0,55.0,616.79921,10000.0,85.000001,85.000001,85.000001,85.000001,395.0,0.0,0.0,0.0,1.0,333.33500000000004,53.467,53.467,48.263999999999996,48.263999999999996,34.0,-27.4575,18.244,-35.07,29.3875,0.0,1783.56,0.875,100.0,27.564,27.037,42.43,41.717,0.0,0.0,100.0,0.0,0.0,0.0,0.0,3154.857142857143,2702.3,4437.0,4719.6,305.3175,306.234,313.9435,313.087,21.805,20.5181,21.778,21.3171,314.999998,314.999998,324.999988,324.999988,99.5599,99.50718333333333,99.56538571428571,99.5452,-0.010750000000000037,-0.1376666666666666,-0.17566666666666664,0.038999999999999924,-0.03166666666666629,-0.03999999999999915,1.393,1.4495,37.281,29.238,37.113,34.232,56.614000000000004,34.54,59.1335,51.6425,54.504999999999995,33.695,57.759,49.9985,53.66,33.245,57.7235,49.4215,-0.005499999999999949,-0.14100000000000001,0.10135000000000001,0.10607000000000001,0.0,205.84,205.76,202.49,202.49,0.0,0.0
2,0.0,0.0,0.0,1.0,1.0,0.0,0.0,1.0,0.0,0.0,1.0,1.1856,26.0,0.0,0.0,0.0,59.999996,0.0,26.0,26.0,26.0,26.0,-0.12344444444444447,0.2875000000000001,-0.042575,293.747,-2.621,-2.7755,-1.5039,-1.5917,-268.65,216.2775,190.94675,0.0,0.0,0.0,0.0,0.005666666666666598,-5.498166666666667,-5.498166666666667,-0.5519000000000001,0.30299999999999994,-0.03287500000000021,1.463,65.852,-0.07289999999999996,-0.2558,1.5739999999999998,100.0,1.0,1.0,203.48666666666668,0.0,0.0,0.0,0.0,0.0,0.0,0.0,8625.0,0.0,55.0,5.0,237.04000000000002,0.0,0.0,0.0,0.0,0.0,0.0,0.0,0.0,0.11100000000000065,0.11100000000000065,0.0,0.0,0.0,55.0,616.79921,10000.0,85.000001,85.000001,85.000001,85.000001,395.0,0.0,0.0,0.0,1.0,166.665,52.383,52.383,50.339,50.339,34.0,-29.7775,20.034,-29.07,20.37,0.0,1783.5075,0.6750000000000007,100.0,28.277,27.154,42.3,41.324,0.0,0.0,100.0,0.0,0.0,0.0,0.0,3333.714285714286,2967.4,3692.125,3746.3,304.6975,305.30925,315.81675,315.6025,21.81585714285714,20.5234,21.789125,21.3263,314.999998,314.999998,324.999988,324.999988,99.5599,99.5072,99.56551428571429,99.54534285714286,-0.021749999999999936,-0.15000000000000002,-0.22816666666666663,0.00883333333333347,-0.06833333333332803,-0.051666666666669414,1.637,1.702,37.349000000000004,29.271,37.182,34.29,56.599999999999994,34.582,59.173,51.703,54.492000000000004,33.734,57.796,50.0565,53.644999999999996,33.282,57.7575,49.4785,-0.024499999999999966,-0.131,0.10873500000000001,0.11058000000000001,0.0,206.36,206.22500000000002,203.48666666666668,203.48666666666668,0.0,0.0
3,0.0,0.0,0.0,1.0,1.0,0.0,0.0,1.0,0.0,0.0,1.0,1.1856,26.0,0.0,0.0,0.0,59.999996,0.0,26.0,26.0,26.0,26.0,-0.12877777777777777,0.3023,0.08650000000000001,293.503,-2.7271,-2.6958,-1.5075500000000002,-1.594,-265.69,216.26749999999998,190.929375,0.0,0.0,0.0,0.0,0.007399999999999962,-5.498166666666667,-5.498166666666667,-0.5104000000000001,0.371,-0.01100000000000012,0.0810000000000004,65.987,-0.08549999999999991,-0.199025,1.2140000000000004,100.0,1.0,1.0,203.57333333333332,0.0,0.0,0.0,0.0,0.0,0.0,0.0,8628.7,0.0,55.0,5.0,237.5233333333333,1.0,0.0,0.0,0.0,0.0,0.0,0.0,0.0,0.1559999999999988,0.1559999999999988,0.0,0.0,1.0,55.0,616.79921,10000.0,85.000001,85.000001,85.000001,85.000001,395.0,0.0,0.0,0.0,1.0,166.665,53.604,53.604,48.218,48.218,34.0,-25.5775,18.6,-34.58,25.330000000000002,0.0,1783.4625,0.6000000000000014,100.0,27.923000000000002,26.94,42.358000000000004,41.342,0.0,0.0,100.0,0.0,0.0,0.0,0.0,2852.285714285714,2877.9,4305.75,4249.8,306.093,305.683,314.2885,314.33375,21.824571428571428,20.528,21.79825,21.3342,314.999998,314.999998,324.999988,324.999988,99.5599,99.50721666666666,99.56565714285715,99.54547142857143,-0.01749999999999985,-0.14933333333333332,-0.2015,0.02499999999999991,-0.045000000000001705,-0.06333333333333258,1.4805,1.5314999999999999,37.403,29.299999999999997,37.239000000000004,34.339,56.584,34.619,59.208,51.7585,54.476,33.7685,57.8285,50.11,53.629999999999995,33.315,57.7875,49.5305,-0.03049999999999997,-0.12050000000000005,0.09861500000000001,0.111835,0.0,206.78,206.66,203.57333333333332,203.57333333333332,0.0,0.0
4,0.0,0.0,0.0,1.0,1.0,0.0,0.0,1.0,0.0,0.0,1.0,1.1856,26.0,0.0,0.0,0.0,59.999996,0.0,26.0,26.0,26.0,26.0,-0.13888888888888895,0.2865,-0.005825,293.671,-2.6643,-2.7417,-1.5275500000000002,-1.5949,-262.32,216.2525,190.9095,0.0,0.0,0.0,0.0,0.009366666666666523,-5.498166666666667,-5.498166666666667,-0.5452,-0.7424999999999999,-0.07712500000000011,-1.701,66.133,-0.08649999999999991,-0.237125,1.152000000000001,100.0,1.0,1.0,204.16,0.0,0.0,0.0,0.0,0.0,0.0,0.0,8653.6,0.0,55.0,5.0,238.05,0.0,0.0,0.0,0.0,0.0,0.0,0.0,0.0,0.20700000000000074,0.20700000000000074,0.0,0.0,0.0,55.0,616.79921,10000.0,85.000001,85.000001,85.000001,85.000001,395.0,0.0,0.0,0.0,1.0,333.33500000000004,53.055,53.055,48.843,48.843,34.0,-29.7675,19.131999999999998,-33.026666666666664,20.495,0.0,1783.41,0.5599999999999987,100.0,27.616,26.884,42.737,41.455,0.0,0.0,100.0,0.0,0.0,0.0,0.0,3298.5714285714284,2892.6,4090.75,3685.8,304.9705,305.47625,314.843,315.6355,21.834285714285713,20.533,21.808875,21.3431,314.999998,314.999998,324.999988,324.999988,99.5599,99.50723333333333,99.5658,99.5456,-0.02574999999999994,-0.15266666666666662,-0.21699999999999997,0.01100000000000012,-0.05333333333332746,-0.03833333333332689,1.5745,1.6205000000000003,37.464,29.3315,37.306,34.394,56.566,34.66,59.25,51.817499999999995,54.459,33.806,57.868,50.1665,53.611999999999995,33.3515,57.824,49.586,-0.033499999999999974,-0.119,0.11259000000000001,0.10102000000000001,0.0,207.18,207.06,204.16,204.16,0.0,0.0
5,0.0,0.0,0.0,1.0,1.0,0.0,0.0,1.0,0.0,0.0,1.0,1.1856,26.0,0.0,0.0,0.0,59.999996,0.0,26.0,26.0,26.0,26.0,-0.11755555555555552,0.2957000000000001,0.008025000000000001,293.579,-2.6771,-2.7621,-1.5121,-1.5845,-258.74,216.23250000000002,190.887875,0.0,0.0,0.0,0.0,0.011433333333333295,-5.498166666666667,-5.498166666666667,-0.5348,0.345,-0.07975000000000021,-0.274,66.289,-0.08729999999999993,-0.21300000000000002,1.040000000000001,100.0,1.0,1.0,204.55666666666667,0.0,0.0,0.0,0.0,0.0,0.0,0.0,8670.5,0.0,55.0,5.0,238.61,1.0,0.0,0.0,0.0,0.0,0.0,0.0,0.0,0.26099999999999923,0.26099999999999923,0.0,0.0,1.0,55.0,616.79921,10000.0,85.000001,85.000001,85.000001,85.000001,395.0,0.0,0.0,0.0,1.0,166.665,53.406,53.406,48.859,48.859,34.0,-28.3675,19.088,-33.736666666666665,22.75,0.0,1783.3575,0.1700000000000017,100.0,27.735,26.761,42.534,41.247,0.0,0.0,100.0,0.0,0.0,0.0,0.0,3211.5714285714284,2783.4,4229.75,4070.3,305.1895,305.8625,314.5895,314.71175,21.845,20.5384,21.82,21.3524,314.999998,314.999998,324.999988,324.999988,99.55991428571429,99.50725,99.56594285714286,99.54575714285714,-0.009749999999999925,-0.1353333333333333,-0.20633333333333337,0.0038333333333333552,-0.054999999999999716,-0.045000000000001705,1.5305,1.5725000000000002,37.531,29.365499999999997,37.375,34.452,56.55,34.703,59.292500000000004,51.879,54.444,33.8455,57.9075,50.2255,53.596000000000004,33.388999999999996,57.8605,49.6435,-0.05899999999999994,-0.09000000000000008,0.10034000000000001,0.103355,0.0,207.7,207.59,204.55666666666667,204.55666666666667,0.0,0.0
6,0.0,0.0,0.0,1.0,1.0,0.0,0.0,1.0,0.0,0.0,1.0,1.1856,26.0,0.0,0.0,0.0,59.999996,0.0,26.0,26.0,26.0,26.0,-0.09955555555555551,0.30320000000000014,-0.003775,293.457,-2.6438,-2.7931,-1.5565,-1.5811000000000002,-255.56,216.2125,190.868625,0.0,0.0,0.0,0.0,0.013299999999999979,-5.498166666666667,-5.498166666666667,-0.5308,0.07999999999999996,-0.0625,-0.532,66.42699999999999,-0.07939999999999992,-0.214875,0.694,100.0,1.0,1.0,204.99666666666667,0.0,0.0,0.0,0.0,0.0,0.0,0.0,8689.0,0.0,55.0,5.0,239.10666666666668,0.0,0.0,0.0,0.0,0.0,0.0,0.0,0.0,0.30900000000000105,0.30900000000000105,0.0,0.0,0.0,55.0,616.79921,10000.0,85.000001,85.000001,85.000001,85.000001,395.0,0.0,0.0,0.0,1.0,166.665,53.192,53.192,48.691,48.691,34.0,-27.4,20.496,-33.45333333333333,22.935000000000002,0.0,1783.30875,0.03999999999999915,100.0,27.673000000000002,26.9,42.658,41.584,0.0,0.0,100.0,0.0,0.0,0.0,0.0,3189.285714285714,2861.2,4140.5,4010.8,305.213,305.51925,314.79475,314.85575,21.85442857142857,20.5433,21.829875,21.3608,314.999998,314.999998,324.999988,324.999988,99.55991428571429,99.50726666666667,99.56608571428572,99.54588571428572,0.002000000000000224,-0.12466666666666659,-0.20550000000000002,0.015833333333333366,-0.06499999999999773,-0.05833333333333002,1.5295,1.5705,37.59,29.3955,37.437,34.504999999999995,56.534,34.741,59.3305,51.937,54.429,33.8805,57.943,50.281,53.58,33.4225,57.893,49.698,-0.07550000000000001,-0.07899999999999996,0.11123000000000001,0.105385,0.0,208.09,208.035,204.99666666666667,204.99666666666667,0.0,0.0
7,0.0,0.0,0.0,1.0,1.0,0.0,0.0,1.0,0.0,0.0,1.0,1.1856,26.0,0.0,0.0,0.0,59.999996,0.0,26.0,26.0,26.0,26.0,-0.06399999999999995,0.2922,0.0164,293.213,-2.6151,-2.7263,-1.5157500000000002,-1.6223,-252.37,216.19,190.849375,0.0,0.0,0.0,0.0,0.015133333333333332,-5.498166666666667,-5.498166666666667,-0.5348,-0.007500000000000062,-0.05037499999999984,-0.20999999999999996,66.563,-0.06319999999999992,-0.22432500000000002,0.3720000000000008,100.0,1.0,1.0,205.4,0.0,0.0,0.0,0.0,0.0,0.0,0.0,8706.1,0.0,55.0,5.0,239.60000000000002,1.0,0.0,0.0,0.0,0.0,0.0,0.0,0.0,0.3569999999999993,0.3569999999999993,0.0,0.0,1.0,55.0,616.79921,10000.0,85.000001,85.000001,85.000001,85.000001,395.0,0.0,0.0,0.0,1.0,166.665,52.78,52.78,48.828,48.828,34.0,-26.9225,21.722,-31.353333333333335,24.7975,0.0,1783.26125,-0.18499999999999872,100.0,27.807,26.962,42.68,41.842,0.0,0.0,100.0,0.0,0.0,0.0,0.0,3275.142857142857,2956.9,4086.25,4024.0,304.8695,305.23575,314.87925,314.7575,21.863714285714288,20.5482,21.839875,21.3693,314.999998,314.999998,324.999988,324.999988,99.55991428571429,99.50726666666667,99.56622857142857,99.54601428571429,0.028750000000000053,-0.09966666666666657,-0.1821666666666666,0.03633333333333333,-0.05833333333333002,-0.05833333333333002,1.5225,1.548,37.647999999999996,29.426000000000002,37.498999999999995,34.558,56.519999999999996,34.778,59.368,51.9945,54.415,33.915,57.978,50.336,53.566,33.455,57.9255,49.751999999999995,-0.09050000000000002,-0.05800000000000005,0.10873500000000001,0.10785000000000002,0.0,208.5,208.45,205.4,205.4,0.0,0.0
8,0.0,0.0,0.0,1.0,1.0,0.0,0.0,1.0,0.0,0.0,1.0,1.1856,26.0,0.0,0.0,0.0,59.999996,0.0,26.0,26.0,26.0,26.0,-0.03922222222222216,0.30069999999999997,0.027475000000000003,293.488,-2.6977,-2.7164,-1.4994,-1.5741,-248.97,216.16500000000002,190.82875,0.0,0.0,0.0,0.0,0.017133333333333334,-5.498166666666667,-5.498166666666667,-0.5363,-0.5865,-0.03137500000000015,0.7620000000000005,66.71000000000001,-0.04349999999999998,-0.21530000000000002,-0.08399999999999963,100.0,1.0,1.0,205.7866666666667,0.0,0.0,0.0,0.0,0.0,0.0,0.0,8722.5,0.0,55.0,5.0,240.12666666666667,0.0,0.0,0.0,0.0,0.0,0.0,0.0,0.0,0.40800000000000125,0.40800000000000125,0.0,0.0,0.0,55.0,616.79921,10000.0,85.000001,85.000001,85.000001,85.000001,395.0,0.0,0.0,0.0,1.0,333.33500000000004,53.665,53.665,48.187,48.187,34.0,-23.37,23.055999999999997,-29.59,27.195,0.0,1783.21,-0.33999999999999986,100.0,27.464,26.740000000000002,42.772,41.855000000000004,0.0,0.0,100.0,0.0,0.0,0.0,0.0,2920.857142857143,3015.3,4102.25,4154.8,305.944,305.30275,314.73475,314.50525,21.873428571428573,20.5534,21.850375,21.3783,314.999998,314.999998,324.999988,324.999988,99.55992857142857,99.50728333333333,99.56635714285714,99.54615714285714,0.05074999999999985,-0.06999999999999995,-0.14483333333333337,0.0758333333333332,-0.03999999999999915,-0.03999999999999915,1.5155,1.5225,37.709,29.4585,37.564,34.614000000000004,56.501999999999995,34.816,59.407,52.0555,54.397999999999996,33.95,58.0145,50.3945,53.548,33.489,57.9595,49.809,-0.09850000000000003,-0.044499999999999984,0.10171500000000001,0.102995,0.0,208.92000000000002,208.905,205.7866666666667,205.7866666666667,0.0,0.0
9,0.0,0.0,0.0,1.0,1.0,0.0,0.0,1.0,0.0,0.0,1.0,1.1856,26.0,0.0,0.0,0.0,59.999996,0.0,26.0,26.0,26.0,26.0,-0.03111111111111109,0.2834000000000001,0.03435,293.137,-2.6829,-2.7224,-1.55465,-1.5525,-245.76,216.1375,190.808875,0.0,0.0,0.0,0.0,0.018999999999999906,-5.498166666666667,-5.498166666666667,-0.5417000000000001,0.6535,-0.03212500000000018,0.8090000000000002,66.843,-0.025499999999999967,-0.215725,-0.15200000000000014,100.0,1.0,1.0,206.31,0.0,0.0,0.0,0.0,0.0,0.0,0.0,8744.8,0.0,55.0,5.0,240.60666666666668,1.0,0.0,0.0,0.0,0.0,0.0,0.0,0.0,0.4559999999999995,0.4559999999999995,0.0,0.0,1.0,55.0,616.79921,10000.0,85.000001,85.000001,85.000001,85.000001,395.0,0.0,0.0,0.0,1.0,166.665,52.399,52.399,49.194,49.194,34.0,-25.48,24.78,-28.213333333333335,26.8,0.0,1783.1625,-0.509999999999998,100.0,27.981,27.187,42.394999999999996,41.852000000000004,0.0,0.0,100.0,0.0,0.0,0.0,0.0,3288.285714285714,3103.8,3969.25,4095.6000000000004,304.789,304.95825,315.1815,314.7385,21.88285714285714,20.5584,21.86,21.3867,314.999998,314.999998,324.999988,324.999988,99.55994285714286,99.5073,99.5665,99.5463,0.07900000000000018,-0.050999999999999934,-0.1336666666666666,0.08866666666666667,-0.03166666666666629,-0.054999999999999716,1.572,1.573,37.768,29.490000000000002,37.625,34.667,56.489000000000004,34.852999999999994,59.441,52.1115,54.385999999999996,33.9845,58.046,50.448,53.535,33.522,57.988,49.8615,-0.11499999999999999,-0.04249999999999998,0.103105,0.09820000000000001,0.0,209.35000000000002,209.36,206.31,206.31,0.0,0.0
10,0.0,0.0,0.0,1.0,1.0,0.0,0.0,1.0,0.0,0.0,1.0,1.1856,26.0,0.0,0.0,0.0,59.999996,0.0,26.0,26.0,26.0,26.0,0.01344444444444437,0.27470000000000017,-0.018225,292.999,-2.6634,-2.7029,-1.53775,-1.5325,-242.35,216.11,190.788125,0.0,0.0,0.0,0.0,0.020966666666666578,-5.498166666666667,-5.498166666666667,-0.5194,-0.47050000000000014,0.00924999999999998,0.4219999999999997,66.99000000000001,-0.006799999999999917,-0.20835,-0.4639999999999995,100.0,1.0,1.0,206.56333333333333,0.0,0.0,0.0,0.0,0.0,0.0,0.0,8755.4,0.0,55.0,5.0,241.13333333333333,0.0,0.0,0.0,0.0,0.0,0.0,1.0,0.0,0.5069999999999979,0.5069999999999979,0.0,0.0,0.0,55.0,616.79921,10000.0,85.000001,85.000001,85.000001,85.000001,395.0,0.0,0.0,0.0,1.0,166.665,53.497,53.497,47.653,47.653,34.0,-21.0525,22.878,-30.343333333333334,29.815,0.0,1783.1125,-0.6099999999999994,100.0,27.711,27.359,42.772999999999996,42.733000000000004,0.0,0.0,100.0,0.0,0.0,0.0,0.0,2867.0,2872.3,4299.375,4264.3,306.156,305.545,314.35225,314.1845,21.89257142857143,20.5637,21.870625,21.3959,314.999998,314.999998,324.999988,324.999988,99.55994285714286,99.5073,99.56664285714285,99.54644285714286,0.0887500000000001,-0.04499999999999993,-0.11499999999999999,0.11299999999999999,-0.03166666666666629,-0.03499999999999659,1.469,1.4615,37.829,29.523,37.692,34.724999999999994,56.476,34.89,59.4825,52.1755,54.373000000000005,34.018,58.0845,50.51,53.521,33.554,58.0235,49.922,-0.12249999999999994,-0.026000000000000023,0.10207500000000001,0.11049500000000001,0.0,209.775,209.79000000000002,206.56333333333333,206.56333333333333,0.0,0.0
11,0.0,0.0,0.0,1.0,1.0,0.0,0.0,1.0,0.0,0.0,1.0,1.1856,26.0,0.0,0.0,0.0,59.999996,0.0,26.0,26.0,26.0,26.0,0.02866666666666684,0.2801,-0.0708,293.503,-2.7058999999999997,-2.6863,-1.5902,-1.5228000000000002,-238.93,216.08249999999998,190.767375,0.0,0.0,0.0,0.0,0.022599999999999953,-5.498166666666667,-5.498166666666667,-0.5617,-0.14050000000000007,0.03337499999999993,0.2400000000000002,67.128,0.011500000000000066,-0.23667500000000002,-0.6499999999999995,100.0,1.0,1.0,207.29333333333335,0.0,0.0,0.0,0.0,0.0,0.0,0.0,8786.4,0.0,55.0,5.0,241.63333333333333,1.0,0.0,0.0,0.0,0.0,0.0,1.0,0.0,0.5579999999999998,0.5579999999999998,0.0,0.0,1.0,55.0,616.79921,10000.0,85.000001,85.000001,85.000001,85.000001,395.0,0.0,0.0,0.0,1.0,166.665,52.811,52.811,49.254999999999995,49.254999999999995,34.0,-21.724999999999998,26.848,-24.253333333333334,27.0075,0.0,1783.06125,-0.7349999999999994,100.0,27.591,27.449,42.309,42.545,0.0,0.0,100.0,0.0,0.0,0.0,0.0,3000.142857142857,3185.5,3701.375,3889.5,305.675,304.7125,315.864,315.208,21.902142857142856,20.5691,21.881,21.4049,314.999998,314.999998,324.999988,324.999988,99.55995714285714,99.5073,99.56678571428571,99.54658571428571,0.11149999999999993,-0.012333333333333307,-0.09299999999999997,0.14050000000000007,-0.036666666666668846,-0.04999999999999716,1.6355,1.6425,37.888999999999996,29.557000000000002,37.756,34.781,56.461,34.928,59.516,52.2355,54.358999999999995,34.053,58.116,50.567499999999995,53.506,33.588,58.052,49.979,-0.13249999999999995,-0.024499999999999966,0.11034500000000001,0.10933000000000001,0.0,210.185,210.22500000000002,207.29333333333335,207.29333333333335,0.0,0.0
12,0.0,0.0,0.0,1.0,1.0,0.0,0.0,1.0,0.0,0.0,1.0,1.1856,26.0,0.0,0.0,0.0,59.999996,0.0,26.0,26.0,26.0,26.0,0.05966666666666676,0.2814000000000001,0.039075,292.847,-2.7594,-2.6791,-1.5571000000000002,-1.5253999999999999,-235.5,216.0575,190.74525,0.0,0.0,0.0,0.0,0.025466666666666526,-5.498166666666667,-5.498166666666667,-0.545,0.268,0.01649999999999996,-0.8169999999999997,67.273,0.03059999999999996,-0.20702500000000001,-0.6920000000000002,100.0,1.0,1.0,207.50333333333333,0.0,0.0,0.0,0.0,0.0,0.0,0.0,8795.3,0.0,55.0,5.0,242.15333333333334,0.0,0.0,0.0,0.0,0.0,0.0,1.0,0.0,0.6089999999999982,0.6089999999999982,0.0,0.0,0.0,55.0,616.79921,10000.0,85.000001,85.000001,85.000001,85.000001,395.0,0.0,0.0,0.0,1.0,166.665,52.719,52.719,47.852000000000004,47.852000000000004,34.0,-23.037499999999998,26.192,-28.026666666666664,30.94,0.0,1783.01,-0.6750000000000007,100.0,27.384,27.792,42.271,42.614000000000004,0.0,0.0,100.0,0.0,0.0,0.0,0.0,3146.4285714285716,3106.2,4253.0,4187.1,305.421,304.8095,314.54775,314.4255,21.911714285714286,20.5746,21.891375,21.413899999999998,314.999998,314.999998,324.999988,324.999988,99.55997142857143,99.50731666666667,99.56692857142858,99.54672857142857,0.11675000000000013,-0.012333333333333307,-0.07999999999999996,0.15149999999999997,-0.051666666666669414,-0.05833333333333002,1.52,1.4855,37.949,29.591,37.821,34.837,56.447,34.965,59.5545,52.2965,54.346000000000004,34.088,58.152,50.6265,53.492000000000004,33.6215,58.085,50.036500000000004,-0.125,-0.026000000000000023,0.10785000000000002,0.10961000000000001,0.0,210.66,210.71,207.50333333333333,207.50333333333333,0.0,0.0
13,0.0,0.0,0.0,1.0,1.0,0.0,0.0,1.0,0.0,0.0,1.0,1.1856,26.0,0.0,0.0,0.0,59.999996,0.0,26.0,26.0,26.0,26.0,0.08000000000000007,0.2863,0.035,292.557,-2.7399,-2.6697,-1.5927,-1.5398,-232.26999999999998,216.0325,190.724875,0.0,0.0,0.0,0.0,0.026833333333333376,-5.498166666666667,-5.498166666666667,-0.5393,-0.08850000000000002,0.02224999999999988,-0.5169999999999999,67.407,0.040100000000000025,-0.215875,-0.8120000000000003,100.0,1.0,1.0,207.87,0.0,0.0,0.0,0.0,0.0,0.0,0.0,8810.8,0.0,55.0,5.0,242.63666666666666,1.0,0.0,0.0,0.0,0.0,0.0,1.0,0.0,0.657,0.657,0.0,0.0,1.0,55.0,616.79921,10000.0,85.000001,85.000001,85.000001,85.000001,395.0,0.0,0.0,0.0,1.0,166.665,52.46,52.46,47.882,47.882,34.0,-22.0425,26.86,-27.54,32.08,0.0,1782.96125,-0.8249999999999993,100.0,27.662,27.958,42.475,43.111000000000004,0.0,0.0,100.0,0.0,0.0,0.0,0.0,3158.142857142857,3090.6,4203.75,4287.4,305.367,304.84725,314.63175,314.15825,21.920857142857145,20.5798,21.901375,21.4226,314.999998,314.999998,324.999988,324.999988,99.55998571428572,99.50731666666667,99.56705714285714,99.54685714285715,0.13775000000000004,0.009000000000000119,-0.06699999999999995,0.15200000000000014,-0.045000000000001705,-0.04833333333333201,1.5105,1.487,38.006,29.6235,37.882999999999996,34.891,56.437,35.001,59.5905,52.357,54.336,34.121,58.185,50.6845,53.480999999999995,33.653,58.115,50.0935,-0.14400000000000002,-0.010000000000000009,0.10930000000000001,0.09814,0.0,211.075,211.11,207.87,207.87,0.0,0.0
14,0.0,0.0,0.0,1.0,1.0,0.0,0.0,1.0,0.0,0.0,1.0,1.1856,26.0,0.0,0.0,0.0,59.999996,0.0,26.0,26.0,26.0,26.0,0.09266666666666667,0.27449999999999997,-0.010375,292.786,-2.735,-2.6155,-1.59965,-1.5116,-228.82999999999998,216.01,190.703625,0.0,0.0,0.0,0.0,0.028833333333333377,-5.498166666666667,-5.498166666666667,-0.5486,-0.11099999999999999,0.05349999999999988,1.3040000000000003,67.547,0.0524,-0.22795,-1.016,100.0,1.0,1.0,208.38666666666666,0.0,0.0,0.0,0.0,0.0,0.0,0.0,8832.7,0.0,55.0,5.0,243.14,0.0,0.0,0.0,0.0,0.0,0.0,1.0,0.0,0.7079999999999984,0.7079999999999984,0.0,0.0,0.0,55.0,616.79921,10000.0,85.000001,85.000001,85.000001,85.000001,395.0,0.0,0.0,0.0,1.0,333.33500000000004,52.612,52.612,48.111,48.111,34.0,-19.455,28.496000000000002,-24.183333333333334,32.697500000000005,0.0,1782.91,-0.9250000000000007,100.0,27.726,27.877,42.535,43.198,0.0,0.0,100.0,0.0,0.0,0.0,0.0,2922.0,3260.9,3947.125,4226.7,305.878,304.518,315.18625,314.4075,21.93042857142857,20.5853,21.91175,21.4318,314.999998,314.999998,324.999988,324.999988,99.56,99.50731666666667,99.5672,99.547,0.15799999999999992,0.02499999999999991,-0.04183333333333339,0.18816666666666682,-0.03333333333333144,-0.04999999999999716,1.58,1.5260000000000002,38.066,29.6585,37.949,34.949,56.426,35.039,59.626999999999995,52.42,54.325,34.1565,58.219,50.745,53.47,33.687,58.146,50.1525,-0.14100000000000001,-0.008499999999999952,0.10314000000000001,0.11433000000000001,0.0,211.47,211.54500000000002,208.38666666666666,208.38666666666666,0.0,0.0
15,0.0,0.0,0.0,1.0,1.0,0.0,0.0,1.0,0.0,0.0,1.0,1.1856,26.0,0.0,0.0,0.0,59.999996,0.0,26.0,26.0,26.0,26.0,0.11377777777777776,0.2948000000000002,0.011675000000000001,292.831,-2.7128,-2.5733,-1.6294,-1.4512,-225.57999999999998,215.99,190.68325,0.0,0.0,0.0,0.0,0.03073333333333339,-5.498166666666667,-5.498166666666667,-0.5394,0.25449999999999995,0.08537499999999998,0.9960000000000004,67.679,0.0616000000000001,-0.208675,-1.1479999999999997,100.0,1.0,1.0,208.76333333333332,0.0,0.0,0.0,0.0,0.0,0.0,0.0,8848.7,0.0,55.0,5.0,243.61333333333334,1.0,0.0,0.0,0.0,0.0,0.0,1.0,0.0,0.7560000000000002,0.7560000000000002,0.0,0.0,1.0,55.0,616.79921,10000.0,85.000001,85.000001,85.000001,85.000001,395.0,0.0,0.0,0.0,1.0,333.33500000000004,52.811,52.811,48.111,48.111,34.0,-17.33,28.58,-24.16,33.792500000000004,0.0,1782.86125,-1.0299999999999994,100.0,27.669,27.928,42.25,43.292,0.0,0.0,100.0,0.0,0.0,0.0,0.0,2774.714285714286,3241.9,3939.375,4411.5,306.298,304.57075,315.23975,313.9875,21.93942857142857,20.5906,21.9215,21.4404,314.999998,314.999998,324.999988,324.999988,99.56001428571429,99.50731666666667,99.56734285714286,99.54715714285715,0.17899999999999983,0.04033333333333333,-0.03416666666666657,0.1928333333333332,-0.045000000000001705,-0.04833333333333201,1.5635000000000001,1.5205000000000002,38.122,29.691,38.01,35.003,56.416,35.076,59.66,52.4795,54.315,34.1905,58.2495,50.8025,53.459,33.7195,58.1735,50.209,-0.15849999999999997,0.0024999999999999467,0.10630500000000001,0.109465,0.0,211.91,211.97,208.76333333333332,208.76333333333332,0.0,0.0
16,0.0,0.0,0.0,1.0,1.0,0.0,0.0,1.0,0.0,0.0,1.0,1.1856,26.0,0.0,0.0,0.0,59.999996,0.0,26.0,26.0,26.0,26.0,0.13477777777777789,0.27570000000000006,-0.054450000000000005,292.847,-2.8064999999999998,-2.5809,-1.59935,-1.5144000000000002,-222.13,215.9725,190.66125,0.0,0.0,0.0,0.0,0.03273333333333339,-5.498166666666667,-5.498166666666667,-0.5614,-0.6865000000000001,0.06774999999999998,-1.1309999999999998,67.818,0.07499999999999996,-0.22640000000000002,-1.202,100.0,1.0,1.0,209.21,0.0,0.0,0.0,0.0,0.0,0.0,0.0,8867.7,0.0,55.0,5.0,244.11666666666667,0.0,0.0,0.0,0.0,0.0,0.0,1.0,0.0,0.8069999999999986,0.8069999999999986,0.0,0.0,0.0,55.0,616.79921,10000.0,85.000001,85.000001,85.000001,85.000001,395.0,0.0,0.0,0.0,1.0,333.33500000000004,52.704,52.704,47.958,47.958,34.0,-20.305,28.43,-23.343333333333334,32.845,0.0,1782.80875,-0.8900000000000006,100.0,27.179,28.146,42.434,43.447,0.0,0.0,100.0,0.0,0.0,0.0,0.0,3032.714285714286,3206.7,3955.75,4113.4,305.8315,304.53225,315.247,314.56025,21.948857142857143,20.5962,21.932,21.4496,314.999998,314.999998,324.999988,324.999988,99.56004285714286,99.50731666666667,99.56748571428571,99.54728571428572,0.16674999999999995,0.038999999999999924,-0.025000000000000022,0.20766666666666667,-0.061666666666667425,-0.041666666666671404,1.5715000000000001,1.5245000000000002,38.18,29.726,38.075,35.06,56.402,35.115,59.6975,52.5415,54.302,34.227000000000004,58.2845,50.8625,53.445,33.754999999999995,58.205,50.268,-0.15249999999999997,-0.0020000000000000018,0.10854000000000001,0.11366000000000001,0.0,212.305,212.385,209.21,209.21,0.0,0.0
17,0.0,0.0,0.0,1.0,1.0,0.0,0.0,1.0,0.0,0.0,1.0,1.1856,26.0,0.0,0.0,0.0,59.999996,0.0,26.0,26.0,26.0,26.0,0.11133333333333328,0.2885,-0.01905,292.465,-2.7604,-2.5668,-1.6408,-1.4768,-218.66,215.95749999999998,190.638625,0.0,0.0,0.0,0.0,0.034733333333333394,-5.498166666666667,-5.498166666666667,-0.5494,0.47950000000000004,0.04987499999999989,0.835,67.957,0.07920000000000016,-0.20545000000000002,-1.194,100.0,1.0,1.0,209.57999999999998,0.0,0.0,0.0,0.0,0.0,0.0,0.0,8883.3,0.0,55.0,5.0,244.61666666666667,1.0,0.0,0.0,0.0,0.0,0.0,1.0,0.0,0.8580000000000005,0.8580000000000005,0.0,0.0,1.0,55.0,616.79921,10000.0,85.000001,85.000001,85.000001,85.000001,395.0,0.0,0.0,0.0,1.0,166.665,52.444,52.444,47.745,47.745,34.0,-19.044999999999998,28.132,-25.68,34.2175,0.0,1782.76125,-0.9800000000000004,100.0,27.829,28.229,42.299,43.366,0.0,0.0,100.0,0.0,0.0,0.0,0.0,2991.5714285714284,3183.1,4232.75,4347.3,305.73,304.78275,314.61175,314.18475,21.95842857142857,20.6019,21.942375,21.4587,314.999998,314.999998,324.999988,324.999988,99.56007142857143,99.50733333333334,99.56761428571428,99.54744285714285,0.1847500000000002,0.04633333333333334,-0.018333333333333313,0.20450000000000013,-0.03499999999999659,-0.051666666666669414,1.5385,1.505,38.239999999999995,29.762,38.14,35.117000000000004,56.393,35.157,59.733000000000004,52.604,54.294,34.265,58.317,50.9225,53.435,33.7915,58.2345,50.327,-0.15000000000000002,-0.007000000000000117,0.11311500000000001,0.10505,0.0,212.765,212.84,209.57999999999998,209.57999999999998,0.0,0.0
18,0.0,0.0,0.0,1.0,1.0,0.0,0.0,1.0,0.0,0.0,1.0,1.1856,26.0,0.0,0.0,0.0,59.999996,0.0,26.0,26.0,26.0,26.0,0.12155555555555564,0.27080000000000015,-0.0030250000000000003,292.435,-2.7964,-2.5406,-1.65795,-1.4203999999999999,-215.4,215.9475,190.6175,0.0,0.0,0.0,0.0,0.036633333333333296,-5.498166666666667,-5.498166666666667,-0.5605,-0.5165,0.07525000000000004,1.1219999999999999,68.087,0.08000000000000007,-0.22310000000000002,-1.2779999999999996,100.0,1.0,1.0,210.00333333333333,0.0,0.0,0.0,0.0,0.0,0.0,0.0,8901.3,0.0,55.0,5.0,245.08666666666664,0.0,0.0,0.0,0.0,0.0,0.0,1.0,0.0,0.9059999999999988,0.9059999999999988,0.0,0.0,0.0,55.0,616.79921,10000.0,85.000001,85.000001,85.000001,85.000001,395.0,0.0,0.0,0.0,1.0,166.665,52.292,52.292,47.653,47.653,34.0,-18.9675,30.968,-24.453333333333333,32.9975,0.0,1782.7125,-1.2400000000000002,100.0,27.612000000000002,28.127,42.603,43.759,0.0,0.0,100.0,0.0,0.0,0.0,0.0,2993.285714285714,3400.3,4011.375,4252.2,305.799,304.1645,315.09275,314.376,21.967285714285715,20.6072,21.952375,21.4675,314.999998,314.999998,324.999988,324.999988,99.56008571428572,99.50733333333334,99.56775714285715,99.54758571428572,0.1927500000000002,0.06733333333333325,-0.02100000000000002,0.21183333333333332,-0.03833333333332689,-0.046666666666666856,1.5495,1.5005000000000002,38.296,29.795,38.202,35.172,56.384,35.194,59.768,52.664500000000004,54.284,34.3,58.35,50.981,53.424,33.8255,58.2645,50.3845,-0.17149999999999999,0.019000000000000017,0.103855,0.11490500000000001,0.0,213.135,213.20499999999998,210.00333333333333,210.00333333333333,0.0,0.0
19,0.0,0.0,0.0,1.0,1.0,0.0,0.0,1.0,0.0,0.0,1.0,1.1856,26.0,0.0,0.0,0.0,59.999996,0.0,26.0,26.0,26.0,26.0,0.15788888888888897,0.2804,0.044475,291.931,-2.7187,-2.5217,-1.67475,-1.4025,-211.92000000000002,215.94,190.594875,0.0,0.0,0.0,0.0,0.038666666666666516,-5.498166666666667,-5.498166666666667,-0.5502,0.8180000000000001,0.08299999999999996,-0.5379999999999998,68.224,0.0898000000000001,-0.211975,-1.6279999999999992,100.0,1.0,1.0,210.40333333333334,0.0,0.0,0.0,0.0,0.0,0.0,0.0,8918.3,0.0,55.0,5.0,245.57666666666665,1.0,0.0,0.0,0.0,0.0,0.0,1.0,0.0,0.9570000000000007,0.9570000000000007,0.0,0.0,1.0,55.0,616.79921,10000.0,85.000001,85.000001,85.000001,85.000001,395.0,0.0,0.0,0.0,1.0,333.33500000000004,51.635999999999996,51.635999999999996,47.44,47.44,34.0,-18.09,30.878,-25.823333333333334,34.832499999999996,0.0,1782.66,-1.504999999999999,100.0,27.943,28.809,42.282,43.85,0.0,0.0,100.0,0.0,0.0,0.0,0.0,3107.5714285714284,3327.6,4210.0,4434.0,305.4405,304.109,314.73325,313.92425,21.976857142857142,20.6131,21.962625,21.4767,314.999998,314.999998,324.999988,324.999988,99.56011428571429,99.50735,99.5679,99.54772857142858,0.21450000000000014,0.07800000000000007,-0.016666666666666607,0.21649999999999991,-0.03833333333332689,-0.05333333333332746,1.541,1.4805000000000001,38.355999999999995,29.8315,38.266999999999996,35.229,56.376999999999995,35.239,59.8025,52.7275,54.277,34.341499999999996,58.3815,51.042,53.416,33.865,58.293,50.4445,-0.1995,0.03749999999999998,0.10973500000000001,0.10826500000000001,0.0,213.575,213.71,210.40333333333334,210.40333333333334,0.0,0.0
20,0.0,0.0,0.0,1.0,1.0,0.0,0.0,1.0,0.0,0.0,1.0,1.1856,26.0,0.0,0.0,0.0,59.999996,0.0,26.0,26.0,26.0,26.0,0.17877777777777792,0.27490000000000014,-0.059725,292.389,-2.8299,-2.5778,-1.6046,-1.5169000000000001,-208.23000000000002,215.9375,190.57125,0.0,0.0,0.0,0.0,0.04079999999999995,-5.498166666666667,-5.498166666666667,-0.5598000000000001,-1.1865,0.08999999999999986,-0.9140000000000001,68.37100000000001,0.11030000000000006,-0.22790000000000002,-1.726,100.0,1.0,1.0,210.79000000000002,0.0,0.0,0.0,0.0,0.0,0.0,0.0,8934.7,0.0,55.0,5.0,246.11,0.0,0.0,0.0,0.0,0.0,0.0,0.0,0.0,1.0109999999999992,1.0109999999999992,0.0,0.0,0.0,55.0,616.79921,10000.0,85.000001,85.000001,85.000001,85.000001,395.0,0.0,0.0,0.0,1.0,166.665,52.673,52.673,47.15,47.15,34.0,-18.752499999999998,28.594,-22.016666666666666,35.7,0.0,1782.6075,-0.7250000000000014,100.0,27.379,28.537,42.788,44.379999999999995,0.0,0.0,100.0,0.0,0.0,0.0,0.0,2878.0,3186.2,4044.5,4221.8,306.287,304.57525,314.98775,314.27025,21.986714285714285,20.6191,21.973875,21.4866,314.999998,314.999998,324.999988,324.999988,99.56012857142858,99.50736666666667,99.56805714285714,99.54788571428571,0.1807500000000002,0.04733333333333323,0.018166666666666664,0.23416666666666686,-0.04333333333332945,-0.03166666666666629,1.534,1.4540000000000002,38.417,29.869,38.337,35.291,56.364000000000004,35.283,59.844,52.797,54.265,34.3825,58.42,51.1085,53.402,33.9045,58.328,50.51,-0.14349999999999996,-0.012499999999999956,0.10145000000000001,0.10323,0.0,213.965,214.095,210.79000000000002,210.79000000000002,0.0,0.0
21,0.0,0.0,0.0,1.0,1.0,0.0,0.0,1.0,0.0,0.0,1.0,1.1856,26.0,0.0,0.0,0.0,59.999996,0.0,26.0,26.0,26.0,26.0,0.13988888888888895,0.28190000000000004,-0.045775,292.526,-2.7849,-2.5894,-1.6573,-1.4916,-204.95,215.9375,190.549375,0.0,0.0,0.0,0.0,0.04269999999999996,-5.498166666666667,-5.498166666666667,-0.5765,0.591,0.059499999999999886,-1.2650000000000001,68.495,0.1160000000000001,-0.219975,-0.9059999999999997,100.0,1.0,1.0,211.36333333333334,0.0,0.0,0.0,0.0,0.0,0.0,0.0,8959.0,0.0,55.0,5.0,246.55333333333334,1.0,0.0,0.0,0.0,0.0,0.0,0.0,0.0,1.059000000000001,1.059000000000001,0.0,0.0,1.0,55.0,616.79921,10000.0,85.000001,85.000001,85.000001,85.000001,395.0,0.0,0.0,0.0,1.0,166.665,52.216,52.216,48.065,48.065,34.0,-22.1925,26.584,-23.09,33.004999999999995,0.0,1782.56,0.1750000000000007,100.0,27.699,28.658,42.215,43.885,0.0,0.0,100.0,0.0,0.0,0.0,0.0,3089.285714285714,3177.0,4058.5,4061.8,305.637,304.6125,315.112,314.8225,21.995571428571427,20.6246,21.9835,21.4951,314.999998,314.999998,324.999988,324.999988,99.56014285714286,99.50736666666667,99.56818571428572,99.54802857142857,0.13050000000000006,-0.0010000000000000009,0.006000000000000005,0.23433333333333328,-0.06333333333333258,-0.03499999999999659,1.5975000000000001,1.565,38.472,29.9035,38.397,35.344,56.354,35.322,59.874,52.853,54.254999999999995,34.4185,58.4475,51.163,53.391,33.939,58.3525,50.5635,-0.07099999999999995,-0.08800000000000008,0.105925,0.10855000000000001,0.0,214.445,214.5,211.36333333333334,211.36333333333334,0.0,0.0
22,0.0,0.0,0.0,1.0,1.0,0.0,0.0,1.0,0.0,0.0,1.0,1.1856,26.0,0.0,0.0,0.0,59.999996,0.0,26.0,26.0,26.0,26.0,0.0792222222222223,0.2735000000000001,0.012700000000000001,292.038,-2.7058,-2.652,-1.6435,-1.4911,-201.66,215.9425,190.526875,0.0,0.0,0.0,0.0,0.0446333333333333,-5.498166666666667,-5.498166666666667,-0.5563,0.0685,0.05437500000000006,-0.8649999999999998,68.626,0.08190000000000008,-0.20575000000000002,0.28000000000000025,100.0,1.0,1.0,211.56,0.0,0.0,0.0,0.0,0.0,0.0,0.0,8967.3,0.0,55.0,5.0,247.02666666666664,0.0,0.0,0.0,0.0,0.0,0.0,0.0,0.0,1.1069999999999993,1.1069999999999993,0.0,0.0,0.0,55.0,616.79921,10000.0,85.000001,85.000001,85.000001,85.000001,395.0,0.0,0.0,0.0,1.0,166.665,52.307,52.307,46.997,46.997,34.0,-22.14,24.298000000000002,-27.996666666666666,32.535,0.0,1782.51125,0.615000000000002,100.0,27.874,28.665,42.84,44.119,0.0,0.0,100.0,0.0,0.0,0.0,0.0,2970.4285714285716,3086.1,4251.0,4338.8,305.8895,304.7755,314.58975,314.11625,22.004428571428573,20.6299,21.9935,21.5039,314.999998,314.999998,324.999988,324.999988,99.56017142857142,99.50736666666667,99.56832857142857,99.54817142857142,0.09350000000000014,-0.05166666666666664,-0.0528333333333334,0.1661666666666668,-0.054999999999999716,-0.045000000000001705,1.4745,1.4935,38.528,29.936999999999998,38.459,35.399,56.341,35.359,59.9105,52.9135,54.242999999999995,34.4525,58.482,51.2215,53.378,33.972,58.384,50.621,-0.03249999999999997,-0.13349999999999995,0.10869000000000001,0.10255500000000001,0.0,214.885,214.85500000000002,211.56,211.56,0.0,0.0
23,0.0,0.0,0.0,1.0,1.0,0.0,0.0,1.0,0.0,0.0,1.0,1.1856,26.0,0.0,0.0,0.0,59.999996,0.0,26.0,26.0,26.0,26.0,-0.003555555555555534,0.2652000000000001,-0.0189,292.114,-2.6968,-2.6427,-1.53915,-1.5889,-198.16,215.9475,190.5035,0.0,0.0,0.0,0.0,0.04666666666666652,-5.498166666666667,-5.498166666666667,-0.5759000000000001,-0.22550000000000003,0.01937499999999992,-0.05799999999999983,68.76,0.02980000000000005,-0.232575,0.9479999999999995,100.0,1.0,1.0,212.11333333333334,0.0,0.0,0.0,0.0,0.0,0.0,0.0,8990.6,0.0,55.0,5.0,247.51,1.0,0.0,0.0,0.0,0.0,0.0,0.0,0.0,1.1580000000000013,1.1580000000000013,0.0,0.0,1.0,55.0,616.79921,10000.0,85.000001,85.000001,85.000001,85.000001,395.0,0.0,0.0,0.0,1.0,166.665,51.650999999999996,51.650999999999996,48.111,48.111,34.0,-25.7525,23.918,-26.223333333333333,28.5125,0.0,1782.46125,0.7950000000000017,100.0,28.491,28.369,43.275999999999996,44.018,0.0,0.0,100.0,0.0,0.0,0.0,0.0,3223.285714285714,3186.8,3919.75,3951.8,304.9795,304.752,315.253,315.024,22.014,20.6356,22.004,21.5131,314.999998,314.999998,324.999988,324.999988,99.56018571428571,99.50738333333334,99.56847142857143,99.54832857142857,0.06525000000000025,-0.07166666666666666,-0.09766666666666657,0.13316666666666666,-0.046666666666666856,-0.03333333333333144,1.52,1.5590000000000002,38.588,29.9725,38.525,35.457,56.326,35.4,59.947,52.9755,54.229,34.4905,58.5155,51.281,53.363,34.0085,58.414500000000004,50.679,-0.01749999999999996,-0.14450000000000007,0.10747000000000001,0.10881500000000001,0.0,215.3,215.20499999999998,212.11333333333334,212.11333333333334,0.0,0.0
24,0.0,0.0,0.0,1.0,1.0,0.0,0.0,1.0,0.0,0.0,1.0,1.1856,26.0,0.0,0.0,0.0,59.999996,0.0,26.0,26.0,26.0,26.0,-0.06533333333333335,0.272,-0.0022,292.374,-2.7032,-2.6729000000000003,-1.56495,-1.546,-194.64,215.9525,190.4795,0.0,0.0,0.0,0.0,0.048699999999999966,-5.498166666666667,-5.498166666666667,-0.5811000000000001,-0.647,0.006000000000000005,-0.2749999999999999,68.896,-0.019100000000000006,-0.21657500000000002,1.2260000000000009,100.0,1.0,1.0,212.41333333333333,0.0,0.0,0.0,0.0,0.0,0.0,0.0,9003.4,0.0,55.0,5.0,247.99666666666667,0.0,0.0,0.0,0.0,0.0,0.0,0.0,0.0,1.2089999999999996,1.2089999999999996,0.0,0.0,0.0,55.0,616.79921,10000.0,85.000001,85.000001,85.000001,85.000001,395.0,0.0,0.0,0.0,1.0,166.665,52.887,52.887,47.043,47.043,34.0,-24.982499999999998,20.247999999999998,-33.21,25.7525,0.0,1782.41,0.745000000000001,100.0,28.137,28.073999999999998,43.475,43.679,0.0,0.0,100.0,0.0,0.0,0.0,0.0,2975.4285714285716,2908.3,4333.375,4089.1000000000004,305.9035,305.538,314.34475,314.74125,22.02342857142857,20.641,22.014499999999998,21.522199999999998,314.999998,314.999998,324.999988,324.999988,99.56018571428571,99.5074,99.56862857142858,99.54847142857143,0.023249999999999993,-0.1123333333333334,-0.15533333333333332,0.06499999999999995,-0.04999999999999716,-0.036666666666668846,1.4745,1.5230000000000001,38.647,30.0065,38.591,35.513999999999996,56.309,35.439,59.986,53.0345,54.213,34.5265,58.552,51.3375,53.346000000000004,34.043,58.4475,50.7345,-0.01849999999999996,-0.13549999999999995,0.10611500000000001,0.10745500000000001,0.0,215.73000000000002,215.625,212.41333333333333,212.41333333333333,0.0,0.0
25,0.0,0.0,0.0,1.0,1.0,0.0,0.0,1.0,0.0,0.0,1.0,1.1856,26.0,0.0,0.0,0.0,59.999996,0.0,26.0,26.0,26.0,26.0,-0.09088888888888891,0.2663,-0.0482,292.221,-2.7431,-2.6574,-1.55925,-1.5697,-191.32999999999998,215.95499999999998,190.4555,0.0,0.0,0.0,0.0,0.05063333333333331,-5.498166666666667,-5.498166666666667,-0.6133000000000001,0.06399999999999995,-0.015249999999999986,-1.694,69.02,-0.056400000000000006,-0.226225,1.3820000000000014,100.0,1.0,1.0,212.94,0.0,0.0,0.0,0.0,0.0,0.0,0.0,9025.8,0.0,55.0,5.0,248.44333333333333,1.0,0.0,0.0,0.0,0.0,0.0,0.0,0.0,1.256999999999998,1.256999999999998,0.0,0.0,1.0,55.0,616.79921,10000.0,85.000001,85.000001,85.000001,85.000001,395.0,0.0,0.0,0.0,1.0,333.33500000000004,51.697,51.697,47.913,47.913,34.0,-30.53,21.286,-31.07,23.6175,0.0,1782.36,0.7050000000000018,100.0,28.298000000000002,28.229,43.373000000000005,43.178,0.0,0.0,100.0,0.0,0.0,0.0,0.0,3396.285714285714,3182.2,4018.25,3952.3,304.795,304.6295,315.15975,315.06775,22.03242857142857,20.6463,22.02425,21.5307,314.999998,314.999998,324.999988,324.999988,99.56018571428571,99.5074,99.56875714285714,99.5486,-0.00275000000000003,-0.137,-0.1808333333333334,0.04266666666666685,-0.05333333333332746,-0.03166666666666629,1.547,1.6105,38.702,30.039,38.652,35.567,56.292,35.479,60.019,53.088,54.197,34.564,58.582499999999996,51.388999999999996,53.329,34.0785,58.4755,50.785,-0.025499999999999967,-0.14149999999999996,0.10505500000000001,0.10829000000000001,0.0,216.135,215.99,212.94,212.94,0.0,0.0
26,0.0,0.0,0.0,1.0,1.0,0.0,0.0,1.0,0.0,0.0,1.0,1.1856,26.0,0.0,0.0,0.0,59.999996,0.0,26.0,26.0,26.0,26.0,-0.14,0.2764,0.09705000000000001,291.092,-2.6522,-2.7739000000000003,-1.57865,-1.5931000000000002,-187.81,215.95749999999998,190.42975,0.0,0.0,0.0,0.0,0.05266666666666653,-5.498166666666667,-5.498166666666667,-0.5696,0.7005,-0.06174999999999997,0.3780000000000001,69.156,-0.08139999999999992,-0.1962,1.2420000000000009,100.0,1.0,1.0,213.07999999999998,0.0,0.0,0.0,0.0,0.0,0.0,0.0,9031.7,0.0,55.0,5.0,248.93333333333334,0.0,0.0,0.0,0.0,0.0,0.0,0.0,0.0,1.3079999999999998,1.3079999999999998,0.0,0.0,0.0,55.0,616.79921,10000.0,85.000001,85.000001,85.000001,85.000001,395.0,0.0,0.0,0.0,1.0,333.33500000000004,51.407,51.407,46.066,46.066,34.0,-28.1925,20.927999999999997,-39.29,27.3225,0.0,1782.31,0.45500000000000185,100.0,29.477,28.422,44.307,43.259,0.0,0.0,100.0,0.0,0.0,0.0,0.0,3249.0,3028.3,4647.125,4484.3,304.909,305.17125,313.61325,313.90275,22.042285714285715,20.6519,22.035,21.5399,314.999998,314.999998,324.999988,324.999988,99.56018571428571,99.50741666666667,99.56891428571429,99.54875714285714,0.006750000000000256,-0.1406666666666666,-0.19999999999999996,0.02516666666666678,-0.054999999999999716,-0.03333333333333144,1.4075,1.46,38.763999999999996,30.0745,38.719,35.623999999999995,56.278999999999996,35.524,60.061,53.1485,54.184,34.6055,58.622,51.447,53.316,34.1185,58.512,50.841499999999996,-0.046499999999999986,-0.119,0.10522000000000001,0.10951500000000002,0.0,216.57999999999998,216.46,213.07999999999998,213.07999999999998,0.0,0.0
27,0.0,0.0,0.0,1.0,1.0,0.0,0.0,1.0,0.0,0.0,1.0,1.1856,26.0,0.0,0.0,0.0,59.999996,0.0,26.0,26.0,26.0,26.0,-0.1062222222222221,0.24760000000000004,-0.047225,291.718,-2.616,-2.7465,-1.56515,-1.6679,-184.28,215.95499999999998,190.40525,0.0,0.0,0.0,0.0,0.0547333333333333,-5.498166666666667,-5.498166666666667,-0.6018,-1.0055,-0.06862499999999994,-0.6120000000000001,69.286,-0.09009999999999996,-0.24682500000000002,1.0839999999999996,100.0,1.0,1.0,213.64666666666668,0.0,0.0,0.0,0.0,0.0,0.0,0.0,9055.7,0.0,55.0,5.0,249.40666666666667,1.0,0.0,0.0,0.0,0.0,0.0,0.0,0.0,1.3589999999999982,1.3589999999999982,0.0,0.0,1.0,55.0,616.79921,10000.0,85.000001,85.000001,85.000001,85.000001,395.0,0.0,0.0,0.0,1.0,166.665,51.743,51.743,46.86,46.86,34.0,-28.759999999999998,20.078,-33.25333333333333,23.6475,0.0,1782.26,0.35999999999999943,100.0,29.018,28.258,44.88,43.735,0.0,0.0,100.0,0.0,0.0,0.0,0.0,3314.714285714286,2994.2,4081.375,3923.0,304.994,305.19425,314.8875,315.06975,22.051714285714286,20.6574,22.045749999999998,21.5492,314.999998,314.999998,324.999988,324.999988,99.5602,99.50743333333334,99.56905714285715,99.5489,-0.007500000000000062,-0.15100000000000002,-0.2028333333333333,0.015000000000000124,-0.046666666666666856,-0.045000000000001705,1.5015,1.5470000000000002,38.824,30.1085,38.786,35.682,56.262,35.566,60.103,53.2085,54.168,34.6445,58.661500000000004,51.504999999999995,53.299,34.156,58.548,50.8975,-0.05699999999999994,-0.1100000000000001,0.100385,0.10574000000000001,0.0,216.92000000000002,216.835,213.64666666666668,213.64666666666668,0.0,0.0
28,0.0,0.0,0.0,1.0,1.0,0.0,0.0,1.0,0.0,0.0,1.0,1.1856,26.0,0.0,0.0,0.0,59.999996,0.0,26.0,26.0,26.0,26.0,-0.10288888888888892,0.264,-0.04685,291.84,-2.648,-2.7296,-1.51245,-1.6279,-180.95,215.9525,190.38125,0.0,0.0,0.0,0.0,0.05666666666666653,-5.498166666666667,-5.498166666666667,-0.6,0.6659999999999999,-0.0717500000000002,-0.5169999999999999,69.40899999999999,-0.09089999999999998,-0.214725,0.9560000000000004,100.0,1.0,1.0,214.07666666666665,0.0,0.0,0.0,0.0,0.0,0.0,0.0,9074.0,0.0,55.0,5.0,249.84666666666666,0.0,0.0,0.0,0.0,0.0,0.0,0.0,0.0,1.407,1.407,0.0,0.0,0.0,55.0,616.79921,10000.0,85.000001,85.000001,85.000001,85.000001,395.0,0.0,0.0,0.0,1.0,333.33500000000004,51.743,51.743,47.44,47.44,34.0,-28.85,19.869999999999997,-33.5,23.86,0.0,1782.20875,0.23499999999999943,100.0,29.113,28.184,44.219,43.198,0.0,0.0,100.0,0.0,0.0,0.0,0.0,3329.0,2928.6,4187.125,4066.8,304.8035,305.38425,314.81575,314.80125,22.06085714285714,20.6626,22.055374999999998,21.5576,314.999998,314.999998,324.999988,324.999988,99.5602,99.50745,99.5692,99.54902857142856,0.00550000000000006,-0.1403333333333333,-0.20866666666666667,0.012166666666666659,-0.04833333333333201,-0.04833333333333201,1.5185,1.5620000000000003,38.881,30.141,38.846000000000004,35.735,56.248000000000005,35.607,60.135999999999996,53.260999999999996,54.155,34.6815,58.692499999999995,51.5555,53.285,34.1915,58.576,50.947,-0.07450000000000001,-0.09650000000000003,0.10373,0.10356000000000001,0.0,217.35000000000002,217.255,214.07666666666665,214.07666666666665,0.0,0.0
29,0.0,0.0,0.0,1.0,1.0,0.0,0.0,1.0,0.0,0.0,1.0,1.1856,26.0,0.0,0.0,0.0,59.999996,0.0,26.0,26.0,26.0,26.0,-0.10911111111111105,0.24460000000000015,0.01195,291.519,-2.5891,-2.7842000000000002,-1.55075,-1.6011000000000002,-177.41,215.945,190.354875,0.0,0.0,0.0,0.0,0.058733333333333304,-5.498166666666667,-5.498166666666667,-0.6069,-0.7115,-0.06337500000000018,0.8250000000000002,69.544,-0.07909999999999995,-0.218375,0.6000000000000005,100.0,1.0,1.0,214.33666666666667,0.0,0.0,0.0,0.0,0.0,0.0,0.0,9084.9,0.0,55.0,5.0,250.32999999999998,1.0,0.0,0.0,0.0,0.0,0.0,0.0,0.0,1.4579999999999984,1.4579999999999984,0.0,0.0,1.0,55.0,616.79921,10000.0,85.000001,85.000001,85.000001,85.000001,395.0,0.0,0.0,0.0,1.0,333.33500000000004,51.743,51.743,46.585,46.585,34.0,-27.3475,22.128,-33.593333333333334,26.87,0.0,1782.1575,0.125,100.0,28.943,27.916,44.701,43.425,0.0,0.0,100.0,0.0,0.0,0.0,0.0,3248.857142857143,3104.0,4219.875,4222.2,304.9495,304.92125,314.523,314.4455,22.07042857142857,20.668,22.066,21.5669,314.999998,314.999998,324.999988,324.999988,99.5602,99.50748333333334,99.56935714285714,99.54918571428571,0.011499999999999844,-0.13,-0.18166666666666664,0.04899999999999993,-0.045000000000001705,-0.051666666666669414,1.4605000000000001,1.483,38.94,30.174999999999997,38.913,35.793,56.230999999999995,35.647999999999996,60.1775,53.3215,54.138,34.7195,58.7315,51.613,53.268,34.2275,58.6115,51.003,-0.0655,-0.09450000000000003,0.09787000000000001,0.11830500000000001,0.0,217.69,217.64,214.33666666666667,214.33666666666667,0.0,0.0
30,0.0,0.0,0.0,1.0,1.0,0.0,0.0,1.0,0.0,0.0,1.0,1.1856,26.0,0.0,0.0,0.0,59.999996,0.0,26.0,26.0,26.0,26.0,-0.09033333333333338,0.2652000000000001,0.0762,291.061,-2.65,-2.6666,-1.49545,-1.6577000000000002,-174.07,215.935,190.329875,0.0,0.0,0.0,0.0,0.060666666666666536,-5.498166666666667,-5.498166666666667,-0.6024,0.792,-0.060125000000000206,0.9190000000000005,69.66499999999999,-0.07109999999999994,-0.216675,0.5540000000000003,100.0,1.0,1.0,214.75666666666666,0.0,0.0,0.0,0.0,0.0,0.0,0.0,9102.7,0.0,55.0,5.0,250.76666666666665,0.0,0.0,0.0,0.0,0.0,0.0,1.0,0.0,1.5060000000000002,1.5060000000000002,0.0,0.0,0.0,55.0,616.79921,10000.0,85.000001,85.000001,85.000001,85.000001,395.0,0.0,0.0,0.0,1.0,333.33500000000004,50.812,50.812,46.89,46.89,34.0,-27.9375,22.095999999999997,-32.943333333333335,27.355,0.0,1782.11125,-0.054999999999999716,100.0,29.771,28.655,44.482,43.480000000000004,0.0,0.0,100.0,0.0,0.0,0.0,0.0,3398.857142857143,3114.8,4262.625,4230.1,304.4815,304.927,314.499,314.39325,22.079571428571427,20.6734,22.075875,21.5756,314.999998,314.999998,324.999988,324.999988,99.5602,99.50748333333334,99.5695,99.54932857142857,0.04400000000000004,-0.10699999999999998,-0.1785,0.042166666666666686,-0.036666666666668846,-0.06333333333333258,1.461,1.4969999999999999,38.998000000000005,30.2085,38.974000000000004,35.847,56.219,35.689,60.212,53.3765,54.126999999999995,34.7585,58.7635,51.6665,53.256,34.2645,58.641,51.055,-0.09350000000000003,-0.08000000000000007,0.10525000000000001,0.10747000000000001,0.0,218.11,218.075,214.75666666666666,214.75666666666666,0.0,0.0
31,0.0,0.0,0.0,1.0,1.0,0.0,0.0,1.0,0.0,0.0,1.0,1.1856,26.0,0.0,0.0,0.0,59.999996,0.0,26.0,26.0,26.0,26.0,-0.07377777777777783,0.26039999999999996,-0.018675,290.955,-2.7227,-2.6401,-1.54545,-1.649,-170.51,215.9225,190.304125,0.0,0.0,0.0,0.0,0.06273333333333331,-5.498166666666667,-5.498166666666667,-0.5915,-0.6180000000000001,-0.05162500000000003,-0.6789999999999998,69.79599999999999,-0.0524,-0.222275,0.23399999999999999,100.0,1.0,1.0,215.06333333333333,0.0,0.0,0.0,0.0,0.0,0.0,0.0,9115.7,0.0,55.0,5.0,251.24333333333334,1.0,0.0,0.0,0.0,0.0,0.0,1.0,0.0,1.5569999999999986,1.5569999999999986,0.0,0.0,1.0,55.0,616.79921,10000.0,85.000001,85.000001,85.000001,85.000001,395.0,0.0,0.0,0.0,1.0,333.33500000000004,51.361000000000004,51.361000000000004,45.593,45.593,34.0,-27.0,22.07,-34.126666666666665,28.4975,0.0,1782.06,-0.08999999999999986,100.0,29.249,28.834,45.005,44.202,0.0,0.0,100.0,0.0,0.0,0.0,0.0,3254.0,3124.9,4405.0,4239.4,305.207,304.9315,314.15675,314.3985,22.089142857142857,20.679,22.086624999999998,21.585,314.999998,314.999998,324.999988,324.999988,99.56021428571428,99.5075,99.56965714285714,99.54947142857142,0.04125000000000023,-0.10266666666666657,-0.16149999999999998,0.0628333333333333,-0.05833333333333002,-0.02833333333332888,1.4505000000000001,1.472,39.057,30.244,39.041,35.906,56.204,35.732,60.254,53.4385,54.113,34.7975,58.8025,51.7255,53.241,34.302,58.677,51.113,-0.09499999999999997,-0.07350000000000012,0.10143500000000001,0.10817500000000001,0.0,218.47500000000002,218.45499999999998,215.06333333333333,215.06333333333333,0.0,0.0
32,0.0,0.0,0.0,1.0,1.0,0.0,0.0,1.0,0.0,0.0,1.0,1.1856,26.0,0.0,0.0,0.0,59.999996,0.0,26.0,26.0,26.0,26.0,-0.06822222222222218,0.2694000000000001,-0.032675,291.168,-2.6555999999999997,-2.7456,-1.61325,-1.5558,-166.95,215.9075,190.2785,0.0,0.0,0.0,0.0,0.06479999999999997,-5.498166666666667,-5.498166666666667,-0.6072000000000001,0.1885,-0.07337499999999997,0.375,69.924,-0.03809999999999991,-0.22787500000000002,0.1200000000000001,100.0,1.0,1.0,215.57999999999998,0.0,0.0,0.0,0.0,0.0,0.0,0.0,9137.6,0.0,55.0,5.0,251.69666666666666,0.0,0.0,0.0,0.0,0.0,0.0,1.0,0.0,1.6080000000000005,1.6080000000000005,0.0,0.0,0.0,55.0,616.79921,10000.0,85.000001,85.000001,85.000001,85.000001,395.0,0.0,0.0,0.0,1.0,333.33500000000004,51.208,51.208,46.524,46.524,34.0,-25.78,23.978,-32.56666666666666,27.8575,0.0,1782.0075,-0.16999999999999815,100.0,29.389,28.731,44.644999999999996,43.928,0.0,0.0,100.0,0.0,0.0,0.0,0.0,3269.857142857143,3128.1,4271.5,4248.7,304.9095,304.9255,314.587,314.50975,22.098714285714287,20.6847,22.097,21.5942,314.999998,314.999998,324.999988,324.999988,99.56021428571428,99.50751666666666,99.56981428571429,99.54964285714286,0.06450000000000022,-0.08166666666666655,-0.1466666666666666,0.08116666666666683,-0.03833333333332689,-0.051666666666669414,1.5205,1.521,39.117000000000004,30.2795,39.105999999999995,35.964,56.189,35.775999999999996,60.292,53.4995,54.099000000000004,34.838,58.838499999999996,51.7845,53.226,34.341,58.709,51.17,-0.09799999999999998,-0.07000000000000006,0.10555500000000001,0.109865,0.0,218.885,218.86,215.57999999999998,215.57999999999998,0.0,0.0
33,0.0,0.0,0.0,1.0,1.0,0.0,0.0,1.0,0.0,0.0,1.0,1.1856,26.0,0.0,0.0,0.0,59.999996,0.0,26.0,26.0,26.0,26.0,-0.032888888888888856,0.27080000000000015,-0.01455,291.412,-2.6748,-2.7297000000000002,-1.55035,-1.6278000000000001,-163.59,215.89249999999998,190.253375,0.0,0.0,0.0,0.0,0.06676666666666653,-5.498166666666667,-5.498166666666667,-0.6127,-0.44599999999999995,-0.057250000000000245,1.42,70.04599999999999,-0.026799999999999935,-0.2179,0.02200000000000024,100.0,1.0,1.0,215.88,0.0,0.0,0.0,0.0,0.0,0.0,0.0,9150.4,0.0,55.0,5.0,252.14,1.0,0.0,0.0,0.0,0.0,0.0,1.0,0.0,1.6559999999999988,1.6559999999999988,0.0,0.0,1.0,55.0,616.79921,10000.0,85.000001,85.000001,85.000001,85.000001,395.0,0.0,0.0,0.0,1.0,333.33500000000004,51.849000000000004,51.849000000000004,46.539,46.539,34.0,-24.2775,23.605999999999998,-30.813333333333333,30.23,0.0,1781.96125,-0.23000000000000043,100.0,29.114,28.384,44.599000000000004,44.013000000000005,0.0,0.0,100.0,0.0,0.0,0.0,0.0,3123.285714285714,3070.1,4204.375,4301.1,305.406,305.13325,314.58375,314.2925,22.10757142857143,20.6899,22.106875,21.603,314.999998,314.999998,324.999988,324.999988,99.56022857142857,99.50751666666666,99.56994285714286,99.54977142857143,0.07100000000000017,-0.07399999999999995,-0.1343333333333333,0.09416666666666673,-0.026666666666670835,-0.05333333333332746,1.494,1.5,39.172,30.311999999999998,39.168,36.019,56.176,35.81,60.325,53.552,54.086,34.8695,58.869,51.835,53.213,34.371,58.737,51.2195,-0.10549999999999993,-0.062000000000000055,0.100625,0.11056,0.0,219.245,219.235,215.88,215.88,0.0,0.0
34,0.0,0.0,0.0,1.0,1.0,0.0,0.0,1.0,0.0,0.0,1.0,1.1856,26.0,0.0,0.0,0.0,59.999996,0.0,26.0,26.0,26.0,26.0,-0.009000000000000008,0.2511000000000001,-0.067375,291.779,-2.696,-2.7076000000000002,-1.6176,-1.584,-160.01,215.8775,190.2255,0.0,0.0,0.0,0.0,0.0688333333333333,-5.498166666666667,-5.498166666666667,-0.6442,-0.7910000000000001,-0.02499999999999991,-0.05699999999999994,70.174,-0.015199999999999991,-0.225025,0.006000000000000227,100.0,1.0,1.0,216.33666666666667,0.0,0.0,0.0,0.0,0.0,0.0,0.0,9169.8,0.0,55.0,5.0,252.60000000000002,0.0,0.0,0.0,0.0,0.0,0.0,1.0,0.0,1.7070000000000007,1.7070000000000007,0.0,0.0,0.0,55.0,616.79921,10000.0,85.000001,85.000001,85.000001,85.000001,395.0,0.0,0.0,0.0,1.0,333.33500000000004,52.139,52.139,47.318,47.318,34.0,-24.419999999999998,23.158,-30.48,28.19,0.0,1781.91125,-0.245000000000001,100.0,28.677,28.292,44.177,44.155,0.0,0.0,100.0,0.0,0.0,0.0,0.0,3130.142857142857,2962.0,4081.375,4133.2,305.388,305.28025,315.01725,314.60575,22.116857142857143,20.6954,22.11725,21.6123,314.999998,314.999998,324.999988,324.999988,99.56022857142857,99.50753333333333,99.5701,99.54991428571428,0.07374999999999998,-0.061999999999999944,-0.137,0.09366666666666679,-0.03999999999999915,-0.045000000000001705,1.512,1.5305,39.230000000000004,30.3465,39.233000000000004,36.077,56.161,35.847,60.359,53.6115,54.072,34.903999999999996,58.900999999999996,51.891999999999996,53.198,34.4045,58.7655,51.275,-0.10350000000000004,-0.05249999999999999,0.10436000000000001,0.10865000000000001,0.0,219.625,219.60000000000002,216.33666666666667,216.33666666666667,0.0,0.0
35,0.0,0.0,0.0,1.0,1.0,0.0,0.0,1.0,0.0,0.0,1.0,1.1856,26.0,0.0,0.0,0.0,59.999996,0.0,26.0,26.0,26.0,26.0,0.019888888888888845,0.2369000000000001,-0.037425,291.702,-2.694,-2.6612999999999998,-1.6,-1.5969,-156.22,215.86,190.1935,0.0,0.0,0.0,0.0,0.07103333333333339,-5.498166666666667,-5.498166666666667,-0.6859000000000001,-0.15549999999999997,-0.03462500000000013,-1.0339999999999998,70.30799999999999,-0.0025999999999999357,-0.2286,-0.13600000000000012,100.0,1.0,1.0,216.82999999999998,0.0,0.0,0.0,0.0,0.0,0.0,0.0,9190.7,0.0,55.0,5.0,253.08333333333334,1.0,0.0,0.0,0.0,0.0,0.0,1.0,0.0,1.7609999999999992,1.7609999999999992,0.0,0.0,1.0,55.0,616.79921,10000.0,85.000001,85.000001,85.000001,85.000001,395.0,0.0,0.0,0.0,1.0,166.665,51.376,51.376,46.982,46.982,34.0,-25.0,26.214,-27.823333333333334,27.9825,0.0,1781.8575,-0.17999999999999972,100.0,28.494,28.772,43.888,43.698,0.0,0.0,100.0,0.0,0.0,0.0,0.0,3253.5714285714284,3325.0,4006.625,3947.1000000000004,305.15,304.2015,315.164,315.11675,22.126571428571427,20.7015,22.12825,21.6219,314.999998,314.999998,324.999988,324.999988,99.56024285714285,99.50753333333333,99.57025714285714,99.55007142857143,0.08174999999999999,-0.056333333333333346,-0.10433333333333339,0.12050000000000005,-0.04833333333333201,-0.04333333333332945,1.5605,1.5510000000000002,39.291,30.3845,39.301,36.137,56.144,35.888999999999996,60.3955,53.670500000000004,54.056,34.943,58.9345,51.949,53.18,34.4415,58.796,51.3305,-0.09750000000000003,-0.06600000000000006,0.09863000000000001,0.11379500000000001,0.0,220.04500000000002,220.04500000000002,216.82999999999998,216.82999999999998,0.0,0.0
36,0.0,0.0,0.0,1.0,1.0,0.0,0.0,1.0,0.0,0.0,1.0,1.1856,26.0,0.0,0.0,0.0,59.999996,0.0,26.0,26.0,26.0,26.0,-0.007555555555555538,0.26750000000000007,0.063275,290.71,-2.6254,-2.6798,-1.5567,-1.5901,-153.05,215.845,190.165625,0.0,0.0,0.0,0.0,0.07286666666666652,-5.498166666666667,-5.498166666666667,-0.6647000000000001,0.24149999999999994,-0.06537499999999996,0.16100000000000048,70.423,0.0036000000000000476,-0.202875,-0.08000000000000007,100.0,1.0,1.0,216.92000000000002,0.0,0.0,0.0,0.0,0.0,0.0,0.0,9194.5,0.0,55.0,5.0,253.49666666666667,0.0,0.0,0.0,0.0,0.0,0.0,1.0,0.0,1.806000000000001,1.806000000000001,0.0,0.0,0.0,55.0,616.79921,10000.0,85.000001,85.000001,85.000001,85.000001,395.0,0.0,0.0,0.0,1.0,333.33500000000004,51.071,51.071,46.112,46.112,34.0,-23.1025,25.918,-31.36,33.6725,0.0,1781.8125,-0.18499999999999872,100.0,29.231,28.887999999999998,44.198,44.064,0.0,0.0,100.0,0.0,0.0,0.0,0.0,3158.285714285714,3244.6,4435.5,4577.8,304.979,304.62225,314.0925,313.64775,22.134857142857143,20.7067,22.1375,21.6302,314.999998,314.999998,324.999988,324.999988,99.56025714285714,99.50755,99.57038571428572,99.55021428571429,0.10250000000000004,-0.04599999999999993,-0.10199999999999998,0.1180000000000001,-0.03999999999999915,-0.046666666666666856,1.4275,1.4420000000000002,39.343,30.417,39.358999999999995,36.189,56.132999999999996,35.925,60.428,53.7245,54.046,34.9765,58.965,52.001,53.169,34.4735,58.823499999999996,51.3815,-0.09699999999999998,-0.06950000000000012,0.10955500000000001,0.10234000000000001,0.0,220.435,220.425,216.92000000000002,216.92000000000002,0.0,0.0
