,ABS Active,ABS Enabled,AID Allow Tire Blankets,AID Auto Blip,AID Auto Clutch,AID Auto Shift,AID Fuel Rate,AID Ideal Line,AID Mech Damage,AID Stability,AID Tire Wear Rate,Air Density,Air Temp,Ballast,Best Lap Delta,Best Lap Time,Brake Bias,Brake Pos,Brake Temp FL,Brake Temp FR,Brake Temp RL,Brake Temp RR,CG Accel Lateral,CG Accel Longitudinal,CG Accel Vertical,CG Height,Camber FL,Camber FR,Camber RL,Camber RR,Car Coord X,Car Coord Y,Car Coord Z,Car Damage Front,Car Damage Left,Car Damage Rear,Car Damage Right,Car Pos Norm,Caster FL,Caster FR,Chassis Pitch Angle,Chassis Pitch Rate,Chassis Roll Angle,Chassis Roll Rate,Chassis Velocity X,Chassis Velocity Y,Chassis Velocity Z,Chassis Yaw Rate,Clutch Pos,DRS Active,DRS Available,Drive Train Speed,ERS Heat Charging,ERS Is Charging,ERS Max Energy,ERS Power Level,ERS Recovery Level,Engine Brake Setting,Engine Limiter,Engine RPM,Flags,Fuel Level,Gear,Ground Speed,HR Sample Clock,In Pit,KERS Charge,KERS Deployed Energy,KERS Input,KERS Max Energy,LR Sample Clock,Lap Invalidated,Lap Time,Lap Time2,Last Lap Time,Last Sector Time,MR Sample Clock,Max Fuel,Max Power,Max RPM,Max Sus Travel FL,Max Sus Travel FR,Max Sus Travel RL,Max Sus Travel RR,Max Torque,Max Turbo Boost,Num Tires Off Track,Penalties Enabled,Position,Raw Data Sample Rate,Ride Height FL,Ride Height FR,Ride Height RL,Ride Height RR,Road Temp,Self Align Torque FL,Self Align Torque FR,Self Align Torque RL,Self Align Torque RR,Session Lap Count,Session Time Left,Steering Angle,Surface Grip,Suspension Travel FL,Suspension Travel FR,Suspension Travel RL,Suspension Travel RR,TC Active,TC Enabled,Throttle Pos,Tire Dirt Level FL,Tire Dirt Level FR,Tire Dirt Level RL,Tire Dirt Level RR,Tire Load FL,Tire Load FR,Tire Load RL,Tire Load RR,Tire Loaded Radius FL,Tire Loaded Radius FR,Tire Loaded Radius RL,Tire Loaded Radius RR,Tire Pressure FL,Tire Pressure FR,Tire Pressure RL,Tire Pressure RR,Tire Radius FL,Tire Radius FR,Tire Radius RL,Tire Radius RR,Tire Rubber Grip FL,Tire Rubber Grip FR,Tire Rubber Grip RL,Tire Rubber Grip RR,Tire Slip Angle FL,Tire Slip Angle FR,Tire Slip Angle RL,Tire Slip Angle RR,Tire Slip Ratio FL,Tire Slip Ratio FR,Tire Slip Ratio RL,Tire Slip Ratio RR,Tire Temp Core FL,Tire Temp Core FR,Tire Temp Core RL,Tire Temp Core RR,Tire Temp Inner FL,Tire Temp Inner FR,Tire Temp Inner RL,Tire Temp Inner RR,Tire Temp Middle FL,Tire Temp Middle FR,Tire Temp Middle RL,Tire Temp Middle RR,Tire Temp Outer FL,Tire Temp Outer FR,Tire Temp Outer RL,Tire Temp Outer RR,Toe In FL,Toe In FR,Toe In RL,Toe In RR,Turbo Boost,Wheel Angular Speed FL,Wheel Angular Speed FR,Wheel Angular Speed RL,Wheel Angular Speed RR,Wind Direction,Wind Speed
0,0.0,0.0,0.0,1.0,1.0,0.0,0.0,1.0,0.0,0.0,1.0,1.1856,26.0,0.0,0.0,0.0,59.99999,0.0,26.0,26.0,26.0,26.0,-0.1647777777777778,0.2914000000000001,0.078625,294.052,-2.6654,-2.71075,-1.4716,-1.5979999999999999,-275.66,216.2525,190.9875,0.0,0.0,0.0,0.0,0.0016,-5.498166666666667,-5.498166666666667,-0.548,1.4425,-0.05677777777777804,-0.4969999999999999,65.468,-0.1078,-0.21255000000000002,1.678,100.0,1.0,1.0,202.13333333333333,0.0,0.0,0.0,0.0,0.0,0.0,0.0,8567.7,0.0,55.0,5.0,235.65333333333334,0.0,0.0,0.0,0.0,0.0,0.0,0.0,0.0,0.0030000000000001137,0.0030000000000001137,0.0,0.0,0.0,55.0,616.79921,10000.0,85.0,85.0,85.0,85.0,395.0,0.0,0.0,0.0,1.0,20.0,52.795,52.795,49.591,49.591,34.0,-28.884999999999998,20.242,-34.306666666666665,20.91,0.0,1783.361,1.0899999999999999,100.0,27.981,26.595,41.002,39.903,0.0,0.0,100.0,0.0,0.0,0.0,0.0,3047.25,3281.4,4166.222222222223,3985.5,305.57366666666667,304.4,314.699,314.9145,21.7782,20.5137,21.7649,21.307,314.99999,314.99999,324.99998,324.99998,99.55888571428571,99.50723333333333,99.56484285714286,99.54495714285714,-0.06624999999999992,-0.18333333333333313,-0.23883333333333334,-0.0225,-0.030000000000001137,-0.06142857142857139,1.512,1.5966666666666667,37.114000000000004,29.21066666666667,37.031,34.1685,56.263,34.5,58.9495,51.504,54.183,33.672,57.579499999999996,49.872,53.352999999999994,33.237,57.542500000000004,49.303,0.00649999999999995,-0.15650000000000008,0.10806,0.09902000000000001,0.0,205.19,205.07,202.13333333333333,202.13333333333333,0.0,0.0
1,0.0,0.0,0.0,1.0,1.0,0.0,0.0,1.0,0.0,0.0,1.0,1.1856,26.0,0.0,0.0,0.0,59.999996,0.0,26.0,26.0,26.0,26.0,-0.18922222222222218,0.30820000000000003,0.17830000000000001,293.106,-2.5864,-2.81775,-1.4847000000000001,-1.5910000000000002,-272.32,216.2575,190.967375,0.0,0.0,0.0,0.0,0.0035666666666666668,-5.498166666666667,-5.498166666666667,-0.5,-0.75,-0.10288888888888881,-0.7069999999999999,65.623,-0.11130000000000001,-0.19437500000000002,1.88,100.0,1.0,1.0,202.29666666666668,0.0,0.0,0.0,0.0,0.0,0.0,0.0,8574.6,0.0,55.0,5.0,236.21,1.0,0.0,0.0,0.0,0.0,0.0,0.0,0.0,0.053999999999998494,0.053999999999998494,0.0,0.0,1.0,55.0,616.79921,10000.0,85.000001,85.000001,85.000001,85.000001,395.0,0.0,0.0,0.0,1.0,166.665,53.528,53.528,48.416,48.416,34.0,-30.7875,15.355999999999998,-37.47,24.7225,0.0,1783.31,1.2149999999999999,100.0,27.869,26.667,43.102000000000004,41.077,0.0,0.0,100.0,0.0,0.0,0.0,0.0,3242.0,2600.8,4358.555555555556,4634.4,305.047,306.575,314.17625,313.3045,21.7881,20.5187,21.7758,21.316,314.999998,314.999998,324.999988,324.999988,99.5589,99.50726666666667,99.565,99.5451,-0.07874999999999988,-0.20733333333333315,-0.245,-0.033666666666666664,-0.036666666666668846,-0.03999999999999915,1.3906666666666667,1.491,37.176,29.241999999999997,37.099000000000004,34.225,56.251999999999995,34.539500000000004,58.9945,51.565,54.172,33.7085,57.622,49.9305,53.341,33.272,57.582499999999996,49.36,0.018000000000000016,-0.1665000000000001,0.10605,0.103345,0.0,205.62,205.485,202.29666666666668,202.29666666666668,0.0,0.0
2,0.0,0.0,0.0,1.0,1.0,0.0,0.0,1.0,0.0,0.0,1.0,1.1856,26.0,0.0,0.0,0.0,59.999996,0.0,26.0,26.0,26.0,26.0,-0.19699999999999995,0.2812000000000001,-0.034625,293.716,-2.5648999999999997,-2.83275,-1.4562,-1.638,-268.77,216.26,190.947375,0.0,0.0,0.0,0.0,0.0056,-5.498166666666667,-5.498166666666667,-0.551,0.32999999999999996,-0.08422222222222242,1.8479999999999999,65.773,-0.12480000000000001,-0.25322500000000003,2.1500000000000004,100.0,1.0,1.0,203.23666666666668,0.0,0.0,0.0,0.0,0.0,0.0,0.0,8614.4,0.0,55.0,5.0,236.75333333333333,0.0,0.0,0.0,0.0,0.0,0.0,0.0,0.0,0.10800000000000054,0.10800000000000054,0.0,0.0,0.0,55.0,616.79921,10000.0,85.000001,85.000001,85.000001,85.000001,395.0,0.0,0.0,0.0,1.0,166.665,52.399,52.399,50.262,50.262,34.0,-33.004999999999995,17.566,-31.666666666666668,17.7075,0.0,1783.258,0.995000000000001,100.0,28.613,26.756,42.804,40.829,0.0,0.0,100.0,0.0,0.0,0.0,0.0,3449.625,2866.5,3791.0,3694.4,304.32033333333334,305.6505,315.56225,315.74475,21.7989,20.5239,21.7868,21.3252,314.999998,314.999998,324.999988,324.999988,99.55891428571428,99.50728333333333,99.56514285714286,99.54524285714285,-0.07699999999999996,-0.20366666666666666,-0.2771666666666667,-0.05383333333333334,-0.060000000000002274,-0.03714285714285381,1.6233333333333333,1.7056666666666667,37.242999999999995,29.27433333333333,37.168,34.2825,56.244,34.5835,59.036500000000004,51.6255,54.164,33.749,57.661500000000004,49.988,53.332,33.3105,57.619,49.416666666666664,-0.0024999999999999467,-0.15349999999999997,0.096915,0.10966000000000001,0.0,206.125,205.94,203.23666666666668,203.23666666666668,0.0,0.0
3,0.0,0.0,0.0,1.0,1.0,0.0,0.0,1.0,0.0,0.0,1.0,1.1856,26.0,0.0,0.0,0.0,59.999996,0.0,26.0,26.0,26.0,26.0,-0.1988888888888889,0.30820000000000003,-0.037225,293.488,-2.691,-2.7273750000000003,-1.4814,-1.6203,-265.61,216.255,190.928875,0.0,0.0,0.0,0.0,0.0074666666666666675,-5.498166666666667,-5.498166666666667,-0.509,0.388,-0.04588888888888887,-0.9969999999999999,65.917,-0.1343,-0.20142500000000002,1.5940000000000003,100.0,1.0,1.0,203.34666666666666,0.0,0.0,0.0,0.0,0.0,0.0,0.0,8619.1,0.0,55.0,5.0,237.26999999999998,1.0,0.0,0.0,0.0,0.0,0.0,0.0,0.0,0.1559999999999988,0.1559999999999988,0.0,0.0,1.0,55.0,616.79921,10000.0,85.000001,85.000001,85.000001,85.000001,395.0,0.0,0.0,0.0,1.0,166.665,53.635,53.635,48.172,48.172,34.0,-27.5375,15.898,-38.163333333333334,21.762500000000003,0.0,1783.211,0.7650000000000006,100.0,28.15,26.832,42.704,41.065,0.0,0.0,100.0,0.0,0.0,0.0,0.0,2918.75,2709.4,4379.555555555556,4191.8,305.929,306.023,314.18625,314.39925,21.8082,20.5287,21.7967,21.3336,314.999998,314.999998,324.999988,324.999988,99.55892857142857,99.50731666666667,99.56527142857144,99.54537142857143,-0.06074999999999986,-0.19866666666666677,-0.264,-0.04133333333333334,-0.023333333333326323,-0.02571428571428669,1.4666666666666666,1.5373333333333332,37.301,29.304000000000002,37.229,34.3345,56.230999999999995,34.6245,59.0755,51.685,54.150999999999996,33.787,57.698,50.045,53.319,33.3465,57.653,49.47266666666667,-0.027000000000000024,-0.12850000000000006,0.10823500000000001,0.10738500000000001,0.0,206.565,206.405,203.3466666666667,203.34666666666666,0.0,0.0
4,0.0,0.0,0.0,1.0,1.0,0.0,0.0,1.0,0.0,0.0,1.0,1.1856,26.0,0.0,0.0,0.0,59.999996,0.0,26.0,26.0,26.0,26.0,-0.2072222222222222,0.30180000000000007,-0.033225000000000005,293.686,-2.622,-2.7795,-1.4984,-1.6248,-262.24,216.245,190.909125,0.0,0.0,0.0,0.0,0.0094,-5.498166666666667,-5.498166666666667,-0.5472,-0.76,-0.10833333333333339,-0.3900000000000001,66.063,-0.1254,-0.23977500000000002,1.3920000000000003,100.0,1.0,1.0,203.96666666666667,0.0,0.0,0.0,0.0,0.0,0.0,0.0,8645.5,0.0,55.0,5.0,237.79666666666668,0.0,0.0,0.0,0.0,0.0,0.0,0.0,0.0,0.20700000000000074,0.20700000000000074,0.0,0.0,0.0,55.0,616.79921,10000.0,85.000001,85.000001,85.000001,85.000001,395.0,0.0,0.0,0.0,1.0,166.665,53.009,53.009,48.981,48.981,34.0,-30.744999999999997,18.308,-33.86333333333333,18.8325,0.0,1783.159,0.75,100.0,28.033,26.494,43.132,41.035,0.0,0.0,100.0,0.0,0.0,0.0,0.0,3275.75,2936.8,4037.4444444444443,3653.3,304.8833333333333,305.5265,314.908,315.7465,21.8179,20.5337,21.807299999999998,21.3424,314.999998,314.999998,324.999988,324.999988,99.55892857142857,99.50731666666667,99.56542857142857,99.54551428571429,-0.05824999999999991,-0.18466666666666676,-0.25,-0.028,-0.04833333333333201,-0.04571428571428271,1.5613333333333332,1.6219999999999999,37.361999999999995,29.33566666666667,37.296,34.39,56.216,34.667,59.119,51.7435,54.138,33.826,57.7385,50.101,53.304,33.384,57.691,49.527,-0.019000000000000017,-0.12850000000000006,0.11113,0.09972,0.0,206.96,206.845,203.96666666666667,203.96666666666667,0.0,0.0
5,0.0,0.0,0.0,1.0,1.0,0.0,0.0,1.0,0.0,0.0,1.0,1.1856,26.0,0.0,0.0,0.0,59.999996,0.0,26.0,26.0,26.0,26.0,-0.16422222222222216,0.29280000000000017,-0.021825,293.671,-2.6498,-2.7908749999999998,-1.4889000000000001,-1.6066,-258.87,216.23000000000002,190.88875,0.0,0.0,0.0,0.0,0.011366666666666667,-5.498166666666667,-5.498166666666667,-0.5353,0.37649999999999995,-0.10644444444444456,-0.21199999999999974,66.21000000000001,-0.11950000000000001,-0.21315,1.3320000000000007,100.0,1.0,1.0,204.32999999999998,0.0,0.0,0.0,0.0,0.0,0.0,0.0,8660.9,0.0,55.0,5.0,238.32666666666665,1.0,0.0,0.0,0.0,0.0,0.0,0.0,0.0,0.2579999999999991,0.2579999999999991,0.0,0.0,1.0,55.0,616.79921,10000.0,85.000001,85.000001,85.000001,85.000001,395.0,0.0,0.0,0.0,1.0,166.665,53.467,53.467,48.965,48.965,34.0,-29.78,17.566,-35.83333333333333,21.35,0.0,1783.107,0.3550000000000004,100.0,27.928,26.545,42.769,40.888,0.0,0.0,100.0,0.0,0.0,0.0,0.0,3238.125,2720.4,4227.666666666667,4037.7,305.08733333333333,306.06575,314.594,314.7925,21.8279,20.5387,21.8178,21.3511,314.999998,314.999998,324.999988,324.999988,99.55894285714285,99.50735,99.56557142857143,99.54564285714285,-0.04200000000000004,-0.16866666666666674,-0.2555,-0.025500000000000002,-0.05333333333332746,-0.05571428571428072,1.5373333333333332,1.5636666666666668,37.425,29.366999999999997,37.361000000000004,34.4445,56.205,34.7085,59.16,51.8015,54.126999999999995,33.864,57.777,50.1565,53.292,33.420500000000004,57.727000000000004,49.581,-0.044499999999999984,-0.09899999999999998,0.10681500000000001,0.10925000000000001,0.0,207.45499999999998,207.36,204.32999999999998,204.32999999999998,0.0,0.0
6,0.0,0.0,0.0,1.0,1.0,0.0,0.0,1.0,0.0,0.0,1.0,1.1856,26.0,0.0,0.0,0.0,59.999996,0.0,26.0,26.0,26.0,26.0,-0.1416666666666666,0.30410000000000004,-0.010750000000000001,293.472,-2.6191,-2.8175,-1.5352000000000001,-1.5993,-255.69,216.2125,190.869375,0.0,0.0,0.0,0.0,0.013233333333333335,-5.498166666666667,-5.498166666666667,-0.5311,0.08199999999999996,-0.08466666666666667,-0.379,66.348,-0.1077,-0.21530000000000002,0.9420000000000002,100.0,1.0,1.0,204.76999999999998,0.0,0.0,0.0,0.0,0.0,0.0,0.0,8679.4,0.0,55.0,5.0,238.82333333333332,0.0,0.0,0.0,0.0,0.0,0.0,0.0,0.0,0.30600000000000094,0.30600000000000094,0.0,0.0,0.0,55.0,616.79921,10000.0,85.000001,85.000001,85.000001,85.000001,395.0,0.0,0.0,0.0,1.0,166.665,53.162,53.162,48.737,48.737,34.0,-28.802500000000002,19.368,-34.12,21.345,0.0,1783.06,0.17999999999999972,100.0,27.832,26.719,42.889,41.316,0.0,0.0,100.0,0.0,0.0,0.0,0.0,3236.375,2831.8,4142.888888888889,3979.3,305.04966666666667,305.61575,314.784,314.9365,21.8373,20.5435,21.8277,21.3595,314.999998,314.999998,324.999988,324.999988,99.55894285714285,99.50736666666667,99.56571428571428,99.54578571428571,-0.024499999999999966,-0.15266666666666673,-0.225,-0.0155,-0.061666666666667425,-0.05142857142856627,1.5356666666666667,1.5763333333333334,37.483000000000004,29.397,37.423,34.497,56.192,34.747,59.199,51.859,54.114000000000004,33.8995,57.8135,50.212,53.278999999999996,33.454499999999996,57.7605,49.635333333333335,-0.06399999999999995,-0.08400000000000007,0.10065500000000001,0.11026500000000002,0.0,207.865,207.76999999999998,204.76999999999998,204.76999999999998,0.0,0.0
7,0.0,0.0,0.0,1.0,1.0,0.0,0.0,1.0,0.0,0.0,1.0,1.1856,26.0,0.0,0.0,0.0,59.999996,0.0,26.0,26.0,26.0,26.0,-0.10044444444444445,0.28890000000000016,0.010475,293.198,-2.5982,-2.744875,-1.5011,-1.5828,-252.5,216.1925,190.850125,0.0,0.0,0.0,0.0,0.015066666666666666,-5.498166666666667,-5.498166666666667,-0.5345,-0.02200000000000002,-0.06677777777777782,-0.09299999999999997,66.486,-0.0888,-0.22360000000000002,0.5779999999999994,100.0,1.0,1.0,205.15666666666667,0.0,0.0,0.0,0.0,0.0,0.0,0.0,8695.9,0.0,55.0,5.0,239.32,1.0,0.0,0.0,0.0,0.0,0.0,0.0,0.0,0.3539999999999992,0.3539999999999992,0.0,0.0,1.0,55.0,616.79921,10000.0,85.000001,85.000001,85.000001,85.000001,395.0,0.0,0.0,0.0,1.0,166.665,52.811,52.811,48.859,48.859,34.0,-28.0925,20.978,-32.57333333333333,23.525,0.0,1783.01,-0.16999999999999993,100.0,27.897,26.823,42.9,41.638,0.0,0.0,100.0,0.0,0.0,0.0,0.0,3329.5,2931.6,4094.222222222222,4062.8,304.72133333333335,305.37725,314.8535,314.71525,21.8467,20.5484,21.8376,21.3679,314.999998,314.999998,324.999988,324.999988,99.55895714285714,99.50738333333334,99.56584285714285,99.54591428571429,0.010250000000000092,-0.11499999999999999,-0.209,0.01916666666666667,-0.06666666666666998,-0.05285714285714249,1.5203333333333333,1.5643333333333334,37.542,29.427333333333333,37.485,34.5495,56.178,34.7845,59.237,51.917,54.101,33.934,57.8495,50.266999999999996,53.265,33.487,57.7935,49.68933333333334,-0.08850000000000002,-0.056499999999999995,0.105745,0.10791,0.0,208.26999999999998,208.21,205.15666666666667,205.15666666666667,0.0,0.0
8,0.0,0.0,0.0,1.0,1.0,0.0,0.0,1.0,0.0,0.0,1.0,1.1856,26.0,0.0,0.0,0.0,59.999996,0.0,26.0,26.0,26.0,26.0,-0.06855555555555548,0.30079999999999996,0.0426,293.472,-2.6831,-2.73325,-1.4863,-1.564,-249.11,216.16750000000002,190.829625,0.0,0.0,0.0,0.0,0.017033333333333334,-5.498166666666667,-5.498166666666667,-0.5348,-0.5860000000000001,-0.04499999999999993,0.7880000000000003,66.632,-0.0649,-0.213475,0.03000000000000025,100.0,1.0,1.0,205.54000000000002,0.0,0.0,0.0,0.0,0.0,0.0,0.0,8712.0,0.0,55.0,5.0,239.8466666666667,0.0,0.0,0.0,0.0,0.0,0.0,0.0,0.0,0.40500000000000114,0.40500000000000114,0.0,0.0,0.0,55.0,616.79921,10000.0,85.000001,85.000001,85.000001,85.000001,395.0,0.0,0.0,0.0,1.0,166.665,53.696,53.696,48.096000000000004,48.096000000000004,34.0,-23.9875,21.990000000000002,-30.60333333333333,26.0775,0.0,1782.96,-0.3149999999999995,100.0,27.587,26.637999999999998,42.921,41.717,0.0,0.0,100.0,0.0,0.0,0.0,0.0,2935.375,2975.5,4148.777777777777,4167.0,305.90233333333333,305.42975,314.6175,314.4945,21.8564,20.5536,21.848,21.3769,314.999998,314.999998,324.999988,324.999988,99.55895714285714,99.5074,99.56598571428572,99.54605714285714,0.035250000000000004,-0.09133333333333327,-0.16016666666666665,0.05516666666666666,-0.03166666666666629,-0.04571428571428271,1.5186666666666666,1.512,37.602000000000004,29.459666666666664,37.55,34.6055,56.161,34.823,59.2775,51.978,54.085,33.9695,57.8865,50.3255,53.248000000000005,33.521,57.828,49.74633333333333,-0.09250000000000003,-0.05049999999999999,0.10421000000000001,0.10771000000000001,0.0,208.69,208.66500000000002,205.54000000000002,205.54000000000002,0.0,0.0
9,0.0,0.0,0.0,1.0,1.0,0.0,0.0,1.0,0.0,0.0,1.0,1.1856,26.0,0.0,0.0,0.0,59.999996,0.0,26.0,26.0,26.0,26.0,-0.027111111111111086,0.28800000000000003,-0.019375,293.121,-2.6744,-2.73025,-1.5471,-1.5636,-245.7,216.14249999999998,190.8085,0.0,0.0,0.0,0.0,0.019033333333333336,-5.498166666666667,-5.498166666666667,-0.5411,0.71,-0.04400000000000004,-0.2519999999999998,66.774,-0.041,-0.215425,-0.02400000000000002,100.0,1.0,1.0,206.11333333333334,0.0,0.0,0.0,0.0,0.0,0.0,0.0,8736.5,0.0,55.0,5.0,240.35666666666668,1.0,0.0,0.0,0.0,0.0,0.0,0.0,0.0,0.4559999999999995,0.4559999999999995,0.0,0.0,1.0,55.0,616.79921,10000.0,85.000001,85.000001,85.000001,85.000001,395.0,0.0,0.0,0.0,1.0,166.665,52.383,52.383,49.194,49.194,34.0,-27.244999999999997,23.189999999999998,-29.836666666666666,26.2925,0.0,1782.91,-0.4450000000000003,100.0,27.931,27.273,42.471000000000004,41.844,0.0,0.0,100.0,0.0,0.0,0.0,0.0,3398.75,2984.1,4020.5555555555557,4039.3,304.5953333333333,305.1605,315.139,314.83375,21.8663,20.5589,21.8584,21.3857,314.999998,314.999998,324.999988,324.999988,99.55895714285714,99.5074,99.56612857142858,99.5462,0.057250000000000245,-0.06966666666666677,-0.16216666666666665,0.08283333333333333,-0.04999999999999716,-0.03999999999999915,1.5706666666666667,1.562,37.665,29.493333333333332,37.614999999999995,34.661,56.147,34.863,59.314499999999995,52.037,54.072,34.006,57.921,50.382,53.235,33.556,57.8595,49.802,-0.11449999999999994,-0.038000000000000034,0.11023000000000001,0.111585,0.0,209.155,209.14,206.11333333333334,206.11333333333334,0.0,0.0
10,0.0,0.0,0.0,1.0,1.0,0.0,0.0,1.0,0.0,0.0,1.0,1.1856,26.0,0.0,0.0,0.0,59.999996,0.0,26.0,26.0,26.0,26.0,-0.007444444444444476,0.29370000000000007,0.0011,292.938,-2.653,-2.707375,-1.5286,-1.5407000000000002,-242.49,216.1175,190.789,0.0,0.0,0.0,0.0,0.020900000000000002,-5.498166666666667,-5.498166666666667,-0.5167,-0.3560000000000001,-0.0015555555555555323,0.36099999999999977,66.913,-0.018500000000000003,-0.205425,-0.42600000000000016,100.0,1.0,1.0,206.32333333333332,0.0,0.0,0.0,0.0,0.0,0.0,0.0,8745.3,0.0,55.0,5.0,240.85666666666668,0.0,0.0,0.0,0.0,0.0,0.0,1.0,0.0,0.5040000000000013,0.5040000000000013,0.0,0.0,0.0,55.0,616.79921,10000.0,85.000001,85.000001,85.000001,85.000001,395.0,0.0,0.0,0.0,1.0,166.665,53.436,53.436,47.546,47.546,34.0,-21.645,22.22,-31.52,29.045,0.0,1782.86,-0.5849999999999991,100.0,27.766,27.297,42.879,42.658,0.0,0.0,100.0,0.0,0.0,0.0,0.0,2908.625,2845.3,4346.222222222223,4274.9,306.02366666666666,305.626,314.23475,314.1585,21.8755,20.5638,21.8684,21.3944,314.999998,314.999998,324.999988,324.999988,99.55897142857143,99.5074,99.56627142857143,99.54632857142857,0.0807500000000001,-0.05666666666666664,-0.132,0.09583333333333333,-0.03499999999999659,-0.044285714285713595,1.475,1.473,37.722,29.524,37.677,34.715,56.135,34.8975,59.3535,52.0975,54.06,34.038,57.958,50.4405,53.222,33.5865,57.8935,49.859,-0.128,-0.030000000000000027,0.11064,0.10501,0.0,209.54000000000002,209.565,206.32333333333332,206.32333333333332,0.0,0.0
11,0.0,0.0,0.0,1.0,1.0,0.0,0.0,1.0,0.0,0.0,1.0,1.1856,26.0,0.0,0.0,0.0,59.999996,0.0,26.0,26.0,26.0,26.0,0.02733333333333321,0.26760000000000006,-0.0666,293.51800000000003,-2.6997,-2.691875,-1.5869,-1.5275,-239.07999999999998,216.09,190.768375,0.0,0.0,0.0,0.0,0.022600000000000002,-5.498166666666667,-5.498166666666667,-0.5605,-0.272,0.028999999999999915,0.4119999999999999,67.051,0.0047,-0.2373,-0.6179999999999994,100.0,1.0,1.0,207.06,0.0,0.0,0.0,0.0,0.0,0.0,0.0,8776.5,0.0,55.0,5.0,241.35666666666668,1.0,0.0,0.0,0.0,0.0,0.0,1.0,0.0,0.5549999999999997,0.5549999999999997,0.0,0.0,1.0,55.0,616.79921,10000.0,85.000001,85.000001,85.000001,85.000001,395.0,0.0,0.0,0.0,1.0,166.665,52.841,52.841,49.254999999999995,49.254999999999995,34.0,-22.07,26.04,-24.14,27.0125,0.0,1782.811,-0.625,100.0,27.61,27.367,42.458,42.537,0.0,0.0,100.0,0.0,0.0,0.0,0.0,3002.25,3176.1,3677.0,3878.5,305.664,304.7475,315.91475,315.22825,21.8851,20.5693,21.8787,21.4034,314.999998,314.999998,324.999988,324.999988,99.55898571428571,99.5074,99.5664,99.54647142857142,0.10250000000000004,-0.030333333333333323,-0.09583333333333333,0.13833333333333334,-0.046666666666666856,-0.05142857142856627,1.6396666666666666,1.6096666666666666,37.782,29.557666666666666,37.742000000000004,34.771,56.120000000000005,34.9355,59.3885,52.158,54.046,34.073,57.99,50.498,53.207,33.6205,57.923,49.91566666666667,-0.12149999999999994,-0.03049999999999997,0.111015,0.11494000000000001,0.0,209.965,210.0,207.06,207.06,0.0,0.0
12,0.0,0.0,0.0,1.0,1.0,0.0,0.0,1.0,0.0,0.0,1.0,1.1856,26.0,0.0,0.0,0.0,59.999996,0.0,26.0,26.0,26.0,26.0,0.05122222222222228,0.27790000000000004,0.03465,292.923,-2.7561999999999998,-2.68525,-1.552,-1.529,-235.66,216.065,190.74625,0.0,0.0,0.0,0.0,0.025466666666666665,-5.498166666666667,-5.498166666666667,-0.5452,0.28500000000000003,0.012222222222222134,-0.839,67.197,0.023100000000000002,-0.205075,-0.6399999999999997,100.0,1.0,1.0,207.2866666666667,0.0,0.0,0.0,0.0,0.0,0.0,0.0,8786.1,0.0,55.0,5.0,241.88,0.0,0.0,0.0,0.0,0.0,0.0,1.0,0.0,0.6059999999999981,0.6059999999999981,0.0,0.0,0.0,55.0,616.79921,10000.0,85.000001,85.000001,85.000001,85.000001,395.0,0.0,0.0,0.0,1.0,166.665,52.795,52.795,47.928,47.928,34.0,-23.0875,26.142,-28.169999999999998,30.42,0.0,1782.76,-0.6850000000000005,100.0,27.37,27.698,42.303,42.54,0.0,0.0,100.0,0.0,0.0,0.0,0.0,3143.125,3091.2,4240.222222222223,4170.0,305.441,304.85975,314.5825,314.4755,21.8947,20.5747,21.8891,21.4123,314.999998,314.999998,324.999988,324.999988,99.55898571428571,99.50741666666667,99.56655714285715,99.54661428571428,0.11375000000000002,-0.011333333333333195,-0.08600000000000001,0.14383333333333334,-0.03833333333332689,-0.03142857142857025,1.5196666666666667,1.4849999999999999,37.842,29.592,37.807,34.827,56.107,34.973,59.4265,52.2185,54.033,34.1075,58.025999999999996,50.5565,53.194,33.6535,57.9555,49.973,-0.12849999999999995,-0.02400000000000002,0.10562,0.11215000000000001,0.0,210.41,210.45499999999998,207.2866666666667,207.2866666666667,0.0,0.0
13,0.0,0.0,0.0,1.0,1.0,0.0,0.0,1.0,0.0,0.0,1.0,1.1856,26.0,0.0,0.0,0.0,59.999996,0.0,26.0,26.0,26.0,26.0,0.06377777777777793,0.2813000000000001,0.054950000000000006,292.542,-2.7317,-2.6801250000000003,-1.5882,-1.5118,-232.22,216.04000000000002,190.724625,0.0,0.0,0.0,0.0,0.02686666666666667,-5.498166666666667,-5.498166666666667,-0.5385,-0.09549999999999992,0.02122222222222203,1.0940000000000003,67.34,0.034800000000000005,-0.214625,-0.8860000000000001,100.0,1.0,1.0,207.66333333333333,0.0,0.0,0.0,0.0,0.0,0.0,0.0,8802.1,0.0,55.0,5.0,242.39333333333335,1.0,0.0,0.0,0.0,0.0,0.0,1.0,0.0,0.657,0.657,0.0,0.0,1.0,55.0,616.79921,10000.0,85.000001,85.000001,85.000001,85.000001,395.0,0.0,0.0,0.0,1.0,166.665,52.475,52.475,47.867,47.867,34.0,-21.03,27.922,-26.916666666666664,33.085,0.0,1782.71,-0.8349999999999991,100.0,27.823,27.748,42.632,42.95,0.0,0.0,100.0,0.0,0.0,0.0,0.0,3058.25,3184.3,4134.555555555556,4372.8,305.478,304.7445,314.7125,314.0405,21.9042,20.5803,21.8996,21.4215,314.999998,314.999998,324.999988,324.999988,99.559,99.50741666666667,99.56668571428571,99.54675714285715,0.14524999999999988,0.016000000000000014,-0.064,0.165,-0.04833333333333201,-0.03714285714285381,1.5,1.474,37.900999999999996,29.626666666666665,37.872,34.8845,56.097,35.010999999999996,59.4655,52.283,54.022999999999996,34.1425,58.062,50.6185,53.183,33.687,57.9885,50.03366666666666,-0.14249999999999996,-0.008000000000000007,0.11023500000000001,0.107185,0.0,210.85500000000002,210.89499999999998,207.66333333333333,207.66333333333333,0.0,0.0
14,0.0,0.0,0.0,1.0,1.0,0.0,0.0,1.0,0.0,0.0,1.0,1.1856,26.0,0.0,0.0,0.0,59.999996,0.0,26.0,26.0,26.0,26.0,0.09677777777777785,0.2825,-0.012925,292.801,-2.7342,-2.61525,-1.5988,-1.5110999999999999,-228.79,216.01749999999998,190.703375,0.0,0.0,0.0,0.0,0.02886666666666667,-5.498166666666667,-5.498166666666667,-0.5488000000000001,-0.16349999999999998,0.04933333333333323,-0.11299999999999999,67.479,0.0482,-0.22835,-0.9639999999999995,100.0,1.0,1.0,208.18666666666667,0.0,0.0,0.0,0.0,0.0,0.0,0.0,8824.3,0.0,55.0,5.0,242.89666666666665,0.0,0.0,0.0,0.0,0.0,0.0,1.0,0.0,0.7079999999999984,0.7079999999999984,0.0,0.0,0.0,55.0,616.79921,10000.0,85.000001,85.000001,85.000001,85.000001,395.0,0.0,0.0,0.0,1.0,166.665,52.612,52.612,48.111,48.111,34.0,-20.5775,27.604,-25.176666666666666,30.915,0.0,1782.657,-0.9849999999999994,100.0,27.541,27.987000000000002,42.47,43.275,0.0,0.0,100.0,0.0,0.0,0.0,0.0,3036.875,3167.9,3988.5555555555557,4156.9,305.71433333333334,304.62875,315.14475,314.5035,21.9137,20.5858,21.91,21.4306,314.999998,314.999998,324.999988,324.999988,99.55902857142857,99.50741666666667,99.56682857142857,99.5469,0.14800000000000013,0.02066666666666661,-0.05516666666666666,0.16283333333333336,-0.04333333333332945,-0.05142857142856627,1.5533333333333332,1.5150000000000001,37.961,29.661,37.937,34.9415,56.087,35.0485,59.501999999999995,52.3455,54.013,34.1775,58.0955,50.679,53.172,33.7205,58.0195,50.092666666666666,-0.15300000000000002,0.0010000000000000009,0.10608500000000001,0.10666500000000001,0.0,211.275,211.345,208.18666666666667,208.18666666666667,0.0,0.0
15,0.0,0.0,0.0,1.0,1.0,0.0,0.0,1.0,0.0,0.0,1.0,1.1856,26.0,0.0,0.0,0.0,59.999996,0.0,26.0,26.0,26.0,26.0,0.1180000000000001,0.2841,0.034475,292.847,-2.7425,-2.634125,-1.6275,-1.513,-225.34,215.9975,190.68175,0.0,0.0,0.0,0.0,0.03086666666666667,-5.498166666666667,-5.498166666666667,-0.5383,0.1845,0.08277777777777784,0.6029999999999998,67.62,0.062200000000000005,-0.20620000000000002,-1.2320000000000002,100.0,1.0,1.0,208.59333333333333,0.0,0.0,0.0,0.0,0.0,0.0,0.0,8841.5,0.0,55.0,5.0,243.40333333333334,1.0,0.0,0.0,0.0,0.0,0.0,1.0,0.0,0.7590000000000003,0.7590000000000003,0.0,0.0,1.0,55.0,616.79921,10000.0,85.000001,85.000001,85.000001,85.000001,395.0,0.0,0.0,0.0,1.0,111.11,52.872,52.872,48.096000000000004,48.096000000000004,34.0,-17.9625,28.894,-23.803333333333335,35.185,0.0,1782.607,-0.9699999999999989,100.0,27.634,27.901,42.271,43.322,0.0,0.0,100.0,0.0,0.0,0.0,0.0,2779.125,3207.9,3936.1111111111113,4397.0,306.3466666666667,304.5905,315.25875,313.9465,21.923099999999998,20.5913,21.9203,21.439799999999998,314.999998,314.999998,324.999988,324.999988,99.55904285714286,99.50743333333334,99.56697142857143,99.54704285714286,0.16849999999999987,0.04066666666666663,-0.02733333333333333,0.20016666666666666,-0.03833333333332689,-0.05857142857143316,1.5526666666666666,1.4966666666666666,38.019999999999996,29.695999999999998,38.001999999999995,34.9985,56.077,35.0875,59.537,52.409,54.004000000000005,34.213499999999996,58.128,50.74,53.161,33.7555,58.0485,50.153,-0.15200000000000002,0.0030000000000000027,0.10536000000000001,0.11626000000000002,0.0,211.72,211.81,208.59333333333333,208.59333333333333,0.0,0.0
16,0.0,0.0,0.0,1.0,1.0,0.0,0.0,1.0,0.0,0.0,1.0,1.1856,26.0,0.0,0.0,0.0,59.999996,0.0,26.0,26.0,26.0,26.0,0.12877777777777788,0.27970000000000006,-0.057800000000000004,292.831,-2.8053,-2.6100000000000003,-1.6006,-1.4529,-222.3,215.98000000000002,190.66225,0.0,0.0,0.0,0.0,0.032633333333333334,-5.498166666666667,-5.498166666666667,-0.5601,-0.738,0.06733333333333325,-1.0070000000000001,67.744,0.075,-0.224925,-1.2060000000000004,100.0,1.0,1.0,208.97,0.0,0.0,0.0,0.0,0.0,0.0,0.0,8857.5,0.0,55.0,5.0,243.85000000000002,0.0,0.0,0.0,0.0,0.0,0.0,1.0,0.0,0.8039999999999985,0.8039999999999985,0.0,0.0,0.0,55.0,616.79921,10000.0,85.000001,85.000001,85.000001,85.000001,395.0,0.0,0.0,0.0,1.0,166.665,52.734,52.734,47.852000000000004,47.852000000000004,34.0,-20.21,28.162,-23.666666666666664,32.1325,0.0,1782.56,-0.8849999999999998,100.0,27.25,28.136,42.483000000000004,43.476,0.0,0.0,100.0,0.0,0.0,0.0,0.0,2987.25,3184.1,3977.4444444444443,4134.2,305.9576666666667,304.568,315.1905,314.57925,21.9312,20.5963,21.9295,21.4478,314.999998,314.999998,324.999988,324.999988,99.55905714285714,99.50743333333334,99.5671,99.54718571428572,0.16025,0.0303333333333331,-0.02783333333333333,0.20716666666666667,-0.021666666666668277,-0.05571428571428072,1.5703333333333334,1.5173333333333334,38.07,29.726666666666667,38.06,35.049,56.065,35.122,59.5715,52.464,53.992000000000004,34.2455,58.16,50.793,53.147999999999996,33.786,58.078,50.20466666666667,-0.14249999999999996,-0.013500000000000068,0.10330500000000001,0.113515,0.0,212.05,212.15,208.97,208.97,0.0,0.0
17,0.0,0.0,0.0,1.0,1.0,0.0,0.0,1.0,0.0,0.0,1.0,1.1856,26.0,0.0,0.0,0.0,59.999996,0.0,26.0,26.0,26.0,26.0,0.11822222222222223,0.2845,-0.029475,292.526,-2.7616,-2.56675,-1.6392,-1.4759,-218.84,215.965,190.639625,0.0,0.0,0.0,0.0,0.034633333333333335,-5.498166666666667,-5.498166666666667,-0.551,0.579,0.0494444444444444,0.7519999999999998,67.882,0.0782,-0.207325,-1.1719999999999997,100.0,1.0,1.0,209.38,0.0,0.0,0.0,0.0,0.0,0.0,0.0,8874.9,0.0,55.0,5.0,244.34666666666666,1.0,0.0,0.0,0.0,0.0,0.0,1.0,0.0,0.8550000000000004,0.8550000000000004,0.0,0.0,1.0,55.0,616.79921,10000.0,85.000001,85.000001,85.000001,85.000001,395.0,0.0,0.0,0.0,1.0,166.665,52.444,52.444,47.882,47.882,34.0,-19.0075,28.124,-24.796666666666663,34.08,0.0,1782.509,-0.9900000000000002,100.0,27.874,28.3,42.313,43.345,0.0,0.0,100.0,0.0,0.0,0.0,0.0,2979.0,3156.5,4169.222222222223,4305.5,305.76533333333333,304.84825,314.78375,314.29575,21.9407,20.602,21.939799999999998,21.4569,314.999998,314.999998,324.999988,324.999988,99.55908571428571,99.50743333333334,99.56724285714286,99.54732857142857,0.1835,0.05233333333333334,-0.013166666666666667,0.20916666666666667,-0.045000000000001705,-0.05285714285714249,1.5603333333333333,1.4966666666666666,38.129000000000005,29.762666666666668,38.123999999999995,35.1055,56.057,35.1635,59.6065,52.525999999999996,53.983999999999995,34.283500000000004,58.192499999999995,50.8525,53.138999999999996,33.8225,58.1075,50.263333333333335,-0.15649999999999997,-0.0030000000000001137,0.09924000000000001,0.111685,0.0,212.54000000000002,212.62,209.38,209.38,0.0,0.0
18,0.0,0.0,0.0,1.0,1.0,0.0,0.0,1.0,0.0,0.0,1.0,1.1856,26.0,0.0,0.0,0.0,59.999996,0.0,26.0,26.0,26.0,26.0,0.13077777777777788,0.27259999999999995,-0.002075,292.328,-2.7982,-2.536875,-1.6602000000000001,-1.4188,-215.17000000000002,215.9525,190.616,0.0,0.0,0.0,0.0,0.03676666666666667,-5.498166666666667,-5.498166666666667,-0.5616,-0.43999999999999995,0.07677777777777783,0.9980000000000002,68.029,0.07980000000000001,-0.22540000000000002,-1.3200000000000003,100.0,1.0,1.0,209.82333333333332,0.0,0.0,0.0,0.0,0.0,0.0,0.0,8893.6,0.0,55.0,5.0,244.87666666666667,0.0,0.0,0.0,0.0,0.0,0.0,1.0,0.0,0.9089999999999989,0.9089999999999989,0.0,0.0,0.0,55.0,616.79921,10000.0,85.000001,85.000001,85.000001,85.000001,395.0,0.0,0.0,0.0,1.0,111.11,52.139,52.139,47.592,47.592,34.0,-19.02,31.152,-24.24,33.1475,0.0,1782.457,-1.205,100.0,27.629,28.223,42.637,43.778,0.0,0.0,100.0,0.0,0.0,0.0,0.0,3018.875,3430.6,4005.222222222222,4267.4,305.6956666666667,304.04625,315.1115,314.3335,21.9506,20.608,21.9509,21.4667,314.999998,314.999998,324.999988,324.999988,99.55911428571429,99.50745,99.5674,99.54748571428571,0.1964999999999999,0.06400000000000006,-0.017666666666666667,0.21333333333333335,-0.04833333333333201,-0.05571428571428072,1.557,1.5136666666666665,38.191,29.799999999999997,38.193,35.167,56.047,35.206,59.6465,52.5945,53.974999999999994,34.323,58.230000000000004,50.9185,53.128,33.861000000000004,58.141,50.32833333333333,-0.17099999999999993,0.015499999999999958,0.10901500000000001,0.10602500000000001,0.0,212.95499999999998,213.03,209.82333333333332,209.82333333333332,0.0,0.0
19,0.0,0.0,0.0,1.0,1.0,0.0,0.0,1.0,0.0,0.0,1.0,1.1856,26.0,0.0,0.0,0.0,59.999996,0.0,26.0,26.0,26.0,26.0,0.12022222222222223,0.2865,0.028225,292.007,-2.7719,-2.5246250000000003,-1.6695,-1.4045,-212.1,215.9475,190.596,0.0,0.0,0.0,0.0,0.03856666666666667,-5.498166666666667,-5.498166666666667,-0.5519000000000001,0.8200000000000001,0.07866666666666666,-0.7109999999999999,68.15,0.091,-0.21180000000000002,-1.3339999999999996,100.0,1.0,1.0,210.20333333333332,0.0,0.0,0.0,0.0,0.0,0.0,0.0,8909.8,0.0,55.0,5.0,245.31,1.0,0.0,0.0,0.0,0.0,0.0,1.0,0.0,0.9540000000000006,0.9540000000000006,0.0,0.0,1.0,55.0,616.79921,10000.0,85.000001,85.000001,85.000001,85.000001,395.0,0.0,0.0,0.0,1.0,111.11,51.650999999999996,51.650999999999996,47.623,47.623,34.0,-20.9225,28.48,-25.333333333333336,33.6175,0.0,1782.412,-0.4949999999999992,100.0,27.967,28.762999999999998,42.318,43.82,0.0,0.0,100.0,0.0,0.0,0.0,0.0,3152.25,3307.9,4167.111111111111,4363.5,305.36766666666665,304.17475,314.844,314.11125,21.959,20.6131,21.96,21.4748,314.999998,314.999998,324.999988,324.999988,99.55912857142857,99.50745,99.56752857142857,99.54761428571429,0.1695000000000002,0.02666666666666684,-0.016833333333333332,0.20750000000000002,-0.03833333333332689,-0.044285714285713595,1.5656666666666665,1.4953333333333334,38.244,29.832,38.25,35.2175,56.041,35.2435,59.677,52.65,53.968,34.358000000000004,58.257999999999996,50.972,53.120999999999995,33.8945,58.1665,50.381,-0.134,-0.02849999999999997,0.112405,0.10096500000000001,0.0,213.36,213.45499999999998,210.20333333333332,210.20333333333332,0.0,0.0
20,0.0,0.0,0.0,1.0,1.0,0.0,0.0,1.0,0.0,0.0,1.0,1.1856,26.0,0.0,0.0,0.0,59.999996,0.0,26.0,26.0,26.0,26.0,0.09600000000000009,0.27700000000000014,0.026825,292.267,-2.8077,-2.599125,-1.5855000000000001,-1.4296,-208.62,215.9425,190.57375,0.0,0.0,0.0,0.0,0.04056666666666667,-5.498166666666667,-5.498166666666667,-0.5526,-1.1550000000000002,0.06888888888888878,0.2400000000000002,68.28999999999999,0.09280000000000001,-0.21980000000000002,-0.7279999999999998,100.0,1.0,1.0,210.49666666666667,0.0,0.0,0.0,0.0,0.0,0.0,0.0,8922.2,0.0,55.0,5.0,245.81666666666666,0.0,0.0,0.0,0.0,0.0,0.0,0.0,0.0,1.004999999999999,1.004999999999999,0.0,0.0,0.0,55.0,616.79921,10000.0,85.000001,85.000001,85.000001,85.000001,395.0,0.0,0.0,0.0,1.0,166.665,52.872,52.872,46.799,46.799,34.0,-20.3375,26.608,-24.366666666666664,35.325,0.0,1782.36,0.08500000000000085,100.0,27.563,28.254,43.087,44.131,0.0,0.0,100.0,0.0,0.0,0.0,0.0,2819.25,3201.1,4151.111111111111,4411.9,306.352,304.73375,314.642,313.95375,21.9682,20.6187,21.9705,21.484099999999998,314.999998,314.999998,324.999988,324.999988,99.55914285714286,99.50745,99.56767142857143,99.54777142857142,0.12725000000000009,-0.0020000000000000018,-0.0125,0.2185,-0.03166666666666629,-0.06714285714285495,1.49,1.4496666666666667,38.301,29.866999999999997,38.316,35.2755,56.027,35.2815,59.717,52.715,53.955,34.393,58.295500000000004,51.035,53.107,33.928,58.2005,50.44266666666667,-0.07399999999999995,-0.07699999999999996,0.109435,0.10952,0.0,213.755,213.835,210.49666666666667,210.49666666666667,0.0,0.0
21,0.0,0.0,0.0,1.0,1.0,0.0,0.0,1.0,0.0,0.0,1.0,1.1856,26.0,0.0,0.0,0.0,59.999996,0.0,26.0,26.0,26.0,26.0,0.07144444444444442,0.2802,-0.056575,292.633,-2.7057,-2.67,-1.6329,-1.5152999999999999,-205.14,215.94,190.550625,0.0,0.0,0.0,0.0,0.0426,-5.498166666666667,-5.498166666666667,-0.5770000000000001,0.536,0.030444444444444274,-1.278,68.422,0.0659,-0.22240000000000001,0.06600000000000072,100.0,1.0,1.0,211.16,0.0,0.0,0.0,0.0,0.0,0.0,0.0,8950.4,0.0,55.0,5.0,246.29333333333335,1.0,0.0,0.0,0.0,0.0,0.0,0.0,0.0,1.056000000000001,1.056000000000001,0.0,0.0,1.0,55.0,616.79921,10000.0,85.000001,85.000001,85.000001,85.000001,395.0,0.0,0.0,0.0,1.0,166.665,52.292,52.292,48.203,48.203,34.0,-23.0675,24.810000000000002,-26.076666666666664,29.275000000000002,0.0,1782.31,0.3099999999999987,100.0,27.864,28.434,42.486000000000004,43.615,0.0,0.0,100.0,0.0,0.0,0.0,0.0,3104.375,3073.7,4035.4444444444443,3987.3,305.50466666666665,304.86325,315.162,315.00975,21.9777,20.6244,21.9808,21.4931,314.999998,314.999998,324.999988,324.999988,99.55915714285715,99.50746666666667,99.56781428571429,99.54791428571428,0.09825000000000017,-0.038999999999999924,-0.06116666666666667,0.168,-0.06499999999999773,-0.05285714285714249,1.58,1.5973333333333333,38.36,29.90266666666667,38.379999999999995,35.3315,56.015,35.321,59.75,52.774,53.944,34.4295,58.3255,51.092,53.094,33.963,58.2275,50.498333333333335,-0.05349999999999999,-0.10400000000000009,0.112835,0.103885,0.0,214.25,214.24,211.16,211.16,0.0,0.0
22,0.0,0.0,0.0,1.0,1.0,0.0,0.0,1.0,0.0,0.0,1.0,1.1856,26.0,0.0,0.0,0.0,59.999996,0.0,26.0,26.0,26.0,26.0,0.021222222222222253,0.27700000000000014,-0.0021750000000000003,292.099,-2.6663,-2.6956249999999997,-1.6126,-1.5199,-201.64,215.9375,190.526875,0.0,0.0,0.0,0.0,0.04463333333333333,-5.498166666666667,-5.498166666666667,-0.556,0.044499999999999984,0.02055555555555566,0.8109999999999999,68.562,0.028300000000000002,-0.204275,0.5099999999999998,100.0,1.0,1.0,211.37333333333333,0.0,0.0,0.0,0.0,0.0,0.0,0.0,8959.3,0.0,55.0,5.0,246.79333333333335,0.0,0.0,0.0,0.0,0.0,0.0,0.0,0.0,1.1069999999999993,1.1069999999999993,0.0,0.0,0.0,55.0,616.79921,10000.0,85.000001,85.000001,85.000001,85.000001,395.0,0.0,0.0,0.0,1.0,166.665,52.414,52.414,47.073,47.073,34.0,-21.99,24.392,-29.566666666666666,31.225,0.0,1782.257,0.38500000000000156,100.0,28.183,28.201,43.221000000000004,43.659,0.0,0.0,100.0,0.0,0.0,0.0,0.0,2915.375,3122.5,4219.111111111111,4354.6,305.8473333333333,304.8715,314.578,314.16575,21.9872,20.6301,21.9913,21.5022,314.999998,314.999998,324.999988,324.999988,99.55917142857143,99.50746666666667,99.56797142857143,99.54808571428572,0.08274999999999988,-0.06099999999999994,-0.09333333333333332,0.13466666666666666,-0.036666666666668846,-0.04999999999999716,1.4813333333333334,1.5016666666666667,38.42,29.938000000000002,38.446,35.388999999999996,56.001000000000005,35.3625,59.792,52.8405,53.93,34.468,58.365,51.1555,53.079,34.0,58.2635,50.561,-0.04499999999999993,-0.1120000000000001,0.10568000000000001,0.113585,0.0,214.695,214.64499999999998,211.37333333333333,211.37333333333333,0.0,0.0
23,0.0,0.0,0.0,1.0,1.0,0.0,0.0,1.0,0.0,0.0,1.0,1.1856,26.0,0.0,0.0,0.0,59.999996,0.0,26.0,26.0,26.0,26.0,-0.028111111111111087,0.25160000000000005,-0.026250000000000002,292.16,-2.6753,-2.669,-1.6472,-1.5155,-197.94,215.9375,190.502,0.0,0.0,0.0,0.0,0.0468,-5.498166666666667,-5.498166666666667,-0.5757,-0.07200000000000006,0.00011111111111095084,0.2400000000000002,68.703,-0.0079,-0.23037500000000002,0.7279999999999998,100.0,1.0,1.0,211.95,0.0,0.0,0.0,0.0,0.0,0.0,0.0,8983.8,0.0,55.0,5.0,247.30666666666667,1.0,0.0,0.0,0.0,0.0,0.0,0.0,0.0,1.1610000000000014,1.1610000000000014,0.0,0.0,1.0,55.0,616.79921,10000.0,85.000001,85.000001,85.000001,85.000001,395.0,0.0,0.0,0.0,1.0,111.11,51.697,51.697,48.065,48.065,34.0,-26.15,23.672,-30.03333333333333,25.8225,0.0,1782.206,0.379999999999999,100.0,28.643,28.171,43.435,43.68,0.0,0.0,100.0,0.0,0.0,0.0,0.0,3232.625,3157.1,4022.1111111111113,3979.3,304.9526666666667,304.847,315.16175,315.0855,21.9973,20.636,22.0024,21.512,314.999998,314.999998,324.999988,324.999988,99.55918571428572,99.50748333333334,99.56811428571429,99.54821428571428,0.05325000000000024,-0.07733333333333325,-0.1355,0.09616666666666668,-0.04999999999999716,-0.04999999999999716,1.5446666666666666,1.557,38.483000000000004,29.975,38.515,35.4495,55.986999999999995,35.403,59.829,52.900999999999996,53.917,34.5055,58.3995,51.214,53.066,34.036,58.295,50.618,-0.04999999999999993,-0.10499999999999998,0.10876000000000001,0.112085,0.0,215.125,215.05,211.95,211.95,0.0,0.0
24,0.0,0.0,0.0,1.0,1.0,0.0,0.0,1.0,0.0,0.0,1.0,1.1856,26.0,0.0,0.0,0.0,59.999996,0.0,26.0,26.0,26.0,26.0,-0.045777777777777806,0.27049999999999996,-0.022350000000000002,292.404,-2.6915,-2.6858750000000002,-1.5577,-1.5516,-194.84,215.9375,190.481,0.0,0.0,0.0,0.0,0.048600000000000004,-5.498166666666667,-5.498166666666667,-0.5792,-0.5170000000000001,-0.0021111111111111747,-0.1639999999999997,68.824,-0.0291,-0.21725,0.7520000000000007,100.0,1.0,1.0,212.18666666666667,0.0,0.0,0.0,0.0,0.0,0.0,0.0,8993.9,0.0,55.0,5.0,247.74,0.0,0.0,0.0,0.0,0.0,0.0,0.0,0.0,1.2059999999999995,1.2059999999999995,0.0,0.0,0.0,55.0,616.79921,10000.0,85.000001,85.000001,85.000001,85.000001,395.0,0.0,0.0,0.0,1.0,166.665,52.933,52.933,47.104,47.104,34.0,-24.447499999999998,20.794,-33.04666666666667,26.12,0.0,1782.16,0.33000000000000185,100.0,28.203,27.916,43.53,43.504,0.0,0.0,100.0,0.0,0.0,0.0,0.0,2984.5,2893.9,4338.222222222223,4096.8,305.8616666666667,305.55725,314.33375,314.715,22.0056,20.6407,22.0117,21.52,314.999998,314.999998,324.999988,324.999988,99.55918571428572,99.5075,99.56824285714286,99.54835714285714,0.0365000000000002,-0.09899999999999998,-0.15483333333333335,0.0695,-0.03499999999999659,-0.04285714285714448,1.492,1.5273333333333334,38.535,30.004666666666665,38.573,35.5,55.973,35.4365,59.864,52.9535,53.903999999999996,34.537,58.4315,51.2645,53.051,34.066,58.3245,50.66766666666666,-0.055499999999999994,-0.10450000000000004,0.10716,0.10312500000000001,0.0,215.495,215.425,212.18666666666667,212.18666666666667,0.0,0.0
25,0.0,0.0,0.0,1.0,1.0,0.0,0.0,1.0,0.0,0.0,1.0,1.1856,26.0,0.0,0.0,0.0,59.999996,0.0,26.0,26.0,26.0,26.0,-0.08244444444444443,0.27480000000000016,-0.07495,292.313,-2.7404,-2.665375,-1.5596999999999999,-1.5672000000000001,-191.32999999999998,215.935,190.455625,0.0,0.0,0.0,0.0,0.050633333333333336,-5.498166666666667,-5.498166666666667,-0.6124,0.03949999999999998,-0.011666666666666714,-0.2639999999999998,68.956,-0.0413,-0.2247,0.652000000000001,100.0,1.0,1.0,212.75333333333333,0.0,0.0,0.0,0.0,0.0,0.0,0.0,9017.8,0.0,55.0,5.0,248.21666666666667,1.0,0.0,0.0,0.0,0.0,0.0,0.0,0.0,1.256999999999998,1.256999999999998,0.0,0.0,1.0,55.0,616.79921,10000.0,85.000001,85.000001,85.000001,85.000001,395.0,0.0,0.0,0.0,1.0,166.665,51.788,51.788,47.974000000000004,47.974000000000004,34.0,-27.935000000000002,23.532,-29.49,25.335,0.0,1782.107,0.3150000000000013,100.0,28.355,27.96,43.363,43.04,0.0,0.0,100.0,0.0,0.0,0.0,0.0,3277.625,3282.4,3965.777777777778,3984.8,304.967,304.496,315.23975,315.0255,22.015,20.6463,22.022,21.5289,314.999998,314.999998,324.999988,324.999988,99.5592,99.5075,99.56838571428571,99.54848571428572,0.03299999999999992,-0.10299999999999998,-0.15866666666666665,0.07366666666666667,-0.051666666666669414,-0.05857142857143316,1.5723333333333334,1.6046666666666667,38.594,30.03933333333333,38.638,35.556,55.956,35.4785,59.8995,53.0105,53.888,34.5755,58.465,51.3195,53.035,34.1025,58.355000000000004,50.721000000000004,-0.05499999999999994,-0.10499999999999998,0.10940000000000001,0.10924500000000001,0.0,215.91500000000002,215.82999999999998,212.75333333333333,212.75333333333333,0.0,0.0
26,0.0,0.0,0.0,1.0,1.0,0.0,0.0,1.0,0.0,0.0,1.0,1.1856,26.0,0.0,0.0,0.0,59.999996,0.0,26.0,26.0,26.0,26.0,-0.07944444444444443,0.27459999999999996,0.070175,291.199,-2.6759,-2.754,-1.599,-1.5704,-188.01999999999998,215.93,190.43125,0.0,0.0,0.0,0.0,0.052566666666666664,-5.498166666666667,-5.498166666666667,-0.5722,0.8005,-0.03933333333333344,0.5860000000000003,69.08500000000001,-0.048,-0.19612500000000002,0.6600000000000001,100.0,1.0,1.0,212.89333333333332,0.0,0.0,0.0,0.0,0.0,0.0,0.0,9023.7,0.0,55.0,5.0,248.67666666666668,0.0,0.0,0.0,0.0,0.0,0.0,0.0,0.0,1.3049999999999997,1.3049999999999997,0.0,0.0,0.0,55.0,616.79921,10000.0,85.000001,85.000001,85.000001,85.000001,395.0,0.0,0.0,0.0,1.0,166.665,51.361,51.361,46.265,46.265,34.0,-26.5625,22.926000000000002,-36.336666666666666,29.427500000000002,0.0,1782.06,0.14499999999999957,100.0,29.291,28.509,43.97,43.278,0.0,0.0,100.0,0.0,0.0,0.0,0.0,3213.75,3106.2,4561.333333333333,4473.5,305.00533333333334,304.9005,313.8155,313.89225,22.0242,20.651699999999998,22.032,21.5376,314.999998,314.999998,324.999988,324.999988,99.5592,99.50751666666666,99.56852857142857,99.54864285714285,0.040750000000000064,-0.10533333333333328,-0.15966666666666665,0.06766666666666667,-0.03833333333332689,-0.04285714285714448,1.4266666666666667,1.455,38.650999999999996,30.073,38.7,35.61,55.945,35.5195,59.9385,53.068,53.876999999999995,34.6135,58.5015,51.3745,53.022999999999996,34.138999999999996,58.3885,50.775,-0.06899999999999995,-0.09850000000000003,0.102525,0.10963,0.0,216.325,216.275,212.89333333333332,212.89333333333332,0.0,0.0
27,0.0,0.0,0.0,1.0,1.0,0.0,0.0,1.0,0.0,0.0,1.0,1.1856,26.0,0.0,0.0,0.0,59.999996,0.0,26.0,26.0,26.0,26.0,-0.04933333333333334,0.256,-0.037975,291.656,-2.6449,-2.717,-1.5872000000000002,-1.6416,-184.49,215.925,190.40675,0.0,0.0,0.0,0.0,0.0546,-5.498166666666667,-5.498166666666667,-0.5994,-1.052,-0.04133333333333322,-0.6459999999999999,69.217,-0.049800000000000004,-0.24565,0.5140000000000002,100.0,1.0,1.0,213.40333333333334,0.0,0.0,0.0,0.0,0.0,0.0,0.0,9045.3,0.0,55.0,5.0,249.15666666666667,1.0,0.0,0.0,0.0,0.0,0.0,0.0,0.0,1.355999999999998,1.355999999999998,0.0,0.0,1.0,55.0,616.79921,10000.0,85.000001,85.000001,85.000001,85.000001,395.0,0.0,0.0,0.0,1.0,166.665,51.743,51.743,46.707,46.707,34.0,-26.235,21.832,-32.60666666666667,25.9925,0.0,1782.009,0.054999999999999716,100.0,28.837,28.436,44.615,43.982,0.0,0.0,100.0,0.0,0.0,0.0,0.0,3231.75,3034.5,4150.666666666667,3985.5,305.1526666666667,305.061,314.784,314.8765,22.0336,20.6572,22.0427,21.5469,314.999998,314.999998,324.999988,324.999988,99.5592,99.50753333333333,99.56868571428572,99.54878571428571,0.039750000000000174,-0.11099999999999999,-0.17166666666666666,0.05633333333333334,-0.041666666666671404,-0.04999999999999716,1.4923333333333333,1.5193333333333334,38.71,30.107333333333333,38.766999999999996,35.6685,55.93,35.56,59.980000000000004,53.1295,53.863,34.650999999999996,58.54,51.4335,53.007999999999996,34.175,58.424,50.83266666666667,-0.07950000000000002,-0.08499999999999996,0.102915,0.11078500000000001,0.0,216.675,216.62,213.40333333333334,213.40333333333334,0.0,0.0
28,0.0,0.0,0.0,1.0,1.0,0.0,0.0,1.0,0.0,0.0,1.0,1.1856,26.0,0.0,0.0,0.0,59.999996,0.0,26.0,26.0,26.0,26.0,-0.05188888888888887,0.26780000000000004,-0.0473,291.931,-2.6734,-2.7022500000000003,-1.5376,-1.604,-181.16,215.91750000000002,190.382875,0.0,0.0,0.0,0.0,0.05653333333333334,-5.498166666666667,-5.498166666666667,-0.6029,0.637,-0.04444444444444429,-0.532,69.339,-0.0476,-0.21925,0.4400000000000004,100.0,1.0,1.0,213.88666666666666,0.0,0.0,0.0,0.0,0.0,0.0,0.0,9065.9,0.0,55.0,5.0,249.59333333333336,0.0,0.0,0.0,0.0,0.0,0.0,0.0,0.0,1.404,1.404,0.0,0.0,0.0,55.0,616.79921,10000.0,85.000001,85.000001,85.000001,85.000001,395.0,0.0,0.0,0.0,1.0,166.665,51.758,51.758,47.623,47.623,34.0,-27.145,21.881999999999998,-30.596666666666668,26.017500000000002,0.0,1781.961,-0.07000000000000028,100.0,28.882,28.358,43.889,43.397,0.0,0.0,100.0,0.0,0.0,0.0,0.0,3313.875,2986.7,4086.5555555555557,4081.9,304.9293333333333,305.18975,314.98875,314.78925,22.0426,20.662399999999998,22.0523,21.5554,314.999998,314.999998,324.999988,324.999988,99.55921428571429,99.50753333333333,99.56882857142857,99.54892857142858,0.04249999999999998,-0.09733333333333327,-0.163,0.059000000000000004,-0.05666666666667197,-0.05142857142856627,1.5446666666666666,1.5633333333333335,38.766,30.14,38.827,35.721000000000004,55.917,35.599000000000004,60.012,53.183,53.851,34.687,58.57,51.485,52.995000000000005,34.2095,58.451,50.882666666666665,-0.08999999999999997,-0.07699999999999996,0.10482000000000001,0.102955,0.0,217.10500000000002,217.065,213.88666666666666,213.88666666666666,0.0,0.0
29,0.0,0.0,0.0,1.0,1.0,0.0,0.0,1.0,0.0,0.0,1.0,1.1856,26.0,0.0,0.0,0.0,59.999996,0.0,26.0,26.0,26.0,26.0,-0.050999999999999934,0.26380000000000003,0.0111,291.519,-2.6172,-2.755875,-1.5396,-1.5812,-177.62,215.91,190.3565,0.0,0.0,0.0,0.0,0.058600000000000006,-5.498166666666667,-5.498166666666667,-0.6057,-0.7410000000000001,-0.03544444444444439,0.8730000000000002,69.474,-0.0363,-0.216975,0.12600000000000033,100.0,1.0,1.0,214.11,0.0,0.0,0.0,0.0,0.0,0.0,0.0,9075.3,0.0,55.0,5.0,250.07999999999998,1.0,0.0,0.0,0.0,0.0,0.0,0.0,0.0,1.4549999999999983,1.4549999999999983,0.0,0.0,1.0,55.0,616.79921,10000.0,85.000001,85.000001,85.000001,85.000001,395.0,0.0,0.0,0.0,1.0,166.665,51.758,51.758,46.494,46.494,34.0,-25.1525,24.372,-31.45,28.5925,0.0,1781.91,-0.07499999999999929,100.0,28.688,28.075,44.352000000000004,43.628,0.0,0.0,100.0,0.0,0.0,0.0,0.0,3191.5,3177.5,4239.888888888889,4265.4,305.1213333333333,304.68075,314.45125,314.328,22.0518,20.6679,22.0629,21.5646,314.999998,314.999998,324.999988,324.999988,99.55921428571429,99.50755,99.56897142857143,99.54907142857142,0.05425000000000013,-0.08699999999999997,-0.14033333333333334,0.07883333333333332,-0.03166666666666629,-0.06571428571428584,1.4666666666666666,1.471,38.824,30.174333333333333,38.893,35.778999999999996,55.900999999999996,35.6385,60.0525,53.244,53.836,34.723,58.6085,51.5435,52.979,34.2445,58.486,50.93966666666667,-0.08750000000000002,-0.07050000000000001,0.10192000000000001,0.11029000000000001,0.0,217.465,217.45499999999998,214.11,214.11,0.0,0.0
30,0.0,0.0,0.0,1.0,1.0,0.0,0.0,1.0,0.0,0.0,1.0,1.1856,26.0,0.0,0.0,0.0,59.999996,0.0,26.0,26.0,26.0,26.0,-0.037666666666666626,0.2591000000000001,0.05765,291.061,-2.6807,-2.637125,-1.5191,-1.6326,-174.29,215.9,190.331625,0.0,0.0,0.0,0.0,0.06053333333333334,-5.498166666666667,-5.498166666666667,-0.6052000000000001,0.8160000000000001,-0.033222222222222264,0.6619999999999999,69.596,-0.0304,-0.219,0.18400000000000016,100.0,1.0,1.0,214.54333333333335,0.0,0.0,0.0,0.0,0.0,0.0,0.0,9093.7,0.0,55.0,5.0,250.51666666666665,0.0,0.0,0.0,0.0,0.0,0.0,1.0,0.0,1.5030000000000001,1.5030000000000001,0.0,0.0,0.0,55.0,616.79921,10000.0,85.000001,85.000001,85.000001,85.000001,395.0,0.0,0.0,0.0,1.0,166.665,50.766,50.766,46.921,46.921,34.0,-26.755,23.654,-30.453333333333333,30.150000000000002,0.0,1781.861,-0.16499999999999915,100.0,29.477,28.835,44.131,43.68,0.0,0.0,100.0,0.0,0.0,0.0,0.0,3359.0,3197.5,4227.666666666667,4287.3,304.5776666666667,304.64075,314.59425,314.22925,22.0608,20.6734,22.0727,21.5733,314.999998,314.999998,324.999988,324.999988,99.55922857142858,99.50756666666666,99.56911428571429,99.54921428571429,0.0677500000000002,-0.08166666666666678,-0.13466666666666666,0.092,-0.026666666666670835,-0.05571428571428072,1.495,1.5073333333333334,38.879999999999995,30.208666666666666,38.954,35.833,55.891999999999996,35.679,60.086,53.2995,53.826,34.7605,58.6395,51.597,52.969,34.2805,58.5145,50.992,-0.09850000000000003,-0.07150000000000012,0.10647500000000001,0.11053500000000001,0.0,217.88,217.875,214.54333333333335,214.54333333333335,0.0,0.0
31,0.0,0.0,0.0,1.0,1.0,0.0,0.0,1.0,0.0,0.0,1.0,1.1856,26.0,0.0,0.0,0.0,59.999996,0.0,26.0,26.0,26.0,26.0,-0.03655555555555556,0.2532000000000001,0.00215,291.046,-2.7505,-2.614875,-1.605,-1.5285000000000002,-170.73000000000002,215.89,190.30575,0.0,0.0,0.0,0.0,0.0626,-5.498166666666667,-5.498166666666667,-0.5904,-0.5465,-0.02566666666666695,-0.8679999999999999,69.72800000000001,-0.019700000000000002,-0.218175,-0.03799999999999937,100.0,1.0,1.0,214.85333333333335,0.0,0.0,0.0,0.0,0.0,0.0,0.0,9106.8,0.0,55.0,5.0,250.99333333333334,1.0,0.0,0.0,0.0,0.0,0.0,1.0,0.0,1.5539999999999985,1.5539999999999985,0.0,0.0,1.0,55.0,616.79921,10000.0,85.000001,85.000001,85.000001,85.000001,395.0,0.0,0.0,0.0,1.0,166.665,51.59,51.59,45.532,45.532,34.0,-25.2975,22.83,-33.843333333333334,27.875,0.0,1781.81,-0.17999999999999972,100.0,28.990000000000002,28.948999999999998,44.708,44.45,0.0,0.0,100.0,0.0,0.0,0.0,0.0,3184.25,3105.0,4471.777777777777,4164.0,305.43966666666665,304.9815,314.053,314.4665,22.0702,20.6791,22.0834,21.5827,314.999998,314.999998,324.999988,324.999988,99.55922857142858,99.50758333333333,99.56928571428571,99.54935714285715,0.06974999999999998,-0.07633333333333314,-0.13083333333333336,0.09083333333333334,-0.026666666666670835,-0.054285714285711606,1.4489999999999998,1.4603333333333333,38.938,30.244333333333334,39.021,35.891999999999996,55.876999999999995,35.7225,60.1295,53.3655,53.813,34.8005,58.68,51.6605,52.954,34.3185,58.5515,51.054,-0.09999999999999998,-0.0665,0.10504500000000001,0.1073,0.0,218.25,218.255,214.85333333333335,214.85333333333335,0.0,0.0
32,0.0,0.0,0.0,1.0,1.0,0.0,0.0,1.0,0.0,0.0,1.0,1.1856,26.0,0.0,0.0,0.0,59.999996,0.0,26.0,26.0,26.0,26.0,-0.03833333333333333,0.26060000000000016,-0.057575,291.275,-2.6798,-2.721,-1.6317,-1.5381,-167.17000000000002,215.8775,190.28025,0.0,0.0,0.0,0.0,0.06466666666666666,-5.498166666666667,-5.498166666666667,-0.6069,0.16000000000000003,-0.05011111111111122,0.12199999999999989,69.855,-0.0091,-0.22715000000000002,-0.06799999999999962,100.0,1.0,1.0,215.4,0.0,0.0,0.0,0.0,0.0,0.0,0.0,9130.0,0.0,55.0,5.0,251.45,0.0,0.0,0.0,0.0,0.0,0.0,1.0,0.0,1.6050000000000004,1.6050000000000004,0.0,0.0,0.0,55.0,616.79921,10000.0,85.000001,85.000001,85.000001,85.000001,395.0,0.0,0.0,0.0,1.0,111.11,51.285,51.285,46.646,46.646,34.0,-24.7225,24.88,-30.696666666666665,28.395,0.0,1781.761,-0.17999999999999972,100.0,29.152,28.836,44.456,44.134,0.0,0.0,100.0,0.0,0.0,0.0,0.0,3227.875,3155.7,4193.222222222223,4194.3,305.03633333333335,304.8225,314.78875,314.6355,22.0795,20.6849,22.0938,21.5919,314.999998,314.999998,324.999988,324.999988,99.55925714285715,99.50758333333333,99.56941428571429,99.5495,0.08450000000000024,-0.06166666666666676,-0.12116666666666667,0.107,-0.03999999999999915,-0.054285714285711606,1.5356666666666667,1.556,38.997,30.28033333333333,39.086,35.949,55.866,35.760999999999996,60.163,53.420500000000004,53.802,34.8365,58.711,51.713499999999996,52.942,34.353,58.579499999999996,51.105333333333334,-0.09650000000000003,-0.06899999999999995,0.10608500000000001,0.101815,0.0,218.64499999999998,218.67000000000002,215.4,215.4,0.0,0.0
33,0.0,0.0,0.0,1.0,1.0,0.0,0.0,1.0,0.0,0.0,1.0,1.1856,26.0,0.0,0.0,0.0,59.999996,0.0,26.0,26.0,26.0,26.0,-0.00477777777777777,0.264,-0.02195,291.412,-2.6976,-2.708125,-1.5647,-1.6134,-163.61,215.8675,190.2535,0.0,0.0,0.0,0.0,0.06673333333333334,-5.498166666666667,-5.498166666666667,-0.6124,-0.45399999999999996,-0.0427777777777778,0.19599999999999973,69.986,-0.0012000000000000001,-0.21602500000000002,-0.002000000000000668,100.0,1.0,1.0,215.69,0.0,0.0,0.0,0.0,0.0,0.0,0.0,9142.4,0.0,55.0,5.0,251.92333333333335,1.0,0.0,0.0,0.0,0.0,0.0,1.0,0.0,1.6559999999999988,1.6559999999999988,0.0,0.0,1.0,55.0,616.79921,10000.0,85.000001,85.000001,85.000001,85.000001,395.0,0.0,0.0,0.0,1.0,166.665,51.849000000000004,51.849000000000004,46.509,46.509,34.0,-24.745,23.451999999999998,-30.596666666666668,29.75,0.0,1781.71,-0.20500000000000007,100.0,28.787,28.66,44.348,44.266999999999996,0.0,0.0,100.0,0.0,0.0,0.0,0.0,3197.625,2993.9,4254.0,4248.7,305.334,305.213,314.55625,314.35725,22.0889,20.6904,22.1042,21.6011,314.999998,314.999998,324.999988,324.999988,99.55925714285715,99.50758333333333,99.56957142857142,99.54965714285714,0.07600000000000007,-0.06099999999999994,-0.12116666666666667,0.09566666666666668,-0.04833333333333201,-0.04571428571428271,1.4973333333333332,1.4993333333333334,39.055,30.314999999999998,39.152,36.007,55.852999999999994,35.7985,60.2005,53.4805,53.789,34.871,58.746,51.771,52.929,34.385999999999996,58.611,51.16166666666666,-0.09899999999999998,-0.06600000000000006,0.10638500000000001,0.10036500000000001,0.0,219.055,219.05,215.69,215.69,0.0,0.0
34,0.0,0.0,0.0,1.0,1.0,0.0,0.0,1.0,0.0,0.0,1.0,1.1856,26.0,0.0,0.0,0.0,59.999996,0.0,26.0,26.0,26.0,26.0,-0.002777777777777768,0.2695000000000001,-0.044250000000000005,291.794,-2.71,-2.692875,-1.6289,-1.573,-160.04,215.85500000000002,190.225625,0.0,0.0,0.0,0.0,0.06883333333333334,-5.498166666666667,-5.498166666666667,-0.6442,-0.7310000000000001,-0.007222222222222019,1.008,70.114,0.0022,-0.22585000000000002,-0.08799999999999919,100.0,1.0,1.0,216.15333333333334,0.0,0.0,0.0,0.0,0.0,0.0,0.0,9161.9,0.0,55.0,5.0,252.38333333333333,0.0,0.0,0.0,0.0,0.0,0.0,1.0,0.0,1.7070000000000007,1.7070000000000007,0.0,0.0,0.0,55.0,616.79921,10000.0,85.000001,85.000001,85.000001,85.000001,395.0,0.0,0.0,0.0,1.0,166.665,52.124,52.124,47.318,47.318,34.0,-22.895,24.538,-28.87,30.325,0.0,1781.657,-0.20999999999999908,100.0,28.674,28.219,44.061,44.197,0.0,0.0,100.0,0.0,0.0,0.0,0.0,3015.125,3089.6,4039.6666666666665,4205.7,305.5443333333333,305.02425,315.08175,314.48725,22.0981,20.696,22.1146,21.6104,314.999998,314.999998,324.999988,324.999988,99.55927142857144,99.5076,99.56971428571428,99.5498,0.09324999999999983,-0.050000000000000044,-0.10966666666666668,0.127,-0.04333333333332945,-0.03857142857143003,1.533,1.5266666666666666,39.113,30.349666666666664,39.216,36.065,55.839,35.835499999999996,60.2345,53.5405,53.775999999999996,34.9055,58.7775,51.829,52.915,34.419,58.6395,51.218333333333334,-0.09699999999999998,-0.06400000000000006,0.10459500000000001,0.11356000000000001,0.0,219.45,219.41500000000002,216.15333333333334,216.15333333333334,0.0,0.0
35,0.0,0.0,0.0,1.0,1.0,0.0,0.0,1.0,0.0,0.0,1.0,1.1856,26.0,0.0,0.0,0.0,59.999996,0.0,26.0,26.0,26.0,26.0,0.014777777777777779,0.24980000000000002,-0.054125,291.809,-2.7047,-2.6550000000000002,-1.6058,-1.5901,-156.45999999999998,215.8425,190.195625,0.0,0.0,0.0,0.0,0.0709,-5.498166666666667,-5.498166666666667,-0.6836,-0.254,-0.02688888888888874,-1.093,70.241,0.008,-0.22887500000000002,-0.09399999999999942,100.0,1.0,1.0,216.61666666666667,0.0,0.0,0.0,0.0,0.0,0.0,0.0,9181.6,0.0,55.0,5.0,252.84333333333336,1.0,0.0,0.0,0.0,0.0,0.0,1.0,0.0,1.7579999999999991,1.7579999999999991,0.0,0.0,1.0,55.0,616.79921,10000.0,85.000001,85.000001,85.000001,85.000001,395.0,0.0,0.0,0.0,1.0,166.665,51.62,51.62,46.997,46.997,34.0,-24.535,26.024,-28.37666666666667,28.2275,0.0,1781.607,-0.15499999999999936,100.0,28.372,28.648,43.792,43.743,0.0,0.0,100.0,0.0,0.0,0.0,0.0,3197.25,3290.8,4044.777777777778,3946.8,305.27633333333335,304.313,315.0615,315.1055,22.1072,20.7017,22.1249,21.6195,314.999998,314.999998,324.999988,324.999988,99.55928571428572,99.50761666666666,99.56985714285715,99.54995714285714,0.08424999999999994,-0.05233333333333312,-0.10666666666666667,0.1275,-0.045000000000001705,-0.05142857142856627,1.552,1.557,39.17,30.385666666666665,39.28,36.122,55.824,35.875,60.269,53.5965,53.762,34.9415,58.81,51.882999999999996,52.899,34.4535,58.6685,51.27066666666666,-0.09150000000000003,-0.06699999999999995,0.107145,0.112975,0.0,219.82999999999998,219.825,216.61666666666667,216.61666666666667,0.0,0.0
36,0.0,0.0,0.0,1.0,1.0,0.0,0.0,1.0,0.0,0.0,1.0,1.1856,26.0,0.0,0.0,0.0,59.999996,0.0,26.0,26.0,26.0,26.0,0.005111111111111066,0.26360000000000006,0.037375,290.802,-2.6323,-2.67525,-1.5568,-1.5875,-153.07999999999998,215.83249999999998,190.166,0.0,0.0,0.0,0.0,0.07286666666666666,-5.498166666666667,-5.498166666666667,-0.6639,0.27049999999999996,-0.06688888888888878,-1.306,70.364,0.01,-0.2008,0.06600000000000072,100.0,1.0,1.0,216.75,0.0,0.0,0.0,0.0,0.0,0.0,0.0,9187.2,0.0,55.0,5.0,253.28333333333336,0.0,0.0,0.0,0.0,0.0,0.0,1.0,0.0,1.806000000000001,1.806000000000001,0.0,0.0,0.0,55.0,616.79921,10000.0,85.000001,85.000001,85.000001,85.000001,395.0,0.0,0.0,0.0,1.0,111.11,51.178,51.178,46.204,46.204,34.0,-24.5625,24.506,-31.816666666666666,33.335,0.0,1781.561,-0.09499999999999886,100.0,28.955,28.967,44.025999999999996,44.120999999999995,0.0,0.0,100.0,0.0,0.0,0.0,0.0,3267.125,3120.5,4491.222222222223,4488.7,304.81466666666665,304.809,314.03475,313.7885,22.116,20.7072,22.1347,21.6282,314.999998,314.999998,324.999988,324.999988,99.55928571428572,99.50761666666666,99.57,99.5501,0.08850000000000025,-0.05699999999999994,-0.10350000000000001,0.12466666666666668,-0.03166666666666629,-0.05142857142856627,1.4286666666666665,1.4396666666666667,39.225,30.42,39.342,36.1765,55.813,35.913,60.304,53.6535,53.751999999999995,34.977000000000004,58.8425,51.938,52.888,34.488,58.698499999999996,51.324333333333335,-0.09250000000000003,-0.07150000000000012,0.10566500000000001,0.11779,0.0,220.23000000000002,220.24,216.75,216.75,0.0,0.0
