,ABS Active,ABS Enabled,AID Allow Tire Blankets,AID Auto Blip,AID Auto Clutch,AID Auto Shift,AID Fuel Rate,AID Ideal Line,AID Mech Damage,AID Stability,AID Tire Wear Rate,Air Density,Air Temp,Ballast,Best Lap Delta,Best Lap Time,Brake Bias,Brake Pos,Brake Temp FL,Brake Temp FR,Brake Temp RL,Brake Temp RR,CG Accel Lateral,CG Accel Longitudinal,CG Accel Vertical,CG Height,Camber FL,Camber FR,Camber RL,Camber RR,Car Coord X,Car Coord Y,Car Coord Z,Car Damage Front,Car Damage Left,Car Damage Rear,Car Damage Right,Car Pos Norm,Caster FL,Caster FR,Chassis Pitch Angle,Chassis Pitch Rate,Chassis Roll Angle,Chassis Roll Rate,Chassis Velocity X,Chassis Velocity Y,Chassis Velocity Z,Chassis Yaw Rate,Clutch Pos,DRS Active,DRS Available,Drive Train Speed,ERS Heat Charging,ERS Is Charging,ERS Max Energy,ERS Power Level,ERS Recovery Level,Engine Brake Setting,Engine Limiter,Engine RPM,Flags,Fuel Level,Gear,Ground Speed,HR Sample Clock,In Pit,KERS Charge,KERS Deployed Energy,KERS Input,KERS Max Energy,LR Sample Clock,Lap Invalidated,Lap Time,Lap Time2,Last Lap Time,Last Sector Time,MR Sample Clock,Max Fuel,Max Power,Max RPM,Max Sus Travel FL,Max Sus Travel FR,Max Sus Travel RL,Max Sus Travel RR,Max Torque,Max Turbo Boost,Num Tires Off Track,Penalties Enabled,Position,Raw Data Sample Rate,Ride Height FL,Ride Height FR,Ride Height RL,Ride Height RR,Road Temp,Self Align Torque FL,Self Align Torque FR,Self Align Torque RL,Self Align Torque RR,Session Lap Count,Session Time Left,Steering Angle,Surface Grip,Suspension Travel FL,Suspension Travel FR,Suspension Travel RL,Suspension Travel RR,TC Active,TC Enabled,Throttle Pos,Tire Dirt Level FL,Tire Dirt Level FR,Tire Dirt Level RL,Tire Dirt Level RR,Tire Load FL,Tire Load FR,Tire Load RL,Tire Load RR,Tire Loaded Radius FL,Tire Loaded Radius FR,Tire Loaded Radius RL,Tire Loaded Radius RR,Tire Pressure FL,Tire Pressure FR,Tire Pressure RL,Tire Pressure RR,Tire Radius FL,Tire Radius FR,Tire Radius RL,Tire Radius RR,Tire Rubber Grip FL,Tire Rubber Grip FR,Tire Rubber Grip RL,Tire Rubber Grip RR,Tire Slip Angle FL,Tire Slip Angle FR,Tire Slip Angle RL,Tire Slip Angle RR,Tire Slip Ratio FL,Tire Slip Ratio FR,Tire Slip Ratio RL,Tire Slip Ratio RR,Tire Temp Core FL,Tire Temp Core FR,Tire Temp Core RL,Tire Temp Core RR,Tire Temp Inner FL,Tire Temp Inner FR,Tire Temp Inner RL,Tire Temp Inner RR,Tire Temp Middle FL,Tire Temp Middle FR,Tire Temp Middle RL,Tire Temp Middle RR,Tire Temp Outer FL,Tire Temp Outer FR,Tire Temp Outer RL,Tire Temp Outer RR,Toe In FL,Toe In FR,Toe In RL,Toe In RR,Turbo Boost,Wheel Angular Speed FL,Wheel Angular Speed FR,Wheel Angular Speed RL,Wheel Angular Speed RR,Wind Direction,Wind Speed
0,0.0,0.0,0.0,1.0,1.0,0.0,0.0,1.0,0.0,0.0,1.0,1.1856,26.0,0.0,0.0,0.0,59.99999,0.0,26.0,26.0,26.0,26.0,-0.02777777777777779,0.31190000000000007,0.24233333333333337,292.725,-2.7871,-2.4548,-1.5571000000000002,-1.5089000000000001,-275.47,215.4875,190.986,0.0,0.0,0.0,0.0,0.0017000000000000001,-5.498166666666667,-5.498166666666667,-0.5593,2.733,-0.0038888888888890527,-1.3439999999999999,65.481,-0.027,-0.228025,0.06600000000000072,100.0,1.0,1.0,202.14,0.0,0.0,0.0,0.0,0.0,0.0,0.0,8568.0,0.0,55.0,5.0,235.70333333333332,0.0,0.0,0.0,0.0,0.0,0.0,0.0,0.0,0.006000000000000227,0.006000000000000227,0.0,0.0,0.0,55.0,616.79921,10000.0,85.0,85.0,85.0,85.0,395.0,0.0,0.0,0.0,1.0,20.0,50.171,50.171,48.218,48.218,34.0,-29.515,29.39,-30.523333333333333,26.58,0.0,1783.383,0.22500000000000142,100.0,27.737000000000002,28.076999999999998,40.304,40.064,0.0,0.0,100.0,0.0,0.0,0.0,0.0,3351.142857142857,4165.6,4207.777777777777,4161.4,304.6125,301.13466666666665,314.6685,314.45575,21.7656,20.5108,21.7628,21.3037,314.99999,314.99999,324.99998,324.99998,99.55828571428572,99.50715,99.56474285714286,99.5448,0.02400000000000002,-0.09333333333333327,-0.13749999999999996,0.08266666666666667,-0.07166666666666544,-0.05285714285714249,1.532,1.5474999999999999,37.035,29.192333333333334,37.016999999999996,34.147999999999996,56.067,34.420500000000004,58.903999999999996,51.455,53.998999999999995,33.61,57.536500000000004,49.824,53.174,33.189,57.4995,49.254666666666665,-0.06799999999999995,-0.09099999999999997,0.10947000000000001,0.10536000000000001,0.0,205.215,205.185,202.14,202.14,0.0,0.0
1,0.0,0.0,0.0,1.0,1.0,0.0,0.0,1.0,0.0,0.0,1.0,1.1856,26.0,0.0,0.0,0.0,59.999996,0.0,26.0,26.0,26.0,26.0,-0.06622222222222218,0.31500000000000017,0.20006666666666667,292.267,-2.6921,-2.7002,-1.6025,-1.3843,-272.13,215.49,190.966375,0.0,0.0,0.0,0.0,0.0036666666666666666,-5.498166666666667,-5.498166666666667,-0.4776,-2.3486666666666665,-0.047222222222222054,-0.43100000000000005,65.641,-0.021500000000000002,-0.18837500000000001,0.5420000000000007,100.0,1.0,1.0,202.05333333333334,0.0,0.0,0.0,0.0,0.0,0.0,0.0,8564.3,0.0,55.0,5.0,236.27666666666667,1.0,0.0,0.0,0.0,0.0,0.0,0.0,0.0,0.05699999999999861,0.05699999999999861,0.0,0.0,1.0,55.0,616.79921,10000.0,85.000001,85.000001,85.000001,85.000001,395.0,0.0,0.0,0.0,1.0,111.11,54.306,54.306,47.272,47.272,34.0,-22.44,16.878,-36.82,33.95,0.0,1783.333,0.3500000000000014,100.0,27.619,27.121,42.723,43.632,0.0,0.0,100.0,0.0,0.0,0.0,0.0,2784.285714285714,2439.0,4713.777777777777,5216.8,306.4055,307.079,313.174,311.4965,21.775199999999998,20.5156,21.7738,21.3131,314.999998,314.999998,324.999988,324.999988,99.5583,99.50715,99.5649,99.54494285714286,0.03699999999999992,-0.1016666666666668,-0.12783333333333335,0.08000000000000007,-0.021666666666668277,-0.054285714285711606,1.2885,1.3215,37.095,29.22233333333333,37.086,34.207,56.049,34.455,58.954,51.527,53.980999999999995,33.641999999999996,57.583,49.893,53.156,33.22,57.543,49.322,-0.05249999999999999,-0.1060000000000001,0.09944000000000001,0.11760500000000002,0.0,205.60500000000002,205.57999999999998,202.05333333333334,202.05333333333334,0.0,0.0
2,0.0,0.0,0.0,1.0,1.0,0.0,0.0,1.0,0.0,0.0,1.0,1.1856,26.0,0.0,0.0,0.0,59.999996,0.0,26.0,26.0,26.0,26.0,-0.07677777777777783,0.29380000000000006,-0.2444,293.884,-2.6783,-2.6306000000000003,-1.5814,-1.4938,-268.38,215.49,190.945,0.0,0.0,0.0,0.0,0.005833333333333334,-5.498166666666667,-5.498166666666667,-0.5730000000000001,1.8223333333333334,0.007555555555555538,1.9939999999999998,65.792,-0.026500000000000003,-0.258175,0.7779999999999996,100.0,1.0,1.0,203.51333333333332,0.0,0.0,0.0,0.0,0.0,0.0,0.0,8626.2,0.0,55.0,5.0,236.82333333333332,0.0,0.0,0.0,0.0,0.0,0.0,0.0,0.0,0.11400000000000077,0.11400000000000077,0.0,0.0,0.0,55.0,616.79921,10000.0,85.000001,85.000001,85.000001,85.000001,395.0,0.0,0.0,0.0,1.0,111.11,51.941,51.941,50.705,50.705,34.0,-27.2625,21.525999999999996,-25.233333333333334,20.2875,0.0,1783.275,0.46499999999999986,100.0,28.446,27.802,41.528999999999996,41.295,0.0,0.0,100.0,0.0,0.0,0.0,0.0,3174.285714285714,3071.3,3575.777777777778,3561.0,304.975,304.81,316.18225,316.10675,21.7864,20.5214,21.7851,21.322400000000002,314.999998,314.999998,324.999988,324.999988,99.5583,99.50718333333333,99.56504285714286,99.54508571428572,0.016750000000000043,-0.1076666666666668,-0.15433333333333332,0.06983333333333319,-0.05333333333332746,-0.04999999999999716,1.744,1.794,37.165,29.259,37.157,34.265,56.035,34.501,58.9915,51.5815,53.968,33.6845,57.6175,49.945499999999996,53.141999999999996,33.2605,57.575,49.373666666666665,-0.03949999999999998,-0.1080000000000001,0.10284000000000001,0.109395,0.0,206.18,206.085,203.51333333333332,203.51333333333332,0.0,0.0
3,0.0,0.0,0.0,1.0,1.0,0.0,0.0,1.0,0.0,0.0,1.0,1.1856,26.0,0.0,0.0,0.0,59.999996,0.0,26.0,26.0,26.0,26.0,-0.07622222222222219,0.3005,0.10426666666666667,292.862,-2.6748,-2.6877,-1.5466,-1.492,-265.42,215.49,190.927,0.0,0.0,0.0,0.0,0.007566666666666668,-5.498166666666667,-5.498166666666667,-0.5009,0.13866666666666666,-0.0012222222222222356,-1.561,65.932,-0.038,-0.1898,0.6699999999999999,100.0,1.0,1.0,203.29666666666668,0.0,0.0,0.0,0.0,0.0,0.0,0.0,8617.0,0.0,55.0,5.0,237.32666666666665,1.0,0.0,0.0,0.0,0.0,0.0,0.0,0.0,0.15899999999999892,0.15899999999999892,0.0,0.0,1.0,55.0,616.79921,10000.0,85.000001,85.000001,85.000001,85.000001,395.0,0.0,0.0,0.0,1.0,111.11,53.146,53.146,47.409,47.409,34.0,-24.055,20.332,-34.376666666666665,27.745,0.0,1783.231,0.5899999999999999,100.0,27.94,27.576,42.265,42.187,0.0,0.0,100.0,0.0,0.0,0.0,0.0,2904.857142857143,2920.5,4522.888888888889,4305.8,306.0805,305.50233333333335,313.76025,314.02075,21.7948,20.5261,21.7944,21.3305,314.999998,314.999998,324.999988,324.999988,99.55831428571429,99.50718333333333,99.56515714285715,99.54521428571428,0.02024999999999988,-0.11399999999999988,-0.14500000000000002,0.07816666666666672,-0.036666666666668846,-0.06857142857143117,1.4195,1.4409999999999998,37.218,29.288333333333334,37.215,34.3155,56.019,34.538,59.028999999999996,51.6425,53.952,33.7185,57.6525,50.004,53.126000000000005,33.293,57.6075,49.431666666666665,-0.035499999999999976,-0.1200000000000001,0.10748500000000001,0.10724,0.0,206.57999999999998,206.53,203.29666666666668,203.29666666666668,0.0,0.0
4,0.0,0.0,0.0,1.0,1.0,0.0,0.0,1.0,0.0,0.0,1.0,1.1856,26.0,0.0,0.0,0.0,59.999996,0.0,26.0,26.0,26.0,26.0,-0.0828888888888889,0.27259999999999995,0.008666666666666668,293.335,-2.6719,-2.739,-1.4907,-1.5929,-262.05,215.4875,190.90775,0.0,0.0,0.0,0.0,0.009533333333333333,-5.498166666666667,-5.498166666666667,-0.5397000000000001,-0.8436666666666667,-0.045111111111111324,-0.44300000000000006,66.078,-0.0446,-0.24175000000000002,1.0520000000000014,100.0,1.0,1.0,203.97,0.0,0.0,0.0,0.0,0.0,0.0,0.0,8645.6,0.0,55.0,5.0,237.85000000000002,0.0,0.0,0.0,0.0,0.0,0.0,0.0,0.0,0.21000000000000085,0.21000000000000085,0.0,0.0,0.0,55.0,616.79921,10000.0,85.000001,85.000001,85.000001,85.000001,395.0,0.0,0.0,0.0,1.0,166.665,52.795,52.795,48.766999999999996,48.766999999999996,34.0,-28.122500000000002,19.844,-30.13,23.372500000000002,0.0,1783.179,0.6550000000000011,100.0,27.831,27.343,42.785,42.177,0.0,0.0,100.0,0.0,0.0,0.0,0.0,3229.714285714286,2896.7,4044.3333333333335,3800.5,305.1115,305.5253333333333,314.9825,315.36425,21.8046,20.5312,21.805,21.3394,314.999998,314.999998,324.999988,324.999988,99.55831428571429,99.5072,99.56531428571428,99.54535714285714,-0.0009999999999998899,-0.1336666666666666,-0.1768333333333334,0.05400000000000005,-0.045000000000001705,-0.02285714285714846,1.57,1.5905,37.278999999999996,29.319666666666667,37.281,34.371,56.003,34.5775,59.0715,51.702,53.937,33.7545,57.692,50.061,53.11,33.328,57.644,49.487,-0.026499999999999968,-0.12749999999999995,0.10661500000000002,0.10736000000000001,0.0,206.995,206.88,203.97,203.97,0.0,0.0
5,0.0,0.0,0.0,1.0,1.0,0.0,0.0,1.0,0.0,0.0,1.0,1.1856,26.0,0.0,0.0,0.0,59.999996,0.0,26.0,26.0,26.0,26.0,-0.0982222222222221,0.29469999999999996,-0.029933333333333333,293.579,-2.6452,-2.7237999999999998,-1.5428000000000002,-1.5734,-258.68,215.48250000000002,190.88775,0.0,0.0,0.0,0.0,0.011466666666666668,-5.498166666666667,-5.498166666666667,-0.5387000000000001,0.652,-0.02677777777777779,0.5880000000000001,66.224,-0.06430000000000001,-0.222,0.9699999999999998,100.0,1.0,1.0,204.46333333333334,0.0,0.0,0.0,0.0,0.0,0.0,0.0,8666.5,0.0,55.0,5.0,238.37333333333333,1.0,0.0,0.0,0.0,0.0,0.0,0.0,0.0,0.26099999999999923,0.26099999999999923,0.0,0.0,1.0,55.0,616.79921,10000.0,85.000001,85.000001,85.000001,85.000001,395.0,0.0,0.0,0.0,1.0,166.665,53.146,53.146,49.057,49.057,34.0,-25.225,21.2,-30.356666666666666,24.325,0.0,1783.128,0.21499999999999986,100.0,27.886,27.146,42.397,41.625,0.0,0.0,100.0,0.0,0.0,0.0,0.0,2985.5714285714284,2964.6,3951.777777777778,4036.0,305.621,305.3786666666667,315.21725,314.8815,21.8145,20.5364,21.8153,21.3481,314.999998,314.999998,324.999988,324.999988,99.55831428571429,99.50721666666666,99.56545714285714,99.5455,0.01175000000000015,-0.10899999999999999,-0.1865,0.046499999999999986,-0.03833333333332689,-0.06428571428571672,1.5805,1.608,37.34,29.352333333333334,37.346000000000004,34.4255,55.988,34.6185,59.1085,51.7605,53.923,33.792500000000004,57.727000000000004,50.117,53.095,33.364,57.676,49.542,-0.052999999999999936,-0.09949999999999992,0.105675,0.11496,0.0,207.47500000000002,207.405,204.46333333333334,204.46333333333334,0.0,0.0
6,0.0,0.0,0.0,1.0,1.0,0.0,0.0,1.0,0.0,0.0,1.0,1.1856,26.0,0.0,0.0,0.0,59.999996,0.0,26.0,26.0,26.0,26.0,-0.09711111111111104,0.3044,0.04056666666666667,293.365,-2.6795,-2.7714,-1.4914,-1.5634000000000001,-255.69,215.475,190.8695,0.0,0.0,0.0,0.0,0.013233333333333335,-5.498166666666667,-5.498166666666667,-0.5301,-0.342,-0.04944444444444418,-0.9249999999999998,66.356,-0.0678,-0.208125,0.8279999999999994,100.0,1.0,1.0,204.69666666666666,0.0,0.0,0.0,0.0,0.0,0.0,0.0,8676.4,0.0,55.0,5.0,238.85000000000002,0.0,0.0,0.0,0.0,0.0,0.0,0.0,0.0,0.30600000000000094,0.30600000000000094,0.0,0.0,0.0,55.0,616.79921,10000.0,85.000001,85.000001,85.000001,85.000001,395.0,0.0,0.0,0.0,1.0,111.11,53.36,53.36,48.522999999999996,48.522999999999996,34.0,-27.872500000000002,19.584,-32.68333333333334,23.805,0.0,1783.083,0.23499999999999943,100.0,27.517,26.969,42.618,41.907,0.0,0.0,100.0,0.0,0.0,0.0,0.0,3222.142857142857,2776.0,4244.111111111111,4049.7,305.201,305.8593333333333,314.496,314.7395,21.823,20.5408,21.8246,21.356,314.999998,314.999998,324.999988,324.999988,99.55832857142858,99.50723333333333,99.56558571428572,99.54561428571428,0.0030000000000001137,-0.12366666666666681,-0.1855,0.030999999999999917,-0.045000000000001705,-0.0357142857142847,1.517,1.5575,37.394,29.380333333333333,37.403999999999996,34.475,55.973,34.6525,59.1455,51.815,53.909,33.824,57.7615,50.1695,53.08,33.394,57.708,49.593333333333334,-0.05899999999999994,-0.09349999999999992,0.099445,0.10802500000000001,0.0,207.86,207.78,204.69666666666666,204.69666666666666,0.0,0.0
7,0.0,0.0,0.0,1.0,1.0,0.0,0.0,1.0,0.0,0.0,1.0,1.1856,26.0,0.0,0.0,0.0,59.999996,0.0,26.0,26.0,26.0,26.0,-0.08011111111111102,0.2864,-0.005033333333333334,293.381,-2.6832,-2.7663,-1.5471,-1.5434999999999999,-252.11,215.465,190.84775,0.0,0.0,0.0,0.0,0.015300000000000001,-5.498166666666667,-5.498166666666667,-0.5355,0.166,-0.03788888888888886,-0.23199999999999976,66.508,-0.0665,-0.21810000000000002,0.5379999999999994,100.0,1.0,1.0,205.25333333333333,0.0,0.0,0.0,0.0,0.0,0.0,0.0,8700.0,0.0,55.0,5.0,239.4,1.0,0.0,0.0,0.0,0.0,0.0,0.0,0.0,0.35999999999999943,0.35999999999999943,0.0,0.0,1.0,55.0,616.79921,10000.0,85.000001,85.000001,85.000001,85.000001,395.0,0.0,0.0,0.0,1.0,166.665,53.131,53.131,48.615,48.615,34.0,-26.95,20.738,-32.980000000000004,23.2775,0.0,1783.027,-0.0799999999999983,100.0,27.725,27.122,42.624,41.831,0.0,0.0,100.0,0.0,0.0,0.0,0.0,3191.4285714285716,2847.2,4176.888888888889,3987.5,305.223,305.59,314.71325,314.95725,21.8335,20.5463,21.8357,21.3654,314.999998,314.999998,324.999988,324.999988,99.55832857142858,99.50723333333333,99.56572857142856,99.54575714285714,0.020750000000000046,-0.10899999999999999,-0.1935,0.03600000000000003,-0.054999999999999716,-0.04999999999999716,1.5495,1.5594999999999999,37.459,29.414666666666665,37.473,34.533500000000004,55.958,34.695499999999996,59.188,51.8785,53.894999999999996,33.8635,57.801,50.2305,53.065,33.432,57.7445,49.653,-0.08299999999999996,-0.06550000000000011,0.10727,0.10710000000000001,0.0,208.335,208.3,205.25333333333333,205.25333333333333,0.0,0.0
8,0.0,0.0,0.0,1.0,1.0,0.0,0.0,1.0,0.0,0.0,1.0,1.1856,26.0,0.0,0.0,0.0,59.999996,0.0,26.0,26.0,26.0,26.0,-0.061999999999999944,0.2775000000000001,-0.023366666666666668,293.472,-2.69,-2.708,-1.5549,-1.5587,-248.71,215.45499999999998,190.82725,0.0,0.0,0.0,0.0,0.017266666666666666,-5.498166666666667,-5.498166666666667,-0.5376000000000001,-0.058666666666666666,-0.028555555555555667,0.3580000000000001,66.653,-0.0555,-0.22037500000000002,0.17799999999999994,100.0,1.0,1.0,205.71333333333334,0.0,0.0,0.0,0.0,0.0,0.0,0.0,8719.5,0.0,55.0,5.0,239.92333333333335,0.0,0.0,0.0,0.0,0.0,0.0,0.0,0.0,0.41100000000000136,0.41100000000000136,0.0,0.0,0.0,55.0,616.79921,10000.0,85.000001,85.000001,85.000001,85.000001,395.0,0.0,0.0,0.0,1.0,166.665,53.268,53.268,48.492,48.492,34.0,-24.8025,22.704,-30.349999999999998,25.575000000000003,0.0,1782.978,-0.19500000000000028,100.0,27.545,27.003,42.661,41.877,0.0,0.0,100.0,0.0,0.0,0.0,0.0,3023.0,3046.6,4031.3333333333335,4004.0,305.5955,305.1686666666667,314.99475,314.9485,21.8432,20.5516,21.8461,21.3744,314.999998,314.999998,324.999988,324.999988,99.55832857142858,99.50725,99.56587142857143,99.5459,0.03849999999999998,-0.08499999999999996,-0.16366666666666663,0.07616666666666672,-0.03999999999999915,-0.05857142857143316,1.5505,1.562,37.519999999999996,29.447666666666667,37.538,34.5895,55.943,34.7355,59.2275,51.94,53.879999999999995,33.9,57.838,50.289500000000004,53.049,33.467,57.7785,49.71066666666667,-0.09050000000000002,-0.055500000000000105,0.11016000000000001,0.11443,0.0,208.76,208.75,205.71333333333334,205.71333333333334,0.0,0.0
9,0.0,0.0,0.0,1.0,1.0,0.0,0.0,1.0,0.0,0.0,1.0,1.1856,26.0,0.0,0.0,0.0,59.999996,0.0,26.0,26.0,26.0,26.0,-0.03933333333333333,0.2882,0.0105,293.243,-2.6719,-2.7218,-1.5421,-1.5590000000000002,-245.51,215.4425,190.807625,0.0,0.0,0.0,0.0,0.019133333333333336,-5.498166666666667,-5.498166666666667,-0.5335,0.23466666666666666,-0.036555555555555674,0.6960000000000002,66.789,-0.0415,-0.21195,-0.002000000000000668,100.0,1.0,1.0,206.09,0.0,0.0,0.0,0.0,0.0,0.0,0.0,8735.4,0.0,55.0,5.0,240.41333333333336,1.0,0.0,0.0,0.0,0.0,0.0,0.0,0.0,0.45899999999999963,0.45899999999999963,0.0,0.0,1.0,55.0,616.79921,10000.0,85.000001,85.000001,85.000001,85.000001,395.0,0.0,0.0,0.0,1.0,166.665,53.009,53.009,48.629999999999995,48.629999999999995,34.0,-24.655,23.662,-29.71,26.775,0.0,1782.929,-0.3550000000000004,100.0,27.718,27.0,42.584,41.968,0.0,0.0,100.0,0.0,0.0,0.0,0.0,3100.142857142857,3062.6,4069.5555555555557,4130.5,305.328,305.1293333333333,314.92575,314.636,21.8523,20.5565,21.8559,21.3828,314.999998,314.999998,324.999988,324.999988,99.55832857142858,99.50726666666667,99.56601428571429,99.54604285714285,0.05675000000000008,-0.06766666666666676,-0.14633333333333332,0.07933333333333326,-0.046666666666666856,-0.07000000000000028,1.538,1.55,37.577,29.47833333333333,37.599000000000004,34.641999999999996,55.929,34.772,59.2645,51.997,53.867000000000004,33.934,57.8725,50.344,53.036,33.499,57.81,49.76433333333333,-0.09950000000000003,-0.046499999999999986,0.10018500000000001,0.107645,0.0,209.18,209.195,206.09,206.09,0.0,0.0
10,0.0,0.0,0.0,1.0,1.0,0.0,0.0,1.0,0.0,0.0,1.0,1.1856,26.0,0.0,0.0,0.0,59.999996,0.0,26.0,26.0,26.0,26.0,-0.0016666666666665941,0.29180000000000006,0.0019,293.228,-2.6859,-2.6917,-1.56,-1.5406,-242.1,215.4275,190.786875,0.0,0.0,0.0,0.0,0.021133333333333334,-5.498166666666667,-5.498166666666667,-0.5306000000000001,-0.3163333333333333,-0.012444444444444258,-0.14100000000000001,66.934,-0.026500000000000003,-0.21302500000000002,-0.13600000000000012,100.0,1.0,1.0,206.46333333333334,0.0,0.0,0.0,0.0,0.0,0.0,0.0,8751.2,0.0,55.0,5.0,240.93333333333334,0.0,0.0,0.0,0.0,0.0,0.0,1.0,0.0,0.509999999999998,0.509999999999998,0.0,0.0,0.0,55.0,616.79921,10000.0,85.000001,85.000001,85.000001,85.000001,395.0,0.0,0.0,0.0,1.0,166.665,53.314,53.314,48.37,48.37,34.0,-24.3125,22.964,-30.136666666666663,27.372500000000002,0.0,1782.878,-0.46000000000000085,100.0,27.412,27.08,42.575,42.347,0.0,0.0,100.0,0.0,0.0,0.0,0.0,3089.714285714286,2954.9,4144.222222222223,4186.5,305.5485,305.304,314.781,314.3845,21.862,20.561799999999998,21.8664,21.3918,314.999998,314.999998,324.999988,324.999988,99.55834285714286,99.50726666666667,99.56615714285714,99.54618571428571,0.060249999999999915,-0.05933333333333324,-0.1366666666666666,0.08200000000000007,-0.03999999999999915,-0.05285714285714249,1.5230000000000001,1.522,37.637,29.511,37.665,34.698499999999996,55.916,34.8095,59.3045,52.0595,53.854,33.9685,57.9095,50.403999999999996,53.022,33.5325,57.8445,49.82266666666666,-0.10599999999999998,-0.038000000000000034,0.10104500000000001,0.11006500000000001,0.0,209.625,209.62,206.46333333333334,206.46333333333334,0.0,0.0
11,0.0,0.0,0.0,1.0,1.0,0.0,0.0,1.0,0.0,0.0,1.0,1.1856,26.0,0.0,0.0,0.0,59.999996,0.0,26.0,26.0,26.0,26.0,0.015000000000000124,0.2873000000000001,-0.04826666666666667,293.472,-2.7108,-2.6888,-1.5666,-1.5156,-238.88,215.41500000000002,190.767,0.0,0.0,0.0,0.0,0.022600000000000002,-5.498166666666667,-5.498166666666667,-0.5506,-0.2713333333333333,0.010888888888888948,-0.4419999999999997,67.068,-0.0094,-0.22387500000000002,-0.3279999999999994,100.0,1.0,1.0,206.98000000000002,0.0,0.0,0.0,0.0,0.0,0.0,0.0,8773.1,0.0,55.0,5.0,241.41333333333336,1.0,0.0,0.0,0.0,0.0,0.0,1.0,0.0,0.5579999999999998,0.5579999999999998,0.0,0.0,1.0,55.0,616.79921,10000.0,85.000001,85.000001,85.000001,85.000001,395.0,0.0,0.0,0.0,1.0,166.665,53.268,53.268,48.874,48.874,34.0,-24.285,23.624000000000002,-27.046666666666663,26.9175,0.0,1782.83,-0.8099999999999987,100.0,27.18,27.137,42.376,42.335,0.0,0.0,100.0,0.0,0.0,0.0,0.0,3105.4285714285716,3040.6,3922.0,4056.3,305.5105,305.036,315.32075,314.75575,21.871,20.5668,21.8761,21.400199999999998,314.999998,314.999998,324.999988,324.999988,99.55835714285715,99.50728333333333,99.56628571428571,99.54631428571429,0.06950000000000012,-0.06133333333333324,-0.11583333333333334,0.10516666666666685,-0.04999999999999716,-0.044285714285713595,1.579,1.5745,37.694,29.542333333333332,37.726,34.7515,55.903,34.845,59.339,52.1165,53.842,34.001,57.942,50.459,53.009,33.5635,57.8735,49.876666666666665,-0.11649999999999994,-0.034499999999999975,0.10497500000000001,0.10605,0.0,210.01999999999998,210.04500000000002,206.98000000000002,206.98000000000002,0.0,0.0
12,0.0,0.0,0.0,1.0,1.0,0.0,0.0,1.0,0.0,0.0,1.0,1.1856,26.0,0.0,0.0,0.0,59.999996,0.0,26.0,26.0,26.0,26.0,0.00022222222222212373,0.3025,0.021433333333333335,293.076,-2.726,-2.6768,-1.5664,-1.5333,-235.46,215.4025,190.74525,0.0,0.0,0.0,0.0,0.025466666666666665,-5.498166666666667,-5.498166666666667,-0.5403,0.3916666666666667,0.017444444444444374,0.6600000000000001,67.211,0.0083,-0.20397500000000002,-0.4379999999999997,100.0,1.0,1.0,207.33666666666667,0.0,0.0,0.0,0.0,0.0,0.0,0.0,8788.2,0.0,55.0,5.0,241.93,0.0,0.0,0.0,0.0,0.0,0.0,1.0,0.0,0.6089999999999982,0.6089999999999982,0.0,0.0,0.0,55.0,616.79921,10000.0,85.000001,85.000001,85.000001,85.000001,395.0,0.0,0.0,0.0,1.0,166.665,52.963,52.963,48.203,48.203,34.0,-24.4575,24.22,-27.073333333333334,30.4925,0.0,1782.78,0.3550000000000004,100.0,27.511,27.356,42.351,42.316,0.0,0.0,100.0,0.0,0.0,0.0,0.0,2977.714285714286,3186.4,4089.6666666666665,4284.5,305.699,304.737,314.871,314.29075,21.8805,20.5722,21.886499999999998,21.4092,314.999998,314.999998,324.999988,324.999988,99.55837142857143,99.50728333333333,99.56642857142857,99.54645714285714,0.045500000000000096,-0.07133333333333325,-0.08466666666666656,0.1306666666666667,-0.03833333333332689,-0.05285714285714249,1.5470000000000002,1.5215,37.753,29.576333333333334,37.79,34.8075,55.89,34.8835,59.376,52.178,53.83,34.036500000000004,57.9765,50.518,52.995999999999995,33.5975,57.9055,49.934666666666665,-0.05499999999999994,-0.08650000000000002,0.09743500000000001,0.106605,0.0,210.485,210.505,207.33666666666667,207.33666666666667,0.0,0.0
13,0.0,0.0,0.0,1.0,1.0,0.0,0.0,1.0,0.0,0.0,1.0,1.1856,26.0,0.0,0.0,0.0,59.999996,0.0,26.0,26.0,26.0,26.0,0.04322222222222227,0.2862,0.021266666666666666,292.862,-2.6948,-2.6936,-1.5628000000000002,-1.5389,-232.23,215.39,190.724875,0.0,0.0,0.0,0.0,0.02686666666666667,-5.498166666666667,-5.498166666666667,-0.5397000000000001,-0.2623333333333333,0.01444444444444426,1.117,67.345,0.0106,-0.2147,-0.4720000000000004,100.0,1.0,1.0,207.69666666666666,0.0,0.0,0.0,0.0,0.0,0.0,0.0,8803.5,0.0,55.0,5.0,242.41333333333336,1.0,0.0,0.0,0.0,0.0,0.0,1.0,0.0,0.657,0.657,0.0,0.0,1.0,55.0,616.79921,10000.0,85.000001,85.000001,85.000001,85.000001,395.0,0.0,0.0,0.0,1.0,166.665,52.872,52.872,48.111000000000004,48.111000000000004,34.0,-21.7075,26.322000000000003,-27.363333333333333,30.895,0.0,1782.73,-0.48999999999999844,100.0,27.672,27.441,42.66,42.721000000000004,0.0,0.0,100.0,0.0,0.0,0.0,0.0,2999.142857142857,3140.3,4072.0,4314.7,305.6305,304.8976666666667,314.86425,314.192,21.889499999999998,20.5773,21.8964,21.4178,314.999998,314.999998,324.999988,324.999988,99.55838571428572,99.50728333333333,99.56657142857142,99.54661428571428,0.11050000000000004,-0.014666666666666606,-0.09116666666666662,0.12883333333333336,-0.030000000000001137,-0.04285714285714448,1.5270000000000001,1.495,37.81,29.608,37.852000000000004,34.8615,55.879000000000005,34.9215,59.416,52.2415,53.818,34.0715,58.0135,50.579,52.983999999999995,33.631,57.939499999999995,49.99433333333333,-0.11949999999999994,-0.03049999999999997,0.10221000000000001,0.10174000000000001,0.0,210.875,210.88,207.69666666666666,207.69666666666666,0.0,0.0
14,0.0,0.0,0.0,1.0,1.0,0.0,0.0,1.0,0.0,0.0,1.0,1.1856,26.0,0.0,0.0,0.0,59.999996,0.0,26.0,26.0,26.0,26.0,0.043777777777777915,0.2883,-0.027333333333333334,293.137,-2.7127,-2.7016999999999998,-1.5997,-1.5323,-228.59,215.3775,190.70225,0.0,0.0,0.0,0.0,0.02896666666666667,-5.498166666666667,-5.498166666666667,-0.5507000000000001,0.017666666666666667,0.029111111111111088,0.887,67.493,0.0206,-0.223175,-0.5579999999999998,100.0,1.0,1.0,208.25333333333333,0.0,0.0,0.0,0.0,0.0,0.0,0.0,8827.1,0.0,55.0,5.0,242.94666666666666,0.0,0.0,0.0,0.0,0.0,0.0,1.0,0.0,0.7109999999999985,0.7109999999999985,0.0,0.0,0.0,55.0,616.79921,10000.0,85.000001,85.000001,85.000001,85.000001,395.0,0.0,0.0,0.0,1.0,166.665,52.963,52.963,48.538,48.538,34.0,-21.24,25.964,-26.356666666666666,29.73,0.0,1782.679,-0.48999999999999844,100.0,27.633,27.554000000000002,42.46,42.734,0.0,0.0,100.0,0.0,0.0,0.0,0.0,2953.4285714285716,3103.1,3958.5555555555557,4136.0,305.774,304.98066666666665,315.219,314.594,21.8996,20.5831,21.9074,21.4274,314.999998,314.999998,324.999988,324.999988,99.55838571428572,99.5073,99.56671428571428,99.54674285714286,0.11649999999999983,-0.018000000000000016,-0.08533333333333337,0.1423333333333332,-0.03999999999999915,-0.057142857142849834,1.5755,1.557,37.873000000000005,29.644333333333336,37.921,34.9215,55.867000000000004,34.9595,59.4525,52.3025,53.807,34.1065,58.0475,50.638,52.971000000000004,33.664500000000004,57.9705,50.052,-0.118,-0.03849999999999998,0.111085,0.10543500000000001,0.0,211.335,211.37,208.25333333333333,208.25333333333333,0.0,0.0
15,0.0,0.0,0.0,1.0,1.0,0.0,0.0,1.0,0.0,0.0,1.0,1.1856,26.0,0.0,0.0,0.0,59.999996,0.0,26.0,26.0,26.0,26.0,0.04966666666666675,0.2713000000000001,-0.016066666666666667,293.06,-2.7006,-2.6826,-1.6101,-1.5559,-225.34,215.3675,190.68175,0.0,0.0,0.0,0.0,0.03086666666666667,-5.498166666666667,-5.498166666666667,-0.5428000000000001,0.20566666666666666,0.03544444444444439,0.7770000000000001,67.626,0.027200000000000002,-0.209625,-0.476,100.0,1.0,1.0,208.62666666666667,0.0,0.0,0.0,0.0,0.0,0.0,0.0,8842.9,0.0,55.0,5.0,243.42333333333335,1.0,0.0,0.0,0.0,0.0,0.0,1.0,0.0,0.7590000000000003,0.7590000000000003,0.0,0.0,1.0,55.0,616.79921,10000.0,85.000001,85.000001,85.000001,85.000001,395.0,0.0,0.0,0.0,1.0,166.665,53.024,53.024,48.294,48.294,34.0,-21.0775,25.68,-26.856666666666666,31.09,0.0,1782.629,-0.375,100.0,27.627,27.619,42.411,42.81,0.0,0.0,100.0,0.0,0.0,0.0,0.0,2924.4285714285716,3084.4,4059.1111111111113,4172.9,305.8575,305.033,314.998,314.526,21.9085,20.5882,21.9171,21.436,314.999998,314.999998,324.999988,324.999988,99.5584,99.5073,99.56685714285715,99.54688571428571,0.1120000000000001,-0.01633333333333331,-0.07350000000000001,0.15266666666666673,-0.01999999999999602,-0.05142857142856627,1.5350000000000001,1.5135,37.928,29.676333333333332,37.982,34.9745,55.855000000000004,34.995,59.4875,52.3615,53.796,34.1395,58.08,50.694,52.959,33.6965,58.0,50.10733333333333,-0.10449999999999993,-0.040000000000000036,0.098095,0.11225500000000001,0.0,211.745,211.79500000000002,208.62666666666667,208.62666666666667,0.0,0.0
16,0.0,0.0,0.0,1.0,1.0,0.0,0.0,1.0,0.0,0.0,1.0,1.1856,26.0,0.0,0.0,0.0,59.999996,0.0,26.0,26.0,26.0,26.0,0.05044444444444429,0.27390000000000003,-0.009366666666666667,292.801,-2.7147,-2.624,-1.5937999999999999,-1.5514000000000001,-221.89,215.35750000000002,190.65975,0.0,0.0,0.0,0.0,0.03286666666666667,-5.498166666666667,-5.498166666666667,-0.5538000000000001,-0.21833333333333335,0.02499999999999991,-0.992,67.766,0.028800000000000003,-0.224225,-0.30799999999999983,100.0,1.0,1.0,209.05333333333334,0.0,0.0,0.0,0.0,0.0,0.0,0.0,8861.0,0.0,55.0,5.0,243.92666666666668,0.0,0.0,0.0,0.0,0.0,0.0,1.0,0.0,0.8099999999999987,0.8099999999999987,0.0,0.0,0.0,55.0,616.79921,10000.0,85.000001,85.000001,85.000001,85.000001,395.0,0.0,0.0,0.0,1.0,166.665,52.475,52.475,47.958,47.958,34.0,-23.1225,25.842,-27.326666666666664,28.7175,0.0,1782.578,-0.3200000000000003,100.0,27.471,27.967,42.577,43.073,0.0,0.0,100.0,0.0,0.0,0.0,0.0,3134.714285714286,3176.2,4058.5555555555557,4023.0,305.392,304.612,314.9905,314.8225,21.918,20.5938,21.927599999999998,21.4451,314.999998,314.999998,324.999988,324.999988,99.55841428571429,99.5073,99.567,99.54702857142857,0.10475000000000012,-0.02499999999999991,-0.08799999999999997,0.133,-0.03833333333332689,-0.04142857142856826,1.549,1.5354999999999999,37.986999999999995,29.711,38.047,35.0315,55.843,35.033500000000004,59.525999999999996,52.423500000000004,53.784,34.175,58.116,50.754,52.946,33.7305,58.0325,50.166,-0.09999999999999998,-0.0515000000000001,0.11148000000000001,0.10124000000000001,0.0,212.16,212.195,209.05333333333334,209.05333333333334,0.0,0.0
17,0.0,0.0,0.0,1.0,1.0,0.0,0.0,1.0,0.0,0.0,1.0,1.1856,26.0,0.0,0.0,0.0,59.999996,0.0,26.0,26.0,26.0,26.0,0.04699999999999993,0.2801,0.0188,292.618,-2.6647,-2.7172,-1.5497,-1.5759,-218.43,215.35,190.6375,0.0,0.0,0.0,0.0,0.03486666666666667,-5.498166666666667,-5.498166666666667,-0.5502,0.12166666666666667,0.0024444444444442492,0.42700000000000005,67.905,0.026000000000000002,-0.21752500000000002,-0.266,100.0,1.0,1.0,209.41666666666669,0.0,0.0,0.0,0.0,0.0,0.0,0.0,8876.5,0.0,55.0,5.0,244.43,1.0,0.0,0.0,0.0,0.0,0.0,1.0,0.0,0.8610000000000007,0.8610000000000007,0.0,0.0,1.0,55.0,616.79921,10000.0,85.000001,85.000001,85.000001,85.000001,395.0,0.0,0.0,0.0,1.0,166.665,52.612,52.612,47.729,47.729,34.0,-21.165,25.798000000000002,-26.866666666666664,31.555,0.0,1782.528,-0.254999999999999,100.0,27.9,27.9,42.755,43.028999999999996,0.0,0.0,100.0,0.0,0.0,0.0,0.0,2974.5714285714284,3096.9,4139.222222222223,4228.6,305.6735,304.8953333333333,314.724,314.373,21.9274,20.5993,21.938,21.4541,314.999998,314.999998,324.999988,324.999988,99.55842857142858,99.5073,99.56714285714285,99.54718571428572,0.11350000000000016,-0.026999999999999913,-0.0738333333333333,0.1443333333333332,-0.036666666666668846,-0.07000000000000028,1.5165,1.495,38.046,29.745666666666665,38.111999999999995,35.088499999999996,55.831,35.072,59.5635,52.485,53.772999999999996,34.211,58.150999999999996,50.8135,52.934,33.765,58.064499999999995,50.224333333333334,-0.10199999999999998,-0.05750000000000011,0.10006500000000002,0.110475,0.0,212.615,212.66500000000002,209.41666666666669,209.41666666666669,0.0,0.0
18,0.0,0.0,0.0,1.0,1.0,0.0,0.0,1.0,0.0,0.0,1.0,1.1856,26.0,0.0,0.0,0.0,59.999996,0.0,26.0,26.0,26.0,26.0,0.04966666666666675,0.27900000000000014,0.02616666666666667,292.557,-2.6631,-2.7379,-1.5369000000000002,-1.5838999999999999,-215.37,215.3425,190.617625,0.0,0.0,0.0,0.0,0.03666666666666667,-5.498166666666667,-5.498166666666667,-0.5608000000000001,-0.35000000000000003,0.0033333333333331883,-0.6189999999999998,68.028,0.0207,-0.2253,-0.15399999999999991,100.0,1.0,1.0,209.79333333333335,0.0,0.0,0.0,0.0,0.0,0.0,0.0,8892.4,0.0,55.0,5.0,244.87333333333333,0.0,0.0,0.0,0.0,0.0,0.0,1.0,0.0,0.9059999999999988,0.9059999999999988,0.0,0.0,0.0,55.0,616.79921,10000.0,85.000001,85.000001,85.000001,85.000001,395.0,0.0,0.0,0.0,1.0,111.11,52.505,52.505,47.913,47.913,34.0,-23.1375,25.156,-27.196666666666665,30.5775,0.0,1782.483,-0.259999999999998,100.0,27.695,27.94,42.805,43.257,0.0,0.0,100.0,0.0,0.0,0.0,0.0,3140.142857142857,3062.1,4090.3333333333335,4152.6,305.391,304.85833333333335,314.8855,314.41275,21.9358,20.6041,21.9472,21.4622,314.999998,314.999998,324.999988,324.999988,99.55844285714285,99.50731666666667,99.56727142857143,99.5473,0.09425000000000017,-0.043333333333333224,-0.09166666666666656,0.13250000000000006,-0.05333333333332746,-0.044285714285713595,1.5110000000000001,1.498,38.099000000000004,29.775666666666666,38.17,35.1385,55.82,35.105000000000004,59.5975,52.539500000000004,53.762,34.241,58.182,50.8655,52.922,33.794,58.0935,50.275666666666666,-0.09850000000000003,-0.06350000000000011,0.10416500000000001,0.10840000000000001,0.0,213.01,212.97500000000002,209.79333333333335,209.79333333333335,0.0,0.0
19,0.0,0.0,0.0,1.0,1.0,0.0,0.0,1.0,0.0,0.0,1.0,1.1856,26.0,0.0,0.0,0.0,59.999996,0.0,26.0,26.0,26.0,26.0,0.024222222222222145,0.2613000000000001,-0.0152,292.48,-2.7281,-2.6588000000000003,-1.5356,-1.6033,-211.49,215.335,190.59225,0.0,0.0,0.0,0.0,0.038900000000000004,-5.498166666666667,-5.498166666666667,-0.548,0.488,0.014333333333333309,0.8360000000000003,68.181,0.014,-0.208675,-0.12399999999999967,100.0,1.0,1.0,210.30333333333334,0.0,0.0,0.0,0.0,0.0,0.0,0.0,8914.0,0.0,55.0,5.0,245.42333333333335,1.0,0.0,0.0,0.0,0.0,0.0,1.0,0.0,0.963000000000001,0.963000000000001,0.0,0.0,1.0,55.0,616.79921,10000.0,85.000001,85.000001,85.000001,85.000001,395.0,0.0,0.0,0.0,1.0,111.11,52.353,52.353,47.974000000000004,47.974000000000004,34.0,-22.7475,24.658,-26.779999999999998,31.375,0.0,1782.426,-0.21999999999999886,100.0,28.319,28.114,42.847,43.209,0.0,0.0,100.0,0.0,0.0,0.0,0.0,3011.714285714286,3092.9,4081.8888888888887,4164.2,305.594,305.09,314.89025,314.52475,21.9465,20.6103,21.9588,21.4723,314.999998,314.999998,324.999988,324.999988,99.55845714285714,99.50731666666667,99.56742857142856,99.54747142857143,0.09650000000000025,-0.03633333333333311,-0.08516666666666661,0.14483333333333337,-0.03333333333333144,-0.04142857142856826,1.5194999999999999,1.5005,38.166,29.814666666666668,38.242000000000004,35.202,55.808,35.149,59.638,52.608000000000004,53.75,34.282,58.22,50.932,52.909,33.833,58.1275,50.340333333333334,-0.09050000000000002,-0.06099999999999994,0.10498,0.11464,0.0,213.495,213.5,210.30333333333334,210.30333333333334,0.0,0.0
20,0.0,0.0,0.0,1.0,1.0,0.0,0.0,1.0,0.0,0.0,1.0,1.1856,26.0,0.0,0.0,0.0,59.999996,0.0,26.0,26.0,26.0,26.0,0.011555555555555541,0.25880000000000014,-0.04626666666666667,292.542,-2.7063,-2.6487,-1.6103,-1.5354,-208.20999999999998,215.3275,190.57125,0.0,0.0,0.0,0.0,0.04083333333333333,-5.498166666666667,-5.498166666666667,-0.5588000000000001,-0.6970000000000001,0.015222222222222026,0.6890000000000001,68.31,0.0097,-0.228025,-0.12199999999999989,100.0,1.0,1.0,210.69,0.0,0.0,0.0,0.0,0.0,0.0,0.0,8930.4,0.0,55.0,5.0,245.89,0.0,0.0,0.0,0.0,0.0,0.0,0.0,0.0,1.0109999999999992,1.0109999999999992,0.0,0.0,0.0,55.0,616.79921,10000.0,85.000001,85.000001,85.000001,85.000001,395.0,0.0,0.0,0.0,1.0,166.665,52.536,52.536,47.562,47.562,34.0,-22.4275,25.254,-28.023333333333333,28.3575,0.0,1782.378,-0.259999999999998,100.0,27.941,27.907,43.3,43.497,0.0,0.0,100.0,0.0,0.0,0.0,0.0,3009.285714285714,3165.5,4040.777777777778,4065.7,305.6485,304.8396666666667,314.9585,314.8355,21.9553,20.6155,21.9687,21.481,314.999998,314.999998,324.999988,324.999988,99.55845714285714,99.50731666666667,99.56757142857143,99.5476,0.09775,-0.036666666666666625,-0.09533333333333338,0.12400000000000011,-0.03833333333332689,-0.048571428571428044,1.521,1.521,38.221000000000004,29.847,38.304,35.2565,55.795,35.185,59.6755,52.667500000000004,53.738,34.315,58.254999999999995,50.9885,52.896,33.865,58.1595,50.396,-0.09999999999999998,-0.05750000000000011,0.105675,0.10401500000000001,0.0,213.87,213.86,210.69,210.69,0.0,0.0
21,0.0,0.0,0.0,1.0,1.0,0.0,0.0,1.0,0.0,0.0,1.0,1.1856,26.0,0.0,0.0,0.0,59.999996,0.0,26.0,26.0,26.0,26.0,0.023222222222222255,0.27680000000000016,-0.0393,292.603,-2.7256,-2.6263,-1.5708,-1.5267,-205.14,215.3225,190.550875,0.0,0.0,0.0,0.0,0.0426,-5.498166666666667,-5.498166666666667,-0.5741,0.053,0.0033333333333331883,-0.762,68.43,0.009000000000000001,-0.224175,-0.05600000000000005,100.0,1.0,1.0,211.12,0.0,0.0,0.0,0.0,0.0,0.0,0.0,8948.6,0.0,55.0,5.0,246.32,1.0,0.0,0.0,0.0,0.0,0.0,0.0,0.0,1.056000000000001,1.056000000000001,0.0,0.0,1.0,55.0,616.79921,10000.0,85.000001,85.000001,85.000001,85.000001,395.0,0.0,0.0,0.0,1.0,111.11,52.338,52.338,48.096000000000004,48.096000000000004,34.0,-24.7875,24.192,-27.686666666666664,27.5275,0.0,1782.333,-0.2749999999999986,100.0,27.87,27.972,42.914,43.269,0.0,0.0,100.0,0.0,0.0,0.0,0.0,3222.0,3109.9,4046.3333333333335,4027.0,305.198,304.8466666666667,315.072,314.8885,21.9637,20.6204,21.9778,21.4889,314.999998,314.999998,324.999988,324.999988,99.55847142857142,99.50731666666667,99.5677,99.54774285714285,0.08574999999999999,-0.04966666666666675,-0.10499999999999998,0.11766666666666681,-0.04833333333333201,-0.05285714285714249,1.561,1.5545,38.272999999999996,29.877333333333333,38.361000000000004,35.306,55.784,35.219,59.7065,52.7195,53.727000000000004,34.3465,58.284,51.039,52.885,33.894999999999996,58.186,50.44533333333334,-0.10050000000000003,-0.06099999999999994,0.10634500000000001,0.10691,0.0,214.26,214.26,211.12,211.12,0.0,0.0
22,0.0,0.0,0.0,1.0,1.0,0.0,0.0,1.0,0.0,0.0,1.0,1.1856,26.0,0.0,0.0,0.0,59.999996,0.0,26.0,26.0,26.0,26.0,0.010333333333333306,0.2773000000000001,0.017166666666666667,292.099,-2.7613,-2.6630000000000003,-1.5758,-1.5275,-201.64,215.3175,190.527125,0.0,0.0,0.0,0.0,0.04463333333333333,-5.498166666666667,-5.498166666666667,-0.5586,0.04633333333333334,0.013333333333333197,1.1130000000000004,68.568,0.0082,-0.2018,-0.2160000000000002,100.0,1.0,1.0,211.37,0.0,0.0,0.0,0.0,0.0,0.0,0.0,8959.2,0.0,55.0,5.0,246.81666666666666,0.0,0.0,0.0,0.0,0.0,0.0,0.0,0.0,1.1069999999999993,1.1069999999999993,0.0,0.0,0.0,55.0,616.79921,10000.0,85.000001,85.000001,85.000001,85.000001,395.0,0.0,0.0,0.0,1.0,166.665,52.338,52.338,47.211,47.211,34.0,-23.785,25.828,-29.33,31.82,0.0,1782.282,-0.3299999999999983,100.0,28.076,27.898,43.195,43.282,0.0,0.0,100.0,0.0,0.0,0.0,0.0,3100.5714285714284,3201.4,4236.111111111111,4433.6,305.433,304.762,314.5025,313.96725,21.9731,20.6259,21.9882,21.4981,314.999998,314.999998,324.999988,324.999988,99.55848571428571,99.50733333333334,99.56784285714286,99.54788571428571,0.0950000000000002,-0.033333333333333215,-0.09583333333333333,0.12883333333333336,-0.026666666666670835,-0.054285714285711606,1.4889999999999999,1.4775,38.332,29.912,38.426,35.363,55.772,35.257999999999996,59.7455,52.781,53.716,34.3825,58.32,51.098,52.872,33.929,58.219,50.50333333333333,-0.10449999999999993,-0.050999999999999934,0.10634,0.10856500000000001,0.0,214.675,214.68,211.37,211.37,0.0,0.0
23,0.0,0.0,0.0,1.0,1.0,0.0,0.0,1.0,0.0,0.0,1.0,1.1856,26.0,0.0,0.0,0.0,59.999996,0.0,26.0,26.0,26.0,26.0,0.022777777777777786,0.2795000000000001,0.010833333333333334,292.084,-2.666,-2.6811,-1.5385,-1.5346000000000002,-197.73000000000002,215.3125,190.500875,0.0,0.0,0.0,0.0,0.046900000000000004,-5.498166666666667,-5.498166666666667,-0.5744,-0.3293333333333333,0.010000000000000009,-0.6349999999999998,68.719,0.0098,-0.22785000000000002,-0.21999999999999975,100.0,1.0,1.0,211.87,0.0,0.0,0.0,0.0,0.0,0.0,0.0,8980.5,0.0,55.0,5.0,247.36,1.0,0.0,0.0,0.0,0.0,0.0,0.0,0.0,1.163999999999998,1.163999999999998,0.0,0.0,1.0,55.0,616.79921,10000.0,85.000001,85.000001,85.000001,85.000001,395.0,0.0,0.0,0.0,1.0,111.11,52.2,52.2,47.363,47.363,34.0,-23.4275,24.445999999999998,-28.656666666666666,29.6,0.0,1782.224,-0.3150000000000013,100.0,28.174,28.258,43.344,43.676,0.0,0.0,100.0,0.0,0.0,0.0,0.0,3166.285714285714,3033.8,4189.888888888889,4217.4,305.304,305.01366666666667,314.631,314.4,21.9837,20.6322,21.9999,21.5084,314.999998,314.999998,324.999988,324.999988,99.5585,99.50735,99.568,99.54805714285715,0.09450000000000003,-0.040999999999999925,-0.10250000000000004,0.1200000000000001,-0.045000000000001705,-0.04285714285714448,1.5110000000000001,1.5055,38.397999999999996,29.951333333333334,38.5,35.4275,55.759,35.3015,59.788,52.8505,53.703,34.423,58.3595,51.165,52.858999999999995,33.968,58.254999999999995,50.568666666666665,-0.10649999999999993,-0.0515000000000001,0.10561500000000001,0.11223500000000002,0.0,215.14,215.13,211.87,211.87,0.0,0.0
24,0.0,0.0,0.0,1.0,1.0,0.0,0.0,1.0,0.0,0.0,1.0,1.1856,26.0,0.0,0.0,0.0,59.999996,0.0,26.0,26.0,26.0,26.0,0.03133333333333321,0.2614000000000001,-0.05073333333333333,292.526,-2.7112,-2.6854,-1.5522,-1.5539,-194.64,215.31,190.4795,0.0,0.0,0.0,0.0,0.0487,-5.498166666666667,-5.498166666666667,-0.5877,-0.439,0.02122222222222203,1.0949999999999998,68.837,0.0118,-0.22262500000000002,-0.2779999999999996,100.0,1.0,1.0,212.28333333333333,0.0,0.0,0.0,0.0,0.0,0.0,0.0,8998.0,0.0,55.0,5.0,247.78666666666666,0.0,0.0,0.0,0.0,0.0,0.0,0.0,0.0,1.2089999999999996,1.2089999999999996,0.0,0.0,0.0,55.0,616.79921,10000.0,85.000001,85.000001,85.000001,85.000001,395.0,0.0,0.0,0.0,1.0,166.665,52.719,52.719,47.638,47.638,34.0,-21.865,25.136,-27.133333333333333,29.645,0.0,1782.179,-0.29499999999999815,100.0,28.085,27.829,43.316,43.468,0.0,0.0,100.0,0.0,0.0,0.0,0.0,2956.142857142857,3108.1,4041.0,4145.7,305.846,305.007,314.974,314.62225,21.9919,20.637,22.0091,21.5164,314.999998,314.999998,324.999988,324.999988,99.55851428571428,99.50735,99.56814285714286,99.54818571428571,0.10075000000000012,-0.03533333333333322,-0.09333333333333338,0.1313333333333333,-0.03999999999999915,-0.060000000000002274,1.524,1.54,38.449,29.981333333333332,38.557,35.478,55.748000000000005,35.3345,59.82,52.9035,53.693,34.453,58.3895,51.2155,52.847,33.997,58.282,50.61833333333333,-0.10350000000000004,-0.05699999999999994,0.10019,0.11230000000000001,0.0,215.485,215.51,212.28333333333333,212.28333333333333,0.0,0.0
25,0.0,0.0,0.0,1.0,1.0,0.0,0.0,1.0,0.0,0.0,1.0,1.1856,26.0,0.0,0.0,0.0,59.999996,0.0,26.0,26.0,26.0,26.0,0.044333333333333336,0.26639999999999997,-0.007033333333333333,292.13,-2.687,-2.657,-1.5917,-1.552,-191.12,215.305,190.454125,0.0,0.0,0.0,0.0,0.05076666666666667,-5.498166666666667,-5.498166666666667,-0.6005,0.23966666666666667,0.02200000000000002,-0.9169999999999998,68.971,0.014400000000000001,-0.21715,-0.2320000000000002,100.0,1.0,1.0,212.72,0.0,0.0,0.0,0.0,0.0,0.0,0.0,9016.5,0.0,55.0,5.0,248.26666666666665,1.0,0.0,0.0,0.0,0.0,0.0,0.0,0.0,1.259999999999998,1.259999999999998,0.0,0.0,1.0,55.0,616.79921,10000.0,85.000001,85.000001,85.000001,85.000001,395.0,0.0,0.0,0.0,1.0,166.665,51.772999999999996,51.772999999999996,47.607,47.607,34.0,-24.4075,26.39,-27.996666666666666,29.2675,0.0,1782.129,-0.3000000000000007,100.0,28.046,28.320999999999998,43.001,43.402,0.0,0.0,100.0,0.0,0.0,0.0,0.0,3254.0,3246.8,4120.111111111111,4111.2,305.0595,304.37166666666667,314.93425,314.66,22.0012,20.6427,22.0194,21.5255,314.999998,314.999998,324.999988,324.999988,99.55852857142857,99.50735,99.56827142857144,99.54832857142857,0.09399999999999986,-0.03633333333333311,-0.09250000000000003,0.12850000000000006,-0.045000000000001705,-0.04142857142856826,1.5434999999999999,1.5354999999999999,38.507999999999996,30.016666666666666,38.620999999999995,35.5345,55.735,35.374,59.8555,52.963,53.681,34.4895,58.4225,51.272999999999996,52.834,34.032,58.312,50.67433333333334,-0.10599999999999998,-0.05249999999999999,0.10397,0.10841,0.0,215.93,215.94,212.72,212.72,0.0,0.0
26,0.0,0.0,0.0,1.0,1.0,0.0,0.0,1.0,0.0,0.0,1.0,1.1856,26.0,0.0,0.0,0.0,59.999996,0.0,26.0,26.0,26.0,26.0,0.028000000000000025,0.26370000000000005,0.058666666666666666,291.412,-2.7137000000000002,-2.6512000000000002,-1.558,-1.5508000000000002,-187.6,215.3025,190.42875,0.0,0.0,0.0,0.0,0.0528,-5.498166666666667,-5.498166666666667,-0.5742,0.126,0.01677777777777778,1.0149999999999997,69.107,0.017400000000000002,-0.205075,-0.32399999999999984,100.0,1.0,1.0,212.95333333333332,0.0,0.0,0.0,0.0,0.0,0.0,0.0,9026.3,0.0,55.0,5.0,248.75666666666666,0.0,0.0,0.0,0.0,0.0,0.0,0.0,0.0,1.311,1.311,0.0,0.0,0.0,55.0,616.79921,10000.0,85.000001,85.000001,85.000001,85.000001,395.0,0.0,0.0,0.0,1.0,166.665,51.62,51.62,46.692,46.692,34.0,-22.9925,26.028,-29.823333333333334,33.1625,0.0,1782.077,-0.3000000000000007,100.0,28.764,28.47,43.612,43.822,0.0,0.0,100.0,0.0,0.0,0.0,0.0,3107.142857142857,3223.2,4350.222222222223,4465.1,305.25,304.71366666666665,314.24325,313.816,22.0107,20.6484,22.0299,21.5349,314.999998,314.999998,324.999988,324.999988,99.55854285714285,99.50735,99.56842857142857,99.54847142857143,0.10950000000000015,-0.030999999999999917,-0.08833333333333337,0.135,-0.026666666666670835,-0.03857142857143003,1.4405000000000001,1.4264999999999999,38.567,30.052333333333333,38.687,35.593,55.726,35.414,59.894999999999996,53.025999999999996,53.671,34.5265,58.4595,51.334,52.824,34.067499999999995,58.346000000000004,50.734,-0.10599999999999998,-0.05600000000000005,0.109405,0.107575,0.0,216.345,216.35500000000002,212.95333333333332,212.95333333333332,0.0,0.0
27,0.0,0.0,0.0,1.0,1.0,0.0,0.0,1.0,0.0,0.0,1.0,1.1856,26.0,0.0,0.0,0.0,59.999996,0.0,26.0,26.0,26.0,26.0,0.018888888888888955,0.2593000000000001,-0.048433333333333335,291.885,-2.7585,-2.6653000000000002,-1.619,-1.5317,-184.28,215.3,190.405625,0.0,0.0,0.0,0.0,0.05473333333333334,-5.498166666666667,-5.498166666666667,-0.5998,-0.7236666666666667,0.024555555555555664,0.8050000000000002,69.23,0.018600000000000002,-0.23970000000000002,-0.2920000000000007,100.0,1.0,1.0,213.47,0.0,0.0,0.0,0.0,0.0,0.0,0.0,9048.3,0.0,55.0,5.0,249.20333333333335,1.0,0.0,0.0,0.0,0.0,0.0,0.0,0.0,1.3589999999999982,1.3589999999999982,0.0,0.0,1.0,55.0,616.79921,10000.0,85.000001,85.000001,85.000001,85.000001,395.0,0.0,0.0,0.0,1.0,111.11,51.956,51.956,47.012,47.012,34.0,-22.9375,26.144,-27.509999999999998,29.8325,0.0,1782.031,-0.33500000000000085,100.0,28.416,28.453,43.919,44.04,0.0,0.0,100.0,0.0,0.0,0.0,0.0,3064.714285714286,3223.5,4008.5555555555557,4161.9,305.532,304.63233333333335,315.0125,314.61375,22.0194,20.6537,22.0398,21.5436,314.999998,314.999998,324.999988,324.999988,99.55854285714285,99.50736666666667,99.56857142857143,99.54861428571428,0.10775000000000023,-0.033666666666666734,-0.08633333333333337,0.13816666666666677,-0.03166666666666629,-0.04571428571428271,1.5150000000000001,1.533,38.620999999999995,30.08566666666667,38.748999999999995,35.6475,55.714,35.4505,59.9315,53.084,53.66,34.5605,58.493,51.3895,52.812,34.1,58.3765,50.788333333333334,-0.10849999999999993,-0.05750000000000011,0.10453000000000001,0.10536500000000001,0.0,216.69,216.695,213.47,213.47,0.0,0.0
28,0.0,0.0,0.0,1.0,1.0,0.0,0.0,1.0,0.0,0.0,1.0,1.1856,26.0,0.0,0.0,0.0,59.999996,0.0,26.0,26.0,26.0,26.0,0.04633333333333334,0.27300000000000013,-0.0379,291.946,-2.6914,-2.6492,-1.6304,-1.5611000000000002,-180.75,215.3,190.380125,0.0,0.0,0.0,0.0,0.0568,-5.498166666666667,-5.498166666666667,-0.5985,0.49233333333333335,0.007444444444444365,-1.103,69.361,0.0181,-0.212325,-0.3020000000000005,100.0,1.0,1.0,213.88333333333333,0.0,0.0,0.0,0.0,0.0,0.0,0.0,9065.7,0.0,55.0,5.0,249.67333333333335,0.0,0.0,0.0,0.0,0.0,0.0,0.0,0.0,1.4100000000000001,1.4100000000000001,0.0,0.0,0.0,55.0,616.79921,10000.0,85.000001,85.000001,85.000001,85.000001,395.0,0.0,0.0,0.0,1.0,166.665,52.078,52.078,46.982,46.982,34.0,-22.4925,24.794,-29.853333333333335,29.805,0.0,1781.978,-0.3999999999999986,100.0,28.301000000000002,28.601,43.364000000000004,43.774,0.0,0.0,100.0,0.0,0.0,0.0,0.0,3094.714285714286,3076.7,4284.888888888889,4156.4,305.525,304.86766666666665,314.605,314.5905,22.0287,20.6594,22.0501,21.5527,314.999998,314.999998,324.999988,324.999988,99.55857142857143,99.50736666666667,99.56871428571428,99.54875714285714,0.10775000000000023,-0.03600000000000003,-0.09183333333333332,0.12949999999999995,-0.04833333333333201,-0.04285714285714448,1.533,1.534,38.68,30.121000000000002,38.813,35.704499999999996,55.703,35.49,59.9655,53.143,53.65,34.597,58.525,51.4465,52.8,34.135,58.405,50.844,-0.11699999999999999,-0.052999999999999936,0.10844500000000001,0.102385,0.0,217.14499999999998,217.15,213.88333333333333,213.88333333333333,0.0,0.0
29,0.0,0.0,0.0,1.0,1.0,0.0,0.0,1.0,0.0,0.0,1.0,1.1856,26.0,0.0,0.0,0.0,59.999996,0.0,26.0,26.0,26.0,26.0,0.030444444444444274,0.2549000000000001,-0.017866666666666666,291.672,-2.7677,-2.5796,-1.6061,-1.5675,-177.0,215.3,190.35225,0.0,0.0,0.0,0.0,0.05896666666666667,-5.498166666666667,-5.498166666666667,-0.6094,-0.6433333333333334,0.0021111111111109526,-0.6539999999999999,69.502,0.0184,-0.21995,-0.2999999999999998,100.0,1.0,1.0,214.25,0.0,0.0,0.0,0.0,0.0,0.0,0.0,9081.2,0.0,55.0,5.0,250.18333333333334,1.0,0.0,0.0,0.0,0.0,0.0,0.0,0.0,1.4639999999999986,1.4639999999999986,0.0,0.0,1.0,55.0,616.79921,10000.0,85.000001,85.000001,85.000001,85.000001,395.0,0.0,0.0,0.0,1.0,111.11,51.682,51.682,47.012,47.012,34.0,-25.235,25.86,-29.143333333333334,30.29,0.0,1781.924,-0.46000000000000085,100.0,28.144,28.373,43.683,44.076,0.0,0.0,100.0,0.0,0.0,0.0,0.0,3359.5714285714284,3269.2,4183.444444444444,4163.8,304.935,304.47633333333334,314.7525,314.4785,22.0385,20.6653,22.0612,21.5626,314.999998,314.999998,324.999988,324.999988,99.55857142857143,99.50736666666667,99.56887142857143,99.54891428571429,0.10899999999999999,-0.032333333333333325,-0.09516666666666662,0.1286666666666667,-0.051666666666669414,-0.034285714285715585,1.4935,1.4795,38.741,30.15833333333333,38.882999999999996,35.766,55.691,35.53,60.0065,53.2085,53.638,34.634,58.563,51.5095,52.787,34.170500000000004,58.439499999999995,50.90566666666666,-0.12049999999999994,-0.043500000000000094,0.1067,0.10634,0.0,217.53,217.555,214.25,214.25,0.0,0.0
30,0.0,0.0,0.0,1.0,1.0,0.0,0.0,1.0,0.0,0.0,1.0,1.1856,26.0,0.0,0.0,0.0,59.999996,0.0,26.0,26.0,26.0,26.0,0.046666666666666856,0.25560000000000005,-0.011366666666666667,291.183,-2.7324,-2.6445,-1.6535000000000002,-1.4621,-174.07,215.3,190.330375,0.0,0.0,0.0,0.0,0.06066666666666667,-5.498166666666667,-5.498166666666667,-0.6052000000000001,0.8733333333333334,0.005666666666666709,-0.19700000000000006,69.60900000000001,0.0218,-0.21507500000000002,-0.40200000000000014,100.0,1.0,1.0,214.64,0.0,0.0,0.0,0.0,0.0,0.0,0.0,9097.7,0.0,55.0,5.0,250.56333333333333,0.0,0.0,0.0,0.0,0.0,0.0,1.0,0.0,1.5060000000000002,1.5060000000000002,0.0,0.0,0.0,55.0,616.79921,10000.0,85.000001,85.000001,85.000001,85.000001,395.0,0.0,0.0,0.0,1.0,111.11,50.644,50.644,46.997,46.997,34.0,-25.049999999999997,27.054000000000002,-30.066666666666663,29.375,0.0,1781.883,-0.5,100.0,28.932,29.006,43.51,43.943,0.0,0.0,100.0,0.0,0.0,0.0,0.0,3399.0,3307.2,4266.444444444444,4260.1,304.5485,304.05966666666666,314.681,314.498,22.0464,20.6702,22.0697,21.5701,314.999998,314.999998,324.999988,324.999988,99.5586,99.50738333333334,99.569,99.54904285714285,0.11925000000000008,-0.035666666666666735,-0.09383333333333332,0.1333333333333333,-0.06333333333333258,-0.04285714285714448,1.5394999999999999,1.5150000000000001,38.79,30.188666666666666,38.936,35.8135,55.685,35.5635,60.035,53.2575,53.632,34.6655,58.59,51.557,52.78,34.2005,58.464,50.952,-0.124,-0.04899999999999993,0.09994000000000001,0.10613,0.0,217.91,217.91500000000002,214.64,214.64,0.0,0.0
31,0.0,0.0,0.0,1.0,1.0,0.0,0.0,1.0,0.0,0.0,1.0,1.1856,26.0,0.0,0.0,0.0,59.999996,0.0,26.0,26.0,26.0,26.0,0.04122222222222227,0.2532000000000001,0.0721,290.726,-2.7073,-2.6187,-1.6528,-1.5369000000000002,-170.51999999999998,215.3025,190.3045,0.0,0.0,0.0,0.0,0.06273333333333334,-5.498166666666667,-5.498166666666667,-0.5857,-0.36433333333333334,0.024111111111110972,0.9700000000000002,69.742,0.0253,-0.218675,-0.4739999999999993,100.0,1.0,1.0,214.85000000000002,0.0,0.0,0.0,0.0,0.0,0.0,0.0,9106.7,0.0,55.0,5.0,251.04666666666668,1.0,0.0,0.0,0.0,0.0,0.0,1.0,0.0,1.5569999999999986,1.5569999999999986,0.0,0.0,1.0,55.0,616.79921,10000.0,85.000001,85.000001,85.000001,85.000001,395.0,0.0,0.0,0.0,1.0,166.665,51.086,51.086,45.578,45.578,34.0,-21.815,28.183999999999997,-29.936666666666664,33.582499999999996,0.0,1781.832,-0.46999999999999886,100.0,28.982,29.086,44.403,44.682,0.0,0.0,100.0,0.0,0.0,0.0,0.0,3063.4285714285716,3412.0,4296.111111111111,4475.6,305.426,304.1256666666667,314.329,313.7495,22.0556,20.676,22.0804,21.5796,314.999998,314.999998,324.999988,324.999988,99.55861428571428,99.50738333333334,99.56914285714285,99.5492,0.1259999999999999,-0.01633333333333331,-0.07050000000000001,0.1423333333333332,-0.04833333333333201,-0.03999999999999915,1.429,1.4249999999999998,38.848,30.225,39.003,35.8725,55.674,35.604,60.076,53.3225,53.622,34.7025,58.6275,51.619,52.769,34.236000000000004,58.4985,51.01266666666667,-0.118,-0.045500000000000096,0.10211,0.10133500000000001,0.0,218.305,218.305,214.85000000000002,214.85000000000002,0.0,0.0
32,0.0,0.0,0.0,1.0,1.0,0.0,0.0,1.0,0.0,0.0,1.0,1.1856,26.0,0.0,0.0,0.0,59.999996,0.0,26.0,26.0,26.0,26.0,0.07744444444444443,0.26160000000000005,-0.028,291.428,-2.7053,-2.6758,-1.5925,-1.6178,-166.95999999999998,215.305,190.279125,0.0,0.0,0.0,0.0,0.0648,-5.498166666666667,-5.498166666666667,-0.6076,-0.34900000000000003,-0.000888888888888939,-1.065,69.869,0.0286,-0.23270000000000002,-0.4239999999999995,100.0,1.0,1.0,215.40666666666667,0.0,0.0,0.0,0.0,0.0,0.0,0.0,9130.3,0.0,55.0,5.0,251.50333333333333,0.0,0.0,0.0,0.0,0.0,0.0,1.0,0.0,1.6080000000000005,1.6080000000000005,0.0,0.0,0.0,55.0,616.79921,10000.0,85.000001,85.000001,85.000001,85.000001,395.0,0.0,0.0,0.0,1.0,166.665,51.62,51.62,46.722,46.722,34.0,-22.357499999999998,25.394,-27.029999999999998,31.9375,0.0,1781.779,-0.47499999999999787,100.0,28.656,29.082,44.094,44.671,0.0,0.0,100.0,0.0,0.0,0.0,0.0,3152.4285714285716,3083.2,4091.0,4168.1,305.4185,304.8983333333333,314.944,314.4855,22.0649,20.6817,22.0908,21.5889,314.999998,314.999998,324.999988,324.999988,99.55862857142857,99.5074,99.5693,99.54935714285715,0.12349999999999994,-0.027666666666666728,-0.07366666666666666,0.14866666666666672,-0.05833333333333002,-0.03857142857143003,1.5194999999999999,1.506,38.905,30.261,39.068,35.9305,55.663,35.644999999999996,60.113,53.385999999999996,53.611000000000004,34.7405,58.662,51.6805,52.757,34.2725,58.5295,51.07266666666666,-0.121,-0.05499999999999994,0.10361000000000001,0.11017500000000001,0.0,218.685,218.685,215.40666666666667,215.40666666666667,0.0,0.0
33,0.0,0.0,0.0,1.0,1.0,0.0,0.0,1.0,0.0,0.0,1.0,1.1856,26.0,0.0,0.0,0.0,59.999996,0.0,26.0,26.0,26.0,26.0,0.05266666666666686,0.25860000000000016,-0.060566666666666664,291.611,-2.7213,-2.6366,-1.662,-1.5406,-163.18,215.31,190.25075,0.0,0.0,0.0,0.0,0.067,-5.498166666666667,-5.498166666666667,-0.6171,-0.20700000000000002,0.0018888888888888289,-0.17499999999999982,70.006,0.030100000000000002,-0.21425000000000002,-0.43599999999999994,100.0,1.0,1.0,215.82,0.0,0.0,0.0,0.0,0.0,0.0,0.0,9147.8,0.0,55.0,5.0,251.99333333333334,1.0,0.0,0.0,0.0,0.0,0.0,1.0,0.0,1.661999999999999,1.661999999999999,0.0,0.0,1.0,55.0,616.79921,10000.0,85.000001,85.000001,85.000001,85.000001,395.0,0.0,0.0,0.0,1.0,111.11,51.865,51.865,46.86,46.86,34.0,-22.3975,25.046,-28.95,30.795,0.0,1781.727,-0.5,100.0,28.527,28.774,43.871,44.388999999999996,0.0,0.0,100.0,0.0,0.0,0.0,0.0,3144.714285714286,3087.1,4184.222222222223,4201.8,305.4555,304.936,314.827,314.507,22.0746,20.6877,22.1018,21.5987,314.999998,314.999998,324.999988,324.999988,99.55864285714286,99.5074,99.56944285714286,99.5495,0.12424999999999997,-0.02733333333333321,-0.08183333333333331,0.14516666666666667,-0.03999999999999915,-0.04999999999999716,1.5405,1.518,38.966,30.298000000000002,39.135999999999996,35.9915,55.652,35.6825,60.1485,53.445,53.601,34.775,58.695499999999996,51.7375,52.745000000000005,34.3055,58.5595,51.12833333333333,-0.12449999999999994,-0.04699999999999993,0.10547000000000001,0.11163000000000001,0.0,219.095,219.14499999999998,215.82,215.82,0.0,0.0
34,0.0,0.0,0.0,1.0,1.0,0.0,0.0,1.0,0.0,0.0,1.0,1.1856,26.0,0.0,0.0,0.0,59.999996,0.0,26.0,26.0,26.0,26.0,0.05044444444444429,0.26760000000000006,-0.09783333333333334,291.855,-2.6687,-2.6790000000000003,-1.6291,-1.5222,-160.03,215.3125,190.225875,0.0,0.0,0.0,0.0,0.06883333333333334,-5.498166666666667,-5.498166666666667,-0.6435000000000001,-0.9153333333333334,0.018888888888888955,0.8360000000000003,70.12,0.031900000000000005,-0.22107500000000002,-0.48599999999999977,100.0,1.0,1.0,216.14333333333332,0.0,0.0,0.0,0.0,0.0,0.0,0.0,9161.5,0.0,55.0,5.0,252.40666666666667,0.0,0.0,0.0,0.0,0.0,0.0,1.0,0.0,1.7070000000000007,1.7070000000000007,0.0,0.0,0.0,55.0,616.79921,10000.0,85.000001,85.000001,85.000001,85.000001,395.0,0.0,0.0,0.0,1.0,166.665,52.399,52.399,47.089,47.089,34.0,-20.66,25.738,-27.813333333333333,31.3625,0.0,1781.682,-0.4800000000000004,100.0,28.404,28.393,43.864000000000004,44.431,0.0,0.0,100.0,0.0,0.0,0.0,0.0,2958.4285714285716,3091.7,4105.666666666667,4256.3,305.878,305.15933333333334,314.91375,314.395,22.0826,20.6926,22.1109,21.6069,314.999998,314.999998,324.999988,324.999988,99.55865714285714,99.5074,99.56958571428571,99.54964285714286,0.12124999999999986,-0.013333333333333197,-0.07666666666666666,0.1503333333333332,-0.036666666666668846,-0.07285714285714562,1.5215,1.4985,39.016,30.329,39.193,36.043,55.641,35.7145,60.18,53.499,53.59,34.805,58.724000000000004,51.789500000000004,52.733999999999995,34.334,58.585,51.179,-0.11849999999999994,-0.040000000000000036,0.10876000000000001,0.111045,0.0,219.43,219.47500000000002,216.14333333333335,216.14333333333332,0.0,0.0
35,0.0,0.0,0.0,1.0,1.0,0.0,0.0,1.0,0.0,0.0,1.0,1.1856,26.0,0.0,0.0,0.0,59.999996,0.0,26.0,26.0,26.0,26.0,0.068888888888889,0.26680000000000015,-0.045533333333333335,291.687,-2.8036,-2.6485000000000003,-1.5416,-1.5789,-156.45,215.32,190.195875,0.0,0.0,0.0,0.0,0.0709,-5.498166666666667,-5.498166666666667,-0.6777000000000001,0.043666666666666666,-0.00044444444444424747,-1.292,70.247,0.0349,-0.225225,-0.37600000000000033,100.0,1.0,1.0,216.62,0.0,0.0,0.0,0.0,0.0,0.0,0.0,9181.8,0.0,55.0,5.0,252.86,1.0,0.0,0.0,0.0,0.0,0.0,1.0,0.0,1.7579999999999991,1.7579999999999991,0.0,0.0,1.0,55.0,616.79921,10000.0,85.000001,85.000001,85.000001,85.000001,395.0,0.0,0.0,0.0,1.0,166.665,51.575,51.575,46.814,46.814,34.0,-24.294999999999998,27.04,-26.423333333333336,30.52,0.0,1781.631,-0.28000000000000114,100.0,28.198,28.961,43.532,44.016999999999996,0.0,0.0,100.0,0.0,0.0,0.0,0.0,3193.5714285714284,3286.6,4133.111111111111,4069.3,305.307,304.26666666666665,314.9515,314.88925,22.0917,20.6985,22.1212,21.616,314.999998,314.999998,324.999988,324.999988,99.55867142857143,99.5074,99.56972857142857,99.54978571428572,0.10924999999999985,-0.028999999999999915,-0.07499999999999996,0.15683333333333338,-0.054999999999999716,-0.03714285714285381,1.564,1.5445,39.073,30.365333333333332,39.257999999999996,36.1,55.629000000000005,35.7545,60.214,53.556,53.578,34.841499999999996,58.756,51.844,52.721000000000004,34.3695,58.6135,51.23266666666667,-0.10549999999999993,-0.058499999999999996,0.10567000000000001,0.10537,0.0,219.845,219.85500000000002,216.62,216.62,0.0,0.0
36,0.0,0.0,0.0,1.0,1.0,0.0,0.0,1.0,0.0,0.0,1.0,1.1856,26.0,0.0,0.0,0.0,59.999996,0.0,26.0,26.0,26.0,26.0,0.05511111111111111,0.2601,-0.0025666666666666667,291.275,-2.65,-2.7175000000000002,-1.6421000000000001,-1.5934,-152.87,215.32999999999998,190.164875,0.0,0.0,0.0,0.0,0.07300000000000001,-5.498166666666667,-5.498166666666667,-0.6628000000000001,-0.231,-0.04033333333333333,0.30000000000000027,70.377,0.0302,-0.205525,-0.33399999999999963,100.0,1.0,1.0,216.79666666666668,0.0,0.0,0.0,0.0,0.0,0.0,0.0,9189.2,0.0,55.0,5.0,253.32999999999998,0.0,0.0,0.0,0.0,0.0,0.0,1.0,0.0,1.809000000000001,1.809000000000001,0.0,0.0,0.0,55.0,616.79921,10000.0,85.000001,85.000001,85.000001,85.000001,395.0,0.0,0.0,0.0,1.0,166.665,52.048,52.048,46.188,46.188,34.0,-19.857499999999998,25.684,-30.553333333333335,34.4825,0.0,1781.579,-0.23499999999999943,100.0,28.85,28.75,43.999,44.356,0.0,0.0,100.0,0.0,0.0,0.0,0.0,2862.0,3071.7,4420.0,4475.2,305.943,305.06966666666665,314.2595,313.8795,22.1009,20.7043,22.1317,21.6254,314.999998,314.999998,324.999988,324.999988,99.55868571428572,99.5074,99.56987142857143,99.54994285714285,0.12400000000000011,-0.023333333333333206,-0.0731666666666666,0.14850000000000008,-0.03833333333332689,-0.03142857142857025,1.461,1.4555,39.129999999999995,30.401666666666664,39.323,36.159,55.617999999999995,35.7935,60.2515,53.618,53.568,34.878,58.791,51.903999999999996,52.709,34.403999999999996,58.6455,51.291,-0.10399999999999998,-0.06150000000000011,0.10652,0.10374000000000001,0.0,220.28,220.26999999999998,216.79666666666668,216.79666666666668,0.0,0.0
