,ABS Active,ABS Enabled,AID Allow Tire Blankets,AID Auto Blip,AID Auto Clutch,AID Auto Shift,AID Fuel Rate,AID Ideal Line,AID Mech Damage,AID Stability,AID Tire Wear Rate,Air Density,Air Temp,Ballast,Best Lap Delta,Best Lap Time,Brake Bias,Brake Pos,Brake Temp FL,Brake Temp FR,Brake Temp RL,Brake Temp RR,CG Accel Lateral,CG Accel Longitudinal,CG Accel Vertical,CG Height,Camber FL,Camber FR,Camber RL,Camber RR,Car Coord X,Car Coord Y,Car Coord Z,Car Damage Front,Car Damage Left,Car Damage Rear,Car Damage Right,Car Pos Norm,Caster FL,Caster FR,Chassis Pitch Angle,Chassis Pitch Rate,Chassis Roll Angle,Chassis Roll Rate,Chassis Velocity X,Chassis Velocity Y,Chassis Velocity Z,Chassis Yaw Rate,Clutch Pos,DRS Active,DRS Available,Drive Train Speed,ERS Heat Charging,ERS Is Charging,ERS Max Energy,ERS Power Level,ERS Recovery Level,Engine Brake Setting,Engine Limiter,Engine RPM,Flags,Fuel Level,Gear,Ground Speed,HR Sample Clock,In Pit,KERS Charge,KERS Deployed Energy,KERS Input,KERS Max Energy,LR Sample Clock,Lap Invalidated,Lap Time,Lap Time2,Last Lap Time,Last Sector Time,MR Sample Clock,Max Fuel,Max Power,Max RPM,Max Sus Travel FL,Max Sus Travel FR,Max Sus Travel RL,Max Sus Travel RR,Max Torque,Max Turbo Boost,Num Tires Off Track,Penalties Enabled,Position,Raw Data Sample Rate,Ride Height FL,Ride Height FR,Ride Height RL,Ride Height RR,Road Temp,Self Align Torque FL,Self Align Torque FR,Self Align Torque RL,Self Align Torque RR,Session Lap Count,Session Time Left,Steering Angle,Surface Grip,Suspension Travel FL,Suspension Travel FR,Suspension Travel RL,Suspension Travel RR,TC Active,TC Enabled,Throttle Pos,Tire Dirt Level FL,Tire Dirt Level FR,Tire Dirt Level RL,Tire Dirt Level RR,Tire Load FL,Tire Load FR,Tire Load RL,Tire Load RR,Tire Loaded Radius FL,Tire Loaded Radius FR,Tire Loaded Radius RL,Tire Loaded Radius RR,Tire Pressure FL,Tire Pressure FR,Tire Pressure RL,Tire Pressure RR,Tire Radius FL,Tire Radius FR,Tire Radius RL,Tire Radius RR,Tire Rubber Grip FL,Tire Rubber Grip FR,Tire Rubber Grip RL,Tire Rubber Grip RR,Tire Slip Angle FL,Tire Slip Angle FR,Tire Slip Angle RL,Tire Slip Angle RR,Tire Slip Ratio FL,Tire Slip Ratio FR,Tire Slip Ratio RL,Tire Slip Ratio RR,Tire Temp Core FL,Tire Temp Core FR,Tire Temp Core RL,Tire Temp Core RR,Tire Temp Inner FL,Tire Temp Inner FR,Tire Temp Inner RL,Tire Temp Inner RR,Tire Temp Middle FL,Tire Temp Middle FR,Tire Temp Middle RL,Tire Temp Middle RR,Tire Temp Outer FL,Tire Temp Outer FR,Tire Temp Outer RL,Tire Temp Outer RR,Toe In FL,Toe In FR,Toe In RL,Toe In RR,Turbo Boost,Wheel Angular Speed FL,Wheel Angular Speed FR,Wheel Angular Speed RL,Wheel Angular Speed RR,Wind Direction,Wind Speed
0,0.0,0.0,0.0,1.0,1.0,0.0,0.0,1.0,0.0,0.0,1.0,1.1856,26.0,0.0,0.0,0.0,59.99999,0.0,26.0,26.0,26.0,26.0,-0.08544444444444443,0.30889999999999995,0.06972500000000001,294.006,-2.71,-2.6628,-1.5125000000000002,-1.5635,-275.76,216.29250000000002,190.988,0.0,0.0,0.0,0.0,0.0015333333333333334,-5.498166666666667,-5.498166666666667,-0.5499,1.3225,-0.012125000000000163,-0.272,65.507,-0.0432,-0.214925,1.0500000000000007,100.0,1.0,1.0,202.25333333333333,0.0,0.0,0.0,0.0,0.0,0.0,0.0,8572.8,0.0,55.0,5.0,235.79333333333335,0.0,0.0,0.0,0.0,0.0,0.0,0.0,0.0,0.0030000000000001137,0.0030000000000001137,0.0,0.0,0.0,55.0,616.79921,10000.0,85.0,85.0,85.0,85.0,395.0,0.0,0.0,0.0,1.0,20.0,52.795,52.795,49.652,49.652,34.0,-26.6925,23.181666666666665,-30.373333333333335,24.8975,0.0,1783.328,0.8350000000000009,100.0,27.585,26.904,40.63,40.465,0.0,0.0,100.0,0.0,0.0,0.0,0.0,3002.857142857143,3361.1,4098.333333333333,4039.1000000000004,305.6945,304.16825,314.86425,314.7745,21.7775,20.5107,21.7668,21.3107,314.99999,314.99999,324.99998,324.99998,99.55895714285714,99.50716666666666,99.56511428571429,99.54511428571429,-0.01200000000000001,-0.1233333333333333,-0.165,0.05633333333333334,-0.060000000000002274,-0.03833333333332689,1.5474999999999999,1.581,37.11,29.192,37.043,34.1915,56.302,34.447,59.0515,51.556,54.219,33.6285,57.6795,49.92,53.39,33.2,57.6455,49.349333333333334,-0.005499999999999949,-0.139,0.10103000000000001,0.10627,0.0,205.29000000000002,205.195,202.25333333333333,202.25333333333333,0.0,0.0
1,0.0,0.0,0.0,1.0,1.0,0.0,0.0,1.0,0.0,0.0,1.0,1.1856,26.0,0.0,0.0,0.0,59.999996,0.0,26.0,26.0,26.0,26.0,-0.1306666666666666,0.3084,0.21825,293.03,-2.6461,-2.7728,-1.5188000000000001,-1.5556,-272.41,216.29000000000002,190.96775,0.0,0.0,0.0,0.0,0.0035,-5.498166666666667,-5.498166666666667,-0.49360000000000004,-0.49249999999999994,-0.06225000000000014,-0.746,65.662,-0.0597,-0.18645,1.5039999999999996,100.0,1.0,1.0,202.39666666666668,0.0,0.0,0.0,0.0,0.0,0.0,0.0,8578.8,0.0,55.0,5.0,236.35333333333335,1.0,0.0,0.0,0.0,0.0,0.0,0.0,0.0,0.053999999999998494,0.053999999999998494,0.0,0.0,1.0,55.0,616.79921,10000.0,85.000001,85.000001,85.000001,85.000001,395.0,0.0,0.0,0.0,1.0,111.11,53.574,53.574,48.172,48.172,34.0,-28.0,17.296666666666667,-36.306666666666665,27.815,0.0,1783.277,0.865000000000002,100.0,27.558,26.977,42.621,41.57,0.0,0.0,100.0,0.0,0.0,0.0,0.0,3150.285714285714,2647.9,4448.666666666667,4693.2,305.2895,306.404,313.97575,313.16525,21.787399999999998,20.5158,21.7776,21.3197,314.999998,314.999998,324.999988,324.999988,99.55895714285714,99.5072,99.56527142857144,99.54524285714285,-0.02124999999999999,-0.15366666666666662,-0.19816666666666666,0.0165,-0.051666666666669414,-0.03333333333333144,1.3935,1.4545,37.171,29.224,37.11,34.248,56.286,34.4885,59.0975,51.6205,54.204,33.6665,57.7225,49.982,53.373999999999995,33.2365,57.6855,49.41,-0.008000000000000007,-0.14800000000000013,0.10862000000000001,0.10533500000000001,0.0,205.755,205.635,202.39666666666668,202.39666666666668,0.0,0.0
2,0.0,0.0,0.0,1.0,1.0,0.0,0.0,1.0,0.0,0.0,1.0,1.1856,26.0,0.0,0.0,0.0,59.999996,0.0,26.0,26.0,26.0,26.0,-0.13155555555555554,0.2922,-0.047275000000000005,293.716,-2.6029,-2.7968,-1.4868000000000001,-1.6089,-268.86,216.2825,190.947875,0.0,0.0,0.0,0.0,0.005566666666666667,-5.498166666666667,-5.498166666666667,-0.5509000000000001,0.11599999999999999,-0.050875000000000004,1.58,65.812,-0.079,-0.25622500000000004,1.636000000000001,100.0,1.0,1.0,203.35333333333332,0.0,0.0,0.0,0.0,0.0,0.0,0.0,8619.5,0.0,55.0,5.0,236.89666666666668,0.0,0.0,0.0,0.0,0.0,0.0,0.0,0.0,0.10800000000000054,0.10800000000000054,0.0,0.0,0.0,55.0,616.79921,10000.0,85.000001,85.000001,85.000001,85.000001,395.0,0.0,0.0,0.0,1.0,166.665,52.414,52.414,50.232,50.232,34.0,-30.78,19.648333333333333,-29.273333333333333,19.6825,0.0,1783.221,0.754999999999999,100.0,28.304000000000002,26.986,42.543,41.299,0.0,0.0,100.0,0.0,0.0,0.0,0.0,3397.857142857143,2923.4,3740.3333333333335,3678.0,304.486,305.465,315.682,315.773,21.7982,20.5211,21.7887,21.329,314.999998,314.999998,324.999988,324.999988,99.55897142857143,99.50721666666666,99.56541428571428,99.5454,-0.03224999999999989,-0.15533333333333332,-0.22716666666666666,-0.0011666666666666668,-0.05666666666667197,-0.03333333333333144,1.646,1.6995,37.239000000000004,29.2565,37.18,34.306,56.272999999999996,34.5305,59.138,51.682,54.192,33.705,57.7605,50.041,53.361000000000004,33.2735,57.7205,49.467666666666666,-0.019499999999999962,-0.135,0.10487500000000001,0.109225,0.0,206.235,206.055,203.35333333333335,203.35333333333332,0.0,0.0
3,0.0,0.0,0.0,1.0,1.0,0.0,0.0,1.0,0.0,0.0,1.0,1.1856,26.0,0.0,0.0,0.0,59.999996,0.0,26.0,26.0,26.0,26.0,-0.1514444444444445,0.3107,0.060925,293.533,-2.7191,-2.7002,-1.5054500000000002,-1.5955,-265.9,216.2725,190.930625,0.0,0.0,0.0,0.0,0.007266666666666668,-5.498166666666667,-5.498166666666667,-0.5087,0.509,-0.017749999999999932,0.33599999999999985,65.947,-0.0892,-0.198975,1.1820000000000004,100.0,1.0,1.0,203.46666666666667,0.0,0.0,0.0,0.0,0.0,0.0,0.0,8624.3,0.0,55.0,5.0,237.38,1.0,0.0,0.0,0.0,0.0,0.0,0.0,0.0,0.1529999999999987,0.1529999999999987,0.0,0.0,1.0,55.0,616.79921,10000.0,85.000001,85.000001,85.000001,85.000001,395.0,0.0,0.0,0.0,1.0,166.665,53.558,53.558,48.278999999999996,48.278999999999996,34.0,-25.8475,18.42,-35.26,24.345,0.0,1783.175,0.625,100.0,27.963,26.873,42.394,41.245000000000005,0.0,0.0,100.0,0.0,0.0,0.0,0.0,2871.4285714285716,2875.5,4292.0,4223.3,306.004,305.68525,314.321,314.412,21.8069,20.5256,21.7979,21.3368,314.999998,314.999998,324.999988,324.999988,99.55897142857143,99.50723333333333,99.56555714285714,99.54552857142858,-0.02024999999999988,-0.1543333333333332,-0.22066666666666665,0.010666666666666666,-0.023333333333326323,-0.04999999999999716,1.509,1.5394999999999999,37.293,29.2855,37.236999999999995,34.355000000000004,56.257999999999996,34.570499999999996,59.175,51.7405,54.177,33.742,57.795,50.0975,53.345,33.309,57.7525,49.522999999999996,-0.03049999999999997,-0.12400000000000011,0.119495,0.10353000000000001,0.0,206.635,206.54000000000002,203.46666666666667,203.46666666666667,0.0,0.0
4,0.0,0.0,0.0,1.0,1.0,0.0,0.0,1.0,0.0,0.0,1.0,1.1856,26.0,0.0,0.0,0.0,59.999996,0.0,26.0,26.0,26.0,26.0,-0.13955555555555554,0.2865,-0.0158,293.655,-2.6637,-2.741,-1.52725,-1.5961,-262.53,216.2575,190.910875,0.0,0.0,0.0,0.0,0.009233333333333333,-5.498166666666667,-5.498166666666667,-0.5426,-0.8275000000000001,-0.07725000000000026,-1.707,66.094,-0.0878,-0.23492500000000002,1.2080000000000002,100.0,1.0,1.0,204.03,0.0,0.0,0.0,0.0,0.0,0.0,0.0,8648.1,0.0,55.0,5.0,237.91,0.0,0.0,0.0,0.0,0.0,0.0,0.0,0.0,0.20400000000000063,0.20400000000000063,0.0,0.0,0.0,55.0,616.79921,10000.0,85.000001,85.000001,85.000001,85.000001,395.0,0.0,0.0,0.0,1.0,166.665,53.146,53.146,48.721000000000004,48.721000000000004,34.0,-29.4525,18.821666666666665,-32.75666666666667,21.0975,0.0,1783.125,0.615000000000002,100.0,27.64,26.83,42.809,41.480000000000004,0.0,0.0,100.0,0.0,0.0,0.0,0.0,3247.285714285714,2883.3,4111.444444444444,3700.7,305.1105,305.5095,314.78475,315.5925,21.8166,20.5307,21.8086,21.3457,314.999998,314.999998,324.999988,324.999988,99.55898571428571,99.50723333333333,99.56568571428572,99.54565714285714,-0.030999999999999917,-0.15866666666666673,-0.20483333333333334,0.02,-0.03833333333332689,-0.05333333333332746,1.551,1.6015,37.354,29.317,37.304,34.4105,56.241,34.6095,59.215,51.7965,54.161,33.778,57.832499999999996,50.1505,53.329,33.343,57.787,49.575,-0.029000000000000026,-0.12250000000000005,0.10417000000000001,0.11285,0.0,207.035,206.94,204.03,204.03,0.0,0.0
5,0.0,0.0,0.0,1.0,1.0,0.0,0.0,1.0,0.0,0.0,1.0,1.1856,26.0,0.0,0.0,0.0,59.999996,0.0,26.0,26.0,26.0,26.0,-0.14400000000000002,0.28880000000000017,-0.015675,293.686,-2.6645,-2.7692,-1.50575,-1.5884,-259.16,216.24,190.8905,0.0,0.0,0.0,0.0,0.0112,-5.498166666666667,-5.498166666666667,-0.5363,0.49249999999999994,-0.08274999999999988,1.057,66.24000000000001,-0.09140000000000001,-0.214425,1.0419999999999998,100.0,1.0,1.0,204.44666666666666,0.0,0.0,0.0,0.0,0.0,0.0,0.0,8665.8,0.0,55.0,5.0,238.43333333333334,1.0,0.0,0.0,0.0,0.0,0.0,0.0,0.0,0.254999999999999,0.254999999999999,0.0,0.0,1.0,55.0,616.79921,10000.0,85.000001,85.000001,85.000001,85.000001,395.0,0.0,0.0,0.0,1.0,166.665,53.497,53.497,49.042,49.042,34.0,-27.060000000000002,19.596666666666668,-32.94333333333333,22.9475,0.0,1783.075,0.245000000000001,100.0,27.935,26.606,42.618,41.075,0.0,0.0,100.0,0.0,0.0,0.0,0.0,3088.0,2842.2,4132.0,4080.4,305.36,305.8505,314.77475,314.77475,21.8266,20.5358,21.819,21.3544,314.999998,314.999998,324.999988,324.999988,99.55898571428571,99.50726666666667,99.56582857142857,99.5458,-0.005249999999999977,-0.1313333333333333,-0.2115,0.007333333333333333,-0.04833333333333201,-0.060000000000002274,1.5494999999999999,1.5775,37.416,29.349,37.369,34.4645,56.227000000000004,34.6505,59.2545,51.854,54.147999999999996,33.8155,57.8695,50.206,53.315,33.3795,57.821,49.629,-0.055499999999999994,-0.09149999999999991,0.10565500000000001,0.10660000000000001,0.0,207.565,207.45,204.44666666666666,204.44666666666666,0.0,0.0
6,0.0,0.0,0.0,1.0,1.0,0.0,0.0,1.0,0.0,0.0,1.0,1.1856,26.0,0.0,0.0,0.0,59.999996,0.0,26.0,26.0,26.0,26.0,-0.12177777777777776,0.28770000000000007,0.007275,293.457,-2.6326,-2.7468,-1.5507,-1.6263,-255.97,216.22,190.871125,0.0,0.0,0.0,0.0,0.013066666666666666,-5.498166666666667,-5.498166666666667,-0.531,0.05799999999999994,-0.06637499999999985,0.9609999999999999,66.378,-0.0863,-0.2152,0.7720000000000002,100.0,1.0,1.0,204.86333333333334,0.0,0.0,0.0,0.0,0.0,0.0,0.0,8683.5,0.0,55.0,5.0,238.93333333333334,0.0,0.0,0.0,0.0,0.0,0.0,0.0,0.0,0.3030000000000008,0.3030000000000008,0.0,0.0,0.0,55.0,616.79921,10000.0,85.000001,85.000001,85.000001,85.000001,395.0,0.0,0.0,0.0,1.0,333.33500000000004,53.131,53.131,48.782,48.782,34.0,-26.785,20.99666666666667,-32.77666666666667,24.215,0.0,1783.026,0.08500000000000085,100.0,27.869,26.698,42.781,41.454,0.0,0.0,100.0,0.0,0.0,0.0,0.0,3128.0,2986.0,4068.5555555555557,4014.4,305.23,305.36875,314.90475,314.88975,21.8359,20.5407,21.829,21.3628,314.999998,314.999998,324.999988,324.999988,99.55898571428571,99.50728333333333,99.56598571428572,99.54594285714286,0.004750000000000032,-0.12166666666666681,-0.20566666666666666,0.02866666666666667,-0.03833333333332689,-0.03499999999999659,1.5294999999999999,1.558,37.474000000000004,29.378999999999998,37.431,34.5175,56.212,34.691,59.295,51.9155,54.132999999999996,33.853,57.9075,50.2645,53.299,33.414500000000004,57.8565,49.68666666666667,-0.07050000000000001,-0.07899999999999996,0.11251000000000001,0.11409000000000001,0.0,207.945,207.865,204.86333333333334,204.86333333333334,0.0,0.0
7,0.0,0.0,0.0,1.0,1.0,0.0,0.0,1.0,0.0,0.0,1.0,1.1856,26.0,0.0,0.0,0.0,59.999996,0.0,26.0,26.0,26.0,26.0,-0.07722222222222219,0.30469999999999997,0.017675,293.182,-2.6106,-2.7318,-1.5131000000000001,-1.5699,-252.57999999999998,216.195,190.850625,0.0,0.0,0.0,0.0,0.015033333333333334,-5.498166666666667,-5.498166666666667,-0.5345,-0.0495000000000001,-0.053999999999999826,-0.246,66.525,-0.0688,-0.22287500000000002,0.4220000000000006,100.0,1.0,1.0,205.26666666666665,0.0,0.0,0.0,0.0,0.0,0.0,0.0,8700.5,0.0,55.0,5.0,239.46,1.0,0.0,0.0,0.0,0.0,0.0,0.0,0.0,0.3539999999999992,0.3539999999999992,0.0,0.0,1.0,55.0,616.79921,10000.0,85.000001,85.000001,85.000001,85.000001,395.0,0.0,0.0,0.0,1.0,166.665,52.78,52.78,48.813,48.813,34.0,-27.155,21.535,-31.93,24.365000000000002,0.0,1782.976,-0.21999999999999886,100.0,27.781,26.919,42.749,41.792,0.0,0.0,100.0,0.0,0.0,0.0,0.0,3322.857142857143,2955.3,4108.888888888889,4069.7,304.7495,305.29875,314.82075,314.69775,21.8457,20.5459,21.8395,21.3717,314.999998,314.999998,324.999988,324.999988,99.55898571428571,99.5073,99.56611428571429,99.54607142857142,0.03175000000000017,-0.1036666666666668,-0.191,0.036833333333333336,-0.05333333333332746,-0.05666666666667197,1.531,1.553,37.536,29.4115,37.497,34.573499999999996,56.198,34.7285,59.333,51.973,54.120000000000005,33.887,57.942499999999995,50.32,53.285,33.4475,57.888999999999996,49.74066666666667,-0.09550000000000003,-0.05950000000000011,0.102385,0.10564000000000001,0.0,208.38,208.325,205.26666666666665,205.26666666666665,0.0,0.0
8,0.0,0.0,0.0,1.0,1.0,0.0,0.0,1.0,0.0,0.0,1.0,1.1856,26.0,0.0,0.0,0.0,59.999996,0.0,26.0,26.0,26.0,26.0,-0.0401111111111111,0.2934000000000001,-0.028975,293.472,-2.6981,-2.715,-1.4966,-1.5758,-248.99,216.16750000000002,190.828875,0.0,0.0,0.0,0.0,0.0171,-5.498166666666667,-5.498166666666667,-0.5361,-0.52,-0.03474999999999984,-0.4590000000000001,66.679,-0.0482,-0.2167,-0.007999999999999119,100.0,1.0,1.0,205.68333333333334,0.0,0.0,0.0,0.0,0.0,0.0,0.0,8718.2,0.0,55.0,5.0,240.01666666666665,0.0,0.0,0.0,0.0,0.0,0.0,0.0,0.0,0.40800000000000125,0.40800000000000125,0.0,0.0,0.0,55.0,616.79921,10000.0,85.000001,85.000001,85.000001,85.000001,395.0,0.0,0.0,0.0,1.0,166.665,53.65,53.65,48.157,48.157,34.0,-24.0975,21.990000000000002,-30.656666666666666,26.267500000000002,0.0,1782.922,-0.35999999999999943,100.0,27.385,26.912,42.707,41.965,0.0,0.0,100.0,0.0,0.0,0.0,0.0,2990.0,2905.6,4171.555555555556,4093.0,305.839,305.45725,314.64525,314.58375,21.856,20.5514,21.8506,21.3812,314.999998,314.999998,324.999988,324.999988,99.55898571428571,99.5073,99.56625714285714,99.54622857142857,0.045250000000000234,-0.07733333333333325,-0.15616666666666665,0.0645,-0.041666666666671404,-0.03166666666666629,1.5095,1.516,37.599999999999994,29.445999999999998,37.566,34.6325,56.18,34.769,59.375,52.0375,54.102999999999994,33.9245,57.982,50.3815,53.268,33.4835,57.925,49.801,-0.10399999999999998,-0.038999999999999924,0.10286000000000001,0.11349000000000001,0.0,208.82,208.805,205.68333333333334,205.68333333333334,0.0,0.0
9,0.0,0.0,0.0,1.0,1.0,0.0,0.0,1.0,0.0,0.0,1.0,1.1856,26.0,0.0,0.0,0.0,59.999996,0.0,26.0,26.0,26.0,26.0,-0.014777777777777779,0.29990000000000006,-0.017775,293.137,-2.689,-2.7182,-1.5563500000000001,-1.5518,-245.78,216.14249999999998,190.809,0.0,0.0,0.0,0.0,0.018966666666666666,-5.498166666666667,-5.498166666666667,-0.5413,0.6839999999999999,-0.03362500000000024,-0.41500000000000004,66.813,-0.0287,-0.216225,-0.10999999999999943,100.0,1.0,1.0,206.2266666666667,0.0,0.0,0.0,0.0,0.0,0.0,0.0,8741.2,0.0,55.0,5.0,240.49666666666667,1.0,0.0,0.0,0.0,0.0,0.0,0.0,0.0,0.4559999999999995,0.4559999999999995,0.0,0.0,1.0,55.0,616.79921,10000.0,85.000001,85.000001,85.000001,85.000001,395.0,0.0,0.0,0.0,1.0,166.665,52.414,52.414,49.164,49.164,34.0,-26.695,23.643333333333334,-28.386666666666667,26.025000000000002,0.0,1782.873,-0.4800000000000004,100.0,27.82,27.344,42.375,41.964,0.0,0.0,100.0,0.0,0.0,0.0,0.0,3370.285714285714,3002.5,3988.0,4033.4,304.685,305.09775,315.183,314.83175,21.8652,20.5564,21.8604,21.3896,314.999998,314.999998,324.999988,324.999988,99.559,99.50731666666667,99.5664,99.54635714285715,0.06625000000000014,-0.06033333333333313,-0.13583333333333333,0.082,-0.051666666666669414,-0.06499999999999773,1.583,1.574,37.658,29.4775,37.626999999999995,34.685,56.168,34.806,59.408500000000004,52.0935,54.091,33.959,58.0135,50.4355,53.254999999999995,33.516,57.9535,49.85366666666667,-0.11599999999999999,-0.04249999999999998,0.10325500000000001,0.10566500000000001,0.0,209.26,209.255,206.2266666666667,206.2266666666667,0.0,0.0
10,0.0,0.0,0.0,1.0,1.0,0.0,0.0,1.0,0.0,0.0,1.0,1.1856,26.0,0.0,0.0,0.0,59.999996,0.0,26.0,26.0,26.0,26.0,0.007444444444444587,0.2874000000000001,0.05365,292.999,-2.6608,-2.7028,-1.5343499999999999,-1.5357,-242.37,216.115,190.78825,0.0,0.0,0.0,0.0,0.020966666666666668,-5.498166666666667,-5.498166666666667,-0.5175000000000001,-0.5605,0.00924999999999998,1.8160000000000003,66.959,-0.0078000000000000005,-0.205025,-0.5539999999999994,100.0,1.0,1.0,206.46,0.0,0.0,0.0,0.0,0.0,0.0,0.0,8751.1,0.0,55.0,5.0,241.02666666666667,0.0,0.0,0.0,0.0,0.0,0.0,1.0,0.0,0.5069999999999979,0.5069999999999979,0.0,0.0,0.0,55.0,616.79921,10000.0,85.000001,85.000001,85.000001,85.000001,395.0,0.0,0.0,0.0,1.0,166.665,53.543,53.543,47.607,47.607,34.0,-20.0625,23.881666666666668,-29.313333333333333,30.4425,0.0,1782.824,-0.625,100.0,27.749,27.117,42.911,42.611000000000004,0.0,0.0,100.0,0.0,0.0,0.0,0.0,2808.0,2971.5,4240.444444444444,4337.7,306.204,305.43975,314.4,314.09475,21.875,20.5617,21.871,21.398699999999998,314.999998,314.999998,324.999988,324.999988,99.55901428571428,99.50731666666667,99.56654285714286,99.5465,0.10424999999999995,-0.03633333333333311,-0.10466666666666667,0.1145,-0.030000000000001137,-0.045000000000001705,1.482,1.4605,37.719,29.5105,37.694,34.742,56.155,34.8425,59.45,52.1575,54.079,33.9925,58.0515,50.497,53.242000000000004,33.5485,57.989,49.914,-0.131,-0.02400000000000002,0.10912500000000001,0.10852,0.0,209.68,209.715,206.46,206.46,0.0,0.0
11,0.0,0.0,0.0,1.0,1.0,0.0,0.0,1.0,0.0,0.0,1.0,1.1856,26.0,0.0,0.0,0.0,59.999996,0.0,26.0,26.0,26.0,26.0,0.032777777777777795,0.27270000000000016,-0.06865,293.533,-2.7068,-2.686,-1.55395,-1.5236,-239.16,216.09,190.768875,0.0,0.0,0.0,0.0,0.022600000000000002,-5.498166666666667,-5.498166666666667,-0.5603,-0.3340000000000001,0.03499999999999992,0.41900000000000004,67.09,0.0115,-0.2381,-0.6679999999999993,100.0,1.0,1.0,207.17000000000002,0.0,0.0,0.0,0.0,0.0,0.0,0.0,8781.2,0.0,55.0,5.0,241.49666666666667,1.0,0.0,0.0,0.0,0.0,0.0,1.0,0.0,0.5549999999999997,0.5549999999999997,0.0,0.0,1.0,55.0,616.79921,10000.0,85.000001,85.000001,85.000001,85.000001,395.0,0.0,0.0,0.0,1.0,333.33500000000004,52.872,52.872,49.254999999999995,49.254999999999995,34.0,-21.8175,26.775,-23.556666666666665,26.9475,0.0,1782.775,-0.6400000000000006,100.0,27.534,27.373,42.408,42.577,0.0,0.0,100.0,0.0,0.0,0.0,0.0,2992.142857142857,3190.8,3655.222222222222,3890.6000000000004,305.6925,304.69975,315.9285,315.1955,21.884,20.5668,21.8808,21.4072,314.999998,314.999998,324.999988,324.999988,99.55901428571428,99.50731666666667,99.56667142857142,99.54664285714286,0.1080000000000001,-0.014999999999999902,-0.09233333333333334,0.135,-0.060000000000002274,-0.05333333333332746,1.617,1.6045,37.775,29.5425,37.754999999999995,34.795,56.141,34.878,59.482,52.214,54.066,34.0255,58.0815,50.5515,53.227999999999994,33.58,58.0165,49.967333333333336,-0.125,-0.026499999999999968,0.10615500000000001,0.10396000000000001,0.0,210.075,210.10500000000002,207.17000000000002,207.17000000000002,0.0,0.0
12,0.0,0.0,0.0,1.0,1.0,0.0,0.0,1.0,0.0,0.0,1.0,1.1856,26.0,0.0,0.0,0.0,59.999996,0.0,26.0,26.0,26.0,26.0,0.04922222222222228,0.2921,0.0063,292.984,-2.759,-2.6831,-1.5516,-1.5242,-235.93,216.065,190.748125,0.0,0.0,0.0,0.0,0.025466666666666665,-5.498166666666667,-5.498166666666667,-0.5462,0.31999999999999995,0.020375000000000032,0.6139999999999999,67.226,0.0279,-0.205825,-0.7239999999999993,100.0,1.0,1.0,207.38,0.0,0.0,0.0,0.0,0.0,0.0,0.0,8790.0,0.0,55.0,5.0,241.98666666666668,0.0,0.0,0.0,0.0,0.0,0.0,1.0,0.0,0.602999999999998,0.602999999999998,0.0,0.0,0.0,55.0,616.79921,10000.0,85.000001,85.000001,85.000001,85.000001,395.0,0.0,0.0,0.0,1.0,333.33500000000004,52.887,52.887,47.943,47.943,34.0,-21.9275,27.23,-26.333333333333332,31.4925,0.0,1782.727,-0.6699999999999982,100.0,27.445,27.525,42.301,42.452,0.0,0.0,100.0,0.0,0.0,0.0,0.0,3010.4285714285716,3194.4,4163.222222222223,4223.1,305.6525,304.72075,314.68725,314.42775,21.8929,20.572,21.8906,21.4156,314.999998,314.999998,324.999988,324.999988,99.55904285714286,99.50731666666667,99.56681428571429,99.54677142857143,0.1200000000000001,-0.003666666666666707,-0.06183333333333334,0.16083333333333336,-0.03166666666666629,-0.07000000000000028,1.53,1.505,37.831,29.575,37.816,34.8475,56.129000000000005,34.914,59.5175,52.271,54.054,34.0585,58.1145,50.606,53.215,33.6115,58.0465,50.021,-0.125,-0.026000000000000023,0.10703000000000001,0.11034500000000001,0.0,210.5,210.57999999999998,207.38,207.38,0.0,0.0
13,0.0,0.0,0.0,1.0,1.0,0.0,0.0,1.0,0.0,0.0,1.0,1.1856,26.0,0.0,0.0,0.0,59.999996,0.0,26.0,26.0,26.0,26.0,0.07377777777777794,0.2881,0.03345,292.587,-2.7388,-2.6727,-1.62295,-1.5086,-232.5,216.04000000000002,190.72625,0.0,0.0,0.0,0.0,0.0267,-5.498166666666667,-5.498166666666667,-0.5381,-0.0495000000000001,0.020499999999999963,-0.5569999999999999,67.369,0.0351,-0.212725,-0.7679999999999998,100.0,1.0,1.0,207.75333333333333,0.0,0.0,0.0,0.0,0.0,0.0,0.0,8805.9,0.0,55.0,5.0,242.5,1.0,0.0,0.0,0.0,0.0,0.0,1.0,0.0,0.6539999999999999,0.6539999999999999,0.0,0.0,1.0,55.0,616.79921,10000.0,85.000001,85.000001,85.000001,85.000001,395.0,0.0,0.0,0.0,1.0,111.11,52.536,52.536,47.897,47.897,34.0,-21.8625,27.14333333333333,-28.493333333333332,31.3475,0.0,1782.677,-0.875,100.0,27.59,27.873,42.432,43.057,0.0,0.0,100.0,0.0,0.0,0.0,0.0,3159.714285714286,3084.6,4235.111111111111,4282.5,305.354,304.86475,314.588,314.176,21.9026,20.5775,21.9011,21.4248,314.999998,314.999998,324.999988,324.999988,99.55905714285714,99.50731666666667,99.56695714285715,99.54691428571428,0.14175000000000004,0.016666666666666607,-0.07216666666666667,0.14633333333333334,-0.041666666666671404,-0.045000000000001705,1.5025,1.4755,37.891,29.6095,37.882,34.905,56.119,34.952,59.556,52.335,54.044,34.0935,58.15,50.667500000000004,53.204,33.6455,58.079,50.08166666666666,-0.14949999999999997,-0.0015000000000000568,0.10828000000000002,0.10387,0.0,210.94,210.99,207.75333333333333,207.75333333333333,0.0,0.0
14,0.0,0.0,0.0,1.0,1.0,0.0,0.0,1.0,0.0,0.0,1.0,1.1856,26.0,0.0,0.0,0.0,59.999996,0.0,26.0,26.0,26.0,26.0,0.1052222222222221,0.27960000000000007,-0.010675,292.816,-2.7432,-2.6126,-1.6015000000000001,-1.5106000000000002,-228.86,216.015,190.70375,0.0,0.0,0.0,0.0,0.028800000000000003,-5.498166666666667,-5.498166666666667,-0.549,-0.1885000000000001,0.05162500000000003,-0.03499999999999992,67.517,0.049100000000000005,-0.228725,-0.9639999999999995,100.0,1.0,1.0,208.30333333333334,0.0,0.0,0.0,0.0,0.0,0.0,0.0,8829.2,0.0,55.0,5.0,243.03333333333336,0.0,0.0,0.0,0.0,0.0,0.0,1.0,0.0,0.7079999999999984,0.7079999999999984,0.0,0.0,0.0,55.0,616.79921,10000.0,85.000001,85.000001,85.000001,85.000001,395.0,0.0,0.0,0.0,1.0,166.665,52.628,52.628,48.126,48.126,34.0,-20.64,27.431666666666665,-25.166666666666664,31.5425,0.0,1782.622,-0.9699999999999989,100.0,27.516,27.984,42.429,43.284,0.0,0.0,100.0,0.0,0.0,0.0,0.0,3038.714285714286,3169.3,3995.3333333333335,4158.4,305.712,304.6265,315.12725,314.50125,21.9127,20.5834,21.9122,21.4345,314.999998,314.999998,324.999988,324.999988,99.55907142857143,99.50733333333334,99.5671,99.54707142857143,0.14849999999999985,0.016999999999999904,-0.05266666666666667,0.17500000000000002,-0.036666666666668846,-0.036666666666668846,1.5485,1.515,37.955,29.646,37.951,34.9655,56.108000000000004,34.9925,59.595,52.4015,54.034,34.131,58.1865,50.7315,53.192,33.681,58.1115,50.144333333333336,-0.15349999999999997,-0.0015000000000000568,0.096985,0.11543500000000001,0.0,211.38,211.44,208.30333333333334,208.30333333333334,0.0,0.0
15,0.0,0.0,0.0,1.0,1.0,0.0,0.0,1.0,0.0,0.0,1.0,1.1856,26.0,0.0,0.0,0.0,59.999996,0.0,26.0,26.0,26.0,26.0,0.11299999999999999,0.27770000000000006,0.003425,292.847,-2.7095,-2.5756,-1.6307,-1.4514,-225.82,215.9975,190.68475,0.0,0.0,0.0,0.0,0.030600000000000002,-5.498166666666667,-5.498166666666667,-0.5406000000000001,0.3305,0.08424999999999994,1.201,67.641,0.061200000000000004,-0.21052500000000002,-1.1660000000000004,100.0,1.0,1.0,208.66666666666669,0.0,0.0,0.0,0.0,0.0,0.0,0.0,8844.7,0.0,55.0,5.0,243.47666666666666,1.0,0.0,0.0,0.0,0.0,0.0,1.0,0.0,0.7530000000000001,0.7530000000000001,0.0,0.0,1.0,55.0,616.79921,10000.0,85.000001,85.000001,85.000001,85.000001,395.0,0.0,0.0,0.0,1.0,166.665,52.78,52.78,48.248,48.248,34.0,-18.04,28.393333333333334,-24.133333333333333,33.6725,0.0,1782.577,-1.0,100.0,27.705,27.889,42.234,43.232,0.0,0.0,100.0,0.0,0.0,0.0,0.0,2811.285714285714,3231.5,3940.5555555555557,4370.9,306.163,304.6035,315.24175,314.0965,21.9211,20.5883,21.9213,21.4425,314.999998,314.999998,324.999988,324.999988,99.55908571428571,99.50733333333334,99.56722857142857,99.5472,0.16774999999999984,0.038000000000000256,-0.0325,0.19733333333333336,-0.030000000000001137,-0.060000000000002274,1.5554999999999999,1.5165,38.007,29.677,38.007999999999996,35.016,56.099000000000004,35.027,59.6255,52.457,54.025,34.163,58.215,50.785,53.183,33.712,58.1375,50.196666666666665,-0.15349999999999997,0.0034999999999999476,0.10792,0.10943000000000001,0.0,211.76999999999998,211.87,208.66666666666669,208.66666666666669,0.0,0.0
16,0.0,0.0,0.0,1.0,1.0,0.0,0.0,1.0,0.0,0.0,1.0,1.1856,26.0,0.0,0.0,0.0,59.999996,0.0,26.0,26.0,26.0,26.0,0.13455555555555576,0.2651000000000001,-0.053700000000000005,292.862,-2.8091,-2.6056,-1.60235,-1.4512,-222.36,215.98000000000002,190.66275,0.0,0.0,0.0,0.0,0.032600000000000004,-5.498166666666667,-5.498166666666667,-0.5592,-0.7250000000000001,0.07037499999999985,-0.98,67.781,0.0724,-0.22425,-1.217999999999999,100.0,1.0,1.0,209.08666666666667,0.0,0.0,0.0,0.0,0.0,0.0,0.0,8862.4,0.0,55.0,5.0,243.98333333333335,0.0,0.0,0.0,0.0,0.0,0.0,1.0,0.0,0.8039999999999985,0.8039999999999985,0.0,0.0,0.0,55.0,616.79921,10000.0,85.000001,85.000001,85.000001,85.000001,395.0,0.0,0.0,0.0,1.0,166.665,52.795,52.795,47.836,47.836,34.0,-19.7725,28.44333333333333,-24.016666666666666,31.82,0.0,1782.526,-0.9050000000000011,100.0,27.201999999999998,28.134999999999998,42.45,43.473,0.0,0.0,100.0,0.0,0.0,0.0,0.0,2967.4285714285716,3179.8,3979.1111111111113,4141.7,306.0165,304.581,315.1885,314.56175,21.9303,20.5939,21.9318,21.4517,314.999998,314.999998,324.999988,324.999988,99.55911428571429,99.50735,99.56737142857143,99.54734285714285,0.16774999999999984,0.03966666666666674,-0.03266666666666666,0.19933333333333333,-0.02833333333332888,-0.05333333333332746,1.553,1.51,38.064,29.712,38.074,35.073,56.086,35.0665,59.6635,52.5195,54.012,34.1995,58.25,50.8455,53.169,33.747,58.1695,50.256,-0.15549999999999997,0.0050000000000000044,0.11196,0.112945,0.0,212.155,212.26999999999998,209.08666666666667,209.08666666666667,0.0,0.0
17,0.0,0.0,0.0,1.0,1.0,0.0,0.0,1.0,0.0,0.0,1.0,1.1856,26.0,0.0,0.0,0.0,59.999996,0.0,26.0,26.0,26.0,26.0,0.11633333333333318,0.28280000000000016,-0.04055,292.603,-2.7616,-2.5668,-1.6397,-1.4759,-218.9,215.965,190.640125,0.0,0.0,0.0,0.0,0.0346,-5.498166666666667,-5.498166666666667,-0.551,0.5795,0.04874999999999985,0.6480000000000001,67.919,0.0791,-0.20750000000000002,-1.1899999999999995,100.0,1.0,1.0,209.50333333333333,0.0,0.0,0.0,0.0,0.0,0.0,0.0,8880.0,0.0,55.0,5.0,244.48000000000002,1.0,0.0,0.0,0.0,0.0,0.0,1.0,0.0,0.8550000000000004,0.8550000000000004,0.0,0.0,1.0,55.0,616.79921,10000.0,85.000001,85.000001,85.000001,85.000001,395.0,0.0,0.0,0.0,1.0,166.665,52.505,52.505,47.958,47.958,34.0,-18.985,27.976666666666667,-25.243333333333336,33.7725,0.0,1782.475,-0.9549999999999983,100.0,27.835,28.28,42.257,43.323,0.0,0.0,100.0,0.0,0.0,0.0,0.0,2974.714285714286,3142.9,4170.333333333333,4284.0,305.778,304.89175,314.7815,314.3245,21.939799999999998,20.5996,21.9421,21.4608,314.999998,314.999998,324.999988,324.999988,99.55912857142857,99.50735,99.56751428571428,99.5475,0.18299999999999983,0.05233333333333334,-0.02016666666666667,0.20716666666666667,-0.036666666666668846,-0.054999999999999716,1.5474999999999999,1.5055,38.123999999999995,29.747999999999998,38.138,35.129999999999995,56.078,35.108000000000004,59.698499999999996,52.5815,54.004000000000005,34.238,58.2825,50.905,53.16,33.784,58.198499999999996,50.31466666666667,-0.15100000000000002,-0.00649999999999995,0.10991500000000001,0.10674000000000002,0.0,212.64499999999998,212.735,209.50333333333333,209.50333333333333,0.0,0.0
18,0.0,0.0,0.0,1.0,1.0,0.0,0.0,1.0,0.0,0.0,1.0,1.1856,26.0,0.0,0.0,0.0,59.999996,0.0,26.0,26.0,26.0,26.0,0.14200000000000013,0.2735000000000001,-0.034625,292.496,-2.8006,-2.5371,-1.65595,-1.4208,-215.43,215.9525,190.61775,0.0,0.0,0.0,0.0,0.03663333333333333,-5.498166666666667,-5.498166666666667,-0.5604,-0.5369999999999999,0.07250000000000001,-0.121,68.05799999999999,0.08080000000000001,-0.22290000000000001,-1.1760000000000002,100.0,1.0,1.0,209.92666666666668,0.0,0.0,0.0,0.0,0.0,0.0,0.0,8898.0,0.0,55.0,5.0,244.98333333333335,0.0,0.0,0.0,0.0,0.0,0.0,1.0,0.0,0.9059999999999988,0.9059999999999988,0.0,0.0,0.0,55.0,616.79921,10000.0,85.000001,85.000001,85.000001,85.000001,395.0,0.0,0.0,0.0,1.0,166.665,52.353,52.353,47.714,47.714,34.0,-19.97,29.678333333333335,-24.293333333333333,32.0475,0.0,1782.424,-1.174999999999999,100.0,27.426000000000002,28.258,42.534,43.837,0.0,0.0,100.0,0.0,0.0,0.0,0.0,3085.142857142857,3286.6,4041.4444444444443,4179.6,305.679,304.34925,315.07925,314.4995,21.9492,20.6052,21.9526,21.4701,314.999998,314.999998,324.999988,324.999988,99.55915714285715,99.50735,99.56765714285714,99.54764285714286,0.1825000000000001,0.06033333333333335,-0.016,0.20466666666666666,-0.051666666666669414,-0.045000000000001705,1.5554999999999999,1.5025,38.182,29.783,38.204,35.188,56.068,35.147999999999996,59.7365,52.646,53.995000000000005,34.275,58.317499999999995,50.967,53.149,33.8195,58.2305,50.37566666666667,-0.16649999999999998,0.015499999999999958,0.095765,0.11553500000000001,0.0,213.05,213.12,209.92666666666668,209.92666666666668,0.0,0.0
19,0.0,0.0,0.0,1.0,1.0,0.0,0.0,1.0,0.0,0.0,1.0,1.1856,26.0,0.0,0.0,0.0,59.999996,0.0,26.0,26.0,26.0,26.0,0.15022222222222226,0.2902,0.046225,291.946,-2.7178,-2.5251,-1.6756,-1.4004,-211.95999999999998,215.945,190.595125,0.0,0.0,0.0,0.0,0.03863333333333333,-5.498166666666667,-5.498166666666667,-0.5497000000000001,0.8625,0.08837499999999987,0.9590000000000001,68.195,0.0881,-0.210375,-1.67,100.0,1.0,1.0,210.31666666666666,0.0,0.0,0.0,0.0,0.0,0.0,0.0,8914.5,0.0,55.0,5.0,245.47333333333336,1.0,0.0,0.0,0.0,0.0,0.0,1.0,0.0,0.9570000000000007,0.9570000000000007,0.0,0.0,1.0,55.0,616.79921,10000.0,85.000001,85.000001,85.000001,85.000001,395.0,0.0,0.0,0.0,1.0,166.665,51.650999999999996,51.650999999999996,47.47,47.47,34.0,-16.995,32.195,-24.586666666666666,35.475,0.0,1782.373,-1.58,100.0,28.088,28.688,42.356,43.78,0.0,0.0,100.0,0.0,0.0,0.0,0.0,2999.714285714286,3416.1,4146.666666666667,4490.5,305.5795,304.0045,314.8265,313.865,21.9587,20.6111,21.9629,21.4792,314.999998,314.999998,324.999988,324.999988,99.55917142857143,99.50736666666667,99.5678,99.54778571428571,0.22599999999999998,0.09100000000000019,-0.0008333333333333334,0.22233333333333336,-0.03833333333332689,-0.06499999999999773,1.544,1.4945,38.242000000000004,29.819499999999998,38.268,35.245,56.062,35.192499999999995,59.7705,52.709,53.989000000000004,34.316,58.349000000000004,51.028,53.141999999999996,33.8595,58.259,50.43566666666666,-0.20699999999999996,0.04399999999999993,0.108115,0.10462,0.0,213.49,213.60000000000002,210.31666666666666,210.31666666666666,0.0,0.0
20,0.0,0.0,0.0,1.0,1.0,0.0,0.0,1.0,0.0,0.0,1.0,1.1856,26.0,0.0,0.0,0.0,59.999996,0.0,26.0,26.0,26.0,26.0,0.20144444444444431,0.27249999999999996,-0.050125,292.313,-2.8276,-2.5771,-1.61245,-1.513,-208.48000000000002,215.9425,190.57275,0.0,0.0,0.0,0.0,0.04066666666666667,-5.498166666666667,-5.498166666666667,-0.556,-1.1545,0.09699999999999998,-0.688,68.334,0.1043,-0.22435000000000002,-2.0300000000000002,100.0,1.0,1.0,210.64666666666668,0.0,0.0,0.0,0.0,0.0,0.0,0.0,8928.6,0.0,55.0,5.0,245.97666666666666,0.0,0.0,0.0,0.0,0.0,0.0,0.0,0.0,1.0079999999999991,1.0079999999999991,0.0,0.0,0.0,55.0,616.79921,10000.0,85.000001,85.000001,85.000001,85.000001,395.0,0.0,0.0,0.0,1.0,166.665,52.765,52.765,46.936,46.936,34.0,-16.055,30.861666666666668,-23.116666666666664,36.36,0.0,1782.323,-1.8100000000000005,100.0,27.349,28.583,42.744,44.436,0.0,0.0,100.0,0.0,0.0,0.0,0.0,2820.142857142857,3185.6,4116.444444444444,4292.0,306.4415,304.5775,314.8225,314.04475,21.9678,20.6168,21.973399999999998,21.488599999999998,314.999998,314.999998,324.999988,324.999988,99.5592,99.50738333333334,99.56794285714285,99.54794285714286,0.23675000000000024,0.1033333333333335,0.0105,0.23116666666666666,-0.041666666666671404,-0.04333333333332945,1.5035,1.4415,38.299,29.855,38.334,35.3035,56.052,35.236,59.81,52.775,53.979,34.356,58.3855,51.091499999999996,53.131,33.8975,58.292500000000004,50.498,-0.21799999999999997,0.0605,0.10783000000000001,0.10447000000000001,0.0,213.86,213.99,210.64666666666668,210.64666666666668,0.0,0.0
21,0.0,0.0,0.0,1.0,1.0,0.0,0.0,1.0,0.0,0.0,1.0,1.1856,26.0,0.0,0.0,0.0,59.999996,0.0,26.0,26.0,26.0,26.0,0.18277777777777793,0.2781,-0.055175,292.633,-2.7474,-2.6262,-1.67765,-1.4699,-205.39999999999998,215.9425,190.5525,0.0,0.0,0.0,0.0,0.04246666666666667,-5.498166666666667,-5.498166666666667,-0.5808,0.46799999999999997,0.08612500000000001,0.09799999999999986,68.45,0.1255,-0.22967500000000002,-2.082,100.0,1.0,1.0,211.26,0.0,0.0,0.0,0.0,0.0,0.0,0.0,8954.6,0.0,55.0,5.0,246.39333333333335,1.0,0.0,0.0,0.0,0.0,0.0,0.0,0.0,1.0530000000000008,1.0530000000000008,0.0,0.0,1.0,55.0,616.79921,10000.0,85.000001,85.000001,85.000001,85.000001,395.0,0.0,0.0,0.0,1.0,166.665,52.124,52.124,48.400999999999996,48.400999999999996,34.0,-18.0225,30.981666666666666,-20.196666666666665,34.25,0.0,1782.276,-0.8500000000000014,100.0,27.735,28.648,42.133,43.946,0.0,0.0,100.0,0.0,0.0,0.0,0.0,2931.714285714286,3322.1,3842.1111111111113,4085.3,305.8405,304.24975,315.6025,314.79425,21.9761,20.622,21.9824,21.4966,314.999998,314.999998,324.999988,324.999988,99.55922857142858,99.5074,99.56807142857143,99.54808571428572,0.19724999999999993,0.06266666666666643,0.03816666666666667,0.262,-0.03333333333333144,-0.061666666666667425,1.6385,1.558,38.351,29.8875,38.39,35.3535,56.046,35.2765,59.837,52.8285,53.973,34.3935,58.411,51.1435,53.123999999999995,33.9335,58.315,50.549,-0.15100000000000002,-0.008000000000000007,0.11318500000000001,0.10730500000000001,0.0,214.22500000000002,214.41,211.26,211.26,0.0,0.0
22,0.0,0.0,0.0,1.0,1.0,0.0,0.0,1.0,0.0,0.0,1.0,1.1856,26.0,0.0,0.0,0.0,59.999996,0.0,26.0,26.0,26.0,26.0,0.1647777777777779,0.2602,0.037200000000000004,292.084,-2.7286,-2.6313,-1.66175,-1.5213,-201.91,215.95,190.528625,0.0,0.0,0.0,0.0,0.044500000000000005,-5.498166666666667,-5.498166666666667,-0.5572,0.14249999999999996,0.078125,-0.6890000000000001,68.589,0.1312,-0.20695000000000002,-0.806,100.0,1.0,1.0,211.46666666666667,0.0,0.0,0.0,0.0,0.0,0.0,0.0,8963.3,0.0,55.0,5.0,246.89333333333335,0.0,0.0,0.0,0.0,0.0,0.0,0.0,0.0,1.1039999999999992,1.1039999999999992,0.0,0.0,0.0,55.0,616.79921,10000.0,85.000001,85.000001,85.000001,85.000001,395.0,0.0,0.0,0.0,1.0,166.665,52.216,52.216,47.195,47.195,34.0,-20.232499999999998,26.953333333333333,-24.516666666666666,36.7475,0.0,1782.226,0.41000000000000014,100.0,27.676000000000002,28.806,42.503,44.203,0.0,0.0,100.0,0.0,0.0,0.0,0.0,2966.0,3156.7,4204.555555555556,4317.1,305.8775,304.533,314.714,314.10425,21.9854,20.6278,21.9929,21.5059,314.999998,314.999998,324.999988,324.999988,99.55925714285715,99.5074,99.56821428571429,99.54822857142857,0.14375000000000027,-0.0006666666666665932,0.007833333333333333,0.23716666666666666,-0.05333333333332746,-0.045000000000001705,1.492,1.4665,38.409,29.9235,38.455,35.411500000000004,56.036,35.317,59.876,52.8935,53.963,34.431,58.4465,51.206,53.111999999999995,33.97,58.3475,50.61033333333333,-0.0615,-0.09549999999999992,0.108725,0.10403000000000001,0.0,214.72500000000002,214.78,211.46666666666667,211.46666666666667,0.0,0.0
23,0.0,0.0,0.0,1.0,1.0,0.0,0.0,1.0,0.0,0.0,1.0,1.1856,26.0,0.0,0.0,0.0,59.999996,0.0,26.0,26.0,26.0,26.0,0.07744444444444443,0.2553000000000001,-0.005350000000000001,292.068,-2.738,-2.6028000000000002,-1.5704500000000001,-1.5552000000000001,-198.39999999999998,215.95749999999998,190.50525,0.0,0.0,0.0,0.0,0.046533333333333336,-5.498166666666667,-5.498166666666667,-0.5760000000000001,-0.39949999999999997,0.05699999999999994,0.052000000000000046,68.723,0.0888,-0.23295000000000002,0.38400000000000034,100.0,1.0,1.0,211.95,0.0,0.0,0.0,0.0,0.0,0.0,0.0,8983.7,0.0,55.0,5.0,247.38,1.0,0.0,0.0,0.0,0.0,0.0,0.0,0.0,1.1550000000000011,1.1550000000000011,0.0,0.0,1.0,55.0,616.79921,10000.0,85.000001,85.000001,85.000001,85.000001,395.0,0.0,0.0,0.0,1.0,166.665,51.697,51.697,48.004,48.004,34.0,-24.32,26.005,-23.286666666666665,32.39,0.0,1782.175,0.7600000000000016,100.0,28.121,28.544,42.921,44.259,0.0,0.0,100.0,0.0,0.0,0.0,0.0,3198.4285714285716,3263.2,3922.8888888888887,4082.7,305.164,304.5095,315.22575,314.6915,21.994799999999998,20.6336,22.0033,21.5152,314.999998,314.999998,324.999988,324.999988,99.55925714285715,99.5074,99.56835714285714,99.54837142857143,0.09750000000000014,-0.03200000000000003,-0.02866666666666667,0.1925,-0.03833333333332689,-0.06499999999999773,1.511,1.5125,38.467,29.96,38.521,35.47,56.022999999999996,35.3565,59.912,52.957499999999996,53.95,34.468,58.4805,51.268,53.099000000000004,34.004999999999995,58.3775,50.671,-0.01749999999999996,-0.14050000000000007,0.10218500000000001,0.10594,0.0,215.14499999999998,215.155,211.95,211.95,0.0,0.0
24,0.0,0.0,0.0,1.0,1.0,0.0,0.0,1.0,0.0,0.0,1.0,1.1856,26.0,0.0,0.0,0.0,59.999996,0.0,26.0,26.0,26.0,26.0,-0.0023333333333332984,0.2803,0.0046,292.374,-2.7326,-2.6428000000000003,-1.58655,-1.5209000000000001,-194.89999999999998,215.97,190.48125,0.0,0.0,0.0,0.0,0.04856666666666667,-5.498166666666667,-5.498166666666667,-0.5792,-0.5105,0.03237500000000004,-0.657,68.85900000000001,0.0313,-0.216375,0.9960000000000004,100.0,1.0,1.0,212.29333333333335,0.0,0.0,0.0,0.0,0.0,0.0,0.0,8998.4,0.0,55.0,5.0,247.86666666666667,0.0,0.0,0.0,0.0,0.0,0.0,0.0,0.0,1.2059999999999995,1.2059999999999995,0.0,0.0,0.0,55.0,616.79921,10000.0,85.000001,85.000001,85.000001,85.000001,395.0,0.0,0.0,0.0,1.0,166.665,52.887,52.887,47.073,47.073,34.0,-24.085,21.39,-30.85333333333333,28.1375,0.0,1782.123,0.875,100.0,27.926000000000002,28.256999999999998,43.102000000000004,43.93,0.0,0.0,100.0,0.0,0.0,0.0,0.0,2960.0,2936.9,4352.444444444444,4110.2,305.967,305.41775,314.30125,314.68225,22.0042,20.6391,22.0138,21.5243,314.999998,314.999998,324.999988,324.999988,99.55927142857144,99.5074,99.56851428571429,99.54852857142858,0.047499999999999876,-0.08399999999999985,-0.105,0.1145,-0.06333333333333258,-0.02499999999999858,1.496,1.523,38.525999999999996,29.994500000000002,38.586,35.527,56.007999999999996,35.394999999999996,59.949,53.0175,53.936,34.5035,58.5145,51.326,53.083,34.039500000000004,58.409,50.727666666666664,-0.0050000000000000044,-0.15050000000000008,0.103425,0.10844500000000001,0.0,215.615,215.51999999999998,212.29333333333335,212.29333333333335,0.0,0.0
25,0.0,0.0,0.0,1.0,1.0,0.0,0.0,1.0,0.0,0.0,1.0,1.1856,26.0,0.0,0.0,0.0,59.999996,0.0,26.0,26.0,26.0,26.0,-0.04466666666666663,0.2631000000000001,-0.04685,292.404,-2.768,-2.6356,-1.5752000000000002,-1.5506,-191.59,215.98000000000002,190.4575,0.0,0.0,0.0,0.0,0.050466666666666674,-5.498166666666667,-5.498166666666667,-0.6131,-0.09299999999999997,0.006124999999999936,-1.634,68.983,-0.0211,-0.22817500000000002,1.3920000000000012,100.0,1.0,1.0,212.83333333333331,0.0,0.0,0.0,0.0,0.0,0.0,0.0,9021.2,0.0,55.0,5.0,248.31333333333333,1.0,0.0,0.0,0.0,0.0,0.0,0.0,0.0,1.2540000000000013,1.2540000000000013,0.0,0.0,1.0,55.0,616.79921,10000.0,85.000001,85.000001,85.000001,85.000001,395.0,0.0,0.0,0.0,1.0,111.11,51.987,51.987,47.928,47.928,34.0,-28.627499999999998,22.134999999999998,-29.663333333333334,24.57,0.0,1782.077,0.879999999999999,100.0,28.058,28.259999999999998,43.152,43.388,0.0,0.0,100.0,0.0,0.0,0.0,0.0,3285.714285714286,3171.8,3997.6666666666665,3941.7,305.148,304.67775,315.20775,315.13025,22.012999999999998,20.6444,22.023600000000002,21.5328,314.999998,314.999998,324.999988,324.999988,99.55928571428572,99.50741666666667,99.56864285714286,99.54867142857142,0.01849999999999996,-0.11133333333333328,-0.15166666666666667,0.06866666666666667,-0.04833333333333201,-0.05833333333333002,1.552,1.5985,38.581,30.0275,38.647,35.58,55.991,35.4345,59.982,53.0715,53.92,34.54,58.545500000000004,51.3775,53.067,34.0745,58.4365,50.778333333333336,-0.013000000000000012,-0.14650000000000007,0.10299000000000001,0.10504500000000001,0.0,216.005,215.9,212.83333333333331,212.83333333333331,0.0,0.0
26,0.0,0.0,0.0,1.0,1.0,0.0,0.0,1.0,0.0,0.0,1.0,1.1856,26.0,0.0,0.0,0.0,59.999996,0.0,26.0,26.0,26.0,26.0,-0.11299999999999999,0.28059999999999996,0.064975,291.138,-2.6745,-2.7528,-1.58895,-1.5819,-187.86,215.99,190.430125,0.0,0.0,0.0,0.0,0.05263333333333334,-5.498166666666667,-5.498166666666667,-0.5699000000000001,0.6845,-0.05149999999999988,-1.373,69.127,-0.0682,-0.195825,1.5259999999999998,100.0,1.0,1.0,213.00666666666666,0.0,0.0,0.0,0.0,0.0,0.0,0.0,9028.6,0.0,55.0,5.0,248.82999999999998,0.0,0.0,0.0,0.0,0.0,0.0,0.0,0.0,1.3079999999999998,1.3079999999999998,0.0,0.0,0.0,55.0,616.79921,10000.0,85.000001,85.000001,85.000001,85.000001,395.0,0.0,0.0,0.0,1.0,166.665,51.422,51.422,46.126999999999995,46.126999999999995,34.0,-29.3125,20.085,-38.91,27.085,0.0,1782.021,0.7050000000000018,100.0,29.172,28.665,44.028,43.481,0.0,0.0,100.0,0.0,0.0,0.0,0.0,3332.285714285714,2951.3,4670.888888888889,4398.3,304.8495,305.2035,313.63,314.02625,22.0233,20.6504,22.0348,21.5425,314.999998,314.999998,324.999988,324.999988,99.55928571428572,99.50743333333334,99.56881428571428,99.54881428571429,-0.0009999999999998899,-0.14700000000000002,-0.1895,0.03383333333333333,-0.046666666666666856,-0.045000000000001705,1.417,1.4685,38.646,30.064999999999998,38.718,35.6405,55.977999999999994,35.4825,60.0255,53.1355,53.907,34.584,58.586,51.439,53.053,34.1165,58.474000000000004,50.83833333333333,-0.02949999999999997,-0.14149999999999996,0.10208,0.11113,0.0,216.5,216.38,213.00666666666666,213.00666666666666,0.0,0.0
27,0.0,0.0,0.0,1.0,1.0,0.0,0.0,1.0,0.0,0.0,1.0,1.1856,26.0,0.0,0.0,0.0,59.999996,0.0,26.0,26.0,26.0,26.0,-0.12111111111111106,0.2622,-0.0234,291.58,-2.6183,-2.7447,-1.56195,-1.6701000000000001,-184.54,215.9975,190.407,0.0,0.0,0.0,0.0,0.054566666666666666,-5.498166666666667,-5.498166666666667,-0.5987,-1.0615,-0.06925000000000026,-0.831,69.251,-0.0916,-0.24432500000000001,1.4060000000000006,100.0,1.0,1.0,213.51,0.0,0.0,0.0,0.0,0.0,0.0,0.0,9049.9,0.0,55.0,5.0,249.28,1.0,0.0,0.0,0.0,0.0,0.0,0.0,0.0,1.355999999999998,1.355999999999998,0.0,0.0,1.0,55.0,616.79921,10000.0,85.000001,85.000001,85.000001,85.000001,395.0,0.0,0.0,0.0,1.0,166.665,51.712,51.712,46.707,46.707,34.0,-29.46,19.631666666666668,-35.10333333333333,23.7275,0.0,1781.974,0.5749999999999993,100.0,28.996,28.28,44.874,43.819,0.0,0.0,100.0,0.0,0.0,0.0,0.0,3319.142857142857,2974.7,4203.444444444444,3957.5,304.8755,305.258,314.65975,314.9505,22.0322,20.6555,22.045,21.5513,314.999998,314.999998,324.999988,324.999988,99.55928571428572,99.50745,99.56895714285714,99.54895714285715,-0.01849999999999996,-0.15766666666666662,-0.2185,0.009666666666666665,-0.04833333333333201,-0.05666666666667197,1.4975,1.541,38.701,30.097,38.781,35.695499999999996,55.963,35.5225,60.0655,53.192499999999995,53.893,34.621,58.6235,51.494,53.038,34.152,58.5085,50.891666666666666,-0.03500000000000003,-0.12650000000000006,0.10992,0.10816,0.0,216.81,216.70499999999998,213.51,213.51,0.0,0.0
28,0.0,0.0,0.0,1.0,1.0,0.0,0.0,1.0,0.0,0.0,1.0,1.1856,26.0,0.0,0.0,0.0,59.999996,0.0,26.0,26.0,26.0,26.0,-0.1426666666666666,0.25860000000000016,-0.06155,291.84,-2.6348,-2.7401,-1.5036,-1.6362999999999999,-181.0,216.0,190.381625,0.0,0.0,0.0,0.0,0.05663333333333334,-5.498166666666667,-5.498166666666667,-0.5999,0.6925,-0.07737499999999997,0.6960000000000002,69.381,-0.1032,-0.215,1.1980000000000004,100.0,1.0,1.0,214.0,0.0,0.0,0.0,0.0,0.0,0.0,0.0,9070.6,0.0,55.0,5.0,249.74666666666667,0.0,0.0,0.0,0.0,0.0,0.0,0.0,0.0,1.407,1.407,0.0,0.0,0.0,55.0,616.79921,10000.0,85.000001,85.000001,85.000001,85.000001,395.0,0.0,0.0,0.0,1.0,166.665,51.788,51.788,47.47,47.47,34.0,-28.955,20.046666666666667,-33.7,24.005,0.0,1781.922,0.40000000000000213,100.0,29.312,27.97,44.321,43.08,0.0,0.0,100.0,0.0,0.0,0.0,0.0,3262.0,3000.1,4169.111111111111,4088.7,304.8955,305.3405,314.802,314.803,22.0419,20.661,22.0553,21.560200000000002,314.999998,314.999998,324.999988,324.999988,99.55928571428572,99.50748333333334,99.5691,99.54911428571428,-0.012249999999999872,-0.1476666666666666,-0.21616666666666667,0.009833333333333335,-0.03333333333333144,-0.04999999999999716,1.5135,1.5465,38.762,30.1315,38.846000000000004,35.7515,55.949,35.566,60.1015,53.248,53.879999999999995,34.661500000000004,58.657,51.547,53.024,34.1905,58.539,50.943666666666665,-0.04799999999999993,-0.11149999999999993,0.10819500000000001,0.11622,0.0,217.26,217.16,214.0,214.0,0.0,0.0
29,0.0,0.0,0.0,1.0,1.0,0.0,0.0,1.0,0.0,0.0,1.0,1.1856,26.0,0.0,0.0,0.0,59.999996,0.0,26.0,26.0,26.0,26.0,-0.1373333333333333,0.2532000000000001,0.013625,291.428,-2.5764,-2.6992000000000003,-1.5481500000000001,-1.6179000000000001,-177.67000000000002,216.0,190.35675,0.0,0.0,0.0,0.0,0.05856666666666666,-5.498166666666667,-5.498166666666667,-0.6052000000000001,-0.7775000000000001,-0.07525000000000004,0.802,69.508,-0.09910000000000001,-0.215425,0.9120000000000008,100.0,1.0,1.0,214.21333333333334,0.0,0.0,0.0,0.0,0.0,0.0,0.0,9079.7,0.0,55.0,5.0,250.20333333333335,1.0,0.0,0.0,0.0,0.0,0.0,0.0,0.0,1.4549999999999983,1.4549999999999983,0.0,0.0,1.0,55.0,616.79921,10000.0,85.000001,85.000001,85.000001,85.000001,395.0,0.0,0.0,0.0,1.0,111.11,51.650999999999996,51.650999999999996,46.402,46.402,34.0,-28.5625,21.46666666666667,-35.36666666666667,25.335,0.0,1781.875,0.33999999999999986,100.0,29.009999999999998,27.779,44.792,43.309,0.0,0.0,100.0,0.0,0.0,0.0,0.0,3296.142857142857,3208.0,4305.888888888889,4216.9,304.7985,304.79825,314.31125,314.44775,22.0507,20.6661,22.0654,21.5689,314.999998,314.999998,324.999988,324.999988,99.55928571428572,99.5075,99.56925714285714,99.54924285714286,-0.008000000000000007,-0.14100000000000001,-0.19916666666666666,0.018166666666666668,-0.04333333333332945,-0.04333333333332945,1.4505,1.4989999999999999,38.817,30.163,38.908,35.806,55.934,35.6055,60.1415,53.3045,53.866,34.6975,58.6945,51.6015,53.009,34.225,58.573499999999996,50.99633333333333,-0.05599999999999994,-0.10299999999999998,0.10147,0.10817500000000001,0.0,217.60500000000002,217.51999999999998,214.21333333333334,214.21333333333334,0.0,0.0
30,0.0,0.0,0.0,1.0,1.0,0.0,0.0,1.0,0.0,0.0,1.0,1.1856,26.0,0.0,0.0,0.0,59.999996,0.0,26.0,26.0,26.0,26.0,-0.1123333333333334,0.2713000000000001,0.0284,291.031,-2.6378,-2.6779,-1.4814500000000002,-1.6909,-174.12,215.9975,190.33025,0.0,0.0,0.0,0.0,0.06063333333333334,-5.498166666666667,-5.498166666666667,-0.6033000000000001,0.8195,-0.07900000000000018,-0.645,69.637,-0.09040000000000001,-0.218175,0.9060000000000006,100.0,1.0,1.0,214.67000000000002,0.0,0.0,0.0,0.0,0.0,0.0,0.0,9099.1,0.0,55.0,5.0,250.66666666666666,0.0,0.0,0.0,0.0,0.0,0.0,1.0,0.0,1.5060000000000002,1.5060000000000002,0.0,0.0,0.0,55.0,616.79921,10000.0,85.000001,85.000001,85.000001,85.000001,395.0,0.0,0.0,0.0,1.0,166.665,50.812,50.812,46.844,46.844,34.0,-30.490000000000002,19.788333333333334,-35.33333333333333,25.835,0.0,1781.823,0.17999999999999972,100.0,29.761,28.712,44.544,43.44,0.0,0.0,100.0,0.0,0.0,0.0,0.0,3517.4285714285716,2969.2,4367.111111111111,4165.3,304.27,305.18775,314.31725,314.456,22.0605,20.6718,22.0758,21.5781,314.999998,314.999998,324.999988,324.999988,99.5593,99.5075,99.5694,99.5494,0.008000000000000007,-0.14066666666666672,-0.21133333333333335,0.012833333333333334,-0.05666666666667197,-0.02833333333332888,1.4685,1.508,38.878,30.198999999999998,38.974000000000004,35.863,55.922,35.6505,60.179,53.363,53.855000000000004,34.7395,58.730000000000004,51.657,52.997,34.265,58.6055,51.050666666666665,-0.07650000000000001,-0.09450000000000003,0.10380500000000001,0.10994000000000001,0.0,218.04500000000002,217.97,214.67000000000002,214.67000000000002,0.0,0.0
31,0.0,0.0,0.0,1.0,1.0,0.0,0.0,1.0,0.0,0.0,1.0,1.1856,26.0,0.0,0.0,0.0,59.999996,0.0,26.0,26.0,26.0,26.0,-0.11411111111111105,0.26260000000000017,0.0026000000000000003,291.016,-2.6345,-2.7537000000000003,-1.5703,-1.663,-170.76999999999998,215.99,190.306,0.0,0.0,0.0,0.0,0.06256666666666666,-5.498166666666667,-5.498166666666667,-0.5889,-0.5165,-0.06862499999999994,-0.7969999999999999,69.761,-0.0748,-0.219675,0.48600000000000065,100.0,1.0,1.0,214.94,0.0,0.0,0.0,0.0,0.0,0.0,0.0,9110.5,0.0,55.0,5.0,251.11666666666667,1.0,0.0,0.0,0.0,0.0,0.0,1.0,0.0,1.5539999999999985,1.5539999999999985,0.0,0.0,1.0,55.0,616.79921,10000.0,85.000001,85.000001,85.000001,85.000001,395.0,0.0,0.0,0.0,1.0,166.665,51.559,51.559,45.425,45.425,34.0,-26.8325,20.53333333333333,-36.82666666666667,26.5075,0.0,1781.775,0.13500000000000156,100.0,29.381999999999998,28.757,45.139,44.021,0.0,0.0,100.0,0.0,0.0,0.0,0.0,3166.0,2973.1,4506.333333333333,4217.9,305.348,305.18075,313.97475,314.46175,22.0694,20.6771,22.086,21.5869,314.999998,314.999998,324.999988,324.999988,99.5593,99.50753333333333,99.56955714285715,99.54952857142857,0.009749999999999925,-0.1399999999999999,-0.188,0.025833333333333333,-0.045000000000001705,-0.023333333333326323,1.455,1.4745,38.934,30.232,39.037,35.9185,55.908,35.6915,60.2195,53.420500000000004,53.841,34.777,58.7675,51.713,52.983000000000004,34.301,58.6405,51.105000000000004,-0.07699999999999996,-0.09450000000000003,0.10848000000000001,0.09928500000000001,0.0,218.375,218.32999999999998,214.94,214.94,0.0,0.0
32,0.0,0.0,0.0,1.0,1.0,0.0,0.0,1.0,0.0,0.0,1.0,1.1856,26.0,0.0,0.0,0.0,59.999996,0.0,26.0,26.0,26.0,26.0,-0.0802222222222222,0.2622,-0.047325,291.275,-2.6414999999999997,-2.6984,-1.5961,-1.5695000000000001,-167.0,215.98000000000002,190.278875,0.0,0.0,0.0,0.0,0.06476666666666667,-5.498166666666667,-5.498166666666667,-0.6103000000000001,0.1945,-0.08999999999999986,-0.798,69.896,-0.0608,-0.22975,0.5279999999999996,100.0,1.0,1.0,215.52666666666667,0.0,0.0,0.0,0.0,0.0,0.0,0.0,9135.3,0.0,55.0,5.0,251.59666666666666,0.0,0.0,0.0,0.0,0.0,0.0,1.0,0.0,1.6080000000000005,1.6080000000000005,0.0,0.0,0.0,55.0,616.79921,10000.0,85.000001,85.000001,85.000001,85.000001,395.0,0.0,0.0,0.0,1.0,166.665,51.178,51.178,46.722,46.722,34.0,-28.1175,21.689999999999998,-33.88666666666667,25.09,0.0,1781.723,0.05999999999999872,100.0,29.354,28.773,44.698,43.754,0.0,0.0,100.0,0.0,0.0,0.0,0.0,3410.5714285714284,3021.1,4267.444444444444,4133.2,304.6515,305.11075,314.649,314.755,22.0795,20.6831,22.097,21.5966,314.999998,314.999998,324.999988,324.999988,99.55931428571428,99.50755,99.5697,99.54968571428572,0.03500000000000014,-0.10799999999999987,-0.179,0.043500000000000004,-0.051666666666669414,-0.046666666666666856,1.521,1.552,38.997,30.2695,39.107,35.979,55.893,35.7375,60.257999999999996,53.481,53.827,34.8195,58.804,51.7705,52.967,34.341499999999996,58.6735,51.16133333333333,-0.08499999999999996,-0.08350000000000013,0.10617000000000001,0.103205,0.0,218.82,218.755,215.52666666666667,215.52666666666667,0.0,0.0
33,0.0,0.0,0.0,1.0,1.0,0.0,0.0,1.0,0.0,0.0,1.0,1.1856,26.0,0.0,0.0,0.0,59.999996,0.0,26.0,26.0,26.0,26.0,-0.07566666666666666,0.26239999999999997,-0.039025000000000004,291.397,-2.6555,-2.7326,-1.56165,-1.584,-163.86,215.9725,190.255375,0.0,0.0,0.0,0.0,0.0666,-5.498166666666667,-5.498166666666667,-0.6115,-0.3075000000000001,-0.07762499999999983,1.287,70.011,-0.051800000000000006,-0.21485,0.3020000000000005,100.0,1.0,1.0,215.76666666666665,0.0,0.0,0.0,0.0,0.0,0.0,0.0,9145.6,0.0,55.0,5.0,252.01333333333332,1.0,0.0,0.0,0.0,0.0,0.0,1.0,0.0,1.6529999999999987,1.6529999999999987,0.0,0.0,1.0,55.0,616.79921,10000.0,85.000001,85.000001,85.000001,85.000001,395.0,0.0,0.0,0.0,1.0,166.665,51.849000000000004,51.849000000000004,46.402,46.402,34.0,-25.1675,22.323333333333334,-33.623333333333335,27.9525,0.0,1781.675,-0.06500000000000128,100.0,29.261,28.338,44.734,43.777,0.0,0.0,100.0,0.0,0.0,0.0,0.0,3128.857142857143,3034.9,4309.444444444444,4301.6,305.378,305.25675,314.4165,314.31,22.0878,20.6879,22.1063,21.6048,314.999998,314.999998,324.999988,324.999988,99.55931428571428,99.50756666666666,99.56984285714286,99.54982857142858,0.047250000000000014,-0.09799999999999986,-0.16733333333333333,0.0635,-0.05333333333332746,-0.045000000000001705,1.4775,1.4905,39.049,30.299500000000002,39.165,36.03,55.879000000000005,35.774,60.294,53.537,53.814,34.8535,58.8375,51.8245,52.954,34.374,58.704,51.21366666666667,-0.08799999999999997,-0.07200000000000006,0.10745,0.10354000000000001,0.0,219.16500000000002,219.12,215.76666666666665,215.76666666666665,0.0,0.0
34,0.0,0.0,0.0,1.0,1.0,0.0,0.0,1.0,0.0,0.0,1.0,1.1856,26.0,0.0,0.0,0.0,59.999996,0.0,26.0,26.0,26.0,26.0,-0.06066666666666665,0.24880000000000013,-0.056175,291.763,-2.6708,-2.7021,-1.5986500000000001,-1.6021,-160.07,215.95749999999998,190.225875,0.0,0.0,0.0,0.0,0.0688,-5.498166666666667,-5.498166666666667,-0.6446000000000001,-0.7530000000000001,-0.042749999999999844,1.1480000000000001,70.147,-0.0398,-0.227575,0.23399999999999999,100.0,1.0,1.0,216.26333333333332,0.0,0.0,0.0,0.0,0.0,0.0,0.0,9166.6,0.0,55.0,5.0,252.50333333333333,0.0,0.0,0.0,0.0,0.0,0.0,1.0,0.0,1.7070000000000007,1.7070000000000007,0.0,0.0,0.0,55.0,616.79921,10000.0,85.000001,85.000001,85.000001,85.000001,395.0,0.0,0.0,0.0,1.0,166.665,52.063,52.063,47.363,47.363,34.0,-24.634999999999998,22.638333333333335,-30.523333333333333,28.0775,0.0,1781.622,-0.07000000000000028,100.0,28.961,28.073,44.418,43.916,0.0,0.0,100.0,0.0,0.0,0.0,0.0,3093.714285714286,3036.0,4060.0,4149.9,305.298,305.2655,315.034,314.6225,22.0977,20.6938,22.1174,21.6146,314.999998,314.999998,324.999988,324.999988,99.55931428571428,99.50756666666666,99.56998571428572,99.54998571428571,0.06099999999999994,-0.08366666666666678,-0.1475,0.08483333333333333,-0.041666666666671404,-0.05333333333332746,1.533,1.5235,39.11,30.336,39.233999999999995,36.091,55.864000000000004,35.813,60.329,53.596000000000004,53.799,34.8895,58.87,51.881,52.938,34.408,58.7335,51.269,-0.09799999999999998,-0.06750000000000012,0.102915,0.11130500000000002,0.0,219.54500000000002,219.51999999999998,216.26333333333332,216.26333333333332,0.0,0.0
35,0.0,0.0,0.0,1.0,1.0,0.0,0.0,1.0,0.0,0.0,1.0,1.1856,26.0,0.0,0.0,0.0,59.999996,0.0,26.0,26.0,26.0,26.0,-0.05844444444444441,0.26239999999999997,-0.038125,291.763,-2.7303,-2.6648,-1.57245,-1.6073,-156.7,215.945,190.197625,0.0,0.0,0.0,0.0,0.07076666666666667,-5.498166666666667,-5.498166666666667,-0.6848000000000001,-0.536,-0.046499999999999986,-0.18100000000000005,70.266,-0.028800000000000003,-0.230325,0.10799999999999965,100.0,1.0,1.0,216.67666666666668,0.0,0.0,0.0,0.0,0.0,0.0,0.0,9184.1,0.0,55.0,5.0,252.93333333333334,1.0,0.0,0.0,0.0,0.0,0.0,1.0,0.0,1.754999999999999,1.754999999999999,0.0,0.0,1.0,55.0,616.79921,10000.0,85.000001,85.000001,85.000001,85.000001,395.0,0.0,0.0,0.0,1.0,111.11,51.666,51.666,46.86,46.86,34.0,-26.16,25.093333333333334,-29.726666666666667,26.59,0.0,1781.576,-0.07499999999999929,100.0,28.663,28.317,44.143,43.525,0.0,0.0,100.0,0.0,0.0,0.0,0.0,3197.4285714285716,3325.2,4061.8888888888887,3980.9,305.3185,304.35775,314.9535,315.02825,22.1063,20.6991,22.1271,21.6232,314.999998,314.999998,324.999988,324.999988,99.55932857142857,99.50758333333333,99.57014285714286,99.55011428571429,0.05125000000000002,-0.07766666666666677,-0.1365,0.08283333333333333,-0.05333333333332746,-0.05333333333332746,1.541,1.546,39.164,30.369500000000002,39.294,36.1445,55.847,35.851,60.3615,53.6485,53.784,34.924,58.9005,51.9315,52.922,34.4415,58.760999999999996,51.318,-0.08550000000000002,-0.07400000000000007,0.10739000000000001,0.101305,0.0,219.91500000000002,219.89499999999998,216.67666666666668,216.67666666666668,0.0,0.0
36,0.0,0.0,0.0,1.0,1.0,0.0,0.0,1.0,0.0,0.0,1.0,1.1856,26.0,0.0,0.0,0.0,59.999996,0.0,26.0,26.0,26.0,26.0,-0.03433333333333333,0.26990000000000003,0.06507500000000001,290.756,-2.7283,-2.645,-1.53665,-1.6065,-153.10999999999999,215.93,190.166125,0.0,0.0,0.0,0.0,0.07283333333333335,-5.498166666666667,-5.498166666666667,-0.6651,0.3065,-0.08912500000000012,-1.326,70.396,-0.0216,-0.200825,0.26400000000000023,100.0,1.0,1.0,216.84,0.0,0.0,0.0,0.0,0.0,0.0,0.0,9191.1,0.0,55.0,5.0,253.4,0.0,0.0,0.0,0.0,0.0,0.0,1.0,0.0,1.806000000000001,1.806000000000001,0.0,0.0,0.0,55.0,616.79921,10000.0,85.000001,85.000001,85.000001,85.000001,395.0,0.0,0.0,0.0,1.0,166.665,51.163,51.163,46.158,46.158,34.0,-27.5975,23.14333333333333,-33.766666666666666,31.7875,0.0,1781.525,-0.09499999999999886,100.0,29.137,28.88,44.214,43.881,0.0,0.0,100.0,0.0,0.0,0.0,0.0,3436.0,3081.0,4554.444444444444,4498.0,304.684,304.97525,313.88025,313.77125,22.1157,20.7049,22.1376,21.6324,314.999998,314.999998,324.999988,324.999988,99.55932857142857,99.50758333333333,99.57028571428572,99.55027142857143,0.06725000000000003,-0.07299999999999995,-0.13366666666666666,0.091,-0.05833333333333002,-0.03166666666666629,1.439,1.4364999999999999,39.223,30.406,39.36,36.2025,55.835,35.893,60.399,53.707499999999996,53.772,34.963,58.9355,51.989,52.91,34.479,58.792500000000004,51.373666666666665,-0.09399999999999997,-0.07150000000000012,0.10415,0.11514500000000001,0.0,220.38,220.315,216.84,216.84,0.0,0.0
