,ABS Active,ABS Enabled,AID Allow Tire Blankets,AID Auto Blip,AID Auto Clutch,AID Auto Shift,AID Fuel Rate,AID Ideal Line,AID Mech Damage,AID Stability,AID Tire Wear Rate,Air Density,Air Temp,Ballast,Best Lap Delta,Best Lap Time,Brake Bias,Brake Pos,Brake Temp FL,Brake Temp FR,Brake Temp RL,Brake Temp RR,CG Accel Lateral,CG Accel Longitudinal,CG Accel Vertical,CG Height,Camber FL,Camber FR,Camber RL,Camber RR,Car Coord X,Car Coord Y,Car Coord Z,Car Damage Front,Car Damage Left,Car Damage Rear,Car Damage Right,Car Pos Norm,Caster FL,Caster FR,Chassis Pitch Angle,Chassis Pitch Rate,Chassis Roll Angle,Chassis Roll Rate,Chassis Velocity X,Chassis Velocity Y,Chassis Velocity Z,Chassis Yaw Rate,Clutch Pos,DRS Active,DRS Available,Drive Train Speed,ERS Heat Charging,ERS Is Charging,ERS Max Energy,ERS Power Level,ERS Recovery Level,Engine Brake Setting,Engine Limiter,Engine RPM,Flags,Fuel Level,Gear,Ground Speed,HR Sample Clock,In Pit,KERS Charge,KERS Deployed Energy,KERS Input,KERS Max Energy,LR Sample Clock,Lap Invalidated,Lap Time,Lap Time2,Last Lap Time,Last Sector Time,MR Sample Clock,Max Fuel,Max Power,Max RPM,Max Sus Travel FL,Max Sus Travel FR,Max Sus Travel RL,Max Sus Travel RR,Max Torque,Max Turbo Boost,Num Tires Off Track,Penalties Enabled,Position,Raw Data Sample Rate,Ride Height FL,Ride Height FR,Ride Height RL,Ride Height RR,Road Temp,Self Align Torque FL,Self Align Torque FR,Self Align Torque RL,Self Align Torque RR,Session Lap Count,Session Time Left,Steering Angle,Surface Grip,Suspension Travel FL,Suspension Travel FR,Suspension Travel RL,Suspension Travel RR,TC Active,TC Enabled,Throttle Pos,Tire Dirt Level FL,Tire Dirt Level FR,Tire Dirt Level RL,Tire Dirt Level RR,Tire Load FL,Tire Load FR,Tire Load RL,Tire Load RR,Tire Loaded Radius FL,Tire Loaded Radius FR,Tire Loaded Radius RL,Tire Loaded Radius RR,Tire Pressure FL,Tire Pressure FR,Tire Pressure RL,Tire Pressure RR,Tire Radius FL,Tire Radius FR,Tire Radius RL,Tire Radius RR,Tire Rubber Grip FL,Tire Rubber Grip FR,Tire Rubber Grip RL,Tire Rubber Grip RR,Tire Slip Angle FL,Tire Slip Angle FR,Tire Slip Angle RL,Tire Slip Angle RR,Tire Slip Ratio FL,Tire Slip Ratio FR,Tire Slip Ratio RL,Tire Slip Ratio RR,Tire Temp Core FL,Tire Temp Core FR,Tire Temp Core RL,Tire Temp Core RR,Tire Temp Inner FL,Tire Temp Inner FR,Tire Temp Inner RL,Tire Temp Inner RR,Tire Temp Middle FL,Tire Temp Middle FR,Tire Temp Middle RL,Tire Temp Middle RR,Tire Temp Outer FL,Tire Temp Outer FR,Tire Temp Outer RL,Tire Temp Outer RR,Toe In FL,Toe In FR,Toe In RL,Toe In RR,Turbo Boost,Wheel Angular Speed FL,Wheel Angular Speed FR,Wheel Angular Speed RL,Wheel Angular Speed RR,Wind Direction,Wind Speed
0,0.0,0.0,0.0,1.0,1.0,0.0,0.0,1.0,0.0,0.0,1.0,1.1856,26.0,0.0,0.0,0.0,59.99999,0.0,26.0,26.0,26.0,26.0,-0.08666666666666656,0.31400000000000006,0.046425,293.762,-2.71555,-2.6538,-1.517,-1.5601,-275.44,216.2975,190.986,0.0,0.0,0.0,0.0,0.0017333333333333333,-5.498166666666667,-5.498166666666667,-0.5429,1.6035,-0.01188888888888906,-1.6179999999999999,65.524,-0.032,-0.209825,0.9779999999999998,100.0,1.0,1.0,202.2866666666667,0.0,0.0,0.0,0.0,0.0,0.0,0.0,8574.2,0.0,55.0,5.0,235.85666666666668,0.0,0.0,0.0,0.0,0.0,0.0,0.0,0.0,0.006000000000000227,0.006000000000000227,0.0,0.0,0.0,55.0,616.79921,10000.0,85.0,85.0,85.0,85.0,395.0,0.0,0.0,0.0,1.0,20.0,52.521,52.521,49.088,49.088,34.0,-26.0625,23.02166666666667,-31.59,24.3325,0.0,1782.383,0.7750000000000004,100.0,27.679,27.355,40.613,40.708,0.0,0.0,100.0,0.0,0.0,0.0,0.0,3001.5714285714284,3333.7,4254.75,3973.7,305.754,304.1055,314.5585,314.896,21.788,20.5177,21.7813,21.3095,314.99999,314.99999,324.99998,324.99998,99.55937142857142,99.50726666666667,99.56564285714286,99.54501428571429,0.0030000000000001137,-0.1233333333333333,-0.16049999999999998,0.05383333333333318,-0.06833333333332803,-0.03833333333332689,1.533,1.5665,37.175,29.236,37.132999999999996,34.1845,56.443,34.5325,59.2335,51.5615,54.347,33.686,57.854,49.922,53.512,33.2335,57.818,49.348333333333336,-0.014499999999999957,-0.13850000000000007,0.11023000000000001,0.09954,0.0,205.36,205.275,202.2866666666667,202.2866666666667,0.0,0.0
1,0.0,0.0,0.0,1.0,1.0,0.0,0.0,1.0,0.0,0.0,1.0,1.1856,26.0,0.0,0.0,0.0,59.999996,0.0,26.0,26.0,26.0,26.0,-0.09588888888888891,0.3045,0.208325,292.938,-2.6366,-2.7637,-1.5519500000000002,-1.5084,-271.9,216.29250000000002,190.964875,0.0,0.0,0.0,0.0,0.0038,-5.498166666666667,-5.498166666666667,-0.5052,-1.1775000000000002,-0.05655555555555569,-1.189,65.687,-0.0489,-0.20775000000000002,1.3740000000000006,100.0,1.0,1.0,202.49666666666667,0.0,0.0,0.0,0.0,0.0,0.0,0.0,8583.2,0.0,55.0,5.0,236.44333333333333,1.0,0.0,0.0,0.0,0.0,0.0,0.0,0.0,0.05999999999999872,0.05999999999999872,0.0,0.0,1.0,55.0,616.79921,10000.0,85.000001,85.000001,85.000001,85.000001,395.0,0.0,0.0,0.0,1.0,166.665,53.329,53.329,48.37,48.37,34.0,-27.4225,18.799999999999997,-33.769999999999996,28.35,0.0,1782.327,0.9050000000000011,100.0,27.6,27.083,42.821,42.01,0.0,0.0,100.0,0.0,0.0,0.0,0.0,3163.857142857143,2754.2,4251.625,4614.4,305.3185,306.0675,314.47725,313.22625,21.7986,20.5231,21.7928,21.3192,314.999998,314.999998,324.999988,324.999988,99.55938571428571,99.50728333333333,99.5658,99.54518571428571,-0.008000000000000007,-0.1336666666666666,-0.17966666666666664,0.044499999999999984,-0.060000000000002274,-0.060000000000002274,1.4104999999999999,1.452,37.241,29.269,37.205,34.245,56.425,34.5745,59.2805,51.632,54.33,33.725,57.8985,49.9895,53.494,33.2705,57.859,49.41433333333333,-0.0050000000000000044,-0.14250000000000007,0.10724,0.11069500000000002,0.0,205.82,205.71,202.49666666666667,202.49666666666667,0.0,0.0
2,0.0,0.0,0.0,1.0,1.0,0.0,0.0,1.0,0.0,0.0,1.0,1.1856,26.0,0.0,0.0,0.0,59.999996,0.0,26.0,26.0,26.0,26.0,-0.14322222222222214,0.276,-0.076375,293.564,-2.6095,-2.7841,-1.4995500000000002,-1.5984,-268.55,216.2825,190.946,0.0,0.0,0.0,0.0,0.005733333333333334,-5.498166666666667,-5.498166666666667,-0.5474,0.519,-0.03744444444444417,2.5220000000000002,65.83,-0.07050000000000001,-0.24815,1.5820000000000007,100.0,1.0,1.0,203.39666666666668,0.0,0.0,0.0,0.0,0.0,0.0,0.0,8621.2,0.0,55.0,5.0,236.95333333333332,0.0,0.0,0.0,0.0,0.0,0.0,0.0,0.0,0.11100000000000065,0.11100000000000065,0.0,0.0,0.0,55.0,616.79921,10000.0,85.000001,85.000001,85.000001,85.000001,395.0,0.0,0.0,0.0,1.0,166.665,52.322,52.322,50.034,50.034,34.0,-28.85,20.673333333333332,-29.22,21.3375,0.0,1782.276,0.7550000000000008,100.0,28.523,27.089,42.528,41.34,0.0,0.0,100.0,0.0,0.0,0.0,0.0,3241.857142857143,3022.6,3732.125,3825.9,304.7895,305.26525,315.71175,315.43625,21.808799999999998,20.5281,21.8032,21.3278,314.999998,314.999998,324.999988,324.999988,99.55938571428571,99.5073,99.56592857142857,99.54531428571428,-0.018999999999999906,-0.1439999999999999,-0.22216666666666662,0.016000000000000014,-0.01833333333333087,-0.07166666666666544,1.625,1.6864999999999999,37.305,29.3005,37.269999999999996,34.299,56.412,34.614,59.317,51.6875,54.318,33.7615,57.9325,50.043,53.480999999999995,33.306,57.8905,49.46666666666667,-0.016000000000000014,-0.137,0.11228500000000001,0.107795,0.0,206.275,206.16,203.39666666666668,203.39666666666668,0.0,0.0
3,0.0,0.0,0.0,1.0,1.0,0.0,0.0,1.0,0.0,0.0,1.0,1.1856,26.0,0.0,0.0,0.0,59.999996,0.0,26.0,26.0,26.0,26.0,-0.1393333333333333,0.2863,-0.036000000000000004,293.381,-2.7260999999999997,-2.691,-1.5133,-1.5923,-265.58,216.2725,190.928625,0.0,0.0,0.0,0.0,0.0074666666666666675,-5.498166666666667,-5.498166666666667,-0.5084000000000001,0.37249999999999994,-0.011777777777777665,-0.994,65.964,-0.08310000000000001,-0.201525,1.2400000000000002,100.0,1.0,1.0,203.49666666666667,0.0,0.0,0.0,0.0,0.0,0.0,0.0,8625.5,0.0,55.0,5.0,237.44,1.0,0.0,0.0,0.0,0.0,0.0,0.0,0.0,0.1559999999999988,0.1559999999999988,0.0,0.0,1.0,55.0,616.79921,10000.0,85.000001,85.000001,85.000001,85.000001,395.0,0.0,0.0,0.0,1.0,166.665,53.574,53.574,48.035,48.035,34.0,-25.775,17.869999999999997,-36.05,24.7975,0.0,1782.233,0.5999999999999996,100.0,27.922,27.125,42.486000000000004,41.561,0.0,0.0,100.0,0.0,0.0,0.0,0.0,2860.5714285714284,2785.7,4352.25,4229.9,306.11,305.7755,314.26,314.305,21.8175,20.5327,21.8125,21.3357,314.999998,314.999998,324.999988,324.999988,99.55938571428571,99.50731666666667,99.56605714285715,99.54544285714286,-0.022333333333333316,-0.15399999999999991,-0.21950000000000003,0.013500000000000068,-0.045000000000001705,-0.030000000000001137,1.458,1.4889999999999999,37.358999999999995,29.329,37.328,34.348,56.397,34.6515,59.3525,51.7435,54.304,33.795500000000004,57.965,50.0965,53.466,33.338499999999996,57.920500000000004,49.519333333333336,-0.028000000000000025,-0.125,0.11139,0.10898000000000001,0.0,206.7,206.57999999999998,203.49666666666667,203.49666666666667,0.0,0.0
4,0.0,0.0,0.0,1.0,1.0,0.0,0.0,1.0,0.0,0.0,1.0,1.1856,26.0,0.0,0.0,0.0,59.999996,0.0,26.0,26.0,26.0,26.0,-0.14755555555555555,0.28269999999999995,-0.0398,293.64,-2.6566,-2.7472000000000003,-1.5253,-1.6014,-262.21,216.2575,190.908875,0.0,0.0,0.0,0.0,0.009433333333333334,-5.498166666666667,-5.498166666666667,-0.5458000000000001,-0.7215,-0.07844444444444454,-0.4829999999999999,66.11,-0.08410000000000001,-0.238825,1.1039999999999992,100.0,1.0,1.0,204.11333333333334,0.0,0.0,0.0,0.0,0.0,0.0,0.0,8651.6,0.0,55.0,5.0,237.97,0.0,0.0,0.0,0.0,0.0,0.0,0.0,0.0,0.20700000000000074,0.20700000000000074,0.0,0.0,0.0,55.0,616.79921,10000.0,85.000001,85.000001,85.000001,85.000001,395.0,0.0,0.0,0.0,1.0,166.665,52.994,52.994,48.888999999999996,48.888999999999996,34.0,-28.822499999999998,19.931666666666665,-31.71,21.0975,0.0,1782.181,0.5850000000000009,100.0,27.839,26.762999999999998,42.888,41.467,0.0,0.0,100.0,0.0,0.0,0.0,0.0,3217.285714285714,2985.5,4017.5,3674.1,305.0635,305.37075,314.96625,315.69775,21.8273,20.5378,21.8231,21.3445,314.999998,314.999998,324.999988,324.999988,99.55938571428571,99.50731666666667,99.5662,99.54557142857144,-0.020333333333333314,-0.14733333333333332,-0.2028333333333333,0.023666666666666725,-0.04833333333333201,-0.06499999999999773,1.5745,1.605,37.421,29.361,37.394,34.4035,56.379000000000005,34.692499999999995,59.3935,51.802,54.286,33.834,58.0035,50.153,53.448,33.375,57.956,49.574333333333335,-0.026000000000000023,-0.12200000000000011,0.10279,0.10704500000000002,0.0,207.10000000000002,207.01999999999998,204.11333333333334,204.11333333333334,0.0,0.0
5,0.0,0.0,0.0,1.0,1.0,0.0,0.0,1.0,0.0,0.0,1.0,1.1856,26.0,0.0,0.0,0.0,59.999996,0.0,26.0,26.0,26.0,26.0,-0.13355555555555554,0.2984,0.0016250000000000001,293.549,-2.67155,-2.7664,-1.5133,-1.5846,-258.64,216.2375,190.88725,0.0,0.0,0.0,0.0,0.0115,-5.498166666666667,-5.498166666666667,-0.533,0.33699999999999997,-0.07766666666666655,1.1950000000000003,66.266,-0.0859,-0.211125,0.9779999999999998,100.0,1.0,1.0,204.49666666666667,0.0,0.0,0.0,0.0,0.0,0.0,0.0,8667.9,0.0,55.0,5.0,238.53,1.0,0.0,0.0,0.0,0.0,0.0,0.0,0.0,0.26099999999999923,0.26099999999999923,0.0,0.0,1.0,55.0,616.79921,10000.0,85.000001,85.000001,85.000001,85.000001,395.0,0.0,0.0,0.0,1.0,166.665,53.421,53.421,48.782,48.782,34.0,-26.91,19.825,-33.769999999999996,23.995,0.0,1782.125,0.20500000000000007,100.0,27.882,26.6,42.686,41.17,0.0,0.0,100.0,0.0,0.0,0.0,0.0,3100.857142857143,2872.5,4182.625,4144.7,305.328,305.757,314.63675,314.6065,21.8379,20.5432,21.8342,21.3538,314.999998,314.999998,324.999988,324.999988,99.5594,99.50735,99.56635714285714,99.54572857142857,0.0030000000000001137,-0.131,-0.21066666666666656,0.016666666666666607,-0.026666666666670835,-0.046666666666666856,1.5005,1.538,37.486999999999995,29.3945,37.464,34.461,56.363,34.735,59.435,51.864,54.272,33.873,58.042500000000004,50.212,53.432,33.4125,57.9925,49.632333333333335,-0.05599999999999994,-0.09400000000000008,0.10869000000000001,0.10801000000000001,0.0,207.615,207.53,204.49666666666667,204.49666666666667,0.0,0.0
6,0.0,0.0,0.0,1.0,1.0,0.0,0.0,1.0,0.0,0.0,1.0,1.1856,26.0,0.0,0.0,0.0,59.999996,0.0,26.0,26.0,26.0,26.0,-0.1193333333333334,0.27970000000000006,0.0074,293.457,-2.6393,-2.7964,-1.556,-1.5809000000000002,-255.45,216.2175,190.868,0.0,0.0,0.0,0.0,0.013366666666666666,-5.498166666666667,-5.498166666666667,-0.5305,0.09699999999999998,-0.05988888888888866,0.927,66.404,-0.0805,-0.21455000000000002,0.6440000000000001,100.0,1.0,1.0,204.93,0.0,0.0,0.0,0.0,0.0,0.0,0.0,8686.2,0.0,55.0,5.0,239.0233333333333,0.0,0.0,0.0,0.0,0.0,0.0,0.0,0.0,0.30900000000000105,0.30900000000000105,0.0,0.0,0.0,55.0,616.79921,10000.0,85.000001,85.000001,85.000001,85.000001,395.0,0.0,0.0,0.0,1.0,111.11,53.223,53.223,48.66,48.66,34.0,-25.84,21.443333333333335,-32.653333333333336,24.0775,0.0,1782.08,-0.09499999999999886,100.0,27.826999999999998,26.748,42.762,41.491,0.0,0.0,100.0,0.0,0.0,0.0,0.0,3074.4285714285716,2955.6,4096.0,4084.1000000000004,305.3665,305.41375,314.842,314.75025,21.8472,20.548,21.8441,21.3622,314.999998,314.999998,324.999988,324.999988,99.5594,99.50735,99.5665,99.54585714285714,0.016999999999999904,-0.11633333333333318,-0.19533333333333336,0.02833333333333332,-0.045000000000001705,-0.06499999999999773,1.5205,1.552,37.545,29.424999999999997,37.525999999999996,34.513999999999996,56.348,34.772999999999996,59.4725,51.922,54.257,33.908,58.0775,50.2675,53.417,33.446,58.0245,49.68666666666667,-0.07699999999999996,-0.07099999999999995,0.105325,0.105575,0.0,208.025,207.965,204.93,204.93,0.0,0.0
7,0.0,0.0,0.0,1.0,1.0,0.0,0.0,1.0,0.0,0.0,1.0,1.1856,26.0,0.0,0.0,0.0,59.999996,0.0,26.0,26.0,26.0,26.0,-0.07855555555555549,0.28500000000000014,0.04505,293.243,-2.6116,-2.7524,-1.5165000000000002,-1.6235,-252.26,216.195,190.84875,0.0,0.0,0.0,0.0,0.0152,-5.498166666666667,-5.498166666666667,-0.5345,0.0625,-0.0477777777777777,1.121,66.541,-0.064,-0.22410000000000002,0.30600000000000005,100.0,1.0,1.0,205.34333333333333,0.0,0.0,0.0,0.0,0.0,0.0,0.0,8703.7,0.0,55.0,5.0,239.51999999999998,1.0,0.0,0.0,0.0,0.0,0.0,0.0,0.0,0.3569999999999993,0.3569999999999993,0.0,0.0,1.0,55.0,616.79921,10000.0,85.000001,85.000001,85.000001,85.000001,395.0,0.0,0.0,0.0,1.0,166.665,52.826,52.826,48.859,48.859,34.0,-25.8875,22.738333333333333,-30.386666666666663,26.189999999999998,0.0,1782.031,-0.19500000000000028,100.0,27.977,26.852,42.788,41.749,0.0,0.0,100.0,0.0,0.0,0.0,0.0,3155.5714285714284,3021.8,4012.875,4076.8,305.069,305.1765,315.0025,314.7125,21.8565,20.5529,21.854,21.3707,314.999998,314.999998,324.999988,324.999988,99.5594,99.50736666666667,99.56662857142857,99.546,0.03000000000000025,-0.08999999999999986,-0.17666666666666664,0.057666666666666755,-0.04833333333333201,-0.06333333333333258,1.5485,1.5505,37.602999999999994,29.4555,37.588,34.5665,56.334,34.81,59.509,51.9795,54.244,33.942,58.112,50.323,53.403,33.4785,58.056,49.74066666666667,-0.08399999999999996,-0.05750000000000011,0.108285,0.11379000000000002,0.0,208.425,208.39,205.34333333333333,205.34333333333333,0.0,0.0
8,0.0,0.0,0.0,1.0,1.0,0.0,0.0,1.0,0.0,0.0,1.0,1.1856,26.0,0.0,0.0,0.0,59.999996,0.0,26.0,26.0,26.0,26.0,-0.032333333333333325,0.29269999999999996,0.01795,293.488,-2.694,-2.7257,-1.4969000000000001,-1.5771000000000002,-248.67000000000002,216.16750000000002,190.826875,0.0,0.0,0.0,0.0,0.0173,-5.498166666666667,-5.498166666666667,-0.5387000000000001,-0.6460000000000001,-0.03299999999999992,0.6890000000000001,66.695,-0.042800000000000005,-0.217175,-0.09600000000000009,100.0,1.0,1.0,205.76,0.0,0.0,0.0,0.0,0.0,0.0,0.0,8721.5,0.0,55.0,5.0,240.07666666666665,0.0,0.0,0.0,0.0,0.0,0.0,0.0,0.0,0.41100000000000136,0.41100000000000136,0.0,0.0,0.0,55.0,616.79921,10000.0,85.000001,85.000001,85.000001,85.000001,395.0,0.0,0.0,0.0,1.0,166.665,53.543,53.543,48.325,48.325,34.0,-23.61,23.553333333333335,-29.259999999999998,27.165,0.0,1781.975,-0.3349999999999991,100.0,27.475,26.76,42.777,41.885,0.0,0.0,100.0,0.0,0.0,0.0,0.0,2977.0,3038.4,4052.25,4099.8,305.822,305.2425,314.8725,314.64325,21.8667,20.5584,21.8652,21.3801,314.999998,314.999998,324.999988,324.999988,99.55941428571428,99.50738333333334,99.56678571428571,99.54614285714285,0.05566666666666675,-0.06466666666666665,-0.14900000000000002,0.08350000000000013,-0.04999999999999716,-0.045000000000001705,1.528,1.5275,37.667,29.490000000000002,37.657,34.626,56.316,34.85,59.5505,52.044,54.226,33.979,58.1505,50.3845,53.385,33.513999999999996,58.091499999999996,49.801,-0.10099999999999998,-0.04299999999999993,0.110145,0.11603000000000001,0.0,208.88,208.865,205.76,205.76,0.0,0.0
9,0.0,0.0,0.0,1.0,1.0,0.0,0.0,1.0,0.0,0.0,1.0,1.1856,26.0,0.0,0.0,0.0,59.999996,0.0,26.0,26.0,26.0,26.0,-0.004111111111111065,0.2957000000000001,0.004350000000000001,292.984,-2.6278,-2.7267,-1.5596,-1.5588000000000002,-245.26,216.14,190.80575,0.0,0.0,0.0,0.0,0.019266666666666668,-5.498166666666667,-5.498166666666667,-0.536,0.8069999999999999,-0.030444444444444496,-0.244,66.838,-0.023100000000000002,-0.211925,-0.14999999999999947,100.0,1.0,1.0,206.26666666666665,0.0,0.0,0.0,0.0,0.0,0.0,0.0,8742.9,0.0,55.0,5.0,240.58666666666667,1.0,0.0,0.0,0.0,0.0,0.0,0.0,0.0,0.46199999999999974,0.46199999999999974,0.0,0.0,1.0,55.0,616.79921,10000.0,85.000001,85.000001,85.000001,85.000001,395.0,0.0,0.0,0.0,1.0,111.11,52.429,52.429,48.92,48.92,34.0,-25.265,23.86,-30.013333333333335,27.625,0.0,1781.927,-0.5449999999999999,100.0,27.987000000000002,27.446,42.36,42.064,0.0,0.0,100.0,0.0,0.0,0.0,0.0,3313.285714285714,2977.2,4116.0,4120.9,304.821,305.172,314.90675,314.617,21.8766,20.5638,21.8756,21.3891,314.999998,314.999998,324.999988,324.999988,99.55941428571428,99.50738333333334,99.56692857142858,99.54628571428572,0.07366666666666655,-0.050999999999999934,-0.14283333333333337,0.09600000000000009,-0.04999999999999716,-0.060000000000002274,1.548,1.5514999999999999,37.729,29.5235,37.722,34.6815,56.303,34.888999999999996,59.5865,52.1035,54.214,34.015,58.184,50.4415,53.372,33.5485,58.122,49.857,-0.11449999999999994,-0.030999999999999917,0.11423000000000001,0.109155,0.0,209.345,209.365,206.26666666666665,206.26666666666665,0.0,0.0
10,0.0,0.0,0.0,1.0,1.0,0.0,0.0,1.0,0.0,0.0,1.0,1.1856,26.0,0.0,0.0,0.0,59.999996,0.0,26.0,26.0,26.0,26.0,0.015555555555555545,0.2843,-0.0487,293.045,-2.70655,-2.6932,-1.5417,-1.5430000000000001,-242.05,216.115,190.786375,0.0,0.0,0.0,0.0,0.021133333333333334,-5.498166666666667,-5.498166666666667,-0.5221,-0.6825000000000001,0.012666666666666604,0.30699999999999994,66.976,-0.0027,-0.2121,-0.5039999999999996,100.0,1.0,1.0,206.5233333333333,0.0,0.0,0.0,0.0,0.0,0.0,0.0,8753.8,0.0,55.0,5.0,241.08333333333331,0.0,0.0,0.0,0.0,0.0,0.0,1.0,0.0,0.509999999999998,0.509999999999998,0.0,0.0,0.0,55.0,616.79921,10000.0,85.000001,85.000001,85.000001,85.000001,395.0,0.0,0.0,0.0,1.0,166.665,53.513,53.513,47.684,47.684,34.0,-21.294999999999998,22.961666666666666,-29.866666666666664,29.7875,0.0,1781.877,-0.5849999999999991,100.0,27.646,27.347,42.826,42.789,0.0,0.0,100.0,0.0,0.0,0.0,0.0,2870.5714285714284,2885.5,4256.0,4234.8,306.187,305.51525,314.475,314.24625,21.8857,20.5688,21.8856,21.3977,314.999998,314.999998,324.999988,324.999988,99.55942857142857,99.5074,99.56705714285714,99.54641428571429,0.09133333333333349,-0.04366666666666674,-0.11366666666666658,0.1140000000000001,-0.04999999999999716,-0.036666666666668846,1.4875,1.462,37.786,29.554499999999997,37.785,34.7355,56.29,34.923,59.625,52.164500000000004,54.202,34.0465,58.2195,50.5,53.358999999999995,33.5785,58.155,49.91433333333333,-0.122,-0.02200000000000002,0.11062000000000001,0.103925,0.0,209.74,209.755,206.5233333333333,206.5233333333333,0.0,0.0
11,0.0,0.0,0.0,1.0,1.0,0.0,0.0,1.0,0.0,0.0,1.0,1.1856,26.0,0.0,0.0,0.0,59.999996,0.0,26.0,26.0,26.0,26.0,0.05122222222222228,0.28070000000000017,-0.10385000000000001,293.503,-2.70885,-2.6831,-1.5904500000000001,-1.5217,-238.82999999999998,216.0875,190.76675,0.0,0.0,0.0,0.0,0.022600000000000002,-5.498166666666667,-5.498166666666667,-0.5616,-0.07050000000000001,0.03155555555555556,-0.744,67.106,0.0164,-0.235825,-0.6179999999999994,100.0,1.0,1.0,207.23666666666668,0.0,0.0,0.0,0.0,0.0,0.0,0.0,8783.9,0.0,55.0,5.0,241.55333333333334,1.0,0.0,0.0,0.0,0.0,0.0,1.0,0.0,0.5579999999999998,0.5579999999999998,0.0,0.0,1.0,55.0,616.79921,10000.0,85.000001,85.000001,85.000001,85.000001,395.0,0.0,0.0,0.0,1.0,333.33500000000004,52.811,52.811,49.254999999999995,49.254999999999995,34.0,-22.8125,25.791666666666664,-24.25,26.91,0.0,1781.829,-0.6099999999999994,100.0,27.49,27.606,42.26,42.585,0.0,0.0,100.0,0.0,0.0,0.0,0.0,3078.142857142857,3090.1,3727.5,3866.0,305.5845,304.836,315.83475,315.23975,21.8947,20.5739,21.8953,21.4061,314.999998,314.999998,324.999988,324.999988,99.55944285714286,99.5074,99.56718571428571,99.54655714285714,0.0983333333333336,-0.020000000000000018,-0.08899999999999997,0.1403333333333332,-0.04999999999999716,-0.060000000000002274,1.6335,1.621,37.842,29.587,37.846000000000004,34.788,56.275999999999996,34.959,59.656,52.22,54.188,34.079,58.2485,50.554,53.345,33.6105,58.181,49.967,-0.118,-0.025500000000000078,0.09943,0.10719500000000001,0.0,210.13,210.17000000000002,207.23666666666668,207.23666666666668,0.0,0.0
12,0.0,0.0,0.0,1.0,1.0,0.0,0.0,1.0,0.0,0.0,1.0,1.1856,26.0,0.0,0.0,0.0,59.999996,0.0,26.0,26.0,26.0,26.0,0.05233333333333334,0.29720000000000013,0.023825000000000002,292.801,-2.7231,-2.6817,-1.5556,-1.5270000000000001,-235.41,216.0625,190.744625,0.0,0.0,0.0,0.0,0.025466666666666665,-5.498166666666667,-5.498166666666667,-0.5448000000000001,0.26649999999999996,0.018888888888888955,0.7210000000000001,67.251,0.0313,-0.2066,-0.6959999999999997,100.0,1.0,1.0,207.42000000000002,0.0,0.0,0.0,0.0,0.0,0.0,0.0,8791.8,0.0,55.0,5.0,242.07666666666665,0.0,0.0,0.0,0.0,0.0,0.0,1.0,0.0,0.6089999999999982,0.6089999999999982,0.0,0.0,0.0,55.0,616.79921,10000.0,85.000001,85.000001,85.000001,85.000001,395.0,0.0,0.0,0.0,1.0,166.665,52.673,52.673,47.821,47.821,34.0,-21.537499999999998,27.38,-26.349999999999998,31.8575,0.0,1781.778,-0.5549999999999997,100.0,27.574,27.65,42.411,42.515,0.0,0.0,100.0,0.0,0.0,0.0,0.0,3027.285714285714,3217.7,4181.375,4257.9,305.5595,304.64325,314.6405,314.33525,21.9043,20.5794,21.9058,21.4151,314.999998,314.999998,324.999988,324.999988,99.55944285714286,99.5074,99.56734285714286,99.5467,0.1259999999999999,-0.00533333333333319,-0.05916666666666659,0.16066666666666674,-0.030000000000001137,-0.07000000000000028,1.5405,1.506,37.902,29.621000000000002,37.911,34.8445,56.263,34.9965,59.694,52.2815,54.176,34.114,58.284,50.6125,53.331,33.644,58.213499999999996,50.02466666666667,-0.125,-0.03400000000000003,0.09997,0.1136,0.0,210.59,210.64499999999998,207.42000000000002,207.42000000000002,0.0,0.0
13,0.0,0.0,0.0,1.0,1.0,0.0,0.0,1.0,0.0,0.0,1.0,1.1856,26.0,0.0,0.0,0.0,59.999996,0.0,26.0,26.0,26.0,26.0,0.06744444444444442,0.28900000000000015,0.056175,292.526,-2.73555,-2.6738,-1.5896,-1.5089000000000001,-232.17000000000002,216.04000000000002,190.72425,0.0,0.0,0.0,0.0,0.0269,-5.498166666666667,-5.498166666666667,-0.5393,-0.09000000000000008,0.024333333333333318,1.0550000000000002,67.385,0.035,-0.21615,-0.7879999999999994,100.0,1.0,1.0,207.79333333333335,0.0,0.0,0.0,0.0,0.0,0.0,0.0,8807.6,0.0,55.0,5.0,242.55666666666667,1.0,0.0,0.0,0.0,0.0,0.0,1.0,0.0,0.657,0.657,0.0,0.0,1.0,55.0,616.79921,10000.0,85.000001,85.000001,85.000001,85.000001,395.0,0.0,0.0,0.0,1.0,333.33500000000004,52.444,52.444,47.882,47.882,34.0,-21.0675,28.235,-26.456666666666663,32.792500000000004,0.0,1781.73,-0.9049999999999994,100.0,27.852,27.817,42.614000000000004,43.015,0.0,0.0,100.0,0.0,0.0,0.0,0.0,3055.142857142857,3190.2,4132.25,4368.4,305.4905,304.7265,314.725,314.053,21.9134,20.584600000000002,21.9157,21.4238,314.999998,314.999998,324.999988,324.999988,99.55947142857143,99.5074,99.56747142857142,99.54684285714286,0.14466666666666672,0.023333333333333428,-0.05616666666666659,0.16166666666666685,-0.03833333333332689,-0.05333333333332746,1.5145,1.4835,37.958,29.654,37.973,34.8985,56.253,35.0325,59.7295,52.342,54.166,34.1475,58.3165,50.671,53.32,33.6755,58.2435,50.082,-0.14300000000000002,-0.00649999999999995,0.10225500000000001,0.103345,0.0,211.0,211.04500000000002,207.79333333333335,207.79333333333335,0.0,0.0
14,0.0,0.0,0.0,1.0,1.0,0.0,0.0,1.0,0.0,0.0,1.0,1.1856,26.0,0.0,0.0,0.0,59.999996,0.0,26.0,26.0,26.0,26.0,0.09933333333333327,0.2913000000000001,-0.010750000000000001,292.77,-2.7347,-2.6131,-1.59985,-1.5108000000000001,-228.73,216.015,190.703,0.0,0.0,0.0,0.0,0.028900000000000002,-5.498166666666667,-5.498166666666667,-0.5491,-0.14000000000000012,0.051444444444444404,-0.131,67.525,0.0455,-0.22862500000000002,-0.9679999999999991,100.0,1.0,1.0,208.32333333333332,0.0,0.0,0.0,0.0,0.0,0.0,0.0,8830.0,0.0,55.0,5.0,243.06,0.0,0.0,0.0,0.0,0.0,0.0,1.0,0.0,0.7079999999999984,0.7079999999999984,0.0,0.0,0.0,55.0,616.79921,10000.0,85.000001,85.000001,85.000001,85.000001,395.0,0.0,0.0,0.0,1.0,333.33500000000004,52.597,52.597,48.08,48.08,34.0,-20.31,27.645,-25.166666666666664,30.965,0.0,1781.679,-1.0299999999999994,100.0,27.553,28.04,42.451,43.325,0.0,0.0,100.0,0.0,0.0,0.0,0.0,3028.4285714285716,3173.9,3994.125,4159.0,305.7425,304.61075,315.14175,314.5005,21.9229,20.5901,21.9262,21.4329,314.999998,314.999998,324.999988,324.999988,99.55948571428571,99.5074,99.56761428571428,99.54698571428571,0.15300000000000002,0.02066666666666661,-0.055166666666666586,0.16466666666666674,-0.061666666666667425,-0.04333333333332945,1.5695,1.5275,38.018,29.688499999999998,38.038,34.9555,56.242999999999995,35.070499999999996,59.7655,52.4045,54.156,34.1825,58.35,50.731,53.309,33.7095,58.2735,50.141,-0.15949999999999998,0.0034999999999999476,0.10037000000000001,0.11070500000000001,0.0,211.425,211.485,208.32333333333332,208.32333333333332,0.0,0.0
15,0.0,0.0,0.0,1.0,1.0,0.0,0.0,1.0,0.0,0.0,1.0,1.1856,26.0,0.0,0.0,0.0,59.999996,0.0,26.0,26.0,26.0,26.0,0.12688888888888883,0.2904,-0.06085,292.816,-2.7473,-2.5703,-1.6288,-1.4525000000000001,-225.49,215.9975,190.682625,0.0,0.0,0.0,0.0,0.03076666666666667,-5.498166666666667,-5.498166666666667,-0.539,0.23299999999999998,0.08177777777777773,-0.514,67.657,0.0601,-0.209375,-1.21,100.0,1.0,1.0,208.70666666666668,0.0,0.0,0.0,0.0,0.0,0.0,0.0,8846.3,0.0,55.0,5.0,243.53666666666666,1.0,0.0,0.0,0.0,0.0,0.0,1.0,0.0,0.7560000000000002,0.7560000000000002,0.0,0.0,1.0,55.0,616.79921,10000.0,85.000001,85.000001,85.000001,85.000001,395.0,0.0,0.0,0.0,1.0,166.665,52.811,52.811,48.096000000000004,48.096000000000004,34.0,-18.8875,27.275,-24.853333333333335,33.2525,0.0,1781.631,-1.0350000000000001,100.0,27.553,28.079,42.205,43.405,0.0,0.0,100.0,0.0,0.0,0.0,0.0,2868.142857142857,3142.9,3984.5,4354.6,306.2075,304.69425,315.19525,314.03475,21.9319,20.5954,21.9359,21.4415,314.999998,314.999998,324.999988,324.999988,99.5595,99.50741666666667,99.56774285714286,99.54712857142857,0.16033333333333344,0.028000000000000025,-0.04149999999999998,0.1888333333333332,-0.05666666666667197,-0.054999999999999716,1.545,1.513,38.074,29.721,38.099000000000004,35.009,56.233000000000004,35.107,59.7975,52.464,54.147,34.216,58.379999999999995,50.7885,53.299,33.742,58.3005,50.19733333333333,-0.15900000000000003,0.0044999999999999485,0.10634,0.10844500000000001,0.0,211.82999999999998,211.91500000000002,208.70666666666668,208.70666666666668,0.0,0.0
16,0.0,0.0,0.0,1.0,1.0,0.0,0.0,1.0,0.0,0.0,1.0,1.1856,26.0,0.0,0.0,0.0,59.999996,0.0,26.0,26.0,26.0,26.0,0.12088888888888905,0.2761,-0.009175,292.801,-2.79895,-2.5873,-1.5980500000000002,-1.5168,-222.04,215.98000000000002,190.660625,0.0,0.0,0.0,0.0,0.03276666666666667,-5.498166666666667,-5.498166666666667,-0.5631,-0.6990000000000001,0.06699999999999995,0.11799999999999988,67.797,0.0751,-0.22717500000000002,-1.2599999999999998,100.0,1.0,1.0,209.15333333333334,0.0,0.0,0.0,0.0,0.0,0.0,0.0,8865.3,0.0,55.0,5.0,244.04000000000002,0.0,0.0,0.0,0.0,0.0,0.0,1.0,0.0,0.8069999999999986,0.8069999999999986,0.0,0.0,0.0,55.0,616.79921,10000.0,85.000001,85.000001,85.000001,85.000001,395.0,0.0,0.0,0.0,1.0,111.11,52.567,52.567,47.974000000000004,47.974000000000004,34.0,-19.669999999999998,29.838333333333335,-22.586666666666666,33.3725,0.0,1781.581,-0.8900000000000006,100.0,27.394,28.015,42.524,43.409,0.0,0.0,100.0,0.0,0.0,0.0,0.0,2991.4285714285716,3332.3,3902.375,4131.2,305.8625,304.3505,315.3095,314.59175,21.9412,20.601,21.9464,21.4506,314.999998,314.999998,324.999988,324.999988,99.55952857142857,99.50741666666667,99.56788571428571,99.54725714285715,0.17466666666666653,0.046666666666666856,-0.015666666666666607,0.21550000000000002,-0.03999999999999915,-0.05833333333333002,1.567,1.519,38.132,29.7565,38.165,35.0665,56.219,35.1465,59.835,52.525999999999996,54.134,34.253,58.414500000000004,50.8485,53.285,33.777,58.332,50.25633333333333,-0.14749999999999996,-0.0035000000000000586,0.10289000000000001,0.11228,0.0,212.22500000000002,212.315,209.15333333333334,209.15333333333334,0.0,0.0
17,0.0,0.0,0.0,1.0,1.0,0.0,0.0,1.0,0.0,0.0,1.0,1.1856,26.0,0.0,0.0,0.0,59.999996,0.0,26.0,26.0,26.0,26.0,0.11266666666666669,0.29520000000000013,0.01345,292.267,-2.76325,-2.5657,-1.642,-1.4761,-218.37,215.9625,190.636625,0.0,0.0,0.0,0.0,0.0349,-5.498166666666667,-5.498166666666667,-0.548,0.40449999999999997,0.050999999999999934,0.964,67.945,0.082,-0.2058,-1.1899999999999995,100.0,1.0,1.0,209.49666666666667,0.0,0.0,0.0,0.0,0.0,0.0,0.0,8879.8,0.0,55.0,5.0,244.57,1.0,0.0,0.0,0.0,0.0,0.0,1.0,0.0,0.8610000000000007,0.8610000000000007,0.0,0.0,1.0,55.0,616.79921,10000.0,85.000001,85.000001,85.000001,85.000001,395.0,0.0,0.0,0.0,1.0,166.665,52.322,52.322,47.455,47.455,34.0,-19.305,28.513333333333332,-25.916666666666664,35.065,0.0,1781.526,-0.9649999999999999,100.0,27.878,28.311,42.439,43.416,0.0,0.0,100.0,0.0,0.0,0.0,0.0,3008.0,3198.4,4284.75,4429.3,305.67,304.72225,314.476,313.97275,21.9514,20.607,21.9574,21.4603,314.999998,314.999998,324.999988,324.999988,99.55954285714286,99.50743333333334,99.56804285714286,99.54742857142857,0.18199999999999994,0.05166666666666675,-0.014333333333333309,0.2038333333333333,-0.03833333333332689,-0.05833333333333002,1.5285,1.4875,38.196,29.794,38.233000000000004,35.1265,56.211,35.189499999999995,59.8725,52.5925,54.125,34.293,58.449,50.9125,53.275,33.816,58.3635,50.319,-0.15249999999999997,-0.00649999999999995,0.10913,0.09999000000000001,0.0,212.70499999999998,212.82999999999998,209.49666666666667,209.49666666666667,0.0,0.0
18,0.0,0.0,0.0,1.0,1.0,0.0,0.0,1.0,0.0,0.0,1.0,1.1856,26.0,0.0,0.0,0.0,59.999996,0.0,26.0,26.0,26.0,26.0,0.14022222222222225,0.2761,-0.011625,292.374,-2.80185,-2.5329,-1.6596000000000002,-1.4186,-215.31,215.9525,190.616875,0.0,0.0,0.0,0.0,0.0367,-5.498166666666667,-5.498166666666667,-0.5613,-0.5090000000000001,0.07388888888888889,-0.22099999999999986,68.066,0.0818,-0.224675,-1.2120000000000006,100.0,1.0,1.0,209.94,0.0,0.0,0.0,0.0,0.0,0.0,0.0,8898.6,0.0,55.0,5.0,245.01,0.0,0.0,0.0,0.0,0.0,0.0,1.0,0.0,0.9059999999999988,0.9059999999999988,0.0,0.0,0.0,55.0,616.79921,10000.0,85.000001,85.000001,85.000001,85.000001,395.0,0.0,0.0,0.0,1.0,166.665,52.2,52.2,47.638,47.638,34.0,-20.259999999999998,29.986666666666668,-24.956666666666663,32.2325,0.0,1781.482,-1.1899999999999995,100.0,27.434,28.339,42.565,43.862,0.0,0.0,100.0,0.0,0.0,0.0,0.0,3123.4285714285716,3313.1,4051.125,4201.7,305.5715,304.25725,315.0635,314.438,21.959600000000002,20.612,21.9666,21.4685,314.999998,314.999998,324.999988,324.999988,99.55955714285714,99.50743333333334,99.56815714285715,99.54755714285714,0.18266666666666653,0.061666666666666536,-0.02616666666666656,0.20666666666666678,-0.054999999999999716,-0.04833333333333201,1.55,1.5235,38.248000000000005,29.825,38.291,35.178,56.202,35.225,59.9045,52.649,54.116,34.326,58.479,50.967,53.265,33.8475,58.3905,50.37266666666667,-0.16749999999999998,0.017000000000000015,0.10681,0.109545,0.0,213.075,213.155,209.94,209.94,0.0,0.0
19,0.0,0.0,0.0,1.0,1.0,0.0,0.0,1.0,0.0,0.0,1.0,1.1856,26.0,0.0,0.0,0.0,59.999996,0.0,26.0,26.0,26.0,26.0,0.14288888888888884,0.2883,0.06135,291.962,-2.7187,-2.6351,-1.5911,-1.5428000000000002,-211.43,215.945,190.591625,0.0,0.0,0.0,0.0,0.03896666666666667,-5.498166666666667,-5.498166666666667,-0.5444,0.6785,0.08333333333333326,0.6019999999999999,68.22,0.09330000000000001,-0.209175,-1.3760000000000003,100.0,1.0,1.0,210.33333333333331,0.0,0.0,0.0,0.0,0.0,0.0,0.0,8915.2,0.0,55.0,5.0,245.56333333333333,1.0,0.0,0.0,0.0,0.0,0.0,1.0,0.0,0.963000000000001,0.963000000000001,0.0,0.0,1.0,55.0,616.79921,10000.0,85.000001,85.000001,85.000001,85.000001,395.0,0.0,0.0,0.0,1.0,111.11,52.002,52.002,47.333,47.333,34.0,-18.794999999999998,29.476666666666667,-23.57,38.644999999999996,0.0,1781.426,-0.625,100.0,28.1,28.687,42.466,43.926,0.0,0.0,100.0,0.0,0.0,0.0,0.0,2904.142857142857,3272.5,4151.25,4508.1,305.8835,304.37025,314.7215,313.6235,21.9703,20.6185,21.9781,21.4788,314.999998,314.999998,324.999988,324.999988,99.5596,99.50745,99.56832857142857,99.54772857142858,0.16900000000000004,0.036666666666666625,0.001000000000000112,0.2290000000000001,-0.03833333333332689,-0.045000000000001705,1.506,1.453,38.314,29.866,38.363,35.2425,56.193,35.272999999999996,59.943,52.721000000000004,54.108000000000004,34.3705,58.5145,51.036,53.254999999999995,33.8905,58.4225,50.440666666666665,-0.128,-0.026999999999999913,0.10608500000000001,0.11737000000000002,0.0,213.565,213.68,210.33333333333331,210.33333333333331,0.0,0.0
20,0.0,0.0,0.0,1.0,1.0,0.0,0.0,1.0,0.0,0.0,1.0,1.1856,26.0,0.0,0.0,0.0,59.999996,0.0,26.0,26.0,26.0,26.0,0.10533333333333328,0.2703,0.000175,292.419,-2.8087,-2.5998,-1.5839500000000002,-1.5417,-208.14999999999998,215.9425,190.570625,0.0,0.0,0.0,0.0,0.04086666666666667,-5.498166666666667,-5.498166666666667,-0.5608000000000001,-1.213,0.06711111111111112,-0.04299999999999993,68.35,0.0911,-0.22837500000000002,-0.6179999999999994,100.0,1.0,1.0,210.73333333333335,0.0,0.0,0.0,0.0,0.0,0.0,0.0,8932.3,0.0,55.0,5.0,246.03333333333336,0.0,0.0,0.0,0.0,0.0,0.0,0.0,0.0,1.0109999999999992,1.0109999999999992,0.0,0.0,0.0,55.0,616.79921,10000.0,85.000001,85.000001,85.000001,85.000001,395.0,0.0,0.0,0.0,1.0,166.665,52.673,52.673,47.241,47.241,34.0,-21.0025,26.813333333333333,-22.993333333333332,34.435,0.0,1781.376,0.10500000000000043,100.0,27.499,28.195,43.013,44.157,0.0,0.0,100.0,0.0,0.0,0.0,0.0,2904.857142857143,3244.7,4024.875,4186.4,306.089,304.59275,314.9735,314.42375,21.9789,20.6238,21.9881,21.4875,314.999998,314.999998,324.999988,324.999988,99.55961428571429,99.50745,99.56847142857143,99.54787142857143,0.129,-0.007333333333333192,-0.006000000000000005,0.21466666666666678,-0.03833333333332689,-0.05333333333332746,1.521,1.488,38.367999999999995,29.899,38.426,35.297,56.179,35.3085,59.9795,52.781,54.094,34.4035,58.5485,51.0945,53.241,33.922,58.453,50.498,-0.07099999999999995,-0.08650000000000002,0.095945,0.1067,0.0,213.945,214.005,210.73333333333335,210.73333333333335,0.0,0.0
21,0.0,0.0,0.0,1.0,1.0,0.0,0.0,1.0,0.0,0.0,1.0,1.1856,26.0,0.0,0.0,0.0,59.999996,0.0,26.0,26.0,26.0,26.0,0.043888888888888866,0.27980000000000005,-0.018625,292.48,-2.7531499999999998,-2.622,-1.6017000000000001,-1.5211000000000001,-204.66,215.94,190.547375,0.0,0.0,0.0,0.0,0.0429,-5.498166666666667,-5.498166666666667,-0.5720000000000001,0.631,0.025666666666666726,-1.298,68.48400000000001,0.0631,-0.21365,0.22799999999999976,100.0,1.0,1.0,211.28333333333333,0.0,0.0,0.0,0.0,0.0,0.0,0.0,8955.6,0.0,55.0,5.0,246.51,1.0,0.0,0.0,0.0,0.0,0.0,0.0,0.0,1.0620000000000012,1.0620000000000012,0.0,0.0,1.0,55.0,616.79921,10000.0,85.000001,85.000001,85.000001,85.000001,395.0,0.0,0.0,0.0,1.0,111.11,52.277,52.277,47.867,47.867,34.0,-24.34,23.821666666666665,-27.206666666666663,29.7025,0.0,1781.327,0.5400000000000009,100.0,27.83,28.383,42.469,43.554,0.0,0.0,100.0,0.0,0.0,0.0,0.0,3156.285714285714,3089.4,4178.25,4061.6000000000004,305.423,304.8285,314.79375,314.824,21.9884,20.6295,21.9983,21.4965,314.999998,314.999998,324.999988,324.999988,99.55961428571429,99.50745,99.5686,99.54801428571429,0.08800000000000008,-0.05566666666666675,-0.06633333333333336,0.15850000000000009,-0.051666666666669414,-0.045000000000001705,1.549,1.5625,38.427,29.9345,38.489999999999995,35.353,56.167,35.3485,60.012,52.8395,54.083,34.44,58.5785,51.1505,53.227999999999994,33.957499999999996,58.480000000000004,50.553,-0.04149999999999998,-0.12450000000000006,0.10790000000000001,0.101025,0.0,214.44,214.43,211.28333333333333,211.28333333333333,0.0,0.0
22,0.0,0.0,0.0,1.0,1.0,0.0,0.0,1.0,0.0,0.0,1.0,1.1856,26.0,0.0,0.0,0.0,59.999996,0.0,26.0,26.0,26.0,26.0,0.00955555555555554,0.26970000000000005,0.006125,292.191,-2.6673999999999998,-2.6948,-1.61225,-1.5221,-201.37,215.94,190.525,0.0,0.0,0.0,0.0,0.0448,-5.498166666666667,-5.498166666666667,-0.5568000000000001,-0.09949999999999992,0.01644444444444426,-1.055,68.613,0.021400000000000002,-0.20565,0.7800000000000002,100.0,1.0,1.0,211.52666666666667,0.0,0.0,0.0,0.0,0.0,0.0,0.0,8965.9,0.0,55.0,5.0,246.98000000000002,0.0,0.0,0.0,0.0,0.0,0.0,0.0,0.0,1.1099999999999994,1.1099999999999994,0.0,0.0,0.0,55.0,616.79921,10000.0,85.000001,85.000001,85.000001,85.000001,395.0,0.0,0.0,0.0,1.0,166.665,52.567,52.567,47.028,47.028,34.0,-23.395,22.231666666666666,-30.996666666666666,29.42,0.0,1781.277,0.5899999999999999,100.0,27.986,28.307000000000002,43.178,43.768,0.0,0.0,100.0,0.0,0.0,0.0,0.0,2999.5714285714284,2972.4,4301.375,4257.4,305.8135,305.1585,314.4835,314.255,21.9973,20.6348,22.0083,21.5052,314.999998,314.999998,324.999988,324.999988,99.55962857142858,99.50745,99.56874285714285,99.54814285714286,0.06066666666666665,-0.08566666666666678,-0.10983333333333334,0.11216666666666675,-0.036666666666668846,-0.03999999999999915,1.4869999999999999,1.502,38.483000000000004,29.9675,38.552,35.4075,56.153,35.3855,60.049,52.8985,54.07,34.475,58.613,51.207499999999996,53.214,33.9905,58.5115,50.608666666666664,-0.03249999999999997,-0.125,0.10619500000000001,0.10769000000000001,0.0,214.85500000000002,214.785,211.52666666666667,211.52666666666667,0.0,0.0
23,0.0,0.0,0.0,1.0,1.0,0.0,0.0,1.0,0.0,0.0,1.0,1.1856,26.0,0.0,0.0,0.0,59.999996,0.0,26.0,26.0,26.0,26.0,-0.033333333333333326,0.25649999999999995,-0.045375000000000006,292.175,-2.66975,-2.6693,-1.6388500000000001,-1.6099,-198.07,215.94,190.503,0.0,0.0,0.0,0.0,0.046700000000000005,-5.498166666666667,-5.498166666666667,-0.5749000000000001,-0.09650000000000003,-0.009888888888888836,-0.948,68.739,-0.0161,-0.23012500000000002,1.1099999999999994,100.0,1.0,1.0,212.05333333333334,0.0,0.0,0.0,0.0,0.0,0.0,0.0,8988.2,0.0,55.0,5.0,247.43333333333334,1.0,0.0,0.0,0.0,0.0,0.0,0.0,0.0,1.1580000000000013,1.1580000000000013,0.0,0.0,1.0,55.0,616.79921,10000.0,85.000001,85.000001,85.000001,85.000001,395.0,0.0,0.0,0.0,1.0,333.33500000000004,51.727000000000004,51.727000000000004,48.141,48.141,34.0,-27.8825,21.645,-30.786666666666665,25.880000000000003,0.0,1781.228,0.5950000000000006,100.0,28.533,28.272,43.463,43.729,0.0,0.0,100.0,0.0,0.0,0.0,0.0,3344.0,3028.7,4046.25,3893.7,304.767,305.05825,315.16,315.13175,22.0063,20.6401,22.0183,21.5139,314.999998,314.999998,324.999988,324.999988,99.55962857142858,99.50746666666667,99.56887142857143,99.5483,0.033333333333333215,-0.10399999999999987,-0.1486666666666666,0.08350000000000013,-0.03833333333332689,-0.041666666666671404,1.526,1.5765,38.539,30.000500000000002,38.614000000000004,35.4615,56.14,35.4245,60.0835,52.9555,54.057,34.510999999999996,58.644999999999996,51.262,53.2,34.025,58.541,50.662,-0.03249999999999997,-0.1260000000000001,0.10155,0.11807000000000001,0.0,215.245,215.155,212.05333333333334,212.05333333333334,0.0,0.0
24,0.0,0.0,0.0,1.0,1.0,0.0,0.0,1.0,0.0,0.0,1.0,1.1856,26.0,0.0,0.0,0.0,59.999996,0.0,26.0,26.0,26.0,26.0,-0.08277777777777784,0.25450000000000017,-0.0489,292.435,-2.6866,-2.6906,-1.5195500000000002,-1.5581,-194.36,215.9375,190.4775,0.0,0.0,0.0,0.0,0.04886666666666667,-5.498166666666667,-5.498166666666667,-0.5843,-0.7590000000000001,-0.00955555555555554,-0.30600000000000005,68.883,-0.0476,-0.21880000000000002,1.0079999999999991,100.0,1.0,1.0,212.37666666666667,0.0,0.0,0.0,0.0,0.0,0.0,0.0,9001.9,0.0,55.0,5.0,247.95333333333335,0.0,0.0,0.0,0.0,0.0,0.0,0.0,0.0,1.2119999999999997,1.2119999999999997,0.0,0.0,0.0,55.0,616.79921,10000.0,85.000001,85.000001,85.000001,85.000001,395.0,0.0,0.0,0.0,1.0,111.11,52.963,52.963,47.134,47.134,34.0,-25.39,19.941666666666666,-33.11666666666666,25.439999999999998,0.0,1781.176,0.46499999999999986,100.0,28.198,27.834,43.704,43.426,0.0,0.0,100.0,0.0,0.0,0.0,0.0,2982.714285714286,2891.9,4264.25,4102.8,305.874,305.5395,314.484,314.69625,22.0163,20.6458,22.0294,21.5235,314.999998,314.999998,324.999988,324.999988,99.55964285714286,99.50748333333334,99.56904285714286,99.54844285714286,0.01100000000000012,-0.12166666666666681,-0.17733333333333334,0.053166666666666806,-0.03833333333332689,-0.03999999999999915,1.48,1.5195,38.602000000000004,30.036,38.684,35.522,56.120999999999995,35.466,60.124,53.018,54.039,34.5495,58.683,51.3225,53.182,34.062,58.5755,50.721000000000004,-0.04249999999999998,-0.1160000000000001,0.10556000000000001,0.11023000000000001,0.0,215.67000000000002,215.57999999999998,212.37666666666667,212.37666666666667,0.0,0.0
25,0.0,0.0,0.0,1.0,1.0,0.0,0.0,1.0,0.0,0.0,1.0,1.1856,26.0,0.0,0.0,0.0,59.999996,0.0,26.0,26.0,26.0,26.0,-0.10311111111111104,0.264,-0.026850000000000002,292.068,-2.7148,-2.6824,-1.57985,-1.585,-190.84,215.9325,190.452,0.0,0.0,0.0,0.0,0.05093333333333333,-5.498166666666667,-5.498166666666667,-0.6095,0.4525,-0.03177777777777768,-0.46799999999999997,69.015,-0.06430000000000001,-0.22107500000000002,0.9900000000000002,100.0,1.0,1.0,212.92333333333335,0.0,0.0,0.0,0.0,0.0,0.0,0.0,9025.0,0.0,55.0,5.0,248.42666666666668,1.0,0.0,0.0,0.0,0.0,0.0,0.0,0.0,1.2629999999999981,1.2629999999999981,0.0,0.0,1.0,55.0,616.79921,10000.0,85.000001,85.000001,85.000001,85.000001,395.0,0.0,0.0,0.0,1.0,111.11,51.376,51.376,47.928,47.928,34.0,-29.8525,23.22,-31.68,24.495,0.0,1781.126,0.40000000000000036,100.0,28.64,28.02,43.468,42.896,0.0,0.0,100.0,0.0,0.0,0.0,0.0,3410.5714285714284,3315.2,4058.875,3991.7,304.551,304.39975,315.083,315.02225,22.0258,20.6514,22.0398,21.5325,314.999998,314.999998,324.999988,324.999988,99.55964285714286,99.5075,99.56918571428571,99.54858571428572,0.015666666666666718,-0.11933333333333329,-0.1811666666666666,0.0491666666666668,-0.036666666666668846,-0.04833333333333201,1.554,1.5775,38.661,30.0715,38.748999999999995,35.578,56.105000000000004,35.51,60.159,53.0745,54.024,34.5895,58.7155,51.3765,53.166,34.1005,58.605000000000004,50.774,-0.046499999999999986,-0.11450000000000005,0.09996500000000001,0.11287000000000001,0.0,216.095,216.01999999999998,212.92333333333335,212.92333333333335,0.0,0.0
26,0.0,0.0,0.0,1.0,1.0,0.0,0.0,1.0,0.0,0.0,1.0,1.1856,26.0,0.0,0.0,0.0,59.999996,0.0,26.0,26.0,26.0,26.0,-0.12222222222222212,0.2752000000000001,0.09340000000000001,291.138,-2.65945,-2.7701000000000002,-1.5856,-1.586,-187.51999999999998,215.9275,190.427875,0.0,0.0,0.0,0.0,0.052833333333333336,-5.498166666666667,-5.498166666666667,-0.5673,0.40349999999999997,-0.057222222222222285,0.7130000000000001,69.144,-0.0703,-0.197275,0.766,100.0,1.0,1.0,213.01,0.0,0.0,0.0,0.0,0.0,0.0,0.0,9028.8,0.0,55.0,5.0,248.89,0.0,0.0,0.0,0.0,0.0,0.0,0.0,0.0,1.311,1.311,0.0,0.0,0.0,55.0,616.79921,10000.0,85.000001,85.000001,85.000001,85.000001,395.0,0.0,0.0,0.0,1.0,166.665,51.682,51.682,45.99,45.99,34.0,-26.3775,21.636666666666667,-38.36666666666667,28.7125,0.0,1781.075,0.1750000000000007,100.0,29.352,28.320999999999998,44.353,43.323,0.0,0.0,100.0,0.0,0.0,0.0,0.0,3150.4285714285716,3005.6,4659.875,4555.7,305.125,305.29375,313.56875,313.6905,22.035,20.6567,22.0499,21.5412,314.999998,314.999998,324.999988,324.999988,99.55964285714286,99.50751666666666,99.56934285714286,99.54874285714286,0.03000000000000025,-0.11733333333333329,-0.17933333333333334,0.03950000000000009,-0.051666666666669414,-0.051666666666669414,1.406,1.441,38.719,30.1045,38.812,35.6325,56.092,35.553,60.202,53.135999999999996,54.010999999999996,34.6295,58.756,51.436,53.152,34.138999999999996,58.641999999999996,50.832,-0.06699999999999995,-0.09549999999999992,0.09834000000000001,0.113225,0.0,216.53,216.44,213.01,213.01,0.0,0.0
27,0.0,0.0,0.0,1.0,1.0,0.0,0.0,1.0,0.0,0.0,1.0,1.1856,26.0,0.0,0.0,0.0,59.999996,0.0,26.0,26.0,26.0,26.0,-0.07877777777777784,0.2490000000000001,-0.044025,291.748,-2.634,-2.7308,-1.5764,-1.6543999999999999,-184.41,215.92000000000002,190.40625,0.0,0.0,0.0,0.0,0.05466666666666667,-5.498166666666667,-5.498166666666667,-0.6004,-1.0285000000000002,-0.05422222222222217,-0.5609999999999999,69.259,-0.06760000000000001,-0.24502500000000002,0.6539999999999999,100.0,1.0,1.0,213.55666666666667,0.0,0.0,0.0,0.0,0.0,0.0,0.0,9051.9,0.0,55.0,5.0,249.30666666666667,1.0,0.0,0.0,0.0,0.0,0.0,0.0,0.0,1.355999999999998,1.355999999999998,0.0,0.0,1.0,55.0,616.79921,10000.0,85.000001,85.000001,85.000001,85.000001,395.0,0.0,0.0,0.0,1.0,166.665,51.804,51.804,46.829,46.829,34.0,-27.505,21.381666666666668,-32.876666666666665,25.0175,0.0,1781.032,0.120000000000001,100.0,28.86,28.262999999999998,44.709,43.787,0.0,0.0,100.0,0.0,0.0,0.0,0.0,3249.0,3022.5,4094.5,3962.0,305.104,305.10425,314.85875,314.9645,22.0434,20.6616,22.0594,21.5494,314.999998,314.999998,324.999988,324.999988,99.55965714285715,99.50753333333333,99.56947142857143,99.54885714285714,0.012333333333333307,-0.12199999999999989,-0.18933333333333335,0.03866666666666685,-0.04333333333332945,-0.03333333333333144,1.5,1.5325,38.771,30.1345,38.870999999999995,35.684,56.078,35.587,60.2345,53.1855,53.998000000000005,34.661,58.786500000000004,51.483000000000004,53.138999999999996,34.169,58.67,50.878,-0.06999999999999995,-0.09000000000000008,0.11102500000000001,0.10675000000000001,0.0,216.81,216.74,213.55666666666667,213.55666666666667,0.0,0.0
28,0.0,0.0,0.0,1.0,1.0,0.0,0.0,1.0,0.0,0.0,1.0,1.1856,26.0,0.0,0.0,0.0,59.999996,0.0,26.0,26.0,26.0,26.0,-0.08344444444444443,0.27,-0.041125,291.901,-2.6536,-2.7178,-1.5545499999999999,-1.6126,-180.87,215.9075,190.38075,0.0,0.0,0.0,0.0,0.0567,-5.498166666666667,-5.498166666666667,-0.5995,0.6739999999999999,-0.05288888888888854,0.948,69.389,-0.060000000000000005,-0.21330000000000002,0.4639999999999995,100.0,1.0,1.0,214.01333333333332,0.0,0.0,0.0,0.0,0.0,0.0,0.0,9071.3,0.0,55.0,5.0,249.77333333333334,0.0,0.0,0.0,0.0,0.0,0.0,0.0,0.0,1.407,1.407,0.0,0.0,0.0,55.0,616.79921,10000.0,85.000001,85.000001,85.000001,85.000001,395.0,0.0,0.0,0.0,1.0,166.665,51.834,51.834,47.47,47.47,34.0,-25.895,22.096666666666664,-31.976666666666663,27.1075,0.0,1780.979,-0.019999999999999574,100.0,29.108,28.073,44.046,43.179,0.0,0.0,100.0,0.0,0.0,0.0,0.0,3163.142857142857,3055.1,4162.75,4145.8,305.096,305.1565,314.862,314.66525,22.053,20.6671,22.0697,21.5585,314.999998,314.999998,324.999988,324.999988,99.55965714285715,99.50755,99.56961428571428,99.549,0.04233333333333311,-0.10499999999999998,-0.17233333333333334,0.06699999999999995,-0.051666666666669414,-0.046666666666666856,1.532,1.539,38.831,30.1695,38.936,35.7405,56.064,35.6285,60.269,53.242,53.985,34.699,58.8185,51.5375,53.123999999999995,34.2055,58.699,50.931,-0.08750000000000002,-0.08099999999999996,0.10630500000000001,0.12155500000000001,0.0,217.255,217.21,214.01333333333332,214.01333333333332,0.0,0.0
29,0.0,0.0,0.0,1.0,1.0,0.0,0.0,1.0,0.0,0.0,1.0,1.1856,26.0,0.0,0.0,0.0,59.999996,0.0,26.0,26.0,26.0,26.0,-0.05211111111111111,0.26900000000000013,0.021225,291.626,-2.6167,-2.7572,-1.5376,-1.5815000000000001,-177.32999999999998,215.89499999999998,190.354375,0.0,0.0,0.0,0.0,0.05876666666666667,-5.498166666666667,-5.498166666666667,-0.6085,-0.714,-0.04322222222222205,-0.5900000000000001,69.524,-0.0482,-0.22057500000000002,0.2779999999999996,100.0,1.0,1.0,214.28333333333333,0.0,0.0,0.0,0.0,0.0,0.0,0.0,9082.7,0.0,55.0,5.0,250.26,1.0,0.0,0.0,0.0,0.0,0.0,0.0,0.0,1.4579999999999984,1.4579999999999984,0.0,0.0,1.0,55.0,616.79921,10000.0,85.000001,85.000001,85.000001,85.000001,395.0,0.0,0.0,0.0,1.0,166.665,51.834,51.834,46.753,46.753,34.0,-26.55,22.751666666666665,-32.376666666666665,27.0875,0.0,1780.929,-0.10999999999999943,100.0,28.576999999999998,28.195,44.336,43.678,0.0,0.0,100.0,0.0,0.0,0.0,0.0,3299.5714285714284,3034.2,4216.875,4176.5,304.981,304.983,314.61575,314.477,22.0624,20.6726,22.0803,21.5678,314.999998,314.999998,324.999988,324.999988,99.55965714285715,99.50756666666666,99.56977142857143,99.54914285714285,0.04033333333333333,-0.09966666666666679,-0.16549999999999998,0.06366666666666676,-0.046666666666666856,-0.036666666666668846,1.4675,1.488,38.89,30.204,39.001999999999995,35.7985,56.047,35.6685,60.3085,53.303,53.969,34.736000000000004,58.8555,51.596000000000004,53.108000000000004,34.241,58.733000000000004,50.988,-0.09050000000000002,-0.06800000000000006,0.10244500000000001,0.10943000000000001,0.0,217.64,217.585,214.28333333333333,214.28333333333333,0.0,0.0
30,0.0,0.0,0.0,1.0,1.0,0.0,0.0,1.0,0.0,0.0,1.0,1.1856,26.0,0.0,0.0,0.0,59.999996,0.0,26.0,26.0,26.0,26.0,-0.030888888888888855,0.25660000000000016,-0.018175,291.153,-2.6394,-2.7374,-1.609,-1.637,-173.57,215.88,190.32625,0.0,0.0,0.0,0.0,0.06096666666666667,-5.498166666666667,-5.498166666666667,-0.5957,0.924,-0.0384444444444445,-0.2829999999999999,69.66,-0.0383,-0.20802500000000002,0.27200000000000024,100.0,1.0,1.0,214.76333333333332,0.0,0.0,0.0,0.0,0.0,0.0,0.0,9103.0,0.0,55.0,5.0,250.75,0.0,0.0,0.0,0.0,0.0,0.0,1.0,0.0,1.5120000000000005,1.5120000000000005,0.0,0.0,0.0,55.0,616.79921,10000.0,85.000001,85.000001,85.000001,85.000001,395.0,0.0,0.0,0.0,1.0,111.11,50.919,50.919,46.661,46.661,34.0,-26.5,23.816666666666666,-34.15,27.555,0.0,1780.876,-0.2599999999999998,100.0,29.475,28.937,44.153999999999996,43.764,0.0,0.0,100.0,0.0,0.0,0.0,0.0,3351.714285714286,3117.9,4408.75,4093.8,304.7275,304.863,314.37375,314.66775,22.0726,20.6788,22.0914,21.5775,314.999998,314.999998,324.999988,324.999988,99.55967142857143,99.50756666666666,99.56992857142858,99.54931428571429,0.06000000000000005,-0.08399999999999985,-0.15400000000000003,0.07099999999999995,-0.04999999999999716,-0.04333333333332945,1.4905,1.5,38.954,30.2425,39.071,35.8595,56.036,35.714,60.346000000000004,53.365,53.958,34.778,58.891,51.6555,53.096000000000004,34.2815,58.765,51.04633333333334,-0.10399999999999998,-0.07050000000000001,0.09655000000000001,0.109755,0.0,218.11,218.07,214.76333333333332,214.76333333333332,0.0,0.0
31,0.0,0.0,0.0,1.0,1.0,0.0,0.0,1.0,0.0,0.0,1.0,1.1856,26.0,0.0,0.0,0.0,59.999996,0.0,26.0,26.0,26.0,26.0,-0.023333333333333317,0.25439999999999996,-0.009375,290.924,-2.7404,-2.6218,-1.5643,-1.6332,-170.44,215.8675,190.303625,0.0,0.0,0.0,0.0,0.06276666666666667,-5.498166666666667,-5.498166666666667,-0.5917,-0.6615,-0.02911111111111131,0.605,69.777,-0.0246,-0.22295,-0.08200000000000074,100.0,1.0,1.0,215.0233333333333,0.0,0.0,0.0,0.0,0.0,0.0,0.0,9114.0,0.0,55.0,5.0,251.17333333333335,1.0,0.0,0.0,0.0,0.0,0.0,1.0,0.0,1.5569999999999986,1.5569999999999986,0.0,0.0,1.0,55.0,616.79921,10000.0,85.000001,85.000001,85.000001,85.000001,395.0,0.0,0.0,0.0,1.0,166.665,51.239,51.239,45.638999999999996,45.638999999999996,34.0,-24.815,24.93,-31.599999999999998,30.59,0.0,1780.831,-0.28999999999999915,100.0,29.199,28.823,44.92,44.425,0.0,0.0,100.0,0.0,0.0,0.0,0.0,3172.285714285714,3290.4,4283.75,4270.2,305.315,304.56675,314.3715,314.38425,22.0809,20.6838,22.1009,21.5859,314.999998,314.999998,324.999988,324.999988,99.55968571428572,99.50758333333333,99.57005714285714,99.54944285714285,0.08099999999999996,-0.06233333333333313,-0.1286666666666666,0.10200000000000009,-0.03499999999999659,-0.05333333333332746,1.4575,1.4645,39.006,30.274,39.131,35.911500000000004,56.022999999999996,35.75,60.382,53.420500000000004,53.946,34.8115,58.9245,51.7095,53.083,34.3135,58.795500000000004,51.09866666666667,-0.10699999999999998,-0.062000000000000055,0.112405,0.10707000000000001,0.0,218.39,218.4,215.0233333333333,215.0233333333333,0.0,0.0
32,0.0,0.0,0.0,1.0,1.0,0.0,0.0,1.0,0.0,0.0,1.0,1.1856,26.0,0.0,0.0,0.0,59.999996,0.0,26.0,26.0,26.0,26.0,-0.009444444444444478,0.2679,-0.017425,291.122,-2.6501,-2.7215,-1.63165,-1.5396,-166.87,215.85,190.278,0.0,0.0,0.0,0.0,0.06483333333333334,-5.498166666666667,-5.498166666666667,-0.6051000000000001,0.10949999999999993,-0.05266666666666664,-0.8460000000000001,69.905,-0.0112,-0.22455,-0.13399999999999945,100.0,1.0,1.0,215.49666666666667,0.0,0.0,0.0,0.0,0.0,0.0,0.0,9134.1,0.0,55.0,5.0,251.63,0.0,0.0,0.0,0.0,0.0,0.0,1.0,0.0,1.6080000000000005,1.6080000000000005,0.0,0.0,0.0,55.0,616.79921,10000.0,85.000001,85.000001,85.000001,85.000001,395.0,0.0,0.0,0.0,1.0,166.665,51.331,51.331,46.371,46.371,34.0,-24.68,24.196666666666665,-32.019999999999996,29.2725,0.0,1780.779,-0.33000000000000007,100.0,29.044,28.966,44.47,44.278999999999996,0.0,0.0,100.0,0.0,0.0,0.0,0.0,3286.714285714286,3056.3,4323.125,4272.7,304.973,304.9875,314.51225,314.3895,22.0903,20.6896,22.1114,21.5951,314.999998,314.999998,324.999988,324.999988,99.55968571428572,99.50758333333333,99.5702,99.54958571428571,0.08733333333333348,-0.06066666666666665,-0.12316666666666665,0.10516666666666685,-0.046666666666666856,-0.04333333333332945,1.5145,1.5005,39.065,30.310000000000002,39.196,35.969,56.010999999999996,35.791,60.417,53.479,53.935,34.8495,58.957,51.7655,53.07,34.3495,58.825,51.153333333333336,-0.11099999999999999,-0.052000000000000046,0.10158,0.11021500000000001,0.0,218.81,218.81,215.49666666666667,215.49666666666667,0.0,0.0
33,0.0,0.0,0.0,1.0,1.0,0.0,0.0,1.0,0.0,0.0,1.0,1.1856,26.0,0.0,0.0,0.0,59.999996,0.0,26.0,26.0,26.0,26.0,0.006444444444444475,0.25970000000000004,-0.03065,291.443,-2.7016,-2.7076000000000002,-1.57145,-1.6109,-163.3,215.835,190.25125,0.0,0.0,0.0,0.0,0.06693333333333334,-5.498166666666667,-5.498166666666667,-0.6141,-0.47,-0.034333333333333105,1.3980000000000001,70.035,-0.0008,-0.216975,-0.1979999999999995,100.0,1.0,1.0,215.86333333333334,0.0,0.0,0.0,0.0,0.0,0.0,0.0,9149.7,0.0,55.0,5.0,252.10000000000002,1.0,0.0,0.0,0.0,0.0,0.0,1.0,0.0,1.658999999999999,1.658999999999999,0.0,0.0,1.0,55.0,616.79921,10000.0,85.000001,85.000001,85.000001,85.000001,395.0,0.0,0.0,0.0,1.0,166.665,51.819,51.819,46.677,46.677,34.0,-23.205,24.82,-28.993333333333336,31.07,0.0,1780.728,-0.34499999999999886,100.0,28.925,28.485,44.441,44.287,0.0,0.0,100.0,0.0,0.0,0.0,0.0,3085.0,3106.0,4113.375,4255.1,305.469,305.01175,314.8285,314.35525,22.0996,20.6952,22.1218,21.6044,314.999998,314.999998,324.999988,324.999988,99.55971428571429,99.50758333333333,99.57035714285715,99.54974285714286,0.0950000000000002,-0.04833333333333312,-0.10883333333333334,0.12016666666666675,-0.04333333333332945,-0.03166666666666629,1.486,1.4995,39.123000000000005,30.345,39.260999999999996,36.027,55.998000000000005,35.828,60.453,53.539,53.922,34.8835,58.9905,51.823,53.057,34.3825,58.855000000000004,51.20933333333333,-0.10999999999999999,-0.05600000000000005,0.10314000000000001,0.11255000000000001,0.0,219.2,219.19,215.86333333333334,215.86333333333334,0.0,0.0
34,0.0,0.0,0.0,1.0,1.0,0.0,0.0,1.0,0.0,0.0,1.0,1.1856,26.0,0.0,0.0,0.0,59.999996,0.0,26.0,26.0,26.0,26.0,-0.001777777777777767,0.2579,-0.07735,291.962,-2.73465,-2.6294,-1.64215,-1.5375,-159.51999999999998,215.8175,190.2215,0.0,0.0,0.0,0.0,0.06913333333333334,-5.498166666666667,-5.498166666666667,-0.6481,-0.835,-0.0012222222222222356,0.835,70.17,0.007,-0.22465000000000002,-0.20999999999999996,100.0,1.0,1.0,216.32333333333332,0.0,0.0,0.0,0.0,0.0,0.0,0.0,9169.2,0.0,55.0,5.0,252.58333333333334,0.0,0.0,0.0,0.0,0.0,0.0,1.0,0.0,1.713000000000001,1.713000000000001,0.0,0.0,0.0,55.0,616.79921,10000.0,85.000001,85.000001,85.000001,85.000001,395.0,0.0,0.0,0.0,1.0,111.11,52.521,52.521,47.15,47.15,34.0,-21.5275,24.22833333333333,-28.78,30.1175,0.0,1780.676,-0.3699999999999992,100.0,28.511,28.2,44.022999999999996,44.248999999999995,0.0,0.0,100.0,0.0,0.0,0.0,0.0,2890.285714285714,3073.7,4063.125,4217.6,305.9835,305.112,315.0475,314.5135,22.1094,20.7011,22.1328,21.6142,314.999998,314.999998,324.999988,324.999988,99.55971428571429,99.5076,99.57051428571428,99.5499,0.10366666666666635,-0.03866666666666663,-0.10066666666666657,0.13200000000000012,-0.041666666666671404,-0.03833333333332689,1.532,1.5275,39.183,30.381999999999998,39.33,36.088499999999996,55.983000000000004,35.867,60.4885,53.6025,53.908,34.9195,59.022999999999996,51.884,53.042,34.417,58.8845,51.269,-0.11149999999999993,-0.050000000000000044,0.097905,0.117665,0.0,219.615,219.60000000000002,216.32333333333332,216.32333333333332,0.0,0.0
35,0.0,0.0,0.0,1.0,1.0,0.0,0.0,1.0,0.0,0.0,1.0,1.1856,26.0,0.0,0.0,0.0,59.999996,0.0,26.0,26.0,26.0,26.0,0.015555555555555545,0.2502,-0.08505,291.809,-2.70355,-2.6548,-1.6064500000000002,-1.5286,-156.14999999999998,215.8025,190.193,0.0,0.0,0.0,0.0,0.0711,-5.498166666666667,-5.498166666666667,-0.6839000000000001,-0.10299999999999998,-0.022777777777777786,-0.2729999999999999,70.289,0.014700000000000001,-0.22555,-0.3379999999999992,100.0,1.0,1.0,216.78333333333333,0.0,0.0,0.0,0.0,0.0,0.0,0.0,9188.7,0.0,55.0,5.0,253.01333333333332,1.0,0.0,0.0,0.0,0.0,0.0,1.0,0.0,1.7609999999999992,1.7609999999999992,0.0,0.0,1.0,55.0,616.79921,10000.0,85.000001,85.000001,85.000001,85.000001,395.0,0.0,0.0,0.0,1.0,166.665,51.513999999999996,51.513999999999996,47.043,47.043,34.0,-22.9875,27.83833333333333,-26.286666666666665,28.07,0.0,1780.627,-0.33000000000000007,100.0,28.433,28.629,43.784,43.730000000000004,0.0,0.0,100.0,0.0,0.0,0.0,0.0,3113.4285714285716,3417.7,3945.125,3974.2,305.4105,304.0655,315.287,315.087,22.1179,20.7066,22.1425,21.622700000000002,314.999998,314.999998,324.999988,324.999988,99.55972857142856,99.5076,99.57065714285714,99.55004285714286,0.10566666666666658,-0.03466666666666662,-0.08116666666666661,0.137,-0.046666666666666856,-0.04833333333333201,1.5635,1.554,39.236999999999995,30.416,39.391,36.141999999999996,55.969,35.903999999999996,60.5195,53.6545,53.894,34.954,59.052,51.9345,53.027,34.45,58.9105,51.318,-0.10549999999999993,-0.05699999999999994,0.09593,0.11051000000000001,0.0,219.98000000000002,219.985,216.78333333333333,216.78333333333333,0.0,0.0
36,0.0,0.0,0.0,1.0,1.0,0.0,0.0,1.0,0.0,0.0,1.0,1.1856,26.0,0.0,0.0,0.0,59.999996,0.0,26.0,26.0,26.0,26.0,0.020000000000000018,0.26360000000000006,0.0495,290.833,-2.63645,-2.7241,-1.56115,-1.5828,-152.98,215.7875,190.165125,0.0,0.0,0.0,0.0,0.07293333333333334,-5.498166666666667,-5.498166666666667,-0.6632,0.255,-0.06099999999999994,-1.213,70.405,0.0189,-0.2008,-0.13999999999999968,100.0,1.0,1.0,216.86333333333334,0.0,0.0,0.0,0.0,0.0,0.0,0.0,9192.0,0.0,55.0,5.0,253.43,0.0,0.0,0.0,0.0,0.0,0.0,1.0,0.0,1.806000000000001,1.806000000000001,0.0,0.0,0.0,55.0,616.79921,10000.0,85.000001,85.000001,85.000001,85.000001,395.0,0.0,0.0,0.0,1.0,111.11,51.3,51.3,46.158,46.158,34.0,-22.919999999999998,25.355,-31.256666666666664,33.885000000000005,0.0,1780.582,-0.2599999999999998,100.0,28.937,28.990000000000002,43.973,44.21,0.0,0.0,100.0,0.0,0.0,0.0,0.0,3170.4285714285716,3096.5,4479.125,4520.1,305.1025,304.7475,314.07825,313.71,22.1261,20.7118,22.1518,21.631,314.999998,314.999998,324.999988,324.999988,99.55974285714285,99.50761666666666,99.57078571428572,99.55018571428572,0.1070000000000002,-0.045666666666666744,-0.09516666666666662,0.1303333333333332,-0.03333333333333144,-0.03833333333332689,1.4344999999999999,1.439,39.288,30.4485,39.449,36.1935,55.959,35.939,60.552,53.709,53.885,34.9865,59.082499999999996,51.987,53.016999999999996,34.4815,58.938,51.36933333333333,-0.10250000000000004,-0.062000000000000055,0.10525000000000001,0.10967,0.0,220.34,220.365,216.86333333333334,216.86333333333334,0.0,0.0
