,ABS Active,ABS Enabled,AID Allow Tire Blankets,AID Auto Blip,AID Auto Clutch,AID Auto Shift,AID Fuel Rate,AID Ideal Line,AID Mech Damage,AID Stability,AID Tire Wear Rate,Air Density,Air Temp,Ballast,Best Lap Delta,Best Lap Time,Brake Bias,Brake Pos,Brake Temp FL,Brake Temp FR,Brake Temp RL,Brake Temp RR,CG Accel Lateral,CG Accel Longitudinal,CG Accel Vertical,CG Height,Camber FL,Camber FR,Camber RL,Camber RR,Car Coord X,Car Coord Y,Car Coord Z,Car Damage Front,Car Damage Left,Car Damage Rear,Car Damage Right,Car Pos Norm,Caster FL,Caster FR,Chassis Pitch Angle,Chassis Pitch Rate,Chassis Roll Angle,Chassis Roll Rate,Chassis Velocity X,Chassis Velocity Y,Chassis Velocity Z,Chassis Yaw Rate,Clutch Pos,DRS Active,DRS Available,Drive Train Speed,ERS Heat Charging,ERS Is Charging,ERS Max Energy,ERS Power Level,ERS Recovery Level,Engine Brake Setting,Engine Limiter,Engine RPM,Flags,Fuel Level,Gear,Ground Speed,HR Sample Clock,In Pit,KERS Charge,KERS Deployed Energy,KERS Input,KERS Max Energy,LR Sample Clock,Lap Invalidated,Lap Time,Lap Time2,Last Lap Time,Last Sector Time,MR Sample Clock,Max Fuel,Max Power,Max RPM,Max Sus Travel FL,Max Sus Travel FR,Max Sus Travel RL,Max Sus Travel RR,Max Torque,Max Turbo Boost,Num Tires Off Track,Penalties Enabled,Position,Raw Data Sample Rate,Ride Height FL,Ride Height FR,Ride Height RL,Ride Height RR,Road Temp,Self Align Torque FL,Self Align Torque FR,Self Align Torque RL,Self Align Torque RR,Session Lap Count,Session Time Left,Steering Angle,Surface Grip,Suspension Travel FL,Suspension Travel FR,Suspension Travel RL,Suspension Travel RR,TC Active,TC Enabled,Throttle Pos,Tire Dirt Level FL,Tire Dirt Level FR,Tire Dirt Level RL,Tire Dirt Level RR,Tire Load FL,Tire Load FR,Tire Load RL,Tire Load RR,Tire Loaded Radius FL,Tire Loaded Radius FR,Tire Loaded Radius RL,Tire Loaded Radius RR,Tire Pressure FL,Tire Pressure FR,Tire Pressure RL,Tire Pressure RR,Tire Radius FL,Tire Radius FR,Tire Radius RL,Tire Radius RR,Tire Rubber Grip FL,Tire Rubber Grip FR,Tire Rubber Grip RL,Tire Rubber Grip RR,Tire Slip Angle FL,Tire Slip Angle FR,Tire Slip Angle RL,Tire Slip Angle RR,Tire Slip Ratio FL,Tire Slip Ratio FR,Tire Slip Ratio RL,Tire Slip Ratio RR,Tire Temp Core FL,Tire Temp Core FR,Tire Temp Core RL,Tire Temp Core RR,Tire Temp Inner FL,Tire Temp Inner FR,Tire Temp Inner RL,Tire Temp Inner RR,Tire Temp Middle FL,Tire Temp Middle FR,Tire Temp Middle RL,Tire Temp Middle RR,Tire Temp Outer FL,Tire Temp Outer FR,Tire Temp Outer RL,Tire Temp Outer RR,Toe In FL,Toe In FR,Toe In RL,Toe In RR,Turbo Boost,Wheel Angular Speed FL,Wheel Angular Speed FR,Wheel Angular Speed RL,Wheel Angular Speed RR,Wind Direction,Wind Speed
0,0.0,0.0,0.0,1.0,1.0,0.0,0.0,1.0,0.0,0.0,1.0,1.1856,26.0,0.0,0.0,0.0,59.99999,0.0,26.0,26.0,26.0,26.0,-0.023749999999999938,0.2997000000000001,0.19022,293.198,-2.7996,-2.6173333333333333,-1.56485,-1.5055,-275.73,215.4075,190.98775,0.0,0.0,0.0,0.0,0.0015666666666666051,-5.498166666666667,-5.498166666666667,-0.5636,1.589,0.004444444444444251,-0.3900000000000001,65.508,-0.023,-0.22145,-0.06599999999999984,100.0,1.0,1.0,202.24333333333334,0.0,0.0,0.0,0.0,0.0,0.0,0.0,8572.4,0.0,55.0,5.0,235.8,0.0,0.0,0.0,0.0,0.0,0.0,0.0,0.0,0.0030000000000001137,0.0030000000000001137,0.0,0.0,0.0,55.0,616.79921,10000.0,85.0,85.0,85.0,85.0,395.0,0.0,0.0,0.0,1.0,20.0,50.888,50.888,48.996,48.996,34.0,-29.689999999999998,32.862,-29.123333333333335,25.965,0.0,1783.249,0.20500000000000185,100.0,27.249,27.154,40.409,40.217,0.0,0.0,100.0,0.0,0.0,0.0,0.0,3413.0,4294.7,4058.125,4089.0,304.4745,301.52425,315.01775,314.637,21.7782,20.511,21.7974,21.3125,314.99999,314.99999,324.99998,324.99998,99.55915714285715,99.5071,99.56631428571428,99.54521428571428,0.035499999999999865,-0.07533333333333325,-0.135,0.08316666666666683,-0.06666666666666998,-0.041666666666671404,1.558,1.5554999999999999,37.114000000000004,29.194,37.233999999999995,34.203,56.375,34.4595,59.432,51.623,54.283,33.626,58.042500000000004,49.9825,53.446,33.183,58.0,49.409666666666666,-0.0714999999999999,-0.08550000000000013,0.10239000000000001,0.10769000000000001,0.0,205.26,205.255,202.24333333333334,202.24333333333334,0.0,0.0
1,0.0,0.0,0.0,1.0,1.0,0.0,0.0,1.0,0.0,0.0,1.0,1.1856,26.0,0.0,0.0,0.0,59.999996,0.0,26.0,26.0,26.0,26.0,-0.049124999999999974,0.33950000000000014,0.17444,292.16,-2.6391999999999998,-2.6943333333333332,-1.6044,-1.5232,-272.38,215.41750000000002,190.96775,0.0,0.0,0.0,0.0,0.0034999999999999476,-5.498166666666667,-5.498166666666667,-0.4717,-1.3615,-0.0434444444444444,-0.2430000000000001,65.668,-0.0165,-0.1711,0.5060000000000002,100.0,1.0,1.0,202.10666666666668,0.0,0.0,0.0,0.0,0.0,0.0,0.0,8566.6,0.0,55.0,5.0,236.37333333333333,1.0,0.0,0.0,0.0,0.0,0.0,0.0,0.0,0.053999999999998494,0.053999999999998494,0.0,0.0,1.0,55.0,616.79921,10000.0,85.000001,85.000001,85.000001,85.000001,395.0,0.0,0.0,0.0,1.0,166.665,54.169,54.169,46.936,46.936,34.0,-22.2025,17.152,-39.093333333333334,39.2875,0.0,1783.198,0.3200000000000003,100.0,27.611,27.348,42.516,42.909,0.0,0.0,100.0,0.0,0.0,0.0,0.0,2825.857142857143,2451.6,4863.125,5635.6,306.311,307.0005,312.8365,310.9855,21.788,20.5161,21.8084,21.3219,314.999998,314.999998,324.999988,324.999988,99.55917142857143,99.50711666666666,99.56647142857143,99.54535714285714,0.04150000000000009,-0.09633333333333316,-0.14100000000000001,0.07733333333333325,-0.023333333333326323,-0.03833333333332689,1.2876666666666667,1.313,37.175,29.226,37.302,34.2615,56.358000000000004,34.498,59.4785,51.6935,54.266,33.661500000000004,58.086,50.0495,53.429,33.2175,58.0405,49.47533333333333,-0.05499999999999994,-0.10349999999999993,0.11482500000000001,0.10908000000000001,0.0,205.69,205.67000000000002,202.10666666666668,202.10666666666668,0.0,0.0
2,0.0,0.0,0.0,1.0,1.0,0.0,0.0,1.0,0.0,0.0,1.0,1.1856,26.0,0.0,0.0,0.0,59.999996,0.0,26.0,26.0,26.0,26.0,-0.07774999999999999,0.2771000000000001,-0.0965,293.747,-2.6683,-2.6483333333333334,-1.57355,-1.5093,-268.83,215.4225,190.94775,0.0,0.0,0.0,0.0,0.005566666666666609,-5.498166666666667,-5.498166666666667,-0.5806,0.9405,-0.0012222222222222356,2.664,65.81,-0.023,-0.271225,0.71,100.0,1.0,1.0,203.5966666666667,0.0,0.0,0.0,0.0,0.0,0.0,0.0,8629.7,0.0,55.0,5.0,236.88666666666666,0.0,0.0,0.0,0.0,0.0,0.0,0.0,0.0,0.10800000000000054,0.10800000000000054,0.0,0.0,0.0,55.0,616.79921,10000.0,85.000001,85.000001,85.000001,85.000001,395.0,0.0,0.0,0.0,1.0,166.665,51.697,51.697,50.629,50.629,34.0,-27.9225,23.418,-24.356666666666662,19.97,0.0,1783.142,0.4250000000000007,100.0,28.37,27.533,41.814,41.704,0.0,0.0,100.0,0.0,0.0,0.0,0.0,3275.285714285714,3267.6,3516.0,3425.5,304.685,304.3515,316.28775,316.44125,21.7987,20.5216,21.8193,21.3308,314.999998,314.999998,324.999988,324.999988,99.55917142857143,99.50713333333333,99.56661428571428,99.5455,0.022250000000000103,-0.10133333333333328,-0.149,0.08150000000000013,-0.051666666666669414,-0.06666666666666998,1.7793333333333334,1.798,37.242000000000004,29.260333333333335,37.370999999999995,34.317499999999995,56.343,34.54,59.5135,51.7455,54.253,33.7005,58.1185,50.1005,53.414,33.2545,58.070499999999996,49.525,-0.045499999999999874,-0.10999999999999988,0.105175,0.12155500000000001,0.0,206.195,206.13,203.5966666666667,203.59666666666666,0.0,0.0
3,0.0,0.0,0.0,1.0,1.0,0.0,0.0,1.0,0.0,0.0,1.0,1.1856,26.0,0.0,0.0,0.0,59.999996,0.0,26.0,26.0,26.0,26.0,-0.05674999999999997,0.3025,0.01248,292.862,-2.6936,-2.669666666666667,-1.56,-1.4751,-265.87,215.4275,190.929625,0.0,0.0,0.0,0.0,0.007299999999999973,-5.498166666666667,-5.498166666666667,-0.4999,0.8185,0.014666666666666606,-2.269,65.951,-0.0352,-0.18580000000000002,0.6679999999999993,100.0,1.0,1.0,203.32666666666665,0.0,0.0,0.0,0.0,0.0,0.0,0.0,8618.3,0.0,55.0,5.0,237.39333333333332,1.0,0.0,0.0,0.0,0.0,0.0,0.0,0.0,0.1529999999999987,0.1529999999999987,0.0,0.0,1.0,55.0,616.79921,10000.0,85.000001,85.000001,85.000001,85.000001,395.0,0.0,0.0,0.0,1.0,166.665,53.284,53.284,47.363,47.363,34.0,-23.25,20.15,-35.10666666666667,28.137500000000003,0.0,1783.098,0.5549999999999997,100.0,27.87,27.722,41.996,42.222,0.0,0.0,100.0,0.0,0.0,0.0,0.0,2812.0,2879.5,4555.125,4463.9,306.369,305.43925,313.7745,313.623,21.807299999999998,20.5264,21.8286,21.3389,314.999998,314.999998,324.999988,324.999988,99.55917142857143,99.50713333333333,99.56674285714286,99.54562857142857,0.021500000000000075,-0.11099999999999999,-0.1505,0.06766666666666676,-0.03999999999999915,-0.02499999999999858,1.4146666666666667,1.4395,37.296,29.289666666666665,37.429,34.368,56.327,34.5775,59.548,51.8055,54.236999999999995,33.735,58.1505,50.158,53.397999999999996,33.288,58.0995,49.58166666666666,-0.03699999999999992,-0.11549999999999994,0.111405,0.10392000000000001,0.0,206.65,206.585,203.32666666666665,203.32666666666665,0.0,0.0
4,0.0,0.0,0.0,1.0,1.0,0.0,0.0,1.0,0.0,0.0,1.0,1.1856,26.0,0.0,0.0,0.0,59.999996,0.0,26.0,26.0,26.0,26.0,-0.08824999999999994,0.3015000000000001,-0.06838,293.381,-2.6723,-2.7443333333333335,-1.49245,-1.5955,-262.1,215.4325,190.908125,0.0,0.0,0.0,0.0,0.009499999999999953,-5.498166666666667,-5.498166666666667,-0.5366000000000001,-0.788,-0.042888888888888754,0.5740000000000001,66.113,-0.044700000000000004,-0.24155000000000001,0.9879999999999995,100.0,1.0,1.0,204.08333333333331,0.0,0.0,0.0,0.0,0.0,0.0,0.0,8650.3,0.0,55.0,5.0,237.98000000000002,0.0,0.0,0.0,0.0,0.0,0.0,0.0,0.0,0.21000000000000085,0.21000000000000085,0.0,0.0,0.0,55.0,616.79921,10000.0,85.000001,85.000001,85.000001,85.000001,395.0,0.0,0.0,0.0,1.0,111.11,52.933,52.933,48.798,48.798,34.0,-26.9725,20.775999999999996,-29.666666666666664,23.665,0.0,1783.041,0.6449999999999996,100.0,27.892,27.124,42.900999999999996,42.165,0.0,0.0,100.0,0.0,0.0,0.0,0.0,3124.285714285714,2960.3,3995.625,3827.5,305.247,305.44725,315.072,315.3315,21.8183,20.5321,21.8406,21.3489,314.999998,314.999998,324.999988,324.999988,99.55918571428572,99.50715,99.5669,99.54577142857143,0.007249999999999979,-0.121,-0.17333333333333334,0.05750000000000011,-0.03499999999999659,-0.05833333333333002,1.5583333333333333,1.613,37.364999999999995,29.325333333333333,37.504000000000005,34.4305,56.308,34.6215,59.594,51.872,54.219,33.7755,58.1935,50.2215,53.379000000000005,33.326499999999996,58.1395,49.64366666666667,-0.025499999999999856,-0.12400000000000011,0.11105000000000001,0.103425,0.0,207.07999999999998,207.01,204.08333333333331,204.08333333333331,0.0,0.0
5,0.0,0.0,0.0,1.0,1.0,0.0,0.0,1.0,0.0,0.0,1.0,1.1856,26.0,0.0,0.0,0.0,59.999996,0.0,26.0,26.0,26.0,26.0,-0.07099999999999995,0.2902,-0.0429,293.686,-2.6508,-2.721,-1.5472000000000001,-1.5734,-258.73,215.4325,190.88825,0.0,0.0,0.0,0.0,0.011433333333333295,-5.498166666666667,-5.498166666666667,-0.5359,0.602,-0.027444444444444382,-0.558,66.258,-0.0631,-0.219275,0.9800000000000004,100.0,1.0,1.0,204.57999999999998,0.0,0.0,0.0,0.0,0.0,0.0,0.0,8671.4,0.0,55.0,5.0,238.49666666666667,1.0,0.0,0.0,0.0,0.0,0.0,0.0,0.0,0.26099999999999923,0.26099999999999923,0.0,0.0,1.0,55.0,616.79921,10000.0,85.000001,85.000001,85.000001,85.000001,395.0,0.0,0.0,0.0,1.0,111.11,53.329,53.329,49.057,49.057,34.0,-26.17,20.098,-31.143333333333334,23.225,0.0,1782.991,0.240000000000002,100.0,27.576999999999998,27.125,42.344,41.675,0.0,0.0,100.0,0.0,0.0,0.0,0.0,3071.5714285714284,2868.7,3981.125,3991.2,305.5425,305.51375,315.19975,314.94,21.8282,20.5373,21.851,21.357599999999998,314.999998,314.999998,324.999988,324.999988,99.55918571428572,99.50716666666666,99.56704285714285,99.54591428571429,0.004999999999999893,-0.12033333333333318,-0.19666666666666666,0.030999999999999917,-0.046666666666666856,-0.060000000000002274,1.5723333333333334,1.626,37.426,29.358,37.569,34.485,56.292,34.662,59.629999999999995,51.9295,54.204,33.813,58.227000000000004,50.2765,53.364000000000004,33.3625,58.17,49.698,-0.05149999999999988,-0.09650000000000025,0.11049,0.10616,0.0,207.60000000000002,207.525,204.57999999999998,204.57999999999998,0.0,0.0
6,0.0,0.0,0.0,1.0,1.0,0.0,0.0,1.0,0.0,0.0,1.0,1.1856,26.0,0.0,0.0,0.0,59.999996,0.0,26.0,26.0,26.0,26.0,-0.09987499999999994,0.28770000000000007,0.03416,293.488,-2.6856999999999998,-2.7714444444444446,-1.4916,-1.5618,-255.94,215.4325,190.871125,0.0,0.0,0.0,0.0,0.01306666666666656,-5.498166666666667,-5.498166666666667,-0.5271,-0.278,-0.04811111111111144,-1.056,66.381,-0.0655,-0.20400000000000001,0.8560000000000008,100.0,1.0,1.0,204.79333333333335,0.0,0.0,0.0,0.0,0.0,0.0,0.0,8680.4,0.0,55.0,5.0,238.94333333333333,0.0,0.0,0.0,0.0,0.0,0.0,0.0,0.0,0.3030000000000008,0.3030000000000008,0.0,0.0,0.0,55.0,616.79921,10000.0,85.000001,85.000001,85.000001,85.000001,395.0,0.0,0.0,0.0,1.0,166.665,53.574,53.574,48.507999999999996,48.507999999999996,34.0,-28.1425,19.25,-32.849999999999994,23.7975,0.0,1782.948,0.33999999999999986,100.0,27.335,26.832,42.561,41.861000000000004,0.0,0.0,100.0,0.0,0.0,0.0,0.0,3192.285714285714,2774.6,4260.0,4046.2,305.276,305.87275,314.47925,314.753,21.836199999999998,20.5414,21.8597,21.365099999999998,314.999998,314.999998,324.999988,324.999988,99.55918571428572,99.50718333333333,99.56715714285714,99.54602857142856,-0.008750000000000036,-0.1316666666666666,-0.1845,0.028833333333333266,-0.04833333333333201,-0.045000000000001705,1.5006666666666666,1.5195,37.476,29.384,37.623000000000005,34.5315,56.278,34.694,59.663,51.9805,54.19,33.8425,58.2575,50.3255,53.349000000000004,33.391,58.198,49.745666666666665,-0.045499999999999874,-0.10349999999999993,0.10534500000000001,0.10626000000000001,0.0,207.94,207.875,204.79333333333335,204.79333333333335,0.0,0.0
7,0.0,0.0,0.0,1.0,1.0,0.0,0.0,1.0,0.0,0.0,1.0,1.1856,26.0,0.0,0.0,0.0,59.999996,0.0,26.0,26.0,26.0,26.0,-0.06387500000000002,0.29380000000000006,-0.006,293.442,-2.6801,-2.77,-1.5437500000000002,-1.6077,-252.35,215.43,190.849375,0.0,0.0,0.0,0.0,0.01516666666666655,-5.498166666666667,-5.498166666666667,-0.5338,0.13349999999999995,-0.040000000000000036,-0.2510000000000001,66.53399999999999,-0.0722,-0.2151,0.6979999999999995,100.0,1.0,1.0,205.34,0.0,0.0,0.0,0.0,0.0,0.0,0.0,8703.6,0.0,55.0,5.0,239.49333333333334,1.0,0.0,0.0,0.0,0.0,0.0,0.0,0.0,0.3569999999999993,0.3569999999999993,0.0,0.0,1.0,55.0,616.79921,10000.0,85.000001,85.000001,85.000001,85.000001,395.0,0.0,0.0,0.0,1.0,166.665,53.223,53.223,48.644999999999996,48.644999999999996,34.0,-27.252499999999998,21.016,-33.07,23.395,0.0,1782.893,-0.10999999999999943,100.0,27.619,26.992,42.623000000000005,41.808,0.0,0.0,100.0,0.0,0.0,0.0,0.0,3199.142857142857,2848.0,4170.75,3944.7,305.206,305.58875,314.742,315.0025,21.8467,20.5469,21.8709,21.3745,314.999998,314.999998,324.999988,324.999988,99.55918571428572,99.5072,99.56731428571429,99.54617142857143,0.014750000000000263,-0.10266666666666668,-0.195,0.026999999999999913,-0.07499999999999574,-0.036666666666668846,1.526,1.5755,37.542,29.418333333333333,37.693,34.5905,56.262,34.737,59.7035,52.043,54.175,33.882,58.295500000000004,50.3855,53.333,33.4285,58.233000000000004,49.80466666666666,-0.08099999999999996,-0.06550000000000011,0.10769500000000001,0.10557000000000001,0.0,208.445,208.35000000000002,205.34,205.34,0.0,0.0
8,0.0,0.0,0.0,1.0,1.0,0.0,0.0,1.0,0.0,0.0,1.0,1.1856,26.0,0.0,0.0,0.0,59.999996,0.0,26.0,26.0,26.0,26.0,-0.07387500000000002,0.2815000000000001,-0.01772,293.472,-2.6873,-2.711444444444444,-1.5524,-1.6056,-248.96,215.425,190.82875,0.0,0.0,0.0,0.0,0.017133333333333334,-5.498166666666667,-5.498166666666667,-0.5365,-0.09000000000000008,-0.030888888888888744,0.29600000000000004,66.679,-0.0621,-0.21960000000000002,0.20000000000000018,100.0,1.0,1.0,205.7866666666667,0.0,0.0,0.0,0.0,0.0,0.0,0.0,8722.5,0.0,55.0,5.0,240.01666666666665,0.0,0.0,0.0,0.0,0.0,0.0,0.0,0.0,0.40800000000000125,0.40800000000000125,0.0,0.0,0.0,55.0,616.79921,10000.0,85.000001,85.000001,85.000001,85.000001,395.0,0.0,0.0,0.0,1.0,166.665,53.299,53.299,48.431,48.431,34.0,-24.93,22.822000000000003,-30.556666666666665,25.4775,0.0,1782.843,-0.19500000000000028,100.0,27.536,26.938,42.735,41.881,0.0,0.0,100.0,0.0,0.0,0.0,0.0,3015.142857142857,3041.7,4043.0,3988.0,305.609,305.1825,314.97825,314.948,21.8565,20.5522,21.8815,21.383499999999998,314.999998,314.999998,324.999988,324.999988,99.5592,99.50721666666666,99.56745714285714,99.54631428571429,0.033250000000000224,-0.08166666666666678,-0.16583333333333333,0.0621666666666667,-0.03999999999999915,-0.054999999999999716,1.5483333333333333,1.5494999999999999,37.602999999999994,29.451333333333334,37.759,34.647,56.245999999999995,34.7765,59.7415,52.104,54.16,33.9185,58.331,50.444,53.317,33.463499999999996,58.2655,49.862,-0.09050000000000002,-0.05799999999999983,0.10700000000000001,0.10631000000000002,0.0,208.845,208.82,205.7866666666667,205.7866666666667,0.0,0.0
9,0.0,0.0,0.0,1.0,1.0,0.0,0.0,1.0,0.0,0.0,1.0,1.1856,26.0,0.0,0.0,0.0,59.999996,0.0,26.0,26.0,26.0,26.0,-0.04574999999999996,0.2913000000000001,0.01208,293.274,-2.6658,-2.7254444444444443,-1.5376500000000002,-1.562,-245.75,215.41750000000002,190.809125,0.0,0.0,0.0,0.0,0.018999999999999906,-5.498166666666667,-5.498166666666667,-0.5338,0.20599999999999996,-0.039888888888889085,0.747,66.815,-0.0471,-0.21225000000000002,0.05799999999999983,100.0,1.0,1.0,206.17666666666668,0.0,0.0,0.0,0.0,0.0,0.0,0.0,8739.1,0.0,55.0,5.0,240.50333333333333,1.0,0.0,0.0,0.0,0.0,0.0,0.0,0.0,0.4559999999999995,0.4559999999999995,0.0,0.0,1.0,55.0,616.79921,10000.0,85.000001,85.000001,85.000001,85.000001,395.0,0.0,0.0,0.0,1.0,166.665,53.04,53.04,48.66,48.66,34.0,-24.9625,23.119999999999997,-29.673333333333336,26.73,0.0,1782.794,-0.3000000000000007,100.0,27.727,26.945,42.668,41.916,0.0,0.0,100.0,0.0,0.0,0.0,0.0,3112.0,3049.9,4051.75,4121.5,305.2955,305.1735,314.97,314.66475,21.8657,20.5572,21.8914,21.392,314.999998,314.999998,324.999988,324.999988,99.5592,99.50721666666666,99.56758571428571,99.54644285714286,0.051000000000000156,-0.07866666666666666,-0.15033333333333335,0.07883333333333331,-0.03166666666666629,-0.061666666666667425,1.5466666666666666,1.551,37.661,29.482333333333333,37.821,34.7,56.232,34.8135,59.777,52.1605,54.146,33.9525,58.364,50.498,53.303,33.496,58.296,49.91466666666666,-0.09599999999999986,-0.053999999999999826,0.10440500000000001,0.11571500000000001,0.0,209.26,209.26999999999998,206.17666666666668,206.17666666666668,0.0,0.0
10,0.0,0.0,0.0,1.0,1.0,0.0,0.0,1.0,0.0,0.0,1.0,1.1856,26.0,0.0,0.0,0.0,59.999996,0.0,26.0,26.0,26.0,26.0,-0.009749999999999925,0.2944,0.00106,293.228,-2.6813,-2.698777777777778,-1.55555,-1.5461,-242.34,215.41,190.788375,0.0,0.0,0.0,0.0,0.020966666666666578,-5.498166666666667,-5.498166666666667,-0.5298,-0.2650000000000001,-0.015888888888889063,-0.038000000000000034,66.96000000000001,-0.0329,-0.21180000000000002,-0.07600000000000051,100.0,1.0,1.0,206.54666666666668,0.0,0.0,0.0,0.0,0.0,0.0,0.0,8754.7,0.0,55.0,5.0,241.02666666666664,0.0,0.0,0.0,0.0,0.0,0.0,1.0,0.0,0.5069999999999979,0.5069999999999979,0.0,0.0,0.0,55.0,616.79921,10000.0,85.000001,85.000001,85.000001,85.000001,395.0,0.0,0.0,0.0,1.0,111.11,53.314,53.314,48.400999999999996,48.400999999999996,34.0,-24.415,22.415999999999997,-30.433333333333334,27.785,0.0,1782.744,-0.3999999999999986,100.0,27.457,27.054000000000002,42.625,42.285,0.0,0.0,100.0,0.0,0.0,0.0,0.0,3105.0,2936.4,4146.375,4197.8,305.5015,305.3635,314.7795,314.38275,21.8755,20.5624,21.902,21.4011,314.999998,314.999998,324.999988,324.999988,99.5592,99.50723333333333,99.56772857142857,99.5466,0.060249999999999915,-0.07033333333333314,-0.14250000000000002,0.08650000000000002,-0.054999999999999716,-0.061666666666667425,1.5196666666666667,1.515,37.722,29.515,37.887,34.7565,56.217,34.851,59.8155,52.222,54.132999999999996,33.9875,58.4,50.557,53.289,33.5295,58.329,49.97266666666667,-0.11199999999999988,-0.03600000000000003,0.09765000000000001,0.11052500000000001,0.0,209.70499999999998,209.71,206.54666666666668,206.54666666666668,0.0,0.0
11,0.0,0.0,0.0,1.0,1.0,0.0,0.0,1.0,0.0,0.0,1.0,1.1856,26.0,0.0,0.0,0.0,59.999996,0.0,26.0,26.0,26.0,26.0,-0.001375000000000015,0.27459999999999996,-0.04658,293.51800000000003,-2.7058999999999997,-2.6932222222222224,-1.5628000000000002,-1.5205000000000002,-239.12,215.405,190.768625,0.0,0.0,0.0,0.0,0.022599999999999953,-5.498166666666667,-5.498166666666667,-0.55,-0.3340000000000001,0.006999999999999895,-0.369,67.093,-0.016800000000000002,-0.22415000000000002,-0.23399999999999999,100.0,1.0,1.0,207.06333333333333,0.0,0.0,0.0,0.0,0.0,0.0,0.0,8776.6,0.0,55.0,5.0,241.50666666666666,1.0,0.0,0.0,0.0,0.0,0.0,1.0,0.0,0.5549999999999997,0.5549999999999997,0.0,0.0,1.0,55.0,616.79921,10000.0,85.000001,85.000001,85.000001,85.000001,395.0,0.0,0.0,0.0,1.0,166.665,53.299,53.299,48.874,48.874,34.0,-24.88,23.256,-28.06,26.37,0.0,1782.696,-0.2699999999999996,100.0,27.212,27.073999999999998,42.433,42.302,0.0,0.0,100.0,0.0,0.0,0.0,0.0,3113.285714285714,3014.8,3938.5,4034.2,305.4935,305.12625,315.28875,314.8155,21.8846,20.5674,21.9118,21.4096,314.999998,314.999998,324.999988,324.999988,99.55921428571429,99.50723333333333,99.56785714285714,99.54672857142857,0.05624999999999991,-0.06533333333333324,-0.13366666666666666,0.09483333333333333,-0.05666666666667197,-0.051666666666669414,1.569,1.5554999999999999,37.778999999999996,29.546333333333333,37.949,34.81,56.203,34.8865,59.849000000000004,52.278999999999996,54.119,34.019999999999996,58.431,50.612,53.274,33.561,58.357,50.025999999999996,-0.09549999999999992,-0.05449999999999999,0.11062000000000001,0.10301500000000001,0.0,210.10500000000002,210.115,207.06333333333333,207.06333333333333,0.0,0.0
12,0.0,0.0,0.0,1.0,1.0,0.0,0.0,1.0,0.0,0.0,1.0,1.1856,26.0,0.0,0.0,0.0,59.999996,0.0,26.0,26.0,26.0,26.0,0.003249999999999975,0.2933000000000001,0.0056,293.167,-2.7087,-2.6764444444444444,-1.5649000000000002,-1.5329000000000002,-235.9,215.3975,190.748,0.0,0.0,0.0,0.0,0.025466666666666526,-5.498166666666667,-5.498166666666667,-0.543,0.4065,0.013555555555555543,-0.516,67.22800000000001,-0.0002,-0.20622500000000002,-0.42600000000000016,100.0,1.0,1.0,207.42000000000002,0.0,0.0,0.0,0.0,0.0,0.0,0.0,8791.8,0.0,55.0,5.0,241.99,0.0,0.0,0.0,0.0,0.0,0.0,1.0,0.0,0.602999999999998,0.602999999999998,0.0,0.0,0.0,55.0,616.79921,10000.0,85.000001,85.000001,85.000001,85.000001,395.0,0.0,0.0,0.0,1.0,166.665,53.009,53.009,48.37,48.37,34.0,-26.145,22.14,-28.073333333333334,29.0775,0.0,1782.647,0.745000000000001,100.0,27.369,27.404,42.268,42.302,0.0,0.0,100.0,0.0,0.0,0.0,0.0,3104.142857142857,3073.6,4119.625,4172.4,305.5,304.919,314.88475,314.50275,21.8937,20.5725,21.9217,21.418,314.999998,314.999998,324.999988,324.999988,99.55922857142858,99.50723333333333,99.568,99.54685714285715,0.025250000000000217,-0.1016666666666668,-0.10116666666666667,0.12050000000000005,-0.046666666666666856,-0.03999999999999915,1.5430000000000001,1.522,37.836,29.578333333333333,38.01,34.8625,56.191,34.9225,59.8825,52.335499999999996,54.107,34.0535,58.462,50.666,53.262,33.593,58.3855,50.07933333333334,-0.04699999999999993,-0.10349999999999993,0.09860000000000001,0.112365,0.0,210.535,210.55,207.42000000000002,207.42000000000002,0.0,0.0
13,0.0,0.0,0.0,1.0,1.0,0.0,0.0,1.0,0.0,0.0,1.0,1.1856,26.0,0.0,0.0,0.0,59.999996,0.0,26.0,26.0,26.0,26.0,0.03962500000000002,0.2946,0.02534,292.862,-2.6879,-2.699222222222222,-1.5557500000000002,-1.5462,-232.47,215.39,190.726375,0.0,0.0,0.0,0.0,0.026733333333333387,-5.498166666666667,-5.498166666666667,-0.5379,-0.2350000000000001,0.008888888888888946,1.162,67.37100000000001,0.0027,-0.21345,-0.3460000000000001,100.0,1.0,1.0,207.7733333333333,0.0,0.0,0.0,0.0,0.0,0.0,0.0,8806.7,0.0,55.0,5.0,242.50666666666666,1.0,0.0,0.0,0.0,0.0,0.0,1.0,0.0,0.6539999999999999,0.6539999999999999,0.0,0.0,1.0,55.0,616.79921,10000.0,85.000001,85.000001,85.000001,85.000001,395.0,0.0,0.0,0.0,1.0,166.665,52.872,52.872,48.065,48.065,34.0,-21.857499999999998,26.142,-28.28,30.3675,0.0,1782.598,-0.4450000000000003,100.0,27.715,27.401,42.739000000000004,42.647999999999996,0.0,0.0,100.0,0.0,0.0,0.0,0.0,3030.714285714286,3113.2,4108.875,4293.1,305.537,304.98775,314.7865,314.2515,21.9034,20.578,21.932299999999998,21.4272,314.999998,314.999998,324.999988,324.999988,99.55922857142858,99.50725,99.56814285714286,99.547,0.1120000000000001,-0.014000000000000012,-0.10316666666666667,0.12116666666666687,-0.036666666666668846,-0.05833333333333002,1.5063333333333333,1.503,37.896,29.612333333333332,38.077,34.92,56.177,34.9615,59.920500000000004,52.3985,54.094,34.0895,58.498,50.7265,53.248000000000005,33.6275,58.418,50.138666666666666,-0.121,-0.023499999999999854,0.10851500000000001,0.10630500000000001,0.0,210.965,210.98000000000002,207.7733333333333,207.7733333333333,0.0,0.0
14,0.0,0.0,0.0,1.0,1.0,0.0,0.0,1.0,0.0,0.0,1.0,1.1856,26.0,0.0,0.0,0.0,59.999996,0.0,26.0,26.0,26.0,26.0,0.044499999999999984,0.26900000000000013,-0.04206000000000001,293.121,-2.7106,-2.702111111111111,-1.59725,-1.5373,-228.62,215.3825,190.7025,0.0,0.0,0.0,0.0,0.028966666666666585,-5.498166666666667,-5.498166666666667,-0.5512,-0.02200000000000002,0.022333333333333316,-0.522,67.527,0.012100000000000001,-0.224525,-0.39200000000000035,100.0,1.0,1.0,208.36,0.0,0.0,0.0,0.0,0.0,0.0,0.0,8831.7,0.0,55.0,5.0,243.06666666666666,0.0,0.0,0.0,0.0,0.0,0.0,1.0,0.0,0.7109999999999985,0.7109999999999985,0.0,0.0,0.0,55.0,616.79921,10000.0,85.000001,85.000001,85.000001,85.000001,395.0,0.0,0.0,0.0,1.0,111.11,52.933,52.933,48.538,48.538,34.0,-23.075,24.490000000000002,-27.61,29.035,0.0,1782.541,-0.4349999999999987,100.0,27.525,27.699,42.452,42.768,0.0,0.0,100.0,0.0,0.0,0.0,0.0,3081.0,2992.4,4006.375,4101.5,305.589,305.13075,315.17125,314.6525,21.9141,20.5841,21.944,21.4374,314.999998,314.999998,324.999988,324.999988,99.55925714285715,99.50725,99.5683,99.54717142857143,0.09324999999999983,-0.033666666666666734,-0.10300000000000001,0.1306666666666667,-0.04833333333333201,-0.03833333333332689,1.553,1.541,37.963,29.650333333333336,38.15,34.9835,56.163,35.004,59.960499999999996,52.466499999999996,54.081,34.1285,58.5345,50.792,53.233000000000004,33.665,58.451499999999996,50.202666666666666,-0.10549999999999993,-0.03400000000000025,0.10735000000000001,0.10908000000000001,0.0,211.445,211.47500000000002,208.36,208.36,0.0,0.0
15,0.0,0.0,0.0,1.0,1.0,0.0,0.0,1.0,0.0,0.0,1.0,1.1856,26.0,0.0,0.0,0.0,59.999996,0.0,26.0,26.0,26.0,26.0,0.05037500000000006,0.27990000000000004,-0.01718,292.999,-2.6991,-2.682,-1.55565,-1.5582,-225.78,215.3775,190.684625,0.0,0.0,0.0,0.0,0.03059999999999996,-5.498166666666667,-5.498166666666667,-0.5448000000000001,0.23449999999999993,0.028444444444444272,-0.746,67.643,0.019200000000000002,-0.21402500000000002,-0.3899999999999997,100.0,1.0,1.0,208.67000000000002,0.0,0.0,0.0,0.0,0.0,0.0,0.0,8844.7,0.0,55.0,5.0,243.48666666666668,1.0,0.0,0.0,0.0,0.0,0.0,1.0,0.0,0.7530000000000001,0.7530000000000001,0.0,0.0,1.0,55.0,616.79921,10000.0,85.000001,85.000001,85.000001,85.000001,395.0,0.0,0.0,0.0,1.0,166.665,52.856,52.856,48.294,48.294,34.0,-22.8425,24.256,-27.256666666666664,29.645,0.0,1782.498,-0.28000000000000114,100.0,27.555,27.803,42.372,42.847,0.0,0.0,100.0,0.0,0.0,0.0,0.0,3077.5714285714284,3000.2,4096.125,4121.2,305.582,305.07825,314.93675,314.57075,21.922,20.5886,21.9526,21.4449,314.999998,314.999998,324.999988,324.999988,99.55925714285715,99.50726666666667,99.56841428571428,99.54728571428572,0.09600000000000009,-0.038000000000000034,-0.09016666666666667,0.13216666666666677,-0.04999999999999716,-0.036666666666668846,1.5333333333333334,1.5325,38.013,29.678666666666665,38.204,35.0305,56.152,35.0355,59.9895,52.516999999999996,54.07,34.1575,58.562,50.841,53.222,33.693,58.4765,50.25066666666667,-0.10349999999999993,-0.04600000000000026,0.10212500000000001,0.11013,0.0,211.82,211.82,208.67000000000002,208.67000000000002,0.0,0.0
16,0.0,0.0,0.0,1.0,1.0,0.0,0.0,1.0,0.0,0.0,1.0,1.1856,26.0,0.0,0.0,0.0,59.999996,0.0,26.0,26.0,26.0,26.0,0.03937499999999994,0.27690000000000015,0.0026600000000000005,292.77,-2.7572,-2.632111111111111,-1.5365,-1.556,-222.32999999999998,215.3725,190.6625,0.0,0.0,0.0,0.0,0.03259999999999996,-5.498166666666667,-5.498166666666667,-0.5524,-0.3760000000000001,0.02388888888888885,0.31399999999999995,67.783,0.0227,-0.223225,-0.28799999999999937,100.0,1.0,1.0,209.07333333333332,0.0,0.0,0.0,0.0,0.0,0.0,0.0,8861.8,0.0,55.0,5.0,243.99,0.0,0.0,0.0,0.0,0.0,0.0,1.0,0.0,0.8039999999999985,0.8039999999999985,0.0,0.0,0.0,55.0,616.79921,10000.0,85.000001,85.000001,85.000001,85.000001,395.0,0.0,0.0,0.0,1.0,166.665,52.582,52.582,47.928,47.928,34.0,-23.447499999999998,25.939999999999998,-26.4,30.005,0.0,1782.448,-0.23000000000000043,100.0,27.586,27.72,42.736000000000004,42.968,0.0,0.0,100.0,0.0,0.0,0.0,0.0,3072.5714285714284,3228.4,4046.0,4107.5,305.4815,304.6115,314.96,314.65475,21.9315,20.5941,21.9632,21.4541,314.999998,314.999998,324.999988,324.999988,99.55927142857144,99.50726666666667,99.56857142857143,99.54742857142857,0.09650000000000025,-0.03166666666666673,-0.08366666666666667,0.14200000000000013,-0.041666666666671404,-0.051666666666669414,1.5306666666666666,1.5145,38.072,29.71333333333333,38.269999999999996,35.088,56.138,35.073499999999996,60.0265,52.579,54.057,34.193,58.5965,50.9005,53.208,33.727000000000004,58.507999999999996,50.309,-0.09349999999999992,-0.06050000000000022,0.11303,0.10448,0.0,212.22500000000002,212.25,209.07333333333332,209.07333333333332,0.0,0.0
17,0.0,0.0,0.0,1.0,1.0,0.0,0.0,1.0,0.0,0.0,1.0,1.1856,26.0,0.0,0.0,0.0,59.999996,0.0,26.0,26.0,26.0,26.0,0.044499999999999984,0.27690000000000015,0.0347,292.572,-2.6303,-2.715111111111111,-1.5482,-1.577,-218.46,215.3675,190.637625,0.0,0.0,0.0,0.0,0.0348666666666666,-5.498166666666667,-5.498166666666667,-0.5509000000000001,0.11199999999999999,-0.0025555555555558662,-1.0420000000000003,67.938,0.0189,-0.21815,-0.09999999999999964,100.0,1.0,1.0,209.51666666666665,0.0,0.0,0.0,0.0,0.0,0.0,0.0,8880.6,0.0,55.0,5.0,244.55,1.0,0.0,0.0,0.0,0.0,0.0,1.0,0.0,0.8610000000000007,0.8610000000000007,0.0,0.0,1.0,55.0,616.79921,10000.0,85.000001,85.000001,85.000001,85.000001,395.0,0.0,0.0,0.0,1.0,111.11,52.551,52.551,47.729,47.729,34.0,-22.8925,24.43,-28.346666666666664,30.265,0.0,1782.39,-0.1750000000000007,100.0,27.761,28.035,42.684,43.064,0.0,0.0,100.0,0.0,0.0,0.0,0.0,3106.714285714286,3009.6,4217.75,4181.0,305.458,304.985,314.6305,314.41675,21.9422,20.6003,21.974899999999998,21.4643,314.999998,314.999998,324.999988,324.999988,99.55928571428572,99.50726666666667,99.56872857142857,99.54758571428572,0.08725000000000005,-0.045333333333333226,-0.0905,0.12583333333333324,-0.04999999999999716,-0.054999999999999716,1.496,1.5035,38.138999999999996,29.752000000000002,38.343,35.1515,56.123999999999995,35.117,60.067,52.6465,54.043,34.2335,58.634,50.9655,53.193,33.7655,58.542,50.373,-0.08899999999999997,-0.06700000000000017,0.10389500000000002,0.10610000000000001,0.0,212.72500000000002,212.74,209.51666666666665,209.51666666666665,0.0,0.0
18,0.0,0.0,0.0,1.0,1.0,0.0,0.0,1.0,0.0,0.0,1.0,1.1856,26.0,0.0,0.0,0.0,59.999996,0.0,26.0,26.0,26.0,26.0,0.028999999999999915,0.2793000000000001,0.05454,292.435,-2.6599,-2.741888888888889,-1.5343,-1.485,-215.61,215.365,190.619125,0.0,0.0,0.0,0.0,0.03653333333333331,-5.498166666666667,-5.498166666666667,-0.5599000000000001,-0.3095000000000001,-0.0005555555555556424,-0.6260000000000001,68.053,0.012700000000000001,-0.2238,-0.0420000000000007,100.0,1.0,1.0,209.8466666666667,0.0,0.0,0.0,0.0,0.0,0.0,0.0,8894.6,0.0,55.0,5.0,244.96333333333334,0.0,0.0,0.0,0.0,0.0,0.0,1.0,0.0,0.9029999999999987,0.9029999999999987,0.0,0.0,0.0,55.0,616.79921,10000.0,85.000001,85.000001,85.000001,85.000001,395.0,0.0,0.0,0.0,1.0,166.665,52.383,52.383,47.699,47.699,34.0,-23.6675,25.189999999999998,-28.563333333333333,28.855,0.0,1782.348,-0.19500000000000028,100.0,27.739,27.926000000000002,42.828,43.181,0.0,0.0,100.0,0.0,0.0,0.0,0.0,3167.714285714286,3090.5,4172.625,4247.7,305.298,304.7345,314.701,314.30275,21.95,20.6048,21.9836,21.4718,314.999998,314.999998,324.999988,324.999988,99.5593,99.50726666666667,99.56884285714285,99.54771428571429,0.08749999999999991,-0.050999999999999934,-0.10433333333333333,0.11416666666666675,-0.051666666666669414,-0.03333333333333144,1.4996666666666667,1.5005,38.188,29.78,38.397999999999996,35.199,56.113,35.147999999999996,60.097,52.697,54.032,34.262,58.662,51.013999999999996,53.181,33.793,58.567499999999995,50.42033333333333,-0.09599999999999986,-0.06300000000000017,0.10701000000000001,0.10704000000000001,0.0,213.075,213.055,209.8466666666667,209.8466666666667,0.0,0.0
19,0.0,0.0,0.0,1.0,1.0,0.0,0.0,1.0,0.0,0.0,1.0,1.1856,26.0,0.0,0.0,0.0,59.999996,0.0,26.0,26.0,26.0,26.0,0.026874999999999982,0.27380000000000004,0.05688,292.221,-2.6308,-2.7124444444444444,-1.53125,-1.6097000000000001,-212.13,215.3625,190.596375,0.0,0.0,0.0,0.0,0.03853333333333331,-5.498166666666667,-5.498166666666667,-0.553,0.5549999999999999,0.00822222222222213,0.747,68.19,0.0071,-0.21645,-0.08999999999999986,100.0,1.0,1.0,210.28,0.0,0.0,0.0,0.0,0.0,0.0,0.0,8913.1,0.0,55.0,5.0,245.45666666666665,1.0,0.0,0.0,0.0,0.0,0.0,1.0,0.0,0.9540000000000006,0.9540000000000006,0.0,0.0,1.0,55.0,616.79921,10000.0,85.000001,85.000001,85.000001,85.000001,395.0,0.0,0.0,0.0,1.0,166.665,52.002,52.002,47.791,47.791,34.0,-22.662499999999998,25.286,-27.816666666666663,31.175,0.0,1782.298,-0.18499999999999872,100.0,28.432,28.178,42.925,43.153,0.0,0.0,100.0,0.0,0.0,0.0,0.0,3076.857142857143,3144.6,4124.25,4282.2,305.365,304.75575,314.799,314.22,21.959699999999998,20.6104,21.9941,21.4809,314.999998,314.999998,324.999988,324.999988,99.55931428571428,99.50728333333333,99.569,99.54787142857143,0.09200000000000008,-0.04899999999999993,-0.09833333333333333,0.1180000000000001,-0.03833333333332689,-0.06666666666666998,1.5013333333333332,1.4929999999999999,38.248000000000005,29.815333333333335,38.463,35.256,56.101,35.188,60.132,52.757999999999996,54.021,34.299,58.6945,51.0725,53.169,33.8285,58.597,50.477666666666664,-0.09399999999999986,-0.06599999999999984,0.10631000000000002,0.09738500000000001,0.0,213.53,213.54000000000002,210.28,210.28,0.0,0.0
20,0.0,0.0,0.0,1.0,1.0,0.0,0.0,1.0,0.0,0.0,1.0,1.1856,26.0,0.0,0.0,0.0,59.999996,0.0,26.0,26.0,26.0,26.0,0.016625000000000112,0.2571000000000001,-0.03658,292.48,-2.7052,-2.6500000000000004,-1.60895,-1.5925,-208.24,215.36,190.57125,0.0,0.0,0.0,0.0,0.04079999999999995,-5.498166666666667,-5.498166666666667,-0.558,-0.661,0.007555555555555538,-0.7430000000000001,68.343,0.0019,-0.22695,0.04999999999999982,100.0,1.0,1.0,210.78333333333333,0.0,0.0,0.0,0.0,0.0,0.0,0.0,8934.4,0.0,55.0,5.0,246.01,0.0,0.0,0.0,0.0,0.0,0.0,0.0,0.0,1.0109999999999992,1.0109999999999992,0.0,0.0,0.0,55.0,616.79921,10000.0,85.000001,85.000001,85.000001,85.000001,395.0,0.0,0.0,0.0,1.0,111.11,52.505,52.505,47.485,47.485,34.0,-24.07,23.79,-29.456666666666663,28.5775,0.0,1782.24,-0.19500000000000028,100.0,27.873,28.070999999999998,43.361000000000004,43.594,0.0,0.0,100.0,0.0,0.0,0.0,0.0,3131.142857142857,3049.3,4104.25,3995.9,305.4785,305.00525,314.8955,314.88075,21.9703,20.6166,22.006,21.4912,314.999998,314.999998,324.999988,324.999988,99.55931428571428,99.5073,99.56915714285714,99.54802857142857,0.07900000000000018,-0.052000000000000046,-0.11566666666666667,0.12116666666666687,-0.046666666666666856,-0.04999999999999716,1.5246666666666666,1.5185,38.314,29.853666666666665,38.537,35.320499999999996,56.085,35.231,60.1745,52.827,54.006,34.338499999999996,58.734,51.138999999999996,53.153,33.867,58.6325,50.54266666666666,-0.09299999999999997,-0.0665,0.10659,0.11506500000000001,0.0,213.97500000000002,213.965,210.78333333333333,210.78333333333333,0.0,0.0
21,0.0,0.0,0.0,1.0,1.0,0.0,0.0,1.0,0.0,0.0,1.0,1.1856,26.0,0.0,0.0,0.0,59.999996,0.0,26.0,26.0,26.0,26.0,0.01737499999999992,0.27459999999999996,-0.04474,292.618,-2.7182,-2.663444444444444,-1.56595,-1.5312000000000001,-205.37,215.35750000000002,190.552375,0.0,0.0,0.0,0.0,0.04246666666666654,-5.498166666666667,-5.498166666666667,-0.5730000000000001,-0.03849999999999998,-0.0012222222222222356,-0.718,68.455,-0.0012000000000000001,-0.22462500000000002,0.02400000000000002,100.0,1.0,1.0,211.19,0.0,0.0,0.0,0.0,0.0,0.0,0.0,8951.6,0.0,55.0,5.0,246.41,1.0,0.0,0.0,0.0,0.0,0.0,0.0,0.0,1.0530000000000008,1.0530000000000008,0.0,0.0,1.0,55.0,616.79921,10000.0,85.000001,85.000001,85.000001,85.000001,395.0,0.0,0.0,0.0,1.0,166.665,52.429,52.429,48.08,48.08,34.0,-25.0925,24.055999999999997,-27.896666666666665,27.3,0.0,1782.198,-0.22499999999999787,100.0,27.889,27.913,43.056,43.277,0.0,0.0,100.0,0.0,0.0,0.0,0.0,3225.857142857143,3070.7,4057.0,4008.9,305.1965,304.982,315.05525,314.93275,21.9781,20.6211,22.014499999999998,21.4987,314.999998,314.999998,324.999988,324.999988,99.55932857142857,99.5073,99.56927142857143,99.54814285714286,0.07799999999999985,-0.052000000000000046,-0.10833333333333334,0.11516666666666686,-0.054999999999999716,-0.023333333333326323,1.5613333333333332,1.5594999999999999,38.363,29.881999999999998,38.591,35.367,56.074,35.263,60.202,52.875,53.995000000000005,34.368,58.7595,51.1855,53.141,33.894999999999996,58.656,50.58833333333333,-0.09599999999999986,-0.06349999999999989,0.09949000000000001,0.110575,0.0,214.32999999999998,214.315,211.19,211.19,0.0,0.0
22,0.0,0.0,0.0,1.0,1.0,0.0,0.0,1.0,0.0,0.0,1.0,1.1856,26.0,0.0,0.0,0.0,59.999996,0.0,26.0,26.0,26.0,26.0,-0.010000000000000009,0.28280000000000016,-0.009420000000000001,292.236,-2.7533,-2.668555555555556,-1.596,-1.5329000000000002,-201.87,215.35500000000002,190.52875,0.0,0.0,0.0,0.0,0.044499999999999984,-5.498166666666667,-5.498166666666667,-0.5584,0.10299999999999998,0.005777777777777882,1.075,68.592,-0.002,-0.20047500000000001,-0.1459999999999999,100.0,1.0,1.0,211.46666666666667,0.0,0.0,0.0,0.0,0.0,0.0,0.0,8963.3,0.0,55.0,5.0,246.90333333333334,0.0,0.0,0.0,0.0,0.0,0.0,0.0,0.0,1.1039999999999992,1.1039999999999992,0.0,0.0,0.0,55.0,616.79921,10000.0,85.000001,85.000001,85.000001,85.000001,395.0,0.0,0.0,0.0,1.0,166.665,52.505,52.505,47.226,47.226,34.0,-23.9075,24.798000000000002,-30.62,30.6675,0.0,1782.148,-0.3049999999999997,100.0,28.112000000000002,27.83,43.244,43.203,0.0,0.0,100.0,0.0,0.0,0.0,0.0,3066.857142857143,3158.3,4265.625,4377.5,305.5535,304.91275,314.4845,314.11775,21.9876,20.6267,22.025,21.5078,314.999998,314.999998,324.999988,324.999988,99.55934285714285,99.5073,99.56941428571429,99.5483,0.08300000000000018,-0.048666666666666636,-0.111,0.11683333333333334,-0.04333333333332945,-0.06666666666666998,1.492,1.4929999999999999,38.423,29.916666666666664,38.656,35.424,56.061,35.302,60.239,52.9355,53.983000000000004,34.4045,58.794,51.2435,53.128,33.93,58.687,50.644999999999996,-0.09799999999999986,-0.05449999999999999,0.10817500000000001,0.10641,0.0,214.755,214.79000000000002,211.46666666666667,211.46666666666667,0.0,0.0
23,0.0,0.0,0.0,1.0,1.0,0.0,0.0,1.0,0.0,0.0,1.0,1.1856,26.0,0.0,0.0,0.0,59.999996,0.0,26.0,26.0,26.0,26.0,0.017625000000000002,0.2754000000000001,0.0068200000000000005,292.038,-2.6601,-2.685666666666667,-1.63955,-1.5411000000000001,-197.95999999999998,215.35500000000002,190.502375,0.0,0.0,0.0,0.0,0.04676666666666651,-5.498166666666667,-5.498166666666667,-0.5737,-0.26049999999999995,0.004222222222222127,-0.597,68.743,0.0015,-0.226025,-0.07600000000000051,100.0,1.0,1.0,211.95,0.0,0.0,0.0,0.0,0.0,0.0,0.0,8983.8,0.0,55.0,5.0,247.44666666666666,1.0,0.0,0.0,0.0,0.0,0.0,0.0,0.0,1.1610000000000014,1.1610000000000014,0.0,0.0,1.0,55.0,616.79921,10000.0,85.000001,85.000001,85.000001,85.000001,395.0,0.0,0.0,0.0,1.0,111.11,52.094,52.094,47.318,47.318,34.0,-24.365,23.97,-31.283333333333335,29.45,0.0,1782.09,-0.3049999999999997,100.0,28.251,28.212,43.370000000000005,43.614000000000004,0.0,0.0,100.0,0.0,0.0,0.0,0.0,3214.142857142857,3042.5,4302.875,4193.2,305.15,304.98175,314.505,314.47475,21.9983,20.6329,22.0368,21.5182,314.999998,314.999998,324.999988,324.999988,99.55935714285714,99.50731666666667,99.56958571428571,99.54845714285715,0.08225000000000016,-0.055333333333333234,-0.10966666666666668,0.11949999999999994,-0.054999999999999716,-0.051666666666669414,1.5083333333333333,1.5035,38.489000000000004,29.955666666666666,38.730000000000004,35.4885,56.046,35.346000000000004,60.2805,53.004,53.969,34.445,58.832499999999996,51.3095,53.113,33.969,58.722,50.709666666666664,-0.09899999999999998,-0.05449999999999999,0.10696000000000001,0.11503500000000001,0.0,215.215,215.20499999999998,211.95,211.95,0.0,0.0
24,0.0,0.0,0.0,1.0,1.0,0.0,0.0,1.0,0.0,0.0,1.0,1.1856,26.0,0.0,0.0,0.0,59.999996,0.0,26.0,26.0,26.0,26.0,0.017249999999999988,0.2712000000000001,-0.021880000000000004,292.419,-2.6865,-2.666444444444444,-1.5479,-1.5579,-195.07,215.35250000000002,190.482625,0.0,0.0,0.0,0.0,0.04846666666666655,-5.498166666666667,-5.498166666666667,-0.5851000000000001,-0.3320000000000001,0.013111111111111073,-0.29499999999999993,68.854,0.0012000000000000001,-0.22365000000000002,-0.11799999999999944,100.0,1.0,1.0,212.31333333333333,0.0,0.0,0.0,0.0,0.0,0.0,0.0,8999.2,0.0,55.0,5.0,247.84666666666666,0.0,0.0,0.0,0.0,0.0,0.0,0.0,0.0,1.2029999999999994,1.2029999999999994,0.0,0.0,0.0,55.0,616.79921,10000.0,85.000001,85.000001,85.000001,85.000001,395.0,0.0,0.0,0.0,1.0,166.665,52.643,52.643,47.424,47.424,34.0,-23.0175,23.384,-29.24,28.785,0.0,1782.047,-0.3000000000000007,100.0,28.069,28.027,43.289,43.521,0.0,0.0,100.0,0.0,0.0,0.0,0.0,3055.714285714286,2987.1,4205.0,4124.7,305.6625,305.219,314.65275,314.60625,22.006,20.6374,22.0455,21.5257,314.999998,314.999998,324.999988,324.999988,99.55935714285714,99.50731666666667,99.56971428571428,99.54857142857144,0.08550000000000013,-0.05166666666666675,-0.11033333333333332,0.11266666666666669,-0.051666666666669414,-0.03833333333332689,1.5230000000000001,1.5135,38.538,29.984,38.784,35.5355,56.035,35.376999999999995,60.309,53.053,53.958,34.4735,58.859,51.357,53.102000000000004,33.9965,58.746,50.756,-0.10349999999999993,-0.05049999999999999,0.097475,0.10959,0.0,215.57,215.55,212.31333333333333,212.31333333333333,0.0,0.0
25,0.0,0.0,0.0,1.0,1.0,0.0,0.0,1.0,0.0,0.0,1.0,1.1856,26.0,0.0,0.0,0.0,59.999996,0.0,26.0,26.0,26.0,26.0,0.02662500000000012,0.2614000000000001,-0.018740000000000003,292.191,-2.6824,-2.664,-1.5875,-1.556,-191.35,215.35250000000002,190.455875,0.0,0.0,0.0,0.0,0.05063333333333331,-5.498166666666667,-5.498166666666667,-0.6022000000000001,0.135,0.016666666666666607,-0.919,68.995,0.004,-0.219775,-0.15399999999999991,100.0,1.0,1.0,212.8,0.0,0.0,0.0,0.0,0.0,0.0,0.0,9019.8,0.0,55.0,5.0,248.35333333333335,1.0,0.0,0.0,0.0,0.0,0.0,0.0,0.0,1.256999999999998,1.256999999999998,0.0,0.0,1.0,55.0,616.79921,10000.0,85.000001,85.000001,85.000001,85.000001,395.0,0.0,0.0,0.0,1.0,111.11,51.788,51.788,47.791,47.791,34.0,-24.9425,25.918,-28.23,28.835,0.0,1781.994,-0.3000000000000007,100.0,28.022,28.215,43.064,43.297,0.0,0.0,100.0,0.0,0.0,0.0,0.0,3297.5714285714284,3234.8,4088.5,4103.8,304.921,304.4165,315.0245,314.67375,22.016,20.6434,22.0565,21.5354,314.999998,314.999998,324.999988,324.999988,99.55937142857142,99.50731666666667,99.56985714285715,99.54874285714286,0.08999999999999986,-0.045666666666666744,-0.10233333333333333,0.11916666666666687,-0.051666666666669414,-0.05666666666667197,1.5316666666666667,1.525,38.599999999999994,30.021333333333335,38.852999999999994,35.596000000000004,56.019999999999996,35.4185,60.345,53.1155,53.944,34.5125,58.8925,51.417,53.086,34.033500000000004,58.7765,50.81466666666667,-0.10599999999999987,-0.05900000000000016,0.10308,0.10687,0.0,216.0,216.0,212.8,212.8,0.0,0.0
26,0.0,0.0,0.0,1.0,1.0,0.0,0.0,1.0,0.0,0.0,1.0,1.1856,26.0,0.0,0.0,0.0,59.999996,0.0,26.0,26.0,26.0,26.0,0.0202500000000001,0.26980000000000004,0.06828,291.443,-2.7045,-2.6606666666666667,-1.54975,-1.5577,-187.82999999999998,215.35,190.430375,0.0,0.0,0.0,0.0,0.05266666666666653,-5.498166666666667,-5.498166666666667,-0.5744,0.241,0.00955555555555554,0.999,69.131,0.0058000000000000005,-0.20285,-0.24799999999999933,100.0,1.0,1.0,213.01666666666665,0.0,0.0,0.0,0.0,0.0,0.0,0.0,9029.0,0.0,55.0,5.0,248.84333333333336,0.0,0.0,0.0,0.0,0.0,0.0,0.0,0.0,1.3079999999999998,1.3079999999999998,0.0,0.0,0.0,55.0,616.79921,10000.0,85.000001,85.000001,85.000001,85.000001,395.0,0.0,0.0,0.0,1.0,166.665,51.727,51.727,46.738,46.738,34.0,-23.4625,25.23,-29.906666666666666,33.1525,0.0,1781.943,-0.3299999999999983,100.0,28.797,28.405,43.629,43.673,0.0,0.0,100.0,0.0,0.0,0.0,0.0,3164.5714285714284,3177.2,4393.75,4491.9,305.216,304.88,314.1655,313.7535,22.0255,20.6491,22.0671,21.5447,314.999998,314.999998,324.999988,324.999988,99.55938571428571,99.50733333333334,99.57001428571428,99.54888571428572,0.10475000000000012,-0.04066666666666663,-0.08716666666666667,0.12783333333333324,-0.023333333333326323,-0.051666666666669414,1.459,1.417,38.66,30.057000000000002,38.919,35.6545,56.01,35.459,60.3825,53.178,53.934,34.5495,58.9275,51.477000000000004,53.075,34.069,58.8085,50.873333333333335,-0.11299999999999999,-0.052999999999999936,0.10366,0.10844000000000001,0.0,216.425,216.44,213.01666666666665,213.01666666666665,0.0,0.0
27,0.0,0.0,0.0,1.0,1.0,0.0,0.0,1.0,0.0,0.0,1.0,1.1856,26.0,0.0,0.0,0.0,59.999996,0.0,26.0,26.0,26.0,26.0,0.0318750000000001,0.2538,-0.038239999999999996,291.87,-2.7532,-2.666888888888889,-1.61245,-1.5383,-184.70999999999998,215.35,190.408625,0.0,0.0,0.0,0.0,0.05446666666666655,-5.498166666666667,-5.498166666666667,-0.5953,-0.8245,0.015666666666666718,-0.591,69.247,0.0105,-0.236075,-0.24600000000000044,100.0,1.0,1.0,213.49333333333334,0.0,0.0,0.0,0.0,0.0,0.0,0.0,9049.2,0.0,55.0,5.0,249.26333333333332,1.0,0.0,0.0,0.0,0.0,0.0,0.0,0.0,1.352999999999998,1.352999999999998,0.0,0.0,1.0,55.0,616.79921,10000.0,85.000001,85.000001,85.000001,85.000001,395.0,0.0,0.0,0.0,1.0,166.665,51.971000000000004,51.971000000000004,46.753,46.753,34.0,-23.982499999999998,24.658,-29.606666666666666,28.525,0.0,1781.898,-0.28000000000000114,100.0,28.318,28.595,43.921,44.104,0.0,0.0,100.0,0.0,0.0,0.0,0.0,3148.714285714286,3108.6,4177.375,4077.8,305.501,304.79925,314.781,314.78075,22.0338,20.6541,22.0764,21.5529,314.999998,314.999998,324.999988,324.999988,99.5594,99.50733333333334,99.57014285714286,99.54901428571429,0.09375,-0.04933333333333323,-0.10516666666666667,0.12050000000000005,-0.05666666666667197,-0.041666666666671404,1.5150000000000001,1.498,38.711,30.088,38.977999999999994,35.706,55.998999999999995,35.4935,60.4155,53.232,53.923,34.5815,58.9585,51.528999999999996,53.063,34.0995,58.8365,50.92433333333334,-0.10599999999999987,-0.05500000000000016,0.10521000000000001,0.10504000000000001,0.0,216.76,216.755,213.49333333333334,213.49333333333334,0.0,0.0
28,0.0,0.0,0.0,1.0,1.0,0.0,0.0,1.0,0.0,0.0,1.0,1.1856,26.0,0.0,0.0,0.0,59.999996,0.0,26.0,26.0,26.0,26.0,0.015125000000000055,0.2639,-0.03672,292.007,-2.681,-2.658888888888889,-1.6274000000000002,-1.5659,-181.18,215.35,190.38325,0.0,0.0,0.0,0.0,0.056533333333333324,-5.498166666666667,-5.498166666666667,-0.6027,0.5329999999999999,0.006000000000000005,0.31099999999999994,69.377,0.0131,-0.218725,-0.2839999999999998,100.0,1.0,1.0,213.98666666666668,0.0,0.0,0.0,0.0,0.0,0.0,0.0,9070.1,0.0,55.0,5.0,249.73000000000002,0.0,0.0,0.0,0.0,0.0,0.0,0.0,0.0,1.404,1.404,0.0,0.0,0.0,55.0,616.79921,10000.0,85.000001,85.000001,85.000001,85.000001,395.0,0.0,0.0,0.0,1.0,166.665,51.894999999999996,51.894999999999996,47.44,47.44,34.0,-22.419999999999998,25.742,-28.113333333333333,30.085,0.0,1781.847,-0.33500000000000085,100.0,28.583,28.427,43.478,43.653,0.0,0.0,100.0,0.0,0.0,0.0,0.0,3074.142857142857,3201.5,4090.125,4144.3,305.4315,304.69875,315.01575,314.6655,22.0432,20.6598,22.0868,21.5621,314.999998,314.999998,324.999988,324.999988,99.55941428571428,99.50735,99.57028571428572,99.54915714285714,0.10725000000000007,-0.03699999999999992,-0.09016666666666667,0.137,-0.02833333333332888,-0.06499999999999773,1.5513333333333335,1.5345,38.769999999999996,30.124000000000002,39.042,35.763,55.986000000000004,35.533,60.448,53.29,53.912,34.618,58.9885,51.585,53.051,34.1345,58.863,50.979,-0.10899999999999999,-0.05650000000000022,0.10240500000000001,0.10924500000000001,0.0,217.185,217.21,213.98666666666668,213.98666666666668,0.0,0.0
29,0.0,0.0,0.0,1.0,1.0,0.0,0.0,1.0,0.0,0.0,1.0,1.1856,26.0,0.0,0.0,0.0,59.999996,0.0,26.0,26.0,26.0,26.0,0.02825000000000011,0.2593000000000001,-0.02062,291.87,-2.7519,-2.587111111111111,-1.60345,-1.5505,-177.43,215.35250000000002,190.355375,0.0,0.0,0.0,0.0,0.058699999999999974,-5.498166666666667,-5.498166666666667,-0.6056,-0.7230000000000001,0.0012222222222222356,0.808,69.519,0.013600000000000001,-0.21565,-0.2860000000000005,100.0,1.0,1.0,214.26333333333332,0.0,0.0,0.0,0.0,0.0,0.0,0.0,9081.8,0.0,55.0,5.0,250.24333333333334,1.0,0.0,0.0,0.0,0.0,0.0,0.0,0.0,1.4579999999999984,1.4579999999999984,0.0,0.0,1.0,55.0,616.79921,10000.0,85.000001,85.000001,85.000001,85.000001,395.0,0.0,0.0,0.0,1.0,111.11,52.307,52.307,46.982,46.982,34.0,-23.34,24.834,-28.703333333333333,31.305,0.0,1781.794,-0.41999999999999815,100.0,28.258,28.18,43.870000000000005,43.946,0.0,0.0,100.0,0.0,0.0,0.0,0.0,3117.142857142857,3196.0,4148.75,4315.5,305.544,304.979,314.76725,314.218,22.053,20.6657,22.098,21.572,314.999998,314.999998,324.999988,324.999988,99.55942857142857,99.50735,99.57044285714285,99.54931428571429,0.10349999999999993,-0.03400000000000003,-0.08983333333333333,0.1303333333333332,-0.04333333333332945,-0.04999999999999716,1.4823333333333333,1.4815,38.831,30.160666666666664,39.111999999999995,35.8245,55.972,35.573,60.4875,53.355000000000004,53.897999999999996,34.655,59.0255,51.6475,53.036,34.17,58.8965,51.04,-0.11149999999999993,-0.05699999999999994,0.10620500000000001,0.10222500000000001,0.0,217.59,217.615,214.26333333333332,214.26333333333332,0.0,0.0
30,0.0,0.0,0.0,1.0,1.0,0.0,0.0,1.0,0.0,0.0,1.0,1.1856,26.0,0.0,0.0,0.0,59.999996,0.0,26.0,26.0,26.0,26.0,0.050124999999999975,0.2582,-0.008820000000000001,291.275,-2.6364,-2.720888888888889,-1.6418,-1.5997,-174.3,215.35500000000002,190.332,0.0,0.0,0.0,0.0,0.06053333333333333,-5.498166666666667,-5.498166666666667,-0.6089,0.7110000000000001,0.002666666666666595,-0.3860000000000001,69.632,0.013900000000000001,-0.2197,-0.2920000000000007,100.0,1.0,1.0,214.73666666666668,0.0,0.0,0.0,0.0,0.0,0.0,0.0,9101.8,0.0,55.0,5.0,250.65,0.0,0.0,0.0,0.0,0.0,0.0,1.0,0.0,1.5030000000000001,1.5030000000000001,0.0,0.0,0.0,55.0,616.79921,10000.0,85.000001,85.000001,85.000001,85.000001,395.0,0.0,0.0,0.0,1.0,166.665,50.522,50.522,47.318,47.318,34.0,-25.619999999999997,27.747999999999998,-29.486666666666665,29.3125,0.0,1781.748,-0.4349999999999987,100.0,28.956,28.98,43.519,43.981,0.0,0.0,100.0,0.0,0.0,0.0,0.0,3481.142857142857,3371.9,4166.5,4052.4,304.4535,303.9655,314.9695,314.775,22.0614,20.6709,22.1072,21.5801,314.999998,314.999998,324.999988,324.999988,99.55944285714286,99.50735,99.57057142857143,99.54944285714285,0.09799999999999986,-0.04699999999999993,-0.10283333333333333,0.12433333333333318,-0.05666666666667197,-0.05666666666667197,1.5366666666666666,1.5225,38.884,30.193333333333335,39.17,35.8755,55.965,35.6095,60.5165,53.407,53.891,34.689,59.0525,51.698,53.028,34.2025,58.921,51.089,-0.11999999999999988,-0.05500000000000016,0.106935,0.0984,0.0,217.97,217.98000000000002,214.73666666666668,214.73666666666668,0.0,0.0
31,0.0,0.0,0.0,1.0,1.0,0.0,0.0,1.0,0.0,0.0,1.0,1.1856,26.0,0.0,0.0,0.0,59.999996,0.0,26.0,26.0,26.0,26.0,0.03649999999999998,0.2479,0.08,290.726,-2.7719,-2.622777777777778,-1.6457000000000002,-1.5415,-170.53,215.35750000000002,190.304625,0.0,0.0,0.0,0.0,0.06273333333333331,-5.498166666666667,-5.498166666666667,-0.5868,-0.37949999999999995,0.013777777777777889,-0.6910000000000001,69.773,0.0177,-0.21937500000000001,-0.26399999999999935,100.0,1.0,1.0,214.95,0.0,0.0,0.0,0.0,0.0,0.0,0.0,9111.0,0.0,55.0,5.0,251.15666666666667,1.0,0.0,0.0,0.0,0.0,0.0,1.0,0.0,1.5569999999999986,1.5569999999999986,0.0,0.0,1.0,55.0,616.79921,10000.0,85.000001,85.000001,85.000001,85.000001,395.0,0.0,0.0,0.0,1.0,166.665,51.041,51.041,45.638999999999996,45.638999999999996,34.0,-24.55,26.412,-31.876666666666665,32.155,0.0,1781.694,-0.4400000000000013,100.0,28.87,29.245,44.322,44.787,0.0,0.0,100.0,0.0,0.0,0.0,0.0,3253.5714285714284,3287.8,4384.5,4363.8,305.193,304.3375,314.22025,313.94575,22.0714,20.6771,22.1185,21.5902,314.999998,314.999998,324.999988,324.999988,99.55945714285714,99.50736666666667,99.57072857142857,99.5496,0.10650000000000004,-0.03499999999999992,-0.09566666666666668,0.1306666666666667,-0.036666666666668846,-0.041666666666671404,1.429,1.4175,38.946,30.231666666666666,39.241,35.9385,55.953,35.652,60.558,53.4745,53.879000000000005,34.7285,59.091,51.763,53.015,34.2405,58.956,51.15233333333333,-0.11499999999999999,-0.052000000000000046,0.10721000000000001,0.11237000000000001,0.0,218.38,218.4,214.95,214.95,0.0,0.0
32,0.0,0.0,0.0,1.0,1.0,0.0,0.0,1.0,0.0,0.0,1.0,1.1856,26.0,0.0,0.0,0.0,59.999996,0.0,26.0,26.0,26.0,26.0,0.043500000000000094,0.25690000000000013,-0.03554,291.367,-2.6958,-2.682888888888889,-1.5888,-1.6225,-166.97,215.36,190.279125,0.0,0.0,0.0,0.0,0.06479999999999997,-5.498166666666667,-5.498166666666667,-0.6068,-0.2869999999999999,-0.0033333333333334103,0.21199999999999997,69.9,0.0196,-0.232525,-0.3979999999999997,100.0,1.0,1.0,215.49,0.0,0.0,0.0,0.0,0.0,0.0,0.0,9133.9,0.0,55.0,5.0,251.61666666666667,0.0,0.0,0.0,0.0,0.0,0.0,1.0,0.0,1.6080000000000005,1.6080000000000005,0.0,0.0,0.0,55.0,616.79921,10000.0,85.000001,85.000001,85.000001,85.000001,395.0,0.0,0.0,0.0,1.0,166.665,51.575,51.575,46.661,46.661,34.0,-21.7475,26.13,-27.136666666666663,32.6175,0.0,1781.642,-0.46000000000000085,100.0,28.875,28.936,44.253,44.593,0.0,0.0,100.0,0.0,0.0,0.0,0.0,3055.714285714286,3180.1,4056.25,4237.1,305.5225,304.7595,314.98825,314.377,22.0807,20.6829,22.129,21.5995,314.999998,314.999998,324.999988,324.999988,99.55947142857143,99.50736666666667,99.57088571428571,99.54975714285715,0.12199999999999989,-0.028999999999999915,-0.0805,0.14866666666666672,-0.03166666666666629,-0.05833333333333002,1.516,1.4935,39.004000000000005,30.268,39.306,35.9965,55.941,35.6915,60.592,53.5345,53.867999999999995,34.7645,59.1225,51.820499999999996,53.003,34.2755,58.984,51.208666666666666,-0.11499999999999999,-0.04850000000000021,0.10376,0.11138500000000001,0.0,218.79000000000002,218.785,215.49,215.49,0.0,0.0
33,0.0,0.0,0.0,1.0,1.0,0.0,0.0,1.0,0.0,0.0,1.0,1.1856,26.0,0.0,0.0,0.0,59.999996,0.0,26.0,26.0,26.0,26.0,0.04574999999999996,0.26090000000000013,-0.06174,291.58,-2.729,-2.6915555555555555,-1.5924,-1.5878,-163.82,215.365,190.255625,0.0,0.0,0.0,0.0,0.06663333333333332,-5.498166666666667,-5.498166666666667,-0.6146,-0.20199999999999996,-0.0086666666666666,-0.254,70.014,0.022000000000000002,-0.21610000000000001,-0.3700000000000001,100.0,1.0,1.0,215.8466666666667,0.0,0.0,0.0,0.0,0.0,0.0,0.0,9149.0,0.0,55.0,5.0,252.02333333333334,1.0,0.0,0.0,0.0,0.0,0.0,1.0,0.0,1.6529999999999987,1.6529999999999987,0.0,0.0,1.0,55.0,616.79921,10000.0,85.000001,85.000001,85.000001,85.000001,395.0,0.0,0.0,0.0,1.0,166.665,51.834,51.834,46.875,46.875,34.0,-23.39,24.810000000000002,-28.24,30.5925,0.0,1781.597,-0.4349999999999987,100.0,28.604,28.852,44.019999999999996,44.414,0.0,0.0,100.0,0.0,0.0,0.0,0.0,3170.714285714286,3018.8,4142.0,4169.5,305.4085,305.10425,314.87375,314.568,22.0889,20.6878,22.1382,21.607599999999998,314.999998,314.999998,324.999988,324.999988,99.55948571428571,99.50736666666667,99.57101428571428,99.5499,0.1080000000000001,-0.030333333333333323,-0.09016666666666667,0.1323333333333332,-0.026666666666670835,-0.04333333333332945,1.5230000000000001,1.5055,39.055,30.299,39.364000000000004,36.0475,55.931,35.724000000000004,60.622,53.585499999999996,53.858000000000004,34.795,59.1505,51.87,52.992000000000004,34.3045,59.009,51.25666666666667,-0.12050000000000005,-0.04600000000000026,0.105425,0.106105,0.0,219.125,219.14,215.8466666666667,215.8466666666667,0.0,0.0
34,0.0,0.0,0.0,1.0,1.0,0.0,0.0,1.0,0.0,0.0,1.0,1.1856,26.0,0.0,0.0,0.0,59.999996,0.0,26.0,26.0,26.0,26.0,0.042874999999999996,0.2631000000000001,-0.07438,291.794,-2.6616,-2.678111111111111,-1.6248,-1.5285000000000002,-160.25,215.37,190.227625,0.0,0.0,0.0,0.0,0.06869999999999998,-5.498166666666667,-5.498166666666667,-0.64,-0.8200000000000001,0.014222222222222136,0.946,70.143,0.028200000000000003,-0.220775,-0.41799999999999926,100.0,1.0,1.0,216.20333333333332,0.0,0.0,0.0,0.0,0.0,0.0,0.0,9164.0,0.0,55.0,5.0,252.49,0.0,0.0,0.0,0.0,0.0,0.0,1.0,0.0,1.7040000000000006,1.7040000000000006,0.0,0.0,0.0,55.0,616.79921,10000.0,85.000001,85.000001,85.000001,85.000001,395.0,0.0,0.0,0.0,1.0,166.665,52.322,52.322,47.028,47.028,34.0,-20.77,24.846,-27.973333333333333,31.52,0.0,1781.546,-0.39000000000000057,100.0,28.481,28.416,43.962,44.403,0.0,0.0,100.0,0.0,0.0,0.0,0.0,2974.142857142857,3033.5,4116.75,4272.3,305.8155,305.16075,314.89725,314.40825,22.098,20.6934,22.148600000000002,21.6169,314.999998,314.999998,324.999988,324.999988,99.5595,99.50738333333334,99.57115714285715,99.55004285714286,0.12075000000000014,-0.026999999999999913,-0.078,0.15066666666666673,-0.03333333333333144,-0.05833333333333002,1.508,1.505,39.113,30.333666666666666,39.429,36.106,55.918,35.7605,60.6555,53.646,53.846000000000004,34.8285,59.1815,51.928,52.979,34.337,59.037,51.31366666666666,-0.11199999999999988,-0.05149999999999988,0.10846000000000001,0.10971000000000002,0.0,219.5,219.525,216.20333333333335,216.20333333333332,0.0,0.0
35,0.0,0.0,0.0,1.0,1.0,0.0,0.0,1.0,0.0,0.0,1.0,1.1856,26.0,0.0,0.0,0.0,59.999996,0.0,26.0,26.0,26.0,26.0,0.034250000000000114,0.2599,-0.0843,291.702,-2.7988,-2.656111111111111,-1.53875,-1.5836999999999999,-156.45999999999998,215.3775,190.196,0.0,0.0,0.0,0.0,0.07089999999999996,-5.498166666666667,-5.498166666666667,-0.6783,-0.028000000000000025,-0.0033333333333334103,-0.18199999999999994,70.277,0.031200000000000002,-0.226325,-0.3520000000000003,100.0,1.0,1.0,216.71333333333334,0.0,0.0,0.0,0.0,0.0,0.0,0.0,9185.6,0.0,55.0,5.0,252.97,1.0,0.0,0.0,0.0,0.0,0.0,1.0,0.0,1.7579999999999991,1.7579999999999991,0.0,0.0,1.0,55.0,616.79921,10000.0,85.000001,85.000001,85.000001,85.000001,395.0,0.0,0.0,0.0,1.0,111.11,51.62,51.62,46.768,46.768,34.0,-23.3875,27.914,-26.083333333333336,30.305,0.0,1781.494,-0.21000000000000085,100.0,28.353,28.768,43.708,43.958,0.0,0.0,100.0,0.0,0.0,0.0,0.0,3086.5714285714284,3377.4,4093.625,4078.0,305.4725,304.158,315.01075,314.90275,22.107599999999998,20.6996,22.1596,21.6266,314.999998,314.999998,324.999988,324.999988,99.55951428571429,99.50738333333334,99.57131428571428,99.5502,0.11175000000000024,-0.025666666666666726,-0.07333333333333333,0.1503333333333332,-0.03333333333333144,-0.03333333333333144,1.561,1.5434999999999999,39.173,30.372333333333334,39.498000000000005,36.1665,55.903,35.8025,60.69,53.706,53.831,34.8675,59.213499999999996,51.9855,52.963,34.3745,59.0655,51.37,-0.09949999999999992,-0.06300000000000017,0.10426500000000001,0.10812000000000001,0.0,219.94,219.95499999999998,216.71333333333334,216.71333333333334,0.0,0.0
36,0.0,0.0,0.0,1.0,1.0,0.0,0.0,1.0,0.0,0.0,1.0,1.1856,26.0,0.0,0.0,0.0,59.999996,0.0,26.0,26.0,26.0,26.0,0.04425000000000012,0.2572000000000001,0.038,291.168,-2.6437,-2.7203333333333335,-1.64675,-1.5957,-153.07999999999998,215.385,190.166625,0.0,0.0,0.0,0.0,0.07286666666666652,-5.498166666666667,-5.498166666666667,-0.6613,-0.009000000000000119,-0.04322222222222205,0.34199999999999997,70.399,0.022600000000000002,-0.2024,-0.18200000000000038,100.0,1.0,1.0,216.87333333333333,0.0,0.0,0.0,0.0,0.0,0.0,0.0,9192.5,0.0,55.0,5.0,253.41,0.0,0.0,0.0,0.0,0.0,0.0,1.0,0.0,1.806000000000001,1.806000000000001,0.0,0.0,0.0,55.0,616.79921,10000.0,85.000001,85.000001,85.000001,85.000001,395.0,0.0,0.0,0.0,1.0,166.665,51.819,51.819,46.326,46.326,34.0,-21.0775,25.63,-30.47,34.845,0.0,1781.444,-0.2049999999999983,100.0,28.881,28.73,43.968,44.247,0.0,0.0,100.0,0.0,0.0,0.0,0.0,2994.714285714286,3102.8,4375.625,4491.0,305.5895,304.96175,314.24625,313.84775,22.1164,20.705,22.1695,21.6355,314.999998,314.999998,324.999988,324.999988,99.55952857142857,99.50738333333334,99.57145714285714,99.55034285714285,0.11825000000000019,-0.03266666666666662,-0.07383333333333333,0.14966666666666684,-0.051666666666669414,-0.060000000000002274,1.462,1.4304999999999999,39.227000000000004,30.406666666666666,39.56,36.222,55.893,35.8395,60.7235,53.7635,53.822,34.902,59.2445,52.0415,52.952,34.407,59.0935,51.42433333333334,-0.10149999999999992,-0.0674999999999999,0.10144500000000001,0.11006,0.0,220.345,220.36,216.87333333333333,216.87333333333333,0.0,0.0
