,ABS Active,ABS Enabled,AID Allow Tire Blankets,AID Auto Blip,AID Auto Clutch,AID Auto Shift,AID Fuel Rate,AID Ideal Line,AID Mech Damage,AID Stability,AID Tire Wear Rate,Air Density,Air Temp,Ballast,Best Lap Delta,Best Lap Time,Brake Bias,Brake Pos,Brake Temp FL,Brake Temp FR,Brake Temp RL,Brake Temp RR,CG Accel Lateral,CG Accel Longitudinal,CG Accel Vertical,CG Height,Camber FL,Camber FR,Camber RL,Camber RR,Car Coord X,Car Coord Y,Car Coord Z,Car Damage Front,Car Damage Left,Car Damage Rear,Car Damage Right,Car Pos Norm,Caster FL,Caster FR,Chassis Pitch Angle,Chassis Pitch Rate,Chassis Roll Angle,Chassis Roll Rate,Chassis Velocity X,Chassis Velocity Y,Chassis Velocity Z,Chassis Yaw Rate,Clutch Pos,DRS Active,DRS Available,Drive Train Speed,ERS Heat Charging,ERS Is Charging,ERS Max Energy,ERS Power Level,ERS Recovery Level,Engine Brake Setting,Engine Limiter,Engine RPM,Flags,Fuel Level,Gear,Ground Speed,HR Sample Clock,In Pit,KERS Charge,KERS Deployed Energy,KERS Input,KERS Max Energy,LR Sample Clock,Lap Invalidated,Lap Time,Lap Time2,Last Lap Time,Last Sector Time,MR Sample Clock,Max Fuel,Max Power,Max RPM,Max Sus Travel FL,Max Sus Travel FR,Max Sus Travel RL,Max Sus Travel RR,Max Torque,Max Turbo Boost,Num Tires Off Track,Penalties Enabled,Position,Raw Data Sample Rate,Ride Height FL,Ride Height FR,Ride Height RL,Ride Height RR,Road Temp,Self Align Torque FL,Self Align Torque FR,Self Align Torque RL,Self Align Torque RR,Session Lap Count,Session Time Left,Steering Angle,Surface Grip,Suspension Travel FL,Suspension Travel FR,Suspension Travel RL,Suspension Travel RR,TC Active,TC Enabled,Throttle Pos,Tire Dirt Level FL,Tire Dirt Level FR,Tire Dirt Level RL,Tire Dirt Level RR,Tire Load FL,Tire Load FR,Tire Load RL,Tire Load RR,Tire Loaded Radius FL,Tire Loaded Radius FR,Tire Loaded Radius RL,Tire Loaded Radius RR,Tire Pressure FL,Tire Pressure FR,Tire Pressure RL,Tire Pressure RR,Tire Radius FL,Tire Radius FR,Tire Radius RL,Tire Radius RR,Tire Rubber Grip FL,Tire Rubber Grip FR,Tire Rubber Grip RL,Tire Rubber Grip RR,Tire Slip Angle FL,Tire Slip Angle FR,Tire Slip Angle RL,Tire Slip Angle RR,Tire Slip Ratio FL,Tire Slip Ratio FR,Tire Slip Ratio RL,Tire Slip Ratio RR,Tire Temp Core FL,Tire Temp Core FR,Tire Temp Core RL,Tire Temp Core RR,Tire Temp Inner FL,Tire Temp Inner FR,Tire Temp Inner RL,Tire Temp Inner RR,Tire Temp Middle FL,Tire Temp Middle FR,Tire Temp Middle RL,Tire Temp Middle RR,Tire Temp Outer FL,Tire Temp Outer FR,Tire Temp Outer RL,Tire Temp Outer RR,Toe In FL,Toe In FR,Toe In RL,Toe In RR,Turbo Boost,Wheel Angular Speed FL,Wheel Angular Speed FR,Wheel Angular Speed RL,Wheel Angular Speed RR,Wind Direction,Wind Speed
0,0.0,1.0,0.0,1.0,1.0,0.0,0.0,1.0,0.0,100.0,1.0,1.1856,26.0,0.0,0.0,0.0,59.99999,0.0,26.0,26.0,26.0,26.0,-0.07011111111111101,0.2985,0.012340000000000002,294.403,-2.7186,-2.66725,-1.5088,-1.5558,-275.48,216.29500000000002,190.98675,0.0,0.0,0.0,0.0,0.0017000000000000001,-5.498166666666667,-5.498166666666667,-0.545,1.332,-0.014250000000000096,-1.396,65.509,-0.04819999999999991,-0.2109,1.017999999999999,100.0,1.0,1.0,202.28,0.0,0.0,0.0,0.0,0.0,0.0,0.0,8573.9,0.0,55.0,5.0,235.80333333333334,0.0,0.0,0.0,0.0,0.0,0.0,0.0,0.0,0.006000000000000227,0.006000000000000227,0.0,0.0,0.0,55.0,616.79921,10000.0,85.0,85.0,85.0,85.0,395.0,0.0,0.0,0.0,1.0,20.0,53.131,53.131,49.789,49.789,34.0,-26.205,22.310000000000002,-30.813333333333336,23.8725,0.0,1783.447,0.7899999999999991,100.0,27.253,26.804000000000002,40.222,40.15,0.0,1.0,100.0,0.0,0.0,0.0,0.0,2953.857142857143,3295.0,4141.75,3916.0,305.8925,304.24466666666666,314.803,315.0185,21.7686,20.4994,21.7258,21.2662,314.99999,314.99999,324.99998,324.99998,99.55848571428571,99.50681666666667,99.56337142857143,99.54331428571429,-0.012750000000000039,-0.1343333333333332,-0.16866666666666666,0.05600000000000005,-0.07000000000000028,-0.03999999999999915,1.546,1.5905,37.053,29.121000000000002,36.786,33.9135,56.120000000000005,34.191,58.4385,50.8925,54.041,33.3805,57.095,49.2965,53.21,32.949,57.0695,48.74166666666667,-0.013000000000000012,-0.13800000000000012,0.09981000000000001,0.10945,0.0,205.32,205.185,202.28,202.28,190.01251,21.04372
1,0.0,1.0,0.0,1.0,1.0,0.0,0.0,1.0,0.0,100.0,1.0,1.1856,26.0,0.0,0.0,0.0,59.999996,0.0,26.0,26.0,26.0,26.0,-0.10899999999999999,0.3078000000000001,0.04524,293.381,-2.6283,-2.77925,-1.5134,-1.5541,-272.13,216.29000000000002,190.966625,0.0,0.0,0.0,0.0,0.0036666666666666666,-5.498166666666667,-5.498166666666667,-0.5036,-0.6160000000000001,-0.06300000000000017,-0.48599999999999977,65.666,-0.0663999999999999,-0.20365,1.3599999999999994,100.0,1.0,1.0,202.43666666666667,0.0,0.0,0.0,0.0,0.0,0.0,0.0,8580.6,0.0,55.0,5.0,236.36666666666667,1.0,0.0,0.0,0.0,0.0,0.0,0.0,0.0,0.05699999999999861,0.05699999999999861,0.0,0.0,1.0,55.0,616.79921,10000.0,85.000001,85.000001,85.000001,85.000001,395.0,0.0,0.0,0.0,1.0,333.33500000000004,53.757,53.757,48.813,48.813,34.0,-27.0125,18.045,-34.446666666666665,28.12,0.0,1783.396,0.879999999999999,100.0,27.502,26.727,42.334,41.304,0.0,1.0,100.0,0.0,0.0,0.0,0.0,3056.5714285714284,2689.3,4290.625,4655.5,305.4415,306.267,314.31075,313.24075,21.7784,20.5043,21.7365,21.2751,314.999998,314.999998,324.999988,324.999988,99.55848571428571,99.50685,99.56351428571429,99.54345714285714,-0.02024999999999988,-0.1433333333333333,-0.1955,0.02866666666666684,-0.01666666666666572,-0.030000000000001137,1.4195,1.4835,37.114999999999995,29.152,36.852999999999994,33.9695,56.102999999999994,34.2315,58.4855,50.9595,54.025999999999996,33.418,57.1395,49.3605,53.194,32.985,57.1105,48.80466666666666,-0.0034999999999999476,-0.13749999999999996,0.10862000000000001,0.10831500000000001,0.0,205.72500000000002,205.63,202.43666666666667,202.43666666666667,190.012512,21.04372
2,0.0,1.0,0.0,1.0,1.0,0.0,0.0,1.0,0.0,100.0,1.0,1.1856,26.0,0.0,0.0,0.0,59.999996,0.0,26.0,26.0,26.0,26.0,-0.12411111111111106,0.2932000000000001,-0.015080000000000001,294.052,-2.6032,-2.8005,-1.4797,-1.6073,-268.78,216.2825,190.94775,0.0,0.0,0.0,0.0,0.0056,-5.498166666666667,-5.498166666666667,-0.5505,0.16100000000000003,-0.05312500000000009,1.8410000000000002,65.81,-0.08409999999999995,-0.2549,1.5620000000000012,100.0,1.0,1.0,203.36333333333334,0.0,0.0,0.0,0.0,0.0,0.0,0.0,8619.9,0.0,55.0,5.0,236.88666666666666,0.0,0.0,0.0,0.0,0.0,0.0,0.0,0.0,0.10800000000000054,0.10800000000000054,0.0,0.0,0.0,55.0,616.79921,10000.0,85.000001,85.000001,85.000001,85.000001,395.0,0.0,0.0,0.0,1.0,166.665,52.765,52.765,50.613,50.613,34.0,-30.555,19.071666666666665,-29.346666666666664,19.955,0.0,1783.346,0.7050000000000018,100.0,28.124,26.786,42.206,40.9,0.0,1.0,100.0,0.0,0.0,0.0,0.0,3350.5714285714284,2877.5,3731.625,3691.5,304.624,305.633,315.682,315.727,21.7886,20.5092,21.7468,21.2837,314.999998,314.999998,324.999988,324.999988,99.5585,99.50686666666667,99.56365714285714,99.54358571428571,-0.038999999999999924,-0.16066666666666674,-0.23183333333333334,0.0030000000000001137,-0.086666666666666,-0.051666666666669414,1.6385,1.6885,37.179,29.182333333333332,36.918,34.022999999999996,56.092,34.2715,58.5255,51.016999999999996,54.015,33.454499999999996,57.177,49.416,53.182,33.019999999999996,57.1455,48.859,-0.022499999999999964,-0.129,0.10538000000000002,0.11467000000000001,0.0,206.22,206.06,203.36333333333334,203.36333333333334,190.012512,21.04372
3,0.0,1.0,0.0,1.0,1.0,0.0,0.0,1.0,0.0,100.0,1.0,1.1856,26.0,0.0,0.0,0.0,59.999996,0.0,26.0,26.0,26.0,26.0,-0.14,0.2965,-0.03704,293.869,-2.7258,-2.700125,-1.501,-1.5932,-265.62,216.26999999999998,190.92925,0.0,0.0,0.0,0.0,0.0074333333333333335,-5.498166666666667,-5.498166666666667,-0.5119,0.42399999999999993,-0.017875000000000085,-1.08,65.955,-0.09739999999999993,-0.20442500000000002,1.2100000000000009,100.0,1.0,1.0,203.50666666666666,0.0,0.0,0.0,0.0,0.0,0.0,0.0,8625.8,0.0,55.0,5.0,237.40666666666667,1.0,0.0,0.0,0.0,0.0,0.0,0.0,0.0,0.1559999999999988,0.1559999999999988,0.0,0.0,1.0,55.0,616.79921,10000.0,85.000001,85.000001,85.000001,85.000001,395.0,0.0,0.0,0.0,1.0,166.665,53.97,53.97,48.644999999999996,48.644999999999996,34.0,-26.09,16.995,-36.013333333333335,23.3175,0.0,1783.298,0.6849999999999987,100.0,27.714,26.792,42.055,41.041,0.0,1.0,100.0,0.0,0.0,0.0,0.0,2829.0,2740.8,4302.0,4159.0,306.2025,305.913,314.36625,314.4725,21.7977,20.5139,21.7565,21.2919,314.999998,314.999998,324.999988,324.999988,99.5585,99.50688333333333,99.56378571428571,99.54372857142857,-0.040750000000000064,-0.16999999999999993,-0.23483333333333334,0.0,-0.051666666666669414,-0.036666666666668846,1.483,1.5535,37.236000000000004,29.212,36.977999999999994,34.074,56.076,34.312,58.564499999999995,51.0775,54.0,33.492,57.213,49.474000000000004,53.166,33.0555,57.179,48.916,-0.02400000000000002,-0.12450000000000006,0.11212000000000001,0.10773,0.0,206.65,206.585,203.50666666666666,203.50666666666666,190.012512,21.04372
4,0.0,1.0,0.0,1.0,1.0,0.0,0.0,1.0,0.0,100.0,1.0,1.1856,26.0,0.0,0.0,0.0,59.999996,0.0,26.0,26.0,26.0,26.0,-0.1276666666666666,0.2973000000000001,-0.00868,294.083,-2.649,-2.761375,-1.5085000000000002,-1.6058,-262.05,216.255,190.908375,0.0,0.0,0.0,0.0,0.009533333333333333,-5.498166666666667,-5.498166666666667,-0.549,-0.5335000000000001,-0.09224999999999994,-1.484,66.112,-0.09839999999999993,-0.24075000000000002,1.2459999999999987,100.0,1.0,1.0,204.15333333333334,0.0,0.0,0.0,0.0,0.0,0.0,0.0,8653.3,0.0,55.0,5.0,237.97333333333333,0.0,0.0,0.0,0.0,0.0,0.0,0.0,0.0,0.21000000000000085,0.21000000000000085,0.0,0.0,0.0,55.0,616.79921,10000.0,85.000001,85.000001,85.000001,85.000001,395.0,0.0,0.0,0.0,1.0,166.665,53.314,53.314,49.454,49.454,34.0,-30.6175,18.46333333333333,-32.14666666666666,20.005000000000003,0.0,1783.243,0.6600000000000001,100.0,27.5,26.564,42.442,40.944,0.0,1.0,100.0,0.0,0.0,0.0,0.0,3319.857142857143,2841.5,4038.375,3614.2,304.88,305.63,314.965,315.81875,21.808,20.5192,21.7676,21.301,314.999998,314.999998,324.999988,324.999988,99.55851428571428,99.5069,99.56394285714286,99.54387142857144,-0.04299999999999993,-0.16399999999999992,-0.21833333333333335,0.010666666666666602,-0.05833333333333002,-0.041666666666671404,1.6059999999999999,1.6505,37.3,29.244999999999997,37.048,34.1315,56.059,34.3565,58.6105,51.141,53.983000000000004,33.533,57.2565,49.534,53.149,33.0945,57.2195,48.975,-0.02200000000000002,-0.12549999999999994,0.09971500000000001,0.11321500000000001,0.0,207.13,207.0,204.15333333333334,204.15333333333334,190.012512,21.04372
5,0.0,1.0,0.0,1.0,1.0,0.0,0.0,1.0,0.0,100.0,1.0,1.1856,26.0,0.0,0.0,0.0,59.999996,0.0,26.0,26.0,26.0,26.0,-0.1316666666666666,0.3014000000000001,-0.0088,294.037,-2.6677,-2.7785,-1.4987,-1.5891000000000002,-258.87,216.2375,190.889125,0.0,0.0,0.0,0.0,0.011366666666666667,-5.498166666666667,-5.498166666666667,-0.5359,0.36149999999999993,-0.09087500000000004,-0.2869999999999999,66.253,-0.1049,-0.21457500000000002,1.1579999999999995,100.0,1.0,1.0,204.49333333333334,0.0,0.0,0.0,0.0,0.0,0.0,0.0,8667.7,0.0,55.0,5.0,238.48000000000002,1.0,0.0,0.0,0.0,0.0,0.0,0.0,0.0,0.2579999999999991,0.2579999999999991,0.0,0.0,1.0,55.0,616.79921,10000.0,85.000001,85.000001,85.000001,85.000001,395.0,0.0,0.0,0.0,1.0,166.665,53.818,53.818,49.362,49.362,34.0,-28.6875,17.87,-34.46,21.700000000000003,0.0,1783.196,0.15000000000000213,100.0,27.522,26.423000000000002,42.262,40.754,0.0,1.0,100.0,0.0,0.0,0.0,0.0,3184.857142857143,2712.0,4184.625,4008.9,305.2525,306.094,314.68225,314.85025,21.8173,20.5239,21.7773,21.3091,314.999998,314.999998,324.999988,324.999988,99.55851428571428,99.50691666666667,99.56408571428571,99.544,-0.026000000000000023,-0.1563333333333332,-0.23516666666666666,-0.0071666666666666545,-0.05833333333333002,-0.05666666666667197,1.55,1.608,37.358000000000004,29.27433333333333,37.108000000000004,34.182,56.046,34.394999999999996,58.65,51.197,53.971000000000004,33.5685,57.2935,49.588,53.135999999999996,33.1285,57.254,49.02766666666667,-0.05399999999999994,-0.09600000000000009,0.10418500000000001,0.111905,0.0,207.59,207.485,204.49333333333334,204.49333333333334,190.012512,21.04372
6,0.0,1.0,0.0,1.0,1.0,0.0,0.0,1.0,0.0,100.0,1.0,1.1856,26.0,0.0,0.0,0.0,59.999996,0.0,26.0,26.0,26.0,26.0,-0.10788888888888892,0.2904,-0.0063,293.869,-2.6355,-2.808125,-1.5415,-1.586,-255.69,216.2175,190.869875,0.0,0.0,0.0,0.0,0.013233333333333335,-5.498166666666667,-5.498166666666667,-0.532,0.08750000000000002,-0.07337499999999997,-0.496,66.393,-0.10139999999999993,-0.2167,0.7940000000000005,100.0,1.0,1.0,204.92666666666668,0.0,0.0,0.0,0.0,0.0,0.0,0.0,8686.1,0.0,55.0,5.0,238.98333333333335,0.0,0.0,0.0,0.0,0.0,0.0,0.0,0.0,0.30600000000000094,0.30600000000000094,0.0,0.0,0.0,55.0,616.79921,10000.0,85.000001,85.000001,85.000001,85.000001,395.0,0.0,0.0,0.0,1.0,333.33500000000004,53.558,53.558,49.164,49.164,34.0,-27.71,19.835,-33.57333333333333,21.84,0.0,1783.146,-0.07499999999999929,100.0,27.444,26.534,42.383,41.092,0.0,1.0,100.0,0.0,0.0,0.0,0.0,3187.0,2820.2,4108.125,3955.5,305.1995,305.6433333333333,314.8575,314.97925,21.8265,20.5286,21.7871,21.3174,314.999998,314.999998,324.999988,324.999988,99.55851428571428,99.50693333333334,99.56421428571429,99.54412857142857,-0.007500000000000062,-0.1359999999999999,-0.22083333333333335,0.0011666666666667602,-0.07333333333333059,-0.045000000000001705,1.5485,1.5775000000000001,37.416,29.303666666666665,37.17,34.2335,56.032,34.433,58.69,51.2565,53.958,33.6035,57.3305,49.6445,53.122,33.1625,57.2885,49.083,-0.07550000000000001,-0.07000000000000006,0.10400000000000001,0.110045,0.0,208.005,207.91,204.92666666666668,204.92666666666668,190.012512,21.04372
7,0.0,1.0,0.0,1.0,1.0,0.0,0.0,1.0,0.0,100.0,1.0,1.1856,26.0,0.0,0.0,0.0,59.999996,0.0,26.0,26.0,26.0,26.0,-0.08044444444444443,0.2925,0.05106000000000001,293.671,-2.605,-2.770375,-1.5003000000000002,-1.6280000000000001,-252.3,216.195,190.849375,0.0,0.0,0.0,0.0,0.0152,-5.498166666666667,-5.498166666666667,-0.5348,0.05999999999999994,-0.058374999999999844,1.1189999999999998,66.541,-0.08489999999999998,-0.2248,0.3420000000000005,100.0,1.0,1.0,205.35666666666668,0.0,0.0,0.0,0.0,0.0,0.0,0.0,8704.3,0.0,55.0,5.0,239.51999999999998,1.0,0.0,0.0,0.0,0.0,0.0,0.0,0.0,0.3569999999999993,0.3569999999999993,0.0,0.0,1.0,55.0,616.79921,10000.0,85.000001,85.000001,85.000001,85.000001,395.0,0.0,0.0,0.0,1.0,333.33500000000004,53.253,53.253,49.286,49.286,34.0,-26.1725,21.85,-30.373333333333335,24.345,0.0,1783.096,-0.254999999999999,100.0,27.713,26.444,42.505,41.272,0.0,1.0,100.0,0.0,0.0,0.0,0.0,3147.142857142857,2978.3,3997.25,4031.7,305.0845,305.3136666666667,315.0175,314.804,21.8364,20.5336,21.7975,21.3262,314.999998,314.999998,324.999988,324.999988,99.55851428571428,99.50695,99.56435714285715,99.54427142857143,0.020000000000000018,-0.10599999999999987,-0.18283333333333335,0.026833333333333265,-0.04833333333333201,-0.07000000000000028,1.538,1.547,37.477000000000004,29.335333333333335,37.235,34.2885,56.016999999999996,34.473,58.7315,51.319,53.943,33.6405,57.3695,49.704499999999996,53.107,33.1975,57.3245,49.141666666666666,-0.09399999999999997,-0.05400000000000005,0.09982,0.10188000000000001,0.0,208.43,208.405,205.35666666666668,205.35666666666668,190.012512,21.04372
8,0.0,1.0,0.0,1.0,1.0,0.0,0.0,1.0,0.0,100.0,1.0,1.1856,26.0,0.0,0.0,0.0,59.999996,0.0,26.0,26.0,26.0,26.0,-0.04299999999999993,0.29879999999999995,-0.03882,293.93,-2.6913,-2.731125,-1.4828000000000001,-1.5784,-248.9,216.16750000000002,190.82875,0.0,0.0,0.0,0.0,0.017166666666666667,-5.498166666666667,-5.498166666666667,-0.5371,-0.5449999999999999,-0.04487500000000022,-0.496,66.689,-0.06209999999999993,-0.21745,-0.07399999999999984,100.0,1.0,1.0,205.74,0.0,0.0,0.0,0.0,0.0,0.0,0.0,8720.5,0.0,55.0,5.0,240.05333333333334,0.0,0.0,0.0,0.0,0.0,0.0,0.0,0.0,0.40800000000000125,0.40800000000000125,0.0,0.0,0.0,55.0,616.79921,10000.0,85.000001,85.000001,85.000001,85.000001,395.0,0.0,0.0,0.0,1.0,166.665,54.077,54.077,48.644999999999996,48.644999999999996,34.0,-24.7575,21.305,-30.223333333333333,24.9675,0.0,1783.046,-0.34999999999999787,100.0,27.133,26.518,42.413,41.478,0.0,1.0,100.0,0.0,0.0,0.0,0.0,2984.142857142857,2860.1,4134.25,4032.3,305.8985,305.624,314.72025,314.71975,21.8459,20.5387,21.8079,21.335,314.999998,314.999998,324.999988,324.999988,99.55852857142857,99.50695,99.56451428571428,99.54441428571428,0.02450000000000019,-0.08799999999999986,-0.1595,0.050000000000000044,-0.03499999999999659,-0.060000000000002274,1.5265,1.544,37.537,29.366666666666667,37.299,34.3435,56.0,34.5115,58.7735,51.381,53.927,33.6755,57.408500000000004,49.763999999999996,53.09,33.231,57.3605,49.199666666666666,-0.09999999999999998,-0.04049999999999998,0.09875,0.10246000000000001,0.0,208.86,208.875,205.74,205.74,190.012512,21.04372
9,0.0,1.0,0.0,1.0,1.0,0.0,0.0,1.0,0.0,100.0,1.0,1.1856,26.0,0.0,0.0,0.0,59.999996,0.0,26.0,26.0,26.0,26.0,-0.026666666666666616,0.2994000000000001,-0.013080000000000001,293.564,-2.6806,-2.734375,-1.5398,-1.5562,-245.7,216.14249999999998,190.809,0.0,0.0,0.0,0.0,0.019033333333333336,-5.498166666666667,-5.498166666666667,-0.5414,0.704,-0.04400000000000004,-0.34499999999999975,66.825,-0.03849999999999998,-0.216375,-0.18799999999999883,100.0,1.0,1.0,206.2866666666667,0.0,0.0,0.0,0.0,0.0,0.0,0.0,8743.8,0.0,55.0,5.0,240.54000000000002,1.0,0.0,0.0,0.0,0.0,0.0,0.0,0.0,0.4559999999999995,0.4559999999999995,0.0,0.0,1.0,55.0,616.79921,10000.0,85.000001,85.000001,85.000001,85.000001,395.0,0.0,0.0,0.0,1.0,333.33500000000004,52.841,52.841,49.637,49.637,34.0,-27.235,22.906666666666666,-28.866666666666664,24.927500000000002,0.0,1782.996,-0.47499999999999787,100.0,27.601,26.937,42.046,41.458,0.0,1.0,100.0,0.0,0.0,0.0,0.0,3359.5714285714284,2949.1,4003.25,4009.1000000000004,304.7145,305.26466666666664,315.166,314.89125,21.8552,20.5436,21.8175,21.3432,314.999998,314.999998,324.999988,324.999988,99.55852857142857,99.50696666666667,99.56464285714286,99.54454285714286,0.05049999999999999,-0.06966666666666677,-0.14866666666666667,0.0641666666666667,-0.051666666666669414,-0.061666666666667425,1.58,1.583,37.595,29.397666666666666,37.36,34.394999999999996,55.986999999999995,34.549,58.809,51.438,53.915,33.71,57.442,49.8185,53.077,33.263999999999996,57.3915,49.253,-0.10899999999999999,-0.03400000000000003,0.10810000000000002,0.097015,0.0,209.3,209.31,206.2866666666667,206.2866666666667,190.012512,21.04372
10,0.0,1.0,0.0,1.0,1.0,0.0,0.0,1.0,0.0,100.0,1.0,1.1856,26.0,0.0,0.0,0.0,59.999996,0.0,26.0,26.0,26.0,26.0,0.007000000000000117,0.2884,0.05646,293.457,-2.6569,-2.71575,-1.5232,-1.5372,-242.29,216.115,190.78825,0.0,0.0,0.0,0.0,0.021,-5.498166666666667,-5.498166666666667,-0.5197,-0.6285000000000001,0.001374999999999904,1.7330000000000005,66.974,-0.016199999999999992,-0.20765,-0.5359999999999996,100.0,1.0,1.0,206.53,0.0,0.0,0.0,0.0,0.0,0.0,0.0,8754.0,0.0,55.0,5.0,241.07666666666665,0.0,0.0,0.0,0.0,0.0,0.0,1.0,0.0,0.5069999999999979,0.5069999999999979,0.0,0.0,0.0,55.0,616.79921,10000.0,85.000001,85.000001,85.000001,85.000001,395.0,0.0,0.0,0.0,1.0,166.665,53.925,53.925,48.08,48.08,34.0,-20.7475,23.14333333333333,-29.066666666666663,29.295,0.0,1782.947,-0.5599999999999987,100.0,27.497,26.739,42.607,42.158,0.0,1.0,100.0,0.0,0.0,0.0,0.0,2786.4285714285716,2932.7,4198.25,4280.4,306.2795,305.5613333333333,314.49025,314.2155,21.8648,20.5488,21.828,21.3522,314.999998,314.999998,324.999988,324.999988,99.55854285714285,99.50696666666667,99.56478571428572,99.54468571428572,0.08024999999999993,-0.048666666666666636,-0.1105,0.10299999999999998,-0.04833333333333201,-0.041666666666671404,1.4895,1.4715,37.655,29.429666666666666,37.425,34.451499999999996,55.973,34.586,58.852000000000004,51.5035,53.902,33.7445,57.482,49.8815,53.063,33.297,57.4285,49.315,-0.119,-0.028000000000000025,0.10189500000000001,0.10080000000000001,0.0,209.73000000000002,209.75,206.53,206.53,190.012512,21.04372
11,0.0,1.0,0.0,1.0,1.0,0.0,0.0,1.0,0.0,100.0,1.0,1.1856,26.0,0.0,0.0,0.0,59.999996,0.0,26.0,26.0,26.0,26.0,0.037111111111111095,0.2823,-0.07108,293.976,-2.7031,-2.702,-1.5756000000000001,-1.5251000000000001,-238.67000000000002,216.085,190.76625,0.0,0.0,0.0,0.0,0.022600000000000002,-5.498166666666667,-5.498166666666667,-0.5619000000000001,0.028000000000000025,0.02400000000000002,0.26200000000000045,67.123,0.0035000000000000586,-0.234125,-0.6660000000000004,100.0,1.0,1.0,207.31333333333333,0.0,0.0,0.0,0.0,0.0,0.0,0.0,8787.3,0.0,55.0,5.0,241.61333333333334,1.0,0.0,0.0,0.0,0.0,0.0,1.0,0.0,0.5609999999999999,0.5609999999999999,0.0,0.0,1.0,55.0,616.79921,10000.0,85.000001,85.000001,85.000001,85.000001,395.0,0.0,0.0,0.0,1.0,166.665,53.284,53.284,49.713,49.713,34.0,-22.099999999999998,25.946666666666665,-24.053333333333335,26.802500000000002,0.0,1782.893,-0.6799999999999997,100.0,27.296,27.055,41.923,42.024,0.0,1.0,100.0,0.0,0.0,0.0,0.0,2982.5714285714284,3130.4,3728.25,3855.0,305.7205,304.8806666666667,315.8175,315.299,21.8748,20.5544,21.8388,21.3616,314.999998,314.999998,324.999988,324.999988,99.55854285714285,99.50696666666667,99.56492857142857,99.54484285714285,0.09825000000000017,-0.024333333333333318,-0.09016666666666667,0.14016666666666677,-0.03833333333332689,-0.07000000000000028,1.6515,1.6155,37.718,29.464666666666666,37.492000000000004,34.51,55.958,34.6265,58.89,51.568,53.887,33.7815,57.516999999999996,49.9435,53.047,33.332499999999996,57.460499999999996,49.37566666666667,-0.12349999999999994,-0.024499999999999966,0.10055000000000001,0.10572500000000001,0.0,210.18,210.22500000000002,207.31333333333333,207.31333333333333,190.012512,21.04372
12,0.0,1.0,0.0,1.0,1.0,0.0,0.0,1.0,0.0,100.0,1.0,1.1856,26.0,0.0,0.0,0.0,59.999996,0.0,26.0,26.0,26.0,26.0,0.047111111111111104,0.29700000000000015,0.039420000000000004,293.381,-2.7602,-2.69025,-1.5452,-1.5268000000000002,-235.64,216.0625,190.746625,0.0,0.0,0.0,0.0,0.025466666666666665,-5.498166666666667,-5.498166666666667,-0.546,0.2845,0.009500000000000064,-0.9430000000000001,67.254,0.01639999999999997,-0.20652500000000001,-0.6020000000000003,100.0,1.0,1.0,207.48000000000002,0.0,0.0,0.0,0.0,0.0,0.0,0.0,8794.3,0.0,55.0,5.0,242.08333333333334,0.0,0.0,0.0,0.0,0.0,0.0,1.0,0.0,0.6059999999999981,0.6059999999999981,0.0,0.0,0.0,55.0,616.79921,10000.0,85.000001,85.000001,85.000001,85.000001,395.0,0.0,0.0,0.0,1.0,166.665,53.238,53.238,48.400999999999996,48.400999999999996,34.0,-23.6275,24.818333333333335,-28.206666666666663,29.76,0.0,1782.848,-0.46000000000000085,100.0,27.046,27.355,41.916,42.105000000000004,0.0,1.0,100.0,0.0,0.0,0.0,0.0,3118.714285714286,3052.6,4210.375,4132.8,305.5135,304.97833333333335,314.63975,314.54775,21.8832,20.5591,21.8479,21.3694,314.999998,314.999998,324.999988,324.999988,99.55855714285714,99.50698333333334,99.56505714285714,99.54497142857143,0.09699999999999998,-0.035666666666666735,-0.09433333333333332,0.14066666666666672,-0.036666666666668846,-0.036666666666668846,1.5314999999999999,1.5155,37.769999999999996,29.494333333333334,37.549,34.5585,55.946,34.66,58.9255,51.623,53.875,33.8125,57.5505,49.9965,53.035,33.3625,57.491,49.42766666666667,-0.11699999999999999,-0.03950000000000009,0.10802500000000001,0.10937500000000001,0.0,210.60000000000002,210.635,207.48000000000002,207.48000000000002,190.012512,21.04372
13,0.0,1.0,0.0,1.0,1.0,0.0,0.0,1.0,0.0,100.0,1.0,1.1856,26.0,0.0,0.0,0.0,59.999996,0.0,26.0,26.0,26.0,26.0,0.06899999999999995,0.2944,0.0558,292.999,-2.7278000000000002,-2.692375,-1.5748,-1.5116,-232.21,216.0375,190.724875,0.0,0.0,0.0,0.0,0.02686666666666667,-5.498166666666667,-5.498166666666667,-0.5387000000000001,-0.07250000000000001,0.013624999999999998,1.0499999999999998,67.398,0.02100000000000013,-0.21525,-0.8360000000000003,100.0,1.0,1.0,207.85666666666668,0.0,0.0,0.0,0.0,0.0,0.0,0.0,8810.4,0.0,55.0,5.0,242.60333333333335,1.0,0.0,0.0,0.0,0.0,0.0,1.0,0.0,0.657,0.657,0.0,0.0,1.0,55.0,616.79921,10000.0,85.000001,85.000001,85.000001,85.000001,395.0,0.0,0.0,0.0,1.0,166.665,52.933,52.933,48.34,48.34,34.0,-21.27,27.081666666666667,-26.9,31.4675,0.0,1782.797,-0.875,100.0,27.534,27.353,42.292,42.496,0.0,1.0,100.0,0.0,0.0,0.0,0.0,3037.857142857143,3135.4,4117.0,4324.7,305.535,304.894,314.739,314.14325,21.8928,20.5645,21.8583,21.3784,314.999998,314.999998,324.999988,324.999988,99.55857142857143,99.50698333333334,99.56521428571429,99.54511428571429,0.13474999999999993,0.004999999999999893,-0.07016666666666667,0.14549999999999996,-0.023333333333326323,-0.07166666666666544,1.5035,1.4965,37.83,29.528,37.614000000000004,34.615,55.935,34.698,58.9655,51.6885,53.864999999999995,33.848,57.5875,50.0595,53.022999999999996,33.396,57.5255,49.489333333333335,-0.14200000000000002,-0.0050000000000001155,0.105105,0.09848000000000001,0.0,211.035,211.085,207.85666666666668,207.85666666666668,190.012512,21.04372
14,0.0,1.0,0.0,1.0,1.0,0.0,0.0,1.0,0.0,100.0,1.0,1.1856,26.0,0.0,0.0,0.0,59.999996,0.0,26.0,26.0,26.0,26.0,0.09299999999999997,0.28170000000000006,-0.008320000000000001,293.304,-2.7291,-2.69025,-1.5857999999999999,-1.5152,-228.57,216.015,190.7025,0.0,0.0,0.0,0.0,0.029,-5.498166666666667,-5.498166666666667,-0.55,-0.10949999999999993,0.04574999999999996,1.1479999999999997,67.548,0.03510000000000013,-0.22965000000000002,-1.0839999999999996,100.0,1.0,1.0,208.42666666666668,0.0,0.0,0.0,0.0,0.0,0.0,0.0,8834.5,0.0,55.0,5.0,243.14333333333335,0.0,0.0,0.0,0.0,0.0,0.0,1.0,0.0,0.7109999999999985,0.7109999999999985,0.0,0.0,0.0,55.0,616.79921,10000.0,85.000001,85.000001,85.000001,85.000001,395.0,0.0,0.0,0.0,1.0,166.665,53.085,53.085,48.615,48.615,34.0,-19.7225,28.198333333333334,-24.689999999999998,30.87,0.0,1782.742,-0.9649999999999999,100.0,27.391,27.471,42.179,42.688,0.0,1.0,100.0,0.0,0.0,0.0,0.0,2888.142857142857,3196.7,3904.875,4151.3,305.9695,304.626,315.3075,314.53,21.9029,20.5702,21.8692,21.3879,314.999998,314.999998,324.999988,324.999988,99.5586,99.50698333333334,99.56535714285714,99.54527142857143,0.14375000000000027,0.015000000000000124,-0.06233333333333334,0.1645000000000001,-0.036666666666668846,-0.05833333333333002,1.5675,1.533,37.893,29.563666666666666,37.682,34.6745,55.923,34.738,59.006,51.756,53.854,33.8845,57.625,50.124,53.010999999999996,33.4315,57.5595,49.553,-0.15049999999999997,0.0020000000000000018,0.11166000000000001,0.10711000000000001,0.0,211.47500000000002,211.555,208.42666666666668,208.42666666666668,190.012512,21.04372
15,0.0,1.0,0.0,1.0,1.0,0.0,0.0,1.0,0.0,100.0,1.0,1.1856,26.0,0.0,0.0,0.0,59.999996,0.0,26.0,26.0,26.0,26.0,0.12311111111111117,0.29610000000000003,-0.05588,293.335,-2.7431,-2.58475,-1.6145,-1.4549,-225.51999999999998,215.995,190.683375,0.0,0.0,0.0,0.0,0.03076666666666667,-5.498166666666667,-5.498166666666667,-0.5397000000000001,0.27849999999999997,0.07174999999999998,-0.4590000000000001,67.674,0.049900000000000055,-0.21000000000000002,-1.1219999999999999,100.0,1.0,1.0,208.79333333333335,0.0,0.0,0.0,0.0,0.0,0.0,0.0,8849.9,0.0,55.0,5.0,243.59666666666666,1.0,0.0,0.0,0.0,0.0,0.0,1.0,0.0,0.7560000000000002,0.7560000000000002,0.0,0.0,1.0,55.0,616.79921,10000.0,85.000001,85.000001,85.000001,85.000001,395.0,0.0,0.0,0.0,1.0,333.33500000000004,53.329,53.329,48.644999999999996,48.644999999999996,34.0,-19.555,26.241666666666667,-24.62,32.18,0.0,1782.696,-0.9750000000000014,100.0,27.226,27.62,41.854,42.842,0.0,1.0,100.0,0.0,0.0,0.0,0.0,2856.5714285714284,3084.1,3951.875,4300.5,306.2365,304.8763333333333,315.2545,314.155,21.9112,20.575,21.8782,21.3958,314.999998,314.999998,324.999988,324.999988,99.55861428571428,99.50698333333334,99.56548571428571,99.5454,0.14024999999999999,0.014333333333333087,-0.047,0.17866666666666675,-0.03999999999999915,-0.060000000000002274,1.564,1.523,37.945,29.593666666666664,37.739000000000004,34.724000000000004,55.914,34.7715,59.0385,51.813,53.845,33.916,57.655,50.179,53.001000000000005,33.4615,57.587,49.60666666666667,-0.14400000000000002,-0.0035000000000000586,0.09886500000000001,0.11123500000000001,0.0,211.885,211.96,208.79333333333335,208.79333333333335,190.012512,21.04372
16,0.0,1.0,0.0,1.0,1.0,0.0,0.0,1.0,0.0,100.0,1.0,1.1856,26.0,0.0,0.0,0.0,59.999996,0.0,26.0,26.0,26.0,26.0,0.11422222222222222,0.2764,-0.01282,293.32,-2.797,-2.601375,-1.5846,-1.5192999999999999,-222.07,215.97750000000002,190.66125,0.0,0.0,0.0,0.0,0.03276666666666667,-5.498166666666667,-5.498166666666667,-0.5621,-0.7055,0.05762500000000004,0.1559999999999997,67.816,0.06469999999999998,-0.226,-1.307999999999999,100.0,1.0,1.0,209.23000000000002,0.0,0.0,0.0,0.0,0.0,0.0,0.0,8868.5,0.0,55.0,5.0,244.11,0.0,0.0,0.0,0.0,0.0,0.0,1.0,0.0,0.8069999999999986,0.8069999999999986,0.0,0.0,0.0,55.0,616.79921,10000.0,85.000001,85.000001,85.000001,85.000001,395.0,0.0,0.0,0.0,1.0,166.665,53.146,53.146,48.462,48.462,34.0,-20.45,28.85333333333333,-22.563333333333333,32.144999999999996,0.0,1782.646,-0.8649999999999984,100.0,27.015,27.521,42.168,42.858000000000004,0.0,1.0,100.0,0.0,0.0,0.0,0.0,2968.4285714285716,3270.1,3892.625,4092.1000000000004,305.922,304.54766666666666,315.308,314.6515,21.9204,20.5805,21.8885,21.4048,314.999998,314.999998,324.999988,324.999988,99.55862857142857,99.507,99.56562857142858,99.54554285714286,0.15149999999999997,0.03600000000000003,-0.021833333333333333,0.19850000000000012,-0.03499999999999659,-0.061666666666667425,1.591,1.5265,38.003,29.627666666666666,37.803,34.78,55.9,34.8105,59.078,51.876,53.831,33.952,57.692,50.24,52.986999999999995,33.4965,57.6205,49.666666666666664,-0.14,-0.0040000000000000036,0.10223,0.10740500000000001,0.0,212.29000000000002,212.375,209.23000000000002,209.23000000000002,190.012512,21.04372
17,0.0,1.0,0.0,1.0,1.0,0.0,0.0,1.0,0.0,100.0,1.0,1.1856,26.0,0.0,0.0,0.0,59.999996,0.0,26.0,26.0,26.0,26.0,0.12211111111111106,0.2982,0.02,292.908,-2.7648,-2.57675,-1.6292,-1.4763,-218.61,215.9625,190.638625,0.0,0.0,0.0,0.0,0.03476666666666667,-5.498166666666667,-5.498166666666667,-0.5501,0.43499999999999994,0.03887499999999999,-0.6019999999999999,67.958,0.06920000000000015,-0.20647500000000002,-1.0539999999999994,100.0,1.0,1.0,209.60666666666668,0.0,0.0,0.0,0.0,0.0,0.0,0.0,8884.4,0.0,55.0,5.0,244.61666666666667,1.0,0.0,0.0,0.0,0.0,0.0,1.0,0.0,0.8580000000000005,0.8580000000000005,0.0,0.0,1.0,55.0,616.79921,10000.0,85.000001,85.000001,85.000001,85.000001,395.0,0.0,0.0,0.0,1.0,333.33500000000004,52.856,52.856,48.187,48.187,34.0,-20.7825,26.305,-26.37,32.9525,0.0,1782.595,-0.9800000000000004,100.0,27.372,27.975,41.912,42.945,0.0,1.0,100.0,0.0,0.0,0.0,0.0,3091.714285714286,3047.2,4266.5,4257.9,305.608,305.0423333333333,314.581,314.3065,21.9299,20.586,21.898699999999998,21.4138,314.999998,314.999998,324.999988,324.999988,99.55864285714286,99.507,99.56577142857142,99.54568571428571,0.15850000000000009,0.028000000000000025,-0.0315,0.19433333333333325,-0.041666666666671404,-0.046666666666666856,1.5434999999999999,1.504,38.062,29.662666666666667,37.867000000000004,34.836,55.891,34.8505,59.115,51.94,53.823,33.9895,57.7265,50.301,52.977000000000004,33.532,57.652,49.72666666666667,-0.14749999999999996,-0.009000000000000119,0.10256000000000001,0.11184000000000001,0.0,212.78,212.82999999999998,209.60666666666668,209.60666666666668,190.012512,21.04372
18,0.0,1.0,0.0,1.0,1.0,0.0,0.0,1.0,0.0,100.0,1.0,1.1856,26.0,0.0,0.0,0.0,59.999996,0.0,26.0,26.0,26.0,26.0,0.13455555555555576,0.2815000000000001,-0.009840000000000002,292.816,-2.7934,-2.5515,-1.6461000000000001,-1.4219,-215.14,215.9525,190.61625,0.0,0.0,0.0,0.0,0.0368,-5.498166666666667,-5.498166666666667,-0.5625,-0.401,0.06725000000000003,1.0259999999999998,68.098,0.06750000000000012,-0.226725,-1.2879999999999994,100.0,1.0,1.0,210.07,0.0,0.0,0.0,0.0,0.0,0.0,0.0,8904.0,0.0,55.0,5.0,245.12333333333333,0.0,0.0,0.0,0.0,0.0,0.0,1.0,0.0,0.9089999999999989,0.9089999999999989,0.0,0.0,0.0,55.0,616.79921,10000.0,85.000001,85.000001,85.000001,85.000001,395.0,0.0,0.0,0.0,1.0,166.665,52.582,52.582,48.096000000000004,48.096000000000004,34.0,-19.33,30.845,-24.333333333333336,32.515,0.0,1782.545,-1.2899999999999991,100.0,27.314,27.791,42.29,43.247,0.0,1.0,100.0,0.0,0.0,0.0,0.0,3014.5714285714284,3385.4,3988.0,4226.9,305.6915,304.1793333333333,315.13725,314.42025,21.9391,20.5915,21.9091,21.4229,314.999998,314.999998,324.999988,324.999988,99.55867142857143,99.50701666666667,99.56591428571429,99.54584285714286,0.18800000000000017,0.06466666666666665,-0.02716666666666667,0.20850000000000013,-0.036666666666668846,-0.061666666666667425,1.57,1.5165,38.120000000000005,29.697,37.932,34.893,55.881,34.8905,59.153999999999996,52.0055,53.813,34.0265,57.763,50.364,52.966,33.567499999999995,57.685,49.788666666666664,-0.17299999999999993,0.02400000000000002,0.10883500000000002,0.11342,0.0,213.16,213.25,210.07,210.07,190.012512,21.04372
19,0.0,1.0,0.0,1.0,1.0,0.0,0.0,1.0,0.0,100.0,1.0,1.1856,26.0,0.0,0.0,0.0,59.999996,0.0,26.0,26.0,26.0,26.0,0.17199999999999993,0.3137000000000001,0.057460000000000004,292.404,-2.717,-2.64625,-1.5827,-1.4026,-211.66,215.945,190.593625,0.0,0.0,0.0,0.0,0.0388,-5.498166666666667,-5.498166666666667,-0.5472,0.7495,0.07687500000000003,-0.6280000000000001,68.238,0.07640000000000002,-0.21027500000000002,-1.686,100.0,1.0,1.0,210.42000000000002,0.0,0.0,0.0,0.0,0.0,0.0,0.0,8918.9,0.0,55.0,5.0,245.63,1.0,0.0,0.0,0.0,0.0,0.0,1.0,0.0,0.9600000000000009,0.9600000000000009,0.0,0.0,1.0,55.0,616.79921,10000.0,85.000001,85.000001,85.000001,85.000001,395.0,0.0,0.0,0.0,1.0,166.665,52.322,52.322,47.836,47.836,34.0,-18.009999999999998,30.143333333333334,-24.556666666666665,34.120000000000005,0.0,1782.494,-1.5500000000000007,100.0,27.602,28.421,41.966,43.417,0.0,1.0,100.0,0.0,0.0,0.0,0.0,3034.4285714285716,3160.5,4184.25,4465.5,305.669,304.4766666666667,314.68875,313.802,21.9486,20.5972,21.9193,21.432,314.999998,314.999998,324.999988,324.999988,99.5587,99.50701666666667,99.56605714285715,99.54598571428572,0.20425000000000004,0.07200000000000006,-0.0185,0.19833333333333325,-0.05333333333332746,-0.054999999999999716,1.5325,1.4855,38.179,29.732666666666667,37.995999999999995,34.95,55.875,34.934,59.1905,52.070499999999996,53.806,34.0665,57.7965,50.427,52.958,33.6065,57.7155,49.85066666666667,-0.1975,0.04599999999999993,0.10718000000000001,0.10505,0.0,213.625,213.74,210.42000000000002,210.42000000000002,190.012512,21.04372
20,0.0,1.0,0.0,1.0,1.0,0.0,0.0,1.0,0.0,100.0,1.0,1.1856,26.0,0.0,0.0,0.0,59.999996,0.0,26.0,26.0,26.0,26.0,0.21700000000000008,0.27570000000000006,-0.05514,292.862,-2.8223,-2.596375,-1.5943,-1.5167000000000002,-208.38,215.9425,190.572625,0.0,0.0,0.0,0.0,0.04073333333333334,-5.498166666666667,-5.498166666666667,-0.5575,-1.1430000000000002,0.08462499999999995,-0.6589999999999998,68.37100000000001,0.09519999999999995,-0.22592500000000001,-2.09,100.0,1.0,1.0,210.79333333333335,0.0,0.0,0.0,0.0,0.0,0.0,0.0,8934.8,0.0,55.0,5.0,246.10666666666668,0.0,0.0,0.0,0.0,0.0,0.0,0.0,0.0,1.0079999999999991,1.0079999999999991,0.0,0.0,0.0,55.0,616.79921,10000.0,85.000001,85.000001,85.000001,85.000001,395.0,0.0,0.0,0.0,1.0,333.33500000000004,53.268,53.268,47.562,47.562,34.0,-16.54,30.118333333333332,-22.623333333333335,35.120000000000005,0.0,1782.444,-1.7300000000000004,100.0,27.011,28.099,42.389,43.856,0.0,1.0,100.0,0.0,0.0,0.0,0.0,2824.714285714286,3127.9,4067.25,4229.3,306.4245,304.7583333333333,314.91125,314.2245,21.9571,20.6024,21.9291,21.4407,314.999998,314.999998,324.999988,324.999988,99.55871428571429,99.50703333333334,99.5662,99.54611428571428,0.22449999999999992,0.09766666666666657,0.006833333333333333,0.2206666666666668,-0.03166666666666629,-0.03833333333332689,1.532,1.4465,38.232,29.765333333333334,38.057,35.004,55.864000000000004,34.974000000000004,59.229,52.132999999999996,53.796,34.1035,57.832,50.487,52.947,33.641999999999996,57.7485,49.909666666666666,-0.21350000000000002,0.0665,0.10761000000000001,0.09777000000000001,0.0,213.94,214.095,210.79333333333335,210.79333333333335,190.012512,21.04372
21,0.0,1.0,0.0,1.0,1.0,0.0,0.0,1.0,0.0,100.0,1.0,1.1856,26.0,0.0,0.0,0.0,59.999996,0.0,26.0,26.0,26.0,26.0,0.24488888888888893,0.27480000000000016,-0.07036,293.121,-2.8012,-2.635125,-1.6701000000000001,-1.4673,-205.1,215.9425,190.550875,0.0,0.0,0.0,0.0,0.042633333333333336,-5.498166666666667,-5.498166666666667,-0.5788,0.5215,0.08000000000000007,-0.698,68.497,0.11939999999999995,-0.22445,-2.242,100.0,1.0,1.0,211.41333333333333,0.0,0.0,0.0,0.0,0.0,0.0,0.0,8961.0,0.0,55.0,5.0,246.56,1.0,0.0,0.0,0.0,0.0,0.0,0.0,0.0,1.056000000000001,1.056000000000001,0.0,0.0,1.0,55.0,616.79921,10000.0,85.000001,85.000001,85.000001,85.000001,395.0,0.0,0.0,0.0,1.0,166.665,52.75,52.75,48.737,48.737,34.0,-18.3925,29.96,-20.443333333333335,34.0125,0.0,1782.398,-0.9800000000000004,100.0,27.21,28.345,41.647,43.458,0.0,1.0,100.0,0.0,0.0,0.0,0.0,2991.857142857143,3161.2,3910.125,4065.2,305.9125,304.58233333333334,315.44675,314.791,21.9658,20.6078,21.9386,21.4491,314.999998,314.999998,324.999988,324.999988,99.55874285714286,99.50705,99.56632857142857,99.54627142857143,0.20425000000000004,0.07299999999999995,0.03866666666666666,0.2613333333333332,-0.05333333333332746,-0.04833333333333201,1.647,1.561,38.286,29.799,38.116,35.057,55.858000000000004,35.016999999999996,59.26,52.191,53.79,34.1435,57.861,50.5435,52.94,33.68,57.774,49.965,-0.1725,0.013000000000000012,0.10183500000000001,0.10673500000000001,0.0,214.39499999999998,214.54500000000002,211.41333333333333,211.41333333333333,190.012512,21.04372
22,0.0,1.0,0.0,1.0,1.0,0.0,0.0,1.0,0.0,100.0,1.0,1.1856,26.0,0.0,0.0,0.0,59.999996,0.0,26.0,26.0,26.0,26.0,0.17366666666666686,0.2762,0.00018,292.679,-2.7408,-2.6315,-1.6638000000000002,-1.4585,-201.39,215.95,190.525625,0.0,0.0,0.0,0.0,0.04476666666666667,-5.498166666666667,-5.498166666666667,-0.5583,-0.07050000000000001,0.084125,-1.0419999999999998,68.646,0.12790000000000012,-0.208425,-1.0819999999999999,100.0,1.0,1.0,211.65333333333334,0.0,0.0,0.0,0.0,0.0,0.0,0.0,8971.3,0.0,55.0,5.0,247.09666666666666,0.0,0.0,0.0,0.0,0.0,0.0,0.0,0.0,1.1099999999999994,1.1099999999999994,0.0,0.0,0.0,55.0,616.79921,10000.0,85.000001,85.000001,85.000001,85.000001,395.0,0.0,0.0,0.0,1.0,166.665,53.009,53.009,47.592,47.592,34.0,-19.419999999999998,25.875,-23.783333333333335,36.075,0.0,1782.344,0.13500000000000156,100.0,27.217,28.428,42.063,43.897,0.0,1.0,100.0,0.0,0.0,0.0,0.0,2826.857142857143,3072.8,4180.75,4314.2,306.3325,304.81933333333336,314.75575,314.08475,21.9755,20.6139,21.9496,21.4589,314.999998,314.999998,324.999988,324.999988,99.55875714285715,99.50705,99.56648571428572,99.54642857142858,0.13775000000000004,-0.006000000000000005,0.0165,0.24183333333333334,-0.051666666666669414,-0.05333333333332746,1.522,1.464,38.347,29.836666666666666,38.185,35.118,55.847,35.0605,59.302,52.2625,53.778999999999996,34.1835,57.9,50.612,52.928,33.719,57.8095,50.032666666666664,-0.07199999999999995,-0.08450000000000002,0.10300000000000001,0.1078,0.0,214.875,214.97,211.65333333333334,211.65333333333334,190.012512,21.04372
23,0.0,1.0,0.0,1.0,1.0,0.0,0.0,1.0,0.0,100.0,1.0,1.1856,26.0,0.0,0.0,0.0,59.999996,0.0,26.0,26.0,26.0,26.0,0.08244444444444432,0.24520000000000008,-0.04698,292.679,-2.7386,-2.6098749999999997,-1.6854,-1.4635,-197.89,215.9625,190.50225,0.0,0.0,0.0,0.0,0.04683333333333333,-5.498166666666667,-5.498166666666667,-0.5771000000000001,-0.04849999999999999,0.05424999999999991,0.057000000000000384,68.781,0.08970000000000011,-0.231325,0.23000000000000043,100.0,1.0,1.0,212.22333333333333,0.0,0.0,0.0,0.0,0.0,0.0,0.0,8995.3,0.0,55.0,5.0,247.58333333333334,1.0,0.0,0.0,0.0,0.0,0.0,0.0,0.0,1.1610000000000014,1.1610000000000014,0.0,0.0,1.0,55.0,616.79921,10000.0,85.000001,85.000001,85.000001,85.000001,395.0,0.0,0.0,0.0,1.0,166.665,52.2,52.2,48.615,48.615,34.0,-23.7725,25.105,-24.78,30.09,0.0,1782.292,0.8550000000000004,100.0,27.886,28.189,42.383,43.788,0.0,1.0,100.0,0.0,0.0,0.0,0.0,3093.142857142857,3213.0,3949.875,3981.4,305.3755,304.65833333333336,315.32425,315.065,21.9849,20.6195,21.9599,21.468,314.999998,314.999998,324.999988,324.999988,99.55877142857143,99.50705,99.56662857142857,99.54657142857143,0.09149999999999991,-0.04299999999999993,-0.03266666666666666,0.19866666666666677,-0.05333333333332746,-0.04999999999999716,1.5655000000000001,1.563,38.405,29.872,38.248999999999995,35.175,55.834,35.1005,59.3395,52.327,53.766999999999996,34.221000000000004,57.9345,50.674,52.914,33.7545,57.841,50.093333333333334,-0.013499999999999956,-0.14549999999999996,0.106255,0.109895,0.0,215.34,215.32999999999998,212.22333333333333,212.22333333333333,190.012512,21.04372
24,0.0,1.0,0.0,1.0,1.0,0.0,0.0,1.0,0.0,100.0,1.0,1.1856,26.0,0.0,0.0,0.0,59.999996,0.0,26.0,26.0,26.0,26.0,0.011444444444444368,0.2856000000000001,0.0014800000000000002,292.877,-2.7444,-2.643375,-1.5846,-1.5137,-194.79,215.975,190.481125,0.0,0.0,0.0,0.0,0.048633333333333334,-5.498166666666667,-5.498166666666667,-0.5802,-0.562,0.03612499999999996,-0.6640000000000001,68.904,0.036599999999999966,-0.21682500000000002,0.9700000000000006,100.0,1.0,1.0,212.46,0.0,0.0,0.0,0.0,0.0,0.0,0.0,9005.5,0.0,55.0,5.0,248.02666666666664,0.0,0.0,0.0,0.0,0.0,0.0,0.0,0.0,1.2059999999999995,1.2059999999999995,0.0,0.0,0.0,55.0,616.79921,10000.0,85.000001,85.000001,85.000001,85.000001,395.0,0.0,0.0,0.0,1.0,333.33500000000004,53.375,53.375,47.577,47.577,34.0,-23.8825,21.049999999999997,-29.823333333333334,28.2925,0.0,1782.247,0.990000000000002,100.0,27.504,27.89,42.666,43.53,0.0,1.0,100.0,0.0,0.0,0.0,0.0,2904.142857142857,2913.5,4290.375,4072.7,306.1315,305.49133333333333,314.43525,314.7555,21.993,20.624299999999998,21.9691,21.476,314.999998,314.999998,324.999988,324.999988,99.55878571428572,99.50706666666666,99.56675714285714,99.5467,0.04125000000000023,-0.08799999999999986,-0.0975,0.12549999999999994,-0.036666666666668846,-0.04833333333333201,1.505,1.5175,38.456,29.901666666666664,38.307,35.225,55.82,35.1345,59.3745,52.382,53.753,34.2525,57.967,50.727000000000004,52.9,33.785,57.8705,50.14533333333333,0.0030000000000001137,-0.15399999999999991,0.10567000000000001,0.10511000000000001,0.0,215.735,215.675,212.46,212.46,190.012512,21.04372
25,0.0,1.0,0.0,1.0,1.0,0.0,0.0,1.0,0.0,100.0,1.0,1.1856,26.0,0.0,0.0,0.0,59.999996,0.0,26.0,26.0,26.0,26.0,-0.05222222222222217,0.27090000000000014,-0.026539999999999998,292.709,-2.7603,-2.652875,-1.557,-1.5548000000000002,-191.07,215.99,190.454125,0.0,0.0,0.0,0.0,0.050800000000000005,-5.498166666666667,-5.498166666666667,-0.6126,0.2925,-0.006375000000000242,-1.996,69.04599999999999,-0.03049999999999997,-0.22495,1.5259999999999998,100.0,1.0,1.0,213.05666666666667,0.0,0.0,0.0,0.0,0.0,0.0,0.0,9030.7,0.0,55.0,5.0,248.53666666666666,1.0,0.0,0.0,0.0,0.0,0.0,0.0,0.0,1.259999999999998,1.259999999999998,0.0,0.0,1.0,55.0,616.79921,10000.0,85.000001,85.000001,85.000001,85.000001,395.0,0.0,0.0,0.0,1.0,166.665,52.078,52.078,48.492,48.492,34.0,-30.43,21.775,-30.113333333333333,23.8625,0.0,1782.193,1.0199999999999996,100.0,27.833,27.931,42.653999999999996,42.844,0.0,1.0,100.0,0.0,0.0,0.0,0.0,3376.285714285714,3187.5,4019.375,3894.6000000000004,304.8235,304.6426666666667,315.1575,315.20275,22.0029,20.6301,21.9799,21.4854,314.999998,314.999998,324.999988,324.999988,99.55878571428572,99.50706666666666,99.56691428571429,99.54685714285715,-0.0009999999999998899,-0.1253333333333333,-0.163,0.061166666666666814,-0.046666666666666856,-0.045000000000001705,1.5575,1.6145,38.518,29.938333333333333,38.375,35.283500000000004,55.802,35.18,59.413,52.444,53.736000000000004,34.2945,58.0025,50.787,52.882,33.8255,57.903,50.20366666666666,0.0,-0.15799999999999992,0.104645,0.10435000000000001,0.0,216.215,216.07999999999998,213.05666666666667,213.05666666666667,190.012512,21.04372
26,0.0,1.0,0.0,1.0,1.0,0.0,0.0,1.0,0.0,100.0,1.0,1.1856,26.0,0.0,0.0,0.0,59.999996,0.0,26.0,26.0,26.0,26.0,-0.11388888888888893,0.29200000000000004,0.05784,291.641,-2.6685,-2.77125,-1.5741,-1.5854,-187.75,216.0,190.429875,0.0,0.0,0.0,0.0,0.052700000000000004,-5.498166666666667,-5.498166666666667,-0.5694,0.598,-0.0625,-1.3599999999999999,69.17699999999999,-0.07699999999999996,-0.196225,1.620000000000001,100.0,1.0,1.0,213.16666666666669,0.0,0.0,0.0,0.0,0.0,0.0,0.0,9035.3,0.0,55.0,5.0,249.00666666666666,0.0,0.0,0.0,0.0,0.0,0.0,0.0,0.0,1.3079999999999998,1.3079999999999998,0.0,0.0,0.0,55.0,616.79921,10000.0,85.000001,85.000001,85.000001,85.000001,395.0,0.0,0.0,0.0,1.0,166.665,51.971000000000004,51.971000000000004,46.616,46.616,34.0,-29.71,19.03333333333333,-39.413333333333334,25.71,0.0,1782.146,0.8449999999999989,100.0,28.823,28.176000000000002,43.699,42.978,0.0,1.0,100.0,0.0,0.0,0.0,0.0,3311.857142857143,2876.8,4672.25,4358.4,304.9075,305.44466666666665,313.59625,314.09925,22.012,20.6353,21.9899,21.494,314.999998,314.999998,324.999988,324.999988,99.55878571428572,99.5071,99.56705714285714,99.547,-0.016000000000000014,-0.16199999999999992,-0.20400000000000001,0.014666666666666606,-0.036666666666668846,-0.041666666666671404,1.4385,1.4785,38.575,29.971,38.437,35.337,55.789,35.223,59.455,52.5025,53.724000000000004,34.334,58.042,50.843,52.869,33.863,57.939499999999995,50.25866666666667,-0.020000000000000018,-0.14600000000000013,0.102635,0.110005,0.0,216.64,216.525,213.16666666666669,213.16666666666669,190.012512,21.04372
27,0.0,1.0,0.0,1.0,1.0,0.0,0.0,1.0,0.0,100.0,1.0,1.1856,26.0,0.0,0.0,0.0,59.999996,0.0,26.0,26.0,26.0,26.0,-0.121,0.2552000000000001,-0.03282,292.16,-2.6159,-2.759125,-1.5493000000000001,-1.6732,-184.42000000000002,216.01,190.40675,0.0,0.0,0.0,0.0,0.05463333333333334,-5.498166666666667,-5.498166666666667,-0.6002000000000001,-1.048,-0.07912499999999989,-0.8249999999999997,69.30199999999999,-0.10499999999999998,-0.245425,1.5759999999999987,100.0,1.0,1.0,213.70333333333332,0.0,0.0,0.0,0.0,0.0,0.0,0.0,9058.1,0.0,55.0,5.0,249.46333333333334,1.0,0.0,0.0,0.0,0.0,0.0,0.0,0.0,1.355999999999998,1.355999999999998,0.0,0.0,1.0,55.0,616.79921,10000.0,85.000001,85.000001,85.000001,85.000001,395.0,0.0,0.0,0.0,1.0,166.665,52.261,52.261,47.302,47.302,34.0,-30.095,18.701666666666668,-35.02666666666667,22.5925,0.0,1782.097,0.754999999999999,100.0,28.639,27.8,44.471000000000004,43.242000000000004,0.0,1.0,100.0,0.0,0.0,0.0,0.0,3291.0,2922.0,4130.0,3885.8,304.9635,305.423,314.749,315.11475,22.0209,20.6403,21.9999,21.5026,314.999998,314.999998,324.999988,324.999988,99.55878571428572,99.50711666666666,99.5672,99.54714285714286,-0.040999999999999925,-0.17333333333333312,-0.233,-0.0020000000000000018,-0.04333333333332945,-0.04999999999999716,1.494,1.558,38.631,30.002000000000002,38.5,35.391,55.775,35.2635,59.4965,52.5605,53.711,34.3715,58.081,50.8985,52.855000000000004,33.899,57.9755,50.312666666666665,-0.024499999999999966,-0.13149999999999995,0.09951,0.11596500000000001,0.0,216.98000000000002,216.85000000000002,213.70333333333332,213.70333333333332,190.012512,21.04372
28,0.0,1.0,0.0,1.0,1.0,0.0,0.0,1.0,0.0,100.0,1.0,1.1856,26.0,0.0,0.0,0.0,59.999996,0.0,26.0,26.0,26.0,26.0,-0.1597777777777778,0.26270000000000016,-0.059800000000000006,292.389,-2.6314,-2.758375,-1.4884,-1.6401,-180.89,216.015,190.381375,0.0,0.0,0.0,0.0,0.0567,-5.498166666666667,-5.498166666666667,-0.5996,0.6759999999999999,-0.08912500000000012,0.6120000000000001,69.435,-0.1269,-0.213725,1.450000000000001,100.0,1.0,1.0,214.18,0.0,0.0,0.0,0.0,0.0,0.0,0.0,9078.3,0.0,55.0,5.0,249.93666666666667,0.0,0.0,0.0,0.0,0.0,0.0,0.0,0.0,1.407,1.407,0.0,0.0,0.0,55.0,616.79921,10000.0,85.000001,85.000001,85.000001,85.000001,395.0,0.0,0.0,0.0,1.0,333.33500000000004,52.338,52.338,47.913,47.913,34.0,-29.3575,18.656666666666666,-34.80666666666667,22.4,0.0,1782.045,0.5500000000000007,100.0,28.979,27.488,43.956,42.532,0.0,1.0,100.0,0.0,0.0,0.0,0.0,3203.4285714285716,2932.1,4174.125,4028.1000000000004,304.9845,305.536,314.76775,314.9365,22.0306,20.6457,22.0102,21.511400000000002,314.999998,314.999998,324.999988,324.999988,99.5588,99.50713333333333,99.56735714285715,99.54728571428572,-0.03400000000000003,-0.17266666666666675,-0.24333333333333335,-0.011666666666666603,-0.041666666666671404,-0.030000000000001137,1.5295,1.574,38.691,30.035333333333334,38.564,35.4465,55.763,35.308,59.5345,52.6175,53.7,34.4125,58.1165,50.953,52.843,33.938,58.0085,50.36566666666667,-0.03600000000000003,-0.12050000000000005,0.10878000000000002,0.11046500000000001,0.0,217.445,217.29500000000002,214.18,214.18,190.012512,21.04372
29,0.0,1.0,0.0,1.0,1.0,0.0,0.0,1.0,0.0,100.0,1.0,1.1856,26.0,0.0,0.0,0.0,59.999996,0.0,26.0,26.0,26.0,26.0,-0.1484444444444445,0.25860000000000016,0.0448,292.053,-2.5691,-2.814875,-1.5203,-1.6213000000000002,-177.34,216.01749999999998,190.354875,0.0,0.0,0.0,0.0,0.05876666666666667,-5.498166666666667,-5.498166666666667,-0.6087,-0.6945000000000001,-0.09437499999999988,-0.7069999999999999,69.571,-0.12929999999999997,-0.22025,1.1959999999999997,100.0,1.0,1.0,214.46,0.0,0.0,0.0,0.0,0.0,0.0,0.0,9090.2,0.0,55.0,5.0,250.43,1.0,0.0,0.0,0.0,0.0,0.0,0.0,0.0,1.4579999999999984,1.4579999999999984,0.0,0.0,1.0,55.0,616.79921,10000.0,85.000001,85.000001,85.000001,85.000001,395.0,0.0,0.0,0.0,1.0,166.665,52.2,52.2,47.226,47.226,34.0,-30.884999999999998,19.145,-37.129999999999995,22.442500000000003,0.0,1781.995,0.40000000000000213,100.0,28.583,27.484,44.379,42.799,0.0,1.0,100.0,0.0,0.0,0.0,0.0,3395.4285714285716,2925.9,4273.75,4068.0,304.6575,305.31666666666666,314.4595,314.733,22.04,20.6509,22.0208,21.5205,314.999998,314.999998,324.999988,324.999988,99.55881428571429,99.50715,99.5675,99.54742857142857,-0.04349999999999987,-0.17733333333333312,-0.25066666666666665,-0.017000000000000015,-0.03499999999999659,-0.03833333333332689,1.4595,1.5195,38.75,30.068333333333335,38.629999999999995,35.5035,55.748999999999995,35.351,59.579,52.6785,53.686,34.452,58.158500000000004,51.0115,52.828,33.976,58.047,50.422666666666665,-0.04699999999999993,-0.10250000000000004,0.10587,0.11318500000000001,0.0,217.785,217.695,214.46,214.46,190.012512,21.04372
30,0.0,1.0,0.0,1.0,1.0,0.0,0.0,1.0,0.0,100.0,1.0,1.1856,26.0,0.0,0.0,0.0,59.999996,0.0,26.0,26.0,26.0,26.0,-0.13522222222222213,0.2632000000000001,0.03526000000000001,291.565,-2.6245,-2.802375,-1.4615,-1.6995,-174.0,216.015,190.329875,0.0,0.0,0.0,0.0,0.060700000000000004,-5.498166666666667,-5.498166666666667,-0.6008,0.815,-0.09587499999999993,-0.4929999999999999,69.695,-0.12259999999999993,-0.2152,1.0620000000000012,100.0,1.0,1.0,214.86666666666667,0.0,0.0,0.0,0.0,0.0,0.0,0.0,9107.4,0.0,55.0,5.0,250.87333333333333,0.0,0.0,0.0,0.0,0.0,0.0,1.0,0.0,1.5060000000000002,1.5060000000000002,0.0,0.0,0.0,55.0,616.79921,10000.0,85.000001,85.000001,85.000001,85.000001,395.0,0.0,0.0,0.0,1.0,166.665,51.391999999999996,51.391999999999996,47.333,47.333,34.0,-31.7725,19.781666666666666,-36.44,24.0325,0.0,1781.947,0.240000000000002,100.0,29.457,28.117,44.278999999999996,42.842,0.0,1.0,100.0,0.0,0.0,0.0,0.0,3505.285714285714,2955.6,4359.625,4101.5,304.3115,305.39566666666667,314.3135,314.60475,22.0491,20.6561,22.0305,21.529,314.999998,314.999998,324.999988,324.999988,99.55881428571429,99.50718333333333,99.56765714285714,99.54757142857143,-0.02475000000000005,-0.16100000000000003,-0.23916666666666667,-0.013833333333333364,-0.05333333333332746,-0.04833333333333201,1.47,1.509,38.807,30.101,38.691,35.5565,55.739000000000004,35.3945,59.617,52.7345,53.677,34.492,58.194,51.065,52.818,34.013999999999996,58.08,50.475,-0.06499999999999995,-0.09450000000000003,0.105815,0.108795,0.0,218.24,218.135,214.86666666666667,214.86666666666667,190.012512,21.04372
31,0.0,1.0,0.0,1.0,1.0,0.0,0.0,1.0,0.0,100.0,1.0,1.1856,26.0,0.0,0.0,0.0,59.999996,0.0,26.0,26.0,26.0,26.0,-0.11988888888888893,0.25480000000000014,0.0036200000000000004,291.473,-2.6866,-2.686125,-1.5104000000000002,-1.6745,-170.44,216.01,190.304125,0.0,0.0,0.0,0.0,0.06276666666666667,-5.498166666666667,-5.498166666666667,-0.5910000000000001,-0.77,-0.08512500000000012,0.5880000000000001,69.82900000000001,-0.1026999999999999,-0.22095,0.5419999999999998,100.0,1.0,1.0,215.18333333333334,0.0,0.0,0.0,0.0,0.0,0.0,0.0,9120.8,0.0,55.0,5.0,251.35666666666668,1.0,0.0,0.0,0.0,0.0,0.0,1.0,0.0,1.5569999999999986,1.5569999999999986,0.0,0.0,1.0,55.0,616.79921,10000.0,85.000001,85.000001,85.000001,85.000001,395.0,0.0,0.0,0.0,1.0,166.665,51.971000000000004,51.971000000000004,46.082,46.082,34.0,-28.509999999999998,19.94333333333333,-34.989999999999995,26.5075,0.0,1781.897,0.23499999999999943,100.0,29.178,28.005,45.062,43.342,0.0,1.0,100.0,0.0,0.0,0.0,0.0,3190.4285714285716,3107.9,4328.625,4263.5,305.2655,305.1893333333333,314.23075,314.381,22.0585,20.6616,22.0412,21.5383,314.999998,314.999998,324.999988,324.999988,99.55881428571429,99.5072,99.56781428571429,99.54772857142858,-0.0129999999999999,-0.15333333333333332,-0.19783333333333333,0.01750000000000007,-0.03166666666666629,-0.051666666666669414,1.4505,1.47,38.866,30.134999999999998,38.757,35.614,55.724000000000004,35.4385,59.662,52.797,53.662,34.5325,58.2365,51.125,52.803,34.053,58.119,50.53333333333333,-0.06599999999999995,-0.10299999999999998,0.10231000000000001,0.100315,0.0,218.57999999999998,218.55,215.18333333333334,215.18333333333334,190.012512,21.04372
32,0.0,1.0,0.0,1.0,1.0,0.0,0.0,1.0,0.0,100.0,1.0,1.1856,26.0,0.0,0.0,0.0,59.999996,0.0,26.0,26.0,26.0,26.0,-0.10266666666666657,0.2762,-0.0356,291.718,-2.6234,-2.7281250000000004,-1.5714000000000001,-1.5838999999999999,-166.88,216.0,190.278375,0.0,0.0,0.0,0.0,0.06483333333333334,-5.498166666666667,-5.498166666666667,-0.6097,0.1795,-0.11312500000000014,-0.7890000000000001,69.958,-0.08749999999999991,-0.22835,0.6539999999999999,100.0,1.0,1.0,215.7266666666667,0.0,0.0,0.0,0.0,0.0,0.0,0.0,9143.8,0.0,55.0,5.0,251.82,0.0,0.0,0.0,0.0,0.0,0.0,1.0,0.0,1.6080000000000005,1.6080000000000005,0.0,0.0,0.0,55.0,616.79921,10000.0,85.000001,85.000001,85.000001,85.000001,395.0,0.0,0.0,0.0,1.0,333.33500000000004,51.666,51.666,47.119,47.119,34.0,-29.535,20.056666666666665,-34.32333333333333,24.2525,0.0,1781.844,0.10500000000000043,100.0,29.121000000000002,28.201,44.507,43.157,0.0,1.0,100.0,0.0,0.0,0.0,0.0,3426.5714285714284,2944.4,4277.5,4102.3,304.6025,305.35133333333334,314.5845,314.81225,22.068,20.6671,22.0515,21.5473,314.999998,314.999998,324.999988,324.999988,99.55882857142858,99.50721666666666,99.56795714285714,99.54787142857143,0.0040000000000000036,-0.1383333333333332,-0.1935,0.028166666666666673,-0.06833333333332803,-0.04833333333333201,1.541,1.55,38.925,30.169666666666664,38.822,35.670500000000004,55.71,35.4825,59.7005,52.855000000000004,53.649,34.573499999999996,58.2725,51.181,52.789,34.092,58.152,50.587666666666664,-0.07799999999999996,-0.08699999999999997,0.09957500000000001,0.10748500000000001,0.0,219.005,218.94,215.7266666666667,215.7266666666667,190.012512,21.04372
33,0.0,1.0,0.0,1.0,1.0,0.0,0.0,1.0,0.0,100.0,1.0,1.1856,26.0,0.0,0.0,0.0,59.999996,0.0,26.0,26.0,26.0,26.0,-0.08599999999999997,0.2610000000000001,-8e-05,291.901,-2.6463,-2.771875,-1.5173,-1.6435,-163.3,215.99,190.251625,0.0,0.0,0.0,0.0,0.06693333333333334,-5.498166666666667,-5.498166666666667,-0.6129,-0.4750000000000001,-0.09087500000000004,1.404,70.09,-0.07779999999999998,-0.21580000000000002,0.4039999999999999,100.0,1.0,1.0,216.03,0.0,0.0,0.0,0.0,0.0,0.0,0.0,9156.7,0.0,55.0,5.0,252.3,1.0,0.0,0.0,0.0,0.0,0.0,1.0,0.0,1.658999999999999,1.658999999999999,0.0,0.0,1.0,55.0,616.79921,10000.0,85.000001,85.000001,85.000001,85.000001,395.0,0.0,0.0,0.0,1.0,166.665,52.368,52.368,47.073,47.073,34.0,-26.35,21.168333333333333,-32.67,26.665,0.0,1781.795,-0.03999999999999915,100.0,28.95,27.744,44.552,43.234,0.0,1.0,100.0,0.0,0.0,0.0,0.0,3131.714285714286,2961.8,4177.875,4235.4,305.328,305.46666666666664,314.64225,314.3825,22.0773,20.6724,22.062,21.5564,314.999998,314.999998,324.999988,324.999988,99.55882857142858,99.50723333333333,99.56811428571429,99.54801428571429,0.01949999999999985,-0.11966666666666681,-0.18366666666666667,0.03283333333333327,-0.045000000000001705,-0.054999999999999716,1.4865,1.499,38.983000000000004,30.202666666666666,38.887,35.7275,55.695,35.5225,59.741,52.916,53.635,34.61,58.3105,51.239,52.774,34.126999999999995,58.187,50.644333333333336,-0.08150000000000002,-0.07450000000000001,0.11145000000000001,0.10358,0.0,219.39499999999998,219.365,216.03,216.03,190.012512,21.04372
34,0.0,1.0,0.0,1.0,1.0,0.0,0.0,1.0,0.0,100.0,1.0,1.1856,26.0,0.0,0.0,0.0,59.999996,0.0,26.0,26.0,26.0,26.0,-0.07233333333333336,0.24890000000000012,-0.056920000000000005,292.328,-2.6581,-2.75425,-1.5776,-1.6116000000000001,-159.94,215.97750000000002,190.22525,0.0,0.0,0.0,0.0,0.06886666666666666,-5.498166666666667,-5.498166666666667,-0.645,-0.7955000000000001,-0.06037500000000007,1.0579999999999998,70.212,-0.06309999999999993,-0.22595,0.29600000000000115,100.0,1.0,1.0,216.48666666666668,0.0,0.0,0.0,0.0,0.0,0.0,0.0,9176.1,0.0,55.0,5.0,252.73666666666668,0.0,0.0,0.0,0.0,0.0,0.0,1.0,0.0,1.7070000000000007,1.7070000000000007,0.0,0.0,0.0,55.0,616.79921,10000.0,85.000001,85.000001,85.000001,85.000001,395.0,0.0,0.0,0.0,1.0,166.665,52.673,52.673,47.821,47.821,34.0,-25.2725,21.361666666666665,-31.323333333333334,26.4875,0.0,1781.747,-0.00999999999999801,100.0,28.649,27.501,44.157,43.292,0.0,1.0,100.0,0.0,0.0,0.0,0.0,3055.0,2954.4,4048.75,4102.1,305.4315,305.461,315.04475,314.725,22.086,20.6775,22.0717,21.565,314.999998,314.999998,324.999988,324.999988,99.55882857142858,99.50723333333333,99.56825714285715,99.54815714285715,0.03400000000000025,-0.11033333333333317,-0.1715,0.060833333333333295,-0.051666666666669414,-0.045000000000001705,1.53,1.5415,39.037,30.234333333333332,38.948,35.781,55.679,35.5595,59.7755,52.9725,53.620000000000005,34.6445,58.343,51.2935,52.759,34.16,58.216499999999996,50.697,-0.08150000000000002,-0.07800000000000007,0.10597500000000001,0.11474500000000001,0.0,219.755,219.71,216.48666666666668,216.48666666666668,190.012512,21.04372
35,0.0,1.0,0.0,1.0,1.0,0.0,0.0,1.0,0.0,100.0,1.0,1.1856,26.0,0.0,0.0,0.0,59.999996,0.0,26.0,26.0,26.0,26.0,-0.045777777777777806,0.256,-0.06532,292.221,-2.6635999999999997,-2.7035,-1.5483,-1.621,-156.35,215.9625,190.195125,0.0,0.0,0.0,0.0,0.07096666666666666,-5.498166666666667,-5.498166666666667,-0.6875,-0.25350000000000006,-0.06862499999999994,-0.9459999999999997,70.34100000000001,-0.048899999999999944,-0.23062500000000002,0.17600000000000016,100.0,1.0,1.0,216.96333333333334,0.0,0.0,0.0,0.0,0.0,0.0,0.0,9196.3,0.0,55.0,5.0,253.2,1.0,0.0,0.0,0.0,0.0,0.0,1.0,0.0,1.7579999999999991,1.7579999999999991,0.0,0.0,1.0,55.0,616.79921,10000.0,85.000001,85.000001,85.000001,85.000001,395.0,0.0,0.0,0.0,1.0,333.33500000000004,51.879999999999995,51.879999999999995,47.546,47.546,34.0,-26.9675,23.424999999999997,-29.66,25.392500000000002,0.0,1781.694,0.0,100.0,28.393,28.055,43.8,42.907,0.0,1.0,100.0,0.0,0.0,0.0,0.0,3260.285714285714,3226.2,4002.5,3884.6000000000004,305.0715,304.5203333333333,315.146,315.25125,22.0951,20.683,22.0819,21.573900000000002,314.999998,314.999998,324.999988,324.999988,99.55884285714286,99.50725,99.5684,99.5483,0.034250000000000114,-0.10733333333333328,-0.15783333333333335,0.07333333333333325,-0.045000000000001705,-0.03833333333332689,1.5785,1.5765,39.094,30.269,39.012,35.837,55.662,35.601,59.8125,53.0285,53.604,34.6825,58.376999999999995,51.3475,52.741,34.196,58.2475,50.74966666666667,-0.07899999999999996,-0.08099999999999996,0.10970500000000001,0.10979000000000001,0.0,220.155,220.12,216.96333333333334,216.96333333333334,190.012512,21.04372
