,ABS Active,ABS Enabled,AID Allow Tire Blankets,AID Auto Blip,AID Auto Clutch,AID Auto Shift,AID Fuel Rate,AID Ideal Line,AID Mech Damage,AID Stability,AID Tire Wear Rate,Air Density,Air Temp,Ballast,Best Lap Delta,Best Lap Time,Brake Bias,Brake Pos,Brake Temp FL,Brake Temp FR,Brake Temp RL,Brake Temp RR,CG Accel Lateral,CG Accel Longitudinal,CG Accel Vertical,CG Height,Camber FL,Camber FR,Camber RL,Camber RR,Car Coord X,Car Coord Y,Car Coord Z,Car Damage Front,Car Damage Left,Car Damage Rear,Car Damage Right,Car Pos Norm,Caster FL,Caster FR,Chassis Pitch Angle,Chassis Pitch Rate,Chassis Roll Angle,Chassis Roll Rate,Chassis Velocity X,Chassis Velocity Y,Chassis Velocity Z,Chassis Yaw Rate,Clutch Pos,DRS Active,DRS Available,Drive Train Speed,ERS Heat Charging,ERS Is Charging,ERS Max Energy,ERS Power Level,ERS Recovery Level,Engine Brake Setting,Engine Limiter,Engine RPM,Flags,Fuel Level,Gear,Ground Speed,HR Sample Clock,In Pit,KERS Charge,KERS Deployed Energy,KERS Input,KERS Max Energy,LR Sample Clock,Lap Invalidated,Lap Time,Lap Time2,Last Lap Time,Last Sector Time,MR Sample Clock,Max Fuel,Max Power,Max RPM,Max Sus Travel FL,Max Sus Travel FR,Max Sus Travel RL,Max Sus Travel RR,Max Torque,Max Turbo Boost,Num Tires Off Track,Penalties Enabled,Position,Raw Data Sample Rate,Ride Height FL,Ride Height FR,Ride Height RL,Ride Height RR,Road Temp,Self Align Torque FL,Self Align Torque FR,Self Align Torque RL,Self Align Torque RR,Session Lap Count,Session Time Left,Steering Angle,Surface Grip,Suspension Travel FL,Suspension Travel FR,Suspension Travel RL,Suspension Travel RR,TC Active,TC Enabled,Throttle Pos,Tire Dirt Level FL,Tire Dirt Level FR,Tire Dirt Level RL,Tire Dirt Level RR,Tire Load FL,Tire Load FR,Tire Load RL,Tire Load RR,Tire Loaded Radius FL,Tire Loaded Radius FR,Tire Loaded Radius RL,Tire Loaded Radius RR,Tire Pressure FL,Tire Pressure FR,Tire Pressure RL,Tire Pressure RR,Tire Radius FL,Tire Radius FR,Tire Radius RL,Tire Radius RR,Tire Rubber Grip FL,Tire Rubber Grip FR,Tire Rubber Grip RL,Tire Rubber Grip RR,Tire Slip Angle FL,Tire Slip Angle FR,Tire Slip Angle RL,Tire Slip Angle RR,Tire Slip Ratio FL,Tire Slip Ratio FR,Tire Slip Ratio RL,Tire Slip Ratio RR,Tire Temp Core FL,Tire Temp Core FR,Tire Temp Core RL,Tire Temp Core RR,Tire Temp Inner FL,Tire Temp Inner FR,Tire Temp Inner RL,Tire Temp Inner RR,Tire Temp Middle FL,Tire Temp Middle FR,Tire Temp Middle RL,Tire Temp Middle RR,Tire Temp Outer FL,Tire Temp Outer FR,Tire Temp Outer RL,Tire Temp Outer RR,Toe In FL,Toe In FR,Toe In RL,Toe In RR,Turbo Boost,Wheel Angular Speed FL,Wheel Angular Speed FR,Wheel Angular Speed RL,Wheel Angular Speed RR,Wind Direction,Wind Speed
0,0.0,1.0,0.0,1.0,1.0,0.0,0.0,1.0,0.0,100.0,1.0,1.1856,26.0,0.0,0.0,0.0,59.99999,0.0,26.0,26.0,26.0,26.0,-0.073125,0.3037000000000001,0.06876666666666667,294.144,-2.7252,-2.502125,-1.4904,-1.5291,-275.45,215.9075,190.98675,0.0,0.0,0.0,0.0,0.0017333333333333645,-5.498166666666667,-5.498166666666667,-0.5447000000000001,2.0503333333333336,-0.028500000000000192,-0.81,65.532,-0.0543,-0.212175,0.5640000000000001,100.0,1.0,1.0,202.32666666666665,0.0,0.0,0.0,0.0,0.0,0.0,0.0,8575.8,0.0,55.0,5.0,235.88333333333333,0.0,0.0,0.0,0.0,0.0,0.0,0.0,0.0,0.006000000000000227,0.006000000000000227,0.0,0.0,0.0,55.0,616.79921,10000.0,85.0,85.0,85.0,85.0,395.0,0.0,0.0,0.0,1.0,20.0,52.505,52.505,49.423,49.423,34.0,-28.555,23.46,-30.183333333333334,24.5575,0.0,1783.658,0.7850000000000001,100.0,26.955,26.676000000000002,40.212,39.594,0.0,1.0,100.0,0.0,0.0,0.0,0.0,3138.5714285714284,3610.8,4146.0,4010.0,305.204,303.13125,314.741,314.8795,21.7613,20.4964,21.7272,21.2641,314.99999,314.99999,324.99998,324.99998,99.55821428571429,99.50666666666666,99.56358571428571,99.54331428571429,-0.016999999999999904,-0.127,-0.15966666666666662,0.06366666666666676,-0.04333333333332945,-0.06428571428571672,1.556,1.5695000000000001,37.007999999999996,29.102666666666664,36.795,33.9005,56.028999999999996,34.107,58.506,50.9075,53.961,33.325,57.161,49.311,53.135999999999996,32.9185,57.135999999999996,48.757666666666665,-0.020000000000000018,-0.12400000000000011,0.10907000000000001,0.11042,0.0,205.36,205.32,202.32666666666665,202.32666666666665,190.01251,21.04372
1,0.0,1.0,0.0,1.0,1.0,0.0,0.0,1.0,0.0,100.0,1.0,1.1856,26.0,0.0,0.0,0.0,59.999996,0.0,26.0,26.0,26.0,26.0,-0.11749999999999994,0.3135000000000001,0.015733333333333335,293.579,-2.642,-2.823875,-1.5293,-1.4491999999999998,-271.9,215.925,190.96575,0.0,0.0,0.0,0.0,0.0037999999999999146,-5.498166666666667,-5.498166666666667,-0.4954,-1.9303333333333332,-0.06800000000000006,-0.41500000000000004,65.699,-0.0641,-0.2071,1.136000000000001,100.0,1.0,1.0,202.44666666666666,0.0,0.0,0.0,0.0,0.0,0.0,0.0,8581.0,0.0,55.0,5.0,236.48666666666668,1.0,0.0,0.0,0.0,0.0,0.0,0.0,0.0,0.05999999999999872,0.05999999999999872,0.0,0.0,1.0,55.0,616.79921,10000.0,85.000001,85.000001,85.000001,85.000001,395.0,0.0,0.0,0.0,1.0,166.665,54.672,54.672,48.828,48.828,34.0,-25.987499999999997,17.07,-35.43,25.905,0.0,1783.605,0.7899999999999991,100.0,27.051,26.185,42.269,42.022999999999996,0.0,1.0,100.0,0.0,0.0,0.0,0.0,2944.714285714286,2541.1,4401.888888888889,4496.6,305.8215,306.83,313.96,313.0525,21.7716,20.5014,21.738599999999998,21.273699999999998,314.999998,314.999998,324.999988,324.999988,99.55822857142857,99.50668333333333,99.56374285714286,99.54347142857142,-0.022499999999999964,-0.14466666666666672,-0.18133333333333335,0.023333333333333428,-0.021666666666668277,-0.054285714285711606,1.355,1.408,37.072,29.134,36.866,33.961,56.012,34.1475,58.557,50.981,53.944,33.3625,57.2095,49.3815,53.117999999999995,32.954499999999996,57.1815,48.82666666666667,-0.0044999999999999485,-0.133,0.10107000000000001,0.103095,0.0,205.825,205.72,202.44666666666666,202.44666666666666,190.012512,21.04372
2,0.0,1.0,0.0,1.0,1.0,0.0,0.0,1.0,0.0,100.0,1.0,1.1856,26.0,0.0,0.0,0.0,59.999996,0.0,26.0,26.0,26.0,26.0,-0.13112499999999994,0.28880000000000017,-0.1027,294.647,-2.6105,-2.786625,-1.4939,-1.6252,-268.75,215.94,190.948,0.0,0.0,0.0,0.0,0.005633333333333379,-5.498166666666667,-5.498166666666667,-0.5605,0.6253333333333334,-0.04249999999999998,2.556,65.831,-0.0811,-0.256325,1.4920000000000009,100.0,1.0,1.0,203.57333333333332,0.0,0.0,0.0,0.0,0.0,0.0,0.0,8628.8,0.0,55.0,5.0,236.96,0.0,0.0,0.0,0.0,0.0,0.0,0.0,0.0,0.10800000000000054,0.10800000000000054,0.0,0.0,0.0,55.0,616.79921,10000.0,85.000001,85.000001,85.000001,85.000001,395.0,0.0,0.0,0.0,1.0,166.665,53.07,53.07,51.315,51.315,34.0,-30.1,20.04,-27.336666666666666,18.7575,0.0,1783.557,0.8850000000000016,100.0,27.836,26.278,41.702,40.548,0.0,1.0,100.0,0.0,0.0,0.0,0.0,3259.5714285714284,3011.8,3590.3333333333335,3514.1,304.729,305.326,316.04425,316.257,21.7811,20.5061,21.7482,21.2816,314.999998,314.999998,324.999988,324.999988,99.55824285714286,99.50668333333333,99.56387142857143,99.54358571428571,-0.04349999999999987,-0.15666666666666673,-0.21966666666666657,0.006000000000000005,-0.054999999999999716,-0.05285714285714249,1.7103333333333333,1.7765,37.132,29.163333333333334,36.926,34.0095,56.001000000000005,34.187,58.592,51.03,53.935,33.399,57.2415,49.429,53.108000000000004,32.989,57.2115,48.873,-0.005499999999999949,-0.14200000000000013,0.10478000000000001,0.10515500000000001,0.0,206.285,206.14499999999998,203.57333333333332,203.57333333333332,190.012512,21.04372
3,0.0,1.0,0.0,1.0,1.0,0.0,0.0,1.0,0.0,100.0,1.0,1.1856,26.0,0.0,0.0,0.0,59.999996,0.0,26.0,26.0,26.0,26.0,-0.14087499999999997,0.30290000000000017,0.10366666666666668,293.869,-2.7095,-2.723625,-1.4817,-1.5965,-265.19,215.95,190.92675,0.0,0.0,0.0,0.0,0.007699999999999929,-5.498166666666667,-5.498166666666667,-0.502,0.059000000000000004,-0.03562500000000002,-0.344,65.998,-0.10160000000000001,-0.1912,1.290000000000001,100.0,1.0,1.0,203.56,0.0,0.0,0.0,0.0,0.0,0.0,0.0,8628.1,0.0,55.0,5.0,237.56,1.0,0.0,0.0,0.0,0.0,0.0,0.0,0.0,0.16199999999999903,0.16199999999999903,0.0,0.0,1.0,55.0,616.79921,10000.0,85.000001,85.000001,85.000001,85.000001,395.0,0.0,0.0,0.0,1.0,111.11,54.138,54.138,48.492,48.492,34.0,-27.302500000000002,17.064999999999998,-35.96,24.205,0.0,1783.503,0.9299999999999997,100.0,27.385,26.303,42.21,40.889,0.0,1.0,100.0,0.0,0.0,0.0,0.0,2923.857142857143,2791.0,4368.111111111111,4238.4,305.849,305.957,314.10575,314.31875,21.7914,20.5114,21.7592,21.2909,314.999998,314.999998,324.999988,324.999988,99.55824285714286,99.50671666666666,99.56401428571428,99.54374285714286,-0.04675000000000007,-0.17766666666666664,-0.22166666666666657,0.0040000000000000036,-0.026666666666670835,-0.048571428571428044,1.4686666666666666,1.5194999999999999,37.196,29.196333333333335,36.995000000000005,34.068,55.985,34.233000000000004,58.6375,51.1,53.919,33.441,57.2845,49.496,53.091,33.0295,57.251,48.93866666666666,-0.0034999999999999476,-0.14349999999999996,0.10565000000000001,0.11054000000000001,0.0,206.76,206.675,203.56,203.56,190.012512,21.04372
4,0.0,1.0,0.0,1.0,1.0,0.0,0.0,1.0,0.0,100.0,1.0,1.1856,26.0,0.0,0.0,0.0,59.999996,0.0,26.0,26.0,26.0,26.0,-0.16174999999999995,0.2815000000000001,-0.035,294.189,-2.6476,-2.8129999999999997,-1.5048,-1.6046,-262.02,215.95749999999998,190.908375,0.0,0.0,0.0,0.0,0.009533333333333394,-5.498166666666667,-5.498166666666667,-0.5395,-0.8086666666666666,-0.09125000000000005,0.018000000000000016,66.136,-0.1139,-0.238175,1.5679999999999996,100.0,1.0,1.0,204.18,0.0,0.0,0.0,0.0,0.0,0.0,0.0,8654.4,0.0,55.0,5.0,238.06,0.0,0.0,0.0,0.0,0.0,0.0,0.0,0.0,0.21000000000000085,0.21000000000000085,0.0,0.0,0.0,55.0,616.79921,10000.0,85.000001,85.000001,85.000001,85.000001,395.0,0.0,0.0,0.0,1.0,166.665,53.757,53.757,49.332,49.332,34.0,-30.6125,18.586666666666666,-33.34,19.585,0.0,1783.455,0.9149999999999991,100.0,27.33,26.011,42.612,40.857,0.0,1.0,100.0,0.0,0.0,0.0,0.0,3222.5714285714284,2890.6,4054.777777777778,3679.7,304.985,305.675,314.81225,315.666,21.8006,20.516,21.7691,21.2991,314.999998,314.999998,324.999988,324.999988,99.55825714285714,99.50673333333333,99.56415714285714,99.54385714285715,-0.06174999999999997,-0.17633333333333323,-0.23299999999999998,-0.00983333333333336,-0.041666666666671404,-0.04142857142857537,1.5653333333333332,1.6175000000000002,37.254000000000005,29.225,37.057,34.1195,55.972,34.2725,58.679,51.1565,53.907,33.4775,57.323,49.55,53.078,33.064,57.2875,48.99166666666667,-0.0010000000000000009,-0.14200000000000013,0.10074500000000002,0.10857000000000001,0.0,207.20499999999998,207.05,204.18,204.18,190.012512,21.04372
5,0.0,1.0,0.0,1.0,1.0,0.0,0.0,1.0,0.0,100.0,1.0,1.1856,26.0,0.0,0.0,0.0,59.999996,0.0,26.0,26.0,26.0,26.0,-0.15374999999999994,0.3022,-0.011133333333333334,294.25,-2.6727,-2.772625,-1.466,-1.631,-258.64,215.9625,190.888125,0.0,0.0,0.0,0.0,0.011499999999999955,-5.498166666666667,-5.498166666666667,-0.5343,0.41000000000000003,-0.08937499999999998,-0.507,66.28399999999999,-0.1273,-0.21330000000000002,1.5359999999999996,100.0,1.0,1.0,204.62666666666667,0.0,0.0,0.0,0.0,0.0,0.0,0.0,8673.3,0.0,55.0,5.0,238.59333333333333,1.0,0.0,0.0,0.0,0.0,0.0,0.0,0.0,0.26099999999999923,0.26099999999999923,0.0,0.0,1.0,55.0,616.79921,10000.0,85.000001,85.000001,85.000001,85.000001,395.0,0.0,0.0,0.0,1.0,166.665,54.001,54.001,49.606,49.606,34.0,-30.84,17.101666666666667,-34.446666666666665,20.509999999999998,0.0,1783.402,0.6099999999999994,100.0,27.31,26.087,42.230000000000004,40.569,0.0,1.0,100.0,0.0,0.0,0.0,0.0,3232.857142857143,2729.1,4128.333333333333,3940.9,305.098,306.016,314.802,315.03075,21.8105,20.5209,21.7794,21.3077,314.999998,314.999998,324.999988,324.999988,99.55827142857143,99.50675,99.56431428571429,99.54401428571428,-0.06424999999999992,-0.17900000000000005,-0.25616666666666665,-0.03266666666666662,-0.05333333333332746,-0.032857142857139365,1.5603333333333333,1.6110000000000002,37.316,29.255666666666666,37.120999999999995,34.173,55.96,34.317,58.723,51.219,53.894999999999996,33.5185,57.364,49.6095,53.065,33.103,57.3255,49.05,-0.021499999999999964,-0.12050000000000005,0.10204500000000001,0.11061000000000001,0.0,207.695,207.535,204.62666666666667,204.62666666666667,190.012512,21.04372
6,0.0,1.0,0.0,1.0,1.0,0.0,0.0,1.0,0.0,100.0,1.0,1.1856,26.0,0.0,0.0,0.0,59.999996,0.0,26.0,26.0,26.0,26.0,-0.16737499999999994,0.30069999999999997,0.007666666666666667,293.991,-2.6132,-2.835125,-1.5171999999999999,-1.5964,-255.26,215.96,190.867375,0.0,0.0,0.0,0.0,0.013466666666666516,-5.498166666666667,-5.498166666666667,-0.5264,-0.11800000000000001,-0.09287500000000026,0.827,66.434,-0.127,-0.20672500000000002,1.1760000000000002,100.0,1.0,1.0,204.98333333333335,0.0,0.0,0.0,0.0,0.0,0.0,0.0,8688.6,0.0,55.0,5.0,239.13333333333333,0.0,0.0,0.0,0.0,0.0,0.0,0.0,0.0,0.31200000000000117,0.31200000000000117,0.0,0.0,0.0,55.0,616.79921,10000.0,85.000001,85.000001,85.000001,85.000001,395.0,0.0,0.0,0.0,1.0,111.11,54.077,54.077,48.981,48.981,34.0,-28.7075,18.01833333333333,-35.60666666666667,21.22,0.0,1783.353,0.41499999999999915,100.0,27.461,25.912,42.643,40.753,0.0,1.0,100.0,0.0,0.0,0.0,0.0,3092.4285714285716,2795.6,4219.666666666667,4056.6000000000004,305.3185,305.962,314.48975,314.79475,21.8204,20.5258,21.7899,21.3164,314.999998,314.999998,324.999988,324.999988,99.55827142857143,99.50678333333333,99.56445714285714,99.54414285714286,-0.05499999999999994,-0.17766666666666664,-0.24066666666666658,-0.025833333333333375,-0.03833333333332689,-0.06571428571428584,1.5293333333333334,1.5685000000000002,37.376999999999995,29.28633333333333,37.187,34.228,55.948,34.357,58.7645,51.278,53.882999999999996,33.555,57.403,49.666,53.053,33.138,57.3615,49.105000000000004,-0.03400000000000003,-0.10899999999999999,0.10603000000000001,0.109295,0.0,208.12,208.025,204.98333333333335,204.98333333333335,190.012512,21.04372
7,0.0,1.0,0.0,1.0,1.0,0.0,0.0,1.0,0.0,100.0,1.0,1.1856,26.0,0.0,0.0,0.0,59.999996,0.0,26.0,26.0,26.0,26.0,-0.11887499999999995,0.29469999999999996,0.008766666666666667,293.945,-2.5846999999999998,-2.8222500000000004,-1.4769,-1.6417,-252.26,215.95749999999998,190.849375,0.0,0.0,0.0,0.0,0.015199999999999991,-5.498166666666667,-5.498166666666667,-0.5354,0.05466666666666666,-0.08450000000000024,-0.23199999999999998,66.563,-0.12150000000000001,-0.22357500000000002,1.0259999999999998,100.0,1.0,1.0,205.46,0.0,0.0,0.0,0.0,0.0,0.0,0.0,8708.7,0.0,55.0,5.0,239.5966666666667,1.0,0.0,0.0,0.0,0.0,0.0,0.0,0.0,0.3569999999999993,0.3569999999999993,0.0,0.0,1.0,55.0,616.79921,10000.0,85.000001,85.000001,85.000001,85.000001,395.0,0.0,0.0,0.0,1.0,166.665,53.528,53.528,49.454,49.454,34.0,-29.08,18.98833333333333,-33.45,20.6175,0.0,1783.307,0.1999999999999993,100.0,27.596,26.279,42.54,40.976,0.0,1.0,100.0,0.0,0.0,0.0,0.0,3249.0,2794.5,4056.4444444444443,3875.3,304.9605,305.74,314.939,315.1375,21.8292,20.5302,21.7992,21.3242,314.999998,314.999998,324.999988,324.999988,99.55827142857143,99.50678333333333,99.56458571428571,99.54427142857143,-0.03400000000000003,-0.15533333333333332,-0.24516666666666664,-0.027666666666666617,-0.05666666666667197,-0.048571428571428044,1.5546666666666666,1.588,37.432,29.314,37.245000000000005,34.275999999999996,55.937,34.394,58.802,51.332,53.873000000000005,33.589,57.438,49.7175,53.043,33.170500000000004,57.3945,49.15566666666666,-0.05799999999999994,-0.08000000000000007,0.10828000000000002,0.101025,0.0,208.53,208.43,205.46,205.46,190.012512,21.04372
8,0.0,1.0,0.0,1.0,1.0,0.0,0.0,1.0,0.0,100.0,1.0,1.1856,26.0,0.0,0.0,0.0,59.999996,0.0,26.0,26.0,26.0,26.0,-0.10099999999999998,0.2811000000000001,-0.030600000000000002,294.037,-2.6695,-2.753875,-1.4615,-1.6298,-248.66,215.95,190.8275,0.0,0.0,0.0,0.0,0.017299999999999982,-5.498166666666667,-5.498166666666667,-0.5393,-0.4586666666666667,-0.07037499999999985,-0.826,66.72,-0.1052,-0.219775,0.6000000000000005,100.0,1.0,1.0,205.89666666666668,0.0,0.0,0.0,0.0,0.0,0.0,0.0,8727.2,0.0,55.0,5.0,240.16333333333333,0.0,0.0,0.0,0.0,0.0,0.0,0.0,0.0,0.41100000000000136,0.41100000000000136,0.0,0.0,0.0,55.0,616.79921,10000.0,85.000001,85.000001,85.000001,85.000001,395.0,0.0,0.0,0.0,1.0,166.665,53.97,53.97,49.010999999999996,49.010999999999996,34.0,-27.965,19.063333333333333,-32.28333333333333,22.395,0.0,1783.253,0.10500000000000043,100.0,27.152,26.315,42.599000000000004,41.132,0.0,1.0,100.0,0.0,0.0,0.0,0.0,3143.142857142857,2834.2,4048.8888888888887,3932.1000000000004,305.4385,305.684,314.94625,314.9765,21.8395,20.5355,21.810200000000002,21.3335,314.999998,314.999998,324.999988,324.999988,99.55828571428572,99.5068,99.56472857142857,99.54441428571428,-0.020750000000000046,-0.14500000000000002,-0.22450000000000003,0.001000000000000112,-0.045000000000001705,-0.04999999999999716,1.5413333333333332,1.5585,37.497,29.347,37.314,34.3345,55.921,34.4375,58.847,51.3975,53.857,33.629,57.480000000000004,49.78,53.025999999999996,33.2085,57.4335,49.21666666666667,-0.07450000000000001,-0.07499999999999996,0.10717000000000002,0.10096000000000001,0.0,208.97500000000002,208.93,205.89666666666668,205.89666666666668,190.012512,21.04372
9,0.0,1.0,0.0,1.0,1.0,0.0,0.0,1.0,0.0,100.0,1.0,1.1856,26.0,0.0,0.0,0.0,59.999996,0.0,26.0,26.0,26.0,26.0,-0.09250000000000003,0.29679999999999995,0.03743333333333333,293.716,-2.5858,-2.765375,-1.5104000000000002,-1.585,-245.66,215.94,190.808875,0.0,0.0,0.0,0.0,0.019033333333333347,-5.498166666666667,-5.498166666666667,-0.537,0.5883333333333334,-0.074125,0.8760000000000001,66.848,-0.09040000000000001,-0.212675,0.45200000000000085,100.0,1.0,1.0,206.32999999999998,0.0,0.0,0.0,0.0,0.0,0.0,0.0,8745.6,0.0,55.0,5.0,240.62333333333333,1.0,0.0,0.0,0.0,0.0,0.0,0.0,0.0,0.4559999999999995,0.4559999999999995,0.0,0.0,1.0,55.0,616.79921,10000.0,85.000001,85.000001,85.000001,85.000001,395.0,0.0,0.0,0.0,1.0,166.665,53.177,53.177,49.53,49.53,34.0,-27.65,21.0,-31.52,23.5975,0.0,1783.208,-0.10500000000000043,100.0,27.798000000000002,26.405,42.416,41.013,0.0,1.0,100.0,0.0,0.0,0.0,0.0,3245.0,2954.8,4041.1111111111113,4041.6000000000004,304.8505,305.46175,315.01225,314.86,21.8482,20.54,21.8194,21.3412,314.999998,314.999998,324.999988,324.999988,99.55828571428572,99.50681666666667,99.56487142857142,99.54454285714286,0.0024999999999999467,-0.11933333333333329,-0.2001666666666666,0.027166666666666783,-0.04333333333332945,-0.0628571428571405,1.5573333333333332,1.593,37.551,29.375,37.370999999999995,34.3825,55.909,34.474000000000004,58.882,51.4505,53.846000000000004,33.6625,57.513,49.831,53.013999999999996,33.2405,57.463499999999996,49.266666666666666,-0.07550000000000001,-0.0685,0.10758500000000001,0.11005000000000001,0.0,209.39,209.36,206.32999999999998,206.32999999999998,190.012512,21.04372
10,0.0,1.0,0.0,1.0,1.0,0.0,0.0,1.0,0.0,100.0,1.0,1.1856,26.0,0.0,0.0,0.0,59.999996,0.0,26.0,26.0,26.0,26.0,-0.05499999999999994,0.2946,-0.023,293.686,-2.6628,-2.7272499999999997,-1.4867,-1.5601,-242.25,215.9275,190.788125,0.0,0.0,0.0,0.0,0.02103333333333335,-5.498166666666667,-5.498166666666667,-0.5242,-0.5573333333333333,-0.03862500000000013,0.21599999999999997,66.99600000000001,-0.0717,-0.21122500000000002,0.1639999999999997,100.0,1.0,1.0,206.63333333333333,0.0,0.0,0.0,0.0,0.0,0.0,0.0,8758.4,0.0,55.0,5.0,241.15666666666667,0.0,0.0,0.0,0.0,0.0,0.0,1.0,0.0,0.5069999999999979,0.5069999999999979,0.0,0.0,0.0,55.0,616.79921,10000.0,85.000001,85.000001,85.000001,85.000001,395.0,0.0,0.0,0.0,1.0,166.665,54.031,54.031,48.507999999999996,48.507999999999996,34.0,-25.3525,19.583333333333332,-32.47,24.947499999999998,0.0,1783.156,-0.1999999999999993,100.0,27.422,26.504,42.692,41.678,0.0,1.0,100.0,0.0,0.0,0.0,0.0,3004.0,2783.3,4230.0,4152.0,305.7885,305.88025,314.5335,314.45725,21.8579,20.545,21.83,21.3502,314.999998,314.999998,324.999988,324.999988,99.55828571428572,99.50683333333333,99.56501428571428,99.54467142857143,0.010000000000000231,-0.11433333333333318,-0.18366666666666664,0.035666666666666735,-0.036666666666668846,-0.044285714285713595,1.4973333333333334,1.5110000000000001,37.611999999999995,29.406333333333336,37.437,34.4385,55.893,34.513,58.9255,51.515,53.831,33.698499999999996,57.554,49.8925,52.998000000000005,33.275,57.5015,49.32666666666667,-0.09399999999999997,-0.050999999999999934,0.10645,0.10681500000000001,0.0,209.815,209.79000000000002,206.63333333333333,206.63333333333333,190.012512,21.04372
11,0.0,1.0,0.0,1.0,1.0,0.0,0.0,1.0,0.0,100.0,1.0,1.1856,26.0,0.0,0.0,0.0,59.999996,0.0,26.0,26.0,26.0,26.0,-0.04899999999999993,0.29290000000000016,-0.06413333333333333,294.098,-2.6659,-2.724625,-1.5402,-1.5335999999999999,-238.82999999999998,215.91500000000002,190.76725,0.0,0.0,0.0,0.0,0.022599999999999953,-5.498166666666667,-5.498166666666667,-0.5573,0.008,-0.013749999999999929,0.589,67.137,-0.0522,-0.22985,-0.03799999999999937,100.0,1.0,1.0,207.32,0.0,0.0,0.0,0.0,0.0,0.0,0.0,8787.6,0.0,55.0,5.0,241.66666666666666,1.0,0.0,0.0,0.0,0.0,0.0,1.0,0.0,0.5579999999999998,0.5579999999999998,0.0,0.0,1.0,55.0,616.79921,10000.0,85.000001,85.000001,85.000001,85.000001,395.0,0.0,0.0,0.0,1.0,333.33500000000004,53.589,53.589,49.728,49.728,34.0,-24.9675,22.814999999999998,-27.226666666666663,23.9725,0.0,1783.105,-0.1999999999999993,100.0,27.316,26.555,42.230000000000004,41.485,0.0,1.0,100.0,0.0,0.0,0.0,0.0,3043.4285714285716,3039.6,3784.222222222222,3896.3,305.5055,305.21575,315.6345,315.222,21.8674,20.5502,21.8403,21.359,314.999998,314.999998,324.999988,324.999988,99.5583,99.50685,99.56515714285715,99.54482857142857,0.035499999999999865,-0.08366666666666678,-0.15733333333333333,0.07299999999999995,-0.03833333333332689,-0.06857142857142406,1.6386666666666665,1.6375000000000002,37.671,29.439,37.501999999999995,34.4935,55.876999999999995,34.553,58.9625,51.575,53.816,33.735,57.588,49.9505,52.982,33.31,57.533,49.38333333333333,-0.09050000000000002,-0.05400000000000005,0.104385,0.10938500000000001,0.0,210.255,210.235,207.32,207.32,190.012512,21.04372
12,0.0,1.0,0.0,1.0,1.0,0.0,0.0,1.0,0.0,100.0,1.0,1.1856,26.0,0.0,0.0,0.0,59.999996,0.0,26.0,26.0,26.0,26.0,-0.02562500000000001,0.28380000000000005,0.02966666666666667,293.51800000000003,-2.6888,-2.7245,-1.5129000000000001,-1.5619,-235.2,215.9,190.744,0.0,0.0,0.0,0.0,0.025466666666666526,-5.498166666666667,-5.498166666666667,-0.5423,0.23166666666666666,-0.022499999999999964,0.6679999999999999,67.293,-0.0341,-0.205925,-0.09200000000000053,100.0,1.0,1.0,207.59333333333333,0.0,0.0,0.0,0.0,0.0,0.0,0.0,8799.2,0.0,55.0,5.0,242.22333333333336,0.0,0.0,0.0,0.0,0.0,0.0,1.0,0.0,0.6119999999999983,0.6119999999999983,0.0,0.0,0.0,55.0,616.79921,10000.0,85.000001,85.000001,85.000001,85.000001,395.0,0.0,0.0,0.0,1.0,111.11,53.391,53.391,48.569,48.569,34.0,-25.307499999999997,23.043333333333333,-29.509999999999998,28.0075,0.0,1783.053,0.1999999999999993,100.0,27.295,26.783,42.253,41.538,0.0,1.0,100.0,0.0,0.0,0.0,0.0,3049.857142857143,3089.3,4133.333333333333,4175.6,305.4805,305.053,314.69925,314.51525,21.8775,20.5558,21.8513,21.3683,314.999998,314.999998,324.999988,324.999988,99.5583,99.50685,99.56531428571428,99.54497142857143,0.03400000000000025,-0.08866666666666667,-0.1363333333333333,0.09216666666666673,-0.04333333333332945,-0.06571428571428584,1.5256666666666665,1.5105,37.735,29.473666666666666,37.571,34.552,55.861000000000004,34.595,59.0055,51.6405,53.8,33.774,57.6285,50.0135,52.966,33.347,57.570499999999996,49.445,-0.0675,-0.07600000000000007,0.10936000000000001,0.11306500000000001,0.0,210.75,210.75,207.59333333333333,207.59333333333333,190.012512,21.04372
13,0.0,1.0,0.0,1.0,1.0,0.0,0.0,1.0,0.0,100.0,1.0,1.1856,26.0,0.0,0.0,0.0,59.999996,0.0,26.0,26.0,26.0,26.0,0.009875000000000078,0.2873000000000001,0.0317,293.228,-2.666,-2.729875,-1.5438,-1.5652,-232.16,215.885,190.724875,0.0,0.0,0.0,0.0,0.026899999999999924,-5.498166666666667,-5.498166666666667,-0.5394,-0.161,-0.023249999999999993,-0.33499999999999996,67.42,-0.0285,-0.2152,-0.1039999999999992,100.0,1.0,1.0,207.94333333333333,0.0,0.0,0.0,0.0,0.0,0.0,0.0,8813.9,0.0,55.0,5.0,242.68333333333334,1.0,0.0,0.0,0.0,0.0,0.0,1.0,0.0,0.657,0.657,0.0,0.0,1.0,55.0,616.79921,10000.0,85.000001,85.000001,85.000001,85.000001,395.0,0.0,0.0,0.0,1.0,166.665,53.177,53.177,48.599000000000004,48.599000000000004,34.0,-24.7875,23.321666666666665,-30.406666666666666,28.005,0.0,1783.007,-0.34499999999999886,100.0,27.476,27.087,42.405,42.085,0.0,1.0,100.0,0.0,0.0,0.0,0.0,3181.0,2952.8,4190.222222222223,4192.8,305.2445,305.2895,314.64575,314.3855,21.886,20.5604,21.860599999999998,21.3763,314.999998,314.999998,324.999988,324.999988,99.5583,99.50686666666667,99.56544285714286,99.5451,0.06550000000000011,-0.058333333333333126,-0.136,0.08616666666666672,-0.05666666666667197,-0.03714285714285381,1.5026666666666668,1.5095,37.788,29.502666666666666,37.629000000000005,34.602000000000004,55.849000000000004,34.629,59.042,51.697,53.789,33.8055,57.6625,50.067499999999995,52.954,33.376999999999995,57.6015,49.498,-0.10549999999999993,-0.03750000000000009,0.1023,0.10798500000000001,0.0,211.135,211.12,207.94333333333333,207.94333333333333,190.012512,21.04372
14,0.0,1.0,0.0,1.0,1.0,0.0,0.0,1.0,0.0,100.0,1.0,1.1856,26.0,0.0,0.0,0.0,59.999996,0.0,26.0,26.0,26.0,26.0,0.017875000000000085,0.28400000000000003,-0.0134,293.427,-2.6958,-2.72525,-1.5510000000000002,-1.5472,-228.51999999999998,215.87,190.70225,0.0,0.0,0.0,0.0,0.028999999999999915,-5.498166666666667,-5.498166666666667,-0.5508000000000001,-0.08966666666666667,0.0040000000000000036,-0.505,67.57,-0.0161,-0.22735000000000002,-0.26399999999999935,100.0,1.0,1.0,208.49666666666667,0.0,0.0,0.0,0.0,0.0,0.0,0.0,8837.4,0.0,55.0,5.0,243.22666666666666,0.0,0.0,0.0,0.0,0.0,0.0,1.0,0.0,0.7109999999999985,0.7109999999999985,0.0,0.0,0.0,55.0,616.79921,10000.0,85.000001,85.000001,85.000001,85.000001,395.0,0.0,0.0,0.0,1.0,166.665,53.192,53.192,48.766999999999996,48.766999999999996,34.0,-24.43,23.701666666666668,-28.103333333333335,26.875,0.0,1782.953,-0.35999999999999943,100.0,27.382,27.3,42.35,42.277,0.0,1.0,100.0,0.0,0.0,0.0,0.0,3127.4285714285716,2992.1,3996.5555555555557,4035.8,305.569,305.1135,315.1535,314.74225,21.8962,20.5661,21.8716,21.3858,314.999998,314.999998,324.999988,324.999988,99.55831428571429,99.50686666666667,99.56558571428572,99.54524285714285,0.06424999999999992,-0.058666666666666645,-0.1273333333333333,0.09499999999999997,-0.03999999999999915,-0.054285714285711606,1.5576666666666665,1.541,37.851,29.538,37.698,34.661,55.835,34.67,59.083,51.7635,53.775999999999996,33.843,57.7005,50.131,52.939,33.4135,57.6365,49.56033333333333,-0.10449999999999993,-0.043500000000000094,0.10713,0.10561000000000001,0.0,211.585,211.59,208.49666666666667,208.49666666666667,190.012512,21.04372
15,0.0,1.0,0.0,1.0,1.0,0.0,0.0,1.0,0.0,100.0,1.0,1.1856,26.0,0.0,0.0,0.0,59.999996,0.0,26.0,26.0,26.0,26.0,0.021625000000000005,0.28580000000000005,0.0184,293.32,-2.6922,-2.69725,-1.5695999999999999,-1.5563,-225.48,215.85750000000002,190.683,0.0,0.0,0.0,0.0,0.03076666666666661,-5.498166666666667,-5.498166666666667,-0.5408000000000001,0.23033333333333333,0.02587499999999987,0.6500000000000001,67.697,-0.0054,-0.20965,-0.3899999999999997,100.0,1.0,1.0,208.83666666666667,0.0,0.0,0.0,0.0,0.0,0.0,0.0,8851.8,0.0,55.0,5.0,243.67666666666668,1.0,0.0,0.0,0.0,0.0,0.0,1.0,0.0,0.7560000000000002,0.7560000000000002,0.0,0.0,1.0,55.0,616.79921,10000.0,85.000001,85.000001,85.000001,85.000001,395.0,0.0,0.0,0.0,1.0,166.665,53.314,53.314,48.644999999999996,48.644999999999996,34.0,-21.7475,24.448333333333334,-27.203333333333333,30.37,0.0,1782.907,-0.2749999999999986,100.0,27.597,27.209,42.319,42.302,0.0,1.0,100.0,0.0,0.0,0.0,0.0,2889.5714285714284,3064.5,3984.3333333333335,4277.1,305.9755,305.044,315.1165,314.23175,21.9046,20.5708,21.8808,21.3937,314.999998,314.999998,324.999988,324.999988,99.55832857142858,99.50688333333333,99.56571428571428,99.54538571428571,0.08599999999999985,-0.046333333333333115,-0.10283333333333333,0.12250000000000005,-0.046666666666666856,-0.04571428571428271,1.5413333333333332,1.529,37.903999999999996,29.567333333333334,37.754999999999995,34.710499999999996,55.823,34.704,59.1165,51.819,53.763999999999996,33.8745,57.7315,50.1845,52.927,33.4435,57.665,49.613,-0.10449999999999993,-0.0475000000000001,0.10240500000000001,0.10961000000000001,0.0,211.97500000000002,212.015,208.83666666666667,208.83666666666667,190.012512,21.04372
16,0.0,1.0,0.0,1.0,1.0,0.0,0.0,1.0,0.0,100.0,1.0,1.1856,26.0,0.0,0.0,0.0,59.999996,0.0,26.0,26.0,26.0,26.0,0.015374999999999917,0.26480000000000015,-0.0106,293.243,-2.7465,-2.6496250000000003,-1.5411000000000001,-1.5612,-221.82,215.84,190.659625,0.0,0.0,0.0,0.0,0.03289999999999993,-5.498166666666667,-5.498166666666667,-0.5616,-0.4526666666666667,0.009500000000000064,0.038999999999999924,67.846,0.0037,-0.22792500000000002,-0.25,100.0,1.0,1.0,209.33666666666667,0.0,0.0,0.0,0.0,0.0,0.0,0.0,8873.1,0.0,55.0,5.0,244.22,0.0,0.0,0.0,0.0,0.0,0.0,1.0,0.0,0.8099999999999987,0.8099999999999987,0.0,0.0,0.0,55.0,616.79921,10000.0,85.000001,85.000001,85.000001,85.000001,395.0,0.0,0.0,0.0,1.0,166.665,52.902,52.902,48.569,48.569,34.0,-24.752499999999998,25.523333333333333,-26.099999999999998,28.655,0.0,1782.855,-0.14000000000000057,100.0,27.336,27.264,42.554,42.411,0.0,1.0,100.0,0.0,0.0,0.0,0.0,3134.0,3216.2,3928.0,4028.8,305.355,304.6835,315.22975,314.8475,21.9145,20.5765,21.8919,21.4032,314.999998,314.999998,324.999988,324.999988,99.55832857142858,99.50688333333333,99.56587142857143,99.54552857142858,0.07500000000000018,-0.04066666666666663,-0.09850000000000003,0.13050000000000006,-0.04333333333332945,-0.04999999999999716,1.566,1.5425,37.965,29.602666666666664,37.824,34.7695,55.807,34.7455,59.159,51.8845,53.748999999999995,33.913,57.771,50.2475,52.911,33.480000000000004,57.701499999999996,49.67466666666667,-0.08599999999999997,-0.06000000000000005,0.10547000000000001,0.10973500000000001,0.0,212.42000000000002,212.435,209.33666666666667,209.33666666666667,190.012512,21.04372
17,0.0,1.0,0.0,1.0,1.0,0.0,0.0,1.0,0.0,100.0,1.0,1.1856,26.0,0.0,0.0,0.0,59.999996,0.0,26.0,26.0,26.0,26.0,0.004250000000000087,0.29720000000000013,0.0057666666666666665,292.953,-2.7102,-2.635875,-1.5822,-1.5228,-218.56,215.8275,190.6385,0.0,0.0,0.0,0.0,0.03479999999999994,-5.498166666666667,-5.498166666666667,-0.548,0.312,-0.010625000000000107,0.766,67.98,0.0014,-0.20655,-0.08999999999999986,100.0,1.0,1.0,209.65333333333334,0.0,0.0,0.0,0.0,0.0,0.0,0.0,8886.5,0.0,55.0,5.0,244.69666666666666,1.0,0.0,0.0,0.0,0.0,0.0,1.0,0.0,0.8580000000000005,0.8580000000000005,0.0,0.0,1.0,55.0,616.79921,10000.0,85.000001,85.000001,85.000001,85.000001,395.0,0.0,0.0,0.0,1.0,166.665,52.979,52.979,48.126,48.126,34.0,-23.77,23.84,-29.53333333333333,30.1525,0.0,1782.807,-0.17999999999999972,100.0,27.732,27.342,42.459,42.328,0.0,1.0,100.0,0.0,0.0,0.0,0.0,3087.5714285714284,3069.4,4293.333333333333,4272.9,305.4225,305.1485,314.42725,314.336,21.9235,20.5815,21.9016,21.4115,314.999998,314.999998,324.999988,324.999988,99.55834285714286,99.50688333333333,99.56601428571429,99.54567142857142,0.08250000000000002,-0.045666666666666744,-0.09466666666666657,0.12916666666666687,-0.045000000000001705,-0.03714285714285381,1.5223333333333335,1.5154999999999998,38.022,29.634666666666668,37.885,34.822,55.795,34.7825,59.195,51.943,53.736999999999995,33.947,57.805,50.3035,52.899,33.5125,57.7325,49.72966666666667,-0.08899999999999997,-0.06299999999999994,0.09571,0.11730000000000002,0.0,212.89,212.86,209.65333333333334,209.65333333333334,190.012512,21.04372
18,0.0,1.0,0.0,1.0,1.0,0.0,0.0,1.0,0.0,100.0,1.0,1.1856,26.0,0.0,0.0,0.0,59.999996,0.0,26.0,26.0,26.0,26.0,0.008874999999999966,0.28290000000000015,0.02636666666666667,292.77,-2.6531,-2.74475,-1.5013,-1.4738,-214.88,215.815,190.61475,0.0,0.0,0.0,0.0,0.036933333333333374,-5.498166666666667,-5.498166666666667,-0.5639000000000001,-0.2886666666666667,0.00649999999999995,0.7610000000000001,68.129,-0.0058000000000000005,-0.22937500000000002,-0.11799999999999944,100.0,1.0,1.0,210.13333333333333,0.0,0.0,0.0,0.0,0.0,0.0,0.0,8906.8,0.0,55.0,5.0,245.23666666666668,0.0,0.0,0.0,0.0,0.0,0.0,1.0,0.0,0.911999999999999,0.911999999999999,0.0,0.0,0.0,55.0,616.79921,10000.0,85.000001,85.000001,85.000001,85.000001,395.0,0.0,0.0,0.0,1.0,111.11,52.551,52.551,48.05,48.05,34.0,-23.7625,26.186666666666667,-27.313333333333336,28.265,0.0,1782.753,-0.26500000000000057,100.0,27.67,27.476,42.733000000000004,42.657,0.0,1.0,100.0,0.0,0.0,0.0,0.0,3098.4285714285716,3218.2,4047.6666666666665,4201.8,305.3245,304.47075,314.89375,314.48025,21.9335,20.5872,21.9127,21.4211,314.999998,314.999998,324.999988,324.999988,99.55835714285715,99.5069,99.56615714285714,99.54582857142857,0.07450000000000001,-0.05233333333333312,-0.10949999999999993,0.11749999999999994,-0.04999999999999716,-0.0714285714285694,1.5296666666666665,1.525,38.084,29.670333333333332,37.954,34.882,55.78,34.823499999999996,59.237,52.01,53.724000000000004,33.985,57.844,50.368,52.884,33.549,57.7685,49.79266666666666,-0.09250000000000003,-0.05600000000000005,0.107675,0.106995,0.0,213.3,213.31,210.13333333333333,210.13333333333333,190.012512,21.04372
19,0.0,1.0,0.0,1.0,1.0,0.0,0.0,1.0,0.0,100.0,1.0,1.1856,26.0,0.0,0.0,0.0,59.999996,0.0,26.0,26.0,26.0,26.0,0.010375000000000023,0.29980000000000007,0.0784,292.45,-2.655,-2.71325,-1.5196,-1.4635,-211.81,215.8025,190.59475,0.0,0.0,0.0,0.0,0.0387333333333334,-5.498166666666667,-5.498166666666667,-0.5479,0.7506666666666666,0.006000000000000005,-0.81,68.252,-0.0049,-0.211125,-0.1039999999999992,100.0,1.0,1.0,210.46,0.0,0.0,0.0,0.0,0.0,0.0,0.0,8920.6,0.0,55.0,5.0,245.68,1.0,0.0,0.0,0.0,0.0,0.0,1.0,0.0,0.9570000000000007,0.9570000000000007,0.0,0.0,1.0,55.0,616.79921,10000.0,85.000001,85.000001,85.000001,85.000001,395.0,0.0,0.0,0.0,1.0,166.665,52.383,52.383,47.897,47.897,34.0,-24.3875,23.791666666666664,-29.44,29.0475,0.0,1782.708,-0.21999999999999886,100.0,28.003,27.938,42.536,42.797,0.0,1.0,100.0,0.0,0.0,0.0,0.0,3167.5714285714284,3020.1,4260.222222222223,4375.9,305.255,304.9345,314.505,314.03025,21.942,20.5921,21.9218,21.429,314.999998,314.999998,324.999988,324.999988,99.55837142857143,99.5069,99.56628571428571,99.54595714285715,0.07125000000000004,-0.06333333333333324,-0.11266666666666658,0.10549999999999993,-0.05666666666667197,-0.03714285714285381,1.5023333333333333,1.4935,38.138,29.700666666666663,38.010999999999996,34.9315,55.769999999999996,34.859,59.2705,52.065,53.714,34.018,57.8755,50.421,52.873000000000005,33.5805,57.797,49.84466666666667,-0.09299999999999997,-0.06099999999999994,0.10018,0.10744000000000001,0.0,213.72500000000002,213.72,210.46,210.46,190.012512,21.04372
20,0.0,1.0,0.0,1.0,1.0,0.0,0.0,1.0,0.0,100.0,1.0,1.1856,26.0,0.0,0.0,0.0,59.999996,0.0,26.0,26.0,26.0,26.0,0.00912500000000005,0.2732000000000001,0.012166666666666668,292.877,-2.7426,-2.675,-1.525,-1.5878,-208.32999999999998,215.79000000000002,190.572375,0.0,0.0,0.0,0.0,0.0407333333333334,-5.498166666666667,-5.498166666666667,-0.5586,-1.139,0.004874999999999963,0.3660000000000001,68.392,-0.0054,-0.2273,-0.13399999999999945,100.0,1.0,1.0,210.88,0.0,0.0,0.0,0.0,0.0,0.0,0.0,8938.5,0.0,55.0,5.0,246.18333333333334,0.0,0.0,0.0,0.0,0.0,0.0,0.0,0.0,1.0079999999999991,1.0079999999999991,0.0,0.0,0.0,55.0,616.79921,10000.0,85.000001,85.000001,85.000001,85.000001,395.0,0.0,0.0,0.0,1.0,166.665,53.146,53.146,47.745,47.745,34.0,-23.3925,24.21666666666667,-27.99,29.17,0.0,1782.655,-0.16499999999999915,100.0,27.636,27.4,43.231,43.036,0.0,1.0,100.0,0.0,0.0,0.0,0.0,2980.5714285714284,3095.0,4051.0,4129.6,305.8265,305.06375,314.87925,314.5585,21.9513,20.5974,21.9324,21.4382,314.999998,314.999998,324.999988,324.999988,99.55837142857143,99.50691666666667,99.56644285714286,99.5461,0.07325000000000026,-0.050999999999999934,-0.11299999999999999,0.11183333333333323,-0.051666666666669414,-0.05285714285714249,1.496,1.5095,38.196,29.734,38.078,34.9885,55.754000000000005,34.8975,59.312,52.129,53.698,34.0535,57.914,50.482,52.857,33.6145,57.832499999999996,49.904666666666664,-0.08899999999999997,-0.0605,0.11367500000000001,0.103605,0.0,214.115,214.12,210.88,210.88,190.012512,21.04372
21,0.0,1.0,0.0,1.0,1.0,0.0,0.0,1.0,0.0,100.0,1.0,1.1856,26.0,0.0,0.0,0.0,59.999996,0.0,26.0,26.0,26.0,26.0,-0.007124999999999937,0.28570000000000007,-0.03596666666666667,292.953,-2.7016999999999998,-2.686,-1.5593,-1.5398,-204.63,215.775,190.54775,0.0,0.0,0.0,0.0,0.04289999999999994,-5.498166666666667,-5.498166666666667,-0.5729000000000001,0.49633333333333335,-0.016000000000000014,0.5640000000000001,68.536,-0.0073,-0.21682500000000002,-0.0779999999999994,100.0,1.0,1.0,211.46666666666667,0.0,0.0,0.0,0.0,0.0,0.0,0.0,8963.3,0.0,55.0,5.0,246.7,1.0,0.0,0.0,0.0,0.0,0.0,0.0,0.0,1.0620000000000012,1.0620000000000012,0.0,0.0,1.0,55.0,616.79921,10000.0,85.000001,85.000001,85.000001,85.000001,395.0,0.0,0.0,0.0,1.0,111.11,52.673,52.673,48.37,48.37,34.0,-24.3425,24.345,-28.363333333333333,27.605,0.0,1782.603,-0.19000000000000128,100.0,27.938,27.5,42.687,42.528,0.0,1.0,100.0,0.0,0.0,0.0,0.0,3109.5714285714284,3103.9,4079.4444444444443,4067.4,305.359,304.97825,314.94275,314.85075,21.9614,20.6032,21.9432,21.4476,314.999998,314.999998,324.999988,324.999988,99.55838571428572,99.50691666666667,99.56658571428571,99.54624285714286,0.07250000000000023,-0.05400000000000005,-0.11499999999999999,0.11233333333333317,-0.026666666666670835,-0.06142857142857139,1.5590000000000002,1.565,38.259,29.77,38.144999999999996,35.047,55.741,34.939499999999995,59.35,52.191,53.685,34.092,57.9495,50.542500000000004,52.843,33.6515,57.8645,49.96333333333333,-0.08850000000000002,-0.06299999999999994,0.10908500000000002,0.10632000000000001,0.0,214.57999999999998,214.60000000000002,211.46666666666667,211.46666666666667,190.012512,21.04372
22,0.0,1.0,0.0,1.0,1.0,0.0,0.0,1.0,0.0,100.0,1.0,1.1856,26.0,0.0,0.0,0.0,59.999996,0.0,26.0,26.0,26.0,26.0,0.01849999999999996,0.2773000000000001,-0.007333333333333333,292.74,-2.7721999999999998,-2.7277500000000003,-1.5891000000000002,-1.531,-201.54,215.765,190.52675,0.0,0.0,0.0,0.0,0.04469999999999996,-5.498166666666667,-5.498166666666667,-0.5579000000000001,-0.06066666666666667,-0.0022500000000000853,-0.46699999999999997,68.66,-0.0111,-0.20465,-0.02400000000000002,100.0,1.0,1.0,211.69,0.0,0.0,0.0,0.0,0.0,0.0,0.0,8972.7,0.0,55.0,5.0,247.15,0.0,0.0,0.0,0.0,0.0,0.0,0.0,0.0,1.1069999999999993,1.1069999999999993,0.0,0.0,0.0,55.0,616.79921,10000.0,85.000001,85.000001,85.000001,85.000001,395.0,0.0,0.0,0.0,1.0,166.665,53.131,53.131,47.607,47.607,34.0,-24.009999999999998,22.948333333333334,-30.793333333333333,29.045,0.0,1782.556,-0.26500000000000057,100.0,27.744,27.737000000000002,42.919,42.912,0.0,1.0,100.0,0.0,0.0,0.0,0.0,3039.0,2904.8,4259.888888888889,4303.2,305.8545,305.38425,314.5565,314.17475,21.9697,20.608,21.9525,21.4556,314.999998,314.999998,324.999988,324.999988,99.55838571428572,99.50693333333334,99.56671428571428,99.54638571428572,0.0714999999999999,-0.05899999999999994,-0.12016666666666664,0.09616666666666673,-0.046666666666666856,-0.05142857142857338,1.4983333333333333,1.4849999999999999,38.311,29.799999999999997,38.203,35.0975,55.729,34.974000000000004,59.385999999999996,52.2475,53.674,34.124,57.983000000000004,50.5965,52.831,33.682,57.896,50.016333333333336,-0.10150000000000003,-0.05049999999999999,0.10224000000000001,0.10552500000000001,0.0,214.98000000000002,214.95499999999998,211.69,211.69,190.012512,21.04372
23,0.0,1.0,0.0,1.0,1.0,0.0,0.0,1.0,0.0,100.0,1.0,1.1856,26.0,0.0,0.0,0.0,59.999996,0.0,26.0,26.0,26.0,26.0,0.0012499999999999734,0.27090000000000014,-0.03933333333333333,292.618,-2.6428,-2.6782500000000002,-1.6388,-1.5088,-197.82999999999998,215.7525,190.501875,0.0,0.0,0.0,0.0,0.04686666666666661,-5.498166666666667,-5.498166666666667,-0.5765,-0.008666666666666666,-0.004875000000000185,-0.612,68.804,-0.0083,-0.22920000000000001,-0.08399999999999963,100.0,1.0,1.0,212.24333333333334,0.0,0.0,0.0,0.0,0.0,0.0,0.0,8996.2,0.0,55.0,5.0,247.66666666666666,1.0,0.0,0.0,0.0,0.0,0.0,0.0,0.0,1.1610000000000014,1.1610000000000014,0.0,0.0,1.0,55.0,616.79921,10000.0,85.000001,85.000001,85.000001,85.000001,395.0,0.0,0.0,0.0,1.0,166.665,52.277,52.277,48.309,48.309,34.0,-25.2125,23.41,-29.99,26.4775,0.0,1782.503,-0.23000000000000043,100.0,28.08,27.877,42.953,43.073,0.0,1.0,100.0,0.0,0.0,0.0,0.0,3253.285714285714,3022.2,4107.555555555556,4033.5,304.9935,305.06875,314.9725,314.881,21.9797,20.6138,21.9635,21.4652,314.999998,314.999998,324.999988,324.999988,99.5584,99.50693333333334,99.56687142857143,99.54652857142857,0.06824999999999992,-0.062000000000000055,-0.12383333333333335,0.10099999999999998,-0.04833333333333201,-0.03857142857142293,1.5603333333333333,1.556,38.373000000000005,29.836333333333336,38.272,35.1575,55.716,35.0165,59.4265,52.3135,53.661,34.163,58.021,50.66,52.817,33.7195,57.9305,50.07866666666666,-0.09799999999999998,-0.06150000000000011,0.10801500000000001,0.102425,0.0,215.4,215.39499999999998,212.24333333333334,212.24333333333334,190.012512,21.04372
24,0.0,1.0,0.0,1.0,1.0,0.0,0.0,1.0,0.0,100.0,1.0,1.1856,26.0,0.0,0.0,0.0,59.999996,0.0,26.0,26.0,26.0,26.0,0.01187500000000008,0.2804,-0.0608,292.953,-2.7064,-2.682,-1.5279,-1.5587,-194.53,215.74,190.47925,0.0,0.0,0.0,0.0,0.048766666666666514,-5.498166666666667,-5.498166666666667,-0.5849,-0.5653333333333334,0.008124999999999938,-0.07399999999999995,68.934,-0.004200000000000001,-0.22075,-0.1200000000000001,100.0,1.0,1.0,212.56333333333333,0.0,0.0,0.0,0.0,0.0,0.0,0.0,9009.7,0.0,55.0,5.0,248.13333333333333,0.0,0.0,0.0,0.0,0.0,0.0,0.0,0.0,1.2089999999999996,1.2089999999999996,0.0,0.0,0.0,55.0,616.79921,10000.0,85.000001,85.000001,85.000001,85.000001,395.0,0.0,0.0,0.0,1.0,166.665,53.375,53.375,47.791,47.791,34.0,-22.8675,22.348333333333333,-29.34,28.2525,0.0,1782.455,-0.21000000000000085,100.0,27.704,27.53,43.031,43.031,0.0,1.0,100.0,0.0,0.0,0.0,0.0,2933.5714285714284,2919.4,4163.444444444444,4105.5,306.009,305.41325,314.709,314.632,21.9884,20.6188,21.9732,21.4737,314.999998,314.999998,324.999988,324.999988,99.55841428571429,99.50695,99.56701428571428,99.54667142857143,0.06700000000000017,-0.06600000000000006,-0.12416666666666665,0.10683333333333334,-0.03833333333332689,-0.03714285714285381,1.522,1.5245000000000002,38.427,29.867666666666665,38.333,35.210499999999996,55.702,35.0515,59.463499999999996,52.3715,53.647999999999996,34.195499999999996,58.055,50.7155,52.803,33.7505,57.9615,50.132999999999996,-0.09199999999999997,-0.05600000000000005,0.10976500000000002,0.10586000000000001,0.0,215.785,215.79000000000002,212.56333333333333,212.56333333333333,190.012512,21.04372
25,0.0,1.0,0.0,1.0,1.0,0.0,0.0,1.0,0.0,100.0,1.0,1.1856,26.0,0.0,0.0,0.0,59.999996,0.0,26.0,26.0,26.0,26.0,0.025875000000000092,0.2733000000000001,-0.02816666666666667,292.679,-2.767,-2.64475,-1.5728,-1.5421,-191.20999999999998,215.73000000000002,190.45525,0.0,0.0,0.0,0.0,0.05069999999999997,-5.498166666666667,-5.498166666666667,-0.6088,0.13566666666666666,0.007749999999999924,-1.084,69.06,-0.0043,-0.22335000000000002,-0.09799999999999898,100.0,1.0,1.0,213.07666666666665,0.0,0.0,0.0,0.0,0.0,0.0,0.0,9031.5,0.0,55.0,5.0,248.59,1.0,0.0,0.0,0.0,0.0,0.0,0.0,0.0,1.256999999999998,1.256999999999998,0.0,0.0,1.0,55.0,616.79921,10000.0,85.000001,85.000001,85.000001,85.000001,395.0,0.0,0.0,0.0,1.0,166.665,52.124,52.124,48.447,48.447,34.0,-26.740000000000002,25.189999999999998,-27.57,27.3425,0.0,1782.408,-0.21999999999999886,100.0,27.751,27.86,42.712,42.824,0.0,1.0,100.0,0.0,0.0,0.0,0.0,3338.142857142857,3225.4,3959.6666666666665,4007.9,304.9155,304.4735,315.27925,314.8975,21.9971,20.624,21.9829,21.4821,314.999998,314.999998,324.999988,324.999988,99.55841428571429,99.50695,99.56715714285714,99.5468,0.07374999999999998,-0.055333333333333234,-0.11716666666666664,0.11266666666666669,-0.041666666666671404,-0.060000000000002274,1.566,1.561,38.482,29.900333333333336,38.393,35.2635,55.688,35.0895,59.497,52.428,53.635,34.2305,58.0865,50.7695,52.79,33.784,57.99,50.186,-0.09699999999999998,-0.05750000000000011,0.10671000000000001,0.105715,0.0,216.2,216.195,213.07666666666665,213.07666666666665,190.012512,21.04372
26,0.0,1.0,0.0,1.0,1.0,0.0,0.0,1.0,0.0,100.0,1.0,1.1856,26.0,0.0,0.0,0.0,59.999996,0.0,26.0,26.0,26.0,26.0,-0.00187499999999996,0.2872000000000001,0.09216666666666666,291.656,-2.7157999999999998,-2.72425,-1.5706,-1.5346,-187.69,215.7175,190.429625,0.0,0.0,0.0,0.0,0.0527333333333333,-5.498166666666667,-5.498166666666667,-0.5713,0.4516666666666667,-0.0036249999999999893,0.8440000000000001,69.199,-0.0027,-0.20015000000000002,-0.20399999999999974,100.0,1.0,1.0,213.20666666666668,0.0,0.0,0.0,0.0,0.0,0.0,0.0,9037.1,0.0,55.0,5.0,249.08666666666664,0.0,0.0,0.0,0.0,0.0,0.0,0.0,0.0,1.3079999999999998,1.3079999999999998,0.0,0.0,0.0,55.0,616.79921,10000.0,85.000001,85.000001,85.000001,85.000001,395.0,0.0,0.0,0.0,1.0,166.665,52.063,52.063,46.692,46.692,34.0,-23.855,24.423333333333332,-31.65,32.3675,0.0,1782.355,-0.29499999999999815,100.0,28.646,28.223,43.397,43.255,0.0,1.0,100.0,0.0,0.0,0.0,0.0,3106.285714285714,3066.9,4503.222222222223,4562.7,305.3345,305.061,313.85575,313.656,22.0066,20.6297,21.9934,21.4913,314.999998,314.999998,324.999988,324.999988,99.55842857142858,99.50695,99.5673,99.54695714285714,0.08775000000000022,-0.05366666666666675,-0.09516666666666662,0.1140000000000001,-0.023333333333326323,-0.05142857142857338,1.449,1.44,38.541,29.935333333333332,38.459,35.320499999999996,55.678,35.131,59.5385,52.492,53.625,34.2685,58.125,50.8315,52.778,33.820499999999996,58.0255,50.24633333333333,-0.10449999999999993,-0.05800000000000005,0.10114500000000001,0.10379500000000001,0.0,216.64499999999998,216.65,213.20666666666668,213.20666666666668,190.012512,21.04372
27,0.0,1.0,0.0,1.0,1.0,0.0,0.0,1.0,0.0,100.0,1.0,1.1856,26.0,0.0,0.0,0.0,59.999996,0.0,26.0,26.0,26.0,26.0,0.018000000000000016,0.25780000000000003,-0.057,292.328,-2.7325,-2.6877500000000003,-1.6179999999999999,-1.6052,-184.36,215.70749999999998,190.4065,0.0,0.0,0.0,0.0,0.05466666666666653,-5.498166666666667,-5.498166666666667,-0.5999,-0.985,-0.0021249999999999325,0.673,69.324,-0.0046,-0.24350000000000002,-0.21799999999999908,100.0,1.0,1.0,213.78,0.0,0.0,0.0,0.0,0.0,0.0,0.0,9061.4,0.0,55.0,5.0,249.54000000000002,1.0,0.0,0.0,0.0,0.0,0.0,0.0,0.0,1.355999999999998,1.355999999999998,0.0,0.0,1.0,55.0,616.79921,10000.0,85.000001,85.000001,85.000001,85.000001,395.0,0.0,0.0,0.0,1.0,166.665,52.429,52.429,47.272,47.272,34.0,-22.8975,25.436666666666667,-28.36,28.8,0.0,1782.307,-0.36499999999999844,100.0,28.238,28.054000000000002,43.844,43.649,0.0,1.0,100.0,0.0,0.0,0.0,0.0,3015.4285714285716,3160.2,3989.0,3997.0,305.7095,304.8555,315.03725,314.92975,22.0152,20.634900000000002,22.0033,21.5,314.999998,314.999998,324.999988,324.999988,99.55844285714285,99.50696666666667,99.56744285714285,99.5471,0.09200000000000008,-0.040000000000000036,-0.10833333333333339,0.12450000000000006,-0.01999999999999602,-0.058571428571426054,1.5350000000000001,1.5285000000000002,38.595,29.968,38.519999999999996,35.375,55.665,35.168,59.576,52.5515,53.613,34.3025,58.1605,50.8885,52.765,33.8535,58.0575,50.302,-0.10449999999999993,-0.04699999999999993,0.10715500000000001,0.110185,0.0,216.97,217.0,213.78,213.78,190.012512,21.04372
28,0.0,1.0,0.0,1.0,1.0,0.0,0.0,1.0,0.0,100.0,1.0,1.1856,26.0,0.0,0.0,0.0,59.999996,0.0,26.0,26.0,26.0,26.0,0.01924999999999999,0.26760000000000006,-0.02706666666666667,292.419,-2.6675,-2.681625,-1.6054,-1.5771,-180.62,215.6975,190.3795,0.0,0.0,0.0,0.0,0.05686666666666651,-5.498166666666667,-5.498166666666667,-0.5992000000000001,0.62,-0.01112499999999983,0.643,69.465,-0.0028,-0.21122500000000002,-0.28000000000000025,100.0,1.0,1.0,214.24666666666667,0.0,0.0,0.0,0.0,0.0,0.0,0.0,9081.1,0.0,55.0,5.0,250.04333333333335,0.0,0.0,0.0,0.0,0.0,0.0,0.0,0.0,1.4100000000000001,1.4100000000000001,0.0,0.0,0.0,55.0,616.79921,10000.0,85.000001,85.000001,85.000001,85.000001,395.0,0.0,0.0,0.0,1.0,166.665,52.505,52.505,47.684,47.684,34.0,-22.465,24.651666666666664,-29.293333333333333,29.8675,0.0,1782.253,-0.375,100.0,28.344,27.951,43.166,43.153999999999996,0.0,1.0,100.0,0.0,0.0,0.0,0.0,2995.0,3100.8,4185.444444444444,4183.2,305.6255,304.99875,314.781,314.5835,22.0251,20.6408,22.014,21.5095,314.999998,314.999998,324.999988,324.999988,99.55845714285714,99.50696666666667,99.5676,99.54725714285715,0.08850000000000025,-0.04600000000000004,-0.10433333333333339,0.12416666666666676,-0.03833333333332689,-0.06428571428571672,1.5526666666666666,1.5295,38.657,30.004666666666665,38.588,35.434,55.652,35.2095,59.613,52.6145,53.601,34.341499999999996,58.195,50.949,52.751999999999995,33.8905,58.089,50.361333333333334,-0.10549999999999993,-0.046499999999999986,0.106425,0.10787000000000001,0.0,217.47500000000002,217.485,214.24666666666667,214.24666666666667,190.012512,21.04372
29,0.0,1.0,0.0,1.0,1.0,0.0,0.0,1.0,0.0,100.0,1.0,1.1856,26.0,0.0,0.0,0.0,59.999996,0.0,26.0,26.0,26.0,26.0,0.029125000000000068,0.25890000000000013,-0.011633333333333334,292.282,-2.6566,-2.72975,-1.5586,-1.5495999999999999,-177.28,215.6875,190.354625,0.0,0.0,0.0,0.0,0.05879999999999996,-5.498166666666667,-5.498166666666667,-0.6078,-0.6906666666666667,-0.004750000000000032,0.9000000000000001,69.592,-0.001,-0.21835000000000002,-0.3520000000000003,100.0,1.0,1.0,214.51999999999998,0.0,0.0,0.0,0.0,0.0,0.0,0.0,9092.7,0.0,55.0,5.0,250.50666666666666,1.0,0.0,0.0,0.0,0.0,0.0,0.0,0.0,1.4579999999999984,1.4579999999999984,0.0,0.0,1.0,55.0,616.79921,10000.0,85.000001,85.000001,85.000001,85.000001,395.0,0.0,0.0,0.0,1.0,166.665,52.628,52.628,47.424,47.424,34.0,-22.395,25.37,-27.669999999999998,30.59,0.0,1782.205,-0.41000000000000014,100.0,28.012,27.846,43.554,43.458,0.0,1.0,100.0,0.0,0.0,0.0,0.0,3036.5714285714284,3099.3,4073.222222222222,4265.1,305.5875,304.9785,314.87025,314.31975,22.0338,20.6459,22.0239,21.5181,314.999998,314.999998,324.999988,324.999988,99.55845714285714,99.50698333333334,99.56772857142857,99.5474,0.09399999999999986,-0.038999999999999924,-0.09450000000000003,0.1263333333333332,-0.041666666666671404,-0.06142857142857139,1.5023333333333333,1.487,38.711,30.037,38.65,35.4885,55.638999999999996,35.2455,59.6515,52.674,53.588,34.3745,58.2305,51.0065,52.739000000000004,33.922,58.1215,50.41733333333333,-0.10799999999999998,-0.040999999999999925,0.10640500000000001,0.10959500000000001,0.0,217.82,217.845,214.51999999999998,214.51999999999998,190.012512,21.04372
30,0.0,1.0,0.0,1.0,1.0,0.0,0.0,1.0,0.0,100.0,1.0,1.1856,26.0,0.0,0.0,0.0,59.999996,0.0,26.0,26.0,26.0,26.0,0.02387500000000009,0.25839999999999996,-0.016366666666666665,291.656,-2.6723,-2.61375,-1.6253000000000002,-1.4731,-173.73000000000002,215.68,190.328,0.0,0.0,0.0,0.0,0.060866666666666513,-5.498166666666667,-5.498166666666667,-0.5994,0.9436666666666667,-0.011249999999999982,-0.596,69.724,0.0044,-0.211825,-0.2860000000000005,100.0,1.0,1.0,214.98333333333335,0.0,0.0,0.0,0.0,0.0,0.0,0.0,9112.3,0.0,55.0,5.0,250.97666666666666,0.0,0.0,0.0,0.0,0.0,0.0,1.0,0.0,1.5090000000000003,1.5090000000000003,0.0,0.0,0.0,55.0,616.79921,10000.0,85.000001,85.000001,85.000001,85.000001,395.0,0.0,0.0,0.0,1.0,166.665,51.376,51.376,47.272,47.272,34.0,-24.5975,23.939999999999998,-31.133333333333333,28.142500000000002,0.0,1782.156,-0.370000000000001,100.0,28.882,28.829,43.349000000000004,43.581,0.0,1.0,100.0,0.0,0.0,0.0,0.0,3282.285714285714,3060.6,4340.555555555556,4168.8,304.923,304.87675,314.5065,314.68975,22.0433,20.651699999999998,22.0342,21.5272,314.999998,314.999998,324.999988,324.999988,99.55848571428571,99.50698333333334,99.56788571428571,99.54754285714286,0.09399999999999986,-0.046666666666666634,-0.10916666666666663,0.1200000000000001,-0.054999999999999716,-0.05285714285714249,1.5313333333333334,1.4980000000000002,38.769999999999996,30.073,38.714,35.545,55.629999999999995,35.2875,59.688,52.735,53.58,34.4135,58.2645,51.065,52.729,33.959,58.1525,50.474666666666664,-0.11399999999999999,-0.05249999999999999,0.09996500000000001,0.10858000000000001,0.0,218.265,218.285,214.98333333333335,214.98333333333335,190.012512,21.04372
31,0.0,1.0,0.0,1.0,1.0,0.0,0.0,1.0,0.0,100.0,1.0,1.1856,26.0,0.0,0.0,0.0,59.999996,0.0,26.0,26.0,26.0,26.0,0.02837500000000004,0.24639999999999995,0.022033333333333335,291.321,-2.7592,-2.645875,-1.5793,-1.506,-170.38,215.67000000000002,190.30375,0.0,0.0,0.0,0.0,0.06279999999999997,-5.498166666666667,-5.498166666666667,-0.5924,-0.5046666666666667,-0.006124999999999936,-0.78,69.849,0.0091,-0.224775,-0.33999999999999986,100.0,1.0,1.0,215.28,0.0,0.0,0.0,0.0,0.0,0.0,0.0,9125.0,0.0,55.0,5.0,251.43333333333334,1.0,0.0,0.0,0.0,0.0,0.0,1.0,0.0,1.5569999999999986,1.5569999999999986,0.0,0.0,1.0,55.0,616.79921,10000.0,85.000001,85.000001,85.000001,85.000001,395.0,0.0,0.0,0.0,1.0,166.665,51.422,51.422,46.188,46.188,34.0,-24.9825,26.12,-30.58,29.2825,0.0,1782.107,-0.370000000000001,100.0,28.584,28.85,44.119,44.282,0.0,1.0,100.0,0.0,0.0,0.0,0.0,3255.285714285714,3253.9,4268.888888888889,4134.7,305.204,304.43975,314.4735,314.51925,22.052,20.657,22.0442,21.536,314.999998,314.999998,324.999988,324.999988,99.55848571428571,99.50698333333334,99.56802857142857,99.54768571428572,0.09375,-0.03933333333333322,-0.1123333333333334,0.12850000000000006,-0.051666666666669414,-0.04999999999999716,1.4736666666666667,1.4575,38.825,30.106666666666666,38.775999999999996,35.6,55.619,35.3255,59.727000000000004,52.7965,53.569,34.448499999999996,58.301,51.124,52.717,33.993,58.186,50.532333333333334,-0.10949999999999993,-0.0495000000000001,0.11546500000000001,0.10998000000000001,0.0,218.63,218.635,215.28,215.28,190.012512,21.04372
32,0.0,1.0,0.0,1.0,1.0,0.0,0.0,1.0,0.0,100.0,1.0,1.1856,26.0,0.0,0.0,0.0,59.999996,0.0,26.0,26.0,26.0,26.0,0.060249999999999915,0.26490000000000014,0.006166666666666667,291.779,-2.6814999999999998,-2.707375,-1.5606,-1.6381999999999999,-166.6,215.6625,190.276625,0.0,0.0,0.0,0.0,0.06499999999999995,-5.498166666666667,-5.498166666666667,-0.6069,-0.20166666666666666,-0.03137500000000015,-1.121,69.988,0.012,-0.23042500000000002,-0.30799999999999983,100.0,1.0,1.0,215.76333333333332,0.0,0.0,0.0,0.0,0.0,0.0,0.0,9145.4,0.0,55.0,5.0,251.93,0.0,0.0,0.0,0.0,0.0,0.0,1.0,0.0,1.6110000000000007,1.6110000000000007,0.0,0.0,0.0,55.0,616.79921,10000.0,85.000001,85.000001,85.000001,85.000001,395.0,0.0,0.0,0.0,1.0,166.665,52.016999999999996,52.016999999999996,47.073,47.073,34.0,-23.2225,24.225,-28.196666666666665,31.0975,0.0,1782.052,-0.3049999999999997,100.0,28.487000000000002,28.676000000000002,43.83,44.141000000000005,0.0,1.0,100.0,0.0,0.0,0.0,0.0,3144.0,2992.7,4138.666666666667,4181.4,305.396,305.12075,314.81525,314.38775,22.061799999999998,20.663,22.0552,21.5457,314.999998,314.999998,324.999988,324.999988,99.5585,99.507,99.56818571428572,99.54784285714285,0.09850000000000003,-0.04400000000000004,-0.09583333333333333,0.12400000000000011,-0.041666666666671404,-0.04142857142857537,1.5006666666666666,1.5100000000000002,38.885999999999996,30.144,38.845,35.661,55.605999999999995,35.368,59.766,52.8615,53.557,34.4875,58.3375,51.1865,52.704,34.03,58.2185,50.593333333333334,-0.10549999999999993,-0.05449999999999999,0.11198000000000001,0.10646000000000001,0.0,219.06,219.065,215.76333333333332,215.76333333333332,190.012512,21.04372
33,0.0,1.0,0.0,1.0,1.0,0.0,0.0,1.0,0.0,100.0,1.0,1.1856,26.0,0.0,0.0,0.0,59.999996,0.0,26.0,26.0,26.0,26.0,0.03200000000000003,0.26900000000000013,-0.0546,292.038,-2.7199999999999998,-2.697625,-1.5756999999999999,-1.5939,-163.45,215.6575,190.253,0.0,0.0,0.0,0.0,0.0668333333333333,-5.498166666666667,-5.498166666666667,-0.6164000000000001,-0.3233333333333333,-0.02112500000000006,1.21,70.10300000000001,0.009600000000000001,-0.218225,-0.24799999999999933,100.0,1.0,1.0,216.12666666666667,0.0,0.0,0.0,0.0,0.0,0.0,0.0,9160.8,0.0,55.0,5.0,252.34666666666666,1.0,0.0,0.0,0.0,0.0,0.0,1.0,0.0,1.6559999999999988,1.6559999999999988,0.0,0.0,1.0,55.0,616.79921,10000.0,85.000001,85.000001,85.000001,85.000001,395.0,0.0,0.0,0.0,1.0,166.665,52.322,52.322,47.394,47.394,34.0,-22.88,24.933333333333334,-27.8,30.475,0.0,1782.009,-0.370000000000001,100.0,28.459,28.231,43.753,43.843,0.0,1.0,100.0,0.0,0.0,0.0,0.0,3047.285714285714,3070.8,4061.1111111111113,4194.0,305.572,305.114,314.94525,314.48725,22.0699,20.6679,22.0643,21.5538,314.999998,314.999998,324.999988,324.999988,99.55851428571428,99.507,99.56831428571428,99.54797142857143,0.09850000000000003,-0.03533333333333322,-0.09699999999999998,0.12549999999999994,-0.051666666666669414,-0.04571428571428271,1.5270000000000001,1.5154999999999998,38.937,30.174,38.902,35.711,55.595,35.400999999999996,59.799,52.914500000000004,53.546,34.518,58.3675,51.238,52.693,34.0595,58.2465,50.64333333333333,-0.10899999999999999,-0.050000000000000044,0.10530500000000001,0.10768000000000001,0.0,219.42000000000002,219.42000000000002,216.12666666666667,216.12666666666667,190.012512,21.04372
34,0.0,1.0,0.0,1.0,1.0,0.0,0.0,1.0,0.0,100.0,1.0,1.1856,26.0,0.0,0.0,0.0,59.999996,0.0,26.0,26.0,26.0,26.0,0.02300000000000013,0.26270000000000016,-0.0719,292.282,-2.7432,-2.628625,-1.6392,-1.5279,-159.66,215.6525,190.22325,0.0,0.0,0.0,0.0,0.06903333333333339,-5.498166666666667,-5.498166666666667,-0.6472,-0.8180000000000001,0.004375000000000018,0.7750000000000001,70.242,0.01,-0.22437500000000002,-0.33000000000000007,100.0,1.0,1.0,216.54666666666668,0.0,0.0,0.0,0.0,0.0,0.0,0.0,9178.6,0.0,55.0,5.0,252.84333333333336,0.0,0.0,0.0,0.0,0.0,0.0,1.0,0.0,1.7100000000000009,1.7100000000000009,0.0,0.0,0.0,55.0,616.79921,10000.0,85.000001,85.000001,85.000001,85.000001,395.0,0.0,0.0,0.0,1.0,166.665,52.78,52.78,47.501,47.501,34.0,-21.9025,24.301666666666666,-28.09,30.085,0.0,1781.954,-0.33500000000000085,100.0,28.165,27.929000000000002,43.56,43.872,0.0,1.0,100.0,0.0,0.0,0.0,0.0,2897.285714285714,3079.7,4077.5555555555557,4208.6,305.9335,305.07725,314.98225,314.509,22.0796,20.6737,22.0752,21.5635,314.999998,314.999998,324.999988,324.999988,99.55852857142857,99.50701666666667,99.56847142857143,99.54812857142858,0.09799999999999986,-0.03833333333333311,-0.08550000000000002,0.13450000000000006,-0.02499999999999858,-0.054285714285711606,1.536,1.5135,38.997,30.210333333333335,38.97,35.7715,55.581,35.44,59.8365,52.9805,53.533,34.5545,58.403,51.301,52.678,34.094,58.278,50.705,-0.10250000000000004,-0.0535000000000001,0.10222500000000001,0.10461000000000001,0.0,219.79500000000002,219.835,216.54666666666668,216.54666666666668,190.012512,21.04372
35,0.0,1.0,0.0,1.0,1.0,0.0,0.0,1.0,0.0,100.0,1.0,1.1856,26.0,0.0,0.0,0.0,59.999996,0.0,26.0,26.0,26.0,26.0,0.04762500000000003,0.2530000000000001,-0.03676666666666667,292.252,-2.7142,-2.65425,-1.6031,-1.5225,-156.07,215.6475,190.193,0.0,0.0,0.0,0.0,0.07113333333333338,-5.498166666666667,-5.498166666666667,-0.6826,-0.03133333333333333,-0.02287499999999998,-1.361,70.37,0.0122,-0.226775,-0.27200000000000024,100.0,1.0,1.0,217.04333333333335,0.0,0.0,0.0,0.0,0.0,0.0,0.0,9199.6,0.0,55.0,5.0,253.30666666666667,1.0,0.0,0.0,0.0,0.0,0.0,1.0,0.0,1.7609999999999992,1.7609999999999992,0.0,0.0,1.0,55.0,616.79921,10000.0,85.000001,85.000001,85.000001,85.000001,395.0,0.0,0.0,0.0,1.0,166.665,52.032,52.032,47.44,47.44,34.0,-24.002499999999998,26.14,-27.273333333333333,27.69,0.0,1781.902,-0.18499999999999872,100.0,27.917,28.471,43.283,43.4,0.0,1.0,100.0,0.0,0.0,0.0,0.0,3150.142857142857,3285.9,3981.8888888888887,3948.9,305.4215,304.3045,315.221,315.097,22.0886,20.6794,22.0855,21.572400000000002,314.999998,314.999998,324.999988,324.999988,99.55854285714285,99.50701666666667,99.56862857142858,99.54828571428571,0.08824999999999994,-0.048666666666666636,-0.09733333333333338,0.13583333333333325,-0.05666666666667197,-0.04285714285714448,1.5616666666666665,1.5670000000000002,39.054,30.246333333333332,39.034,35.8275,55.566,35.4805,59.872,53.037,53.519,34.591499999999996,58.436,51.356,52.663,34.129999999999995,58.308,50.75866666666667,-0.09399999999999997,-0.06899999999999995,0.11118000000000001,0.115665,0.0,220.23000000000002,220.24,217.04333333333335,217.04333333333335,190.012512,21.04372
