,ABS Active,ABS Enabled,AID Allow Tire Blankets,AID Auto Blip,AID Auto Clutch,AID Auto Shift,AID Fuel Rate,AID Ideal Line,AID Mech Damage,AID Stability,AID Tire Wear Rate,Air Density,Air Temp,Ballast,Best Lap Delta,Best Lap Time,Brake Bias,Brake Pos,Brake Temp FL,Brake Temp FR,Brake Temp RL,Brake Temp RR,CG Accel Lateral,CG Accel Longitudinal,CG Accel Vertical,CG Height,Camber FL,Camber FR,Camber RL,Camber RR,Car Coord X,Car Coord Y,Car Coord Z,Car Damage Front,Car Damage Left,Car Damage Rear,Car Damage Right,Car Pos Norm,Caster FL,Caster FR,Chassis Pitch Angle,Chassis Pitch Rate,Chassis Roll Angle,Chassis Roll Rate,Chassis Velocity X,Chassis Velocity Y,Chassis Velocity Z,Chassis Yaw Rate,Clutch Pos,DRS Active,DRS Available,Drive Train Speed,ERS Heat Charging,ERS Is Charging,ERS Max Energy,ERS Power Level,ERS Recovery Level,Engine Brake Setting,Engine Limiter,Engine RPM,Flags,Fuel Level,Gear,Ground Speed,HR Sample Clock,In Pit,KERS Charge,KERS Deployed Energy,KERS Input,KERS Max Energy,LR Sample Clock,Lap Invalidated,Lap Time,Lap Time2,Last Lap Time,Last Sector Time,MR Sample Clock,Max Fuel,Max Power,Max RPM,Max Sus Travel FL,Max Sus Travel FR,Max Sus Travel RL,Max Sus Travel RR,Max Torque,Max Turbo Boost,Num Tires Off Track,Penalties Enabled,Position,Raw Data Sample Rate,Ride Height FL,Ride Height FR,Ride Height RL,Ride Height RR,Road Temp,Self Align Torque FL,Self Align Torque FR,Self Align Torque RL,Self Align Torque RR,Session Lap Count,Session Time Left,Steering Angle,Surface Grip,Suspension Travel FL,Suspension Travel FR,Suspension Travel RL,Suspension Travel RR,TC Active,TC Enabled,Throttle Pos,Tire Dirt Level FL,Tire Dirt Level FR,Tire Dirt Level RL,Tire Dirt Level RR,Tire Load FL,Tire Load FR,Tire Load RL,Tire Load RR,Tire Loaded Radius FL,Tire Loaded Radius FR,Tire Loaded Radius RL,Tire Loaded Radius RR,Tire Pressure FL,Tire Pressure FR,Tire Pressure RL,Tire Pressure RR,Tire Radius FL,Tire Radius FR,Tire Radius RL,Tire Radius RR,Tire Rubber Grip FL,Tire Rubber Grip FR,Tire Rubber Grip RL,Tire Rubber Grip RR,Tire Slip Angle FL,Tire Slip Angle FR,Tire Slip Angle RL,Tire Slip Angle RR,Tire Slip Ratio FL,Tire Slip Ratio FR,Tire Slip Ratio RL,Tire Slip Ratio RR,Tire Temp Core FL,Tire Temp Core FR,Tire Temp Core RL,Tire Temp Core RR,Tire Temp Inner FL,Tire Temp Inner FR,Tire Temp Inner RL,Tire Temp Inner RR,Tire Temp Middle FL,Tire Temp Middle FR,Tire Temp Middle RL,Tire Temp Middle RR,Tire Temp Outer FL,Tire Temp Outer FR,Tire Temp Outer RL,Tire Temp Outer RR,Toe In FL,Toe In FR,Toe In RL,Toe In RR,Turbo Boost,Wheel Angular Speed FL,Wheel Angular Speed FR,Wheel Angular Speed RL,Wheel Angular Speed RR,Wind Direction,Wind Speed
0,0.0,1.0,0.0,1.0,1.0,0.0,0.0,1.0,0.0,100.0,1.0,1.1856,26.0,0.0,0.0,0.0,59.99999,0.0,26.0,26.0,26.0,26.0,-0.046374999999999944,0.2993000000000001,0.183125,294.083,-2.73985,-2.4921,-1.51465,-1.5199,-275.58,215.7825,190.9875,0.0,0.0,0.0,0.0,0.0016333333333333332,-5.498166666666667,-5.498166666666667,-0.552,1.5103333333333335,-0.02055555555555566,-1.388,65.547,-0.04919999999999991,-0.21335,0.3800000000000008,100.0,1.0,1.0,202.41333333333333,0.0,0.0,0.0,0.0,0.0,0.0,0.0,8579.5,0.0,55.0,5.0,235.94333333333333,0.0,0.0,0.0,0.0,0.0,0.0,0.0,0.0,0.006000000000000227,0.006000000000000227,0.0,0.0,0.0,55.0,616.79921,10000.0,85.0,85.0,85.0,85.0,395.0,0.0,0.0,0.0,1.0,20.0,52.155,52.155,49.469,49.469,34.0,-29.7425,25.168,-29.56,23.740000000000002,0.0,1783.359,0.5249999999999986,100.0,26.648,26.563,40.141,39.723,0.0,1.0,100.0,0.0,0.0,0.0,0.0,3284.857142857143,3822.6000000000004,4062.875,3944.7,304.9135,302.4285,314.98375,314.9695,21.7649,20.4987,21.7302,21.2703,314.99999,314.99999,324.99998,324.99998,99.55835714285715,99.50678333333333,99.56394285714286,99.54357142857143,-0.010499999999999954,-0.1233333333333333,-0.15883333333333338,0.05916666666666681,-0.08833333333333115,-0.06374999999999886,1.581,1.5915,37.031,29.116999999999997,36.814,33.939,56.102999999999994,34.168,58.647999999999996,51.010999999999996,54.025999999999996,33.369,57.2975,49.407,53.195,32.947,57.2735,48.84866666666667,-0.038000000000000034,-0.10899999999999999,0.10469,0.10826000000000001,0.0,205.43,205.35500000000002,202.41333333333333,202.41333333333333,190.01251,21.04372
1,0.0,1.0,0.0,1.0,1.0,0.0,0.0,1.0,0.0,100.0,1.0,1.1856,26.0,0.0,0.0,0.0,59.999996,0.0,26.0,26.0,26.0,26.0,-0.09537499999999999,0.31500000000000017,0.264925,293.304,-2.6462,-2.7286,-1.53015,-1.3851,-272.03,215.785,190.966375,0.0,0.0,0.0,0.0,0.0037,-5.498166666666667,-5.498166666666667,-0.48950000000000005,-1.835,-0.06711111111111157,-0.7680000000000002,65.717,-0.05379999999999996,-0.19612500000000002,1.0199999999999996,100.0,1.0,1.0,202.42666666666668,0.0,0.0,0.0,0.0,0.0,0.0,0.0,8580.2,0.0,55.0,5.0,236.55,1.0,0.0,0.0,0.0,0.0,0.0,0.0,0.0,0.05999999999999872,0.05999999999999872,0.0,0.0,1.0,55.0,616.79921,10000.0,85.000001,85.000001,85.000001,85.000001,395.0,0.0,0.0,0.0,1.0,166.665,54.733,54.733,48.553,48.553,34.0,-25.63,15.954,-37.14666666666667,28.5775,0.0,1783.306,0.5899999999999999,100.0,26.993,26.345,42.146,42.254,0.0,1.0,100.0,0.0,0.0,0.0,0.0,2985.0,2429.8,4566.25,4912.1,305.836,307.059,313.59425,312.37475,21.7753,20.5038,21.7417,21.28,314.999998,314.999998,324.999988,324.999988,99.55837142857143,99.50681666666667,99.5641,99.54372857142857,-0.00649999999999995,-0.1356666666666666,-0.1788333333333334,0.03966666666666674,-0.02833333333332888,-0.048749999999998295,1.2953333333333332,1.3475000000000001,37.096000000000004,29.149,36.885,34.0,56.085,34.209,58.699,51.085,54.009,33.4065,57.3455,49.478,53.177,32.9835,57.3185,48.91833333333334,-0.024499999999999966,-0.11749999999999994,0.10278000000000001,0.11184000000000001,0.0,205.875,205.805,202.42666666666668,202.42666666666668,190.012512,21.04372
2,0.0,1.0,0.0,1.0,1.0,0.0,0.0,1.0,0.0,100.0,1.0,1.1856,26.0,0.0,0.0,0.0,59.999996,0.0,26.0,26.0,26.0,26.0,-0.11062499999999997,0.2953000000000001,-0.11052500000000001,294.632,-2.62295,-2.6875999999999998,-1.5067,-1.5264,-268.87,215.78750000000002,190.948625,0.0,0.0,0.0,0.0,0.005566666666666667,-5.498166666666667,-5.498166666666667,-0.5659000000000001,0.496,-0.03311111111111131,1.549,65.84700000000001,-0.0653999999999999,-0.26305,1.2360000000000007,100.0,1.0,1.0,203.66666666666669,0.0,0.0,0.0,0.0,0.0,0.0,0.0,8632.7,0.0,55.0,5.0,237.01999999999998,0.0,0.0,0.0,0.0,0.0,0.0,0.0,0.0,0.10800000000000054,0.10800000000000054,0.0,0.0,0.0,55.0,616.79921,10000.0,85.000001,85.000001,85.000001,85.000001,395.0,0.0,0.0,0.0,1.0,166.665,52.933,52.933,51.346000000000004,51.346000000000004,34.0,-30.2,19.052,-26.636666666666663,17.0575,0.0,1783.258,0.625,100.0,27.686,26.671,41.628,40.866,0.0,1.0,100.0,0.0,0.0,0.0,0.0,3340.285714285714,2904.1,3551.875,3361.9,304.6525,305.38775,316.16475,316.5165,21.7848,20.5085,21.7513,21.2878,314.999998,314.999998,324.999988,324.999988,99.55837142857143,99.50683333333333,99.56422857142857,99.54385714285715,-0.028750000000000053,-0.1463333333333332,-0.21199999999999997,0.012833333333333474,-0.07833333333332604,-0.038750000000000284,1.744,1.798,37.155,29.1785,36.946,34.049,56.073,34.2475,58.733000000000004,51.1335,53.998000000000005,33.442,57.376999999999995,49.524,53.165,33.016999999999996,57.3475,48.96366666666667,-0.021499999999999964,-0.12250000000000005,0.10833000000000001,0.10204,0.0,206.32,206.18,203.66666666666669,203.66666666666669,190.012512,21.04372
3,0.0,1.0,0.0,1.0,1.0,0.0,0.0,1.0,0.0,100.0,1.0,1.1856,26.0,0.0,0.0,0.0,59.999996,0.0,26.0,26.0,26.0,26.0,-0.12337500000000001,0.31020000000000003,0.109975,293.777,-2.63955,-2.724,-1.4897,-1.5832000000000002,-265.51,215.785,190.9285,0.0,0.0,0.0,0.0,0.007500000000000001,-5.498166666666667,-5.498166666666667,-0.5029,0.34533333333333327,-0.02155555555555555,-0.7029999999999998,66.004,-0.08009999999999995,-0.18910000000000002,0.9540000000000006,100.0,1.0,1.0,203.59,0.0,0.0,0.0,0.0,0.0,0.0,0.0,8629.5,0.0,55.0,5.0,237.58333333333331,1.0,0.0,0.0,0.0,0.0,0.0,0.0,0.0,0.15899999999999892,0.15899999999999892,0.0,0.0,1.0,55.0,616.79921,10000.0,85.000001,85.000001,85.000001,85.000001,395.0,0.0,0.0,0.0,1.0,166.665,53.97,53.97,48.355000000000004,48.355000000000004,34.0,-25.8175,18.61,-34.35666666666667,25.3825,0.0,1783.205,0.7349999999999994,100.0,27.391,26.587,41.941,41.112,0.0,1.0,100.0,0.0,0.0,0.0,0.0,2927.714285714286,2864.4,4401.625,4212.9,305.954,305.7265,314.044,314.40975,21.7945,20.5136,21.7617,21.2967,314.999998,314.999998,324.999988,324.999988,99.55837142857143,99.50685,99.56437142857143,99.54398571428571,-0.025499999999999856,-0.1523333333333332,-0.18466666666666665,0.03133333333333321,-0.04833333333333201,-0.06750000000000256,1.471,1.494,37.216,29.2105,37.010999999999996,34.1045,56.056,34.2905,58.7745,51.1995,53.982,33.4815,57.416,49.5875,53.147999999999996,33.055,57.3835,49.025999999999996,-0.018000000000000016,-0.13000000000000012,0.104925,0.107895,0.0,206.815,206.765,203.59,203.59,190.012512,21.04372
4,0.0,1.0,0.0,1.0,1.0,0.0,0.0,1.0,0.0,100.0,1.0,1.1856,26.0,0.0,0.0,0.0,59.999996,0.0,26.0,26.0,26.0,26.0,-0.11387499999999995,0.30490000000000017,-0.003,294.037,-2.6432,-2.7904,-1.43615,-1.5897000000000001,-262.14,215.78,190.909,0.0,0.0,0.0,0.0,0.009466666666666668,-5.498166666666667,-5.498166666666667,-0.5337000000000001,-0.74,-0.07577777777777772,-1.101,66.152,-0.08909999999999996,-0.233875,1.3780000000000001,100.0,1.0,1.0,204.21,0.0,0.0,0.0,0.0,0.0,0.0,0.0,8655.7,0.0,55.0,5.0,238.12,0.0,0.0,0.0,0.0,0.0,0.0,0.0,0.0,0.21000000000000085,0.21000000000000085,0.0,0.0,0.0,55.0,616.79921,10000.0,85.000001,85.000001,85.000001,85.000001,395.0,0.0,0.0,0.0,1.0,111.11,53.757,53.757,49.194,49.194,34.0,-29.9375,18.282,-32.64666666666666,20.8425,0.0,1783.157,0.7050000000000018,100.0,27.199,26.35,42.472,41.303,0.0,1.0,100.0,0.0,0.0,0.0,0.0,3249.5714285714284,2791.8,4150.625,3726.9,305.046,305.79575,314.73375,315.49725,21.8043,20.5186,21.7723,21.3055,314.999998,314.999998,324.999988,324.999988,99.55838571428572,99.50686666666667,99.56451428571428,99.54412857142857,-0.04475000000000007,-0.16500000000000004,-0.22099999999999997,0.012499999999999956,-0.054999999999999716,-0.06125000000000114,1.5446666666666666,1.6055000000000001,37.277,29.241,37.077,34.1595,56.041,34.3315,58.818,51.26,53.967,33.519,57.4565,49.6455,53.132999999999996,33.091,57.4215,49.083,-0.013000000000000012,-0.135,0.10207500000000001,0.11138500000000001,0.0,207.24,207.13,204.21,204.21,190.012512,21.04372
5,0.0,1.0,0.0,1.0,1.0,0.0,0.0,1.0,0.0,100.0,1.0,1.1856,26.0,0.0,0.0,0.0,59.999996,0.0,26.0,26.0,26.0,26.0,-0.13512499999999994,0.3065,-0.0181,294.296,-2.64565,-2.7539,-1.4863,-1.6115,-258.76,215.7725,190.889,0.0,0.0,0.0,0.0,0.011433333333333334,-5.498166666666667,-5.498166666666667,-0.5367000000000001,0.4686666666666668,-0.06800000000000006,0.77,66.3,-0.10519999999999996,-0.217725,1.3040000000000003,100.0,1.0,1.0,204.70666666666668,0.0,0.0,0.0,0.0,0.0,0.0,0.0,8676.8,0.0,55.0,5.0,238.65,1.0,0.0,0.0,0.0,0.0,0.0,0.0,0.0,0.26099999999999923,0.26099999999999923,0.0,0.0,1.0,55.0,616.79921,10000.0,85.000001,85.000001,85.000001,85.000001,395.0,0.0,0.0,0.0,1.0,166.665,53.925,53.925,49.728,49.728,34.0,-27.599999999999998,19.414,-31.31,21.865000000000002,0.0,1783.104,0.33500000000000085,100.0,27.37,26.058,42.168,40.717,0.0,1.0,100.0,0.0,0.0,0.0,0.0,3078.0,2889.0,3986.0,3951.0,305.327,305.67925,315.1055,315.07475,21.8142,20.5236,21.7827,21.3141,314.999998,314.999998,324.999988,324.999988,99.55838571428572,99.50688333333333,99.56465714285714,99.54427142857143,-0.023249999999999993,-0.14266666666666672,-0.21583333333333332,0.001000000000000112,-0.06333333333333258,-0.054999999999999716,1.5933333333333333,1.6320000000000001,37.339,29.2725,37.141999999999996,34.213,56.027,34.373,58.8575,51.3185,53.954,33.5575,57.4935,49.701499999999996,53.119,33.128,57.456,49.13766666666667,-0.03649999999999998,-0.10250000000000004,0.09853500000000001,0.11024,0.0,207.72500000000002,207.61,204.70666666666668,204.70666666666668,190.012512,21.04372
6,0.0,1.0,0.0,1.0,1.0,0.0,0.0,1.0,0.0,100.0,1.0,1.1856,26.0,0.0,0.0,0.0,59.999996,0.0,26.0,26.0,26.0,26.0,-0.134,0.29190000000000005,0.0089,294.067,-2.63215,-2.818,-1.48865,-1.5814,-255.57999999999998,215.7625,190.8695,0.0,0.0,0.0,0.0,0.013266666666666666,-5.498166666666667,-5.498166666666667,-0.5249,-0.14700000000000002,-0.07688888888888856,0.8440000000000001,66.441,-0.1079,-0.20342500000000002,0.9459999999999997,100.0,1.0,1.0,205.00333333333333,0.0,0.0,0.0,0.0,0.0,0.0,0.0,8689.4,0.0,55.0,5.0,239.16,0.0,0.0,0.0,0.0,0.0,0.0,0.0,0.0,0.30900000000000105,0.30900000000000105,0.0,0.0,0.0,55.0,616.79921,10000.0,85.000001,85.000001,85.000001,85.000001,395.0,0.0,0.0,0.0,1.0,111.11,54.184,54.184,48.981,48.981,34.0,-27.53,19.18,-34.00333333333333,22.552500000000002,0.0,1783.057,0.3099999999999987,100.0,27.234,25.924,42.436,40.889,0.0,1.0,100.0,0.0,0.0,0.0,0.0,3063.5714285714284,2807.3,4208.125,4064.5,305.41,305.93025,314.475,314.77925,21.8234,20.5282,21.7926,21.322400000000002,314.999998,314.999998,324.999988,324.999988,99.55838571428572,99.50688333333333,99.5648,99.5444,-0.02949999999999986,-0.1459999999999999,-0.21616666666666662,0.0003333333333332966,-0.04833333333333201,-0.04124999999999801,1.517,1.5314999999999999,37.396,29.301499999999997,37.204,34.265,56.013,34.411,58.897999999999996,51.3775,53.94,33.5925,57.5315,49.757999999999996,53.105000000000004,33.161,57.491,49.19266666666667,-0.044499999999999984,-0.09600000000000009,0.10467000000000001,0.10790000000000001,0.0,208.14499999999998,208.065,205.00333333333333,205.00333333333333,190.012512,21.04372
7,0.0,1.0,0.0,1.0,1.0,0.0,0.0,1.0,0.0,100.0,1.0,1.1856,26.0,0.0,0.0,0.0,59.999996,0.0,26.0,26.0,26.0,26.0,-0.09024999999999994,0.2956000000000001,-0.0189,294.022,-2.6038,-2.803,-1.4955500000000002,-1.6234000000000002,-252.19,215.75,190.848875,0.0,0.0,0.0,0.0,0.015266666666666666,-5.498166666666667,-5.498166666666667,-0.5348,0.07733333333333325,-0.06555555555555559,-0.32299999999999995,66.588,-0.10189999999999999,-0.21975,0.7620000000000005,100.0,1.0,1.0,205.55,0.0,0.0,0.0,0.0,0.0,0.0,0.0,8712.5,0.0,55.0,5.0,239.68666666666667,1.0,0.0,0.0,0.0,0.0,0.0,0.0,0.0,0.35999999999999943,0.35999999999999943,0.0,0.0,1.0,55.0,616.79921,10000.0,85.000001,85.000001,85.000001,85.000001,395.0,0.0,0.0,0.0,1.0,166.665,53.665,53.665,49.408,49.408,34.0,-27.63,19.662,-32.32,21.835,0.0,1783.005,-0.049999999999998934,100.0,27.431,26.423000000000002,42.388,41.159,0.0,1.0,100.0,0.0,0.0,0.0,0.0,3178.285714285714,2793.2,4030.375,3873.7,305.203,305.7535,315.0135,315.151,21.8333,20.5333,21.8031,21.3312,314.999998,314.999998,324.999988,324.999988,99.5584,99.50691666666667,99.56494285714285,99.54454285714286,-0.013749999999999929,-0.1333333333333333,-0.22283333333333333,0.0024999999999999467,-0.04333333333332945,-0.042499999999996874,1.5616666666666665,1.592,37.458,29.333,37.269,34.32,55.998999999999995,34.452,58.939499999999995,51.4385,53.927,33.629999999999995,57.57,49.8165,53.091,33.197,57.5265,49.24966666666667,-0.07699999999999996,-0.06750000000000012,0.10823500000000001,0.10387,0.0,208.59,208.505,205.55,205.55,190.012512,21.04372
8,0.0,1.0,0.0,1.0,1.0,0.0,0.0,1.0,0.0,100.0,1.0,1.1856,26.0,0.0,0.0,0.0,59.999996,0.0,26.0,26.0,26.0,26.0,-0.06474999999999997,0.28659999999999997,-0.013925,293.976,-2.6845499999999998,-2.7366,-1.4761,-1.6164,-248.99,215.735,190.829375,0.0,0.0,0.0,0.0,0.017133333333333334,-5.498166666666667,-5.498166666666667,-0.5377000000000001,-0.31599999999999995,-0.05433333333333357,-0.8340000000000001,66.727,-0.08539999999999992,-0.219975,0.386000000000001,100.0,1.0,1.0,205.92333333333335,0.0,0.0,0.0,0.0,0.0,0.0,0.0,8728.4,0.0,55.0,5.0,240.18666666666667,0.0,0.0,0.0,0.0,0.0,0.0,0.0,0.0,0.40800000000000125,0.40800000000000125,0.0,0.0,0.0,55.0,616.79921,10000.0,85.000001,85.000001,85.000001,85.000001,395.0,0.0,0.0,0.0,1.0,166.665,53.864,53.864,48.92,48.92,34.0,-27.0025,20.194000000000003,-31.27,23.75,0.0,1782.959,-0.11500000000000021,100.0,27.101,26.507,42.471000000000004,41.353,0.0,1.0,100.0,0.0,0.0,0.0,0.0,3109.4285714285716,2869.1,4051.0,3940.0,305.5,305.56125,314.94575,314.9605,21.8424,20.538,21.813,21.3396,314.999998,314.999998,324.999988,324.999988,99.5584,99.50691666666667,99.56508571428571,99.54467142857143,-0.0009999999999998899,-0.11999999999999988,-0.1995,0.030666666666666842,-0.03166666666666629,-0.045000000000001705,1.5416666666666665,1.5605,37.515,29.362499999999997,37.331,34.3725,55.983000000000004,34.4895,58.9785,51.4965,53.912,33.665,57.6065,49.872,53.075,33.2305,57.5605,49.30433333333333,-0.07899999999999996,-0.06299999999999994,0.11104000000000001,0.11056,0.0,208.985,208.95499999999998,205.92333333333335,205.92333333333335,190.012512,21.04372
9,0.0,1.0,0.0,1.0,1.0,0.0,0.0,1.0,0.0,100.0,1.0,1.1856,26.0,0.0,0.0,0.0,59.999996,0.0,26.0,26.0,26.0,26.0,-0.05599999999999994,0.2912000000000001,0.021500000000000002,293.671,-2.6058,-2.7452,-1.52895,-1.5676999999999999,-245.57999999999998,215.715,190.808375,0.0,0.0,0.0,0.0,0.019100000000000002,-5.498166666666667,-5.498166666666667,-0.5338,0.44233333333333325,-0.055111111111111555,0.8859999999999999,66.872,-0.06909999999999994,-0.21097500000000002,0.13200000000000145,100.0,1.0,1.0,206.37666666666667,0.0,0.0,0.0,0.0,0.0,0.0,0.0,8747.6,0.0,55.0,5.0,240.71333333333334,1.0,0.0,0.0,0.0,0.0,0.0,0.0,0.0,0.45899999999999963,0.45899999999999963,0.0,0.0,1.0,55.0,616.79921,10000.0,85.000001,85.000001,85.000001,85.000001,395.0,0.0,0.0,0.0,1.0,166.665,53.329,53.329,49.225,49.225,34.0,-25.7225,22.298000000000002,-30.236666666666665,25.245,0.0,1782.907,-0.3100000000000005,100.0,27.633,26.546,42.361000000000004,41.304,0.0,1.0,100.0,0.0,0.0,0.0,0.0,3140.857142857143,2989.8,4049.375,4101.1,305.185,305.35325,314.981,314.7065,21.8522,20.5432,21.8234,21.348399999999998,314.999998,314.999998,324.999988,324.999988,99.5584,99.50693333333334,99.56521428571429,99.54481428571428,0.027249999999999996,-0.08999999999999986,-0.16749999999999998,0.05283333333333329,-0.04333333333332945,-0.058749999999996305,1.5686666666666667,1.556,37.576,29.395,37.396,34.4275,55.968,34.53,59.018,51.5575,53.897999999999996,33.702,57.6435,49.9305,53.06,33.2655,57.5945,49.361333333333334,-0.09499999999999997,-0.04800000000000004,0.10469,0.10899,0.0,209.45499999999998,209.44,206.37666666666667,206.37666666666667,190.012512,21.04372
10,0.0,1.0,0.0,1.0,1.0,0.0,0.0,1.0,0.0,100.0,1.0,1.1856,26.0,0.0,0.0,0.0,59.999996,0.0,26.0,26.0,26.0,26.0,-0.022749999999999937,0.3004,-0.014950000000000001,293.625,-2.67605,-2.7131,-1.49845,-1.5488,-242.17000000000002,215.695,190.787625,0.0,0.0,0.0,0.0,0.021066666666666668,-5.498166666666667,-5.498166666666667,-0.5287000000000001,-0.5116666666666667,-0.026222222222222147,0.04600000000000004,67.02,-0.0494,-0.21432500000000002,-0.10200000000000031,100.0,1.0,1.0,206.73000000000002,0.0,0.0,0.0,0.0,0.0,0.0,0.0,8762.6,0.0,55.0,5.0,241.24333333333334,0.0,0.0,0.0,0.0,0.0,0.0,1.0,0.0,0.509999999999998,0.509999999999998,0.0,0.0,0.0,55.0,616.79921,10000.0,85.000001,85.000001,85.000001,85.000001,395.0,0.0,0.0,0.0,1.0,166.665,53.818,53.818,48.66,48.66,34.0,-24.875,21.584000000000003,-30.233333333333334,26.302500000000002,0.0,1782.856,-0.3849999999999998,100.0,27.268,26.677,42.531,41.876,0.0,1.0,100.0,0.0,0.0,0.0,0.0,3055.142857142857,2860.4,4149.625,4136.3,305.6505,305.619,314.74525,314.486,21.8619,20.5483,21.834,21.3574,314.999998,314.999998,324.999988,324.999988,99.55841428571429,99.50695,99.56537142857142,99.54495714285714,0.03675000000000006,-0.07666666666666666,-0.15433333333333332,0.06633333333333336,-0.041666666666671404,-0.03750000000000142,1.5283333333333333,1.5125,37.637,29.426499999999997,37.462,34.4835,55.953,34.567499999999995,59.0595,51.621,53.884,33.737,57.6825,49.9915,53.045,33.299,57.6305,49.421,-0.10199999999999998,-0.03400000000000003,0.10312,0.1101,0.0,209.875,209.875,206.73000000000002,206.73000000000002,190.012512,21.04372
11,0.0,1.0,0.0,1.0,1.0,0.0,0.0,1.0,0.0,100.0,1.0,1.1856,26.0,0.0,0.0,0.0,59.999996,0.0,26.0,26.0,26.0,26.0,-0.011499999999999955,0.2772000000000001,-0.04505,293.961,-2.68235,-2.7108,-1.55335,-1.5218,-238.74,215.675,190.766625,0.0,0.0,0.0,0.0,0.022600000000000002,-5.498166666666667,-5.498166666666667,-0.5536,-0.026666666666666616,0.00011111111111095084,0.6819999999999999,67.162,-0.029999999999999916,-0.22617500000000001,-0.3379999999999992,100.0,1.0,1.0,207.34333333333333,0.0,0.0,0.0,0.0,0.0,0.0,0.0,8788.6,0.0,55.0,5.0,241.75333333333333,1.0,0.0,0.0,0.0,0.0,0.0,1.0,0.0,0.5609999999999999,0.5609999999999999,0.0,0.0,1.0,55.0,616.79921,10000.0,85.000001,85.000001,85.000001,85.000001,395.0,0.0,0.0,0.0,1.0,166.665,53.604,53.604,49.438,49.438,34.0,-23.2625,24.352,-26.939999999999998,25.705,0.0,1782.804,-0.5350000000000001,100.0,27.191,26.667,42.169,41.738,0.0,1.0,100.0,0.0,0.0,0.0,0.0,2998.5714285714284,3077.8,3840.875,3991.2,305.642,305.09175,315.5115,314.9625,21.8715,20.5535,21.8443,21.3663,314.999998,314.999998,324.999988,324.999988,99.55841428571429,99.50695,99.56551428571429,99.5451,0.06999999999999984,-0.052000000000000046,-0.1343333333333333,0.09316666666666684,-0.045000000000001705,-0.058749999999996305,1.6059999999999999,1.5979999999999999,37.697,29.4595,37.527,34.539,55.938,34.6065,59.0965,51.682,53.869,33.7725,57.716499999999996,50.05,53.03,33.333,57.661500000000004,49.47833333333333,-0.119,-0.033500000000000085,0.10576,0.10277000000000001,0.0,210.31,210.32999999999998,207.34333333333333,207.34333333333333,190.012512,21.04372
12,0.0,1.0,0.0,1.0,1.0,0.0,0.0,1.0,0.0,100.0,1.0,1.1856,26.0,0.0,0.0,0.0,59.999996,0.0,26.0,26.0,26.0,26.0,0.0002500000000000835,0.2984,0.01175,293.503,-2.708,-2.7055,-1.5297,-1.5437,-235.51999999999998,215.655,190.746,0.0,0.0,0.0,0.0,0.025466666666666665,-5.498166666666667,-5.498166666666667,-0.5414,0.365,-0.0018888888888888289,0.788,67.3,-0.0119999999999999,-0.2048,-0.3879999999999999,100.0,1.0,1.0,207.63666666666666,0.0,0.0,0.0,0.0,0.0,0.0,0.0,8800.9,0.0,55.0,5.0,242.25,0.0,0.0,0.0,0.0,0.0,0.0,1.0,0.0,0.6089999999999982,0.6089999999999982,0.0,0.0,0.0,55.0,616.79921,10000.0,85.000001,85.000001,85.000001,85.000001,395.0,0.0,0.0,0.0,1.0,111.11,53.406,53.406,48.569,48.569,34.0,-23.21,24.805999999999997,-28.066666666666663,28.650000000000002,0.0,1782.757,-0.40000000000000036,100.0,27.254,26.896,42.164,41.794,0.0,1.0,100.0,0.0,0.0,0.0,0.0,2998.5714285714284,3116.7,4097.0,4202.6,305.633,304.96075,314.83475,314.48325,21.8805,20.5585,21.8541,21.3746,314.999998,314.999998,324.999988,324.999988,99.55841428571429,99.50695,99.56564285714286,99.54522857142857,0.07725000000000026,-0.04833333333333312,-0.1133333333333334,0.10699999999999998,-0.036666666666668846,-0.06499999999999773,1.5536666666666665,1.5270000000000001,37.753,29.490499999999997,37.588,34.591499999999996,55.924,34.643,59.132999999999996,51.74,53.855999999999995,33.806,57.751,50.1055,53.016,33.3655,57.6935,49.533,-0.10599999999999998,-0.040999999999999925,0.10754000000000001,0.09923000000000001,0.0,210.74,210.78,207.63666666666666,207.63666666666666,190.012512,21.04372
13,0.0,1.0,0.0,1.0,1.0,0.0,0.0,1.0,0.0,100.0,1.0,1.1856,26.0,0.0,0.0,0.0,59.999996,0.0,26.0,26.0,26.0,26.0,0.04299999999999993,0.29110000000000014,0.015725,293.228,-2.6884,-2.7074,-1.5636999999999999,-1.5489000000000002,-232.07999999999998,215.635,190.724375,0.0,0.0,0.0,0.0,0.026933333333333333,-5.498166666666667,-5.498166666666667,-0.5382,-0.2786666666666666,-0.0033333333333334103,-0.48,67.444,-0.0004999999999999449,-0.2152,-0.38400000000000034,100.0,1.0,1.0,208.01666666666665,0.0,0.0,0.0,0.0,0.0,0.0,0.0,8817.0,0.0,55.0,5.0,242.76999999999998,1.0,0.0,0.0,0.0,0.0,0.0,1.0,0.0,0.6600000000000001,0.6600000000000001,0.0,0.0,1.0,55.0,616.79921,10000.0,85.000001,85.000001,85.000001,85.000001,395.0,0.0,0.0,0.0,1.0,166.665,53.238,53.238,48.507999999999996,48.507999999999996,34.0,-23.49,24.162,-28.976666666666663,29.177500000000002,0.0,1782.705,-0.41999999999999993,100.0,27.312,27.216,42.356,42.384,0.0,1.0,100.0,0.0,0.0,0.0,0.0,3119.0,2978.8,4134.75,4203.9,305.457,305.21175,314.7815,314.3535,21.8901,20.5638,21.8646,21.3837,314.999998,314.999998,324.999988,324.999988,99.55842857142858,99.50696666666667,99.5658,99.54538571428571,0.08650000000000002,-0.03833333333333311,-0.1143333333333334,0.11133333333333328,-0.061666666666667425,-0.05124999999999602,1.5256666666666665,1.5185,37.813,29.5235,37.653999999999996,34.647999999999996,55.911,34.6805,59.1735,51.8045,53.844,33.841,57.7885,50.167500000000004,53.003,33.399,57.728,49.593666666666664,-0.11499999999999999,-0.030999999999999917,0.110155,0.1038,0.0,211.2,211.21,208.01666666666665,208.01666666666665,190.012512,21.04372
14,0.0,1.0,0.0,1.0,1.0,0.0,0.0,1.0,0.0,100.0,1.0,1.1856,26.0,0.0,0.0,0.0,59.999996,0.0,26.0,26.0,26.0,26.0,0.05062499999999992,0.2743,-0.023275,293.442,-2.7088,-2.7125,-1.56385,-1.5375,-228.84,215.6175,190.70425,0.0,0.0,0.0,0.0,0.028833333333333332,-5.498166666666667,-5.498166666666667,-0.5508000000000001,-0.08699999999999997,0.01644444444444426,-0.347,67.577,0.008000000000000007,-0.227575,-0.3819999999999997,100.0,1.0,1.0,208.53,0.0,0.0,0.0,0.0,0.0,0.0,0.0,8838.9,0.0,55.0,5.0,243.25,0.0,0.0,0.0,0.0,0.0,0.0,1.0,0.0,0.7079999999999984,0.7079999999999984,0.0,0.0,0.0,55.0,616.79921,10000.0,85.000001,85.000001,85.000001,85.000001,395.0,0.0,0.0,0.0,1.0,166.665,53.207,53.207,48.813,48.813,34.0,-23.23,24.508,-27.09,28.57,0.0,1782.658,-0.4599999999999991,100.0,27.288,27.383,42.243,42.411,0.0,1.0,100.0,0.0,0.0,0.0,0.0,3066.5714285714284,2999.4,3961.625,4063.1000000000004,305.617,305.0975,315.21425,314.7255,21.8991,20.5688,21.8744,21.3922,314.999998,314.999998,324.999988,324.999988,99.55844285714285,99.50696666666667,99.56592857142857,99.54551428571429,0.08650000000000002,-0.03766666666666674,-0.10866666666666658,0.129,-0.05333333333332746,-0.05250000000000199,1.5616666666666665,1.55,37.869,29.555500000000002,37.715,34.701,55.899,34.716499999999996,59.209,51.863,53.832,33.874,57.8215,50.2235,52.989999999999995,33.4305,57.757999999999996,49.648666666666664,-0.10949999999999993,-0.03600000000000003,0.10584500000000001,0.11540500000000001,0.0,211.595,211.625,208.53,208.53,190.012512,21.04372
15,0.0,1.0,0.0,1.0,1.0,0.0,0.0,1.0,0.0,100.0,1.0,1.1856,26.0,0.0,0.0,0.0,59.999996,0.0,26.0,26.0,26.0,26.0,0.058499999999999996,0.28600000000000003,-0.025225,293.396,-2.7064,-2.6849,-1.5766499999999999,-1.5507,-225.59,215.60000000000002,190.68375,0.0,0.0,0.0,0.0,0.0307,-5.498166666666667,-5.498166666666667,-0.5426,0.19333333333333336,0.030111111111110977,-0.887,67.712,0.011600000000000055,-0.212625,-0.4220000000000006,100.0,1.0,1.0,208.89333333333332,0.0,0.0,0.0,0.0,0.0,0.0,0.0,8854.3,0.0,55.0,5.0,243.73333333333335,1.0,0.0,0.0,0.0,0.0,0.0,1.0,0.0,0.7560000000000002,0.7560000000000002,0.0,0.0,1.0,55.0,616.79921,10000.0,85.000001,85.000001,85.000001,85.000001,395.0,0.0,0.0,0.0,1.0,111.11,53.314,53.314,48.676,48.676,34.0,-22.315,24.164,-27.433333333333334,29.6125,0.0,1782.61,-0.41000000000000014,100.0,27.274,27.471,42.069,42.491,0.0,1.0,100.0,0.0,0.0,0.0,0.0,3006.4285714285716,2966.6,4042.875,4151.6,305.8065,305.18075,315.03925,314.4595,21.9081,20.5739,21.8841,21.4006,314.999998,314.999998,324.999988,324.999988,99.55845714285714,99.50696666666667,99.56605714285715,99.54565714285714,0.0950000000000002,-0.03299999999999992,-0.09799999999999998,0.12816666666666676,-0.041666666666671404,-0.058749999999996305,1.5470000000000002,1.5314999999999999,37.925,29.587,37.775999999999996,34.754,55.887,34.7525,59.244,51.9225,53.82,33.9075,57.854,50.281,52.977999999999994,33.4625,57.7875,49.705,-0.10649999999999993,-0.04049999999999998,0.107865,0.1087,0.0,212.03,212.055,208.89333333333332,208.89333333333332,190.012512,21.04372
16,0.0,1.0,0.0,1.0,1.0,0.0,0.0,1.0,0.0,100.0,1.0,1.1856,26.0,0.0,0.0,0.0,59.999996,0.0,26.0,26.0,26.0,26.0,0.042874999999999996,0.2792000000000001,-0.0048000000000000004,293.274,-2.758,-2.6381,-1.5484,-1.552,-222.14,215.58249999999998,190.66175,0.0,0.0,0.0,0.0,0.03273333333333333,-5.498166666666667,-5.498166666666667,-0.5572,-0.45599999999999996,0.01966666666666672,0.16100000000000003,67.85300000000001,0.013700000000000045,-0.226525,-0.347999999999999,100.0,1.0,1.0,209.33333333333331,0.0,0.0,0.0,0.0,0.0,0.0,0.0,8872.9,0.0,55.0,5.0,244.24666666666667,0.0,0.0,0.0,0.0,0.0,0.0,1.0,0.0,0.8069999999999986,0.8069999999999986,0.0,0.0,0.0,55.0,616.79921,10000.0,85.000001,85.000001,85.000001,85.000001,395.0,0.0,0.0,0.0,1.0,166.665,53.009,53.009,48.477000000000004,48.477000000000004,34.0,-23.2725,26.054000000000002,-26.143333333333334,28.9425,0.0,1782.558,-0.375,100.0,27.256,27.337,42.406,42.512,0.0,1.0,100.0,0.0,0.0,0.0,0.0,3058.0,3201.4,3973.0,4047.0,305.5385,304.6985,315.1225,314.787,21.9174,20.5793,21.8946,21.4097,314.999998,314.999998,324.999988,324.999988,99.55845714285714,99.50698333333334,99.5662,99.54578571428571,0.09724999999999984,-0.023666666666666725,-0.08883333333333332,0.13483333333333336,-0.045000000000001705,-0.04625000000000057,1.5506666666666666,1.54,37.983999999999995,29.621000000000002,37.841,34.8105,55.872,34.7905,59.283500000000004,51.9855,53.806,33.942499999999995,57.8905,50.341499999999996,52.963,33.496,57.8215,49.76433333333333,-0.10099999999999998,-0.04849999999999999,0.10762500000000001,0.10998000000000001,0.0,212.435,212.47,209.33333333333331,209.33333333333331,190.012512,21.04372
17,0.0,1.0,0.0,1.0,1.0,0.0,0.0,1.0,0.0,100.0,1.0,1.1856,26.0,0.0,0.0,0.0,59.999996,0.0,26.0,26.0,26.0,26.0,0.02574999999999994,0.28770000000000007,0.03945,292.831,-2.6243499999999997,-2.6259,-1.4955,-1.5179,-218.47,215.565,190.638,0.0,0.0,0.0,0.0,0.03486666666666667,-5.498166666666667,-5.498166666666667,-0.5491,0.21166666666666667,-0.0038888888888890527,0.6779999999999999,68.004,0.013400000000000079,-0.2132,-0.347999999999999,100.0,1.0,1.0,209.71,0.0,0.0,0.0,0.0,0.0,0.0,0.0,8888.8,0.0,55.0,5.0,244.78333333333336,1.0,0.0,0.0,0.0,0.0,0.0,1.0,0.0,0.8610000000000007,0.8610000000000007,0.0,0.0,1.0,55.0,616.79921,10000.0,85.000001,85.000001,85.000001,85.000001,395.0,0.0,0.0,0.0,1.0,166.665,52.841,52.841,47.943,47.943,34.0,-21.935,25.156,-27.55,30.625,0.0,1782.505,-0.3049999999999997,100.0,27.663,27.459,42.472,42.518,0.0,1.0,100.0,0.0,0.0,0.0,0.0,3036.857142857143,3156.4,4236.25,4275.9,305.454,304.84175,314.45875,314.32,21.9275,20.5851,21.9056,21.4192,314.999998,314.999998,324.999988,324.999988,99.55848571428571,99.50698333333334,99.56635714285714,99.54595714285715,0.09975000000000023,-0.032333333333333325,-0.08616666666666661,0.13749999999999996,-0.02499999999999858,-0.05250000000000199,1.5126666666666666,1.5055,38.047,29.657,37.91,34.8695,55.86,34.832,59.324,52.051,53.794,33.9805,57.9285,50.4045,52.95,33.5325,57.856,49.82633333333334,-0.10099999999999998,-0.05249999999999999,0.103775,0.1048,0.0,212.91500000000002,212.95499999999998,209.71,209.71,190.012512,21.04372
18,0.0,1.0,0.0,1.0,1.0,0.0,0.0,1.0,0.0,100.0,1.0,1.1856,26.0,0.0,0.0,0.0,59.999996,0.0,26.0,26.0,26.0,26.0,0.034499999999999975,0.2852000000000001,0.047275000000000005,292.816,-2.6574999999999998,-2.7437,-1.49695,-1.4755,-215.4,215.55,190.61825,0.0,0.0,0.0,0.0,0.03663333333333333,-5.498166666666667,-5.498166666666667,-0.5614,-0.377,0.005777777777777882,-0.40200000000000014,68.128,0.01100000000000012,-0.224925,-0.2240000000000002,100.0,1.0,1.0,210.10000000000002,0.0,0.0,0.0,0.0,0.0,0.0,0.0,8905.4,0.0,55.0,5.0,245.23000000000002,0.0,0.0,0.0,0.0,0.0,0.0,1.0,0.0,0.9059999999999988,0.9059999999999988,0.0,0.0,0.0,55.0,616.79921,10000.0,85.000001,85.000001,85.000001,85.000001,395.0,0.0,0.0,0.0,1.0,166.665,52.704,52.704,48.019,48.019,34.0,-23.8925,25.874,-27.396666666666665,28.8,0.0,1782.458,-0.28999999999999915,100.0,27.403,27.531,42.508,42.784,0.0,1.0,100.0,0.0,0.0,0.0,0.0,3160.0,3124.0,4150.125,4189.3,305.309,304.623,314.71125,314.435,21.9358,20.5898,21.9149,21.4271,314.999998,314.999998,324.999988,324.999988,99.55848571428571,99.50698333333334,99.5665,99.54608571428571,0.08050000000000024,-0.04266666666666663,-0.09733333333333338,0.1263333333333332,-0.04833333333333201,-0.042499999999996874,1.522,1.513,38.099000000000004,29.686500000000002,37.968,34.9195,55.847,34.8675,59.3605,52.1105,53.782,34.0135,57.9625,50.4615,52.936,33.564,57.8875,49.882,-0.09450000000000003,-0.04899999999999993,0.10239000000000001,0.10806,0.0,213.29000000000002,213.3,210.10000000000002,210.10000000000002,190.012512,21.04372
19,0.0,1.0,0.0,1.0,1.0,0.0,0.0,1.0,0.0,100.0,1.0,1.1856,26.0,0.0,0.0,0.0,59.999996,0.0,26.0,26.0,26.0,26.0,0.04774999999999996,0.27370000000000005,0.021375,292.709,-2.65775,-2.7073,-1.5236,-1.5971000000000002,-211.72,215.535,190.594125,0.0,0.0,0.0,0.0,0.03876666666666667,-5.498166666666667,-5.498166666666667,-0.5488000000000001,0.573,0.009777777777777885,-0.8980000000000001,68.275,0.008499999999999952,-0.212975,-0.2140000000000004,100.0,1.0,1.0,210.56,0.0,0.0,0.0,0.0,0.0,0.0,0.0,8924.8,0.0,55.0,5.0,245.76,1.0,0.0,0.0,0.0,0.0,0.0,1.0,0.0,0.9600000000000009,0.9600000000000009,0.0,0.0,1.0,55.0,616.79921,10000.0,85.000001,85.000001,85.000001,85.000001,395.0,0.0,0.0,0.0,1.0,166.665,52.628,52.628,48.203,48.203,34.0,-23.2925,23.607999999999997,-28.536666666666665,29.895,0.0,1782.405,-0.20500000000000007,100.0,27.917,27.987000000000002,42.445,42.914,0.0,1.0,100.0,0.0,0.0,0.0,0.0,3098.5714285714284,2960.6,4166.0,4189.5,305.4975,305.14675,314.74775,314.3365,21.9459,20.5957,21.9259,21.436700000000002,314.999998,314.999998,324.999988,324.999988,99.5585,99.507,99.56662857142857,99.54622857142857,0.08174999999999999,-0.05233333333333312,-0.11016666666666663,0.11099999999999999,-0.041666666666671404,-0.04124999999999801,1.5073333333333334,1.505,38.162,29.723,38.037,34.9795,55.835,34.907,59.3975,52.1725,53.771,34.0505,57.997,50.5215,52.924,33.5995,57.919,49.941,-0.09899999999999998,-0.05400000000000005,0.11051000000000001,0.09921,0.0,213.785,213.79000000000002,210.56,210.56,190.012512,21.04372
20,0.0,1.0,0.0,1.0,1.0,0.0,0.0,1.0,0.0,100.0,1.0,1.1856,26.0,0.0,0.0,0.0,59.999996,0.0,26.0,26.0,26.0,26.0,0.026250000000000107,0.27259999999999995,-0.033875,292.923,-2.72095,-2.6568,-1.52675,-1.5847,-208.24,215.51999999999998,190.57175,0.0,0.0,0.0,0.0,0.0408,-5.498166666666667,-5.498166666666667,-0.5596,-0.856,0.009444444444444366,0.5800000000000001,68.414,0.005700000000000038,-0.229,-0.129999999999999,100.0,1.0,1.0,211.0,0.0,0.0,0.0,0.0,0.0,0.0,0.0,8943.5,0.0,55.0,5.0,246.26666666666665,0.0,0.0,0.0,0.0,0.0,0.0,0.0,0.0,1.0109999999999992,1.0109999999999992,0.0,0.0,0.0,55.0,616.79921,10000.0,85.000001,85.000001,85.000001,85.000001,395.0,0.0,0.0,0.0,1.0,166.665,52.963,52.963,48.004,48.004,34.0,-22.7775,24.588,-26.15,28.552500000000002,0.0,1782.353,-0.20500000000000007,100.0,27.656,27.525,43.071,43.146,0.0,1.0,100.0,0.0,0.0,0.0,0.0,2994.4285714285716,3127.5,3983.875,4031.9,305.7035,304.97075,315.05975,314.8305,21.9552,20.6011,21.9364,21.4458,314.999998,314.999998,324.999988,324.999988,99.55851428571428,99.507,99.5668,99.54638571428572,0.08899999999999997,-0.045333333333333226,-0.09033333333333338,0.12050000000000005,-0.046666666666666856,-0.05749999999999744,1.5356666666666667,1.5405,38.22,29.7565,38.102999999999994,35.036500000000004,55.819,34.9475,59.44,52.2395,53.756,34.088,58.036500000000004,50.585499999999996,52.908,33.6355,57.955,50.00366666666667,-0.08899999999999997,-0.0625,0.10297500000000001,0.102135,0.0,214.175,214.185,211.0,211.0,190.012512,21.04372
21,0.0,1.0,0.0,1.0,1.0,0.0,0.0,1.0,0.0,100.0,1.0,1.1856,26.0,0.0,0.0,0.0,59.999996,0.0,26.0,26.0,26.0,26.0,0.01462500000000011,0.2825,-0.04125,292.999,-2.714,-2.6749,-1.5733000000000001,-1.5284,-204.95,215.5075,190.55,0.0,0.0,0.0,0.0,0.04273333333333333,-5.498166666666667,-5.498166666666667,-0.5736,0.18833333333333324,-0.0021111111111111747,0.567,68.543,0.0009000000000001229,-0.222275,-0.18799999999999883,100.0,1.0,1.0,211.48333333333335,0.0,0.0,0.0,0.0,0.0,0.0,0.0,8964.0,0.0,55.0,5.0,246.72666666666666,1.0,0.0,0.0,0.0,0.0,0.0,0.0,0.0,1.059000000000001,1.059000000000001,0.0,0.0,1.0,55.0,616.79921,10000.0,85.000001,85.000001,85.000001,85.000001,395.0,0.0,0.0,0.0,1.0,166.665,52.75,52.75,48.462,48.462,34.0,-23.5425,25.357999999999997,-27.466666666666665,27.91,0.0,1782.306,-0.29499999999999993,100.0,27.793,27.495,42.669,42.741,0.0,1.0,100.0,0.0,0.0,0.0,0.0,3089.4285714285716,3165.3,4011.875,4048.6000000000004,305.42,304.85475,315.095,314.881,21.964,20.6062,21.9461,21.4542,314.999998,314.999998,324.999988,324.999988,99.55851428571428,99.50701666666667,99.56691428571429,99.54651428571428,0.08950000000000014,-0.038999999999999924,-0.10649999999999993,0.12416666666666676,-0.04833333333333201,-0.05375000000000085,1.584,1.5695000000000001,38.275,29.789,38.163,35.088499999999996,55.808,34.982,59.4715,52.292,53.745000000000005,34.1195,58.066,50.6365,52.897,33.666,57.9815,50.053333333333335,-0.10199999999999998,-0.050000000000000044,0.10788500000000001,0.104275,0.0,214.60000000000002,214.60500000000002,211.48333333333335,211.48333333333335,190.012512,21.04372
22,0.0,1.0,0.0,1.0,1.0,0.0,0.0,1.0,0.0,100.0,1.0,1.1856,26.0,0.0,0.0,0.0,59.999996,0.0,26.0,26.0,26.0,26.0,0.008499999999999952,0.28680000000000017,0.000625,292.587,-2.77595,-2.6385,-1.5916000000000001,-1.5279,-201.64999999999998,215.495,190.5275,0.0,0.0,0.0,0.0,0.04463333333333333,-5.498166666666667,-5.498166666666667,-0.5583,0.008333333333333304,0.006333333333333302,1.108,68.675,-0.00039999999999995595,-0.20255,-0.2579999999999991,100.0,1.0,1.0,211.7266666666667,0.0,0.0,0.0,0.0,0.0,0.0,0.0,8974.3,0.0,55.0,5.0,247.20333333333335,0.0,0.0,0.0,0.0,0.0,0.0,0.0,0.0,1.1069999999999993,1.1069999999999993,0.0,0.0,0.0,55.0,616.79921,10000.0,85.000001,85.000001,85.000001,85.000001,395.0,0.0,0.0,0.0,1.0,166.665,52.887,52.887,47.592,47.592,34.0,-23.4175,24.688,-29.57,31.015,0.0,1782.259,-0.3650000000000002,100.0,27.835,27.579,42.944,42.913,0.0,1.0,100.0,0.0,0.0,0.0,0.0,3023.4285714285716,3128.9,4222.75,4375.0,305.6865,305.0145,314.55575,314.0975,21.9729,20.6113,21.9559,21.462699999999998,314.999998,314.999998,324.999988,324.999988,99.55852857142857,99.50701666666667,99.56705714285714,99.54665714285714,0.08975,-0.038000000000000034,-0.10016666666666663,0.12450000000000006,-0.051666666666669414,-0.045000000000001705,1.5003333333333333,1.488,38.331,29.820999999999998,38.224999999999994,35.141999999999996,55.796,35.0185,59.509,52.351,53.733000000000004,34.153,58.1005,50.693,52.884,33.698,58.0135,50.109,-0.10399999999999998,-0.04849999999999999,0.10247500000000001,0.10436500000000001,0.0,215.01,215.025,211.7266666666667,211.7266666666667,190.012512,21.04372
23,0.0,1.0,0.0,1.0,1.0,0.0,0.0,1.0,0.0,100.0,1.0,1.1856,26.0,0.0,0.0,0.0,59.999996,0.0,26.0,26.0,26.0,26.0,0.013875000000000082,0.27659999999999996,-0.016025,292.48,-2.6645,-2.6936,-1.6461999999999999,-1.5018,-198.14999999999998,215.485,190.504,0.0,0.0,0.0,0.0,0.04666666666666667,-5.498166666666667,-5.498166666666667,-0.5750000000000001,-0.20499999999999996,0.004666666666666597,-0.73,68.811,0.0022999999999999687,-0.227275,-0.22600000000000087,100.0,1.0,1.0,212.22333333333333,0.0,0.0,0.0,0.0,0.0,0.0,0.0,8995.3,0.0,55.0,5.0,247.69333333333333,1.0,0.0,0.0,0.0,0.0,0.0,0.0,0.0,1.1580000000000013,1.1580000000000013,0.0,0.0,1.0,55.0,616.79921,10000.0,85.000001,85.000001,85.000001,85.000001,395.0,0.0,0.0,0.0,1.0,166.665,52.338,52.338,48.004,48.004,34.0,-24.6525,24.122,-30.266666666666666,28.045,0.0,1782.206,-0.35999999999999943,100.0,27.955,27.93,42.968,43.197,0.0,1.0,100.0,0.0,0.0,0.0,0.0,3230.285714285714,3035.2,4184.5,4110.2,305.0545,304.9925,314.7745,314.66775,21.9824,20.6169,21.9664,21.471899999999998,314.999998,314.999998,324.999988,324.999988,99.55854285714285,99.50701666666667,99.56721428571429,99.5468,0.0807500000000001,-0.052000000000000046,-0.11216666666666664,0.11883333333333335,-0.05333333333332746,-0.038750000000000284,1.5466666666666666,1.5314999999999999,38.39,29.8555,38.29,35.1995,55.782,35.06,59.5495,52.417500000000004,53.72,34.192,58.1385,50.757,52.870000000000005,33.735,58.048,50.17166666666667,-0.09899999999999998,-0.050000000000000044,0.11078,0.10916000000000001,0.0,215.41500000000002,215.43,212.22333333333333,212.22333333333333,190.012512,21.04372
24,0.0,1.0,0.0,1.0,1.0,0.0,0.0,1.0,0.0,100.0,1.0,1.1856,26.0,0.0,0.0,0.0,59.999996,0.0,26.0,26.0,26.0,26.0,0.037250000000000005,0.2752000000000001,-0.016725,292.892,-2.6904,-2.6727,-1.54215,-1.5566,-194.84,215.4725,190.481375,0.0,0.0,0.0,0.0,0.048600000000000004,-5.498166666666667,-5.498166666666667,-0.5856,-0.353,0.011777777777777887,-0.16199999999999992,68.94,0.0035000000000000586,-0.22307500000000002,-0.21199999999999974,100.0,1.0,1.0,212.60333333333335,0.0,0.0,0.0,0.0,0.0,0.0,0.0,9011.5,0.0,55.0,5.0,248.15666666666667,0.0,0.0,0.0,0.0,0.0,0.0,0.0,0.0,1.2059999999999995,1.2059999999999995,0.0,0.0,0.0,55.0,616.79921,10000.0,85.000001,85.000001,85.000001,85.000001,395.0,0.0,0.0,0.0,1.0,166.665,53.162,53.162,47.897,47.897,34.0,-22.68,23.142,-28.41,28.81,0.0,1782.159,-0.3550000000000004,100.0,27.693,27.668,42.900999999999996,43.122,0.0,1.0,100.0,0.0,0.0,0.0,0.0,3009.4285714285716,2952.9,4164.5,4090.9,305.7945,305.33575,314.7235,314.677,21.9912,20.6219,21.9761,21.4804,314.999998,314.999998,324.999988,324.999988,99.55854285714285,99.50703333333334,99.56734285714286,99.54694285714285,0.08450000000000024,-0.05066666666666664,-0.10366666666666657,0.121,-0.03333333333333144,-0.05124999999999602,1.5313333333333334,1.5245,38.445,29.887,38.351,35.2525,55.769999999999996,35.093,59.582499999999996,52.4715,53.709,34.222,58.1695,50.809,52.858000000000004,33.763999999999996,58.076499999999996,50.22233333333333,-0.10699999999999998,-0.05049999999999999,0.10103000000000001,0.11334000000000001,0.0,215.805,215.82999999999998,212.60333333333335,212.60333333333335,190.012512,21.04372
25,0.0,1.0,0.0,1.0,1.0,0.0,0.0,1.0,0.0,100.0,1.0,1.1856,26.0,0.0,0.0,0.0,59.999996,0.0,26.0,26.0,26.0,26.0,0.043500000000000094,0.26660000000000017,-0.014275000000000001,292.526,-2.6869,-2.6649000000000003,-1.5856,-1.5312000000000001,-191.12,215.4625,190.4545,0.0,0.0,0.0,0.0,0.05076666666666667,-5.498166666666667,-5.498166666666667,-0.602,0.21999999999999997,0.017444444444444374,-0.9550000000000001,69.083,0.005300000000000082,-0.21895,-0.3160000000000007,100.0,1.0,1.0,213.09333333333333,0.0,0.0,0.0,0.0,0.0,0.0,0.0,9032.2,0.0,55.0,5.0,248.67000000000002,1.0,0.0,0.0,0.0,0.0,0.0,0.0,0.0,1.259999999999998,1.259999999999998,0.0,0.0,1.0,55.0,616.79921,10000.0,85.000001,85.000001,85.000001,85.000001,395.0,0.0,0.0,0.0,1.0,166.665,52.124,52.124,48.126,48.126,34.0,-24.5,26.311999999999998,-27.82,28.337500000000002,0.0,1782.105,-0.379999999999999,100.0,27.769,27.971,42.699,42.986000000000004,0.0,1.0,100.0,0.0,0.0,0.0,0.0,3255.714285714286,3218.2,4069.25,4082.8,305.038,304.45675,315.049,314.71375,22.001,20.6278,21.987,21.4899,314.999998,314.999998,324.999988,324.999988,99.55855714285714,99.50703333333334,99.5675,99.5471,0.09250000000000025,-0.033333333333333215,-0.09999999999999998,0.12116666666666687,-0.041666666666671404,-0.05124999999999602,1.553,1.5405,38.506,29.924,38.419,35.312,55.756,35.1345,59.6205,52.5355,53.695,34.2605,58.205,50.8705,52.843,33.801,58.1085,50.282666666666664,-0.10899999999999999,-0.04400000000000004,0.10562,0.104215,0.0,216.25,216.275,213.09333333333333,213.09333333333333,190.012512,21.04372
26,0.0,1.0,0.0,1.0,1.0,0.0,0.0,1.0,0.0,100.0,1.0,1.1856,26.0,0.0,0.0,0.0,59.999996,0.0,26.0,26.0,26.0,26.0,0.04062499999999991,0.2783,0.063025,291.748,-2.71385,-2.6575,-1.5501,-1.5516,-187.8,215.4525,190.4305,0.0,0.0,0.0,0.0,0.052700000000000004,-5.498166666666667,-5.498166666666667,-0.5737,0.30866666666666687,0.006222222222222129,-0.645,69.213,0.00890000000000013,-0.203775,-0.3200000000000003,100.0,1.0,1.0,213.28,0.0,0.0,0.0,0.0,0.0,0.0,0.0,9040.1,0.0,55.0,5.0,249.14,0.0,0.0,0.0,0.0,0.0,0.0,0.0,0.0,1.3079999999999998,1.3079999999999998,0.0,0.0,0.0,55.0,616.79921,10000.0,85.000001,85.000001,85.000001,85.000001,395.0,0.0,0.0,0.0,1.0,166.665,52.094,52.094,46.982,46.982,34.0,-24.5075,23.844,-31.169999999999998,32.11,0.0,1782.057,-0.3699999999999992,100.0,28.382,28.381999999999998,43.239000000000004,43.506,0.0,1.0,100.0,0.0,0.0,0.0,0.0,3238.285714285714,3022.0,4456.625,4408.3,305.181,305.14925,314.05325,313.85525,22.009999999999998,20.6331,21.9969,21.4986,314.999998,314.999998,324.999988,324.999988,99.55857142857143,99.50705,99.56764285714286,99.54722857142858,0.09250000000000025,-0.04499999999999993,-0.10133333333333339,0.12433333333333318,-0.04333333333332945,-0.05124999999999602,1.4503333333333333,1.4415,38.562,29.957,38.480999999999995,35.3665,55.745999999999995,35.1725,59.659,52.596000000000004,53.686,34.296,58.2405,50.9285,52.833,33.8345,58.141,50.339333333333336,-0.10699999999999998,-0.04849999999999999,0.10776500000000001,0.11060500000000001,0.0,216.68,216.71,213.28,213.28,190.012512,21.04372
27,0.0,1.0,0.0,1.0,1.0,0.0,0.0,1.0,0.0,100.0,1.0,1.1856,26.0,0.0,0.0,0.0,59.999996,0.0,26.0,26.0,26.0,26.0,0.04512500000000008,0.26449999999999996,-0.053425,292.267,-2.7593,-2.6741,-1.60705,-1.537,-184.47,215.4425,190.407375,0.0,0.0,0.0,0.0,0.05463333333333334,-5.498166666666667,-5.498166666666667,-0.5976,-0.8089999999999999,0.013777777777777889,-0.5619999999999998,69.338,0.010299999999999976,-0.239425,-0.30799999999999983,100.0,1.0,1.0,213.80333333333334,0.0,0.0,0.0,0.0,0.0,0.0,0.0,9062.4,0.0,55.0,5.0,249.59333333333336,1.0,0.0,0.0,0.0,0.0,0.0,0.0,0.0,1.355999999999998,1.355999999999998,0.0,0.0,1.0,55.0,616.79921,10000.0,85.000001,85.000001,85.000001,85.000001,395.0,0.0,0.0,0.0,1.0,166.665,52.429,52.429,47.195,47.195,34.0,-23.974999999999998,24.555999999999997,-28.936666666666664,28.305,0.0,1782.009,-0.35999999999999943,100.0,28.002,28.288,43.597,43.775,0.0,1.0,100.0,0.0,0.0,0.0,0.0,3114.714285714286,3075.2,4130.0,4050.9,305.587,304.90025,314.86625,314.83525,22.0187,20.6383,22.0068,21.5073,314.999998,314.999998,324.999988,324.999988,99.55858571428571,99.50705,99.56778571428572,99.54737142857142,0.08824999999999994,-0.045666666666666744,-0.10383333333333333,0.1246666666666667,-0.05666666666667197,-0.028750000000002274,1.5413333333333332,1.5305,38.617000000000004,29.9895,38.543,35.420500000000004,55.733999999999995,35.2095,59.696,52.655,53.674,34.329499999999996,58.275,50.985,52.82,33.867,58.1725,50.394999999999996,-0.10649999999999993,-0.052999999999999936,0.106855,0.103345,0.0,217.035,217.03,213.80333333333334,213.80333333333334,190.012512,21.04372
28,0.0,1.0,0.0,1.0,1.0,0.0,0.0,1.0,0.0,100.0,1.0,1.1856,26.0,0.0,0.0,0.0,59.999996,0.0,26.0,26.0,26.0,26.0,0.050000000000000044,0.2654000000000001,-0.04465,292.374,-2.68845,-2.6615,-1.6194000000000002,-1.5636999999999999,-180.72,215.435,190.380375,0.0,0.0,0.0,0.0,0.0568,-5.498166666666667,-5.498166666666667,-0.5991000000000001,0.5653333333333332,0.0005555555555556424,-0.9729999999999999,69.479,0.008700000000000152,-0.21257500000000001,-0.3119999999999994,100.0,1.0,1.0,214.29000000000002,0.0,0.0,0.0,0.0,0.0,0.0,0.0,9082.9,0.0,55.0,5.0,250.09666666666666,0.0,0.0,0.0,0.0,0.0,0.0,0.0,0.0,1.4100000000000001,1.4100000000000001,0.0,0.0,0.0,55.0,616.79921,10000.0,85.000001,85.000001,85.000001,85.000001,395.0,0.0,0.0,0.0,1.0,166.665,52.49,52.49,47.516,47.516,34.0,-22.705,24.689999999999998,-29.8,29.142500000000002,0.0,1781.955,-0.46499999999999986,100.0,28.071,28.239,43.054,43.386,0.0,1.0,100.0,0.0,0.0,0.0,0.0,3076.0,3031.1,4227.125,4121.3,305.579,305.013,314.73425,314.674,22.0286,20.6443,22.0177,21.5168,314.999998,314.999998,324.999988,324.999988,99.5586,99.50705,99.56794285714285,99.54754285714286,0.09825000000000017,-0.030333333333333323,-0.10516666666666663,0.12283333333333335,-0.04333333333332945,-0.038750000000000284,1.5576666666666665,1.536,38.679,30.027,38.61,35.480000000000004,55.721000000000004,35.251,59.7325,52.718,53.661,34.368,58.309,51.046,52.807,33.903999999999996,58.203,50.45433333333334,-0.11299999999999999,-0.03649999999999998,0.10474000000000001,0.10745,0.0,217.5,217.51,214.29000000000002,214.29000000000002,190.012512,21.04372
29,0.0,1.0,0.0,1.0,1.0,0.0,0.0,1.0,0.0,100.0,1.0,1.1856,26.0,0.0,0.0,0.0,59.999996,0.0,26.0,26.0,26.0,26.0,0.03662500000000013,0.26070000000000015,-0.034575,292.206,-2.75245,-2.5959,-1.5968499999999999,-1.5675,-177.18,215.4275,190.353875,0.0,0.0,0.0,0.0,0.058866666666666664,-5.498166666666667,-5.498166666666667,-0.6077,-0.7413333333333333,-0.0014444444444445814,0.7889999999999999,69.61500000000001,0.010800000000000143,-0.2167,-0.47000000000000064,100.0,1.0,1.0,214.59,0.0,0.0,0.0,0.0,0.0,0.0,0.0,9095.6,0.0,55.0,5.0,250.58666666666664,1.0,0.0,0.0,0.0,0.0,0.0,0.0,0.0,1.4609999999999985,1.4609999999999985,0.0,0.0,1.0,55.0,616.79921,10000.0,85.000001,85.000001,85.000001,85.000001,395.0,0.0,0.0,0.0,1.0,111.11,52.475,52.475,47.47,47.47,34.0,-23.6175,26.02,-28.176666666666666,31.205000000000002,0.0,1781.906,-0.5099999999999998,100.0,27.959,27.796,43.499,43.584,0.0,1.0,100.0,0.0,0.0,0.0,0.0,3154.142857142857,3241.8,4100.375,4241.9,305.401,304.83575,314.8675,314.34925,22.0378,20.6498,22.0282,21.526,314.999998,314.999998,324.999988,324.999988,99.55861428571428,99.50705,99.56808571428571,99.54768571428572,0.10550000000000015,-0.018000000000000016,-0.09266666666666656,0.13683333333333336,-0.03833333333332689,-0.04749999999999943,1.5183333333333335,1.499,38.736000000000004,30.061,38.676,35.538,55.708,35.2885,59.772,52.781,53.649,34.403,58.346000000000004,51.1065,52.793,33.9375,58.237,50.513666666666666,-0.11599999999999999,-0.03699999999999992,0.113905,0.102995,0.0,217.88,217.905,214.59,214.59,190.012512,21.04372
30,0.0,1.0,0.0,1.0,1.0,0.0,0.0,1.0,0.0,100.0,1.0,1.1856,26.0,0.0,0.0,0.0,59.999996,0.0,26.0,26.0,26.0,26.0,0.02300000000000013,0.2694000000000001,0.027100000000000003,291.519,-2.7273,-2.6545,-1.6349,-1.4636,-173.82999999999998,215.4225,190.328875,0.0,0.0,0.0,0.0,0.0608,-5.498166666666667,-5.498166666666667,-0.6021000000000001,0.9343333333333332,0.002555555555555644,0.861,69.738,0.017300000000000093,-0.21465,-0.5560000000000009,100.0,1.0,1.0,215.0233333333333,0.0,0.0,0.0,0.0,0.0,0.0,0.0,9114.0,0.0,55.0,5.0,251.02666666666664,0.0,0.0,0.0,0.0,0.0,0.0,1.0,0.0,1.5090000000000003,1.5090000000000003,0.0,0.0,0.0,55.0,616.79921,10000.0,85.000001,85.000001,85.000001,85.000001,395.0,0.0,0.0,0.0,1.0,166.665,51.178,51.178,47.15,47.15,34.0,-23.8525,26.938,-29.556666666666665,30.07,0.0,1781.856,-0.4399999999999995,100.0,28.913,28.683,43.344,43.572,0.0,1.0,100.0,0.0,0.0,0.0,0.0,3204.5714285714284,3282.6,4279.375,4304.1,304.998,304.31075,314.597,314.39875,22.0468,20.6553,22.0379,21.5346,314.999998,314.999998,324.999988,324.999988,99.55862857142857,99.50706666666666,99.56822857142858,99.54781428571428,0.11125000000000007,-0.030000000000000027,-0.08483333333333332,0.14000000000000012,-0.026666666666670835,-0.06374999999999886,1.5243333333333333,1.518,38.792,30.0955,38.736999999999995,35.591499999999996,55.7,35.328,59.806,52.838499999999996,53.641,34.439,58.3775,51.161500000000004,52.784,33.972,58.2655,50.56766666666667,-0.118,-0.0495000000000001,0.09982,0.10998000000000001,0.0,218.285,218.35500000000002,215.0233333333333,215.0233333333333,190.012512,21.04372
31,0.0,1.0,0.0,1.0,1.0,0.0,0.0,1.0,0.0,100.0,1.0,1.1856,26.0,0.0,0.0,0.0,59.999996,0.0,26.0,26.0,26.0,26.0,0.05225000000000013,0.2539,0.045025,291.26,-2.70405,-2.7032,-1.6386500000000002,-1.5405,-170.26999999999998,215.41750000000002,190.303125,0.0,0.0,0.0,0.0,0.06286666666666667,-5.498166666666667,-5.498166666666667,-0.5896,-0.43233333333333335,0.00911111111111107,-0.8170000000000002,69.872,0.020000000000000018,-0.22545,-0.44399999999999906,100.0,1.0,1.0,215.32,0.0,0.0,0.0,0.0,0.0,0.0,0.0,9126.6,0.0,55.0,5.0,251.51333333333332,1.0,0.0,0.0,0.0,0.0,0.0,1.0,0.0,1.5599999999999987,1.5599999999999987,0.0,0.0,1.0,55.0,616.79921,10000.0,85.000001,85.000001,85.000001,85.000001,395.0,0.0,0.0,0.0,1.0,111.11,51.453,51.453,46.204,46.204,34.0,-23.015,26.854,-30.266666666666666,30.715,0.0,1781.806,-0.48499999999999943,100.0,28.564,28.945999999999998,43.989000000000004,44.419,0.0,1.0,100.0,0.0,0.0,0.0,0.0,3143.857142857143,3225.2,4259.625,4222.8,305.3725,304.364,314.50325,314.27425,22.056,20.661,22.0485,21.5441,314.999998,314.999998,324.999988,324.999988,99.55864285714286,99.50706666666666,99.56837142857142,99.54797142857143,0.10850000000000026,-0.033333333333333215,-0.09150000000000003,0.12983333333333325,-0.041666666666671404,-0.038750000000000284,1.4643333333333333,1.445,38.849999999999994,30.1315,38.803,35.6505,55.688,35.368,59.847,52.903999999999996,53.629999999999995,34.4765,58.416,51.2245,52.772,34.0075,58.3005,50.629,-0.11699999999999999,-0.04849999999999999,0.106425,0.10781500000000001,0.0,218.68,218.7,215.32,215.32,190.012512,21.04372
32,0.0,1.0,0.0,1.0,1.0,0.0,0.0,1.0,0.0,100.0,1.0,1.1856,26.0,0.0,0.0,0.0,59.999996,0.0,26.0,26.0,26.0,26.0,0.06750000000000012,0.26160000000000005,-0.015575,291.824,-2.7004,-2.6892,-1.5803,-1.6196000000000002,-166.91,215.41500000000002,190.279125,0.0,0.0,0.0,0.0,0.06483333333333334,-5.498166666666667,-5.498166666666667,-0.607,-0.29533333333333334,-0.010000000000000231,-1.0590000000000002,69.994,0.02210000000000001,-0.23267500000000002,-0.4580000000000002,100.0,1.0,1.0,215.8,0.0,0.0,0.0,0.0,0.0,0.0,0.0,9147.0,0.0,55.0,5.0,251.95333333333335,0.0,0.0,0.0,0.0,0.0,0.0,1.0,0.0,1.6080000000000005,1.6080000000000005,0.0,0.0,0.0,55.0,616.79921,10000.0,85.000001,85.000001,85.000001,85.000001,395.0,0.0,0.0,0.0,1.0,166.665,52.032,52.032,47.134,47.134,34.0,-22.46,25.064,-27.506666666666664,31.5825,0.0,1781.758,-0.4900000000000002,100.0,28.399,28.72,43.766,44.248000000000005,0.0,1.0,100.0,0.0,0.0,0.0,0.0,3128.0,3045.0,4085.125,4169.1,305.487,305.0125,314.9515,314.4625,22.0646,20.6663,22.0582,21.5527,314.999998,314.999998,324.999988,324.999988,99.55865714285714,99.50706666666666,99.56851428571429,99.54811428571429,0.11549999999999994,-0.02966666666666673,-0.08750000000000002,0.14000000000000012,-0.06499999999999773,-0.03249999999999886,1.52,1.4945,38.903999999999996,30.1645,38.864000000000004,35.704499999999996,55.677,35.405,59.881,52.961,53.619,34.5105,58.4475,51.2795,52.76,34.0405,58.329,50.68266666666666,-0.123,-0.04049999999999998,0.10584500000000001,0.11390000000000002,0.0,219.075,219.075,215.8,215.8,190.012512,21.04372
33,0.0,1.0,0.0,1.0,1.0,0.0,0.0,1.0,0.0,100.0,1.0,1.1856,26.0,0.0,0.0,0.0,59.999996,0.0,26.0,26.0,26.0,26.0,0.06275000000000008,0.26870000000000016,-0.046975,292.084,-2.7143,-2.7,-1.5879500000000002,-1.5843,-163.55,215.41500000000002,190.254,0.0,0.0,0.0,0.0,0.06676666666666667,-5.498166666666667,-5.498166666666667,-0.6159,-0.2353333333333334,-0.010444444444444478,-0.19099999999999984,70.116,0.02410000000000001,-0.21707500000000002,-0.47000000000000064,100.0,1.0,1.0,216.19666666666666,0.0,0.0,0.0,0.0,0.0,0.0,0.0,9163.7,0.0,55.0,5.0,252.39333333333335,1.0,0.0,0.0,0.0,0.0,0.0,1.0,0.0,1.6559999999999988,1.6559999999999988,0.0,0.0,1.0,55.0,616.79921,10000.0,85.000001,85.000001,85.000001,85.000001,395.0,0.0,0.0,0.0,1.0,166.665,52.338,52.338,47.455,47.455,34.0,-22.982499999999998,24.54,-27.853333333333335,30.3675,0.0,1781.709,-0.46999999999999886,100.0,28.194,28.406,43.539,43.976,0.0,1.0,100.0,0.0,0.0,0.0,0.0,3146.5714285714284,2981.8,4097.375,4139.4,305.449,305.21975,314.92875,314.62225,22.0732,20.6715,22.068,21.5613,314.999998,314.999998,324.999988,324.999988,99.55867142857143,99.50708333333333,99.56864285714286,99.54825714285714,0.10999999999999988,-0.02966666666666673,-0.09116666666666662,0.1363333333333332,-0.054999999999999716,-0.03249999999999886,1.532,1.5285,38.958,30.197,38.925,35.757999999999996,55.666,35.44,59.9155,53.0175,53.608999999999995,34.543,58.479,51.334,52.748000000000005,34.0715,58.3575,50.73566666666667,-0.11599999999999999,-0.04400000000000004,0.11237000000000001,0.10823500000000001,0.0,219.46,219.465,216.19666666666666,216.19666666666666,190.012512,21.04372
34,0.0,1.0,0.0,1.0,1.0,0.0,0.0,1.0,0.0,100.0,1.0,1.1856,26.0,0.0,0.0,0.0,59.999996,0.0,26.0,26.0,26.0,26.0,0.0671250000000001,0.26470000000000016,-0.0761,292.297,-2.6746499999999997,-2.6836,-1.6228,-1.5176,-159.76,215.41250000000002,190.22425,0.0,0.0,0.0,0.0,0.069,-5.498166666666667,-5.498166666666667,-0.6456000000000001,-0.9316666666666666,0.014333333333333309,-0.2829999999999999,70.256,0.026000000000000023,-0.22282500000000002,-0.4599999999999991,100.0,1.0,1.0,216.57,0.0,0.0,0.0,0.0,0.0,0.0,0.0,9179.6,0.0,55.0,5.0,252.89666666666665,0.0,0.0,0.0,0.0,0.0,0.0,1.0,0.0,1.7100000000000009,1.7100000000000009,0.0,0.0,0.0,55.0,616.79921,10000.0,85.000001,85.000001,85.000001,85.000001,395.0,0.0,0.0,0.0,1.0,166.665,52.811,52.811,47.562,47.562,34.0,-21.855,24.866,-28.243333333333336,30.1875,0.0,1781.655,-0.4599999999999991,100.0,27.873,28.060000000000002,43.397,44.042,0.0,1.0,100.0,0.0,0.0,0.0,0.0,3044.5714285714284,3027.0,4112.5,4182.8,305.778,305.19625,314.936,314.50875,22.0828,20.6774,22.0789,21.570999999999998,314.999998,314.999998,324.999988,324.999988,99.55868571428572,99.50708333333333,99.56881428571428,99.54841428571429,0.1070000000000002,-0.025333333333333208,-0.08716666666666661,0.1423333333333332,-0.051666666666669414,-0.03625000000000256,1.5196666666666667,1.5225,39.016999999999996,30.2335,38.992999999999995,35.819,55.652,35.4785,59.953,53.083,53.595,34.5785,58.5145,51.397,52.733999999999995,34.1055,58.388999999999996,50.797333333333334,-0.11649999999999994,-0.043500000000000094,0.10501500000000001,0.10519,0.0,219.86,219.875,216.57,216.57,190.012512,21.04372
35,0.0,1.0,0.0,1.0,1.0,0.0,0.0,1.0,0.0,100.0,1.0,1.1856,26.0,0.0,0.0,0.0,59.999996,0.0,26.0,26.0,26.0,26.0,0.08462499999999995,0.25880000000000014,-0.03595,292.175,-2.8049,-2.6625,-1.61565,-1.5785,-156.39,215.41500000000002,190.195875,0.0,0.0,0.0,0.0,0.07093333333333333,-5.498166666666667,-5.498166666666667,-0.6795,-0.08966666666666656,-0.007777777777777661,-1.342,70.376,0.02629999999999999,-0.2265,-0.42600000000000016,100.0,1.0,1.0,217.03333333333333,0.0,0.0,0.0,0.0,0.0,0.0,0.0,9199.2,0.0,55.0,5.0,253.32666666666665,1.0,0.0,0.0,0.0,0.0,0.0,1.0,0.0,1.7579999999999991,1.7579999999999991,0.0,0.0,1.0,55.0,616.79921,10000.0,85.000001,85.000001,85.000001,85.000001,395.0,0.0,0.0,0.0,1.0,166.665,52.124,52.124,47.211,47.211,34.0,-24.099999999999998,26.866,-27.276666666666664,29.435,0.0,1781.607,-0.3049999999999997,100.0,27.803,28.512,43.174,43.537,0.0,1.0,100.0,0.0,0.0,0.0,0.0,3147.5714285714284,3257.0,4079.75,4034.5,305.4665,304.3655,314.96125,314.9575,22.0912,20.6828,22.0885,21.5795,314.999998,314.999998,324.999988,324.999988,99.5587,99.50708333333333,99.56895714285714,99.54855714285715,0.10375000000000023,-0.028999999999999915,-0.07783333333333331,0.14266666666666672,-0.03499999999999659,-0.045000000000001705,1.5686666666666667,1.5585,39.07,30.2675,39.053,35.872,55.638999999999996,35.516,59.986,53.137,53.582,34.6135,58.5445,51.449,52.72,34.138999999999996,58.4165,50.84833333333333,-0.10150000000000003,-0.05499999999999994,0.10927,0.10190500000000001,0.0,220.23000000000002,220.275,217.03333333333336,217.03333333333333,190.012512,21.04372
