,ABS Active,ABS Enabled,AID Allow Tire Blankets,AID Auto Blip,AID Auto Clutch,AID Auto Shift,AID Fuel Rate,AID Ideal Line,AID Mech Damage,AID Stability,AID Tire Wear Rate,Air Density,Air Temp,Ballast,Best Lap Delta,Best Lap Time,Brake Bias,Brake Pos,Brake Temp FL,Brake Temp FR,Brake Temp RL,Brake Temp RR,CG Accel Lateral,CG Accel Longitudinal,CG Accel Vertical,CG Height,Camber FL,Camber FR,Camber RL,Camber RR,Car Coord X,Car Coord Y,Car Coord Z,Car Damage Front,Car Damage Left,Car Damage Rear,Car Damage Right,Car Pos Norm,Caster FL,Caster FR,Chassis Pitch Angle,Chassis Pitch Rate,Chassis Roll Angle,Chassis Roll Rate,Chassis Velocity X,Chassis Velocity Y,Chassis Velocity Z,Chassis Yaw Rate,Clutch Pos,DRS Active,DRS Available,Drive Train Speed,ERS Heat Charging,ERS Is Charging,ERS Max Energy,ERS Power Level,ERS Recovery Level,Engine Brake Setting,Engine Limiter,Engine RPM,Flags,Fuel Level,Gear,Ground Speed,HR Sample Clock,In Pit,KERS Charge,KERS Deployed Energy,KERS Input,KERS Max Energy,LR Sample Clock,Lap Invalidated,Lap Time,Lap Time2,Last Lap Time,Last Sector Time,MR Sample Clock,Max Fuel,Max Power,Max RPM,Max Sus Travel FL,Max Sus Travel FR,Max Sus Travel RL,Max Sus Travel RR,Max Torque,Max Turbo Boost,Num Tires Off Track,Penalties Enabled,Position,Raw Data Sample Rate,Ride Height FL,Ride Height FR,Ride Height RL,Ride Height RR,Road Temp,Self Align Torque FL,Self Align Torque FR,Self Align Torque RL,Self Align Torque RR,Session Lap Count,Session Time Left,Steering Angle,Surface Grip,Suspension Travel FL,Suspension Travel FR,Suspension Travel RL,Suspension Travel RR,TC Active,TC Enabled,Throttle Pos,Tire Dirt Level FL,Tire Dirt Level FR,Tire Dirt Level RL,Tire Dirt Level RR,Tire Load FL,Tire Load FR,Tire Load RL,Tire Load RR,Tire Loaded Radius FL,Tire Loaded Radius FR,Tire Loaded Radius RL,Tire Loaded Radius RR,Tire Pressure FL,Tire Pressure FR,Tire Pressure RL,Tire Pressure RR,Tire Radius FL,Tire Radius FR,Tire Radius RL,Tire Radius RR,Tire Rubber Grip FL,Tire Rubber Grip FR,Tire Rubber Grip RL,Tire Rubber Grip RR,Tire Slip Angle FL,Tire Slip Angle FR,Tire Slip Angle RL,Tire Slip Angle RR,Tire Slip Ratio FL,Tire Slip Ratio FR,Tire Slip Ratio RL,Tire Slip Ratio RR,Tire Temp Core FL,Tire Temp Core FR,Tire Temp Core RL,Tire Temp Core RR,Tire Temp Inner FL,Tire Temp Inner FR,Tire Temp Inner RL,Tire Temp Inner RR,Tire Temp Middle FL,Tire Temp Middle FR,Tire Temp Middle RL,Tire Temp Middle RR,Tire Temp Outer FL,Tire Temp Outer FR,Tire Temp Outer RL,Tire Temp Outer RR,Toe In FL,Toe In FR,Toe In RL,Toe In RR,Turbo Boost,Wheel Angular Speed FL,Wheel Angular Speed FR,Wheel Angular Speed RL,Wheel Angular Speed RR,Wind Direction,Wind Speed
0,0.0,1.0,0.0,1.0,1.0,0.0,0.0,1.0,0.0,100.0,1.0,1.1856,26.0,0.0,0.0,0.0,59.99999,0.0,26.0,26.0,26.0,26.0,-0.026000000000000023,0.30090000000000017,0.17693333333333333,293.869,-2.7959,-2.6366,-1.54975,-1.5077,-275.79,215.405,190.98875,0.0,0.0,0.0,0.0,0.0015333333333333865,-5.498166666666667,-5.498166666666667,-0.5647,1.3875,-0.004750000000000032,-0.30600000000000005,65.517,-0.03979999999999995,-0.22057500000000002,-0.05600000000000005,100.0,1.0,1.0,202.31666666666666,0.0,0.0,0.0,0.0,0.0,0.0,0.0,8575.5,0.0,55.0,5.0,235.83333333333331,0.0,0.0,0.0,0.0,0.0,0.0,0.0,0.0,0.0030000000000001137,0.0030000000000001137,0.0,0.0,0.0,55.0,616.79921,10000.0,85.0,85.0,85.0,85.0,395.0,0.0,0.0,0.0,1.0,20.0,51.62,51.62,49.744,49.744,34.0,-30.595,31.251666666666665,-28.656666666666666,25.0575,0.0,1783.483,0.14000000000000057,100.0,26.762,26.508,40.045,39.688,0.0,1.0,100.0,0.0,0.0,0.0,0.0,3403.25,4178.4,3987.6666666666665,4010.9,304.5196666666667,301.93675,315.169,314.819,21.7698,20.5017,21.7502,21.2723,314.99999,314.99999,324.99998,324.99998,99.55885714285715,99.50685,99.5647,99.54367142857143,0.01200000000000001,-0.08799999999999986,-0.14279999999999993,0.07800000000000007,-0.054999999999999716,-0.061666666666667425,1.5663333333333334,1.5735000000000001,37.061,29.135333333333335,36.939,33.952,56.266999999999996,34.225,58.8845,51.057,54.177,33.411,57.524,49.45,53.339,32.9775,57.496,48.891999999999996,-0.06599999999999995,-0.08099999999999996,0.10129,0.10846000000000001,0.0,205.26999999999998,205.26999999999998,202.31666666666666,202.31666666666666,190.01251,21.04372
1,0.0,1.0,0.0,1.0,1.0,0.0,0.0,1.0,0.0,100.0,1.0,1.1856,26.0,0.0,0.0,0.0,59.999996,0.0,26.0,26.0,26.0,26.0,-0.044875,0.34750000000000014,0.2119,292.557,-2.6891,-2.7113,-1.59145,-1.3798,-272.24,215.4125,190.967375,0.0,0.0,0.0,0.0,0.0035999999999999366,-5.498166666666667,-5.498166666666667,-0.4753,-1.774,-0.05312500000000009,-0.32299999999999995,65.689,-0.02839999999999998,-0.17765,0.43599999999999994,100.0,1.0,1.0,202.18333333333334,0.0,0.0,0.0,0.0,0.0,0.0,0.0,8569.8,0.0,55.0,5.0,236.44666666666666,1.0,0.0,0.0,0.0,0.0,0.0,0.0,0.0,0.05699999999999861,0.05699999999999861,0.0,0.0,1.0,55.0,616.79921,10000.0,85.000001,85.000001,85.000001,85.000001,395.0,0.0,0.0,0.0,1.0,166.665,54.657,54.657,47.516,47.516,34.0,-23.2625,16.66,-38.656666666666666,34.7675,0.0,1783.431,0.3550000000000004,100.0,27.245,26.793,42.299,42.742000000000004,0.0,1.0,100.0,0.0,0.0,0.0,0.0,2810.375,2418.3,4782.222222222223,5433.0,306.29633333333334,307.1215,313.00325,310.929,21.7801,20.5069,21.7618,21.2821,314.999998,314.999998,324.999988,324.999988,99.55885714285715,99.50686666666667,99.56487142857142,99.54382857142858,0.02200000000000024,-0.10599999999999987,-0.14859999999999995,0.06983333333333319,-0.060000000000002274,-0.041666666666671404,1.27,1.318,37.126000000000005,29.168333333333333,37.010999999999996,34.013,56.248000000000005,34.266,58.9355,51.1325,54.159,33.449,57.5715,49.522,53.321,33.013999999999996,57.5405,48.9625,-0.041999999999999926,-0.10000000000000009,0.10924,0.10817500000000001,0.0,205.76999999999998,205.72500000000002,202.18333333333334,202.18333333333334,190.012512,21.04372
2,0.0,1.0,0.0,1.0,1.0,0.0,0.0,1.0,0.0,100.0,1.0,1.1856,26.0,0.0,0.0,0.0,59.999996,0.0,26.0,26.0,26.0,26.0,-0.06962499999999994,0.3035000000000001,-0.08546666666666666,294.266,-2.6705,-2.6569000000000003,-1.5653000000000001,-1.5059,-268.69,215.41750000000002,190.947375,0.0,0.0,0.0,0.0,0.005666666666666598,-5.498166666666667,-5.498166666666667,-0.5780000000000001,1.139,-0.009374999999999911,1.5670000000000002,65.832,-0.03489999999999993,-0.268025,0.8040000000000003,100.0,1.0,1.0,203.68666666666667,0.0,0.0,0.0,0.0,0.0,0.0,0.0,8633.5,0.0,55.0,5.0,236.96666666666667,0.0,0.0,0.0,0.0,0.0,0.0,0.0,0.0,0.11100000000000065,0.11100000000000065,0.0,0.0,0.0,55.0,616.79921,10000.0,85.000001,85.000001,85.000001,85.000001,395.0,0.0,0.0,0.0,1.0,111.11,52.231,52.231,51.102000000000004,51.102000000000004,34.0,-28.9275,21.651666666666667,-25.54,18.485,0.0,1783.377,0.4450000000000003,100.0,27.934,27.272,41.423,41.141,0.0,1.0,100.0,0.0,0.0,0.0,0.0,3326.0,3097.6,3523.4444444444443,3411.7,304.6836666666667,304.7165,316.286,316.43925,21.7908,20.5124,21.7726,21.2909,314.999998,314.999998,324.999988,324.999988,99.55887142857142,99.50688333333333,99.565,99.54395714285714,0.006750000000000256,-0.1156666666666668,-0.17999999999999994,0.04899999999999993,-0.051666666666669414,-0.07166666666666544,1.775,1.8205,37.192,29.202333333333335,37.079,34.068,56.233000000000004,34.309,58.9715,51.185,54.144999999999996,33.4885,57.6055,49.573,53.306,33.052,57.571,49.0125,-0.03949999999999998,-0.1080000000000001,0.111265,0.100345,0.0,206.26,206.2,203.68666666666667,203.68666666666667,190.012512,21.04372
3,0.0,1.0,0.0,1.0,1.0,0.0,0.0,1.0,0.0,100.0,1.0,1.1856,26.0,0.0,0.0,0.0,59.999996,0.0,26.0,26.0,26.0,26.0,-0.06899999999999995,0.31300000000000017,0.1746,293.365,-2.6833,-2.6951,-1.5413000000000001,-1.4826000000000001,-265.73,215.4225,190.92925,0.0,0.0,0.0,0.0,0.0073666666666665215,-5.498166666666667,-5.498166666666667,-0.49960000000000004,0.49749999999999994,0.0021249999999999325,-1.355,65.975,-0.04819999999999991,-0.184375,0.6079999999999997,100.0,1.0,1.0,203.43666666666667,0.0,0.0,0.0,0.0,0.0,0.0,0.0,8623.0,0.0,55.0,5.0,237.4766666666667,1.0,0.0,0.0,0.0,0.0,0.0,0.0,0.0,0.1559999999999988,0.1559999999999988,0.0,0.0,1.0,55.0,616.79921,10000.0,85.000001,85.000001,85.000001,85.000001,395.0,0.0,0.0,0.0,1.0,166.665,53.772,53.772,47.882,47.882,34.0,-23.822499999999998,20.263333333333332,-34.54333333333334,27.025,0.0,1783.33,0.5450000000000017,100.0,27.576999999999998,27.117,41.794,41.678,0.0,1.0,100.0,0.0,0.0,0.0,0.0,2803.25,2901.0,4494.888888888889,4402.8,306.383,305.57525,313.849,313.80425,21.7993,20.517,21.7818,21.2988,314.999998,314.999998,324.999988,324.999988,99.55887142857142,99.50688333333333,99.56512857142857,99.54408571428571,0.0015000000000000568,-0.11266666666666669,-0.15400000000000003,0.056499999999999995,-0.041666666666671404,-0.051666666666669414,1.4113333333333333,1.451,37.245000000000005,29.231,37.135999999999996,34.1175,56.216,34.3465,59.0075,51.246,54.129000000000005,33.522999999999996,57.638999999999996,49.6315,53.289,33.085,57.602000000000004,49.07,-0.03300000000000003,-0.1120000000000001,0.10311500000000001,0.09660500000000001,0.0,206.72,206.675,203.43666666666667,203.43666666666667,190.012512,21.04372
4,0.0,1.0,0.0,1.0,1.0,0.0,0.0,1.0,0.0,100.0,1.0,1.1856,26.0,0.0,0.0,0.0,59.999996,0.0,26.0,26.0,26.0,26.0,-0.09137499999999998,0.27449999999999997,-0.06173333333333334,293.808,-2.6698,-2.7641,-1.48085,-1.595,-262.56,215.425,190.911125,0.0,0.0,0.0,0.0,0.009233333333333316,-5.498166666666667,-5.498166666666667,-0.5309,-0.9279999999999999,-0.05025000000000013,0.28800000000000026,66.113,-0.05359999999999998,-0.236625,0.9340000000000002,100.0,1.0,1.0,204.09333333333333,0.0,0.0,0.0,0.0,0.0,0.0,0.0,8650.8,0.0,55.0,5.0,237.98000000000002,0.0,0.0,0.0,0.0,0.0,0.0,0.0,0.0,0.20400000000000063,0.20400000000000063,0.0,0.0,0.0,55.0,616.79921,10000.0,85.000001,85.000001,85.000001,85.000001,395.0,0.0,0.0,0.0,1.0,166.665,53.436,53.436,49.225,49.225,34.0,-27.305,19.94833333333333,-29.27,23.46,0.0,1783.283,0.6750000000000007,100.0,27.592,26.729,42.592,41.737,0.0,1.0,100.0,0.0,0.0,0.0,0.0,3093.0,2879.5,3991.6666666666665,3833.3,305.354,305.70625,315.0565,315.28575,21.8085,20.5216,21.7919,21.3071,314.999998,314.999998,324.999988,324.999988,99.55887142857142,99.50691666666667,99.56527142857144,99.54421428571429,-0.009500000000000064,-0.1296666666666666,-0.16920000000000002,0.05049999999999999,-0.03833333333332689,-0.060000000000002274,1.5616666666666665,1.5855,37.303,29.260333333333335,37.199,34.1695,56.2,34.3835,59.0485,51.303,54.114000000000004,33.5575,57.677,49.686,53.272999999999996,33.1175,57.6375,49.1235,-0.01649999999999996,-0.1260000000000001,0.10497000000000001,0.10468000000000001,0.0,207.075,207.03,204.09333333333333,204.09333333333333,190.012512,21.04372
5,0.0,1.0,0.0,1.0,1.0,0.0,0.0,1.0,0.0,100.0,1.0,1.1856,26.0,0.0,0.0,0.0,59.999996,0.0,26.0,26.0,26.0,26.0,-0.07450000000000001,0.3078000000000001,-0.044500000000000005,294.159,-2.6431,-2.7115,-1.5287000000000002,-1.5771000000000002,-259.18,215.425,190.891375,0.0,0.0,0.0,0.0,0.011199999999999988,-5.498166666666667,-5.498166666666667,-0.539,0.5329999999999999,-0.03699999999999992,-0.30200000000000005,66.261,-0.07239999999999991,-0.227525,1.0520000000000014,100.0,1.0,1.0,204.64666666666668,0.0,0.0,0.0,0.0,0.0,0.0,0.0,8674.2,0.0,55.0,5.0,238.51,1.0,0.0,0.0,0.0,0.0,0.0,0.0,0.0,0.254999999999999,0.254999999999999,0.0,0.0,1.0,55.0,616.79921,10000.0,85.000001,85.000001,85.000001,85.000001,395.0,0.0,0.0,0.0,1.0,333.33500000000004,53.619,53.619,49.683,49.683,34.0,-27.3425,19.119999999999997,-30.316666666666666,21.86,0.0,1783.23,0.19000000000000128,100.0,27.369,26.748,42.08,41.179,0.0,1.0,100.0,0.0,0.0,0.0,0.0,3113.5,2846.1,3907.777777777778,3862.1,305.406,305.62025,315.35125,315.25925,21.8184,20.526699999999998,21.8022,21.3157,314.999998,314.999998,324.999988,324.999988,99.55887142857142,99.50691666666667,99.56541428571428,99.54437142857142,-0.014999999999999902,-0.1373333333333333,-0.2023999999999999,0.022333333333333316,-0.10000000000000142,-0.051666666666669414,1.6096666666666666,1.6415,37.364999999999995,29.292,37.263999999999996,34.223,56.184,34.427,59.088499999999996,51.365,54.098,33.5975,57.714,49.745,53.257,33.156,57.6715,49.1815,-0.04399999999999993,-0.1060000000000001,0.10226500000000001,0.10765000000000001,0.0,207.625,207.515,204.64666666666668,204.64666666666668,190.012512,21.04372
6,0.0,1.0,0.0,1.0,1.0,0.0,0.0,1.0,0.0,100.0,1.0,1.1856,26.0,0.0,0.0,0.0,59.999996,0.0,26.0,26.0,26.0,26.0,-0.09175,0.29800000000000004,0.04336666666666667,293.961,-2.6786,-2.7841,-1.478,-1.5615,-256.0,215.425,190.872,0.0,0.0,0.0,0.0,0.013033333333333341,-5.498166666666667,-5.498166666666667,-0.528,-0.28600000000000003,-0.055625000000000036,-1.058,66.40299999999999,-0.07789999999999997,-0.20475000000000002,0.8179999999999996,100.0,1.0,1.0,204.88333333333333,0.0,0.0,0.0,0.0,0.0,0.0,0.0,8684.3,0.0,55.0,5.0,239.0233333333333,0.0,0.0,0.0,0.0,0.0,0.0,0.0,0.0,0.3030000000000008,0.3030000000000008,0.0,0.0,0.0,55.0,616.79921,10000.0,85.000001,85.000001,85.000001,85.000001,395.0,0.0,0.0,0.0,1.0,166.665,54.016,54.016,49.010999999999996,49.010999999999996,34.0,-28.495,18.744999999999997,-32.78,23.2675,0.0,1783.184,0.40500000000000114,100.0,27.065,26.438,42.222,41.33,0.0,1.0,100.0,0.0,0.0,0.0,0.0,3170.5,2727.5,4229.333333333333,4015.6000000000004,305.351,306.024,314.5385,314.8125,21.8275,20.5314,21.8121,21.323999999999998,314.999998,314.999998,324.999988,324.999988,99.55887142857142,99.50693333333334,99.56554285714286,99.54448571428571,-0.024499999999999966,-0.1376666666666666,-0.1933999999999999,0.023833333333333373,-0.060000000000002274,-0.046666666666666856,1.508,1.527,37.422,29.320999999999998,37.325,34.275,56.168,34.461,59.125,51.42,54.083,33.629,57.7485,49.798,53.242000000000004,33.186,57.7035,49.2335,-0.03400000000000003,-0.09699999999999998,0.104855,0.10571000000000001,0.0,208.025,207.945,204.88333333333333,204.88333333333333,190.012512,21.04372
7,0.0,1.0,0.0,1.0,1.0,0.0,0.0,1.0,0.0,100.0,1.0,1.1856,26.0,0.0,0.0,0.0,59.999996,0.0,26.0,26.0,26.0,26.0,-0.07337499999999997,0.30320000000000014,-0.012700000000000001,293.915,-2.6153,-2.7895000000000003,-1.5270000000000001,-1.6132,-252.61,215.42000000000002,190.851375,0.0,0.0,0.0,0.0,0.014999999999999902,-5.498166666666667,-5.498166666666667,-0.5357000000000001,0.13,-0.04850000000000021,1.1719999999999997,66.55,-0.0826,-0.21865,0.6360000000000001,100.0,1.0,1.0,205.41,0.0,0.0,0.0,0.0,0.0,0.0,0.0,8706.6,0.0,55.0,5.0,239.55,1.0,0.0,0.0,0.0,0.0,0.0,0.0,0.0,0.3539999999999992,0.3539999999999992,0.0,0.0,1.0,55.0,616.79921,10000.0,85.000001,85.000001,85.000001,85.000001,395.0,0.0,0.0,0.0,1.0,166.665,53.635,53.635,49.194,49.194,34.0,-25.482499999999998,21.633333333333333,-31.80666666666667,23.62,0.0,1783.132,-0.06500000000000128,100.0,27.557,26.44,42.337,41.214,0.0,1.0,100.0,0.0,0.0,0.0,0.0,3057.75,2915.5,4084.3333333333335,3952.4,305.41866666666664,305.5575,314.86275,315.0315,21.8375,20.5365,21.8226,21.3327,314.999998,314.999998,324.999988,324.999988,99.55888571428571,99.50695,99.56568571428572,99.54462857142858,0.016249999999999876,-0.10099999999999998,-0.19199999999999995,0.031500000000000083,-0.04999999999999716,-0.05333333333332746,1.5593333333333335,1.588,37.483999999999995,29.353,37.391,34.329499999999996,56.153,34.501999999999995,59.165,51.4805,54.069,33.6665,57.786,49.856,53.227000000000004,33.222,57.738,49.29,-0.07750000000000001,-0.06350000000000011,0.10345000000000001,0.109545,0.0,208.47,208.4,205.41,205.41,190.012512,21.04372
8,0.0,1.0,0.0,1.0,1.0,0.0,0.0,1.0,0.0,100.0,1.0,1.1856,26.0,0.0,0.0,0.0,59.999996,0.0,26.0,26.0,26.0,26.0,-0.040124999999999966,0.2825,-0.02646666666666667,293.976,-2.6696999999999997,-2.7177,-1.5426,-1.6032000000000002,-249.21,215.41500000000002,190.83075,0.0,0.0,0.0,0.0,0.016999999999999904,-5.498166666666667,-5.498166666666667,-0.5372,-0.10899999999999999,-0.03862500000000013,-1.123,66.69800000000001,-0.07619999999999993,-0.22087500000000002,0.3460000000000001,100.0,1.0,1.0,205.85666666666668,0.0,0.0,0.0,0.0,0.0,0.0,0.0,8725.5,0.0,55.0,5.0,240.07999999999998,0.0,0.0,0.0,0.0,0.0,0.0,0.0,0.0,0.40500000000000114,0.40500000000000114,0.0,0.0,0.0,55.0,616.79921,10000.0,85.000001,85.000001,85.000001,85.000001,395.0,0.0,0.0,0.0,1.0,333.33500000000004,53.787,53.787,49.010999999999996,49.010999999999996,34.0,-26.12,20.901666666666667,-31.65,23.3475,0.0,1783.08,-0.17999999999999972,100.0,27.084,26.685,42.257,41.468,0.0,1.0,100.0,0.0,0.0,0.0,0.0,3092.25,2890.4,4073.8888888888887,3905.3,305.5473333333333,305.47125,314.99125,315.05325,21.8472,20.5416,21.833,21.3416,314.999998,314.999998,324.999988,324.999988,99.55888571428571,99.50696666666667,99.56582857142857,99.54477142857142,0.013250000000000206,-0.10333333333333328,-0.18979999999999997,0.032666666666666844,-0.04833333333333201,-0.04333333333332945,1.562,1.5775000000000001,37.545,29.384999999999998,37.456,34.385,56.135,34.542,59.207,51.5465,54.052,33.7055,57.825,49.919,53.21,33.2595,57.772,49.3515,-0.08350000000000002,-0.0535000000000001,0.11111000000000001,0.101455,0.0,208.91500000000002,208.865,205.85666666666668,205.85666666666668,190.012512,21.04372
9,0.0,1.0,0.0,1.0,1.0,0.0,0.0,1.0,0.0,100.0,1.0,1.1856,26.0,0.0,0.0,0.0,59.999996,0.0,26.0,26.0,26.0,26.0,-0.029874999999999985,0.29300000000000015,-0.007066666666666667,293.793,-2.6667,-2.7375,-1.5051,-1.5632000000000001,-246.0,215.41,190.811125,0.0,0.0,0.0,0.0,0.018866666666666587,-5.498166666666667,-5.498166666666667,-0.5352,0.14600000000000002,-0.05125000000000002,-0.69,66.836,-0.06219999999999992,-0.21430000000000002,0.1200000000000001,100.0,1.0,1.0,206.25666666666666,0.0,0.0,0.0,0.0,0.0,0.0,0.0,8742.5,0.0,55.0,5.0,240.57666666666665,1.0,0.0,0.0,0.0,0.0,0.0,0.0,0.0,0.4529999999999994,0.4529999999999994,0.0,0.0,1.0,55.0,616.79921,10000.0,85.000001,85.000001,85.000001,85.000001,395.0,0.0,0.0,0.0,1.0,166.665,53.543,53.543,49.194,49.194,34.0,-26.3625,21.705,-30.563333333333336,24.485,0.0,1783.035,-0.3000000000000007,100.0,27.248,26.662,42.206,41.459,0.0,1.0,100.0,0.0,0.0,0.0,0.0,3197.625,2890.5,4074.6666666666665,4009.4,305.218,305.493,314.9385,314.8465,21.8564,20.5464,21.8429,21.349899999999998,314.999998,314.999998,324.999988,324.999988,99.55888571428571,99.50696666666667,99.56597142857143,99.5449,0.03200000000000003,-0.08666666666666667,-0.17520000000000002,0.05049999999999999,-0.054999999999999716,-0.04833333333333201,1.5543333333333333,1.561,37.602000000000004,29.415333333333333,37.518,34.437,56.122,34.579,59.242,51.5995,54.039,33.7375,57.858000000000004,49.97,53.195,33.29,57.8045,49.402,-0.09650000000000003,-0.046499999999999986,0.10729500000000002,0.10519500000000001,0.0,209.34,209.31,206.25666666666666,206.25666666666666,190.012512,21.04372
10,0.0,1.0,0.0,1.0,1.0,0.0,0.0,1.0,0.0,100.0,1.0,1.1856,26.0,0.0,0.0,0.0,59.999996,0.0,26.0,26.0,26.0,26.0,-0.027124999999999955,0.29280000000000017,0.008566666666666667,293.73199999999997,-2.6661,-2.7234,-1.5403,-1.55,-242.59,215.4,190.790375,0.0,0.0,0.0,0.0,0.02083333333333337,-5.498166666666667,-5.498166666666667,-0.53,-0.13650000000000007,-0.026000000000000245,1.6050000000000004,66.982,-0.04509999999999992,-0.2117,-0.17799999999999905,100.0,1.0,1.0,206.64,0.0,0.0,0.0,0.0,0.0,0.0,0.0,8758.8,0.0,55.0,5.0,241.10666666666668,0.0,0.0,0.0,0.0,0.0,0.0,1.0,0.0,0.5040000000000013,0.5040000000000013,0.0,0.0,0.0,55.0,616.79921,10000.0,85.000001,85.000001,85.000001,85.000001,395.0,0.0,0.0,0.0,1.0,166.665,53.787,53.787,48.95,48.95,34.0,-23.732499999999998,22.555,-29.713333333333335,27.29,0.0,1782.984,-0.3550000000000004,100.0,27.385,26.445,42.374,41.605000000000004,0.0,1.0,100.0,0.0,0.0,0.0,0.0,2979.75,2973.4,4071.3333333333335,4209.3,305.66766666666666,305.4385,314.86925,314.4415,21.8661,20.5516,21.8534,21.3588,314.999998,314.999998,324.999988,324.999988,99.5589,99.50698333333334,99.56611428571429,99.54504285714286,0.051750000000000185,-0.07499999999999996,-0.14559999999999995,0.07850000000000001,-0.03499999999999659,-0.061666666666667425,1.5433333333333334,1.529,37.663,29.447333333333333,37.584,34.4925,56.107,34.617,59.2825,51.662,54.025,33.7725,57.894999999999996,50.03,53.18,33.323499999999996,57.839,49.460499999999996,-0.10099999999999998,-0.04600000000000004,0.10308500000000001,0.106315,0.0,209.765,209.78,206.64,206.64,190.012512,21.04372
11,0.0,1.0,0.0,1.0,1.0,0.0,0.0,1.0,0.0,100.0,1.0,1.1856,26.0,0.0,0.0,0.0,59.999996,0.0,26.0,26.0,26.0,26.0,0.010874999999999968,0.2986,-0.04103333333333333,293.991,-2.7013,-2.706,-1.5462,-1.5207000000000002,-238.76999999999998,215.39249999999998,190.766875,0.0,0.0,0.0,0.0,0.022599999999999953,-5.498166666666667,-5.498166666666667,-0.5518000000000001,-0.24350000000000005,-0.000500000000000167,-0.4939999999999998,67.143,-0.025399999999999978,-0.22465000000000002,-0.274,100.0,1.0,1.0,207.23666666666668,0.0,0.0,0.0,0.0,0.0,0.0,0.0,8784.0,0.0,55.0,5.0,241.68666666666667,1.0,0.0,0.0,0.0,0.0,0.0,1.0,0.0,0.5609999999999999,0.5609999999999999,0.0,0.0,1.0,55.0,616.79921,10000.0,85.000001,85.000001,85.000001,85.000001,395.0,0.0,0.0,0.0,1.0,111.11,53.726,53.726,49.393,49.393,34.0,-24.1175,23.428333333333335,-27.796666666666663,25.622500000000002,0.0,1782.927,-0.634999999999998,100.0,26.893,26.691,42.028999999999996,41.78,0.0,1.0,100.0,0.0,0.0,0.0,0.0,3093.375,2988.1,3907.8888888888887,4008.1000000000004,305.55133333333333,305.2,315.3615,314.84275,21.8768,20.5574,21.865,21.3687,314.999998,314.999998,324.999988,324.999988,99.5589,99.50698333333334,99.56627142857143,99.5452,0.06875000000000009,-0.05800000000000005,-0.14100000000000001,0.08550000000000013,-0.045000000000001705,-0.060000000000002274,1.5913333333333335,1.5785,37.730000000000004,29.483666666666664,37.656,34.5545,56.089,34.6595,59.324,51.731,54.007999999999996,33.8115,57.934,50.096000000000004,53.162,33.361000000000004,57.874,49.525,-0.11449999999999994,-0.026999999999999913,0.110545,0.102455,0.0,210.25,210.26,207.23666666666668,207.23666666666668,190.012512,21.04372
12,0.0,1.0,0.0,1.0,1.0,0.0,0.0,1.0,0.0,100.0,1.0,1.1856,26.0,0.0,0.0,0.0,59.999996,0.0,26.0,26.0,26.0,26.0,-0.00024999999999997247,0.29280000000000017,0.0009000000000000001,293.686,-2.7031,-2.6933,-1.5516,-1.5352999999999999,-235.94,215.385,190.748875,0.0,0.0,0.0,0.0,0.025466666666666526,-5.498166666666667,-5.498166666666667,-0.5436,0.40349999999999997,0.004375000000000018,-0.6229999999999998,67.263,-0.011099999999999999,-0.20672500000000002,-0.3779999999999992,100.0,1.0,1.0,207.55333333333334,0.0,0.0,0.0,0.0,0.0,0.0,0.0,8797.4,0.0,55.0,5.0,242.11666666666667,0.0,0.0,0.0,0.0,0.0,0.0,1.0,0.0,0.602999999999998,0.602999999999998,0.0,0.0,0.0,55.0,616.79921,10000.0,85.000001,85.000001,85.000001,85.000001,395.0,0.0,0.0,0.0,1.0,333.33500000000004,53.482,53.482,48.888999999999996,48.888999999999996,34.0,-25.4325,22.45,-28.59,27.6725,0.0,1782.883,-0.3200000000000003,100.0,27.033,26.986,41.907,41.792,0.0,1.0,100.0,0.0,0.0,0.0,0.0,3094.25,3011.6,4100.888888888889,4111.1,305.5283333333333,305.11525,314.91275,314.6375,21.8847,20.5617,21.8735,21.376,314.999998,314.999998,324.999988,324.999988,99.55891428571428,99.507,99.56638571428572,99.54531428571428,0.03874999999999984,-0.08499999999999996,-0.11960000000000004,0.10383333333333322,-0.051666666666669414,-0.054999999999999716,1.5593333333333335,1.5354999999999999,37.778999999999996,29.511,37.71,34.6,56.078,34.6915,59.3545,51.781,53.997,33.841,57.9625,50.144,53.150999999999996,33.3895,57.9005,49.5725,-0.08250000000000002,-0.062000000000000055,0.1068,0.10197,0.0,210.65,210.67000000000002,207.55333333333334,207.55333333333334,190.012512,21.04372
13,0.0,1.0,0.0,1.0,1.0,0.0,0.0,1.0,0.0,100.0,1.0,1.1856,26.0,0.0,0.0,0.0,59.999996,0.0,26.0,26.0,26.0,26.0,0.038124999999999964,0.2882,0.013300000000000001,293.335,-2.6908,-2.7053000000000003,-1.5471,-1.5452,-232.31,215.375,190.725875,0.0,0.0,0.0,0.0,0.026799999999999935,-5.498166666666667,-5.498166666666667,-0.539,-0.2925,0.0006249999999998757,-0.5150000000000001,67.416,-0.006599999999999939,-0.21557500000000002,-0.21999999999999975,100.0,1.0,1.0,207.93333333333334,0.0,0.0,0.0,0.0,0.0,0.0,0.0,8813.6,0.0,55.0,5.0,242.67000000000002,1.0,0.0,0.0,0.0,0.0,0.0,1.0,0.0,0.657,0.657,0.0,0.0,1.0,55.0,616.79921,10000.0,85.000001,85.000001,85.000001,85.000001,395.0,0.0,0.0,0.0,1.0,166.665,53.314,53.314,48.569,48.569,34.0,-23.5,23.878333333333334,-28.753333333333334,28.7325,0.0,1782.831,-0.4400000000000013,100.0,27.237000000000002,27.157,42.268,42.293,0.0,1.0,100.0,0.0,0.0,0.0,0.0,3106.125,2974.0,4131.444444444444,4186.4,305.504,305.22875,314.7985,314.401,21.8949,20.5674,21.8847,21.3856,314.999998,314.999998,324.999988,324.999988,99.55892857142857,99.507,99.56654285714286,99.54545714285715,0.08424999999999994,-0.04400000000000004,-0.11499999999999999,0.10683333333333334,-0.054999999999999716,-0.041666666666671404,1.5286666666666666,1.5190000000000001,37.843,29.546,37.778999999999996,34.66,56.062,34.732,59.397,51.849000000000004,53.982,33.8785,58.001999999999995,50.209,53.135,33.4255,57.9365,49.635999999999996,-0.11299999999999999,-0.03649999999999998,0.10096500000000001,0.11117500000000001,0.0,211.125,211.11,207.93333333333334,207.93333333333334,190.012512,21.04372
14,0.0,1.0,0.0,1.0,1.0,0.0,0.0,1.0,0.0,100.0,1.0,1.1856,26.0,0.0,0.0,0.0,59.999996,0.0,26.0,26.0,26.0,26.0,0.03687499999999999,0.2842,-0.0298,293.61,-2.6787,-2.7235,-1.5561,-1.5409000000000002,-228.87,215.37,190.7045,0.0,0.0,0.0,0.0,0.028799999999999937,-5.498166666666667,-5.498166666666667,-0.5512,0.010499999999999954,0.016249999999999876,0.9729999999999999,67.55799999999999,-0.007099999999999995,-0.225325,-0.3539999999999992,100.0,1.0,1.0,208.4766666666667,0.0,0.0,0.0,0.0,0.0,0.0,0.0,8836.6,0.0,55.0,5.0,243.18,0.0,0.0,0.0,0.0,0.0,0.0,1.0,0.0,0.7079999999999984,0.7079999999999984,0.0,0.0,0.0,55.0,616.79921,10000.0,85.000001,85.000001,85.000001,85.000001,395.0,0.0,0.0,0.0,1.0,166.665,53.391,53.391,49.025999999999996,49.025999999999996,34.0,-21.8675,25.141666666666666,-26.61,28.13,0.0,1782.779,-0.509999999999998,100.0,27.392,27.12,42.217,42.205,0.0,1.0,100.0,0.0,0.0,0.0,0.0,2954.0,3058.6,3919.222222222222,4094.9,305.7703333333333,305.11375,315.27625,314.7265,21.9044,20.5727,21.8951,21.3945,314.999998,314.999998,324.999988,324.999988,99.55892857142857,99.50701666666667,99.56668571428571,99.54561428571428,0.09425000000000017,-0.03166666666666673,-0.10660000000000003,0.11733333333333329,-0.04333333333332945,-0.04833333333333201,1.561,1.565,37.903,29.579666666666668,37.844,34.7155,56.049,34.7705,59.4335,51.9105,53.97,33.914,58.036,50.2685,53.122,33.4595,57.968,49.6945,-0.11449999999999994,-0.033500000000000085,0.10543500000000001,0.10566,0.0,211.54500000000002,211.565,208.4766666666667,208.4766666666667,190.012512,21.04372
15,0.0,1.0,0.0,1.0,1.0,0.0,0.0,1.0,0.0,100.0,1.0,1.1856,26.0,0.0,0.0,0.0,59.999996,0.0,26.0,26.0,26.0,26.0,0.047250000000000014,0.2754000000000001,-0.009766666666666668,293.442,-2.6699,-2.6995,-1.54035,-1.5629,-225.82,215.3625,190.68525,0.0,0.0,0.0,0.0,0.03056666666666652,-5.498166666666667,-5.498166666666667,-0.5443,0.24,0.01662499999999989,-0.8279999999999998,67.684,0.0008000000000001339,-0.2136,-0.39999999999999947,100.0,1.0,1.0,208.81,0.0,0.0,0.0,0.0,0.0,0.0,0.0,8850.7,0.0,55.0,5.0,243.63333333333333,1.0,0.0,0.0,0.0,0.0,0.0,1.0,0.0,0.7530000000000001,0.7530000000000001,0.0,0.0,1.0,55.0,616.79921,10000.0,85.000001,85.000001,85.000001,85.000001,395.0,0.0,0.0,0.0,1.0,166.665,53.299,53.299,48.721000000000004,48.721000000000004,34.0,-23.009999999999998,23.538333333333334,-27.993333333333336,28.18,0.0,1782.733,-0.375,100.0,27.281,27.39,42.09,42.391999999999996,0.0,1.0,100.0,0.0,0.0,0.0,0.0,3067.5,2942.9,4090.0,4072.7,305.61,305.25875,314.934,314.675,21.9129,20.5775,21.9043,21.4024,314.999998,314.999998,324.999988,324.999988,99.55894285714285,99.50701666666667,99.56681428571429,99.54574285714286,0.08349999999999991,-0.046333333333333115,-0.11060000000000003,0.11016666666666675,-0.03999999999999915,-0.05333333333332746,1.5430000000000001,1.5295,37.956,29.609333333333332,37.902,34.765,56.037,34.804,59.466499999999996,51.966,53.958,33.945,58.0665,50.3215,53.108999999999995,33.489,57.996,49.7465,-0.11349999999999993,-0.040000000000000036,0.111185,0.10291000000000002,0.0,211.935,211.965,208.81,208.81,190.012512,21.04372
16,0.0,1.0,0.0,1.0,1.0,0.0,0.0,1.0,0.0,100.0,1.0,1.1856,26.0,0.0,0.0,0.0,59.999996,0.0,26.0,26.0,26.0,26.0,0.046624999999999917,0.2741,-0.0024000000000000002,293.228,-2.7357,-2.6411,-1.51985,-1.5584,-222.16,215.35750000000002,190.661875,0.0,0.0,0.0,0.0,0.03269999999999995,-5.498166666666667,-5.498166666666667,-0.5532,-0.31400000000000006,0.010999999999999899,-0.944,67.83500000000001,0.007800000000000029,-0.224275,-0.2920000000000007,100.0,1.0,1.0,209.2733333333333,0.0,0.0,0.0,0.0,0.0,0.0,0.0,8870.3,0.0,55.0,5.0,244.17666666666668,0.0,0.0,0.0,0.0,0.0,0.0,1.0,0.0,0.8069999999999986,0.8069999999999986,0.0,0.0,0.0,55.0,616.79921,10000.0,85.000001,85.000001,85.000001,85.000001,395.0,0.0,0.0,0.0,1.0,166.665,52.963,52.963,48.447,48.447,34.0,-24.724999999999998,24.325,-27.063333333333333,28.0275,0.0,1782.681,-0.25,100.0,27.201,27.476,42.369,42.553,0.0,1.0,100.0,0.0,0.0,0.0,0.0,3169.25,3087.4,4053.0,3982.8,305.3566666666667,304.8675,315.00175,314.87975,21.9229,20.5832,21.915399999999998,21.412,314.999998,314.999998,324.999988,324.999988,99.55895714285714,99.50701666666667,99.56695714285715,99.54588571428572,0.07774999999999999,-0.045333333333333226,-0.10299999999999998,0.12416666666666676,-0.05833333333333002,-0.04999999999999716,1.5426666666666666,1.542,38.018,29.645,37.971000000000004,34.8245,56.022,34.8445,59.5075,52.032,53.943,33.9825,58.105000000000004,50.385,53.094,33.525,58.031,49.8085,-0.09950000000000003,-0.050000000000000044,0.11122000000000001,0.10893000000000001,0.0,212.38,212.41,209.2733333333333,209.2733333333333,190.012512,21.04372
17,0.0,1.0,0.0,1.0,1.0,0.0,0.0,1.0,0.0,100.0,1.0,1.1856,26.0,0.0,0.0,0.0,59.999996,0.0,26.0,26.0,26.0,26.0,0.03299999999999992,0.28190000000000004,0.029500000000000002,292.969,-2.6597,-2.7319,-1.53635,-1.522,-218.7,215.35250000000002,190.639625,0.0,0.0,0.0,0.0,0.034733333333333394,-5.498166666666667,-5.498166666666667,-0.551,0.15649999999999997,-0.00749999999999984,0.42900000000000027,67.976,0.00649999999999995,-0.21830000000000002,-0.2079999999999993,100.0,1.0,1.0,209.66,0.0,0.0,0.0,0.0,0.0,0.0,0.0,8886.8,0.0,55.0,5.0,244.68333333333334,1.0,0.0,0.0,0.0,0.0,0.0,1.0,0.0,0.8580000000000005,0.8580000000000005,0.0,0.0,1.0,55.0,616.79921,10000.0,85.000001,85.000001,85.000001,85.000001,395.0,0.0,0.0,0.0,1.0,166.665,52.872,52.872,48.096000000000004,48.096000000000004,34.0,-22.6375,25.211666666666666,-28.123333333333335,30.0575,0.0,1782.629,-0.16499999999999915,100.0,27.617,27.46,42.462,42.482,0.0,1.0,100.0,0.0,0.0,0.0,0.0,3014.375,3107.3,4143.888888888889,4216.4,305.547,304.83025,314.704,314.4585,21.9325,20.5887,21.9258,21.4209,314.999998,314.999998,324.999988,324.999988,99.55895714285714,99.50703333333334,99.56711428571428,99.54604285714285,0.08599999999999985,-0.04733333333333323,-0.10020000000000007,0.13549999999999995,-0.046666666666666856,-0.045000000000001705,1.514,1.508,38.078,29.679333333333332,38.036,34.881,56.007999999999996,34.8835,59.545,52.0935,53.93,34.019,58.14,50.4445,53.08,33.56,58.063,49.867,-0.08750000000000002,-0.06350000000000011,0.11334000000000001,0.10876500000000001,0.0,212.85000000000002,212.84,209.66,209.66,190.012512,21.04372
18,0.0,1.0,0.0,1.0,1.0,0.0,0.0,1.0,0.0,100.0,1.0,1.1856,26.0,0.0,0.0,0.0,59.999996,0.0,26.0,26.0,26.0,26.0,0.035250000000000004,0.28090000000000015,0.05056666666666667,292.908,-2.6526,-2.7598000000000003,-1.5183,-1.4882,-215.64,215.35,190.619875,0.0,0.0,0.0,0.0,0.03649999999999998,-5.498166666666667,-5.498166666666667,-0.5604,-0.3320000000000001,-0.008750000000000036,-0.6259999999999999,68.101,0.0004999999999999449,-0.22407500000000002,-0.017999999999999794,100.0,1.0,1.0,210.01666666666665,0.0,0.0,0.0,0.0,0.0,0.0,0.0,8901.8,0.0,55.0,5.0,245.13333333333333,0.0,0.0,0.0,0.0,0.0,0.0,1.0,0.0,0.9029999999999987,0.9029999999999987,0.0,0.0,0.0,55.0,616.79921,10000.0,85.000001,85.000001,85.000001,85.000001,395.0,0.0,0.0,0.0,1.0,333.33500000000004,52.856,52.856,48.157,48.157,34.0,-23.9325,24.473333333333333,-28.703333333333333,28.3075,0.0,1782.582,-0.21999999999999886,100.0,27.449,27.496,42.548,42.696,0.0,1.0,100.0,0.0,0.0,0.0,0.0,3148.25,3033.7,4146.222222222223,4197.9,305.3566666666667,304.9145,314.7435,314.40625,21.9409,20.5934,21.9351,21.4289,314.999998,314.999998,324.999988,324.999988,99.55897142857143,99.50703333333334,99.56724285714286,99.54617142857143,0.0757500000000002,-0.05899999999999994,-0.11539999999999995,0.1116666666666668,-0.054999999999999716,-0.05833333333333002,1.4953333333333334,1.5105,38.131,29.708666666666666,38.094,34.9305,55.994,34.9195,59.5815,52.1525,53.917,34.052,58.1735,50.501,53.066,33.591499999999996,58.0935,49.922,-0.09650000000000003,-0.06299999999999994,0.112975,0.10754000000000001,0.0,213.20499999999998,213.23000000000002,210.01666666666665,210.01666666666665,190.012512,21.04372
19,0.0,1.0,0.0,1.0,1.0,0.0,0.0,1.0,0.0,100.0,1.0,1.1856,26.0,0.0,0.0,0.0,59.999996,0.0,26.0,26.0,26.0,26.0,0.03475000000000006,0.2811000000000001,0.05363333333333334,292.679,-2.6257,-2.7295,-1.5186000000000002,-1.611,-212.16,215.345,190.597,0.0,0.0,0.0,0.0,0.03853333333333331,-5.498166666666667,-5.498166666666667,-0.5537000000000001,0.5535,-0.00024999999999986144,0.8180000000000001,68.24000000000001,-0.0046999999999999265,-0.21707500000000002,-0.13399999999999945,100.0,1.0,1.0,210.46,0.0,0.0,0.0,0.0,0.0,0.0,0.0,8920.6,0.0,55.0,5.0,245.63666666666666,1.0,0.0,0.0,0.0,0.0,0.0,1.0,0.0,0.9540000000000006,0.9540000000000006,0.0,0.0,1.0,55.0,616.79921,10000.0,85.000001,85.000001,85.000001,85.000001,395.0,0.0,0.0,0.0,1.0,166.665,52.444,52.444,48.278999999999996,48.278999999999996,34.0,-22.9925,24.786666666666665,-27.87,30.715,0.0,1782.534,-0.1750000000000007,100.0,28.14,27.762,42.607,42.659,0.0,1.0,100.0,0.0,0.0,0.0,0.0,3056.75,3098.3,4086.6666666666665,4241.0,305.42333333333335,304.905,314.87175,314.308,21.9506,20.5989,21.9455,21.4379,314.999998,314.999998,324.999988,324.999988,99.55898571428571,99.50705,99.56738571428572,99.54631428571429,0.07900000000000018,-0.05400000000000005,-0.10939999999999994,0.11683333333333334,-0.04999999999999716,-0.04333333333332945,1.5073333333333334,1.5030000000000001,38.191,29.743000000000002,38.159,34.987,55.983000000000004,34.957,59.616,52.210499999999996,53.906,34.0865,58.2055,50.5565,53.054,33.625,58.123,49.977000000000004,-0.08999999999999997,-0.062000000000000055,0.10884,0.10939000000000002,0.0,213.685,213.675,210.46,210.46,190.012512,21.04372
20,0.0,1.0,0.0,1.0,1.0,0.0,0.0,1.0,0.0,100.0,1.0,1.1856,26.0,0.0,0.0,0.0,59.999996,0.0,26.0,26.0,26.0,26.0,0.015374999999999917,0.2643,-0.024866666666666665,292.847,-2.6972,-2.6648,-1.5940500000000002,-1.592,-208.47,215.3425,190.57325,0.0,0.0,0.0,0.0,0.04066666666666652,-5.498166666666667,-5.498166666666667,-0.5559000000000001,-0.6725000000000001,0.00275000000000003,0.6070000000000002,68.388,-0.007899999999999907,-0.22635000000000002,-0.047999999999999154,100.0,1.0,1.0,210.91,0.0,0.0,0.0,0.0,0.0,0.0,0.0,8939.7,0.0,55.0,5.0,246.17000000000002,0.0,0.0,0.0,0.0,0.0,0.0,0.0,0.0,1.0079999999999991,1.0079999999999991,0.0,0.0,0.0,55.0,616.79921,10000.0,85.000001,85.000001,85.000001,85.000001,395.0,0.0,0.0,0.0,1.0,166.665,52.917,52.917,47.882,47.882,34.0,-23.57,24.191666666666666,-28.863333333333333,28.445,0.0,1782.48,-0.14999999999999858,100.0,27.774,27.537,43.132,43.109,0.0,1.0,100.0,0.0,0.0,0.0,0.0,3000.25,3100.7,4089.777777777778,4032.1000000000004,305.6743333333333,305.0485,314.92225,314.8025,21.9606,20.6046,21.956699999999998,21.4476,314.999998,314.999998,324.999988,324.999988,99.55898571428571,99.50705,99.56752857142857,99.54647142857142,0.0665,-0.050999999999999934,-0.11039999999999994,0.11316666666666686,-0.03999999999999915,-0.045000000000001705,1.5183333333333335,1.5125,38.254000000000005,29.778666666666666,38.229,35.0475,55.967,34.998,59.6575,52.277,53.891,34.1245,58.245,50.621,53.038,33.661,58.158500000000004,50.04,-0.08150000000000002,-0.06150000000000011,0.09767500000000001,0.1082,0.0,214.10000000000002,214.095,210.91,210.91,190.012512,21.04372
21,0.0,1.0,0.0,1.0,1.0,0.0,0.0,1.0,0.0,100.0,1.0,1.1856,26.0,0.0,0.0,0.0,59.999996,0.0,26.0,26.0,26.0,26.0,0.016250000000000098,0.27480000000000016,-0.0413,293.076,-2.7153,-2.6448,-1.55485,-1.5327000000000002,-205.39,215.34,190.553,0.0,0.0,0.0,0.0,0.04246666666666654,-5.498166666666667,-5.498166666666667,-0.5732,-0.05699999999999994,-0.008750000000000036,-0.758,68.509,-0.012899999999999912,-0.225775,0.02799999999999958,100.0,1.0,1.0,211.38666666666666,0.0,0.0,0.0,0.0,0.0,0.0,0.0,8959.9,0.0,55.0,5.0,246.60333333333335,1.0,0.0,0.0,0.0,0.0,0.0,0.0,0.0,1.0530000000000008,1.0530000000000008,0.0,0.0,1.0,55.0,616.79921,10000.0,85.000001,85.000001,85.000001,85.000001,395.0,0.0,0.0,0.0,1.0,333.33500000000004,52.887,52.887,48.538,48.538,34.0,-25.0875,23.235,-28.33,26.3425,0.0,1782.433,-0.23000000000000043,100.0,27.596,27.53,42.748000000000005,42.812,0.0,1.0,100.0,0.0,0.0,0.0,0.0,3206.125,3019.4,4025.0,3966.2,305.2543333333333,305.14725,315.1125,315.02075,21.968899999999998,20.6094,21.9658,21.4554,314.999998,314.999998,324.999988,324.999988,99.559,99.50705,99.56767142857143,99.5466,0.07350000000000012,-0.056333333333333124,-0.12619999999999998,0.10316666666666685,-0.03833333333332689,-0.054999999999999716,1.565,1.565,38.306,29.808333333333334,38.286,35.0965,55.954,35.032,59.689,52.329499999999996,53.879000000000005,34.156,58.274,50.6715,53.025,33.6915,58.185,50.0895,-0.10150000000000003,-0.058499999999999996,0.10611500000000001,0.114625,0.0,214.49,214.485,211.38666666666666,211.38666666666666,190.012512,21.04372
22,0.0,1.0,0.0,1.0,1.0,0.0,0.0,1.0,0.0,100.0,1.0,1.1856,26.0,0.0,0.0,0.0,59.999996,0.0,26.0,26.0,26.0,26.0,0.004250000000000087,0.2755000000000001,0.021166666666666667,292.603,-2.7543,-2.6790000000000003,-1.55905,-1.5339,-201.69,215.3375,190.527875,0.0,0.0,0.0,0.0,0.04459999999999997,-5.498166666666667,-5.498166666666667,-0.5589000000000001,0.04299999999999993,-0.004875000000000185,-0.5419999999999998,68.657,-0.013799999999999923,-0.201825,-0.0860000000000003,100.0,1.0,1.0,211.67666666666668,0.0,0.0,0.0,0.0,0.0,0.0,0.0,8972.2,0.0,55.0,5.0,247.13333333333333,0.0,0.0,0.0,0.0,0.0,0.0,0.0,0.0,1.1069999999999993,1.1069999999999993,0.0,0.0,0.0,55.0,616.79921,10000.0,85.000001,85.000001,85.000001,85.000001,395.0,0.0,0.0,0.0,1.0,166.665,52.856,52.856,47.699,47.699,34.0,-25.4425,23.368333333333332,-31.463333333333335,29.1625,0.0,1782.379,-0.2749999999999986,100.0,27.662,27.592,42.823,42.849000000000004,0.0,1.0,100.0,0.0,0.0,0.0,0.0,3190.375,3020.5,4302.0,4295.9,305.3666666666667,305.13775,314.4355,314.2055,21.9789,20.615099999999998,21.9769,21.465,314.999998,314.999998,324.999988,324.999988,99.559,99.50706666666666,99.56782857142858,99.54674285714286,0.06850000000000023,-0.06099999999999994,-0.13219999999999998,0.09899999999999998,-0.04999999999999716,-0.041666666666671404,1.492,1.487,38.367999999999995,29.844666666666665,38.355999999999995,35.156,55.939,35.073499999999996,59.730000000000004,52.394999999999996,53.864999999999995,34.194,58.312,50.734,53.01,33.728,58.22,50.1505,-0.09799999999999998,-0.0515000000000001,0.10553000000000001,0.11132500000000001,0.0,214.97,214.96,211.67666666666668,211.67666666666668,190.012512,21.04372
23,0.0,1.0,0.0,1.0,1.0,0.0,0.0,1.0,0.0,100.0,1.0,1.1856,26.0,0.0,0.0,0.0,59.999996,0.0,26.0,26.0,26.0,26.0,0.0002500000000000835,0.27970000000000006,-0.006733333333333333,292.511,-2.6554,-2.7003,-1.623,-1.5438,-198.39,215.335,190.50575,0.0,0.0,0.0,0.0,0.046533333333333315,-5.498166666666667,-5.498166666666667,-0.5720000000000001,-0.25,-0.005374999999999908,-0.7330000000000001,68.785,-0.006899999999999906,-0.22382500000000002,-0.15399999999999991,100.0,1.0,1.0,212.12,0.0,0.0,0.0,0.0,0.0,0.0,0.0,8991.0,0.0,55.0,5.0,247.60000000000002,1.0,0.0,0.0,0.0,0.0,0.0,0.0,0.0,1.1550000000000011,1.1550000000000011,0.0,0.0,1.0,55.0,616.79921,10000.0,85.000001,85.000001,85.000001,85.000001,395.0,0.0,0.0,0.0,1.0,166.665,52.399,52.399,47.958,47.958,34.0,-25.2825,23.373333333333335,-30.91,27.9775,0.0,1782.332,-0.19500000000000028,100.0,27.94,27.794,43.028,43.083,0.0,1.0,100.0,0.0,0.0,0.0,0.0,3248.375,3015.3,4223.888888888889,4119.2,305.025,305.07025,314.685,314.63925,21.9878,20.6203,21.9868,21.4736,314.999998,314.999998,324.999988,324.999988,99.55901428571428,99.50706666666666,99.56795714285714,99.54688571428571,0.06800000000000006,-0.06733333333333325,-0.12239999999999995,0.10400000000000009,-0.054999999999999716,-0.046666666666666856,1.5296666666666665,1.523,38.424,29.877000000000002,38.418,35.21,55.926,35.1105,59.766,52.4535,53.852000000000004,34.2285,58.3455,50.7905,52.997,33.760999999999996,58.2505,50.206,-0.09299999999999997,-0.06000000000000005,0.10802,0.108365,0.0,215.35500000000002,215.35500000000002,212.12,212.12,190.012512,21.04372
24,0.0,1.0,0.0,1.0,1.0,0.0,0.0,1.0,0.0,100.0,1.0,1.1856,26.0,0.0,0.0,0.0,59.999996,0.0,26.0,26.0,26.0,26.0,0.026499999999999968,0.2753000000000001,-0.015766666666666665,292.892,-2.6846,-2.6809000000000003,-1.53415,-1.5609000000000002,-195.09,215.335,190.483125,0.0,0.0,0.0,0.0,0.04846666666666655,-5.498166666666667,-5.498166666666667,-0.5861000000000001,-0.35450000000000004,0.004624999999999879,-0.20100000000000007,68.914,-0.006599999999999939,-0.225225,-0.0860000000000003,100.0,1.0,1.0,212.53,0.0,0.0,0.0,0.0,0.0,0.0,0.0,9008.4,0.0,55.0,5.0,248.06333333333333,0.0,0.0,0.0,0.0,0.0,0.0,0.0,0.0,1.2029999999999994,1.2029999999999994,0.0,0.0,0.0,55.0,616.79921,10000.0,85.000001,85.000001,85.000001,85.000001,395.0,0.0,0.0,0.0,1.0,166.665,53.085,53.085,47.943,47.943,34.0,-23.474999999999998,22.65,-28.88,28.0,0.0,1782.284,-0.23999999999999844,100.0,27.741,27.619,42.948,43.034,0.0,1.0,100.0,0.0,0.0,0.0,0.0,3056.5,2940.8,4172.555555555556,4068.5,305.659,305.368,314.7095,314.7395,21.9966,20.6254,21.9966,21.4821,314.999998,314.999998,324.999988,324.999988,99.55902857142857,99.50708333333333,99.56811428571429,99.54701428571428,0.07425000000000015,-0.06233333333333313,-0.1127999999999999,0.10783333333333323,-0.04999999999999716,-0.045000000000001705,1.5253333333333334,1.5295,38.479,29.908666666666665,38.479,35.263,55.913,35.1465,59.8005,52.5105,53.84,34.2615,58.378,50.8455,52.983000000000004,33.793,58.28,50.2595,-0.09699999999999998,-0.05449999999999999,0.101245,0.10730500000000001,0.0,215.735,215.74,212.53,212.53,190.012512,21.04372
25,0.0,1.0,0.0,1.0,1.0,0.0,0.0,1.0,0.0,100.0,1.0,1.1856,26.0,0.0,0.0,0.0,59.999996,0.0,26.0,26.0,26.0,26.0,0.025500000000000078,0.26859999999999995,-0.017433333333333335,292.679,-2.6826,-2.6728,-1.5793,-1.5531000000000001,-191.36,215.33249999999998,190.456375,0.0,0.0,0.0,0.0,0.05059999999999998,-5.498166666666667,-5.498166666666667,-0.6013000000000001,0.16400000000000003,0.012499999999999956,-0.9489999999999998,69.05799999999999,-0.007199999999999984,-0.21912500000000001,-0.1479999999999997,100.0,1.0,1.0,213.01999999999998,0.0,0.0,0.0,0.0,0.0,0.0,0.0,9029.1,0.0,55.0,5.0,248.57999999999998,1.0,0.0,0.0,0.0,0.0,0.0,0.0,0.0,1.256999999999998,1.256999999999998,0.0,0.0,1.0,55.0,616.79921,10000.0,85.000001,85.000001,85.000001,85.000001,395.0,0.0,0.0,0.0,1.0,166.665,52.292,52.292,48.218,48.218,34.0,-25.28,25.22833333333333,-28.77,27.83,0.0,1782.23,-0.2749999999999986,100.0,27.669,27.816,42.71,42.84,0.0,1.0,100.0,0.0,0.0,0.0,0.0,3257.375,3182.2,4059.222222222222,4073.6000000000004,305.039,304.5805,315.081,314.7305,22.0065,20.6312,22.0076,21.4916,314.999998,314.999998,324.999988,324.999988,99.55904285714286,99.50708333333333,99.56825714285715,99.54718571428572,0.07500000000000018,-0.052000000000000046,-0.122,0.10666666666666669,-0.03499999999999659,-0.03499999999999659,1.5486666666666666,1.5385,38.54,29.945333333333334,38.547,35.3225,55.897,35.188,59.838,52.574,53.825,34.3005,58.413,50.9065,52.967,33.83,58.3115,50.3195,-0.10299999999999998,-0.055500000000000105,0.10984500000000001,0.10498,0.0,216.18,216.17000000000002,213.01999999999998,213.01999999999998,190.012512,21.04372
26,0.0,1.0,0.0,1.0,1.0,0.0,0.0,1.0,0.0,100.0,1.0,1.1856,26.0,0.0,0.0,0.0,59.999996,0.0,26.0,26.0,26.0,26.0,0.023374999999999924,0.28710000000000013,0.0471,291.962,-2.7037,-2.7455,-1.53865,-1.5579,-188.04,215.33249999999998,190.432375,0.0,0.0,0.0,0.0,0.05253333333333332,-5.498166666666667,-5.498166666666667,-0.5745,0.37649999999999995,-0.0026250000000000995,-0.7429999999999999,69.188,-0.005699999999999927,-0.20140000000000002,-0.19399999999999995,100.0,1.0,1.0,213.21666666666667,0.0,0.0,0.0,0.0,0.0,0.0,0.0,9037.5,0.0,55.0,5.0,249.04666666666668,0.0,0.0,0.0,0.0,0.0,0.0,0.0,0.0,1.3049999999999997,1.3049999999999997,0.0,0.0,0.0,55.0,616.79921,10000.0,85.000001,85.000001,85.000001,85.000001,395.0,0.0,0.0,0.0,1.0,166.665,52.277,52.277,47.195,47.195,34.0,-24.9,23.493333333333332,-32.016666666666666,30.79,0.0,1782.181,-0.3049999999999997,100.0,28.278,28.16,43.14,43.252,0.0,1.0,100.0,0.0,0.0,0.0,0.0,3247.5,2933.1,4446.777777777777,4387.5,305.152,305.29075,314.07025,313.94725,22.0154,20.636499999999998,22.0175,21.5003,314.999998,314.999998,324.999988,324.999988,99.55905714285714,99.5071,99.5684,99.54731428571428,0.08349999999999991,-0.05600000000000005,-0.12119999999999997,0.1036666666666668,-0.054999999999999716,-0.05333333333332746,1.4606666666666666,1.4465,38.596000000000004,29.97833333333333,38.608999999999995,35.376999999999995,55.887,35.226,59.875,52.6335,53.815,34.335499999999996,58.4475,50.964,52.956,33.8635,58.343,50.3755,-0.10799999999999998,-0.04899999999999993,0.11002500000000001,0.106465,0.0,216.615,216.61,213.21666666666667,213.21666666666667,190.012512,21.04372
27,0.0,1.0,0.0,1.0,1.0,0.0,0.0,1.0,0.0,100.0,1.0,1.1856,26.0,0.0,0.0,0.0,59.999996,0.0,26.0,26.0,26.0,26.0,0.02774999999999994,0.2654000000000001,-0.0335,292.328,-2.7512,-2.6823,-1.6008,-1.5405,-184.72,215.32999999999998,190.409125,0.0,0.0,0.0,0.0,0.05446666666666655,-5.498166666666667,-5.498166666666667,-0.5944,-0.7985,0.007874999999999854,-0.5579999999999998,69.313,-0.0027999999999999137,-0.23517500000000002,-0.21799999999999908,100.0,1.0,1.0,213.72,0.0,0.0,0.0,0.0,0.0,0.0,0.0,9058.8,0.0,55.0,5.0,249.50333333333333,1.0,0.0,0.0,0.0,0.0,0.0,0.0,0.0,1.352999999999998,1.352999999999998,0.0,0.0,1.0,55.0,616.79921,10000.0,85.000001,85.000001,85.000001,85.000001,395.0,0.0,0.0,0.0,1.0,166.665,52.475,52.475,47.226,47.226,34.0,-24.7075,23.895,-29.813333333333336,27.4325,0.0,1782.133,-0.29499999999999815,100.0,28.0,28.162,43.629,43.644,0.0,1.0,100.0,0.0,0.0,0.0,0.0,3127.5,3061.4,4146.555555555556,4037.5,305.558,304.948,314.8375,314.86775,22.0242,20.6417,22.0274,21.509,314.999998,314.999998,324.999988,324.999988,99.55905714285714,99.5071,99.56854285714286,99.54745714285714,0.07200000000000006,-0.06000000000000005,-0.1187999999999999,0.10749999999999993,-0.06833333333332803,-0.05333333333332746,1.529,1.5205,38.650999999999996,30.010666666666665,38.672,35.431,55.873999999999995,35.263,59.912,52.692499999999995,53.802,34.3695,58.482,51.0205,52.943,33.896,58.3745,50.4305,-0.09950000000000003,-0.05950000000000011,0.1082,0.10353000000000001,0.0,216.965,216.96,213.72,213.72,190.012512,21.04372
28,0.0,1.0,0.0,1.0,1.0,0.0,0.0,1.0,0.0,100.0,1.0,1.1856,26.0,0.0,0.0,0.0,59.999996,0.0,26.0,26.0,26.0,26.0,0.03849999999999998,0.27859999999999996,-0.05196666666666667,292.404,-2.6793,-2.6702,-1.6147,-1.5683,-180.97,215.33249999999998,190.382125,0.0,0.0,0.0,0.0,0.05666666666666653,-5.498166666666667,-5.498166666666667,-0.5986,0.514,-0.0040000000000000036,-1.057,69.45400000000001,-0.0011999999999999789,-0.21505000000000002,-0.22799999999999976,100.0,1.0,1.0,214.22,0.0,0.0,0.0,0.0,0.0,0.0,0.0,9080.0,0.0,55.0,5.0,250.00666666666666,0.0,0.0,0.0,0.0,0.0,0.0,0.0,0.0,1.407,1.407,0.0,0.0,0.0,55.0,616.79921,10000.0,85.000001,85.000001,85.000001,85.000001,395.0,0.0,0.0,0.0,1.0,166.665,52.399,52.399,47.638,47.638,34.0,-23.7825,24.123333333333335,-29.84,28.13,0.0,1782.078,-0.34499999999999886,100.0,28.108,28.178,43.147,43.28,0.0,1.0,100.0,0.0,0.0,0.0,0.0,3139.0,3040.6,4180.555555555556,4088.4,305.4273333333333,305.01425,314.85775,314.75175,22.0341,20.6477,22.0383,21.5185,314.999998,314.999998,324.999988,324.999988,99.55907142857143,99.50711666666666,99.5687,99.54762857142858,0.08349999999999991,-0.047666666666666746,-0.11499999999999999,0.10850000000000004,-0.05833333333333002,-0.05333333333332746,1.556,1.557,38.713,30.048000000000002,38.739000000000004,35.4905,55.858999999999995,35.3075,59.9505,52.759,53.788,34.4105,58.5175,51.0845,52.928,33.9355,58.407,50.4935,-0.10649999999999993,-0.0475000000000001,0.107395,0.10021500000000001,0.0,217.43,217.44,214.22,214.22,190.012512,21.04372
29,0.0,1.0,0.0,1.0,1.0,0.0,0.0,1.0,0.0,100.0,1.0,1.1856,26.0,0.0,0.0,0.0,59.999996,0.0,26.0,26.0,26.0,26.0,0.03275000000000006,0.25439999999999996,-0.018633333333333335,292.297,-2.7458,-2.6033,-1.5897999999999999,-1.554,-177.43,215.33249999999998,190.35575,0.0,0.0,0.0,0.0,0.058699999999999974,-5.498166666666667,-5.498166666666667,-0.6057,-0.7255,-0.009374999999999911,0.7669999999999999,69.589,-0.0006999999999999229,-0.21627500000000002,-0.3120000000000003,100.0,1.0,1.0,214.50333333333333,0.0,0.0,0.0,0.0,0.0,0.0,0.0,9092.0,0.0,55.0,5.0,250.49666666666667,1.0,0.0,0.0,0.0,0.0,0.0,0.0,0.0,1.4579999999999984,1.4579999999999984,0.0,0.0,1.0,55.0,616.79921,10000.0,85.000001,85.000001,85.000001,85.000001,395.0,0.0,0.0,0.0,1.0,166.665,52.719,52.719,47.409,47.409,34.0,-23.57,24.378333333333334,-29.056666666666665,30.302500000000002,0.0,1782.03,-0.4349999999999987,100.0,27.972,27.754,43.604,43.475,0.0,1.0,100.0,0.0,0.0,0.0,0.0,3122.75,3157.9,4130.666666666667,4272.0,305.52433333333335,305.09675,314.79325,314.30475,22.0434,20.6532,22.0488,21.5277,314.999998,314.999998,324.999988,324.999988,99.55908571428571,99.50711666666666,99.56884285714285,99.54777142857142,0.09799999999999986,-0.040000000000000036,-0.10460000000000003,0.11850000000000005,-0.03999999999999915,-0.05333333333332746,1.4973333333333334,1.4855,38.771,30.082333333333334,38.805,35.548,55.846000000000004,35.343,59.9875,52.818,53.775999999999996,34.4435,58.552,51.141,52.914,33.967,58.438,50.548500000000004,-0.11849999999999994,-0.04499999999999993,0.11024,0.10534500000000001,0.0,217.81,217.845,214.50333333333333,214.50333333333333,190.012512,21.04372
30,0.0,1.0,0.0,1.0,1.0,0.0,0.0,1.0,0.0,100.0,1.0,1.1856,26.0,0.0,0.0,0.0,59.999996,0.0,26.0,26.0,26.0,26.0,0.03374999999999995,0.25360000000000005,0.0088,291.656,-2.7174,-2.6658,-1.6263,-1.47,-174.07999999999998,215.335,190.330875,0.0,0.0,0.0,0.0,0.060666666666666536,-5.498166666666667,-5.498166666666667,-0.6059,0.869,-0.005250000000000199,0.8610000000000002,69.712,0.0040000000000000036,-0.21760000000000002,-0.43599999999999994,100.0,1.0,1.0,214.99,0.0,0.0,0.0,0.0,0.0,0.0,0.0,9112.6,0.0,55.0,5.0,250.93666666666667,0.0,0.0,0.0,0.0,0.0,0.0,1.0,0.0,1.5060000000000002,1.5060000000000002,0.0,0.0,0.0,55.0,616.79921,10000.0,85.000001,85.000001,85.000001,85.000001,395.0,0.0,0.0,0.0,1.0,166.665,51.071,51.071,47.485,47.485,34.0,-25.0675,27.311666666666667,-29.576666666666664,28.9,0.0,1781.98,-0.41999999999999815,100.0,28.883,28.506,43.319,43.378,0.0,1.0,100.0,0.0,0.0,0.0,0.0,3277.75,3321.0,4196.333333333333,4221.8,304.7556666666667,304.16025,314.8115,314.6285,22.0524,20.6586,22.0586,21.5363,314.999998,314.999998,324.999988,324.999988,99.5591,99.50713333333333,99.56897142857143,99.5479,0.09750000000000014,-0.03299999999999992,-0.10299999999999998,0.1303333333333332,-0.054999999999999716,-0.060000000000002274,1.5476666666666667,1.5205,38.827,30.116333333333333,38.866,35.602000000000004,55.837,35.382,60.0205,52.8745,53.766999999999996,34.4795,58.582499999999996,51.195499999999996,52.905,34.0015,58.466,50.6015,-0.11849999999999994,-0.050000000000000044,0.11002,0.105855,0.0,218.22500000000002,218.245,214.99,214.99,190.012512,21.04372
31,0.0,1.0,0.0,1.0,1.0,0.0,0.0,1.0,0.0,100.0,1.0,1.1856,26.0,0.0,0.0,0.0,59.999996,0.0,26.0,26.0,26.0,26.0,0.03312500000000007,0.264,0.0852,291.168,-2.6997999999999998,-2.638,-1.63225,-1.5455,-170.51999999999998,215.3375,190.305,0.0,0.0,0.0,0.0,0.06273333333333331,-5.498166666666667,-5.498166666666667,-0.5867,-0.3640000000000001,0.005624999999999991,-0.629,69.848,0.010900000000000132,-0.21930000000000002,-0.3700000000000001,100.0,1.0,1.0,215.19666666666666,0.0,0.0,0.0,0.0,0.0,0.0,0.0,9121.5,0.0,55.0,5.0,251.42666666666668,1.0,0.0,0.0,0.0,0.0,0.0,1.0,0.0,1.5569999999999986,1.5569999999999986,0.0,0.0,1.0,55.0,616.79921,10000.0,85.000001,85.000001,85.000001,85.000001,395.0,0.0,0.0,0.0,1.0,111.11,51.483000000000004,51.483000000000004,46.066,46.066,34.0,-23.715,25.54,-31.856666666666666,31.4225,0.0,1781.931,-0.370000000000001,100.0,28.584,28.813,44.016999999999996,44.299,0.0,1.0,100.0,0.0,0.0,0.0,0.0,3179.0,3244.0,4358.777777777777,4327.9,305.267,304.47,314.26125,314.01725,22.0617,20.6643,22.0692,21.5457,314.999998,314.999998,324.999988,324.999988,99.55911428571429,99.50713333333333,99.56914285714285,99.54805714285715,0.0990000000000002,-0.04899999999999993,-0.10399999999999998,0.1226666666666667,-0.051666666666669414,-0.02833333333332888,1.4406666666666668,1.421,38.885999999999996,30.152,38.932,35.6605,55.825,35.422,60.061,52.9395,53.756,34.5165,58.6205,51.257999999999996,52.891999999999996,34.0375,58.5005,50.663,-0.11249999999999993,-0.05449999999999999,0.10956,0.10706,0.0,218.625,218.625,215.19666666666666,215.19666666666666,190.012512,21.04372
32,0.0,1.0,0.0,1.0,1.0,0.0,0.0,1.0,0.0,100.0,1.0,1.1856,26.0,0.0,0.0,0.0,59.999996,0.0,26.0,26.0,26.0,26.0,0.06287500000000001,0.25860000000000016,-0.0146,291.763,-2.6999,-2.6894,-1.5802,-1.6202,-167.17000000000002,215.34,190.281,0.0,0.0,0.0,0.0,0.06466666666666654,-5.498166666666667,-5.498166666666667,-0.6055,-0.31600000000000006,-0.01075000000000026,-1.012,69.969,0.012800000000000145,-0.233,-0.31599999999999984,100.0,1.0,1.0,215.72,0.0,0.0,0.0,0.0,0.0,0.0,0.0,9143.6,0.0,55.0,5.0,251.86333333333334,0.0,0.0,0.0,0.0,0.0,0.0,1.0,0.0,1.6050000000000004,1.6050000000000004,0.0,0.0,0.0,55.0,616.79921,10000.0,85.000001,85.000001,85.000001,85.000001,395.0,0.0,0.0,0.0,1.0,166.665,52.032,52.032,47.028,47.028,34.0,-23.1725,24.621666666666666,-28.16,31.1425,0.0,1781.882,-0.3999999999999986,100.0,28.41,28.665,43.876,44.184,0.0,1.0,100.0,0.0,0.0,0.0,0.0,3147.25,3043.1,4107.222222222223,4187.7,305.4273333333333,305.01425,314.892,314.41825,22.0704,20.6696,22.079,21.5543,314.999998,314.999998,324.999988,324.999988,99.55911428571429,99.50713333333333,99.56927142857143,99.5482,0.10325000000000006,-0.04033333333333311,-0.09579999999999989,0.12966666666666682,-0.04999999999999716,-0.04999999999999716,1.5146666666666666,1.508,38.94,30.185333333333332,38.992999999999995,35.7145,55.813,35.4595,60.0945,52.9965,53.744,34.5515,58.6515,51.3125,52.879999999999995,34.070499999999996,58.5285,50.716499999999996,-0.11549999999999994,-0.0495000000000001,0.100915,0.112155,0.0,218.995,219.015,215.72,215.72,190.012512,21.04372
33,0.0,1.0,0.0,1.0,1.0,0.0,0.0,1.0,0.0,100.0,1.0,1.1856,26.0,0.0,0.0,0.0,59.999996,0.0,26.0,26.0,26.0,26.0,0.061125000000000096,0.2650000000000001,-0.060700000000000004,292.084,-2.7272,-2.7043,-1.58355,-1.5878999999999999,-163.81,215.345,190.256,0.0,0.0,0.0,0.0,0.06663333333333332,-5.498166666666667,-5.498166666666667,-0.6144000000000001,-0.21999999999999997,-0.014874999999999972,-0.2530000000000001,70.092,0.00890000000000013,-0.216625,-0.31599999999999984,100.0,1.0,1.0,216.12333333333333,0.0,0.0,0.0,0.0,0.0,0.0,0.0,9160.6,0.0,55.0,5.0,252.30666666666667,1.0,0.0,0.0,0.0,0.0,0.0,1.0,0.0,1.6529999999999987,1.6529999999999987,0.0,0.0,1.0,55.0,616.79921,10000.0,85.000001,85.000001,85.000001,85.000001,395.0,0.0,0.0,0.0,1.0,333.33500000000004,52.338,52.338,47.379,47.379,34.0,-23.565,24.35,-28.15,30.0,0.0,1781.833,-0.46000000000000085,100.0,28.253,28.415,43.675,43.944,0.0,1.0,100.0,0.0,0.0,0.0,0.0,3152.125,2967.3,4104.444444444444,4120.9,305.465,305.267,314.9445,314.66925,22.0791,20.6749,22.0887,21.5629,314.999998,314.999998,324.999988,324.999988,99.55912857142857,99.50713333333333,99.56941428571429,99.54832857142857,0.09975000000000023,-0.03200000000000003,-0.09920000000000007,0.13083333333333336,-0.04333333333332945,-0.030000000000001137,1.5516666666666667,1.522,38.995000000000005,30.218,39.054,35.768,55.801,35.495,60.128,53.053,53.733000000000004,34.584,58.6825,51.3665,52.867999999999995,34.102000000000004,58.5565,50.769,-0.11499999999999999,-0.03699999999999992,0.105385,0.11899000000000001,0.0,219.37,219.385,216.12333333333333,216.12333333333333,190.012512,21.04372
34,0.0,1.0,0.0,1.0,1.0,0.0,0.0,1.0,0.0,100.0,1.0,1.1856,26.0,0.0,0.0,0.0,59.999996,0.0,26.0,26.0,26.0,26.0,0.038000000000000034,0.2622,-0.08726666666666667,292.313,-2.6597,-2.6902,-1.6151,-1.5296,-160.23000000000002,215.35,190.228,0.0,0.0,0.0,0.0,0.06869999999999998,-5.498166666666667,-5.498166666666667,-0.6405000000000001,-0.8275000000000001,0.0068749999999999645,0.8879999999999999,70.224,0.01110000000000011,-0.220525,-0.3979999999999997,100.0,1.0,1.0,216.48000000000002,0.0,0.0,0.0,0.0,0.0,0.0,0.0,9175.8,0.0,55.0,5.0,252.78,0.0,0.0,0.0,0.0,0.0,0.0,1.0,0.0,1.7040000000000006,1.7040000000000006,0.0,0.0,0.0,55.0,616.79921,10000.0,85.000001,85.000001,85.000001,85.000001,395.0,0.0,0.0,0.0,1.0,166.665,52.856,52.856,47.546,47.546,34.0,-21.12,23.931666666666665,-28.419999999999998,30.0925,0.0,1781.784,-0.4400000000000013,100.0,28.146,28.015,43.614000000000004,43.903999999999996,0.0,1.0,100.0,0.0,0.0,0.0,0.0,2946.375,2965.8,4081.0,4224.5,305.902,305.369,314.968,314.5095,22.0883,20.6803,22.099,21.5721,314.999998,314.999998,324.999988,324.999988,99.55915714285715,99.50715,99.56957142857142,99.54848571428572,0.10650000000000004,-0.036666666666666625,-0.09720000000000006,0.13416666666666677,-0.03833333333332689,-0.04999999999999716,1.5306666666666666,1.534,39.052,30.252000000000002,39.119,35.8255,55.788,35.531,60.163,53.1145,53.72,34.6175,58.715,51.426,52.852999999999994,34.134,58.586,50.827,-0.118,-0.04499999999999993,0.10721000000000001,0.10992500000000001,0.0,219.755,219.785,216.48000000000002,216.48000000000002,190.012512,21.04372
35,0.0,1.0,0.0,1.0,1.0,0.0,0.0,1.0,0.0,100.0,1.0,1.1856,26.0,0.0,0.0,0.0,59.999996,0.0,26.0,26.0,26.0,26.0,0.042874999999999996,0.264,-0.07686666666666667,292.145,-2.7937,-2.6724,-1.5262,-1.5870000000000002,-156.43,215.35750000000002,190.19625,0.0,0.0,0.0,0.0,0.0709333333333334,-5.498166666666667,-5.498166666666667,-0.6784,-0.012499999999999956,-0.012375000000000025,-0.20299999999999985,70.36,0.014100000000000001,-0.22665000000000002,-0.3979999999999997,100.0,1.0,1.0,216.99,0.0,0.0,0.0,0.0,0.0,0.0,0.0,9197.5,0.0,55.0,5.0,253.26999999999998,1.0,0.0,0.0,0.0,0.0,0.0,1.0,0.0,1.7579999999999991,1.7579999999999991,0.0,0.0,1.0,55.0,616.79921,10000.0,85.000001,85.000001,85.000001,85.000001,395.0,0.0,0.0,0.0,1.0,166.665,52.048,52.048,47.256,47.256,34.0,-23.7225,27.13,-26.753333333333334,29.4375,0.0,1781.729,-0.259999999999998,100.0,28.063,28.378,43.391999999999996,43.46,0.0,1.0,100.0,0.0,0.0,0.0,0.0,3081.0,3326.5,4069.3333333333335,4048.3,305.48266666666666,304.321,315.05125,314.9585,22.0979,20.6864,22.1099,21.5817,314.999998,314.999998,324.999988,324.999988,99.55917142857143,99.50715,99.56971428571428,99.54864285714285,0.10150000000000015,-0.03533333333333322,-0.09379999999999988,0.13850000000000007,-0.05333333333332746,-0.05333333333332746,1.56,1.556,39.111999999999995,30.29,39.187,35.8855,55.772,35.573499999999996,60.199,53.175,53.705,34.6565,58.7485,51.4845,52.838,34.1715,58.616,50.8845,-0.10099999999999998,-0.05600000000000005,0.11176000000000001,0.10307000000000001,0.0,220.20499999999998,220.21,216.99,216.99,190.012512,21.04372
