,ABS Active,ABS Enabled,AID Allow Tire Blankets,AID Auto Blip,AID Auto Clutch,AID Auto Shift,AID Fuel Rate,AID Ideal Line,AID Mech Damage,AID Stability,AID Tire Wear Rate,Air Density,Air Temp,Ballast,Best Lap Delta,Best Lap Time,Brake Bias,Brake Pos,Brake Temp FL,Brake Temp FR,Brake Temp RL,Brake Temp RR,CG Accel Lateral,CG Accel Longitudinal,CG Accel Vertical,CG Height,Camber FL,Camber FR,Camber RL,Camber RR,Car Coord X,Car Coord Y,Car Coord Z,Car Damage Front,Car Damage Left,Car Damage Rear,Car Damage Right,Car Pos Norm,Caster FL,Caster FR,Chassis Pitch Angle,Chassis Pitch Rate,Chassis Roll Angle,Chassis Roll Rate,Chassis Velocity X,Chassis Velocity Y,Chassis Velocity Z,Chassis Yaw Rate,Clutch Pos,DRS Active,DRS Available,Drive Train Speed,ERS Heat Charging,ERS Is Charging,ERS Max Energy,ERS Power Level,ERS Recovery Level,Engine Brake Setting,Engine Limiter,Engine RPM,Flags,Fuel Level,Gear,Ground Speed,HR Sample Clock,In Pit,KERS Charge,KERS Deployed Energy,KERS Input,KERS Max Energy,LR Sample Clock,Lap Invalidated,Lap Time,Lap Time2,Last Lap Time,Last Sector Time,MR Sample Clock,Max Fuel,Max Power,Max RPM,Max Sus Travel FL,Max Sus Travel FR,Max Sus Travel RL,Max Sus Travel RR,Max Torque,Max Turbo Boost,Num Tires Off Track,Penalties Enabled,Position,Raw Data Sample Rate,Ride Height FL,Ride Height FR,Ride Height RL,Ride Height RR,Road Temp,Self Align Torque FL,Self Align Torque FR,Self Align Torque RL,Self Align Torque RR,Session Lap Count,Session Time Left,Steering Angle,Surface Grip,Suspension Travel FL,Suspension Travel FR,Suspension Travel RL,Suspension Travel RR,TC Active,TC Enabled,Throttle Pos,Tire Dirt Level FL,Tire Dirt Level FR,Tire Dirt Level RL,Tire Dirt Level RR,Tire Load FL,Tire Load FR,Tire Load RL,Tire Load RR,Tire Loaded Radius FL,Tire Loaded Radius FR,Tire Loaded Radius RL,Tire Loaded Radius RR,Tire Pressure FL,Tire Pressure FR,Tire Pressure RL,Tire Pressure RR,Tire Radius FL,Tire Radius FR,Tire Radius RL,Tire Radius RR,Tire Rubber Grip FL,Tire Rubber Grip FR,Tire Rubber Grip RL,Tire Rubber Grip RR,Tire Slip Angle FL,Tire Slip Angle FR,Tire Slip Angle RL,Tire Slip Angle RR,Tire Slip Ratio FL,Tire Slip Ratio FR,Tire Slip Ratio RL,Tire Slip Ratio RR,Tire Temp Core FL,Tire Temp Core FR,Tire Temp Core RL,Tire Temp Core RR,Tire Temp Inner FL,Tire Temp Inner FR,Tire Temp Inner RL,Tire Temp Inner RR,Tire Temp Middle FL,Tire Temp Middle FR,Tire Temp Middle RL,Tire Temp Middle RR,Tire Temp Outer FL,Tire Temp Outer FR,Tire Temp Outer RL,Tire Temp Outer RR,Toe In FL,Toe In FR,Toe In RL,Toe In RR,Turbo Boost,Wheel Angular Speed FL,Wheel Angular Speed FR,Wheel Angular Speed RL,Wheel Angular Speed RR,Wind Direction,Wind Speed
0,0.0,1.0,0.0,1.0,1.0,0.0,0.0,1.0,0.0,100.0,1.0,1.1856,26.0,0.0,0.0,0.0,59.99999,0.0,26.0,26.0,26.0,26.0,-0.07224999999999993,0.3117000000000001,0.07215,293.976,-2.7201,-2.6563333333333334,-1.5174500000000002,-1.5553333333333332,-275.69,216.2975,190.987625,0.0,0.0,0.0,0.0,0.0015999999999999348,-5.498166666666667,-5.498166666666667,-0.5478000000000001,1.3873333333333333,-0.00550000000000006,-0.5209999999999999,65.48400000000001,-0.0341,-0.213975,0.9540000000000006,100.0,1.0,1.0,202.17333333333335,0.0,0.0,0.0,0.0,0.0,0.0,0.0,8569.4,0.0,55.0,5.0,235.71,0.0,0.0,0.0,0.0,0.0,0.0,0.0,0.0,0.0030000000000001137,0.0030000000000001137,0.0,0.0,0.0,55.0,616.79921,10000.0,85.0,85.0,85.0,85.0,395.0,0.0,0.0,0.0,1.0,20.0,52.765,52.765,49.53,49.53,34.0,-25.3875,23.67,-29.96333333333333,25.16,0.0,1783.528,0.7699999999999996,100.0,27.66,27.051000000000002,40.556,40.547,0.0,1.0,100.0,0.0,0.0,0.0,0.0,2945.714285714286,3359.3,4116.75,4044.6000000000004,305.879,304.154,314.805,314.74575,21.762,20.5073,21.7343,21.2744,314.99999,314.99999,324.99998,324.99998,99.55804285714285,99.50705,99.56381428571429,99.54371428571429,0.008000000000000007,-0.11175000000000002,-0.15166666666666662,0.06333333333333324,-0.051666666666669414,-0.041666666666671404,1.541,1.586,37.012,29.171,36.839,33.965,55.983000000000004,34.334,58.603,51.132,53.928,33.548,57.257,49.510999999999996,53.115,33.149,57.2355,48.940666666666665,-0.016000000000000014,-0.13249999999999984,0.10378000000000001,0.10923000000000001,0.0,205.215,205.14499999999998,202.17333333333335,202.17333333333335,0.0,0.0
1,0.0,1.0,0.0,1.0,1.0,0.0,0.0,1.0,0.0,100.0,1.0,1.1856,26.0,0.0,0.0,0.0,59.999996,0.0,26.0,26.0,26.0,26.0,-0.10312500000000002,0.31310000000000016,0.148325,293.06,-2.6356,-2.764777777777778,-1.52505,-1.55,-272.35,216.29250000000002,190.967375,0.0,0.0,0.0,0.0,0.0035333333333333883,-5.498166666666667,-5.498166666666667,-0.5004000000000001,-0.7330000000000001,-0.055625000000000036,-0.6750000000000003,65.638,-0.0489,-0.194975,1.3800000000000008,100.0,1.0,1.0,202.35,0.0,0.0,0.0,0.0,0.0,0.0,0.0,8576.9,0.0,55.0,5.0,236.26333333333332,1.0,0.0,0.0,0.0,0.0,0.0,0.0,0.0,0.053999999999998494,0.053999999999998494,0.0,0.0,1.0,55.0,616.79921,10000.0,85.000001,85.000001,85.000001,85.000001,395.0,0.0,0.0,0.0,1.0,166.665,53.452,53.452,48.385999999999996,48.385999999999996,34.0,-27.7025,18.158,-33.66,28.9525,0.0,1783.479,0.8900000000000006,100.0,27.608,27.091,42.614000000000004,41.604,0.0,1.0,100.0,0.0,0.0,0.0,0.0,3148.857142857143,2690.1,4322.0,4659.3,305.321,306.284,314.236,313.227,21.7718,20.5124,21.7451,21.2835,314.999998,314.999998,324.999988,324.999988,99.55805714285714,99.50706666666666,99.56397142857143,99.54387142857144,-0.017749999999999932,-0.137,-0.1738333333333334,0.042166666666666686,-0.04333333333332945,-0.060000000000002274,1.4394999999999998,1.4775,37.074,29.202333333333335,36.907,34.0215,55.967,34.3745,58.65,51.198499999999996,53.913,33.585499999999996,57.301,49.5745,53.099000000000004,33.185,57.2765,49.003,-0.0009999999999998899,-0.14849999999999985,0.10717000000000002,0.10963500000000001,0.0,205.655,205.565,202.35000000000002,202.35,0.0,0.0
2,0.0,1.0,0.0,1.0,1.0,0.0,0.0,1.0,0.0,100.0,1.0,1.1856,26.0,0.0,0.0,0.0,59.999996,0.0,26.0,26.0,26.0,26.0,-0.11937500000000001,0.28600000000000003,-0.023200000000000002,293.625,-2.6056,-2.7872222222222223,-1.4925000000000002,-1.6053333333333333,-268.8,216.2825,190.947375,0.0,0.0,0.0,0.0,0.005599999999999938,-5.498166666666667,-5.498166666666667,-0.5516,0.2623333333333333,-0.04499999999999993,1.634,65.789,-0.0704,-0.2539,1.596,100.0,1.0,1.0,203.27666666666667,0.0,0.0,0.0,0.0,0.0,0.0,0.0,8616.2,0.0,55.0,5.0,236.81,0.0,0.0,0.0,0.0,0.0,0.0,0.0,0.0,0.10800000000000054,0.10800000000000054,0.0,0.0,0.0,55.0,616.79921,10000.0,85.000001,85.000001,85.000001,85.000001,395.0,0.0,0.0,0.0,1.0,166.665,52.261,52.261,50.171,50.171,34.0,-30.384999999999998,20.146,-29.4,20.564999999999998,0.0,1783.425,0.75,100.0,28.385,27.156,42.442,41.297,0.0,1.0,100.0,0.0,0.0,0.0,0.0,3384.714285714286,2938.7,3762.125,3735.1,304.518,305.42033333333336,315.6225,315.622,21.7825,20.5176,21.7561,21.2927,314.999998,314.999998,324.999988,324.999988,99.55805714285714,99.50708333333333,99.56411428571428,99.54401428571428,-0.026249999999999885,-0.14374999999999993,-0.22066666666666657,0.010833333333333472,-0.07166666666666544,-0.03999999999999915,1.616,1.6935,37.141,29.235333333333333,36.976,34.079,55.954,34.4165,58.6915,51.260999999999996,53.900999999999996,33.6245,57.34,49.6345,53.086,33.222,57.312,49.06166666666667,-0.020499999999999963,-0.12950000000000017,0.102675,0.10699000000000002,0.0,206.17000000000002,206.005,203.27666666666667,203.27666666666667,0.0,0.0
3,0.0,1.0,0.0,1.0,1.0,0.0,0.0,1.0,0.0,100.0,1.0,1.1856,26.0,0.0,0.0,0.0,59.999996,0.0,26.0,26.0,26.0,26.0,-0.13712499999999994,0.30010000000000003,0.07725,293.381,-2.7244,-2.6926666666666668,-1.5115500000000002,-1.5931111111111111,-265.83,216.2725,190.930125,0.0,0.0,0.0,0.0,0.007333333333333303,-5.498166666666667,-5.498166666666667,-0.511,0.3906666666666666,-0.009250000000000203,0.29499999999999993,65.923,-0.08320000000000001,-0.20185,1.17,100.0,1.0,1.0,203.39666666666668,0.0,0.0,0.0,0.0,0.0,0.0,0.0,8621.3,0.0,55.0,5.0,237.29333333333335,1.0,0.0,0.0,0.0,0.0,0.0,0.0,0.0,0.1529999999999987,0.1529999999999987,0.0,0.0,1.0,55.0,616.79921,10000.0,85.000001,85.000001,85.000001,85.000001,395.0,0.0,0.0,0.0,1.0,166.665,53.436,53.436,48.141,48.141,34.0,-25.575,18.542,-34.85666666666667,24.5175,0.0,1783.38,0.629999999999999,100.0,28.081,27.033,42.452,41.384,0.0,1.0,100.0,0.0,0.0,0.0,0.0,2847.4285714285716,2894.1,4290.125,4242.3,306.0815,305.62533333333334,314.30725,314.33725,21.7911,20.5222,21.7653,21.3005,314.999998,314.999998,324.999988,324.999988,99.55805714285714,99.5071,99.56424285714286,99.54414285714286,-0.018999999999999906,-0.15349999999999997,-0.20966666666666656,0.011666666666666714,-0.046666666666666856,-0.04333333333332945,1.4885000000000002,1.5354999999999999,37.194,29.263666666666666,37.033,34.128,55.94,34.454499999999996,58.7275,51.317499999999995,53.888,33.659,57.3735,49.689,53.072,33.2555,57.3435,49.11533333333333,-0.030999999999999917,-0.12199999999999989,0.109475,0.10409500000000001,0.0,206.595,206.47500000000002,203.39666666666668,203.39666666666668,0.0,0.0
4,0.0,1.0,0.0,1.0,1.0,0.0,0.0,1.0,0.0,100.0,1.0,1.1856,26.0,0.0,0.0,0.0,59.999996,0.0,26.0,26.0,26.0,26.0,-0.135625,0.29780000000000006,-0.032275,293.61,-2.6628,-2.739111111111111,-1.5278,-1.5965555555555557,-262.47,216.2575,190.910375,0.0,0.0,0.0,0.0,0.009266666666666534,-5.498166666666667,-5.498166666666667,-0.5452,-0.7743333333333333,-0.0767500000000001,-1.7800000000000002,66.07,-0.083,-0.23815,1.152000000000001,100.0,1.0,1.0,203.96666666666667,0.0,0.0,0.0,0.0,0.0,0.0,0.0,8645.4,0.0,55.0,5.0,237.82666666666665,0.0,0.0,0.0,0.0,0.0,0.0,0.0,0.0,0.20400000000000063,0.20400000000000063,0.0,0.0,0.0,55.0,616.79921,10000.0,85.000001,85.000001,85.000001,85.000001,395.0,0.0,0.0,0.0,1.0,333.33500000000004,53.024,53.024,48.766999999999996,48.766999999999996,34.0,-29.295,19.122,-32.370000000000005,21.0625,0.0,1783.327,0.620000000000001,100.0,27.743,26.922,42.76,41.481,0.0,1.0,100.0,0.0,0.0,0.0,0.0,3245.714285714286,2889.8,4100.5,3684.0,305.097,305.48,314.801,315.62425,21.8007,20.5273,21.7759,21.3093,314.999998,314.999998,324.999988,324.999988,99.55805714285714,99.50711666666666,99.56438571428572,99.54427142857143,-0.027499999999999858,-0.15200000000000002,-0.20199999999999996,0.02183333333333337,-0.05333333333332746,-0.03166666666666629,1.5785,1.601,37.254999999999995,29.295333333333332,37.099000000000004,34.183,55.923,34.496,58.771,51.3785,53.870999999999995,33.6975,57.414,49.747,53.055,33.292,57.381,49.172,-0.028000000000000025,-0.12300000000000022,0.10549000000000001,0.10535000000000001,0.0,206.97,206.87,203.96666666666667,203.96666666666667,0.0,0.0
5,0.0,1.0,0.0,1.0,1.0,0.0,0.0,1.0,0.0,100.0,1.0,1.1856,26.0,0.0,0.0,0.0,59.999996,0.0,26.0,26.0,26.0,26.0,-0.131625,0.3107,-0.00825,293.655,-2.6656,-2.767777777777778,-1.50785,-1.587777777777778,-259.09,216.24,190.89,0.0,0.0,0.0,0.0,0.011233333333333317,-5.498166666666667,-5.498166666666667,-0.5369,0.482,-0.08187500000000014,1.149,66.218,-0.0873,-0.21515,1.0700000000000003,100.0,1.0,1.0,204.36333333333334,0.0,0.0,0.0,0.0,0.0,0.0,0.0,8662.1,0.0,55.0,5.0,238.35333333333335,1.0,0.0,0.0,0.0,0.0,0.0,0.0,0.0,0.254999999999999,0.254999999999999,0.0,0.0,1.0,55.0,616.79921,10000.0,85.000001,85.000001,85.000001,85.000001,395.0,0.0,0.0,0.0,1.0,166.665,53.421,53.421,49.025999999999996,49.025999999999996,34.0,-27.0375,19.726,-32.61333333333333,23.2725,0.0,1783.278,0.23499999999999943,100.0,27.988,26.661,42.597,41.055,0.0,1.0,100.0,0.0,0.0,0.0,0.0,3085.857142857143,2842.3,4136.75,4092.1000000000004,305.361,305.8516666666667,314.74575,314.7305,21.8107,20.5324,21.7863,21.318,314.999998,314.999998,324.999988,324.999988,99.55805714285714,99.50713333333333,99.56452857142857,99.54441428571428,-0.005249999999999977,-0.12749999999999995,-0.20399999999999996,0.013500000000000068,-0.061666666666667425,-0.05833333333333002,1.5579999999999998,1.5945,37.317,29.327333333333335,37.164,34.2375,55.91,34.537,58.8125,51.4375,53.858000000000004,33.735,57.453,49.8035,53.042,33.328,57.417,49.227333333333334,-0.052000000000000046,-0.09200000000000008,0.096725,0.10896000000000002,0.0,207.51,207.385,204.36333333333334,204.36333333333334,0.0,0.0
6,0.0,1.0,0.0,1.0,1.0,0.0,0.0,1.0,0.0,100.0,1.0,1.1856,26.0,0.0,0.0,0.0,59.999996,0.0,26.0,26.0,26.0,26.0,-0.11562499999999998,0.2923,0.013625,293.442,-2.635,-2.744222222222222,-1.5511,-1.5832222222222223,-255.91,216.22,190.87075,0.0,0.0,0.0,0.0,0.0131,-5.498166666666667,-5.498166666666667,-0.5321,0.08533333333333337,-0.06349999999999989,0.8539999999999999,66.356,-0.08310000000000001,-0.216375,0.6959999999999997,100.0,1.0,1.0,204.7866666666667,0.0,0.0,0.0,0.0,0.0,0.0,0.0,8680.2,0.0,55.0,5.0,238.85000000000002,0.0,0.0,0.0,0.0,0.0,0.0,0.0,0.0,0.3030000000000008,0.3030000000000008,0.0,0.0,0.0,55.0,616.79921,10000.0,85.000001,85.000001,85.000001,85.000001,395.0,0.0,0.0,0.0,1.0,333.33500000000004,53.07,53.07,48.782,48.782,34.0,-26.557499999999997,21.284,-32.72666666666666,23.48,0.0,1783.229,0.06500000000000128,100.0,27.888,26.735,42.765,41.439,0.0,1.0,100.0,0.0,0.0,0.0,0.0,3125.5714285714284,2997.5,4064.5,4042.0,305.2315,305.32466666666664,314.906,314.8445,21.8199,20.5372,21.7961,21.3264,314.999998,314.999998,324.999988,324.999988,99.55807142857142,99.50715,99.56467142857143,99.54454285714286,0.010000000000000231,-0.11649999999999994,-0.2071666666666666,0.02416666666666667,-0.02833333333332888,-0.04999999999999716,1.5459999999999998,1.5775,37.375,29.357333333333333,37.226,34.29,55.896,34.575,58.8515,51.497,53.845,33.769999999999996,57.4895,49.8605,53.028,33.361000000000004,57.451,49.283,-0.06899999999999995,-0.08099999999999996,0.11146500000000001,0.10906,0.0,207.86,207.8,204.7866666666667,204.7866666666667,0.0,0.0
7,0.0,1.0,0.0,1.0,1.0,0.0,0.0,1.0,0.0,100.0,1.0,1.1856,26.0,0.0,0.0,0.0,59.999996,0.0,26.0,26.0,26.0,26.0,-0.076125,0.2883,0.051025,293.198,-2.6081,-2.7335555555555557,-1.51305,-1.6263333333333332,-252.32,216.195,190.849125,0.0,0.0,0.0,0.0,0.01516666666666655,-5.498166666666667,-5.498166666666667,-0.5346000000000001,0.05166666666666664,-0.05025000000000013,1.213,66.51,-0.06520000000000001,-0.224225,0.3279999999999994,100.0,1.0,1.0,205.23333333333335,0.0,0.0,0.0,0.0,0.0,0.0,0.0,8699.1,0.0,55.0,5.0,239.40666666666667,1.0,0.0,0.0,0.0,0.0,0.0,0.0,0.0,0.3569999999999993,0.3569999999999993,0.0,0.0,1.0,55.0,616.79921,10000.0,85.000001,85.000001,85.000001,85.000001,395.0,0.0,0.0,0.0,1.0,166.665,52.78,52.78,48.813,48.813,34.0,-25.8975,23.052,-29.986666666666665,25.6625,0.0,1783.175,-0.21499999999999986,100.0,28.012999999999998,26.845,42.809,41.714,0.0,1.0,100.0,0.0,0.0,0.0,0.0,3164.5714285714284,3036.4,4027.875,4087.3,305.025,305.16266666666667,314.9435,314.669,21.8303,20.5426,21.8072,21.3358,314.999998,314.999998,324.999988,324.999988,99.55807142857142,99.50715,99.56481428571429,99.5447,0.03125,-0.08050000000000002,-0.1658333333333334,0.0451666666666668,-0.051666666666669414,-0.07000000000000028,1.5394999999999999,1.551,37.44,29.391333333333336,37.295,34.3485,55.881,34.617,58.8955,51.563,53.831,33.8085,57.5305,49.924,53.013,33.397999999999996,57.4885,49.345333333333336,-0.08650000000000002,-0.052000000000000046,0.10043500000000001,0.09999500000000001,0.0,208.345,208.3,205.23333333333335,205.23333333333335,0.0,0.0
8,0.0,1.0,0.0,1.0,1.0,0.0,0.0,1.0,0.0,100.0,1.0,1.1856,26.0,0.0,0.0,0.0,59.999996,0.0,26.0,26.0,26.0,26.0,-0.03662500000000002,0.2995000000000001,0.039875,293.427,-2.6952,-2.7175555555555557,-1.498,-1.5527777777777778,-249.13,216.17000000000002,190.82975,0.0,0.0,0.0,0.0,0.017033333333333345,-5.498166666666667,-5.498166666666667,-0.5353,-0.5636666666666668,-0.03224999999999989,0.8260000000000001,66.648,-0.046400000000000004,-0.21425000000000002,-0.05999999999999961,100.0,1.0,1.0,205.59333333333333,0.0,0.0,0.0,0.0,0.0,0.0,0.0,8714.4,0.0,55.0,5.0,239.90333333333334,0.0,0.0,0.0,0.0,0.0,0.0,0.0,0.0,0.40500000000000114,0.40500000000000114,0.0,0.0,0.0,55.0,616.79921,10000.0,85.000001,85.000001,85.000001,85.000001,395.0,0.0,0.0,0.0,1.0,166.665,53.665,53.665,48.08,48.08,34.0,-23.1675,22.792,-30.119999999999997,27.3225,0.0,1783.128,-0.34999999999999787,100.0,27.527,26.759,42.778999999999996,41.85,0.0,1.0,100.0,0.0,0.0,0.0,0.0,2912.0,2999.6,4143.25,4180.6,305.963,305.3523333333333,314.61625,314.44775,21.8394,20.5475,21.817,21.3442,314.999998,314.999998,324.999988,324.999988,99.55807142857142,99.50716666666666,99.56494285714285,99.54482857142857,0.052999999999999936,-0.07350000000000001,-0.14849999999999997,0.07966666666666677,-0.045000000000001705,-0.060000000000002274,1.5164999999999997,1.5105,37.495999999999995,29.421666666666667,37.355999999999995,34.400999999999996,55.866,34.653,58.934,51.6215,53.816,33.842,57.5665,49.980000000000004,52.997,33.4295,57.522,49.4,-0.10199999999999987,-0.04700000000000015,0.10260000000000001,0.11064500000000001,0.0,208.72500000000002,208.735,205.59333333333333,205.59333333333333,0.0,0.0
9,0.0,1.0,0.0,1.0,1.0,0.0,0.0,1.0,0.0,100.0,1.0,1.1856,26.0,0.0,0.0,0.0,59.999996,0.0,26.0,26.0,26.0,26.0,-0.028124999999999956,0.28269999999999995,0.0287,293.167,-2.6844,-2.722,-1.5547,-1.5535555555555556,-245.93,216.14499999999998,190.809875,0.0,0.0,0.0,0.0,0.018899999999999917,-5.498166666666667,-5.498166666666667,-0.5439,0.602,-0.032500000000000195,0.734,66.781,-0.0281,-0.2177,-0.1639999999999997,100.0,1.0,1.0,206.13666666666666,0.0,0.0,0.0,0.0,0.0,0.0,0.0,8737.4,0.0,55.0,5.0,240.38333333333333,1.0,0.0,0.0,0.0,0.0,0.0,0.0,0.0,0.4529999999999994,0.4529999999999994,0.0,0.0,1.0,55.0,616.79921,10000.0,85.000001,85.000001,85.000001,85.000001,395.0,0.0,0.0,0.0,1.0,166.665,52.414,52.414,49.164,49.164,34.0,-25.8325,24.778,-27.740000000000002,26.7225,0.0,1783.08,-0.47499999999999787,100.0,27.938,27.2,42.407,41.859,0.0,1.0,100.0,0.0,0.0,0.0,0.0,3284.285714285714,3112.3,3951.625,4056.6000000000004,304.7935,304.9313333333333,315.2155,314.81825,21.8485,20.5525,21.8267,21.3525,314.999998,314.999998,324.999988,324.999988,99.55808571428571,99.50718333333333,99.56508571428571,99.54495714285714,0.07074999999999987,-0.052999999999999936,-0.12816666666666665,0.09349999999999992,-0.045000000000001705,-0.04833333333333201,1.581,1.574,37.553,29.453333333333333,37.417,34.453,55.854,34.6905,58.9695,51.6785,53.805,33.876,57.5995,50.035,52.985,33.4625,57.552,49.45366666666666,-0.11450000000000005,-0.039000000000000146,0.10598,0.107785,0.0,209.16,209.16,206.13666666666666,206.13666666666666,0.0,0.0
10,0.0,1.0,0.0,1.0,1.0,0.0,0.0,1.0,0.0,100.0,1.0,1.1856,26.0,0.0,0.0,0.0,59.999996,0.0,26.0,26.0,26.0,26.0,0.008375000000000021,0.28990000000000005,0.0013000000000000002,292.923,-2.6625,-2.699222222222222,-1.5351,-1.534888888888889,-242.51999999999998,216.115,190.789125,0.0,0.0,0.0,0.0,0.02086666666666659,-5.498166666666667,-5.498166666666667,-0.5167,-0.31966666666666677,0.006249999999999867,0.34399999999999986,66.928,-0.009000000000000001,-0.20550000000000002,-0.45199999999999996,100.0,1.0,1.0,206.37,0.0,0.0,0.0,0.0,0.0,0.0,0.0,8747.3,0.0,55.0,5.0,240.91,0.0,0.0,0.0,0.0,0.0,0.0,1.0,0.0,0.5040000000000013,0.5040000000000013,0.0,0.0,0.0,55.0,616.79921,10000.0,85.000001,85.000001,85.000001,85.000001,395.0,0.0,0.0,0.0,1.0,166.665,53.436,53.436,47.562,47.562,34.0,-21.4775,22.842,-30.78,29.4425,0.0,1783.029,-0.6149999999999984,100.0,27.712,27.376,42.775,42.738,0.0,1.0,100.0,0.0,0.0,0.0,0.0,2897.285714285714,2858.7,4341.25,4276.4,306.053,305.579,314.23375,314.14225,21.8581,20.5578,21.8372,21.3616,314.999998,314.999998,324.999988,324.999988,99.55808571428571,99.50718333333333,99.56522857142858,99.5451,0.08424999999999994,-0.041999999999999926,-0.11849999999999994,0.10433333333333339,-0.03166666666666629,-0.041666666666671404,1.4859999999999998,1.4695,37.613,29.486,37.483000000000004,34.51,55.842,34.7275,59.012,51.7445,53.794,33.9105,57.638999999999996,50.098,52.973,33.495,57.588499999999996,49.51566666666667,-0.127,-0.02450000000000019,0.10997000000000001,0.10244500000000001,0.0,209.59,209.615,206.37,206.37,0.0,0.0
11,0.0,1.0,0.0,1.0,1.0,0.0,0.0,1.0,0.0,100.0,1.0,1.1856,26.0,0.0,0.0,0.0,59.999996,0.0,26.0,26.0,26.0,26.0,0.024124999999999952,0.27570000000000006,-0.06705,293.503,-2.7073,-2.6855555555555557,-1.59165,-1.523777777777778,-239.1,216.09,190.7685,0.0,0.0,0.0,0.0,0.022599999999999953,-5.498166666666667,-5.498166666666667,-0.5602,-0.2843333333333333,0.034624999999999906,0.369,67.06700000000001,0.0119,-0.2371,-0.6479999999999997,100.0,1.0,1.0,207.10666666666668,0.0,0.0,0.0,0.0,0.0,0.0,0.0,8778.5,0.0,55.0,5.0,241.41333333333336,1.0,0.0,0.0,0.0,0.0,0.0,1.0,0.0,0.5549999999999997,0.5549999999999997,0.0,0.0,1.0,55.0,616.79921,10000.0,85.000001,85.000001,85.000001,85.000001,395.0,0.0,0.0,0.0,1.0,333.33500000000004,52.872,52.872,49.254999999999995,49.254999999999995,34.0,-21.99,26.662,-23.933333333333337,27.095,0.0,1782.977,-0.6449999999999996,100.0,27.553,27.417,42.394,42.604,0.0,1.0,100.0,0.0,0.0,0.0,0.0,2995.142857142857,3185.6,3678.375,3886.0,305.6785,304.71633333333335,315.8985,315.19675,21.8675,20.5632,21.8475,21.3705,314.999998,314.999998,324.999988,324.999988,99.5581,99.50718333333333,99.56537142857142,99.54524285714285,0.10450000000000026,-0.01649999999999996,-0.08933333333333338,0.14050000000000007,-0.045000000000001705,-0.06333333333333258,1.6360000000000001,1.621,37.672,29.519666666666666,37.547,34.566,55.828,34.7655,59.048,51.8055,53.78,33.945499999999996,57.672,50.157,52.959,33.5285,57.619,49.57366666666667,-0.123,-0.03000000000000025,0.10306000000000001,0.10462,0.0,210.0,210.05,207.10666666666668,207.10666666666668,0.0,0.0
12,0.0,1.0,0.0,1.0,1.0,0.0,0.0,1.0,0.0,100.0,1.0,1.1856,26.0,0.0,0.0,0.0,59.999996,0.0,26.0,26.0,26.0,26.0,0.04812499999999997,0.2895000000000001,0.0091,292.969,-2.7588,-2.6844444444444444,-1.55255,-1.5247777777777778,-235.88,216.065,190.74775,0.0,0.0,0.0,0.0,0.025466666666666526,-5.498166666666667,-5.498166666666667,-0.546,0.2836666666666666,0.01924999999999999,0.635,67.20400000000001,0.029900000000000003,-0.2064,-0.7699999999999996,100.0,1.0,1.0,207.31,0.0,0.0,0.0,0.0,0.0,0.0,0.0,8787.2,0.0,55.0,5.0,241.90333333333334,0.0,0.0,0.0,0.0,0.0,0.0,1.0,0.0,0.602999999999998,0.602999999999998,0.0,0.0,0.0,55.0,616.79921,10000.0,85.000001,85.000001,85.000001,85.000001,395.0,0.0,0.0,0.0,1.0,333.33500000000004,52.872,52.872,47.943,47.943,34.0,-21.5675,26.95,-26.799999999999997,31.4175,0.0,1782.929,-0.6550000000000011,100.0,27.451,27.527,42.296,42.445,0.0,1.0,100.0,0.0,0.0,0.0,0.0,3017.857142857143,3194.0,4173.125,4221.5,305.6235,304.722,314.643,314.41375,21.8765,20.5683,21.8572,21.3789,314.999998,314.999998,324.999988,324.999988,99.55811428571428,99.5072,99.5655,99.54538571428571,0.1299999999999999,-0.010499999999999954,-0.0688333333333333,0.15983333333333327,-0.041666666666671404,-0.07666666666666799,1.5314999999999999,1.507,37.727999999999994,29.552,37.607,34.618,55.817,34.8015,59.085,51.864,53.769,33.9785,57.7065,50.213,52.947,33.5605,57.6505,49.62866666666667,-0.12850000000000006,-0.027000000000000135,0.10946000000000002,0.10712500000000001,0.0,210.445,210.51999999999998,207.31,207.31,0.0,0.0
13,0.0,1.0,0.0,1.0,1.0,0.0,0.0,1.0,0.0,100.0,1.0,1.1856,26.0,0.0,0.0,0.0,59.999996,0.0,26.0,26.0,26.0,26.0,0.08099999999999996,0.28790000000000004,0.054325000000000005,292.572,-2.7352,-2.674666666666667,-1.58945,-1.5073333333333332,-232.24,216.0375,190.72475,0.0,0.0,0.0,0.0,0.026833333333333376,-5.498166666666667,-5.498166666666667,-0.5388000000000001,-0.06499999999999995,0.024499999999999966,1.063,67.355,0.0392,-0.214925,-0.8620000000000001,100.0,1.0,1.0,207.71666666666667,0.0,0.0,0.0,0.0,0.0,0.0,0.0,8804.4,0.0,55.0,5.0,242.45,1.0,0.0,0.0,0.0,0.0,0.0,1.0,0.0,0.657,0.657,0.0,0.0,1.0,55.0,616.79921,10000.0,85.000001,85.000001,85.000001,85.000001,395.0,0.0,0.0,0.0,1.0,166.665,52.521,52.521,47.928,47.928,34.0,-20.7075,28.046,-26.383333333333333,32.894999999999996,0.0,1782.876,-0.8350000000000009,100.0,27.775,27.744,42.548,42.952,0.0,1.0,100.0,0.0,0.0,0.0,0.0,3050.4285714285716,3187.3,4131.0,4361.7,305.4925,304.72866666666664,314.71125,314.0545,21.8866,20.5741,21.8682,21.3886,314.999998,314.999998,324.999988,324.999988,99.55814285714285,99.5072,99.56565714285715,99.54554285714286,0.15174999999999983,0.019000000000000128,-0.05466666666666664,0.16500000000000004,-0.030000000000001137,-0.05833333333333002,1.505,1.4775,37.791,29.58833333333333,37.676,34.679,55.807,34.8425,59.126999999999995,51.9335,53.759,34.016,57.746,50.28,52.936,33.5965,57.6865,49.694,-0.14900000000000002,-0.010499999999999954,0.103415,0.100415,0.0,210.89,210.95499999999998,207.71666666666667,207.71666666666667,0.0,0.0
14,0.0,1.0,0.0,1.0,1.0,0.0,0.0,1.0,0.0,100.0,1.0,1.1856,26.0,0.0,0.0,0.0,59.999996,0.0,26.0,26.0,26.0,26.0,0.0867500000000001,0.26859999999999995,-0.00995,292.831,-2.7337,-2.620111111111111,-1.6306500000000002,-1.5133333333333332,-229.01,216.015,190.70475,0.0,0.0,0.0,0.0,0.02873333333333339,-5.498166666666667,-5.498166666666667,-0.5479,-0.1346666666666667,0.05162500000000003,1.362,67.486,0.049,-0.22725,-1.0220000000000002,100.0,1.0,1.0,208.21,0.0,0.0,0.0,0.0,0.0,0.0,0.0,8825.2,0.0,55.0,5.0,242.92333333333335,0.0,0.0,0.0,0.0,0.0,0.0,1.0,0.0,0.7049999999999983,0.7049999999999983,0.0,0.0,0.0,55.0,616.79921,10000.0,85.000001,85.000001,85.000001,85.000001,395.0,0.0,0.0,0.0,1.0,166.665,52.673,52.673,48.126,48.126,34.0,-19.405,28.576,-25.32,32.5475,0.0,1782.828,-0.9600000000000009,100.0,27.681,27.794,42.506,43.147999999999996,0.0,1.0,100.0,0.0,0.0,0.0,0.0,2930.285714285714,3246.0,3976.75,4220.1,305.836,304.56766666666664,315.1285,314.4115,21.8956,20.5793,21.878,21.397199999999998,314.999998,314.999998,324.999988,324.999988,99.55815714285714,99.5072,99.5658,99.54567142857142,0.16049999999999986,0.02950000000000008,-0.0508333333333334,0.1851666666666667,-0.045000000000001705,-0.046666666666666856,1.5545,1.511,37.847,29.620666666666665,37.736999999999995,34.7325,55.798,34.878,59.1625,51.994,53.751000000000005,34.0495,57.778999999999996,50.338,52.926,33.628,57.717,49.751,-0.15399999999999991,0.0004999999999999449,0.10757000000000001,0.115515,0.0,211.305,211.35500000000002,208.21,208.21,0.0,0.0
15,0.0,1.0,0.0,1.0,1.0,0.0,0.0,1.0,0.0,100.0,1.0,1.1856,26.0,0.0,0.0,0.0,59.999996,0.0,26.0,26.0,26.0,26.0,0.10725000000000007,0.2774000000000001,0.007125,292.862,-2.7096999999999998,-2.5754444444444444,-1.62945,-1.4525555555555556,-225.76,215.995,190.684375,0.0,0.0,0.0,0.0,0.03059999999999996,-5.498166666666667,-5.498166666666667,-0.5394,0.32566666666666666,0.08299999999999996,1.15,67.618,0.0626,-0.20850000000000002,-1.202,100.0,1.0,1.0,208.60000000000002,0.0,0.0,0.0,0.0,0.0,0.0,0.0,8841.7,0.0,55.0,5.0,243.39666666666665,1.0,0.0,0.0,0.0,0.0,0.0,1.0,0.0,0.7530000000000001,0.7530000000000001,0.0,0.0,1.0,55.0,616.79921,10000.0,85.000001,85.000001,85.000001,85.000001,395.0,0.0,0.0,0.0,1.0,333.33500000000004,52.856,52.856,48.233000000000004,48.233000000000004,34.0,-17.87,28.252,-24.096666666666664,33.64,0.0,1782.779,-0.9649999999999999,100.0,27.667,27.852,42.265,43.219,0.0,1.0,100.0,0.0,0.0,0.0,0.0,2799.857142857143,3226.0,3935.625,4381.8,306.195,304.62033333333335,315.24325,314.052,21.9045,20.5845,21.8876,21.4057,314.999998,314.999998,324.999988,324.999988,99.55817142857143,99.50721666666666,99.56592857142857,99.54581428571429,0.16975000000000007,0.03550000000000009,-0.03249999999999997,0.19500000000000006,-0.04333333333332945,-0.05666666666667197,1.5495,1.5205,37.903,29.653333333333336,37.798,34.786,55.789,34.915,59.197,52.0545,53.742999999999995,34.0835,57.8105,50.3965,52.917,33.661,57.7455,49.80833333333334,-0.15249999999999986,0.0015000000000000568,0.10569500000000001,0.11447500000000001,0.0,211.70499999999998,211.8,208.60000000000002,208.60000000000002,0.0,0.0
16,0.0,1.0,0.0,1.0,1.0,0.0,0.0,1.0,0.0,100.0,1.0,1.1856,26.0,0.0,0.0,0.0,59.999996,0.0,26.0,26.0,26.0,26.0,0.11662499999999998,0.27570000000000006,-0.018325,292.847,-2.8048,-2.5852222222222223,-1.5993,-1.5147777777777778,-222.11,215.97750000000002,190.661125,0.0,0.0,0.0,0.0,0.03273333333333339,-5.498166666666667,-5.498166666666667,-0.5608000000000001,-0.6986666666666668,0.06862499999999994,0.15399999999999991,67.767,0.0767,-0.22510000000000002,-1.2400000000000002,100.0,1.0,1.0,209.05666666666667,0.0,0.0,0.0,0.0,0.0,0.0,0.0,8861.2,0.0,55.0,5.0,243.93333333333334,0.0,0.0,0.0,0.0,0.0,0.0,1.0,0.0,0.8069999999999986,0.8069999999999986,0.0,0.0,0.0,55.0,616.79921,10000.0,85.000001,85.000001,85.000001,85.000001,395.0,0.0,0.0,0.0,1.0,166.665,52.704,52.704,47.913,47.913,34.0,-19.7625,29.48,-22.909999999999997,33.212500000000006,0.0,1782.726,-0.875,100.0,27.273,27.934,42.504,43.397,0.0,1.0,100.0,0.0,0.0,0.0,0.0,2970.5714285714284,3311.4,3920.25,4141.1,305.91,304.383,315.26525,314.533,21.9143,20.5905,21.898600000000002,21.415399999999998,314.999998,314.999998,324.999988,324.999988,99.55818571428571,99.50721666666666,99.56607142857143,99.54597142857143,0.16999999999999993,0.04299999999999993,-0.02083333333333337,0.21066666666666678,-0.041666666666671404,-0.054999999999999716,1.5795,1.519,37.964,29.690333333333335,37.866,34.8465,55.775999999999996,34.957499999999996,59.2385,52.122,53.730000000000004,34.1225,57.8495,50.4615,52.903,33.698499999999996,57.781,49.87266666666667,-0.15049999999999986,-0.01100000000000012,0.109465,0.108435,0.0,212.13,212.22500000000002,209.05666666666667,209.05666666666667,0.0,0.0
17,0.0,1.0,0.0,1.0,1.0,0.0,0.0,1.0,0.0,100.0,1.0,1.1856,26.0,0.0,0.0,0.0,59.999996,0.0,26.0,26.0,26.0,26.0,0.1236250000000001,0.29690000000000016,-0.0322,292.572,-2.7625,-2.567,-1.6400000000000001,-1.4763333333333333,-218.85,215.9625,190.639875,0.0,0.0,0.0,0.0,0.034633333333333294,-5.498166666666667,-5.498166666666667,-0.5501,0.5469999999999999,0.04974999999999996,0.673,67.897,0.0794,-0.20595000000000002,-1.1639999999999997,100.0,1.0,1.0,209.43666666666667,0.0,0.0,0.0,0.0,0.0,0.0,0.0,8877.2,0.0,55.0,5.0,244.4,1.0,0.0,0.0,0.0,0.0,0.0,1.0,0.0,0.8550000000000004,0.8550000000000004,0.0,0.0,1.0,55.0,616.79921,10000.0,85.000001,85.000001,85.000001,85.000001,395.0,0.0,0.0,0.0,1.0,333.33500000000004,52.505,52.505,47.913,47.913,34.0,-19.03,28.052,-24.993333333333332,33.9375,0.0,1782.678,-0.9699999999999989,100.0,27.793,28.232,42.269999999999996,43.314,0.0,1.0,100.0,0.0,0.0,0.0,0.0,2977.857142857143,3155.5,4171.0,4305.9,305.764,304.84766666666667,314.76725,314.27925,21.9232,20.5958,21.9083,21.4239,314.999998,314.999998,324.999988,324.999988,99.55821428571429,99.50721666666666,99.56621428571428,99.54611428571428,0.1825000000000001,0.05075000000000007,-0.016166666666666663,0.20866666666666678,-0.01999999999999602,-0.07000000000000028,1.556,1.5185,38.019999999999996,29.724,37.927,34.8995,55.769999999999996,34.9965,59.272999999999996,52.1815,53.723,34.158500000000004,57.881,50.519,52.894999999999996,33.733000000000004,57.8095,49.929,-0.15399999999999991,-0.0034999999999998366,0.10944000000000001,0.10801000000000001,0.0,212.565,212.67000000000002,209.43666666666667,209.43666666666667,0.0,0.0
18,0.0,1.0,0.0,1.0,1.0,0.0,0.0,1.0,0.0,100.0,1.0,1.1856,26.0,0.0,0.0,0.0,59.999996,0.0,26.0,26.0,26.0,26.0,0.11737500000000001,0.27,-0.018225,292.557,-2.7953,-2.5441111111111114,-1.6528,-1.4231111111111112,-215.59,215.9525,190.61875,0.0,0.0,0.0,0.0,0.03653333333333331,-5.498166666666667,-5.498166666666667,-0.5588000000000001,-0.562,0.07200000000000006,1.146,68.028,0.08120000000000001,-0.22107500000000002,-1.2520000000000007,100.0,1.0,1.0,209.84,0.0,0.0,0.0,0.0,0.0,0.0,0.0,8894.3,0.0,55.0,5.0,244.87333333333333,0.0,0.0,0.0,0.0,0.0,0.0,1.0,0.0,0.9029999999999987,0.9029999999999987,0.0,0.0,0.0,55.0,616.79921,10000.0,85.000001,85.000001,85.000001,85.000001,395.0,0.0,0.0,0.0,1.0,333.33500000000004,52.49,52.49,47.76,47.76,34.0,-18.815,30.4,-23.593333333333334,32.667500000000004,0.0,1782.629,-1.1799999999999997,100.0,27.573,28.045,42.615,43.731,0.0,1.0,100.0,0.0,0.0,0.0,0.0,2964.142857142857,3349.0,3999.375,4213.7,305.8795,304.351,315.1115,314.4555,21.932,20.6011,21.9181,21.4326,314.999998,314.999998,324.999988,324.999988,99.55822857142857,99.50723333333333,99.56634285714286,99.54624285714286,0.19074999999999998,0.06600000000000006,-0.007833333333333359,0.21233333333333326,-0.03333333333333144,-0.05333333333332746,1.5545,1.5055,38.075,29.756666666666668,37.988,34.954,55.760999999999996,35.0345,59.31,52.2435,53.715,34.1935,57.9155,50.5785,52.885,33.7665,57.841,49.98766666666667,-0.16249999999999987,0.010499999999999954,0.10029,0.10472500000000001,0.0,212.925,213.04000000000002,209.84,209.84,0.0,0.0
19,0.0,1.0,0.0,1.0,1.0,0.0,0.0,1.0,0.0,100.0,1.0,1.1856,26.0,0.0,0.0,0.0,59.999996,0.0,26.0,26.0,26.0,26.0,0.159875,0.2936000000000001,0.047900000000000005,291.916,-2.7164,-2.5275555555555558,-1.6745999999999999,-1.4028888888888889,-211.91,215.945,190.594875,0.0,0.0,0.0,0.0,0.038666666666666516,-5.498166666666667,-5.498166666666667,-0.5493,0.8596666666666667,0.08662499999999995,0.988,68.173,0.09240000000000001,-0.21027500000000002,-1.7060000000000004,100.0,1.0,1.0,210.24666666666667,0.0,0.0,0.0,0.0,0.0,0.0,0.0,8911.6,0.0,55.0,5.0,245.39333333333335,1.0,0.0,0.0,0.0,0.0,0.0,1.0,0.0,0.9570000000000007,0.9570000000000007,0.0,0.0,1.0,55.0,616.79921,10000.0,85.000001,85.000001,85.000001,85.000001,395.0,0.0,0.0,0.0,1.0,166.665,51.666,51.666,47.44,47.44,34.0,-17.0325,31.932,-24.36,35.9525,0.0,1782.575,-1.5199999999999996,100.0,28.1,28.666,42.375,43.766999999999996,0.0,1.0,100.0,0.0,0.0,0.0,0.0,2991.857142857143,3414.3,4151.875,4501.2,305.5965,304.00533333333334,314.79725,313.8205,21.9421,20.6073,21.9289,21.4423,314.999998,314.999998,324.999988,324.999988,99.55825714285714,99.50723333333333,99.5665,99.54641428571429,0.22350000000000003,0.08450000000000002,0.00316666666666654,0.22799999999999998,-0.03333333333333144,-0.04833333333333201,1.552,1.488,38.138,29.795333333333332,38.056,35.0145,55.756,35.0815,59.348,52.312,53.709,34.237,57.9505,50.6445,52.878,33.8085,57.873,50.05266666666667,-0.19799999999999995,0.03149999999999986,0.10701000000000001,0.11169000000000001,0.0,213.41,213.54000000000002,210.24666666666667,210.24666666666667,0.0,0.0
20,0.0,1.0,0.0,1.0,1.0,0.0,0.0,1.0,0.0,100.0,1.0,1.1856,26.0,0.0,0.0,0.0,59.999996,0.0,26.0,26.0,26.0,26.0,0.20262500000000006,0.2692000000000001,0.05385,292.252,-2.8277,-2.58,-1.6115,-1.4014444444444443,-208.64,215.94,190.57375,0.0,0.0,0.0,0.0,0.04056666666666653,-5.498166666666667,-5.498166666666667,-0.5526,-1.1983333333333337,0.09949999999999992,0.6579999999999999,68.305,0.1046,-0.21885000000000002,-2.0300000000000002,100.0,1.0,1.0,210.54333333333335,0.0,0.0,0.0,0.0,0.0,0.0,0.0,8924.2,0.0,55.0,5.0,245.87,0.0,0.0,0.0,0.0,0.0,0.0,0.0,0.0,1.004999999999999,1.004999999999999,0.0,0.0,0.0,55.0,616.79921,10000.0,85.000001,85.000001,85.000001,85.000001,395.0,0.0,0.0,0.0,1.0,333.33500000000004,52.841,52.841,46.783,46.783,34.0,-15.322499999999998,31.772,-22.32,37.34,0.0,1782.527,-1.8150000000000013,100.0,27.432,28.396,42.854,44.293,0.0,1.0,100.0,0.0,0.0,0.0,0.0,2741.714285714286,3277.9,4089.75,4487.8,306.596,304.48766666666666,314.7785,313.7545,21.9506,20.6126,21.9388,21.4511,314.999998,314.999998,324.999988,324.999988,99.55828571428572,99.50725,99.56662857142857,99.54655714285714,0.2437499999999999,0.10699999999999998,0.023500000000000076,0.248,-0.03999999999999915,-0.04999999999999716,1.5015,1.43,38.191,29.828666666666663,38.117999999999995,35.0695,55.747,35.122,59.3865,52.3755,53.701,34.2745,57.9865,50.706,52.867999999999995,33.8445,57.9055,50.113,-0.21649999999999991,0.0605,0.10500000000000001,0.10934,0.0,213.76999999999998,213.92000000000002,210.54333333333335,210.54333333333335,0.0,0.0
21,0.0,1.0,0.0,1.0,1.0,0.0,0.0,1.0,0.0,100.0,1.0,1.1856,26.0,0.0,0.0,0.0,59.999996,0.0,26.0,26.0,26.0,26.0,0.2137500000000001,0.27560000000000007,-0.05645,292.618,-2.7457,-2.6273333333333335,-1.6801,-1.4676666666666667,-205.36,215.9425,190.552125,0.0,0.0,0.0,0.0,0.04246666666666654,-5.498166666666667,-5.498166666666667,-0.5812,0.45899999999999996,0.0891249999999999,0.367,68.428,0.12430000000000001,-0.229525,-2.3420000000000005,100.0,1.0,1.0,211.21333333333334,0.0,0.0,0.0,0.0,0.0,0.0,0.0,8952.6,0.0,55.0,5.0,246.31333333333333,1.0,0.0,0.0,0.0,0.0,0.0,0.0,0.0,1.0530000000000008,1.0530000000000008,0.0,0.0,1.0,55.0,616.79921,10000.0,85.000001,85.000001,85.000001,85.000001,395.0,0.0,0.0,0.0,1.0,333.33500000000004,52.109,52.109,48.37,48.37,34.0,-16.12,32.906,-19.99666666666667,34.605000000000004,0.0,1782.479,-1.504999999999999,100.0,27.717,28.656,42.097,43.934,0.0,1.0,100.0,0.0,0.0,0.0,0.0,2922.857142857143,3332.6,3841.0,4092.2,305.857,304.22066666666666,315.58825,314.76475,21.9593,20.6181,21.9483,21.459600000000002,314.999998,314.999998,324.999988,324.999988,99.55831428571429,99.50726666666667,99.56677142857143,99.54668571428572,0.23950000000000005,0.10575000000000001,0.043333333333333224,0.2695000000000001,-0.051666666666669414,-0.07499999999999574,1.6309999999999998,1.561,38.245999999999995,29.863333333333333,38.177,35.1225,55.742000000000004,35.1665,59.417,52.434,53.696,34.316,58.0145,50.7625,52.861999999999995,33.884,57.931,50.16866666666667,-0.1975,0.04499999999999993,0.10375500000000001,0.10677500000000001,0.0,214.17000000000002,214.35000000000002,211.21333333333334,211.21333333333334,0.0,0.0
22,0.0,1.0,0.0,1.0,1.0,0.0,0.0,1.0,0.0,100.0,1.0,1.1856,26.0,0.0,0.0,0.0,59.999996,0.0,26.0,26.0,26.0,26.0,0.18524999999999991,0.26360000000000006,0.0005250000000000001,292.145,-2.7401999999999997,-2.620222222222222,-1.6769500000000002,-1.4562222222222223,-201.66,215.95,190.527,0.0,0.0,0.0,0.0,0.0446333333333333,-5.498166666666667,-5.498166666666667,-0.5573,0.06933333333333336,0.09837499999999988,0.9179999999999999,68.575,0.1433,-0.206875,-1.436,100.0,1.0,1.0,211.42333333333335,0.0,0.0,0.0,0.0,0.0,0.0,0.0,8961.4,0.0,55.0,5.0,246.84333333333336,0.0,0.0,0.0,0.0,0.0,0.0,0.0,0.0,1.1069999999999993,1.1069999999999993,0.0,0.0,0.0,55.0,616.79921,10000.0,85.000001,85.000001,85.000001,85.000001,395.0,0.0,0.0,0.0,1.0,166.665,52.383,52.383,47.15,47.15,34.0,-18.155,28.802,-22.08,38.935,0.0,1782.426,0.129999999999999,100.0,27.713,28.701999999999998,42.462,44.218,0.0,1.0,100.0,0.0,0.0,0.0,0.0,2762.142857142857,3273.0,4117.0,4464.5,306.306,304.381,314.82125,313.87475,21.969,20.624299999999998,21.9593,21.4694,314.999998,314.999998,324.999988,324.999988,99.55832857142858,99.50726666666667,99.56692857142858,99.54685714285715,0.16274999999999995,0.023749999999999938,0.04583333333333317,0.2713333333333332,-0.041666666666671404,-0.05333333333332746,1.5179999999999998,1.4605,38.306,29.901666666666664,38.245999999999995,35.184,55.733000000000004,35.2125,59.459,52.5055,53.687,34.358000000000004,58.0535,50.831,52.852000000000004,33.9245,57.966,50.236000000000004,-0.08299999999999996,-0.07250000000000023,0.10784,0.112835,0.0,214.66,214.76,211.42333333333335,211.42333333333335,0.0,0.0
23,0.0,1.0,0.0,1.0,1.0,0.0,0.0,1.0,0.0,100.0,1.0,1.1856,26.0,0.0,0.0,0.0,59.999996,0.0,26.0,26.0,26.0,26.0,0.10562500000000008,0.2593000000000001,-0.042925000000000005,292.175,-2.7554,-2.5853333333333333,-1.58005,-1.5418888888888889,-198.16,215.9625,190.5035,0.0,0.0,0.0,0.0,0.04666666666666652,-5.498166666666667,-5.498166666666667,-0.5772,-0.17666666666666675,0.06800000000000006,-1.2080000000000002,68.709,0.1131,-0.23420000000000002,0.08999999999999986,100.0,1.0,1.0,211.96,0.0,0.0,0.0,0.0,0.0,0.0,0.0,8984.2,0.0,55.0,5.0,247.32666666666665,1.0,0.0,0.0,0.0,0.0,0.0,0.0,0.0,1.1580000000000013,1.1580000000000013,0.0,0.0,1.0,55.0,616.79921,10000.0,85.000001,85.000001,85.000001,85.000001,395.0,0.0,0.0,0.0,1.0,166.665,51.666,51.666,48.218,48.218,34.0,-24.2175,25.278,-22.24666666666667,32.015,0.0,1782.374,0.7750000000000021,100.0,27.982,28.828,42.608000000000004,44.429,0.0,1.0,100.0,0.0,0.0,0.0,0.0,3208.4285714285716,3176.3,3902.375,3978.3,305.167,304.571,315.34775,314.88975,21.9782,20.6301,21.9697,21.4786,314.999998,314.999998,324.999988,324.999988,99.55835714285715,99.50728333333333,99.56707142857142,99.547,0.10450000000000026,-0.031749999999999945,-0.012499999999999956,0.21066666666666678,-0.045000000000001705,-0.04833333333333201,1.5434999999999999,1.536,38.364000000000004,29.938000000000002,38.31,35.2415,55.722,35.2525,59.4965,52.571,53.676,34.3955,58.088,50.8945,52.84,33.960499999999996,57.9975,50.298,-0.020000000000000018,-0.14250000000000007,0.104105,0.107935,0.0,215.095,215.10500000000002,211.96,211.96,0.0,0.0
24,0.0,1.0,0.0,1.0,1.0,0.0,0.0,1.0,0.0,100.0,1.0,1.1856,26.0,0.0,0.0,0.0,59.999996,0.0,26.0,26.0,26.0,26.0,0.010625000000000107,0.2821,-0.11030000000000001,292.389,-2.7469,-2.628333333333333,-1.5986500000000001,-1.5115555555555558,-195.06,215.975,190.4825,0.0,0.0,0.0,0.0,0.04846666666666655,-5.498166666666667,-5.498166666666667,-0.5783,-0.45566666666666666,0.04962500000000003,0.4119999999999999,68.82900000000001,0.061900000000000004,-0.217725,0.8460000000000001,100.0,1.0,1.0,212.21666666666667,0.0,0.0,0.0,0.0,0.0,0.0,0.0,8995.1,0.0,55.0,5.0,247.75666666666666,0.0,0.0,0.0,0.0,0.0,0.0,0.0,0.0,1.2029999999999994,1.2029999999999994,0.0,0.0,0.0,55.0,616.79921,10000.0,85.000001,85.000001,85.000001,85.000001,395.0,0.0,0.0,0.0,1.0,333.33500000000004,52.887,52.887,47.134,47.134,34.0,-22.5775,22.334,-29.009999999999998,30.2,0.0,1782.328,0.995000000000001,100.0,27.978,28.268,42.958,44.019999999999996,0.0,1.0,100.0,0.0,0.0,0.0,0.0,2839.142857142857,3015.5,4289.75,4133.6,306.1665,305.2823333333333,314.3485,314.6535,21.9863,20.635,21.9789,21.4867,314.999998,314.999998,324.999988,324.999988,99.55837142857143,99.50728333333333,99.5672,99.54714285714286,0.06475000000000009,-0.07125000000000004,-0.07483333333333331,0.15533333333333332,-0.03166666666666629,-0.04833333333333201,1.4865,1.5255,38.414,29.968666666666664,38.367999999999995,35.2915,55.709,35.287,59.5305,52.626,53.664,34.427,58.1195,50.9475,52.827,33.991,58.025999999999996,50.35,0.00550000000000006,-0.16100000000000003,0.11142,0.10643000000000001,0.0,215.515,215.445,212.21666666666667,212.21666666666667,0.0,0.0
25,0.0,1.0,0.0,1.0,1.0,0.0,0.0,1.0,0.0,100.0,1.0,1.1856,26.0,0.0,0.0,0.0,59.999996,0.0,26.0,26.0,26.0,26.0,-0.03574999999999995,0.2602,-0.046,292.404,-2.781,-2.622777777777778,-1.5827,-1.541777777777778,-191.55,215.9875,190.45725,0.0,0.0,0.0,0.0,0.05049999999999999,-5.498166666666667,-5.498166666666667,-0.6137,-0.062000000000000055,0.016124999999999945,-1.851,68.962,-0.004200000000000001,-0.22765000000000002,1.4860000000000007,100.0,1.0,1.0,212.76999999999998,0.0,0.0,0.0,0.0,0.0,0.0,0.0,9018.5,0.0,55.0,5.0,248.23666666666668,1.0,0.0,0.0,0.0,0.0,0.0,0.0,0.0,1.2540000000000013,1.2540000000000013,0.0,0.0,1.0,55.0,616.79921,10000.0,85.000001,85.000001,85.000001,85.000001,395.0,0.0,0.0,0.0,1.0,333.33500000000004,51.987,51.987,47.958,47.958,34.0,-28.927500000000002,21.916,-29.21333333333333,25.302500000000002,0.0,1782.277,1.0549999999999997,100.0,27.953,28.345,42.939,43.46,0.0,1.0,100.0,0.0,0.0,0.0,0.0,3278.0,3193.3,4012.5,3947.3,305.165,304.60266666666666,315.163,315.101,21.9955,20.6406,21.9892,21.4956,314.999998,314.999998,324.999988,324.999988,99.55837142857143,99.5073,99.56734285714286,99.54728571428572,0.012249999999999872,-0.11775000000000002,-0.13783333333333336,0.08516666666666683,-0.060000000000002274,-0.03999999999999915,1.5510000000000002,1.5985,38.472,30.003666666666668,38.432,35.3475,55.693,35.3285,59.567,52.685,53.647999999999996,34.466,58.1535,51.004,52.81,34.028,58.0565,50.406,0.00749999999999984,-0.16749999999999998,0.10871000000000001,0.10724500000000001,0.0,215.95,215.815,212.76999999999998,212.76999999999998,0.0,0.0
26,0.0,1.0,0.0,1.0,1.0,0.0,0.0,1.0,0.0,100.0,1.0,1.1856,26.0,0.0,0.0,0.0,59.999996,0.0,26.0,26.0,26.0,26.0,-0.12149999999999994,0.27059999999999995,0.067425,291.199,-2.6758,-2.7534444444444444,-1.58955,-1.5787777777777778,-188.03,216.0025,190.431375,0.0,0.0,0.0,0.0,0.05256666666666654,-5.498166666666667,-5.498166666666667,-0.5719000000000001,0.8456666666666667,-0.045500000000000096,-0.08099999999999996,69.098,-0.061500000000000006,-0.1955,1.677999999999999,100.0,1.0,1.0,212.94333333333333,0.0,0.0,0.0,0.0,0.0,0.0,0.0,9025.9,0.0,55.0,5.0,248.72333333333336,0.0,0.0,0.0,0.0,0.0,0.0,0.0,0.0,1.3049999999999997,1.3049999999999997,0.0,0.0,0.0,55.0,616.79921,10000.0,85.000001,85.000001,85.000001,85.000001,395.0,0.0,0.0,0.0,1.0,333.33500000000004,51.331,51.331,46.265,46.265,34.0,-28.1925,21.128,-37.70666666666666,27.47,0.0,1782.226,0.8599999999999994,100.0,29.281,28.54,43.922,43.367000000000004,0.0,1.0,100.0,0.0,0.0,0.0,0.0,3236.5714285714284,3086.9,4591.375,4398.2,304.9425,304.94666666666666,313.738,314.05875,22.0051,20.6463,21.9998,21.5047,314.999998,314.999998,324.999988,324.999988,99.55837142857143,99.50731666666667,99.5675,99.54742857142857,0.008500000000000174,-0.14400000000000002,-0.18133333333333335,0.04383333333333317,-0.046666666666666856,-0.05333333333332746,1.4274999999999998,1.484,38.532,30.039666666666665,38.498999999999995,35.4045,55.68,35.3745,59.6095,52.746,53.635999999999996,34.507999999999996,58.1935,51.063,52.797,34.0685,58.0935,50.46366666666667,-0.01749999999999985,-0.1575000000000002,0.105385,0.11723000000000001,0.0,216.425,216.26999999999998,212.94333333333333,212.94333333333333,0.0,0.0
27,0.0,1.0,0.0,1.0,1.0,0.0,0.0,1.0,0.0,100.0,1.0,1.1856,26.0,0.0,0.0,0.0,59.999996,0.0,26.0,26.0,26.0,26.0,-0.13912499999999994,0.25239999999999996,-0.02045,291.519,-2.6139,-2.748222222222222,-1.5602,-1.6733333333333333,-184.70999999999998,216.01,190.40825,0.0,0.0,0.0,0.0,0.05446666666666655,-5.498166666666667,-5.498166666666667,-0.5962000000000001,-1.1186666666666665,-0.06837500000000007,0.43999999999999995,69.22200000000001,-0.0925,-0.24225000000000002,1.5579999999999998,100.0,1.0,1.0,213.4,0.0,0.0,0.0,0.0,0.0,0.0,0.0,9045.2,0.0,55.0,5.0,249.17666666666668,1.0,0.0,0.0,0.0,0.0,0.0,0.0,0.0,1.352999999999998,1.352999999999998,0.0,0.0,1.0,55.0,616.79921,10000.0,85.000001,85.000001,85.000001,85.000001,395.0,0.0,0.0,0.0,1.0,166.665,51.682,51.682,46.661,46.661,34.0,-28.8875,19.694000000000003,-35.093333333333334,24.58,0.0,1782.179,0.7800000000000011,100.0,29.15,28.161,44.934,43.745000000000005,0.0,1.0,100.0,0.0,0.0,0.0,0.0,3232.5714285714284,3054.1,4188.875,4052.0,304.9375,305.199,314.601,314.7545,22.0141,20.6514,22.009900000000002,21.5135,314.999998,314.999998,324.999988,324.999988,99.55838571428572,99.50733333333334,99.56764285714286,99.54757142857143,-0.02124999999999999,-0.16674999999999995,-0.21566666666666656,0.011666666666666714,-0.041666666666671404,-0.060000000000002274,1.4619999999999997,1.5165,38.588,30.071333333333335,38.562,35.459,55.666,35.415,59.6515,52.805,53.623000000000005,34.545500000000004,58.2325,51.1195,52.783,34.104,58.1295,50.51833333333333,-0.024499999999999966,-0.14700000000000024,0.10461500000000001,0.10950000000000001,0.0,216.73000000000002,216.60000000000002,213.4,213.4,0.0,0.0
28,0.0,1.0,0.0,1.0,1.0,0.0,0.0,1.0,0.0,100.0,1.0,1.1856,26.0,0.0,0.0,0.0,59.999996,0.0,26.0,26.0,26.0,26.0,-0.14212499999999995,0.26649999999999996,-0.0318,291.824,-2.6363,-2.740666666666667,-1.50285,-1.6397777777777778,-181.17000000000002,216.01749999999998,190.382875,0.0,0.0,0.0,0.0,0.056533333333333324,-5.498166666666667,-5.498166666666667,-0.6026,0.633,-0.08349999999999991,-0.6750000000000003,69.352,-0.1115,-0.21830000000000002,1.517999999999999,100.0,1.0,1.0,213.92333333333335,0.0,0.0,0.0,0.0,0.0,0.0,0.0,9067.5,0.0,55.0,5.0,249.64,0.0,0.0,0.0,0.0,0.0,0.0,0.0,0.0,1.404,1.404,0.0,0.0,0.0,55.0,616.79921,10000.0,85.000001,85.000001,85.000001,85.000001,395.0,0.0,0.0,0.0,1.0,333.33500000000004,51.697,51.697,47.455,47.455,34.0,-31.1,18.156,-34.879999999999995,22.4025,0.0,1782.128,0.6099999999999994,100.0,29.2,28.158,44.281,43.114000000000004,0.0,1.0,100.0,0.0,0.0,0.0,0.0,3387.5714285714284,2902.7,4175.0,4035.3,304.699,305.46433333333334,314.759,314.8955,22.023699999999998,20.6569,22.0202,21.5223,314.999998,314.999998,324.999988,324.999988,99.55838571428572,99.50735,99.56778571428572,99.54772857142858,-0.03649999999999998,-0.17974999999999997,-0.2383333333333334,-0.012833333333333363,-0.05666666666667197,-0.03833333333332689,1.5124999999999997,1.578,38.647999999999996,30.105333333333334,38.626000000000005,35.5145,55.655,35.4595,59.689,52.8615,53.611999999999995,34.5865,58.268,51.174,52.771,34.143,58.162,50.571333333333335,-0.030999999999999917,-0.13100000000000023,0.105715,0.10562500000000001,0.0,217.18,217.055,213.92333333333335,213.92333333333335,0.0,0.0
29,0.0,1.0,0.0,1.0,1.0,0.0,0.0,1.0,0.0,100.0,1.0,1.1856,26.0,0.0,0.0,0.0,59.999996,0.0,26.0,26.0,26.0,26.0,-0.17562500000000003,0.26370000000000005,0.005925000000000001,291.382,-2.5709999999999997,-2.6946666666666665,-1.54175,-1.6247777777777779,-177.63,216.01999999999998,190.3565,0.0,0.0,0.0,0.0,0.058599999999999985,-5.498166666666667,-5.498166666666667,-0.6086,-0.7590000000000001,-0.08612500000000001,0.71,69.487,-0.1135,-0.21755000000000002,1.1899999999999995,100.0,1.0,1.0,214.15666666666667,0.0,0.0,0.0,0.0,0.0,0.0,0.0,9077.3,0.0,55.0,5.0,250.12666666666667,1.0,0.0,0.0,0.0,0.0,0.0,0.0,0.0,1.4549999999999983,1.4549999999999983,0.0,0.0,1.0,55.0,616.79921,10000.0,85.000001,85.000001,85.000001,85.000001,395.0,0.0,0.0,0.0,1.0,333.33500000000004,51.559,51.559,46.417,46.417,34.0,-29.715,20.188,-36.39,24.255000000000003,0.0,1782.076,0.5,100.0,29.085,27.783,44.866,43.26,0.0,1.0,100.0,0.0,0.0,0.0,0.0,3334.0,3197.4,4311.25,4186.9,304.6625,304.8306666666667,314.282,314.51,22.0332,20.6622,22.0309,21.5315,314.999998,314.999998,324.999988,324.999988,99.55838571428572,99.50736666666667,99.56795714285714,99.54787142857143,-0.02574999999999994,-0.16674999999999995,-0.21983333333333333,0.001000000000000112,-0.04333333333332945,-0.046666666666666856,1.4575,1.505,38.707,30.139,38.693,35.572,55.638999999999996,35.5055,59.736,52.9265,53.597,34.6285,58.3115,51.236000000000004,52.756,34.183,58.2025,50.63166666666667,-0.04499999999999993,-0.11900000000000022,0.099985,0.11125000000000002,0.0,217.54500000000002,217.435,214.15666666666667,214.15666666666667,0.0,0.0
30,0.0,1.0,0.0,1.0,1.0,0.0,0.0,1.0,0.0,100.0,1.0,1.1856,26.0,0.0,0.0,0.0,59.999996,0.0,26.0,26.0,26.0,26.0,-0.16774999999999995,0.2772000000000001,0.040125,291.0,-2.6206,-2.695444444444444,-1.47045,-1.703,-174.29,216.01999999999998,190.3315,0.0,0.0,0.0,0.0,0.06053333333333333,-5.498166666666667,-5.498166666666667,-0.6046,0.7883333333333333,-0.08837500000000009,0.708,69.608,-0.1072,-0.218675,1.0600000000000005,100.0,1.0,1.0,214.57999999999998,0.0,0.0,0.0,0.0,0.0,0.0,0.0,9095.3,0.0,55.0,5.0,250.56333333333333,0.0,0.0,0.0,0.0,0.0,0.0,1.0,0.0,1.5030000000000001,1.5030000000000001,0.0,0.0,0.0,55.0,616.79921,10000.0,85.000001,85.000001,85.000001,85.000001,395.0,0.0,0.0,0.0,1.0,333.33500000000004,50.827,50.827,46.783,46.783,34.0,-30.4925,19.834000000000003,-35.556666666666665,26.305,0.0,1782.028,0.33000000000000185,100.0,29.928,28.447,44.715,43.225,0.0,1.0,100.0,0.0,0.0,0.0,0.0,3446.4285714285716,3071.0,4342.375,4259.6,304.3015,305.05266666666665,314.28825,314.2745,22.0424,20.6675,22.0407,21.5401,314.999998,314.999998,324.999988,324.999988,99.55838571428572,99.5074,99.56808571428571,99.548,-0.006000000000000005,-0.15749999999999997,-0.22150000000000003,0.0071666666666665435,-0.03333333333333144,-0.03999999999999915,1.475,1.5105,38.765,30.172,38.754000000000005,35.6255,55.631,35.5465,59.771,52.9785,53.589,34.6665,58.3445,51.286,52.747,34.2195,58.2325,50.68033333333334,-0.06349999999999989,-0.11149999999999993,0.10663,0.103385,0.0,217.95,217.86,214.57999999999998,214.57999999999998,0.0,0.0
31,0.0,1.0,0.0,1.0,1.0,0.0,0.0,1.0,0.0,100.0,1.0,1.1856,26.0,0.0,0.0,0.0,59.999996,0.0,26.0,26.0,26.0,26.0,-0.12475000000000003,0.26290000000000013,-0.00415,291.0,-2.6915,-2.6718888888888888,-1.5228000000000002,-1.673,-170.53,216.0125,190.30425,0.0,0.0,0.0,0.0,0.06273333333333331,-5.498166666666667,-5.498166666666667,-0.5911000000000001,-0.7686666666666668,-0.07699999999999996,0.6379999999999999,69.748,-0.09230000000000001,-0.22135000000000002,0.6859999999999999,100.0,1.0,1.0,214.91666666666669,0.0,0.0,0.0,0.0,0.0,0.0,0.0,9109.5,0.0,55.0,5.0,251.06666666666666,1.0,0.0,0.0,0.0,0.0,0.0,1.0,0.0,1.5569999999999986,1.5569999999999986,0.0,0.0,1.0,55.0,616.79921,10000.0,85.000001,85.000001,85.000001,85.000001,395.0,0.0,0.0,0.0,1.0,55.55499999999999,51.513999999999996,51.513999999999996,45.532,45.532,34.0,-28.27,20.59,-35.72666666666666,26.865000000000002,0.0,1781.975,0.23000000000000043,100.0,29.503,28.465,45.354,43.838,0.0,1.0,100.0,0.0,0.0,0.0,0.0,3205.857142857143,3136.3,4397.125,4280.5,305.2245,305.103,314.06825,314.3405,22.0525,20.6734,22.052,21.5499,314.999998,314.999998,324.999988,324.999988,99.5584,99.50741666666667,99.56825714285715,99.54815714285715,-0.0022499999999998632,-0.14074999999999993,-0.19433333333333336,0.022333333333333316,-0.051666666666669414,-0.046666666666666856,1.4369999999999998,1.4749999999999999,38.828,30.209,38.825,35.687,55.614999999999995,35.594,59.818,53.0445,53.574,34.71,58.388999999999996,51.349000000000004,52.730999999999995,34.2605,58.2735,50.742,-0.0674999999999999,-0.10050000000000026,0.10074500000000002,0.10325000000000001,0.0,218.35000000000002,218.29000000000002,214.91666666666669,214.91666666666669,0.0,0.0
32,0.0,1.0,0.0,1.0,1.0,0.0,0.0,1.0,0.0,100.0,1.0,1.1856,26.0,0.0,0.0,0.0,59.999996,0.0,26.0,26.0,26.0,26.0,-0.11575000000000002,0.25670000000000015,-0.07005,291.367,-2.6429,-2.7119999999999997,-1.5851000000000002,-1.5793333333333333,-167.18,216.005,190.280125,0.0,0.0,0.0,0.0,0.06466666666666654,-5.498166666666667,-5.498166666666667,-0.6108,0.18733333333333335,-0.0990000000000002,0.22399999999999998,69.867,-0.0796,-0.23085,0.6560000000000006,100.0,1.0,1.0,215.47333333333333,0.0,0.0,0.0,0.0,0.0,0.0,0.0,9133.1,0.0,55.0,5.0,251.49333333333334,0.0,0.0,0.0,0.0,0.0,0.0,1.0,0.0,1.6050000000000004,1.6050000000000004,0.0,0.0,0.0,55.0,616.79921,10000.0,85.000001,85.000001,85.000001,85.000001,395.0,0.0,0.0,0.0,1.0,333.33500000000004,51.193,51.193,46.829,46.829,34.0,-28.38,21.356,-33.26,25.02,0.0,1781.927,0.13500000000000156,100.0,29.543,28.552,44.823,43.574,0.0,1.0,100.0,0.0,0.0,0.0,0.0,3331.857142857143,3086.0,4195.625,4083.0,304.7145,305.067,314.77225,314.924,22.0615,20.6787,22.061799999999998,21.5585,314.999998,314.999998,324.999988,324.999988,99.5584,99.50743333333334,99.5684,99.5483,0.017749999999999932,-0.12724999999999997,-0.1838333333333334,0.04899999999999993,-0.03499999999999659,-0.05666666666667197,1.5394999999999999,1.5625,38.884,30.241999999999997,38.885999999999996,35.7405,55.602999999999994,35.6355,59.854,53.099000000000004,53.562,34.748,58.422,51.4015,52.718,34.2975,58.304,50.793,-0.07099999999999995,-0.09699999999999998,0.10833500000000001,0.11302000000000001,0.0,218.72,218.655,215.47333333333333,215.47333333333333,0.0,0.0
33,0.0,1.0,0.0,1.0,1.0,0.0,0.0,1.0,0.0,100.0,1.0,1.1856,26.0,0.0,0.0,0.0,59.999996,0.0,26.0,26.0,26.0,26.0,-0.09637499999999999,0.26360000000000006,-0.040625,291.382,-2.6417,-2.7472222222222222,-1.5519,-1.594111111111111,-163.82,215.995,190.255125,0.0,0.0,0.0,0.0,0.06663333333333332,-5.498166666666667,-5.498166666666667,-0.6104,-0.31299999999999994,-0.08912500000000012,1.384,69.99000000000001,-0.06770000000000001,-0.215,0.43799999999999883,100.0,1.0,1.0,215.71,0.0,0.0,0.0,0.0,0.0,0.0,0.0,9143.1,0.0,55.0,5.0,251.93666666666667,1.0,0.0,0.0,0.0,0.0,0.0,1.0,0.0,1.6529999999999987,1.6529999999999987,0.0,0.0,1.0,55.0,616.79921,10000.0,85.000001,85.000001,85.000001,85.000001,395.0,0.0,0.0,0.0,1.0,333.33500000000004,51.834,51.834,46.387,46.387,34.0,-26.0075,21.573999999999998,-34.38666666666666,26.905,0.0,1781.879,-0.02499999999999858,100.0,29.326,28.258,44.837,43.657,0.0,1.0,100.0,0.0,0.0,0.0,0.0,3155.0,3012.0,4320.375,4283.1,305.287,305.335,314.37175,314.3415,22.0703,20.6838,22.0717,21.5671,314.999998,314.999998,324.999988,324.999988,99.5584,99.50745,99.56854285714286,99.54844285714286,0.030749999999999833,-0.11424999999999996,-0.1825,0.045666666666666744,-0.03833333333332689,-0.045000000000001705,1.4785,1.503,38.94,30.274,38.948,35.7945,55.589,35.673,59.891999999999996,53.156,53.55,34.783,58.458,51.456,52.705,34.3305,58.3365,50.846000000000004,-0.08999999999999986,-0.08199999999999985,0.11198000000000001,0.102065,0.0,219.11,219.03,215.71,215.71,0.0,0.0
34,0.0,1.0,0.0,1.0,1.0,0.0,0.0,1.0,0.0,100.0,1.0,1.1856,26.0,0.0,0.0,0.0,59.999996,0.0,26.0,26.0,26.0,26.0,-0.06399999999999995,0.2553000000000001,-0.10020000000000001,291.748,-2.7152,-2.71,-1.5888499999999999,-1.612,-160.25,215.98250000000002,190.227375,0.0,0.0,0.0,0.0,0.06869999999999998,-5.498166666666667,-5.498166666666667,-0.6422,-0.8260000000000001,-0.05600000000000005,0.030000000000000027,70.118,-0.0522,-0.22665000000000002,0.3680000000000003,100.0,1.0,1.0,216.17000000000002,0.0,0.0,0.0,0.0,0.0,0.0,0.0,9162.6,0.0,55.0,5.0,252.4,0.0,0.0,0.0,0.0,0.0,0.0,1.0,0.0,1.7040000000000006,1.7040000000000006,0.0,0.0,0.0,55.0,616.79921,10000.0,85.000001,85.000001,85.000001,85.000001,395.0,0.0,0.0,0.0,1.0,333.33500000000004,52.048,52.048,47.424,47.424,34.0,-27.205,21.21,-31.743333333333332,26.5875,0.0,1781.828,-0.03999999999999915,100.0,28.875,28.093,44.487,43.872,0.0,1.0,100.0,0.0,0.0,0.0,0.0,3263.714285714286,2934.5,4083.875,4127.1,305.0535,305.4653333333333,314.99,314.60875,22.0796,20.6893,22.0821,21.5763,314.999998,314.999998,324.999988,324.999988,99.55841428571429,99.50745,99.56868571428572,99.54858571428572,0.0405000000000002,-0.10224999999999995,-0.16966666666666663,0.05699999999999994,-0.05666666666667197,-0.03999999999999915,1.5135,1.535,38.997,30.308,39.013,35.852000000000004,55.575,35.713,59.929,53.216,53.536,34.8195,58.4925,51.513999999999996,52.69,34.3655,58.368,50.90233333333333,-0.08749999999999991,-0.07200000000000006,0.11076000000000001,0.11135,0.0,219.48000000000002,219.42000000000002,216.17000000000002,216.17000000000002,0.0,0.0
35,0.0,1.0,0.0,1.0,1.0,0.0,0.0,1.0,0.0,100.0,1.0,1.1856,26.0,0.0,0.0,0.0,59.999996,0.0,26.0,26.0,26.0,26.0,-0.06174999999999997,0.2653000000000001,-0.033275,291.748,-2.7195,-2.6901111111111113,-1.5628000000000002,-1.6165555555555557,-156.67000000000002,215.9675,190.197375,0.0,0.0,0.0,0.0,0.07076666666666653,-5.498166666666667,-5.498166666666667,-0.6851,-0.5486666666666669,-0.05675000000000008,-0.08499999999999996,70.245,-0.037000000000000005,-0.229975,0.16799999999999926,100.0,1.0,1.0,216.61666666666667,0.0,0.0,0.0,0.0,0.0,0.0,0.0,9181.5,0.0,55.0,5.0,252.85666666666668,1.0,0.0,0.0,0.0,0.0,0.0,1.0,0.0,1.754999999999999,1.754999999999999,0.0,0.0,1.0,55.0,616.79921,10000.0,85.000001,85.000001,85.000001,85.000001,395.0,0.0,0.0,0.0,1.0,333.33500000000004,51.62,51.62,46.875,46.875,34.0,-26.465,24.938,-29.796666666666667,26.61,0.0,1781.777,-0.05000000000000071,100.0,28.734,28.246000000000002,44.224000000000004,43.431,0.0,1.0,100.0,0.0,0.0,0.0,0.0,3225.0,3322.7,4068.125,3968.1000000000004,305.228,304.38933333333335,314.924,315.0445,22.0886,20.6949,22.0924,21.5854,314.999998,314.999998,324.999988,324.999988,99.55841428571429,99.50746666666667,99.56884285714285,99.54874285714286,0.048249999999999904,-0.08550000000000002,-0.14049999999999996,0.08366666666666678,-0.03833333333332689,-0.060000000000002274,1.556,1.553,39.054,30.343,39.078,35.908500000000004,55.558,35.7535,59.9655,53.272999999999996,53.519999999999996,34.857,58.5265,51.5685,52.673,34.400999999999996,58.399,50.955666666666666,-0.08499999999999996,-0.07600000000000007,0.10416500000000001,0.10410000000000001,0.0,219.845,219.84,216.61666666666667,216.61666666666667,0.0,0.0
