,ABS Active,ABS Enabled,AID Allow Tire Blankets,AID Auto Blip,AID Auto Clutch,AID Auto Shift,AID Fuel Rate,AID Ideal Line,AID Mech Damage,AID Stability,AID Tire Wear Rate,Air Density,Air Temp,Ballast,Best Lap Delta,Best Lap Time,Brake Bias,Brake Pos,Brake Temp FL,Brake Temp FR,Brake Temp RL,Brake Temp RR,CG Accel Lateral,CG Accel Longitudinal,CG Accel Vertical,CG Height,Camber FL,Camber FR,Camber RL,Camber RR,Car Coord X,Car Coord Y,Car Coord Z,Car Damage Front,Car Damage Left,Car Damage Rear,Car Damage Right,Car Pos Norm,Caster FL,Caster FR,Chassis Pitch Angle,Chassis Pitch Rate,Chassis Roll Angle,Chassis Roll Rate,Chassis Velocity X,Chassis Velocity Y,Chassis Velocity Z,Chassis Yaw Rate,Clutch Pos,DRS Active,DRS Available,Drive Train Speed,ERS Heat Charging,ERS Is Charging,ERS Max Energy,ERS Power Level,ERS Recovery Level,Engine Brake Setting,Engine Limiter,Engine RPM,Flags,Fuel Level,Gear,Ground Speed,HR Sample Clock,In Pit,KERS Charge,KERS Deployed Energy,KERS Input,KERS Max Energy,LR Sample Clock,Lap Invalidated,Lap Time,Lap Time2,Last Lap Time,Last Sector Time,MR Sample Clock,Max Fuel,Max Power,Max RPM,Max Sus Travel FL,Max Sus Travel FR,Max Sus Travel RL,Max Sus Travel RR,Max Torque,Max Turbo Boost,Num Tires Off Track,Penalties Enabled,Position,Raw Data Sample Rate,Ride Height FL,Ride Height FR,Ride Height RL,Ride Height RR,Road Temp,Self Align Torque FL,Self Align Torque FR,Self Align Torque RL,Self Align Torque RR,Session Lap Count,Session Time Left,Steering Angle,Surface Grip,Suspension Travel FL,Suspension Travel FR,Suspension Travel RL,Suspension Travel RR,TC Active,TC Enabled,Throttle Pos,Tire Dirt Level FL,Tire Dirt Level FR,Tire Dirt Level RL,Tire Dirt Level RR,Tire Load FL,Tire Load FR,Tire Load RL,Tire Load RR,Tire Loaded Radius FL,Tire Loaded Radius FR,Tire Loaded Radius RL,Tire Loaded Radius RR,Tire Pressure FL,Tire Pressure FR,Tire Pressure RL,Tire Pressure RR,Tire Radius FL,Tire Radius FR,Tire Radius RL,Tire Radius RR,Tire Rubber Grip FL,Tire Rubber Grip FR,Tire Rubber Grip RL,Tire Rubber Grip RR,Tire Slip Angle FL,Tire Slip Angle FR,Tire Slip Angle RL,Tire Slip Angle RR,Tire Slip Ratio FL,Tire Slip Ratio FR,Tire Slip Ratio RL,Tire Slip Ratio RR,Tire Temp Core FL,Tire Temp Core FR,Tire Temp Core RL,Tire Temp Core RR,Tire Temp Inner FL,Tire Temp Inner FR,Tire Temp Inner RL,Tire Temp Inner RR,Tire Temp Middle FL,Tire Temp Middle FR,Tire Temp Middle RL,Tire Temp Middle RR,Tire Temp Outer FL,Tire Temp Outer FR,Tire Temp Outer RL,Tire Temp Outer RR,Toe In FL,Toe In FR,Toe In RL,Toe In RR,Turbo Boost,Wheel Angular Speed FL,Wheel Angular Speed FR,Wheel Angular Speed RL,Wheel Angular Speed RR,Wind Direction,Wind Speed
0,0.0,1.0,0.0,1.0,1.0,0.0,0.0,1.0,0.0,100.0,1.0,1.1856,26.0,0.0,0.0,0.0,59.99999,0.0,26.0,26.0,26.0,26.0,-0.01766666666666661,0.30079999999999996,0.132,292.953,-2.7919,-2.6131,-1.5623,-1.5039,-275.65,215.41,190.987125,0.0,0.0,0.0,0.0,0.0016,-5.498166666666667,-5.498166666666667,-0.5623,2.2560000000000002,0.0044999999999999485,0.009000000000000341,65.512,-0.026599999999999957,-0.2252,-0.09799999999999898,100.0,1.0,1.0,202.25333333333333,0.0,0.0,0.0,0.0,0.0,0.0,0.0,8572.8,0.0,55.0,5.0,235.81333333333333,0.0,0.0,0.0,0.0,0.0,0.0,0.0,0.0,0.0030000000000001137,0.0030000000000001137,0.0,0.0,0.0,55.0,616.79921,10000.0,85.0,85.0,85.0,85.0,395.0,0.0,0.0,0.0,1.0,20.0,50.537,50.537,48.66,48.66,34.0,-28.6575,33.908,-29.316666666666666,26.73,0.0,1783.592,0.03500000000000014,100.0,27.605,27.495,40.391,40.093,0.0,1.0,100.0,0.0,0.0,0.0,0.0,3315.5714285714284,4352.0,4100.444444444444,4187.4,304.5955,301.28025,314.86475,314.45375,21.7458,20.5134,21.7416,21.2633,314.99999,314.99999,324.99998,324.99998,99.55738571428572,99.50721666666666,99.56435714285715,99.5434,0.03949999999999987,-0.06733333333333325,-0.132,0.08483333333333332,-0.04333333333332945,-0.05833333333333002,1.5613333333333332,1.5415,36.911,29.208666666666666,36.885,33.8955,55.751999999999995,34.4365,58.7905,50.975,53.723,33.65,57.443,49.391999999999996,52.926,33.254,57.427,48.85466666666667,-0.07799999999999996,-0.08000000000000007,0.10626000000000001,0.09910000000000001,0.0,205.26999999999998,205.275,202.25333333333333,202.25333333333333,0.0,0.0
1,0.0,1.0,0.0,1.0,1.0,0.0,0.0,1.0,0.0,100.0,1.0,1.1856,26.0,0.0,0.0,0.0,59.999996,0.0,26.0,26.0,26.0,26.0,-0.05755555555555547,0.2822,0.23290000000000002,292.343,-2.6917,-2.6997,-1.6069,-1.4561,-271.91,215.42000000000002,190.965125,0.0,0.0,0.0,0.0,0.0038,-5.498166666666667,-5.498166666666667,-0.48660000000000003,-2.968,-0.04637499999999983,-0.8220000000000001,65.688,-0.018299999999999983,-0.203125,0.46799999999999997,100.0,1.0,1.0,202.26999999999998,0.0,0.0,0.0,0.0,0.0,0.0,0.0,8573.5,0.0,55.0,5.0,236.44666666666666,1.0,0.0,0.0,0.0,0.0,0.0,0.0,0.0,0.05999999999999872,0.05999999999999872,0.0,0.0,1.0,55.0,616.79921,10000.0,85.000001,85.000001,85.000001,85.000001,395.0,0.0,0.0,0.0,1.0,111.11,54.169,54.169,47.394,47.394,34.0,-22.715,17.528,-36.12,30.3175,0.0,1783.537,0.3049999999999997,100.0,27.58,27.058,42.88,44.388999999999996,0.0,1.0,100.0,0.0,0.0,0.0,0.0,2845.285714285714,2492.8,4635.0,4578.2,306.235,306.9235,313.354,312.6445,21.7565,20.5189,21.7539,21.273699999999998,314.999998,314.999998,324.999988,324.999988,99.55738571428572,99.50723333333333,99.56452857142857,99.54355714285714,0.04400000000000004,-0.09466666666666668,-0.12949999999999995,0.07350000000000012,-0.036666666666668846,-0.03999999999999915,1.316,1.326,36.977999999999994,29.243333333333332,36.962,33.960499999999996,55.733999999999995,34.477000000000004,58.8455,51.0565,53.705,33.6875,57.4945,49.469,52.907,33.29,57.475,48.93066666666667,-0.05349999999999999,-0.09650000000000003,0.10756500000000001,0.106395,0.0,205.765,205.71,202.26999999999998,202.26999999999998,0.0,0.0
2,0.0,1.0,0.0,1.0,1.0,0.0,0.0,1.0,0.0,100.0,1.0,1.1856,26.0,0.0,0.0,0.0,59.999996,0.0,26.0,26.0,26.0,26.0,-0.0748888888888889,0.28800000000000003,-0.22216666666666665,293.701,-2.673,-2.6397,-1.5782,-1.5025,-268.75,215.425,190.947125,0.0,0.0,0.0,0.0,0.005633333333333334,-5.498166666666667,-5.498166666666667,-0.5801000000000001,1.226,0.002375000000000016,2.106,65.814,-0.02069999999999994,-0.2712,0.6620000000000008,100.0,1.0,1.0,203.61333333333334,0.0,0.0,0.0,0.0,0.0,0.0,0.0,8630.5,0.0,55.0,5.0,236.9,0.0,0.0,0.0,0.0,0.0,0.0,0.0,0.0,0.10800000000000054,0.10800000000000054,0.0,0.0,0.0,55.0,616.79921,10000.0,85.000001,85.000001,85.000001,85.000001,395.0,0.0,0.0,0.0,1.0,166.665,51.636,51.636,50.583,50.583,34.0,-28.0975,22.268,-24.803333333333335,19.887500000000003,0.0,1783.489,0.4750000000000014,100.0,28.405,27.813,41.766999999999996,41.714,0.0,1.0,100.0,0.0,0.0,0.0,0.0,3265.714285714286,3170.7,3523.5555555555557,3442.0,304.7,304.5035,316.272,316.37975,21.7659,20.5239,21.7634,21.281399999999998,314.999998,314.999998,324.999988,324.999988,99.5574,99.50723333333333,99.56465714285714,99.54368571428571,0.016999999999999904,-0.11099999999999999,-0.15800000000000003,0.07933333333333326,-0.04833333333333201,-0.04833333333333201,1.7806666666666666,1.8080000000000003,37.037,29.27433333333333,37.021,34.0085,55.723,34.516,58.8775,51.1015,53.695,33.723,57.524,49.513,52.896,33.3245,57.5015,48.973333333333336,-0.040000000000000036,-0.11050000000000004,0.10594,0.112375,0.0,206.20499999999998,206.14,203.61333333333334,203.61333333333334,0.0,0.0
3,0.0,1.0,0.0,1.0,1.0,0.0,0.0,1.0,0.0,100.0,1.0,1.1856,26.0,0.0,0.0,0.0,59.999996,0.0,26.0,26.0,26.0,26.0,-0.06688888888888889,0.2932000000000001,0.0354,292.77,-2.6865,-2.676,-1.5564,-1.4837,-265.59,215.43,190.927875,0.0,0.0,0.0,0.0,0.0074666666666666675,-5.498166666666667,-5.498166666666667,-0.4985,0.511,0.008000000000000007,-2.26,65.964,-0.03189999999999993,-0.1869,0.6440000000000001,100.0,1.0,1.0,203.36333333333334,0.0,0.0,0.0,0.0,0.0,0.0,0.0,8619.8,0.0,55.0,5.0,237.43666666666667,1.0,0.0,0.0,0.0,0.0,0.0,0.0,0.0,0.1559999999999988,0.1559999999999988,0.0,0.0,1.0,55.0,616.79921,10000.0,85.000001,85.000001,85.000001,85.000001,395.0,0.0,0.0,0.0,1.0,166.665,53.177,53.177,47.241,47.241,34.0,-23.64,19.912,-35.25333333333333,27.990000000000002,0.0,1783.44,0.5450000000000017,100.0,27.905,27.747,42.155,42.333,0.0,1.0,100.0,0.0,0.0,0.0,0.0,2857.5714285714284,2869.0,4583.333333333333,4395.5,306.216,305.5,313.667,313.775,21.7749,20.5289,21.7732,21.2899,314.999998,314.999998,324.999988,324.999988,99.5574,99.50725,99.56478571428572,99.54382857142858,0.021500000000000075,-0.11599999999999988,-0.15049999999999997,0.07166666666666677,-0.041666666666671404,-0.04833333333333201,1.431,1.4325,37.093,29.305666666666667,37.083,34.062,55.707,34.556,58.9165,51.167500000000004,53.68,33.76,57.5605,49.576,52.879999999999995,33.3595,57.535,49.035666666666664,-0.03649999999999998,-0.1200000000000001,0.10640500000000001,0.10320000000000001,0.0,206.66500000000002,206.63,203.36333333333334,203.36333333333334,0.0,0.0
4,0.0,1.0,0.0,1.0,1.0,0.0,0.0,1.0,0.0,100.0,1.0,1.1856,26.0,0.0,0.0,0.0,59.999996,0.0,26.0,26.0,26.0,26.0,-0.06955555555555548,0.27590000000000003,0.0095,293.274,-2.6763,-2.7361,-1.4952,-1.5924,-262.42,215.4325,190.90975,0.0,0.0,0.0,0.0,0.009300000000000001,-5.498166666666667,-5.498166666666667,-0.5337000000000001,-0.982,-0.041625000000000245,-0.5529999999999999,66.1,-0.03969999999999996,-0.23745000000000002,0.9800000000000004,100.0,1.0,1.0,204.04000000000002,0.0,0.0,0.0,0.0,0.0,0.0,0.0,8648.4,0.0,55.0,5.0,237.93,0.0,0.0,0.0,0.0,0.0,0.0,0.0,0.0,0.20400000000000063,0.20400000000000063,0.0,0.0,0.0,55.0,616.79921,10000.0,85.000001,85.000001,85.000001,85.000001,395.0,0.0,0.0,0.0,1.0,166.665,52.841,52.841,48.691,48.691,34.0,-27.965,19.866,-30.21333333333333,23.4175,0.0,1783.392,0.629999999999999,100.0,27.862000000000002,27.398,42.887,42.375,0.0,1.0,100.0,0.0,0.0,0.0,0.0,3204.5714285714284,2867.0,4039.4444444444443,3813.3,305.1865,305.631,314.9815,315.30225,21.784,20.5337,21.7833,21.2982,314.999998,314.999998,324.999988,324.999988,99.5574,99.50726666666667,99.56491428571428,99.54395714285714,-0.00275000000000003,-0.1263333333333332,-0.17499999999999993,0.05283333333333329,-0.03333333333333144,-0.045000000000001705,1.5353333333333334,1.5870000000000002,37.15,29.33566666666667,37.146,34.114,55.693,34.593,58.957499999999996,51.225,53.666,33.794,57.5985,49.631,52.864999999999995,33.391999999999996,57.570499999999996,49.089333333333336,-0.025000000000000022,-0.12400000000000011,0.10776000000000001,0.10203000000000001,0.0,207.05,206.965,204.04000000000002,204.04000000000002,0.0,0.0
5,0.0,1.0,0.0,1.0,1.0,0.0,0.0,1.0,0.0,100.0,1.0,1.1856,26.0,0.0,0.0,0.0,59.999996,0.0,26.0,26.0,26.0,26.0,-0.06288888888888888,0.3098000000000001,-0.03913333333333333,293.533,-2.6504,-2.7178,-1.5455,-1.5737,-258.85,215.435,190.88875,0.0,0.0,0.0,0.0,0.011366666666666667,-5.498166666666667,-5.498166666666667,-0.5392,0.6173333333333334,-0.02662500000000012,-0.4969999999999999,66.254,-0.06040000000000001,-0.22290000000000001,1.0380000000000003,100.0,1.0,1.0,204.57,0.0,0.0,0.0,0.0,0.0,0.0,0.0,8671.0,0.0,55.0,5.0,238.48333333333335,1.0,0.0,0.0,0.0,0.0,0.0,0.0,0.0,0.2579999999999991,0.2579999999999991,0.0,0.0,1.0,55.0,616.79921,10000.0,85.000001,85.000001,85.000001,85.000001,395.0,0.0,0.0,0.0,1.0,166.665,53.055,53.055,48.981,48.981,34.0,-26.0225,20.552,-30.923333333333332,23.2375,0.0,1783.339,0.240000000000002,100.0,27.761,27.34,42.403999999999996,41.766,0.0,1.0,100.0,0.0,0.0,0.0,0.0,3095.142857142857,2884.1,3971.222222222222,3973.4,305.4515,305.46825,315.2,314.97075,21.7944,20.5392,21.7942,21.3074,314.999998,314.999998,324.999988,324.999988,99.5574,99.50728333333333,99.56507142857143,99.5441,0.014499999999999957,-0.11133333333333328,-0.1935,0.03516666666666679,-0.04333333333332945,-0.03833333333332689,1.5623333333333334,1.6395,37.215,29.369999999999997,37.214,34.1715,55.678,34.6365,58.9975,51.2885,53.650999999999996,33.834,57.635999999999996,49.6915,52.849999999999994,33.43,57.605000000000004,49.148666666666664,-0.051999999999999935,-0.09549999999999992,0.10183500000000001,0.10792500000000001,0.0,207.57,207.485,204.57,204.57,0.0,0.0
6,0.0,1.0,0.0,1.0,1.0,0.0,0.0,1.0,0.0,100.0,1.0,1.1856,26.0,0.0,0.0,0.0,59.999996,0.0,26.0,26.0,26.0,26.0,-0.09366666666666656,0.2946,0.0465,293.304,-2.6821,-2.7674000000000003,-1.4923,-1.5868,-255.66,215.435,190.86925,0.0,0.0,0.0,0.0,0.013233333333333335,-5.498166666666667,-5.498166666666667,-0.5307000000000001,-0.392,-0.04637499999999983,-0.8259999999999996,66.394,-0.06609999999999994,-0.208575,0.902000000000001,100.0,1.0,1.0,204.84,0.0,0.0,0.0,0.0,0.0,0.0,0.0,8682.4,0.0,55.0,5.0,238.99,0.0,0.0,0.0,0.0,0.0,0.0,0.0,0.0,0.30600000000000094,0.30600000000000094,0.0,0.0,0.0,55.0,616.79921,10000.0,85.000001,85.000001,85.000001,85.000001,395.0,0.0,0.0,0.0,1.0,166.665,53.299,53.299,48.538,48.538,34.0,-28.509999999999998,19.194000000000003,-32.51,24.13,0.0,1783.29,0.4349999999999987,100.0,27.542,27.036,42.662,41.973,0.0,1.0,100.0,0.0,0.0,0.0,0.0,3226.142857142857,2781.5,4216.0,4038.9,305.1685,305.85675,314.5545,314.722,21.8036,20.544,21.8041,21.3158,314.999998,314.999998,324.999988,324.999988,99.5574,99.5073,99.56521428571429,99.54422857142858,-0.01024999999999987,-0.1339999999999999,-0.1858333333333334,0.03166666666666673,-0.04833333333333201,-0.03999999999999915,1.5036666666666667,1.5535,37.272,29.4,37.275999999999996,34.224000000000004,55.663,34.673,59.037,51.3485,53.637,33.8675,57.6725,49.749,52.835,33.4625,57.638999999999996,49.20466666666667,-0.041999999999999926,-0.1080000000000001,0.09939500000000001,0.11192,0.0,207.97500000000002,207.91500000000002,204.84,204.84,0.0,0.0
7,0.0,1.0,0.0,1.0,1.0,0.0,0.0,1.0,0.0,100.0,1.0,1.1856,26.0,0.0,0.0,0.0,59.999996,0.0,26.0,26.0,26.0,26.0,-0.06577777777777782,0.28570000000000007,-0.0016333333333333332,293.289,-2.6789,-2.7659000000000002,-1.544,-1.609,-252.47,215.4325,190.849875,0.0,0.0,0.0,0.0,0.0151,-5.498166666666667,-5.498166666666667,-0.5352,0.19233333333333336,-0.03937500000000016,-0.43100000000000005,66.53,-0.07350000000000001,-0.218475,0.718,100.0,1.0,1.0,205.32666666666665,0.0,0.0,0.0,0.0,0.0,0.0,0.0,8703.0,0.0,55.0,5.0,239.4766666666667,1.0,0.0,0.0,0.0,0.0,0.0,0.0,0.0,0.3539999999999992,0.3539999999999992,0.0,0.0,1.0,55.0,616.79921,10000.0,85.000001,85.000001,85.000001,85.000001,395.0,0.0,0.0,0.0,1.0,166.665,53.024,53.024,48.538,48.538,34.0,-26.775,21.17,-32.989999999999995,23.8525,0.0,1783.242,-0.1349999999999998,100.0,27.791,27.18,42.702,41.933,0.0,1.0,100.0,0.0,0.0,0.0,0.0,3211.4285714285716,2866.8,4163.222222222223,3952.9,305.2055,305.5125,314.7425,314.957,21.8128,20.5489,21.8139,21.3241,314.999998,314.999998,324.999988,324.999988,99.55741428571429,99.50731666666667,99.56534285714285,99.54437142857142,0.026499999999999968,-0.10299999999999998,-0.1965,0.033666666666666734,-0.06833333333332803,-0.041666666666671404,1.5413333333333332,1.5594999999999999,37.33,29.430666666666667,37.337,34.275999999999996,55.65,34.7115,59.075,51.4065,53.625,33.903,57.708,49.8045,52.822,33.496,57.6715,49.259,-0.08499999999999996,-0.0625,0.10729500000000002,0.10935,0.0,208.42000000000002,208.35000000000002,205.32666666666665,205.32666666666665,0.0,0.0
8,0.0,1.0,0.0,1.0,1.0,0.0,0.0,1.0,0.0,100.0,1.0,1.1856,26.0,0.0,0.0,0.0,59.999996,0.0,26.0,26.0,26.0,26.0,-0.052999999999999936,0.28869999999999996,-0.019200000000000002,293.427,-2.6903,-2.7073,-1.5538,-1.6059,-248.88,215.4275,190.82825,0.0,0.0,0.0,0.0,0.017166666666666667,-5.498166666666667,-5.498166666666667,-0.5358,-0.099,-0.03400000000000025,-1.0510000000000002,66.68299999999999,-0.06299999999999994,-0.219475,0.27200000000000024,100.0,1.0,1.0,205.8,0.0,0.0,0.0,0.0,0.0,0.0,0.0,8723.2,0.0,55.0,5.0,240.03,0.0,0.0,0.0,0.0,0.0,0.0,0.0,0.0,0.40800000000000125,0.40800000000000125,0.0,0.0,0.0,55.0,616.79921,10000.0,85.000001,85.000001,85.000001,85.000001,395.0,0.0,0.0,0.0,1.0,166.665,53.284,53.284,48.37,48.37,34.0,-26.08,21.484,-31.54,24.6175,0.0,1783.189,-0.1899999999999995,100.0,27.427,27.175,42.709,42.032,0.0,1.0,100.0,0.0,0.0,0.0,0.0,3133.285714285714,2928.6,4098.333333333333,3926.6000000000004,305.456,305.35,314.88625,315.00875,21.8231,20.5545,21.8251,21.3336,314.999998,314.999998,324.999988,324.999988,99.55741428571429,99.50731666666667,99.56548571428571,99.54451428571429,0.027249999999999996,-0.09499999999999997,-0.17766666666666664,0.052999999999999936,-0.046666666666666856,-0.046666666666666856,1.5533333333333332,1.5565000000000002,37.394,29.465666666666664,37.407,34.335,55.635,34.7535,59.118,51.473,53.61,33.9415,57.748,49.8685,52.807,33.533,57.7085,49.321333333333335,-0.09350000000000003,-0.05249999999999999,0.100445,0.11593,0.0,208.86,208.835,205.8,205.8,0.0,0.0
9,0.0,1.0,0.0,1.0,1.0,0.0,0.0,1.0,0.0,100.0,1.0,1.1856,26.0,0.0,0.0,0.0,59.999996,0.0,26.0,26.0,26.0,26.0,-0.03888888888888886,0.2882,0.009866666666666668,293.274,-2.6703,-2.7234,-1.5216,-1.5596,-245.87,215.42000000000002,190.809875,0.0,0.0,0.0,0.0,0.018933333333333337,-5.498166666666667,-5.498166666666667,-0.5342,0.18466666666666667,-0.03825000000000012,0.6719999999999997,66.81,-0.049899999999999944,-0.21285,0.05799999999999983,100.0,1.0,1.0,206.17333333333335,0.0,0.0,0.0,0.0,0.0,0.0,0.0,8738.9,0.0,55.0,5.0,240.48666666666668,1.0,0.0,0.0,0.0,0.0,0.0,0.0,0.0,0.4529999999999994,0.4529999999999994,0.0,0.0,1.0,55.0,616.79921,10000.0,85.000001,85.000001,85.000001,85.000001,395.0,0.0,0.0,0.0,1.0,166.665,53.009,53.009,48.644999999999996,48.644999999999996,34.0,-25.025,23.38,-29.45,26.185,0.0,1783.143,-0.29499999999999993,100.0,27.71,26.95,42.682,41.918,0.0,1.0,100.0,0.0,0.0,0.0,0.0,3108.4285714285716,3055.6,4017.1111111111113,4117.8,305.296,305.15875,315.0165,314.64975,21.8316,20.5591,21.8343,21.3414,314.999998,314.999998,324.999988,324.999988,99.55742857142857,99.50733333333334,99.56562857142858,99.54464285714286,0.0495000000000001,-0.07333333333333325,-0.15600000000000003,0.07016666666666671,-0.036666666666668846,-0.05833333333333002,1.5456666666666665,1.5565000000000002,37.448,29.494666666666667,37.464,34.3835,55.623000000000005,34.788,59.153,51.5275,53.599000000000004,33.9735,57.7805,49.920500000000004,52.794,33.5635,57.7385,49.37266666666667,-0.09999999999999998,-0.052000000000000046,0.11506000000000001,0.10338000000000001,0.0,209.24,209.25,206.17333333333335,206.17333333333335,0.0,0.0
10,0.0,1.0,0.0,1.0,1.0,0.0,0.0,1.0,0.0,100.0,1.0,1.1856,26.0,0.0,0.0,0.0,59.999996,0.0,26.0,26.0,26.0,26.0,-0.024222222222222145,0.2912000000000001,0.0119,293.198,-2.6753,-2.7045,-1.5531000000000001,-1.5462,-242.26,215.4125,190.787875,0.0,0.0,0.0,0.0,0.021033333333333334,-5.498166666666667,-5.498166666666667,-0.5292,-0.23033333333333333,-0.015249999999999986,1.5270000000000001,66.964,-0.030899999999999928,-0.21122500000000002,-0.1979999999999995,100.0,1.0,1.0,206.56333333333333,0.0,0.0,0.0,0.0,0.0,0.0,0.0,8755.5,0.0,55.0,5.0,241.04000000000002,0.0,0.0,0.0,0.0,0.0,0.0,1.0,0.0,0.5069999999999979,0.5069999999999979,0.0,0.0,0.0,55.0,616.79921,10000.0,85.000001,85.000001,85.000001,85.000001,395.0,0.0,0.0,0.0,1.0,166.665,53.329,53.329,48.355000000000004,48.355000000000004,34.0,-23.175,23.47,-29.87666666666667,28.265,0.0,1783.09,-0.35999999999999943,100.0,27.651,26.896,42.749,42.183,0.0,1.0,100.0,0.0,0.0,0.0,0.0,2983.857142857143,3036.9,4091.8888888888887,4271.3,305.6535,305.24125,314.80975,314.2755,21.8418,20.5647,21.845399999999998,21.3509,314.999998,314.999998,324.999988,324.999988,99.55742857142857,99.50733333333334,99.56577142857142,99.54478571428571,0.06800000000000006,-0.06266666666666665,-0.1396666666666666,0.08699999999999997,-0.04999999999999716,-0.051666666666669414,1.5203333333333333,1.5145,37.510999999999996,29.529333333333334,37.534,34.443,55.608999999999995,34.828,59.196,51.595,53.586,34.01,57.821,49.985,52.78,33.5985,57.7755,49.43566666666666,-0.10350000000000004,-0.04800000000000004,0.11010500000000001,0.1101,0.0,209.71,209.70499999999998,206.56333333333333,206.56333333333333,0.0,0.0
11,0.0,1.0,0.0,1.0,1.0,0.0,0.0,1.0,0.0,100.0,1.0,1.1856,26.0,0.0,0.0,0.0,59.999996,0.0,26.0,26.0,26.0,26.0,0.018333333333333313,0.2883,-0.0472,293.472,-2.7072,-2.6915,-1.5598,-1.5198,-238.84,215.405,190.76675,0.0,0.0,0.0,0.0,0.022600000000000002,-5.498166666666667,-5.498166666666667,-0.5506,-0.264,0.008249999999999869,-0.41800000000000015,67.105,-0.01429999999999998,-0.22335000000000002,-0.23599999999999977,100.0,1.0,1.0,207.11,0.0,0.0,0.0,0.0,0.0,0.0,0.0,8778.6,0.0,55.0,5.0,241.55,1.0,0.0,0.0,0.0,0.0,0.0,1.0,0.0,0.5579999999999998,0.5579999999999998,0.0,0.0,1.0,55.0,616.79921,10000.0,85.000001,85.000001,85.000001,85.000001,395.0,0.0,0.0,0.0,1.0,166.665,53.268,53.268,48.859,48.859,34.0,-24.4075,24.002000000000002,-27.343333333333334,27.3825,0.0,1783.037,-0.4399999999999995,100.0,27.186,27.116,42.411,42.3,0.0,1.0,100.0,0.0,0.0,0.0,0.0,3113.285714285714,3037.4,3924.3333333333335,4056.7,305.4775,305.04925,315.30325,314.738,21.8513,20.57,21.8558,21.3599,314.999998,314.999998,324.999988,324.999988,99.55742857142857,99.50735,99.56591428571429,99.54494285714286,0.0677500000000002,-0.05233333333333312,-0.12249999999999994,0.11250000000000004,-0.061666666666667425,-0.04833333333333201,1.5713333333333335,1.565,37.571,29.562666666666665,37.599000000000004,34.499,55.596000000000004,34.866,59.2335,51.6575,53.573,34.045,57.8555,50.045,52.766999999999996,33.632,57.807,49.49433333333333,-0.10350000000000004,-0.04200000000000004,0.10602,0.11146,0.0,210.14,210.15,207.11,207.11,0.0,0.0
12,0.0,1.0,0.0,1.0,1.0,0.0,0.0,1.0,0.0,100.0,1.0,1.1856,26.0,0.0,0.0,0.0,59.999996,0.0,26.0,26.0,26.0,26.0,0.019777777777777894,0.2932000000000001,0.010466666666666668,293.091,-2.7215,-2.6822,-1.5634000000000001,-1.5357,-235.62,215.3975,190.74625,0.0,0.0,0.0,0.0,0.025466666666666665,-5.498166666666667,-5.498166666666667,-0.5405,0.399,0.010750000000000037,-0.8330000000000002,67.24000000000001,-0.0017999999999999128,-0.20355,-0.3039999999999994,100.0,1.0,1.0,207.45,0.0,0.0,0.0,0.0,0.0,0.0,0.0,8793.0,0.0,55.0,5.0,242.03333333333336,0.0,0.0,0.0,0.0,0.0,0.0,1.0,0.0,0.6059999999999981,0.6059999999999981,0.0,0.0,0.0,55.0,616.79921,10000.0,85.000001,85.000001,85.000001,85.000001,395.0,0.0,0.0,0.0,1.0,166.665,52.979,52.979,48.218,48.218,34.0,-23.945,24.259999999999998,-28.976666666666663,29.065,0.0,1782.991,-0.41000000000000014,100.0,27.35,27.441,42.295,42.357,0.0,1.0,100.0,0.0,0.0,0.0,0.0,3102.857142857143,3071.3,4150.0,4195.4,305.4995,304.9185,314.79275,314.4105,21.8603,20.5751,21.8655,21.3683,314.999998,314.999998,324.999988,324.999988,99.55744285714286,99.50735,99.56605714285715,99.54507142857143,0.0794999999999999,-0.05233333333333312,-0.1143333333333334,0.11616666666666675,-0.051666666666669414,-0.04999999999999716,1.5406666666666666,1.5270000000000001,37.626999999999995,29.594666666666665,37.66,34.5515,55.584,34.9025,59.269,51.716499999999996,53.562,34.079,57.8885,50.1015,52.754999999999995,33.664,57.8375,49.55,-0.10449999999999993,-0.052000000000000046,0.110225,0.10688500000000001,0.0,210.57999999999998,210.585,207.45,207.45,0.0,0.0
13,0.0,1.0,0.0,1.0,1.0,0.0,0.0,1.0,0.0,100.0,1.0,1.1856,26.0,0.0,0.0,0.0,59.999996,0.0,26.0,26.0,26.0,26.0,0.038999999999999924,0.29100000000000015,0.023100000000000002,292.831,-2.6885,-2.6979,-1.5556999999999999,-1.5473,-232.18,215.39,190.724625,0.0,0.0,0.0,0.0,0.0269,-5.498166666666667,-5.498166666666667,-0.5391,-0.28500000000000003,0.007624999999999993,1.1000000000000005,67.383,0.0039000000000000146,-0.21425000000000002,-0.38200000000000056,100.0,1.0,1.0,207.82,0.0,0.0,0.0,0.0,0.0,0.0,0.0,8808.7,0.0,55.0,5.0,242.55,1.0,0.0,0.0,0.0,0.0,0.0,1.0,0.0,0.657,0.657,0.0,0.0,1.0,55.0,616.79921,10000.0,85.000001,85.000001,85.000001,85.000001,395.0,0.0,0.0,0.0,1.0,166.665,52.872,52.872,48.08,48.08,34.0,-21.974999999999998,25.848,-27.476666666666663,30.9425,0.0,1782.937,-0.3949999999999996,100.0,27.723,27.389,42.766,42.701,0.0,1.0,100.0,0.0,0.0,0.0,0.0,3013.4285714285716,3127.0,4082.1111111111113,4301.4,305.5825,304.94125,314.8315,314.205,21.869799999999998,20.5806,21.8761,21.3774,314.999998,314.999998,324.999988,324.999988,99.55745714285715,99.50736666666667,99.5662,99.54521428571428,0.10575000000000001,-0.024666666666666615,-0.09250000000000003,0.12916666666666687,-0.03166666666666629,-0.045000000000001705,1.5143333333333335,1.4849999999999999,37.686,29.628666666666668,37.724999999999994,34.6085,55.572,34.943,59.312,51.7855,53.55,34.116,57.9285,50.167500000000004,52.742000000000004,33.6995,57.874,49.614666666666665,-0.118,-0.03299999999999992,0.09860000000000001,0.105215,0.0,210.99,210.995,207.82,207.82,0.0,0.0
14,0.0,1.0,0.0,1.0,1.0,0.0,0.0,1.0,0.0,100.0,1.0,1.1856,26.0,0.0,0.0,0.0,59.999996,0.0,26.0,26.0,26.0,26.0,0.031888888888888856,0.2772000000000001,-0.028733333333333333,293.121,-2.7063,-2.7076000000000002,-1.5968,-1.5379,-228.54,215.385,190.702,0.0,0.0,0.0,0.0,0.029,-5.498166666666667,-5.498166666666667,-0.55,0.03133333333333333,0.025125000000000064,0.9080000000000004,67.53,0.013000000000000123,-0.222,-0.45399999999999974,100.0,1.0,1.0,208.38333333333333,0.0,0.0,0.0,0.0,0.0,0.0,0.0,8832.5,0.0,55.0,5.0,243.07999999999998,0.0,0.0,0.0,0.0,0.0,0.0,1.0,0.0,0.7109999999999985,0.7109999999999985,0.0,0.0,0.0,55.0,616.79921,10000.0,85.000001,85.000001,85.000001,85.000001,395.0,0.0,0.0,0.0,1.0,111.11,52.979,52.979,48.492,48.492,34.0,-21.8475,25.698,-26.783333333333335,29.6925,0.0,1782.886,-0.4399999999999995,100.0,27.664,27.509,42.56,42.717,0.0,1.0,100.0,0.0,0.0,0.0,0.0,2961.142857142857,3098.7,3963.222222222222,4130.6,305.7415,304.9935,315.2015,314.59175,21.8799,20.5864,21.8871,21.3869,314.999998,314.999998,324.999988,324.999988,99.55747142857143,99.50736666666667,99.56634285714286,99.54535714285714,0.10199999999999987,-0.024333333333333318,-0.09283333333333332,0.13883333333333336,-0.041666666666671404,-0.06833333333332803,1.562,1.5310000000000001,37.748999999999995,29.664666666666665,37.794,34.668,55.561,34.981,59.349000000000004,51.848,53.539,34.150999999999996,57.963,50.2275,52.730000000000004,33.733000000000004,57.9055,49.67333333333333,-0.11199999999999999,-0.03849999999999998,0.10553000000000001,0.10661500000000002,0.0,211.445,211.495,208.38333333333333,208.38333333333333,0.0,0.0
15,0.0,1.0,0.0,1.0,1.0,0.0,0.0,1.0,0.0,100.0,1.0,1.1856,26.0,0.0,0.0,0.0,59.999996,0.0,26.0,26.0,26.0,26.0,0.04899999999999993,0.27590000000000003,-0.024966666666666668,292.984,-2.7001,-2.6812,-1.5554999999999999,-1.5598,-225.5,215.38,190.68275,0.0,0.0,0.0,0.0,0.03076666666666667,-5.498166666666667,-5.498166666666667,-0.5418000000000001,0.20400000000000001,0.02849999999999997,-0.8069999999999995,67.655,0.01859999999999995,-0.2094,-0.33399999999999963,100.0,1.0,1.0,208.70666666666668,0.0,0.0,0.0,0.0,0.0,0.0,0.0,8846.3,0.0,55.0,5.0,243.52666666666664,1.0,0.0,0.0,0.0,0.0,0.0,1.0,0.0,0.7560000000000002,0.7560000000000002,0.0,0.0,1.0,55.0,616.79921,10000.0,85.000001,85.000001,85.000001,85.000001,395.0,0.0,0.0,0.0,1.0,166.665,52.963,52.963,48.218,48.218,34.0,-22.705,24.073999999999998,-27.246666666666666,29.8525,0.0,1782.839,-0.3100000000000005,100.0,27.518,27.772,42.42,42.915,0.0,1.0,100.0,0.0,0.0,0.0,0.0,3053.0,2979.1,4106.555555555556,4119.1,305.6575,305.1535,314.8905,314.555,21.8882,20.5912,21.8963,21.3949,314.999998,314.999998,324.999988,324.999988,99.55748571428572,99.50736666666667,99.56647142857143,99.5455,0.09399999999999986,-0.03766666666666674,-0.08933333333333338,0.13450000000000006,-0.03166666666666629,-0.046666666666666856,1.5430000000000001,1.5110000000000001,37.801,29.695,37.852000000000004,34.718,55.551,35.0145,59.3825,51.9045,53.528999999999996,34.182,57.994,50.282,52.719,33.763,57.934,49.72666666666667,-0.10199999999999998,-0.0475000000000001,0.10239500000000001,0.10891,0.0,211.835,211.88,208.70666666666668,208.70666666666668,0.0,0.0
16,0.0,1.0,0.0,1.0,1.0,0.0,0.0,1.0,0.0,100.0,1.0,1.1856,26.0,0.0,0.0,0.0,59.999996,0.0,26.0,26.0,26.0,26.0,0.026111111111111196,0.2581,-0.0055000000000000005,292.709,-2.6587,-2.6349,-1.5874000000000001,-1.56,-222.05,215.375,190.660625,0.0,0.0,0.0,0.0,0.03276666666666667,-5.498166666666667,-5.498166666666667,-0.5528000000000001,-0.307,0.02124999999999999,0.33999999999999986,67.794,0.020000000000000018,-0.22335000000000002,-0.25,100.0,1.0,1.0,209.14333333333332,0.0,0.0,0.0,0.0,0.0,0.0,0.0,8864.8,0.0,55.0,5.0,244.03,0.0,0.0,0.0,0.0,0.0,0.0,1.0,0.0,0.8069999999999986,0.8069999999999986,0.0,0.0,0.0,55.0,616.79921,10000.0,85.000001,85.000001,85.000001,85.000001,395.0,0.0,0.0,0.0,1.0,166.665,52.444,52.444,47.913,47.913,34.0,-22.3325,26.18,-27.136666666666663,29.7425,0.0,1782.79,-0.27999999999999936,100.0,27.657,27.765,42.8,43.024,0.0,1.0,100.0,0.0,0.0,0.0,0.0,3074.857142857143,3251.8,4028.0,4060.8,305.39,304.56475,314.989,314.77525,21.8976,20.5967,21.9068,21.404,314.999998,314.999998,324.999988,324.999988,99.5575,99.50736666666667,99.56661428571428,99.54564285714285,0.10375000000000023,-0.03066666666666662,-0.08799999999999997,0.14533333333333331,-0.03166666666666629,-0.060000000000002274,1.5353333333333334,1.5194999999999999,37.86,29.729666666666667,37.917,34.775,55.538,35.0535,59.422,51.968,53.516999999999996,34.2175,58.0305,50.343,52.706,33.797,57.9675,49.78633333333333,-0.09799999999999998,-0.06150000000000011,0.11259000000000001,0.106605,0.0,212.26,212.28,209.14333333333332,209.14333333333332,0.0,0.0
17,0.0,1.0,0.0,1.0,1.0,0.0,0.0,1.0,0.0,100.0,1.0,1.1856,26.0,0.0,0.0,0.0,59.999996,0.0,26.0,26.0,26.0,26.0,0.019777777777777894,0.2923,0.02796666666666667,292.45,-2.6263,-2.6129,-1.5517,-1.5199,-218.79,215.37,190.63975,0.0,0.0,0.0,0.0,0.03466666666666667,-5.498166666666667,-5.498166666666667,-0.5503,0.16266666666666665,0.001374999999999904,0.4379999999999997,67.926,0.018299999999999983,-0.2164,-0.23399999999999999,100.0,1.0,1.0,209.48000000000002,0.0,0.0,0.0,0.0,0.0,0.0,0.0,8879.0,0.0,55.0,5.0,244.50333333333333,1.0,0.0,0.0,0.0,0.0,0.0,1.0,0.0,0.8550000000000004,0.8550000000000004,0.0,0.0,1.0,55.0,616.79921,10000.0,85.000001,85.000001,85.000001,85.000001,395.0,0.0,0.0,0.0,1.0,166.665,52.338,52.338,47.577,47.577,34.0,-22.037499999999998,25.616,-27.926666666666666,30.3675,0.0,1782.74,-0.1850000000000005,100.0,27.922,27.861,42.826,42.993,0.0,1.0,100.0,0.0,0.0,0.0,0.0,3048.4285714285716,3228.3,4172.444444444444,4251.6,305.413,304.6025,314.631,314.37025,21.9065,20.602,21.9166,21.4125,314.999998,314.999998,324.999988,324.999988,99.55751428571429,99.50738333333334,99.56675714285714,99.54577142857143,0.10000000000000009,-0.03499999999999992,-0.08866666666666656,0.13766666666666683,-0.03166666666666629,-0.051666666666669414,1.5203333333333333,1.5265,37.916,29.762333333333334,37.979,34.828,55.528,35.09,59.458,52.027,53.507,34.2515,58.064,50.4,52.695,33.829499999999996,57.998,49.842,-0.09750000000000003,-0.06350000000000011,0.11306000000000001,0.111405,0.0,212.68,212.7,209.48000000000002,209.48000000000002,0.0,0.0
18,0.0,1.0,0.0,1.0,1.0,0.0,0.0,1.0,0.0,100.0,1.0,1.1856,26.0,0.0,0.0,0.0,59.999996,0.0,26.0,26.0,26.0,26.0,0.03200000000000003,0.26859999999999995,0.03903333333333334,292.404,-2.6515,-2.749,-1.5306000000000002,-1.4874,-215.51999999999998,215.3675,190.618625,0.0,0.0,0.0,0.0,0.03656666666666667,-5.498166666666667,-5.498166666666667,-0.5601,-0.3306666666666667,-0.0017499999999999183,0.8700000000000001,68.056,0.016199999999999992,-0.223175,-0.18200000000000038,100.0,1.0,1.0,209.85666666666668,0.0,0.0,0.0,0.0,0.0,0.0,0.0,8895.1,0.0,55.0,5.0,244.97666666666666,0.0,0.0,0.0,0.0,0.0,0.0,1.0,0.0,0.9029999999999987,0.9029999999999987,0.0,0.0,0.0,55.0,616.79921,10000.0,85.000001,85.000001,85.000001,85.000001,395.0,0.0,0.0,0.0,1.0,166.665,52.383,52.383,47.668,47.668,34.0,-22.8,26.374,-27.266666666666666,30.2,0.0,1782.691,-0.15499999999999936,100.0,27.896,27.771,42.992000000000004,43.113,0.0,1.0,100.0,0.0,0.0,0.0,0.0,3072.285714285714,3176.0,4095.8888888888887,4314.2,305.4045,304.65775,314.77725,314.196,21.915399999999998,20.6071,21.9264,21.421,314.999998,314.999998,324.999988,324.999988,99.55751428571429,99.50738333333334,99.5669,99.54592857142858,0.09100000000000019,-0.03833333333333311,-0.08983333333333332,0.12949999999999995,-0.041666666666671404,-0.051666666666669414,1.4893333333333334,1.4900000000000002,37.971000000000004,29.794333333333334,38.04,34.8815,55.516,35.1275,59.4965,52.0905,53.495000000000005,34.286500000000004,58.1005,50.460499999999996,52.682,33.8625,58.031,49.901666666666664,-0.08699999999999997,-0.062000000000000055,0.103455,0.104285,0.0,213.095,213.09,209.85666666666668,209.85666666666668,0.0,0.0
19,0.0,1.0,0.0,1.0,1.0,0.0,0.0,1.0,0.0,100.0,1.0,1.1856,26.0,0.0,0.0,0.0,59.999996,0.0,26.0,26.0,26.0,26.0,0.038000000000000034,0.2701,0.015833333333333335,292.236,-2.6369,-2.7077,-1.5326,-1.6071,-212.05,215.365,190.595875,0.0,0.0,0.0,0.0,0.0386,-5.498166666666667,-5.498166666666667,-0.5516,0.5506666666666666,0.0063750000000000195,-0.79,68.193,0.010499999999999954,-0.21530000000000002,0.02600000000000069,100.0,1.0,1.0,210.30666666666667,0.0,0.0,0.0,0.0,0.0,0.0,0.0,8914.2,0.0,55.0,5.0,245.47,1.0,0.0,0.0,0.0,0.0,0.0,1.0,0.0,0.9540000000000006,0.9540000000000006,0.0,0.0,1.0,55.0,616.79921,10000.0,85.000001,85.000001,85.000001,85.000001,395.0,0.0,0.0,0.0,1.0,166.665,52.063,52.063,47.775,47.775,34.0,-23.8675,23.962,-28.4,30.745,0.0,1782.643,-0.1349999999999998,100.0,28.261,28.339,42.85,43.271,0.0,1.0,100.0,0.0,0.0,0.0,0.0,3164.714285714286,3022.7,4171.444444444444,4205.5,305.274,304.95375,314.7375,314.29575,21.925,20.6127,21.936799999999998,21.43,314.999998,314.999998,324.999988,324.999988,99.55752857142858,99.5074,99.56704285714285,99.54607142857142,0.07799999999999985,-0.058333333333333126,-0.10350000000000004,0.1213333333333333,-0.060000000000002274,-0.03999999999999915,1.4986666666666668,1.4965000000000002,38.031,29.829666666666668,38.105000000000004,34.9375,55.506,35.1655,59.5315,52.1495,53.486000000000004,34.321,58.1325,50.5175,52.672,33.896,58.0605,49.95733333333334,-0.08950000000000002,-0.07350000000000012,0.10253500000000002,0.10636000000000001,0.0,213.55,213.525,210.30666666666667,210.30666666666667,0.0,0.0
20,0.0,1.0,0.0,1.0,1.0,0.0,0.0,1.0,0.0,100.0,1.0,1.1856,26.0,0.0,0.0,0.0,59.999996,0.0,26.0,26.0,26.0,26.0,0.022666666666666613,0.25550000000000006,-0.030433333333333333,292.419,-2.7047,-2.6501,-1.607,-1.5907,-208.36,215.3625,190.572125,0.0,0.0,0.0,0.0,0.04073333333333334,-5.498166666666667,-5.498166666666667,-0.5564,-0.7000000000000001,0.0063750000000000195,-0.8309999999999995,68.339,0.0036000000000000476,-0.225725,0.0420000000000007,100.0,1.0,1.0,210.76,0.0,0.0,0.0,0.0,0.0,0.0,0.0,8933.3,0.0,55.0,5.0,245.99333333333334,0.0,0.0,0.0,0.0,0.0,0.0,0.0,0.0,1.0079999999999991,1.0079999999999991,0.0,0.0,0.0,55.0,616.79921,10000.0,85.000001,85.000001,85.000001,85.000001,395.0,0.0,0.0,0.0,1.0,166.665,52.505,52.505,47.424,47.424,34.0,-23.925,23.712,-29.81,27.9075,0.0,1782.587,-0.19500000000000028,100.0,27.864,28.051000000000002,43.357,43.596000000000004,0.0,1.0,100.0,0.0,0.0,0.0,0.0,3131.714285714286,3040.2,4135.666666666667,4007.4,305.464,305.03625,314.8045,314.82025,21.9349,20.6185,21.948,21.4397,314.999998,314.999998,324.999988,324.999988,99.55754285714286,99.5074,99.56718571428571,99.54621428571429,0.08199999999999985,-0.052000000000000046,-0.11716666666666664,0.1060000000000001,-0.05333333333332746,-0.041666666666671404,1.512,1.5135,38.093,29.866,38.175,34.9985,55.492000000000004,35.2065,59.574,52.2175,53.473,34.359,58.172,50.582499999999996,52.658,33.932,58.0965,50.021,-0.09699999999999998,-0.06099999999999994,0.107615,0.09881000000000001,0.0,213.96,213.94,210.76,210.76,0.0,0.0
21,0.0,1.0,0.0,1.0,1.0,0.0,0.0,1.0,0.0,100.0,1.0,1.1856,26.0,0.0,0.0,0.0,59.999996,0.0,26.0,26.0,26.0,26.0,0.020000000000000018,0.27090000000000014,-0.04253333333333333,292.542,-2.7180999999999997,-2.6645,-1.5667,-1.5343,-205.07999999999998,215.36,190.5505,0.0,0.0,0.0,0.0,0.042633333333333336,-5.498166666666667,-5.498166666666667,-0.5731,0.057,-0.002375000000000238,-0.6529999999999996,68.46600000000001,0.0012000000000000899,-0.222975,0.02799999999999958,100.0,1.0,1.0,211.23000000000002,0.0,0.0,0.0,0.0,0.0,0.0,0.0,8953.2,0.0,55.0,5.0,246.45,1.0,0.0,0.0,0.0,0.0,0.0,0.0,0.0,1.056000000000001,1.056000000000001,0.0,0.0,1.0,55.0,616.79921,10000.0,85.000001,85.000001,85.000001,85.000001,395.0,0.0,0.0,0.0,1.0,166.665,52.307,52.307,48.004,48.004,34.0,-25.1925,24.342,-28.033333333333335,27.6,0.0,1782.539,-0.1899999999999995,100.0,27.936,27.939,43.046,43.218,0.0,1.0,100.0,0.0,0.0,0.0,0.0,3229.5714285714284,3101.2,4056.0,4039.6000000000004,305.1655,304.87525,315.03925,314.8405,21.9438,20.6237,21.9578,21.4482,314.999998,314.999998,324.999988,324.999988,99.55754285714286,99.5074,99.56732857142858,99.54635714285715,0.07650000000000023,-0.05266666666666664,-0.11149999999999993,0.11616666666666675,-0.05833333333333002,-0.051666666666669414,1.5623333333333334,1.5625,38.149,29.898333333333333,38.236000000000004,35.051,55.480999999999995,35.243,59.608000000000004,52.2745,53.462,34.3925,58.2035,50.6375,52.646,33.964,58.125,50.074666666666666,-0.09299999999999997,-0.0645,0.10383,0.10823,0.0,214.365,214.345,211.23000000000002,211.23000000000002,0.0,0.0
22,0.0,1.0,0.0,1.0,1.0,0.0,0.0,1.0,0.0,100.0,1.0,1.1856,26.0,0.0,0.0,0.0,59.999996,0.0,26.0,26.0,26.0,26.0,0.002777777777777768,0.28380000000000005,0.0211,292.068,-2.7556,-2.6683,-1.5710000000000002,-1.5312999999999999,-201.57999999999998,215.35750000000002,190.52675,0.0,0.0,0.0,0.0,0.044666666666666674,-5.498166666666667,-5.498166666666667,-0.5585,-0.0003333333333333333,0.006624999999999881,1.0090000000000003,68.604,-0.0007999999999999119,-0.20215,-0.14399999999999924,100.0,1.0,1.0,211.48000000000002,0.0,0.0,0.0,0.0,0.0,0.0,0.0,8963.8,0.0,55.0,5.0,246.94666666666666,0.0,0.0,0.0,0.0,0.0,0.0,0.0,0.0,1.1069999999999993,1.1069999999999993,0.0,0.0,0.0,55.0,616.79921,10000.0,85.000001,85.000001,85.000001,85.000001,395.0,0.0,0.0,0.0,1.0,166.665,52.307,52.307,47.15,47.15,34.0,-24.0125,25.588,-29.683333333333334,31.0475,0.0,1782.489,-0.27999999999999936,100.0,28.166,27.88,43.3,43.224000000000004,0.0,1.0,100.0,0.0,0.0,0.0,0.0,3106.857142857143,3192.0,4245.666666666667,4443.6,305.415,304.79025,314.46975,313.91925,21.9532,20.6293,21.9682,21.4573,314.999998,314.999998,324.999988,324.999988,99.55755714285715,99.50741666666667,99.56747142857142,99.5465,0.08950000000000014,-0.03833333333333311,-0.10199999999999998,0.11299999999999999,-0.03833333333332689,-0.046666666666666856,1.488,1.4809999999999999,38.207,29.933,38.301,35.108000000000004,55.47,35.282,59.647,52.338,53.451,34.4285,58.24,50.698499999999996,52.634,33.9985,58.158,50.13433333333333,-0.10099999999999998,-0.05049999999999999,0.09867000000000001,0.10633000000000001,0.0,214.805,214.785,211.48000000000002,211.48000000000002,0.0,0.0
23,0.0,1.0,0.0,1.0,1.0,0.0,0.0,1.0,0.0,100.0,1.0,1.1856,26.0,0.0,0.0,0.0,59.999996,0.0,26.0,26.0,26.0,26.0,-0.010000000000000009,0.27890000000000015,0.018600000000000002,292.023,-2.6547,-2.6905,-1.637,-1.5079,-198.29,215.35750000000002,190.5045,0.0,0.0,0.0,0.0,0.0466,-5.498166666666667,-5.498166666666667,-0.5726,-0.254,0.005624999999999991,0.6379999999999999,68.73,-0.0013999999999999568,-0.22440000000000002,-0.11599999999999966,100.0,1.0,1.0,211.93333333333334,0.0,0.0,0.0,0.0,0.0,0.0,0.0,8983.0,0.0,55.0,5.0,247.40333333333334,1.0,0.0,0.0,0.0,0.0,0.0,0.0,0.0,1.1550000000000011,1.1550000000000011,0.0,0.0,1.0,55.0,616.79921,10000.0,85.000001,85.000001,85.000001,85.000001,395.0,0.0,0.0,0.0,1.0,166.665,51.941,51.941,47.47,47.47,34.0,-23.54,25.34,-30.23,28.56,0.0,1782.44,-0.3100000000000005,100.0,28.387,28.070999999999998,43.428,43.49,0.0,1.0,100.0,0.0,0.0,0.0,0.0,3167.285714285714,3167.3,4198.666666666667,4218.1,305.0895,304.784,314.67325,314.45975,21.962,20.6346,21.9781,21.4659,314.999998,314.999998,324.999988,324.999988,99.55757142857144,99.50741666666667,99.56761428571428,99.54664285714286,0.0950000000000002,-0.04600000000000004,-0.10799999999999998,0.11099999999999999,-0.03999999999999915,-0.054999999999999716,1.5276666666666667,1.5225,38.263,29.966,38.363,35.162,55.459,35.319,59.6835,52.3975,53.441,34.4625,58.274,50.7555,52.622,34.0315,58.189,50.190333333333335,-0.10250000000000004,-0.058499999999999996,0.10883500000000002,0.10315,0.0,215.175,215.175,211.93333333333334,211.93333333333334,0.0,0.0
24,0.0,1.0,0.0,1.0,1.0,0.0,0.0,1.0,0.0,100.0,1.0,1.1856,26.0,0.0,0.0,0.0,59.999996,0.0,26.0,26.0,26.0,26.0,0.02388888888888885,0.272,-0.04733333333333333,292.465,-2.7051,-2.6902,-1.5472000000000001,-1.5585,-194.78,215.35500000000002,190.4805,0.0,0.0,0.0,0.0,0.048633333333333334,-5.498166666666667,-5.498166666666667,-0.5865,-0.3766666666666667,0.012249999999999872,-0.2469999999999999,68.86500000000001,0.0020000000000000018,-0.22335000000000002,-0.12799999999999923,100.0,1.0,1.0,212.36666666666667,0.0,0.0,0.0,0.0,0.0,0.0,0.0,9001.4,0.0,55.0,5.0,247.88666666666666,0.0,0.0,0.0,0.0,0.0,0.0,0.0,0.0,1.2059999999999995,1.2059999999999995,0.0,0.0,0.0,55.0,616.79921,10000.0,85.000001,85.000001,85.000001,85.000001,395.0,0.0,0.0,0.0,1.0,111.11,52.704,52.704,47.516,47.516,34.0,-23.405,23.454,-28.726666666666663,28.695,0.0,1782.391,-0.28500000000000014,100.0,27.984,27.976,43.284,43.491,0.0,1.0,100.0,0.0,0.0,0.0,0.0,3068.5714285714284,2985.7,4152.888888888889,4100.3,305.646,305.1885,314.75875,314.65125,21.9713,20.6401,21.9885,21.475,314.999998,314.999998,324.999988,324.999988,99.55758571428571,99.50743333333334,99.56775714285715,99.54678571428572,0.08174999999999999,-0.05566666666666675,-0.10999999999999999,0.11549999999999994,-0.04333333333332945,-0.03833333333332689,1.5293333333333334,1.512,38.321,30.000333333333334,38.428,35.2185,55.447,35.3565,59.721000000000004,52.4595,53.429,34.4975,58.3085,50.8145,52.61,34.064499999999995,58.2205,50.248,-0.09850000000000003,-0.056499999999999995,0.101815,0.10806,0.0,215.585,215.57999999999998,212.36666666666667,212.36666666666667,0.0,0.0
25,0.0,1.0,0.0,1.0,1.0,0.0,0.0,1.0,0.0,100.0,1.0,1.1856,26.0,0.0,0.0,0.0,59.999996,0.0,26.0,26.0,26.0,26.0,0.02244444444444449,0.2702,-0.022433333333333336,292.221,-2.7479,-2.6469,-1.5915,-1.5534,-191.47,215.35500000000002,190.45675,0.0,0.0,0.0,0.0,0.05056666666666667,-5.498166666666667,-5.498166666666667,-0.6011000000000001,0.06733333333333333,0.01912500000000006,-0.9479999999999995,68.99000000000001,0.005400000000000071,-0.218425,-0.1639999999999997,100.0,1.0,1.0,212.79333333333335,0.0,0.0,0.0,0.0,0.0,0.0,0.0,9019.5,0.0,55.0,5.0,248.34,1.0,0.0,0.0,0.0,0.0,0.0,0.0,0.0,1.2540000000000013,1.2540000000000013,0.0,0.0,1.0,55.0,616.79921,10000.0,85.000001,85.000001,85.000001,85.000001,395.0,0.0,0.0,0.0,1.0,166.665,51.894999999999996,51.894999999999996,47.806,47.806,34.0,-25.825,25.96,-28.586666666666666,28.6675,0.0,1782.343,-0.3049999999999997,100.0,27.948,28.163,43.082,43.303,0.0,1.0,100.0,0.0,0.0,0.0,0.0,3321.714285714286,3236.3,4061.4444444444443,4117.7,304.9505,304.44725,315.05525,314.61275,21.98,20.6454,21.9983,21.4835,314.999998,314.999998,324.999988,324.999988,99.5576,99.50743333333334,99.5679,99.54692857142857,0.08650000000000002,-0.04066666666666663,-0.11349999999999993,0.11549999999999994,-0.060000000000002274,-0.054999999999999716,1.544,1.5380000000000003,38.375,30.033666666666665,38.489000000000004,35.2715,55.435,35.394,59.7545,52.5165,53.418,34.5315,58.34,50.87,52.598,34.0975,58.2495,50.302,-0.10399999999999998,-0.05249999999999999,0.11338000000000001,0.106285,0.0,215.98000000000002,215.97500000000002,212.79333333333335,212.79333333333335,0.0,0.0
26,0.0,1.0,0.0,1.0,1.0,0.0,0.0,1.0,0.0,100.0,1.0,1.1856,26.0,0.0,0.0,0.0,59.999996,0.0,26.0,26.0,26.0,26.0,0.01577777777777789,0.26270000000000016,0.05686666666666666,291.428,-2.7041,-2.6619,-1.5512000000000001,-1.5594999999999999,-187.53,215.35500000000002,190.42825,0.0,0.0,0.0,0.0,0.052833333333333336,-5.498166666666667,-5.498166666666667,-0.5734,0.11666666666666667,0.008499999999999952,1.069,69.142,0.010099999999999998,-0.203775,-0.2679999999999998,100.0,1.0,1.0,213.06333333333333,0.0,0.0,0.0,0.0,0.0,0.0,0.0,9031.0,0.0,55.0,5.0,248.88333333333333,0.0,0.0,0.0,0.0,0.0,0.0,0.0,0.0,1.311,1.311,0.0,0.0,0.0,55.0,616.79921,10000.0,85.000001,85.000001,85.000001,85.000001,395.0,0.0,0.0,0.0,1.0,111.11,51.666,51.666,46.616,46.616,34.0,-23.09,25.312,-30.186666666666667,32.83,0.0,1782.285,-0.27999999999999936,100.0,28.805,28.395,43.709,43.766999999999996,0.0,1.0,100.0,0.0,0.0,0.0,0.0,3106.285714285714,3197.2,4371.444444444444,4442.1,305.248,304.773,314.18,313.85975,21.9906,20.6518,22.0101,21.4938,314.999998,314.999998,324.999988,324.999988,99.55761428571428,99.50745,99.56805714285714,99.5471,0.10475000000000012,-0.04499999999999993,-0.09350000000000003,0.13116666666666688,-0.041666666666671404,-0.045000000000001705,1.441,1.4335,38.441,30.073333333333334,38.563,35.3365,55.425,35.4385,59.7995,52.589,53.408,34.573,58.382,50.939,52.586,34.137,58.287,50.36966666666667,-0.10499999999999998,-0.05899999999999994,0.108295,0.109865,0.0,216.46,216.46,213.06333333333333,213.06333333333333,0.0,0.0
27,0.0,1.0,0.0,1.0,1.0,0.0,0.0,1.0,0.0,100.0,1.0,1.1856,26.0,0.0,0.0,0.0,59.999996,0.0,26.0,26.0,26.0,26.0,0.02300000000000013,0.242,-0.04856666666666667,291.824,-2.7519,-2.6704,-1.6124,-1.5385,-184.63,215.35500000000002,190.408,0.0,0.0,0.0,0.0,0.054533333333333336,-5.498166666666667,-5.498166666666667,-0.5953,-0.7896666666666666,0.018874999999999975,0.8500000000000005,69.25,0.012299999999999978,-0.23592500000000002,-0.2560000000000002,100.0,1.0,1.0,213.51,0.0,0.0,0.0,0.0,0.0,0.0,0.0,9049.9,0.0,55.0,5.0,249.27333333333334,1.0,0.0,0.0,0.0,0.0,0.0,0.0,0.0,1.352999999999998,1.352999999999998,0.0,0.0,1.0,55.0,616.79921,10000.0,85.000001,85.000001,85.000001,85.000001,395.0,0.0,0.0,0.0,1.0,166.665,51.956,51.956,46.692,46.692,34.0,-23.11,25.753999999999998,-28.419999999999998,29.325,0.0,1782.242,-0.2699999999999996,100.0,28.489,28.433,44.038,44.04,0.0,1.0,100.0,0.0,0.0,0.0,0.0,3036.5714285714284,3221.9,4114.888888888889,4142.3,305.623,304.63125,314.842,314.67375,21.9982,20.6564,22.0188,21.5014,314.999998,314.999998,324.999988,324.999988,99.55761428571428,99.50745,99.56818571428572,99.54721428571429,0.09624999999999995,-0.04366666666666674,-0.08999999999999997,0.12850000000000006,-0.04999999999999716,-0.041666666666671404,1.5026666666666668,1.504,38.489000000000004,30.102666666666664,38.617999999999995,35.384,55.415,35.471000000000004,59.832,52.641,53.399,34.603,58.412,50.989,52.576,34.1655,58.314499999999995,50.41866666666667,-0.10199999999999998,-0.06150000000000011,0.09940500000000001,0.10369500000000001,0.0,216.755,216.755,213.51,213.51,0.0,0.0
28,0.0,1.0,0.0,1.0,1.0,0.0,0.0,1.0,0.0,100.0,1.0,1.1856,26.0,0.0,0.0,0.0,59.999996,0.0,26.0,26.0,26.0,26.0,0.04200000000000004,0.27449999999999997,-0.05416666666666667,291.946,-2.6848,-2.6550000000000002,-1.6273,-1.5657,-181.09,215.35500000000002,190.382625,0.0,0.0,0.0,0.0,0.056600000000000004,-5.498166666666667,-5.498166666666667,-0.601,0.5053333333333333,0.00374999999999992,-1.0649999999999995,69.381,0.010000000000000009,-0.21677500000000002,-0.17999999999999972,100.0,1.0,1.0,213.98666666666668,0.0,0.0,0.0,0.0,0.0,0.0,0.0,9070.2,0.0,55.0,5.0,249.74333333333334,0.0,0.0,0.0,0.0,0.0,0.0,0.0,0.0,1.404,1.404,0.0,0.0,0.0,55.0,616.79921,10000.0,85.000001,85.000001,85.000001,85.000001,395.0,0.0,0.0,0.0,1.0,166.665,51.926,51.926,47.333,47.333,34.0,-23.294999999999998,24.768,-29.13,28.9725,0.0,1782.193,-0.3899999999999988,100.0,28.414,28.598,43.437,43.766999999999996,0.0,1.0,100.0,0.0,0.0,0.0,0.0,3168.857142857143,3092.1,4150.222222222223,4105.6,305.325,304.851,314.89375,314.68075,22.0075,20.6621,22.0291,21.5105,314.999998,314.999998,324.999988,324.999988,99.55762857142857,99.50745,99.56832857142857,99.54735714285714,0.10150000000000015,-0.04066666666666663,-0.10166666666666657,0.12183333333333324,-0.04999999999999716,-0.04333333333332945,1.5526666666666666,1.5505,38.547,30.138333333333335,38.682,35.4405,55.405,35.510999999999996,59.866,52.701499999999996,53.388,34.6395,58.444,51.0475,52.565,34.2005,58.3435,50.47533333333333,-0.11199999999999999,-0.050999999999999934,0.10559500000000001,0.10097500000000001,0.0,217.2,217.2,213.98666666666668,213.98666666666668,0.0,0.0
29,0.0,1.0,0.0,1.0,1.0,0.0,0.0,1.0,0.0,100.0,1.0,1.1856,26.0,0.0,0.0,0.0,59.999996,0.0,26.0,26.0,26.0,26.0,0.03822222222222216,0.2581,-0.021766666666666667,291.87,-2.7500999999999998,-2.7217000000000002,-1.5688,-1.5522,-177.55,215.35500000000002,190.35625,0.0,0.0,0.0,0.0,0.05863333333333334,-5.498166666666667,-5.498166666666667,-0.604,-0.682,0.0009999999999998899,0.9240000000000004,69.514,0.009000000000000119,-0.21452500000000002,-0.2999999999999998,100.0,1.0,1.0,214.25666666666666,0.0,0.0,0.0,0.0,0.0,0.0,0.0,9081.5,0.0,55.0,5.0,250.22666666666666,1.0,0.0,0.0,0.0,0.0,0.0,0.0,0.0,1.4549999999999983,1.4549999999999983,0.0,0.0,1.0,55.0,616.79921,10000.0,85.000001,85.000001,85.000001,85.000001,395.0,0.0,0.0,0.0,1.0,166.665,52.383,52.383,46.829,46.829,34.0,-22.7075,25.637999999999998,-28.02,31.6625,0.0,1782.141,-0.4499999999999993,100.0,28.268,28.204,43.9,43.946,0.0,1.0,100.0,0.0,0.0,0.0,0.0,3062.0,3100.0,4138.555555555556,4317.9,305.6965,304.998,314.7075,314.1875,22.0166,20.6677,22.0397,21.5197,314.999998,314.999998,324.999988,324.999988,99.55764285714285,99.50746666666667,99.56848571428571,99.54751428571429,0.10650000000000004,-0.03066666666666662,-0.08650000000000002,0.13600000000000012,-0.036666666666668846,-0.051666666666669414,1.4846666666666666,1.479,38.604,30.173333333333332,38.748000000000005,35.4985,55.393,35.5485,59.906,52.765,53.376999999999995,34.6745,58.481,51.108000000000004,52.552,34.234,58.376999999999995,50.534666666666666,-0.11299999999999999,-0.04150000000000009,0.09607500000000001,0.11616000000000001,0.0,217.595,217.61,214.25666666666666,214.25666666666666,0.0,0.0
30,0.0,1.0,0.0,1.0,1.0,0.0,0.0,1.0,0.0,100.0,1.0,1.1856,26.0,0.0,0.0,0.0,59.999996,0.0,26.0,26.0,26.0,26.0,0.03444444444444428,0.2612000000000001,-0.0031333333333333335,291.122,-2.7278000000000002,-2.6454,-1.6411,-1.4651,-174.0,215.35750000000002,190.32975,0.0,0.0,0.0,0.0,0.060700000000000004,-5.498166666666667,-5.498166666666667,-0.6038,0.9323333333333333,0.004124999999999934,-0.40200000000000014,69.643,0.010199999999999987,-0.21380000000000002,-0.3379999999999992,100.0,1.0,1.0,214.74,0.0,0.0,0.0,0.0,0.0,0.0,0.0,9102.0,0.0,55.0,5.0,250.68666666666667,0.0,0.0,0.0,0.0,0.0,0.0,1.0,0.0,1.5060000000000002,1.5060000000000002,0.0,0.0,0.0,55.0,616.79921,10000.0,85.000001,85.000001,85.000001,85.000001,395.0,0.0,0.0,0.0,1.0,166.665,50.629,50.629,46.875,46.875,34.0,-25.345,26.742,-30.136666666666667,28.78,0.0,1782.089,-0.45500000000000007,100.0,29.001,29.113,43.596000000000004,43.992000000000004,0.0,1.0,100.0,0.0,0.0,0.0,0.0,3381.142857142857,3273.3,4284.222222222223,4271.7,304.607,304.1645,314.633,314.45,22.0261,20.6736,22.0501,21.5289,314.999998,314.999998,324.999988,324.999988,99.55765714285714,99.50746666666667,99.56862857142858,99.54765714285715,0.10875000000000012,-0.03600000000000003,-0.09566666666666657,0.12050000000000005,-0.03999999999999915,-0.04333333333332945,1.542,1.5270000000000001,38.663,30.21,38.813,35.5555,55.385999999999996,35.59,59.9415,52.826499999999996,53.370000000000005,34.7125,58.513999999999996,51.167,52.544,34.2705,58.407,50.592666666666666,-0.12349999999999994,-0.04699999999999993,0.108975,0.101915,0.0,218.005,218.015,214.74,214.74,0.0,0.0
31,0.0,1.0,0.0,1.0,1.0,0.0,0.0,1.0,0.0,100.0,1.0,1.1856,26.0,0.0,0.0,0.0,59.999996,0.0,26.0,26.0,26.0,26.0,0.028888888888888964,0.24960000000000004,0.09296666666666667,290.665,-2.7704,-2.6256,-1.6432,-1.5459,-170.66,215.36,190.305375,0.0,0.0,0.0,0.0,0.06266666666666666,-5.498166666666667,-5.498166666666667,-0.5849,-0.387,0.010624999999999885,-0.7000000000000002,69.769,0.01670000000000016,-0.2169,-0.3360000000000003,100.0,1.0,1.0,214.93,0.0,0.0,0.0,0.0,0.0,0.0,0.0,9110.0,0.0,55.0,5.0,251.14,1.0,0.0,0.0,0.0,0.0,0.0,1.0,0.0,1.5539999999999985,1.5539999999999985,0.0,0.0,1.0,55.0,616.79921,10000.0,85.000001,85.000001,85.000001,85.000001,395.0,0.0,0.0,0.0,1.0,333.33500000000004,51.102,51.102,45.501999999999995,45.501999999999995,34.0,-24.5075,26.082,-32.09,32.0975,0.0,1782.041,-0.4399999999999995,100.0,28.883,29.206,44.427,44.812,0.0,1.0,100.0,0.0,0.0,0.0,0.0,3246.4285714285716,3264.9,4408.777777777777,4402.1,305.209,304.41375,314.12925,313.824,22.0348,20.6791,22.060200000000002,21.5378,314.999998,314.999998,324.999988,324.999988,99.55767142857142,99.50748333333334,99.56877142857142,99.5478,0.10524999999999984,-0.03866666666666663,-0.09666666666666657,0.12233333333333318,-0.041666666666671404,-0.03333333333333144,1.4326666666666668,1.411,38.718,30.244333333333334,38.876000000000005,35.611,55.376999999999995,35.6275,59.9805,52.8885,53.361000000000004,34.7475,58.5505,51.227000000000004,52.534,34.3035,58.4405,50.650999999999996,-0.11699999999999999,-0.04800000000000004,0.10225500000000001,0.10303000000000001,0.0,218.37,218.39,214.93,214.93,0.0,0.0
32,0.0,1.0,0.0,1.0,1.0,0.0,0.0,1.0,0.0,100.0,1.0,1.1856,26.0,0.0,0.0,0.0,59.999996,0.0,26.0,26.0,26.0,26.0,0.048555555555555685,0.2603,-0.03643333333333333,291.29,-2.6926,-2.6856,-1.5853000000000002,-1.6234000000000002,-167.09,215.365,190.28,0.0,0.0,0.0,0.0,0.06473333333333334,-5.498166666666667,-5.498166666666667,-0.6052000000000001,-0.29233333333333333,-0.005749999999999922,0.34499999999999975,69.896,0.02410000000000001,-0.23167500000000002,-0.45399999999999974,100.0,1.0,1.0,215.4766666666667,0.0,0.0,0.0,0.0,0.0,0.0,0.0,9133.2,0.0,55.0,5.0,251.60000000000002,0.0,0.0,0.0,0.0,0.0,0.0,1.0,0.0,1.6050000000000004,1.6050000000000004,0.0,0.0,0.0,55.0,616.79921,10000.0,85.000001,85.000001,85.000001,85.000001,395.0,0.0,0.0,0.0,1.0,166.665,51.544,51.544,46.524,46.524,34.0,-21.7125,26.178,-27.113333333333333,32.745000000000005,0.0,1781.992,-0.375,100.0,28.909,28.912,44.315,44.569,0.0,1.0,100.0,0.0,0.0,0.0,0.0,3064.285714285714,3183.7,4091.8888888888887,4264.6,305.4775,304.75925,314.86625,314.28575,22.044,20.6849,22.0707,21.547,314.999998,314.999998,324.999988,324.999988,99.5577,99.50748333333334,99.56892857142857,99.54795714285714,0.12375000000000025,-0.028999999999999915,-0.0751666666666666,0.14683333333333337,-0.030000000000001137,-0.051666666666669414,1.5173333333333334,1.501,38.775,30.28033333333333,38.942,35.669,55.366,35.667,60.016999999999996,52.9505,53.351,34.784,58.584,51.286500000000004,52.522999999999996,34.338499999999996,58.4705,50.708666666666666,-0.11599999999999999,-0.05249999999999999,0.10204500000000001,0.10896000000000002,0.0,218.755,218.79500000000002,215.4766666666667,215.4766666666667,0.0,0.0
33,0.0,1.0,0.0,1.0,1.0,0.0,0.0,1.0,0.0,100.0,1.0,1.1856,26.0,0.0,0.0,0.0,59.999996,0.0,26.0,26.0,26.0,26.0,0.03488888888888897,0.2603,-0.059366666666666665,291.58,-2.7265,-2.6962,-1.5931000000000002,-1.5885,-163.74,215.37,190.254875,0.0,0.0,0.0,0.0,0.06666666666666667,-5.498166666666667,-5.498166666666667,-0.6139,-0.19366666666666665,-0.006375000000000242,0.9089999999999998,70.017,0.025700000000000056,-0.2159,-0.41000000000000014,100.0,1.0,1.0,215.87,0.0,0.0,0.0,0.0,0.0,0.0,0.0,9149.9,0.0,55.0,5.0,252.03333333333336,1.0,0.0,0.0,0.0,0.0,0.0,1.0,0.0,1.6529999999999987,1.6529999999999987,0.0,0.0,1.0,55.0,616.79921,10000.0,85.000001,85.000001,85.000001,85.000001,395.0,0.0,0.0,0.0,1.0,166.665,51.849000000000004,51.849000000000004,46.86,46.86,34.0,-22.4225,25.778,-27.573333333333334,31.517500000000002,0.0,1781.942,-0.3849999999999998,100.0,28.738,28.651,44.096000000000004,44.354,0.0,1.0,100.0,0.0,0.0,0.0,0.0,3074.4285714285716,3114.7,4092.777777777778,4211.6,305.5305,304.967,314.919,314.49125,22.0527,20.6902,22.0804,21.5556,314.999998,314.999998,324.999988,324.999988,99.5577,99.50748333333334,99.56905714285715,99.5481,0.11474999999999991,-0.025333333333333208,-0.08383333333333332,0.14516666666666667,-0.045000000000001705,-0.046666666666666856,1.525,1.516,38.829,30.313666666666666,39.003,35.7225,55.355999999999995,35.7025,60.051,53.0075,53.341,34.8165,58.6155,51.341,52.512,34.3695,58.499,50.76233333333333,-0.11099999999999999,-0.04899999999999993,0.10802,0.10475000000000001,0.0,219.15,219.14,215.87,215.87,0.0,0.0
34,0.0,1.0,0.0,1.0,1.0,0.0,0.0,1.0,0.0,100.0,1.0,1.1856,26.0,0.0,0.0,0.0,59.999996,0.0,26.0,26.0,26.0,26.0,0.04655555555555568,0.252,-0.07780000000000001,291.824,-2.6633,-2.6776,-1.6245,-1.5285000000000002,-160.16,215.375,190.226875,0.0,0.0,0.0,0.0,0.06876666666666667,-5.498166666666667,-5.498166666666667,-0.6402,-0.8836666666666666,0.010499999999999954,-0.2610000000000001,70.146,0.028100000000000014,-0.218975,-0.3360000000000003,100.0,1.0,1.0,216.2266666666667,0.0,0.0,0.0,0.0,0.0,0.0,0.0,9165.0,0.0,55.0,5.0,252.5,0.0,0.0,0.0,0.0,0.0,0.0,1.0,0.0,1.7040000000000006,1.7040000000000006,0.0,0.0,0.0,55.0,616.79921,10000.0,85.000001,85.000001,85.000001,85.000001,395.0,0.0,0.0,0.0,1.0,166.665,52.414,52.414,47.043,47.043,34.0,-22.0875,23.848,-28.283333333333335,30.3525,0.0,1781.892,-0.35999999999999943,100.0,28.299,28.445,43.903,44.479,0.0,1.0,100.0,0.0,0.0,0.0,0.0,3071.142857142857,2944.7,4155.555555555556,4198.3,305.693,305.2975,314.83575,314.46975,22.0617,20.6958,22.0909,21.564799999999998,314.999998,314.999998,324.999988,324.999988,99.55771428571428,99.50748333333334,99.5692,99.54824285714285,0.10424999999999995,-0.03533333333333322,-0.08116666666666661,0.13883333333333336,-0.045000000000001705,-0.046666666666666856,1.529,1.5060000000000002,38.885999999999996,30.348666666666666,39.068,35.7805,55.345,35.7385,60.087,53.07,53.33,34.85,58.649,51.400999999999996,52.5,34.402,58.528999999999996,50.82066666666667,-0.10899999999999999,-0.0515000000000001,0.106995,0.10638500000000001,0.0,219.525,219.535,216.22666666666666,216.2266666666667,0.0,0.0
35,0.0,1.0,0.0,1.0,1.0,0.0,0.0,1.0,0.0,100.0,1.0,1.1856,26.0,0.0,0.0,0.0,59.999996,0.0,26.0,26.0,26.0,26.0,0.035666666666666735,0.24970000000000003,-0.09860000000000001,291.733,-2.7989,-2.6565000000000003,-1.5399,-1.5824,-156.57999999999998,215.3825,190.197,0.0,0.0,0.0,0.0,0.07083333333333335,-5.498166666666667,-5.498166666666667,-0.6772,-0.108,-0.0021249999999999325,-0.0649999999999995,70.272,0.026800000000000157,-0.22585000000000002,-0.29600000000000026,100.0,1.0,1.0,216.70666666666668,0.0,0.0,0.0,0.0,0.0,0.0,0.0,9185.4,0.0,55.0,5.0,252.95666666666665,1.0,0.0,0.0,0.0,0.0,0.0,1.0,0.0,1.754999999999999,1.754999999999999,0.0,0.0,1.0,55.0,616.79921,10000.0,85.000001,85.000001,85.000001,85.000001,395.0,0.0,0.0,0.0,1.0,166.665,51.666,51.666,46.768,46.768,34.0,-23.5125,27.712,-26.246666666666666,30.125,0.0,1781.842,-0.24499999999999922,100.0,28.3,28.708,43.702,43.959,0.0,1.0,100.0,0.0,0.0,0.0,0.0,3086.4285714285716,3378.9,4086.5555555555557,4055.3,305.4575,304.1585,314.99575,314.93375,22.0708,20.7016,22.1012,21.573900000000002,314.999998,314.999998,324.999988,324.999988,99.55772857142857,99.5075,99.56935714285714,99.5484,0.10850000000000026,-0.03066666666666662,-0.07683333333333331,0.15083333333333337,-0.05333333333332746,-0.045000000000001705,1.5543333333333333,1.5385,38.942,30.385333333333335,39.132,35.837,55.332,35.7785,60.1215,53.128,53.318,34.887,58.681,51.457499999999996,52.486000000000004,34.437,58.558,50.87566666666667,-0.09750000000000003,-0.0665,0.10808500000000001,0.10635000000000001,0.0,219.94,219.935,216.70666666666665,216.70666666666668,0.0,0.0
