,ABS Active,ABS Enabled,AID Allow Tire Blankets,AID Auto Blip,AID Auto Clutch,AID Auto Shift,AID Fuel Rate,AID Ideal Line,AID Mech Damage,AID Stability,AID Tire Wear Rate,Air Density,Air Temp,Ballast,Best Lap Delta,Best Lap Time,Brake Bias,Brake Pos,Brake Temp FL,Brake Temp FR,Brake Temp RL,Brake Temp RR,CG Accel Lateral,CG Accel Longitudinal,CG Accel Vertical,CG Height,Camber FL,Camber FR,Camber RL,Camber RR,Car Coord X,Car Coord Y,Car Coord Z,Car Damage Front,Car Damage Left,Car Damage Rear,Car Damage Right,Car Pos Norm,Caster FL,Caster FR,Chassis Pitch Angle,Chassis Pitch Rate,Chassis Roll Angle,Chassis Roll Rate,Chassis Velocity X,Chassis Velocity Y,Chassis Velocity Z,Chassis Yaw Rate,Clutch Pos,DRS Active,DRS Available,Drive Train Speed,ERS Heat Charging,ERS Is Charging,ERS Max Energy,ERS Power Level,ERS Recovery Level,Engine Brake Setting,Engine Limiter,Engine RPM,Flags,Fuel Level,Gear,Ground Speed,HR Sample Clock,In Pit,KERS Charge,KERS Deployed Energy,KERS Input,KERS Max Energy,LR Sample Clock,Lap Invalidated,Lap Time,Lap Time2,Last Lap Time,Last Sector Time,MR Sample Clock,Max Fuel,Max Power,Max RPM,Max Sus Travel FL,Max Sus Travel FR,Max Sus Travel RL,Max Sus Travel RR,Max Torque,Max Turbo Boost,Num Tires Off Track,Penalties Enabled,Position,Raw Data Sample Rate,Ride Height FL,Ride Height FR,Ride Height RL,Ride Height RR,Road Temp,Self Align Torque FL,Self Align Torque FR,Self Align Torque RL,Self Align Torque RR,Session Lap Count,Session Time Left,Steering Angle,Surface Grip,Suspension Travel FL,Suspension Travel FR,Suspension Travel RL,Suspension Travel RR,TC Active,TC Enabled,Throttle Pos,Tire Dirt Level FL,Tire Dirt Level FR,Tire Dirt Level RL,Tire Dirt Level RR,Tire Load FL,Tire Load FR,Tire Load RL,Tire Load RR,Tire Loaded Radius FL,Tire Loaded Radius FR,Tire Loaded Radius RL,Tire Loaded Radius RR,Tire Pressure FL,Tire Pressure FR,Tire Pressure RL,Tire Pressure RR,Tire Radius FL,Tire Radius FR,Tire Radius RL,Tire Radius RR,Tire Rubber Grip FL,Tire Rubber Grip FR,Tire Rubber Grip RL,Tire Rubber Grip RR,Tire Slip Angle FL,Tire Slip Angle FR,Tire Slip Angle RL,Tire Slip Angle RR,Tire Slip Ratio FL,Tire Slip Ratio FR,Tire Slip Ratio RL,Tire Slip Ratio RR,Tire Temp Core FL,Tire Temp Core FR,Tire Temp Core RL,Tire Temp Core RR,Tire Temp Inner FL,Tire Temp Inner FR,Tire Temp Inner RL,Tire Temp Inner RR,Tire Temp Middle FL,Tire Temp Middle FR,Tire Temp Middle RL,Tire Temp Middle RR,Tire Temp Outer FL,Tire Temp Outer FR,Tire Temp Outer RL,Tire Temp Outer RR,Toe In FL,Toe In FR,Toe In RL,Toe In RR,Turbo Boost,Wheel Angular Speed FL,Wheel Angular Speed FR,Wheel Angular Speed RL,Wheel Angular Speed RR,Wind Direction,Wind Speed
0,0.0,1.0,0.0,1.0,1.0,0.0,0.0,1.0,0.0,100.0,1.0,1.1856,26.0,0.0,0.0,0.0,59.99999,0.0,26.0,26.0,26.0,26.0,-0.03966666666666663,0.31120000000000014,0.1915,293.396,-2.7465,-2.6265,-1.5308000000000002,-1.5128,-275.67,215.655,190.9875,0.0,0.0,0.0,0.0,0.0015999999999999348,-5.498166666666667,-5.498166666666667,-0.5501,1.8915000000000002,-0.008444444444444255,-0.962,65.509,-0.028,-0.2184,0.1620000000000008,100.0,1.0,1.0,202.24666666666667,0.0,0.0,0.0,0.0,0.0,0.0,0.0,8572.5,0.0,55.0,5.0,235.8,0.0,0.0,0.0,0.0,0.0,0.0,0.0,0.0,0.0030000000000001137,0.0030000000000001137,0.0,0.0,0.0,55.0,616.79921,10000.0,85.0,85.0,85.0,85.0,395.0,0.0,0.0,0.0,1.0,20.0,51.3,51.3,48.888999999999996,48.888999999999996,34.0,-29.3375,31.662,-29.703333333333333,25.7525,0.0,1783.385,0.38500000000000156,100.0,27.142,27.015,40.305,40.105000000000004,0.0,1.0,100.0,0.0,0.0,0.0,0.0,3326.4285714285716,4232.8,4124.375,4075.9,304.7635,301.7235,314.84975,314.6525,21.782,20.5171,21.7434,21.28,314.99999,314.99999,324.99998,324.99998,99.55932857142857,99.50731666666667,99.56428571428572,99.54395714285714,0.011499999999999844,-0.08799999999999986,-0.14266666666666666,0.07816666666666668,-0.05833333333333002,-0.03166666666666629,1.5335,1.5463333333333333,37.137,29.232,36.896,34.0,56.436,34.558,58.769,51.235,54.341,33.712,57.4125,49.61,53.503,33.26,57.3845,49.04,-0.04699999999999993,-0.10400000000000009,0.10705,0.11053,0.0,205.28,205.2,202.24666666666667,202.24666666666667,0.0,0.0
1,0.0,1.0,0.0,1.0,1.0,0.0,0.0,1.0,0.0,100.0,1.0,1.1856,26.0,0.0,0.0,0.0,59.999996,0.0,26.0,26.0,26.0,26.0,-0.08111111111111102,0.32689999999999997,0.11695000000000001,292.633,-2.6526,-2.7052,-1.5470000000000002,-1.3737,-272.32,215.6575,190.9675,0.0,0.0,0.0,0.0,0.0035333333333333883,-5.498166666666667,-5.498166666666667,-0.4756,-1.3900000000000001,-0.05011111111111122,-0.05899999999999994,65.668,-0.0279,-0.17772500000000002,0.8479999999999999,100.0,1.0,1.0,202.18,0.0,0.0,0.0,0.0,0.0,0.0,0.0,8569.6,0.0,55.0,5.0,236.37,1.0,0.0,0.0,0.0,0.0,0.0,0.0,0.0,0.053999999999998494,0.053999999999998494,0.0,0.0,1.0,55.0,616.79921,10000.0,85.000001,85.000001,85.000001,85.000001,395.0,0.0,0.0,0.0,1.0,111.11,54.397999999999996,54.397999999999996,47.592,47.592,34.0,-23.39,16.584,-37.263333333333335,32.065,0.0,1783.337,0.5100000000000016,100.0,27.379,26.974,42.324,42.567,0.0,1.0,100.0,0.0,0.0,0.0,0.0,2840.714285714286,2447.9,4737.5,5239.8,306.144,307.016,313.1555,311.509,21.7918,20.522100000000002,21.7543,21.2893,314.999998,314.999998,324.999988,324.999988,99.55932857142857,99.50733333333334,99.56442857142856,99.5441,0.020999999999999908,-0.11499999999999999,-0.1495,0.057166666666666664,-0.046666666666666856,-0.03166666666666629,1.313,1.3353333333333333,37.199,29.263333333333335,36.964,34.058,56.419,34.592,58.815,51.302,54.324,33.7435,57.4555,49.674,53.486000000000004,33.2905,57.4255,49.102666666666664,-0.026499999999999968,-0.11549999999999994,0.10550500000000002,0.1107,0.0,205.735,205.655,202.18,202.18,0.0,0.0
2,0.0,1.0,0.0,1.0,1.0,0.0,0.0,1.0,0.0,100.0,1.0,1.1856,26.0,0.0,0.0,0.0,59.999996,0.0,26.0,26.0,26.0,26.0,-0.10922222222222211,0.2922,-0.1087,294.083,-2.639,-2.6544,-1.53235,-1.5096,-268.77,215.6575,190.9475,0.0,0.0,0.0,0.0,0.005599999999999938,-5.498166666666667,-5.498166666666667,-0.5723,0.8395,-0.0076666666666667105,2.511,65.811,-0.0376,-0.264725,1.0220000000000002,100.0,1.0,1.0,203.57333333333332,0.0,0.0,0.0,0.0,0.0,0.0,0.0,8628.8,0.0,55.0,5.0,236.89,0.0,0.0,0.0,0.0,0.0,0.0,0.0,0.0,0.10800000000000054,0.10800000000000054,0.0,0.0,0.0,55.0,616.79921,10000.0,85.000001,85.000001,85.000001,85.000001,395.0,0.0,0.0,0.0,1.0,166.665,52.231,52.231,50.919,50.919,34.0,-28.2025,21.73,-25.29,18.915,0.0,1783.283,0.5850000000000009,100.0,28.174,27.223,41.777,41.361000000000004,0.0,1.0,100.0,0.0,0.0,0.0,0.0,3246.285714285714,3133.0,3505.0,3442.6,304.7765,304.80975,316.2885,316.36575,21.8025,20.5276,21.7652,21.2982,314.999998,314.999998,324.999988,324.999988,99.55932857142857,99.50735,99.56457142857143,99.54424285714286,0.0030000000000001137,-0.11499999999999999,-0.18166666666666667,0.050833333333333335,-0.060000000000002274,-0.05666666666667197,1.7389999999999999,1.7873333333333334,37.266,29.297666666666665,37.032,34.1135,56.403999999999996,34.634,58.853,51.357,54.31,33.782,57.491,49.727000000000004,53.471000000000004,33.328,57.457499999999996,49.155,-0.03049999999999997,-0.121,0.10879000000000001,0.10300500000000001,0.0,206.21,206.10500000000002,203.57333333333332,203.57333333333332,0.0,0.0
3,0.0,1.0,0.0,1.0,1.0,0.0,0.0,1.0,0.0,100.0,1.0,1.1856,26.0,0.0,0.0,0.0,59.999996,0.0,26.0,26.0,26.0,26.0,-0.0858888888888889,0.3003,0.1442,293.198,-2.6528,-2.6975,-1.5119,-1.4906000000000001,-265.61,215.655,190.928375,0.0,0.0,0.0,0.0,0.007433333333333292,-5.498166666666667,-5.498166666666667,-0.502,0.378,-0.004111111111110954,-1.0670000000000002,65.96000000000001,-0.0505,-0.18732500000000002,0.822000000000001,100.0,1.0,1.0,203.41333333333333,0.0,0.0,0.0,0.0,0.0,0.0,0.0,8622.0,0.0,55.0,5.0,237.42333333333335,1.0,0.0,0.0,0.0,0.0,0.0,0.0,0.0,0.1559999999999988,0.1559999999999988,0.0,0.0,1.0,55.0,616.79921,10000.0,85.000001,85.000001,85.000001,85.000001,395.0,0.0,0.0,0.0,1.0,166.665,53.452,53.452,47.76,47.76,34.0,-24.6025,19.942,-34.17333333333333,26.515,0.0,1783.235,0.6649999999999991,100.0,27.7,27.189,42.094,41.782,0.0,1.0,100.0,0.0,0.0,0.0,0.0,2905.857142857143,2930.2,4473.875,4273.6,306.048,305.5005,313.87975,314.1555,21.8116,20.5326,21.775,21.3066,314.999998,314.999998,324.999988,324.999988,99.55934285714285,99.50736666666667,99.5647,99.54438571428571,0.0027500000000002522,-0.127,-0.16133333333333336,0.065,-0.03333333333333144,-0.04833333333333201,1.4475,1.478,37.323,29.328666666666663,37.094,34.1665,56.385999999999996,34.674,58.891999999999996,51.421,54.293,33.819,57.527,49.7885,53.454,33.363,57.491,49.215,-0.028000000000000025,-0.1260000000000001,0.10278000000000001,0.11182500000000001,0.0,206.67000000000002,206.595,203.41333333333333,203.41333333333333,0.0,0.0
4,0.0,1.0,0.0,1.0,1.0,0.0,0.0,1.0,0.0,100.0,1.0,1.1856,26.0,0.0,0.0,0.0,59.999996,0.0,26.0,26.0,26.0,26.0,-0.11255555555555552,0.2836000000000001,-0.037875,293.549,-2.6528,-2.7655,-1.46025,-1.5989,-262.44,215.65,190.91025,0.0,0.0,0.0,0.0,0.009299999999999975,-5.498166666666667,-5.498166666666667,-0.5306000000000001,-0.881,-0.05266666666666664,0.18899999999999995,66.096,-0.0618,-0.232775,1.2100000000000009,100.0,1.0,1.0,203.99666666666667,0.0,0.0,0.0,0.0,0.0,0.0,0.0,8646.6,0.0,55.0,5.0,237.91666666666669,0.0,0.0,0.0,0.0,0.0,0.0,0.0,0.0,0.20400000000000063,0.20400000000000063,0.0,0.0,0.0,55.0,616.79921,10000.0,85.000001,85.000001,85.000001,85.000001,395.0,0.0,0.0,0.0,1.0,166.665,53.253,53.253,48.798,48.798,34.0,-27.49,20.186,-30.643333333333334,23.265,0.0,1783.185,0.625,100.0,27.662,26.757,42.761,41.866,0.0,1.0,100.0,0.0,0.0,0.0,0.0,3123.857142857143,2941.4,4075.0,3866.8,305.263,305.52425,314.84475,315.21125,21.8209,20.537399999999998,21.7851,21.315,314.999998,314.999998,324.999988,324.999988,99.55934285714285,99.50738333333334,99.56482857142858,99.54451428571429,-0.010000000000000009,-0.1363333333333332,-0.18616666666666667,0.041,-0.051666666666669414,-0.05666666666667197,1.5485,1.5953333333333335,37.381,29.358666666666664,37.157,34.2185,56.370000000000005,34.711,58.9325,51.4785,54.278,33.8535,57.5655,49.8435,53.438,33.396,57.5265,49.269,-0.01749999999999996,-0.1280000000000001,0.11107000000000002,0.11153500000000001,0.0,207.065,206.97,203.99666666666667,203.99666666666667,0.0,0.0
5,0.0,1.0,0.0,1.0,1.0,0.0,0.0,1.0,0.0,100.0,1.0,1.1856,26.0,0.0,0.0,0.0,59.999996,0.0,26.0,26.0,26.0,26.0,-0.09988888888888892,0.28400000000000003,-0.039900000000000005,293.839,-2.6654,-2.7222,-1.5121,-1.5976,-259.06,215.64249999999998,190.890375,0.0,0.0,0.0,0.0,0.011266666666666536,-5.498166666666667,-5.498166666666667,-0.5399,0.48150000000000004,-0.04899999999999993,-0.4159999999999999,66.241,-0.0761,-0.22360000000000002,1.1760000000000002,100.0,1.0,1.0,204.54666666666668,0.0,0.0,0.0,0.0,0.0,0.0,0.0,8670.0,0.0,55.0,5.0,238.43666666666667,1.0,0.0,0.0,0.0,0.0,0.0,0.0,0.0,0.254999999999999,0.254999999999999,0.0,0.0,1.0,55.0,616.79921,10000.0,85.000001,85.000001,85.000001,85.000001,395.0,0.0,0.0,0.0,1.0,111.11,53.36,53.36,49.408,49.408,34.0,-27.9525,19.622,-31.363333333333333,22.25,0.0,1783.136,0.3249999999999993,100.0,27.552,26.823,42.315,41.393,0.0,1.0,100.0,0.0,0.0,0.0,0.0,3183.5714285714284,2857.0,3983.0,3893.7,305.193,305.591,315.16975,315.16975,21.8308,20.5426,21.7954,21.3236,314.999998,314.999998,324.999988,324.999988,99.55934285714285,99.5074,99.56498571428571,99.54464285714286,-0.006999999999999895,-0.1296666666666666,-0.2125,0.0195,-0.046666666666666856,-0.036666666666668846,1.5935000000000001,1.635,37.443,29.391,37.221000000000004,34.2725,56.355000000000004,34.7515,58.972,51.536500000000004,54.263,33.8905,57.602000000000004,49.899,53.423,33.432,57.56,49.32333333333334,-0.04749999999999999,-0.09749999999999992,0.11107500000000001,0.10594500000000001,0.0,207.54000000000002,207.425,204.54666666666668,204.54666666666668,0.0,0.0
6,0.0,1.0,0.0,1.0,1.0,0.0,0.0,1.0,0.0,100.0,1.0,1.1856,26.0,0.0,0.0,0.0,59.999996,0.0,26.0,26.0,26.0,26.0,-0.1213333333333334,0.2955000000000001,0.022725000000000002,293.61,-2.6544,-2.7872,-1.51325,-1.5683,-255.88,215.6325,190.870875,0.0,0.0,0.0,0.0,0.0131,-5.498166666666667,-5.498166666666667,-0.5246000000000001,-0.10450000000000004,-0.05911111111111156,-0.95,66.381,-0.0795,-0.201775,0.9520000000000008,100.0,1.0,1.0,204.78,0.0,0.0,0.0,0.0,0.0,0.0,0.0,8679.9,0.0,55.0,5.0,238.94333333333333,0.0,0.0,0.0,0.0,0.0,0.0,0.0,0.0,0.3030000000000008,0.3030000000000008,0.0,0.0,0.0,55.0,616.79921,10000.0,85.000001,85.000001,85.000001,85.000001,395.0,0.0,0.0,0.0,1.0,166.665,53.726,53.726,48.492,48.492,34.0,-28.235,19.202,-34.093333333333334,23.552500000000002,0.0,1783.088,0.3500000000000014,100.0,27.257,26.562,42.495000000000005,41.555,0.0,1.0,100.0,0.0,0.0,0.0,0.0,3191.5714285714284,2778.8,4311.125,4053.4,305.2605,305.82675,314.3265,314.7225,21.8401,20.5474,21.8054,21.3319,314.999998,314.999998,324.999988,324.999988,99.55935714285714,99.5074,99.56511428571429,99.54478571428571,-0.016999999999999904,-0.1383333333333332,-0.19433333333333336,0.02316666666666667,-0.045000000000001705,-0.036666666666668846,1.5125,1.541,37.5,29.421,37.283,34.3245,56.339,34.789,59.0115,51.5955,54.248000000000005,33.925,57.638999999999996,49.9555,53.407,33.4645,57.5945,49.37866666666667,-0.046499999999999986,-0.09899999999999998,0.096155,0.115515,0.0,207.96,207.88,204.78,204.78,0.0,0.0
7,0.0,1.0,0.0,1.0,1.0,0.0,0.0,1.0,0.0,100.0,1.0,1.1856,26.0,0.0,0.0,0.0,59.999996,0.0,26.0,26.0,26.0,26.0,-0.0925555555555555,0.2895000000000001,-0.0046500000000000005,293.533,-2.6153,-2.784,-1.5133,-1.6159,-252.49,215.6175,190.85025,0.0,0.0,0.0,0.0,0.015066666666666562,-5.498166666666667,-5.498166666666667,-0.5334,0.08850000000000002,-0.047666666666666746,1.056,66.526,-0.078,-0.217225,0.6639999999999997,100.0,1.0,1.0,205.32,0.0,0.0,0.0,0.0,0.0,0.0,0.0,8702.7,0.0,55.0,5.0,239.46333333333334,1.0,0.0,0.0,0.0,0.0,0.0,0.0,0.0,0.3539999999999992,0.3539999999999992,0.0,0.0,1.0,55.0,616.79921,10000.0,85.000001,85.000001,85.000001,85.000001,395.0,0.0,0.0,0.0,1.0,333.33500000000004,53.253,53.253,48.874,48.874,34.0,-25.69,21.664,-30.97,23.9675,0.0,1783.035,-0.08999999999999986,100.0,27.789,26.688,42.689,41.612,0.0,1.0,100.0,0.0,0.0,0.0,0.0,3093.142857142857,2955.7,4039.875,3992.3,305.3135,305.42175,314.9265,314.92675,21.85,20.552599999999998,21.8159,21.3408,314.999998,314.999998,324.999988,324.999988,99.55935714285714,99.50741666666667,99.56525714285715,99.54492857142857,0.01949999999999985,-0.10799999999999987,-0.18466666666666667,0.03,-0.041666666666671404,-0.046666666666666856,1.548,1.566,37.563,29.453666666666663,37.349000000000004,34.379999999999995,56.324,34.829,59.052,51.6565,54.233999999999995,33.962,57.6765,50.0145,53.391,33.5,57.6295,49.43633333333334,-0.07599999999999996,-0.06699999999999995,0.10132500000000001,0.10136,0.0,208.39,208.325,205.32,205.32,0.0,0.0
8,0.0,1.0,0.0,1.0,1.0,0.0,0.0,1.0,0.0,100.0,1.0,1.1856,26.0,0.0,0.0,0.0,59.999996,0.0,26.0,26.0,26.0,26.0,-0.06833333333333336,0.2783,-0.011475,293.579,-2.695,-2.7205,-1.5422500000000001,-1.6059,-248.89,215.60250000000002,190.828375,0.0,0.0,0.0,0.0,0.017166666666666552,-5.498166666666667,-5.498166666666667,-0.5372,-0.19450000000000012,-0.03533333333333344,0.492,66.68,-0.0631,-0.218625,0.24200000000000088,100.0,1.0,1.0,205.78,0.0,0.0,0.0,0.0,0.0,0.0,0.0,8722.3,0.0,55.0,5.0,240.01666666666665,0.0,0.0,0.0,0.0,0.0,0.0,0.0,0.0,0.40800000000000125,0.40800000000000125,0.0,0.0,0.0,55.0,616.79921,10000.0,85.000001,85.000001,85.000001,85.000001,395.0,0.0,0.0,0.0,1.0,166.665,53.421,53.421,48.584,48.584,34.0,-24.9025,22.598,-30.313333333333333,25.525000000000002,0.0,1782.982,-0.15500000000000114,100.0,27.463,26.792,42.712,41.76,0.0,1.0,100.0,0.0,0.0,0.0,0.0,3024.0,3036.7,4003.25,4019.3,305.609,305.213,315.0545,314.8565,21.8604,20.5581,21.826999999999998,21.3502,314.999998,314.999998,324.999988,324.999988,99.55935714285714,99.50743333333334,99.56541428571428,99.54507142857143,0.03725000000000023,-0.08766666666666678,-0.171,0.058333333333333334,-0.05333333333332746,-0.046666666666666856,1.5434999999999999,1.5496666666666665,37.626999999999995,29.488333333333333,37.419,34.439,56.306,34.8705,59.095,51.722,54.217,34.0005,57.716499999999996,50.077,53.373999999999995,33.536500000000004,57.6665,49.49766666666667,-0.08899999999999997,-0.05800000000000005,0.10521000000000001,0.11023500000000001,0.0,208.85500000000002,208.82,205.78,205.78,0.0,0.0
9,0.0,1.0,0.0,1.0,1.0,0.0,0.0,1.0,0.0,100.0,1.0,1.1856,26.0,0.0,0.0,0.0,59.999996,0.0,26.0,26.0,26.0,26.0,-0.03788888888888886,0.28480000000000016,-0.0085,293.304,-2.6242,-2.7208,-1.5499,-1.5594000000000001,-245.89,215.5875,190.809875,0.0,0.0,0.0,0.0,0.018933333333333358,-5.498166666666667,-5.498166666666667,-0.535,0.256,-0.04211111111111121,-0.5800000000000001,66.807,-0.0495,-0.212325,0.10200000000000031,100.0,1.0,1.0,206.15666666666667,0.0,0.0,0.0,0.0,0.0,0.0,0.0,8738.3,0.0,55.0,5.0,240.4766666666667,1.0,0.0,0.0,0.0,0.0,0.0,0.0,0.0,0.4529999999999994,0.4529999999999994,0.0,0.0,1.0,55.0,616.79921,10000.0,85.000001,85.000001,85.000001,85.000001,395.0,0.0,0.0,0.0,1.0,333.33500000000004,52.979,52.979,48.766999999999996,48.766999999999996,34.0,-25.787499999999998,22.502000000000002,-30.57,25.9075,0.0,1782.936,-0.3299999999999983,100.0,27.605,27.085,42.535,41.906,0.0,1.0,100.0,0.0,0.0,0.0,0.0,3234.5714285714284,2951.8,4075.125,4073.0,305.098,305.29625,314.9405,314.69575,21.8691,20.5628,21.836199999999998,21.358,314.999998,314.999998,324.999988,324.999988,99.55935714285714,99.50745,99.56554285714286,99.5452,0.044500000000000206,-0.07666666666666666,-0.16283333333333336,0.06966666666666667,-0.054999999999999716,-0.045000000000001705,1.5495,1.5526666666666666,37.682,29.517333333333333,37.476,34.488,56.292,34.905,59.132,51.78,54.204,34.034,57.7515,50.1325,53.361000000000004,33.569,57.6965,49.552,-0.10449999999999993,-0.04200000000000004,0.10835000000000002,0.10908000000000001,0.0,209.25,209.22,206.15666666666667,206.15666666666667,0.0,0.0
10,0.0,1.0,0.0,1.0,1.0,0.0,0.0,1.0,0.0,100.0,1.0,1.1856,26.0,0.0,0.0,0.0,59.999996,0.0,26.0,26.0,26.0,26.0,-0.013777777777777778,0.29290000000000016,-0.00185,293.167,-2.6845,-2.6968,-1.51335,-1.5443,-242.28,215.5675,190.787875,0.0,0.0,0.0,0.0,0.020999999999999908,-5.498166666666667,-5.498166666666667,-0.5287000000000001,-0.35650000000000004,-0.015444444444444372,0.0,66.96000000000001,-0.0303,-0.2122,-0.11599999999999966,100.0,1.0,1.0,206.54000000000002,0.0,0.0,0.0,0.0,0.0,0.0,0.0,8754.4,0.0,55.0,5.0,241.02666666666664,0.0,0.0,0.0,0.0,0.0,0.0,1.0,0.0,0.5069999999999979,0.5069999999999979,0.0,0.0,0.0,55.0,616.79921,10000.0,85.000001,85.000001,85.000001,85.000001,395.0,0.0,0.0,0.0,1.0,166.665,53.314,53.314,48.278999999999996,48.278999999999996,34.0,-24.2275,22.456,-30.133333333333333,27.44,0.0,1782.883,-0.41999999999999815,100.0,27.504,27.094,42.701,42.354,0.0,1.0,100.0,0.0,0.0,0.0,0.0,3091.0,2924.8,4160.5,4195.9,305.547,305.40925,314.7185,314.3675,21.8795,20.5684,21.8474,21.3676,314.999998,314.999998,324.999988,324.999988,99.55937142857142,99.50745,99.56568571428572,99.54534285714286,0.06225000000000014,-0.06600000000000006,-0.1455,0.08083333333333333,-0.046666666666666856,-0.060000000000002274,1.5194999999999999,1.5146666666666666,37.747,29.552333333333333,37.546,34.5475,56.278,34.945,59.173,51.843,54.19,34.069,57.789500000000004,50.193,53.346000000000004,33.6025,57.7335,49.611333333333334,-0.11149999999999993,-0.038999999999999924,0.10947000000000001,0.10594500000000001,0.0,209.70499999999998,209.71,206.54000000000002,206.54000000000002,0.0,0.0
11,0.0,1.0,0.0,1.0,1.0,0.0,0.0,1.0,0.0,100.0,1.0,1.1856,26.0,0.0,0.0,0.0,59.999996,0.0,26.0,26.0,26.0,26.0,0.00955555555555554,0.29510000000000014,-0.05545,293.51800000000003,-2.6912,-2.6891,-1.5686,-1.5171000000000001,-239.06,215.55,190.76825,0.0,0.0,0.0,0.0,0.022599999999999953,-5.498166666666667,-5.498166666666667,-0.5507000000000001,-0.264,0.01011111111111096,-0.32499999999999996,67.093,-0.0143,-0.2255,-0.2759999999999998,100.0,1.0,1.0,207.07999999999998,0.0,0.0,0.0,0.0,0.0,0.0,0.0,8777.4,0.0,55.0,5.0,241.50666666666666,1.0,0.0,0.0,0.0,0.0,0.0,1.0,0.0,0.5549999999999997,0.5549999999999997,0.0,0.0,1.0,55.0,616.79921,10000.0,85.000001,85.000001,85.000001,85.000001,395.0,0.0,0.0,0.0,1.0,166.665,53.253,53.253,48.92,48.92,34.0,-23.9525,23.88,-26.883333333333333,26.485,0.0,1782.836,-0.5,100.0,27.261,27.172,42.432,42.362,0.0,1.0,100.0,0.0,0.0,0.0,0.0,3108.285714285714,3019.4,3906.375,4013.6000000000004,305.5085,305.111,315.34925,314.8605,21.8886,20.5734,21.8572,21.376,314.999998,314.999998,324.999988,324.999988,99.55938571428571,99.50746666666667,99.56582857142857,99.54548571428572,0.07374999999999998,-0.05066666666666664,-0.11633333333333333,0.10383333333333333,-0.045000000000001705,-0.046666666666666856,1.6005,1.5819999999999999,37.804,29.584,37.607,34.6,56.263999999999996,34.980000000000004,59.208,51.900999999999996,54.176,34.1015,57.822,50.249,53.331,33.6335,57.7635,49.666,-0.11249999999999993,-0.034499999999999975,0.10212500000000001,0.10816,0.0,210.095,210.115,207.07999999999998,207.07999999999998,0.0,0.0
12,0.0,1.0,0.0,1.0,1.0,0.0,0.0,1.0,0.0,100.0,1.0,1.1856,26.0,0.0,0.0,0.0,59.999996,0.0,26.0,26.0,26.0,26.0,0.013222222222222246,0.3017000000000001,0.0095,293.091,-2.7172,-2.6878,-1.54715,-1.5371000000000001,-235.64,215.53,190.746375,0.0,0.0,0.0,0.0,0.025466666666666526,-5.498166666666667,-5.498166666666667,-0.5413,0.41700000000000004,0.012222222222222134,0.766,67.237,0.0012000000000000001,-0.20445000000000002,-0.39200000000000035,100.0,1.0,1.0,207.43,0.0,0.0,0.0,0.0,0.0,0.0,0.0,8792.2,0.0,55.0,5.0,242.02333333333334,0.0,0.0,0.0,0.0,0.0,0.0,1.0,0.0,0.6059999999999981,0.6059999999999981,0.0,0.0,0.0,55.0,616.79921,10000.0,85.000001,85.000001,85.000001,85.000001,395.0,0.0,0.0,0.0,1.0,166.665,52.963,52.963,48.187,48.187,34.0,-22.71,25.9,-27.293333333333333,30.2325,0.0,1782.783,-0.48999999999999844,100.0,27.497,27.301000000000002,42.391999999999996,42.277,0.0,1.0,100.0,0.0,0.0,0.0,0.0,3003.5714285714284,3169.1,4094.5,4239.5,305.622,304.7965,314.854,314.39575,21.8983,20.5789,21.8676,21.384900000000002,314.999998,314.999998,324.999988,324.999988,99.55938571428571,99.50746666666667,99.56597142857143,99.54562857142857,0.09250000000000025,-0.03066666666666662,-0.09316666666666668,0.13316666666666666,-0.041666666666671404,-0.04999999999999716,1.5445,1.528,37.864000000000004,29.618000000000002,37.672,34.656,56.25,35.018,59.246,51.963,54.163,34.1365,57.8575,50.3085,53.317,33.667500000000004,57.795500000000004,49.724333333333334,-0.11099999999999999,-0.03550000000000009,0.10516500000000001,0.11014000000000002,0.0,210.54500000000002,210.575,207.43,207.43,0.0,0.0
13,0.0,1.0,0.0,1.0,1.0,0.0,0.0,1.0,0.0,100.0,1.0,1.1856,26.0,0.0,0.0,0.0,59.999996,0.0,26.0,26.0,26.0,26.0,0.045333333333333226,0.28970000000000007,0.029875000000000002,292.816,-2.6923,-2.695,-1.57815,-1.5430000000000001,-232.41,215.5125,190.726,0.0,0.0,0.0,0.0,0.026766666666666605,-5.498166666666667,-5.498166666666667,-0.5368,-0.2270000000000001,0.011555555555555541,1.175,67.37100000000001,0.0111,-0.211925,-0.5379999999999994,100.0,1.0,1.0,207.76666666666665,0.0,0.0,0.0,0.0,0.0,0.0,0.0,8806.5,0.0,55.0,5.0,242.50666666666666,1.0,0.0,0.0,0.0,0.0,0.0,1.0,0.0,0.6539999999999999,0.6539999999999999,0.0,0.0,1.0,55.0,616.79921,10000.0,85.000001,85.000001,85.000001,85.000001,395.0,0.0,0.0,0.0,1.0,166.665,52.841,52.841,48.004,48.004,34.0,-21.8125,26.342,-27.583333333333336,31.37,0.0,1782.736,-0.4800000000000004,100.0,27.708,27.417,42.72,42.694,0.0,1.0,100.0,0.0,0.0,0.0,0.0,3020.857142857143,3131.6,4106.125,4318.1,305.568,304.92625,314.77125,314.1755,21.9073,20.584,21.8775,21.3935,314.999998,314.999998,324.999988,324.999988,99.5594,99.50748333333334,99.56611428571429,99.54575714285714,0.1120000000000001,-0.012666666666666604,-0.08483333333333333,0.13583333333333333,-0.03499999999999659,-0.054999999999999716,1.517,1.4889999999999999,37.921,29.650333333333336,37.733999999999995,34.7095,56.238,35.0535,59.284,52.0235,54.152,34.169,57.893,50.3665,53.305,33.698499999999996,57.828,49.781666666666666,-0.123,-0.026499999999999968,0.10897000000000001,0.10690000000000001,0.0,210.95499999999998,210.99,207.76666666666665,207.76666666666665,0.0,0.0
14,0.0,1.0,0.0,1.0,1.0,0.0,0.0,1.0,0.0,100.0,1.0,1.1856,26.0,0.0,0.0,0.0,59.999996,0.0,26.0,26.0,26.0,26.0,0.045666666666666744,0.27570000000000006,-0.023475000000000003,293.076,-2.7091,-2.7038,-1.57505,-1.5333999999999999,-228.76,215.495,190.703375,0.0,0.0,0.0,0.0,0.028866666666666596,-5.498166666666667,-5.498166666666667,-0.5507000000000001,-0.021500000000000075,0.028999999999999915,0.983,67.519,0.0229,-0.225475,-0.5860000000000003,100.0,1.0,1.0,208.32999999999998,0.0,0.0,0.0,0.0,0.0,0.0,0.0,8830.4,0.0,55.0,5.0,243.04000000000002,0.0,0.0,0.0,0.0,0.0,0.0,1.0,0.0,0.7079999999999984,0.7079999999999984,0.0,0.0,0.0,55.0,616.79921,10000.0,85.000001,85.000001,85.000001,85.000001,395.0,0.0,0.0,0.0,1.0,166.665,52.856,52.856,48.462,48.462,34.0,-21.4075,26.476,-25.509999999999998,29.84,0.0,1782.682,-0.4800000000000004,100.0,27.692,27.604,42.53,42.765,0.0,1.0,100.0,0.0,0.0,0.0,0.0,2959.285714285714,3129.2,3935.125,4155.1,305.7575,304.8875,315.2335,314.57675,21.9175,20.5899,21.8885,21.4031,314.999998,314.999998,324.999988,324.999988,99.55941428571428,99.50748333333334,99.56625714285714,99.54591428571429,0.11324999999999985,-0.01200000000000001,-0.07616666666666667,0.14033333333333334,-0.045000000000001705,-0.05833333333333002,1.5594999999999999,1.5373333333333332,37.985,29.686666666666667,37.803,34.769,56.224999999999994,35.093,59.323499999999996,52.09,54.138999999999996,34.206,57.9295,50.43,53.291,33.734,57.8615,49.844,-0.11699999999999999,-0.03649999999999998,0.10574000000000001,0.09972,0.0,211.41,211.44,208.32999999999998,208.32999999999998,0.0,0.0
15,0.0,1.0,0.0,1.0,1.0,0.0,0.0,1.0,0.0,100.0,1.0,1.1856,26.0,0.0,0.0,0.0,59.999996,0.0,26.0,26.0,26.0,26.0,0.0474444444444444,0.2795000000000001,-0.00685,292.999,-2.7055,-2.6737,-1.5860500000000002,-1.5489000000000002,-225.51999999999998,215.48000000000002,190.682875,0.0,0.0,0.0,0.0,0.03076666666666661,-5.498166666666667,-5.498166666666667,-0.5424,0.235,0.040999999999999925,0.732,67.651,0.029300000000000003,-0.21065,-0.5279999999999996,100.0,1.0,1.0,208.69333333333333,0.0,0.0,0.0,0.0,0.0,0.0,0.0,8845.7,0.0,55.0,5.0,243.51666666666665,1.0,0.0,0.0,0.0,0.0,0.0,1.0,0.0,0.7560000000000002,0.7560000000000002,0.0,0.0,1.0,55.0,616.79921,10000.0,85.000001,85.000001,85.000001,85.000001,395.0,0.0,0.0,0.0,1.0,166.665,52.948,52.948,48.263999999999996,48.263999999999996,34.0,-20.9375,25.926000000000002,-26.086666666666666,31.3225,0.0,1782.635,-0.3949999999999996,100.0,27.666,27.67,42.391999999999996,42.843,0.0,1.0,100.0,0.0,0.0,0.0,0.0,2911.5714285714284,3109.1,4022.0,4222.6,305.9015,304.94025,315.028,314.38725,21.9265,20.5951,21.8983,21.4116,314.999998,314.999998,324.999988,324.999988,99.55942857142857,99.50748333333334,99.56638571428572,99.54605714285714,0.11399999999999988,-0.014666666666666606,-0.06933333333333333,0.15116666666666667,-0.046666666666666856,-0.04333333333332945,1.536,1.518,38.041,29.71933333333333,37.864000000000004,34.8225,56.213,35.1285,59.3585,52.1495,54.128,34.2385,57.962,50.4875,53.278999999999996,33.7655,57.8915,49.900333333333336,-0.10949999999999993,-0.044499999999999984,0.10073000000000001,0.10764000000000001,0.0,211.87,211.86,208.69333333333333,208.69333333333333,0.0,0.0
16,0.0,1.0,0.0,1.0,1.0,0.0,0.0,1.0,0.0,100.0,1.0,1.1856,26.0,0.0,0.0,0.0,59.999996,0.0,26.0,26.0,26.0,26.0,0.052999999999999936,0.2633000000000001,0.00055,292.786,-2.7669,-2.6228,-1.5624,-1.5473,-222.26999999999998,215.465,190.662125,0.0,0.0,0.0,0.0,0.0326333333333334,-5.498166666666667,-5.498166666666667,-0.5538000000000001,-0.42199999999999993,0.03122222222222204,0.20599999999999996,67.783,0.0298,-0.22345,-0.35999999999999943,100.0,1.0,1.0,209.09,0.0,0.0,0.0,0.0,0.0,0.0,0.0,8862.6,0.0,55.0,5.0,243.99,0.0,0.0,0.0,0.0,0.0,0.0,1.0,0.0,0.8039999999999985,0.8039999999999985,0.0,0.0,0.0,55.0,616.79921,10000.0,85.000001,85.000001,85.000001,85.000001,395.0,0.0,0.0,0.0,1.0,166.665,52.582,52.582,47.928,47.928,34.0,-22.575,26.787999999999997,-25.826666666666664,30.4675,0.0,1782.585,-0.384999999999998,100.0,27.507,27.753,42.667,43.048,0.0,1.0,100.0,0.0,0.0,0.0,0.0,3061.4285714285716,3248.5,4020.625,4107.2,305.5275,304.55025,315.0055,314.63925,21.9354,20.6003,21.9082,21.4202,314.999998,314.999998,324.999988,324.999988,99.55944285714286,99.50748333333334,99.56652857142858,99.54618571428571,0.11649999999999983,-0.014000000000000012,-0.06916666666666667,0.15316666666666667,-0.045000000000001705,-0.04333333333332945,1.5265,1.5116666666666667,38.096000000000004,29.752000000000002,37.926,34.8765,56.2,35.164,59.3955,52.209,54.114999999999995,34.2715,57.9965,50.5445,53.265,33.797,57.923,49.95633333333333,-0.10449999999999993,-0.050000000000000044,0.10692000000000002,0.10443000000000001,0.0,212.21,212.255,209.09,209.09,0.0,0.0
17,0.0,1.0,0.0,1.0,1.0,0.0,0.0,1.0,0.0,100.0,1.0,1.1856,26.0,0.0,0.0,0.0,59.999996,0.0,26.0,26.0,26.0,26.0,0.04266666666666685,0.2833000000000001,0.031925,292.45,-2.632,-2.6092,-1.509,-1.514,-218.6,215.45,190.6385,0.0,0.0,0.0,0.0,0.03476666666666661,-5.498166666666667,-5.498166666666667,-0.5497000000000001,0.15500000000000003,0.006999999999999895,0.607,67.931,0.0275,-0.21530000000000002,-0.3639999999999999,100.0,1.0,1.0,209.48333333333335,0.0,0.0,0.0,0.0,0.0,0.0,0.0,8879.2,0.0,55.0,5.0,244.52333333333334,1.0,0.0,0.0,0.0,0.0,0.0,1.0,0.0,0.8580000000000005,0.8580000000000005,0.0,0.0,1.0,55.0,616.79921,10000.0,85.000001,85.000001,85.000001,85.000001,395.0,0.0,0.0,0.0,1.0,166.665,52.383,52.383,47.531,47.531,34.0,-21.5,26.27,-26.423333333333336,31.725,0.0,1782.532,-0.28500000000000014,100.0,27.881,27.896,42.714,43.013,0.0,1.0,100.0,0.0,0.0,0.0,0.0,3036.714285714286,3225.8,4205.25,4290.7,305.474,304.61725,314.53975,314.27875,21.9456,20.6063,21.9192,21.4298,314.999998,314.999998,324.999988,324.999988,99.55945714285714,99.5075,99.56668571428571,99.54634285714286,0.11125000000000007,-0.018333333333333313,-0.06583333333333333,0.15533333333333335,-0.054999999999999716,-0.041666666666671404,1.5070000000000001,1.4926666666666666,38.16,29.78933333333333,37.995000000000005,34.9365,56.187,35.205,59.436,52.2745,54.102999999999994,34.3095,58.034,50.608000000000004,53.251999999999995,33.833,57.957,50.01866666666667,-0.10499999999999998,-0.050999999999999934,0.10250500000000001,0.10752500000000001,0.0,212.715,212.71,209.48333333333335,209.48333333333335,0.0,0.0
18,0.0,1.0,0.0,1.0,1.0,0.0,0.0,1.0,0.0,100.0,1.0,1.1856,26.0,0.0,0.0,0.0,59.999996,0.0,26.0,26.0,26.0,26.0,0.04033333333333333,0.2781,0.03445,292.45,-2.6568,-2.735,-1.50685,-1.5777999999999999,-215.34,215.44,190.617375,0.0,0.0,0.0,0.0,0.036666666666666514,-5.498166666666667,-5.498166666666667,-0.5613,-0.3225,0.012444444444444258,0.8049999999999999,68.061,0.0221,-0.22635000000000002,-0.26200000000000045,100.0,1.0,1.0,209.88,0.0,0.0,0.0,0.0,0.0,0.0,0.0,8896.0,0.0,55.0,5.0,244.99333333333334,0.0,0.0,0.0,0.0,0.0,0.0,1.0,0.0,0.9059999999999988,0.9059999999999988,0.0,0.0,0.0,55.0,616.79921,10000.0,85.000001,85.000001,85.000001,85.000001,395.0,0.0,0.0,0.0,1.0,166.665,52.368,52.368,47.775,47.775,34.0,-21.8275,26.962,-25.62,31.47,0.0,1782.483,-0.3200000000000003,100.0,27.863,27.883,42.881,43.196,0.0,1.0,100.0,0.0,0.0,0.0,0.0,3047.5714285714284,3198.7,4043.5,4261.8,305.496,304.581,314.91425,314.21275,21.9545,20.6115,21.929,21.4384,314.999998,314.999998,324.999988,324.999988,99.55947142857143,99.5075,99.56681428571429,99.54647142857142,0.10999999999999988,-0.026666666666666616,-0.07483333333333334,0.13466666666666666,-0.03999999999999915,-0.045000000000001705,1.5190000000000001,1.4913333333333334,38.216,29.821666666666665,38.056,34.99,56.174,35.24,59.472,52.334,54.091,34.342,58.067499999999995,50.665,53.239000000000004,33.8645,57.988,50.074666666666666,-0.10449999999999993,-0.05400000000000005,0.09867500000000001,0.10466500000000001,0.0,213.095,213.11,209.88,209.88,0.0,0.0
19,0.0,1.0,0.0,1.0,1.0,0.0,0.0,1.0,0.0,100.0,1.0,1.1856,26.0,0.0,0.0,0.0,59.999996,0.0,26.0,26.0,26.0,26.0,0.04588888888888887,0.2732000000000001,0.05535,292.16,-2.6543,-2.703,-1.5312999999999999,-1.6023,-212.07,215.4275,190.596,0.0,0.0,0.0,0.0,0.03856666666666653,-5.498166666666667,-5.498166666666667,-0.552,0.607,0.017111111111111077,0.73,68.19,0.019,-0.21555000000000002,-0.25,100.0,1.0,1.0,210.28,0.0,0.0,0.0,0.0,0.0,0.0,0.0,8913.0,0.0,55.0,5.0,245.45666666666665,1.0,0.0,0.0,0.0,0.0,0.0,1.0,0.0,0.9540000000000006,0.9540000000000006,0.0,0.0,1.0,55.0,616.79921,10000.0,85.000001,85.000001,85.000001,85.000001,395.0,0.0,0.0,0.0,1.0,166.665,51.971000000000004,51.971000000000004,47.714,47.714,34.0,-22.085,25.881999999999998,-27.226666666666663,32.665,0.0,1782.436,-0.23000000000000043,100.0,28.394,28.255,42.818,43.243,0.0,1.0,100.0,0.0,0.0,0.0,0.0,3060.857142857143,3162.5,4139.25,4317.5,305.411,304.69425,314.738,314.11325,21.9636,20.6168,21.9388,21.447,314.999998,314.999998,324.999988,324.999988,99.55948571428571,99.5075,99.56694285714286,99.54662857142857,0.10725000000000007,-0.03733333333333322,-0.08433333333333333,0.1405,-0.03166666666666629,-0.05666666666667197,1.4975,1.479,38.272999999999996,29.855,38.117000000000004,35.0435,56.164,35.277,59.5065,52.393,54.08,34.376,58.0995,50.7215,53.227999999999994,33.8975,58.0175,50.129999999999995,-0.09850000000000003,-0.0645,0.1082,0.10830000000000001,0.0,213.515,213.54500000000002,210.28,210.28,0.0,0.0
20,0.0,1.0,0.0,1.0,1.0,0.0,0.0,1.0,0.0,100.0,1.0,1.1856,26.0,0.0,0.0,0.0,59.999996,0.0,26.0,26.0,26.0,26.0,0.025555555555555776,0.2601,-0.028075000000000003,292.435,-2.7241,-2.6433,-1.5672000000000001,-1.5823,-208.38,215.41500000000002,190.57225,0.0,0.0,0.0,0.0,0.0407333333333334,-5.498166666666667,-5.498166666666667,-0.5572,-0.7855000000000001,0.01866666666666661,0.624,68.336,0.0154,-0.22790000000000002,-0.13999999999999968,100.0,1.0,1.0,210.74333333333334,0.0,0.0,0.0,0.0,0.0,0.0,0.0,8932.7,0.0,55.0,5.0,245.98333333333335,0.0,0.0,0.0,0.0,0.0,0.0,0.0,0.0,1.0079999999999991,1.0079999999999991,0.0,0.0,0.0,55.0,616.79921,10000.0,85.000001,85.000001,85.000001,85.000001,395.0,0.0,0.0,0.0,1.0,166.665,52.505,52.505,47.501,47.501,34.0,-22.2725,25.426,-27.546666666666663,30.085,0.0,1782.383,-0.25,100.0,27.975,27.977,43.362,43.636,0.0,1.0,100.0,0.0,0.0,0.0,0.0,3002.285714285714,3165.0,4032.875,4066.6000000000004,305.6775,304.85325,314.97275,314.71425,21.9736,20.622700000000002,21.9499,21.456699999999998,314.999998,314.999998,324.999988,324.999988,99.5595,99.5075,99.5671,99.54677142857143,0.10375000000000023,-0.030999999999999917,-0.09916666666666667,0.14166666666666666,-0.060000000000002274,-0.041666666666671404,1.5245,1.5070000000000001,38.335,29.891666666666666,38.187,35.1045,56.149,35.317,59.549,52.46,54.066,34.413,58.1395,50.786500000000004,53.212,33.933,58.0535,50.193666666666665,-0.09750000000000003,-0.05899999999999994,0.10671000000000001,0.11732000000000001,0.0,213.95499999999998,213.935,210.74333333333334,210.74333333333334,0.0,0.0
21,0.0,1.0,0.0,1.0,1.0,0.0,0.0,1.0,0.0,100.0,1.0,1.1856,26.0,0.0,0.0,0.0,59.999996,0.0,26.0,26.0,26.0,26.0,0.009666666666666712,0.27590000000000003,-0.047725000000000004,292.572,-2.7248,-2.6583,-1.5725,-1.5232,-205.1,215.405,190.550625,0.0,0.0,0.0,0.0,0.0426333333333333,-5.498166666666667,-5.498166666666667,-0.5731,0.09599999999999997,0.009444444444444366,0.5509999999999999,68.463,0.0088,-0.22275,-0.13200000000000056,100.0,1.0,1.0,211.21666666666667,0.0,0.0,0.0,0.0,0.0,0.0,0.0,8952.7,0.0,55.0,5.0,246.43666666666667,1.0,0.0,0.0,0.0,0.0,0.0,0.0,0.0,1.056000000000001,1.056000000000001,0.0,0.0,1.0,55.0,616.79921,10000.0,85.000001,85.000001,85.000001,85.000001,395.0,0.0,0.0,0.0,1.0,166.665,52.353,52.353,48.019,48.019,34.0,-23.1225,26.003999999999998,-27.093333333333334,28.2,0.0,1782.335,-0.3500000000000014,100.0,28.012,27.851,42.956,43.244,0.0,1.0,100.0,0.0,0.0,0.0,0.0,3100.285714285714,3213.8,4021.75,4082.1000000000004,305.3945,304.707,315.07,314.795,21.982599999999998,20.6279,21.959600000000002,21.4652,314.999998,314.999998,324.999988,324.999988,99.55951428571429,99.5075,99.56724285714286,99.54691428571428,0.10375000000000023,-0.03133333333333321,-0.09533333333333333,0.1255,-0.04999999999999716,-0.04333333333332945,1.5615,1.5646666666666667,38.391,29.924666666666667,38.248000000000005,35.1575,56.135999999999996,35.353,59.582499999999996,52.5165,54.054,34.4465,58.170500000000004,50.841,53.2,33.965,58.082,50.24666666666667,-0.10549999999999993,-0.052000000000000046,0.103745,0.10608500000000001,0.0,214.35000000000002,214.36,211.21666666666667,211.21666666666667,0.0,0.0
22,0.0,1.0,0.0,1.0,1.0,0.0,0.0,1.0,0.0,100.0,1.0,1.1856,26.0,0.0,0.0,0.0,59.999996,0.0,26.0,26.0,26.0,26.0,0.013222222222222246,0.2804,-0.00615,292.206,-2.7641,-2.6263,-1.6024500000000002,-1.5248,-201.81,215.3975,190.52825,0.0,0.0,0.0,0.0,0.044533333333333314,-5.498166666666667,-5.498166666666667,-0.5582,0.052999999999999936,0.014222222222222136,1.048,68.593,0.0074,-0.20067500000000002,-0.274,100.0,1.0,1.0,211.45666666666668,0.0,0.0,0.0,0.0,0.0,0.0,0.0,8962.9,0.0,55.0,5.0,246.90666666666667,0.0,0.0,0.0,0.0,0.0,0.0,0.0,0.0,1.1039999999999992,1.1039999999999992,0.0,0.0,0.0,55.0,616.79921,10000.0,85.000001,85.000001,85.000001,85.000001,395.0,0.0,0.0,0.0,1.0,333.33500000000004,52.505,52.505,47.211,47.211,34.0,-23.06,25.362000000000002,-29.436666666666664,31.195,0.0,1782.285,-0.41000000000000014,100.0,28.048000000000002,27.914,43.132,43.292,0.0,1.0,100.0,0.0,0.0,0.0,0.0,3049.0,3174.6,4261.25,4399.8,305.6145,304.867,314.4695,314.04175,21.9915,20.6332,21.9694,21.4738,314.999998,314.999998,324.999988,324.999988,99.55952857142857,99.50751666666666,99.56737142857143,99.54704285714286,0.10124999999999984,-0.030000000000000027,-0.08816666666666667,0.12416666666666668,-0.021666666666668277,-0.05833333333333002,1.496,1.4836666666666667,38.447,29.957666666666668,38.309,35.2115,56.123999999999995,35.388999999999996,59.6195,52.5755,54.043,34.480000000000004,58.204499999999996,50.8975,53.187,33.997,58.113,50.302,-0.11199999999999999,-0.04699999999999993,0.09903,0.10283500000000001,0.0,214.75,214.775,211.45666666666668,211.45666666666668,0.0,0.0
23,0.0,1.0,0.0,1.0,1.0,0.0,0.0,1.0,0.0,100.0,1.0,1.1856,26.0,0.0,0.0,0.0,59.999996,0.0,26.0,26.0,26.0,26.0,0.011555555555555541,0.27300000000000013,-0.019350000000000003,292.068,-2.668,-2.6765,-1.64485,-1.4994,-198.31,215.3875,190.50475,0.0,0.0,0.0,0.0,0.046566666666666534,-5.498166666666667,-5.498166666666667,-0.5729000000000001,-0.21950000000000003,0.012222222222222134,-0.6699999999999999,68.727,0.0112,-0.22457500000000002,-0.23399999999999999,100.0,1.0,1.0,211.93666666666667,0.0,0.0,0.0,0.0,0.0,0.0,0.0,8983.3,0.0,55.0,5.0,247.39,1.0,0.0,0.0,0.0,0.0,0.0,0.0,0.0,1.1550000000000011,1.1550000000000011,0.0,0.0,1.0,55.0,616.79921,10000.0,85.000001,85.000001,85.000001,85.000001,395.0,0.0,0.0,0.0,1.0,166.665,51.941,51.941,47.546,47.546,34.0,-23.947499999999998,24.956,-30.123333333333335,28.89,0.0,1782.236,-0.375,100.0,28.182,28.285,43.237,43.644999999999996,0.0,1.0,100.0,0.0,0.0,0.0,0.0,3240.857142857143,3087.4,4215.25,4164.2,305.0295,304.845,314.70375,314.536,22.001,20.6389,21.9799,21.4831,314.999998,314.999998,324.999988,324.999988,99.55952857142857,99.50751666666666,99.56752857142857,99.5472,0.09925000000000006,-0.03966666666666674,-0.10283333333333333,0.126,-0.046666666666666856,-0.03999999999999915,1.526,1.5193333333333334,38.507,29.993000000000002,38.373999999999995,35.269,56.111999999999995,35.428,59.6575,52.638,54.031,34.5155,58.2405,50.958,53.175,34.0315,58.1455,50.361333333333334,-0.11249999999999993,-0.04899999999999993,0.107185,0.10845,0.0,215.14499999999998,215.16500000000002,211.93666666666667,211.93666666666667,0.0,0.0
24,0.0,1.0,0.0,1.0,1.0,0.0,0.0,1.0,0.0,100.0,1.0,1.1856,26.0,0.0,0.0,0.0,59.999996,0.0,26.0,26.0,26.0,26.0,0.038000000000000034,0.2619,-0.0574,292.526,-2.7172,-2.6778,-1.5544,-1.5486,-194.59,215.3775,190.47925,0.0,0.0,0.0,0.0,0.048733333333333295,-5.498166666666667,-5.498166666666667,-0.5874,-0.403,0.02111111111111108,-0.27,68.87,0.0175,-0.22282500000000002,-0.28200000000000003,100.0,1.0,1.0,212.37333333333333,0.0,0.0,0.0,0.0,0.0,0.0,0.0,9001.7,0.0,55.0,5.0,247.90333333333334,0.0,0.0,0.0,0.0,0.0,0.0,0.0,0.0,1.2089999999999996,1.2089999999999996,0.0,0.0,0.0,55.0,616.79921,10000.0,85.000001,85.000001,85.000001,85.000001,395.0,0.0,0.0,0.0,1.0,111.11,52.734,52.734,47.592,47.592,34.0,-22.7775,24.326,-27.833333333333336,29.2625,0.0,1782.182,-0.33999999999999986,100.0,27.92,28.027,43.149,43.553,0.0,1.0,100.0,0.0,0.0,0.0,0.0,3042.857142857143,2996.0,4131.0,4109.9,305.7525,305.15725,314.8195,314.63575,22.011,20.6447,21.9909,21.4928,314.999998,314.999998,324.999988,324.999988,99.55954285714286,99.50753333333333,99.56768571428572,99.54735714285714,0.09375,-0.033666666666666734,-0.09483333333333333,0.1275,-0.04333333333332945,-0.045000000000001705,1.5335,1.512,38.569,30.029666666666664,38.443,35.329499999999996,56.098,35.467,59.6975,52.703,54.018,34.552,58.2775,51.019999999999996,53.16,34.066,58.1795,50.422333333333334,-0.10350000000000004,-0.044499999999999984,0.105245,0.10761000000000001,0.0,215.59,215.615,212.37333333333333,212.37333333333333,0.0,0.0
25,0.0,1.0,0.0,1.0,1.0,0.0,0.0,1.0,0.0,100.0,1.0,1.1856,26.0,0.0,0.0,0.0,59.999996,0.0,26.0,26.0,26.0,26.0,0.04033333333333333,0.2693000000000001,-0.018925,292.191,-2.6957,-2.6502,-1.59775,-1.5446,-191.29,215.37,190.455375,0.0,0.0,0.0,0.0,0.05066666666666653,-5.498166666666667,-5.498166666666667,-0.6015,0.16600000000000004,0.02777777777777768,-0.8460000000000001,68.995,0.0213,-0.218725,-0.3020000000000005,100.0,1.0,1.0,212.80666666666667,0.0,0.0,0.0,0.0,0.0,0.0,0.0,9020.1,0.0,55.0,5.0,248.35333333333335,1.0,0.0,0.0,0.0,0.0,0.0,0.0,0.0,1.256999999999998,1.256999999999998,0.0,0.0,1.0,55.0,616.79921,10000.0,85.000001,85.000001,85.000001,85.000001,395.0,0.0,0.0,0.0,1.0,166.665,51.819,51.819,47.775,47.775,34.0,-24.205,26.534,-27.416666666666664,29.7225,0.0,1782.133,-0.3550000000000004,100.0,27.95,28.279,42.958,43.391,0.0,1.0,100.0,0.0,0.0,0.0,0.0,3261.4285714285716,3259.2,4074.25,4123.1,305.028,304.34,315.03925,314.6125,22.0199,20.6501,22.0006,21.5013,314.999998,314.999998,324.999988,324.999988,99.55955714285714,99.50753333333333,99.56781428571429,99.5475,0.10225000000000017,-0.03400000000000003,-0.08883333333333333,0.13683333333333333,-0.041666666666671404,-0.04833333333333201,1.5645,1.5303333333333335,38.623999999999995,30.063000000000002,38.504000000000005,35.382999999999996,56.086,35.5035,59.731,52.7595,54.006,34.586,58.3085,51.075,53.147,34.0985,58.207499999999996,50.476,-0.10549999999999993,-0.05249999999999999,0.102605,0.112975,0.0,215.97500000000002,216.0,212.80666666666667,212.80666666666667,0.0,0.0
26,0.0,1.0,0.0,1.0,1.0,0.0,0.0,1.0,0.0,100.0,1.0,1.1856,26.0,0.0,0.0,0.0,59.999996,0.0,26.0,26.0,26.0,26.0,0.03299999999999992,0.28049999999999997,0.05455,291.458,-2.7184,-2.6455,-1.56025,-1.5463,-187.97,215.3625,190.431375,0.0,0.0,0.0,0.0,0.05259999999999998,-5.498166666666667,-5.498166666666667,-0.5742,0.34950000000000003,0.01577777777777789,-0.758,69.123,0.0216,-0.20117500000000002,-0.2939999999999996,100.0,1.0,1.0,212.99333333333334,0.0,0.0,0.0,0.0,0.0,0.0,0.0,9028.0,0.0,55.0,5.0,248.81666666666666,0.0,0.0,0.0,0.0,0.0,0.0,0.0,0.0,1.3049999999999997,1.3049999999999997,0.0,0.0,0.0,55.0,616.79921,10000.0,85.000001,85.000001,85.000001,85.000001,395.0,0.0,0.0,0.0,1.0,166.665,51.772999999999996,51.772999999999996,46.692,46.692,34.0,-24.1125,24.532,-30.393333333333334,32.692499999999995,0.0,1782.085,-0.375,100.0,28.54,28.684,43.388,43.848,0.0,1.0,100.0,0.0,0.0,0.0,0.0,3244.142857142857,3050.8,4456.375,4454.0,305.171,305.06375,314.044,313.78375,22.0289,20.6555,22.0105,21.5101,314.999998,314.999998,324.999988,324.999988,99.55957142857143,99.50753333333333,99.56795714285714,99.54764285714286,0.10349999999999993,-0.032333333333333325,-0.08600000000000001,0.1295,-0.05333333333332746,-0.04833333333333201,1.4675,1.4393333333333334,38.68,30.097,38.566,35.438,56.076,35.541,59.768,52.82,53.995999999999995,34.6205,58.3435,51.132999999999996,53.137,34.132,58.2395,50.533,-0.10649999999999993,-0.04699999999999993,0.10707000000000001,0.10655500000000001,0.0,216.405,216.41,212.99333333333334,212.99333333333334,0.0,0.0
27,0.0,1.0,0.0,1.0,1.0,0.0,0.0,1.0,0.0,100.0,1.0,1.1856,26.0,0.0,0.0,0.0,59.999996,0.0,26.0,26.0,26.0,26.0,0.04922222222222228,0.26480000000000015,-0.035675,291.824,-2.7611,-2.6596,-1.61785,-1.5333,-184.64999999999998,215.35750000000002,190.408125,0.0,0.0,0.0,0.0,0.05453333333333332,-5.498166666666667,-5.498166666666667,-0.5957,-0.8315000000000001,0.021777777777777896,-0.5350000000000001,69.247,0.023700000000000002,-0.23635,-0.30600000000000005,100.0,1.0,1.0,213.49333333333334,0.0,0.0,0.0,0.0,0.0,0.0,0.0,9049.2,0.0,55.0,5.0,249.26333333333332,1.0,0.0,0.0,0.0,0.0,0.0,0.0,0.0,1.352999999999998,1.352999999999998,0.0,0.0,1.0,55.0,616.79921,10000.0,85.000001,85.000001,85.000001,85.000001,395.0,0.0,0.0,0.0,1.0,166.665,51.941,51.941,46.692,46.692,34.0,-23.445,25.41,-28.943333333333335,29.0475,0.0,1782.036,-0.379999999999999,100.0,28.282,28.657,43.849000000000004,44.199,0.0,1.0,100.0,0.0,0.0,0.0,0.0,3143.714285714286,3128.1,4180.125,4085.8,305.516,304.73825,314.7505,314.75025,22.0377,20.6609,22.0204,21.5189,314.999998,314.999998,324.999988,324.999988,99.55958571428572,99.50755,99.5681,99.54777142857142,0.1070000000000002,-0.03433333333333333,-0.0905,0.13283333333333336,-0.04833333333333201,-0.061666666666667425,1.5115,1.5136666666666665,38.735,30.130666666666666,38.628,35.493,56.064,35.577,59.8055,52.8795,53.985,34.653999999999996,58.378,51.19,53.123999999999995,34.164,58.271,50.58866666666667,-0.11499999999999999,-0.050999999999999934,0.10397500000000001,0.10369500000000001,0.0,216.745,216.76999999999998,213.49333333333334,213.49333333333334,0.0,0.0
28,0.0,1.0,0.0,1.0,1.0,0.0,0.0,1.0,0.0,100.0,1.0,1.1856,26.0,0.0,0.0,0.0,59.999996,0.0,26.0,26.0,26.0,26.0,0.037111111111111095,0.26750000000000007,-0.0366,291.946,-2.6917999999999997,-2.6461,-1.6351499999999999,-1.5577,-181.11,215.35250000000002,190.38275,0.0,0.0,0.0,0.0,0.05656666666666654,-5.498166666666667,-5.498166666666667,-0.6026,0.5349999999999999,0.015222222222222026,0.32599999999999996,69.377,0.0238,-0.21845,-0.40200000000000014,100.0,1.0,1.0,213.98666666666668,0.0,0.0,0.0,0.0,0.0,0.0,0.0,9070.1,0.0,55.0,5.0,249.73000000000002,0.0,0.0,0.0,0.0,0.0,0.0,0.0,0.0,1.404,1.404,0.0,0.0,0.0,55.0,616.79921,10000.0,85.000001,85.000001,85.000001,85.000001,395.0,0.0,0.0,0.0,1.0,166.665,51.834,51.834,47.333,47.333,34.0,-21.61,26.512,-27.513333333333335,30.305,0.0,1781.987,-0.4400000000000013,100.0,28.565,28.546,43.409,43.786,0.0,1.0,100.0,0.0,0.0,0.0,0.0,3050.285714285714,3221.1,4087.375,4151.7,305.5085,304.63725,315.0005,314.635,22.0471,20.6667,22.0307,21.528,314.999998,314.999998,324.999988,324.999988,99.5596,99.50755,99.56824285714286,99.54791428571428,0.12349999999999994,-0.02066666666666661,-0.07683333333333334,0.14283333333333334,-0.045000000000001705,-0.054999999999999716,1.5495,1.5406666666666666,38.794,30.166666666666664,38.692,35.55,56.052,35.616,59.8395,52.939,53.974000000000004,34.69,58.4095,51.2475,53.111999999999995,34.198499999999996,58.2995,50.644999999999996,-0.11699999999999999,-0.046499999999999986,0.10717000000000002,0.10623500000000001,0.0,217.17000000000002,217.215,213.98666666666668,213.98666666666668,0.0,0.0
29,0.0,1.0,0.0,1.0,1.0,0.0,0.0,1.0,0.0,100.0,1.0,1.1856,26.0,0.0,0.0,0.0,59.999996,0.0,26.0,26.0,26.0,26.0,0.03844444444444428,0.26160000000000005,-0.0207,291.763,-2.759,-2.5772,-1.6098,-1.5437,-177.36,215.3475,190.354875,0.0,0.0,0.0,0.0,0.058733333333333304,-5.498166666666667,-5.498166666666667,-0.6059,-0.7115,0.008444444444444255,0.783,69.519,0.0251,-0.21557500000000002,-0.387999999999999,100.0,1.0,1.0,214.27666666666667,0.0,0.0,0.0,0.0,0.0,0.0,0.0,9082.4,0.0,55.0,5.0,250.24,1.0,0.0,0.0,0.0,0.0,0.0,0.0,0.0,1.4579999999999984,1.4579999999999984,0.0,0.0,1.0,55.0,616.79921,10000.0,85.000001,85.000001,85.000001,85.000001,395.0,0.0,0.0,0.0,1.0,166.665,52.139,52.139,46.89,46.89,34.0,-23.0775,26.194,-28.263333333333335,32.2775,0.0,1781.932,-0.48499999999999943,100.0,28.278,28.286,43.846000000000004,44.092,0.0,1.0,100.0,0.0,0.0,0.0,0.0,3122.4285714285716,3245.1,4141.5,4321.7,305.5135,304.8265,314.767,314.187,22.0568,20.6726,22.0418,21.5378,314.999998,314.999998,324.999988,324.999988,99.55961428571429,99.50755,99.5684,99.54808571428572,0.11249999999999982,-0.010999999999999899,-0.08183333333333333,0.14866666666666667,-0.02833333333332888,-0.061666666666667425,1.4929999999999999,1.4776666666666667,38.855000000000004,30.204,38.760999999999996,35.6115,56.038,35.6555,59.881,53.006,53.96,34.7265,58.448499999999996,51.312,53.098,34.2335,58.335,50.70766666666667,-0.11349999999999993,-0.04150000000000009,0.10663500000000001,0.11116000000000001,0.0,217.57,217.62,214.27666666666667,214.27666666666667,0.0,0.0
30,0.0,1.0,0.0,1.0,1.0,0.0,0.0,1.0,0.0,100.0,1.0,1.1856,26.0,0.0,0.0,0.0,59.999996,0.0,26.0,26.0,26.0,26.0,0.07877777777777784,0.25140000000000007,-0.0070750000000000006,291.183,-2.7351,-2.7119999999999997,-1.64565,-1.5958,-174.23000000000002,215.345,190.3315,0.0,0.0,0.0,0.0,0.060566666666666547,-5.498166666666667,-5.498166666666667,-0.6073000000000001,0.756,0.008777777777777773,-0.43900000000000006,69.632,0.024200000000000003,-0.218025,-0.4039999999999999,100.0,1.0,1.0,214.74333333333334,0.0,0.0,0.0,0.0,0.0,0.0,0.0,9102.1,0.0,55.0,5.0,250.64666666666665,0.0,0.0,0.0,0.0,0.0,0.0,1.0,0.0,1.5030000000000001,1.5030000000000001,0.0,0.0,0.0,55.0,616.79921,10000.0,85.000001,85.000001,85.000001,85.000001,395.0,0.0,0.0,0.0,1.0,166.665,50.476,50.476,47.119,47.119,34.0,-25.105,28.832,-28.9,29.4525,0.0,1781.887,-0.5249999999999986,100.0,28.981,29.111,43.522,44.114000000000004,0.0,1.0,100.0,0.0,0.0,0.0,0.0,3415.4285714285716,3372.1,4189.25,4048.1000000000004,304.5165,303.965,314.893,314.77475,22.0653,20.6779,22.0509,21.546,314.999998,314.999998,324.999988,324.999988,99.55962857142858,99.50756666666666,99.56852857142857,99.54821428571428,0.12150000000000016,-0.021666666666666723,-0.08700000000000001,0.13,-0.03999999999999915,-0.04333333333332945,1.5390000000000001,1.537,38.908,30.237000000000002,38.818,35.662,56.031,35.6915,59.912,53.0595,53.953,34.76,58.477000000000004,51.3635,53.09,34.2655,58.3605,50.75833333333333,-0.12649999999999995,-0.04150000000000009,0.10460000000000001,0.10257500000000001,0.0,217.97,217.99,214.74333333333334,214.74333333333334,0.0,0.0
31,0.0,1.0,0.0,1.0,1.0,0.0,0.0,1.0,0.0,100.0,1.0,1.1856,26.0,0.0,0.0,0.0,59.999996,0.0,26.0,26.0,26.0,26.0,0.048222222222222166,0.24970000000000003,0.07967500000000001,290.71,-2.7124,-2.615,-1.65385,-1.5364,-170.47,215.3425,190.304125,0.0,0.0,0.0,0.0,0.06276666666666653,-5.498166666666667,-5.498166666666667,-0.5863,-0.39600000000000013,0.021444444444444377,-0.6460000000000001,69.773,0.0303,-0.22032500000000002,-0.4900000000000002,100.0,1.0,1.0,214.96333333333334,0.0,0.0,0.0,0.0,0.0,0.0,0.0,9111.5,0.0,55.0,5.0,251.15666666666667,1.0,0.0,0.0,0.0,0.0,0.0,1.0,0.0,1.5569999999999986,1.5569999999999986,0.0,0.0,1.0,55.0,616.79921,10000.0,85.000001,85.000001,85.000001,85.000001,395.0,0.0,0.0,0.0,1.0,166.665,51.01,51.01,45.563,45.563,34.0,-22.6875,27.204,-31.08,32.525000000000006,0.0,1781.832,-0.5199999999999996,100.0,28.831,29.297,44.271,44.894999999999996,0.0,1.0,100.0,0.0,0.0,0.0,0.0,3174.285714285714,3320.2,4362.25,4362.7,305.2865,304.23025,314.2505,313.93025,22.0752,20.6841,22.0621,21.556,314.999998,314.999998,324.999988,324.999988,99.55964285714286,99.50756666666666,99.56868571428572,99.54837142857143,0.12375000000000025,-0.02299999999999991,-0.08433333333333333,0.139,-0.036666666666668846,-0.03166666666666629,1.445,1.4153333333333333,38.97,30.275666666666666,38.888,35.725,56.019999999999996,35.7335,59.956,53.129,53.943,34.799,58.518,51.43,53.078,34.303,58.397999999999996,50.82333333333333,-0.12649999999999995,-0.04049999999999998,0.10727,0.10562,0.0,218.38,218.405,214.96333333333334,214.96333333333334,0.0,0.0
32,0.0,1.0,0.0,1.0,1.0,0.0,0.0,1.0,0.0,100.0,1.0,1.1856,26.0,0.0,0.0,0.0,59.999996,0.0,26.0,26.0,26.0,26.0,0.061555555555555586,0.26260000000000017,-0.053175,291.428,-2.7062,-2.674,-1.59505,-1.6136,-166.91,215.3425,190.278625,0.0,0.0,0.0,0.0,0.0648333333333333,-5.498166666666667,-5.498166666666667,-0.607,-0.2895000000000001,0.004888888888888943,0.243,69.9,0.0359,-0.23270000000000002,-0.5460000000000003,100.0,1.0,1.0,215.50666666666666,0.0,0.0,0.0,0.0,0.0,0.0,0.0,9134.5,0.0,55.0,5.0,251.61333333333334,0.0,0.0,0.0,0.0,0.0,0.0,1.0,0.0,1.6080000000000005,1.6080000000000005,0.0,0.0,0.0,55.0,616.79921,10000.0,85.000001,85.000001,85.000001,85.000001,395.0,0.0,0.0,0.0,1.0,166.665,51.605000000000004,51.605000000000004,46.722,46.722,34.0,-21.24,26.512,-26.203333333333333,32.957499999999996,0.0,1781.782,-0.4750000000000014,100.0,28.804000000000002,29.006,44.143,44.66,0.0,1.0,100.0,0.0,0.0,0.0,0.0,3031.285714285714,3180.7,4022.25,4230.0,305.5995,304.75925,315.04875,314.392,22.0845,20.6899,22.072499999999998,21.5653,314.999998,314.999998,324.999988,324.999988,99.55965714285715,99.50756666666666,99.56884285714285,99.54852857142858,0.1312500000000001,-0.01866666666666661,-0.0675,0.16066666666666665,-0.051666666666669414,-0.060000000000002274,1.5350000000000001,1.5086666666666666,39.028,30.311999999999998,38.953,35.783,56.007999999999996,35.772,59.9915,53.19,53.931,34.8345,58.551,51.489,53.065,34.3375,58.4275,50.881,-0.12049999999999994,-0.04600000000000004,0.10641,0.10808000000000001,0.0,218.78,218.805,215.50666666666666,215.50666666666666,0.0,0.0
33,0.0,1.0,0.0,1.0,1.0,0.0,0.0,1.0,0.0,100.0,1.0,1.1856,26.0,0.0,0.0,0.0,59.999996,0.0,26.0,26.0,26.0,26.0,0.07144444444444442,0.25880000000000014,-0.03725,291.565,-2.7260999999999997,-2.634,-1.66405,-1.5745,-163.34,215.345,190.251875,0.0,0.0,0.0,0.0,0.06689999999999996,-5.498166666666667,-5.498166666666667,-0.6168,-0.2530000000000001,0.00377777777777788,-0.19599999999999995,70.029,0.0367,-0.2142,-0.4339999999999993,100.0,1.0,1.0,215.89666666666668,0.0,0.0,0.0,0.0,0.0,0.0,0.0,9151.0,0.0,55.0,5.0,252.07666666666665,1.0,0.0,0.0,0.0,0.0,0.0,1.0,0.0,1.658999999999999,1.658999999999999,0.0,0.0,1.0,55.0,616.79921,10000.0,85.000001,85.000001,85.000001,85.000001,395.0,0.0,0.0,0.0,1.0,111.11,51.772999999999996,51.772999999999996,46.921,46.921,34.0,-22.697499999999998,25.240000000000002,-28.599999999999998,31.1325,0.0,1781.732,-0.5150000000000006,100.0,28.503,28.894,43.826,44.472,0.0,1.0,100.0,0.0,0.0,0.0,0.0,3166.5714285714284,3083.8,4161.25,4177.0,305.408,304.96525,314.88675,314.49175,22.0937,20.6956,22.0828,21.5745,314.999998,314.999998,324.999988,324.999988,99.55968571428572,99.50756666666666,99.56898571428572,99.54868571428571,0.12250000000000005,-0.02066666666666661,-0.0775,0.14583333333333334,-0.04333333333332945,-0.04333333333332945,1.5274999999999999,1.5253333333333334,39.086,30.347666666666665,39.018,35.8405,55.997,35.809,60.0275,53.25,53.92,34.8685,58.5845,51.5465,53.053,34.37,58.457499999999996,50.937333333333335,-0.12449999999999994,-0.040999999999999925,0.10525500000000002,0.10406000000000001,0.0,219.185,219.195,215.89666666666668,215.89666666666668,0.0,0.0
34,0.0,1.0,0.0,1.0,1.0,0.0,0.0,1.0,0.0,100.0,1.0,1.1856,26.0,0.0,0.0,0.0,59.999996,0.0,26.0,26.0,26.0,26.0,0.05777777777777793,0.2633000000000001,-0.088275,291.824,-2.6726,-2.6654,-1.6343,-1.5188000000000001,-160.19,215.345,190.227125,0.0,0.0,0.0,0.0,0.06873333333333331,-5.498166666666667,-5.498166666666667,-0.6419,-0.8275000000000001,0.023777777777777898,0.886,70.143,0.038,-0.22257500000000002,-0.5139999999999993,100.0,1.0,1.0,216.21333333333334,0.0,0.0,0.0,0.0,0.0,0.0,0.0,9164.5,0.0,55.0,5.0,252.49,0.0,0.0,0.0,0.0,0.0,0.0,1.0,0.0,1.7040000000000006,1.7040000000000006,0.0,0.0,0.0,55.0,616.79921,10000.0,85.000001,85.000001,85.000001,85.000001,395.0,0.0,0.0,0.0,1.0,333.33500000000004,52.353,52.353,47.073,47.073,34.0,-20.4675,25.434,-27.686666666666664,31.825,0.0,1781.685,-0.509999999999998,100.0,28.376,28.493000000000002,43.806,44.435,0.0,1.0,100.0,0.0,0.0,0.0,0.0,2960.0,3038.6,4101.75,4290.8,305.861,305.145,314.9125,314.347,22.1018,20.7006,22.092,21.5827,314.999998,314.999998,324.999988,324.999988,99.55968571428572,99.50758333333333,99.56911428571429,99.54881428571429,0.12775000000000025,-0.010999999999999899,-0.07283333333333333,0.15583333333333335,-0.02499999999999858,-0.030000000000001137,1.5105,1.5003333333333333,39.135999999999996,30.378666666666668,39.075,35.891999999999996,55.986000000000004,35.8405,60.059,53.305,53.91,34.897999999999996,58.6135,51.6,53.041,34.3985,58.484,50.989333333333335,-0.11749999999999994,-0.04299999999999993,0.11089500000000001,0.10746000000000001,0.0,219.495,219.515,216.21333333333334,216.21333333333334,0.0,0.0
35,0.0,1.0,0.0,1.0,1.0,0.0,0.0,1.0,0.0,100.0,1.0,1.1856,26.0,0.0,0.0,0.0,59.999996,0.0,26.0,26.0,26.0,26.0,0.08077777777777784,0.2491000000000001,-0.059325,291.809,-2.814,-2.6419,-1.54755,-1.5724,-156.6,215.35,190.19725,0.0,0.0,0.0,0.0,0.0708333333333333,-5.498166666666667,-5.498166666666667,-0.6779000000000001,-0.050999999999999934,0.0058888888888888324,-1.2810000000000001,70.269,0.042,-0.227275,-0.45199999999999996,100.0,1.0,1.0,216.70333333333332,0.0,0.0,0.0,0.0,0.0,0.0,0.0,9185.3,0.0,55.0,5.0,252.94333333333333,1.0,0.0,0.0,0.0,0.0,0.0,1.0,0.0,1.754999999999999,1.754999999999999,0.0,0.0,1.0,55.0,616.79921,10000.0,85.000001,85.000001,85.000001,85.000001,395.0,0.0,0.0,0.0,1.0,166.665,51.697,51.697,46.936,46.936,34.0,-23.8925,27.311999999999998,-25.743333333333336,30.6175,0.0,1781.636,-0.28000000000000114,100.0,28.083,28.935000000000002,43.454,44.006,0.0,1.0,100.0,0.0,0.0,0.0,0.0,3171.4285714285716,3285.7,4097.125,4039.0,305.382,304.28075,315.02625,314.949,22.1109,20.7065,22.1022,21.5919,314.999998,314.999998,324.999988,324.999988,99.55971428571429,99.50758333333333,99.56927142857143,99.54895714285715,0.1160000000000001,-0.020999999999999908,-0.06616666666666668,0.16516666666666666,-0.045000000000001705,-0.054999999999999716,1.5715,1.534,39.193,30.415666666666667,39.138999999999996,35.949,55.972,35.8795,60.093,53.363,53.897,34.9345,58.6455,51.6555,53.028,34.4335,58.5125,51.04366666666667,-0.09899999999999998,-0.0515000000000001,0.10724500000000001,0.11460500000000001,0.0,219.9,219.945,216.70333333333335,216.70333333333332,0.0,0.0
36,0.0,1.0,0.0,1.0,1.0,0.0,0.0,1.0,0.0,100.0,1.0,1.1856,26.0,0.0,0.0,0.0,59.999996,0.0,26.0,26.0,26.0,26.0,0.058222222222222175,0.2610000000000001,-0.019025,291.351,-2.6622,-2.7016,-1.64555,-1.5887,-152.81,215.35500000000002,190.164375,0.0,0.0,0.0,0.0,0.0730333333333334,-5.498166666666667,-5.498166666666667,-0.663,-0.23849999999999993,-0.04033333333333333,-1.3690000000000002,70.407,0.0332,-0.20417500000000002,-0.23399999999999999,100.0,1.0,1.0,216.88666666666666,0.0,0.0,0.0,0.0,0.0,0.0,0.0,9193.0,0.0,55.0,5.0,253.44,0.0,0.0,0.0,0.0,0.0,0.0,1.0,0.0,1.809000000000001,1.809000000000001,0.0,0.0,0.0,55.0,616.79921,10000.0,85.000001,85.000001,85.000001,85.000001,395.0,0.0,0.0,0.0,1.0,111.11,52.2,52.2,46.234,46.234,34.0,-20.705,24.03,-31.913333333333334,33.3475,0.0,1781.582,-0.2699999999999996,100.0,28.559,28.849,43.75,44.416,0.0,1.0,100.0,0.0,0.0,0.0,0.0,2948.0,2913.0,4512.625,4414.0,305.8805,305.2235,314.1205,313.9235,22.1207,20.712699999999998,22.1133,21.6018,314.999998,314.999998,324.999988,324.999988,99.55972857142856,99.50758333333333,99.56942857142857,99.54912857142857,0.11799999999999988,-0.03400000000000003,-0.08416666666666667,0.13683333333333333,-0.04999999999999716,-0.036666666666668846,1.456,1.4526666666666668,39.254000000000005,30.454,39.208,36.0115,55.96,35.920500000000004,60.132999999999996,53.4295,53.885,34.972,58.6825,51.72,53.015,34.4695,58.546,51.10666666666667,-0.10849999999999993,-0.05600000000000005,0.10515000000000001,0.108145,0.0,220.365,220.365,216.88666666666666,216.88666666666666,0.0,0.0
