,ABS Active,ABS Enabled,AID Allow Tire Blankets,AID Auto Blip,AID Auto Clutch,AID Auto Shift,AID Fuel Rate,AID Ideal Line,AID Mech Damage,AID Stability,AID Tire Wear Rate,Air Density,Air Temp,Ballast,Best Lap Delta,Best Lap Time,Brake Bias,Brake Pos,Brake Temp FL,Brake Temp FR,Brake Temp RL,Brake Temp RR,CG Accel Lateral,CG Accel Longitudinal,CG Accel Vertical,CG Height,Camber FL,Camber FR,Camber RL,Camber RR,Car Coord X,Car Coord Y,Car Coord Z,Car Damage Front,Car Damage Left,Car Damage Rear,Car Damage Right,Car Pos Norm,Caster FL,Caster FR,Chassis Pitch Angle,Chassis Pitch Rate,Chassis Roll Angle,Chassis Roll Rate,Chassis Velocity X,Chassis Velocity Y,Chassis Velocity Z,Chassis Yaw Rate,Clutch Pos,DRS Active,DRS Available,Drive Train Speed,ERS Heat Charging,ERS Is Charging,ERS Max Energy,ERS Power Level,ERS Recovery Level,Engine Brake Setting,Engine Limiter,Engine RPM,Flags,Fuel Level,Gear,Ground Speed,HR Sample Clock,In Pit,KERS Charge,KERS Deployed Energy,KERS Input,KERS Max Energy,LR Sample Clock,Lap Invalidated,Lap Time,Lap Time2,Last Lap Time,Last Sector Time,MR Sample Clock,Max Fuel,Max Power,Max RPM,Max Sus Travel FL,Max Sus Travel FR,Max Sus Travel RL,Max Sus Travel RR,Max Torque,Max Turbo Boost,Num Tires Off Track,Penalties Enabled,Position,Raw Data Sample Rate,Ride Height FL,Ride Height FR,Ride Height RL,Ride Height RR,Road Temp,Self Align Torque FL,Self Align Torque FR,Self Align Torque RL,Self Align Torque RR,Session Lap Count,Session Time Left,Steering Angle,Surface Grip,Suspension Travel FL,Suspension Travel FR,Suspension Travel RL,Suspension Travel RR,TC Active,TC Enabled,Throttle Pos,Tire Dirt Level FL,Tire Dirt Level FR,Tire Dirt Level RL,Tire Dirt Level RR,Tire Load FL,Tire Load FR,Tire Load RL,Tire Load RR,Tire Loaded Radius FL,Tire Loaded Radius FR,Tire Loaded Radius RL,Tire Loaded Radius RR,Tire Pressure FL,Tire Pressure FR,Tire Pressure RL,Tire Pressure RR,Tire Radius FL,Tire Radius FR,Tire Radius RL,Tire Radius RR,Tire Rubber Grip FL,Tire Rubber Grip FR,Tire Rubber Grip RL,Tire Rubber Grip RR,Tire Slip Angle FL,Tire Slip Angle FR,Tire Slip Angle RL,Tire Slip Angle RR,Tire Slip Ratio FL,Tire Slip Ratio FR,Tire Slip Ratio RL,Tire Slip Ratio RR,Tire Temp Core FL,Tire Temp Core FR,Tire Temp Core RL,Tire Temp Core RR,Tire Temp Inner FL,Tire Temp Inner FR,Tire Temp Inner RL,Tire Temp Inner RR,Tire Temp Middle FL,Tire Temp Middle FR,Tire Temp Middle RL,Tire Temp Middle RR,Tire Temp Outer FL,Tire Temp Outer FR,Tire Temp Outer RL,Tire Temp Outer RR,Toe In FL,Toe In FR,Toe In RL,Toe In RR,Turbo Boost,Wheel Angular Speed FL,Wheel Angular Speed FR,Wheel Angular Speed RL,Wheel Angular Speed RR,Wind Direction,Wind Speed
0,0.0,0.0,0.0,1.0,1.0,0.0,0.0,1.0,0.0,100.0,1.0,1.1856,26.0,0.0,0.0,0.0,57.99999,0.0,26.0,26.0,26.0,26.0,-0.08633333333333337,0.31410000000000005,0.0711,293.869,-2.7052,-2.488375,-1.5051999999999999,-1.5425,-275.55,216.075,190.98675,0.0,0.0,0.0,0.0,0.0016666666666666668,-5.498166666666667,-5.498166666666667,-0.5441,1.6586666666666667,-0.019874999999999865,-0.7989999999999995,65.545,-0.0451,-0.210675,0.7920000000000007,100.0,1.0,1.0,202.35666666666668,0.0,0.0,0.0,0.0,0.0,0.0,0.0,8577.1,0.0,55.0,5.0,235.93333333333334,0.0,0.0,0.0,0.0,0.0,0.0,0.0,0.0,0.006000000000000227,0.006000000000000227,0.0,0.0,0.0,55.0,616.79921,10000.0,85.0,85.0,85.0,85.0,395.0,0.0,0.0,0.0,1.0,20.0,52.521,52.521,49.254999999999995,49.254999999999995,34.0,-26.9875,22.375,-30.71333333333333,24.885,0.0,1783.074,0.8200000000000003,100.0,27.429,27.012,40.681,40.283,0.0,0.0,100.0,0.0,0.0,0.0,0.0,3057.142857142857,3466.2,4132.444444444444,4021.2,305.4935,303.7105,314.78625,314.83375,21.7885,20.5146,21.7717,21.3184,314.99999,314.99999,324.99998,324.99998,99.55961428571429,99.50721666666666,99.56531428571428,99.54547142857143,-0.004666666666666597,-0.12166666666666681,-0.16600000000000004,0.0641666666666667,-0.03499999999999659,-0.06499999999999773,1.5299999999999998,1.572,37.178,29.216,37.073,34.24,56.538,34.497,59.1145,51.734,54.436,33.6565,57.74,50.0835,53.595,33.2085,57.704,49.504666666666665,-0.01749999999999996,-0.12950000000000017,0.10597000000000001,0.11112000000000001,0.0,205.4,205.345,202.35666666666668,202.35666666666668,0.0,0.0
1,0.0,0.0,0.0,1.0,1.0,0.0,0.0,1.0,0.0,100.0,1.0,1.1856,26.0,0.0,0.0,0.0,57.999998,0.0,26.0,26.0,26.0,26.0,-0.12688888888888894,0.30930000000000013,0.24376666666666666,293.03,-2.6448,-2.8066250000000004,-1.5191,-1.3749,-272.2,216.07999999999998,190.96675,0.0,0.0,0.0,0.0,0.003633333333333334,-5.498166666666667,-5.498166666666667,-0.4939,-1.045,-0.0637500000000002,-0.8680000000000003,65.7,-0.0531,-0.19125,1.290000000000001,100.0,1.0,1.0,202.45333333333332,0.0,0.0,0.0,0.0,0.0,0.0,0.0,8581.3,0.0,55.0,5.0,236.49,1.0,0.0,0.0,0.0,0.0,0.0,0.0,0.0,0.05699999999999861,0.05699999999999861,0.0,0.0,1.0,55.0,616.79921,10000.0,85.000001,85.000001,85.000001,85.000001,395.0,0.0,0.0,0.0,1.0,333.33500000000004,53.848,53.848,48.278999999999996,48.278999999999996,34.0,-27.307499999999997,17.156666666666666,-35.03666666666666,27.05,0.0,1783.023,0.9100000000000001,100.0,27.455,26.875,42.732,41.743,0.0,0.0,100.0,0.0,0.0,0.0,0.0,3108.285714285714,2595.7,4397.444444444444,4832.200000000001,305.4555,306.616,314.0815,312.77,21.7985,20.5196,21.7826,21.3276,314.999998,314.999998,324.999988,324.999988,99.55962857142858,99.50723333333333,99.56547142857143,99.54561428571428,-0.01633333333333331,-0.1523333333333332,-0.18266666666666664,0.03483333333333327,-0.05333333333332746,-0.061666666666667425,1.3834999999999997,1.428,37.241,29.247500000000002,37.141,34.2975,56.522,34.537,59.1605,51.8,54.42,33.693,57.783,50.1465,53.578,33.2435,57.7445,49.56666666666666,-0.009000000000000008,-0.1495000000000002,0.100885,0.10941500000000001,0.0,205.845,205.75,202.45333333333332,202.45333333333332,0.0,0.0
2,0.0,0.0,0.0,1.0,1.0,0.0,0.0,1.0,0.0,100.0,1.0,1.1856,26.0,0.0,0.0,0.0,57.999998,0.0,26.0,26.0,26.0,26.0,-0.124,0.2944,-0.07036666666666666,293.854,-2.6078,-2.77575,-1.4883,-1.6322,-268.65,216.08249999999998,190.94675,0.0,0.0,0.0,0.0,0.005666666666666667,-5.498166666666667,-5.498166666666667,-0.5547000000000001,0.538,-0.04600000000000026,1.6740000000000004,65.849,-0.0741,-0.2531,1.7040000000000006,100.0,1.0,1.0,203.51999999999998,0.0,0.0,0.0,0.0,0.0,0.0,0.0,8626.5,0.0,55.0,5.0,237.02666666666667,0.0,0.0,0.0,0.0,0.0,0.0,0.0,0.0,0.11100000000000065,0.11100000000000065,0.0,0.0,0.0,55.0,616.79921,10000.0,85.000001,85.000001,85.000001,85.000001,395.0,0.0,0.0,0.0,1.0,111.11,52.444,52.444,50.491,50.491,34.0,-30.7275,19.34,-28.826666666666668,19.9725,0.0,1782.97,0.870000000000001,100.0,28.276,26.942,42.307,41.120000000000005,0.0,0.0,100.0,0.0,0.0,0.0,0.0,3372.714285714286,2955.0,3701.1111111111113,3676.6,304.56,305.34,315.816,315.8155,21.8094,20.5249,21.793599999999998,21.3368,314.999998,314.999998,324.999988,324.999988,99.55962857142858,99.50723333333333,99.5656,99.54575714285714,-0.03600000000000003,-0.16500000000000004,-0.2263333333333334,0.0016666666666667052,-0.051666666666669414,-0.05333333333332746,1.6469999999999998,1.7225000000000001,37.308,29.2805,37.21,34.355000000000004,56.509,34.579499999999996,59.1995,51.858000000000004,54.407,33.7325,57.819,50.2025,53.565,33.2815,57.7775,49.62133333333333,-0.010499999999999954,-0.14800000000000013,0.10091000000000001,0.10902500000000001,0.0,206.335,206.21,203.51999999999998,203.51999999999998,0.0,0.0
3,0.0,0.0,0.0,1.0,1.0,0.0,0.0,1.0,0.0,100.0,1.0,1.1856,26.0,0.0,0.0,0.0,57.999998,0.0,26.0,26.0,26.0,26.0,-0.1514444444444445,0.30730000000000013,0.09853333333333335,293.381,-2.6306,-2.7,-1.5,-1.5869,-265.68,216.08249999999998,190.929125,0.0,0.0,0.0,0.0,0.0074,-5.498166666666667,-5.498166666666667,-0.5072,0.42433333333333334,-0.020500000000000185,-0.051000000000000156,65.985,-0.0922,-0.19515000000000002,1.3840000000000003,100.0,1.0,1.0,203.54666666666668,0.0,0.0,0.0,0.0,0.0,0.0,0.0,8627.6,0.0,55.0,5.0,237.51333333333332,1.0,0.0,0.0,0.0,0.0,0.0,0.0,0.0,0.1559999999999988,0.1559999999999988,0.0,0.0,1.0,55.0,616.79921,10000.0,85.000001,85.000001,85.000001,85.000001,395.0,0.0,0.0,0.0,1.0,333.33500000000004,53.452,53.452,48.111,48.111,34.0,-26.5175,18.1,-35.769999999999996,23.7825,0.0,1782.924,0.9600000000000009,100.0,27.982,26.893,42.494,41.32,0.0,0.0,100.0,0.0,0.0,0.0,0.0,2950.714285714286,2885.7,4350.111111111111,4252.6,305.8785,305.652,314.18225,314.334,21.818,20.5295,21.8029,21.3447,314.999998,314.999998,324.999988,324.999988,99.55962857142858,99.50726666666667,99.56572857142856,99.54588571428572,-0.038999999999999924,-0.16433333333333322,-0.21716666666666662,-0.0016666666666665941,-0.05833333333333002,-0.03999999999999915,1.4739999999999998,1.532,37.363,29.308999999999997,37.268,34.4045,56.494,34.618,59.2345,51.914500000000004,54.393,33.768,57.8525,50.2565,53.55,33.315,57.808,49.67433333333334,-0.00649999999999995,-0.14300000000000024,0.10501500000000001,0.09979,0.0,206.775,206.66500000000002,203.54666666666668,203.54666666666668,0.0,0.0
4,0.0,0.0,0.0,1.0,1.0,0.0,0.0,1.0,0.0,100.0,1.0,1.1856,26.0,0.0,0.0,0.0,57.999998,0.0,26.0,26.0,26.0,26.0,-0.16155555555555556,0.29669999999999996,-0.0009666666666666667,293.564,-2.6518,-2.795375,-1.5188000000000001,-1.6053000000000002,-262.31,216.0775,190.9095,0.0,0.0,0.0,0.0,0.009366666666666667,-5.498166666666667,-5.498166666666667,-0.5402,-0.8073333333333333,-0.09050000000000002,-1.7059999999999995,66.131,-0.0989,-0.23570000000000002,1.5920000000000005,100.0,1.0,1.0,204.12666666666667,0.0,0.0,0.0,0.0,0.0,0.0,0.0,8652.2,0.0,55.0,5.0,238.04333333333335,0.0,0.0,0.0,0.0,0.0,0.0,0.0,0.0,0.20700000000000074,0.20700000000000074,0.0,0.0,0.0,55.0,616.79921,10000.0,85.000001,85.000001,85.000001,85.000001,395.0,0.0,0.0,0.0,1.0,333.33500000000004,53.116,53.116,48.615,48.615,34.0,-31.060000000000002,17.919999999999998,-34.8,19.9875,0.0,1782.872,0.9800000000000004,100.0,27.73,26.766,42.962,41.494,0.0,0.0,100.0,0.0,0.0,0.0,0.0,3322.857142857143,2838.5,4183.0,3688.6,304.8945,305.64475,314.5995,315.621,21.8278,20.5345,21.8135,21.3536,314.999998,314.999998,324.999988,324.999988,99.55964285714286,99.50728333333333,99.56588571428571,99.54601428571429,-0.05233333333333312,-0.18433333333333324,-0.23466666666666658,-0.0044999999999999485,-0.051666666666669414,-0.03833333333332689,1.56,1.6059999999999999,37.424,29.341,37.335,34.46,56.477000000000004,34.66,59.2775,51.973,54.376999999999995,33.807,57.8925,50.3125,53.534,33.3525,57.8455,49.72933333333333,0.0,-0.15050000000000008,0.10939000000000002,0.10584500000000001,0.0,207.18,207.035,204.12666666666667,204.12666666666667,0.0,0.0
5,0.0,0.0,0.0,1.0,1.0,0.0,0.0,1.0,0.0,100.0,1.0,1.1856,26.0,0.0,0.0,0.0,57.999998,0.0,26.0,26.0,26.0,26.0,-0.1741111111111111,0.3003,-0.018600000000000002,293.655,-2.6596,-2.770375,-1.4987,-1.6381000000000001,-258.94,216.0675,190.88925,0.0,0.0,0.0,0.0,0.011333333333333334,-5.498166666666667,-5.498166666666667,-0.537,0.43633333333333335,-0.09187499999999993,1.0120000000000005,66.277,-0.10980000000000001,-0.216425,1.5380000000000003,100.0,1.0,1.0,204.56666666666666,0.0,0.0,0.0,0.0,0.0,0.0,0.0,8670.8,0.0,55.0,5.0,238.56666666666666,1.0,0.0,0.0,0.0,0.0,0.0,0.0,0.0,0.2579999999999991,0.2579999999999991,0.0,0.0,1.0,55.0,616.79921,10000.0,85.000001,85.000001,85.000001,85.000001,395.0,0.0,0.0,0.0,1.0,166.665,53.406,53.406,49.072,49.072,34.0,-29.369999999999997,18.118333333333332,-34.11666666666667,22.1175,0.0,1782.822,0.7250000000000014,100.0,27.978,26.472,42.765,40.948,0.0,0.0,100.0,0.0,0.0,0.0,0.0,3151.857142857143,2844.2,4132.444444444444,4056.1000000000004,305.1595,305.83325,314.77225,314.8335,21.8379,20.5396,21.823999999999998,21.3623,314.999998,314.999998,324.999988,324.999988,99.55964285714286,99.5073,99.56602857142857,99.54615714285714,-0.045666666666666744,-0.16999999999999993,-0.23516666666666663,-0.017000000000000015,-0.054999999999999716,-0.04833333333333201,1.532,1.6035,37.486999999999995,29.372500000000002,37.4,34.5145,56.465,34.702,59.317499999999995,52.03,54.364999999999995,33.8455,57.9295,50.367,53.521,33.3895,57.879999999999995,49.782333333333334,-0.02100000000000002,-0.133,0.10379000000000001,0.11368500000000001,0.0,207.675,207.54000000000002,204.56666666666666,204.56666666666666,0.0,0.0
6,0.0,0.0,0.0,1.0,1.0,0.0,0.0,1.0,0.0,100.0,1.0,1.1856,26.0,0.0,0.0,0.0,57.999998,0.0,26.0,26.0,26.0,26.0,-0.17588888888888887,0.2977000000000001,0.006333333333333334,293.564,-2.618,-2.815375,-1.5336,-1.5917,-255.75,216.0575,190.869875,0.0,0.0,0.0,0.0,0.013166666666666667,-5.498166666666667,-5.498166666666667,-0.5284,0.08066666666666668,-0.0833750000000002,0.7650000000000006,66.41499999999999,-0.1135,-0.2104,1.2460000000000004,100.0,1.0,1.0,204.95333333333332,0.0,0.0,0.0,0.0,0.0,0.0,0.0,8687.2,0.0,55.0,5.0,239.06666666666666,0.0,0.0,0.0,0.0,0.0,0.0,0.0,0.0,0.30600000000000094,0.30600000000000094,0.0,0.0,0.0,55.0,616.79921,10000.0,85.000001,85.000001,85.000001,85.000001,395.0,0.0,0.0,0.0,1.0,166.665,53.391,53.391,48.691,48.691,34.0,-28.605,19.39333333333333,-35.26,22.0,0.0,1782.775,0.379999999999999,100.0,27.84,26.441,42.88,41.175,0.0,0.0,100.0,0.0,0.0,0.0,0.0,3129.5714285714284,2890.3,4166.444444444444,4055.1000000000004,305.1975,305.627,314.65825,314.826,21.8473,20.5444,21.834,21.3707,314.999998,314.999998,324.999988,324.999988,99.55965714285715,99.50731666666667,99.56615714285714,99.54628571428572,-0.04066666666666663,-0.15799999999999992,-0.23883333333333334,-0.009499999999999953,-0.041666666666671404,-0.05333333333332746,1.512,1.5695000000000001,37.546,29.4025,37.462,34.567,56.451,34.741,59.356,52.087,54.352999999999994,33.8815,57.966,50.422,53.507,33.424,57.9135,49.836,-0.038000000000000034,-0.10450000000000026,0.11030000000000001,0.108035,0.0,208.075,207.97500000000002,204.95333333333332,204.95333333333332,0.0,0.0
7,0.0,0.0,0.0,1.0,1.0,0.0,0.0,1.0,0.0,100.0,1.0,1.1856,26.0,0.0,0.0,0.0,57.999998,0.0,26.0,26.0,26.0,26.0,-0.11866666666666659,0.28180000000000005,0.014533333333333336,293.411,-2.5895,-2.807875,-1.4912,-1.6384,-252.36,216.04000000000002,190.8495,0.0,0.0,0.0,0.0,0.015166666666666667,-5.498166666666667,-5.498166666666667,-0.5351,0.025333333333333333,-0.07650000000000023,-0.2290000000000001,66.56,-0.10600000000000001,-0.223275,1.040000000000001,100.0,1.0,1.0,205.41,0.0,0.0,0.0,0.0,0.0,0.0,0.0,8706.6,0.0,55.0,5.0,239.59,1.0,0.0,0.0,0.0,0.0,0.0,0.0,0.0,0.3569999999999993,0.3569999999999993,0.0,0.0,1.0,55.0,616.79921,10000.0,85.000001,85.000001,85.000001,85.000001,395.0,0.0,0.0,0.0,1.0,166.665,53.009,53.009,48.996,48.996,34.0,-28.814999999999998,19.916666666666668,-33.513333333333335,22.0875,0.0,1782.724,0.15500000000000114,100.0,27.89,26.691,42.847,41.485,0.0,0.0,100.0,0.0,0.0,0.0,0.0,3296.0,2865.4,4094.222222222222,3947.4,304.8235,305.51125,314.86375,314.97075,21.8573,20.5495,21.8445,21.3797,314.999998,314.999998,324.999988,324.999988,99.55965714285715,99.50733333333334,99.5663,99.54642857142858,-0.015333333333333199,-0.1433333333333333,-0.23199999999999998,-0.009166666666666656,-0.06666666666666998,-0.041666666666671404,1.529,1.5659999999999998,37.608000000000004,29.4345,37.528,34.623,56.437,34.782,59.397,52.147,54.339,33.919,58.004,50.4795,53.492999999999995,33.46,57.949,49.891999999999996,-0.06599999999999995,-0.08499999999999996,0.10517000000000001,0.10874500000000001,0.0,208.53,208.41500000000002,205.41,205.41,0.0,0.0
8,0.0,0.0,0.0,1.0,1.0,0.0,0.0,1.0,0.0,100.0,1.0,1.1856,26.0,0.0,0.0,0.0,57.999998,0.0,26.0,26.0,26.0,26.0,-0.10288888888888892,0.30380000000000007,0.019666666666666666,293.549,-2.6699,-2.74275,-1.4738,-1.6263,-248.96,216.01999999999998,190.82875,0.0,0.0,0.0,0.0,0.017133333333333334,-5.498166666666667,-5.498166666666667,-0.5364,-0.5013333333333333,-0.058499999999999996,0.702,66.706,-0.0891,-0.21615,0.46200000000000063,100.0,1.0,1.0,205.7866666666667,0.0,0.0,0.0,0.0,0.0,0.0,0.0,8722.5,0.0,55.0,5.0,240.11333333333334,0.0,0.0,0.0,0.0,0.0,0.0,0.0,0.0,0.40800000000000125,0.40800000000000125,0.0,0.0,0.0,55.0,616.79921,10000.0,85.000001,85.000001,85.000001,85.000001,395.0,0.0,0.0,0.0,1.0,333.33500000000004,53.635,53.635,48.34,48.34,34.0,-25.787499999999998,20.89333333333333,-31.736666666666665,24.7425,0.0,1782.672,-0.015000000000000568,100.0,27.574,26.504,42.980000000000004,41.516999999999996,0.0,0.0,100.0,0.0,0.0,0.0,0.0,3002.142857142857,2975.4,4100.111111111111,4112.1,305.669,305.4405,314.75,314.6275,21.8671,20.5546,21.8551,21.3886,314.999998,314.999998,324.999988,324.999988,99.55965714285715,99.50735,99.56645714285715,99.54657142857143,0.004999999999999893,-0.12033333333333318,-0.1958333333333333,0.02183333333333337,-0.03166666666666629,-0.04833333333333201,1.5244999999999997,1.5265,37.67,29.4665,37.594,34.679,56.419,34.8225,59.4375,52.207,54.322,33.956,58.042,50.537,53.476,33.495,57.984,49.94833333333334,-0.07299999999999995,-0.07200000000000006,0.10294500000000001,0.10011500000000001,0.0,208.925,208.89,205.7866666666667,205.7866666666667,0.0,0.0
9,0.0,0.0,0.0,1.0,1.0,0.0,0.0,1.0,0.0,100.0,1.0,1.1856,26.0,0.0,0.0,0.0,57.999998,0.0,26.0,26.0,26.0,26.0,-0.07555555555555549,0.2962,-0.013800000000000002,293.182,-2.5995,-2.743125,-1.5270000000000001,-1.5754000000000001,-245.56,215.995,190.80775,0.0,0.0,0.0,0.0,0.019100000000000002,-5.498166666666667,-5.498166666666667,-0.5372,0.636,-0.06274999999999986,-0.3120000000000003,66.849,-0.07300000000000001,-0.213175,0.4479999999999995,100.0,1.0,1.0,206.30666666666667,0.0,0.0,0.0,0.0,0.0,0.0,0.0,8744.5,0.0,55.0,5.0,240.62666666666667,1.0,0.0,0.0,0.0,0.0,0.0,0.0,0.0,0.45899999999999963,0.45899999999999963,0.0,0.0,1.0,55.0,616.79921,10000.0,85.000001,85.000001,85.000001,85.000001,395.0,0.0,0.0,0.0,1.0,166.665,52.643,52.643,49.042,49.042,34.0,-27.802500000000002,21.48,-31.333333333333332,24.392500000000002,0.0,1782.622,-0.28999999999999915,100.0,28.007,27.058,42.597,41.622,0.0,0.0,100.0,0.0,0.0,0.0,0.0,3345.857142857143,2925.4,4113.333333333333,4059.2,304.7135,305.37,314.906,314.769,21.8772,20.5599,21.8655,21.3976,314.999998,314.999998,324.999988,324.999988,99.55965714285715,99.50736666666667,99.5666,99.54671428571429,0.019333333333333425,-0.1016666666666668,-0.17916666666666659,0.038833333333333275,-0.07166666666666544,-0.041666666666671404,1.556,1.5630000000000002,37.732,29.499499999999998,37.66,34.7345,56.405,34.863,59.475,52.2655,54.308,33.9935,58.077,50.593,53.461,33.531,58.0165,50.00333333333333,-0.09199999999999997,-0.05500000000000016,0.09867000000000001,0.10646000000000001,0.0,209.405,209.345,206.30666666666667,206.30666666666667,0.0,0.0
10,0.0,0.0,0.0,1.0,1.0,0.0,0.0,1.0,0.0,100.0,1.0,1.1856,26.0,0.0,0.0,0.0,57.999998,0.0,26.0,26.0,26.0,26.0,-0.050555555555555576,0.29600000000000004,0.03536666666666667,293.152,-2.6691,-2.70825,-1.5088,-1.5508000000000002,-242.14,215.97,190.787,0.0,0.0,0.0,0.0,0.0211,-5.498166666666667,-5.498166666666667,-0.5248,-0.6916666666666667,-0.019750000000000156,1.6550000000000002,66.995,-0.0514,-0.21102500000000002,-0.09600000000000009,100.0,1.0,1.0,206.5966666666667,0.0,0.0,0.0,0.0,0.0,0.0,0.0,8756.9,0.0,55.0,5.0,241.15333333333334,0.0,0.0,0.0,0.0,0.0,0.0,1.0,0.0,0.509999999999998,0.509999999999998,0.0,0.0,0.0,55.0,616.79921,10000.0,85.000001,85.000001,85.000001,85.000001,395.0,0.0,0.0,0.0,1.0,166.665,53.497,53.497,47.943,47.943,34.0,-23.02,22.36333333333333,-30.953333333333333,27.1,0.0,1782.57,-0.39000000000000057,100.0,27.86,26.839,43.098,42.21,0.0,0.0,100.0,0.0,0.0,0.0,0.0,2912.857142857143,2969.4,4180.222222222223,4258.9,305.941,305.499,314.58,314.2905,21.887,20.5651,21.8762,21.4067,314.999998,314.999998,324.999988,324.999988,99.55967142857143,99.50736666666667,99.56674285714286,99.54685714285715,0.052999999999999936,-0.07400000000000007,-0.15433333333333332,0.06333333333333324,-0.015000000000000568,-0.07000000000000028,1.4979999999999998,1.4965000000000002,37.794,29.532,37.726,34.792,56.388999999999996,34.9005,59.5165,52.3285,54.294,34.0285,58.116,50.653,53.445,33.564499999999995,58.052,50.062333333333335,-0.10899999999999999,-0.034499999999999975,0.10887500000000001,0.10663,0.0,209.79500000000002,209.805,206.5966666666667,206.5966666666667,0.0,0.0
11,0.0,0.0,0.0,1.0,1.0,0.0,0.0,1.0,0.0,100.0,1.0,1.1856,26.0,0.0,0.0,0.0,57.999998,0.0,26.0,26.0,26.0,26.0,-0.033333333333333326,0.2782,-0.06576666666666667,293.594,-2.6779,-2.719125,-1.5621,-1.5232,-238.92000000000002,215.945,190.767375,0.0,0.0,0.0,0.0,0.022600000000000002,-5.498166666666667,-5.498166666666667,-0.5585,-0.07066666666666667,0.0031250000000000444,0.5860000000000003,67.125,-0.0286,-0.23235,-0.24399999999999977,100.0,1.0,1.0,207.26,0.0,0.0,0.0,0.0,0.0,0.0,0.0,8784.9,0.0,55.0,5.0,241.62333333333333,1.0,0.0,0.0,0.0,0.0,0.0,1.0,0.0,0.5579999999999998,0.5579999999999998,0.0,0.0,1.0,55.0,616.79921,10000.0,85.000001,85.000001,85.000001,85.000001,395.0,0.0,0.0,0.0,1.0,166.665,53.024,53.024,49.24,49.24,34.0,-23.8,24.241666666666667,-26.176666666666666,25.35,0.0,1782.523,-0.3550000000000004,100.0,27.643,27.113,42.539,42.115,0.0,0.0,100.0,0.0,0.0,0.0,0.0,3047.714285714286,3103.7,3777.6666666666665,3928.2,305.5065,304.98775,315.66625,315.16225,21.8961,20.5702,21.886,21.4151,314.999998,314.999998,324.999988,324.999988,99.55967142857143,99.50738333333334,99.56688571428572,99.54698571428571,0.06700000000000017,-0.06266666666666665,-0.12816666666666665,0.09766666666666679,-0.045000000000001705,-0.07166666666666544,1.6280000000000001,1.6155,37.851,29.563499999999998,37.787,34.8445,56.373999999999995,34.937,59.549,52.3835,54.278999999999996,34.062,58.1465,50.706,53.43,33.5965,58.08,50.114,-0.10299999999999998,-0.04400000000000004,0.10673,0.11020500000000001,0.0,210.22,210.22500000000002,207.26,207.26,0.0,0.0
12,0.0,0.0,0.0,1.0,1.0,0.0,0.0,1.0,0.0,100.0,1.0,1.1856,26.0,0.0,0.0,0.0,57.999998,0.0,26.0,26.0,26.0,26.0,-0.006111111111111067,0.2916000000000001,0.021266666666666666,293.076,-2.7004,-2.70875,-1.5338,-1.5731000000000002,-235.7,215.92000000000002,190.74675,0.0,0.0,0.0,0.0,0.025466666666666665,-5.498166666666667,-5.498166666666667,-0.5448000000000001,0.29633333333333334,-0.005625000000000213,0.7309999999999999,67.262,-0.0088,-0.20670000000000002,-0.3020000000000005,100.0,1.0,1.0,207.48666666666668,0.0,0.0,0.0,0.0,0.0,0.0,0.0,8794.6,0.0,55.0,5.0,242.11333333333334,0.0,0.0,0.0,0.0,0.0,0.0,1.0,0.0,0.6059999999999981,0.6059999999999981,0.0,0.0,0.0,55.0,616.79921,10000.0,85.000001,85.000001,85.000001,85.000001,395.0,0.0,0.0,0.0,1.0,166.665,52.917,52.917,48.126,48.126,34.0,-23.945,24.873333333333335,-28.906666666666666,29.7025,0.0,1782.474,-0.3099999999999987,100.0,27.564,27.267,42.492000000000004,42.081,0.0,0.0,100.0,0.0,0.0,0.0,0.0,3069.4285714285716,3138.0,4169.555555555556,4206.2,305.422,304.90175,314.67,314.47125,21.9052,20.5753,21.8958,21.4236,314.999998,314.999998,324.999988,324.999988,99.55968571428572,99.5074,99.56701428571428,99.54712857142857,0.07366666666666655,-0.05233333333333312,-0.11449999999999994,0.11716666666666686,-0.05666666666667197,-0.05666666666667197,1.5324999999999998,1.517,37.907,29.5955,37.849000000000004,34.8975,56.36,34.9735,59.585499999999996,52.44,54.266,34.0955,58.18,50.7605,53.416,33.629,58.1105,50.16733333333333,-0.09650000000000003,-0.053999999999999826,0.11216500000000001,0.11177500000000001,0.0,210.64499999999998,210.66500000000002,207.48666666666668,207.48666666666668,0.0,0.0
13,0.0,0.0,0.0,1.0,1.0,0.0,0.0,1.0,0.0,100.0,1.0,1.1856,26.0,0.0,0.0,0.0,57.999998,0.0,26.0,26.0,26.0,26.0,0.019888888888888845,0.28869999999999996,0.037200000000000004,292.694,-2.6824,-2.697625,-1.5681,-1.5615,-232.26,215.89499999999998,190.725,0.0,0.0,0.0,0.0,0.026833333333333334,-5.498166666666667,-5.498166666666667,-0.539,-0.129,-0.003750000000000142,-0.4189999999999996,67.404,0.0025,-0.21482500000000002,-0.2599999999999998,100.0,1.0,1.0,207.86333333333334,0.0,0.0,0.0,0.0,0.0,0.0,0.0,8810.5,0.0,55.0,5.0,242.62666666666667,1.0,0.0,0.0,0.0,0.0,0.0,1.0,0.0,0.657,0.657,0.0,0.0,1.0,55.0,616.79921,10000.0,85.000001,85.000001,85.000001,85.000001,395.0,0.0,0.0,0.0,1.0,333.33500000000004,52.612,52.612,48.019,48.019,34.0,-23.6825,24.5,-29.706666666666667,30.115000000000002,0.0,1782.422,-0.48499999999999943,100.0,27.74,27.642,42.652,42.725,0.0,0.0,100.0,0.0,0.0,0.0,0.0,3183.0,3025.8,4218.0,4252.7,305.245,305.06175,314.6015,314.25,21.9149,20.5807,21.906399999999998,21.4328,314.999998,314.999998,324.999988,324.999988,99.5597,99.5074,99.56715714285714,99.54725714285715,0.09466666666666645,-0.03933333333333322,-0.11166666666666658,0.11533333333333329,-0.03833333333332689,-0.04333333333332945,1.5034999999999998,1.4939999999999998,37.968,29.6295,37.915,34.955,56.347,35.0115,59.6245,52.503,54.254000000000005,34.131,58.216499999999996,50.821,53.403,33.6625,58.144,50.226333333333336,-0.11599999999999999,-0.04200000000000026,0.10727,0.10961000000000001,0.0,211.07,211.07,207.86333333333334,207.86333333333334,0.0,0.0
14,0.0,0.0,0.0,1.0,1.0,0.0,0.0,1.0,0.0,100.0,1.0,1.1856,26.0,0.0,0.0,0.0,57.999998,0.0,26.0,26.0,26.0,26.0,0.032444444444444276,0.27659999999999996,-0.012833333333333335,292.877,-2.7022,-2.70575,-1.5709,-1.5390000000000001,-228.82,215.8675,190.703625,0.0,0.0,0.0,0.0,0.028833333333333332,-5.498166666666667,-5.498166666666667,-0.5503,-0.093,0.02299999999999991,1.1680000000000001,67.544,0.014400000000000001,-0.2283,-0.48799999999999955,100.0,1.0,1.0,208.37666666666667,0.0,0.0,0.0,0.0,0.0,0.0,0.0,8832.3,0.0,55.0,5.0,243.13,0.0,0.0,0.0,0.0,0.0,0.0,1.0,0.0,0.7079999999999984,0.7079999999999984,0.0,0.0,0.0,55.0,616.79921,10000.0,85.000001,85.000001,85.000001,85.000001,395.0,0.0,0.0,0.0,1.0,166.665,52.643,52.643,48.233000000000004,48.233000000000004,34.0,-21.75,26.693333333333335,-26.30666666666667,29.6225,0.0,1782.373,-0.509999999999998,100.0,27.839,27.637999999999998,42.674,42.787,0.0,0.0,100.0,0.0,0.0,0.0,0.0,2984.4285714285716,3181.6,3968.8888888888887,4178.2,305.6795,304.6875,315.141,314.53,21.924599999999998,20.586199999999998,21.9169,21.4419,314.999998,314.999998,324.999988,324.999988,99.55971428571429,99.5074,99.5673,99.54741428571428,0.10866666666666669,-0.02066666666666661,-0.08633333333333337,0.13016666666666676,-0.02833333333332888,-0.05666666666667197,1.5465,1.5350000000000001,38.028,29.664,37.980000000000004,35.012,56.335,35.0495,59.661,52.564,54.241,34.1655,58.2505,50.8795,53.39,33.696,58.175,50.284,-0.11649999999999994,-0.035499999999999865,0.100995,0.10145000000000001,0.0,211.48000000000002,211.53,208.37666666666667,208.37666666666667,0.0,0.0
15,0.0,0.0,0.0,1.0,1.0,0.0,0.0,1.0,0.0,100.0,1.0,1.1856,26.0,0.0,0.0,0.0,57.999998,0.0,26.0,26.0,26.0,26.0,0.042888888888888976,0.2833000000000001,0.013866666666666666,292.831,-2.7122,-2.6654999999999998,-1.5962,-1.5421,-225.57999999999998,215.8425,190.68325,0.0,0.0,0.0,0.0,0.03073333333333333,-5.498166666666667,-5.498166666666667,-0.5413,0.264,0.04912499999999986,0.7650000000000006,67.676,0.0252,-0.210375,-0.5360000000000005,100.0,1.0,1.0,208.75666666666666,0.0,0.0,0.0,0.0,0.0,0.0,0.0,8848.4,0.0,55.0,5.0,243.60333333333335,1.0,0.0,0.0,0.0,0.0,0.0,1.0,0.0,0.7560000000000002,0.7560000000000002,0.0,0.0,1.0,55.0,616.79921,10000.0,85.000001,85.000001,85.000001,85.000001,395.0,0.0,0.0,0.0,1.0,333.33500000000004,52.78,52.78,48.157,48.157,34.0,-20.912499999999998,26.111666666666665,-26.32333333333333,32.5275,0.0,1782.324,-0.41499999999999915,100.0,27.848,27.745,42.5,42.942,0.0,0.0,100.0,0.0,0.0,0.0,0.0,2876.285714285714,3155.6,3984.777777777778,4341.9,306.0225,304.75575,315.1335,314.096,21.9336,20.5914,21.9266,21.450499999999998,314.999998,314.999998,324.999988,324.999988,99.55972857142856,99.5074,99.56742857142856,99.54754285714286,0.10833333333333339,-0.020333333333333314,-0.07633333333333336,0.15450000000000008,-0.05333333333332746,-0.04999999999999716,1.5230000000000001,1.5154999999999998,38.085,29.695999999999998,38.042,35.0655,56.322,35.085,59.6945,52.622,54.230000000000004,34.198499999999996,58.2815,50.9355,53.376999999999995,33.7275,58.203,50.339,-0.10799999999999998,-0.04400000000000004,0.1082,0.11014000000000002,0.0,211.91500000000002,211.93,208.75666666666666,208.75666666666666,0.0,0.0
16,0.0,0.0,0.0,1.0,1.0,0.0,0.0,1.0,0.0,100.0,1.0,1.1856,26.0,0.0,0.0,0.0,57.999998,0.0,26.0,26.0,26.0,26.0,0.053444444444444406,0.2784,-0.0164,292.801,-2.7711,-2.617,-1.5663,-1.5455,-222.12,215.8175,190.661125,0.0,0.0,0.0,0.0,0.03273333333333333,-5.498166666666667,-5.498166666666667,-0.56,-0.5976666666666667,0.029125000000000068,-1.2560000000000002,67.816,0.0342,-0.226275,-0.41000000000000014,100.0,1.0,1.0,209.18666666666667,0.0,0.0,0.0,0.0,0.0,0.0,0.0,8866.6,0.0,55.0,5.0,244.11,0.0,0.0,0.0,0.0,0.0,0.0,1.0,0.0,0.8069999999999986,0.8069999999999986,0.0,0.0,0.0,55.0,616.79921,10000.0,85.000001,85.000001,85.000001,85.000001,395.0,0.0,0.0,0.0,1.0,333.33500000000004,52.597,52.597,47.958,47.958,34.0,-23.7675,25.513333333333335,-26.12,29.905,0.0,1782.272,-0.3000000000000007,100.0,27.39,27.924,42.706,43.128,0.0,0.0,100.0,0.0,0.0,0.0,0.0,3159.714285714286,3148.7,4033.1111111111113,4053.4,305.4495,304.70125,315.06425,314.7135,21.943,20.5969,21.9372,21.459699999999998,314.999998,314.999998,324.999988,324.999988,99.55974285714285,99.5074,99.56758571428571,99.5477,0.10400000000000009,-0.02499999999999991,-0.07583333333333331,0.15066666666666673,-0.046666666666666856,-0.05333333333332746,1.5514999999999999,1.5230000000000001,38.144,29.731,38.107,35.123,56.307,35.1225,59.733000000000004,52.6825,54.215,34.2335,58.317,50.994,53.361999999999995,33.7615,58.236,50.39633333333333,-0.10050000000000003,-0.05699999999999994,0.10837000000000001,0.10788500000000001,0.0,212.315,212.34,209.18666666666667,209.18666666666667,0.0,0.0
17,0.0,0.0,0.0,1.0,1.0,0.0,0.0,1.0,0.0,100.0,1.0,1.1856,26.0,0.0,0.0,0.0,57.999998,0.0,26.0,26.0,26.0,26.0,0.02733333333333321,0.28710000000000013,0.03553333333333333,292.358,-2.7308,-2.6012500000000003,-1.6067,-1.5103,-218.46,215.79250000000002,190.637375,0.0,0.0,0.0,0.0,0.03486666666666667,-5.498166666666667,-5.498166666666667,-0.5484,0.332,0.006750000000000034,-0.7320000000000002,67.964,0.032,-0.20835,-0.22200000000000042,100.0,1.0,1.0,209.56,0.0,0.0,0.0,0.0,0.0,0.0,0.0,8882.5,0.0,55.0,5.0,244.64,1.0,0.0,0.0,0.0,0.0,0.0,1.0,0.0,0.8610000000000007,0.8610000000000007,0.0,0.0,1.0,55.0,616.79921,10000.0,85.000001,85.000001,85.000001,85.000001,395.0,0.0,0.0,0.0,1.0,166.665,52.368,52.368,47.531,47.531,34.0,-23.715,24.581666666666663,-29.923333333333332,30.6675,0.0,1782.22,-0.3299999999999983,100.0,27.853,28.03,42.579,43.097,0.0,0.0,100.0,0.0,0.0,0.0,0.0,3199.5714285714284,3077.0,4397.555555555556,4279.4,305.2715,304.9205,314.27675,314.26175,21.9533,20.602899999999998,21.9483,21.4693,314.999998,314.999998,324.999988,324.999988,99.55975714285714,99.50741666666667,99.56772857142857,99.54785714285714,0.10599999999999987,-0.02833333333333332,-0.08016666666666661,0.13616666666666677,-0.03166666666666629,-0.04999999999999716,1.5070000000000001,1.4859999999999998,38.208,29.768,38.177,35.183,56.295,35.1635,59.7715,52.747,54.203,34.2715,58.353,51.056,53.349000000000004,33.7975,58.2685,50.457,-0.10449999999999993,-0.05449999999999999,0.102925,0.10344500000000001,0.0,212.805,212.82,209.56,209.56,0.0,0.0
18,0.0,0.0,0.0,1.0,1.0,0.0,0.0,1.0,0.0,100.0,1.0,1.1856,26.0,0.0,0.0,0.0,57.999998,0.0,26.0,26.0,26.0,26.0,0.018777777777777782,0.2782,-0.003966666666666667,292.389,-2.7497,-2.58825,-1.6115,-1.463,-215.4,215.7725,190.617625,0.0,0.0,0.0,0.0,0.03663333333333333,-5.498166666666667,-5.498166666666667,-0.5605,-0.4246666666666667,0.02387499999999987,0.9569999999999999,68.08500000000001,0.028800000000000003,-0.22362500000000002,-0.30799999999999983,100.0,1.0,1.0,209.97333333333333,0.0,0.0,0.0,0.0,0.0,0.0,0.0,8900.0,0.0,55.0,5.0,245.07666666666665,0.0,0.0,0.0,0.0,0.0,0.0,1.0,0.0,0.9059999999999988,0.9059999999999988,0.0,0.0,0.0,55.0,616.79921,10000.0,85.000001,85.000001,85.000001,85.000001,395.0,0.0,0.0,0.0,1.0,333.33500000000004,52.216,52.216,47.623,47.623,34.0,-22.9225,27.246666666666666,-27.62666666666667,29.96,0.0,1782.173,-0.33999999999999986,100.0,27.85,27.828,42.953,43.289,0.0,0.0,100.0,0.0,0.0,0.0,0.0,3122.0,3331.8,4109.111111111111,4230.4,305.371,304.3635,314.849,314.4375,21.9617,20.6078,21.9576,21.4775,314.999998,314.999998,324.999988,324.999988,99.55977142857142,99.50741666666667,99.56785714285714,99.54797142857143,0.1163333333333334,-0.012333333333333307,-0.07899999999999996,0.14749999999999996,-0.04333333333332945,-0.045000000000001705,1.5350000000000001,1.5185,38.260999999999996,29.7985,38.235,35.234,56.283,35.1965,59.805,52.801,54.192,34.302,58.384,51.108000000000004,53.337,33.827,58.297,50.50833333333333,-0.10350000000000004,-0.04800000000000004,0.10083,0.11161000000000001,0.0,213.175,213.175,209.97333333333333,209.97333333333333,0.0,0.0
19,0.0,0.0,0.0,1.0,1.0,0.0,0.0,1.0,0.0,100.0,1.0,1.1856,26.0,0.0,0.0,0.0,57.999998,0.0,26.0,26.0,26.0,26.0,0.03588888888888886,0.2811000000000001,0.061500000000000006,292.038,-2.6649,-2.689875,-1.5432000000000001,-1.5874000000000001,-211.72,215.75,190.593625,0.0,0.0,0.0,0.0,0.03876666666666667,-5.498166666666667,-5.498166666666667,-0.5469,0.6970000000000001,0.028000000000000025,0.5760000000000005,68.231,0.026000000000000002,-0.21050000000000002,-0.2999999999999998,100.0,1.0,1.0,210.38,0.0,0.0,0.0,0.0,0.0,0.0,0.0,8917.2,0.0,55.0,5.0,245.60333333333335,1.0,0.0,0.0,0.0,0.0,0.0,1.0,0.0,0.9600000000000009,0.9600000000000009,0.0,0.0,1.0,55.0,616.79921,10000.0,85.000001,85.000001,85.000001,85.000001,395.0,0.0,0.0,0.0,1.0,166.665,52.032,52.032,47.501,47.501,34.0,-21.724999999999998,26.288333333333334,-27.653333333333332,33.665,0.0,1782.121,-0.3249999999999993,100.0,28.403,28.305,42.89,43.359,0.0,0.0,100.0,0.0,0.0,0.0,0.0,3023.4285714285716,3159.2,4177.222222222223,4428.7,305.5305,304.69175,314.6595,313.83625,21.972,20.6138,21.9686,21.4872,314.999998,314.999998,324.999988,324.999988,99.55977142857142,99.50743333333334,99.56801428571428,99.54812857142858,0.11066666666666647,-0.024333333333333318,-0.08333333333333337,0.14383333333333326,-0.03833333333332689,-0.05666666666667197,1.4939999999999998,1.4825,38.325,29.8365,38.304,35.295,56.271,35.2385,59.8425,52.8665,54.18,34.341,58.419,51.171,53.324,33.8645,58.3285,50.57,-0.10549999999999993,-0.05600000000000005,0.11039000000000002,0.109835,0.0,213.655,213.67000000000002,210.38,210.38,0.0,0.0
20,0.0,0.0,0.0,1.0,1.0,0.0,0.0,1.0,0.0,100.0,1.0,1.1856,26.0,0.0,0.0,0.0,57.999998,0.0,26.0,26.0,26.0,26.0,0.03933333333333322,0.26090000000000013,0.010100000000000001,292.343,-2.7579,-2.650125,-1.5455,-1.5779,-208.44,215.73000000000002,190.5725,0.0,0.0,0.0,0.0,0.0407,-5.498166666666667,-5.498166666666667,-0.5568000000000001,-1.0763333333333334,0.02299999999999991,0.508,68.361,0.0244,-0.226225,-0.29799999999999915,100.0,1.0,1.0,210.76,0.0,0.0,0.0,0.0,0.0,0.0,0.0,8933.3,0.0,55.0,5.0,246.07333333333332,0.0,0.0,0.0,0.0,0.0,0.0,0.0,0.0,1.0079999999999991,1.0079999999999991,0.0,0.0,0.0,55.0,616.79921,10000.0,85.000001,85.000001,85.000001,85.000001,395.0,0.0,0.0,0.0,1.0,333.33500000000004,52.612,52.612,47.165,47.165,34.0,-22.134999999999998,25.744999999999997,-27.156666666666666,31.73,0.0,1782.072,-0.28999999999999915,100.0,27.903,27.939,43.473,43.7,0.0,0.0,100.0,0.0,0.0,0.0,0.0,2983.142857142857,3163.7,4092.1111111111113,4180.2,305.813,304.85175,314.80525,314.42425,21.9808,20.619,21.9786,21.496,314.999998,314.999998,324.999988,324.999988,99.55978571428571,99.50743333333334,99.56814285714286,99.54827142857143,0.10833333333333339,-0.024666666666666615,-0.08399999999999996,0.15050000000000008,-0.030000000000001137,-0.03999999999999915,1.488,1.4659999999999997,38.379999999999995,29.868499999999997,38.366,35.3495,56.257,35.2735,59.8795,52.925,54.167,34.373,58.454,51.2275,53.31,33.8955,58.3605,50.62533333333333,-0.09950000000000003,-0.05250000000000021,0.111365,0.10949,0.0,213.99,214.01,210.76,210.76,0.0,0.0
21,0.0,0.0,0.0,1.0,1.0,0.0,0.0,1.0,0.0,100.0,1.0,1.1856,26.0,0.0,0.0,0.0,57.999998,0.0,26.0,26.0,26.0,26.0,0.010666666666666602,0.2813000000000001,-0.06910000000000001,292.603,-2.7226,-2.6561250000000003,-1.6133000000000002,-1.5362,-205.14999999999998,215.71,190.550875,0.0,0.0,0.0,0.0,0.0426,-5.498166666666667,-5.498166666666667,-0.5751000000000001,0.335,0.007749999999999924,0.375,68.486,0.0212,-0.2222,-0.23799999999999955,100.0,1.0,1.0,211.31333333333333,0.0,0.0,0.0,0.0,0.0,0.0,0.0,8956.8,0.0,55.0,5.0,246.52333333333334,1.0,0.0,0.0,0.0,0.0,0.0,0.0,0.0,1.056000000000001,1.056000000000001,0.0,0.0,1.0,55.0,616.79921,10000.0,85.000001,85.000001,85.000001,85.000001,395.0,0.0,0.0,0.0,1.0,333.33500000000004,52.338,52.338,48.08,48.08,34.0,-22.74,25.97,-27.293333333333333,28.645,0.0,1782.024,-0.3200000000000003,100.0,28.125,27.993,42.916,43.235,0.0,0.0,100.0,0.0,0.0,0.0,0.0,3082.5714285714284,3171.3,4037.222222222222,4057.2,305.454,304.82775,315.098,314.86925,21.9898,20.624299999999998,21.9883,21.5044,314.999998,314.999998,324.999988,324.999988,99.5598,99.50743333333334,99.56828571428571,99.54841428571429,0.10866666666666669,-0.022333333333333316,-0.08866666666666656,0.13566666666666682,-0.03499999999999659,-0.060000000000002274,1.5789999999999997,1.573,38.436,29.902,38.427,35.4025,56.245000000000005,35.3095,59.911,52.979,54.156,34.407,58.4825,51.2795,53.298,33.928,58.3865,50.67633333333333,-0.10150000000000003,-0.051000000000000156,0.10776000000000001,0.10518000000000001,0.0,214.41500000000002,214.445,211.31333333333333,211.31333333333333,0.0,0.0
22,0.0,0.0,0.0,1.0,1.0,0.0,0.0,1.0,0.0,100.0,1.0,1.1856,26.0,0.0,0.0,0.0,57.999998,0.0,26.0,26.0,26.0,26.0,0.025666666666666726,0.27760000000000007,0.001,292.191,-2.7846,-2.6174999999999997,-1.6103,-1.5206,-201.45,215.69,190.52575,0.0,0.0,0.0,0.0,0.04473333333333333,-5.498166666666667,-5.498166666666667,-0.5576,-0.124,0.020000000000000018,1.1109999999999998,68.633,0.018000000000000002,-0.20322500000000002,-0.2920000000000007,100.0,1.0,1.0,211.56666666666666,0.0,0.0,0.0,0.0,0.0,0.0,0.0,8967.6,0.0,55.0,5.0,247.05,0.0,0.0,0.0,0.0,0.0,0.0,0.0,0.0,1.1099999999999994,1.1099999999999994,0.0,0.0,0.0,55.0,616.79921,10000.0,85.000001,85.000001,85.000001,85.000001,395.0,0.0,0.0,0.0,1.0,166.665,52.582,52.582,47.15,47.15,34.0,-22.28,25.615000000000002,-29.373333333333335,31.7775,0.0,1781.971,-0.3999999999999986,100.0,28.109,28.015,43.227000000000004,43.467,0.0,0.0,100.0,0.0,0.0,0.0,0.0,2982.0,3170.0,4229.444444444444,4407.6,305.8415,304.9105,314.559,313.9795,21.9999,20.6302,21.9995,21.5142,314.999998,314.999998,324.999988,324.999988,99.55982857142857,99.50743333333334,99.56844285714286,99.54857142857144,0.10966666666666658,-0.020000000000000018,-0.08850000000000002,0.13383333333333325,-0.041666666666671404,-0.06666666666666998,1.4779999999999998,1.492,38.498999999999995,29.939,38.497,35.464,56.232,35.35,59.951499999999996,53.0445,54.143,34.444,58.521,51.343,53.284,33.963499999999996,58.421,50.738,-0.11099999999999999,-0.04700000000000015,0.11171500000000001,0.10419500000000001,0.0,214.875,214.905,211.56666666666666,211.56666666666666,0.0,0.0
23,0.0,0.0,0.0,1.0,1.0,0.0,0.0,1.0,0.0,100.0,1.0,1.1856,26.0,0.0,0.0,0.0,57.999998,0.0,26.0,26.0,26.0,26.0,0.0040000000000000036,0.2582,-0.020466666666666668,292.13,-2.6908,-2.6546250000000002,-1.6622,-1.4955,-198.14999999999998,215.6725,190.503625,0.0,0.0,0.0,0.0,0.04666666666666667,-5.498166666666667,-5.498166666666667,-0.5759000000000001,-0.18233333333333335,0.017249999999999988,0.5670000000000002,68.758,0.020900000000000002,-0.22885,-0.2939999999999996,100.0,1.0,1.0,212.08333333333331,0.0,0.0,0.0,0.0,0.0,0.0,0.0,8989.4,0.0,55.0,5.0,247.50333333333333,1.0,0.0,0.0,0.0,0.0,0.0,0.0,0.0,1.1580000000000013,1.1580000000000013,0.0,0.0,1.0,55.0,616.79921,10000.0,85.000001,85.000001,85.000001,85.000001,395.0,0.0,0.0,0.0,1.0,166.665,51.788,51.788,47.928,47.928,34.0,-23.395,26.043333333333333,-28.316666666666666,29.355,0.0,1781.923,-0.3249999999999993,100.0,28.396,28.213,43.248000000000005,43.643,0.0,0.0,100.0,0.0,0.0,0.0,0.0,3194.4285714285716,3212.0,4051.777777777778,4116.1,305.0575,304.67475,315.0675,314.747,22.0089,20.6356,22.0094,21.523,314.999998,314.999998,324.999988,324.999988,99.55982857142857,99.50745,99.56857142857143,99.5487,0.11033333333333362,-0.03066666666666662,-0.09116666666666662,0.14716666666666667,-0.05666666666667197,-0.04833333333333201,1.552,1.5295,38.555,29.9725,38.559,35.5185,56.22,35.3865,59.9855,53.1025,54.132,34.478,58.5525,51.397999999999996,53.272,33.9965,58.45,50.79233333333333,-0.10799999999999998,-0.05549999999999988,0.10855500000000001,0.11706000000000001,0.0,215.245,215.265,212.08333333333331,212.08333333333331,0.0,0.0
24,0.0,0.0,0.0,1.0,1.0,0.0,0.0,1.0,0.0,100.0,1.0,1.1856,26.0,0.0,0.0,0.0,57.999998,0.0,26.0,26.0,26.0,26.0,0.024222222222222145,0.27560000000000007,-0.056,292.45,-2.7156000000000002,-2.660125,-1.5491000000000001,-1.5243,-194.85,215.655,190.481125,0.0,0.0,0.0,0.0,0.048600000000000004,-5.498166666666667,-5.498166666666667,-0.5835,-0.4806666666666667,0.030000000000000027,1.2800000000000002,68.886,0.022000000000000002,-0.22112500000000002,-0.2939999999999996,100.0,1.0,1.0,212.39333333333332,0.0,0.0,0.0,0.0,0.0,0.0,0.0,9002.5,0.0,55.0,5.0,247.96333333333334,0.0,0.0,0.0,0.0,0.0,0.0,0.0,0.0,1.2059999999999995,1.2059999999999995,0.0,0.0,0.0,55.0,616.79921,10000.0,85.000001,85.000001,85.000001,85.000001,395.0,0.0,0.0,0.0,1.0,166.665,52.841,52.841,47.302,47.302,34.0,-20.985,24.95,-27.4,30.945,0.0,1781.875,-0.375,100.0,28.06,27.945,43.230000000000004,43.561,0.0,0.0,100.0,0.0,0.0,0.0,0.0,2886.714285714286,3089.3,4173.777777777777,4223.1,306.012,305.09475,314.62075,314.46675,22.0177,20.6408,22.019199999999998,21.5316,314.999998,314.999998,324.999988,324.999988,99.55984285714285,99.50745,99.56871428571428,99.54884285714286,0.11033333333333362,-0.028999999999999915,-0.07766666666666666,0.14966666666666684,-0.06833333333332803,-0.036666666666668846,1.5204999999999997,1.5095,38.611000000000004,30.0045,38.620000000000005,35.5725,56.208,35.4215,60.0205,53.159,54.120000000000005,34.5105,58.585,51.4525,53.259,34.027,58.479,50.845666666666666,-0.10599999999999998,-0.0535000000000001,0.098345,0.11312000000000001,0.0,215.66,215.655,212.39333333333332,212.39333333333332,0.0,0.0
25,0.0,0.0,0.0,1.0,1.0,0.0,0.0,1.0,0.0,100.0,1.0,1.1856,26.0,0.0,0.0,0.0,57.999998,0.0,26.0,26.0,26.0,26.0,0.044666666666666854,0.2704,-0.03156666666666667,292.236,-2.787,-2.6174999999999997,-1.5977000000000001,-1.5263,-191.32999999999998,215.6375,190.45575,0.0,0.0,0.0,0.0,0.050633333333333336,-5.498166666666667,-5.498166666666667,-0.6063000000000001,0.09733333333333333,0.03112500000000007,-1.0629999999999997,69.018,0.019100000000000002,-0.22182500000000002,-0.2320000000000002,100.0,1.0,1.0,212.9,0.0,0.0,0.0,0.0,0.0,0.0,0.0,9024.1,0.0,55.0,5.0,248.44,1.0,0.0,0.0,0.0,0.0,0.0,0.0,0.0,1.256999999999998,1.256999999999998,0.0,0.0,1.0,55.0,616.79921,10000.0,85.000001,85.000001,85.000001,85.000001,395.0,0.0,0.0,0.0,1.0,166.665,51.772999999999996,51.772999999999996,47.943,47.943,34.0,-25.044999999999998,26.785,-26.596666666666668,29.240000000000002,0.0,1781.824,-0.4400000000000013,100.0,27.868,28.32,42.878,43.446,0.0,0.0,100.0,0.0,0.0,0.0,0.0,3315.5714285714284,3284.9,3988.222222222222,4087.1000000000004,304.995,304.2925,315.22175,314.71775,22.027,20.6465,22.0296,21.5407,314.999998,314.999998,324.999988,324.999988,99.55985714285714,99.50745,99.56885714285714,99.549,0.11033333333333362,-0.026000000000000023,-0.08516666666666661,0.13983333333333325,-0.05666666666667197,-0.03833333333332689,1.5625,1.5474999999999999,38.669,30.0405,38.685,35.6295,56.194,35.46,60.054,53.2175,54.107,34.546,58.616,51.5095,53.244,34.0615,58.5075,50.90133333333333,-0.11399999999999999,-0.040999999999999925,0.09839500000000001,0.11358000000000001,0.0,216.06,216.065,212.9,212.9,0.0,0.0
26,0.0,0.0,0.0,1.0,1.0,0.0,0.0,1.0,0.0,100.0,1.0,1.1856,26.0,0.0,0.0,0.0,57.999998,0.0,26.0,26.0,26.0,26.0,0.021333333333333426,0.27960000000000007,0.09006666666666667,291.245,-2.6849,-2.721375,-1.594,-1.5221,-187.81,215.62,190.43,0.0,0.0,0.0,0.0,0.05266666666666667,-5.498166666666667,-5.498166666666667,-0.5715,0.47300000000000003,0.017625000000000002,0.8639999999999999,69.155,0.0221,-0.199275,-0.4399999999999995,100.0,1.0,1.0,213.06666666666666,0.0,0.0,0.0,0.0,0.0,0.0,0.0,9031.2,0.0,55.0,5.0,248.93,0.0,0.0,0.0,0.0,0.0,0.0,0.0,0.0,1.3079999999999998,1.3079999999999998,0.0,0.0,0.0,55.0,616.79921,10000.0,85.000001,85.000001,85.000001,85.000001,395.0,0.0,0.0,0.0,1.0,333.33500000000004,51.635999999999996,51.635999999999996,46.31,46.31,34.0,-22.22,26.418333333333333,-31.259999999999998,34.525000000000006,0.0,1781.771,-0.4549999999999983,100.0,28.832,28.665,43.563,43.868,0.0,0.0,100.0,0.0,0.0,0.0,0.0,3102.5714285714284,3147.2,4498.888888888889,4587.3,305.353,304.8045,313.88925,313.6285,22.0366,20.6523,22.0401,21.5501,314.999998,314.999998,324.999988,324.999988,99.55987142857143,99.50746666666667,99.56901428571429,99.54914285714285,0.11799999999999988,-0.023666666666666725,-0.08133333333333337,0.14983333333333326,-0.041666666666671404,-0.06833333333332803,1.4289999999999998,1.4304999999999999,38.729,30.0765,38.751000000000005,35.688,56.184,35.5,60.093,53.28,54.097,34.5835,58.6525,51.5695,53.233999999999995,34.097,58.5405,50.96033333333334,-0.11949999999999994,-0.04899999999999993,0.109155,0.114485,0.0,216.495,216.53,213.06666666666666,213.06666666666666,0.0,0.0
27,0.0,0.0,0.0,1.0,1.0,0.0,0.0,1.0,0.0,100.0,1.0,1.1856,26.0,0.0,0.0,0.0,57.999998,0.0,26.0,26.0,26.0,26.0,0.045666666666666744,0.254,-0.048233333333333336,291.824,-2.7555,-2.65625,-1.6177000000000001,-1.5888,-184.49,215.60500000000002,190.406875,0.0,0.0,0.0,0.0,0.0546,-5.498166666666667,-5.498166666666667,-0.5974,-0.975,0.021499999999999853,0.6600000000000001,69.278,0.0258,-0.23985,-0.4079999999999995,100.0,1.0,1.0,213.59333333333333,0.0,0.0,0.0,0.0,0.0,0.0,0.0,9053.5,0.0,55.0,5.0,249.37666666666667,1.0,0.0,0.0,0.0,0.0,0.0,0.0,0.0,1.355999999999998,1.355999999999998,0.0,0.0,1.0,55.0,616.79921,10000.0,85.000001,85.000001,85.000001,85.000001,395.0,0.0,0.0,0.0,1.0,166.665,51.987,51.987,46.677,46.677,34.0,-21.982499999999998,26.505,-27.406666666666666,30.7775,0.0,1781.725,-0.4299999999999997,100.0,28.447,28.535,44.035,44.286,0.0,0.0,100.0,0.0,0.0,0.0,0.0,3003.857142857143,3241.8,4089.222222222222,4071.3,305.7585,304.59875,314.9165,314.7505,22.0454,20.6576,22.0501,21.5589,314.999998,314.999998,324.999988,324.999988,99.55988571428571,99.50746666666667,99.56914285714285,99.54927142857143,0.1163333333333334,-0.026666666666666616,-0.07499999999999996,0.15116666666666667,-0.03166666666666629,-0.060000000000002274,1.528,1.4935,38.784,30.11,38.813,35.743,56.172,35.536500000000004,60.1295,53.338,54.085,34.6165,58.686,51.6255,53.221000000000004,34.1295,58.571,51.01466666666666,-0.10849999999999993,-0.05250000000000021,0.10137,0.11266000000000001,0.0,216.825,216.86,213.59333333333333,213.59333333333333,0.0,0.0
28,0.0,0.0,0.0,1.0,1.0,0.0,0.0,1.0,0.0,100.0,1.0,1.1856,26.0,0.0,0.0,0.0,57.999998,0.0,26.0,26.0,26.0,26.0,0.052999999999999936,0.26480000000000015,-0.06746666666666666,291.916,-2.6909,-2.6465,-1.6320999999999999,-1.5636999999999999,-180.95,215.59,190.3815,0.0,0.0,0.0,0.0,0.056666666666666664,-5.498166666666667,-5.498166666666667,-0.6009,0.6523333333333334,0.008999999999999897,-0.7589999999999995,69.407,0.0253,-0.2146,-0.32200000000000006,100.0,1.0,1.0,214.08666666666667,0.0,0.0,0.0,0.0,0.0,0.0,0.0,9074.4,0.0,55.0,5.0,249.84,0.0,0.0,0.0,0.0,0.0,0.0,0.0,0.0,1.407,1.407,0.0,0.0,0.0,55.0,616.79921,10000.0,85.000001,85.000001,85.000001,85.000001,395.0,0.0,0.0,0.0,1.0,333.33500000000004,51.834,51.834,47.394,47.394,34.0,-22.5475,25.536666666666665,-28.59,30.51,0.0,1781.672,-0.509999999999998,100.0,28.428,28.665,43.328,43.919,0.0,0.0,100.0,0.0,0.0,0.0,0.0,3150.857142857143,3103.7,4152.0,4139.2,305.3395,304.81825,314.93675,314.663,22.0548,20.6634,22.060299999999998,21.568,314.999998,314.999998,324.999988,324.999988,99.5599,99.50746666666667,99.56928571428571,99.54942857142858,0.11766666666666659,-0.022666666666666613,-0.08999999999999997,0.14650000000000007,-0.061666666666667425,-0.03999999999999915,1.548,1.5390000000000001,38.843,30.146,38.876999999999995,35.8,56.16,35.5755,60.162,53.396,54.074,34.6525,58.716,51.681,53.209,34.164,58.598,51.06933333333333,-0.12249999999999994,-0.040999999999999925,0.11019500000000002,0.11518500000000001,0.0,217.3,217.3,214.08666666666667,214.08666666666667,0.0,0.0
29,0.0,0.0,0.0,1.0,1.0,0.0,0.0,1.0,0.0,100.0,1.0,1.1856,26.0,0.0,0.0,0.0,57.999998,0.0,26.0,26.0,26.0,26.0,0.07011111111111101,0.2563,-0.025366666666666666,291.794,-2.768,-2.70025,-1.5835,-1.5392000000000001,-177.2,215.5775,190.3535,0.0,0.0,0.0,0.0,0.05883333333333334,-5.498166666666667,-5.498166666666667,-0.6074,-0.7536666666666666,0.011749999999999927,-0.7229999999999999,69.549,0.0273,-0.21727500000000002,-0.4119999999999999,100.0,1.0,1.0,214.37666666666667,0.0,0.0,0.0,0.0,0.0,0.0,0.0,9086.6,0.0,55.0,5.0,250.35000000000002,1.0,0.0,0.0,0.0,0.0,0.0,0.0,0.0,1.4609999999999985,1.4609999999999985,0.0,0.0,1.0,55.0,616.79921,10000.0,85.000001,85.000001,85.000001,85.000001,395.0,0.0,0.0,0.0,1.0,166.665,52.139,52.139,47.012,47.012,34.0,-24.009999999999998,25.308333333333334,-27.71333333333333,31.7475,0.0,1781.62,-0.5199999999999996,100.0,28.082,28.509999999999998,43.709,44.275,0.0,0.0,100.0,0.0,0.0,0.0,0.0,3229.714285714286,3040.1,4139.333333333333,4250.4,305.405,304.98075,314.81225,314.29225,22.0646,20.6693,22.0715,21.578,314.999998,314.999998,324.999988,324.999988,99.55991428571429,99.50748333333334,99.56945714285715,99.54958571428571,0.10899999999999999,-0.026000000000000023,-0.07883333333333331,0.14850000000000008,-0.03999999999999915,-0.05333333333332746,1.484,1.4659999999999997,38.903999999999996,30.183500000000002,38.947,35.862,56.146,35.6145,60.2025,53.4615,54.061,34.689,58.754,51.744,53.194,34.199,58.6325,51.131,-0.11949999999999994,-0.04200000000000026,0.10322,0.11346500000000001,0.0,217.67000000000002,217.71,214.37666666666667,214.37666666666667,0.0,0.0
30,0.0,0.0,0.0,1.0,1.0,0.0,0.0,1.0,0.0,100.0,1.0,1.1856,26.0,0.0,0.0,0.0,57.999998,0.0,26.0,26.0,26.0,26.0,0.051444444444444404,0.24609999999999999,0.04216666666666667,291.183,-2.6868,-2.589375,-1.6484,-1.5915,-174.07,215.5675,190.330125,0.0,0.0,0.0,0.0,0.06066666666666667,-5.498166666666667,-5.498166666666667,-0.6046,0.8686666666666667,0.01200000000000001,0.5330000000000004,69.663,0.032100000000000004,-0.21765,-0.5420000000000007,100.0,1.0,1.0,214.80666666666667,0.0,0.0,0.0,0.0,0.0,0.0,0.0,9104.9,0.0,55.0,5.0,250.76,0.0,0.0,0.0,0.0,0.0,0.0,1.0,0.0,1.5060000000000002,1.5060000000000002,0.0,0.0,0.0,55.0,616.79921,10000.0,85.000001,85.000001,85.000001,85.000001,395.0,0.0,0.0,0.0,1.0,166.665,50.598,50.598,47.104,47.104,34.0,-23.107499999999998,27.335,-28.223333333333333,31.2875,0.0,1781.575,-0.48499999999999943,100.0,29.18,29.15,43.58,44.132999999999996,0.0,0.0,100.0,0.0,0.0,0.0,0.0,3263.142857142857,3345.7,4175.111111111111,4144.1,304.82,304.1325,314.892,314.606,22.0731,20.674599999999998,22.0807,21.586100000000002,314.999998,314.999998,324.999988,324.999988,99.55994285714286,99.50748333333334,99.56958571428571,99.54971428571429,0.1299999999999999,-0.020333333333333314,-0.07233333333333336,0.14933333333333332,-0.03999999999999915,-0.04333333333332945,1.5150000000000001,1.5070000000000001,38.957,30.2165,39.004000000000005,35.9135,56.138999999999996,35.6515,60.2325,53.513999999999996,54.053,34.7235,58.782,51.795,53.186,34.2315,58.6575,51.18033333333334,-0.12249999999999994,-0.045500000000000096,0.10172,0.109115,0.0,218.05,218.095,214.80666666666667,214.80666666666667,0.0,0.0
31,0.0,0.0,0.0,1.0,1.0,0.0,0.0,1.0,0.0,100.0,1.0,1.1856,26.0,0.0,0.0,0.0,57.999998,0.0,26.0,26.0,26.0,26.0,0.05033333333333334,0.24460000000000015,0.037733333333333334,290.833,-2.7785,-2.6157500000000002,-1.605,-1.4907,-170.51,215.555,190.304375,0.0,0.0,0.0,0.0,0.06273333333333334,-5.498166666666667,-5.498166666666667,-0.5893,-0.4526666666666667,0.017249999999999988,-0.8239999999999998,69.795,0.0358,-0.22235000000000002,-0.44399999999999995,100.0,1.0,1.0,215.05,0.0,0.0,0.0,0.0,0.0,0.0,0.0,9115.2,0.0,55.0,5.0,251.23666666666668,1.0,0.0,0.0,0.0,0.0,0.0,1.0,0.0,1.5569999999999986,1.5569999999999986,0.0,0.0,1.0,55.0,616.79921,10000.0,85.000001,85.000001,85.000001,85.000001,395.0,0.0,0.0,0.0,1.0,166.665,51.071,51.071,45.7,45.7,34.0,-23.71,27.14,-29.63,31.27,0.0,1781.524,-0.5150000000000006,100.0,28.78,29.332,44.262,44.945,0.0,0.0,100.0,0.0,0.0,0.0,0.0,3232.714285714286,3299.1,4323.555555555556,4266.9,305.2835,304.305,314.35575,314.2035,22.0825,20.6805,22.0914,21.5957,314.999998,314.999998,324.999988,324.999988,99.55995714285714,99.50748333333334,99.56972857142857,99.54988571428571,0.12166666666666659,-0.020000000000000018,-0.0771666666666666,0.14533333333333331,-0.03999999999999915,-0.02499999999999858,1.4485000000000001,1.4300000000000002,39.016,30.253,39.071,35.973,56.128,35.691,60.2725,53.5775,54.043,34.76,58.819,51.856,53.174,34.2665,58.6915,51.24033333333333,-0.121,-0.04899999999999993,0.11039000000000002,0.10354500000000001,0.0,218.445,218.47500000000002,215.05,215.05,0.0,0.0
32,0.0,0.0,0.0,1.0,1.0,0.0,0.0,1.0,0.0,100.0,1.0,1.1856,26.0,0.0,0.0,0.0,57.999998,0.0,26.0,26.0,26.0,26.0,0.05499999999999994,0.26550000000000007,-0.0284,291.245,-2.6992,-2.679875,-1.5887,-1.5484,-166.95,215.5475,190.27875,0.0,0.0,0.0,0.0,0.0648,-5.498166666666667,-5.498166666666667,-0.6059,-0.20166666666666666,-0.001875000000000071,0.34799999999999986,69.923,0.038200000000000005,-0.23042500000000002,-0.5479999999999992,100.0,1.0,1.0,215.54000000000002,0.0,0.0,0.0,0.0,0.0,0.0,0.0,9135.9,0.0,55.0,5.0,251.69666666666666,0.0,0.0,0.0,0.0,0.0,0.0,1.0,0.0,1.6080000000000005,1.6080000000000005,0.0,0.0,0.0,55.0,616.79921,10000.0,85.000001,85.000001,85.000001,85.000001,395.0,0.0,0.0,0.0,1.0,333.33500000000004,51.513999999999996,51.513999999999996,46.524,46.524,34.0,-21.23,26.991666666666667,-26.346666666666668,33.5275,0.0,1781.472,-0.495000000000001,100.0,28.857,29.024,44.162,44.668,0.0,0.0,100.0,0.0,0.0,0.0,0.0,3060.857142857143,3194.6,4109.222222222223,4371.2,305.506,304.71175,314.83425,314.17525,22.0918,20.6863,22.1018,21.605,314.999998,314.999998,324.999988,324.999988,99.55997142857143,99.50748333333334,99.56987142857143,99.55002857142857,0.13566666666666638,-0.011333333333333195,-0.056499999999999995,0.16566666666666685,-0.03499999999999659,-0.061666666666667425,1.5114999999999998,1.4929999999999999,39.074,30.2895,39.135999999999996,36.031,56.116,35.730000000000004,60.307,53.6375,54.032,34.796,58.8515,51.9135,53.162,34.3015,58.7205,51.29666666666667,-0.12249999999999994,-0.045500000000000096,0.099695,0.10867,0.0,218.845,218.885,215.54000000000002,215.54000000000002,0.0,0.0
33,0.0,0.0,0.0,1.0,1.0,0.0,0.0,1.0,0.0,100.0,1.0,1.1856,26.0,0.0,0.0,0.0,57.999998,0.0,26.0,26.0,26.0,26.0,0.07144444444444442,0.2610000000000001,-0.040633333333333334,291.595,-2.7466,-2.6685,-1.6006,-1.5799,-163.38,215.5375,190.252125,0.0,0.0,0.0,0.0,0.06686666666666667,-5.498166666666667,-5.498166666666667,-0.6166,-0.2986666666666667,-0.0016250000000002096,-0.12899999999999956,70.051,0.038400000000000004,-0.217475,-0.40200000000000014,100.0,1.0,1.0,215.95333333333332,0.0,0.0,0.0,0.0,0.0,0.0,0.0,9153.5,0.0,55.0,5.0,252.16,1.0,0.0,0.0,0.0,0.0,0.0,1.0,0.0,1.658999999999999,1.658999999999999,0.0,0.0,1.0,55.0,616.79921,10000.0,85.000001,85.000001,85.000001,85.000001,395.0,0.0,0.0,0.0,1.0,166.665,51.834,51.834,46.982,46.982,34.0,-22.96,25.476666666666667,-27.286666666666665,31.865000000000002,0.0,1781.421,-0.504999999999999,100.0,28.505,28.855,43.861000000000004,44.532,0.0,0.0,100.0,0.0,0.0,0.0,0.0,3171.5714285714284,3052.0,4113.555555555556,4186.0,305.392,305.01025,314.903,314.4755,22.1011,20.6919,22.1122,21.6142,314.999998,314.999998,324.999988,324.999988,99.55998571428572,99.5075,99.57002857142857,99.55018571428572,0.12233333333333363,-0.01633333333333331,-0.0731666666666666,0.15466666666666673,-0.045000000000001705,-0.051666666666669414,1.5194999999999999,1.5055,39.132,30.3245,39.201,36.089,56.104,35.766999999999996,60.342,53.6965,54.019999999999996,34.83,58.884,51.9705,53.15,34.334,58.7495,51.35166666666667,-0.12049999999999994,-0.04150000000000009,0.101125,0.113945,0.0,219.245,219.275,215.95333333333332,215.95333333333332,0.0,0.0
34,0.0,0.0,0.0,1.0,1.0,0.0,0.0,1.0,0.0,100.0,1.0,1.1856,26.0,0.0,0.0,0.0,57.999998,0.0,26.0,26.0,26.0,26.0,0.054444444444444295,0.2490000000000001,-0.07200000000000001,291.824,-2.6784,-2.66575,-1.6362999999999999,-1.5150000000000001,-160.01,215.5325,190.225625,0.0,0.0,0.0,0.0,0.06883333333333334,-5.498166666666667,-5.498166666666667,-0.6423,-0.8606666666666667,0.02299999999999991,-0.22199999999999953,70.172,0.038900000000000004,-0.2218,-0.4679999999999991,100.0,1.0,1.0,216.31666666666666,0.0,0.0,0.0,0.0,0.0,0.0,0.0,9168.9,0.0,55.0,5.0,252.59333333333336,0.0,0.0,0.0,0.0,0.0,0.0,1.0,0.0,1.7070000000000007,1.7070000000000007,0.0,0.0,0.0,55.0,616.79921,10000.0,85.000001,85.000001,85.000001,85.000001,395.0,0.0,0.0,0.0,1.0,333.33500000000004,52.292,52.292,47.15,47.15,34.0,-21.6175,25.424999999999997,-28.026666666666667,30.805,0.0,1781.372,-0.504999999999999,100.0,28.215,28.537,43.735,44.581,0.0,0.0,100.0,0.0,0.0,0.0,0.0,3083.857142857143,3057.0,4117.555555555556,4202.0,305.6605,305.11,314.941,314.48325,22.1098,20.6972,22.1219,21.623,314.999998,314.999998,324.999988,324.999988,99.56,99.5075,99.57017142857143,99.55031428571428,0.12133333333333374,-0.014666666666666606,-0.07850000000000001,0.14949999999999997,-0.036666666666668846,-0.04999999999999716,1.521,1.5015,39.186,30.3575,39.262,36.144,56.092,35.801,60.374,53.7535,54.009,34.8615,58.9135,52.0255,53.137,34.3645,58.775999999999996,51.40566666666666,-0.119,-0.03949999999999987,0.10689000000000001,0.10926000000000001,0.0,219.61,219.625,216.31666666666666,216.31666666666666,0.0,0.0
35,0.0,0.0,0.0,1.0,1.0,0.0,0.0,1.0,0.0,100.0,1.0,1.1856,26.0,0.0,0.0,0.0,57.999998,0.0,26.0,26.0,26.0,26.0,0.062000000000000055,0.25370000000000004,-0.0251,291.748,-2.7339,-2.609125,-1.6287,-1.5078,-156.22,215.5275,190.193875,0.0,0.0,0.0,0.0,0.07103333333333334,-5.498166666666667,-5.498166666666667,-0.6799000000000001,-0.07366666666666667,0.00024999999999986144,-1.3319999999999999,70.306,0.043300000000000005,-0.225075,-0.44399999999999995,100.0,1.0,1.0,216.80666666666667,0.0,0.0,0.0,0.0,0.0,0.0,0.0,9189.7,0.0,55.0,5.0,253.07666666666665,1.0,0.0,0.0,0.0,0.0,0.0,1.0,0.0,1.7609999999999992,1.7609999999999992,0.0,0.0,1.0,55.0,616.79921,10000.0,85.000001,85.000001,85.000001,85.000001,395.0,0.0,0.0,0.0,1.0,166.665,51.635999999999996,51.635999999999996,46.814,46.814,34.0,-23.15,27.455,-26.833333333333332,29.89,0.0,1781.32,-0.3150000000000013,100.0,28.061,28.937,43.519,44.055,0.0,0.0,100.0,0.0,0.0,0.0,0.0,3149.285714285714,3337.2,4035.222222222222,4039.4,305.4555,304.1255,315.1035,314.888,22.1194,20.7034,22.1329,21.6327,314.999998,314.999998,324.999988,324.999988,99.56001428571429,99.5075,99.57031428571429,99.55047142857143,0.1113333333333335,-0.021333333333333204,-0.07166666666666666,0.16466666666666674,-0.04999999999999716,-0.02833333333332888,1.552,1.5284999999999997,39.245999999999995,30.3965,39.33,36.204499999999996,56.077,35.8425,60.4095,53.8125,53.995000000000005,34.9,58.9465,52.082499999999996,53.122,34.4015,58.8055,51.461666666666666,-0.10150000000000003,-0.058499999999999996,0.11091500000000001,0.11054000000000001,0.0,220.04000000000002,220.035,216.80666666666667,216.80666666666667,0.0,0.0
