,ABS Active,ABS Enabled,AID Allow Tire Blankets,AID Auto Blip,AID Auto Clutch,AID Auto Shift,AID Fuel Rate,AID Ideal Line,AID Mech Damage,AID Stability,AID Tire Wear Rate,Air Density,Air Temp,Ballast,Best Lap Delta,Best Lap Time,Brake Bias,Brake Pos,Brake Temp FL,Brake Temp FR,Brake Temp RL,Brake Temp RR,CG Accel Lateral,CG Accel Longitudinal,CG Accel Vertical,CG Height,Camber FL,Camber FR,Camber RL,Camber RR,Car Coord X,Car Coord Y,Car Coord Z,Car Damage Front,Car Damage Left,Car Damage Rear,Car Damage Right,Car Pos Norm,Caster FL,Caster FR,Chassis Pitch Angle,Chassis Pitch Rate,Chassis Roll Angle,Chassis Roll Rate,Chassis Velocity X,Chassis Velocity Y,Chassis Velocity Z,Chassis Yaw Rate,Clutch Pos,DRS Active,DRS Available,Drive Train Speed,ERS Heat Charging,ERS Is Charging,ERS Max Energy,ERS Power Level,ERS Recovery Level,Engine Brake Setting,Engine Limiter,Engine RPM,Flags,Fuel Level,Gear,Ground Speed,HR Sample Clock,In Pit,KERS Charge,KERS Deployed Energy,KERS Input,KERS Max Energy,LR Sample Clock,Lap Invalidated,Lap Time,Lap Time2,Last Lap Time,Last Sector Time,MR Sample Clock,Max Fuel,Max Power,Max RPM,Max Sus Travel FL,Max Sus Travel FR,Max Sus Travel RL,Max Sus Travel RR,Max Torque,Max Turbo Boost,Num Tires Off Track,Penalties Enabled,Position,Raw Data Sample Rate,Ride Height FL,Ride Height FR,Ride Height RL,Ride Height RR,Road Temp,Self Align Torque FL,Self Align Torque FR,Self Align Torque RL,Self Align Torque RR,Session Lap Count,Session Time Left,Steering Angle,Surface Grip,Suspension Travel FL,Suspension Travel FR,Suspension Travel RL,Suspension Travel RR,TC Active,TC Enabled,Throttle Pos,Tire Dirt Level FL,Tire Dirt Level FR,Tire Dirt Level RL,Tire Dirt Level RR,Tire Load FL,Tire Load FR,Tire Load RL,Tire Load RR,Tire Loaded Radius FL,Tire Loaded Radius FR,Tire Loaded Radius RL,Tire Loaded Radius RR,Tire Pressure FL,Tire Pressure FR,Tire Pressure RL,Tire Pressure RR,Tire Radius FL,Tire Radius FR,Tire Radius RL,Tire Radius RR,Tire Rubber Grip FL,Tire Rubber Grip FR,Tire Rubber Grip RL,Tire Rubber Grip RR,Tire Slip Angle FL,Tire Slip Angle FR,Tire Slip Angle RL,Tire Slip Angle RR,Tire Slip Ratio FL,Tire Slip Ratio FR,Tire Slip Ratio RL,Tire Slip Ratio RR,Tire Temp Core FL,Tire Temp Core FR,Tire Temp Core RL,Tire Temp Core RR,Tire Temp Inner FL,Tire Temp Inner FR,Tire Temp Inner RL,Tire Temp Inner RR,Tire Temp Middle FL,Tire Temp Middle FR,Tire Temp Middle RL,Tire Temp Middle RR,Tire Temp Outer FL,Tire Temp Outer FR,Tire Temp Outer RL,Tire Temp Outer RR,Toe In FL,Toe In FR,Toe In RL,Toe In RR,Turbo Boost,Wheel Angular Speed FL,Wheel Angular Speed FR,Wheel Angular Speed RL,Wheel Angular Speed RR,Wind Direction,Wind Speed
0,0.0,0.0,0.0,1.0,1.0,0.0,0.0,1.0,0.0,100.0,1.0,1.1856,26.0,0.0,0.0,0.0,57.99999,0.0,26.0,26.0,26.0,26.0,-0.07399999999999995,0.3158000000000001,0.072725,293.9,-2.7102,-2.6624444444444446,-1.5105,-1.5596999999999999,-275.65,216.29500000000002,190.987375,0.0,0.0,0.0,0.0,0.0015999999999999348,-5.498166666666667,-5.498166666666667,-0.5498000000000001,1.5823333333333334,-0.01288888888888895,-0.4590000000000001,65.503,-0.0434,-0.21655000000000002,1.0299999999999994,100.0,1.0,1.0,202.2266666666667,0.0,0.0,0.0,0.0,0.0,0.0,0.0,8571.6,0.0,55.0,5.0,235.78333333333333,0.0,0.0,0.0,0.0,0.0,0.0,0.0,0.0,0.0030000000000001137,0.0030000000000001137,0.0,0.0,0.0,55.0,616.79921,10000.0,85.0,85.0,85.0,85.0,395.0,0.0,0.0,0.0,1.0,20.0,52.628,52.628,49.515,49.515,34.0,-25.9525,23.462,-30.383333333333333,24.89,0.0,1782.758,0.7850000000000001,100.0,27.745,27.09,40.57,40.416,0.0,0.0,100.0,0.0,0.0,0.0,0.0,2988.857142857143,3369.9,4151.125,4051.2,305.7245,304.1075,314.74275,314.75975,21.7713,20.5114,21.7801,21.3205,314.99999,314.99999,324.99998,324.99998,99.55847142857142,99.50713333333333,99.56551428571429,99.54545714285715,0.0034999999999998366,-0.11966666666666681,-0.15566666666666665,0.05566666666666666,-0.026666666666670835,-0.08285714285714363,1.542,1.5825,37.071,29.196666666666665,37.125,34.2535,56.144,34.382999999999996,59.1785,51.729,54.076,33.585,57.805,50.078,53.256,33.174,57.7735,49.49766666666667,-0.022499999999999964,-0.13450000000000006,0.10234000000000001,0.10719000000000001,0.0,205.285,205.22500000000002,202.2266666666667,202.2266666666667,0.0,0.0
1,0.0,0.0,0.0,1.0,1.0,0.0,0.0,1.0,0.0,100.0,1.0,1.1856,26.0,0.0,0.0,0.0,57.999998,0.0,26.0,26.0,26.0,26.0,-0.11366666666666658,0.32940000000000014,0.18607500000000002,293.06,-2.6341,-2.7666666666666666,-1.5258,-1.5505,-272.31,216.29000000000002,190.96725,0.0,0.0,0.0,0.0,0.003566666666666607,-5.498166666666667,-5.498166666666667,-0.49920000000000003,-0.7536666666666666,-0.05766666666666653,-0.8049999999999999,65.658,-0.054900000000000004,-0.19590000000000002,1.3719999999999999,100.0,1.0,1.0,202.41,0.0,0.0,0.0,0.0,0.0,0.0,0.0,8579.4,0.0,55.0,5.0,236.33666666666667,1.0,0.0,0.0,0.0,0.0,0.0,0.0,0.0,0.053999999999998494,0.053999999999998494,0.0,0.0,1.0,55.0,616.79921,10000.0,85.000001,85.000001,85.000001,85.000001,395.0,0.0,0.0,0.0,1.0,333.33500000000004,53.497,53.497,48.355000000000004,48.355000000000004,34.0,-27.869999999999997,17.846,-34.07333333333334,28.8,0.0,1782.705,0.9299999999999997,100.0,27.594,27.063,42.758,41.599000000000004,0.0,0.0,100.0,0.0,0.0,0.0,0.0,3142.857142857143,2676.0,4295.75,4684.7,305.3505,306.3285,314.34175,313.18025,21.7812,20.5165,21.7909,21.3297,314.999998,314.999998,324.999988,324.999988,99.55848571428571,99.50715,99.56567142857143,99.5456,-0.02400000000000002,-0.14300000000000002,-0.18533333333333335,0.034333333333333334,-0.03499999999999659,-0.05142857142857338,1.4285,1.4535,37.132,29.228,37.193,34.3105,56.128,34.4235,59.224000000000004,51.7935,54.061,33.622,57.848,50.1395,53.239999999999995,33.2095,57.813,49.55833333333334,-0.0010000000000000009,-0.14300000000000002,0.1086,0.11063500000000001,0.0,205.715,205.625,202.41,202.41,0.0,0.0
2,0.0,0.0,0.0,1.0,1.0,0.0,0.0,1.0,0.0,100.0,1.0,1.1856,26.0,0.0,0.0,0.0,57.999998,0.0,26.0,26.0,26.0,26.0,-0.1614444444444444,0.2865,-0.08505,293.64,-2.5934,-2.802888888888889,-1.4813,-1.6139999999999999,-268.96,216.2825,190.948375,0.0,0.0,0.0,0.0,0.005499999999999949,-5.498166666666667,-5.498166666666667,-0.5517000000000001,0.13433333333333333,-0.053777777777777924,2.528,65.8,-0.07400000000000001,-0.255325,1.612,100.0,1.0,1.0,203.30666666666667,0.0,0.0,0.0,0.0,0.0,0.0,0.0,8617.4,0.0,55.0,5.0,236.85000000000002,0.0,0.0,0.0,0.0,0.0,0.0,0.0,0.0,0.10500000000000043,0.10500000000000043,0.0,0.0,0.0,55.0,616.79921,10000.0,85.000001,85.000001,85.000001,85.000001,395.0,0.0,0.0,0.0,1.0,166.665,52.322,52.322,50.186,50.186,34.0,-29.490000000000002,19.962,-28.993333333333336,19.96666666666667,0.0,1782.656,0.7149999999999999,100.0,28.53,27.012,42.594,41.294,0.0,0.0,100.0,0.0,0.0,0.0,0.0,3327.857142857143,2951.1,3771.25,3678.6,304.5325,305.4965,315.5915,315.8045,21.7914,20.5214,21.8013,21.3384,314.999998,314.999998,324.999988,324.999988,99.55848571428571,99.50716666666666,99.56581428571428,99.54574285714286,-0.017249999999999988,-0.15133333333333332,-0.21216666666666667,0.0045000000000000005,-0.054999999999999716,-0.05714285714285694,1.6195,1.701,37.196,29.259,37.257999999999996,34.365,56.116,34.463,59.260999999999996,51.85,54.05,33.658500000000004,57.8825,50.194,53.227999999999994,33.2445,57.845,49.611666666666665,-0.02100000000000002,-0.13749999999999996,0.10015,0.11066000000000001,0.0,206.185,206.03,203.30666666666667,203.30666666666667,0.0,0.0
3,0.0,0.0,0.0,1.0,1.0,0.0,0.0,1.0,0.0,100.0,1.0,1.1856,26.0,0.0,0.0,0.0,57.999998,0.0,26.0,26.0,26.0,26.0,-0.1466666666666666,0.3204,-0.0383,293.411,-2.724,-2.690444444444444,-1.5091,-1.5925,-265.6,216.2725,190.92875,0.0,0.0,0.0,0.0,0.0074666666666665105,-5.498166666666667,-5.498166666666667,-0.5094000000000001,0.386,-0.013444444444444592,-1.02,65.953,-0.0884,-0.2025,1.266,100.0,1.0,1.0,203.44333333333333,0.0,0.0,0.0,0.0,0.0,0.0,0.0,8623.2,0.0,55.0,5.0,237.4,1.0,0.0,0.0,0.0,0.0,0.0,0.0,0.0,0.1559999999999988,0.1559999999999988,0.0,0.0,1.0,55.0,616.79921,10000.0,85.000001,85.000001,85.000001,85.000001,395.0,0.0,0.0,0.0,1.0,166.665,53.558,53.558,48.08,48.08,34.0,-25.919999999999998,17.54,-35.7,23.793333333333333,0.0,1782.605,0.6000000000000014,100.0,27.944,27.121,42.419,41.469,0.0,0.0,100.0,0.0,0.0,0.0,0.0,2863.0,2780.1,4356.875,4230.8,306.095,305.79175,314.2455,314.30575,21.801099999999998,20.5266,21.8117,21.3473,314.999998,314.999998,324.999988,324.999988,99.55848571428571,99.50718333333333,99.56595714285714,99.54587142857143,-0.026249999999999885,-0.16133333333333333,-0.2145,-0.003,-0.03833333333332689,-0.03714285714285381,1.4725000000000001,1.5175,37.257,29.291333333333334,37.323,34.421,56.099999999999994,34.506,59.3005,51.9125,54.034,33.698,57.9195,50.254,53.212,33.282,57.879,49.67033333333333,-0.025000000000000022,-0.1200000000000001,0.10434500000000001,0.10254500000000001,0.0,206.66500000000002,206.54000000000002,203.44333333333333,203.44333333333333,0.0,0.0
4,0.0,0.0,0.0,1.0,1.0,0.0,0.0,1.0,0.0,100.0,1.0,1.1856,26.0,0.0,0.0,0.0,57.999998,0.0,26.0,26.0,26.0,26.0,-0.1413333333333333,0.28380000000000005,-0.027600000000000003,293.655,-2.6604,-2.744111111111111,-1.5257,-1.5988,-262.43,216.2575,190.91025,0.0,0.0,0.0,0.0,0.009299999999999975,-5.498166666666667,-5.498166666666667,-0.5456,-0.7616666666666666,-0.07966666666666677,-1.7770000000000001,66.089,-0.0888,-0.238925,1.1739999999999995,100.0,1.0,1.0,204.0366666666667,0.0,0.0,0.0,0.0,0.0,0.0,0.0,8648.3,0.0,55.0,5.0,237.89333333333332,0.0,0.0,0.0,0.0,0.0,0.0,0.0,0.0,0.20400000000000063,0.20400000000000063,0.0,0.0,0.0,55.0,616.79921,10000.0,85.000001,85.000001,85.000001,85.000001,395.0,0.0,0.0,0.0,1.0,166.665,53.055,53.055,48.828,48.828,34.0,-29.4425,19.008,-33.2,20.57,0.0,1782.556,0.5850000000000009,100.0,27.718,26.91,42.772,41.463,0.0,0.0,100.0,0.0,0.0,0.0,0.0,3264.4285714285716,2875.9,4097.375,3667.8,305.05,305.52475,314.8305,315.684,21.810200000000002,20.5314,21.8217,21.3557,314.999998,314.999998,324.999988,324.999988,99.5585,99.50721666666666,99.5661,99.54601428571429,-0.026999999999999913,-0.15366666666666662,-0.2175,0.012666666666666666,-0.051666666666669414,-0.04571428571428271,1.5525,1.6,37.314,29.321333333333335,37.385,34.473,56.084,34.545,59.3395,51.9675,54.019,33.734,57.9555,50.3065,53.196,33.3165,57.9125,49.722,-0.03249999999999997,-0.11949999999999994,0.11276000000000001,0.11052500000000001,0.0,207.03,206.93,204.0366666666667,204.0366666666667,0.0,0.0
5,0.0,0.0,0.0,1.0,1.0,0.0,0.0,1.0,0.0,100.0,1.0,1.1856,26.0,0.0,0.0,0.0,57.999998,0.0,26.0,26.0,26.0,26.0,-0.13944444444444448,0.3134000000000001,-0.011375,293.655,-2.6684,-2.768,-1.5077,-1.5866,-259.05,216.24,190.889875,0.0,0.0,0.0,0.0,0.011266666666666536,-5.498166666666667,-5.498166666666667,-0.5365,0.45966666666666667,-0.08111111111111136,1.139,66.237,-0.0906,-0.2141,1.0120000000000005,100.0,1.0,1.0,204.42666666666668,0.0,0.0,0.0,0.0,0.0,0.0,0.0,8664.9,0.0,55.0,5.0,238.42333333333335,1.0,0.0,0.0,0.0,0.0,0.0,0.0,0.0,0.254999999999999,0.254999999999999,0.0,0.0,1.0,55.0,616.79921,10000.0,85.000001,85.000001,85.000001,85.000001,395.0,0.0,0.0,0.0,1.0,166.665,53.436,53.436,48.996,48.996,34.0,-27.1025,19.735999999999997,-33.00666666666666,23.14666666666667,0.0,1782.505,0.15500000000000114,100.0,27.967,26.659,42.598,41.075,0.0,0.0,100.0,0.0,0.0,0.0,0.0,3084.142857142857,2843.1,4144.5,4094.5,305.3755,305.8505,314.7445,314.74475,21.8202,20.5365,21.8321,21.3644,314.999998,314.999998,324.999988,324.999988,99.5585,99.50723333333333,99.56624285714285,99.54614285714285,-0.006750000000000034,-0.1273333333333333,-0.20933333333333334,0.010166666666666666,-0.026666666666670835,-0.05571428571428072,1.548,1.5815000000000001,37.376000000000005,29.353,37.451,34.528,56.07,34.585499999999996,59.379,52.0245,54.006,33.7715,57.9925,50.361000000000004,53.182,33.352000000000004,57.947,49.775333333333336,-0.05899999999999994,-0.08650000000000002,0.10473,0.10794500000000001,0.0,207.51999999999998,207.44,204.42666666666668,204.42666666666668,0.0,0.0
6,0.0,0.0,0.0,1.0,1.0,0.0,0.0,1.0,0.0,100.0,1.0,1.1856,26.0,0.0,0.0,0.0,57.999998,0.0,26.0,26.0,26.0,26.0,-0.10666666666666658,0.2922,-0.00825,293.427,-2.641,-2.7952222222222223,-1.5528,-1.5830000000000002,-255.67,216.2175,190.86925,0.0,0.0,0.0,0.0,0.01323333333333332,-5.498166666666667,-5.498166666666667,-0.5319,0.07066666666666667,-0.06511111111111134,-0.546,66.384,-0.0819,-0.21627500000000002,0.734,100.0,1.0,1.0,204.86333333333334,0.0,0.0,0.0,0.0,0.0,0.0,0.0,8683.4,0.0,55.0,5.0,238.95,0.0,0.0,0.0,0.0,0.0,0.0,0.0,0.0,0.30600000000000094,0.30600000000000094,0.0,0.0,0.0,55.0,616.79921,10000.0,85.000001,85.000001,85.000001,85.000001,395.0,0.0,0.0,0.0,1.0,166.665,53.116,53.116,48.737,48.737,34.0,-27.6,20.582,-33.29,23.19333333333333,0.0,1782.455,0.03999999999999915,100.0,27.726,26.916,42.676,41.552,0.0,0.0,100.0,0.0,0.0,0.0,0.0,3203.5714285714284,2867.9,4135.25,3999.4,305.1545,305.4915,314.8125,314.88875,21.83,20.5416,21.8426,21.3735,314.999998,314.999998,324.999988,324.999988,99.5585,99.50723333333333,99.56638571428572,99.54628571428572,0.0,-0.1246666666666667,-0.20700000000000002,0.021,-0.051666666666669414,-0.05142857142857338,1.5575,1.5594999999999999,37.438,29.384999999999998,37.516,34.584,56.055,34.6265,59.419,52.085499999999996,53.991,33.8085,58.03,50.42,53.167,33.3875,57.9815,49.83266666666667,-0.07050000000000001,-0.07650000000000001,0.10455,0.1048,0.0,207.95499999999998,207.88,204.86333333333334,204.86333333333334,0.0,0.0
7,0.0,0.0,0.0,1.0,1.0,0.0,0.0,1.0,0.0,100.0,1.0,1.1856,26.0,0.0,0.0,0.0,57.999998,0.0,26.0,26.0,26.0,26.0,-0.06977777777777783,0.2772000000000001,0.015700000000000002,293.182,-2.613,-2.7295555555555557,-1.5144000000000002,-1.6246,-252.48,216.195,190.85,0.0,0.0,0.0,0.0,0.015066666666666562,-5.498166666666667,-5.498166666666667,-0.5351,-0.009333333333333334,-0.05255555555555569,-0.15000000000000013,66.52,-0.0663,-0.2243,0.43799999999999883,100.0,1.0,1.0,205.26,0.0,0.0,0.0,0.0,0.0,0.0,0.0,8700.2,0.0,55.0,5.0,239.44666666666666,1.0,0.0,0.0,0.0,0.0,0.0,0.0,0.0,0.3539999999999992,0.3539999999999992,0.0,0.0,1.0,55.0,616.79921,10000.0,85.000001,85.000001,85.000001,85.000001,395.0,0.0,0.0,0.0,1.0,333.33500000000004,52.765,52.765,48.843,48.843,34.0,-27.085,21.922,-31.06,25.166666666666668,0.0,1782.406,-0.2049999999999983,100.0,27.831,26.956,42.731,41.805,0.0,0.0,100.0,0.0,0.0,0.0,0.0,3299.857142857143,2963.9,4091.875,4049.5,304.8105,305.26825,314.86675,314.699,21.8393,20.5465,21.8525,21.3819,314.999998,314.999998,324.999988,324.999988,99.5585,99.50725,99.56651428571429,99.54641428571429,0.028999999999999915,-0.09566666666666679,-0.17633333333333334,0.03816666666666667,-0.045000000000001705,-0.054285714285711606,1.533,1.5335,37.495999999999995,29.415666666666667,37.578,34.637,56.042,34.6635,59.456,52.1425,53.977999999999994,33.843,58.064499999999995,50.4745,53.153,33.420500000000004,58.013,49.885999999999996,-0.09199999999999997,-0.05800000000000005,0.10201500000000001,0.10827,0.0,208.36,208.315,205.26,205.26,0.0,0.0
8,0.0,0.0,0.0,1.0,1.0,0.0,0.0,1.0,0.0,100.0,1.0,1.1856,26.0,0.0,0.0,0.0,57.999998,0.0,26.0,26.0,26.0,26.0,-0.03822222222222216,0.2873000000000001,-0.035825,293.472,-2.6993,-2.711777777777778,-1.4997,-1.5746,-248.88,216.16750000000002,190.82825,0.0,0.0,0.0,0.0,0.017166666666666552,-5.498166666666667,-5.498166666666667,-0.5365,-0.553,-0.033666666666666956,-0.5740000000000001,66.675,-0.046400000000000004,-0.21680000000000002,-0.05600000000000005,100.0,1.0,1.0,205.68,0.0,0.0,0.0,0.0,0.0,0.0,0.0,8718.0,0.0,55.0,5.0,240.0,0.0,0.0,0.0,0.0,0.0,0.0,0.0,0.0,0.40800000000000125,0.40800000000000125,0.0,0.0,0.0,55.0,616.79921,10000.0,85.000001,85.000001,85.000001,85.000001,395.0,0.0,0.0,0.0,1.0,166.665,53.635,53.635,48.203,48.203,34.0,-23.9525,21.922,-30.753333333333334,26.27,0.0,1782.354,-0.379999999999999,100.0,27.376,26.926000000000002,42.695,41.959,0.0,0.0,100.0,0.0,0.0,0.0,0.0,3000.857142857143,2917.4,4149.625,4088.1000000000004,305.854,305.442,314.70625,314.599,21.8495,20.552,21.863599999999998,21.3915,314.999998,314.999998,324.999988,324.999988,99.55851428571428,99.50726666666667,99.56667142857142,99.54657142857143,0.05025000000000013,-0.08066666666666666,-0.16133333333333336,0.06616666666666668,-0.04999999999999716,-0.03999999999999915,1.514,1.522,37.559,29.45,37.647999999999996,34.6965,56.024,34.704,59.4975,52.2065,53.962,33.879999999999995,58.103,50.536,53.135999999999996,33.456,58.0485,49.946,-0.10699999999999998,-0.040000000000000036,0.11116000000000001,0.10621000000000001,0.0,208.82,208.79500000000002,205.68,205.68,0.0,0.0
9,0.0,0.0,0.0,1.0,1.0,0.0,0.0,1.0,0.0,100.0,1.0,1.1856,26.0,0.0,0.0,0.0,57.999998,0.0,26.0,26.0,26.0,26.0,-0.02633333333333332,0.2995000000000001,0.028075000000000003,293.167,-2.6827,-2.722777777777778,-1.5527000000000002,-1.556,-245.88,216.14249999999998,190.809625,0.0,0.0,0.0,0.0,0.018933333333333358,-5.498166666666667,-5.498166666666667,-0.5434,0.6113333333333334,-0.033333333333333215,0.823,66.8,-0.027600000000000003,-0.21755000000000002,-0.16999999999999993,100.0,1.0,1.0,206.19333333333333,0.0,0.0,0.0,0.0,0.0,0.0,0.0,8739.8,0.0,55.0,5.0,240.45,1.0,0.0,0.0,0.0,0.0,0.0,0.0,0.0,0.4529999999999994,0.4529999999999994,0.0,0.0,1.0,55.0,616.79921,10000.0,85.000001,85.000001,85.000001,85.000001,395.0,0.0,0.0,0.0,1.0,166.665,52.429,52.429,49.225,49.225,34.0,-25.48,24.864,-27.626666666666665,26.703333333333337,0.0,1782.308,-0.48499999999999943,100.0,27.955,27.174,42.446,41.856,0.0,0.0,100.0,0.0,0.0,0.0,0.0,3284.857142857143,3108.0,3941.25,4060.0,304.7925,304.94575,315.26,314.83225,21.8581,20.5567,21.872700000000002,21.3993,314.999998,314.999998,324.999988,324.999988,99.55851428571428,99.50726666666667,99.5668,99.54668571428572,0.07799999999999985,-0.050000000000000044,-0.128,0.09216666666666667,-0.04999999999999716,-0.05142857142857338,1.5819999999999999,1.577,37.613,29.479666666666667,37.705,34.746,56.013,34.739,59.5285,52.2585,53.951,33.9125,58.1325,50.585499999999996,53.123999999999995,33.487,58.075,49.99466666666667,-0.118,-0.038000000000000034,0.10213000000000001,0.11105500000000001,0.0,209.215,209.215,206.19333333333333,206.19333333333333,0.0,0.0
10,0.0,0.0,0.0,1.0,1.0,0.0,0.0,1.0,0.0,100.0,1.0,1.1856,26.0,0.0,0.0,0.0,57.999998,0.0,26.0,26.0,26.0,26.0,0.008777777777777773,0.29490000000000016,-0.0062250000000000005,292.953,-2.6614,-2.699222222222222,-1.5352999999999999,-1.5354,-242.47,216.115,190.788875,0.0,0.0,0.0,0.0,0.02089999999999992,-5.498166666666667,-5.498166666666667,-0.5175000000000001,-0.358,0.006444444444444253,0.30699999999999994,66.94800000000001,-0.0082,-0.20615,-0.4639999999999995,100.0,1.0,1.0,206.42000000000002,0.0,0.0,0.0,0.0,0.0,0.0,0.0,8749.4,0.0,55.0,5.0,240.98000000000002,0.0,0.0,0.0,0.0,0.0,0.0,1.0,0.0,0.5040000000000013,0.5040000000000013,0.0,0.0,0.0,55.0,616.79921,10000.0,85.000001,85.000001,85.000001,85.000001,395.0,0.0,0.0,0.0,1.0,166.665,53.467,53.467,47.592,47.592,34.0,-21.43,23.0,-30.496666666666666,29.333333333333336,0.0,1782.257,-0.6099999999999994,100.0,27.712,27.354,42.8,42.725,0.0,0.0,100.0,0.0,0.0,0.0,0.0,2888.285714285714,2864.7,4325.875,4278.0,306.083,305.56275,314.29375,314.1565,21.8678,20.562,21.8833,21.4085,314.999998,314.999998,324.999988,324.999988,99.55852857142857,99.50726666666667,99.56694285714286,99.54684285714286,0.08325000000000005,-0.03933333333333322,-0.1165,0.101,-0.04333333333332945,-0.032857142857139365,1.496,1.4609999999999999,37.674,29.512333333333334,37.771,34.8035,56.001000000000005,34.775999999999996,59.569,52.322,53.94,33.9465,58.17,50.647,53.111999999999995,33.5195,58.11,50.055,-0.12149999999999994,-0.026999999999999913,0.10228500000000001,0.10264500000000001,0.0,209.64,209.66500000000002,206.42000000000002,206.42000000000002,0.0,0.0
11,0.0,0.0,0.0,1.0,1.0,0.0,0.0,1.0,0.0,100.0,1.0,1.1856,26.0,0.0,0.0,0.0,57.999998,0.0,26.0,26.0,26.0,26.0,0.02633333333333332,0.2715000000000001,-0.06975,293.51800000000003,-2.7054,-2.6863333333333332,-1.5895000000000001,-1.5259,-239.05,216.0875,190.768125,0.0,0.0,0.0,0.0,0.022599999999999953,-5.498166666666667,-5.498166666666667,-0.5612,-0.2656666666666667,0.032333333333333325,0.373,67.086,0.012700000000000001,-0.23750000000000002,-0.6660000000000004,100.0,1.0,1.0,207.16,0.0,0.0,0.0,0.0,0.0,0.0,0.0,8780.8,0.0,55.0,5.0,241.48000000000002,1.0,0.0,0.0,0.0,0.0,0.0,1.0,0.0,0.5549999999999997,0.5549999999999997,0.0,0.0,1.0,55.0,616.79921,10000.0,85.000001,85.000001,85.000001,85.000001,395.0,0.0,0.0,0.0,1.0,166.665,52.841,52.841,49.271,49.271,34.0,-21.835,26.802,-23.886666666666663,26.936666666666664,0.0,1782.205,-0.6649999999999991,100.0,27.569,27.418,42.381,42.579,0.0,0.0,100.0,0.0,0.0,0.0,0.0,3007.0,3181.5,3686.5,3876.2,305.647,304.7305,315.89725,315.24125,21.877299999999998,20.5674,21.8937,21.4176,314.999998,314.999998,324.999988,324.999988,99.55854285714285,99.50728333333333,99.56707142857142,99.54698571428571,0.11025000000000018,-0.012333333333333307,-0.08833333333333333,0.13733333333333334,-0.03499999999999659,-0.05571428571428072,1.6484999999999999,1.611,37.733000000000004,29.546,37.835,34.8595,55.986999999999995,34.8135,59.603,52.3815,53.926,33.981,58.201499999999996,50.704,53.097,33.5525,58.1385,50.111000000000004,-0.126,-0.022499999999999964,0.10734,0.09952000000000001,0.0,210.05,210.095,207.16,207.16,0.0,0.0
12,0.0,0.0,0.0,1.0,1.0,0.0,0.0,1.0,0.0,100.0,1.0,1.1856,26.0,0.0,0.0,0.0,57.999998,0.0,26.0,26.0,26.0,26.0,0.04933333333333323,0.29180000000000006,0.01425,292.953,-2.7574,-2.6825555555555556,-1.5524,-1.5244,-235.82999999999998,216.0625,190.747375,0.0,0.0,0.0,0.0,0.025466666666666526,-5.498166666666667,-5.498166666666667,-0.5467000000000001,0.2986666666666667,0.02011111111111097,0.653,67.223,0.0315,-0.20720000000000002,-0.734,100.0,1.0,1.0,207.36,0.0,0.0,0.0,0.0,0.0,0.0,0.0,8789.2,0.0,55.0,5.0,241.97333333333336,0.0,0.0,0.0,0.0,0.0,0.0,1.0,0.0,0.602999999999998,0.602999999999998,0.0,0.0,0.0,55.0,616.79921,10000.0,85.000001,85.000001,85.000001,85.000001,395.0,0.0,0.0,0.0,1.0,333.33500000000004,52.811,52.811,47.943,47.943,34.0,-22.1275,26.93,-26.266666666666666,31.313333333333336,0.0,1782.157,-0.634999999999998,100.0,27.493,27.576999999999998,42.31,42.467,0.0,0.0,100.0,0.0,0.0,0.0,0.0,3020.142857142857,3198.4,4169.5,4224.1,305.6225,304.7055,314.67225,314.428,21.8862,20.5725,21.9035,21.426,314.999998,314.999998,324.999988,324.999988,99.55855714285714,99.50728333333333,99.5672,99.54711428571429,0.11675000000000013,-0.01200000000000001,-0.059833333333333336,0.15783333333333335,-0.03999999999999915,-0.04714285714285893,1.5385,1.513,37.789,29.578333333333333,37.897,34.9125,55.974999999999994,34.8495,59.6385,52.438,53.915,34.0145,58.2345,50.7585,53.085,33.5845,58.1685,50.16433333333333,-0.11949999999999994,-0.034499999999999975,0.10560000000000001,0.107395,0.0,210.49,210.555,207.36,207.36,0.0,0.0
13,0.0,0.0,0.0,1.0,1.0,0.0,0.0,1.0,0.0,100.0,1.0,1.1856,26.0,0.0,0.0,0.0,57.999998,0.0,26.0,26.0,26.0,26.0,0.07177777777777794,0.2874000000000001,0.055775000000000005,292.572,-2.7342,-2.676111111111111,-1.5902,-1.5084,-232.19,216.0375,190.724375,0.0,0.0,0.0,0.0,0.026866666666666594,-5.498166666666667,-5.498166666666667,-0.5392,-0.07933333333333333,0.024111111111110972,0.981,67.373,0.0408,-0.216,-0.8779999999999992,100.0,1.0,1.0,207.76333333333332,0.0,0.0,0.0,0.0,0.0,0.0,0.0,8806.4,0.0,55.0,5.0,242.51666666666665,1.0,0.0,0.0,0.0,0.0,0.0,1.0,0.0,0.657,0.657,0.0,0.0,1.0,55.0,616.79921,10000.0,85.000001,85.000001,85.000001,85.000001,395.0,0.0,0.0,0.0,1.0,166.665,52.49,52.49,47.928,47.928,34.0,-20.93,28.406,-26.643333333333334,32.86333333333334,0.0,1782.104,-0.8399999999999999,100.0,27.805,27.77,42.555,42.985,0.0,0.0,100.0,0.0,0.0,0.0,0.0,3053.142857142857,3192.1,4138.375,4363.7,305.491,304.71225,314.71025,314.06875,21.8964,20.5784,21.9146,21.4358,314.999998,314.999998,324.999988,324.999988,99.55857142857143,99.50728333333333,99.56737142857143,99.54725714285715,0.14700000000000024,0.026333333333333098,-0.058333333333333334,0.1635,-0.041666666666671404,-0.0628571428571405,1.5085000000000002,1.475,37.852999999999994,29.615000000000002,37.966,34.9735,55.965,34.8905,59.6785,52.5055,53.903999999999996,34.052,58.272,50.823,53.073,33.6205,58.2025,50.228,-0.14649999999999996,-0.007000000000000117,0.10942500000000001,0.10301500000000001,0.0,210.96,211.01999999999998,207.76333333333332,207.76333333333332,0.0,0.0
14,0.0,0.0,0.0,1.0,1.0,0.0,0.0,1.0,0.0,100.0,1.0,1.1856,26.0,0.0,0.0,0.0,57.999998,0.0,26.0,26.0,26.0,26.0,0.0822222222222222,0.2855000000000001,-0.01285,292.831,-2.7347,-2.6176666666666666,-1.5962,-1.5125000000000002,-228.96,216.015,190.704375,0.0,0.0,0.0,0.0,0.028766666666666607,-5.498166666666667,-5.498166666666667,-0.5487000000000001,-0.12866666666666665,0.05188888888888887,1.427,67.505,0.0524,-0.228275,-1.0259999999999998,100.0,1.0,1.0,208.25666666666666,0.0,0.0,0.0,0.0,0.0,0.0,0.0,8827.2,0.0,55.0,5.0,242.99,0.0,0.0,0.0,0.0,0.0,0.0,1.0,0.0,0.7049999999999983,0.7049999999999983,0.0,0.0,0.0,55.0,616.79921,10000.0,85.000001,85.000001,85.000001,85.000001,395.0,0.0,0.0,0.0,1.0,166.665,52.628,52.628,48.141,48.141,34.0,-19.3975,28.462,-24.566666666666663,31.900000000000002,0.0,1782.056,-0.9400000000000013,100.0,27.72,27.819,42.515,43.158,0.0,0.0,100.0,0.0,0.0,0.0,0.0,2926.4285714285716,3252.2,3958.75,4217.1,305.85,304.55125,315.15825,314.44075,21.9054,20.5836,21.9244,21.4444,314.999998,314.999998,324.999988,324.999988,99.55858571428571,99.5073,99.5675,99.5474,0.16025,0.026000000000000245,-0.04733333333333334,0.17450000000000002,-0.04333333333332945,-0.0628571428571405,1.5625,1.5305,37.909,29.647333333333336,38.028,35.0275,55.955,34.926,59.7125,52.564,53.894999999999996,34.085,58.3035,50.8795,53.063,33.652,58.231,50.283,-0.14849999999999997,-0.0044999999999999485,0.10448500000000001,0.10279500000000001,0.0,211.36,211.42000000000002,208.25666666666666,208.25666666666666,0.0,0.0
15,0.0,0.0,0.0,1.0,1.0,0.0,0.0,1.0,0.0,100.0,1.0,1.1856,26.0,0.0,0.0,0.0,57.999998,0.0,26.0,26.0,26.0,26.0,0.12366666666666681,0.2894000000000001,-0.059225,292.862,-2.7483,-2.5713333333333335,-1.6280999999999999,-1.4506000000000001,-225.51,215.995,190.682875,0.0,0.0,0.0,0.0,0.03076666666666661,-5.498166666666667,-5.498166666666667,-0.5394,0.23666666666666666,0.08177777777777773,-0.5409999999999999,67.645,0.0637,-0.20945,-1.0879999999999992,100.0,1.0,1.0,208.67000000000002,0.0,0.0,0.0,0.0,0.0,0.0,0.0,8844.7,0.0,55.0,5.0,243.49333333333334,1.0,0.0,0.0,0.0,0.0,0.0,1.0,0.0,0.7560000000000002,0.7560000000000002,0.0,0.0,1.0,55.0,616.79921,10000.0,85.000001,85.000001,85.000001,85.000001,395.0,0.0,0.0,0.0,1.0,166.665,52.872,52.872,48.172,48.172,34.0,-18.8125,27.45,-24.919999999999998,33.07333333333334,0.0,1782.005,-1.0,100.0,27.502,28.046,42.179,43.351,0.0,0.0,100.0,0.0,0.0,0.0,0.0,2872.4285714285716,3142.2,3972.125,4350.1,306.193,304.69475,315.2265,314.05075,21.9148,20.5891,21.9348,21.4536,314.999998,314.999998,324.999988,324.999988,99.55861428571428,99.5073,99.56764285714286,99.54755714285714,0.16274999999999995,0.03200000000000003,-0.045,0.1865,-0.045000000000001705,-0.05285714285714249,1.5470000000000002,1.509,37.968,29.682000000000002,38.092,35.085,55.946,34.965,59.747,52.6265,53.885999999999996,34.121,58.335,50.94,53.053,33.687,58.2595,50.342666666666666,-0.15800000000000003,0.0020000000000000018,0.10876000000000001,0.111195,0.0,211.79000000000002,211.88,208.67000000000002,208.67000000000002,0.0,0.0
16,0.0,0.0,0.0,1.0,1.0,0.0,0.0,1.0,0.0,100.0,1.0,1.1856,26.0,0.0,0.0,0.0,57.999998,0.0,26.0,26.0,26.0,26.0,0.12722222222222213,0.28269999999999995,-0.05075,292.862,-2.8052,-2.609111111111111,-1.6009,-1.4529,-222.26,215.97750000000002,190.662125,0.0,0.0,0.0,0.0,0.03266666666666651,-5.498166666666667,-5.498166666666667,-0.5602,-0.713,0.06699999999999995,-1.033,67.777,0.0729,-0.22475,-1.1899999999999995,100.0,1.0,1.0,209.06666666666666,0.0,0.0,0.0,0.0,0.0,0.0,0.0,8861.6,0.0,55.0,5.0,243.97,0.0,0.0,0.0,0.0,0.0,0.0,1.0,0.0,0.8039999999999985,0.8039999999999985,0.0,0.0,0.0,55.0,616.79921,10000.0,85.000001,85.000001,85.000001,85.000001,395.0,0.0,0.0,0.0,1.0,166.665,52.765,52.765,47.913,47.913,34.0,-19.982499999999998,28.358,-23.86,31.506666666666664,0.0,1781.958,-0.9349999999999987,100.0,27.182,28.121000000000002,42.452,43.438,0.0,0.0,100.0,0.0,0.0,0.0,0.0,3003.5714285714284,3176.0,3975.625,4136.7,305.91,304.5965,315.20375,314.57725,21.9235,20.5944,21.9447,21.4622,314.999998,314.999998,324.999988,324.999988,99.55862857142857,99.5073,99.56778571428572,99.54768571428572,0.16875000000000018,0.03699999999999992,-0.03133333333333333,0.195,-0.046666666666666856,-0.04571428571428271,1.5635,1.526,38.022,29.714666666666666,38.153999999999996,35.138999999999996,55.934,35.0025,59.7825,52.6845,53.873999999999995,34.156,58.368,50.996,53.04,33.72,58.289500000000004,50.397666666666666,-0.15149999999999997,-0.007500000000000062,0.11375500000000001,0.10787000000000001,0.0,212.16500000000002,212.25,209.06666666666666,209.06666666666666,0.0,0.0
17,0.0,0.0,0.0,1.0,1.0,0.0,0.0,1.0,0.0,100.0,1.0,1.1856,26.0,0.0,0.0,0.0,57.999998,0.0,26.0,26.0,26.0,26.0,0.12277777777777787,0.2943,0.021825,292.419,-2.7652,-2.564,-1.6407,-1.475,-218.6,215.9625,190.638125,0.0,0.0,0.0,0.0,0.03476666666666661,-5.498166666666667,-5.498166666666667,-0.5494,0.4423333333333333,0.047222222222222054,-0.623,67.924,0.0767,-0.20535,-1.0939999999999994,100.0,1.0,1.0,209.47333333333333,0.0,0.0,0.0,0.0,0.0,0.0,0.0,8878.8,0.0,55.0,5.0,244.5,1.0,0.0,0.0,0.0,0.0,0.0,1.0,0.0,0.8580000000000005,0.8580000000000005,0.0,0.0,1.0,55.0,616.79921,10000.0,85.000001,85.000001,85.000001,85.000001,395.0,0.0,0.0,0.0,1.0,166.665,52.399,52.399,47.684,47.684,34.0,-20.3825,27.293999999999997,-26.256666666666664,33.693333333333335,0.0,1781.903,-1.009999999999998,100.0,27.666,28.384999999999998,42.25,43.466,0.0,0.0,100.0,0.0,0.0,0.0,0.0,3111.714285714286,3099.6,4300.625,4304.0,305.5495,304.87625,314.5225,314.2175,21.9335,20.6004,21.9556,21.471899999999998,314.999998,314.999998,324.999988,324.999988,99.55864285714286,99.50731666666667,99.56792857142857,99.54785714285714,0.17149999999999999,0.04200000000000026,-0.021500000000000002,0.198,-0.051666666666669414,-0.04142857142857537,1.542,1.4785,38.085,29.752333333333333,38.223,35.199,55.925,35.0465,59.8195,52.75,53.866,34.1965,58.4025,51.059,53.031,33.759,58.320499999999996,50.45933333333333,-0.15400000000000003,-0.0004999999999999449,0.10435000000000001,0.10696000000000001,0.0,212.66,212.73000000000002,209.47333333333333,209.47333333333333,0.0,0.0
18,0.0,0.0,0.0,1.0,1.0,0.0,0.0,1.0,0.0,100.0,1.0,1.1856,26.0,0.0,0.0,0.0,57.999998,0.0,26.0,26.0,26.0,26.0,0.13555555555555565,0.26880000000000015,-0.008700000000000001,292.419,-2.7992,-2.535,-1.6568,-1.4213,-215.32999999999998,215.95,190.617125,0.0,0.0,0.0,0.0,0.036666666666666514,-5.498166666666667,-5.498166666666667,-0.5608000000000001,-0.49533333333333335,0.07188888888888889,-0.2370000000000001,68.054,0.08070000000000001,-0.22387500000000002,-1.2860000000000005,100.0,1.0,1.0,209.91,0.0,0.0,0.0,0.0,0.0,0.0,0.0,8897.3,0.0,55.0,5.0,244.96666666666667,0.0,0.0,0.0,0.0,0.0,0.0,1.0,0.0,0.9059999999999988,0.9059999999999988,0.0,0.0,0.0,55.0,616.79921,10000.0,85.000001,85.000001,85.000001,85.000001,395.0,0.0,0.0,0.0,1.0,166.665,52.261,52.261,47.668,47.668,34.0,-20.195,29.922,-25.056666666666665,32.00333333333333,0.0,1781.855,-1.2399999999999984,100.0,27.432,28.302,42.568,43.833,0.0,0.0,100.0,0.0,0.0,0.0,0.0,3115.4285714285716,3302.6,4051.5,4204.3,305.588,304.28825,315.064,314.43875,21.9423,20.6057,21.9656,21.4806,314.999998,314.999998,324.999988,324.999988,99.55867142857143,99.50731666666667,99.56805714285714,99.54798571428572,0.18225000000000025,0.06199999999999983,-0.028833333333333332,0.20016666666666666,-0.051666666666669414,-0.058571428571426054,1.552,1.5115,38.138999999999996,29.785666666666664,38.285,35.254,55.917,35.0845,59.8545,52.81,53.858000000000004,34.2315,58.4345,51.1165,53.021,33.793,58.35,50.516333333333336,-0.17399999999999993,0.020499999999999963,0.10992,0.10915000000000001,0.0,213.01,213.135,209.91,209.91,0.0,0.0
19,0.0,0.0,0.0,1.0,1.0,0.0,0.0,1.0,0.0,100.0,1.0,1.1856,26.0,0.0,0.0,0.0,57.999998,0.0,26.0,26.0,26.0,26.0,0.15866666666666673,0.2865,0.027725,291.992,-2.771,-2.5235555555555558,-1.6745,-1.4019,-212.06,215.945,190.59575,0.0,0.0,0.0,0.0,0.03856666666666653,-5.498166666666667,-5.498166666666667,-0.5513,0.8140000000000001,0.08322222222222209,-0.42799999999999994,68.18299999999999,0.09230000000000001,-0.211925,-1.6039999999999992,100.0,1.0,1.0,210.29000000000002,0.0,0.0,0.0,0.0,0.0,0.0,0.0,8913.5,0.0,55.0,5.0,245.43,1.0,0.0,0.0,0.0,0.0,0.0,1.0,0.0,0.9540000000000006,0.9540000000000006,0.0,0.0,1.0,55.0,616.79921,10000.0,85.000001,85.000001,85.000001,85.000001,395.0,0.0,0.0,0.0,1.0,333.33500000000004,51.666,51.666,47.592,47.592,34.0,-19.2,30.538,-25.02,34.17666666666666,0.0,1781.805,-1.4499999999999993,100.0,27.945,28.794,42.316,43.838,0.0,0.0,100.0,0.0,0.0,0.0,0.0,3135.142857142857,3314.7,4162.125,4396.7,305.4115,304.15725,314.8575,314.03325,21.9512,20.6112,21.9753,21.4893,314.999998,314.999998,324.999988,324.999988,99.5587,99.50731666666667,99.56818571428572,99.54812857142858,0.20425000000000004,0.07266666666666666,-0.009166666666666667,0.21316666666666667,-0.046666666666666856,-0.04999999999999716,1.5514999999999999,1.5005,38.195,29.82,38.346000000000004,35.308,55.911,35.1265,59.8885,52.873,53.852000000000004,34.2725,58.466,51.1775,53.013999999999996,33.832499999999996,58.378,50.576,-0.18799999999999994,0.031000000000000028,0.107005,0.10664000000000001,0.0,213.45499999999998,213.575,210.29000000000002,210.29000000000002,0.0,0.0
20,0.0,0.0,0.0,1.0,1.0,0.0,0.0,1.0,0.0,100.0,1.0,1.1856,26.0,0.0,0.0,0.0,57.999998,0.0,26.0,26.0,26.0,26.0,0.20833333333333326,0.27960000000000007,0.0536,292.282,-2.824,-2.582222222222222,-1.6099,-1.5157,-208.57999999999998,215.94,190.5735,0.0,0.0,0.0,0.0,0.04059999999999997,-5.498166666666667,-5.498166666666667,-0.5571,-1.2086666666666668,0.09499999999999997,0.641,68.32300000000001,0.10740000000000001,-0.2202,-2.04,100.0,1.0,1.0,210.60333333333335,0.0,0.0,0.0,0.0,0.0,0.0,0.0,8926.8,0.0,55.0,5.0,245.93333333333334,0.0,0.0,0.0,0.0,0.0,0.0,0.0,0.0,1.004999999999999,1.004999999999999,0.0,0.0,0.0,55.0,616.79921,10000.0,85.000001,85.000001,85.000001,85.000001,395.0,0.0,0.0,0.0,1.0,333.33500000000004,52.826,52.826,46.844,46.844,34.0,-15.405000000000001,31.936,-22.29,38.49333333333333,0.0,1781.754,-1.7800000000000011,100.0,27.423000000000002,28.36,42.862,44.292,0.0,0.0,100.0,0.0,0.0,0.0,0.0,2757.285714285714,3279.0,4088.25,4403.5,306.5495,304.4865,314.808,313.84725,21.9603,20.6168,21.9859,21.4987,314.999998,314.999998,324.999988,324.999988,99.55871428571429,99.50733333333334,99.56835714285714,99.5483,0.2437499999999999,0.11033333333333362,0.023,0.25016666666666665,-0.046666666666666856,-0.05714285714285694,1.5110000000000001,1.4315,38.251999999999995,29.855333333333334,38.412,35.3665,55.900999999999996,35.172,59.927,52.938,53.842,34.3125,58.501999999999995,51.24,53.003,33.8705,58.4105,50.63766666666667,-0.21050000000000002,0.0635,0.10572500000000001,0.106755,0.0,213.815,213.98000000000002,210.60333333333335,210.60333333333335,0.0,0.0
21,0.0,0.0,0.0,1.0,1.0,0.0,0.0,1.0,0.0,100.0,1.0,1.1856,26.0,0.0,0.0,0.0,57.999998,0.0,26.0,26.0,26.0,26.0,0.1774444444444443,0.2781,-0.057675000000000004,292.603,-2.7484,-2.625,-1.6792,-1.4692,-205.3,215.9425,190.55175,0.0,0.0,0.0,0.0,0.04249999999999998,-5.498166666666667,-5.498166666666667,-0.5800000000000001,0.47500000000000003,0.08722222222222209,0.20199999999999996,68.446,0.128,-0.2272,-2.0360000000000005,100.0,1.0,1.0,211.25,0.0,0.0,0.0,0.0,0.0,0.0,0.0,8954.1,0.0,55.0,5.0,246.38,1.0,0.0,0.0,0.0,0.0,0.0,0.0,0.0,1.0530000000000008,1.0530000000000008,0.0,0.0,1.0,55.0,616.79921,10000.0,85.000001,85.000001,85.000001,85.000001,395.0,0.0,0.0,0.0,1.0,166.665,52.155,52.155,48.309,48.309,34.0,-17.9375,30.677999999999997,-20.223333333333336,34.77333333333334,0.0,1781.708,-0.6999999999999993,100.0,27.715,28.634999999999998,42.112,43.962,0.0,0.0,100.0,0.0,0.0,0.0,0.0,2916.5714285714284,3319.2,3867.75,4100.8,305.886,304.26575,315.54175,314.76375,21.9691,20.6224,21.9954,21.5072,314.999998,314.999998,324.999988,324.999988,99.55874285714286,99.50735,99.56847142857143,99.54842857142857,0.1967500000000002,0.05666666666666664,0.041833333333333333,0.27116666666666667,-0.03499999999999659,-0.0799999999999983,1.6320000000000001,1.5695000000000001,38.307,29.889666666666663,38.471000000000004,35.42,55.894999999999996,35.2125,59.954,52.991,53.836,34.35,58.527,51.2915,52.995999999999995,33.9065,58.433,50.688,-0.14500000000000002,-0.010499999999999954,0.10792500000000001,0.10699000000000002,0.0,214.235,214.39499999999998,211.25,211.25,0.0,0.0
22,0.0,0.0,0.0,1.0,1.0,0.0,0.0,1.0,0.0,100.0,1.0,1.1856,26.0,0.0,0.0,0.0,57.999998,0.0,26.0,26.0,26.0,26.0,0.1621111111111111,0.2694000000000001,0.0261,292.084,-2.7327,-2.626888888888889,-1.665,-1.4671,-201.81,215.9475,190.528,0.0,0.0,0.0,0.0,0.044533333333333314,-5.498166666666667,-5.498166666666667,-0.5569000000000001,0.128,0.08111111111111113,-0.8160000000000001,68.58500000000001,0.1282,-0.20695000000000002,-0.702,100.0,1.0,1.0,211.43666666666667,0.0,0.0,0.0,0.0,0.0,0.0,0.0,8962.0,0.0,55.0,5.0,246.88,0.0,0.0,0.0,0.0,0.0,0.0,0.0,0.0,1.1039999999999992,1.1039999999999992,0.0,0.0,0.0,55.0,616.79921,10000.0,85.000001,85.000001,85.000001,85.000001,395.0,0.0,0.0,0.0,1.0,333.33500000000004,52.246,52.246,47.104,47.104,34.0,-20.5475,26.6,-24.423333333333336,35.836666666666666,0.0,1781.656,0.3049999999999997,100.0,27.683,28.844,42.496,44.299,0.0,0.0,100.0,0.0,0.0,0.0,0.0,2937.714285714286,3158.8,4225.5,4344.2,305.969,304.53325,314.6685,314.1035,21.9784,20.6282,22.006,21.5166,314.999998,314.999998,324.999988,324.999988,99.55875714285715,99.50735,99.56862857142858,99.54857142857144,0.13149999999999995,-0.0086666666666666,0.013000000000000001,0.23183333333333334,-0.04999999999999716,-0.054285714285711606,1.4905,1.474,38.364999999999995,29.926000000000002,38.537,35.4785,55.885,35.2535,59.9925,53.0555,53.827,34.388,58.562,51.354,52.985,33.943,58.465,50.74933333333333,-0.06099999999999994,-0.10099999999999998,0.10265,0.10691500000000001,0.0,214.72,214.775,211.43666666666667,211.43666666666667,0.0,0.0
23,0.0,0.0,0.0,1.0,1.0,0.0,0.0,1.0,0.0,100.0,1.0,1.1856,26.0,0.0,0.0,0.0,57.999998,0.0,26.0,26.0,26.0,26.0,0.06733333333333325,0.25170000000000003,-0.013625,292.099,-2.7367,-2.6096666666666666,-1.5661,-1.5578,-198.3,215.95749999999998,190.5045,0.0,0.0,0.0,0.0,0.046566666666666534,-5.498166666666667,-5.498166666666667,-0.5767,-0.339,0.04988888888888887,-0.0020000000000000018,68.719,0.0847,-0.23392500000000002,0.41600000000000037,100.0,1.0,1.0,211.96666666666667,0.0,0.0,0.0,0.0,0.0,0.0,0.0,8984.4,0.0,55.0,5.0,247.36333333333334,1.0,0.0,0.0,0.0,0.0,0.0,0.0,0.0,1.1550000000000011,1.1550000000000011,0.0,0.0,1.0,55.0,616.79921,10000.0,85.000001,85.000001,85.000001,85.000001,395.0,0.0,0.0,0.0,1.0,333.33500000000004,51.682,51.682,48.096000000000004,48.096000000000004,34.0,-24.1425,25.75,-23.633333333333333,31.453333333333337,0.0,1781.604,0.8000000000000007,100.0,28.168,28.543,42.922,44.262,0.0,0.0,100.0,0.0,0.0,0.0,0.0,3175.285714285714,3246.6,3902.75,4029.2,305.1195,304.55575,315.2865,314.8285,21.9877,20.6339,22.0165,21.5259,314.999998,314.999998,324.999988,324.999988,99.55877142857143,99.50736666666667,99.56877142857142,99.54874285714286,0.09949999999999992,-0.03600000000000003,-0.04016666666666666,0.18483333333333335,-0.026666666666670835,-0.05142857142857338,1.5185,1.5305,38.423,29.962,38.602999999999994,35.536500000000004,55.872,35.295500000000004,60.03,53.122,53.814,34.427,58.597,51.418,52.971000000000004,33.9805,58.496,50.812333333333335,-0.019000000000000017,-0.14250000000000007,0.108115,0.10935500000000001,0.0,215.135,215.125,211.96666666666667,211.96666666666667,0.0,0.0
24,0.0,0.0,0.0,1.0,1.0,0.0,0.0,1.0,0.0,100.0,1.0,1.1856,26.0,0.0,0.0,0.0,57.999998,0.0,26.0,26.0,26.0,26.0,-0.013000000000000012,0.28659999999999997,-0.11017500000000001,292.374,-2.7286,-2.646777777777778,-1.5851000000000002,-1.5236,-195.0,215.9675,190.482125,0.0,0.0,0.0,0.0,0.04849999999999999,-5.498166666666667,-5.498166666666667,-0.5780000000000001,-0.4886666666666667,0.033666666666666734,0.502,68.848,0.030600000000000002,-0.216375,0.9879999999999995,100.0,1.0,1.0,212.26333333333332,0.0,0.0,0.0,0.0,0.0,0.0,0.0,8997.1,0.0,55.0,5.0,247.82333333333332,0.0,0.0,0.0,0.0,0.0,0.0,0.0,0.0,1.2029999999999994,1.2029999999999994,0.0,0.0,0.0,55.0,616.79921,10000.0,85.000001,85.000001,85.000001,85.000001,395.0,0.0,0.0,0.0,1.0,333.33500000000004,52.902,52.902,47.104,47.104,34.0,-23.285,21.686,-30.073333333333334,28.64,0.0,1781.556,0.879999999999999,100.0,28.057,28.131,43.176,43.871,0.0,0.0,100.0,0.0,0.0,0.0,0.0,2870.714285714286,2994.1,4297.875,4137.3,306.074,305.35775,314.34775,314.668,21.9965,20.6391,22.0263,21.534399999999998,314.999998,314.999998,324.999988,324.999988,99.55878571428572,99.50736666666667,99.5689,99.54887142857143,0.05049999999999999,-0.08633333333333315,-0.09583333333333333,0.11966666666666667,-0.03999999999999915,-0.05571428571428072,1.4775,1.5125,38.477999999999994,29.994333333333334,38.665,35.59,55.858999999999995,35.33,60.0625,53.1745,53.801,34.4585,58.6275,51.469,52.958,34.0105,58.5235,50.862,-0.0020000000000000018,-0.15149999999999997,0.10401500000000001,0.10632000000000001,0.0,215.575,215.495,212.26333333333332,212.26333333333332,0.0,0.0
25,0.0,0.0,0.0,1.0,1.0,0.0,0.0,1.0,0.0,100.0,1.0,1.1856,26.0,0.0,0.0,0.0,57.999998,0.0,26.0,26.0,26.0,26.0,-0.08566666666666656,0.26460000000000017,-0.07225000000000001,292.297,-2.7580999999999998,-2.644222222222222,-1.5685,-1.5581,-191.28,215.98000000000002,190.45525,0.0,0.0,0.0,0.0,0.05066666666666653,-5.498166666666667,-5.498166666666667,-0.613,0.059000000000000004,0.000888888888888939,-0.7929999999999999,68.987,-0.029300000000000003,-0.22605,1.4139999999999997,100.0,1.0,1.0,212.85333333333335,0.0,0.0,0.0,0.0,0.0,0.0,0.0,9022.0,0.0,55.0,5.0,248.32666666666665,1.0,0.0,0.0,0.0,0.0,0.0,0.0,0.0,1.256999999999998,1.256999999999998,0.0,0.0,1.0,55.0,616.79921,10000.0,85.000001,85.000001,85.000001,85.000001,395.0,0.0,0.0,0.0,1.0,166.665,51.743,51.743,47.974000000000004,47.974000000000004,34.0,-28.855,22.810000000000002,-29.676666666666666,25.17,0.0,1781.505,0.8449999999999989,100.0,28.249,28.108,43.18,43.278999999999996,0.0,0.0,100.0,0.0,0.0,0.0,0.0,3274.857142857143,3302.9,3981.875,3960.5,304.98,304.418,315.2075,315.085,22.0064,20.645,22.037399999999998,21.544,314.999998,314.999998,324.999988,324.999988,99.55878571428572,99.50738333333334,99.56905714285715,99.54901428571429,0.015000000000000124,-0.11799999999999988,-0.154,0.07516666666666667,-0.03999999999999915,-0.05142857142857338,1.537,1.5895,38.54,30.031666666666666,38.733999999999995,35.65,55.841,35.375,60.0995,53.2345,53.784,34.5005,58.661500000000004,51.5265,52.94,34.0505,58.5545,50.91866666666667,-0.009000000000000008,-0.15349999999999997,0.10905000000000001,0.11173500000000001,0.0,216.025,215.91,212.85333333333335,212.85333333333335,0.0,0.0
26,0.0,0.0,0.0,1.0,1.0,0.0,0.0,1.0,0.0,100.0,1.0,1.1856,26.0,0.0,0.0,0.0,57.999998,0.0,26.0,26.0,26.0,26.0,-0.1253333333333334,0.272,0.071975,291.183,-2.6652,-2.7607777777777778,-1.5838,-1.5831,-187.97,215.9875,190.430875,0.0,0.0,0.0,0.0,0.05259999999999998,-5.498166666666667,-5.498166666666667,-0.5715,0.7886666666666666,-0.0515555555555558,0.11499999999999999,69.116,-0.0709,-0.19562500000000002,1.4740000000000002,100.0,1.0,1.0,212.9766666666667,0.0,0.0,0.0,0.0,0.0,0.0,0.0,9027.3,0.0,55.0,5.0,248.79000000000002,0.0,0.0,0.0,0.0,0.0,0.0,0.0,0.0,1.3049999999999997,1.3049999999999997,0.0,0.0,0.0,55.0,616.79921,10000.0,85.000001,85.000001,85.000001,85.000001,395.0,0.0,0.0,0.0,1.0,333.33500000000004,51.376,51.376,46.249,46.249,34.0,-28.182499999999997,21.22,-37.9,27.443333333333335,0.0,1781.454,0.6400000000000006,100.0,29.335,28.48,44.051,43.298,0.0,0.0,100.0,0.0,0.0,0.0,0.0,3241.5714285714284,3069.1,4597.75,4419.1,304.9265,305.0215,313.7375,314.02775,22.0156,20.6504,22.0474,21.552599999999998,314.999998,314.999998,324.999988,324.999988,99.55878571428572,99.5074,99.5692,99.54915714285714,0.007750000000000146,-0.1396666666666666,-0.18483333333333335,0.03783333333333334,-0.046666666666666856,-0.054285714285711606,1.43,1.466,38.597,30.064999999999998,38.796,35.704,55.829,35.417500000000004,60.1385,53.291,53.772999999999996,34.539500000000004,58.698,51.581,52.928,34.088,58.588,50.971333333333334,-0.028000000000000025,-0.13600000000000012,0.101955,0.10983000000000001,0.0,216.465,216.34,212.9766666666667,212.9766666666667,0.0,0.0
27,0.0,0.0,0.0,1.0,1.0,0.0,0.0,1.0,0.0,100.0,1.0,1.1856,26.0,0.0,0.0,0.0,57.999998,0.0,26.0,26.0,26.0,26.0,-0.11888888888888893,0.24340000000000006,-0.0374,291.672,-2.6196,-2.7455555555555557,-1.5621,-1.6703999999999999,-184.44,215.995,190.406375,0.0,0.0,0.0,0.0,0.05463333333333331,-5.498166666666667,-5.498166666666667,-0.6001000000000001,-1.0276666666666667,-0.06988888888888889,-0.81,69.247,-0.0906,-0.24532500000000002,1.3200000000000003,100.0,1.0,1.0,213.51333333333332,0.0,0.0,0.0,0.0,0.0,0.0,0.0,9050.0,0.0,55.0,5.0,249.26333333333332,1.0,0.0,0.0,0.0,0.0,0.0,0.0,0.0,1.355999999999998,1.355999999999998,0.0,0.0,1.0,55.0,616.79921,10000.0,85.000001,85.000001,85.000001,85.000001,395.0,0.0,0.0,0.0,1.0,166.665,51.727000000000004,51.727000000000004,46.738,46.738,34.0,-29.487499999999997,19.43,-34.63666666666666,23.63,0.0,1781.405,0.5749999999999993,100.0,28.974,28.256,44.859,43.756,0.0,0.0,100.0,0.0,0.0,0.0,0.0,3310.285714285714,2979.1,4144.25,3936.6000000000004,304.906,305.2425,314.7375,315.01175,22.0251,20.6558,22.0582,21.5619,314.999998,314.999998,324.999988,324.999988,99.5588,99.50741666666667,99.56935714285714,99.54931428571429,-0.02124999999999999,-0.1633333333333331,-0.2175,0.010666666666666666,-0.046666666666666856,-0.027142857142855803,1.4855,1.539,38.657,30.099,38.864000000000004,35.762,55.814,35.46,60.1805,53.351,53.757999999999996,34.579,58.7375,51.638,52.912,34.1255,58.6245,51.02733333333333,-0.038000000000000034,-0.125,0.108865,0.110575,0.0,216.81,216.685,213.51333333333332,213.51333333333332,0.0,0.0
28,0.0,0.0,0.0,1.0,1.0,0.0,0.0,1.0,0.0,100.0,1.0,1.1856,26.0,0.0,0.0,0.0,57.999998,0.0,26.0,26.0,26.0,26.0,-0.121,0.26900000000000013,-0.045000000000000005,291.901,-2.64,-2.736888888888889,-1.5068000000000001,-1.6347,-181.11,215.9975,190.3825,0.0,0.0,0.0,0.0,0.05656666666666654,-5.498166666666667,-5.498166666666667,-0.6013000000000001,0.6483333333333334,-0.07855555555555549,-0.5840000000000001,69.37,-0.1012,-0.216975,1.2759999999999998,100.0,1.0,1.0,213.97333333333333,0.0,0.0,0.0,0.0,0.0,0.0,0.0,9069.5,0.0,55.0,5.0,249.70333333333335,0.0,0.0,0.0,0.0,0.0,0.0,0.0,0.0,1.404,1.404,0.0,0.0,0.0,55.0,616.79921,10000.0,85.000001,85.000001,85.000001,85.000001,395.0,0.0,0.0,0.0,1.0,333.33500000000004,51.772999999999996,51.772999999999996,47.531,47.531,34.0,-30.3325,18.898,-34.14333333333333,23.573333333333334,0.0,1781.356,0.4499999999999993,100.0,29.131,28.12,44.239000000000004,43.159,0.0,0.0,100.0,0.0,0.0,0.0,0.0,3372.5714285714284,2911.7,4158.625,4043.4,304.7435,305.43275,314.81925,314.89475,22.0341,20.661,22.068,21.5704,314.999998,314.999998,324.999988,324.999988,99.5588,99.50743333333334,99.5695,99.54944285714285,-0.02200000000000002,-0.16266666666666674,-0.2255,0.009000000000000001,-0.041666666666671404,-0.048571428571428044,1.5110000000000001,1.566,38.713,30.131333333333334,38.925,35.815,55.802,35.5015,60.214,53.4025,53.747,34.617,58.7685,51.688,52.9,34.162,58.6525,51.07566666666666,-0.04699999999999993,-0.11699999999999999,0.10542000000000001,0.11019000000000001,0.0,217.22,217.12,213.97333333333333,213.97333333333333,0.0,0.0
29,0.0,0.0,0.0,1.0,1.0,0.0,0.0,1.0,0.0,100.0,1.0,1.1856,26.0,0.0,0.0,0.0,57.999998,0.0,26.0,26.0,26.0,26.0,-0.14933333333333332,0.2531000000000001,0.010625,291.458,-2.5781,-2.793555555555556,-1.5394999999999999,-1.615,-177.57,215.9975,190.356125,0.0,0.0,0.0,0.0,0.058633333333333315,-5.498166666666667,-5.498166666666667,-0.6067,-0.7576666666666666,-0.07444444444444454,0.717,69.504,-0.0983,-0.218,0.9160000000000004,100.0,1.0,1.0,214.21333333333334,0.0,0.0,0.0,0.0,0.0,0.0,0.0,9079.7,0.0,55.0,5.0,250.19,1.0,0.0,0.0,0.0,0.0,0.0,0.0,0.0,1.4549999999999983,1.4549999999999983,0.0,0.0,1.0,55.0,616.79921,10000.0,85.000001,85.000001,85.000001,85.000001,395.0,0.0,0.0,0.0,1.0,166.665,51.666,51.666,46.524,46.524,34.0,-28.7675,21.509999999999998,-35.24333333333334,25.576666666666664,0.0,1781.305,0.3200000000000003,100.0,28.981,27.822,44.757,43.283,0.0,0.0,100.0,0.0,0.0,0.0,0.0,3294.857142857143,3122.3,4273.125,4206.5,304.7835,304.8475,314.388,314.4785,22.0435,20.6664,22.0787,21.5796,314.999998,314.999998,324.999988,324.999988,99.5588,99.50745,99.56964285714285,99.54958571428571,-0.01200000000000001,-0.1499999999999999,-0.20583333333333334,0.0235,-0.030000000000001137,-0.03857142857142293,1.458,1.48,38.772,30.165,38.992000000000004,35.8725,55.786,35.5435,60.2555,53.462,53.732,34.6555,58.808,51.745,52.884,34.199,58.6885,51.13133333333333,-0.05599999999999994,-0.10699999999999998,0.10393000000000001,0.11734000000000001,0.0,217.585,217.5,214.21333333333334,214.21333333333334,0.0,0.0
30,0.0,0.0,0.0,1.0,1.0,0.0,0.0,1.0,0.0,100.0,1.0,1.1856,26.0,0.0,0.0,0.0,57.999998,0.0,26.0,26.0,26.0,26.0,-0.14244444444444448,0.27570000000000006,0.05825,291.016,-2.6352,-2.682777777777778,-1.4823,-1.69,-174.23000000000002,215.995,190.331125,0.0,0.0,0.0,0.0,0.060566666666666547,-5.498166666666667,-5.498166666666667,-0.6039,0.8096666666666666,-0.07544444444444443,0.712,69.626,-0.09050000000000001,-0.21755000000000002,0.8160000000000007,100.0,1.0,1.0,214.62333333333333,0.0,0.0,0.0,0.0,0.0,0.0,0.0,9097.2,0.0,55.0,5.0,250.62666666666667,0.0,0.0,0.0,0.0,0.0,0.0,1.0,0.0,1.5030000000000001,1.5030000000000001,0.0,0.0,0.0,55.0,616.79921,10000.0,85.000001,85.000001,85.000001,85.000001,395.0,0.0,0.0,0.0,1.0,166.665,50.842,50.842,46.844,46.844,34.0,-29.68,20.868,-34.71333333333334,26.806666666666665,0.0,1781.258,0.15000000000000213,100.0,29.814,28.523,44.613,43.329,0.0,0.0,100.0,0.0,0.0,0.0,0.0,3427.0,3087.6,4304.25,4249.6,304.377,305.006,314.4095,314.3195,22.0527,20.6718,22.0885,21.5882,314.999998,314.999998,324.999988,324.999988,99.55881428571429,99.50746666666667,99.5698,99.54972857142857,0.009749999999999925,-0.1343333333333332,-0.20883333333333334,0.021166666666666667,-0.04833333333333201,-0.05142857142857338,1.468,1.513,38.829,30.198666666666668,39.053,35.9265,55.775,35.5865,60.2905,53.516,53.721000000000004,34.695499999999996,58.8405,51.797,52.873000000000005,34.237,58.7185,51.182,-0.07399999999999995,-0.09499999999999997,0.11542500000000001,0.10331000000000001,0.0,218.01,217.925,214.62333333333333,214.62333333333333,0.0,0.0
31,0.0,0.0,0.0,1.0,1.0,0.0,0.0,1.0,0.0,100.0,1.0,1.1856,26.0,0.0,0.0,0.0,57.999998,0.0,26.0,26.0,26.0,26.0,-0.11366666666666658,0.2661,-0.016125,290.97,-2.7058,-2.6593333333333335,-1.5342,-1.6636000000000002,-170.47,215.9875,190.30375,0.0,0.0,0.0,0.0,0.06276666666666653,-5.498166666666667,-5.498166666666667,-0.5905,-0.7663333333333334,-0.06411111111111145,0.718,69.765,-0.0726,-0.22087500000000002,0.42600000000000016,100.0,1.0,1.0,214.97,0.0,0.0,0.0,0.0,0.0,0.0,0.0,9111.8,0.0,55.0,5.0,251.13,1.0,0.0,0.0,0.0,0.0,0.0,1.0,0.0,1.5569999999999986,1.5569999999999986,0.0,0.0,1.0,55.0,616.79921,10000.0,85.000001,85.000001,85.000001,85.000001,395.0,0.0,0.0,0.0,1.0,166.665,51.468,51.468,45.563,45.563,34.0,-27.299999999999997,21.482,-34.93333333333334,28.456666666666667,0.0,1781.205,0.125,100.0,29.408,28.509,45.269,43.999,0.0,0.0,100.0,0.0,0.0,0.0,0.0,3191.857142857143,3193.6,4360.75,4305.7,305.2545,304.9185,314.174,314.29375,22.0627,20.6777,22.099899999999998,21.5982,314.999998,314.999998,324.999988,324.999988,99.55881428571429,99.50748333333334,99.56995714285715,99.54988571428571,0.020500000000000185,-0.1283333333333332,-0.18316666666666667,0.04883333333333334,-0.041666666666671404,-0.044285714285713595,1.442,1.46,38.891999999999996,30.235666666666667,39.124,35.9885,55.759,35.6325,60.335,53.5805,53.706,34.7375,58.8825,51.8585,52.857,34.277,58.757,51.242,-0.08150000000000002,-0.09250000000000003,0.11170000000000001,0.108285,0.0,218.375,218.35500000000002,214.97,214.97,0.0,0.0
32,0.0,0.0,0.0,1.0,1.0,0.0,0.0,1.0,0.0,100.0,1.0,1.1856,26.0,0.0,0.0,0.0,57.999998,0.0,26.0,26.0,26.0,26.0,-0.11288888888888893,0.2622,-0.0574,291.306,-2.6404,-2.698888888888889,-1.5981,-1.5706,-167.11,215.97750000000002,190.279625,0.0,0.0,0.0,0.0,0.06469999999999998,-5.498166666666667,-5.498166666666667,-0.6098,0.169,-0.08700000000000019,0.14800000000000002,69.885,-0.0592,-0.22990000000000002,0.4480000000000004,100.0,1.0,1.0,215.50666666666666,0.0,0.0,0.0,0.0,0.0,0.0,0.0,9134.5,0.0,55.0,5.0,251.55666666666667,0.0,0.0,0.0,0.0,0.0,0.0,1.0,0.0,1.6050000000000004,1.6050000000000004,0.0,0.0,0.0,55.0,616.79921,10000.0,85.000001,85.000001,85.000001,85.000001,395.0,0.0,0.0,0.0,1.0,166.665,51.178,51.178,46.738,46.738,34.0,-27.16,22.124000000000002,-32.92333333333333,25.553333333333335,0.0,1781.157,0.05000000000000071,100.0,29.472,28.65,44.788,43.756,0.0,0.0,100.0,0.0,0.0,0.0,0.0,3308.0,3105.5,4198.375,4121.8,304.7895,305.0045,314.78675,314.83175,22.0716,20.6831,22.1097,21.6068,314.999998,314.999998,324.999988,324.999988,99.55881428571429,99.5075,99.5701,99.55002857142857,0.03874999999999984,-0.11033333333333317,-0.17283333333333334,0.056,-0.030000000000001137,-0.05571428571428072,1.5335,1.568,38.947,30.269333333333336,39.186,36.042500000000004,55.745999999999995,35.6735,60.3685,53.6335,53.694,34.7755,58.9135,51.9095,52.844,34.3135,58.7855,51.291666666666664,-0.08299999999999996,-0.08650000000000002,0.11337000000000001,0.09990500000000001,0.0,218.765,218.73000000000002,215.50666666666666,215.50666666666666,0.0,0.0
33,0.0,0.0,0.0,1.0,1.0,0.0,0.0,1.0,0.0,100.0,1.0,1.1856,26.0,0.0,0.0,0.0,57.999998,0.0,26.0,26.0,26.0,26.0,-0.06966666666666665,0.26890000000000014,-0.0378,291.351,-2.665,-2.741777777777778,-1.5381,-1.5809000000000002,-163.55,215.9675,190.253,0.0,0.0,0.0,0.0,0.06676666666666653,-5.498166666666667,-5.498166666666667,-0.6119,-0.4366666666666667,-0.07522222222222208,0.18099999999999994,70.015,-0.050800000000000005,-0.2157,0.3539999999999992,100.0,1.0,1.0,215.77666666666667,0.0,0.0,0.0,0.0,0.0,0.0,0.0,9146.0,0.0,55.0,5.0,252.03,1.0,0.0,0.0,0.0,0.0,0.0,1.0,0.0,1.6559999999999988,1.6559999999999988,0.0,0.0,1.0,55.0,616.79921,10000.0,85.000001,85.000001,85.000001,85.000001,395.0,0.0,0.0,0.0,1.0,166.665,51.788,51.788,46.432,46.432,34.0,-26.072499999999998,21.607999999999997,-33.32666666666667,27.103333333333335,0.0,1781.104,-0.10500000000000043,100.0,29.111,28.494,44.707,43.959,0.0,0.0,100.0,0.0,0.0,0.0,0.0,3216.142857142857,2936.7,4289.0,4260.1,305.2105,305.3945,314.4485,314.3405,22.0809,20.6885,22.1202,21.6161,314.999998,314.999998,324.999988,324.999988,99.55882857142858,99.50751666666666,99.57025714285714,99.55018571428572,0.04475000000000007,-0.10133333333333328,-0.16966666666666666,0.05316666666666667,-0.05833333333333002,-0.027142857142855803,1.466,1.4925,39.006,30.303333333333335,39.251,36.1005,55.732,35.7125,60.4065,53.692,53.681,34.8115,58.949,51.966,52.83,34.348,58.817499999999995,51.346666666666664,-0.09199999999999997,-0.06899999999999995,0.10724500000000001,0.1092,0.0,219.175,219.115,215.77666666666667,215.77666666666667,0.0,0.0
34,0.0,0.0,0.0,1.0,1.0,0.0,0.0,1.0,0.0,100.0,1.0,1.1856,26.0,0.0,0.0,0.0,57.999998,0.0,26.0,26.0,26.0,26.0,-0.05788888888888888,0.2599,-0.049375,291.779,-2.6751,-2.7254444444444443,-1.6019,-1.5994000000000002,-159.97,215.9525,190.225125,0.0,0.0,0.0,0.0,0.06886666666666652,-5.498166666666667,-5.498166666666667,-0.6464000000000001,-0.7823333333333334,-0.039111111111111097,1.048,70.143,-0.039,-0.22775,0.19399999999999906,100.0,1.0,1.0,216.24666666666667,0.0,0.0,0.0,0.0,0.0,0.0,0.0,9166.0,0.0,55.0,5.0,252.49,0.0,0.0,0.0,0.0,0.0,0.0,1.0,0.0,1.7070000000000007,1.7070000000000007,0.0,0.0,0.0,55.0,616.79921,10000.0,85.000001,85.000001,85.000001,85.000001,395.0,0.0,0.0,0.0,1.0,166.665,52.063,52.063,47.333,47.333,34.0,-24.4325,22.57,-30.54,28.45,0.0,1781.054,-0.10500000000000043,100.0,28.944,28.07,44.369,43.922,0.0,0.0,100.0,0.0,0.0,0.0,0.0,3068.285714285714,3043.8,4062.625,4159.8,305.39,305.17525,315.03425,314.6075,22.0902,20.694,22.1306,21.6253,314.999998,314.999998,324.999988,324.999988,99.55884285714286,99.50753333333333,99.5704,99.55032857142857,0.06075000000000008,-0.09399999999999986,-0.14616666666666667,0.091,-0.03166666666666629,-0.044285714285713595,1.5295,1.5195,39.064,30.337666666666664,39.316,36.158500000000004,55.717,35.7515,60.441,53.7505,53.667,34.8475,58.981,52.0225,52.815,34.382,58.8465,51.40133333333333,-0.09350000000000003,-0.07400000000000007,0.11012500000000001,0.10918000000000001,0.0,219.525,219.505,216.24666666666667,216.24666666666667,0.0,0.0
35,0.0,0.0,0.0,1.0,1.0,0.0,0.0,1.0,0.0,100.0,1.0,1.1856,26.0,0.0,0.0,0.0,57.999998,0.0,26.0,26.0,26.0,26.0,-0.04699999999999993,0.24829999999999997,-0.03635,291.763,-2.7271,-2.6821111111111113,-1.5691000000000002,-1.6120999999999999,-156.6,215.94,190.19675,0.0,0.0,0.0,0.0,0.0708333333333333,-5.498166666666667,-5.498166666666667,-0.6862,-0.4566666666666667,-0.04899999999999993,-0.08499999999999996,70.262,-0.025900000000000003,-0.232125,0.08999999999999986,100.0,1.0,1.0,216.68,0.0,0.0,0.0,0.0,0.0,0.0,0.0,9184.3,0.0,55.0,5.0,252.92000000000002,1.0,0.0,0.0,0.0,0.0,0.0,1.0,0.0,1.754999999999999,1.754999999999999,0.0,0.0,1.0,55.0,616.79921,10000.0,85.000001,85.000001,85.000001,85.000001,395.0,0.0,0.0,0.0,1.0,166.665,51.544,51.544,46.951,46.951,34.0,-26.325,25.572000000000003,-29.313333333333333,27.283333333333335,0.0,1781.006,-0.054999999999999716,100.0,28.673000000000002,28.358,44.108000000000004,43.509,0.0,0.0,100.0,0.0,0.0,0.0,0.0,3236.285714285714,3337.9,4047.125,3947.2,305.1815,304.34225,314.99925,315.11975,22.0987,20.6994,22.1404,21.6339,314.999998,314.999998,324.999988,324.999988,99.55884285714286,99.50753333333333,99.57054285714285,99.55045714285714,0.05600000000000005,-0.07299999999999995,-0.13283333333333336,0.10116666666666667,-0.041666666666671404,-0.04999999999999716,1.5525,1.5425,39.117000000000004,30.371333333333332,39.376999999999995,36.2115,55.702,35.79,60.4735,53.802,53.652,34.882999999999996,59.0115,52.072,52.799,34.416,58.8735,51.449666666666666,-0.08299999999999996,-0.07499999999999996,0.10853000000000002,0.116625,0.0,219.9,219.89,216.68,216.68,0.0,0.0
36,0.0,0.0,0.0,1.0,1.0,0.0,0.0,1.0,0.0,100.0,1.0,1.1856,26.0,0.0,0.0,0.0,57.999998,0.0,26.0,26.0,26.0,26.0,-0.02488888888888885,0.26870000000000016,0.050925000000000005,290.756,-2.6306000000000003,-2.6417777777777776,-1.5399,-1.6032000000000002,-153.02,215.925,190.16525,0.0,0.0,0.0,0.0,0.07289999999999996,-5.498166666666667,-5.498166666666667,-0.6641,0.3046666666666667,-0.0855555555555556,-1.27,70.393,-0.019200000000000002,-0.20065000000000002,0.24200000000000088,100.0,1.0,1.0,216.82,0.0,0.0,0.0,0.0,0.0,0.0,0.0,9190.2,0.0,55.0,5.0,253.38666666666666,0.0,0.0,0.0,0.0,0.0,0.0,1.0,0.0,1.806000000000001,1.806000000000001,0.0,0.0,0.0,55.0,616.79921,10000.0,85.000001,85.000001,85.000001,85.000001,395.0,0.0,0.0,0.0,1.0,166.665,51.163,51.163,46.143,46.143,34.0,-25.58,23.116,-33.513333333333335,31.67,0.0,1780.955,-0.09999999999999787,100.0,29.093,28.865000000000002,44.211,43.934,0.0,0.0,100.0,0.0,0.0,0.0,0.0,3299.285714285714,3093.8,4530.875,4516.4,304.721,304.9145,313.94175,313.726,22.1081,20.7052,22.1508,21.6432,314.999998,314.999998,324.999988,324.999988,99.55884285714286,99.50755,99.5707,99.55061428571429,0.07224999999999993,-0.07633333333333314,-0.1305,0.08733333333333333,-0.01999999999999602,-0.058571428571426054,1.421,1.439,39.176,30.407666666666664,39.443,36.269999999999996,55.69,35.832,60.5105,53.8615,53.641,34.9215,59.046,52.129,52.787,34.453,58.905,51.50533333333333,-0.09599999999999997,-0.07000000000000006,0.10900000000000001,0.10153500000000001,0.0,220.325,220.32,216.82,216.82,0.0,0.0
