,ABS Active,ABS Enabled,AID Allow Tire Blankets,AID Auto Blip,AID Auto Clutch,AID Auto Shift,AID Fuel Rate,AID Ideal Line,AID Mech Damage,AID Stability,AID Tire Wear Rate,Air Density,Air Temp,Ballast,Best Lap Delta,Best Lap Time,Brake Bias,Brake Pos,Brake Temp FL,Brake Temp FR,Brake Temp RL,Brake Temp RR,CG Accel Lateral,CG Accel Longitudinal,CG Accel Vertical,CG Height,Camber FL,Camber FR,Camber RL,Camber RR,Car Coord X,Car Coord Y,Car Coord Z,Car Damage Front,Car Damage Left,Car Damage Rear,Car Damage Right,Car Pos Norm,Caster FL,Caster FR,Chassis Pitch Angle,Chassis Pitch Rate,Chassis Roll Angle,Chassis Roll Rate,Chassis Velocity X,Chassis Velocity Y,Chassis Velocity Z,Chassis Yaw Rate,Clutch Pos,DRS Active,DRS Available,Drive Train Speed,ERS Heat Charging,ERS Is Charging,ERS Max Energy,ERS Power Level,ERS Recovery Level,Engine Brake Setting,Engine Limiter,Engine RPM,Flags,Fuel Level,Gear,Ground Speed,HR Sample Clock,In Pit,KERS Charge,KERS Deployed Energy,KERS Input,KERS Max Energy,LR Sample Clock,Lap Invalidated,Lap Time,Lap Time2,Last Lap Time,Last Sector Time,MR Sample Clock,Max Fuel,Max Power,Max RPM,Max Sus Travel FL,Max Sus Travel FR,Max Sus Travel RL,Max Sus Travel RR,Max Torque,Max Turbo Boost,Num Tires Off Track,Penalties Enabled,Position,Raw Data Sample Rate,Ride Height FL,Ride Height FR,Ride Height RL,Ride Height RR,Road Temp,Self Align Torque FL,Self Align Torque FR,Self Align Torque RL,Self Align Torque RR,Session Lap Count,Session Time Left,Steering Angle,Surface Grip,Suspension Travel FL,Suspension Travel FR,Suspension Travel RL,Suspension Travel RR,TC Active,TC Enabled,Throttle Pos,Tire Dirt Level FL,Tire Dirt Level FR,Tire Dirt Level RL,Tire Dirt Level RR,Tire Load FL,Tire Load FR,Tire Load RL,Tire Load RR,Tire Loaded Radius FL,Tire Loaded Radius FR,Tire Loaded Radius RL,Tire Loaded Radius RR,Tire Pressure FL,Tire Pressure FR,Tire Pressure RL,Tire Pressure RR,Tire Radius FL,Tire Radius FR,Tire Radius RL,Tire Radius RR,Tire Rubber Grip FL,Tire Rubber Grip FR,Tire Rubber Grip RL,Tire Rubber Grip RR,Tire Slip Angle FL,Tire Slip Angle FR,Tire Slip Angle RL,Tire Slip Angle RR,Tire Slip Ratio FL,Tire Slip Ratio FR,Tire Slip Ratio RL,Tire Slip Ratio RR,Tire Temp Core FL,Tire Temp Core FR,Tire Temp Core RL,Tire Temp Core RR,Tire Temp Inner FL,Tire Temp Inner FR,Tire Temp Inner RL,Tire Temp Inner RR,Tire Temp Middle FL,Tire Temp Middle FR,Tire Temp Middle RL,Tire Temp Middle RR,Tire Temp Outer FL,Tire Temp Outer FR,Tire Temp Outer RL,Tire Temp Outer RR,Toe In FL,Toe In FR,Toe In RL,Toe In RR,Turbo Boost,Wheel Angular Speed FL,Wheel Angular Speed FR,Wheel Angular Speed RL,Wheel Angular Speed RR,Wind Direction,Wind Speed
0,0.0,0.0,0.0,1.0,1.0,0.0,0.0,1.0,0.0,100.0,1.0,1.1856,26.0,0.0,0.0,0.0,57.99999,0.0,26.0,26.0,26.0,26.0,-0.07450000000000001,0.29390000000000005,0.0112,293.793,-2.7208,-2.645625,-1.5228000000000002,-1.5553,-275.48,216.29500000000002,190.986125,0.0,0.0,0.0,0.0,0.0016999999999999238,-5.498166666666667,-5.498166666666667,-0.5444,1.5554999999999999,-0.005555555555555536,-1.488,65.49600000000001,-0.0337,-0.21200000000000002,1.0199999999999996,100.0,1.0,1.0,202.21,0.0,0.0,0.0,0.0,0.0,0.0,0.0,8571.0,0.0,55.0,5.0,235.75666666666666,0.0,0.0,0.0,0.0,0.0,0.0,0.0,0.0,0.006000000000000227,0.006000000000000227,0.0,0.0,0.0,55.0,616.79921,10000.0,85.0,85.0,85.0,85.0,395.0,0.0,0.0,0.0,1.0,20.0,52.536,52.536,49.179,49.179,34.0,-25.7175,23.201999999999998,-31.223333333333333,24.634999999999998,0.0,1782.911,0.740000000000002,100.0,27.747,27.444,40.578,40.719,0.0,0.0,100.0,0.0,0.0,0.0,0.0,2955.857142857143,3321.3,4212.888888888889,3984.6000000000004,305.8775,304.1383333333333,314.6515,314.867,21.7735,20.5101,21.7673,21.3131,314.99999,314.99999,324.99998,324.99998,99.55854285714285,99.5071,99.5649,99.54518571428571,0.0013333333333331865,-0.11599999999999988,-0.15900000000000003,0.06066666666666687,-0.051666666666669414,-0.05833333333333002,1.5305,1.584,37.084,29.188333333333333,37.045,34.207,56.146,34.379,58.97,51.6105,54.075,33.5685,57.601,49.968,53.251000000000005,33.1445,57.5655,49.39333333333333,-0.014000000000000012,-0.12949999999999995,0.10526,0.11178,0.0,205.285,205.185,202.21,202.21,0.0,0.0
1,0.0,0.0,0.0,1.0,1.0,0.0,0.0,1.0,0.0,100.0,1.0,1.1856,26.0,0.0,0.0,0.0,57.999998,0.0,26.0,26.0,26.0,26.0,-0.09675,0.30990000000000006,0.17777500000000002,292.862,-2.6332,-2.764875,-1.5249000000000001,-1.5115,-271.94,216.29000000000002,190.965,0.0,0.0,0.0,0.0,0.003766666666666585,-5.498166666666667,-5.498166666666667,-0.5075000000000001,-1.1760000000000002,-0.05977777777777771,-1.1829999999999998,65.66,-0.0487,-0.20915,1.3260000000000005,100.0,1.0,1.0,202.41,0.0,0.0,0.0,0.0,0.0,0.0,0.0,8579.5,0.0,55.0,5.0,236.3466666666667,1.0,0.0,0.0,0.0,0.0,0.0,0.0,0.0,0.05999999999999872,0.05999999999999872,0.0,0.0,1.0,55.0,616.79921,10000.0,85.000001,85.000001,85.000001,85.000001,395.0,0.0,0.0,0.0,1.0,166.665,53.192,53.192,48.37,48.37,34.0,-27.7275,18.928,-33.64,28.1325,0.0,1782.86,0.9149999999999991,100.0,27.712,27.155,42.742000000000004,42.001,0.0,0.0,100.0,0.0,0.0,0.0,0.0,3191.285714285714,2758.4,4279.333333333333,4604.0,305.229,306.0536666666667,314.342,313.2585,21.7838,20.5155,21.7787,21.3228,314.999998,314.999998,324.999988,324.999988,99.55854285714285,99.50711666666666,99.56505714285714,99.54534285714286,-0.009666666666666712,-0.1313333333333333,-0.1785,0.04150000000000009,-0.08833333333333115,-0.06499999999999773,1.4165,1.4575,37.149,29.221666666666664,37.117000000000004,34.2675,56.129000000000005,34.421,59.018,51.68,54.058,33.607,57.646,50.035,53.233999999999995,33.182,57.6075,49.458666666666666,-0.0024999999999999467,-0.14050000000000007,0.10525000000000001,0.10443500000000001,0.0,205.735,205.63,202.41,202.41,0.0,0.0
2,0.0,0.0,0.0,1.0,1.0,0.0,0.0,1.0,0.0,100.0,1.0,1.1856,26.0,0.0,0.0,0.0,57.999998,0.0,26.0,26.0,26.0,26.0,-0.11787499999999995,0.2895000000000001,-0.014425,293.533,-2.6059,-2.784125,-1.4954,-1.604,-268.78,216.2825,190.94725,0.0,0.0,0.0,0.0,0.005599999999999938,-5.498166666666667,-5.498166666666667,-0.5516,0.23949999999999994,-0.04200000000000026,1.83,65.793,-0.0688,-0.2549,1.6159999999999997,100.0,1.0,1.0,203.28333333333333,0.0,0.0,0.0,0.0,0.0,0.0,0.0,8616.4,0.0,55.0,5.0,236.82666666666665,0.0,0.0,0.0,0.0,0.0,0.0,0.0,0.0,0.10800000000000054,0.10800000000000054,0.0,0.0,0.0,55.0,616.79921,10000.0,85.000001,85.000001,85.000001,85.000001,395.0,0.0,0.0,0.0,1.0,166.665,52.2,52.2,50.079,50.079,34.0,-30.0925,19.968,-29.366666666666664,21.035,0.0,1782.811,0.754999999999999,100.0,28.488,27.292,42.536,41.39,0.0,0.0,100.0,0.0,0.0,0.0,0.0,3370.857142857143,2938.5,3752.777777777778,3753.6000000000004,304.564,305.43533333333335,315.653,315.59125,21.7934,20.5201,21.7885,21.3309,314.999998,314.999998,324.999988,324.999988,99.55854285714285,99.50713333333333,99.5652,99.54545714285715,-0.02299999999999991,-0.1476666666666666,-0.22133333333333338,0.018000000000000016,-0.09666666666667112,-0.054999999999999716,1.6175,1.6835,37.209,29.250999999999998,37.178,34.3185,56.117999999999995,34.459,59.054,51.732,54.048,33.6415,57.679,50.085,53.222,33.215,57.6385,49.507666666666665,-0.02100000000000002,-0.13450000000000006,0.1052,0.11267500000000001,0.0,206.185,206.03,203.28333333333333,203.28333333333333,0.0,0.0
3,0.0,0.0,0.0,1.0,1.0,0.0,0.0,1.0,0.0,100.0,1.0,1.1856,26.0,0.0,0.0,0.0,57.999998,0.0,26.0,26.0,26.0,26.0,-0.13737500000000002,0.3164,-0.030675,293.32,-2.7291,-2.6862500000000002,-1.5135,-1.5923,-265.62,216.26999999999998,190.92875,0.0,0.0,0.0,0.0,0.007433333333333292,-5.498166666666667,-5.498166666666667,-0.5111,0.40800000000000003,-0.01100000000000012,-1.097,65.937,-0.0848,-0.20415,1.2720000000000002,100.0,1.0,1.0,203.41,0.0,0.0,0.0,0.0,0.0,0.0,0.0,8621.8,0.0,55.0,5.0,237.34333333333333,1.0,0.0,0.0,0.0,0.0,0.0,0.0,0.0,0.1559999999999988,0.1559999999999988,0.0,0.0,1.0,55.0,616.79921,10000.0,85.000001,85.000001,85.000001,85.000001,395.0,0.0,0.0,0.0,1.0,166.665,53.406,53.406,48.05,48.05,34.0,-25.53,17.762,-35.11,24.9025,0.0,1782.764,0.625,100.0,28.084,27.27,42.461,41.564,0.0,0.0,100.0,0.0,0.0,0.0,0.0,2855.142857142857,2784.2,4345.333333333333,4218.5,306.127,305.77733333333333,314.27625,314.33675,21.802599999999998,20.525,21.7983,21.3393,314.999998,314.999998,324.999988,324.999988,99.55854285714285,99.50715,99.56532857142857,99.5456,-0.016999999999999904,-0.15566666666666662,-0.2081666666666666,0.020000000000000018,-0.045000000000001705,-0.03833333333332689,1.5110000000000001,1.5335,37.266,29.281333333333336,37.239000000000004,34.371,56.102000000000004,34.499,59.091,51.7915,54.033,33.679,57.714,50.141999999999996,53.207,33.2505,57.670500000000004,49.56366666666666,-0.03500000000000003,-0.12549999999999994,0.10516500000000001,0.119275,0.0,206.615,206.495,203.41,203.41,0.0,0.0
4,0.0,0.0,0.0,1.0,1.0,0.0,0.0,1.0,0.0,100.0,1.0,1.1856,26.0,0.0,0.0,0.0,57.999998,0.0,26.0,26.0,26.0,26.0,-0.13849999999999996,0.2905,-0.0229,293.564,-2.6552,-2.7455,-1.5211999999999999,-1.6021,-262.05,216.255,190.907875,0.0,0.0,0.0,0.0,0.009533333333333394,-5.498166666666667,-5.498166666666667,-0.5493,-0.5110000000000001,-0.08288888888888879,-1.403,66.092,-0.0882,-0.24135,1.202,100.0,1.0,1.0,204.05666666666667,0.0,0.0,0.0,0.0,0.0,0.0,0.0,8649.3,0.0,55.0,5.0,237.90333333333334,0.0,0.0,0.0,0.0,0.0,0.0,0.0,0.0,0.21000000000000085,0.21000000000000085,0.0,0.0,0.0,55.0,616.79921,10000.0,85.000001,85.000001,85.000001,85.000001,395.0,0.0,0.0,0.0,1.0,166.665,52.795,52.795,48.95,48.95,34.0,-29.759999999999998,19.355999999999998,-32.07333333333333,20.4375,0.0,1782.71,0.5500000000000007,100.0,27.88,27.033,42.804,41.461,0.0,0.0,100.0,0.0,0.0,0.0,0.0,3320.714285714286,2894.6,4049.777777777778,3658.7,304.8665,305.463,314.95175,315.72925,21.8128,20.5304,21.8095,21.3487,314.999998,314.999998,324.999988,324.999988,99.55855714285714,99.50716666666666,99.56547142857143,99.54574285714286,-0.021333333333333204,-0.14866666666666672,-0.20833333333333337,0.013166666666666549,-0.060000000000002274,-0.026666666666670835,1.5825,1.6320000000000001,37.33,29.314999999999998,37.309,34.429,56.084,34.543,59.1355,51.853,54.015,33.7195,57.7555,50.201,53.189,33.289,57.709,49.62133333333333,-0.034499999999999975,-0.1160000000000001,0.10039000000000001,0.10702500000000001,0.0,207.05,206.95,204.05666666666667,204.05666666666667,0.0,0.0
5,0.0,0.0,0.0,1.0,1.0,0.0,0.0,1.0,0.0,100.0,1.0,1.1856,26.0,0.0,0.0,0.0,57.999998,0.0,26.0,26.0,26.0,26.0,-0.13024999999999998,0.29920000000000013,-0.00032500000000000004,293.549,-2.6736,-2.761375,-1.5118,-1.5856,-258.88,216.2375,190.888625,0.0,0.0,0.0,0.0,0.011366666666666525,-5.498166666666667,-5.498166666666667,-0.5357000000000001,0.34850000000000003,-0.0812222222222223,-0.276,66.231,-0.08990000000000001,-0.21430000000000002,1.0600000000000005,100.0,1.0,1.0,204.38666666666666,0.0,0.0,0.0,0.0,0.0,0.0,0.0,8663.3,0.0,55.0,5.0,238.4,1.0,0.0,0.0,0.0,0.0,0.0,0.0,0.0,0.2579999999999991,0.2579999999999991,0.0,0.0,1.0,55.0,616.79921,10000.0,85.000001,85.000001,85.000001,85.000001,395.0,0.0,0.0,0.0,1.0,166.665,53.345,53.345,48.874,48.874,34.0,-28.372500000000002,18.866,-34.376666666666665,22.6825,0.0,1782.662,0.21499999999999986,100.0,27.83,26.878,42.589,41.264,0.0,0.0,100.0,0.0,0.0,0.0,0.0,3199.857142857143,2761.0,4209.222222222223,4058.0,305.2085,305.94266666666664,314.63875,314.74575,21.8222,20.5351,21.8194,21.3569,314.999998,314.999998,324.999988,324.999988,99.55855714285714,99.50718333333333,99.56561428571429,99.54587142857143,-0.013333333333333197,-0.1359999999999999,-0.22166666666666657,0.0040000000000000036,-0.03999999999999915,-0.05333333333332746,1.514,1.574,37.388999999999996,29.344666666666665,37.370999999999995,34.4805,56.071,34.5815,59.1735,51.908,54.003,33.7545,57.791,50.2535,53.175,33.323,57.742,49.672666666666665,-0.05699999999999994,-0.09200000000000008,0.10927,0.10796000000000001,0.0,207.5,207.41500000000002,204.38666666666666,204.38666666666666,0.0,0.0
6,0.0,0.0,0.0,1.0,1.0,0.0,0.0,1.0,0.0,100.0,1.0,1.1856,26.0,0.0,0.0,0.0,57.999998,0.0,26.0,26.0,26.0,26.0,-0.09750000000000003,0.30100000000000016,-0.009875,293.427,-2.6386,-2.7952500000000002,-1.5534,-1.5829,-255.7,216.2175,190.869375,0.0,0.0,0.0,0.0,0.01319999999999999,-5.498166666666667,-5.498166666666667,-0.5318,0.10199999999999998,-0.0654444444444442,-0.5350000000000001,66.368,-0.0823,-0.216475,0.7300000000000004,100.0,1.0,1.0,204.82666666666665,0.0,0.0,0.0,0.0,0.0,0.0,0.0,8681.8,0.0,55.0,5.0,238.89666666666668,0.0,0.0,0.0,0.0,0.0,0.0,0.0,0.0,0.30600000000000094,0.30600000000000094,0.0,0.0,0.0,55.0,616.79921,10000.0,85.000001,85.000001,85.000001,85.000001,395.0,0.0,0.0,0.0,1.0,333.33500000000004,53.101,53.101,48.706,48.706,34.0,-27.6275,20.622,-32.84,22.61,0.0,1782.612,0.08000000000000185,100.0,27.731,26.927,42.695,41.578,0.0,0.0,100.0,0.0,0.0,0.0,0.0,3207.4285714285716,2872.3,4127.111111111111,3986.7,305.1395,305.477,314.8285,314.92,21.8315,20.54,21.8293,21.3654,314.999998,314.999998,324.999988,324.999988,99.55855714285714,99.5072,99.56574285714285,99.54601428571429,0.0,-0.12433333333333318,-0.19933333333333336,0.012833333333333474,-0.060000000000002274,-0.051666666666669414,1.5565,1.5785,37.447,29.374666666666666,37.433,34.533500000000004,56.057,34.6195,59.2115,51.966,53.989000000000004,33.79,57.826499999999996,50.309,53.161,33.3565,57.775,49.72666666666667,-0.06499999999999995,-0.07600000000000007,0.10221000000000001,0.10495000000000002,0.0,207.93,207.84,204.82666666666665,204.82666666666665,0.0,0.0
7,0.0,0.0,0.0,1.0,1.0,0.0,0.0,1.0,0.0,100.0,1.0,1.1856,26.0,0.0,0.0,0.0,57.999998,0.0,26.0,26.0,26.0,26.0,-0.0625,0.27280000000000015,0.011525,293.274,-2.6161,-2.74825,-1.5181,-1.6218,-252.11,216.1925,190.84775,0.0,0.0,0.0,0.0,0.01529999999999998,-5.498166666666667,-5.498166666666667,-0.534,0.06099999999999994,-0.04944444444444418,-0.18900000000000006,66.523,-0.0653,-0.224225,0.37399999999999967,100.0,1.0,1.0,205.29000000000002,0.0,0.0,0.0,0.0,0.0,0.0,0.0,8701.5,0.0,55.0,5.0,239.45333333333332,1.0,0.0,0.0,0.0,0.0,0.0,0.0,0.0,0.35999999999999943,0.35999999999999943,0.0,0.0,1.0,55.0,616.79921,10000.0,85.000001,85.000001,85.000001,85.000001,395.0,0.0,0.0,0.0,1.0,166.665,52.887,52.887,48.843,48.843,34.0,-26.2825,21.582,-31.28,24.845,0.0,1782.56,-0.245000000000001,100.0,27.838,27.032,42.730000000000004,41.869,0.0,0.0,100.0,0.0,0.0,0.0,0.0,3223.5714285714284,2910.8,4047.5555555555557,4004.0,305.0395,305.36,314.973,314.82075,21.842,20.5454,21.8404,21.3749,314.999998,314.999998,324.999988,324.999988,99.55857142857143,99.50721666666666,99.5659,99.54615714285714,0.03166666666666673,-0.09833333333333316,-0.1878333333333334,0.04066666666666685,-0.046666666666666856,-0.036666666666668846,1.527,1.5485,37.512,29.409,37.503,34.593,56.041,34.661500000000004,59.254,52.0305,53.974999999999994,33.8285,57.866,50.371,53.146,33.3935,57.811,49.787333333333336,-0.09799999999999998,-0.0535000000000001,0.11165000000000001,0.1057,0.0,208.385,208.34,205.29000000000002,205.29000000000002,0.0,0.0
8,0.0,0.0,0.0,1.0,1.0,0.0,0.0,1.0,0.0,100.0,1.0,1.1856,26.0,0.0,0.0,0.0,57.999998,0.0,26.0,26.0,26.0,26.0,-0.03574999999999995,0.2876000000000001,-0.04245,293.457,-2.698,-2.7125000000000004,-1.4998,-1.5748,-248.91,216.16750000000002,190.828375,0.0,0.0,0.0,0.0,0.017166666666666552,-5.498166666666667,-5.498166666666667,-0.5365,-0.5315000000000001,-0.03355555555555556,-0.5190000000000001,66.661,-0.0451,-0.2165,-0.05399999999999938,100.0,1.0,1.0,205.64333333333332,0.0,0.0,0.0,0.0,0.0,0.0,0.0,8716.5,0.0,55.0,5.0,239.95,0.0,0.0,0.0,0.0,0.0,0.0,0.0,0.0,0.40800000000000125,0.40800000000000125,0.0,0.0,0.0,55.0,616.79921,10000.0,85.000001,85.000001,85.000001,85.000001,395.0,0.0,0.0,0.0,1.0,166.665,53.635,53.635,48.172,48.172,34.0,-24.0775,21.988,-30.436666666666664,26.695,0.0,1782.512,-0.33999999999999986,100.0,27.377,26.926000000000002,42.726,41.989000000000004,0.0,0.0,100.0,0.0,0.0,0.0,0.0,2999.142857142857,2910.6,4147.111111111111,4081.6000000000004,305.8545,305.443,314.707,314.615,21.851,20.5503,21.8503,21.3833,314.999998,314.999998,324.999988,324.999988,99.55857142857143,99.50721666666666,99.56604285714286,99.54628571428572,0.046666666666666856,-0.07800000000000007,-0.15633333333333332,0.07450000000000001,-0.03499999999999659,-0.03333333333333144,1.521,1.5125,37.569,29.439333333333334,37.564,34.6455,56.025999999999996,34.6975,59.2915,52.0875,53.96,33.8615,57.900999999999996,50.4255,53.129999999999995,33.425,57.8435,49.841,-0.10199999999999998,-0.04499999999999993,0.10733500000000001,0.11661,0.0,208.765,208.755,205.64333333333332,205.64333333333332,0.0,0.0
9,0.0,0.0,0.0,1.0,1.0,0.0,0.0,1.0,0.0,100.0,1.0,1.1856,26.0,0.0,0.0,0.0,57.999998,0.0,26.0,26.0,26.0,26.0,-0.01649999999999996,0.28400000000000003,-0.014450000000000001,293.121,-2.6861,-2.71675,-1.5564,-1.5539,-245.71,216.14,190.8085,0.0,0.0,0.0,0.0,0.019033333333333347,-5.498166666666667,-5.498166666666667,-0.5404,0.6985,-0.033666666666666956,-0.375,66.794,-0.0268,-0.21505000000000002,-0.10799999999999965,100.0,1.0,1.0,206.17333333333335,0.0,0.0,0.0,0.0,0.0,0.0,0.0,8739.0,0.0,55.0,5.0,240.43,1.0,0.0,0.0,0.0,0.0,0.0,0.0,0.0,0.4559999999999995,0.4559999999999995,0.0,0.0,1.0,55.0,616.79921,10000.0,85.000001,85.000001,85.000001,85.000001,395.0,0.0,0.0,0.0,1.0,333.33500000000004,52.414,52.414,49.164,49.164,34.0,-26.474999999999998,23.537999999999997,-29.006666666666664,26.52,0.0,1782.462,-0.4800000000000004,100.0,27.857,27.346,42.355000000000004,41.985,0.0,0.0,100.0,0.0,0.0,0.0,0.0,3369.285714285714,2997.1,4028.3333333333335,4052.2,304.686,305.114,315.1225,314.802,21.8603,20.5553,21.8601,21.3917,314.999998,314.999998,324.999988,324.999988,99.55857142857143,99.50723333333333,99.56617142857142,99.54641428571429,0.06999999999999984,-0.06133333333333324,-0.14116666666666666,0.08750000000000013,-0.061666666666667425,-0.06333333333333258,1.5685,1.556,37.626999999999995,29.470666666666666,37.625,34.698,56.013999999999996,34.735,59.3255,52.143,53.949,33.896,57.933,50.479,53.117999999999995,33.458,57.8725,49.89333333333333,-0.11199999999999999,-0.04049999999999998,0.11253500000000001,0.10815500000000002,0.0,209.215,209.20499999999998,206.17333333333335,206.17333333333335,0.0,0.0
10,0.0,0.0,0.0,1.0,1.0,0.0,0.0,1.0,0.0,100.0,1.0,1.1856,26.0,0.0,0.0,0.0,57.999998,0.0,26.0,26.0,26.0,26.0,0.019875000000000087,0.2942,0.056125,292.999,-2.6615,-2.7015000000000002,-1.5367000000000002,-1.5333999999999999,-242.3,216.1125,190.787875,0.0,0.0,0.0,0.0,0.020999999999999908,-5.498166666666667,-5.498166666666667,-0.5194,-0.6435,0.010999999999999899,1.751,66.941,-0.0063,-0.2071,-0.5599999999999996,100.0,1.0,1.0,206.42000000000002,0.0,0.0,0.0,0.0,0.0,0.0,0.0,8749.3,0.0,55.0,5.0,240.96,0.0,0.0,0.0,0.0,0.0,0.0,1.0,0.0,0.5069999999999979,0.5069999999999979,0.0,0.0,0.0,55.0,616.79921,10000.0,85.000001,85.000001,85.000001,85.000001,395.0,0.0,0.0,0.0,1.0,333.33500000000004,53.513,53.513,47.638,47.638,34.0,-20.12,24.014000000000003,-29.093333333333334,30.4825,0.0,1782.411,-0.6050000000000004,100.0,27.756,27.13,42.906,42.64,0.0,0.0,100.0,0.0,0.0,0.0,0.0,2801.142857142857,2985.3,4216.777777777777,4324.4,306.2355,305.3953333333333,314.462,314.12625,21.8699,20.5606,21.8707,21.4008,314.999998,314.999998,324.999988,324.999988,99.5586,99.50723333333333,99.5663,99.54657142857143,0.10099999999999998,-0.03600000000000003,-0.10333333333333339,0.11749999999999994,-0.03499999999999659,-0.04333333333332945,1.476,1.4535,37.687,29.503333333333334,37.692,34.7555,56.001000000000005,34.7715,59.367,52.207499999999996,53.936,33.93,57.9715,50.5405,53.105000000000004,33.4905,57.908,49.95366666666666,-0.12849999999999995,-0.024499999999999966,0.09801000000000001,0.10672500000000001,0.0,209.62,209.65,206.42000000000002,206.42000000000002,0.0,0.0
11,0.0,0.0,0.0,1.0,1.0,0.0,0.0,1.0,0.0,100.0,1.0,1.1856,26.0,0.0,0.0,0.0,57.999998,0.0,26.0,26.0,26.0,26.0,0.05162500000000003,0.262,-0.09585,293.533,-2.7098,-2.683125,-1.5915,-1.5213999999999999,-238.88,216.0875,190.767125,0.0,0.0,0.0,0.0,0.022599999999999953,-5.498166666666667,-5.498166666666667,-0.5614,-0.09050000000000002,0.032333333333333325,-0.7710000000000001,67.08,0.0134,-0.2359,-0.6200000000000001,100.0,1.0,1.0,207.15333333333334,0.0,0.0,0.0,0.0,0.0,0.0,0.0,8780.4,0.0,55.0,5.0,241.46,1.0,0.0,0.0,0.0,0.0,0.0,1.0,0.0,0.5579999999999998,0.5579999999999998,0.0,0.0,1.0,55.0,616.79921,10000.0,85.000001,85.000001,85.000001,85.000001,395.0,0.0,0.0,0.0,1.0,166.665,52.841,52.841,49.286,49.286,34.0,-22.9775,25.688,-24.45,26.93,0.0,1782.361,-0.629999999999999,100.0,27.407,27.562,42.227000000000004,42.574,0.0,0.0,100.0,0.0,0.0,0.0,0.0,3087.857142857143,3088.4,3724.222222222222,3864.8,305.5555,304.8376666666667,315.8365,315.2415,21.8794,20.566,21.881,21.4098,314.999998,314.999998,324.999988,324.999988,99.5586,99.50723333333333,99.56645714285715,99.5467,0.09666666666666668,-0.022333333333333316,-0.09366666666666656,0.14066666666666672,-0.046666666666666856,-0.04833333333333201,1.635,1.62,37.745999999999995,29.537333333333336,37.756,34.8115,55.986999999999995,34.8095,59.400999999999996,52.266999999999996,53.923,33.965,58.003,50.598,53.091,33.524,57.937,50.01,-0.123,-0.02499999999999991,0.10302000000000001,0.10958000000000001,0.0,210.06,210.075,207.15333333333334,207.15333333333334,0.0,0.0
12,0.0,0.0,0.0,1.0,1.0,0.0,0.0,1.0,0.0,100.0,1.0,1.1856,26.0,0.0,0.0,0.0,57.999998,0.0,26.0,26.0,26.0,26.0,0.06087500000000001,0.27760000000000007,0.031075000000000002,292.938,-2.7626,-2.6799999999999997,-1.5572,-1.5244,-235.66,216.0625,190.746375,0.0,0.0,0.0,0.0,0.025466666666666526,-5.498166666666667,-5.498166666666667,-0.5454,0.262,0.01677777777777778,-0.877,67.217,0.029500000000000002,-0.20670000000000002,-0.6439999999999992,100.0,1.0,1.0,207.32999999999998,0.0,0.0,0.0,0.0,0.0,0.0,0.0,8788.0,0.0,55.0,5.0,241.95,0.0,0.0,0.0,0.0,0.0,0.0,1.0,0.0,0.6059999999999981,0.6059999999999981,0.0,0.0,0.0,55.0,616.79921,10000.0,85.000001,85.000001,85.000001,85.000001,395.0,0.0,0.0,0.0,1.0,333.33500000000004,52.841,52.841,47.958,47.958,34.0,-23.0525,25.951999999999998,-27.483333333333334,30.762500000000003,0.0,1782.312,-0.6499999999999986,100.0,27.297,27.719,42.194,42.534,0.0,0.0,100.0,0.0,0.0,0.0,0.0,3134.857142857143,3095.9,4246.222222222223,4180.4,305.455,304.843,314.56625,314.44375,21.8883,20.5711,21.8908,21.4183,314.999998,314.999998,324.999988,324.999988,99.55861428571428,99.50723333333333,99.56658571428571,99.54684285714286,0.11433333333333362,-0.016000000000000014,-0.07166666666666666,0.15149999999999997,-0.036666666666668846,-0.03333333333333144,1.528,1.505,37.802,29.569333333333333,37.818,34.864,55.976,34.8455,59.4375,52.324,53.912,33.998,58.037,50.653,53.079,33.5555,57.968,50.064,-0.12549999999999994,-0.028999999999999915,0.10078500000000001,0.114625,0.0,210.47500000000002,210.525,207.32999999999998,207.32999999999998,0.0,0.0
13,0.0,0.0,0.0,1.0,1.0,0.0,0.0,1.0,0.0,100.0,1.0,1.1856,26.0,0.0,0.0,0.0,57.999998,0.0,26.0,26.0,26.0,26.0,0.06762500000000005,0.28459999999999996,0.055225,292.603,-2.7340999999999998,-2.675625,-1.5910000000000002,-1.5072,-232.22,216.0375,190.724625,0.0,0.0,0.0,0.0,0.026866666666666594,-5.498166666666667,-5.498166666666667,-0.5402,-0.09050000000000002,0.02488888888888896,1.073,67.35900000000001,0.0357,-0.2167,-0.8499999999999996,100.0,1.0,1.0,207.7266666666667,0.0,0.0,0.0,0.0,0.0,0.0,0.0,8804.8,0.0,55.0,5.0,242.46333333333334,1.0,0.0,0.0,0.0,0.0,0.0,1.0,0.0,0.657,0.657,0.0,0.0,1.0,55.0,616.79921,10000.0,85.000001,85.000001,85.000001,85.000001,395.0,0.0,0.0,0.0,1.0,333.33500000000004,52.505,52.505,47.974000000000004,47.974000000000004,34.0,-20.755,28.186,-26.813333333333333,33.042500000000004,0.0,1782.261,-0.870000000000001,100.0,27.781,27.758,42.509,42.921,0.0,0.0,100.0,0.0,0.0,0.0,0.0,3052.142857142857,3193.1,4128.888888888889,4362.2,305.492,304.7126666666667,314.72625,314.0695,21.8979,20.5766,21.9013,21.4275,314.999998,314.999998,324.999988,324.999988,99.55862857142857,99.50723333333333,99.56672857142857,99.54698571428571,0.15100000000000025,0.020999999999999908,-0.0625,0.1681666666666668,-0.04833333333333201,-0.041666666666671404,1.5070000000000001,1.4809999999999999,37.861999999999995,29.603666666666665,37.882999999999996,34.9215,55.966,34.884,59.476,52.388,53.902,34.033500000000004,58.073,50.7145,53.068,33.5895,58.0005,50.12433333333333,-0.14849999999999997,-0.009500000000000064,0.11054000000000001,0.10475000000000001,0.0,210.93,210.96,207.7266666666667,207.7266666666667,0.0,0.0
14,0.0,0.0,0.0,1.0,1.0,0.0,0.0,1.0,0.0,100.0,1.0,1.1856,26.0,0.0,0.0,0.0,57.999998,0.0,26.0,26.0,26.0,26.0,0.08962500000000007,0.2742,-0.005475,292.862,-2.7347,-2.675625,-1.5992000000000002,-1.5137,-228.57999999999998,216.0125,190.702125,0.0,0.0,0.0,0.0,0.028966666666666585,-5.498166666666667,-5.498166666666667,-0.5495,-0.06600000000000006,0.05466666666666664,1.13,67.507,0.049300000000000004,-0.22785000000000002,-1.0679999999999996,100.0,1.0,1.0,208.27666666666667,0.0,0.0,0.0,0.0,0.0,0.0,0.0,8828.1,0.0,55.0,5.0,242.99666666666667,0.0,0.0,0.0,0.0,0.0,0.0,1.0,0.0,0.7109999999999985,0.7109999999999985,0.0,0.0,0.0,55.0,616.79921,10000.0,85.000001,85.000001,85.000001,85.000001,395.0,0.0,0.0,0.0,1.0,166.665,52.658,52.658,48.172,48.172,34.0,-19.32,28.978,-24.133333333333333,32.485,0.0,1782.208,-0.9750000000000014,100.0,27.64,27.852,42.428,43.134,0.0,0.0,100.0,0.0,0.0,0.0,0.0,2907.4285714285716,3245.0,3942.3333333333335,4208.2,305.9115,304.47566666666665,315.234,314.41075,21.907899999999998,20.5824,21.9123,21.4372,314.999998,314.999998,324.999988,324.999988,99.55865714285714,99.50725,99.56688571428572,99.54715714285715,0.1586666666666665,0.023666666666666725,-0.042333333333333334,0.18483333333333318,-0.041666666666671404,-0.04999999999999716,1.578,1.5185,37.925,29.64,37.952,34.982,55.955,34.9245,59.515,52.454499999999996,53.891999999999996,34.071,58.1085,50.7785,53.057,33.6255,58.033,50.187,-0.14949999999999997,-0.0020000000000000018,0.102705,0.11292,0.0,211.35000000000002,211.425,208.27666666666667,208.27666666666667,0.0,0.0
15,0.0,0.0,0.0,1.0,1.0,0.0,0.0,1.0,0.0,100.0,1.0,1.1856,26.0,0.0,0.0,0.0,57.999998,0.0,26.0,26.0,26.0,26.0,0.1260000000000001,0.28,-0.052375000000000005,292.877,-2.7485,-2.5692500000000003,-1.6278000000000001,-1.4515,-225.54,215.995,190.683,0.0,0.0,0.0,0.0,0.03073333333333339,-5.498166666666667,-5.498166666666667,-0.5396000000000001,0.23249999999999993,0.0818888888888889,-0.42700000000000005,67.631,0.0618,-0.209875,-1.1399999999999997,100.0,1.0,1.0,208.63,0.0,0.0,0.0,0.0,0.0,0.0,0.0,8843.0,0.0,55.0,5.0,243.44333333333333,1.0,0.0,0.0,0.0,0.0,0.0,1.0,0.0,0.7560000000000002,0.7560000000000002,0.0,0.0,1.0,55.0,616.79921,10000.0,85.000001,85.000001,85.000001,85.000001,395.0,0.0,0.0,0.0,1.0,333.33500000000004,52.872,52.872,48.203,48.203,34.0,-18.8975,27.356,-24.79,33.4,0.0,1782.161,-1.004999999999999,100.0,27.495,28.033,42.147,43.328,0.0,0.0,100.0,0.0,0.0,0.0,0.0,2877.142857142857,3137.4,3975.222222222222,4349.0,306.178,304.711,315.21225,314.05175,21.9163,20.5873,21.9214,21.4452,314.999998,314.999998,324.999988,324.999988,99.55867142857143,99.50725,99.56701428571428,99.54728571428572,0.16166666666666663,0.031333333333333435,-0.04149999999999998,0.1915,-0.04333333333332945,-0.05333333333332746,1.539,1.498,37.977000000000004,29.670666666666666,38.009,35.0325,55.946,34.961,59.548,52.513999999999996,53.882999999999996,34.105000000000004,58.1395,50.836,53.047,33.658500000000004,58.061,50.24333333333333,-0.15600000000000003,0.0010000000000000009,0.10200000000000001,0.11170000000000001,0.0,211.755,211.835,208.63,208.63,0.0,0.0
16,0.0,0.0,0.0,1.0,1.0,0.0,0.0,1.0,0.0,100.0,1.0,1.1856,26.0,0.0,0.0,0.0,57.999998,0.0,26.0,26.0,26.0,26.0,0.132625,0.2763,-0.029025000000000002,292.847,-2.8048,-2.583875,-1.5986,-1.5138,-221.89,215.975,190.659625,0.0,0.0,0.0,0.0,0.0328666666666666,-5.498166666666667,-5.498166666666667,-0.5641,-0.6145,0.06555555555555559,-1.154,67.779,0.0737,-0.22842500000000002,-1.1600000000000001,100.0,1.0,1.0,209.11,0.0,0.0,0.0,0.0,0.0,0.0,0.0,8863.4,0.0,55.0,5.0,243.97666666666666,0.0,0.0,0.0,0.0,0.0,0.0,1.0,0.0,0.8099999999999987,0.8099999999999987,0.0,0.0,0.0,55.0,616.79921,10000.0,85.000001,85.000001,85.000001,85.000001,395.0,0.0,0.0,0.0,1.0,166.665,52.505,52.505,48.111,48.111,34.0,-21.19,29.03,-23.189999999999998,31.9875,0.0,1782.108,-0.9299999999999997,100.0,27.14,28.144,42.356,43.423,0.0,0.0,100.0,0.0,0.0,0.0,0.0,3134.0,3254.0,3923.777777777778,4082.6000000000004,305.5735,304.397,315.3105,314.669,21.926,20.5932,21.9324,21.4549,314.999998,314.999998,324.999988,324.999988,99.55868571428572,99.50726666666667,99.56715714285714,99.54742857142857,0.16300000000000026,0.04133333333333322,-0.025666666666666615,0.1968333333333332,-0.04833333333333201,-0.036666666666668846,1.5625,1.5215,38.038,29.707666666666668,38.078,35.093,55.934,35.001,59.586,52.5755,53.870999999999995,34.141999999999996,58.1745,50.8955,53.034,33.694,58.093,50.302,-0.15000000000000002,-0.0024999999999999467,0.09888000000000001,0.10748,0.0,212.175,212.25,209.11,209.11,0.0,0.0
17,0.0,0.0,0.0,1.0,1.0,0.0,0.0,1.0,0.0,100.0,1.0,1.1856,26.0,0.0,0.0,0.0,57.999998,0.0,26.0,26.0,26.0,26.0,0.11362500000000009,0.28280000000000016,0.011775,292.404,-2.7639,-2.567625,-1.6416,-1.4761,-218.43,215.96,190.637125,0.0,0.0,0.0,0.0,0.0348666666666666,-5.498166666666667,-5.498166666666667,-0.5479,0.405,0.05055555555555569,0.912,67.919,0.07880000000000001,-0.205075,-1.217999999999999,100.0,1.0,1.0,209.43333333333334,0.0,0.0,0.0,0.0,0.0,0.0,0.0,8877.2,0.0,55.0,5.0,244.47666666666666,1.0,0.0,0.0,0.0,0.0,0.0,1.0,0.0,0.8610000000000007,0.8610000000000007,0.0,0.0,1.0,55.0,616.79921,10000.0,85.000001,85.000001,85.000001,85.000001,395.0,0.0,0.0,0.0,1.0,166.665,52.429,52.429,47.577,47.577,34.0,-18.955,28.33,-26.093333333333334,34.8425,0.0,1782.058,-1.0,100.0,27.789,28.216,42.336,43.353,0.0,0.0,100.0,0.0,0.0,0.0,0.0,3001.285714285714,3194.5,4276.222222222223,4405.8,305.6865,304.7393333333333,314.49275,314.03525,21.9355,20.5989,21.9427,21.464,314.999998,314.999998,324.999988,324.999988,99.55871428571429,99.50726666666667,99.5673,99.54757142857143,0.18900000000000006,0.04800000000000004,-0.018000000000000016,0.20233333333333325,-0.02833333333332888,-0.04333333333332945,1.5165,1.47,38.097,29.743000000000002,38.141999999999996,35.15,55.926,35.042500000000004,59.622,52.638,53.864000000000004,34.18,58.208,50.9555,53.025,33.7305,58.1235,50.361000000000004,-0.16000000000000003,-0.0035000000000000586,0.10822500000000002,0.10264000000000001,0.0,212.64499999999998,212.71,209.43333333333334,209.43333333333334,0.0,0.0
18,0.0,0.0,0.0,1.0,1.0,0.0,0.0,1.0,0.0,100.0,1.0,1.1856,26.0,0.0,0.0,0.0,57.999998,0.0,26.0,26.0,26.0,26.0,0.12650000000000006,0.28310000000000013,-0.006925000000000001,292.389,-2.7983,-2.5395000000000003,-1.657,-1.4195,-215.16,215.95,190.616,0.0,0.0,0.0,0.0,0.036766666666666614,-5.498166666666667,-5.498166666666667,-0.5622,-0.44700000000000006,0.07499999999999996,1.007,68.049,0.0847,-0.225575,-1.387999999999999,100.0,1.0,1.0,209.88333333333333,0.0,0.0,0.0,0.0,0.0,0.0,0.0,8896.1,0.0,55.0,5.0,244.94666666666666,0.0,0.0,0.0,0.0,0.0,0.0,1.0,0.0,0.9089999999999989,0.9089999999999989,0.0,0.0,0.0,55.0,616.79921,10000.0,85.000001,85.000001,85.000001,85.000001,395.0,0.0,0.0,0.0,1.0,166.665,52.185,52.185,47.653,47.653,34.0,-19.1125,31.276,-23.886666666666663,33.2775,0.0,1782.011,-1.25,100.0,27.576999999999998,28.155,42.569,43.695,0.0,0.0,100.0,0.0,0.0,0.0,0.0,3027.285714285714,3429.7,4017.6666666666665,4263.7,305.6645,304.04466666666667,315.07975,314.3475,21.9443,20.6041,21.9526,21.4727,314.999998,314.999998,324.999988,324.999988,99.55872857142857,99.50726666666667,99.56744285714285,99.54772857142858,0.19600000000000017,0.06599999999999984,-0.011333333333333306,0.21550000000000002,-0.03499999999999659,-0.05666666666667197,1.579,1.5030000000000001,38.152,29.775666666666666,38.204,35.204499999999996,55.918,35.081,59.6575,52.698,53.855000000000004,34.2155,58.241,51.0135,53.015,33.7645,58.1535,50.41766666666666,-0.17399999999999993,0.012499999999999956,0.10999,0.10717000000000002,0.0,212.995,213.11,209.88333333333333,209.88333333333333,0.0,0.0
19,0.0,0.0,0.0,1.0,1.0,0.0,0.0,1.0,0.0,100.0,1.0,1.1856,26.0,0.0,0.0,0.0,57.999998,0.0,26.0,26.0,26.0,26.0,0.1805000000000001,0.2875000000000001,0.059025,291.946,-2.7233,-2.632375,-1.5944,-1.4014,-211.69,215.9425,190.593375,0.0,0.0,0.0,0.0,0.038799999999999946,-5.498166666666667,-5.498166666666667,-0.5477000000000001,0.7755,0.08544444444444421,-0.536,68.186,0.0955,-0.210125,-1.63,100.0,1.0,1.0,210.25333333333333,0.0,0.0,0.0,0.0,0.0,0.0,0.0,8911.8,0.0,55.0,5.0,245.44333333333333,1.0,0.0,0.0,0.0,0.0,0.0,1.0,0.0,0.9600000000000009,0.9600000000000009,0.0,0.0,1.0,55.0,616.79921,10000.0,85.000001,85.000001,85.000001,85.000001,395.0,0.0,0.0,0.0,1.0,166.665,51.834,51.834,47.363,47.363,34.0,-17.735,30.794,-23.973333333333333,36.0475,0.0,1781.96,-1.4949999999999992,100.0,27.905,28.852,42.274,43.891,0.0,0.0,100.0,0.0,0.0,0.0,0.0,3052.857142857143,3209.0,4209.444444444444,4499.4,305.611,304.31233333333336,314.64625,313.74425,21.9538,20.6099,21.9628,21.4819,314.999998,314.999998,324.999988,324.999988,99.55875714285715,99.50728333333333,99.56758571428571,99.54787142857143,0.21466666666666656,0.07699999999999996,-0.0006666666666665932,0.22533333333333339,-0.05666666666667197,-0.054999999999999716,1.5195,1.4635,38.211,29.811999999999998,38.268,35.262,55.912,35.125,59.692499999999995,52.7615,53.849000000000004,34.2565,58.2735,51.0745,53.007999999999996,33.804,58.1825,50.478,-0.1925,0.03749999999999998,0.109255,0.10900000000000001,0.0,213.465,213.575,210.25333333333333,210.25333333333333,0.0,0.0
20,0.0,0.0,0.0,1.0,1.0,0.0,0.0,1.0,0.0,100.0,1.0,1.1856,26.0,0.0,0.0,0.0,57.999998,0.0,26.0,26.0,26.0,26.0,0.17637499999999995,0.272,-0.056325,292.374,-2.831,-2.57625,-1.6062,-1.5178,-208.41,215.94,190.572375,0.0,0.0,0.0,0.0,0.04069999999999996,-5.498166666666667,-5.498166666666667,-0.5569000000000001,-1.149,0.09077777777777785,-1.0110000000000001,68.31700000000001,0.1071,-0.225025,-1.5420000000000007,100.0,1.0,1.0,210.60333333333335,0.0,0.0,0.0,0.0,0.0,0.0,0.0,8926.7,0.0,55.0,5.0,245.91333333333336,0.0,0.0,0.0,0.0,0.0,0.0,0.0,0.0,1.0079999999999991,1.0079999999999991,0.0,0.0,0.0,55.0,616.79921,10000.0,85.000001,85.000001,85.000001,85.000001,395.0,0.0,0.0,0.0,1.0,166.665,52.765,52.765,47.028,47.028,34.0,-18.73,28.084,-22.693333333333335,36.6375,0.0,1781.912,-0.6799999999999997,100.0,27.338,28.511,42.741,44.347,0.0,0.0,100.0,0.0,0.0,0.0,0.0,2846.714285714286,3178.3,4105.777777777777,4267.5,306.3665,304.594,314.83875,314.1065,21.9624,20.6152,21.9728,21.4908,314.999998,314.999998,324.999988,324.999988,99.55877142857143,99.5073,99.56771428571429,99.54801428571429,0.17566666666666642,0.03733333333333322,0.014666666666666606,0.24133333333333318,-0.03999999999999915,-0.03166666666666629,1.517,1.4529999999999998,38.265,29.845,38.33,35.317499999999995,55.900999999999996,35.164,59.7295,52.823,53.839,34.293,58.3075,51.134,52.995999999999995,33.839,58.214,50.53666666666666,-0.13749999999999996,-0.022499999999999964,0.104855,0.11200500000000001,0.0,213.81,213.925,210.60333333333335,210.60333333333335,0.0,0.0
21,0.0,0.0,0.0,1.0,1.0,0.0,0.0,1.0,0.0,100.0,1.0,1.1856,26.0,0.0,0.0,0.0,57.999998,0.0,26.0,26.0,26.0,26.0,0.10450000000000004,0.2876000000000001,-0.074075,292.603,-2.7737,-2.6014999999999997,-1.6486,-1.4969999999999999,-204.92000000000002,215.94,190.54925,0.0,0.0,0.0,0.0,0.0427333333333334,-5.498166666666667,-5.498166666666667,-0.5769000000000001,0.5715,0.05422222222222217,-0.10699999999999998,68.45,0.1039,-0.22082500000000002,-0.7460000000000004,100.0,1.0,1.0,211.22,0.0,0.0,0.0,0.0,0.0,0.0,0.0,8952.8,0.0,55.0,5.0,246.39,1.0,0.0,0.0,0.0,0.0,0.0,0.0,0.0,1.059000000000001,1.059000000000001,0.0,0.0,1.0,55.0,616.79921,10000.0,85.000001,85.000001,85.000001,85.000001,395.0,0.0,0.0,0.0,1.0,166.665,52.277,52.277,48.141,48.141,34.0,-21.2975,27.416,-23.116666666666664,32.575,0.0,1781.861,0.3550000000000004,100.0,27.826,28.432000000000002,42.256,43.688,0.0,0.0,100.0,0.0,0.0,0.0,0.0,2998.857142857143,3252.6,4030.8888888888887,4075.7,305.716,304.555,315.13,314.82525,21.9717,20.621,21.9829,21.4998,314.999998,314.999998,324.999988,324.999988,99.5588,99.5073,99.56785714285714,99.54815714285715,0.13600000000000012,0.0040000000000000036,0.0004999999999999449,0.22366666666666668,-0.05833333333333002,-0.060000000000002274,1.5965,1.5755,38.323,29.881,38.393,35.374,55.891,35.205,59.7615,52.882999999999996,53.829,34.331,58.3375,51.1915,52.985,33.8755,58.2405,50.593,-0.06499999999999995,-0.09250000000000003,0.10414000000000001,0.10118,0.0,214.32,214.35000000000002,211.22,211.22,0.0,0.0
22,0.0,0.0,0.0,1.0,1.0,0.0,0.0,1.0,0.0,100.0,1.0,1.1856,26.0,0.0,0.0,0.0,57.999998,0.0,26.0,26.0,26.0,26.0,0.06487500000000002,0.26970000000000005,-0.006525,292.114,-2.6925,-2.66825,-1.6313,-1.4991,-201.64,215.945,190.526875,0.0,0.0,0.0,0.0,0.0446333333333333,-5.498166666666667,-5.498166666666667,-0.5567,0.05499999999999994,0.0474444444444444,0.787,68.58,0.0721,-0.20522500000000002,0.258,100.0,1.0,1.0,211.43,0.0,0.0,0.0,0.0,0.0,0.0,0.0,8961.8,0.0,55.0,5.0,246.86,0.0,0.0,0.0,0.0,0.0,0.0,0.0,0.0,1.1069999999999993,1.1069999999999993,0.0,0.0,0.0,55.0,616.79921,10000.0,85.000001,85.000001,85.000001,85.000001,395.0,0.0,0.0,0.0,1.0,166.665,52.383,52.383,47.104,47.104,34.0,-21.345,25.183999999999997,-27.116666666666664,33.7025,0.0,1781.813,0.6600000000000001,100.0,28.043,28.367,42.951,43.852000000000004,0.0,0.0,100.0,0.0,0.0,0.0,0.0,2870.285714285714,3169.7,4195.0,4386.4,305.984,304.7176666666667,314.63825,314.08825,21.9806,20.6263,21.9928,21.5086,314.999998,314.999998,324.999988,324.999988,99.55881428571429,99.5073,99.568,99.5483,0.09466666666666645,-0.04699999999999993,-0.046666666666666634,0.17933333333333334,-0.03333333333333144,-0.05333333333332746,1.484,1.4835,38.379000000000005,29.91433333333333,38.455,35.4285,55.879000000000005,35.2425,59.799,52.942499999999995,53.818,34.365,58.372,51.249,52.973,33.908500000000004,58.272,50.64933333333333,-0.026499999999999968,-0.13200000000000012,0.10711000000000001,0.11165000000000001,0.0,214.72500000000002,214.71,211.43,211.43,0.0,0.0
23,0.0,0.0,0.0,1.0,1.0,0.0,0.0,1.0,0.0,100.0,1.0,1.1856,26.0,0.0,0.0,0.0,57.999998,0.0,26.0,26.0,26.0,26.0,-0.0003750000000000142,0.24439999999999995,-0.03815,292.145,-2.6974,-2.6435,-1.5354999999999999,-1.5897000000000001,-198.13,215.9475,190.503375,0.0,0.0,0.0,0.0,0.04666666666666652,-5.498166666666667,-5.498166666666667,-0.5765,-0.17300000000000004,0.014666666666666606,-1.124,68.714,0.0219,-0.23335,1.0380000000000003,100.0,1.0,1.0,211.97,0.0,0.0,0.0,0.0,0.0,0.0,0.0,8984.6,0.0,55.0,5.0,247.34333333333336,1.0,0.0,0.0,0.0,0.0,0.0,0.0,0.0,1.1580000000000013,1.1580000000000013,0.0,0.0,1.0,55.0,616.79921,10000.0,85.000001,85.000001,85.000001,85.000001,395.0,0.0,0.0,0.0,1.0,333.33500000000004,51.666,51.666,48.187,48.187,34.0,-27.08,22.814,-27.21,27.28,0.0,1781.76,0.7650000000000006,100.0,28.366,28.462,43.17,43.949,0.0,0.0,100.0,0.0,0.0,0.0,0.0,3309.285714285714,3077.7,3956.8888888888887,3925.4,304.86,304.89166666666665,315.22525,315.042,21.99,20.6319,22.0033,21.5178,314.999998,314.999998,324.999988,324.999988,99.55881428571429,99.50731666666667,99.56814285714286,99.54844285714286,0.049666666666666526,-0.08099999999999996,-0.11516666666666664,0.11050000000000004,-0.03999999999999915,-0.03499999999999659,1.532,1.561,38.438,29.949333333333335,38.521,35.4865,55.866,35.283500000000004,59.836,53.004,53.805,34.403,58.4065,51.3085,52.959,33.945,58.3035,50.70733333333334,-0.018000000000000016,-0.13450000000000006,0.10565500000000001,0.10628000000000001,0.0,215.16,215.085,211.97,211.97,0.0,0.0
24,0.0,0.0,0.0,1.0,1.0,0.0,0.0,1.0,0.0,100.0,1.0,1.1856,26.0,0.0,0.0,0.0,57.999998,0.0,26.0,26.0,26.0,26.0,-0.06412499999999999,0.26859999999999995,-0.09345,292.435,-2.6947,-2.683125,-1.5611000000000002,-1.5495999999999999,-194.63,215.9525,190.4795,0.0,0.0,0.0,0.0,0.048699999999999966,-5.498166666666667,-5.498166666666667,-0.5823,-0.71,0.0020000000000000018,0.619,68.85,-0.0221,-0.2189,1.1420000000000012,100.0,1.0,1.0,212.28333333333333,0.0,0.0,0.0,0.0,0.0,0.0,0.0,8997.8,0.0,55.0,5.0,247.83333333333334,0.0,0.0,0.0,0.0,0.0,0.0,0.0,0.0,1.2089999999999996,1.2089999999999996,0.0,0.0,0.0,55.0,616.79921,10000.0,85.000001,85.000001,85.000001,85.000001,395.0,0.0,0.0,0.0,1.0,166.665,52.917,52.917,47.119,47.119,34.0,-24.315,20.665999999999997,-31.87,26.427500000000002,0.0,1781.709,0.6999999999999993,100.0,28.227,27.865000000000002,43.563,43.476,0.0,0.0,100.0,0.0,0.0,0.0,0.0,2915.857142857143,2955.3,4262.0,4113.9,305.9515,305.465,314.439,314.7135,21.9994,20.6373,22.0138,21.5269,314.999998,314.999998,324.999988,324.999988,99.55882857142858,99.50731666666667,99.56828571428571,99.5486,0.02733333333333343,-0.1116666666666668,-0.14149999999999996,0.07433333333333336,-0.026666666666670835,-0.06333333333333258,1.476,1.5255,38.495999999999995,29.983,38.586,35.543,55.849000000000004,35.323,59.8745,53.063,53.789,34.44,58.443,51.365,52.943,33.980000000000004,58.3365,50.763,-0.02100000000000002,-0.13949999999999996,0.10081000000000001,0.10455,0.0,215.57999999999998,215.51,212.28333333333333,212.28333333333333,0.0,0.0
25,0.0,0.0,0.0,1.0,1.0,0.0,0.0,1.0,0.0,100.0,1.0,1.1856,26.0,0.0,0.0,0.0,57.999998,0.0,26.0,26.0,26.0,26.0,-0.10712500000000003,0.2653000000000001,-0.06965,292.297,-2.7383,-2.66625,-1.5531000000000001,-1.5716,-191.32,215.95499999999998,190.4555,0.0,0.0,0.0,0.0,0.05063333333333331,-5.498166666666667,-5.498166666666667,-0.6134000000000001,0.05249999999999999,-0.016111111111110965,-0.3700000000000001,68.974,-0.0577,-0.2258,1.267999999999999,100.0,1.0,1.0,212.80666666666667,0.0,0.0,0.0,0.0,0.0,0.0,0.0,9020.1,0.0,55.0,5.0,248.28,1.0,0.0,0.0,0.0,0.0,0.0,0.0,0.0,1.256999999999998,1.256999999999998,0.0,0.0,1.0,55.0,616.79921,10000.0,85.000001,85.000001,85.000001,85.000001,395.0,0.0,0.0,0.0,1.0,166.665,51.772999999999996,51.772999999999996,48.004,48.004,34.0,-29.2175,22.322000000000003,-30.143333333333334,24.645,0.0,1781.662,0.625,100.0,28.38,27.953,43.372,43.007,0.0,0.0,100.0,0.0,0.0,0.0,0.0,3301.857142857143,3276.5,3984.3333333333335,3974.0,304.8895,304.51033333333334,315.19275,315.055,22.0082,20.6425,22.0235,21.5354,314.999998,314.999998,324.999988,324.999988,99.55882857142858,99.50733333333334,99.56842857142857,99.54874285714286,0.009333333333333194,-0.1283333333333332,-0.16999999999999993,0.05966666666666676,-0.04833333333333201,-0.05333333333332746,1.567,1.5985,38.551,30.015666666666668,38.647,35.596000000000004,55.834,35.3635,59.908,53.116,53.774,34.477000000000004,58.474000000000004,51.416,52.927,34.0155,58.365,50.812666666666665,-0.02949999999999997,-0.13349999999999995,0.10164500000000001,0.11321,0.0,215.98000000000002,215.875,212.80666666666667,212.80666666666667,0.0,0.0
26,0.0,0.0,0.0,1.0,1.0,0.0,0.0,1.0,0.0,100.0,1.0,1.1856,26.0,0.0,0.0,0.0,57.999998,0.0,26.0,26.0,26.0,26.0,-0.13149999999999995,0.2794000000000001,0.0582,291.153,-2.6621,-2.7658750000000003,-1.5838,-1.5872000000000002,-187.8,215.95499999999998,190.42975,0.0,0.0,0.0,0.0,0.05269999999999997,-5.498166666666667,-5.498166666666667,-0.5702,0.6265000000000001,-0.06000000000000005,-1.1510000000000002,69.111,-0.07880000000000001,-0.19725,1.2040000000000006,100.0,1.0,1.0,212.94333333333333,0.0,0.0,0.0,0.0,0.0,0.0,0.0,9025.9,0.0,55.0,5.0,248.76999999999998,0.0,0.0,0.0,0.0,0.0,0.0,0.0,0.0,1.3079999999999998,1.3079999999999998,0.0,0.0,0.0,55.0,616.79921,10000.0,85.000001,85.000001,85.000001,85.000001,395.0,0.0,0.0,0.0,1.0,166.665,51.468,51.468,46.143,46.143,34.0,-29.14,19.784,-39.95333333333333,26.4375,0.0,1781.611,0.41000000000000014,100.0,29.234,28.576999999999998,44.111000000000004,43.332,0.0,0.0,100.0,0.0,0.0,0.0,0.0,3339.714285714286,2919.8,4691.333333333333,4419.5,304.82,305.31166666666667,313.57,313.9665,22.0179,20.6481,22.0341,21.5446,314.999998,314.999998,324.999988,324.999988,99.55882857142858,99.50735,99.56858571428572,99.54888571428572,0.002000000000000224,-0.15100000000000002,-0.20533333333333337,0.018000000000000016,-0.046666666666666856,-0.051666666666669414,1.421,1.4645000000000001,38.611999999999995,30.050666666666665,38.713,35.653999999999996,55.821,35.409,59.9505,53.1765,53.762,34.519,58.513999999999996,51.4745,52.914,34.056,58.4015,50.86966666666667,-0.05449999999999999,-0.11499999999999999,0.10705,0.10463000000000001,0.0,216.44,216.32999999999998,212.94333333333333,212.94333333333333,0.0,0.0
27,0.0,0.0,0.0,1.0,1.0,0.0,0.0,1.0,0.0,100.0,1.0,1.1856,26.0,0.0,0.0,0.0,57.999998,0.0,26.0,26.0,26.0,26.0,-0.107375,0.25160000000000005,-0.032850000000000004,291.672,-2.621,-2.7436249999999998,-1.5655000000000001,-1.6649,-184.48000000000002,215.95499999999998,190.40675,0.0,0.0,0.0,0.0,0.05459999999999998,-5.498166666666667,-5.498166666666667,-0.5995,-1.0350000000000001,-0.06622222222222218,-0.629,69.235,-0.0829,-0.24502500000000002,0.9699999999999998,100.0,1.0,1.0,213.46333333333334,0.0,0.0,0.0,0.0,0.0,0.0,0.0,9047.9,0.0,55.0,5.0,249.22,1.0,0.0,0.0,0.0,0.0,0.0,0.0,0.0,1.355999999999998,1.355999999999998,0.0,0.0,1.0,55.0,616.79921,10000.0,85.000001,85.000001,85.000001,85.000001,395.0,0.0,0.0,0.0,1.0,166.665,51.788,51.788,46.768,46.768,34.0,-28.29,20.13,-33.82333333333333,24.0375,0.0,1781.564,0.3550000000000004,100.0,28.975,28.234,44.835,43.736000000000004,0.0,0.0,100.0,0.0,0.0,0.0,0.0,3286.285714285714,2987.8,4170.888888888889,3958.5,304.9835,305.2126666666667,314.737,314.95175,22.0268,20.6532,22.0442,21.5534,314.999998,314.999998,324.999988,324.999988,99.55884285714286,99.50736666666667,99.56872857142857,99.54901428571429,0.0003333333333332966,-0.1483333333333332,-0.19799999999999995,0.015666666666666718,-0.05666666666667197,-0.045000000000001705,1.494,1.5190000000000001,38.668,30.082333333333334,38.775999999999996,35.7085,55.807,35.448499999999996,59.9905,53.233000000000004,53.748000000000005,34.556,58.551,51.5285,52.9,34.091,58.436,50.922333333333334,-0.0615,-0.1060000000000001,0.09847,0.108475,0.0,216.755,216.67000000000002,213.46333333333334,213.46333333333334,0.0,0.0
28,0.0,0.0,0.0,1.0,1.0,0.0,0.0,1.0,0.0,100.0,1.0,1.1856,26.0,0.0,0.0,0.0,57.999998,0.0,26.0,26.0,26.0,26.0,-0.09337499999999999,0.2711000000000001,-0.054150000000000004,291.901,-2.6447,-2.721375,-1.5448,-1.6221999999999999,-180.73000000000002,215.9475,190.37975,0.0,0.0,0.0,0.0,0.05679999999999996,-5.498166666666667,-5.498166666666667,-0.5979,0.679,-0.06722222222222207,-0.544,69.373,-0.0816,-0.21075000000000002,0.8380000000000001,100.0,1.0,1.0,213.94666666666666,0.0,0.0,0.0,0.0,0.0,0.0,0.0,9068.5,0.0,55.0,5.0,249.71666666666667,0.0,0.0,0.0,0.0,0.0,0.0,0.0,0.0,1.4100000000000001,1.4100000000000001,0.0,0.0,0.0,55.0,616.79921,10000.0,85.000001,85.000001,85.000001,85.000001,395.0,0.0,0.0,0.0,1.0,166.665,51.91,51.91,47.287,47.287,34.0,-28.23,19.787999999999997,-34.16333333333333,24.4425,0.0,1781.509,0.1999999999999993,100.0,29.019,28.137999999999998,44.121,43.189,0.0,0.0,100.0,0.0,0.0,0.0,0.0,3264.142857142857,2916.2,4255.666666666667,4085.8,304.989,305.40166666666664,314.68,314.758,22.0369,20.659,22.0551,21.5629,314.999998,314.999998,324.999988,324.999988,99.55884285714286,99.5074,99.56887142857143,99.54917142857143,0.003666666666666707,-0.139,-0.20199999999999996,0.021666666666666723,-0.054999999999999716,-0.03833333333332689,1.5295,1.5535,38.730999999999995,30.118666666666666,38.845,35.7685,55.792,35.494,60.028,53.292500000000004,53.735,34.5975,58.5865,51.585499999999996,52.885,34.131,58.468,50.978,-0.06499999999999995,-0.09650000000000003,0.10748500000000001,0.103525,0.0,217.245,217.14,213.94666666666666,213.94666666666666,0.0,0.0
29,0.0,0.0,0.0,1.0,1.0,0.0,0.0,1.0,0.0,100.0,1.0,1.1856,26.0,0.0,0.0,0.0,57.999998,0.0,26.0,26.0,26.0,26.0,-0.09537499999999999,0.258,-0.007,291.641,-2.5954,-2.778625,-1.5554999999999999,-1.5985,-177.19,215.94,190.35325,0.0,0.0,0.0,0.0,0.058833333333333404,-5.498166666666667,-5.498166666666667,-0.6103000000000001,-0.7310000000000001,-0.058111111111111224,0.881,69.507,-0.0728,-0.222175,0.524,100.0,1.0,1.0,214.25,0.0,0.0,0.0,0.0,0.0,0.0,0.0,9081.2,0.0,55.0,5.0,250.2,1.0,0.0,0.0,0.0,0.0,0.0,0.0,0.0,1.4609999999999985,1.4609999999999985,0.0,0.0,1.0,55.0,616.79921,10000.0,85.000001,85.000001,85.000001,85.000001,395.0,0.0,0.0,0.0,1.0,166.665,51.804,51.804,46.875,46.875,34.0,-26.8325,22.426,-32.80666666666667,26.535,0.0,1781.458,0.08999999999999986,100.0,28.897,27.945,44.582,43.437,0.0,0.0,100.0,0.0,0.0,0.0,0.0,3240.0,3088.6,4159.0,4203.6,304.9665,304.99966666666666,314.67725,314.493,22.0462,20.6644,22.0658,21.5722,314.999998,314.999998,324.999988,324.999988,99.55884285714286,99.5074,99.56902857142857,99.54932857142857,0.022333333333333094,-0.11833333333333318,-0.17866666666666664,0.04800000000000004,-0.03333333333333144,-0.04833333333333201,1.4809999999999999,1.502,38.789,30.15266666666667,38.911,35.826499999999996,55.775,35.535,60.0695,53.3525,53.719,34.6355,58.625,51.6435,52.867999999999995,34.167,58.5035,51.034333333333336,-0.07399999999999995,-0.08800000000000008,0.10455,0.10502,0.0,217.57,217.535,214.25,214.25,0.0,0.0
30,0.0,0.0,0.0,1.0,1.0,0.0,0.0,1.0,0.0,100.0,1.0,1.1856,26.0,0.0,0.0,0.0,57.999998,0.0,26.0,26.0,26.0,26.0,-0.08612500000000001,0.2639,0.04245,291.168,-2.6521,-2.763875,-1.499,-1.6541000000000001,-173.85,215.93,190.328375,0.0,0.0,0.0,0.0,0.060799999999999965,-5.498166666666667,-5.498166666666667,-0.6,0.8614999999999999,-0.05655555555555569,0.906,69.628,-0.06280000000000001,-0.213875,0.49600000000000044,100.0,1.0,1.0,214.66,0.0,0.0,0.0,0.0,0.0,0.0,0.0,9098.7,0.0,55.0,5.0,250.63666666666666,0.0,0.0,0.0,0.0,0.0,0.0,1.0,0.0,1.5090000000000003,1.5090000000000003,0.0,0.0,0.0,55.0,616.79921,10000.0,85.000001,85.000001,85.000001,85.000001,395.0,0.0,0.0,0.0,1.0,166.665,50.873,50.873,46.967,46.967,34.0,-27.845,23.352,-32.45333333333333,27.59,0.0,1781.41,-0.08999999999999986,100.0,29.735,28.607,44.4,43.473,0.0,0.0,100.0,0.0,0.0,0.0,0.0,3375.4285714285716,3165.8,4245.888888888889,4178.9,304.545,304.92633333333333,314.5465,314.51725,22.0554,20.6698,22.0756,21.5809,314.999998,314.999998,324.999988,324.999988,99.55884285714286,99.50741666666667,99.56917142857142,99.54945714285714,0.04166666666666696,-0.10466666666666669,-0.17333333333333334,0.05449999999999999,-0.03499999999999659,-0.060000000000002274,1.4815,1.4929999999999999,38.846000000000004,30.186333333333334,38.972,35.8805,55.765,35.5775,60.104,53.4075,53.709,34.6745,58.6575,51.6965,52.858000000000004,34.204,58.533,51.08566666666667,-0.08750000000000002,-0.08350000000000013,0.10209000000000001,0.11302500000000001,0.0,218.0,217.97,214.66,214.66,0.0,0.0
31,0.0,0.0,0.0,1.0,1.0,0.0,0.0,1.0,0.0,100.0,1.0,1.1856,26.0,0.0,0.0,0.0,57.999998,0.0,26.0,26.0,26.0,26.0,-0.07274999999999998,0.24940000000000007,-0.01235,291.0,-2.7199,-2.644125,-1.546,-1.6478000000000002,-170.51,215.91750000000002,190.304125,0.0,0.0,0.0,0.0,0.06273333333333331,-5.498166666666667,-5.498166666666667,-0.5906,-0.704,-0.0474444444444444,0.86,69.753,-0.0473,-0.2207,0.1200000000000001,100.0,1.0,1.0,214.94,0.0,0.0,0.0,0.0,0.0,0.0,0.0,9110.5,0.0,55.0,5.0,251.08333333333334,1.0,0.0,0.0,0.0,0.0,0.0,1.0,0.0,1.5569999999999986,1.5569999999999986,0.0,0.0,1.0,55.0,616.79921,10000.0,85.000001,85.000001,85.000001,85.000001,395.0,0.0,0.0,0.0,1.0,333.33500000000004,51.437,51.437,45.609,45.609,34.0,-25.74,23.484,-32.93666666666667,29.4825,0.0,1781.361,-0.14000000000000057,100.0,29.276,28.609,45.087,44.138000000000005,0.0,0.0,100.0,0.0,0.0,0.0,0.0,3173.285714285714,3236.8,4325.333333333333,4285.7,305.301,304.78166666666664,314.25075,314.35525,22.0642,20.6751,22.0857,21.5898,314.999998,314.999998,324.999988,324.999988,99.55885714285715,99.50743333333334,99.56931428571428,99.5496,0.05566666666666675,-0.08799999999999986,-0.15100000000000002,0.07483333333333331,-0.036666666666668846,-0.051666666666669414,1.4575,1.4585,38.900999999999996,30.21933333333333,39.035,35.936,55.751999999999995,35.617,60.1435,53.466,53.696,34.711,58.6945,51.752,52.844,34.239,58.567,51.14033333333333,-0.09899999999999998,-0.07000000000000006,0.10979000000000001,0.101495,0.0,218.34,218.32999999999998,214.94,214.94,0.0,0.0
32,0.0,0.0,0.0,1.0,1.0,0.0,0.0,1.0,0.0,100.0,1.0,1.1856,26.0,0.0,0.0,0.0,57.999998,0.0,26.0,26.0,26.0,26.0,-0.04074999999999995,0.26270000000000016,-0.025925,291.199,-2.6672,-2.7350000000000003,-1.6182,-1.5509,-166.95,215.905,190.2785,0.0,0.0,0.0,0.0,0.06479999999999997,-5.498166666666667,-5.498166666666667,-0.6077,0.13249999999999995,-0.06733333333333347,-0.841,69.88,-0.0324,-0.226825,0.11799999999999944,100.0,1.0,1.0,215.45666666666668,0.0,0.0,0.0,0.0,0.0,0.0,0.0,9132.4,0.0,55.0,5.0,251.54000000000002,0.0,0.0,0.0,0.0,0.0,0.0,1.0,0.0,1.6080000000000005,1.6080000000000005,0.0,0.0,0.0,55.0,616.79921,10000.0,85.000001,85.000001,85.000001,85.000001,395.0,0.0,0.0,0.0,1.0,166.665,51.254,51.254,46.555,46.555,34.0,-26.75,23.25,-32.75,27.615000000000002,0.0,1781.311,-0.1750000000000007,100.0,29.134,28.883,44.542,44.041,0.0,0.0,100.0,0.0,0.0,0.0,0.0,3365.714285714286,3045.4,4282.666666666667,4209.8,304.79,305.0196666666667,314.60475,314.558,22.0736,20.6808,22.0961,21.599,314.999998,314.999998,324.999988,324.999988,99.55887142857142,99.50745,99.56947142857143,99.54974285714286,0.06033333333333335,-0.08366666666666678,-0.14816666666666656,0.08316666666666683,-0.04833333333333201,-0.05333333333332746,1.5195,1.5255,38.96,30.255,39.1,35.9935,55.739000000000004,35.659,60.1795,53.5235,53.684,34.7495,58.728,51.8075,52.831,34.275999999999996,58.5975,51.19433333333333,-0.09899999999999998,-0.06699999999999995,0.103675,0.10801000000000001,0.0,218.75,218.73000000000002,215.45666666666668,215.45666666666668,0.0,0.0
33,0.0,0.0,0.0,1.0,1.0,0.0,0.0,1.0,0.0,100.0,1.0,1.1856,26.0,0.0,0.0,0.0,57.999998,0.0,26.0,26.0,26.0,26.0,-0.020874999999999977,0.268,-0.023675,291.367,-2.6819,-2.72075,-1.5556999999999999,-1.624,-163.59,215.89,190.253375,0.0,0.0,0.0,0.0,0.06676666666666653,-5.498166666666667,-5.498166666666667,-0.6131,-0.47950000000000004,-0.05544444444444441,0.14200000000000002,70.003,-0.0198,-0.21677500000000002,0.06799999999999962,100.0,1.0,1.0,215.74333333333334,0.0,0.0,0.0,0.0,0.0,0.0,0.0,9144.5,0.0,55.0,5.0,251.98666666666668,1.0,0.0,0.0,0.0,0.0,0.0,1.0,0.0,1.6559999999999988,1.6559999999999988,0.0,0.0,1.0,55.0,616.79921,10000.0,85.000001,85.000001,85.000001,85.000001,395.0,0.0,0.0,0.0,1.0,333.33500000000004,51.788,51.788,46.509,46.509,34.0,-24.9525,22.677999999999997,-31.133333333333333,29.4025,0.0,1781.262,-0.23000000000000043,100.0,28.955,28.651,44.49,44.155,0.0,0.0,100.0,0.0,0.0,0.0,0.0,3213.5714285714284,2971.0,4254.555555555556,4253.8,305.2865,305.28866666666664,314.5255,314.341,22.0824,20.6859,22.1059,21.6077,314.999998,314.999998,324.999988,324.999988,99.55887142857142,99.50745,99.56961428571428,99.54988571428571,0.07100000000000017,-0.07766666666666677,-0.13149999999999995,0.08483333333333332,-0.02833333333332888,-0.04333333333332945,1.484,1.4935,39.015,30.287,39.162,36.0485,55.727000000000004,35.6945,60.215,53.579499999999996,53.673,34.783,58.760999999999996,51.8615,52.818,34.308,58.6275,51.24666666666667,-0.10299999999999998,-0.06499999999999995,0.10289500000000001,0.10988500000000001,0.0,219.115,219.085,215.74333333333334,215.74333333333334,0.0,0.0
34,0.0,0.0,0.0,1.0,1.0,0.0,0.0,1.0,0.0,100.0,1.0,1.1856,26.0,0.0,0.0,0.0,57.999998,0.0,26.0,26.0,26.0,26.0,-0.024249999999999994,0.25060000000000016,-0.045175,291.748,-2.6994,-2.7025,-1.6223,-1.5792000000000002,-160.01999999999998,215.875,190.2255,0.0,0.0,0.0,0.0,0.0688333333333333,-5.498166666666667,-5.498166666666667,-0.6452,-0.7035,-0.01622222222222236,1.184,70.131,-0.009300000000000001,-0.227025,-0.04999999999999982,100.0,1.0,1.0,216.2,0.0,0.0,0.0,0.0,0.0,0.0,0.0,9164.0,0.0,55.0,5.0,252.44666666666666,0.0,0.0,0.0,0.0,0.0,0.0,1.0,0.0,1.7070000000000007,1.7070000000000007,0.0,0.0,0.0,55.0,616.79921,10000.0,85.000001,85.000001,85.000001,85.000001,395.0,0.0,0.0,0.0,1.0,166.665,52.063,52.063,47.287,47.287,34.0,-23.3275,23.91,-29.153333333333336,29.4025,0.0,1781.211,-0.254999999999999,100.0,28.785,28.232,44.184,44.141000000000005,0.0,0.0,100.0,0.0,0.0,0.0,0.0,3032.714285714286,3076.2,4040.3333333333335,4190.4,305.4825,305.069,315.08075,314.53225,22.0917,20.6915,22.1162,21.617,314.999998,314.999998,324.999988,324.999988,99.55888571428571,99.50746666666667,99.56975714285714,99.55004285714286,0.08466666666666667,-0.06366666666666676,-0.1163333333333334,0.11050000000000004,-0.03333333333333144,-0.054999999999999716,1.5225,1.529,39.073,30.321666666666665,39.227000000000004,36.1065,55.713,35.7325,60.2495,53.638999999999996,53.66,34.818,58.7935,51.9185,52.805,34.341499999999996,58.6565,51.30233333333334,-0.10150000000000003,-0.06099999999999994,0.1053,0.112615,0.0,219.47500000000002,219.495,216.2,216.2,0.0,0.0
35,0.0,0.0,0.0,1.0,1.0,0.0,0.0,1.0,0.0,100.0,1.0,1.1856,26.0,0.0,0.0,0.0,57.999998,0.0,26.0,26.0,26.0,26.0,0.00012499999999993072,0.24770000000000003,-0.06935000000000001,291.748,-2.6941,-2.6635,-1.6,-1.5373999999999999,-156.23000000000002,215.85750000000002,190.193625,0.0,0.0,0.0,0.0,0.07103333333333339,-5.498166666666667,-5.498166666666667,-0.6847000000000001,-0.15749999999999997,-0.032444444444444276,-0.2450000000000001,70.265,-0.0007,-0.22805,-0.18799999999999972,100.0,1.0,1.0,216.71,0.0,0.0,0.0,0.0,0.0,0.0,0.0,9185.5,0.0,55.0,5.0,252.93,1.0,0.0,0.0,0.0,0.0,0.0,1.0,0.0,1.7609999999999992,1.7609999999999992,0.0,0.0,1.0,55.0,616.79921,10000.0,85.000001,85.000001,85.000001,85.000001,395.0,0.0,0.0,0.0,1.0,166.665,51.453,51.453,46.967,46.967,34.0,-23.78,27.222,-27.666666666666664,27.502499999999998,0.0,1781.159,-0.245000000000001,100.0,28.598,28.612000000000002,43.906,43.68,0.0,0.0,100.0,0.0,0.0,0.0,0.0,3138.5714285714284,3397.6,3982.5555555555557,3959.6000000000004,305.3355,304.128,315.18175,315.119,22.1013,20.6975,22.1271,21.6267,314.999998,314.999998,324.999988,324.999988,99.5589,99.50746666666667,99.56991428571429,99.5502,0.08999999999999986,-0.045666666666666744,-0.10383333333333333,0.12566666666666682,-0.046666666666666856,-0.03999999999999915,1.555,1.558,39.132999999999996,30.359666666666666,39.294,36.167,55.697,35.775,60.2855,53.698,53.644,34.857,58.827,51.9755,52.788,34.379,58.6865,51.358000000000004,-0.09850000000000003,-0.06499999999999995,0.10529000000000001,0.10776500000000001,0.0,219.925,219.905,216.71,216.71,0.0,0.0
36,0.0,0.0,0.0,1.0,1.0,0.0,0.0,1.0,0.0,100.0,1.0,1.1856,26.0,0.0,0.0,0.0,57.999998,0.0,26.0,26.0,26.0,26.0,0.011249999999999982,0.26270000000000016,0.04675,290.741,-2.6294,-2.6765,-1.556,-1.5897999999999999,-153.06,215.8425,190.16575,0.0,0.0,0.0,0.0,0.07286666666666652,-5.498166666666667,-5.498166666666667,-0.664,0.2835,-0.06811111111111146,-1.1480000000000001,70.381,0.0036000000000000003,-0.20155,0.0,100.0,1.0,1.0,216.79666666666668,0.0,0.0,0.0,0.0,0.0,0.0,0.0,9189.2,0.0,55.0,5.0,253.34333333333336,0.0,0.0,0.0,0.0,0.0,0.0,1.0,0.0,1.806000000000001,1.806000000000001,0.0,0.0,0.0,55.0,616.79921,10000.0,85.000001,85.000001,85.000001,85.000001,395.0,0.0,0.0,0.0,1.0,333.33500000000004,51.132,51.132,46.158,46.158,34.0,-24.025,24.636,-32.20333333333333,32.8725,0.0,1781.112,-0.19000000000000128,100.0,29.028,28.994,44.106,44.157,0.0,0.0,100.0,0.0,0.0,0.0,0.0,3260.5714285714284,3129.8,4485.444444444444,4503.3,304.829,304.7776666666667,314.049,313.757,22.1095,20.7027,22.1363,21.634999999999998,314.999998,314.999998,324.999988,324.999988,99.5589,99.50748333333334,99.57005714285714,99.55032857142857,0.09799999999999986,-0.056333333333333124,-0.11183333333333334,0.1146666666666667,-0.04833333333333201,-0.04999999999999716,1.435,1.4529999999999998,39.185,30.391666666666666,39.352000000000004,36.2185,55.688,35.811,60.3185,53.7515,53.635999999999996,34.89,58.858000000000004,52.027,52.778999999999996,34.4105,58.7145,51.40833333333333,-0.10250000000000004,-0.0665,0.10188000000000001,0.111875,0.0,220.305,220.285,216.79666666666668,216.79666666666668,0.0,0.0
