,ABS Active,ABS Enabled,AID Allow Tire Blankets,AID Auto Blip,AID Auto Clutch,AID Auto Shift,AID Fuel Rate,AID Ideal Line,AID Mech Damage,AID Stability,AID Tire Wear Rate,Air Density,Air Temp,Ballast,Best Lap Delta,Best Lap Time,Brake Bias,Brake Pos,Brake Temp FL,Brake Temp FR,Brake Temp RL,Brake Temp RR,CG Accel Lateral,CG Accel Longitudinal,CG Accel Vertical,CG Height,Camber FL,Camber FR,Camber RL,Camber RR,Car Coord X,Car Coord Y,Car Coord Z,Car Damage Front,Car Damage Left,Car Damage Rear,Car Damage Right,Car Pos Norm,Caster FL,Caster FR,Chassis Pitch Angle,Chassis Pitch Rate,Chassis Roll Angle,Chassis Roll Rate,Chassis Velocity X,Chassis Velocity Y,Chassis Velocity Z,Chassis Yaw Rate,Clutch Pos,DRS Active,DRS Available,Drive Train Speed,ERS Heat Charging,ERS Is Charging,ERS Max Energy,ERS Power Level,ERS Recovery Level,Engine Brake Setting,Engine Limiter,Engine RPM,Flags,Fuel Level,Gear,Ground Speed,HR Sample Clock,In Pit,KERS Charge,KERS Deployed Energy,KERS Input,KERS Max Energy,LR Sample Clock,Lap Invalidated,Lap Time,Lap Time2,Last Lap Time,Last Sector Time,MR Sample Clock,Max Fuel,Max Power,Max RPM,Max Sus Travel FL,Max Sus Travel FR,Max Sus Travel RL,Max Sus Travel RR,Max Torque,Max Turbo Boost,Num Tires Off Track,Penalties Enabled,Position,Raw Data Sample Rate,Ride Height FL,Ride Height FR,Ride Height RL,Ride Height RR,Road Temp,Self Align Torque FL,Self Align Torque FR,Self Align Torque RL,Self Align Torque RR,Session Lap Count,Session Time Left,Steering Angle,Surface Grip,Suspension Travel FL,Suspension Travel FR,Suspension Travel RL,Suspension Travel RR,TC Active,TC Enabled,Throttle Pos,Tire Dirt Level FL,Tire Dirt Level FR,Tire Dirt Level RL,Tire Dirt Level RR,Tire Load FL,Tire Load FR,Tire Load RL,Tire Load RR,Tire Loaded Radius FL,Tire Loaded Radius FR,Tire Loaded Radius RL,Tire Loaded Radius RR,Tire Pressure FL,Tire Pressure FR,Tire Pressure RL,Tire Pressure RR,Tire Radius FL,Tire Radius FR,Tire Radius RL,Tire Radius RR,Tire Rubber Grip FL,Tire Rubber Grip FR,Tire Rubber Grip RL,Tire Rubber Grip RR,Tire Slip Angle FL,Tire Slip Angle FR,Tire Slip Angle RL,Tire Slip Angle RR,Tire Slip Ratio FL,Tire Slip Ratio FR,Tire Slip Ratio RL,Tire Slip Ratio RR,Tire Temp Core FL,Tire Temp Core FR,Tire Temp Core RL,Tire Temp Core RR,Tire Temp Inner FL,Tire Temp Inner FR,Tire Temp Inner RL,Tire Temp Inner RR,Tire Temp Middle FL,Tire Temp Middle FR,Tire Temp Middle RL,Tire Temp Middle RR,Tire Temp Outer FL,Tire Temp Outer FR,Tire Temp Outer RL,Tire Temp Outer RR,Toe In FL,Toe In FR,Toe In RL,Toe In RR,Turbo Boost,Wheel Angular Speed FL,Wheel Angular Speed FR,Wheel Angular Speed RL,Wheel Angular Speed RR,Wind Direction,Wind Speed
0,0.0,0.0,0.0,1.0,1.0,0.0,0.0,1.0,0.0,100.0,1.0,1.1856,26.0,0.0,0.0,0.0,57.99999,0.0,26.0,26.0,26.0,26.0,-0.06322222222222218,0.30110000000000015,0.069525,294.022,-2.7184,-2.481875,-1.5263499999999999,-1.5351,-275.75,216.0375,190.98825,0.0,0.0,0.0,0.0,0.0015666666666666051,-5.498166666666667,-5.498166666666667,-0.5484,1.2515,-0.012444444444444258,-1.073,65.581,-0.043000000000000003,-0.2097,0.7599999999999998,100.0,1.0,1.0,202.47333333333333,0.0,0.0,0.0,0.0,0.0,0.0,0.0,8582.1,0.0,55.0,5.0,236.06333333333333,0.0,0.0,0.0,0.0,0.0,0.0,0.0,0.0,0.0030000000000001137,0.0030000000000001137,0.0,0.0,0.0,55.0,616.79921,10000.0,85.0,85.0,85.0,85.0,395.0,0.0,0.0,0.0,1.0,20.0,52.628,52.628,49.515,49.515,34.0,-27.4775,22.642,-30.22,24.2375,0.0,1782.977,0.7600000000000016,100.0,27.17,26.711,40.512,40.353,0.0,0.0,100.0,0.0,0.0,0.0,0.0,3109.4285714285716,3513.5,4085.375,3987.6000000000004,305.461,303.50975,314.93675,314.862,21.785,20.5158,21.7804,21.3223,314.99999,314.99999,324.99998,324.99998,99.5595,99.50723333333333,99.56601428571429,99.54571428571428,-0.004999999999999893,-0.123,-0.16266666666666665,0.056666666666666865,-0.023333333333326323,-0.07333333333333059,1.5590000000000002,1.5735000000000001,37.156,29.224,37.128,34.2645,56.522999999999996,34.5195,59.3635,51.8535,54.423,33.6765,57.982,50.1935,53.585,33.2255,57.949,49.60933333333333,-0.02400000000000002,-0.12550000000000017,0.09879,0.11000000000000001,0.0,205.485,205.47,202.47333333333333,202.47333333333333,0.0,0.0
1,0.0,0.0,0.0,1.0,1.0,0.0,0.0,1.0,0.0,100.0,1.0,1.1856,26.0,0.0,0.0,0.0,57.999998,0.0,26.0,26.0,26.0,26.0,-0.14577777777777778,0.32930000000000015,0.02885,293.137,-2.642,-2.719875,-1.51265,-1.3746,-272.4,216.04250000000002,190.968,0.0,0.0,0.0,0.0,0.0034999999999999476,-5.498166666666667,-5.498166666666667,-0.4872,-0.6380000000000001,-0.06366666666666676,0.0029999999999998916,65.737,-0.052000000000000005,-0.186725,1.2520000000000007,100.0,1.0,1.0,202.54333333333335,0.0,0.0,0.0,0.0,0.0,0.0,0.0,8585.1,0.0,55.0,5.0,236.62333333333333,1.0,0.0,0.0,0.0,0.0,0.0,0.0,0.0,0.053999999999998494,0.053999999999998494,0.0,0.0,1.0,55.0,616.79921,10000.0,85.000001,85.000001,85.000001,85.000001,395.0,0.0,0.0,0.0,1.0,166.665,54.092,54.092,48.233000000000004,48.233000000000004,34.0,-26.2125,16.332,-36.269999999999996,27.267500000000002,0.0,1782.928,0.8599999999999994,100.0,27.461,26.735,42.388,41.547,0.0,0.0,100.0,0.0,0.0,0.0,0.0,3000.142857142857,2508.5,4552.625,4889.0,305.575,306.75275,313.63725,312.646,21.7949,20.521,21.7914,21.3315,314.999998,314.999998,324.999988,324.999988,99.55951428571429,99.50725,99.56617142857142,99.54585714285714,-0.010333333333333306,-0.1423333333333333,-0.17550000000000002,0.03216666666666668,-0.036666666666668846,-0.04833333333333201,1.357,1.416,37.218,29.256,37.196,34.322,56.506,34.5605,59.4095,51.9185,54.407,33.714,58.025,50.2555,53.568,33.2615,57.989,49.67,-0.006000000000000005,-0.13949999999999996,0.10236500000000001,0.10401500000000001,0.0,205.95,205.865,202.54333333333335,202.54333333333335,0.0,0.0
2,0.0,0.0,0.0,1.0,1.0,0.0,0.0,1.0,0.0,100.0,1.0,1.1856,26.0,0.0,0.0,0.0,57.999998,0.0,26.0,26.0,26.0,26.0,-0.12988888888888894,0.28770000000000007,-0.1051,294.113,-2.6007,-2.785625,-1.4964,-1.6389,-269.05,216.04500000000002,190.94925,0.0,0.0,0.0,0.0,0.005433333333333401,-5.498166666666667,-5.498166666666667,-0.5596,0.05449999999999999,-0.05122222222222206,1.548,65.876,-0.0658,-0.26345,1.6140000000000008,100.0,1.0,1.0,203.64333333333332,0.0,0.0,0.0,0.0,0.0,0.0,0.0,8631.7,0.0,55.0,5.0,237.12666666666667,0.0,0.0,0.0,0.0,0.0,0.0,0.0,0.0,0.10500000000000043,0.10500000000000043,0.0,0.0,0.0,55.0,616.79921,10000.0,85.000001,85.000001,85.000001,85.000001,395.0,0.0,0.0,0.0,1.0,166.665,52.597,52.597,50.751,50.751,34.0,-31.244999999999997,19.546,-28.323333333333334,19.1025,0.0,1782.877,0.9600000000000009,100.0,28.062,26.768,42.251,41.183,0.0,0.0,100.0,0.0,0.0,0.0,0.0,3430.142857142857,2916.7,3673.5,3471.3,304.3905,305.47625,315.84475,316.332,21.8051,20.526,21.8019,21.3403,314.999998,314.999998,324.999988,324.999988,99.55951428571429,99.50726666666667,99.5663,99.54598571428572,-0.035666666666666735,-0.15433333333333332,-0.21966666666666665,0.015666666666666718,-0.061666666666667425,-0.05833333333333002,1.6724999999999999,1.7725,37.282,29.287,37.262,34.3765,56.492999999999995,34.6005,59.446,51.973,54.394999999999996,33.751,58.059,50.308,53.555,33.2965,58.019999999999996,49.721666666666664,-0.0035000000000000586,-0.14150000000000018,0.10712500000000001,0.11438000000000001,0.0,206.41500000000002,206.28,203.64333333333332,203.64333333333332,0.0,0.0
3,0.0,0.0,0.0,1.0,1.0,0.0,0.0,1.0,0.0,100.0,1.0,1.1856,26.0,0.0,0.0,0.0,57.999998,0.0,26.0,26.0,26.0,26.0,-0.14677777777777778,0.2977000000000001,0.10155,293.51800000000003,-2.6355,-2.6995,-1.49465,-1.5846,-265.68,216.04500000000002,190.92925,0.0,0.0,0.0,0.0,0.007399999999999962,-5.498166666666667,-5.498166666666667,-0.5061,0.4525,-0.019333333333333425,-0.13600000000000012,66.03,-0.08750000000000001,-0.1915,1.3580000000000005,100.0,1.0,1.0,203.69,0.0,0.0,0.0,0.0,0.0,0.0,0.0,8633.7,0.0,55.0,5.0,237.67666666666668,1.0,0.0,0.0,0.0,0.0,0.0,0.0,0.0,0.1559999999999988,0.1559999999999988,0.0,0.0,1.0,55.0,616.79921,10000.0,85.000001,85.000001,85.000001,85.000001,395.0,0.0,0.0,0.0,1.0,166.665,53.619,53.619,48.218,48.218,34.0,-26.4275,17.956,-35.733333333333334,25.2075,0.0,1782.826,0.9349999999999987,100.0,27.78,26.775,42.288,41.196,0.0,0.0,100.0,0.0,0.0,0.0,0.0,2946.285714285714,2877.5,4373.625,4255.7,305.8915,305.67975,314.13375,314.3315,21.815,20.5312,21.8124,21.3492,314.999998,314.999998,324.999988,324.999988,99.55952857142857,99.5073,99.56645714285715,99.54612857142857,-0.036666666666666625,-0.16633333333333333,-0.2115,0.022499999999999964,-0.060000000000002274,-0.051666666666669414,1.452,1.5050000000000001,37.344,29.319499999999998,37.327,34.4325,56.477000000000004,34.6435,59.4845,52.0355,54.379000000000005,33.7905,58.095,50.368,53.538,33.3345,58.0535,49.78033333333333,-0.008499999999999952,-0.14550000000000018,0.10947000000000001,0.110365,0.0,206.9,206.81,203.69,203.69,0.0,0.0
4,0.0,0.0,0.0,1.0,1.0,0.0,0.0,1.0,0.0,100.0,1.0,1.1856,26.0,0.0,0.0,0.0,57.999998,0.0,26.0,26.0,26.0,26.0,-0.1691111111111111,0.2875000000000001,-0.0357,293.625,-2.6603,-2.7906250000000004,-1.4363000000000001,-1.5972,-262.51,216.04000000000002,190.91075,0.0,0.0,0.0,0.0,0.009266666666666534,-5.498166666666667,-5.498166666666667,-0.5358,-0.9495,-0.08000000000000007,-0.4590000000000001,66.167,-0.0969,-0.2325,1.5340000000000007,100.0,1.0,1.0,204.20333333333332,0.0,0.0,0.0,0.0,0.0,0.0,0.0,8655.4,0.0,55.0,5.0,238.17333333333335,0.0,0.0,0.0,0.0,0.0,0.0,0.0,0.0,0.20400000000000063,0.20400000000000063,0.0,0.0,0.0,55.0,616.79921,10000.0,85.000001,85.000001,85.000001,85.000001,395.0,0.0,0.0,0.0,1.0,333.33500000000004,53.299,53.299,48.629999999999995,48.629999999999995,34.0,-29.8575,19.114,-32.79666666666667,20.947499999999998,0.0,1782.777,0.9400000000000013,100.0,27.645,26.525,42.956,41.461,0.0,0.0,100.0,0.0,0.0,0.0,0.0,3201.4285714285716,2945.8,4161.375,3785.8,305.09,305.505,314.65775,315.406,21.8242,20.535899999999998,21.822499999999998,21.3577,314.999998,314.999998,324.999988,324.999988,99.55952857142857,99.50731666666667,99.56658571428571,99.54627142857143,-0.047666666666666746,-0.16866666666666663,-0.21733333333333335,0.0044999999999999485,-0.041666666666671404,-0.03833333333332689,1.5234999999999999,1.601,37.402,29.3495,37.391,34.4855,56.461,34.6825,59.5235,52.091499999999996,54.364000000000004,33.827,58.1315,50.4215,53.522999999999996,33.3695,58.0875,49.833,0.0030000000000001137,-0.14849999999999985,0.10514000000000001,0.103285,0.0,207.29000000000002,207.15,204.20333333333332,204.20333333333332,0.0,0.0
5,0.0,0.0,0.0,1.0,1.0,0.0,0.0,1.0,0.0,100.0,1.0,1.1856,26.0,0.0,0.0,0.0,57.999998,0.0,26.0,26.0,26.0,26.0,-0.15622222222222215,0.3005,-0.02725,293.808,-2.6712,-2.759875,-1.5056500000000002,-1.6301,-259.13,216.0325,190.8905,0.0,0.0,0.0,0.0,0.011199999999999988,-5.498166666666667,-5.498166666666667,-0.5378000000000001,0.4095,-0.08844444444444433,-0.46799999999999997,66.313,-0.1101,-0.21680000000000002,1.5660000000000007,100.0,1.0,1.0,204.69666666666666,0.0,0.0,0.0,0.0,0.0,0.0,0.0,8676.4,0.0,55.0,5.0,238.69666666666666,1.0,0.0,0.0,0.0,0.0,0.0,0.0,0.0,0.254999999999999,0.254999999999999,0.0,0.0,1.0,55.0,616.79921,10000.0,85.000001,85.000001,85.000001,85.000001,395.0,0.0,0.0,0.0,1.0,333.33500000000004,53.513,53.513,49.225,49.225,34.0,-30.22,17.372,-34.79333333333334,21.025,0.0,1782.725,0.7199999999999989,100.0,27.697,26.57,42.568,41.06,0.0,0.0,100.0,0.0,0.0,0.0,0.0,3241.857142857143,2757.8,4130.625,3957.3,305.0815,305.938,314.846,315.014,21.8344,20.541,21.833,21.3664,314.999998,314.999998,324.999988,324.999988,99.55952857142857,99.50731666666667,99.56672857142857,99.5464,-0.04733333333333323,-0.17466666666666664,-0.25216666666666665,-0.023333333333333317,-0.06666666666666998,-0.03999999999999915,1.554,1.627,37.465,29.381,37.456,34.5405,56.448,34.7245,59.5625,52.147,54.352000000000004,33.865,58.168,50.475,53.51,33.406,58.1215,49.885333333333335,-0.020499999999999963,-0.12400000000000011,0.10863500000000001,0.10638500000000001,0.0,207.78,207.635,204.69666666666666,204.69666666666666,0.0,0.0
6,0.0,0.0,0.0,1.0,1.0,0.0,0.0,1.0,0.0,100.0,1.0,1.1856,26.0,0.0,0.0,0.0,57.999998,0.0,26.0,26.0,26.0,26.0,-0.15522222222222215,0.2902,0.014775,293.503,-2.6242,-2.810125,-1.5352000000000001,-1.5901,-255.95,216.01999999999998,190.871,0.0,0.0,0.0,0.0,0.01306666666666656,-5.498166666666667,-5.498166666666667,-0.5278,0.0645,-0.08411111111111147,-0.7050000000000001,66.451,-0.1119,-0.208175,1.2780000000000005,100.0,1.0,1.0,205.05,0.0,0.0,0.0,0.0,0.0,0.0,0.0,8691.4,0.0,55.0,5.0,239.19333333333333,0.0,0.0,0.0,0.0,0.0,0.0,0.0,0.0,0.3030000000000008,0.3030000000000008,0.0,0.0,0.0,55.0,616.79921,10000.0,85.000001,85.000001,85.000001,85.000001,395.0,0.0,0.0,0.0,1.0,333.33500000000004,53.329,53.329,48.615,48.615,34.0,-29.77,18.48,-36.31333333333333,21.4525,0.0,1782.677,0.4299999999999997,100.0,27.68,26.637999999999998,42.758,41.345,0.0,0.0,100.0,0.0,0.0,0.0,0.0,3261.4285714285716,2807.9,4263.5,3996.1000000000004,305.027,305.716,314.504,314.9005,21.8438,20.5458,21.8431,21.3749,314.999998,314.999998,324.999988,324.999988,99.55954285714286,99.50735,99.56687142857143,99.54652857142857,-0.04166666666666674,-0.16833333333333333,-0.24033333333333334,-0.014499999999999957,-0.05833333333333002,-0.036666666666668846,1.4945,1.559,37.524,29.411,37.519,34.593,56.435,34.7635,59.601,52.204,54.339,33.900999999999996,58.204,50.5295,53.495999999999995,33.4405,58.1545,49.93833333333333,-0.03699999999999992,-0.10950000000000015,0.10233,0.10593000000000001,0.0,208.21,208.07999999999998,205.05,205.05,0.0,0.0
7,0.0,0.0,0.0,1.0,1.0,0.0,0.0,1.0,0.0,100.0,1.0,1.1856,26.0,0.0,0.0,0.0,57.999998,0.0,26.0,26.0,26.0,26.0,-0.11688888888888893,0.28500000000000014,0.007775000000000001,293.396,-2.5944,-2.8005,-1.4989,-1.6347,-252.35,216.0025,190.849375,0.0,0.0,0.0,0.0,0.01516666666666655,-5.498166666666667,-5.498166666666667,-0.536,0.040000000000000036,-0.07044444444444453,-0.2829999999999999,66.604,-0.1052,-0.22460000000000002,1.0280000000000005,100.0,1.0,1.0,205.55333333333334,0.0,0.0,0.0,0.0,0.0,0.0,0.0,8712.6,0.0,55.0,5.0,239.74666666666667,1.0,0.0,0.0,0.0,0.0,0.0,0.0,0.0,0.3569999999999993,0.3569999999999993,0.0,0.0,1.0,55.0,616.79921,10000.0,85.000001,85.000001,85.000001,85.000001,395.0,0.0,0.0,0.0,1.0,166.665,52.963,52.963,48.965,48.965,34.0,-28.7975,19.758,-33.39333333333333,22.6875,0.0,1782.625,0.13500000000000156,100.0,27.898,26.788,42.818,41.555,0.0,0.0,100.0,0.0,0.0,0.0,0.0,3281.5714285714284,2876.2,4083.875,3949.2,304.866,305.478,314.8915,314.968,21.8545,20.5512,21.8543,21.3844,314.999998,314.999998,324.999988,324.999988,99.55954285714286,99.50736666666667,99.56702857142857,99.54668571428572,-0.016999999999999904,-0.14800000000000002,-0.2295,0.00316666666666654,-0.03499999999999659,-0.04333333333332945,1.53,1.559,37.59,29.445,37.589,34.653,56.42,34.807,59.6435,52.266999999999996,54.325,33.9415,58.2435,50.59,53.480999999999995,33.479,58.191,49.99766666666667,-0.0645,-0.08349999999999991,0.10501,0.112405,0.0,208.64499999999998,208.55,205.55333333333334,205.55333333333334,0.0,0.0
8,0.0,0.0,0.0,1.0,1.0,0.0,0.0,1.0,0.0,100.0,1.0,1.1856,26.0,0.0,0.0,0.0,57.999998,0.0,26.0,26.0,26.0,26.0,-0.09933333333333338,0.27770000000000006,0.007,293.533,-2.6715,-2.7411250000000003,-1.4748,-1.6268,-248.95,215.98250000000002,190.82875,0.0,0.0,0.0,0.0,0.017133333333333334,-5.498166666666667,-5.498166666666667,-0.5369,-0.4615,-0.05655555555555569,0.71,66.75,-0.0888,-0.217675,0.4740000000000002,100.0,1.0,1.0,205.93,0.0,0.0,0.0,0.0,0.0,0.0,0.0,8728.6,0.0,55.0,5.0,240.26999999999998,0.0,0.0,0.0,0.0,0.0,0.0,0.0,0.0,0.40800000000000125,0.40800000000000125,0.0,0.0,0.0,55.0,616.79921,10000.0,85.000001,85.000001,85.000001,85.000001,395.0,0.0,0.0,0.0,1.0,166.665,53.619,53.619,48.34,48.34,34.0,-25.6525,20.958,-31.8,25.48,0.0,1782.573,-0.03500000000000014,100.0,27.582,26.562,42.956,41.557,0.0,0.0,100.0,0.0,0.0,0.0,0.0,3004.142857142857,2984.5,4096.5,4101.7,305.6505,305.40725,314.7625,314.6555,21.8643,20.5564,21.8649,21.3935,314.999998,314.999998,324.999988,324.999988,99.55954285714286,99.50738333333334,99.56717142857143,99.54682857142858,0.009333333333333194,-0.1203333333333334,-0.19483333333333336,0.03666666666666685,-0.04333333333332945,-0.04999999999999716,1.499,1.5165,37.652,29.4775,37.656,34.709,56.402,34.847,59.6835,52.327,54.308,33.978,58.281,50.6475,53.463,33.513999999999996,58.2255,50.053666666666665,-0.07899999999999996,-0.06999999999999984,0.10271500000000001,0.111905,0.0,209.085,209.01999999999998,205.93,205.93,0.0,0.0
9,0.0,0.0,0.0,1.0,1.0,0.0,0.0,1.0,0.0,100.0,1.0,1.1856,26.0,0.0,0.0,0.0,57.999998,0.0,26.0,26.0,26.0,26.0,-0.0758888888888889,0.2856000000000001,-0.021775000000000003,293.304,-2.6006,-2.7563750000000002,-1.52995,-1.5772,-245.95,215.9625,190.81025,0.0,0.0,0.0,0.0,0.018866666666666587,-5.498166666666667,-5.498166666666667,-0.5402,0.49549999999999994,-0.062333333333333574,-0.39300000000000024,66.875,-0.0734,-0.2165,0.4220000000000006,100.0,1.0,1.0,206.40333333333334,0.0,0.0,0.0,0.0,0.0,0.0,0.0,8748.7,0.0,55.0,5.0,240.72,1.0,0.0,0.0,0.0,0.0,0.0,0.0,0.0,0.4529999999999994,0.4529999999999994,0.0,0.0,1.0,55.0,616.79921,10000.0,85.000001,85.000001,85.000001,85.000001,395.0,0.0,0.0,0.0,1.0,166.665,52.704,52.704,49.179,49.179,34.0,-27.9525,21.754,-31.083333333333336,23.905,0.0,1782.528,-0.2699999999999996,100.0,27.893,27.007,42.599000000000004,41.61,0.0,0.0,100.0,0.0,0.0,0.0,0.0,3359.5714285714284,2926.8,4049.375,4005.7,304.666,305.3535,315.02725,314.9045,21.8731,20.561,21.8742,21.4013,314.999998,314.999998,324.999988,324.999988,99.55955714285714,99.5074,99.56728571428572,99.54694285714285,0.019333333333333425,-0.09833333333333338,-0.18366666666666667,0.03733333333333322,-0.046666666666666856,-0.036666666666668846,1.548,1.5735000000000001,37.707,29.5065,37.713,34.7585,56.388999999999996,34.8825,59.716,52.378,54.295,34.010999999999996,58.3115,50.6965,53.45,33.545500000000004,58.2535,50.101333333333336,-0.09499999999999997,-0.052000000000000046,0.10187500000000001,0.11269000000000001,0.0,209.47,209.42000000000002,206.40333333333334,206.40333333333334,0.0,0.0
10,0.0,0.0,0.0,1.0,1.0,0.0,0.0,1.0,0.0,100.0,1.0,1.1856,26.0,0.0,0.0,0.0,57.999998,0.0,26.0,26.0,26.0,26.0,-0.050999999999999934,0.2872000000000001,-0.022975000000000002,293.152,-2.6722,-2.7047499999999998,-1.5069,-1.5517,-242.32999999999998,215.9375,190.788125,0.0,0.0,0.0,0.0,0.020999999999999908,-5.498166666666667,-5.498166666666667,-0.5229,-0.49750000000000005,-0.02344444444444438,0.29400000000000004,67.03,-0.0504,-0.209325,-0.013999999999999346,100.0,1.0,1.0,206.7,0.0,0.0,0.0,0.0,0.0,0.0,0.0,8761.3,0.0,55.0,5.0,241.27666666666667,0.0,0.0,0.0,0.0,0.0,0.0,1.0,0.0,0.5069999999999979,0.5069999999999979,0.0,0.0,0.0,55.0,616.79921,10000.0,85.000001,85.000001,85.000001,85.000001,395.0,0.0,0.0,0.0,1.0,166.665,53.543,53.543,47.974000000000004,47.974000000000004,34.0,-23.9975,21.009999999999998,-32.45,26.725,0.0,1782.475,-0.370000000000001,100.0,27.739,27.018,42.928,42.278999999999996,0.0,0.0,100.0,0.0,0.0,0.0,0.0,2994.4285714285716,2837.7,4277.25,4214.0,305.817,305.71,314.4255,314.33375,21.883499999999998,20.5666,21.8855,21.4111,314.999998,314.999998,324.999988,324.999988,99.55955714285714,99.5074,99.56745714285714,99.5471,0.044333333333333336,-0.08433333333333337,-0.16833333333333333,0.0605,-0.041666666666671404,-0.045000000000001705,1.4929999999999999,1.489,37.772,29.541,37.784,34.819,56.373000000000005,34.923,59.759,52.444,54.28,34.048,58.3515,50.7595,53.434,33.581,58.29,50.163333333333334,-0.10599999999999987,-0.04200000000000026,0.11046500000000001,0.10876000000000001,0.0,209.92000000000002,209.92000000000002,206.7,206.7,0.0,0.0
11,0.0,0.0,0.0,1.0,1.0,0.0,0.0,1.0,0.0,100.0,1.0,1.1856,26.0,0.0,0.0,0.0,57.999998,0.0,26.0,26.0,26.0,26.0,-0.0006666666666665932,0.2742,-0.087425,293.564,-2.6847,-2.7155,-1.56355,-1.5543,-239.11,215.9125,190.7685,0.0,0.0,0.0,0.0,0.022599999999999953,-5.498166666666667,-5.498166666666667,-0.5581,-0.23550000000000004,0.002555555555555644,-0.484,67.16,-0.0281,-0.233775,-0.17999999999999972,100.0,1.0,1.0,207.35666666666668,0.0,0.0,0.0,0.0,0.0,0.0,0.0,8789.1,0.0,55.0,5.0,241.75,1.0,0.0,0.0,0.0,0.0,0.0,1.0,0.0,0.5549999999999997,0.5549999999999997,0.0,0.0,1.0,55.0,616.79921,10000.0,85.000001,85.000001,85.000001,85.000001,395.0,0.0,0.0,0.0,1.0,333.33500000000004,52.994,52.994,49.194,49.194,34.0,-25.0075,23.504,-26.723333333333333,25.2125,0.0,1782.424,-0.34499999999999886,100.0,27.472,27.258,42.528999999999996,42.219,0.0,0.0,100.0,0.0,0.0,0.0,0.0,3155.5714285714284,3010.5,3794.25,3874.2,305.3675,305.1075,315.64925,315.207,21.8926,20.5716,21.8953,21.4195,314.999998,314.999998,324.999988,324.999988,99.55955714285714,99.5074,99.56758571428571,99.54722857142858,0.05766666666666653,-0.06399999999999995,-0.13616666666666666,0.09166666666666679,-0.061666666666667425,-0.045000000000001705,1.6135000000000002,1.6035,37.829,29.572499999999998,37.845,34.872,56.358000000000004,34.959,59.791,52.499,54.266,34.0815,58.3815,50.8125,53.419,33.613,58.317499999999995,50.215333333333334,-0.10149999999999992,-0.04700000000000015,0.10876500000000001,0.10691,0.0,210.325,210.305,207.35666666666668,207.35666666666668,0.0,0.0
12,0.0,0.0,0.0,1.0,1.0,0.0,0.0,1.0,0.0,100.0,1.0,1.1856,26.0,0.0,0.0,0.0,57.999998,0.0,26.0,26.0,26.0,26.0,-0.0015555555555555323,0.2802,0.015225,293.106,-2.7374,-2.706,-1.5346000000000002,-1.5716,-235.88,215.8875,190.747875,0.0,0.0,0.0,0.0,0.025466666666666526,-5.498166666666667,-5.498166666666667,-0.5457000000000001,0.33299999999999996,-0.00655555555555587,-0.7170000000000001,67.29599999999999,-0.0091,-0.20770000000000002,-0.22200000000000042,100.0,1.0,1.0,207.60333333333335,0.0,0.0,0.0,0.0,0.0,0.0,0.0,8799.5,0.0,55.0,5.0,242.23666666666668,0.0,0.0,0.0,0.0,0.0,0.0,1.0,0.0,0.602999999999998,0.602999999999998,0.0,0.0,0.0,55.0,616.79921,10000.0,85.000001,85.000001,85.000001,85.000001,395.0,0.0,0.0,0.0,1.0,166.665,52.917,52.917,48.187,48.187,34.0,-25.5175,23.992,-29.72,28.545,0.0,1782.379,-0.2749999999999986,100.0,27.398,27.418,42.362,42.204,0.0,0.0,100.0,0.0,0.0,0.0,0.0,3187.0,3036.5,4225.5,4115.1,305.2815,305.037,314.622,314.62175,21.901699999999998,20.5767,21.9051,21.428,314.999998,314.999998,324.999988,324.999988,99.55957142857143,99.50741666666667,99.56771428571429,99.54737142857142,0.06400000000000006,-0.05566666666666664,-0.12216666666666667,0.10850000000000004,-0.04999999999999716,-0.036666666666668846,1.5215,1.5250000000000001,37.885999999999996,29.6045,37.907,34.9255,56.344,34.9955,59.826,52.555,54.251999999999995,34.115,58.414,50.8665,53.405,33.6455,58.3475,50.268,-0.09349999999999992,-0.052999999999999936,0.11063,0.110835,0.0,210.755,210.755,207.60333333333335,207.60333333333335,0.0,0.0
13,0.0,0.0,0.0,1.0,1.0,0.0,0.0,1.0,0.0,100.0,1.0,1.1856,26.0,0.0,0.0,0.0,57.999998,0.0,26.0,26.0,26.0,26.0,0.015111111111111075,0.2892000000000001,0.045975,292.694,-2.6803,-2.700375,-1.56765,-1.5593,-232.45,215.8625,190.726125,0.0,0.0,0.0,0.0,0.026733333333333387,-5.498166666666667,-5.498166666666667,-0.5378000000000001,-0.10949999999999993,-0.00011111111111095084,1.0939999999999999,67.438,0.0027,-0.21225000000000002,-0.3860000000000001,100.0,1.0,1.0,207.96666666666667,0.0,0.0,0.0,0.0,0.0,0.0,0.0,8815.0,0.0,55.0,5.0,242.75,1.0,0.0,0.0,0.0,0.0,0.0,1.0,0.0,0.6539999999999999,0.6539999999999999,0.0,0.0,1.0,55.0,616.79921,10000.0,85.000001,85.000001,85.000001,85.000001,395.0,0.0,0.0,0.0,1.0,166.665,52.643,52.643,47.974000000000004,47.974000000000004,34.0,-22.5975,25.488,-28.506666666666664,30.855,0.0,1782.328,-0.48499999999999943,100.0,27.871,27.475,42.753,42.620000000000005,0.0,0.0,100.0,0.0,0.0,0.0,0.0,3078.5714285714284,3122.6,4164.875,4319.1,305.3805,304.9525,314.64525,314.18675,21.9114,20.5822,21.9157,21.4373,314.999998,314.999998,324.999988,324.999988,99.55958571428572,99.50741666666667,99.56785714285714,99.54751428571429,0.1030000000000002,-0.032333333333333325,-0.095,0.12166666666666681,-0.045000000000001705,-0.07000000000000028,1.5005000000000002,1.492,37.946,29.6385,37.973,34.983000000000004,56.331,35.033500000000004,59.8645,52.6175,54.239999999999995,34.1505,58.4495,50.9265,53.391,33.679,58.379999999999995,50.327,-0.11549999999999994,-0.039000000000000146,0.11024,0.10118500000000001,0.0,211.175,211.215,207.96666666666667,207.96666666666667,0.0,0.0
14,0.0,0.0,0.0,1.0,1.0,0.0,0.0,1.0,0.0,100.0,1.0,1.1856,26.0,0.0,0.0,0.0,57.999998,0.0,26.0,26.0,26.0,26.0,0.02955555555555578,0.2812000000000001,0.0021000000000000003,292.877,-2.7057,-2.643,-1.5713,-1.5367000000000002,-229.0,215.8375,190.70475,0.0,0.0,0.0,0.0,0.02873333333333339,-5.498166666666667,-5.498166666666667,-0.5502,-0.16500000000000004,0.020000000000000018,-0.18699999999999983,67.578,0.016300000000000002,-0.228325,-0.42799999999999905,100.0,1.0,1.0,208.48000000000002,0.0,0.0,0.0,0.0,0.0,0.0,0.0,8836.7,0.0,55.0,5.0,243.25333333333333,0.0,0.0,0.0,0.0,0.0,0.0,1.0,0.0,0.7049999999999983,0.7049999999999983,0.0,0.0,0.0,55.0,616.79921,10000.0,85.000001,85.000001,85.000001,85.000001,395.0,0.0,0.0,0.0,1.0,166.665,52.628,52.628,48.218,48.218,34.0,-22.9275,25.073999999999998,-27.093333333333334,28.88,0.0,1782.276,-0.4800000000000004,100.0,27.678,27.764,42.623000000000005,42.870000000000005,0.0,0.0,100.0,0.0,0.0,0.0,0.0,3104.0,3114.4,4028.375,4120.4,305.51,304.80675,315.0625,314.60425,21.9211,20.5876,21.9262,21.4464,314.999998,314.999998,324.999988,324.999988,99.5596,99.50743333333334,99.56801428571428,99.54765714285715,0.10066666666666668,-0.033333333333333326,-0.09366666666666668,0.12366666666666681,-0.054999999999999716,-0.061666666666667425,1.5434999999999999,1.5330000000000001,38.007,29.6725,38.039,35.04,56.318,35.071,59.9005,52.6785,54.227999999999994,34.185,58.4835,50.985,53.378,33.7125,58.4105,50.38433333333333,-0.11549999999999994,-0.040000000000000036,0.107795,0.10125500000000001,0.0,211.59,211.62,208.48000000000002,208.48000000000002,0.0,0.0
15,0.0,0.0,0.0,1.0,1.0,0.0,0.0,1.0,0.0,100.0,1.0,1.1856,26.0,0.0,0.0,0.0,57.999998,0.0,26.0,26.0,26.0,26.0,0.04788888888888887,0.28700000000000014,-0.026025,292.801,-2.7133,-2.604625,-1.5955,-1.4837,-225.76,215.8125,190.684375,0.0,0.0,0.0,0.0,0.0306333333333334,-5.498166666666667,-5.498166666666667,-0.5419,0.273,0.04411111111111099,-0.47299999999999986,67.71000000000001,0.0257,-0.21195,-0.41999999999999993,100.0,1.0,1.0,208.85666666666668,0.0,0.0,0.0,0.0,0.0,0.0,0.0,8852.7,0.0,55.0,5.0,243.72666666666666,1.0,0.0,0.0,0.0,0.0,0.0,1.0,0.0,0.7530000000000001,0.7530000000000001,0.0,0.0,1.0,55.0,616.79921,10000.0,85.000001,85.000001,85.000001,85.000001,395.0,0.0,0.0,0.0,1.0,333.33500000000004,52.734,52.734,48.141,48.141,34.0,-21.7725,24.926,-27.166666666666664,30.695,0.0,1782.228,-0.4250000000000007,100.0,27.715,27.869,42.454,42.987,0.0,0.0,100.0,0.0,0.0,0.0,0.0,2996.5714285714284,3100.7,4043.25,4305.7,305.822,304.829,315.055,314.169,21.9301,20.5928,21.9361,21.4551,314.999998,314.999998,324.999988,324.999988,99.55961428571429,99.50743333333334,99.56814285714286,99.54778571428571,0.1080000000000001,-0.02633333333333332,-0.08600000000000001,0.14116666666666666,-0.04999999999999716,-0.05833333333333002,1.533,1.5150000000000001,38.063,29.705,38.099999999999994,35.094,56.306,35.1065,59.9335,52.736000000000004,54.216,34.218,58.513999999999996,51.0405,53.366,33.744,58.438,50.43866666666666,-0.10999999999999988,-0.04400000000000004,0.10413000000000001,0.11479500000000001,0.0,212.025,212.04500000000002,208.85666666666668,208.85666666666668,0.0,0.0
16,0.0,0.0,0.0,1.0,1.0,0.0,0.0,1.0,0.0,100.0,1.0,1.1856,26.0,0.0,0.0,0.0,57.999998,0.0,26.0,26.0,26.0,26.0,0.029777777777777903,0.28070000000000017,-0.000925,292.801,-2.7685,-2.61775,-1.5685,-1.5434999999999999,-222.3,215.7875,190.66225,0.0,0.0,0.0,0.0,0.0326333333333334,-5.498166666666667,-5.498166666666667,-0.5578000000000001,-0.6305000000000001,0.033666666666666734,0.15399999999999991,67.85,0.030000000000000002,-0.224475,-0.44599999999999973,100.0,1.0,1.0,209.2733333333333,0.0,0.0,0.0,0.0,0.0,0.0,0.0,8870.4,0.0,55.0,5.0,244.23333333333335,0.0,0.0,0.0,0.0,0.0,0.0,1.0,0.0,0.8039999999999985,0.8039999999999985,0.0,0.0,0.0,55.0,616.79921,10000.0,85.000001,85.000001,85.000001,85.000001,395.0,0.0,0.0,0.0,1.0,333.33500000000004,52.658,52.658,47.852000000000004,47.852000000000004,34.0,-22.6825,26.509999999999998,-25.54,30.26,0.0,1782.177,-0.36499999999999844,100.0,27.514,27.737000000000002,42.791,43.055,0.0,0.0,100.0,0.0,0.0,0.0,0.0,3025.285714285714,3245.4,4000.375,4140.8,305.676,304.592,315.07775,314.55925,21.9395,20.5983,21.9466,21.4643,314.999998,314.999998,324.999988,324.999988,99.55962857142858,99.50743333333334,99.56828571428571,99.54794285714286,0.10599999999999987,-0.01766666666666661,-0.06583333333333333,0.14500000000000002,-0.03999999999999915,-0.03999999999999915,1.534,1.526,38.122,29.7395,38.166,35.1515,56.291,35.1445,59.971000000000004,52.797,54.202,34.253,58.5485,51.0995,53.35,33.7775,58.47,50.49633333333333,-0.09999999999999987,-0.04800000000000004,0.1033,0.10079500000000001,0.0,212.42000000000002,212.445,209.2733333333333,209.2733333333333,0.0,0.0
17,0.0,0.0,0.0,1.0,1.0,0.0,0.0,1.0,0.0,100.0,1.0,1.1856,26.0,0.0,0.0,0.0,57.999998,0.0,26.0,26.0,26.0,26.0,0.02666666666666684,0.29380000000000006,0.019075,292.542,-2.7284,-2.604,-1.6045,-1.51,-218.84,215.765,190.639875,0.0,0.0,0.0,0.0,0.034633333333333294,-5.498166666666667,-5.498166666666667,-0.55,0.404,0.005111111111111066,-0.9210000000000003,67.989,0.029400000000000003,-0.20802500000000002,-0.274,100.0,1.0,1.0,209.68,0.0,0.0,0.0,0.0,0.0,0.0,0.0,8887.6,0.0,55.0,5.0,244.73000000000002,1.0,0.0,0.0,0.0,0.0,0.0,1.0,0.0,0.8550000000000004,0.8550000000000004,0.0,0.0,1.0,55.0,616.79921,10000.0,85.000001,85.000001,85.000001,85.000001,395.0,0.0,0.0,0.0,1.0,333.33500000000004,52.46,52.46,47.806,47.806,34.0,-23.235,24.4,-29.396666666666665,30.11,0.0,1782.124,-0.34999999999999787,100.0,27.816,28.054000000000002,42.532,43.051,0.0,0.0,100.0,0.0,0.0,0.0,0.0,3192.142857142857,3048.4,4317.75,4207.2,305.3005,305.0255,314.48775,314.45775,21.9492,20.6039,21.9571,21.473399999999998,314.999998,314.999998,324.999988,324.999988,99.55962857142858,99.50743333333334,99.56842857142857,99.54808571428572,0.11466666666666647,-0.02633333333333332,-0.085,0.13966666666666683,-0.05333333333332746,-0.02833333333332888,1.5295,1.5110000000000001,38.183,29.7745,38.232,35.2085,56.28,35.183,60.006,52.8565,54.191,34.2885,58.5815,51.157,53.338,33.812,58.4995,50.55266666666667,-0.11199999999999988,-0.05449999999999999,0.102345,0.10474000000000001,0.0,212.89,212.89,209.68,209.68,0.0,0.0
18,0.0,0.0,0.0,1.0,1.0,0.0,0.0,1.0,0.0,100.0,1.0,1.1856,26.0,0.0,0.0,0.0,57.999998,0.0,26.0,26.0,26.0,26.0,0.02877777777777779,0.27500000000000013,0.002375,292.45,-2.7527,-2.585,-1.6111,-1.4643000000000002,-215.57,215.745,190.61875,0.0,0.0,0.0,0.0,0.03653333333333331,-5.498166666666667,-5.498166666666667,-0.5602,-0.48,0.02055555555555566,-0.31400000000000006,68.119,0.028,-0.22260000000000002,-0.2699999999999996,100.0,1.0,1.0,210.07666666666665,0.0,0.0,0.0,0.0,0.0,0.0,0.0,8904.4,0.0,55.0,5.0,245.2,0.0,0.0,0.0,0.0,0.0,0.0,1.0,0.0,0.9029999999999987,0.9029999999999987,0.0,0.0,0.0,55.0,616.79921,10000.0,85.000001,85.000001,85.000001,85.000001,395.0,0.0,0.0,0.0,1.0,333.33500000000004,52.307,52.307,47.684,47.684,34.0,-24.04,25.938,-28.673333333333336,28.7825,0.0,1782.078,-0.3299999999999983,100.0,27.679000000000002,27.927,42.867000000000004,43.352000000000004,0.0,0.0,100.0,0.0,0.0,0.0,0.0,3215.285714285714,3222.6,4159.125,4179.6,305.2775,304.5445,314.80125,314.4965,21.958199999999998,20.6091,21.9671,21.4821,314.999998,314.999998,324.999988,324.999988,99.55965714285715,99.50745,99.56857142857143,99.54821428571428,0.10533333333333372,-0.022666666666666613,-0.09166666666666667,0.13050000000000006,-0.045000000000001705,-0.054999999999999716,1.5185,1.518,38.239000000000004,29.807000000000002,38.294,35.263,56.266999999999996,35.218,60.0415,52.914500000000004,54.179,34.321,58.614,51.213,53.326,33.843,58.5295,50.60733333333333,-0.10799999999999987,-0.044500000000000206,0.112545,0.09857500000000001,0.0,213.265,213.29000000000002,210.07666666666665,210.07666666666665,0.0,0.0
19,0.0,0.0,0.0,1.0,1.0,0.0,0.0,1.0,0.0,100.0,1.0,1.1856,26.0,0.0,0.0,0.0,57.999998,0.0,26.0,26.0,26.0,26.0,0.02922222222222226,0.2864,0.05865,291.962,-2.6673,-2.689625,-1.54245,-1.4527,-212.09,215.725,190.596,0.0,0.0,0.0,0.0,0.03856666666666653,-5.498166666666667,-5.498166666666667,-0.5514,0.8035,0.029444444444444384,0.724,68.256,0.0279,-0.21380000000000002,-0.29000000000000004,100.0,1.0,1.0,210.47333333333333,0.0,0.0,0.0,0.0,0.0,0.0,0.0,8921.2,0.0,55.0,5.0,245.69,1.0,0.0,0.0,0.0,0.0,0.0,1.0,0.0,0.9540000000000006,0.9540000000000006,0.0,0.0,1.0,55.0,616.79921,10000.0,85.000001,85.000001,85.000001,85.000001,395.0,0.0,0.0,0.0,1.0,333.33500000000004,51.743,51.743,47.44,47.44,34.0,-22.2475,26.88,-27.31,31.8875,0.0,1782.027,-0.28000000000000114,100.0,28.416,28.344,42.813,43.261,0.0,0.0,100.0,0.0,0.0,0.0,0.0,3085.142857142857,3238.9,4197.125,4459.5,305.3305,304.385,314.6115,313.93825,21.9679,20.6148,21.9775,21.4913,314.999998,314.999998,324.999988,324.999988,99.55965714285715,99.50745,99.56871428571428,99.54837142857143,0.1113333333333335,-0.030000000000000027,-0.07466666666666667,0.14900000000000002,-0.02499999999999858,-0.04999999999999716,1.5025,1.5,38.3,29.8425,38.36,35.320499999999996,56.256,35.257999999999996,60.076,52.975,54.168,34.358000000000004,58.6465,51.271,53.314,33.879,58.5585,50.665,-0.10149999999999992,-0.06099999999999994,0.106995,0.10604500000000001,0.0,213.72,213.745,210.47333333333333,210.47333333333333,0.0,0.0
20,0.0,0.0,0.0,1.0,1.0,0.0,0.0,1.0,0.0,100.0,1.0,1.1856,26.0,0.0,0.0,0.0,57.999998,0.0,26.0,26.0,26.0,26.0,0.03299999999999992,0.2682,0.00335,292.297,-2.7569,-2.6496250000000003,-1.545,-1.5788,-208.39999999999998,215.7025,190.57225,0.0,0.0,0.0,0.0,0.04069999999999996,-5.498166666666667,-5.498166666666667,-0.5571,-1.044,0.02155555555555555,0.397,68.402,0.0229,-0.22660000000000002,-0.22200000000000042,100.0,1.0,1.0,210.88333333333333,0.0,0.0,0.0,0.0,0.0,0.0,0.0,8938.5,0.0,55.0,5.0,246.22333333333336,0.0,0.0,0.0,0.0,0.0,0.0,0.0,0.0,1.0079999999999991,1.0079999999999991,0.0,0.0,0.0,55.0,616.79921,10000.0,85.000001,85.000001,85.000001,85.000001,395.0,0.0,0.0,0.0,1.0,166.665,52.536,52.536,47.165,47.165,34.0,-22.2175,25.595999999999997,-26.723333333333333,31.0025,0.0,1781.974,-0.28999999999999915,100.0,27.947,27.998,43.507,43.749,0.0,0.0,100.0,0.0,0.0,0.0,0.0,3004.0,3162.8,4085.0,4158.0,305.7495,304.84925,314.81825,314.48275,21.977899999999998,20.6207,21.9889,21.5012,314.999998,314.999998,324.999988,324.999988,99.55967142857143,99.50745,99.56885714285714,99.54852857142858,0.11033333333333362,-0.028000000000000025,-0.07633333333333334,0.1413333333333333,-0.03166666666666629,-0.04999999999999716,1.4825,1.4805,38.361999999999995,29.878999999999998,38.431,35.3825,56.239999999999995,35.298,60.117,53.041,54.153,34.394999999999996,58.6845,51.335,53.298,33.914,58.5935,50.727333333333334,-0.09850000000000003,-0.05650000000000022,0.10103500000000001,0.10869500000000001,0.0,214.125,214.14499999999998,210.88333333333333,210.88333333333333,0.0,0.0
21,0.0,0.0,0.0,1.0,1.0,0.0,0.0,1.0,0.0,100.0,1.0,1.1856,26.0,0.0,0.0,0.0,57.999998,0.0,26.0,26.0,26.0,26.0,0.03988888888888886,0.2733000000000001,-0.0678,292.618,-2.7265,-2.65175,-1.6144,-1.5356,-205.32,215.685,190.552,0.0,0.0,0.0,0.0,0.04249999999999998,-5.498166666666667,-5.498166666666667,-0.5755,0.237,0.005555555555555536,-0.7269999999999999,68.519,0.0198,-0.224525,-0.20399999999999974,100.0,1.0,1.0,211.41333333333333,0.0,0.0,0.0,0.0,0.0,0.0,0.0,8961.0,0.0,55.0,5.0,246.64,1.0,0.0,0.0,0.0,0.0,0.0,0.0,0.0,1.0530000000000008,1.0530000000000008,0.0,0.0,1.0,55.0,616.79921,10000.0,85.000001,85.000001,85.000001,85.000001,395.0,0.0,0.0,0.0,1.0,333.33500000000004,52.368,52.368,48.141,48.141,34.0,-23.6725,24.738,-27.613333333333333,27.985,0.0,1781.927,-0.3200000000000003,100.0,27.991,28.15,42.897999999999996,43.354,0.0,0.0,100.0,0.0,0.0,0.0,0.0,3183.4285714285716,3068.8,4054.75,4002.3,305.33,304.99375,315.096,314.959,21.9864,20.6256,21.9981,21.5092,314.999998,314.999998,324.999988,324.999988,99.55968571428572,99.50746666666667,99.569,99.54865714285714,0.1030000000000002,-0.032333333333333325,-0.09283333333333334,0.1306666666666667,-0.05333333333332746,-0.046666666666666856,1.5765,1.5795000000000001,38.415,29.91,38.488,35.432,56.230000000000004,35.3315,60.1455,53.091499999999996,54.143,34.4265,58.711,51.3835,53.287,33.944,58.6175,50.77466666666667,-0.10450000000000004,-0.05049999999999999,0.10065,0.10733000000000001,0.0,214.54500000000002,214.525,211.41333333333333,211.41333333333333,0.0,0.0
22,0.0,0.0,0.0,1.0,1.0,0.0,0.0,1.0,0.0,100.0,1.0,1.1856,26.0,0.0,0.0,0.0,57.999998,0.0,26.0,26.0,26.0,26.0,0.022222222222222143,0.2681,-0.006,292.236,-2.6562,-2.706125,-1.6106500000000001,-1.5216,-201.82,215.66500000000002,190.52825,0.0,0.0,0.0,0.0,0.044533333333333314,-5.498166666666667,-5.498166666666667,-0.5574,0.08250000000000002,0.019444444444444375,1.1,68.657,0.0179,-0.20317500000000002,-0.30799999999999983,100.0,1.0,1.0,211.66666666666669,0.0,0.0,0.0,0.0,0.0,0.0,0.0,8971.8,0.0,55.0,5.0,247.13666666666666,0.0,0.0,0.0,0.0,0.0,0.0,0.0,0.0,1.1039999999999992,1.1039999999999992,0.0,0.0,0.0,55.0,616.79921,10000.0,85.000001,85.000001,85.000001,85.000001,395.0,0.0,0.0,0.0,1.0,333.33500000000004,52.582,52.582,47.134,47.134,34.0,-20.732499999999998,25.64,-29.273333333333333,31.6325,0.0,1781.877,-0.40500000000000114,100.0,28.143,28.097,43.208,43.435,0.0,0.0,100.0,0.0,0.0,0.0,0.0,2888.4285714285716,3103.6,4214.125,4392.7,305.9335,304.94175,314.60275,314.0835,21.996,20.6312,22.0087,21.5184,314.999998,314.999998,324.999988,324.999988,99.5597,99.50746666666667,99.56914285714285,99.5488,0.10566666666666658,-0.028666666666666618,-0.0905,0.13366666666666682,-0.021666666666668277,-0.054999999999999716,1.4955,1.476,38.474999999999994,29.945,38.554,35.49,56.217,35.37,60.183,53.1525,54.129999999999995,34.4615,58.746,51.442499999999995,53.272999999999996,33.978,58.649,50.83233333333334,-0.10599999999999987,-0.047499999999999876,0.10913,0.10671000000000001,0.0,214.95499999999998,214.95,211.66666666666669,211.66666666666669,0.0,0.0
23,0.0,0.0,0.0,1.0,1.0,0.0,0.0,1.0,0.0,100.0,1.0,1.1856,26.0,0.0,0.0,0.0,57.999998,0.0,26.0,26.0,26.0,26.0,0.027111111111111086,0.2599,-0.070025,292.16,-2.6932,-2.652875,-1.66155,-1.4974,-198.32,215.6475,190.50475,0.0,0.0,0.0,0.0,0.046566666666666534,-5.498166666666667,-5.498166666666667,-0.5746,-0.20550000000000002,0.013777777777777889,-0.75,68.791,0.0218,-0.227275,-0.242,100.0,1.0,1.0,212.18,0.0,0.0,0.0,0.0,0.0,0.0,0.0,8993.5,0.0,55.0,5.0,247.62,1.0,0.0,0.0,0.0,0.0,0.0,0.0,0.0,1.1550000000000011,1.1550000000000011,0.0,0.0,1.0,55.0,616.79921,10000.0,85.000001,85.000001,85.000001,85.000001,395.0,0.0,0.0,0.0,1.0,333.33500000000004,51.804,51.804,47.943,47.943,34.0,-24.91,24.951999999999998,-28.87,28.35,0.0,1781.826,-0.3099999999999987,100.0,28.195,28.33,43.232,43.716,0.0,0.0,100.0,0.0,0.0,0.0,0.0,3306.714285714286,3101.4,4070.625,4056.0,304.887,304.82575,315.08075,314.83675,22.0056,20.6369,22.0193,21.5277,314.999998,314.999998,324.999988,324.999988,99.55971428571429,99.50746666666667,99.56928571428571,99.54895714285715,0.09466666666666645,-0.03700000000000003,-0.1005,0.13549999999999995,-0.04833333333333201,-0.041666666666671404,1.546,1.5355,38.535,29.9805,38.620999999999995,35.5485,56.204,35.408500000000004,60.219,53.214,54.119,34.4975,58.7795,51.501,53.260999999999996,34.0125,58.679,50.89,-0.10199999999999987,-0.05600000000000005,0.11703500000000001,0.10945,0.0,215.35500000000002,215.34,212.18,212.18,0.0,0.0
24,0.0,0.0,0.0,1.0,1.0,0.0,0.0,1.0,0.0,100.0,1.0,1.1856,26.0,0.0,0.0,0.0,57.999998,0.0,26.0,26.0,26.0,26.0,0.03588888888888886,0.27470000000000017,-0.023675,292.404,-2.7155,-2.661125,-1.5796000000000001,-1.5266000000000002,-195.01,215.6325,190.482125,0.0,0.0,0.0,0.0,0.04849999999999999,-5.498166666666667,-5.498166666666667,-0.5819,-0.39149999999999996,0.02299999999999991,-0.08199999999999985,68.919,0.0257,-0.2195,-0.25,100.0,1.0,1.0,212.48333333333335,0.0,0.0,0.0,0.0,0.0,0.0,0.0,9006.4,0.0,55.0,5.0,248.07999999999998,0.0,0.0,0.0,0.0,0.0,0.0,0.0,0.0,1.2029999999999994,1.2029999999999994,0.0,0.0,0.0,55.0,616.79921,10000.0,85.000001,85.000001,85.000001,85.000001,395.0,0.0,0.0,0.0,1.0,333.33500000000004,52.811,52.811,47.287,47.287,34.0,-22.3325,23.914,-29.553333333333335,29.845,0.0,1781.778,-0.33999999999999986,100.0,27.966,28.064,43.165,43.65,0.0,0.0,100.0,0.0,0.0,0.0,0.0,3012.714285714286,2984.4,4293.375,4161.6,305.796,305.2455,314.45,314.5565,22.0144,20.6421,22.0292,21.5364,314.999998,314.999998,324.999988,324.999988,99.55972857142856,99.50748333333334,99.56941428571429,99.54908571428571,0.0990000000000002,-0.03600000000000003,-0.093,0.137,-0.03333333333333144,-0.04999999999999716,1.5045000000000002,1.5155,38.59,30.012999999999998,38.683,35.6025,56.192,35.4435,60.253,53.269999999999996,54.107,34.5295,58.811,51.5555,53.248000000000005,34.0435,58.708,50.943,-0.10450000000000004,-0.052000000000000046,0.106575,0.10740500000000001,0.0,215.74,215.76,212.48333333333335,212.48333333333335,0.0,0.0
25,0.0,0.0,0.0,1.0,1.0,0.0,0.0,1.0,0.0,100.0,1.0,1.1856,26.0,0.0,0.0,0.0,57.999998,0.0,26.0,26.0,26.0,26.0,0.01922222222222225,0.26839999999999997,-0.029375000000000002,292.252,-2.7847,-2.6205,-1.601,-1.5272000000000001,-191.49,215.615,190.456875,0.0,0.0,0.0,0.0,0.05053333333333332,-5.498166666666667,-5.498166666666667,-0.607,-0.013500000000000068,0.034222222222222154,0.11699999999999999,69.051,0.0236,-0.22307500000000002,-0.31599999999999984,100.0,1.0,1.0,212.99333333333334,0.0,0.0,0.0,0.0,0.0,0.0,0.0,9028.0,0.0,55.0,5.0,248.55666666666667,1.0,0.0,0.0,0.0,0.0,0.0,0.0,0.0,1.2540000000000013,1.2540000000000013,0.0,0.0,1.0,55.0,616.79921,10000.0,85.000001,85.000001,85.000001,85.000001,395.0,0.0,0.0,0.0,1.0,333.33500000000004,51.819,51.819,47.897,47.897,34.0,-23.974999999999998,27.842,-26.599999999999998,29.475,0.0,1781.727,-0.41499999999999915,100.0,28.007,28.173000000000002,43.012,43.385,0.0,0.0,100.0,0.0,0.0,0.0,0.0,3206.4285714285716,3369.7,3940.75,4149.5,305.1755,304.19925,315.296,314.65425,22.023699999999998,20.6478,22.0397,21.5456,314.999998,314.999998,324.999988,324.999988,99.55974285714285,99.50748333333334,99.56957142857142,99.54924285714286,0.1163333333333334,-0.01633333333333331,-0.09033333333333333,0.13600000000000012,-0.030000000000001137,-0.054999999999999716,1.5535,1.5495,38.647999999999996,30.0485,38.748000000000005,35.66,56.178,35.482,60.286,53.3285,54.093,34.5655,58.841499999999996,51.612,53.233000000000004,34.078,58.7355,50.998333333333335,-0.11299999999999999,-0.04300000000000015,0.11409500000000002,0.099305,0.0,216.14499999999998,216.17000000000002,212.99333333333334,212.99333333333334,0.0,0.0
26,0.0,0.0,0.0,1.0,1.0,0.0,0.0,1.0,0.0,100.0,1.0,1.1856,26.0,0.0,0.0,0.0,57.999998,0.0,26.0,26.0,26.0,26.0,0.037111111111111095,0.2663,0.09185,291.229,-2.6824,-2.721375,-1.55955,-1.5226000000000002,-187.76,215.5975,190.42975,0.0,0.0,0.0,0.0,0.05269999999999997,-5.498166666666667,-5.498166666666667,-0.5722,0.4335,0.01577777777777789,0.867,69.195,0.0268,-0.20090000000000002,-0.4479999999999995,100.0,1.0,1.0,213.18333333333334,0.0,0.0,0.0,0.0,0.0,0.0,0.0,9036.1,0.0,55.0,5.0,249.07333333333332,0.0,0.0,0.0,0.0,0.0,0.0,0.0,0.0,1.3079999999999998,1.3079999999999998,0.0,0.0,0.0,55.0,616.79921,10000.0,85.000001,85.000001,85.000001,85.000001,395.0,0.0,0.0,0.0,1.0,166.665,51.62,51.62,46.31,46.31,34.0,-21.955,26.427999999999997,-30.386666666666663,34.7225,0.0,1781.673,-0.40500000000000114,100.0,28.857,28.688,43.617000000000004,43.876,0.0,0.0,100.0,0.0,0.0,0.0,0.0,3113.4285714285716,3131.2,4494.5,4593.0,305.3205,304.8625,313.9025,313.611,22.0339,20.6539,22.051,21.5556,314.999998,314.999998,324.999988,324.999988,99.55975714285714,99.50748333333334,99.56972857142857,99.5494,0.12533333333333374,-0.01966666666666661,-0.0765,0.15083333333333337,-0.036666666666668846,-0.041666666666671404,1.4344999999999999,1.413,38.712,30.087,38.819,35.7225,56.168,35.5245,60.326499999999996,53.3945,54.083,34.605000000000004,58.879,51.675,53.222,34.1155,58.7695,51.06033333333333,-0.11949999999999994,-0.04499999999999993,0.10928500000000001,0.10657000000000001,0.0,216.60000000000002,216.655,213.18333333333334,213.18333333333334,0.0,0.0
27,0.0,0.0,0.0,1.0,1.0,0.0,0.0,1.0,0.0,100.0,1.0,1.1856,26.0,0.0,0.0,0.0,57.999998,0.0,26.0,26.0,26.0,26.0,0.053444444444444406,0.2479,-0.0354,291.718,-2.7116,-2.65075,-1.5907499999999999,-1.6089,-184.64999999999998,215.585,190.408,0.0,0.0,0.0,0.0,0.05453333333333332,-5.498166666666667,-5.498166666666667,-0.5981000000000001,-0.9750000000000001,0.02299999999999991,-0.6920000000000002,69.31,0.0285,-0.2388,-0.3279999999999994,100.0,1.0,1.0,213.67000000000002,0.0,0.0,0.0,0.0,0.0,0.0,0.0,9056.7,0.0,55.0,5.0,249.49,1.0,0.0,0.0,0.0,0.0,0.0,0.0,0.0,1.352999999999998,1.352999999999998,0.0,0.0,1.0,55.0,616.79921,10000.0,85.000001,85.000001,85.000001,85.000001,395.0,0.0,0.0,0.0,1.0,333.33500000000004,51.956,51.956,46.616,46.616,34.0,-22.1775,25.485999999999997,-28.293333333333333,30.495,0.0,1781.626,-0.40500000000000114,100.0,28.333,28.744,43.971000000000004,44.403,0.0,0.0,100.0,0.0,0.0,0.0,0.0,3077.285714285714,3130.6,4139.0,4069.7,305.6355,304.74925,314.8245,314.673,22.0421,20.6589,22.0604,21.5639,314.999998,314.999998,324.999988,324.999988,99.55977142857142,99.5075,99.56985714285715,99.54954285714285,0.11466666666666647,-0.030333333333333323,-0.08933333333333333,0.1383333333333332,-0.046666666666666856,-0.04333333333332945,1.494,1.4955,38.763,30.118000000000002,38.878,35.7745,56.155,35.5605,60.3615,53.452,54.072,34.6385,58.912,51.7305,53.209,34.1475,58.799,51.114666666666665,-0.11599999999999988,-0.05149999999999988,0.1028,0.10820500000000001,0.0,216.935,216.95,213.67000000000002,213.67000000000002,0.0,0.0
28,0.0,0.0,0.0,1.0,1.0,0.0,0.0,1.0,0.0,100.0,1.0,1.1856,26.0,0.0,0.0,0.0,57.999998,0.0,26.0,26.0,26.0,26.0,0.03966666666666674,0.26470000000000016,-0.049175,291.916,-2.6848,-2.651875,-1.63195,-1.5630000000000002,-181.11,215.57,190.382625,0.0,0.0,0.0,0.0,0.05656666666666654,-5.498166666666667,-5.498166666666667,-0.6031000000000001,0.608,0.010555555555555651,0.42399999999999993,69.44,0.0296,-0.21880000000000002,-0.4399999999999995,100.0,1.0,1.0,214.19,0.0,0.0,0.0,0.0,0.0,0.0,0.0,9078.8,0.0,55.0,5.0,249.95666666666665,0.0,0.0,0.0,0.0,0.0,0.0,0.0,0.0,1.404,1.404,0.0,0.0,0.0,55.0,616.79921,10000.0,85.000001,85.000001,85.000001,85.000001,395.0,0.0,0.0,0.0,1.0,333.33500000000004,51.772999999999996,51.772999999999996,47.516,47.516,34.0,-21.645,26.787999999999997,-27.31,30.3325,0.0,1781.576,-0.46000000000000085,100.0,28.624,28.547,43.424,43.872,0.0,0.0,100.0,0.0,0.0,0.0,0.0,3083.142857142857,3214.9,4054.0,4137.4,305.398,304.66425,315.10325,314.692,22.0515,20.6647,22.0707,21.5731,314.999998,314.999998,324.999988,324.999988,99.55978571428571,99.5075,99.57,99.54967142857143,0.1280000000000001,-0.014000000000000012,-0.08,0.14516666666666667,-0.045000000000001705,-0.06499999999999773,1.561,1.548,38.822,30.154,38.942,35.8315,56.144999999999996,35.5975,60.3915,53.506,54.061,34.6725,58.939499999999995,51.783,53.198,34.1805,58.823499999999996,51.16566666666667,-0.11799999999999988,-0.04400000000000004,0.11371,0.09914500000000001,0.0,217.375,217.4,214.19,214.19,0.0,0.0
29,0.0,0.0,0.0,1.0,1.0,0.0,0.0,1.0,0.0,100.0,1.0,1.1856,26.0,0.0,0.0,0.0,57.999998,0.0,26.0,26.0,26.0,26.0,0.06088888888888899,0.2533000000000001,0.012575000000000001,291.702,-2.6766,-2.70025,-1.5830000000000002,-1.5394999999999999,-177.56,215.5575,190.35625,0.0,0.0,0.0,0.0,0.058633333333333315,-5.498166666666667,-5.498166666666667,-0.6058,-0.683,0.01388888888888884,-0.6179999999999999,69.574,0.0316,-0.21432500000000002,-0.4079999999999995,100.0,1.0,1.0,214.41,0.0,0.0,0.0,0.0,0.0,0.0,0.0,9088.0,0.0,55.0,5.0,250.44,1.0,0.0,0.0,0.0,0.0,0.0,0.0,0.0,1.4549999999999983,1.4549999999999983,0.0,0.0,1.0,55.0,616.79921,10000.0,85.000001,85.000001,85.000001,85.000001,395.0,0.0,0.0,0.0,1.0,333.33500000000004,52.17,52.17,46.631,46.631,34.0,-22.2275,25.878,-28.483333333333334,31.635,0.0,1781.524,-0.47499999999999787,100.0,28.108,28.542,43.752,44.248000000000005,0.0,0.0,100.0,0.0,0.0,0.0,0.0,3122.5714285714284,3073.8,4225.25,4288.0,305.543,304.85725,314.59775,314.19975,22.0607,20.6703,22.0814,21.5825,314.999998,314.999998,324.999988,324.999988,99.5598,99.5075,99.57015714285714,99.54982857142858,0.11366666666666658,-0.02066666666666661,-0.0795,0.14000000000000012,-0.030000000000001137,-0.04833333333333201,1.4775,1.4645000000000001,38.879000000000005,30.189500000000002,39.009,35.8905,56.131,35.637,60.4315,53.571,54.048,34.709,58.9765,51.8455,53.184,34.2155,58.8575,51.22666666666667,-0.11749999999999994,-0.0405000000000002,0.10772500000000002,0.1062,0.0,217.755,217.78,214.41,214.41,0.0,0.0
30,0.0,0.0,0.0,1.0,1.0,0.0,0.0,1.0,0.0,100.0,1.0,1.1856,26.0,0.0,0.0,0.0,57.999998,0.0,26.0,26.0,26.0,26.0,0.05122222222222228,0.25880000000000014,0.018600000000000002,291.168,-2.6936999999999998,-2.583875,-1.5590000000000002,-1.5918999999999999,-174.22,215.5475,190.33125,0.0,0.0,0.0,0.0,0.060566666666666547,-5.498166666666667,-5.498166666666667,-0.6061000000000001,0.7965,0.011222222222222022,-0.6600000000000001,69.694,0.0346,-0.219725,-0.4820000000000002,100.0,1.0,1.0,214.90666666666667,0.0,0.0,0.0,0.0,0.0,0.0,0.0,9109.2,0.0,55.0,5.0,250.87333333333333,0.0,0.0,0.0,0.0,0.0,0.0,1.0,0.0,1.5030000000000001,1.5030000000000001,0.0,0.0,0.0,55.0,616.79921,10000.0,85.000001,85.000001,85.000001,85.000001,395.0,0.0,0.0,0.0,1.0,333.33500000000004,50.568,50.568,47.18,47.18,34.0,-24.224999999999998,26.72,-27.183333333333334,30.795,0.0,1781.477,-0.4450000000000003,100.0,28.984,29.242,43.525999999999996,44.227000000000004,0.0,0.0,100.0,0.0,0.0,0.0,0.0,3370.0,3292.2,4103.625,4117.1,304.6195,304.13075,314.969,314.604,22.0697,20.6759,22.0912,21.5912,314.999998,314.999998,324.999988,324.999988,99.55982857142857,99.5075,99.57028571428572,99.54997142857142,0.12366666666666637,-0.026000000000000023,-0.0855,0.14200000000000013,-0.03999999999999915,-0.04833333333333201,1.524,1.504,38.936,30.2245,39.07,35.945499999999996,56.123000000000005,35.6735,60.460499999999996,53.6235,54.041,34.7425,59.004,51.896,53.175,34.248,58.882,51.275999999999996,-0.125,-0.047499999999999876,0.115235,0.09918,0.0,218.16500000000002,218.19,214.90666666666667,214.90666666666667,0.0,0.0
31,0.0,0.0,0.0,1.0,1.0,0.0,0.0,1.0,0.0,100.0,1.0,1.1856,26.0,0.0,0.0,0.0,57.999998,0.0,26.0,26.0,26.0,26.0,0.04055555555555568,0.25690000000000013,0.05075,290.741,-2.7738,-2.621375,-1.6047500000000001,-1.4926,-170.66,215.5375,190.305375,0.0,0.0,0.0,0.0,0.06263333333333332,-5.498166666666667,-5.498166666666667,-0.5877,-0.4235,0.018777777777777782,0.764,69.827,0.038700000000000005,-0.220225,-0.5039999999999996,100.0,1.0,1.0,215.12666666666667,0.0,0.0,0.0,0.0,0.0,0.0,0.0,9118.4,0.0,55.0,5.0,251.35000000000002,1.0,0.0,0.0,0.0,0.0,0.0,1.0,0.0,1.5539999999999985,1.5539999999999985,0.0,0.0,1.0,55.0,616.79921,10000.0,85.000001,85.000001,85.000001,85.000001,395.0,0.0,0.0,0.0,1.0,166.665,51.086,51.086,45.547,45.547,34.0,-22.535,27.8,-29.013333333333335,33.04,0.0,1781.427,-0.47499999999999787,100.0,28.962,29.168,44.417,44.866,0.0,0.0,100.0,0.0,0.0,0.0,0.0,3110.857142857143,3374.4,4301.5,4389.6,305.449,304.27325,314.3235,313.98825,22.0791,20.6817,22.1019,21.6008,314.999998,314.999998,324.999988,324.999988,99.55984285714285,99.5075,99.57044285714285,99.55012857142857,0.1286666666666667,-0.016666666666666607,-0.067,0.15866666666666673,-0.01666666666666572,-0.06833333333332803,1.444,1.4245,38.994,30.261,39.137,36.004999999999995,56.113,35.713,60.4995,53.687,54.03,34.7795,59.0405,51.957,53.164,34.283,58.915,51.336,-0.119,-0.051000000000000156,0.11003,0.10525500000000002,0.0,218.54500000000002,218.585,215.12666666666667,215.12666666666667,0.0,0.0
32,0.0,0.0,0.0,1.0,1.0,0.0,0.0,1.0,0.0,100.0,1.0,1.1856,26.0,0.0,0.0,0.0,57.999998,0.0,26.0,26.0,26.0,26.0,0.06311111111111112,0.26439999999999997,-0.022475000000000002,291.245,-2.7023,-2.675375,-1.5921500000000002,-1.617,-166.89,215.5275,190.278375,0.0,0.0,0.0,0.0,0.0648333333333333,-5.498166666666667,-5.498166666666667,-0.606,-0.19650000000000012,0.0012222222222222356,0.35399999999999987,69.961,0.039,-0.23037500000000002,-0.5039999999999996,100.0,1.0,1.0,215.66666666666669,0.0,0.0,0.0,0.0,0.0,0.0,0.0,9141.3,0.0,55.0,5.0,251.83666666666664,0.0,0.0,0.0,0.0,0.0,0.0,1.0,0.0,1.6080000000000005,1.6080000000000005,0.0,0.0,0.0,55.0,616.79921,10000.0,85.000001,85.000001,85.000001,85.000001,395.0,0.0,0.0,0.0,1.0,166.665,51.528999999999996,51.528999999999996,46.555,46.555,34.0,-21.4225,27.369999999999997,-26.236666666666665,33.8125,0.0,1781.373,-0.46999999999999886,100.0,28.834,29.035,44.169,44.721000000000004,0.0,0.0,100.0,0.0,0.0,0.0,0.0,3050.0,3207.7,4091.625,4323.2,305.5345,304.6785,314.893,314.175,22.089,20.6879,22.113,21.6107,314.999998,314.999998,324.999988,324.999988,99.55985714285714,99.50751666666666,99.5706,99.55028571428572,0.1299999999999999,-0.0043333333333333,-0.056,0.1581666666666668,-0.05333333333332746,-0.04333333333332945,1.5075,1.5005,39.056,30.299500000000002,39.206,36.067,56.101,35.7545,60.536,53.7495,54.019,34.817499999999995,59.074,52.0175,53.150999999999996,34.32,58.945,51.394999999999996,-0.11549999999999994,-0.04300000000000015,0.102245,0.10767000000000002,0.0,218.98000000000002,219.005,215.66666666666669,215.66666666666669,0.0,0.0
33,0.0,0.0,0.0,1.0,1.0,0.0,0.0,1.0,0.0,100.0,1.0,1.1856,26.0,0.0,0.0,0.0,57.999998,0.0,26.0,26.0,26.0,26.0,0.06666666666666687,0.2522,-0.042575,291.534,-2.741,-2.666375,-1.59915,-1.5816,-163.74,215.5225,190.254875,0.0,0.0,0.0,0.0,0.06666666666666654,-5.498166666666667,-5.498166666666667,-0.6138,-0.24249999999999994,-0.0023333333333335204,-0.2509999999999999,70.075,0.039400000000000004,-0.216,-0.4320000000000004,100.0,1.0,1.0,216.01666666666665,0.0,0.0,0.0,0.0,0.0,0.0,0.0,9156.2,0.0,55.0,5.0,252.24333333333334,1.0,0.0,0.0,0.0,0.0,0.0,1.0,0.0,1.6529999999999987,1.6529999999999987,0.0,0.0,1.0,55.0,616.79921,10000.0,85.000001,85.000001,85.000001,85.000001,395.0,0.0,0.0,0.0,1.0,333.33500000000004,51.865,51.865,46.768,46.768,34.0,-22.8,25.474,-27.673333333333336,31.4725,0.0,1781.328,-0.47499999999999787,100.0,28.495,28.909,43.916,44.577,0.0,0.0,100.0,0.0,0.0,0.0,0.0,3159.714285714286,3050.0,4164.75,4201.4,305.451,305.00875,314.8095,314.4885,22.0972,20.6929,22.1222,21.6189,314.999998,314.999998,324.999988,324.999988,99.55987142857143,99.50751666666666,99.57072857142857,99.55041428571428,0.12166666666666659,-0.016000000000000014,-0.07233333333333333,0.14516666666666667,-0.05333333333332746,-0.04999999999999716,1.5055,1.504,39.108000000000004,30.3305,39.263999999999996,36.1185,56.09,35.787,60.566,53.8015,54.009,34.848,59.1015,52.067,53.14,34.349000000000004,58.97,51.443333333333335,-0.12199999999999989,-0.0405000000000002,0.10367000000000001,0.103285,0.0,219.325,219.35000000000002,216.01666666666665,216.01666666666665,0.0,0.0
34,0.0,0.0,0.0,1.0,1.0,0.0,0.0,1.0,0.0,100.0,1.0,1.1856,26.0,0.0,0.0,0.0,57.999998,0.0,26.0,26.0,26.0,26.0,0.04444444444444429,0.2479,-0.06495000000000001,291.794,-2.6726,-2.66675,-1.63525,-1.545,-160.16,215.51749999999998,190.226875,0.0,0.0,0.0,0.0,0.06876666666666653,-5.498166666666667,-5.498166666666667,-0.6402,-0.8355000000000001,0.023333333333333206,0.944,70.20400000000001,0.041100000000000005,-0.22105000000000002,-0.5079999999999991,100.0,1.0,1.0,216.39333333333332,0.0,0.0,0.0,0.0,0.0,0.0,0.0,9172.2,0.0,55.0,5.0,252.71,0.0,0.0,0.0,0.0,0.0,0.0,1.0,0.0,1.7040000000000006,1.7040000000000006,0.0,0.0,0.0,55.0,616.79921,10000.0,85.000001,85.000001,85.000001,85.000001,395.0,0.0,0.0,0.0,1.0,333.33500000000004,52.307,52.307,47.119,47.119,34.0,-20.6025,25.759999999999998,-27.486666666666665,31.4375,0.0,1781.276,-0.48499999999999943,100.0,28.395,28.45,43.842,44.531,0.0,0.0,100.0,0.0,0.0,0.0,0.0,2985.285714285714,3062.2,4090.5,4239.7,305.781,305.0805,314.95475,314.40625,22.1064,20.6985,22.1326,21.6283,314.999998,314.999998,324.999988,324.999988,99.55988571428571,99.50751666666666,99.57087142857142,99.55057142857143,0.12933333333333374,-0.008333333333333304,-0.07016666666666667,0.14733333333333332,-0.046666666666666856,-0.041666666666671404,1.509,1.499,39.165,30.365499999999997,39.329,36.177,56.078,35.823,60.5995,53.8615,53.997,34.881,59.1325,52.125,53.126999999999995,34.381,58.9975,51.5,-0.11250000000000004,-0.03949999999999987,0.11344000000000001,0.097725,0.0,219.695,219.71,216.39333333333332,216.39333333333332,0.0,0.0
35,0.0,0.0,0.0,1.0,1.0,0.0,0.0,1.0,0.0,100.0,1.0,1.1856,26.0,0.0,0.0,0.0,57.999998,0.0,26.0,26.0,26.0,26.0,0.05899999999999994,0.2662,-0.07515000000000001,291.702,-2.7318,-2.6098749999999997,-1.6308,-1.5076,-156.36,215.5125,190.195125,0.0,0.0,0.0,0.0,0.07096666666666651,-5.498166666666667,-5.498166666666667,-0.6803,-0.14250000000000007,0.004999999999999893,-0.05699999999999994,70.338,0.0444,-0.228025,-0.5179999999999998,100.0,1.0,1.0,216.89,0.0,0.0,0.0,0.0,0.0,0.0,0.0,9193.1,0.0,55.0,5.0,253.19,1.0,0.0,0.0,0.0,0.0,0.0,1.0,0.0,1.7579999999999991,1.7579999999999991,0.0,0.0,1.0,55.0,616.79921,10000.0,85.000001,85.000001,85.000001,85.000001,395.0,0.0,0.0,0.0,1.0,166.665,51.62,51.62,46.768,46.768,34.0,-21.66,28.622,-26.136666666666663,30.22,0.0,1781.223,-0.3000000000000007,100.0,28.268,28.832,43.626,44.046,0.0,0.0,100.0,0.0,0.0,0.0,0.0,3044.714285714286,3431.1,4011.625,4078.6000000000004,305.591,304.00175,315.0865,314.82525,22.1161,20.7047,22.1436,21.6381,314.999998,314.999998,324.999988,324.999988,99.5599,99.50753333333333,99.57102857142857,99.55071428571429,0.12933333333333374,-0.01200000000000001,-0.059500000000000004,0.16566666666666685,-0.036666666666668846,-0.05333333333332746,1.5575,1.534,39.226,30.4045,39.397,36.238,56.063,35.8645,60.634,53.920500000000004,53.982,34.9195,59.165,52.182,53.111999999999995,34.418,59.0265,51.556,-0.10599999999999987,-0.05699999999999994,0.11034000000000001,0.10579000000000001,0.0,220.115,220.15,216.89,216.89,0.0,0.0
36,0.0,0.0,0.0,1.0,1.0,0.0,0.0,1.0,0.0,100.0,1.0,1.1856,26.0,0.0,0.0,0.0,57.999998,0.0,26.0,26.0,26.0,26.0,0.0685555555555557,0.25780000000000003,0.0247,291.0,-2.6574999999999998,-2.702,-1.5805500000000001,-1.5482,-153.2,215.51,190.167375,0.0,0.0,0.0,0.0,0.07279999999999998,-5.498166666666667,-5.498166666666667,-0.6626000000000001,0.21950000000000003,-0.03744444444444417,-1.3940000000000001,70.452,0.041600000000000005,-0.202825,-0.28000000000000025,100.0,1.0,1.0,217.0366666666667,0.0,0.0,0.0,0.0,0.0,0.0,0.0,9199.3,0.0,55.0,5.0,253.60000000000002,0.0,0.0,0.0,0.0,0.0,0.0,1.0,0.0,1.8030000000000008,1.8030000000000008,0.0,0.0,0.0,55.0,616.79921,10000.0,85.000001,85.000001,85.000001,85.000001,395.0,0.0,0.0,0.0,1.0,333.33500000000004,51.453,51.453,46.402,46.402,34.0,-22.165,25.982,-29.713333333333335,33.8575,0.0,1781.176,-0.21499999999999986,100.0,28.762999999999998,29.088,43.732,44.443,0.0,0.0,100.0,0.0,0.0,0.0,0.0,3159.142857142857,3076.2,4421.125,4455.4,305.2355,304.8055,314.2275,313.85975,22.1245,20.7099,22.1528,21.6464,314.999998,314.999998,324.999988,324.999988,99.55991428571429,99.50753333333333,99.57115714285715,99.55085714285714,0.12366666666666637,-0.021333333333333315,-0.07266666666666667,0.14900000000000002,-0.061666666666667425,-0.04333333333332945,1.447,1.4375,39.278,30.436999999999998,39.455,36.29,56.054,35.899,60.665,53.974000000000004,53.974000000000004,34.952,59.194,52.234,53.102000000000004,34.449,59.0525,51.60666666666667,-0.10149999999999992,-0.06050000000000022,0.107215,0.101125,0.0,220.515,220.525,217.03666666666666,217.0366666666667,0.0,0.0
