,ABS Active,ABS Enabled,AID Allow Tire Blankets,AID Auto Blip,AID Auto Clutch,AID Auto Shift,AID Fuel Rate,AID Ideal Line,AID Mech Damage,AID Stability,AID Tire Wear Rate,Air Density,Air Temp,Ballast,Best Lap Delta,Best Lap Time,Brake Bias,Brake Pos,Brake Temp FL,Brake Temp FR,Brake Temp RL,Brake Temp RR,CG Accel Lateral,CG Accel Longitudinal,CG Accel Vertical,CG Height,Camber FL,Camber FR,Camber RL,Camber RR,Car Coord X,Car Coord Y,Car Coord Z,Car Damage Front,Car Damage Left,Car Damage Rear,Car Damage Right,Car Pos Norm,Caster FL,Caster FR,Chassis Pitch Angle,Chassis Pitch Rate,Chassis Roll Angle,Chassis Roll Rate,Chassis Velocity X,Chassis Velocity Y,Chassis Velocity Z,Chassis Yaw Rate,Clutch Pos,DRS Active,DRS Available,Drive Train Speed,ERS Heat Charging,ERS Is Charging,ERS Max Energy,ERS Power Level,ERS Recovery Level,Engine Brake Setting,Engine Limiter,Engine RPM,Flags,Fuel Level,Gear,Ground Speed,HR Sample Clock,In Pit,KERS Charge,KERS Deployed Energy,KERS Input,KERS Max Energy,LR Sample Clock,Lap Invalidated,Lap Time,Lap Time2,Last Lap Time,Last Sector Time,MR Sample Clock,Max Fuel,Max Power,Max RPM,Max Sus Travel FL,Max Sus Travel FR,Max Sus Travel RL,Max Sus Travel RR,Max Torque,Max Turbo Boost,Num Tires Off Track,Penalties Enabled,Position,Raw Data Sample Rate,Ride Height FL,Ride Height FR,Ride Height RL,Ride Height RR,Road Temp,Self Align Torque FL,Self Align Torque FR,Self Align Torque RL,Self Align Torque RR,Session Lap Count,Session Time Left,Steering Angle,Surface Grip,Suspension Travel FL,Suspension Travel FR,Suspension Travel RL,Suspension Travel RR,TC Active,TC Enabled,Throttle Pos,Tire Dirt Level FL,Tire Dirt Level FR,Tire Dirt Level RL,Tire Dirt Level RR,Tire Load FL,Tire Load FR,Tire Load RL,Tire Load RR,Tire Loaded Radius FL,Tire Loaded Radius FR,Tire Loaded Radius RL,Tire Loaded Radius RR,Tire Pressure FL,Tire Pressure FR,Tire Pressure RL,Tire Pressure RR,Tire Radius FL,Tire Radius FR,Tire Radius RL,Tire Radius RR,Tire Rubber Grip FL,Tire Rubber Grip FR,Tire Rubber Grip RL,Tire Rubber Grip RR,Tire Slip Angle FL,Tire Slip Angle FR,Tire Slip Angle RL,Tire Slip Angle RR,Tire Slip Ratio FL,Tire Slip Ratio FR,Tire Slip Ratio RL,Tire Slip Ratio RR,Tire Temp Core FL,Tire Temp Core FR,Tire Temp Core RL,Tire Temp Core RR,Tire Temp Inner FL,Tire Temp Inner FR,Tire Temp Inner RL,Tire Temp Inner RR,Tire Temp Middle FL,Tire Temp Middle FR,Tire Temp Middle RL,Tire Temp Middle RR,Tire Temp Outer FL,Tire Temp Outer FR,Tire Temp Outer RL,Tire Temp Outer RR,Toe In FL,Toe In FR,Toe In RL,Toe In RR,Turbo Boost,Wheel Angular Speed FL,Wheel Angular Speed FR,Wheel Angular Speed RL,Wheel Angular Speed RR,Wind Direction,Wind Speed
0,0.0,0.0,0.0,1.0,1.0,0.0,0.0,1.0,0.0,100.0,1.0,1.1856,26.0,0.0,0.0,0.0,57.99999,0.0,26.0,26.0,26.0,26.0,-0.024333333333333332,0.2925,0.187775,293.32,-2.7485,-2.6225,-1.5594000000000001,-1.5088,-275.8,215.39,190.98825,0.0,0.0,0.0,0.0,0.0015333333333333334,-5.498166666666667,-5.498166666666667,-0.5652,1.6360000000000001,0.00024999999999986144,-0.3929999999999998,65.459,-0.0328,-0.22275,0.008000000000000007,100.0,1.0,1.0,202.11333333333334,0.0,0.0,0.0,0.0,0.0,0.0,0.0,8566.9,0.0,55.0,5.0,235.62333333333333,0.0,0.0,0.0,0.0,0.0,0.0,0.0,0.0,0.0030000000000001137,0.0030000000000001137,0.0,0.0,0.0,55.0,616.79921,10000.0,85.0,85.0,85.0,85.0,395.0,0.0,0.0,0.0,1.0,20.0,51.056,51.056,49.179,49.179,34.0,-29.807499999999997,32.136,-29.866666666666664,26.425,0.0,1782.713,0.0,100.0,27.265,27.044,40.357,40.150999999999996,0.0,0.0,100.0,0.0,0.0,0.0,0.0,3452.857142857143,4207.3,4073.222222222222,4084.3,304.4755,301.833,314.97475,314.65525,21.7616,20.5109,21.7741,21.3217,314.99999,314.99999,324.99998,324.99998,99.55808571428571,99.50711666666666,99.56525714285715,99.54548571428572,0.02666666666666684,-0.07499999999999996,-0.14683333333333334,0.09,-0.061666666666667425,-0.04142857142856826,1.5326666666666666,1.533,37.01,29.193333333333335,37.088,34.2605,56.003,34.3865,59.076499999999996,51.723,53.94,33.581,57.7025,50.0755,53.119,33.163,57.6655,49.499,-0.07499999999999996,-0.07550000000000012,0.10458,0.1188,0.0,205.10500000000002,205.07999999999998,202.11333333333334,202.11333333333334,0.0,0.0
1,0.0,0.0,0.0,1.0,1.0,0.0,0.0,1.0,0.0,100.0,1.0,1.1856,26.0,0.0,0.0,0.0,57.999998,0.0,26.0,26.0,26.0,26.0,-0.057444444444444444,0.35750000000000015,0.16445,292.297,-2.6352,-2.69825,-1.6005,-1.5223,-272.46,215.3975,190.968125,0.0,0.0,0.0,0.0,0.0034666666666666665,-5.498166666666667,-5.498166666666667,-0.46840000000000004,-1.1935000000000002,-0.046250000000000124,-0.1200000000000001,65.618,-0.0234,-0.164525,0.46200000000000063,100.0,1.0,1.0,201.9766666666667,0.0,0.0,0.0,0.0,0.0,0.0,0.0,8561.1,0.0,55.0,5.0,236.19333333333333,1.0,0.0,0.0,0.0,0.0,0.0,0.0,0.0,0.053999999999998494,0.053999999999998494,0.0,0.0,1.0,55.0,616.79921,10000.0,85.000001,85.000001,85.000001,85.000001,395.0,0.0,0.0,0.0,1.0,333.33500000000004,54.275999999999996,54.275999999999996,46.829,46.829,34.0,-22.0,16.932,-39.39333333333333,38.83,0.0,1782.66,0.254999999999999,100.0,27.568,27.299,42.459,42.559,0.0,0.0,100.0,0.0,0.0,0.0,0.0,2799.714285714286,2430.6,4902.444444444444,5639.6,306.39,307.064,312.732,311.0185,21.7713,20.516,21.7851,21.331,314.999998,314.999998,324.999988,324.999988,99.55808571428571,99.50713333333333,99.5654,99.54562857142857,0.03933333333333344,-0.09866666666666657,-0.14200000000000002,0.0725,-0.02499999999999858,-0.034285714285715585,1.3016666666666667,1.3165,37.07,29.225,37.157,34.3185,55.986000000000004,34.425,59.125,51.792,53.924,33.617,57.7475,50.1415,53.102000000000004,33.1975,57.707499999999996,49.56366666666666,-0.05249999999999999,-0.09099999999999997,0.10519,0.10601000000000001,0.0,205.57,205.535,201.9766666666667,201.9766666666667,0.0,0.0
2,0.0,0.0,0.0,1.0,1.0,0.0,0.0,1.0,0.0,100.0,1.0,1.1856,26.0,0.0,0.0,0.0,57.999998,0.0,26.0,26.0,26.0,26.0,-0.07466666666666667,0.3066,0.039225,293.716,-2.6634,-2.651875,-1.5705,-1.5156,-268.91,215.4025,190.948125,0.0,0.0,0.0,0.0,0.005533333333333334,-5.498166666666667,-5.498166666666667,-0.5847,0.624,-0.008624999999999883,2.106,65.761,-0.024900000000000002,-0.274775,0.7079999999999993,100.0,1.0,1.0,203.47,0.0,0.0,0.0,0.0,0.0,0.0,0.0,8624.3,0.0,55.0,5.0,236.71333333333334,0.0,0.0,0.0,0.0,0.0,0.0,0.0,0.0,0.10800000000000054,0.10800000000000054,0.0,0.0,0.0,55.0,616.79921,10000.0,85.000001,85.000001,85.000001,85.000001,395.0,0.0,0.0,0.0,1.0,166.665,51.544,51.544,50.69,50.69,34.0,-29.3375,23.240000000000002,-24.806666666666665,19.442500000000003,0.0,1782.608,0.41000000000000014,100.0,28.282,27.598,41.836,41.703,0.0,0.0,100.0,0.0,0.0,0.0,0.0,3396.714285714286,3262.2,3504.0,3380.4,304.459,304.3545,316.30575,316.5355,21.7818,20.5215,21.796,21.34,314.999998,314.999998,324.999988,324.999988,99.55808571428571,99.50713333333333,99.56554285714286,99.54575714285714,0.012666666666666604,-0.10533333333333339,-0.16233333333333336,0.07516666666666667,-0.06833333333332803,-0.06857142857143117,1.7686666666666666,1.8130000000000002,37.137,29.259,37.224999999999994,34.375,55.973,34.467,59.161,51.845,53.911,33.6555,57.7815,50.192499999999995,53.088,33.234,57.7385,49.614,-0.04399999999999993,-0.10899999999999999,0.10157000000000001,0.119885,0.0,206.04000000000002,205.985,203.47,203.47,0.0,0.0
3,0.0,0.0,0.0,1.0,1.0,0.0,0.0,1.0,0.0,100.0,1.0,1.1856,26.0,0.0,0.0,0.0,57.999998,0.0,26.0,26.0,26.0,26.0,-0.06166666666666667,0.3265,0.149425,292.831,-2.6852,-2.675625,-1.5569000000000002,-1.4787,-265.75,215.405,190.928875,0.0,0.0,0.0,0.0,0.007366666666666667,-5.498166666666667,-5.498166666666667,-0.5001,0.482,0.011500000000000066,-1.5759999999999996,65.912,-0.0364,-0.185,0.5820000000000007,100.0,1.0,1.0,203.20333333333332,0.0,0.0,0.0,0.0,0.0,0.0,0.0,8613.0,0.0,55.0,5.0,237.25,1.0,0.0,0.0,0.0,0.0,0.0,0.0,0.0,0.1559999999999988,0.1559999999999988,0.0,0.0,1.0,55.0,616.79921,10000.0,85.000001,85.000001,85.000001,85.000001,395.0,0.0,0.0,0.0,1.0,166.665,53.207,53.207,47.333,47.333,34.0,-23.085,20.698,-34.403333333333336,28.38,0.0,1782.56,0.5300000000000011,100.0,27.931,27.614,42.128,42.175,0.0,0.0,100.0,0.0,0.0,0.0,0.0,2820.142857142857,2951.9,4525.777777777777,4470.5,306.341,305.39575,313.7925,313.6255,21.7909,20.5265,21.805799999999998,21.3486,314.999998,314.999998,324.999988,324.999988,99.55808571428571,99.50715,99.56568571428572,99.5459,0.026000000000000245,-0.10866666666666658,-0.14166666666666666,0.07116666666666667,-0.03333333333333144,-0.054285714285711606,1.4043333333333332,1.451,37.193,29.290333333333333,37.286,34.4285,55.956,34.507,59.198499999999996,51.908,53.896,33.692,57.816,50.2535,53.072,33.2695,57.7705,49.67366666666666,-0.04249999999999998,-0.11149999999999993,0.10683000000000001,0.10461000000000001,0.0,206.505,206.495,203.20333333333332,203.20333333333332,0.0,0.0
4,0.0,0.0,0.0,1.0,1.0,0.0,0.0,1.0,0.0,100.0,1.0,1.1856,26.0,0.0,0.0,0.0,57.999998,0.0,26.0,26.0,26.0,26.0,-0.06388888888888888,0.28780000000000006,0.012425,293.304,-2.6738,-2.73825,-1.495,-1.5937999999999999,-262.38,215.4075,190.909625,0.0,0.0,0.0,0.0,0.009333333333333334,-5.498166666666667,-5.498166666666667,-0.5356000000000001,-0.9555,-0.042749999999999844,-0.5389999999999997,66.056,-0.044000000000000004,-0.23947500000000002,0.9960000000000004,100.0,1.0,1.0,203.90666666666667,0.0,0.0,0.0,0.0,0.0,0.0,0.0,8642.9,0.0,55.0,5.0,237.7733333333333,0.0,0.0,0.0,0.0,0.0,0.0,0.0,0.0,0.20700000000000074,0.20700000000000074,0.0,0.0,0.0,55.0,616.79921,10000.0,85.000001,85.000001,85.000001,85.000001,395.0,0.0,0.0,0.0,1.0,166.665,52.811,52.811,48.782,48.782,34.0,-27.872500000000002,20.066,-30.19,23.990000000000002,0.0,1782.508,0.5899999999999999,100.0,27.846,27.353,42.864000000000004,42.293,0.0,0.0,100.0,0.0,0.0,0.0,0.0,3226.857142857143,2887.3,4026.222222222222,3814.6,305.1285,305.55725,315.02975,315.31975,21.8007,20.5315,21.8165,21.3575,314.999998,314.999998,324.999988,324.999988,99.5581,99.50716666666666,99.56581428571428,99.54604285714285,0.0043333333333333,-0.126,-0.17933333333333334,0.0645,-0.06333333333333258,-0.034285714285715585,1.5613333333333332,1.5965,37.254000000000005,29.322,37.352999999999994,34.4845,55.94,34.546,59.241,51.967,53.879999999999995,33.728,57.856,50.31,53.056,33.304,57.8075,49.729,-0.027000000000000024,-0.12149999999999994,0.11067,0.12177,0.0,206.93,206.82,203.90666666666667,203.90666666666667,0.0,0.0
5,0.0,0.0,0.0,1.0,1.0,0.0,0.0,1.0,0.0,100.0,1.0,1.1856,26.0,0.0,0.0,0.0,57.999998,0.0,26.0,26.0,26.0,26.0,-0.09566666666666668,0.3017000000000001,-0.053625000000000006,293.594,-2.6463,-2.72075,-1.5449000000000002,-1.5729000000000002,-259.01,215.4075,190.889875,0.0,0.0,0.0,0.0,0.011300000000000001,-5.498166666666667,-5.498166666666667,-0.5398000000000001,0.655,-0.024875000000000203,0.6820000000000004,66.202,-0.0658,-0.2252,0.9379999999999997,100.0,1.0,1.0,204.42666666666668,0.0,0.0,0.0,0.0,0.0,0.0,0.0,8664.9,0.0,55.0,5.0,238.29333333333335,1.0,0.0,0.0,0.0,0.0,0.0,0.0,0.0,0.2579999999999991,0.2579999999999991,0.0,0.0,1.0,55.0,616.79921,10000.0,85.000001,85.000001,85.000001,85.000001,395.0,0.0,0.0,0.0,1.0,166.665,53.101,53.101,49.072,49.072,34.0,-25.46,21.136,-30.276666666666664,23.535,0.0,1782.458,0.3150000000000013,100.0,27.87,27.172,42.468,41.676,0.0,0.0,100.0,0.0,0.0,0.0,0.0,2999.857142857143,2971.2,3916.0,3984.6000000000004,305.5615,305.349,315.3095,315.01925,21.8105,20.5367,21.8268,21.3663,314.999998,314.999998,324.999988,324.999988,99.5581,99.50718333333333,99.56595714285714,99.54617142857143,0.010000000000000231,-0.1113333333333334,-0.1925,0.04133333333333334,-0.03833333333332689,-0.04142857142856826,1.5906666666666667,1.646,37.316,29.354666666666667,37.418,34.539500000000004,55.926,34.587,59.278,52.0245,53.866,33.766,57.89,50.365,53.041,33.34,57.839,49.782666666666664,-0.04799999999999993,-0.09549999999999992,0.10745,0.11085,0.0,207.4,207.34,204.42666666666668,204.42666666666668,0.0,0.0
6,0.0,0.0,0.0,1.0,1.0,0.0,0.0,1.0,0.0,100.0,1.0,1.1856,26.0,0.0,0.0,0.0,57.999998,0.0,26.0,26.0,26.0,26.0,-0.10177777777777777,0.29310000000000014,-0.04055,293.396,-2.6758,-2.776,-1.49,-1.5636999999999999,-255.82999999999998,215.405,190.870375,0.0,0.0,0.0,0.0,0.013133333333333335,-5.498166666666667,-5.498166666666667,-0.5292,-0.3215000000000001,-0.04674999999999985,0.3689999999999998,66.342,-0.06760000000000001,-0.2076,0.7560000000000002,100.0,1.0,1.0,204.67000000000002,0.0,0.0,0.0,0.0,0.0,0.0,0.0,8675.2,0.0,55.0,5.0,238.80333333333334,0.0,0.0,0.0,0.0,0.0,0.0,0.0,0.0,0.30600000000000094,0.30600000000000094,0.0,0.0,0.0,55.0,616.79921,10000.0,85.000001,85.000001,85.000001,85.000001,395.0,0.0,0.0,0.0,1.0,166.665,53.436,53.436,48.553,48.553,34.0,-27.215,19.752000000000002,-31.886666666666667,24.7675,0.0,1782.41,0.20500000000000185,100.0,27.616,26.836,42.747,41.835,0.0,0.0,100.0,0.0,0.0,0.0,0.0,3110.4285714285716,2841.0,4164.111111111111,4104.7,305.3395,305.79925,314.61875,314.679,21.8197,20.5415,21.8368,21.3748,314.999998,314.999998,324.999988,324.999988,99.5581,99.5072,99.5661,99.54631428571429,-0.002666666666666595,-0.13,-0.182,0.042166666666666665,-0.045000000000001705,-0.0357142857142847,1.5073333333333334,1.5455,37.373000000000005,29.384333333333334,37.480000000000004,34.5925,55.91,34.6235,59.316,52.082,53.851,33.7995,57.926,50.42,53.025999999999996,33.372,57.872,49.837,-0.04699999999999993,-0.10349999999999993,0.11211000000000002,0.104175,0.0,207.82,207.74,204.67000000000002,204.67000000000002,0.0,0.0
7,0.0,0.0,0.0,1.0,1.0,0.0,0.0,1.0,0.0,100.0,1.0,1.1856,26.0,0.0,0.0,0.0,57.999998,0.0,26.0,26.0,26.0,26.0,-0.064,0.28910000000000013,-0.00265,293.365,-2.6803,-2.7685,-1.5437,-1.6057000000000001,-252.44,215.4,190.84975,0.0,0.0,0.0,0.0,0.0151,-5.498166666666667,-5.498166666666667,-0.5357000000000001,0.15300000000000002,-0.039000000000000146,-0.2370000000000001,66.487,-0.0703,-0.218225,0.6279999999999992,100.0,1.0,1.0,205.19666666666666,0.0,0.0,0.0,0.0,0.0,0.0,0.0,8697.5,0.0,55.0,5.0,239.32333333333332,1.0,0.0,0.0,0.0,0.0,0.0,0.0,0.0,0.3569999999999993,0.3569999999999993,0.0,0.0,1.0,55.0,616.79921,10000.0,85.000001,85.000001,85.000001,85.000001,395.0,0.0,0.0,0.0,1.0,166.665,53.085,53.085,48.644999999999996,48.644999999999996,34.0,-27.07,20.966,-32.79,23.5225,0.0,1782.358,-0.134999999999998,100.0,27.726,27.11,42.635,41.846000000000004,0.0,0.0,100.0,0.0,0.0,0.0,0.0,3222.285714285714,2858.4,4165.444444444444,3956.8,305.177,305.54575,314.745,314.97475,21.8295,20.5467,21.8473,21.3837,314.999998,314.999998,324.999988,324.999988,99.5581,99.50721666666666,99.56624285714285,99.54644285714286,0.022666666666666835,-0.10633333333333339,-0.19116666666666665,0.0275,-0.02833333333332888,-0.05142857142856627,1.5323333333333333,1.565,37.435,29.416666666666664,37.546,34.647999999999996,55.896,34.664,59.3555,52.141,53.838,33.837,57.9625,50.4765,53.012,33.408,57.906,49.89233333333333,-0.08899999999999997,-0.0625,0.10686000000000001,0.10720500000000001,0.0,208.275,208.22,205.19666666666666,205.19666666666666,0.0,0.0
8,0.0,0.0,0.0,1.0,1.0,0.0,0.0,1.0,0.0,100.0,1.0,1.1856,26.0,0.0,0.0,0.0,57.999998,0.0,26.0,26.0,26.0,26.0,-0.03266666666666666,0.28459999999999996,-0.02955,293.442,-2.6745,-2.7030000000000003,-1.5568,-1.6019999999999999,-249.25,215.39249999999998,190.8305,0.0,0.0,0.0,0.0,0.016966666666666668,-5.498166666666667,-5.498166666666667,-0.5365,-0.09299999999999997,-0.02950000000000008,-1.1280000000000001,66.623,-0.0613,-0.22105000000000002,0.2920000000000007,100.0,1.0,1.0,205.61333333333334,0.0,0.0,0.0,0.0,0.0,0.0,0.0,8715.2,0.0,55.0,5.0,239.81666666666666,0.0,0.0,0.0,0.0,0.0,0.0,0.0,0.0,0.40500000000000114,0.40500000000000114,0.0,0.0,0.0,55.0,616.79921,10000.0,85.000001,85.000001,85.000001,85.000001,395.0,0.0,0.0,0.0,1.0,166.665,53.253,53.253,48.462,48.462,34.0,-25.7,21.588,-31.506666666666668,25.2425,0.0,1782.311,-0.21000000000000085,100.0,27.445,27.181,42.647,42.03,0.0,0.0,100.0,0.0,0.0,0.0,0.0,3105.142857142857,2936.8,4093.777777777778,3959.0,305.506,305.32325,314.95025,314.93625,21.8386,20.5516,21.8572,21.3922,314.999998,314.999998,324.999988,324.999988,99.5581,99.50721666666666,99.56637142857143,99.54658571428571,0.02733333333333343,-0.09299999999999997,-0.1775,0.0615,-0.036666666666668846,-0.060000000000002274,1.5456666666666667,1.5605,37.491,29.447666666666667,37.608000000000004,34.701,55.882,34.701499999999996,59.3925,52.198499999999996,53.824,33.8715,57.997,50.5315,52.997,33.441,57.937,49.946,-0.08899999999999997,-0.05499999999999994,0.10097500000000001,0.11768500000000001,0.0,208.675,208.655,205.61333333333334,205.61333333333334,0.0,0.0
9,0.0,0.0,0.0,1.0,1.0,0.0,0.0,1.0,0.0,100.0,1.0,1.1856,26.0,0.0,0.0,0.0,57.999998,0.0,26.0,26.0,26.0,26.0,-0.04133333333333334,0.28300000000000014,0.00895,293.335,-2.6699,-2.724,-1.54,-1.5604,-245.84,215.385,190.80975,0.0,0.0,0.0,0.0,0.018933333333333337,-5.498166666666667,-5.498166666666667,-0.5342,0.1945,-0.03750000000000009,0.742,66.768,-0.048,-0.21300000000000002,0.040000000000000036,100.0,1.0,1.0,206.04000000000002,0.0,0.0,0.0,0.0,0.0,0.0,0.0,8733.2,0.0,55.0,5.0,240.33666666666667,1.0,0.0,0.0,0.0,0.0,0.0,0.0,0.0,0.4559999999999995,0.4559999999999995,0.0,0.0,1.0,55.0,616.79921,10000.0,85.000001,85.000001,85.000001,85.000001,395.0,0.0,0.0,0.0,1.0,166.665,53.07,53.07,48.691,48.691,34.0,-24.9075,23.206,-29.756666666666664,26.7925,0.0,1782.26,-0.379999999999999,100.0,27.661,26.928,42.612,41.907,0.0,0.0,100.0,0.0,0.0,0.0,0.0,3103.857142857143,3049.3,4034.6666666666665,4115.2,305.3135,305.1765,315.00325,314.68275,21.848300000000002,20.5569,21.8677,21.4011,314.999998,314.999998,324.999988,324.999988,99.55811428571428,99.50723333333333,99.56651428571429,99.54672857142857,0.05133333333333345,-0.07599999999999996,-0.15466666666666665,0.08233333333333333,-0.03833333333332689,-0.05571428571428072,1.5473333333333332,1.5625,37.552,29.480333333333334,37.673,34.757,55.867999999999995,34.741,59.431,52.2575,53.811,33.9075,58.033,50.588499999999996,52.983000000000004,33.4755,57.9705,50.002,-0.10250000000000004,-0.04899999999999993,0.10562500000000001,0.11129000000000001,0.0,209.135,209.115,206.04000000000002,206.04000000000002,0.0,0.0
10,0.0,0.0,0.0,1.0,1.0,0.0,0.0,1.0,0.0,100.0,1.0,1.1856,26.0,0.0,0.0,0.0,57.999998,0.0,26.0,26.0,26.0,26.0,-0.024555555555555556,0.28890000000000016,0.011425000000000001,293.274,-2.6734,-2.7065,-1.5543,-1.5484,-242.64,215.3775,190.79025,0.0,0.0,0.0,0.0,0.020800000000000003,-5.498166666666667,-5.498166666666667,-0.5282,-0.12949999999999995,-0.016000000000000014,1.54,66.905,-0.0322,-0.20922500000000002,-0.2060000000000004,100.0,1.0,1.0,206.38,0.0,0.0,0.0,0.0,0.0,0.0,0.0,8747.7,0.0,55.0,5.0,240.82666666666665,0.0,0.0,0.0,0.0,0.0,0.0,1.0,0.0,0.5040000000000013,0.5040000000000013,0.0,0.0,0.0,55.0,616.79921,10000.0,85.000001,85.000001,85.000001,85.000001,395.0,0.0,0.0,0.0,1.0,333.33500000000004,53.375,53.375,48.447,48.447,34.0,-23.474999999999998,23.433999999999997,-29.9,28.3875,0.0,1782.21,-0.41000000000000014,100.0,27.626,26.834,42.67,42.114000000000004,0.0,0.0,100.0,0.0,0.0,0.0,0.0,2987.5714285714284,3020.2,4098.444444444444,4257.8,305.6415,305.2905,314.81325,314.34,21.8574,20.561799999999998,21.8776,21.4097,314.999998,314.999998,324.999988,324.999988,99.55812857142857,99.50723333333333,99.56665714285714,99.54685714285715,0.061333333333333684,-0.06033333333333335,-0.139,0.09083333333333334,-0.036666666666668846,-0.04999999999999716,1.5226666666666666,1.5175,37.608999999999995,29.511,37.735,34.8105,55.855000000000004,34.7765,59.468,52.315,53.799,33.94,58.067499999999995,50.644,52.97,33.5065,58.001999999999995,50.056,-0.10299999999999998,-0.038000000000000034,0.10612,0.11016500000000001,0.0,209.53,209.535,206.38,206.38,0.0,0.0
11,0.0,0.0,0.0,1.0,1.0,0.0,0.0,1.0,0.0,100.0,1.0,1.1856,26.0,0.0,0.0,0.0,57.999998,0.0,26.0,26.0,26.0,26.0,0.0074444444444444445,0.28310000000000013,-0.0442,293.579,-2.7069,-2.69475,-1.5623,-1.5211000000000001,-239.22,215.3675,190.76925,0.0,0.0,0.0,0.0,0.022600000000000002,-5.498166666666667,-5.498166666666667,-0.5492,-0.367,0.0068749999999999645,-0.19599999999999973,67.047,-0.015000000000000001,-0.2233,-0.23399999999999999,100.0,1.0,1.0,206.91333333333333,0.0,0.0,0.0,0.0,0.0,0.0,0.0,8770.3,0.0,55.0,5.0,241.34,1.0,0.0,0.0,0.0,0.0,0.0,1.0,0.0,0.5549999999999997,0.5549999999999997,0.0,0.0,1.0,55.0,616.79921,10000.0,85.000001,85.000001,85.000001,85.000001,395.0,0.0,0.0,0.0,1.0,333.33500000000004,53.391,53.391,48.935,48.935,34.0,-24.4975,23.356,-27.66,26.8325,0.0,1782.159,-0.3200000000000003,100.0,27.162,27.01,42.386,42.272,0.0,0.0,100.0,0.0,0.0,0.0,0.0,3105.142857142857,3006.4,3938.1111111111113,4029.1000000000004,305.5115,305.15975,315.2765,314.8335,21.8669,20.5671,21.887999999999998,21.4187,314.999998,314.999998,324.999988,324.999988,99.55814285714285,99.50723333333333,99.5668,99.547,0.06333333333333346,-0.06133333333333335,-0.12566666666666668,0.10566666666666667,-0.04833333333333201,-0.04285714285714448,1.5703333333333334,1.5670000000000002,37.668,29.544,37.8,34.867,55.841,34.814,59.504999999999995,52.3755,53.785,33.975,58.102000000000004,50.701499999999996,52.956,33.54,58.033500000000004,50.11266666666667,-0.10299999999999998,-0.04249999999999998,0.10069,0.1155,0.0,209.965,209.965,206.91333333333333,206.91333333333333,0.0,0.0
12,0.0,0.0,0.0,1.0,1.0,0.0,0.0,1.0,0.0,100.0,1.0,1.1856,26.0,0.0,0.0,0.0,57.999998,0.0,26.0,26.0,26.0,26.0,0.006222222222222223,0.28790000000000004,0.00035,293.228,-2.7132,-2.673375,-1.5675,-1.5298,-236.0,215.36,190.74875,0.0,0.0,0.0,0.0,0.025466666666666665,-5.498166666666667,-5.498166666666667,-0.5437000000000001,0.40249999999999997,0.017625000000000002,-0.5089999999999995,67.181,-0.0005,-0.206075,-0.5279999999999996,100.0,1.0,1.0,207.2866666666667,0.0,0.0,0.0,0.0,0.0,0.0,0.0,8786.2,0.0,55.0,5.0,241.82333333333332,0.0,0.0,0.0,0.0,0.0,0.0,1.0,0.0,0.602999999999998,0.602999999999998,0.0,0.0,0.0,55.0,616.79921,10000.0,85.000001,85.000001,85.000001,85.000001,395.0,0.0,0.0,0.0,1.0,166.665,53.055,53.055,48.447,48.447,34.0,-26.0675,22.402,-28.326666666666664,29.195,0.0,1782.113,0.504999999999999,100.0,27.292,27.403,42.168,42.29,0.0,0.0,100.0,0.0,0.0,0.0,0.0,3095.857142857143,3069.8,4107.888888888889,4162.2,305.5185,304.937,314.90275,314.536,21.8759,20.5722,21.8978,21.4272,314.999998,314.999998,324.999988,324.999988,99.55814285714285,99.50725,99.56694285714286,99.54712857142857,0.026000000000000245,-0.09399999999999997,-0.10766666666666667,0.125,-0.060000000000002274,-0.044285714285713595,1.545,1.5205,37.724999999999994,29.576,37.861000000000004,34.92,55.83,34.8505,59.539500000000004,52.4315,53.775,34.0085,58.1335,50.756,52.944,33.572,58.0625,50.16566666666667,-0.05399999999999994,-0.09250000000000003,0.10515500000000001,0.112375,0.0,210.39499999999998,210.41,207.2866666666667,207.2866666666667,0.0,0.0
13,0.0,0.0,0.0,1.0,1.0,0.0,0.0,1.0,0.0,100.0,1.0,1.1856,26.0,0.0,0.0,0.0,57.999998,0.0,26.0,26.0,26.0,26.0,0.041888888888888885,0.27470000000000017,0.016725,292.892,-2.6922,-2.6950000000000003,-1.5567,-1.5447000000000002,-232.37,215.35250000000002,190.72575,0.0,0.0,0.0,0.0,0.02676666666666667,-5.498166666666667,-5.498166666666667,-0.5388000000000001,-0.2855000000000001,0.006750000000000034,-0.4509999999999996,67.333,0.0035,-0.21485,-0.27199999999999935,100.0,1.0,1.0,207.65333333333334,0.0,0.0,0.0,0.0,0.0,0.0,0.0,8801.7,0.0,55.0,5.0,242.37,1.0,0.0,0.0,0.0,0.0,0.0,1.0,0.0,0.657,0.657,0.0,0.0,1.0,55.0,616.79921,10000.0,85.000001,85.000001,85.000001,85.000001,395.0,0.0,0.0,0.0,1.0,166.665,52.887,52.887,48.141,48.141,34.0,-23.125,25.08,-28.923333333333336,29.1575,0.0,1782.059,-0.46499999999999986,100.0,27.535,27.565,42.549,42.754,0.0,0.0,100.0,0.0,0.0,0.0,0.0,3132.142857142857,3011.9,4176.222222222223,4218.5,305.4175,305.112,314.69725,314.3455,21.8861,20.5779,21.909,21.4369,314.999998,314.999998,324.999988,324.999988,99.55815714285714,99.50725,99.56708571428571,99.54728571428572,0.0983333333333336,-0.02066666666666661,-0.10666666666666667,0.10816666666666667,-0.03833333333332689,-0.047142857142851824,1.5076666666666667,1.5,37.788,29.611666666666665,37.931,34.981,55.816,34.8915,59.581,52.498,53.762,34.0465,58.1725,50.8195,52.93,33.6085,58.0985,50.228,-0.119,-0.02750000000000008,0.108715,0.10214500000000001,0.0,210.86,210.845,207.65333333333334,207.65333333333334,0.0,0.0
14,0.0,0.0,0.0,1.0,1.0,0.0,0.0,1.0,0.0,100.0,1.0,1.1856,26.0,0.0,0.0,0.0,57.999998,0.0,26.0,26.0,26.0,26.0,0.04922222222222222,0.2803,-0.0339,293.106,-2.688,-2.7033750000000003,-1.57,-1.5368,-229.13,215.345,190.70575,0.0,0.0,0.0,0.0,0.02866666666666667,-5.498166666666667,-5.498166666666667,-0.5518000000000001,-0.04499999999999993,0.026124999999999954,-0.3460000000000001,67.464,0.0108,-0.22765000000000002,-0.44200000000000017,100.0,1.0,1.0,208.16333333333333,0.0,0.0,0.0,0.0,0.0,0.0,0.0,8823.3,0.0,55.0,5.0,242.84333333333336,0.0,0.0,0.0,0.0,0.0,0.0,1.0,0.0,0.7049999999999983,0.7049999999999983,0.0,0.0,0.0,55.0,616.79921,10000.0,85.000001,85.000001,85.000001,85.000001,395.0,0.0,0.0,0.0,1.0,333.33500000000004,52.841,52.841,48.522999999999996,48.522999999999996,34.0,-22.7025,24.677999999999997,-27.03,28.2925,0.0,1782.008,-0.504999999999999,100.0,27.553,27.733,42.466,42.772999999999996,0.0,0.0,100.0,0.0,0.0,0.0,0.0,3088.857142857143,3018.4,3985.5555555555557,4072.0,305.547,305.0435,315.1755,314.7325,21.895,20.583,21.9188,21.4455,314.999998,314.999998,324.999988,324.999988,99.55817142857143,99.50726666666667,99.56722857142857,99.54742857142857,0.09866666666666646,-0.035666666666666624,-0.10266666666666667,0.12233333333333334,-0.045000000000001705,-0.04999999999999716,1.5733333333333333,1.5554999999999999,37.844,29.644,37.992000000000004,35.0345,55.805,34.9295,59.6175,52.5585,53.75,34.0815,58.2065,50.8775,52.918,33.641999999999996,58.129,50.285,-0.12,-0.034499999999999975,0.108475,0.10508500000000001,0.0,211.255,211.26999999999998,208.16333333333333,208.16333333333333,0.0,0.0
15,0.0,0.0,0.0,1.0,1.0,0.0,0.0,1.0,0.0,100.0,1.0,1.1856,26.0,0.0,0.0,0.0,57.999998,0.0,26.0,26.0,26.0,26.0,0.052333333333333336,0.2853000000000001,-0.010925,293.015,-2.6766,-2.68225,-1.5546,-1.5593,-225.89,215.3375,190.68525,0.0,0.0,0.0,0.0,0.030533333333333332,-5.498166666666667,-5.498166666666667,-0.5449,0.24949999999999994,0.027499999999999858,-0.7989999999999995,67.59700000000001,0.020300000000000002,-0.21380000000000002,-0.4059999999999997,100.0,1.0,1.0,208.53333333333333,0.0,0.0,0.0,0.0,0.0,0.0,0.0,8839.0,0.0,55.0,5.0,243.32,1.0,0.0,0.0,0.0,0.0,0.0,1.0,0.0,0.7530000000000001,0.7530000000000001,0.0,0.0,1.0,55.0,616.79921,10000.0,85.000001,85.000001,85.000001,85.000001,395.0,0.0,0.0,0.0,1.0,333.33500000000004,52.841,52.841,48.294,48.294,34.0,-22.6925,24.176000000000002,-27.259999999999998,29.89,0.0,1781.961,-0.34499999999999886,100.0,27.538,27.782,42.317,42.834,0.0,0.0,100.0,0.0,0.0,0.0,0.0,3075.142857142857,3003.1,4104.333333333333,4115.7,305.585,305.0655,314.909,314.58875,21.904,20.5882,21.9286,21.4541,314.999998,314.999998,324.999988,324.999988,99.55818571428571,99.50726666666667,99.56735714285715,99.54755714285714,0.09399999999999986,-0.040999999999999925,-0.09016666666666667,0.1365,-0.06833333333332803,-0.03999999999999915,1.542,1.5205,37.9,29.676000000000002,38.054,35.088,55.794,34.963499999999996,59.65,52.612,53.739999999999995,34.113,58.2365,50.9295,52.907,33.672,58.1565,50.336,-0.10399999999999998,-0.04849999999999999,0.10925000000000001,0.10910500000000001,0.0,211.69,211.685,208.53333333333333,208.53333333333333,0.0,0.0
16,0.0,0.0,0.0,1.0,1.0,0.0,0.0,1.0,0.0,100.0,1.0,1.1856,26.0,0.0,0.0,0.0,57.999998,0.0,26.0,26.0,26.0,26.0,0.049888888888888885,0.26890000000000014,-0.001075,292.786,-2.7418,-2.628875,-1.5351,-1.5554999999999999,-222.24,215.33249999999998,190.661875,0.0,0.0,0.0,0.0,0.03266666666666667,-5.498166666666667,-5.498166666666667,-0.5529000000000001,-0.3255000000000001,0.021499999999999853,-0.9569999999999999,67.745,0.024900000000000002,-0.22357500000000002,-0.2699999999999996,100.0,1.0,1.0,208.9766666666667,0.0,0.0,0.0,0.0,0.0,0.0,0.0,8857.8,0.0,55.0,5.0,243.85666666666668,0.0,0.0,0.0,0.0,0.0,0.0,1.0,0.0,0.8069999999999986,0.8069999999999986,0.0,0.0,0.0,55.0,616.79921,10000.0,85.000001,85.000001,85.000001,85.000001,395.0,0.0,0.0,0.0,1.0,166.665,52.504999999999995,52.504999999999995,48.004,48.004,34.0,-24.0425,25.396,-26.79,29.517500000000002,0.0,1781.909,-0.25,100.0,27.466,27.883,42.622,43.06,0.0,0.0,100.0,0.0,0.0,0.0,0.0,3182.714285714286,3143.3,4079.222222222222,4031.1000000000004,305.316,304.69,314.9465,314.77875,21.914,20.594,21.9397,21.4638,314.999998,314.999998,324.999988,324.999988,99.55818571428571,99.50726666666667,99.5675,99.54771428571429,0.09733333333333372,-0.030000000000000027,-0.08933333333333333,0.14400000000000002,-0.04333333333332945,-0.044285714285713595,1.5433333333333332,1.517,37.962,29.712333333333333,38.123000000000005,35.1485,55.781,35.004,59.69,52.677,53.727000000000004,34.1505,58.274,50.992,52.893,33.708,58.191,50.397,-0.09399999999999997,-0.05699999999999994,0.104425,0.11283000000000001,0.0,212.115,212.13,208.9766666666667,208.9766666666667,0.0,0.0
17,0.0,0.0,0.0,1.0,1.0,0.0,0.0,1.0,0.0,100.0,1.0,1.1856,26.0,0.0,0.0,0.0,57.999998,0.0,26.0,26.0,26.0,26.0,0.024,0.27849999999999997,0.028375,292.465,-2.6683,-2.608,-1.5533000000000001,-1.5152999999999999,-218.98,215.3275,190.641,0.0,0.0,0.0,0.0,0.03456666666666667,-5.498166666666667,-5.498166666666667,-0.5513,0.1815,0.0011250000000000426,-1.1239999999999997,67.877,0.0219,-0.217125,-0.14999999999999947,100.0,1.0,1.0,209.34,0.0,0.0,0.0,0.0,0.0,0.0,0.0,8873.2,0.0,55.0,5.0,244.32666666666665,1.0,0.0,0.0,0.0,0.0,0.0,1.0,0.0,0.8550000000000004,0.8550000000000004,0.0,0.0,1.0,55.0,616.79921,10000.0,85.000001,85.000001,85.000001,85.000001,395.0,0.0,0.0,0.0,1.0,333.33500000000004,52.307,52.307,47.653,47.653,34.0,-23.607499999999998,24.976,-28.75,29.6075,0.0,1781.859,-0.17999999999999972,100.0,27.727,28.012999999999998,42.65,43.053,0.0,0.0,100.0,0.0,0.0,0.0,0.0,3172.285714285714,3133.7,4252.333333333333,4175.8,305.2175,304.7125,314.55725,314.4805,21.9229,20.5992,21.9495,21.4723,314.999998,314.999998,324.999988,324.999988,99.5582,99.50728333333333,99.56764285714286,99.54785714285714,0.09299999999999997,-0.03366666666666662,-0.09333333333333332,0.13183333333333336,-0.05666666666667197,-0.04571428571428271,1.5116666666666667,1.5025,38.018,29.744999999999997,38.184,35.202,55.769999999999996,35.041,59.725,52.734,53.717,34.1845,58.3065,51.0465,52.881,33.7405,58.22,50.45066666666666,-0.08999999999999997,-0.058499999999999996,0.109645,0.105465,0.0,212.555,212.54000000000002,209.34,209.34,0.0,0.0
18,0.0,0.0,0.0,1.0,1.0,0.0,0.0,1.0,0.0,100.0,1.0,1.1856,26.0,0.0,0.0,0.0,57.999998,0.0,26.0,26.0,26.0,26.0,0.03755555555555556,0.28869999999999996,0.04825,292.435,-2.6564,-2.7424999999999997,-1.5329000000000002,-1.4854,-215.72,215.3225,190.619875,0.0,0.0,0.0,0.0,0.03646666666666667,-5.498166666666667,-5.498166666666667,-0.5592,-0.35050000000000003,-0.0021249999999999325,-0.556,68.008,0.0164,-0.22337500000000002,-0.08000000000000007,100.0,1.0,1.0,209.70333333333332,0.0,0.0,0.0,0.0,0.0,0.0,0.0,8888.6,0.0,55.0,5.0,244.8,0.0,0.0,0.0,0.0,0.0,0.0,1.0,0.0,0.9029999999999987,0.9029999999999987,0.0,0.0,0.0,55.0,616.79921,10000.0,85.000001,85.000001,85.000001,85.000001,395.0,0.0,0.0,0.0,1.0,166.665,52.399,52.399,47.638,47.638,34.0,-23.6375,25.468,-28.723333333333333,29.302500000000002,0.0,1781.812,-0.19500000000000028,100.0,27.738,27.907,42.858000000000004,43.195,0.0,0.0,100.0,0.0,0.0,0.0,0.0,3165.142857142857,3091.1,4183.888888888889,4241.5,305.3005,304.73725,314.658,314.32075,21.9318,20.6043,21.9594,21.4809,314.999998,314.999998,324.999988,324.999988,99.55821428571429,99.50728333333333,99.56778571428572,99.54798571428572,0.08700000000000019,-0.04466666666666663,-0.106,0.124,-0.03833333333332689,-0.03285714285714647,1.4976666666666667,1.5095,38.074,29.777,38.245999999999995,35.256,55.757999999999996,35.076499999999996,59.7605,52.7915,53.705,34.217,58.3395,51.102000000000004,52.869,33.772,58.2505,50.504999999999995,-0.09699999999999998,-0.06400000000000006,0.10977500000000001,0.103105,0.0,212.945,212.91500000000002,209.70333333333332,209.70333333333332,0.0,0.0
19,0.0,0.0,0.0,1.0,1.0,0.0,0.0,1.0,0.0,100.0,1.0,1.1856,26.0,0.0,0.0,0.0,57.999998,0.0,26.0,26.0,26.0,26.0,0.03777777777777778,0.2832000000000001,0.00295,292.313,-2.6379,-2.708,-1.5333999999999999,-1.6073,-212.04,215.32,190.59575,0.0,0.0,0.0,0.0,0.0386,-5.498166666666667,-5.498166666666667,-0.5525,0.5435,0.006999999999999895,-0.8460000000000001,68.153,0.0103,-0.215925,-0.038000000000000256,100.0,1.0,1.0,210.18333333333334,0.0,0.0,0.0,0.0,0.0,0.0,0.0,8909.0,0.0,55.0,5.0,245.32666666666665,1.0,0.0,0.0,0.0,0.0,0.0,1.0,0.0,0.9570000000000007,0.9570000000000007,0.0,0.0,1.0,55.0,616.79921,10000.0,85.000001,85.000001,85.000001,85.000001,395.0,0.0,0.0,0.0,1.0,166.665,52.094,52.094,47.852000000000004,47.852000000000004,34.0,-23.6275,23.742,-28.77,29.927500000000002,0.0,1781.758,-0.14999999999999858,100.0,28.231,28.332,42.817,43.274,0.0,0.0,100.0,0.0,0.0,0.0,0.0,3158.5714285714284,3017.5,4150.777777777777,4180.0,305.307,304.97175,314.801,314.38975,21.942,20.6102,21.970399999999998,21.4906,314.999998,314.999998,324.999988,324.999988,99.55822857142857,99.5073,99.56792857142857,99.54814285714286,0.08233333333333359,-0.06233333333333335,-0.11416666666666668,0.10983333333333332,-0.041666666666671404,-0.060000000000002274,1.5066666666666666,1.4975,38.137,29.814,38.315,35.316,55.745999999999995,35.1185,59.7985,52.8555,53.694,34.256,58.375,51.1635,52.857,33.8095,58.2825,50.565333333333335,-0.09399999999999997,-0.07050000000000001,0.112365,0.09712000000000001,0.0,213.405,213.405,210.18333333333334,210.18333333333334,0.0,0.0
20,0.0,0.0,0.0,1.0,1.0,0.0,0.0,1.0,0.0,100.0,1.0,1.1856,26.0,0.0,0.0,0.0,57.999998,0.0,26.0,26.0,26.0,26.0,0.025777777777777778,0.25960000000000005,-0.0053750000000000004,292.374,-2.7039999999999997,-2.661625,-1.5173,-1.5913,-208.76999999999998,215.3175,190.57475,0.0,0.0,0.0,0.0,0.0405,-5.498166666666667,-5.498166666666667,-0.5528000000000001,-0.6890000000000001,0.006249999999999867,-0.8549999999999995,68.28399999999999,0.0088,-0.22365000000000002,0.017999999999999794,100.0,1.0,1.0,210.54000000000002,0.0,0.0,0.0,0.0,0.0,0.0,0.0,8924.0,0.0,55.0,5.0,245.79333333333335,0.0,0.0,0.0,0.0,0.0,0.0,0.0,0.0,1.004999999999999,1.004999999999999,0.0,0.0,0.0,55.0,616.79921,10000.0,85.000001,85.000001,85.000001,85.000001,395.0,0.0,0.0,0.0,1.0,166.665,52.536,52.536,47.379,47.379,34.0,-23.7925,23.46,-28.259999999999998,29.665,0.0,1781.711,-0.125,100.0,27.864,28.067,43.295,43.626,0.0,0.0,100.0,0.0,0.0,0.0,0.0,3125.5714285714284,3008.6,4172.888888888889,4084.8,305.482,305.1155,314.70275,314.59625,21.9508,20.6154,21.9804,21.499299999999998,314.999998,314.999998,324.999988,324.999988,99.55824285714286,99.5073,99.56807142857143,99.54828571428571,0.08400000000000007,-0.054333333333333345,-0.10216666666666667,0.12333333333333334,-0.036666666666668846,-0.03999999999999915,1.4853333333333334,1.4865,38.192,29.846,38.378,35.371,55.733999999999995,35.155,59.836,52.914,53.682,34.289500000000004,58.4095,51.22,52.844,33.841499999999996,58.314499999999995,50.620333333333335,-0.09299999999999997,-0.06750000000000012,0.100415,0.10900000000000001,0.0,213.785,213.79500000000002,210.54000000000002,210.54000000000002,0.0,0.0
21,0.0,0.0,0.0,1.0,1.0,0.0,0.0,1.0,0.0,100.0,1.0,1.1856,26.0,0.0,0.0,0.0,57.999998,0.0,26.0,26.0,26.0,26.0,-0.0041111111111111105,0.2715000000000001,-0.048625,292.618,-2.7172,-2.6310000000000002,-1.5678,-1.5293999999999999,-205.28,215.315,190.551875,0.0,0.0,0.0,0.0,0.04253333333333333,-5.498166666666667,-5.498166666666667,-0.5736,-0.01100000000000012,0.0035000000000000586,0.5640000000000001,68.418,0.0057,-0.2247,-0.06199999999999939,100.0,1.0,1.0,211.08666666666667,0.0,0.0,0.0,0.0,0.0,0.0,0.0,8947.2,0.0,55.0,5.0,246.27666666666664,1.0,0.0,0.0,0.0,0.0,0.0,0.0,0.0,1.056000000000001,1.056000000000001,0.0,0.0,1.0,55.0,616.79921,10000.0,85.000001,85.000001,85.000001,85.000001,395.0,0.0,0.0,0.0,1.0,166.665,52.353,52.353,48.08,48.08,34.0,-23.9075,24.951999999999998,-27.353333333333335,28.142500000000002,0.0,1781.66,-0.17999999999999972,100.0,28.036,27.762,43.073,43.194,0.0,0.0,100.0,0.0,0.0,0.0,0.0,3117.4285714285716,3200.5,4000.222222222222,4060.9,305.3355,304.75625,315.1335,314.8585,21.9602,20.6209,21.9908,21.5084,314.999998,314.999998,324.999988,324.999988,99.55825714285714,99.5073,99.56821428571429,99.54842857142857,0.08766666666666634,-0.04699999999999993,-0.106,0.125,-0.02499999999999858,-0.06142857142857139,1.57,1.5535,38.251000000000005,29.880333333333333,38.442,35.4275,55.721000000000004,35.194,59.871,52.972,53.67,34.3255,58.442,51.2755,52.831,33.876,58.344,50.675,-0.09299999999999997,-0.0645,0.11073000000000001,0.107865,0.0,214.21,214.20499999999998,211.08666666666667,211.08666666666667,0.0,0.0
22,0.0,0.0,0.0,1.0,1.0,0.0,0.0,1.0,0.0,100.0,1.0,1.1856,26.0,0.0,0.0,0.0,57.999998,0.0,26.0,26.0,26.0,26.0,-0.0016666666666666668,0.2841,-0.0069500000000000004,292.282,-2.7572,-2.668,-1.5973000000000002,-1.4999,-201.99,215.3125,190.5295,0.0,0.0,0.0,0.0,0.04443333333333333,-5.498166666666667,-5.498166666666667,-0.5588000000000001,0.13249999999999995,0.007249999999999979,1.0789999999999997,68.548,0.0013000000000000002,-0.200775,-0.11399999999999988,100.0,1.0,1.0,211.33666666666667,0.0,0.0,0.0,0.0,0.0,0.0,0.0,8957.8,0.0,55.0,5.0,246.74666666666667,0.0,0.0,0.0,0.0,0.0,0.0,0.0,0.0,1.1039999999999992,1.1039999999999992,0.0,0.0,0.0,55.0,616.79921,10000.0,85.000001,85.000001,85.000001,85.000001,395.0,0.0,0.0,0.0,1.0,166.665,52.551,52.551,47.302,47.302,34.0,-23.4525,24.98,-30.353333333333335,30.3625,0.0,1781.612,-0.2749999999999986,100.0,28.108,27.849,43.182,43.179,0.0,0.0,100.0,0.0,0.0,0.0,0.0,3050.714285714286,3144.6,4260.888888888889,4372.4,305.6025,304.9615,314.48725,314.136,21.9691,20.6261,22.0007,21.517,314.999998,314.999998,324.999988,324.999988,99.55825714285714,99.50731666666667,99.56835714285714,99.54857142857144,0.09100000000000019,-0.04133333333333333,-0.10516666666666667,0.12033333333333333,-0.03833333333332689,-0.04999999999999716,1.4756666666666667,1.4849999999999999,38.307,29.913,38.504000000000005,35.481,55.71,35.2305,59.9065,53.0285,53.659,34.3595,58.4755,51.3305,52.819,33.908500000000004,58.374,50.72833333333333,-0.09750000000000003,-0.05750000000000011,0.106505,0.10537500000000001,0.0,214.61,214.62,211.33666666666667,211.33666666666667,0.0,0.0
23,0.0,0.0,0.0,1.0,1.0,0.0,0.0,1.0,0.0,100.0,1.0,1.1856,26.0,0.0,0.0,0.0,57.999998,0.0,26.0,26.0,26.0,26.0,-0.003,0.2703,0.024650000000000002,292.053,-2.6584,-2.68675,-1.6386,-1.5389,-198.29,215.31,190.504625,0.0,0.0,0.0,0.0,0.0466,-5.498166666666667,-5.498166666666667,-0.5728,-0.2570000000000001,0.008750000000000036,0.6879999999999997,68.691,-0.0007,-0.2247,-0.14199999999999946,100.0,1.0,1.0,211.8,0.0,0.0,0.0,0.0,0.0,0.0,0.0,8977.5,0.0,55.0,5.0,247.26,1.0,0.0,0.0,0.0,0.0,0.0,0.0,0.0,1.1580000000000013,1.1580000000000013,0.0,0.0,1.0,55.0,616.79921,10000.0,85.000001,85.000001,85.000001,85.000001,395.0,0.0,0.0,0.0,1.0,166.665,52.016999999999996,52.016999999999996,47.455,47.455,34.0,-23.44,25.338,-30.156666666666666,29.1175,0.0,1781.556,-0.28500000000000014,100.0,28.351,28.056,43.4,43.494,0.0,0.0,100.0,0.0,0.0,0.0,0.0,3144.857142857143,3170.5,4202.555555555556,4227.4,305.1685,304.77075,314.67575,314.46225,21.979,20.632,22.0118,21.5268,314.999998,314.999998,324.999988,324.999988,99.55827142857143,99.50731666666667,99.56851428571429,99.54871428571428,0.09366666666666656,-0.04566666666666663,-0.1045,0.111,-0.04833333333333201,-0.01999999999999602,1.5186666666666666,1.517,38.369,29.95,38.574,35.542500000000004,55.697,35.2725,59.946,53.0935,53.647,34.397999999999996,58.5125,51.393,52.806,33.945499999999996,58.408,50.78966666666666,-0.09850000000000003,-0.055500000000000105,0.104245,0.102855,0.0,215.04500000000002,215.035,211.8,211.8,0.0,0.0
24,0.0,0.0,0.0,1.0,1.0,0.0,0.0,1.0,0.0,100.0,1.0,1.1856,26.0,0.0,0.0,0.0,57.999998,0.0,26.0,26.0,26.0,26.0,0.005555555555555556,0.26639999999999997,-0.054675,292.435,-2.6816,-2.6721250000000003,-1.5470000000000002,-1.5603,-194.99,215.3075,190.482,0.0,0.0,0.0,0.0,0.0485,-5.498166666666667,-5.498166666666667,-0.5858,-0.40400000000000014,0.013500000000000068,1.0830000000000002,68.818,0.0017000000000000001,-0.22382500000000002,-0.21399999999999952,100.0,1.0,1.0,212.21666666666667,0.0,0.0,0.0,0.0,0.0,0.0,0.0,8995.0,0.0,55.0,5.0,247.71666666666667,0.0,0.0,0.0,0.0,0.0,0.0,0.0,0.0,1.2059999999999995,1.2059999999999995,0.0,0.0,0.0,55.0,616.79921,10000.0,85.000001,85.000001,85.000001,85.000001,395.0,0.0,0.0,0.0,1.0,166.665,52.689,52.689,47.501,47.501,34.0,-22.1175,24.436,-28.75,29.240000000000002,0.0,1781.51,-0.3000000000000007,100.0,28.181,27.842,43.367000000000004,43.445,0.0,0.0,100.0,0.0,0.0,0.0,0.0,2959.142857142857,3092.1,4123.0,4146.8,305.7715,305.084,314.76175,314.62375,21.9878,20.6371,22.0216,21.5355,314.999998,314.999998,324.999988,324.999988,99.55828571428572,99.50731666666667,99.56864285714286,99.54885714285714,0.09066666666666645,-0.04499999999999993,-0.11166666666666668,0.12,-0.03333333333333144,-0.05285714285714249,1.5150000000000001,1.5190000000000001,38.424,29.982333333333333,38.635,35.5965,55.685,35.308,59.9805,53.149,53.635,34.431,58.5445,51.4465,52.793,33.977000000000004,58.4365,50.842,-0.10099999999999998,-0.05499999999999994,0.11568,0.10728000000000001,0.0,215.425,215.445,212.21666666666667,212.21666666666667,0.0,0.0
25,0.0,0.0,0.0,1.0,1.0,0.0,0.0,1.0,0.0,100.0,1.0,1.1856,26.0,0.0,0.0,0.0,57.999998,0.0,26.0,26.0,26.0,26.0,0.02788888888888889,0.27560000000000007,-0.020075000000000003,292.191,-2.6858,-2.6473750000000003,-1.5897000000000001,-1.5541,-191.48000000000002,215.3075,190.45675,0.0,0.0,0.0,0.0,0.05053333333333333,-5.498166666666667,-5.498166666666667,-0.6017,0.07950000000000002,0.019625000000000004,-0.7999999999999998,68.951,0.0051,-0.219225,-0.17600000000000016,100.0,1.0,1.0,212.66666666666669,0.0,0.0,0.0,0.0,0.0,0.0,0.0,9014.1,0.0,55.0,5.0,248.2,1.0,0.0,0.0,0.0,0.0,0.0,0.0,0.0,1.256999999999998,1.256999999999998,0.0,0.0,1.0,55.0,616.79921,10000.0,85.000001,85.000001,85.000001,85.000001,395.0,0.0,0.0,0.0,1.0,166.665,51.865,51.865,47.806,47.806,34.0,-24.8625,25.81,-27.756666666666664,28.845,0.0,1781.459,-0.3000000000000007,100.0,27.982,28.184,43.079,43.318,0.0,0.0,100.0,0.0,0.0,0.0,0.0,3286.0,3245.0,4064.6666666666665,4116.4,304.9545,304.41875,315.05775,314.64575,21.9971,20.6428,22.032,21.5446,314.999998,314.999998,324.999988,324.999988,99.5583,99.50733333333334,99.56878571428571,99.54901428571429,0.08999999999999986,-0.04599999999999993,-0.0975,0.11816666666666667,-0.06499999999999773,-0.048571428571428044,1.55,1.5295,38.482,30.017333333333333,38.7,35.6535,55.672,35.3475,60.0155,53.207499999999996,53.623000000000005,34.467,58.577,51.5025,52.78,34.0115,58.466499999999996,50.897,-0.10749999999999993,-0.05400000000000005,0.10097,0.11069000000000001,0.0,215.86,215.865,212.66666666666669,212.66666666666669,0.0,0.0
26,0.0,0.0,0.0,1.0,1.0,0.0,0.0,1.0,0.0,100.0,1.0,1.1856,26.0,0.0,0.0,0.0,57.999998,0.0,26.0,26.0,26.0,26.0,0.026222222222222223,0.2791000000000001,0.04565,291.504,-2.6795999999999998,-2.7277500000000003,-1.5511,-1.5562,-188.16,215.305,190.43275,0.0,0.0,0.0,0.0,0.05246666666666667,-5.498166666666667,-5.498166666666667,-0.5748,0.41900000000000004,0.009624999999999995,-0.7359999999999998,69.08,0.005200000000000001,-0.20225,-0.16999999999999993,100.0,1.0,1.0,212.86666666666667,0.0,0.0,0.0,0.0,0.0,0.0,0.0,9022.7,0.0,55.0,5.0,248.66,0.0,0.0,0.0,0.0,0.0,0.0,0.0,0.0,1.3049999999999997,1.3049999999999997,0.0,0.0,0.0,55.0,616.79921,10000.0,85.000001,85.000001,85.000001,85.000001,395.0,0.0,0.0,0.0,1.0,333.33500000000004,51.788,51.788,46.738,46.738,34.0,-24.2225,24.094,-31.166666666666668,32.1525,0.0,1781.408,-0.3550000000000004,100.0,28.601,28.616,43.413,43.707,0.0,0.0,100.0,0.0,0.0,0.0,0.0,3236.0,2992.8,4472.0,4431.6,305.1285,305.09875,314.016,313.8625,22.0061,20.6481,22.0419,21.5533,314.999998,314.999998,324.999988,324.999988,99.5583,99.50733333333334,99.56894285714286,99.54915714285714,0.09266666666666667,-0.05166666666666664,-0.09833333333333333,0.1205,-0.04833333333333201,-0.04999999999999716,1.455,1.438,38.538,30.051000000000002,38.762,35.7085,55.663,35.388,60.054,53.2695,53.614000000000004,34.5045,58.613,51.5625,52.769,34.0475,58.499,50.955666666666666,-0.10899999999999999,-0.05449999999999999,0.101985,0.10830500000000001,0.0,216.275,216.29000000000002,212.86666666666667,212.86666666666667,0.0,0.0
27,0.0,0.0,0.0,1.0,1.0,0.0,0.0,1.0,0.0,100.0,1.0,1.1856,26.0,0.0,0.0,0.0,57.999998,0.0,26.0,26.0,26.0,26.0,0.042444444444444444,0.25270000000000015,-0.029175000000000003,291.87,-2.7536,-2.659,-1.6126,-1.6115,-184.84,215.305,190.409625,0.0,0.0,0.0,0.0,0.054400000000000004,-5.498166666666667,-5.498166666666667,-0.5936,-0.796,0.016750000000000043,-0.5270000000000001,69.20400000000001,0.0076,-0.234625,-0.19399999999999995,100.0,1.0,1.0,213.36333333333334,0.0,0.0,0.0,0.0,0.0,0.0,0.0,9043.7,0.0,55.0,5.0,249.10666666666668,1.0,0.0,0.0,0.0,0.0,0.0,0.0,0.0,1.352999999999998,1.352999999999998,0.0,0.0,1.0,55.0,616.79921,10000.0,85.000001,85.000001,85.000001,85.000001,395.0,0.0,0.0,0.0,1.0,333.33500000000004,52.002,52.002,46.753,46.753,34.0,-23.89,24.658,-29.763333333333335,29.4225,0.0,1781.362,-0.3249999999999993,100.0,28.32,28.560000000000002,43.889,44.11,0.0,0.0,100.0,0.0,0.0,0.0,0.0,3135.0,3121.2,4179.555555555556,4032.2,305.534,304.771,314.7685,314.78575,22.0148,20.6534,22.0519,21.5622,314.999998,314.999998,324.999988,324.999988,99.55831428571429,99.50735,99.56907142857143,99.54928571428572,0.09299999999999997,-0.04999999999999993,-0.107,0.12416666666666668,-0.04999999999999716,-0.044285714285713595,1.5043333333333333,1.4995,38.593,30.084,38.824,35.7635,55.652,35.4225,60.088,53.323499999999996,53.602999999999994,34.536500000000004,58.644999999999996,51.614,52.757999999999996,34.078,58.528,51.006,-0.10599999999999998,-0.05950000000000011,0.10654000000000001,0.11378,0.0,216.625,216.62,213.36333333333334,213.36333333333334,0.0,0.0
28,0.0,0.0,0.0,1.0,1.0,0.0,0.0,1.0,0.0,100.0,1.0,1.1856,26.0,0.0,0.0,0.0,57.999998,0.0,26.0,26.0,26.0,26.0,0.02011111111111111,0.26639999999999997,-0.031375,292.007,-2.684,-2.657,-1.6289,-1.5648,-181.31,215.305,190.38425,0.0,0.0,0.0,0.0,0.056466666666666665,-5.498166666666667,-5.498166666666667,-0.6031000000000001,0.475,0.008249999999999869,0.23300000000000054,69.334,0.0089,-0.2207,-0.31400000000000006,100.0,1.0,1.0,213.86333333333334,0.0,0.0,0.0,0.0,0.0,0.0,0.0,9064.9,0.0,55.0,5.0,249.57333333333332,0.0,0.0,0.0,0.0,0.0,0.0,0.0,0.0,1.404,1.404,0.0,0.0,0.0,55.0,616.79921,10000.0,85.000001,85.000001,85.000001,85.000001,395.0,0.0,0.0,0.0,1.0,333.33500000000004,51.849000000000004,51.849000000000004,47.455,47.455,34.0,-22.3325,26.106,-28.083333333333336,29.925,0.0,1781.312,-0.41000000000000014,100.0,28.573,28.437,43.486000000000004,43.693,0.0,0.0,100.0,0.0,0.0,0.0,0.0,3076.5714285714284,3205.7,4065.6666666666665,4136.5,305.4195,304.686,315.064,314.68325,22.0242,20.6591,22.0622,21.5713,314.999998,314.999998,324.999988,324.999988,99.55832857142858,99.50735,99.56921428571428,99.54942857142858,0.11033333333333362,-0.029000000000000026,-0.09366666666666668,0.13683333333333333,-0.051666666666669414,-0.060000000000002274,1.556,1.5514999999999999,38.650999999999996,30.119666666666667,38.888,35.820499999999996,55.641,35.462,60.1215,53.3815,53.593,34.573499999999996,58.6755,51.67,52.745999999999995,34.1135,58.556,51.06066666666666,-0.11849999999999994,-0.0515000000000001,0.10407000000000001,0.112765,0.0,217.05,217.07,213.86333333333334,213.86333333333334,0.0,0.0
29,0.0,0.0,0.0,1.0,1.0,0.0,0.0,1.0,0.0,100.0,1.0,1.1856,26.0,0.0,0.0,0.0,57.999998,0.0,26.0,26.0,26.0,26.0,0.050222222222222224,0.2602,-0.00545,291.84,-2.6611,-2.7186250000000003,-1.5655000000000001,-1.5531000000000001,-177.76999999999998,215.3075,190.358,0.0,0.0,0.0,0.0,0.0585,-5.498166666666667,-5.498166666666667,-0.6021000000000001,-0.6154999999999999,-0.003874999999999851,-0.7469999999999999,69.469,0.0099,-0.21250000000000002,-0.24600000000000044,100.0,1.0,1.0,214.09333333333333,0.0,0.0,0.0,0.0,0.0,0.0,0.0,9074.7,0.0,55.0,5.0,250.06,1.0,0.0,0.0,0.0,0.0,0.0,0.0,0.0,1.4549999999999983,1.4549999999999983,0.0,0.0,1.0,55.0,616.79921,10000.0,85.000001,85.000001,85.000001,85.000001,395.0,0.0,0.0,0.0,1.0,166.665,52.382999999999996,52.382999999999996,46.692,46.692,34.0,-22.3825,24.113999999999997,-29.626666666666665,31.145,0.0,1781.26,-0.4499999999999993,100.0,28.106,28.384,43.758,44.022999999999996,0.0,0.0,100.0,0.0,0.0,0.0,0.0,3099.142857142857,2989.9,4289.222222222223,4270.6,305.5805,305.138,314.481,314.2665,22.0334,20.6647,22.0727,21.5806,314.999998,314.999998,324.999988,324.999988,99.55835714285715,99.50735,99.56937142857143,99.54958571428571,0.10266666666666646,-0.04799999999999993,-0.09516666666666668,0.1315,-0.06833333333332803,-0.047142857142851824,1.4626666666666668,1.4725000000000001,38.708,30.154333333333334,38.954,35.879,55.628,35.5,60.1605,53.442,53.581,34.608000000000004,58.712,51.7285,52.733000000000004,34.147,58.589,51.118,-0.11399999999999999,-0.0495000000000001,0.10082500000000001,0.11923000000000002,0.0,217.465,217.45499999999998,214.09333333333333,214.09333333333333,0.0,0.0
30,0.0,0.0,0.0,1.0,1.0,0.0,0.0,1.0,0.0,100.0,1.0,1.1856,26.0,0.0,0.0,0.0,57.999998,0.0,26.0,26.0,26.0,26.0,0.055,0.24480000000000013,-0.019975,291.351,-2.6395,-2.72525,-1.6404,-1.6004,-174.43,215.3075,190.333,0.0,0.0,0.0,0.0,0.06046666666666667,-5.498166666666667,-5.498166666666667,-0.61,0.62,0.0020000000000000018,-0.29600000000000026,69.589,0.010700000000000001,-0.220675,-0.33199999999999985,100.0,1.0,1.0,214.61666666666667,0.0,0.0,0.0,0.0,0.0,0.0,0.0,9096.8,0.0,55.0,5.0,250.49666666666667,0.0,0.0,0.0,0.0,0.0,0.0,1.0,0.0,1.5030000000000001,1.5030000000000001,0.0,0.0,0.0,55.0,616.79921,10000.0,85.000001,85.000001,85.000001,85.000001,395.0,0.0,0.0,0.0,1.0,166.665,50.659,50.659,47.485,47.485,34.0,-24.1225,28.376,-28.606666666666666,29.017500000000002,0.0,1781.213,-0.5,100.0,28.945,28.9,43.556,43.980000000000004,0.0,0.0,100.0,0.0,0.0,0.0,0.0,3378.5714285714284,3372.6,4097.888888888889,4067.0,304.535,304.0735,315.12475,314.74675,22.0423,20.6702,22.0824,21.5893,314.999998,314.999998,324.999988,324.999988,99.55835714285715,99.50736666666667,99.5695,99.54971428571429,0.1166666666666667,-0.03200000000000003,-0.09683333333333333,0.11566666666666667,-0.04333333333332945,-0.05285714285714249,1.528,1.524,38.763999999999996,30.188666666666666,39.015,35.933,55.620999999999995,35.5385,60.192499999999995,53.4975,53.573,34.6435,58.7415,51.782,52.724999999999994,34.181,58.6155,51.17,-0.12849999999999995,-0.044499999999999984,0.10522000000000001,0.10282000000000001,0.0,217.84,217.85000000000002,214.61666666666667,214.61666666666667,0.0,0.0
31,0.0,0.0,0.0,1.0,1.0,0.0,0.0,1.0,0.0,100.0,1.0,1.1856,26.0,0.0,0.0,0.0,57.999998,0.0,26.0,26.0,26.0,26.0,0.036444444444444446,0.25660000000000016,0.095475,290.695,-2.7748,-2.62075,-1.6482999999999999,-1.5404,-170.67000000000002,215.3125,190.305625,0.0,0.0,0.0,0.0,0.06263333333333335,-5.498166666666667,-5.498166666666667,-0.5850000000000001,-0.3345,0.016124999999999945,-0.5659999999999998,69.731,0.019,-0.21632500000000002,-0.3380000000000001,100.0,1.0,1.0,214.79666666666668,0.0,0.0,0.0,0.0,0.0,0.0,0.0,9104.5,0.0,55.0,5.0,251.00666666666666,1.0,0.0,0.0,0.0,0.0,0.0,1.0,0.0,1.5569999999999986,1.5569999999999986,0.0,0.0,1.0,55.0,616.79921,10000.0,85.000001,85.000001,85.000001,85.000001,395.0,0.0,0.0,0.0,1.0,166.665,51.117,51.117,45.532,45.532,34.0,-24.509999999999998,26.018,-32.123333333333335,32.5775,0.0,1781.159,-0.4450000000000003,100.0,28.856,29.206,44.339,44.777,0.0,0.0,100.0,0.0,0.0,0.0,0.0,3235.857142857143,3274.7,4413.888888888889,4432.0,305.2415,304.385,314.13175,313.78075,22.0522,20.6763,22.0937,21.5994,314.999998,314.999998,324.999988,324.999988,99.55838571428572,99.50736666666667,99.56965714285714,99.54988571428571,0.10433333333333339,-0.04066666666666663,-0.09433333333333332,0.12766666666666668,-0.046666666666666856,-0.024285714285717575,1.4256666666666666,1.4184999999999999,38.826,30.227,39.086,35.996,55.611000000000004,35.581,60.235,53.565,53.563,34.6835,58.7815,51.8465,52.714,34.2185,58.652,51.233333333333334,-0.11949999999999994,-0.04899999999999993,0.10296000000000001,0.11114500000000001,0.0,218.275,218.285,214.79666666666668,214.79666666666668,0.0,0.0
32,0.0,0.0,0.0,1.0,1.0,0.0,0.0,1.0,0.0,100.0,1.0,1.1856,26.0,0.0,0.0,0.0,57.999998,0.0,26.0,26.0,26.0,26.0,0.05322222222222222,0.26849999999999996,-0.018325,291.29,-2.7026,-2.677125,-1.5922,-1.5451000000000001,-167.32,215.315,190.281625,0.0,0.0,0.0,0.0,0.0646,-5.498166666666667,-5.498166666666667,-0.6053000000000001,-0.34350000000000014,-0.0024999999999999467,-1.0700000000000003,69.851,0.024300000000000002,-0.23290000000000002,-0.41999999999999993,100.0,1.0,1.0,215.32999999999998,0.0,0.0,0.0,0.0,0.0,0.0,0.0,9127.0,0.0,55.0,5.0,251.43666666666667,0.0,0.0,0.0,0.0,0.0,0.0,1.0,0.0,1.6050000000000004,1.6050000000000004,0.0,0.0,0.0,55.0,616.79921,10000.0,85.000001,85.000001,85.000001,85.000001,395.0,0.0,0.0,0.0,1.0,166.665,51.513999999999996,51.513999999999996,46.478,46.478,34.0,-22.88,25.494,-28.506666666666664,31.4375,0.0,1781.111,-0.4549999999999983,100.0,28.731,29.131,44.206,44.666,0.0,0.0,100.0,0.0,0.0,0.0,0.0,3182.857142857143,3089.0,4168.777777777777,4256.3,305.312,304.869,314.747,314.393,22.0609,20.6818,22.1035,21.6081,314.999998,314.999998,324.999988,324.999988,99.55838571428572,99.50736666666667,99.5698,99.55002857142857,0.11733333333333373,-0.02733333333333332,-0.0895,0.14583333333333334,-0.01999999999999602,-0.057142857142849834,1.5193333333333334,1.5,38.879999999999995,30.261,39.147,36.0505,55.599999999999994,35.6185,60.268,53.6205,53.553,34.7175,58.812,51.9005,52.703,34.2515,58.6795,51.286,-0.12149999999999994,-0.04800000000000004,0.1106,0.11082000000000002,0.0,218.615,218.64499999999998,215.32999999999998,215.32999999999998,0.0,0.0
33,0.0,0.0,0.0,1.0,1.0,0.0,0.0,1.0,0.0,100.0,1.0,1.1856,26.0,0.0,0.0,0.0,57.999998,0.0,26.0,26.0,26.0,26.0,0.041444444444444443,0.2502,-0.0825,291.611,-2.7285,-2.690875,-1.5944,-1.5836999999999999,-163.76,215.32,190.255125,0.0,0.0,0.0,0.0,0.06666666666666667,-5.498166666666667,-5.498166666666667,-0.6156,-0.15050000000000008,-0.0024999999999999467,0.992,69.979,0.0251,-0.21780000000000002,-0.41000000000000014,100.0,1.0,1.0,215.75,0.0,0.0,0.0,0.0,0.0,0.0,0.0,9144.9,0.0,55.0,5.0,251.9,1.0,0.0,0.0,0.0,0.0,0.0,1.0,0.0,1.6559999999999988,1.6559999999999988,0.0,0.0,1.0,55.0,616.79921,10000.0,85.000001,85.000001,85.000001,85.000001,395.0,0.0,0.0,0.0,1.0,166.665,51.819,51.819,46.936,46.936,34.0,-22.3825,25.612000000000002,-27.373333333333335,31.275000000000002,0.0,1781.058,-0.46999999999999886,100.0,28.714,28.737000000000002,44.019,44.354,0.0,0.0,100.0,0.0,0.0,0.0,0.0,3081.142857142857,3104.3,4085.222222222222,4204.1,305.502,304.98425,314.952,314.5395,22.0701,20.6874,22.1139,21.6173,314.999998,314.999998,324.999988,324.999988,99.55841428571429,99.50738333333334,99.56995714285715,99.55018571428572,0.11766666666666659,-0.026000000000000023,-0.0805,0.14316666666666666,-0.026666666666670835,-0.04142857142856826,1.5216666666666667,1.5175,38.938,30.296333333333333,39.212,36.1085,55.589,35.658,60.305,53.6825,53.542,34.7545,58.8465,51.96,52.691,34.287,58.71,51.343666666666664,-0.118,-0.050000000000000044,0.10726000000000001,0.10693000000000001,0.0,219.01999999999998,219.04000000000002,215.75,215.75,0.0,0.0
34,0.0,0.0,0.0,1.0,1.0,0.0,0.0,1.0,0.0,100.0,1.0,1.1856,26.0,0.0,0.0,0.0,57.999998,0.0,26.0,26.0,26.0,26.0,0.049,0.2563,-0.0669,291.84,-2.67,-2.668375,-1.6284,-1.5247000000000002,-160.18,215.3275,190.227125,0.0,0.0,0.0,0.0,0.06873333333333334,-5.498166666666667,-5.498166666666667,-0.6412,-0.9385000000000001,0.015625,-0.2809999999999997,70.10900000000001,0.027200000000000002,-0.22025,-0.36600000000000055,100.0,1.0,1.0,216.10666666666668,0.0,0.0,0.0,0.0,0.0,0.0,0.0,9159.9,0.0,55.0,5.0,252.36666666666667,0.0,0.0,0.0,0.0,0.0,0.0,1.0,0.0,1.7070000000000007,1.7070000000000007,0.0,0.0,0.0,55.0,616.79921,10000.0,85.000001,85.000001,85.000001,85.000001,395.0,0.0,0.0,0.0,1.0,166.665,52.399,52.399,47.058,47.058,34.0,-21.7175,23.774,-28.533333333333335,30.625,0.0,1781.008,-0.46999999999999886,100.0,28.285,28.584,43.846000000000004,44.478,0.0,0.0,100.0,0.0,0.0,0.0,0.0,3054.4285714285716,2935.2,4146.333333333333,4239.5,305.7565,305.34525,314.86875,314.4255,22.0791,20.6929,22.1242,21.6267,314.999998,314.999998,324.999988,324.999988,99.55841428571429,99.50738333333334,99.5701,99.55032857142857,0.11100000000000021,-0.032333333333333325,-0.085,0.1375,-0.04833333333333201,-0.0357142857142847,1.5153333333333334,1.4935,38.995000000000005,30.331,39.275999999999996,36.1665,55.577,35.692,60.3375,53.739,53.531,34.786,58.8765,52.0145,52.678,34.317,58.7375,51.397333333333336,-0.11749999999999994,-0.046499999999999986,0.102925,0.10684,0.0,219.405,219.425,216.10666666666668,216.10666666666668,0.0,0.0
35,0.0,0.0,0.0,1.0,1.0,0.0,0.0,1.0,0.0,100.0,1.0,1.1856,26.0,0.0,0.0,0.0,57.999998,0.0,26.0,26.0,26.0,26.0,0.03333333333333334,0.25250000000000017,-0.0925,291.748,-2.7983,-2.6535,-1.5401,-1.582,-156.6,215.335,190.19725,0.0,0.0,0.0,0.0,0.07083333333333335,-5.498166666666667,-5.498166666666667,-0.6791,-0.05049999999999999,-0.0007500000000000284,-0.15500000000000025,70.235,0.0298,-0.228275,-0.3959999999999999,100.0,1.0,1.0,216.60333333333335,0.0,0.0,0.0,0.0,0.0,0.0,0.0,9181.0,0.0,55.0,5.0,252.82,1.0,0.0,0.0,0.0,0.0,0.0,1.0,0.0,1.7579999999999991,1.7579999999999991,0.0,0.0,1.0,55.0,616.79921,10000.0,85.000001,85.000001,85.000001,85.000001,395.0,0.0,0.0,0.0,1.0,166.665,51.544,51.544,46.906,46.906,34.0,-23.4,27.582,-26.273333333333333,30.05,0.0,1780.956,-0.3049999999999997,100.0,28.344,28.793,43.641999999999996,43.939,0.0,0.0,100.0,0.0,0.0,0.0,0.0,3111.285714285714,3377.4,4062.777777777778,4041.4,305.3835,304.16075,315.07425,314.99675,22.0882,20.6988,22.1345,21.6358,314.999998,314.999998,324.999988,324.999988,99.55842857142858,99.50738333333334,99.57024285714286,99.55047142857143,0.1163333333333334,-0.032333333333333325,-0.08133333333333333,0.15283333333333335,-0.04333333333332945,-0.057142857142849834,1.559,1.549,39.051,30.367333333333335,39.341,36.2235,55.564,35.732,60.3705,53.795,53.519,34.823,58.9075,52.0685,52.665,34.3525,58.765,51.45,-0.10599999999999998,-0.0665,0.11288000000000001,0.10450500000000001,0.0,219.81,219.835,216.60333333333335,216.60333333333335,0.0,0.0
36,0.0,0.0,0.0,1.0,1.0,0.0,0.0,1.0,0.0,100.0,1.0,1.1856,26.0,0.0,0.0,0.0,57.999998,0.0,26.0,26.0,26.0,26.0,0.04822222222222222,0.25250000000000017,0.06847500000000001,291.10699999999997,-2.6447,-2.715375,-1.6482999999999999,-1.5935000000000001,-153.23,215.3425,190.168,0.0,0.0,0.0,0.0,0.07276666666666666,-5.498166666666667,-5.498166666666667,-0.6619,0.05899999999999994,-0.04112500000000008,0.3200000000000003,70.358,0.025500000000000002,-0.20485,-0.22999999999999954,100.0,1.0,1.0,216.75,0.0,0.0,0.0,0.0,0.0,0.0,0.0,9187.2,0.0,55.0,5.0,253.26333333333332,0.0,0.0,0.0,0.0,0.0,0.0,1.0,0.0,1.806000000000001,1.806000000000001,0.0,0.0,0.0,55.0,616.79921,10000.0,85.000001,85.000001,85.000001,85.000001,395.0,0.0,0.0,0.0,1.0,166.665,51.666,51.666,46.31,46.31,34.0,-21.25,25.894,-30.66,34.355000000000004,0.0,1780.91,-0.25,100.0,28.936,28.766,43.936,44.224000000000004,0.0,0.0,100.0,0.0,0.0,0.0,0.0,3025.4285714285716,3121.0,4389.222222222223,4475.2,305.485,304.888,314.203,313.896,22.0968,20.7043,22.1443,21.6446,314.999998,314.999998,324.999988,324.999988,99.55844285714285,99.5074,99.57038571428572,99.55061428571429,0.1203333333333334,-0.030000000000000027,-0.07383333333333333,0.1455,-0.041666666666671404,-0.05285714285714249,1.4516666666666667,1.4455,39.105000000000004,30.401666666666664,39.402,36.278999999999996,55.555,35.769,60.405,53.8525,53.51,34.857,58.94,52.124,52.655,34.3855,58.7945,51.504333333333335,-0.10549999999999993,-0.0645,0.10194,0.11068000000000001,0.0,220.20499999999998,220.22500000000002,216.75,216.75,0.0,0.0
