,ABS Active,ABS Enabled,AID Allow Tire Blankets,AID Auto Blip,AID Auto Clutch,AID Auto Shift,AID Fuel Rate,AID Ideal Line,AID Mech Damage,AID Stability,AID Tire Wear Rate,Air Density,Air Temp,Ballast,Best Lap Delta,Best Lap Time,Brake Bias,Brake Pos,Brake Temp FL,Brake Temp FR,Brake Temp RL,Brake Temp RR,CG Accel Lateral,CG Accel Longitudinal,CG Accel Vertical,CG Height,Camber FL,Camber FR,Camber RL,Camber RR,Car Coord X,Car Coord Y,Car Coord Z,Car Damage Front,Car Damage Left,Car Damage Rear,Car Damage Right,Car Pos Norm,Caster FL,Caster FR,Chassis Pitch Angle,Chassis Pitch Rate,Chassis Roll Angle,Chassis Roll Rate,Chassis Velocity X,Chassis Velocity Y,Chassis Velocity Z,Chassis Yaw Rate,Clutch Pos,DRS Active,DRS Available,Drive Train Speed,ERS Heat Charging,ERS Is Charging,ERS Max Energy,ERS Power Level,ERS Recovery Level,Engine Brake Setting,Engine Limiter,Engine RPM,Flags,Fuel Level,Gear,Ground Speed,HR Sample Clock,In Pit,KERS Charge,KERS Deployed Energy,KERS Input,KERS Max Energy,LR Sample Clock,Lap Invalidated,Lap Time,Lap Time2,Last Lap Time,Last Sector Time,MR Sample Clock,Max Fuel,Max Power,Max RPM,Max Sus Travel FL,Max Sus Travel FR,Max Sus Travel RL,Max Sus Travel RR,Max Torque,Max Turbo Boost,Num Tires Off Track,Penalties Enabled,Position,Raw Data Sample Rate,Ride Height FL,Ride Height FR,Ride Height RL,Ride Height RR,Road Temp,Self Align Torque FL,Self Align Torque FR,Self Align Torque RL,Self Align Torque RR,Session Lap Count,Session Time Left,Steering Angle,Surface Grip,Suspension Travel FL,Suspension Travel FR,Suspension Travel RL,Suspension Travel RR,TC Active,TC Enabled,Throttle Pos,Tire Dirt Level FL,Tire Dirt Level FR,Tire Dirt Level RL,Tire Dirt Level RR,Tire Load FL,Tire Load FR,Tire Load RL,Tire Load RR,Tire Loaded Radius FL,Tire Loaded Radius FR,Tire Loaded Radius RL,Tire Loaded Radius RR,Tire Pressure FL,Tire Pressure FR,Tire Pressure RL,Tire Pressure RR,Tire Radius FL,Tire Radius FR,Tire Radius RL,Tire Radius RR,Tire Rubber Grip FL,Tire Rubber Grip FR,Tire Rubber Grip RL,Tire Rubber Grip RR,Tire Slip Angle FL,Tire Slip Angle FR,Tire Slip Angle RL,Tire Slip Angle RR,Tire Slip Ratio FL,Tire Slip Ratio FR,Tire Slip Ratio RL,Tire Slip Ratio RR,Tire Temp Core FL,Tire Temp Core FR,Tire Temp Core RL,Tire Temp Core RR,Tire Temp Inner FL,Tire Temp Inner FR,Tire Temp Inner RL,Tire Temp Inner RR,Tire Temp Middle FL,Tire Temp Middle FR,Tire Temp Middle RL,Tire Temp Middle RR,Tire Temp Outer FL,Tire Temp Outer FR,Tire Temp Outer RL,Tire Temp Outer RR,Toe In FL,Toe In FR,Toe In RL,Toe In RR,Turbo Boost,Wheel Angular Speed FL,Wheel Angular Speed FR,Wheel Angular Speed RL,Wheel Angular Speed RR,Wind Direction,Wind Speed
0,0.0,0.0,0.0,1.0,1.0,0.0,0.0,1.0,0.0,100.0,1.0,1.1856,26.0,0.0,0.0,0.0,57.99999,0.0,26.0,26.0,26.0,26.0,-0.09866666666666657,0.2935000000000001,0.013666666666666667,294.083,-2.7153,-2.483,-1.5110999999999999,-1.5377,-275.72,216.155,190.987875,0.0,0.0,0.0,0.0,0.0015666666666666667,-5.498166666666667,-5.498166666666667,-0.5509000000000001,1.077,-0.014375000000000249,-1.052,65.517,-0.0439,-0.212325,0.9800000000000004,100.0,1.0,1.0,202.30333333333334,0.0,0.0,0.0,0.0,0.0,0.0,0.0,8574.8,0.0,55.0,5.0,235.82999999999998,0.0,0.0,0.0,0.0,0.0,0.0,0.0,0.0,0.0030000000000001137,0.0030000000000001137,0.0,0.0,0.0,55.0,616.79921,10000.0,85.0,85.0,85.0,85.0,395.0,0.0,0.0,0.0,1.0,20.0,52.719,52.719,49.713,49.713,34.0,-27.627499999999998,21.525999999999996,-30.43,23.66,0.0,1782.582,0.8249999999999993,100.0,27.361,26.774,40.625,40.446,0.0,0.0,100.0,0.0,0.0,0.0,0.0,3072.714285714286,3407.8,4061.5,3939.9,305.541,303.9105,315.0163333333333,314.9875,21.7574,20.5141,21.7922,21.3229,314.99999,314.99999,324.99998,324.99998,99.5578,99.50721666666666,99.56622857142857,99.54562857142857,-0.018333333333333313,-0.1286666666666666,-0.17450000000000002,0.05366666666666667,-0.054999999999999716,-0.060000000000002274,1.5445,1.6,36.983999999999995,29.213,37.202,34.2685,55.924,34.431,59.406,51.7735,53.876999999999995,33.6405,58.0295,50.1275,53.07,33.241,58.0015,49.55433333333333,-0.013500000000000068,-0.13600000000000012,0.11342,0.10816,0.0,205.32,205.255,202.30333333333334,202.30333333333334,0.0,0.0
1,0.0,0.0,0.0,1.0,1.0,0.0,0.0,1.0,0.0,100.0,1.0,1.1856,26.0,0.0,0.0,0.0,57.999998,0.0,26.0,26.0,26.0,26.0,-0.14822222222222214,0.3105,-0.0152,293.06,-2.6342,-2.8102222222222224,-1.514,-1.5611000000000002,-272.38,216.1625,190.967625,0.0,0.0,0.0,0.0,0.0035,-5.498166666666667,-5.498166666666667,-0.49420000000000003,-0.347,-0.06637499999999985,-0.125,65.672,-0.0567,-0.191225,1.3840000000000003,100.0,1.0,1.0,202.42333333333335,0.0,0.0,0.0,0.0,0.0,0.0,0.0,8580.0,0.0,55.0,5.0,236.38666666666666,1.0,0.0,0.0,0.0,0.0,0.0,0.0,0.0,0.053999999999998494,0.053999999999998494,0.0,0.0,1.0,55.0,616.79921,10000.0,85.000001,85.000001,85.000001,85.000001,395.0,0.0,0.0,0.0,1.0,333.33500000000004,53.68,53.68,48.248,48.248,34.0,-26.872500000000002,17.678,-34.943333333333335,29.1725,0.0,1782.532,0.995000000000001,100.0,27.743,26.88,42.75,41.484,0.0,0.0,100.0,0.0,0.0,0.0,0.0,3038.857142857143,2632.7,4396.125,4728.4,305.441,306.48025,314.0516666666667,313.10375,21.7673,20.5192,21.8031,21.3321,314.999998,314.999998,324.999988,324.999988,99.55781428571429,99.50723333333333,99.56638571428572,99.54577142857143,-0.01866666666666661,-0.1476666666666666,-0.183,0.032,-0.051666666666669414,-0.054999999999999716,1.4035,1.4395,37.045,29.244999999999997,37.269999999999996,34.3255,55.91,34.473,59.451,51.8375,53.863,33.6795,58.071,50.1885,53.055,33.278,58.0405,49.614333333333335,0.0045000000000001705,-0.15100000000000025,0.10772000000000001,0.10933500000000002,0.0,205.79500000000002,205.675,202.42333333333335,202.42333333333335,0.0,0.0
2,0.0,0.0,0.0,1.0,1.0,0.0,0.0,1.0,0.0,100.0,1.0,1.1856,26.0,0.0,0.0,0.0,57.999998,0.0,26.0,26.0,26.0,26.0,-0.1604444444444444,0.2761,-0.08626666666666667,293.793,-2.5928,-2.7904444444444443,-1.4809,-1.6449,-268.82,216.16500000000002,190.94775,0.0,0.0,0.0,0.0,0.005566666666666667,-5.498166666666667,-5.498166666666667,-0.5513,0.15866666666666673,-0.05512499999999987,2.6950000000000003,65.822,-0.0796,-0.254425,1.75,100.0,1.0,1.0,203.41333333333333,0.0,0.0,0.0,0.0,0.0,0.0,0.0,8621.9,0.0,55.0,5.0,236.93,0.0,0.0,0.0,0.0,0.0,0.0,0.0,0.0,0.10800000000000054,0.10800000000000054,0.0,0.0,0.0,55.0,616.79921,10000.0,85.000001,85.000001,85.000001,85.000001,395.0,0.0,0.0,0.0,1.0,166.665,52.475,52.475,50.323,50.323,34.0,-30.384999999999998,19.766,-29.373333333333335,20.07,0.0,1782.48,0.9400000000000013,100.0,28.437,26.764,42.611000000000004,41.188,0.0,0.0,100.0,0.0,0.0,0.0,0.0,3305.0,2980.5,3713.125,3665.4,304.592,305.434,315.742,315.84825,21.778,20.5244,21.8143,21.3414,314.999998,314.999998,324.999988,324.999988,99.55781428571429,99.50726666666667,99.56652857142858,99.54591428571429,-0.04266666666666663,-0.15833333333333333,-0.23533333333333334,0.001,-0.05333333333332746,-0.04333333333332945,1.6345,1.704,37.111999999999995,29.277666666666665,37.34,34.3835,55.897999999999996,34.515,59.49,51.8975,53.852000000000004,33.718,58.108000000000004,50.246,53.043,33.315,58.0745,49.67033333333333,0.0030000000000001137,-0.14849999999999985,0.10901500000000001,0.10292000000000001,0.0,206.265,206.07999999999998,203.41333333333333,203.41333333333333,0.0,0.0
3,0.0,0.0,0.0,1.0,1.0,0.0,0.0,1.0,0.0,100.0,1.0,1.1856,26.0,0.0,0.0,0.0,57.999998,0.0,26.0,26.0,26.0,26.0,-0.1607777777777778,0.2955000000000001,-0.03136666666666667,293.457,-2.6313,-2.6973333333333334,-1.4982,-1.6015000000000001,-265.86,216.16500000000002,190.93025,0.0,0.0,0.0,0.0,0.0073,-5.498166666666667,-5.498166666666667,-0.5101,0.7223333333333333,-0.02312499999999984,-0.9710000000000001,65.957,-0.0981,-0.199375,1.5579999999999998,100.0,1.0,1.0,203.50333333333333,0.0,0.0,0.0,0.0,0.0,0.0,0.0,8625.7,0.0,55.0,5.0,237.41333333333333,1.0,0.0,0.0,0.0,0.0,0.0,0.0,0.0,0.1529999999999987,0.1529999999999987,0.0,0.0,1.0,55.0,616.79921,10000.0,85.000001,85.000001,85.000001,85.000001,395.0,0.0,0.0,0.0,1.0,333.33500000000004,53.436,53.436,48.203,48.203,34.0,-27.3475,16.93,-36.85333333333333,23.1725,0.0,1782.433,0.9649999999999999,100.0,27.988,27.042,42.408,41.3,0.0,0.0,100.0,0.0,0.0,0.0,0.0,2973.4285714285716,2779.9,4372.625,4160.2,305.8345,305.776,314.229,314.51825,21.7866,20.529,21.8236,21.3492,314.999998,314.999998,324.999988,324.999988,99.55781428571429,99.50728333333333,99.56664285714285,99.54605714285714,-0.05600000000000005,-0.17899999999999994,-0.23633333333333334,-0.005833333333333333,-0.060000000000002274,-0.03833333333332689,1.4685000000000001,1.5375,37.166,29.306333333333335,37.397,34.4325,55.885999999999996,34.5535,59.524,51.952,53.84,33.7535,58.1395,50.298500000000004,53.03,33.349000000000004,58.1035,49.722,0.0015000000000000568,-0.1459999999999999,0.10894000000000001,0.10892500000000001,0.0,206.69,206.56,203.50333333333333,203.50333333333333,0.0,0.0
4,0.0,0.0,0.0,1.0,1.0,0.0,0.0,1.0,0.0,100.0,1.0,1.1856,26.0,0.0,0.0,0.0,57.999998,0.0,26.0,26.0,26.0,26.0,-0.17555555555555558,0.28869999999999996,0.005166666666666667,293.579,-2.6457,-2.798111111111111,-1.5122,-1.6159,-262.29,216.16,190.909375,0.0,0.0,0.0,0.0,0.009366666666666667,-5.498166666666667,-5.498166666666667,-0.5421,-0.7656666666666667,-0.09562500000000007,-1.749,66.112,-0.10590000000000001,-0.2361,1.718,100.0,1.0,1.0,204.07999999999998,0.0,0.0,0.0,0.0,0.0,0.0,0.0,8650.2,0.0,55.0,5.0,237.97333333333333,0.0,0.0,0.0,0.0,0.0,0.0,0.0,0.0,0.20700000000000074,0.20700000000000074,0.0,0.0,0.0,55.0,616.79921,10000.0,85.000001,85.000001,85.000001,85.000001,395.0,0.0,0.0,0.0,1.0,166.665,53.07,53.07,48.676,48.676,34.0,-31.7925,17.77,-34.56333333333333,19.9825,0.0,1782.378,0.9800000000000004,100.0,27.732,26.744,42.974000000000004,41.381,0.0,0.0,100.0,0.0,0.0,0.0,0.0,3337.142857142857,2847.7,4165.25,3679.3,304.8345,305.61525,314.66133333333335,315.6525,21.7969,20.5343,21.8349,21.3586,314.999998,314.999998,324.999988,324.999988,99.55782857142857,99.5073,99.5668,99.5462,-0.06699999999999995,-0.19033333333333335,-0.23683333333333334,-0.006500000000000001,-0.036666666666668846,-0.04833333333333201,1.5725,1.5995,37.230000000000004,29.339666666666666,37.468,34.4915,55.870000000000005,34.5985,59.5685,52.0145,53.826,33.795,58.181,50.358000000000004,53.015,33.3885,58.141999999999996,49.78033333333333,0.004999999999999893,-0.1575000000000002,0.101845,0.11120000000000001,0.0,207.10500000000002,206.985,204.07999999999998,204.07999999999998,0.0,0.0
5,0.0,0.0,0.0,1.0,1.0,0.0,0.0,1.0,0.0,100.0,1.0,1.1856,26.0,0.0,0.0,0.0,57.999998,0.0,26.0,26.0,26.0,26.0,-0.18333333333333335,0.28659999999999997,-0.013233333333333335,293.625,-2.6519,-2.774888888888889,-1.49455,-1.6035,-258.92,216.15,190.889,0.0,0.0,0.0,0.0,0.011333333333333334,-5.498166666666667,-5.498166666666667,-0.5363,0.4063333333333332,-0.09762499999999985,1.028,66.259,-0.11850000000000001,-0.214925,1.5879999999999992,100.0,1.0,1.0,204.50666666666666,0.0,0.0,0.0,0.0,0.0,0.0,0.0,8668.2,0.0,55.0,5.0,238.5,1.0,0.0,0.0,0.0,0.0,0.0,0.0,0.0,0.2579999999999991,0.2579999999999991,0.0,0.0,1.0,55.0,616.79921,10000.0,85.000001,85.000001,85.000001,85.000001,395.0,0.0,0.0,0.0,1.0,166.665,53.421,53.421,49.010999999999996,49.010999999999996,34.0,-29.1,18.176,-35.126666666666665,21.36,0.0,1782.329,0.5700000000000003,100.0,28.046,26.463,42.828,40.956,0.0,0.0,100.0,0.0,0.0,0.0,0.0,3146.285714285714,2826.8,4158.875,4068.5,305.176,305.8955,314.7126666666667,314.80425,21.8069,20.5394,21.8455,21.3674,314.999998,314.999998,324.999988,324.999988,99.55784285714286,99.50731666666667,99.56695714285715,99.54632857142857,-0.04299999999999993,-0.16600000000000004,-0.25,-0.024333333333333332,-0.04333333333332945,-0.060000000000002274,1.5190000000000001,1.5975000000000001,37.293,29.371000000000002,37.534,34.546,55.86,34.641,59.608000000000004,52.071,53.815,33.8335,58.218,50.4125,53.004000000000005,33.4255,58.176,49.833,-0.02499999999999991,-0.121,0.10708000000000001,0.10501,0.0,207.61,207.48000000000002,204.50666666666666,204.50666666666666,0.0,0.0
6,0.0,0.0,0.0,1.0,1.0,0.0,0.0,1.0,0.0,100.0,1.0,1.1856,26.0,0.0,0.0,0.0,57.999998,0.0,26.0,26.0,26.0,26.0,-0.15955555555555556,0.29720000000000013,-0.002,293.503,-2.6170999999999998,-2.7874444444444446,-1.5299,-1.6062,-255.93,216.1375,190.871,0.0,0.0,0.0,0.0,0.013066666666666666,-5.498166666666667,-5.498166666666667,-0.5302,0.09800000000000009,-0.09012500000000001,-0.5569999999999999,66.388,-0.12040000000000001,-0.212675,1.4339999999999993,100.0,1.0,1.0,204.88,0.0,0.0,0.0,0.0,0.0,0.0,0.0,8684.1,0.0,55.0,5.0,238.96666666666667,0.0,0.0,0.0,0.0,0.0,0.0,0.0,0.0,0.3030000000000008,0.3030000000000008,0.0,0.0,0.0,55.0,616.79921,10000.0,85.000001,85.000001,85.000001,85.000001,395.0,0.0,0.0,0.0,1.0,166.665,53.223,53.223,48.737,48.737,34.0,-30.225,17.968,-35.89666666666666,21.265,0.0,1782.284,0.5350000000000001,100.0,27.794,26.66,42.836,41.261,0.0,0.0,100.0,0.0,0.0,0.0,0.0,3273.5714285714284,2825.6,4200.125,3960.8,304.9695,305.68925,314.6596666666667,314.9955,21.8156,20.5439,21.8549,21.3753,314.999998,314.999998,324.999988,324.999988,99.55784285714286,99.50733333333334,99.56707142857142,99.54645714285714,-0.05033333333333312,-0.17933333333333334,-0.248,-0.0155,-0.04999999999999716,-0.05666666666667197,1.51,1.5899999999999999,37.348,29.399,37.593,34.5955,55.849000000000004,34.678,59.6435,52.1245,53.805,33.868,58.2515,50.463499999999996,52.992999999999995,33.458,58.207,49.882999999999996,-0.034499999999999975,-0.1160000000000001,0.10355,0.11236000000000002,0.0,208.01,207.88,204.88,204.88,0.0,0.0
7,0.0,0.0,0.0,1.0,1.0,0.0,0.0,1.0,0.0,100.0,1.0,1.1856,26.0,0.0,0.0,0.0,57.999998,0.0,26.0,26.0,26.0,26.0,-0.1484444444444445,0.28490000000000015,0.04376666666666667,293.243,-2.582,-2.75,-1.4861,-1.6486,-252.54,216.12,190.8505,0.0,0.0,0.0,0.0,0.015033333333333334,-5.498166666666667,-5.498166666666667,-0.5358,-0.04066666666666663,-0.08012500000000022,1.016,66.53399999999999,-0.1102,-0.22460000000000002,1.0340000000000007,100.0,1.0,1.0,205.3,0.0,0.0,0.0,0.0,0.0,0.0,0.0,8701.9,0.0,55.0,5.0,239.49333333333334,1.0,0.0,0.0,0.0,0.0,0.0,0.0,0.0,0.3539999999999992,0.3539999999999992,0.0,0.0,1.0,55.0,616.79921,10000.0,85.000001,85.000001,85.000001,85.000001,395.0,0.0,0.0,0.0,1.0,333.33500000000004,52.826,52.826,48.888999999999996,48.888999999999996,34.0,-28.5875,20.348,-32.93,22.96,0.0,1782.231,0.21999999999999886,100.0,28.113,26.561,43.022,41.42,0.0,0.0,100.0,0.0,0.0,0.0,0.0,3263.4285714285716,3006.6,4079.125,4034.2,304.763,305.31375,314.8353333333333,314.8205,21.825499999999998,20.549,21.8655,21.3842,314.999998,314.999998,324.999988,324.999988,99.55784285714286,99.50735,99.56724285714286,99.54661428571428,-0.014666666666666606,-0.14200000000000002,-0.22033333333333335,-0.0055,-0.05333333333332746,-0.04833333333333201,1.512,1.5585,37.409,29.430999999999997,37.659,34.6515,55.836,34.722,59.686,52.188,53.793,33.908,58.291,50.524,52.979,33.4965,58.244,49.94233333333334,-0.06149999999999989,-0.08999999999999986,0.10114000000000001,0.10815500000000002,0.0,208.44,208.32999999999998,205.3,205.3,0.0,0.0
8,0.0,0.0,0.0,1.0,1.0,0.0,0.0,1.0,0.0,100.0,1.0,1.1856,26.0,0.0,0.0,0.0,57.999998,0.0,26.0,26.0,26.0,26.0,-0.10144444444444445,0.28090000000000015,0.0332,293.51800000000003,-2.6649000000000003,-2.748666666666667,-1.4704000000000002,-1.6318000000000001,-248.95,216.0975,190.828625,0.0,0.0,0.0,0.0,0.017133333333333334,-5.498166666666667,-5.498166666666667,-0.5369,-0.5466666666666666,-0.0638749999999999,0.746,66.688,-0.0915,-0.216,0.4900000000000002,100.0,1.0,1.0,205.7266666666667,0.0,0.0,0.0,0.0,0.0,0.0,0.0,8720.0,0.0,55.0,5.0,240.04666666666668,0.0,0.0,0.0,0.0,0.0,0.0,0.0,0.0,0.40800000000000125,0.40800000000000125,0.0,0.0,0.0,55.0,616.79921,10000.0,85.000001,85.000001,85.000001,85.000001,395.0,0.0,0.0,0.0,1.0,166.665,53.65,53.65,48.263999999999996,48.263999999999996,34.0,-25.7825,20.506,-32.39333333333333,25.3075,0.0,1782.177,0.05000000000000071,100.0,27.673000000000002,26.517,43.042,41.515,0.0,0.0,100.0,0.0,0.0,0.0,0.0,2992.857142857143,2957.8,4132.875,4110.0,305.701,305.50275,314.67466666666667,314.62875,21.8357,20.5544,21.8767,21.3937,314.999998,314.999998,324.999988,324.999988,99.55785714285715,99.50736666666667,99.56738571428572,99.54674285714286,0.0006666666666665932,-0.1276666666666666,-0.20183333333333334,0.03166666666666667,-0.061666666666667425,-0.06499999999999773,1.5085000000000002,1.5285,37.473,29.464666666666666,37.729,34.710499999999996,55.82,34.7625,59.726,52.2475,53.777,33.945,58.3285,50.581,52.963,33.5315,58.278,49.998,-0.0734999999999999,-0.07500000000000018,0.10492000000000001,0.11385,0.0,208.885,208.84,205.7266666666667,205.7266666666667,0.0,0.0
9,0.0,0.0,0.0,1.0,1.0,0.0,0.0,1.0,0.0,100.0,1.0,1.1856,26.0,0.0,0.0,0.0,57.999998,0.0,26.0,26.0,26.0,26.0,-0.0788888888888889,0.2944,-0.016300000000000002,293.182,-2.6554,-2.7591111111111113,-1.5281500000000001,-1.5914000000000001,-245.94,216.0775,190.81,0.0,0.0,0.0,0.0,0.0189,-5.498166666666667,-5.498166666666667,-0.5425,0.5476666666666667,-0.06662500000000016,-0.43199999999999994,66.813,-0.07640000000000001,-0.21780000000000002,0.5099999999999998,100.0,1.0,1.0,206.2266666666667,0.0,0.0,0.0,0.0,0.0,0.0,0.0,8741.2,0.0,55.0,5.0,240.5,1.0,0.0,0.0,0.0,0.0,0.0,0.0,0.0,0.4529999999999994,0.4529999999999994,0.0,0.0,1.0,55.0,616.79921,10000.0,85.000001,85.000001,85.000001,85.000001,395.0,0.0,0.0,0.0,1.0,166.665,52.49,52.49,49.194,49.194,34.0,-29.127499999999998,21.549999999999997,-31.276666666666664,23.615000000000002,0.0,1782.134,-0.1750000000000007,100.0,27.976,27.056,42.665,41.601,0.0,0.0,100.0,0.0,0.0,0.0,0.0,3430.142857142857,2943.6,4033.5,3990.5,304.501,305.2965,315.0763333333333,314.9385,21.8444,20.559,21.8859,21.4015,314.999998,314.999998,324.999988,324.999988,99.55785714285715,99.50738333333334,99.5675,99.54687142857144,0.019333333333333425,-0.10766666666666658,-0.1935,0.030833333333333334,-0.05666666666667197,-0.07166666666666544,1.5710000000000002,1.5885,37.528,29.494,37.787,34.7595,55.808,34.799,59.7585,52.298500000000004,53.766,33.9785,58.3585,50.629999999999995,52.951,33.5635,58.306,50.046,-0.09299999999999997,-0.06150000000000011,0.10416,0.11184000000000001,0.0,209.29500000000002,209.245,206.2266666666667,206.2266666666667,0.0,0.0
10,0.0,0.0,0.0,1.0,1.0,0.0,0.0,1.0,0.0,100.0,1.0,1.1856,26.0,0.0,0.0,0.0,57.999998,0.0,26.0,26.0,26.0,26.0,-0.06622222222222218,0.29269999999999996,0.047,293.015,-2.6238,-2.746777777777778,-1.50115,-1.5726,-242.53,216.05,190.78925,0.0,0.0,0.0,0.0,0.020866666666666665,-5.498166666666667,-5.498166666666667,-0.5191,-0.42766666666666664,-0.027000000000000135,1.839,66.959,-0.054400000000000004,-0.20647500000000002,-0.0259999999999998,100.0,1.0,1.0,206.47,0.0,0.0,0.0,0.0,0.0,0.0,0.0,8751.4,0.0,55.0,5.0,241.02666666666664,0.0,0.0,0.0,0.0,0.0,0.0,1.0,0.0,0.5040000000000013,0.5040000000000013,0.0,0.0,0.0,55.0,616.79921,10000.0,85.000001,85.000001,85.000001,85.000001,395.0,0.0,0.0,0.0,1.0,333.33500000000004,53.482,53.482,47.729,47.729,34.0,-22.6875,21.665999999999997,-31.973333333333336,27.965,0.0,1782.082,-0.3150000000000013,100.0,28.012999999999998,26.893,43.17,42.207,0.0,0.0,100.0,0.0,0.0,0.0,0.0,2895.285714285714,2912.5,4277.5,4293.9,305.9135,305.623,314.3233333333333,314.2165,21.8542,20.5642,21.8966,21.4106,314.999998,314.999998,324.999988,324.999988,99.55785714285715,99.5074,99.56765714285714,99.54701428571428,0.04933333333333367,-0.08899999999999997,-0.15766666666666665,0.06783333333333333,-0.03999999999999915,-0.03999999999999915,1.49,1.4805,37.588,29.526333333333334,37.854,34.8165,55.795,34.8375,59.799,52.361000000000004,53.753,34.013999999999996,58.3965,50.69,52.938,33.5975,58.341,50.10466666666667,-0.10749999999999993,-0.05049999999999999,0.11037000000000001,0.11190000000000001,0.0,209.715,209.70499999999998,206.47,206.47,0.0,0.0
11,0.0,0.0,0.0,1.0,1.0,0.0,0.0,1.0,0.0,100.0,1.0,1.1856,26.0,0.0,0.0,0.0,57.999998,0.0,26.0,26.0,26.0,26.0,-0.0031111111111110645,0.27980000000000005,-0.10103333333333334,293.549,-2.6784,-2.7167777777777777,-1.5639,-1.5556999999999999,-239.11,216.0225,190.768625,0.0,0.0,0.0,0.0,0.022600000000000002,-5.498166666666667,-5.498166666666667,-0.5596,-0.258,0.0009999999999998899,-0.55,67.099,-0.0297,-0.23620000000000002,-0.15399999999999991,100.0,1.0,1.0,207.19333333333333,0.0,0.0,0.0,0.0,0.0,0.0,0.0,8782.1,0.0,55.0,5.0,241.52666666666664,1.0,0.0,0.0,0.0,0.0,0.0,1.0,0.0,0.5549999999999997,0.5549999999999997,0.0,0.0,1.0,55.0,616.79921,10000.0,85.000001,85.000001,85.000001,85.000001,395.0,0.0,0.0,0.0,1.0,333.33500000000004,52.933,52.933,49.254999999999995,49.254999999999995,34.0,-24.965,23.415999999999997,-26.70666666666667,24.755000000000003,0.0,1782.03,-0.3249999999999993,100.0,27.595,27.285,42.615,42.256,0.0,0.0,100.0,0.0,0.0,0.0,0.0,3136.5714285714284,3022.7,3754.75,3849.3,305.4015,305.06575,315.75966666666665,315.2715,21.8637,20.5695,21.907,21.4196,314.999998,314.999998,324.999988,324.999988,99.55785714285715,99.5074,99.5678,99.54715714285715,0.05366666666666653,-0.06933333333333336,-0.14316666666666666,0.08616666666666667,-0.04333333333332945,-0.04999999999999716,1.6105,1.608,37.647999999999996,29.559666666666665,37.919,34.8725,55.778999999999996,34.8765,59.8335,52.4195,53.739000000000004,34.05,58.4285,50.7465,52.922,33.6315,58.37,50.159666666666666,-0.09999999999999987,-0.047499999999999876,0.10860500000000001,0.10370000000000001,0.0,210.115,210.12,207.19333333333333,207.19333333333333,0.0,0.0
12,0.0,0.0,0.0,1.0,1.0,0.0,0.0,1.0,0.0,100.0,1.0,1.1856,26.0,0.0,0.0,0.0,57.999998,0.0,26.0,26.0,26.0,26.0,0.0018888888888888289,0.29310000000000014,0.024533333333333334,293.03,-2.7335000000000003,-2.713111111111111,-1.5248,-1.5781,-235.89,215.9975,190.747875,0.0,0.0,0.0,0.0,0.025466666666666665,-5.498166666666667,-5.498166666666667,-0.5466,0.29966666666666675,-0.013500000000000068,-0.815,67.235,-0.01,-0.20697500000000002,-0.16600000000000037,100.0,1.0,1.0,207.40333333333334,0.0,0.0,0.0,0.0,0.0,0.0,0.0,8791.0,0.0,55.0,5.0,242.01999999999998,0.0,0.0,0.0,0.0,0.0,0.0,1.0,0.0,0.602999999999998,0.602999999999998,0.0,0.0,0.0,55.0,616.79921,10000.0,85.000001,85.000001,85.000001,85.000001,395.0,0.0,0.0,0.0,1.0,333.33500000000004,52.872,52.872,48.08,48.08,34.0,-25.2275,23.942,-29.21,28.675,0.0,1781.984,-0.3299999999999983,100.0,27.481,27.448,42.47,42.189,0.0,0.0,100.0,0.0,0.0,0.0,0.0,3192.0,3030.9,4251.75,4118.7,305.2705,305.056,314.56466666666665,314.61025,21.872700000000002,20.5746,21.9169,21.428,314.999998,314.999998,324.999988,324.999988,99.55787142857143,99.5074,99.56792857142857,99.54728571428572,0.07033333333333358,-0.05733333333333335,-0.11183333333333333,0.10833333333333334,-0.05666666666667197,-0.046666666666666856,1.533,1.5205,37.704,29.59133333333333,37.980999999999995,34.925,55.766999999999996,34.913,59.8685,52.4755,53.726,34.0835,58.461,50.8,52.909,33.664,58.3995,50.21233333333333,-0.10299999999999998,-0.04899999999999993,0.10425000000000001,0.11400500000000001,0.0,210.565,210.575,207.40333333333334,207.40333333333334,0.0,0.0
13,0.0,0.0,0.0,1.0,1.0,0.0,0.0,1.0,0.0,100.0,1.0,1.1856,26.0,0.0,0.0,0.0,57.999998,0.0,26.0,26.0,26.0,26.0,0.0030000000000001137,0.28970000000000007,0.05276666666666666,292.618,-2.7077999999999998,-2.7054444444444443,-1.56555,-1.5655000000000001,-232.46,215.9675,190.726125,0.0,0.0,0.0,0.0,0.02673333333333333,-5.498166666666667,-5.498166666666667,-0.5389,-0.06099999999999994,-0.005250000000000199,1.045,67.378,0.0018000000000000002,-0.21375000000000002,-0.3120000000000003,100.0,1.0,1.0,207.7733333333333,0.0,0.0,0.0,0.0,0.0,0.0,0.0,8806.7,0.0,55.0,5.0,242.53333333333336,1.0,0.0,0.0,0.0,0.0,0.0,1.0,0.0,0.6539999999999999,0.6539999999999999,0.0,0.0,1.0,55.0,616.79921,10000.0,85.000001,85.000001,85.000001,85.000001,395.0,0.0,0.0,0.0,1.0,333.33500000000004,52.551,52.551,47.943,47.943,34.0,-23.3525,25.718,-28.68,30.935,0.0,1781.932,-0.46999999999999886,100.0,27.945,27.507,42.815,42.6,0.0,0.0,100.0,0.0,0.0,0.0,0.0,3111.0,3128.1,4178.75,4329.3,305.3075,304.926,314.61833333333334,314.16025,21.8823,20.5801,21.9275,21.4372,314.999998,314.999998,324.999988,324.999988,99.55788571428572,99.50741666666667,99.56807142857143,99.54742857142857,0.09699999999999998,-0.029333333333333322,-0.097,0.11966666666666667,-0.04833333333333201,-0.061666666666667425,1.5055,1.4889999999999999,37.763999999999996,29.625666666666667,38.047,34.9825,55.754999999999995,34.951499999999996,59.9065,52.538,53.715,34.119,58.4965,50.86,52.897,33.6975,58.432,50.271,-0.10899999999999999,-0.039000000000000146,0.10360000000000001,0.10885500000000001,0.0,211.0,211.005,207.7733333333333,207.7733333333333,0.0,0.0
14,0.0,0.0,0.0,1.0,1.0,0.0,0.0,1.0,0.0,100.0,1.0,1.1856,26.0,0.0,0.0,0.0,57.999998,0.0,26.0,26.0,26.0,26.0,0.023333333333333428,0.28700000000000014,-0.011466666666666668,292.831,-2.7016999999999998,-2.6466666666666665,-1.5716999999999999,-1.5376,-228.81,215.9375,190.7035,0.0,0.0,0.0,0.0,0.028833333333333332,-5.498166666666667,-5.498166666666667,-0.5494,-0.10066666666666657,0.022375000000000034,1.214,67.526,0.011600000000000001,-0.22815000000000002,-0.4320000000000004,100.0,1.0,1.0,208.32,0.0,0.0,0.0,0.0,0.0,0.0,0.0,8830.0,0.0,55.0,5.0,243.06666666666666,0.0,0.0,0.0,0.0,0.0,0.0,1.0,0.0,0.7079999999999984,0.7079999999999984,0.0,0.0,0.0,55.0,616.79921,10000.0,85.000001,85.000001,85.000001,85.000001,395.0,0.0,0.0,0.0,1.0,166.665,52.612,52.612,48.141,48.141,34.0,-21.8,26.5,-26.813333333333333,29.865000000000002,0.0,1781.878,-0.5199999999999996,100.0,27.881,27.645,42.769,42.848,0.0,0.0,100.0,0.0,0.0,0.0,0.0,2979.285714285714,3212.6,3977.25,4186.4,305.6805,304.67275,315.12666666666667,314.51575,21.8924,20.5859,21.9386,21.4469,314.999998,314.999998,324.999988,324.999988,99.5579,99.50741666666667,99.56822857142858,99.54758571428572,0.10633333333333361,-0.01733333333333331,-0.09533333333333333,0.13416666666666666,-0.03999999999999915,-0.061666666666667425,1.552,1.538,37.828,29.661666666666665,38.116,35.043,55.742999999999995,34.9915,59.9445,52.603,53.704,34.156,58.532,50.9225,52.884,33.733000000000004,58.464,50.332,-0.11949999999999994,-0.032500000000000195,0.10783500000000001,0.10708000000000001,0.0,211.44,211.46,208.32,208.32,0.0,0.0
15,0.0,0.0,0.0,1.0,1.0,0.0,0.0,1.0,0.0,100.0,1.0,1.1856,26.0,0.0,0.0,0.0,57.999998,0.0,26.0,26.0,26.0,26.0,0.04644444444444429,0.2804,-0.03523333333333333,292.816,-2.6822,-2.603111111111111,-1.59725,-1.4804,-225.76999999999998,215.91500000000002,190.6845,0.0,0.0,0.0,0.0,0.030600000000000002,-5.498166666666667,-5.498166666666667,-0.5412,0.28166666666666673,0.047250000000000014,-0.32899999999999996,67.65,0.0223,-0.211975,-0.4900000000000002,100.0,1.0,1.0,208.69,0.0,0.0,0.0,0.0,0.0,0.0,0.0,8845.5,0.0,55.0,5.0,243.51,1.0,0.0,0.0,0.0,0.0,0.0,1.0,0.0,0.7530000000000001,0.7530000000000001,0.0,0.0,1.0,55.0,616.79921,10000.0,85.000001,85.000001,85.000001,85.000001,395.0,0.0,0.0,0.0,1.0,166.665,52.78,52.78,48.172,48.172,34.0,-21.572499999999998,24.764000000000003,-27.449999999999996,30.2825,0.0,1781.833,-0.4549999999999983,100.0,27.766,27.853,42.499,43.022999999999996,0.0,0.0,100.0,0.0,0.0,0.0,0.0,2956.714285714286,3086.2,4023.0,4287.9,305.8875,304.878,315.10433333333333,314.21825,21.9009,20.5907,21.9478,21.4549,314.999998,314.999998,324.999988,324.999988,99.55791428571429,99.50743333333334,99.56835714285714,99.54771428571429,0.0990000000000002,-0.026666666666666616,-0.09466666666666668,0.13683333333333333,-0.04333333333332945,-0.04833333333333201,1.536,1.508,37.879999999999995,29.692,38.174,35.0935,55.733000000000004,35.0245,59.975,52.6565,53.694,34.1865,58.5605,50.9745,52.873999999999995,33.7625,58.49,50.382999999999996,-0.11099999999999999,-0.039000000000000146,0.114,0.10951500000000002,0.0,211.835,211.865,208.69,208.69,0.0,0.0
16,0.0,0.0,0.0,1.0,1.0,0.0,0.0,1.0,0.0,100.0,1.0,1.1856,26.0,0.0,0.0,0.0,57.999998,0.0,26.0,26.0,26.0,26.0,0.03433333333333333,0.27090000000000014,-0.012666666666666668,292.801,-2.7687,-2.621,-1.5692,-1.4859,-222.32,215.8875,190.662375,0.0,0.0,0.0,0.0,0.032633333333333334,-5.498166666666667,-5.498166666666667,-0.5592,-0.71,0.03212499999999996,0.10999999999999999,67.78999999999999,0.0324,-0.22475,-0.5020000000000007,100.0,1.0,1.0,209.10333333333335,0.0,0.0,0.0,0.0,0.0,0.0,0.0,8863.1,0.0,55.0,5.0,244.01666666666665,0.0,0.0,0.0,0.0,0.0,0.0,1.0,0.0,0.8039999999999985,0.8039999999999985,0.0,0.0,0.0,55.0,616.79921,10000.0,85.000001,85.000001,85.000001,85.000001,395.0,0.0,0.0,0.0,1.0,166.665,52.734,52.734,47.852000000000004,47.852000000000004,34.0,-22.38,26.503999999999998,-25.836666666666666,30.675,0.0,1781.783,-0.3200000000000003,100.0,27.567,27.723,42.841,43.054,0.0,0.0,100.0,0.0,0.0,0.0,0.0,3004.714285714286,3236.7,3994.875,4163.0,305.756,304.62625,315.09633333333335,314.5615,21.9101,20.5962,21.9584,21.4641,314.999998,314.999998,324.999988,324.999988,99.55792857142858,99.50743333333334,99.5685,99.54785714285714,0.1080000000000001,-0.017000000000000015,-0.07233333333333333,0.16583333333333333,-0.046666666666666856,-0.041666666666671404,1.5365,1.522,37.938,29.726333333333336,38.239999999999995,35.1505,55.719,35.0625,60.0125,52.7175,53.68,34.2215,58.595,51.033,52.858999999999995,33.796,58.5215,50.440333333333335,-0.09899999999999998,-0.05149999999999988,0.10861000000000001,0.11291000000000001,0.0,212.23000000000002,212.265,209.10333333333335,209.10333333333335,0.0,0.0
17,0.0,0.0,0.0,1.0,1.0,0.0,0.0,1.0,0.0,100.0,1.0,1.1856,26.0,0.0,0.0,0.0,57.999998,0.0,26.0,26.0,26.0,26.0,0.019000000000000128,0.2842,-0.009966666666666667,292.48,-2.7256,-2.6077777777777778,-1.6029499999999999,-1.5110000000000001,-218.65,215.86,190.638625,0.0,0.0,0.0,0.0,0.03473333333333333,-5.498166666666667,-5.498166666666667,-0.5496,0.43266666666666675,0.007874999999999854,0.747,67.937,0.031400000000000004,-0.207675,-0.29600000000000026,100.0,1.0,1.0,209.50666666666666,0.0,0.0,0.0,0.0,0.0,0.0,0.0,8880.2,0.0,55.0,5.0,244.54333333333335,1.0,0.0,0.0,0.0,0.0,0.0,1.0,0.0,0.8580000000000005,0.8580000000000005,0.0,0.0,1.0,55.0,616.79921,10000.0,85.000001,85.000001,85.000001,85.000001,395.0,0.0,0.0,0.0,1.0,166.665,52.414,52.414,47.729,47.729,34.0,-22.56,25.43,-28.436666666666667,31.177500000000002,0.0,1781.728,-0.3299999999999983,100.0,28.034,27.939,42.675,42.939,0.0,0.0,100.0,0.0,0.0,0.0,0.0,3085.4285714285716,3127.4,4278.0,4304.3,305.4255,304.95225,314.5063333333333,314.293,21.9202,20.6021,21.9694,21.4737,314.999998,314.999998,324.999988,324.999988,99.55794285714286,99.50743333333334,99.56864285714286,99.54801428571429,0.11366666666666658,-0.015000000000000013,-0.07133333333333333,0.14616666666666667,-0.045000000000001705,-0.041666666666671404,1.5245,1.5165,38.001999999999995,29.763333333333335,38.309,35.210499999999996,55.708,35.1035,60.0495,52.781,53.67,34.2595,58.6295,51.094,52.848,33.832,58.5525,50.50033333333333,-0.10250000000000004,-0.04899999999999993,0.10115500000000001,0.10602,0.0,212.73000000000002,212.75,209.50666666666666,209.50666666666666,0.0,0.0
18,0.0,0.0,0.0,1.0,1.0,0.0,0.0,1.0,0.0,100.0,1.0,1.1856,26.0,0.0,0.0,0.0,57.999998,0.0,26.0,26.0,26.0,26.0,0.02288888888888896,0.28510000000000013,-0.016800000000000002,292.511,-2.7573,-2.583111111111111,-1.61505,-1.4605000000000001,-215.59,215.8375,190.618875,0.0,0.0,0.0,0.0,0.036533333333333334,-5.498166666666667,-5.498166666666667,-0.5592,-0.508,0.02299999999999991,-0.32800000000000007,68.059,0.0287,-0.22082500000000002,-0.2400000000000002,100.0,1.0,1.0,209.91333333333333,0.0,0.0,0.0,0.0,0.0,0.0,0.0,8897.4,0.0,55.0,5.0,244.98666666666668,0.0,0.0,0.0,0.0,0.0,0.0,1.0,0.0,0.9029999999999987,0.9029999999999987,0.0,0.0,0.0,55.0,616.79921,10000.0,85.000001,85.000001,85.000001,85.000001,395.0,0.0,0.0,0.0,1.0,166.665,52.414,52.414,47.729,47.729,34.0,-24.03,25.478,-28.36,28.29,0.0,1781.684,-0.34999999999999787,100.0,27.644,27.899,42.907,43.365,0.0,0.0,100.0,0.0,0.0,0.0,0.0,3191.4285714285716,3190.3,4122.375,4150.2,305.3575,304.6555,314.896,314.576,21.9285,20.607,21.9788,21.4819,314.999998,314.999998,324.999988,324.999988,99.55794285714286,99.50743333333334,99.56878571428571,99.54814285714286,0.10099999999999998,-0.025666666666666615,-0.09216666666666667,0.12833333333333335,-0.045000000000001705,-0.04333333333332945,1.537,1.534,38.053,29.793666666666667,38.367000000000004,35.2615,55.698,35.135999999999996,60.082499999999996,52.835499999999996,53.66,34.289500000000004,58.66,51.1465,52.837,33.861000000000004,58.5805,50.552,-0.10549999999999993,-0.052000000000000046,0.10771000000000001,0.10215,0.0,213.07999999999998,213.07,209.91333333333333,209.91333333333333,0.0,0.0
19,0.0,0.0,0.0,1.0,1.0,0.0,0.0,1.0,0.0,100.0,1.0,1.1856,26.0,0.0,0.0,0.0,57.999998,0.0,26.0,26.0,26.0,26.0,0.0321111111111112,0.28390000000000004,0.06886666666666666,291.931,-2.6689,-2.6854444444444443,-1.54315,-1.4504000000000001,-211.91,215.8125,190.594875,0.0,0.0,0.0,0.0,0.03866666666666667,-5.498166666666667,-5.498166666666667,-0.5487000000000001,0.78,0.02587499999999987,-0.7610000000000001,68.205,0.029400000000000003,-0.21097500000000002,-0.25399999999999956,100.0,1.0,1.0,210.30666666666667,0.0,0.0,0.0,0.0,0.0,0.0,0.0,8914.1,0.0,55.0,5.0,245.51,1.0,0.0,0.0,0.0,0.0,0.0,1.0,0.0,0.9570000000000007,0.9570000000000007,0.0,0.0,1.0,55.0,616.79921,10000.0,85.000001,85.000001,85.000001,85.000001,395.0,0.0,0.0,0.0,1.0,166.665,51.788,51.788,47.363,47.363,34.0,-23.1525,25.805999999999997,-28.306666666666665,30.517500000000002,0.0,1781.63,-0.3000000000000007,100.0,28.272,28.485,42.812,43.422,0.0,0.0,100.0,0.0,0.0,0.0,0.0,3174.142857142857,3119.0,4271.25,4407.9,305.2275,304.6015,314.508,313.98725,21.9386,20.613,21.9898,21.4916,314.999998,314.999998,324.999988,324.999988,99.55797142857143,99.50745,99.56892857142857,99.5483,0.10366666666666635,-0.032333333333333325,-0.08333333333333333,0.131,-0.046666666666666856,-0.03833333333332689,1.499,1.5005000000000002,38.117000000000004,29.831333333333333,38.436,35.322,55.688,35.1785,60.119,52.9,53.65,34.3285,58.694,51.2085,52.825,33.8985,58.611,50.613,-0.10099999999999998,-0.0535000000000001,0.10859,0.10536000000000001,0.0,213.565,213.585,210.30666666666667,210.30666666666667,0.0,0.0
20,0.0,0.0,0.0,1.0,1.0,0.0,0.0,1.0,0.0,100.0,1.0,1.1856,26.0,0.0,0.0,0.0,57.999998,0.0,26.0,26.0,26.0,26.0,0.03977777777777791,0.26980000000000004,0.023200000000000002,292.358,-2.7618,-2.6465555555555556,-1.54975,-1.5734,-208.43,215.79000000000002,190.5725,0.0,0.0,0.0,0.0,0.0407,-5.498166666666667,-5.498166666666667,-0.5595,-1.1216666666666666,0.023749999999999938,0.481,68.343,0.0274,-0.22495,-0.29000000000000004,100.0,1.0,1.0,210.69666666666666,0.0,0.0,0.0,0.0,0.0,0.0,0.0,8930.6,0.0,55.0,5.0,246.01,0.0,0.0,0.0,0.0,0.0,0.0,0.0,0.0,1.0079999999999991,1.0079999999999991,0.0,0.0,0.0,55.0,616.79921,10000.0,85.000001,85.000001,85.000001,85.000001,395.0,0.0,0.0,0.0,1.0,166.665,52.704,52.704,47.119,47.119,34.0,-22.055,25.848,-26.93333333333333,31.375,0.0,1781.577,-0.2749999999999986,100.0,27.847,27.92,43.46,43.688,0.0,0.0,100.0,0.0,0.0,0.0,0.0,2953.0,3164.2,4094.75,4211.2,305.906,304.853,314.8063333333333,314.349,21.9479,20.6185,22.0005,21.5009,314.999998,314.999998,324.999988,324.999988,99.55797142857143,99.50745,99.56908571428572,99.54845714285715,0.10400000000000009,-0.021666666666666612,-0.0785,0.14066666666666666,-0.04999999999999716,-0.041666666666671404,1.4925,1.4805,38.174,29.865666666666666,38.503,35.3805,55.673,35.218,60.1595,52.966,53.635999999999996,34.365,58.732,51.272,52.81,33.9335,58.6455,50.675,-0.09599999999999986,-0.05750000000000011,0.10900000000000001,0.10251,0.0,213.96,213.95,210.69666666666666,210.69666666666666,0.0,0.0
21,0.0,0.0,0.0,1.0,1.0,0.0,0.0,1.0,0.0,100.0,1.0,1.1856,26.0,0.0,0.0,0.0,57.999998,0.0,26.0,26.0,26.0,26.0,0.047222222222222276,0.2751000000000001,-0.07193333333333334,292.694,-2.7289,-2.700333333333333,-1.6154000000000002,-1.5348000000000002,-205.35,215.76999999999998,190.55225,0.0,0.0,0.0,0.0,0.04246666666666667,-5.498166666666667,-5.498166666666667,-0.5756,0.32733333333333325,0.008375000000000021,-0.909,68.46000000000001,0.024,-0.22460000000000002,-0.20399999999999974,100.0,1.0,1.0,211.26333333333332,0.0,0.0,0.0,0.0,0.0,0.0,0.0,8954.6,0.0,55.0,5.0,246.43,1.0,0.0,0.0,0.0,0.0,0.0,0.0,0.0,1.0530000000000008,1.0530000000000008,0.0,0.0,1.0,55.0,616.79921,10000.0,85.000001,85.000001,85.000001,85.000001,395.0,0.0,0.0,0.0,1.0,333.33500000000004,52.383,52.383,48.248,48.248,34.0,-23.465,24.595999999999997,-27.21333333333333,28.17,0.0,1781.532,-0.3099999999999987,100.0,27.945,28.147,42.802,43.329,0.0,0.0,100.0,0.0,0.0,0.0,0.0,3176.714285714286,3032.0,4028.25,3985.0,305.3485,305.0135,315.17533333333336,315.00775,21.9562,20.6235,22.0096,21.5088,314.999998,314.999998,324.999988,324.999988,99.55798571428572,99.50745,99.5692,99.54857142857144,0.10666666666666647,-0.04066666666666663,-0.09,0.13866666666666666,-0.045000000000001705,-0.03333333333333144,1.5899999999999999,1.5865,38.226,29.89666666666667,38.56,35.43,55.664,35.2525,60.1875,53.0165,53.626999999999995,34.397,58.757999999999996,51.321,52.8,33.963499999999996,58.669,50.72266666666667,-0.10399999999999987,-0.058499999999999996,0.10898000000000001,0.10602500000000001,0.0,214.36,214.335,211.26333333333332,211.26333333333332,0.0,0.0
22,0.0,0.0,0.0,1.0,1.0,0.0,0.0,1.0,0.0,100.0,1.0,1.1856,26.0,0.0,0.0,0.0,57.999998,0.0,26.0,26.0,26.0,26.0,0.030777777777777793,0.27449999999999997,-0.004033333333333334,292.221,-2.6556,-2.7061111111111114,-1.6093000000000002,-1.5218,-201.86,215.75,190.5285,0.0,0.0,0.0,0.0,0.044500000000000005,-5.498166666666667,-5.498166666666667,-0.5574,0.06499999999999995,0.018750000000000044,1.25,68.599,0.023200000000000002,-0.20445000000000002,-0.3039999999999994,100.0,1.0,1.0,211.49,0.0,0.0,0.0,0.0,0.0,0.0,0.0,8964.2,0.0,55.0,5.0,246.93,0.0,0.0,0.0,0.0,0.0,0.0,0.0,0.0,1.1039999999999992,1.1039999999999992,0.0,0.0,0.0,55.0,616.79921,10000.0,85.000001,85.000001,85.000001,85.000001,395.0,0.0,0.0,0.0,1.0,166.665,52.49,52.49,47.15,47.15,34.0,-20.38,25.914,-29.07,32.2975,0.0,1781.483,-0.3550000000000004,100.0,28.201999999999998,28.097,43.177,43.407,0.0,0.0,100.0,0.0,0.0,0.0,0.0,2897.285714285714,3123.4,4217.75,4379.2,305.891,304.86875,314.591,314.1175,21.9656,20.6291,22.0201,21.5181,314.999998,314.999998,324.999988,324.999988,99.558,99.50746666666667,99.56935714285714,99.54871428571428,0.1163333333333334,-0.027000000000000024,-0.08650000000000001,0.148,-0.030000000000001137,-0.05666666666667197,1.499,1.477,38.285,29.931666666666665,38.626000000000005,35.488,55.653,35.2885,60.2235,53.0745,53.617000000000004,34.43,58.791,51.3765,52.79,33.9955,58.699,50.777,-0.10499999999999998,-0.052000000000000046,0.10786000000000001,0.11831000000000001,0.0,214.785,214.79500000000002,211.49,211.49,0.0,0.0
23,0.0,0.0,0.0,1.0,1.0,0.0,0.0,1.0,0.0,100.0,1.0,1.1856,26.0,0.0,0.0,0.0,57.999998,0.0,26.0,26.0,26.0,26.0,0.01722222222222225,0.2574000000000001,-0.0193,292.16,-2.6922,-2.652222222222222,-1.6646,-1.4949,-198.14999999999998,215.72750000000002,190.503625,0.0,0.0,0.0,0.0,0.04666666666666667,-5.498166666666667,-5.498166666666667,-0.5773,-0.14200000000000002,0.01949999999999985,0.536,68.741,0.022500000000000003,-0.230225,-0.28200000000000003,100.0,1.0,1.0,212.04333333333335,0.0,0.0,0.0,0.0,0.0,0.0,0.0,8987.7,0.0,55.0,5.0,247.44,1.0,0.0,0.0,0.0,0.0,0.0,0.0,0.0,1.1580000000000013,1.1580000000000013,0.0,0.0,1.0,55.0,616.79921,10000.0,85.000001,85.000001,85.000001,85.000001,395.0,0.0,0.0,0.0,1.0,166.665,51.743,51.743,48.019,48.019,34.0,-23.3025,26.484,-27.74666666666667,29.05,0.0,1781.429,-0.35999999999999943,100.0,28.409,28.259,43.225,43.650999999999996,0.0,0.0,100.0,0.0,0.0,0.0,0.0,3190.142857142857,3215.2,4009.375,4089.8,305.058,304.66075,315.19033333333334,314.82425,21.9755,20.6351,22.0313,21.5279,314.999998,314.999998,324.999988,324.999988,99.55802857142857,99.50746666666667,99.5695,99.54887142857143,0.11166666666666636,-0.021333333333333315,-0.08716666666666667,0.14666666666666667,-0.04333333333332945,-0.04333333333332945,1.557,1.5375,38.347,29.96933333333333,38.695,35.5495,55.641999999999996,35.329499999999996,60.2605,53.138999999999996,53.605999999999995,34.4685,58.8255,51.439,52.777,34.032,58.7305,50.83833333333333,-0.10749999999999993,-0.04850000000000021,0.10305500000000001,0.10873500000000001,0.0,215.19,215.2,212.04333333333335,212.04333333333335,0.0,0.0
24,0.0,0.0,0.0,1.0,1.0,0.0,0.0,1.0,0.0,100.0,1.0,1.1856,26.0,0.0,0.0,0.0,57.999998,0.0,26.0,26.0,26.0,26.0,0.023111111111111082,0.27590000000000003,-0.0523,292.419,-2.7174,-2.6614444444444443,-1.58305,-1.5243,-194.85,215.70749999999998,190.481,0.0,0.0,0.0,0.0,0.048600000000000004,-5.498166666666667,-5.498166666666667,-0.5829,-0.5133333333333333,0.028999999999999915,1.162,68.869,0.0253,-0.219975,-0.3779999999999992,100.0,1.0,1.0,212.32999999999998,0.0,0.0,0.0,0.0,0.0,0.0,0.0,8999.9,0.0,55.0,5.0,247.9,0.0,0.0,0.0,0.0,0.0,0.0,0.0,0.0,1.2059999999999995,1.2059999999999995,0.0,0.0,0.0,55.0,616.79921,10000.0,85.000001,85.000001,85.000001,85.000001,395.0,0.0,0.0,0.0,1.0,166.665,52.826,52.826,47.241,47.241,34.0,-20.82,25.122,-28.39666666666666,30.305,0.0,1781.379,-0.33500000000000085,100.0,28.078,27.945,43.258,43.586,0.0,0.0,100.0,0.0,0.0,0.0,0.0,2886.5714285714284,3087.6,4213.125,4216.0,306.0125,305.09575,314.575,314.48325,21.9842,20.6403,22.0412,21.5365,314.999998,314.999998,324.999988,324.999988,99.55802857142857,99.50746666666667,99.56964285714285,99.54901428571429,0.11399999999999988,-0.025000000000000022,-0.08233333333333333,0.13766666666666666,-0.04999999999999716,-0.041666666666671404,1.521,1.4995,38.402,30.001666666666665,38.757,35.6035,55.631,35.364,60.2945,53.195499999999996,53.595,34.5,58.857,51.4935,52.765,34.0625,58.759,50.891333333333336,-0.10949999999999993,-0.052999999999999936,0.105925,0.10598,0.0,215.60000000000002,215.60500000000002,212.32999999999998,212.32999999999998,0.0,0.0
25,0.0,0.0,0.0,1.0,1.0,0.0,0.0,1.0,0.0,100.0,1.0,1.1856,26.0,0.0,0.0,0.0,57.999998,0.0,26.0,26.0,26.0,26.0,0.022555555555555662,0.2614000000000001,-0.05383333333333334,292.328,-2.7828,-2.6206666666666667,-1.59875,-1.528,-191.54,215.69,190.45725,0.0,0.0,0.0,0.0,0.0505,-5.498166666666667,-5.498166666666667,-0.6081,-0.04299999999999993,0.032624999999999904,0.18199999999999994,68.993,0.029500000000000002,-0.22362500000000002,-0.38399999999999945,100.0,1.0,1.0,212.84,0.0,0.0,0.0,0.0,0.0,0.0,0.0,9021.5,0.0,55.0,5.0,248.35000000000002,1.0,0.0,0.0,0.0,0.0,0.0,0.0,0.0,1.2540000000000013,1.2540000000000013,0.0,0.0,1.0,55.0,616.79921,10000.0,85.000001,85.000001,85.000001,85.000001,395.0,0.0,0.0,0.0,1.0,333.33500000000004,51.91,51.91,47.928,47.928,34.0,-23.9675,27.439999999999998,-25.82333333333333,30.0475,0.0,1781.332,-0.3299999999999983,100.0,27.956,28.149,43.008,43.396,0.0,0.0,100.0,0.0,0.0,0.0,0.0,3190.4285714285716,3358.2,3935.125,4117.9,305.21,304.24825,315.3143333333333,314.7335,21.9929,20.6456,22.0509,21.545099999999998,314.999998,314.999998,324.999988,324.999988,99.55804285714285,99.50748333333334,99.56977142857143,99.54915714285714,0.11266666666666669,-0.022666666666666613,-0.07633333333333334,0.15166666666666667,-0.04833333333333201,-0.04833333333333201,1.5594999999999999,1.5375,38.456,30.035,38.818,35.657,55.619,35.400999999999996,60.3255,53.25,53.583,34.534,58.885999999999996,51.546,52.753,34.095,58.7845,50.943,-0.10399999999999987,-0.05699999999999994,0.10528000000000001,0.11130500000000002,0.0,215.96,215.995,212.84,212.84,0.0,0.0
26,0.0,0.0,0.0,1.0,1.0,0.0,0.0,1.0,0.0,100.0,1.0,1.1856,26.0,0.0,0.0,0.0,57.999998,0.0,26.0,26.0,26.0,26.0,0.03766666666666674,0.28070000000000017,0.07576666666666666,291.245,-2.7431,-2.687555555555556,-1.6502,-1.5173999999999999,-188.01999999999998,215.6725,190.4315,0.0,0.0,0.0,0.0,0.052566666666666664,-5.498166666666667,-5.498166666666667,-0.5731,0.6376666666666668,0.016999999999999904,-0.756,69.13,0.029500000000000002,-0.199,-0.28000000000000025,100.0,1.0,1.0,213.01,0.0,0.0,0.0,0.0,0.0,0.0,0.0,9028.6,0.0,55.0,5.0,248.83666666666664,0.0,0.0,0.0,0.0,0.0,0.0,0.0,0.0,1.3049999999999997,1.3049999999999997,0.0,0.0,0.0,55.0,616.79921,10000.0,85.000001,85.000001,85.000001,85.000001,395.0,0.0,0.0,0.0,1.0,166.665,51.498,51.498,46.387,46.387,34.0,-23.485,25.368,-32.626666666666665,33.3,0.0,1781.282,-0.3999999999999986,100.0,28.671,28.922,43.348,43.899,0.0,0.0,100.0,0.0,0.0,0.0,0.0,3223.714285714286,3078.5,4566.0,4489.6,305.156,304.80575,313.88966666666664,313.7525,22.0025,20.6514,22.0615,21.5545,314.999998,314.999998,324.999988,324.999988,99.55805714285714,99.50748333333334,99.56992857142858,99.54931428571429,0.1203333333333334,-0.032333333333333325,-0.08433333333333333,0.14283333333333334,-0.04333333333332945,-0.04999999999999716,1.441,1.4385,38.515,30.071333333333335,38.884,35.7155,55.611000000000004,35.4415,60.363,53.3125,53.576,34.5715,58.921,51.606,52.744,34.131,58.816,51.001666666666665,-0.11650000000000005,-0.05500000000000016,0.10643000000000001,0.10723,0.0,216.43,216.45,213.01,213.01,0.0,0.0
27,0.0,0.0,0.0,1.0,1.0,0.0,0.0,1.0,0.0,100.0,1.0,1.1856,26.0,0.0,0.0,0.0,57.999998,0.0,26.0,26.0,26.0,26.0,0.05133333333333323,0.2459,-0.028533333333333334,291.702,-2.7102,-2.651222222222222,-1.59035,-1.5868,-184.7,215.655,190.408375,0.0,0.0,0.0,0.0,0.0545,-5.498166666666667,-5.498166666666667,-0.5952000000000001,-1.0103333333333333,0.02012499999999995,-0.8140000000000001,69.254,0.028,-0.239925,-0.3439999999999994,100.0,1.0,1.0,213.49,0.0,0.0,0.0,0.0,0.0,0.0,0.0,9049.0,0.0,55.0,5.0,249.28666666666666,1.0,0.0,0.0,0.0,0.0,0.0,0.0,0.0,1.352999999999998,1.352999999999998,0.0,0.0,1.0,55.0,616.79921,10000.0,85.000001,85.000001,85.000001,85.000001,395.0,0.0,0.0,0.0,1.0,166.665,51.941,51.941,46.616,46.616,34.0,-22.29,25.426,-28.226666666666667,30.6625,0.0,1781.234,-0.41000000000000014,100.0,28.336,28.78,43.965,44.446,0.0,0.0,100.0,0.0,0.0,0.0,0.0,3086.5714285714284,3118.9,4157.125,4078.0,305.5935,304.7835,314.7823333333333,314.64575,22.0112,20.6568,22.0716,21.563299999999998,314.999998,314.999998,324.999988,324.999988,99.55807142857142,99.50748333333334,99.57007142857142,99.54944285714285,0.11333333333333373,-0.029333333333333322,-0.08650000000000001,0.14516666666666667,-0.03833333333332689,-0.05666666666667197,1.5105,1.4849999999999999,38.57,30.105,38.947,35.771,55.599999999999994,35.4775,60.3985,53.371,53.565,34.6045,58.954,51.6625,52.732,34.1625,58.846000000000004,51.057,-0.11349999999999993,-0.052000000000000046,0.10996500000000001,0.10782000000000001,0.0,216.75,216.775,213.49,213.49,0.0,0.0
28,0.0,0.0,0.0,1.0,1.0,0.0,0.0,1.0,0.0,100.0,1.0,1.1856,26.0,0.0,0.0,0.0,57.999998,0.0,26.0,26.0,26.0,26.0,0.037555555555555786,0.26160000000000005,-0.0545,291.962,-2.6836,-2.6527777777777777,-1.63055,-1.5567,-181.16,215.64,190.383,0.0,0.0,0.0,0.0,0.05653333333333334,-5.498166666666667,-5.498166666666667,-0.6039,0.6293333333333333,0.01012499999999994,0.5780000000000001,69.383,0.0298,-0.21945,-0.4079999999999995,100.0,1.0,1.0,214.02666666666667,0.0,0.0,0.0,0.0,0.0,0.0,0.0,9071.8,0.0,55.0,5.0,249.75333333333333,0.0,0.0,0.0,0.0,0.0,0.0,0.0,0.0,1.404,1.404,0.0,0.0,0.0,55.0,616.79921,10000.0,85.000001,85.000001,85.000001,85.000001,395.0,0.0,0.0,0.0,1.0,333.33500000000004,51.743,51.743,47.638,47.638,34.0,-21.755,26.448,-26.78666666666667,30.635,0.0,1781.182,-0.4450000000000003,100.0,28.63,28.533,43.381,43.839,0.0,0.0,100.0,0.0,0.0,0.0,0.0,3084.5714285714284,3210.3,4031.25,4142.7,305.3705,304.6825,315.16766666666666,314.695,22.0205,20.6625,22.0819,21.572400000000002,314.999998,314.999998,324.999988,324.999988,99.55808571428571,99.50748333333334,99.5702,99.54958571428571,0.1256666666666666,-0.02100000000000002,-0.07416666666666667,0.15083333333333335,-0.036666666666668846,-0.060000000000002274,1.566,1.53,38.628,30.140666666666668,39.012,35.8275,55.59,35.5165,60.43,53.4285,53.556,34.641,58.983000000000004,51.7175,52.722,34.1975,58.872,51.11066666666667,-0.11399999999999988,-0.05250000000000021,0.10222500000000001,0.10272,0.0,217.195,217.24,214.02666666666667,214.02666666666667,0.0,0.0
29,0.0,0.0,0.0,1.0,1.0,0.0,0.0,1.0,0.0,100.0,1.0,1.1856,26.0,0.0,0.0,0.0,57.999998,0.0,26.0,26.0,26.0,26.0,0.05044444444444429,0.25639999999999996,-0.010533333333333334,291.748,-2.6724,-2.7039999999999997,-1.5829,-1.5382,-177.41,215.6225,190.355,0.0,0.0,0.0,0.0,0.05873333333333334,-5.498166666666667,-5.498166666666667,-0.6061000000000001,-0.702,0.014375000000000027,0.885,69.525,0.031,-0.217125,-0.47799999999999976,100.0,1.0,1.0,214.27666666666667,0.0,0.0,0.0,0.0,0.0,0.0,0.0,9082.4,0.0,55.0,5.0,250.26666666666665,1.0,0.0,0.0,0.0,0.0,0.0,0.0,0.0,1.4579999999999984,1.4579999999999984,0.0,0.0,1.0,55.0,616.79921,10000.0,85.000001,85.000001,85.000001,85.000001,395.0,0.0,0.0,0.0,1.0,166.665,52.124,52.124,46.783,46.783,34.0,-21.14,26.912,-27.10666666666667,32.695,0.0,1781.128,-0.5249999999999986,100.0,28.274,28.4,43.828,44.14,0.0,0.0,100.0,0.0,0.0,0.0,0.0,3020.142857142857,3175.9,4117.625,4328.9,305.6375,304.73825,314.78333333333336,314.187,22.0302,20.6685,22.0931,21.5823,314.999998,314.999998,324.999988,324.999988,99.5581,99.5075,99.57037142857143,99.54975714285715,0.12333333333333352,-0.014666666666666606,-0.06966666666666667,0.156,-0.01999999999999602,-0.06333333333333258,1.5,1.4685000000000001,38.689,30.177999999999997,39.082,35.8895,55.577,35.5565,60.47,53.4935,53.543,34.6775,59.019999999999996,51.7805,52.708,34.2325,58.9055,51.172,-0.11499999999999999,-0.04200000000000026,0.104605,0.10876500000000001,0.0,217.595,217.64499999999998,214.27666666666667,214.27666666666667,0.0,0.0
30,0.0,0.0,0.0,1.0,1.0,0.0,0.0,1.0,0.0,100.0,1.0,1.1856,26.0,0.0,0.0,0.0,57.999998,0.0,26.0,26.0,26.0,26.0,0.05222222222222217,0.2532000000000001,0.04916666666666667,291.214,-2.6892,-2.5883333333333334,-1.6473499999999999,-1.5943,-174.07,215.61,190.330125,0.0,0.0,0.0,0.0,0.06066666666666667,-5.498166666666667,-5.498166666666667,-0.6047,0.8500000000000001,0.011874999999999858,0.5820000000000001,69.646,0.033,-0.21805000000000002,-0.516,100.0,1.0,1.0,214.75666666666666,0.0,0.0,0.0,0.0,0.0,0.0,0.0,9102.7,0.0,55.0,5.0,250.7,0.0,0.0,0.0,0.0,0.0,0.0,1.0,0.0,1.5060000000000002,1.5060000000000002,0.0,0.0,0.0,55.0,616.79921,10000.0,85.000001,85.000001,85.000001,85.000001,395.0,0.0,0.0,0.0,1.0,166.665,50.659,50.659,47.18,47.18,34.0,-22.7975,27.512,-27.553333333333327,32.2275,0.0,1781.079,-0.495000000000001,100.0,29.169,29.163,43.566,44.114000000000004,0.0,0.0,100.0,0.0,0.0,0.0,0.0,3250.714285714286,3321.6,4152.0,4157.4,304.836,304.225,314.954,314.5765,22.0392,20.6741,22.102899999999998,21.5911,314.999998,314.999998,324.999988,324.999988,99.55811428571428,99.5075,99.5705,99.5499,0.1346666666666665,-0.011333333333333306,-0.0645,0.1635,-0.04999999999999716,-0.046666666666666856,1.5325,1.4945,38.745000000000005,30.21333333333333,39.143,35.944,55.571,35.595,60.501,53.5495,53.537,34.713499999999996,59.049,51.834,52.7,34.266999999999996,58.9315,51.225,-0.12399999999999989,-0.04249999999999998,0.09920000000000001,0.11225500000000001,0.0,218.015,218.04500000000002,214.75666666666666,214.75666666666666,0.0,0.0
31,0.0,0.0,0.0,1.0,1.0,0.0,0.0,1.0,0.0,100.0,1.0,1.1856,26.0,0.0,0.0,0.0,57.999998,0.0,26.0,26.0,26.0,26.0,0.03788888888888886,0.2513000000000001,0.044166666666666674,290.833,-2.7759,-2.6194444444444445,-1.6027,-1.4915,-170.72,215.5975,190.305875,0.0,0.0,0.0,0.0,0.0626,-5.498166666666667,-5.498166666666667,-0.5888,-0.43299999999999994,0.018874999999999975,0.673,69.771,0.0371,-0.220525,-0.5439999999999996,100.0,1.0,1.0,214.95666666666668,0.0,0.0,0.0,0.0,0.0,0.0,0.0,9111.2,0.0,55.0,5.0,251.15,1.0,0.0,0.0,0.0,0.0,0.0,1.0,0.0,1.5539999999999985,1.5539999999999985,0.0,0.0,1.0,55.0,616.79921,10000.0,85.000001,85.000001,85.000001,85.000001,395.0,0.0,0.0,0.0,1.0,333.33500000000004,51.178,51.178,45.578,45.578,34.0,-22.169999999999998,27.816000000000003,-28.71,32.315,0.0,1781.032,-0.504999999999999,100.0,28.928,29.144,44.371,44.827,0.0,0.0,100.0,0.0,0.0,0.0,0.0,3089.5714285714284,3366.6,4310.0,4362.9,305.514,304.3065,314.31166666666667,314.0525,22.0479,20.6796,22.113,21.6,314.999998,314.999998,324.999988,324.999988,99.55814285714285,99.5075,99.57064285714286,99.55004285714286,0.133,-0.014000000000000012,-0.061,0.14983333333333335,-0.03833333333332689,-0.03333333333333144,1.4465,1.4205,38.799,30.247666666666667,39.206,36.0,55.561,35.6325,60.5375,53.6095,53.528,34.748,59.083,51.891999999999996,52.69,34.2995,58.9625,51.281333333333336,-0.12050000000000005,-0.046499999999999986,0.10934500000000001,0.106965,0.0,218.37,218.41,214.95666666666668,214.95666666666668,0.0,0.0
32,0.0,0.0,0.0,1.0,1.0,0.0,0.0,1.0,0.0,100.0,1.0,1.1856,26.0,0.0,0.0,0.0,57.999998,0.0,26.0,26.0,26.0,26.0,0.07633333333333336,0.2683,-0.0028,291.29,-2.7012,-2.6798888888888888,-1.5869,-1.6242,-166.74,215.585,190.27725,0.0,0.0,0.0,0.0,0.06493333333333334,-5.498166666666667,-5.498166666666667,-0.6062000000000001,-0.23966666666666658,-0.008000000000000007,-1.0380000000000003,69.914,0.039900000000000005,-0.22945000000000002,-0.4720000000000004,100.0,1.0,1.0,215.51999999999998,0.0,0.0,0.0,0.0,0.0,0.0,0.0,9135.1,0.0,55.0,5.0,251.66333333333336,0.0,0.0,0.0,0.0,0.0,0.0,1.0,0.0,1.6110000000000007,1.6110000000000007,0.0,0.0,0.0,55.0,616.79921,10000.0,85.000001,85.000001,85.000001,85.000001,395.0,0.0,0.0,0.0,1.0,111.11,51.544,51.544,46.585,46.585,34.0,-22.0675,26.094,-27.36,33.57,0.0,1780.976,-0.46999999999999886,100.0,28.673000000000002,29.139,44.063,44.778,0.0,0.0,100.0,0.0,0.0,0.0,0.0,3147.714285714286,3098.5,4144.25,4251.1,305.3855,304.84975,314.82,314.285,22.0582,20.6861,22.1247,21.6104,314.999998,314.999998,324.999988,324.999988,99.55815714285714,99.5075,99.57081428571429,99.55021428571429,0.12933333333333374,-0.01533333333333331,-0.07083333333333333,0.16133333333333336,-0.036666666666668846,-0.05833333333333002,1.4925,1.4855,38.864000000000004,30.288333333333334,39.28,36.065,55.55,35.676,60.5755,53.676,53.516999999999996,34.7885,59.118,51.956,52.678,34.338499999999996,58.994,51.344,-0.12050000000000005,-0.04300000000000015,0.11066500000000001,0.108895,0.0,218.82,218.85000000000002,215.51999999999998,215.51999999999998,0.0,0.0
33,0.0,0.0,0.0,1.0,1.0,0.0,0.0,1.0,0.0,100.0,1.0,1.1856,26.0,0.0,0.0,0.0,57.999998,0.0,26.0,26.0,26.0,26.0,0.05011111111111122,0.2619,-0.057166666666666664,291.534,-2.7339,-2.672555555555556,-1.5968499999999999,-1.5831,-163.59,215.5775,190.25375,0.0,0.0,0.0,0.0,0.06676666666666667,-5.498166666666667,-5.498166666666667,-0.6146,-0.2843333333333333,-0.0016250000000002096,1.134,70.028,0.04,-0.21710000000000002,-0.4739999999999993,100.0,1.0,1.0,215.86333333333334,0.0,0.0,0.0,0.0,0.0,0.0,0.0,9149.7,0.0,55.0,5.0,252.07333333333332,1.0,0.0,0.0,0.0,0.0,0.0,1.0,0.0,1.6559999999999988,1.6559999999999988,0.0,0.0,1.0,55.0,616.79921,10000.0,85.000001,85.000001,85.000001,85.000001,395.0,0.0,0.0,0.0,1.0,166.665,51.834,51.834,46.814,46.814,34.0,-21.5975,26.573999999999998,-27.10333333333333,32.54,0.0,1780.931,-0.504999999999999,100.0,28.668,28.717,43.988,44.47,0.0,0.0,100.0,0.0,0.0,0.0,0.0,3064.142857142857,3152.8,4119.75,4265.7,305.56,304.859,314.858,314.3845,22.0662,20.6911,22.134,21.6186,314.999998,314.999998,324.999988,324.999988,99.55817142857143,99.5075,99.57094285714285,99.55034285714285,0.13333333333333375,-0.009666666666666601,-0.06833333333333333,0.15483333333333335,-0.030000000000001137,-0.046666666666666856,1.516,1.4965,38.914,30.319333333333333,39.337,36.1165,55.541,35.709,60.6055,53.728,53.507999999999996,34.8185,59.146,52.006,52.668,34.367,59.019,51.39266666666666,-0.12450000000000006,-0.04349999999999987,0.10319,0.1097,0.0,219.175,219.2,215.86333333333334,215.86333333333334,0.0,0.0
34,0.0,0.0,0.0,1.0,1.0,0.0,0.0,1.0,0.0,100.0,1.0,1.1856,26.0,0.0,0.0,0.0,57.999998,0.0,26.0,26.0,26.0,26.0,0.05122222222222228,0.26290000000000013,-0.0483,291.794,-2.6741,-2.667,-1.66225,-1.5447000000000002,-160.23000000000002,215.57,190.227375,0.0,0.0,0.0,0.0,0.0687,-5.498166666666667,-5.498166666666667,-0.6395000000000001,-0.771,0.023249999999999993,0.96,70.149,0.0405,-0.222,-0.5020000000000007,100.0,1.0,1.0,216.23333333333335,0.0,0.0,0.0,0.0,0.0,0.0,0.0,9165.3,0.0,55.0,5.0,252.51,0.0,0.0,0.0,0.0,0.0,0.0,1.0,0.0,1.7040000000000006,1.7040000000000006,0.0,0.0,0.0,55.0,616.79921,10000.0,85.000001,85.000001,85.000001,85.000001,395.0,0.0,0.0,0.0,1.0,166.665,52.277,52.277,47.18,47.18,34.0,-20.5175,25.857999999999997,-27.726666666666667,31.9025,0.0,1780.883,-0.495000000000001,100.0,28.381,28.403,43.795,44.512,0.0,0.0,100.0,0.0,0.0,0.0,0.0,2992.857142857143,3085.5,4087.625,4250.8,305.7385,304.992,314.973,314.39375,22.0748,20.6964,22.1438,21.6274,314.999998,314.999998,324.999988,324.999988,99.55818571428571,99.50751666666666,99.57108571428572,99.55047142857143,0.13333333333333375,-0.012333333333333307,-0.06916666666666667,0.15583333333333335,-0.041666666666671404,-0.06333333333333258,1.522,1.508,38.967,30.352333333333334,39.399,36.171,55.531,35.743,60.637,53.7845,53.498000000000005,34.85,59.175,52.0605,52.657,34.3975,59.0445,51.446,-0.11999999999999988,-0.04200000000000026,0.10576,0.10424000000000001,0.0,219.535,219.565,216.23333333333335,216.23333333333335,0.0,0.0
35,0.0,0.0,0.0,1.0,1.0,0.0,0.0,1.0,0.0,100.0,1.0,1.1856,26.0,0.0,0.0,0.0,57.999998,0.0,26.0,26.0,26.0,26.0,0.07422222222222219,0.2538,-0.0441,291.794,-2.7379,-2.607555555555556,-1.63205,-1.5742,-156.64999999999998,215.5625,190.197625,0.0,0.0,0.0,0.0,0.0708,-5.498166666666667,-5.498166666666667,-0.6799000000000001,-0.32533333333333336,0.0035000000000000586,-1.2690000000000001,70.276,0.044700000000000004,-0.22825,-0.47799999999999976,100.0,1.0,1.0,216.70333333333332,0.0,0.0,0.0,0.0,0.0,0.0,0.0,9185.2,0.0,55.0,5.0,252.96666666666667,1.0,0.0,0.0,0.0,0.0,0.0,1.0,0.0,1.754999999999999,1.754999999999999,0.0,0.0,1.0,55.0,616.79921,10000.0,85.000001,85.000001,85.000001,85.000001,395.0,0.0,0.0,0.0,1.0,333.33500000000004,51.743,51.743,46.768,46.768,34.0,-22.755,26.976,-27.159999999999997,30.71,0.0,1780.83,-0.3000000000000007,100.0,28.029,28.816,43.516,44.051,0.0,0.0,100.0,0.0,0.0,0.0,0.0,3154.4285714285716,3310.8,4101.625,4043.6000000000004,305.4425,304.2195,314.9223333333333,314.94925,22.0837,20.7022,22.1542,21.6366,314.999998,314.999998,324.999988,324.999988,99.5582,99.50751666666666,99.57122857142858,99.55062857142858,0.12133333333333374,-0.02633333333333332,-0.06566666666666668,0.16416666666666666,-0.05666666666667197,-0.041666666666671404,1.5495,1.521,39.022999999999996,30.389,39.464,36.2285,55.518,35.7815,60.6695,53.8405,53.486000000000004,34.885999999999996,59.205,52.115,52.644,34.432,59.0715,51.499,-0.10699999999999998,-0.05750000000000011,0.1044,0.11438500000000001,0.0,219.925,219.935,216.70333333333335,216.70333333333332,0.0,0.0
36,0.0,0.0,0.0,1.0,1.0,0.0,0.0,1.0,0.0,100.0,1.0,1.1856,26.0,0.0,0.0,0.0,57.999998,0.0,26.0,26.0,26.0,26.0,0.05499999999999994,0.26480000000000015,0.017866666666666666,291.016,-2.6575,-2.6486666666666667,-1.57855,-1.5474999999999999,-153.27,215.5575,190.168125,0.0,0.0,0.0,0.0,0.07276666666666666,-5.498166666666667,-5.498166666666667,-0.6637000000000001,0.27766666666666673,-0.03825000000000012,-1.275,70.398,0.041800000000000004,-0.202125,-0.22999999999999954,100.0,1.0,1.0,216.87,0.0,0.0,0.0,0.0,0.0,0.0,0.0,9192.4,0.0,55.0,5.0,253.40666666666667,0.0,0.0,0.0,0.0,0.0,0.0,1.0,0.0,1.8030000000000008,1.8030000000000008,0.0,0.0,0.0,55.0,616.79921,10000.0,85.000001,85.000001,85.000001,85.000001,395.0,0.0,0.0,0.0,1.0,333.33500000000004,51.346000000000004,51.346000000000004,46.463,46.463,34.0,-22.447499999999998,25.89,-29.740000000000002,34.1175,0.0,1780.783,-0.245000000000001,100.0,28.711,29.019,43.638,44.289,0.0,0.0,100.0,0.0,0.0,0.0,0.0,3195.5714285714284,3145.2,4426.875,4456.1,305.086,304.7305,314.2153333333333,313.86275,22.0924,20.7078,22.164,21.6454,314.999998,314.999998,324.999988,324.999988,99.55821428571429,99.50751666666666,99.57137142857142,99.55078571428571,0.1246666666666667,-0.02400000000000002,-0.073,0.155,-0.04833333333333201,-0.041666666666671404,1.449,1.45,39.077,30.423666666666666,39.525,36.283500000000004,55.509,35.8195,60.702,53.8975,53.477000000000004,34.920500000000004,59.2355,52.1695,52.634,34.465,59.0985,51.55266666666667,-0.10749999999999993,-0.0625,0.10791500000000001,0.11064,0.0,220.35000000000002,220.345,216.87,216.87,0.0,0.0
