,ABS Active,ABS Enabled,AID Allow Tire Blankets,AID Auto Blip,AID Auto Clutch,AID Auto Shift,AID Fuel Rate,AID Ideal Line,AID Mech Damage,AID Stability,AID Tire Wear Rate,Air Density,Air Temp,Ballast,Best Lap Delta,Best Lap Time,Brake Bias,Brake Pos,Brake Temp FL,Brake Temp FR,Brake Temp RL,Brake Temp RR,CG Accel Lateral,CG Accel Longitudinal,CG Accel Vertical,CG Height,Camber FL,Camber FR,Camber RL,Camber RR,Car Coord X,Car Coord Y,Car Coord Z,Car Damage Front,Car Damage Left,Car Damage Rear,Car Damage Right,Car Pos Norm,Caster FL,Caster FR,Chassis Pitch Angle,Chassis Pitch Rate,Chassis Roll Angle,Chassis Roll Rate,Chassis Velocity X,Chassis Velocity Y,Chassis Velocity Z,Chassis Yaw Rate,Clutch Pos,DRS Active,DRS Available,Drive Train Speed,ERS Heat Charging,ERS Is Charging,ERS Max Energy,ERS Power Level,ERS Recovery Level,Engine Brake Setting,Engine Limiter,Engine RPM,Flags,Fuel Level,Gear,Ground Speed,HR Sample Clock,In Pit,KERS Charge,KERS Deployed Energy,KERS Input,KERS Max Energy,LR Sample Clock,Lap Invalidated,Lap Time,Lap Time2,Last Lap Time,Last Sector Time,MR Sample Clock,Max Fuel,Max Power,Max RPM,Max Sus Travel FL,Max Sus Travel FR,Max Sus Travel RL,Max Sus Travel RR,Max Torque,Max Turbo Boost,Num Tires Off Track,Penalties Enabled,Position,Raw Data Sample Rate,Ride Height FL,Ride Height FR,Ride Height RL,Ride Height RR,Road Temp,Self Align Torque FL,Self Align Torque FR,Self Align Torque RL,Self Align Torque RR,Session Lap Count,Session Time Left,Steering Angle,Surface Grip,Suspension Travel FL,Suspension Travel FR,Suspension Travel RL,Suspension Travel RR,TC Active,TC Enabled,Throttle Pos,Tire Dirt Level FL,Tire Dirt Level FR,Tire Dirt Level RL,Tire Dirt Level RR,Tire Load FL,Tire Load FR,Tire Load RL,Tire Load RR,Tire Loaded Radius FL,Tire Loaded Radius FR,Tire Loaded Radius RL,Tire Loaded Radius RR,Tire Pressure FL,Tire Pressure FR,Tire Pressure RL,Tire Pressure RR,Tire Radius FL,Tire Radius FR,Tire Radius RL,Tire Radius RR,Tire Rubber Grip FL,Tire Rubber Grip FR,Tire Rubber Grip RL,Tire Rubber Grip RR,Tire Slip Angle FL,Tire Slip Angle FR,Tire Slip Angle RL,Tire Slip Angle RR,Tire Slip Ratio FL,Tire Slip Ratio FR,Tire Slip Ratio RL,Tire Slip Ratio RR,Tire Temp Core FL,Tire Temp Core FR,Tire Temp Core RL,Tire Temp Core RR,Tire Temp Inner FL,Tire Temp Inner FR,Tire Temp Inner RL,Tire Temp Inner RR,Tire Temp Middle FL,Tire Temp Middle FR,Tire Temp Middle RL,Tire Temp Middle RR,Tire Temp Outer FL,Tire Temp Outer FR,Tire Temp Outer RL,Tire Temp Outer RR,Toe In FL,Toe In FR,Toe In RL,Toe In RR,Turbo Boost,Wheel Angular Speed FL,Wheel Angular Speed FR,Wheel Angular Speed RL,Wheel Angular Speed RR,Wind Direction,Wind Speed
0,0.0,0.0,0.0,1.0,1.0,0.0,0.0,1.0,0.0,100.0,1.0,1.1856,26.0,0.0,0.0,0.0,57.99999,0.0,26.0,26.0,26.0,26.0,-0.111875,0.3083,-0.004175,294.144,-2.7005,-2.679,-1.5,-1.572,-275.69,216.29000000000002,190.98775,0.0,0.0,0.0,0.0,0.0015666666666666051,-5.498166666666667,-5.498166666666667,-0.5481,1.21,-0.02688888888888874,-1.0939999999999999,65.502,-0.061500000000000006,-0.21285,1.1920000000000002,100.0,1.0,1.0,202.23333333333335,0.0,0.0,0.0,0.0,0.0,0.0,0.0,8572.0,0.0,55.0,5.0,235.77666666666667,0.0,0.0,0.0,0.0,0.0,0.0,0.0,0.0,0.0030000000000001137,0.0030000000000001137,0.0,0.0,0.0,55.0,616.79921,10000.0,85.0,85.0,85.0,85.0,395.0,0.0,0.0,0.0,1.0,20.0,52.948,52.948,49.713,49.713,34.0,-26.9325,22.005,-31.386666666666667,22.665,0.0,1782.972,0.8949999999999996,100.0,27.606,26.797,40.692,40.335,0.0,0.0,100.0,0.0,0.0,0.0,0.0,3002.714285714286,3275.9,4130.25,3953.9,305.74,304.33675,314.84925,314.94275,21.750799999999998,20.5134,21.7971,21.3162,314.99999,314.99999,324.99998,324.99998,99.55741428571429,99.50726666666667,99.56661428571428,99.54541428571429,-0.022333333333333316,-0.1396666666666666,-0.18533333333333335,0.023,-0.04999999999999716,-0.05142857142856627,1.5593333333333332,1.6119999999999999,36.942,29.2085,37.232,34.2265,55.774,34.448,59.521,51.661,53.748000000000005,33.6655,58.149,50.0345,52.955,33.275999999999996,58.131,49.478,-0.011499999999999955,-0.14050000000000007,0.10062000000000001,0.09776000000000001,0.0,205.29000000000002,205.175,202.23333333333335,202.23333333333335,0.0,0.0
1,0.0,0.0,0.0,1.0,1.0,0.0,0.0,1.0,0.0,100.0,1.0,1.1856,26.0,0.0,0.0,0.0,57.999998,0.0,26.0,26.0,26.0,26.0,-0.1305,0.31190000000000007,0.227975,293.06,-2.6139,-2.7893,-1.5075,-1.5684,-272.15,216.28750000000002,190.966375,0.0,0.0,0.0,0.0,0.0036333333333333773,-5.498166666666667,-5.498166666666667,-0.501,-0.6699999999999999,-0.07644444444444431,-1.052,65.66499999999999,-0.0731,-0.1967,1.540000000000001,100.0,1.0,1.0,202.41333333333333,0.0,0.0,0.0,0.0,0.0,0.0,0.0,8579.6,0.0,55.0,5.0,236.36333333333334,1.0,0.0,0.0,0.0,0.0,0.0,0.0,0.0,0.05699999999999861,0.05699999999999861,0.0,0.0,1.0,55.0,616.79921,10000.0,85.000001,85.000001,85.000001,85.000001,395.0,0.0,0.0,0.0,1.0,166.665,53.497,53.497,48.400999999999996,48.400999999999996,34.0,-28.622500000000002,17.506666666666668,-35.75666666666667,28.0475,0.0,1782.919,0.9649999999999999,100.0,27.65,26.779,42.766999999999996,41.471000000000004,0.0,0.0,100.0,0.0,0.0,0.0,0.0,3194.857142857143,2692.9,4369.875,4684.7,305.1825,306.23625,314.189,313.18,21.7612,20.5188,21.8087,21.3259,314.999998,314.999998,324.999988,324.999988,99.55741428571429,99.50728333333333,99.56675714285714,99.54555714285715,-0.033666666666666734,-0.16199999999999992,-0.20683333333333334,0.018333333333333333,-0.08166666666667055,-0.028571428571432023,1.407,1.462,37.007999999999996,29.2425,37.304,34.286500000000004,55.759,34.4925,59.567499999999995,51.729,53.733000000000004,33.7065,58.192499999999995,50.0995,52.94,33.315,58.1715,49.542,0.001000000000000112,-0.15250000000000008,0.10252000000000001,0.10853000000000002,0.0,205.76999999999998,205.63,202.41333333333333,202.41333333333333,0.0,0.0
2,0.0,0.0,0.0,1.0,1.0,0.0,0.0,1.0,0.0,100.0,1.0,1.1856,26.0,0.0,0.0,0.0,57.999998,0.0,26.0,26.0,26.0,26.0,-0.153125,0.30479999999999996,-0.0341,293.716,-2.5821,-2.819,-1.4693,-1.6268,-269.0,216.2825,190.948625,0.0,0.0,0.0,0.0,0.005466666666666509,-5.498166666666667,-5.498166666666667,-0.5477000000000001,-0.010499999999999954,-0.07011111111111124,1.708,65.799,-0.0852,-0.254,1.6980000000000004,100.0,1.0,1.0,203.2733333333333,0.0,0.0,0.0,0.0,0.0,0.0,0.0,8616.0,0.0,55.0,5.0,236.8466666666667,0.0,0.0,0.0,0.0,0.0,0.0,0.0,0.0,0.10500000000000043,0.10500000000000043,0.0,0.0,0.0,55.0,616.79921,10000.0,85.000001,85.000001,85.000001,85.000001,395.0,0.0,0.0,0.0,1.0,333.33500000000004,52.49,52.49,50.14,50.14,34.0,-31.4225,18.93333333333333,-30.566666666666666,19.5225,0.0,1782.87,0.865000000000002,100.0,28.352,26.756,42.732,41.201,0.0,0.0,100.0,0.0,0.0,0.0,0.0,3434.0,2872.6,3818.25,3652.4,304.3645,305.6335,315.48525,315.8355,21.7708,20.5235,21.8187,21.3341,314.999998,314.999998,324.999988,324.999988,99.55742857142857,99.5073,99.5669,99.54568571428571,-0.04299999999999993,-0.16799999999999993,-0.24333333333333335,-0.005666666666666667,-0.02499999999999858,-0.03857142857143003,1.6433333333333333,1.6995,37.067,29.2715,37.367000000000004,34.338,55.75,34.53,59.6035,51.782,53.724000000000004,33.741,58.226,50.1505,52.93,33.3475,58.2025,49.59133333333333,-0.010499999999999954,-0.13949999999999996,0.10963500000000001,0.11439500000000001,0.0,206.16500000000002,206.01999999999998,203.2733333333333,203.2733333333333,0.0,0.0
3,0.0,0.0,0.0,1.0,1.0,0.0,0.0,1.0,0.0,100.0,1.0,1.1856,26.0,0.0,0.0,0.0,57.999998,0.0,26.0,26.0,26.0,26.0,-0.147,0.3104,-0.060975,293.51800000000003,-2.716,-2.7039,-1.5001,-1.6009,-265.84,216.2725,190.93025,0.0,0.0,0.0,0.0,0.007333333333333303,-5.498166666666667,-5.498166666666667,-0.5096,0.588,-0.022555555555555884,-0.7190000000000001,65.94200000000001,-0.0969,-0.201125,1.314,100.0,1.0,1.0,203.45,0.0,0.0,0.0,0.0,0.0,0.0,0.0,8623.5,0.0,55.0,5.0,237.35666666666668,1.0,0.0,0.0,0.0,0.0,0.0,0.0,0.0,0.1529999999999987,0.1529999999999987,0.0,0.0,1.0,55.0,616.79921,10000.0,85.000001,85.000001,85.000001,85.000001,395.0,0.0,0.0,0.0,1.0,166.665,53.604,53.604,48.248,48.248,34.0,-26.2525,17.431666666666665,-35.873333333333335,23.475,0.0,1782.823,0.7050000000000018,100.0,27.995,26.951,42.479,41.244,0.0,0.0,100.0,0.0,0.0,0.0,0.0,2874.4285714285716,2764.9,4332.5,4184.1,306.0195,305.838,314.3215,314.443,21.7799,20.5283,21.8286,21.3425,314.999998,314.999998,324.999988,324.999988,99.55742857142857,99.50731666666667,99.56702857142857,99.54582857142857,-0.032333333333333325,-0.16433333333333322,-0.2265,-0.0028333333333333335,-0.041666666666671404,-0.028571428571432023,1.4873333333333334,1.544,37.123999999999995,29.302,37.429,34.3905,55.736000000000004,34.570499999999996,59.638999999999996,51.84,53.712,33.778,58.259,50.206,52.917,33.382999999999996,58.233000000000004,49.646,-0.024499999999999966,-0.12349999999999994,0.10323500000000001,0.10923500000000001,0.0,206.64499999999998,206.51,203.45,203.45,0.0,0.0
4,0.0,0.0,0.0,1.0,1.0,0.0,0.0,1.0,0.0,100.0,1.0,1.1856,26.0,0.0,0.0,0.0,57.999998,0.0,26.0,26.0,26.0,26.0,-0.168625,0.28459999999999996,-0.013800000000000002,293.64,-2.6485000000000003,-2.7559,-1.521,-1.6055000000000001,-262.47,216.26,190.9105,0.0,0.0,0.0,0.0,0.009266666666666534,-5.498166666666667,-5.498166666666667,-0.5439,-0.8995,-0.08466666666666667,-0.683,66.088,-0.0976,-0.23555,1.2420000000000009,100.0,1.0,1.0,204.0233333333333,0.0,0.0,0.0,0.0,0.0,0.0,0.0,8647.8,0.0,55.0,5.0,237.88666666666666,0.0,0.0,0.0,0.0,0.0,0.0,0.0,0.0,0.20400000000000063,0.20400000000000063,0.0,0.0,0.0,55.0,616.79921,10000.0,85.000001,85.000001,85.000001,85.000001,395.0,0.0,0.0,0.0,1.0,166.665,53.101,53.101,48.737,48.737,34.0,-28.9175,19.625,-33.086666666666666,20.4925,0.0,1782.772,0.629999999999999,100.0,27.841,26.645,42.992000000000004,41.35,0.0,0.0,100.0,0.0,0.0,0.0,0.0,3201.5714285714284,2971.7,4061.0,3698.9,305.1265,305.41825,314.86125,315.62325,21.7894,20.5334,21.8393,21.351399999999998,314.999998,314.999998,324.999988,324.999988,99.55742857142857,99.50733333333334,99.56717142857143,99.54595714285715,-0.02933333333333321,-0.15399999999999991,-0.22133333333333335,0.006,-0.051666666666669414,-0.05571428571428072,1.5493333333333332,1.6159999999999999,37.184,29.334,37.495999999999995,34.446,55.72,34.612,59.679,51.8995,53.696,33.816,58.297,50.263,52.900999999999996,33.4195,58.2675,49.70133333333334,-0.02849999999999997,-0.1280000000000001,0.10278500000000002,0.11166500000000001,0.0,207.015,206.925,204.0233333333333,204.0233333333333,0.0,0.0
5,0.0,0.0,0.0,1.0,1.0,0.0,0.0,1.0,0.0,100.0,1.0,1.1856,26.0,0.0,0.0,0.0,57.999998,0.0,26.0,26.0,26.0,26.0,-0.136375,0.2944,-0.014875000000000001,293.64,-2.6635,-2.775,-1.5023,-1.5928,-259.09,216.2425,190.89,0.0,0.0,0.0,0.0,0.011233333333333317,-5.498166666666667,-5.498166666666667,-0.5363,0.41800000000000004,-0.09155555555555583,-0.2490000000000001,66.235,-0.09870000000000001,-0.21452500000000002,1.1500000000000004,100.0,1.0,1.0,204.43,0.0,0.0,0.0,0.0,0.0,0.0,0.0,8665.0,0.0,55.0,5.0,238.41333333333333,1.0,0.0,0.0,0.0,0.0,0.0,0.0,0.0,0.254999999999999,0.254999999999999,0.0,0.0,1.0,55.0,616.79921,10000.0,85.000001,85.000001,85.000001,85.000001,395.0,0.0,0.0,0.0,1.0,166.665,53.421,53.421,48.981,48.981,34.0,-28.822499999999998,18.40833333333333,-34.36,22.0675,0.0,1782.72,0.33000000000000185,100.0,27.84,26.719,42.639,41.11,0.0,0.0,100.0,0.0,0.0,0.0,0.0,3212.0,2744.7,4198.375,4030.7,305.162,305.98775,314.68375,314.82125,21.7993,20.5385,21.849899999999998,21.3601,314.999998,314.999998,324.999988,324.999988,99.55744285714286,99.50735,99.56732857142858,99.5461,-0.023333333333333206,-0.1479999999999999,-0.22766666666666666,-0.007666666666666667,-0.03833333333332689,-0.02571428571428669,1.5323333333333333,1.5494999999999999,37.245999999999995,29.366,37.562,34.5005,55.708,34.653,59.718,51.9565,53.685,33.854,58.333,50.317499999999995,52.888,33.4555,58.301,49.754666666666665,-0.05249999999999999,-0.10000000000000009,0.10693000000000001,0.109865,0.0,207.535,207.41500000000002,204.43,204.43,0.0,0.0
6,0.0,0.0,0.0,1.0,1.0,0.0,0.0,1.0,0.0,100.0,1.0,1.1856,26.0,0.0,0.0,0.0,57.999998,0.0,26.0,26.0,26.0,26.0,-0.1085,0.28700000000000014,-0.01055,293.442,-2.6339,-2.7444,-1.5498,-1.5873,-255.91,216.2225,190.87075,0.0,0.0,0.0,0.0,0.0131,-5.498166666666667,-5.498166666666667,-0.5316000000000001,0.055499999999999994,-0.0692222222222223,-0.3860000000000001,66.373,-0.09090000000000001,-0.215975,0.8179999999999996,100.0,1.0,1.0,204.83333333333331,0.0,0.0,0.0,0.0,0.0,0.0,0.0,8682.2,0.0,55.0,5.0,238.91333333333333,0.0,0.0,0.0,0.0,0.0,0.0,0.0,0.0,0.3030000000000008,0.3030000000000008,0.0,0.0,0.0,55.0,616.79921,10000.0,85.000001,85.000001,85.000001,85.000001,395.0,0.0,0.0,0.0,1.0,333.33500000000004,53.07,53.07,48.751999999999995,48.751999999999995,34.0,-27.9225,19.813333333333333,-33.480000000000004,22.79,0.0,1782.673,0.0,100.0,27.746,26.858,42.761,41.534,0.0,0.0,100.0,0.0,0.0,0.0,0.0,3235.4285714285716,2887.1,4119.0,3975.4,305.0785,305.49175,314.85925,314.9505,21.8085,20.5434,21.8599,21.3686,314.999998,314.999998,324.999988,324.999988,99.55744285714286,99.50736666666667,99.56745714285714,99.54622857142857,-0.0023333333333332984,-0.1356666666666666,-0.2125,0.0155,-0.061666666666667425,-0.06428571428571672,1.5336666666666667,1.5585,37.303,29.396,37.623999999999995,34.5535,55.695,34.6915,59.754999999999995,52.0145,53.672,33.888999999999996,58.3675,50.3725,52.875,33.489,58.333,49.80866666666667,-0.07399999999999995,-0.08200000000000007,0.10658000000000001,0.11676,0.0,207.93,207.85000000000002,204.83333333333331,204.83333333333331,0.0,0.0
7,0.0,0.0,0.0,1.0,1.0,0.0,0.0,1.0,0.0,100.0,1.0,1.1856,26.0,0.0,0.0,0.0,57.999998,0.0,26.0,26.0,26.0,26.0,-0.098125,0.2854000000000001,0.046225,293.167,-2.6048999999999998,-2.7349,-1.5114,-1.5735000000000001,-252.52,216.2,190.85025,0.0,0.0,0.0,0.0,0.015066666666666562,-5.498166666666667,-5.498166666666667,-0.5346000000000001,-0.006000000000000005,-0.053444444444444184,1.125,66.519,-0.0718,-0.223425,0.362000000000001,100.0,1.0,1.0,205.25333333333333,0.0,0.0,0.0,0.0,0.0,0.0,0.0,8700.0,0.0,55.0,5.0,239.43666666666667,1.0,0.0,0.0,0.0,0.0,0.0,0.0,0.0,0.3539999999999992,0.3539999999999992,0.0,0.0,1.0,55.0,616.79921,10000.0,85.000001,85.000001,85.000001,85.000001,395.0,0.0,0.0,0.0,1.0,333.33500000000004,52.765,52.765,48.813,48.813,34.0,-26.3525,22.295,-31.24,25.435000000000002,0.0,1782.621,-0.19000000000000128,100.0,27.955,26.771,42.881,41.696,0.0,0.0,100.0,0.0,0.0,0.0,0.0,3226.857142857143,3054.0,4048.75,4129.2,304.856,305.16125,314.9125,314.63725,21.8183,20.5486,21.8705,21.3775,314.999998,314.999998,324.999988,324.999988,99.55744285714286,99.50738333333334,99.5676,99.54637142857143,0.03266666666666662,-0.10133333333333328,-0.18666666666666665,0.04883333333333334,-0.03833333333332689,-0.04285714285714448,1.5293333333333332,1.536,37.364000000000004,29.4285,37.691,34.6095,55.681,34.731,59.7935,52.0755,53.659,33.9255,58.4035,50.431,52.861000000000004,33.524,58.3655,49.86566666666667,-0.09050000000000002,-0.05499999999999994,0.11168000000000002,0.10435000000000001,0.0,208.35000000000002,208.32,205.25333333333333,205.25333333333333,0.0,0.0
8,0.0,0.0,0.0,1.0,1.0,0.0,0.0,1.0,0.0,100.0,1.0,1.1856,26.0,0.0,0.0,0.0,57.999998,0.0,26.0,26.0,26.0,26.0,-0.04275,0.27680000000000016,0.029125,293.472,-2.6915,-2.724,-1.4955,-1.5782,-248.93,216.1725,190.8285,0.0,0.0,0.0,0.0,0.017133333333333334,-5.498166666666667,-5.498166666666667,-0.5362,-0.6180000000000001,-0.03588888888888908,0.808,66.673,-0.0476,-0.216125,-0.11799999999999944,100.0,1.0,1.0,205.66666666666669,0.0,0.0,0.0,0.0,0.0,0.0,0.0,8717.5,0.0,55.0,5.0,239.99666666666667,0.0,0.0,0.0,0.0,0.0,0.0,0.0,0.0,0.40800000000000125,0.40800000000000125,0.0,0.0,0.0,55.0,616.79921,10000.0,85.000001,85.000001,85.000001,85.000001,395.0,0.0,0.0,0.0,1.0,166.665,53.665,53.665,48.172,48.172,34.0,-23.3375,22.831666666666663,-29.876666666666665,27.215,0.0,1782.569,-0.3150000000000013,100.0,27.491,26.721,42.834,41.83,0.0,0.0,100.0,0.0,0.0,0.0,0.0,2923.857142857143,3001.6,4111.5,4149.0,305.9155,305.35075,314.722,314.52325,21.8284,20.5541,21.8817,21.387,314.999998,314.999998,324.999988,324.999988,99.55745714285715,99.5074,99.56774285714286,99.54652857142857,0.051000000000000156,-0.07433333333333314,-0.1485,0.07483333333333334,-0.045000000000001705,-0.06142857142857139,1.5030000000000001,1.5055,37.428,29.463,37.760999999999996,34.669,55.665,34.772,59.834,52.138999999999996,53.643,33.963,58.441,50.4925,52.844,33.5595,58.4,49.925666666666665,-0.09799999999999998,-0.0475000000000001,0.111505,0.10659500000000001,0.0,208.805,208.815,205.66666666666669,205.66666666666669,0.0,0.0
9,0.0,0.0,0.0,1.0,1.0,0.0,0.0,1.0,0.0,100.0,1.0,1.1856,26.0,0.0,0.0,0.0,57.999998,0.0,26.0,26.0,26.0,26.0,-0.015625,0.2812000000000001,-0.02325,293.213,-2.6861,-2.7204,-1.5532,-1.5548000000000002,-245.92000000000002,216.1475,190.809875,0.0,0.0,0.0,0.0,0.018899999999999917,-5.498166666666667,-5.498166666666667,-0.5438000000000001,0.5720000000000001,-0.03611111111111098,-0.3820000000000001,66.798,-0.0273,-0.218725,-0.09999999999999964,100.0,1.0,1.0,206.19666666666666,0.0,0.0,0.0,0.0,0.0,0.0,0.0,8739.9,0.0,55.0,5.0,240.44333333333333,1.0,0.0,0.0,0.0,0.0,0.0,0.0,0.0,0.4529999999999994,0.4529999999999994,0.0,0.0,1.0,55.0,616.79921,10000.0,85.000001,85.000001,85.000001,85.000001,395.0,0.0,0.0,0.0,1.0,333.33500000000004,52.46,52.46,49.225,49.225,34.0,-26.8375,23.606666666666666,-28.486666666666665,26.0,0.0,1782.522,-0.46499999999999986,100.0,27.782,27.283,42.369,41.891999999999996,0.0,0.0,100.0,0.0,0.0,0.0,0.0,3369.4285714285716,3009.2,3978.375,4008.6000000000004,304.6855,305.08275,315.21425,314.8935,21.837,20.5588,21.8909,21.3949,314.999998,314.999998,324.999988,324.999988,99.55745714285715,99.5074,99.56787142857142,99.54664285714286,0.06199999999999983,-0.06333333333333324,-0.14016666666666666,0.08416666666666667,-0.05666666666667197,-0.0357142857142847,1.5816666666666666,1.5705,37.482,29.4925,37.818,34.718,55.655,34.8065,59.8645,52.191,53.632999999999996,33.995,58.4695,50.542,52.833,33.59,58.426,49.974333333333334,-0.11249999999999993,-0.04400000000000004,0.102055,0.10888,0.0,209.22500000000002,209.215,206.19666666666666,206.19666666666666,0.0,0.0
10,0.0,0.0,0.0,1.0,1.0,0.0,0.0,1.0,0.0,100.0,1.0,1.1856,26.0,0.0,0.0,0.0,57.999998,0.0,26.0,26.0,26.0,26.0,0.012125,0.2794000000000001,-0.014475,293.045,-2.6642,-2.6997,-1.5359,-1.5332,-242.31,216.12,190.788,0.0,0.0,0.0,0.0,0.020999999999999908,-5.498166666666667,-5.498166666666667,-0.5193,-0.5065,0.007444444444444365,0.28,66.95400000000001,-0.0056,-0.20825000000000002,-0.45399999999999974,100.0,1.0,1.0,206.45666666666668,0.0,0.0,0.0,0.0,0.0,0.0,0.0,8750.9,0.0,55.0,5.0,241.00333333333333,0.0,0.0,0.0,0.0,0.0,0.0,1.0,0.0,0.5069999999999979,0.5069999999999979,0.0,0.0,0.0,55.0,616.79921,10000.0,85.000001,85.000001,85.000001,85.000001,395.0,0.0,0.0,0.0,1.0,166.665,53.528,53.528,47.668,47.668,34.0,-21.255,22.64666666666667,-30.24,29.67,0.0,1782.469,-0.5799999999999983,100.0,27.633,27.319,42.781,42.689,0.0,0.0,100.0,0.0,0.0,0.0,0.0,2878.5714285714284,2862.4,4298.625,4256.3,306.1125,305.57775,314.36975,314.202,21.8472,20.5644,21.9022,21.4047,314.999998,314.999998,324.999988,324.999988,99.55747142857143,99.5074,99.56802857142857,99.5468,0.08599999999999985,-0.04800000000000004,-0.114,0.1105,-0.03333333333333144,-0.04999999999999716,1.4723333333333333,1.4525,37.545,29.5275,37.888999999999996,34.778999999999996,55.641999999999996,34.8455,59.906,52.2585,53.620999999999995,34.0305,58.507999999999996,50.607,52.82,33.624,58.4615,50.03766666666667,-0.124,-0.03200000000000003,0.107535,0.115485,0.0,209.66,209.695,206.45666666666668,206.45666666666668,0.0,0.0
11,0.0,0.0,0.0,1.0,1.0,0.0,0.0,1.0,0.0,100.0,1.0,1.1856,26.0,0.0,0.0,0.0,57.999998,0.0,26.0,26.0,26.0,26.0,0.026875,0.2723,-0.074625,293.564,-2.7067,-2.6865,-1.5905,-1.5237,-238.89,216.0925,190.76725,0.0,0.0,0.0,0.0,0.022599999999999953,-5.498166666666667,-5.498166666666667,-0.5617,-0.1200000000000001,0.033666666666666734,0.356,67.092,0.013800000000000002,-0.2364,-0.6660000000000004,100.0,1.0,1.0,207.18666666666667,0.0,0.0,0.0,0.0,0.0,0.0,0.0,8781.8,0.0,55.0,5.0,241.50333333333333,1.0,0.0,0.0,0.0,0.0,0.0,1.0,0.0,0.5579999999999998,0.5579999999999998,0.0,0.0,1.0,55.0,616.79921,10000.0,85.000001,85.000001,85.000001,85.000001,395.0,0.0,0.0,0.0,1.0,166.665,52.872,52.872,49.332,49.332,34.0,-21.835,26.651666666666667,-24.086666666666666,27.1125,0.0,1782.418,-0.6900000000000013,100.0,27.52,27.406,42.292,42.494,0.0,0.0,100.0,0.0,0.0,0.0,0.0,3001.142857142857,3185.3,3692.375,3885.8,305.6465,304.71475,315.89675,315.2255,21.8567,20.5699,21.9126,21.4136,314.999998,314.999998,324.999988,324.999988,99.55748571428572,99.50741666666667,99.56815714285715,99.54694285714285,0.10933333333333373,-0.016999999999999904,-0.0905,0.14100000000000001,-0.061666666666667425,-0.06571428571428584,1.633,1.6205,37.604,29.561500000000002,37.954,34.835,55.629000000000005,34.8835,59.9385,52.318,53.608999999999995,34.0655,58.5385,50.664,52.807,33.6575,58.4885,50.093666666666664,-0.126,-0.02100000000000013,0.10681500000000001,0.10339500000000001,0.0,210.10500000000002,210.13,207.18666666666667,207.18666666666667,0.0,0.0
12,0.0,0.0,0.0,1.0,1.0,0.0,0.0,1.0,0.0,100.0,1.0,1.1856,26.0,0.0,0.0,0.0,57.999998,0.0,26.0,26.0,26.0,26.0,0.0495,0.28780000000000006,0.031375,293.015,-2.7655000000000003,-2.6792,-1.5546,-1.5216,-235.87,216.0675,190.74775,0.0,0.0,0.0,0.0,0.025466666666666526,-5.498166666666667,-5.498166666666667,-0.5459,0.31499999999999995,0.01855555555555566,-0.944,67.221,0.0303,-0.2061,-0.6760000000000002,100.0,1.0,1.0,207.35666666666668,0.0,0.0,0.0,0.0,0.0,0.0,0.0,8789.1,0.0,55.0,5.0,241.96666666666667,0.0,0.0,0.0,0.0,0.0,0.0,1.0,0.0,0.602999999999998,0.602999999999998,0.0,0.0,0.0,55.0,616.79921,10000.0,85.000001,85.000001,85.000001,85.000001,395.0,0.0,0.0,0.0,1.0,333.33500000000004,52.917,52.917,47.989,47.989,34.0,-23.3475,25.426666666666666,-27.826666666666664,30.53,0.0,1782.372,-0.46000000000000085,100.0,27.244,27.688,42.183,42.528,0.0,0.0,100.0,0.0,0.0,0.0,0.0,3118.285714285714,3091.1,4234.5,4171.6,305.5005,304.8585,314.6115,314.474,21.865099999999998,20.5747,21.9218,21.421599999999998,314.999998,314.999998,324.999988,324.999988,99.5575,99.50741666666667,99.5683,99.54707142857143,0.10499999999999998,-0.028000000000000025,-0.08016666666666668,0.14883333333333335,-0.046666666666666856,-0.05571428571428072,1.525,1.4985,37.657,29.592,38.010999999999996,34.885,55.619,34.917,59.971000000000004,52.371,53.599000000000004,34.0965,58.5685,50.7155,52.796,33.687,58.516,50.144,-0.11549999999999994,-0.04200000000000004,0.101565,0.10625000000000001,0.0,210.49,210.54500000000002,207.35666666666668,207.35666666666668,0.0,0.0
13,0.0,0.0,0.0,1.0,1.0,0.0,0.0,1.0,0.0,100.0,1.0,1.1856,26.0,0.0,0.0,0.0,57.999998,0.0,26.0,26.0,26.0,26.0,0.073125,0.28070000000000017,0.0509,292.603,-2.7341,-2.6767,-1.6226,-1.5079,-232.44,216.04250000000002,190.726,0.0,0.0,0.0,0.0,0.026733333333333387,-5.498166666666667,-5.498166666666667,-0.539,-0.06800000000000006,0.023555555555555552,1.061,67.364,0.0366,-0.2137,-0.8179999999999996,100.0,1.0,1.0,207.74333333333334,0.0,0.0,0.0,0.0,0.0,0.0,0.0,8805.4,0.0,55.0,5.0,242.48000000000002,1.0,0.0,0.0,0.0,0.0,0.0,1.0,0.0,0.6539999999999999,0.6539999999999999,0.0,0.0,1.0,55.0,616.79921,10000.0,85.000001,85.000001,85.000001,85.000001,395.0,0.0,0.0,0.0,1.0,166.665,52.536,52.536,47.958,47.958,34.0,-20.615,28.10333333333333,-27.413333333333334,32.9525,0.0,1782.322,-0.8599999999999994,100.0,27.747,27.723,42.509,42.905,0.0,0.0,100.0,0.0,0.0,0.0,0.0,3050.714285714286,3184.8,4154.75,4359.1,305.4915,304.7435,314.71025,314.0845,21.8746,20.5803,21.9324,21.4308,314.999998,314.999998,324.999988,324.999988,99.55751428571429,99.50741666666667,99.56844285714286,99.54721428571429,0.15366666666666662,0.02066666666666661,-0.06266666666666666,0.16666666666666666,-0.01999999999999602,-0.044285714285713595,1.512,1.4809999999999999,37.716,29.6265,38.078,34.942499999999995,55.61,34.955,60.007999999999996,52.435,53.59,34.1315,58.6025,50.7765,52.786,33.7205,58.547,50.204,-0.14600000000000002,-0.00649999999999995,0.10583500000000001,0.11010500000000001,0.0,210.92000000000002,210.96,207.74333333333334,207.74333333333334,0.0,0.0
14,0.0,0.0,0.0,1.0,1.0,0.0,0.0,1.0,0.0,100.0,1.0,1.1856,26.0,0.0,0.0,0.0,57.999998,0.0,26.0,26.0,26.0,26.0,0.088125,0.28280000000000016,-0.008125,292.816,-2.7383,-2.6146,-1.6309,-1.5127000000000002,-229.0,216.01999999999998,190.704625,0.0,0.0,0.0,0.0,0.02873333333333339,-5.498166666666667,-5.498166666666667,-0.5496,-0.17999999999999994,0.049111111111111105,-0.08699999999999997,67.503,0.051500000000000004,-0.22885,-0.992,100.0,1.0,1.0,208.25,0.0,0.0,0.0,0.0,0.0,0.0,0.0,8826.9,0.0,55.0,5.0,242.98333333333335,0.0,0.0,0.0,0.0,0.0,0.0,1.0,0.0,0.7049999999999983,0.7049999999999983,0.0,0.0,0.0,55.0,616.79921,10000.0,85.000001,85.000001,85.000001,85.000001,395.0,0.0,0.0,0.0,1.0,333.33500000000004,52.597,52.597,48.141,48.141,34.0,-20.7175,27.358333333333334,-26.443333333333335,30.82,0.0,1782.27,-0.9299999999999997,100.0,27.551000000000002,27.987000000000002,42.412,43.253,0.0,0.0,100.0,0.0,0.0,0.0,0.0,3051.285714285714,3155.7,4032.125,4153.7,305.6675,304.673,315.08175,314.51725,21.8841,20.5858,21.9429,21.44,314.999998,314.999998,324.999988,324.999988,99.55752857142858,99.50743333333334,99.56857142857143,99.54735714285714,0.14800000000000013,0.018000000000000238,-0.0655,0.16166666666666665,-0.046666666666666856,-0.03285714285714647,1.551,1.5255,37.775999999999996,29.661,38.143,35.0,55.601,34.993,60.043,52.497,53.581,34.1665,58.6355,50.8365,52.775999999999996,33.754,58.576499999999996,50.26266666666667,-0.15149999999999997,-0.0020000000000000018,0.10928500000000001,0.10276,0.0,211.335,211.41,208.25,208.25,0.0,0.0
15,0.0,0.0,0.0,1.0,1.0,0.0,0.0,1.0,0.0,100.0,1.0,1.1856,26.0,0.0,0.0,0.0,57.999998,0.0,26.0,26.0,26.0,26.0,0.115125,0.27370000000000005,0.019025,292.847,-2.7458,-2.5723,-1.6273,-1.45,-225.55,216.0,190.683125,0.0,0.0,0.0,0.0,0.03073333333333339,-5.498166666666667,-5.498166666666667,-0.54,0.249,0.08499999999999996,0.957,67.643,0.0656,-0.209175,-1.1639999999999997,100.0,1.0,1.0,208.66333333333333,0.0,0.0,0.0,0.0,0.0,0.0,0.0,8844.4,0.0,55.0,5.0,243.48666666666668,1.0,0.0,0.0,0.0,0.0,0.0,1.0,0.0,0.7560000000000002,0.7560000000000002,0.0,0.0,1.0,55.0,616.79921,10000.0,85.000001,85.000001,85.000001,85.000001,395.0,0.0,0.0,0.0,1.0,166.665,52.841,52.841,48.187,48.187,34.0,-18.1175,28.366666666666667,-23.666666666666664,34.2425,0.0,1782.22,-0.9699999999999989,100.0,27.662,27.913,42.207,43.225,0.0,0.0,100.0,0.0,0.0,0.0,0.0,2784.0,3241.4,3937.75,4417.7,306.2995,304.57275,315.25725,313.9745,21.8935,20.5914,21.9533,21.4491,314.999998,314.999998,324.999988,324.999988,99.55754285714286,99.50743333333334,99.56871428571428,99.54751428571429,0.16666666666666652,0.035666666666666735,-0.02383333333333333,0.1975,-0.051666666666669414,-0.044285714285713595,1.5473333333333332,1.492,37.835,29.695999999999998,38.208,35.057,55.592,35.032,60.077,52.56,53.572,34.2025,58.6665,50.897,52.766,33.7885,58.6045,50.322,-0.14900000000000002,-0.010000000000000009,0.09694000000000001,0.11189,0.0,211.8,211.87,208.66333333333333,208.66333333333333,0.0,0.0
16,0.0,0.0,0.0,1.0,1.0,0.0,0.0,1.0,0.0,100.0,1.0,1.1856,26.0,0.0,0.0,0.0,57.999998,0.0,26.0,26.0,26.0,26.0,0.12375,0.26660000000000017,-0.01435,292.877,-2.8032,-2.6105,-1.6007,-1.4545,-222.3,215.98250000000002,190.662375,0.0,0.0,0.0,0.0,0.0326333333333334,-5.498166666666667,-5.498166666666667,-0.5616,-0.7905,0.07000000000000006,0.04899999999999993,67.775,0.0762,-0.2253,-1.2479999999999993,100.0,1.0,1.0,209.07333333333332,0.0,0.0,0.0,0.0,0.0,0.0,0.0,8861.8,0.0,55.0,5.0,243.96333333333334,0.0,0.0,0.0,0.0,0.0,0.0,1.0,0.0,0.8039999999999985,0.8039999999999985,0.0,0.0,0.0,55.0,616.79921,10000.0,85.000001,85.000001,85.000001,85.000001,395.0,0.0,0.0,0.0,1.0,166.665,52.734,52.734,47.913,47.913,34.0,-19.22,29.615,-23.263333333333335,32.504999999999995,0.0,1782.172,-0.9050000000000011,100.0,27.343,28.002,42.5,43.389,0.0,0.0,100.0,0.0,0.0,0.0,0.0,2917.5714285714284,3282.8,3929.875,4154.2,306.0475,304.444,315.265,314.5775,21.9021,20.5967,21.9632,21.4578,314.999998,314.999998,324.999988,324.999988,99.55755714285715,99.50743333333334,99.56885714285714,99.54764285714286,0.17333333333333334,0.046666666666666856,-0.024333333333333332,0.21033333333333334,-0.04333333333332945,-0.06142857142857139,1.5593333333333332,1.5045,37.888,29.729,38.269999999999996,35.111,55.581,35.0695,60.111,52.618,53.561,34.237,58.698499999999996,50.953,52.754000000000005,33.8215,58.6335,50.37733333333333,-0.15049999999999997,-0.0035000000000000586,0.11284500000000001,0.10815000000000001,0.0,212.15,212.26,209.07333333333332,209.07333333333332,0.0,0.0
17,0.0,0.0,0.0,1.0,1.0,0.0,0.0,1.0,0.0,100.0,1.0,1.1856,26.0,0.0,0.0,0.0,57.999998,0.0,26.0,26.0,26.0,26.0,0.122875,0.27690000000000015,0.00025,292.542,-2.7643,-2.5629,-1.639,-1.4747,-218.84,215.9675,190.63975,0.0,0.0,0.0,0.0,0.034633333333333294,-5.498166666666667,-5.498166666666667,-0.5518000000000001,0.5485,0.046333333333333115,-0.7050000000000001,67.914,0.08360000000000001,-0.207425,-1.1499999999999995,100.0,1.0,1.0,209.47,0.0,0.0,0.0,0.0,0.0,0.0,0.0,8878.7,0.0,55.0,5.0,244.46,1.0,0.0,0.0,0.0,0.0,0.0,1.0,0.0,0.8550000000000004,0.8550000000000004,0.0,0.0,1.0,55.0,616.79921,10000.0,85.000001,85.000001,85.000001,85.000001,395.0,0.0,0.0,0.0,1.0,166.665,52.429,52.429,47.928,47.928,34.0,-20.224999999999998,27.02166666666667,-25.71,32.9925,0.0,1782.12,-0.8999999999999986,100.0,27.696,28.428,42.173,43.388,0.0,0.0,100.0,0.0,0.0,0.0,0.0,3095.142857142857,3073.7,4242.125,4253.5,305.5955,304.953,314.69025,314.35475,21.9115,20.6024,21.9736,21.4669,314.999998,314.999998,324.999988,324.999988,99.55758571428571,99.50745,99.569,99.54778571428571,0.17133333333333356,0.04166666666666696,-0.021666666666666667,0.1965,-0.03166666666666629,-0.04999999999999716,1.563,1.506,37.947,29.765,38.335,35.168,55.574,35.1105,60.144999999999996,52.6795,53.555,34.2755,58.7295,51.012,52.745999999999995,33.8585,58.661500000000004,50.43533333333333,-0.14700000000000002,-0.009500000000000064,0.10848000000000001,0.09799000000000001,0.0,212.62,212.72500000000002,209.47,209.47,0.0,0.0
18,0.0,0.0,0.0,1.0,1.0,0.0,0.0,1.0,0.0,100.0,1.0,1.1856,26.0,0.0,0.0,0.0,57.999998,0.0,26.0,26.0,26.0,26.0,0.12575,0.2703,-0.058550000000000005,292.557,-2.802,-2.5355,-1.6578,-1.4206,-215.57999999999998,215.95749999999998,190.61875,0.0,0.0,0.0,0.0,0.03653333333333331,-5.498166666666667,-5.498166666666667,-0.5601,-0.5755000000000001,0.07322222222222208,-0.05499999999999994,68.044,0.0855,-0.22337500000000002,-1.186,100.0,1.0,1.0,209.88666666666666,0.0,0.0,0.0,0.0,0.0,0.0,0.0,8896.4,0.0,55.0,5.0,244.93,0.0,0.0,0.0,0.0,0.0,0.0,1.0,0.0,0.9029999999999987,0.9029999999999987,0.0,0.0,0.0,55.0,616.79921,10000.0,85.000001,85.000001,85.000001,85.000001,395.0,0.0,0.0,0.0,1.0,166.665,52.444,52.444,47.775,47.775,34.0,-19.794999999999998,28.9,-24.88,32.2025,0.0,1782.073,-1.209999999999999,100.0,27.454,28.238,42.521,43.806,0.0,0.0,100.0,0.0,0.0,0.0,0.0,3045.142857142857,3261.1,4032.375,4173.1,305.7865,304.44175,315.1105,314.51575,21.9202,20.6077,21.9835,21.4757,314.999998,314.999998,324.999988,324.999988,99.55761428571428,99.50745,99.56914285714285,99.54792857142857,0.17966666666666642,0.048666666666666636,-0.02783333333333333,0.20866666666666667,-0.054999999999999716,-0.03857142857143003,1.552,1.5,38.001000000000005,29.798000000000002,38.397,35.223,55.566,35.1485,60.179,52.74,53.547,34.31,58.7615,51.070499999999996,52.736999999999995,33.8915,58.69,50.492333333333335,-0.16100000000000003,0.008499999999999952,0.11113500000000001,0.115735,0.0,213.005,213.075,209.88666666666666,209.88666666666666,0.0,0.0
19,0.0,0.0,0.0,1.0,1.0,0.0,0.0,1.0,0.0,100.0,1.0,1.1856,26.0,0.0,0.0,0.0,57.999998,0.0,26.0,26.0,26.0,26.0,0.148,0.2904,0.02585,292.053,-2.7667,-2.5269,-1.6728,-1.4007,-212.11,215.9475,190.596125,0.0,0.0,0.0,0.0,0.03856666666666653,-5.498166666666667,-5.498166666666667,-0.5526,0.867,0.0868888888888888,0.92,68.182,0.0912,-0.21265,-1.5860000000000003,100.0,1.0,1.0,210.29666666666668,0.0,0.0,0.0,0.0,0.0,0.0,0.0,8913.6,0.0,55.0,5.0,245.42333333333335,1.0,0.0,0.0,0.0,0.0,0.0,1.0,0.0,0.9540000000000006,0.9540000000000006,0.0,0.0,1.0,55.0,616.79921,10000.0,85.000001,85.000001,85.000001,85.000001,395.0,0.0,0.0,0.0,1.0,166.665,51.682,51.682,47.684,47.684,34.0,-17.745,31.921666666666667,-24.2,35.207499999999996,0.0,1782.022,-1.5299999999999994,100.0,28.071,28.633,42.3,43.704,0.0,0.0,100.0,0.0,0.0,0.0,0.0,3034.0,3407.9,4111.125,4431.2,305.5335,304.0355,314.93375,314.018,21.9296,20.613599999999998,21.9939,21.4849,314.999998,314.999998,324.999988,324.999988,99.55762857142857,99.50746666666667,99.56928571428571,99.54808571428572,0.2233333333333336,0.08566666666666656,0.0,0.22816666666666666,-0.02499999999999858,-0.04571428571428271,1.5566666666666666,1.4965,38.06,29.8345,38.462,35.2805,55.561,35.193,60.212,52.803,53.542,34.351,58.7915,51.131,52.730000000000004,33.931,58.717,50.552,-0.19399999999999995,0.03049999999999997,0.10710000000000001,0.10337,0.0,213.44,213.56,210.29666666666668,210.29666666666668,0.0,0.0
20,0.0,0.0,0.0,1.0,1.0,0.0,0.0,1.0,0.0,100.0,1.0,1.1856,26.0,0.0,0.0,0.0,57.999998,0.0,26.0,26.0,26.0,26.0,0.1565,0.2744,-0.042525,292.297,-2.829,-2.5781,-1.6026,-1.4089,-208.63,215.945,190.57375,0.0,0.0,0.0,0.0,0.04056666666666653,-5.498166666666667,-5.498166666666667,-0.5533,-1.0685000000000002,0.08755555555555561,-0.8980000000000001,68.321,0.10700000000000001,-0.221425,-1.5499999999999998,100.0,1.0,1.0,210.57999999999998,0.0,0.0,0.0,0.0,0.0,0.0,0.0,8925.7,0.0,55.0,5.0,245.93,0.0,0.0,0.0,0.0,0.0,0.0,0.0,0.0,1.004999999999999,1.004999999999999,0.0,0.0,0.0,55.0,616.79921,10000.0,85.000001,85.000001,85.000001,85.000001,395.0,0.0,0.0,0.0,1.0,333.33500000000004,52.856,52.856,46.844,46.844,34.0,-18.57,27.818333333333335,-23.509999999999998,35.8,0.0,1781.97,-0.6799999999999997,100.0,27.364,28.501,42.78,44.293,0.0,0.0,100.0,0.0,0.0,0.0,0.0,2818.142857142857,3150.6,4181.875,4409.3,306.4425,304.685,314.67075,313.891,21.9386,20.6192,22.0045,21.4943,314.999998,314.999998,324.999988,324.999988,99.55765714285714,99.50746666666667,99.56941428571429,99.54822857142857,0.17399999999999993,0.03733333333333322,0.009666666666666665,0.231,-0.046666666666666856,-0.027142857142855803,1.4943333333333333,1.4515,38.116,29.869999999999997,38.528,35.3395,55.551,35.234,60.25,52.8685,53.532,34.3895,58.827,51.194,52.719,33.9675,58.749,50.614,-0.13649999999999995,-0.020000000000000018,0.10969000000000001,0.10593500000000002,0.0,213.82999999999998,213.945,210.57999999999998,210.57999999999998,0.0,0.0
21,0.0,0.0,0.0,1.0,1.0,0.0,0.0,1.0,0.0,100.0,1.0,1.1856,26.0,0.0,0.0,0.0,57.999998,0.0,26.0,26.0,26.0,26.0,0.135125,0.27560000000000007,-0.066225,292.679,-2.7303,-2.6428,-1.6552,-1.4927000000000001,-205.34,215.945,190.552125,0.0,0.0,0.0,0.0,0.04249999999999998,-5.498166666666667,-5.498166666666667,-0.5805,0.48949999999999994,0.05744444444444441,-1.2600000000000002,68.445,0.1041,-0.228275,-0.7220000000000004,100.0,1.0,1.0,211.24333333333334,0.0,0.0,0.0,0.0,0.0,0.0,0.0,8953.8,0.0,55.0,5.0,246.37333333333333,1.0,0.0,0.0,0.0,0.0,0.0,0.0,0.0,1.0530000000000008,1.0530000000000008,0.0,0.0,1.0,55.0,616.79921,10000.0,85.000001,85.000001,85.000001,85.000001,395.0,0.0,0.0,0.0,1.0,333.33500000000004,52.17,52.17,48.400999999999996,48.400999999999996,34.0,-21.5525,26.911666666666665,-22.63,31.7125,0.0,1781.922,0.245000000000001,100.0,27.687,28.606,42.207,43.793,0.0,0.0,100.0,0.0,0.0,0.0,0.0,3083.5714285714284,3152.9,3940.75,3993.9,305.55,304.60175,315.4045,314.99275,21.947400000000002,20.6247,22.0141,21.5029,314.999998,314.999998,324.999988,324.999988,99.55767142857142,99.50748333333334,99.56955714285715,99.54837142857143,0.1346666666666665,-0.0016666666666667052,-0.0035,0.2235,-0.051666666666669414,-0.04285714285714448,1.6233333333333333,1.588,38.171,29.9045,38.588,35.393,55.542,35.2725,60.2785,52.924,53.522999999999996,34.4245,58.853,51.248,52.709,34.0015,58.7725,50.666666666666664,-0.07199999999999995,-0.09200000000000008,0.10677500000000001,0.10661500000000002,0.0,214.275,214.32999999999998,211.24333333333334,211.24333333333334,0.0,0.0
22,0.0,0.0,0.0,1.0,1.0,0.0,0.0,1.0,0.0,100.0,1.0,1.1856,26.0,0.0,0.0,0.0,57.999998,0.0,26.0,26.0,26.0,26.0,0.07675,0.2713000000000001,0.015675,292.084,-2.6923,-2.6673999999999998,-1.634,-1.5489000000000002,-201.85,215.9475,190.52825,0.0,0.0,0.0,0.0,0.044533333333333314,-5.498166666666667,-5.498166666666667,-0.5568000000000001,0.14200000000000002,0.0477777777777777,0.748,68.584,0.0723,-0.20595000000000002,0.18599999999999994,100.0,1.0,1.0,211.44,0.0,0.0,0.0,0.0,0.0,0.0,0.0,8962.2,0.0,55.0,5.0,246.87666666666667,0.0,0.0,0.0,0.0,0.0,0.0,0.0,0.0,1.1039999999999992,1.1039999999999992,0.0,0.0,0.0,55.0,616.79921,10000.0,85.000001,85.000001,85.000001,85.000001,395.0,0.0,0.0,0.0,1.0,166.665,52.246,52.246,47.134,47.134,34.0,-21.2975,25.726666666666667,-27.13,33.9275,0.0,1781.872,0.5199999999999996,100.0,28.046,28.397,42.907,43.85,0.0,0.0,100.0,0.0,0.0,0.0,0.0,2908.857142857143,3197.2,4197.375,4329.9,305.846,304.6105,314.65325,314.1655,21.9566,20.6304,22.0247,21.5121,314.999998,314.999998,324.999988,324.999988,99.55768571428571,99.50748333333334,99.5697,99.54852857142858,0.10400000000000009,-0.04066666666666663,-0.04633333333333334,0.17766666666666667,-0.03999999999999915,-0.04999999999999716,1.4896666666666667,1.4825,38.229,29.939999999999998,38.655,35.4505,55.531,35.3115,60.316,52.987,53.512,34.461,58.888,51.3085,52.697,34.036500000000004,58.804,50.726333333333336,-0.034499999999999975,-0.12050000000000005,0.10767000000000002,0.11009500000000001,0.0,214.745,214.73000000000002,211.44,211.44,0.0,0.0
23,0.0,0.0,0.0,1.0,1.0,0.0,0.0,1.0,0.0,100.0,1.0,1.1856,26.0,0.0,0.0,0.0,57.999998,0.0,26.0,26.0,26.0,26.0,0.008625,0.26550000000000007,-0.042050000000000004,292.053,-2.6991,-2.6422,-1.5388000000000002,-1.5869,-198.35,215.9525,190.504875,0.0,0.0,0.0,0.0,0.046566666666666534,-5.498166666666667,-5.498166666666667,-0.5753,-0.30800000000000005,0.01644444444444426,-1.2040000000000002,68.718,0.0291,-0.233025,0.8160000000000007,100.0,1.0,1.0,211.94666666666666,0.0,0.0,0.0,0.0,0.0,0.0,0.0,8983.6,0.0,55.0,5.0,247.36,1.0,0.0,0.0,0.0,0.0,0.0,0.0,0.0,1.1550000000000011,1.1550000000000011,0.0,0.0,1.0,55.0,616.79921,10000.0,85.000001,85.000001,85.000001,85.000001,395.0,0.0,0.0,0.0,1.0,166.665,51.697,51.697,48.019,48.019,34.0,-27.2025,22.953333333333333,-27.133333333333333,28.247500000000002,0.0,1781.822,0.6550000000000011,100.0,28.245,28.457,43.231,44.001000000000005,0.0,0.0,100.0,0.0,0.0,0.0,0.0,3370.5714285714284,3077.8,4007.625,3973.1000000000004,304.7825,304.89175,315.10375,314.90525,21.966,20.6361,22.0353,21.5214,314.999998,314.999998,324.999988,324.999988,99.5577,99.50748333333334,99.56984285714286,99.54867142857142,0.05666666666666664,-0.07766666666666677,-0.10233333333333333,0.11983333333333333,-0.05333333333332746,-0.03285714285714647,1.5123333333333333,1.5305,38.288,29.9755,38.721000000000004,35.5085,55.519,35.352000000000004,60.3515,53.048500000000004,53.5,34.498,58.921,51.368,52.684,34.072,58.8335,50.784333333333336,-0.02849999999999997,-0.13000000000000012,0.10787000000000001,0.10587,0.0,215.16500000000002,215.085,211.94666666666666,211.94666666666666,0.0,0.0
24,0.0,0.0,0.0,1.0,1.0,0.0,0.0,1.0,0.0,100.0,1.0,1.1856,26.0,0.0,0.0,0.0,57.999998,0.0,26.0,26.0,26.0,26.0,-0.05625,0.27870000000000017,-0.095975,292.419,-2.6983,-2.6778,-1.5647,-1.5449000000000002,-194.84,215.95749999999998,190.481,0.0,0.0,0.0,0.0,0.04859999999999998,-5.498166666666667,-5.498166666666667,-0.5793,-0.5865,0.008333333333333304,0.837,68.854,-0.0129,-0.217375,0.9520000000000008,100.0,1.0,1.0,212.2866666666667,0.0,0.0,0.0,0.0,0.0,0.0,0.0,8998.1,0.0,55.0,5.0,247.84666666666666,0.0,0.0,0.0,0.0,0.0,0.0,0.0,0.0,1.2059999999999995,1.2059999999999995,0.0,0.0,0.0,55.0,616.79921,10000.0,85.000001,85.000001,85.000001,85.000001,395.0,0.0,0.0,0.0,1.0,166.665,52.963,52.963,47.119,47.119,34.0,-23.662499999999998,21.593333333333334,-31.923333333333332,27.235,0.0,1781.77,0.5850000000000009,100.0,28.193,27.875,43.514,43.54,0.0,0.0,100.0,0.0,0.0,0.0,0.0,2908.5714285714284,2972.2,4277.375,4137.3,305.9515,305.449,314.40825,314.66725,21.9754,20.6415,22.0459,21.5305,314.999998,314.999998,324.999988,324.999988,99.5577,99.5075,99.56998571428572,99.54881428571429,0.043333333333333446,-0.09033333333333315,-0.1395,0.08766666666666667,-0.03999999999999915,-0.05142857142856627,1.486,1.525,38.346000000000004,30.0095,38.787,35.5655,55.504000000000005,35.391,60.3885,53.1075,53.486000000000004,34.5345,58.955,51.4245,52.67,34.1065,58.8645,50.839333333333336,-0.035499999999999976,-0.12349999999999994,0.10706500000000001,0.10580500000000001,0.0,215.595,215.505,212.2866666666667,212.2866666666667,0.0,0.0
25,0.0,0.0,0.0,1.0,1.0,0.0,0.0,1.0,0.0,100.0,1.0,1.1856,26.0,0.0,0.0,0.0,57.999998,0.0,26.0,26.0,26.0,26.0,-0.072875,0.262,-0.0517,292.313,-2.7464,-2.6566,-1.5615999999999999,-1.5658,-191.32,215.96,190.455625,0.0,0.0,0.0,0.0,0.05063333333333331,-5.498166666666667,-5.498166666666667,-0.612,0.07150000000000001,-0.011444444444444368,-1.604,68.986,-0.0463,-0.2248,1.1080000000000005,100.0,1.0,1.0,212.8466666666667,0.0,0.0,0.0,0.0,0.0,0.0,0.0,9021.8,0.0,55.0,5.0,248.32333333333332,1.0,0.0,0.0,0.0,0.0,0.0,0.0,0.0,1.256999999999998,1.256999999999998,0.0,0.0,1.0,55.0,616.79921,10000.0,85.000001,85.000001,85.000001,85.000001,395.0,0.0,0.0,0.0,1.0,166.665,51.819,51.819,47.974000000000004,47.974000000000004,34.0,-29.585,22.168333333333333,-30.616666666666667,24.2375,0.0,1781.718,0.5250000000000021,100.0,28.137,28.129,43.287,43.149,0.0,0.0,100.0,0.0,0.0,0.0,0.0,3378.0,3181.3,4010.0,3952.7,304.828,304.6315,315.19225,315.06975,21.9847,20.647100000000002,22.0563,21.5395,314.999998,314.999998,324.999988,324.999988,99.55771428571428,99.5075,99.57014285714286,99.54897142857143,0.014666666666666828,-0.11733333333333329,-0.17133333333333334,0.05433333333333334,-0.060000000000002274,-0.05142857142856627,1.5393333333333334,1.585,38.403999999999996,30.0445,38.852000000000004,35.622,55.489000000000004,35.433,60.422,53.164,53.471000000000004,34.573,58.9865,51.479,52.653999999999996,34.1435,58.8925,50.89266666666666,-0.03749999999999998,-0.12549999999999994,0.10695500000000001,0.10889000000000001,0.0,216.01,215.92000000000002,212.8466666666667,212.8466666666667,0.0,0.0
26,0.0,0.0,0.0,1.0,1.0,0.0,0.0,1.0,0.0,100.0,1.0,1.1856,26.0,0.0,0.0,0.0,57.999998,0.0,26.0,26.0,26.0,26.0,-0.11,0.28170000000000006,0.06165,291.214,-2.6685,-2.7597,-1.5870000000000002,-1.5803,-188.01,215.96,190.43125,0.0,0.0,0.0,0.0,0.05256666666666654,-5.498166666666667,-5.498166666666667,-0.5712,0.7635,-0.053444444444444184,-1.181,69.114,-0.0649,-0.1958,1.0540000000000003,100.0,1.0,1.0,212.9766666666667,0.0,0.0,0.0,0.0,0.0,0.0,0.0,9027.4,0.0,55.0,5.0,248.78333333333336,0.0,0.0,0.0,0.0,0.0,0.0,0.0,0.0,1.3049999999999997,1.3049999999999997,0.0,0.0,0.0,55.0,616.79921,10000.0,85.000001,85.000001,85.000001,85.000001,395.0,0.0,0.0,0.0,1.0,166.665,51.407,51.407,46.295,46.295,34.0,-28.7,20.98833333333333,-38.66666666666667,26.8375,0.0,1781.671,0.370000000000001,100.0,29.145,28.556,43.975,43.333,0.0,0.0,100.0,0.0,0.0,0.0,0.0,3340.5714285714284,2982.4,4639.125,4369.6,304.805,305.09775,313.72225,314.05825,21.9938,20.6525,22.0664,21.5482,314.999998,314.999998,324.999988,324.999988,99.55771428571428,99.50753333333333,99.57028571428572,99.5491,0.013333333333333197,-0.1333333333333333,-0.19216666666666665,0.03233333333333334,-0.051666666666669414,-0.04285714285714448,1.4273333333333333,1.4615,38.461,30.078,38.915,35.6765,55.477999999999994,35.475,60.46,53.2205,53.461,34.612,59.0215,51.533500000000004,52.641999999999996,34.1805,58.925,50.94566666666667,-0.055499999999999994,-0.10850000000000004,0.11102500000000001,0.10769500000000001,0.0,216.435,216.335,212.9766666666667,212.9766666666667,0.0,0.0
27,0.0,0.0,0.0,1.0,1.0,0.0,0.0,1.0,0.0,100.0,1.0,1.1856,26.0,0.0,0.0,0.0,57.999998,0.0,26.0,26.0,26.0,26.0,-0.081875,0.25060000000000016,-0.013525,291.565,-2.63,-2.7345,-1.5718,-1.6588,-184.69,215.96,190.408125,0.0,0.0,0.0,0.0,0.05449999999999999,-5.498166666666667,-5.498166666666667,-0.5955,-1.0830000000000002,-0.058111111111111224,-0.663,69.239,-0.07010000000000001,-0.24177500000000002,0.8760000000000003,100.0,1.0,1.0,213.44666666666666,0.0,0.0,0.0,0.0,0.0,0.0,0.0,9047.2,0.0,55.0,5.0,249.23333333333335,1.0,0.0,0.0,0.0,0.0,0.0,0.0,0.0,1.352999999999998,1.352999999999998,0.0,0.0,1.0,55.0,616.79921,10000.0,85.000001,85.000001,85.000001,85.000001,395.0,0.0,0.0,0.0,1.0,333.33500000000004,51.757999999999996,51.757999999999996,46.661,46.661,34.0,-28.17,20.619999999999997,-33.93666666666667,25.615000000000002,0.0,1781.623,0.28000000000000114,100.0,28.909,28.262,44.823,43.870000000000005,0.0,0.0,100.0,0.0,0.0,0.0,0.0,3283.5714285714284,3002.5,4200.875,4031.9,304.968,305.1665,314.67625,314.7535,22.0027,20.6576,22.0766,21.557,314.999998,314.999998,324.999988,324.999988,99.55771428571428,99.50753333333333,99.57042857142856,99.54924285714286,0.004666666666666597,-0.1373333333333333,-0.191,0.035833333333333335,-0.041666666666671404,-0.03857142857143003,1.476,1.5065,38.516999999999996,30.11,38.979,35.7315,55.464,35.5145,60.498,53.278,53.448,34.647999999999996,59.0575,51.588,52.628,34.215,58.958,50.999,-0.05599999999999994,-0.10250000000000004,0.107615,0.11243500000000001,0.0,216.755,216.68,213.44666666666666,213.44666666666666,0.0,0.0
28,0.0,0.0,0.0,1.0,1.0,0.0,0.0,1.0,0.0,100.0,1.0,1.1856,26.0,0.0,0.0,0.0,57.999998,0.0,26.0,26.0,26.0,26.0,-0.10287500000000001,0.2659,-0.052425,291.901,-2.6541,-2.723,-1.5231,-1.6206,-181.14999999999998,215.95749999999998,190.382875,0.0,0.0,0.0,0.0,0.056533333333333324,-5.498166666666667,-5.498166666666667,-0.6012000000000001,0.6325000000000001,-0.05911111111111156,0.802,69.368,-0.0738,-0.21685000000000001,0.7599999999999998,100.0,1.0,1.0,213.96666666666667,0.0,0.0,0.0,0.0,0.0,0.0,0.0,9069.3,0.0,55.0,5.0,249.7,0.0,0.0,0.0,0.0,0.0,0.0,0.0,0.0,1.404,1.404,0.0,0.0,0.0,55.0,616.79921,10000.0,85.000001,85.000001,85.000001,85.000001,395.0,0.0,0.0,0.0,1.0,333.33500000000004,51.788,51.788,47.531,47.531,34.0,-27.32,21.578333333333333,-31.63,25.615000000000002,0.0,1781.571,0.11500000000000199,100.0,29.139,28.061,44.184,43.203,0.0,0.0,100.0,0.0,0.0,0.0,0.0,3232.142857142857,3054.3,4076.625,4118.4,304.973,305.17325,314.972,314.75725,22.0122,20.6632,22.0869,21.5661,314.999998,314.999998,324.999988,324.999988,99.55772857142857,99.50756666666666,99.57058571428571,99.5494,0.022333333333333094,-0.11766666666666681,-0.18566666666666667,0.042833333333333334,-0.051666666666669414,-0.060000000000002274,1.5183333333333333,1.5645,38.576,30.145,39.043,35.788,55.451,35.557,60.5315,53.334,53.436,34.687,59.088499999999996,51.641999999999996,52.614999999999995,34.251999999999995,58.9855,51.051,-0.07099999999999995,-0.09499999999999997,0.105925,0.10895500000000001,0.0,217.22,217.13,213.96666666666667,213.96666666666667,0.0,0.0
29,0.0,0.0,0.0,1.0,1.0,0.0,0.0,1.0,0.0,100.0,1.0,1.1856,26.0,0.0,0.0,0.0,57.999998,0.0,26.0,26.0,26.0,26.0,-0.097375,0.26,0.042175000000000004,291.489,-2.6055,-2.7689,-1.5619,-1.5937000000000001,-177.61,215.95,190.356375,0.0,0.0,0.0,0.0,0.058599999999999985,-5.498166666666667,-5.498166666666667,-0.6055,-0.742,-0.053888888888888875,-0.563,69.503,-0.0684,-0.21677500000000002,0.5279999999999996,100.0,1.0,1.0,214.19666666666666,0.0,0.0,0.0,0.0,0.0,0.0,0.0,9079.0,0.0,55.0,5.0,250.18666666666667,1.0,0.0,0.0,0.0,0.0,0.0,0.0,0.0,1.4549999999999983,1.4549999999999983,0.0,0.0,1.0,55.0,616.79921,10000.0,85.000001,85.000001,85.000001,85.000001,395.0,0.0,0.0,0.0,1.0,166.665,51.727000000000004,51.727000000000004,46.463,46.463,34.0,-27.5075,22.395,-34.75,25.810000000000002,0.0,1781.52,0.0,100.0,28.655,28.08,44.476,43.607,0.0,0.0,100.0,0.0,0.0,0.0,0.0,3328.285714285714,3071.5,4315.625,4180.5,304.86,304.83175,314.373,314.4635,22.0215,20.6687,22.0976,21.5754,314.999998,314.999998,324.999988,324.999988,99.55772857142857,99.50756666666666,99.57072857142857,99.54954285714285,0.023333333333333428,-0.11933333333333329,-0.18616666666666667,0.035833333333333335,-0.041666666666671404,-0.03999999999999915,1.4743333333333335,1.4869999999999999,38.635,30.179000000000002,39.11,35.846000000000004,55.436,35.597,60.571,53.394,53.421,34.724000000000004,59.1255,51.6995,52.599999999999994,34.2875,59.0195,51.10733333333333,-0.08150000000000002,-0.08150000000000013,0.106785,0.10544500000000001,0.0,217.565,217.51999999999998,214.19666666666666,214.19666666666666,0.0,0.0
30,0.0,0.0,0.0,1.0,1.0,0.0,0.0,1.0,0.0,100.0,1.0,1.1856,26.0,0.0,0.0,0.0,57.999998,0.0,26.0,26.0,26.0,26.0,-0.073875,0.27190000000000003,0.04105,291.031,-2.6639,-2.6532,-1.5027,-1.6485,-174.26999999999998,215.9425,190.331375,0.0,0.0,0.0,0.0,0.06053333333333333,-5.498166666666667,-5.498166666666667,-0.6046,0.783,-0.054777777777777814,-0.8089999999999999,69.625,-0.056400000000000006,-0.2192,0.42600000000000016,100.0,1.0,1.0,214.62666666666667,0.0,0.0,0.0,0.0,0.0,0.0,0.0,9097.2,0.0,55.0,5.0,250.62333333333333,0.0,0.0,0.0,0.0,0.0,0.0,1.0,0.0,1.5030000000000001,1.5030000000000001,0.0,0.0,0.0,55.0,616.79921,10000.0,85.000001,85.000001,85.000001,85.000001,395.0,0.0,0.0,0.0,1.0,333.33500000000004,50.781,50.781,46.844,46.844,34.0,-28.802500000000002,21.706666666666667,-32.99333333333333,27.835,0.0,1781.472,-0.05999999999999872,100.0,29.515,28.877,44.291,43.663,0.0,0.0,100.0,0.0,0.0,0.0,0.0,3476.714285714286,3049.2,4326.25,4203.5,304.3775,304.92925,314.44025,314.35025,22.0306,20.6741,22.1075,21.584,314.999998,314.999998,324.999988,324.999988,99.55772857142857,99.50758333333333,99.57087142857142,99.54967142857143,0.040000000000000036,-0.1056666666666668,-0.16883333333333334,0.05366666666666667,-0.03999999999999915,-0.03999999999999915,1.4613333333333334,1.4825,38.691,30.213,39.172,35.9,55.426,35.6385,60.6035,53.449,53.412,34.7625,59.156,51.752,52.589,34.324,59.047,51.15866666666666,-0.09650000000000003,-0.07950000000000013,0.109045,0.113695,0.0,217.97500000000002,217.93,214.62666666666667,214.62666666666667,0.0,0.0
31,0.0,0.0,0.0,1.0,1.0,0.0,0.0,1.0,0.0,100.0,1.0,1.1856,26.0,0.0,0.0,0.0,57.999998,0.0,26.0,26.0,26.0,26.0,-0.057375,0.25839999999999996,0.013000000000000001,291.031,-2.7262,-2.733,-1.5908,-1.6425,-170.72,215.9325,190.305625,0.0,0.0,0.0,0.0,0.06259999999999999,-5.498166666666667,-5.498166666666667,-0.5914,-0.6535,-0.044222222222222385,0.665,69.757,-0.039900000000000005,-0.2195,0.08800000000000008,100.0,1.0,1.0,214.93666666666667,0.0,0.0,0.0,0.0,0.0,0.0,0.0,9110.3,0.0,55.0,5.0,251.10000000000002,1.0,0.0,0.0,0.0,0.0,0.0,1.0,0.0,1.5539999999999985,1.5539999999999985,0.0,0.0,1.0,55.0,616.79921,10000.0,85.000001,85.000001,85.000001,85.000001,395.0,0.0,0.0,0.0,1.0,333.33500000000004,51.528999999999996,51.528999999999996,45.486,45.486,34.0,-25.37,23.296666666666667,-33.53333333333333,30.005000000000003,0.0,1781.42,-0.07499999999999929,100.0,29.298000000000002,28.716,45.04,44.201,0.0,0.0,100.0,0.0,0.0,0.0,0.0,3117.857142857143,3111.7,4402.0,4268.4,305.4835,304.937,314.143,314.4165,22.0399,20.6798,22.1183,21.5935,314.999998,314.999998,324.999988,324.999988,99.55774285714286,99.5076,99.57102857142857,99.54982857142858,0.05233333333333334,-0.09266666666666667,-0.13766666666666666,0.0885,-0.023333333333326323,-0.054285714285711606,1.447,1.4525,38.748999999999995,30.2485,39.239000000000004,35.9595,55.413,35.683,60.646,53.5135,53.399,34.803,59.195499999999996,51.8145,52.575,34.363,59.083,51.21933333333333,-0.09550000000000003,-0.07499999999999996,0.10016000000000001,0.11242,0.0,218.345,218.335,214.93666666666667,214.93666666666667,0.0,0.0
32,0.0,0.0,0.0,1.0,1.0,0.0,0.0,1.0,0.0,100.0,1.0,1.1856,26.0,0.0,0.0,0.0,57.999998,0.0,26.0,26.0,26.0,26.0,-0.061875,0.25950000000000006,-0.0367,291.199,-2.6634,-2.7364,-1.6179000000000001,-1.5503,-166.95,215.9225,190.2785,0.0,0.0,0.0,0.0,0.06479999999999997,-5.498166666666667,-5.498166666666667,-0.6079,0.19099999999999995,-0.06366666666666676,0.253,69.892,-0.029500000000000002,-0.2278,0.09200000000000053,100.0,1.0,1.0,215.48666666666668,0.0,0.0,0.0,0.0,0.0,0.0,0.0,9133.7,0.0,55.0,5.0,251.58333333333334,0.0,0.0,0.0,0.0,0.0,0.0,1.0,0.0,1.6080000000000005,1.6080000000000005,0.0,0.0,0.0,55.0,616.79921,10000.0,85.000001,85.000001,85.000001,85.000001,395.0,0.0,0.0,0.0,1.0,166.665,51.224000000000004,51.224000000000004,46.57,46.57,34.0,-25.63,24.058333333333334,-31.91333333333333,28.52,0.0,1781.369,-0.134999999999998,100.0,29.294,28.762,44.573,44.004999999999995,0.0,0.0,100.0,0.0,0.0,0.0,0.0,3258.285714285714,3146.2,4252.5,4242.9,304.927,304.8665,314.64975,314.527,22.0498,20.6859,22.1294,21.6032,314.999998,314.999998,324.999988,324.999988,99.55775714285714,99.50761666666666,99.57118571428572,99.54998571428571,0.06700000000000017,-0.08166666666666678,-0.137,0.0965,-0.03833333333332689,-0.06142857142857139,1.5286666666666666,1.5275,38.811,30.2865,39.309,36.0205,55.400999999999996,35.725,60.68,53.571,53.387,34.842,59.227000000000004,51.87,52.563,34.4,59.1115,51.27333333333333,-0.09750000000000003,-0.07450000000000001,0.11057000000000002,0.10792,0.0,218.775,218.765,215.48666666666668,215.48666666666668,0.0,0.0
33,0.0,0.0,0.0,1.0,1.0,0.0,0.0,1.0,0.0,100.0,1.0,1.1856,26.0,0.0,0.0,0.0,57.999998,0.0,26.0,26.0,26.0,26.0,-0.027625,0.266,-0.029425,291.382,-2.6802,-2.7255,-1.5812,-1.6286,-163.8,215.91,190.255,0.0,0.0,0.0,0.0,0.06663333333333332,-5.498166666666667,-5.498166666666667,-0.6121,-0.365,-0.055333333333333456,0.028000000000000025,70.007,-0.0211,-0.21610000000000001,0.14000000000000057,100.0,1.0,1.0,215.75333333333333,0.0,0.0,0.0,0.0,0.0,0.0,0.0,9145.0,0.0,55.0,5.0,252.0,1.0,0.0,0.0,0.0,0.0,0.0,1.0,0.0,1.6529999999999987,1.6529999999999987,0.0,0.0,1.0,55.0,616.79921,10000.0,85.000001,85.000001,85.000001,85.000001,395.0,0.0,0.0,0.0,1.0,333.33500000000004,51.865,51.865,46.417,46.417,34.0,-25.065,22.47,-32.67,29.785,0.0,1781.321,-0.17999999999999972,100.0,28.931,28.604,44.480000000000004,44.126999999999995,0.0,0.0,100.0,0.0,0.0,0.0,0.0,3198.142857142857,2964.9,4334.25,4242.8,305.3175,305.28825,314.432,314.37125,22.0579,20.6907,22.1388,21.6115,314.999998,314.999998,324.999988,324.999988,99.55775714285714,99.50761666666666,99.57131428571428,99.55012857142857,0.06499999999999995,-0.08333333333333326,-0.14250000000000002,0.09216666666666667,-0.046666666666666856,-0.04571428571428271,1.4883333333333333,1.4905,38.861999999999995,30.317,39.367000000000004,36.0715,55.388999999999996,35.7615,60.714,53.627,53.376000000000005,34.8755,59.259,51.923500000000004,52.551,34.432,59.14,51.32566666666666,-0.09799999999999998,-0.06950000000000012,0.10302000000000001,0.11399500000000001,0.0,219.13,219.10000000000002,215.75333333333333,215.75333333333333,0.0,0.0
34,0.0,0.0,0.0,1.0,1.0,0.0,0.0,1.0,0.0,100.0,1.0,1.1856,26.0,0.0,0.0,0.0,57.999998,0.0,26.0,26.0,26.0,26.0,-0.034875,0.24460000000000015,-0.0562,291.733,-2.6921,-2.6813,-1.6183,-1.5852,-160.23000000000002,215.8975,190.22725,0.0,0.0,0.0,0.0,0.06869999999999998,-5.498166666666667,-5.498166666666667,-0.6422,-0.73,-0.02200000000000024,1.126,70.134,-0.014,-0.225575,-0.002000000000000668,100.0,1.0,1.0,216.21333333333334,0.0,0.0,0.0,0.0,0.0,0.0,0.0,9164.5,0.0,55.0,5.0,252.46,0.0,0.0,0.0,0.0,0.0,0.0,1.0,0.0,1.7040000000000006,1.7040000000000006,0.0,0.0,0.0,55.0,616.79921,10000.0,85.000001,85.000001,85.000001,85.000001,395.0,0.0,0.0,0.0,1.0,166.665,52.016999999999996,52.016999999999996,47.409,47.409,34.0,-23.78,23.703333333333333,-29.876666666666665,29.145,0.0,1781.273,-0.1999999999999993,100.0,28.796,28.156,44.229,44.104,0.0,0.0,100.0,0.0,0.0,0.0,0.0,3091.142857142857,3084.9,4050.625,4204.9,305.2835,305.12825,315.06525,314.501,22.067,20.6963,22.1492,21.6207,314.999998,314.999998,324.999988,324.999988,99.55777142857143,99.50763333333333,99.57145714285714,99.55025714285715,0.08499999999999996,-0.06366666666666676,-0.12983333333333336,0.10083333333333333,-0.03833333333332689,-0.05571428571428072,1.5233333333333334,1.519,38.919,30.3515,39.433,36.1295,55.376999999999995,35.797,60.745,53.6825,53.364999999999995,34.908,59.2875,51.977000000000004,52.539,34.463,59.1655,51.37733333333333,-0.09950000000000003,-0.06400000000000006,0.10676000000000001,0.10927,0.0,219.505,219.49,216.21333333333334,216.21333333333334,0.0,0.0
35,0.0,0.0,0.0,1.0,1.0,0.0,0.0,1.0,0.0,100.0,1.0,1.1856,26.0,0.0,0.0,0.0,57.999998,0.0,26.0,26.0,26.0,26.0,-0.0175,0.23850000000000016,-0.068275,291.748,-2.6931000000000003,-2.6664,-1.5982,-1.5979999999999999,-156.44,215.885,190.195375,0.0,0.0,0.0,0.0,0.07089999999999996,-5.498166666666667,-5.498166666666667,-0.6847000000000001,-0.2929999999999999,-0.033444444444444166,-0.06299999999999994,70.269,-0.0044,-0.23005,-0.1039999999999992,100.0,1.0,1.0,216.70666666666668,0.0,0.0,0.0,0.0,0.0,0.0,0.0,9185.4,0.0,55.0,5.0,252.94333333333333,1.0,0.0,0.0,0.0,0.0,0.0,1.0,0.0,1.7579999999999991,1.7579999999999991,0.0,0.0,1.0,55.0,616.79921,10000.0,85.000001,85.000001,85.000001,85.000001,395.0,0.0,0.0,0.0,1.0,166.665,51.528999999999996,51.528999999999996,46.982,46.982,34.0,-24.1325,26.788333333333334,-28.093333333333334,27.8975,0.0,1781.217,-0.120000000000001,100.0,28.576999999999998,28.504,43.966,43.67,0.0,0.0,100.0,0.0,0.0,0.0,0.0,3152.4285714285716,3378.7,4006.125,3957.8,305.274,304.204,315.121,315.104,22.0765,20.7023,22.1603,21.6304,314.999998,314.999998,324.999988,324.999988,99.55777142857143,99.50765,99.57162857142858,99.55042857142857,0.08499999999999996,-0.05166666666666675,-0.108,0.116,-0.036666666666668846,-0.04571428571428271,1.553,1.5414999999999999,38.977999999999994,30.389499999999998,39.501999999999995,36.19,55.361999999999995,35.839,60.7795,53.7415,53.349999999999994,34.947,59.3195,52.033500000000004,52.522999999999996,34.5005,59.1945,51.43266666666666,-0.09550000000000003,-0.0665,0.10516500000000001,0.10867500000000001,0.0,219.925,219.92000000000002,216.70666666666668,216.70666666666668,0.0,0.0
36,0.0,0.0,0.0,1.0,1.0,0.0,0.0,1.0,0.0,100.0,1.0,1.1856,26.0,0.0,0.0,0.0,57.999998,0.0,26.0,26.0,26.0,26.0,-0.015625,0.2641,0.067425,290.741,-2.641,-2.6855,-1.5521,-1.5921,-153.06,215.87,190.16575,0.0,0.0,0.0,0.0,0.07286666666666652,-5.498166666666667,-5.498166666666667,-0.6645,0.21750000000000003,-0.06911111111111135,0.16799999999999993,70.392,0.003,-0.20172500000000002,-0.03000000000000025,100.0,1.0,1.0,216.82333333333332,0.0,0.0,0.0,0.0,0.0,0.0,0.0,9190.4,0.0,55.0,5.0,253.38333333333333,0.0,0.0,0.0,0.0,0.0,0.0,1.0,0.0,1.806000000000001,1.806000000000001,0.0,0.0,0.0,55.0,616.79921,10000.0,85.000001,85.000001,85.000001,85.000001,395.0,0.0,0.0,0.0,1.0,166.665,51.117,51.117,46.173,46.173,34.0,-23.74,25.608333333333334,-31.436666666666667,33.4375,0.0,1781.171,-0.06500000000000128,100.0,29.164,28.784,44.177,43.979,0.0,0.0,100.0,0.0,0.0,0.0,0.0,3185.142857142857,3239.4,4451.5,4573.1,304.889,304.6395,314.06375,313.665,22.0853,20.7079,22.1702,21.6392,314.999998,314.999998,324.999988,324.999988,99.55778571428571,99.50765,99.57175714285714,99.55055714285714,0.09666666666666668,-0.05333333333333323,-0.10233333333333333,0.11333333333333333,-0.030000000000001137,-0.05142857142856627,1.4336666666666666,1.4295,39.033,30.424,39.564,36.245,55.352000000000004,35.878,60.8135,53.798,53.341,34.983000000000004,59.351,52.088,52.512,34.5345,59.2225,51.48566666666667,-0.08799999999999997,-0.08000000000000007,0.10701000000000001,0.10518500000000001,0.0,220.315,220.32999999999998,216.82333333333332,216.82333333333332,0.0,0.0
