,ABS Active,ABS Enabled,AID Allow Tire Blankets,AID Auto Blip,AID Auto Clutch,AID Auto Shift,AID Fuel Rate,AID Ideal Line,AID Mech Damage,AID Stability,AID Tire Wear Rate,Air Density,Air Temp,Ballast,Best Lap Delta,Best Lap Time,Brake Bias,Brake Pos,Brake Temp FL,Brake Temp FR,Brake Temp RL,Brake Temp RR,CG Accel Lateral,CG Accel Longitudinal,CG Accel Vertical,CG Height,Camber FL,Camber FR,Camber RL,Camber RR,Car Coord X,Car Coord Y,Car Coord Z,Car Damage Front,Car Damage Left,Car Damage Rear,Car Damage Right,Car Pos Norm,Caster FL,Caster FR,Chassis Pitch Angle,Chassis Pitch Rate,Chassis Roll Angle,Chassis Roll Rate,Chassis Velocity X,Chassis Velocity Y,Chassis Velocity Z,Chassis Yaw Rate,Clutch Pos,DRS Active,DRS Available,Drive Train Speed,ERS Heat Charging,ERS Is Charging,ERS Max Energy,ERS Power Level,ERS Recovery Level,Engine Brake Setting,Engine Limiter,Engine RPM,Flags,Fuel Level,Gear,Ground Speed,HR Sample Clock,In Pit,KERS Charge,KERS Deployed Energy,KERS Input,KERS Max Energy,LR Sample Clock,Lap Invalidated,Lap Time,Lap Time2,Last Lap Time,Last Sector Time,MR Sample Clock,Max Fuel,Max Power,Max RPM,Max Sus Travel FL,Max Sus Travel FR,Max Sus Travel RL,Max Sus Travel RR,Max Torque,Max Turbo Boost,Num Tires Off Track,Penalties Enabled,Position,Raw Data Sample Rate,Ride Height FL,Ride Height FR,Ride Height RL,Ride Height RR,Road Temp,Self Align Torque FL,Self Align Torque FR,Self Align Torque RL,Self Align Torque RR,Session Lap Count,Session Time Left,Steering Angle,Surface Grip,Suspension Travel FL,Suspension Travel FR,Suspension Travel RL,Suspension Travel RR,TC Active,TC Enabled,Throttle Pos,Tire Dirt Level FL,Tire Dirt Level FR,Tire Dirt Level RL,Tire Dirt Level RR,Tire Load FL,Tire Load FR,Tire Load RL,Tire Load RR,Tire Loaded Radius FL,Tire Loaded Radius FR,Tire Loaded Radius RL,Tire Loaded Radius RR,Tire Pressure FL,Tire Pressure FR,Tire Pressure RL,Tire Pressure RR,Tire Radius FL,Tire Radius FR,Tire Radius RL,Tire Radius RR,Tire Rubber Grip FL,Tire Rubber Grip FR,Tire Rubber Grip RL,Tire Rubber Grip RR,Tire Slip Angle FL,Tire Slip Angle FR,Tire Slip Angle RL,Tire Slip Angle RR,Tire Slip Ratio FL,Tire Slip Ratio FR,Tire Slip Ratio RL,Tire Slip Ratio RR,Tire Temp Core FL,Tire Temp Core FR,Tire Temp Core RL,Tire Temp Core RR,Tire Temp Inner FL,Tire Temp Inner FR,Tire Temp Inner RL,Tire Temp Inner RR,Tire Temp Middle FL,Tire Temp Middle FR,Tire Temp Middle RL,Tire Temp Middle RR,Tire Temp Outer FL,Tire Temp Outer FR,Tire Temp Outer RL,Tire Temp Outer RR,Toe In FL,Toe In FR,Toe In RL,Toe In RR,Turbo Boost,Wheel Angular Speed FL,Wheel Angular Speed FR,Wheel Angular Speed RL,Wheel Angular Speed RR,Wind Direction,Wind Speed
0,0.0,0.0,0.0,1.0,1.0,0.0,0.0,1.0,0.0,100.0,1.0,1.1856,26.0,0.0,0.0,0.0,57.99999,0.0,26.0,26.0,26.0,26.0,-0.07077777777777783,0.2852000000000001,0.04733333333333333,293.945,-2.72265,-2.654875,-1.5207000000000002,-1.5551,-275.65,216.29500000000002,190.987375,0.0,0.0,0.0,0.0,0.0016,-5.498166666666667,-5.498166666666667,-0.5519000000000001,0.9776666666666667,-0.004444444444444251,-0.42399999999999993,65.536,-0.0339,-0.2162,0.9960000000000004,100.0,1.0,1.0,202.36,0.0,0.0,0.0,0.0,0.0,0.0,0.0,8577.3,0.0,55.0,5.0,235.9,0.0,0.0,0.0,0.0,0.0,0.0,0.0,0.0,0.0030000000000001137,0.0030000000000001137,0.0,0.0,0.0,55.0,616.79921,10000.0,85.0,85.0,85.0,85.0,395.0,0.0,0.0,0.0,1.0,20.0,52.567,52.567,49.561,49.561,34.0,-26.177500000000002,24.016,-29.526666666666664,24.9825,0.0,1782.928,0.7650000000000006,100.0,27.566,27.011,40.655,40.668,0.0,0.0,100.0,0.0,0.0,0.0,0.0,3011.75,3434.1,4050.875,3965.4,305.6925,303.9526666666667,314.9845,314.95575,21.7785,20.5147,21.7808,21.3231,314.99999,314.99999,324.99998,324.99998,99.55892857142857,99.50721666666666,99.56575714285714,99.54568571428571,0.005250000000000199,-0.11633333333333318,-0.1545,0.07116666666666667,-0.06333333333333258,-0.04833333333333201,1.5510000000000002,1.581,37.116,29.217,37.129999999999995,34.2695,56.303,34.4715,59.266999999999996,51.807,54.222,33.6485,57.8885,50.150999999999996,53.394,33.2155,57.8545,49.57,-0.016000000000000014,-0.13600000000000012,0.10481000000000001,0.11452000000000001,0.0,205.375,205.29500000000002,202.36,202.36,0.0,0.0
1,0.0,0.0,0.0,1.0,1.0,0.0,0.0,1.0,0.0,100.0,1.0,1.1856,26.0,0.0,0.0,0.0,57.999998,0.0,26.0,26.0,26.0,26.0,-0.10355555555555551,0.29490000000000016,0.0019333333333333333,292.892,-2.6361499999999998,-2.761875,-1.5304,-1.5497,-272.1,216.29000000000002,190.966,0.0,0.0,0.0,0.0,0.0036666666666666666,-5.498166666666667,-5.498166666666667,-0.5027,-0.5456666666666667,-0.052444444444444294,-0.42799999999999994,65.699,-0.0509,-0.205175,1.3179999999999996,100.0,1.0,1.0,202.54000000000002,0.0,0.0,0.0,0.0,0.0,0.0,0.0,8584.9,0.0,55.0,5.0,236.48666666666668,1.0,0.0,0.0,0.0,0.0,0.0,0.0,0.0,0.05699999999999861,0.05699999999999861,0.0,0.0,1.0,55.0,616.79921,10000.0,85.000001,85.000001,85.000001,85.000001,395.0,0.0,0.0,0.0,1.0,166.665,53.329,53.329,48.309,48.309,34.0,-26.299999999999997,18.474,-33.69,29.8,0.0,1782.874,0.8449999999999989,100.0,27.83,27.193,42.724000000000004,41.805,0.0,0.0,100.0,0.0,0.0,0.0,0.0,3049.875,2727.2,4282.625,4731.9,305.4545,306.1426666666667,314.33925,313.071,21.789,20.5202,21.7923,21.3328,314.999998,314.999998,324.999988,324.999988,99.55894285714285,99.50723333333333,99.56592857142857,99.54584285714286,-0.0022499999999998632,-0.13666666666666671,-0.17566666666666667,0.0455,-0.046666666666666856,-0.051666666666669414,1.4,1.4595,37.181,29.250999999999998,37.202,34.33,56.286,34.515,59.314,51.8755,54.206,33.6885,57.9325,50.216499999999996,53.376999999999995,33.2545,57.894999999999996,49.634,-0.011499999999999955,-0.14000000000000012,0.10368500000000001,0.111615,0.0,205.85500000000002,205.755,202.54000000000002,202.54000000000002,0.0,0.0
2,0.0,0.0,0.0,1.0,1.0,0.0,0.0,1.0,0.0,100.0,1.0,1.1856,26.0,0.0,0.0,0.0,57.999998,0.0,26.0,26.0,26.0,26.0,-0.14111111111111108,0.2884,-0.1024,293.625,-2.59785,-2.79425,-1.4874,-1.6120999999999999,-268.95,216.2825,190.94825,0.0,0.0,0.0,0.0,0.0055000000000000005,-5.498166666666667,-5.498166666666667,-0.5492,0.02300000000000013,-0.048666666666666636,2.529,65.833,-0.06770000000000001,-0.254575,1.5460000000000012,100.0,1.0,1.0,203.39333333333332,0.0,0.0,0.0,0.0,0.0,0.0,0.0,8621.1,0.0,55.0,5.0,236.97,0.0,0.0,0.0,0.0,0.0,0.0,0.0,0.0,0.10500000000000043,0.10500000000000043,0.0,0.0,0.0,55.0,616.79921,10000.0,85.000001,85.000001,85.000001,85.000001,395.0,0.0,0.0,0.0,1.0,333.33500000000004,52.368,52.368,50.079,50.079,34.0,-29.487499999999997,19.82,-28.78666666666666,21.055,0.0,1782.824,0.7349999999999994,100.0,28.482,27.116,42.617000000000004,41.419,0.0,0.0,100.0,0.0,0.0,0.0,0.0,3305.625,2921.4,3775.375,3693.6,304.6065,305.58566666666667,315.5745,315.757,21.7986,20.5248,21.8022,21.3411,314.999998,314.999998,324.999988,324.999988,99.55895714285714,99.50725,99.56605714285715,99.54598571428572,-0.021499999999999853,-0.14733333333333332,-0.20650000000000002,0.025,-0.051666666666669414,-0.03999999999999915,1.6386666666666665,1.6764999999999999,37.241,29.28,37.263,34.382,56.272999999999996,34.554,59.3515,51.9315,54.194,33.7245,57.9675,50.2705,53.364999999999995,33.2885,57.9275,49.68666666666667,-0.012499999999999956,-0.137,0.10054500000000001,0.10856,0.0,206.29500000000002,206.12,203.39333333333332,203.39333333333332,0.0,0.0
3,0.0,0.0,0.0,1.0,1.0,0.0,0.0,1.0,0.0,100.0,1.0,1.1856,26.0,0.0,0.0,0.0,57.999998,0.0,26.0,26.0,26.0,26.0,-0.13577777777777778,0.31020000000000003,0.07356666666666667,293.396,-2.7304,-2.6892500000000004,-1.5151,-1.5885,-265.78,216.26999999999998,190.92975,0.0,0.0,0.0,0.0,0.007333333333333333,-5.498166666666667,-5.498166666666667,-0.5131,0.3653333333333333,-0.004666666666666597,0.29600000000000004,65.976,-0.0838,-0.2033,1.2379999999999995,100.0,1.0,1.0,203.55,0.0,0.0,0.0,0.0,0.0,0.0,0.0,8627.8,0.0,55.0,5.0,237.48333333333335,1.0,0.0,0.0,0.0,0.0,0.0,0.0,0.0,0.1529999999999987,0.1529999999999987,0.0,0.0,1.0,55.0,616.79921,10000.0,85.000001,85.000001,85.000001,85.000001,395.0,0.0,0.0,0.0,1.0,333.33500000000004,53.36,53.36,48.203,48.203,34.0,-25.63,19.22,-34.013333333333335,25.017500000000002,0.0,1782.777,0.5949999999999989,100.0,28.021,27.051000000000002,42.43,41.436,0.0,0.0,100.0,0.0,0.0,0.0,0.0,2866.5,2930.7,4263.5,4240.5,306.0325,305.5156666666667,314.39575,314.36475,21.8078,20.5297,21.812,21.3495,314.999998,314.999998,324.999988,324.999988,99.55895714285714,99.50726666666667,99.56618571428571,99.5461,-0.013749999999999929,-0.14266666666666672,-0.19766666666666666,0.021333333333333333,-0.03499999999999659,-0.046666666666666856,1.4926666666666666,1.522,37.299,29.310499999999998,37.325,34.4345,56.259,34.592,59.3855,51.986000000000004,54.18,33.759,57.999,50.323,53.35,33.322,57.9565,49.73833333333333,-0.02949999999999997,-0.12349999999999994,0.09622000000000001,0.108575,0.0,206.735,206.61,203.55,203.55,0.0,0.0
4,0.0,0.0,0.0,1.0,1.0,0.0,0.0,1.0,0.0,100.0,1.0,1.1856,26.0,0.0,0.0,0.0,57.999998,0.0,26.0,26.0,26.0,26.0,-0.1541111111111111,0.2884,-0.03846666666666667,293.61,-2.65605,-2.745125,-1.5246,-1.5998,-262.22,216.255,190.908875,0.0,0.0,0.0,0.0,0.009433333333333334,-5.498166666666667,-5.498166666666667,-0.5467000000000001,-0.7243333333333333,-0.07799999999999985,-0.569,66.131,-0.0849,-0.24015,1.096,100.0,1.0,1.0,204.17000000000002,0.0,0.0,0.0,0.0,0.0,0.0,0.0,8654.1,0.0,55.0,5.0,238.04000000000002,0.0,0.0,0.0,0.0,0.0,0.0,0.0,0.0,0.20700000000000074,0.20700000000000074,0.0,0.0,0.0,55.0,616.79921,10000.0,85.000001,85.000001,85.000001,85.000001,395.0,0.0,0.0,0.0,1.0,166.665,52.948,52.948,48.874,48.874,34.0,-28.822499999999998,20.060000000000002,-32.263333333333335,20.87,0.0,1782.725,0.5500000000000007,100.0,27.873,26.83,42.841,41.468,0.0,0.0,100.0,0.0,0.0,0.0,0.0,3217.5,2986.2,4034.875,3681.3,305.062,305.36966666666666,314.91925,315.6815,21.8181,20.5351,21.8233,21.3589,314.999998,314.999998,324.999988,324.999988,99.55895714285714,99.50728333333333,99.56634285714286,99.54624285714286,-0.020499999999999963,-0.1439999999999999,-0.20933333333333334,0.018833333333333334,-0.045000000000001705,-0.054999999999999716,1.5566666666666666,1.617,37.363,29.3445,37.396,34.493,56.239999999999995,34.635999999999996,59.429,52.048,54.162,33.7995,58.04,50.382,53.331,33.3605,57.9945,49.79633333333334,-0.02400000000000002,-0.12049999999999983,0.10765500000000001,0.10179,0.0,207.16500000000002,207.075,204.17000000000002,204.17000000000002,0.0,0.0
5,0.0,0.0,0.0,1.0,1.0,0.0,0.0,1.0,0.0,100.0,1.0,1.1856,26.0,0.0,0.0,0.0,57.999998,0.0,26.0,26.0,26.0,26.0,-0.12311111111111106,0.3125,-0.0098,293.564,-2.6748,-2.761875,-1.5108000000000001,-1.5846,-258.84,216.2375,190.8885,0.0,0.0,0.0,0.0,0.0114,-5.498166666666667,-5.498166666666667,-0.535,0.3596666666666668,-0.08111111111111136,-0.21499999999999986,66.27799999999999,-0.08850000000000001,-0.2131,1.1080000000000005,100.0,1.0,1.0,204.5366666666667,0.0,0.0,0.0,0.0,0.0,0.0,0.0,8669.6,0.0,55.0,5.0,238.57,1.0,0.0,0.0,0.0,0.0,0.0,0.0,0.0,0.2579999999999991,0.2579999999999991,0.0,0.0,1.0,55.0,616.79921,10000.0,85.000001,85.000001,85.000001,85.000001,395.0,0.0,0.0,0.0,1.0,166.665,53.406,53.406,48.888999999999996,48.888999999999996,34.0,-28.2625,19.098,-33.946666666666665,22.5375,0.0,1782.672,0.14499999999999957,100.0,27.782,26.796,42.577,41.249,0.0,0.0,100.0,0.0,0.0,0.0,0.0,3201.0,2770.8,4213.0,4061.8,305.2055,305.90866666666665,314.63575,314.74275,21.8281,20.5402,21.8338,21.3677,314.999998,314.999998,324.999988,324.999988,99.55895714285714,99.5073,99.56648571428572,99.5464,-0.010000000000000009,-0.1323333333333332,-0.2115,0.0005,-0.045000000000001705,-0.04333333333332945,1.5030000000000001,1.5675,37.425,29.3765,37.461,34.548,56.226,34.676,59.4685,52.105000000000004,54.147999999999996,33.837,58.077,50.437,53.317,33.396,58.0285,49.849666666666664,-0.058499999999999996,-0.08850000000000025,0.101985,0.10211,0.0,207.65,207.575,204.5366666666667,204.5366666666667,0.0,0.0
6,0.0,0.0,0.0,1.0,1.0,0.0,0.0,1.0,0.0,100.0,1.0,1.1856,26.0,0.0,0.0,0.0,57.999998,0.0,26.0,26.0,26.0,26.0,-0.11466666666666658,0.28980000000000006,0.008533333333333334,293.427,-2.63685,-2.742125,-1.5549,-1.5823,-255.85,216.2175,190.870375,0.0,0.0,0.0,0.0,0.013133333333333335,-5.498166666666667,-5.498166666666667,-0.5316000000000001,0.08266666666666667,-0.06088888888888855,0.9179999999999999,66.407,-0.0835,-0.215425,0.7060000000000013,100.0,1.0,1.0,204.93666666666667,0.0,0.0,0.0,0.0,0.0,0.0,0.0,8686.5,0.0,55.0,5.0,239.0366666666667,0.0,0.0,0.0,0.0,0.0,0.0,0.0,0.0,0.3030000000000008,0.3030000000000008,0.0,0.0,0.0,55.0,616.79921,10000.0,85.000001,85.000001,85.000001,85.000001,395.0,0.0,0.0,0.0,1.0,166.665,53.055,53.055,48.737,48.737,34.0,-26.46,21.232,-32.7,23.785,0.0,1782.629,0.010000000000001563,100.0,27.886,26.752,42.747,41.498000000000005,0.0,0.0,100.0,0.0,0.0,0.0,0.0,3107.25,3009.3,4077.875,4052.0,305.2595,305.306,314.88775,314.8415,21.8368,20.5448,21.8431,21.3757,314.999998,314.999998,324.999988,324.999988,99.55895714285714,99.50731666666667,99.56661428571428,99.54651428571428,0.009250000000000203,-0.11933333333333329,-0.201,0.0285,-0.030000000000001137,-0.046666666666666856,1.5306666666666666,1.5745,37.480000000000004,29.4045,37.519999999999996,34.598,56.212,34.7115,59.5035,52.159,54.135,33.8695,58.1095,50.4885,53.303,33.4275,58.0585,49.900333333333336,-0.07299999999999995,-0.08150000000000013,0.10279,0.10358,0.0,208.025,207.96,204.93666666666667,204.93666666666667,0.0,0.0
7,0.0,0.0,0.0,1.0,1.0,0.0,0.0,1.0,0.0,100.0,1.0,1.1856,26.0,0.0,0.0,0.0,57.999998,0.0,26.0,26.0,26.0,26.0,-0.06699999999999995,0.2743,0.048433333333333335,293.213,-2.6113,-2.75275,-1.5150000000000001,-1.6235,-252.26,216.1925,190.84875,0.0,0.0,0.0,0.0,0.0152,-5.498166666666667,-5.498166666666667,-0.5353,0.062000000000000055,-0.04811111111111144,1.189,66.561,-0.06570000000000001,-0.225325,0.2900000000000009,100.0,1.0,1.0,205.39333333333332,0.0,0.0,0.0,0.0,0.0,0.0,0.0,8705.9,0.0,55.0,5.0,239.59,1.0,0.0,0.0,0.0,0.0,0.0,0.0,0.0,0.3569999999999993,0.3569999999999993,0.0,0.0,1.0,55.0,616.79921,10000.0,85.000001,85.000001,85.000001,85.000001,395.0,0.0,0.0,0.0,1.0,166.665,52.795,52.795,48.843,48.843,34.0,-25.67,22.844,-30.409999999999997,26.080000000000002,0.0,1782.574,-0.245000000000001,100.0,28.005,26.866,42.777,41.739000000000004,0.0,0.0,100.0,0.0,0.0,0.0,0.0,3159.375,3031.9,4024.25,4079.8,305.052,305.14433333333335,314.971,314.71175,21.8473,20.5503,21.8543,21.3852,314.999998,314.999998,324.999988,324.999988,99.55897142857143,99.50731666666667,99.56677142857143,99.54665714285714,0.03575000000000017,-0.08999999999999986,-0.17333333333333334,0.05433333333333334,-0.023333333333326323,-0.03833333333332689,1.5270000000000001,1.5405,37.546,29.439,37.589,34.6575,56.196,34.7535,59.545,52.223,54.120000000000005,33.908,58.147999999999996,50.55,53.287,33.464,58.094,49.96033333333334,-0.09099999999999997,-0.05449999999999999,0.1082,0.11278500000000001,0.0,208.48000000000002,208.45,205.39333333333332,205.39333333333332,0.0,0.0
8,0.0,0.0,0.0,1.0,1.0,0.0,0.0,1.0,0.0,100.0,1.0,1.1856,26.0,0.0,0.0,0.0,57.999998,0.0,26.0,26.0,26.0,26.0,-0.03533333333333333,0.2932000000000001,-0.03743333333333333,293.488,-2.6982,-2.7119999999999997,-1.4994,-1.5749,-248.87,216.16500000000002,190.828125,0.0,0.0,0.0,0.0,0.0172,-5.498166666666667,-5.498166666666667,-0.5375,-0.5373333333333333,-0.033666666666666956,-0.5310000000000001,66.707,-0.0441,-0.21727500000000002,-0.05600000000000005,100.0,1.0,1.0,205.77666666666667,0.0,0.0,0.0,0.0,0.0,0.0,0.0,8722.1,0.0,55.0,5.0,240.11666666666667,0.0,0.0,0.0,0.0,0.0,0.0,0.0,0.0,0.40800000000000125,0.40800000000000125,0.0,0.0,0.0,55.0,616.79921,10000.0,85.000001,85.000001,85.000001,85.000001,395.0,0.0,0.0,0.0,1.0,166.665,53.604,53.604,48.233000000000004,48.233000000000004,34.0,-24.1475,22.148,-30.523333333333333,26.6125,0.0,1782.524,-0.3299999999999983,100.0,27.409,26.94,42.655,41.961,0.0,0.0,100.0,0.0,0.0,0.0,0.0,3000.75,2923.0,4157.5,4079.2,305.852,305.42466666666667,314.689,314.6275,21.857,20.5555,21.8648,21.394199999999998,314.999998,314.999998,324.999988,324.999988,99.55897142857143,99.50733333333334,99.56691428571429,99.5468,0.045500000000000096,-0.07633333333333314,-0.15733333333333335,0.07383333333333333,-0.05833333333333002,-0.045000000000001705,1.5333333333333334,1.5205,37.605999999999995,29.4715,37.655,34.714,56.179,34.792,59.584,52.2825,54.104,33.943,58.1845,50.6075,53.271,33.498,58.1275,50.016666666666666,-0.10050000000000003,-0.044500000000000206,0.109365,0.10648500000000001,0.0,208.91500000000002,208.905,205.77666666666667,205.77666666666667,0.0,0.0
9,0.0,0.0,0.0,1.0,1.0,0.0,0.0,1.0,0.0,100.0,1.0,1.1856,26.0,0.0,0.0,0.0,57.999998,0.0,26.0,26.0,26.0,26.0,-0.029888888888888854,0.28370000000000006,0.027,293.137,-2.6835,-2.721875,-1.553,-1.5552000000000001,-245.86,216.14249999999998,190.8095,0.0,0.0,0.0,0.0,0.018933333333333337,-5.498166666666667,-5.498166666666667,-0.5437000000000001,0.6126666666666667,-0.03277777777777802,0.806,66.832,-0.024900000000000002,-0.21760000000000002,-0.14399999999999924,100.0,1.0,1.0,206.29000000000002,0.0,0.0,0.0,0.0,0.0,0.0,0.0,8743.9,0.0,55.0,5.0,240.56666666666666,1.0,0.0,0.0,0.0,0.0,0.0,0.0,0.0,0.4529999999999994,0.4529999999999994,0.0,0.0,1.0,55.0,616.79921,10000.0,85.000001,85.000001,85.000001,85.000001,395.0,0.0,0.0,0.0,1.0,333.33500000000004,52.382999999999996,52.382999999999996,49.21,49.21,34.0,-26.005,24.904,-27.733333333333334,27.0125,0.0,1782.478,-0.46999999999999886,100.0,27.985,27.219,42.417,41.873000000000005,0.0,0.0,100.0,0.0,0.0,0.0,0.0,3291.25,3109.7,3959.5,4067.3,304.775,304.9436666666667,315.2125,314.81525,21.8657,20.560200000000002,21.874,21.4021,314.999998,314.999998,324.999988,324.999988,99.55898571428571,99.50735,99.56702857142857,99.54692857142857,0.06824999999999992,-0.04899999999999993,-0.126,0.09666666666666668,-0.045000000000001705,-0.05333333333332746,1.5696666666666665,1.571,37.661,29.5015,37.713,34.763,56.168,34.826499999999996,59.6155,52.334,54.093,33.9755,58.213499999999996,50.657,53.259,33.5285,58.153999999999996,50.065,-0.11099999999999999,-0.04300000000000015,0.099375,0.10614000000000001,0.0,209.31,209.315,206.29000000000002,206.29000000000002,0.0,0.0
10,0.0,0.0,0.0,1.0,1.0,0.0,0.0,1.0,0.0,100.0,1.0,1.1856,26.0,0.0,0.0,0.0,57.999998,0.0,26.0,26.0,26.0,26.0,0.0067777777777777715,0.29700000000000015,-0.009366666666666667,292.938,-2.6612,-2.70125,-1.5352000000000001,-1.5333999999999999,-242.45,216.115,190.78875,0.0,0.0,0.0,0.0,0.020900000000000002,-5.498166666666667,-5.498166666666667,-0.5188,-0.3843333333333333,0.0076666666666667105,0.3639999999999999,66.979,-0.0073,-0.208175,-0.47799999999999976,100.0,1.0,1.0,206.51333333333332,0.0,0.0,0.0,0.0,0.0,0.0,0.0,8753.4,0.0,55.0,5.0,241.09333333333333,0.0,0.0,0.0,0.0,0.0,0.0,1.0,0.0,0.5040000000000013,0.5040000000000013,0.0,0.0,0.0,55.0,616.79921,10000.0,85.000001,85.000001,85.000001,85.000001,395.0,0.0,0.0,0.0,1.0,166.665,53.421,53.421,47.607,47.607,34.0,-21.005,23.098,-30.36,29.39,0.0,1782.427,-0.625,100.0,27.749,27.39,42.769999999999996,42.724000000000004,0.0,0.0,100.0,0.0,0.0,0.0,0.0,2884.375,2869.7,4325.125,4278.9,306.096,305.54533333333336,314.292,314.15475,21.8754,20.5655,21.8847,21.4113,314.999998,314.999998,324.999988,324.999988,99.55898571428571,99.50735,99.56717142857143,99.54707142857143,0.09324999999999983,-0.03833333333333311,-0.11233333333333333,0.10350000000000001,-0.04833333333333201,-0.04333333333332945,1.475,1.474,37.721000000000004,29.5345,37.778999999999996,34.820499999999996,56.155,34.8635,59.656,52.397999999999996,54.081,34.0095,58.251,50.718,53.245999999999995,33.561,58.1885,50.125,-0.128,-0.026000000000000245,0.10144500000000001,0.10183500000000001,0.0,209.75,209.775,206.51333333333332,206.51333333333332,0.0,0.0
11,0.0,0.0,0.0,1.0,1.0,0.0,0.0,1.0,0.0,100.0,1.0,1.1856,26.0,0.0,0.0,0.0,57.999998,0.0,26.0,26.0,26.0,26.0,0.05488888888888899,0.2662,-0.10616666666666667,293.51800000000003,-2.7121,-2.68325,-1.5906,-1.5227,-238.82999999999998,216.085,190.76675,0.0,0.0,0.0,0.0,0.022600000000000002,-5.498166666666667,-5.498166666666667,-0.5622,-0.06399999999999995,0.031444444444444386,-0.7600000000000002,67.126,0.0137,-0.23620000000000002,-0.6299999999999999,100.0,1.0,1.0,207.29666666666668,0.0,0.0,0.0,0.0,0.0,0.0,0.0,8786.6,0.0,55.0,5.0,241.62333333333333,1.0,0.0,0.0,0.0,0.0,0.0,1.0,0.0,0.5579999999999998,0.5579999999999998,0.0,0.0,1.0,55.0,616.79921,10000.0,85.000001,85.000001,85.000001,85.000001,395.0,0.0,0.0,0.0,1.0,166.665,52.826,52.826,49.271,49.271,34.0,-22.525,25.612000000000002,-24.186666666666667,26.94,0.0,1782.373,-0.6750000000000007,100.0,27.494,27.625,42.245000000000005,42.583,0.0,0.0,100.0,0.0,0.0,0.0,0.0,3079.5,3085.5,3728.5,3856.7,305.5835,304.8496666666667,315.83375,315.26925,21.8855,20.5712,21.8956,21.4209,314.999998,314.999998,324.999988,324.999988,99.559,99.50735,99.56732857142858,99.54721428571429,0.10599999999999987,-0.023333333333333206,-0.088,0.14083333333333334,-0.06333333333333258,-0.05333333333332746,1.642,1.604,37.784,29.57,37.848,34.8805,56.14,34.9035,59.691,52.460499999999996,54.066,34.046,58.284,50.778,53.230000000000004,33.5965,58.2185,50.184,-0.13049999999999995,-0.02499999999999991,0.10057500000000001,0.10471000000000001,0.0,210.195,210.23000000000002,207.29666666666668,207.29666666666668,0.0,0.0
12,0.0,0.0,0.0,1.0,1.0,0.0,0.0,1.0,0.0,100.0,1.0,1.1856,26.0,0.0,0.0,0.0,57.999998,0.0,26.0,26.0,26.0,26.0,0.057333333333333236,0.27960000000000007,0.042133333333333335,292.847,-2.76045,-2.678875,-1.5565,-1.5239,-235.6,216.06,190.745875,0.0,0.0,0.0,0.0,0.025466666666666665,-5.498166666666667,-5.498166666666667,-0.5458000000000001,0.2833333333333332,0.017222222222222028,-0.8399999999999999,67.262,0.0281,-0.20650000000000002,-0.6179999999999994,100.0,1.0,1.0,207.46666666666667,0.0,0.0,0.0,0.0,0.0,0.0,0.0,8793.7,0.0,55.0,5.0,242.11666666666667,0.0,0.0,0.0,0.0,0.0,0.0,1.0,0.0,0.6059999999999981,0.6059999999999981,0.0,0.0,0.0,55.0,616.79921,10000.0,85.000001,85.000001,85.000001,85.000001,395.0,0.0,0.0,0.0,1.0,166.665,52.689,52.689,47.867,47.867,34.0,-23.105,26.228,-27.746666666666663,30.7175,0.0,1782.325,-0.6750000000000007,100.0,27.413,27.799,42.268,42.603,0.0,0.0,100.0,0.0,0.0,0.0,0.0,3138.25,3116.3,4249.625,4197.5,305.452,304.77933333333334,314.5635,314.41075,21.8944,20.5764,21.9055,21.4294,314.999998,314.999998,324.999988,324.999988,99.55901428571428,99.50735,99.56745714285714,99.54735714285714,0.11350000000000016,-0.014000000000000012,-0.07566666666666667,0.147,-0.041666666666671404,-0.04833333333333201,1.5223333333333335,1.494,37.84,29.6025,37.909,34.9335,56.128,34.939,59.7265,52.516999999999996,54.055,34.079,58.317,50.833,53.218,33.628,58.2485,50.23766666666667,-0.12849999999999995,-0.026499999999999968,0.10447500000000001,0.11114500000000001,0.0,210.635,210.675,207.46666666666667,207.46666666666667,0.0,0.0
13,0.0,0.0,0.0,1.0,1.0,0.0,0.0,1.0,0.0,100.0,1.0,1.1856,26.0,0.0,0.0,0.0,57.999998,0.0,26.0,26.0,26.0,26.0,0.0692222222222223,0.29520000000000013,0.05623333333333334,292.496,-2.7331,-2.675125,-1.5896,-1.5127000000000002,-232.17000000000002,216.035,190.724125,0.0,0.0,0.0,0.0,0.0269,-5.498166666666667,-5.498166666666667,-0.5399,-0.08533333333333337,0.022333333333333316,1.0739999999999998,67.405,0.0379,-0.21760000000000002,-0.9039999999999999,100.0,1.0,1.0,207.86333333333334,0.0,0.0,0.0,0.0,0.0,0.0,0.0,8810.5,0.0,55.0,5.0,242.62666666666667,1.0,0.0,0.0,0.0,0.0,0.0,1.0,0.0,0.657,0.657,0.0,0.0,1.0,55.0,616.79921,10000.0,85.000001,85.000001,85.000001,85.000001,395.0,0.0,0.0,0.0,1.0,166.665,52.399,52.399,47.882,47.882,34.0,-20.81,28.134,-26.596666666666664,33.442499999999995,0.0,1782.274,-0.8299999999999983,100.0,27.881,27.822,42.626,43.019999999999996,0.0,0.0,100.0,0.0,0.0,0.0,0.0,3063.5,3189.0,4132.125,4359.2,305.459,304.7253333333333,314.72375,314.08225,21.9041,20.5819,21.916,21.4386,314.999998,314.999998,324.999988,324.999988,99.55904285714286,99.50736666666667,99.5676,99.54751428571429,0.15149999999999997,0.020000000000000018,-0.058833333333333335,0.17400000000000002,-0.04833333333333201,-0.051666666666669414,1.5136666666666665,1.4795,37.900999999999996,29.637,37.974999999999994,34.9915,56.117999999999995,34.9775,59.7645,52.5805,54.045,34.1145,58.3525,50.894,53.207,33.662,58.2805,50.297333333333334,-0.14649999999999996,-0.006000000000000227,0.10967500000000001,0.109835,0.0,211.055,211.11,207.86333333333334,207.86333333333334,0.0,0.0
14,0.0,0.0,0.0,1.0,1.0,0.0,0.0,1.0,0.0,100.0,1.0,1.1856,26.0,0.0,0.0,0.0,57.999998,0.0,26.0,26.0,26.0,26.0,0.10533333333333328,0.28300000000000014,-0.015166666666666667,292.816,-2.73665,-2.61275,-1.6006,-1.5097,-228.73,216.0125,190.703,0.0,0.0,0.0,0.0,0.028900000000000002,-5.498166666666667,-5.498166666666667,-0.549,-0.139,0.052000000000000046,-0.137,67.544,0.053000000000000005,-0.228275,-0.984,100.0,1.0,1.0,208.38333333333333,0.0,0.0,0.0,0.0,0.0,0.0,0.0,8832.7,0.0,55.0,5.0,243.13,0.0,0.0,0.0,0.0,0.0,0.0,1.0,0.0,0.7079999999999984,0.7079999999999984,0.0,0.0,0.0,55.0,616.79921,10000.0,85.000001,85.000001,85.000001,85.000001,395.0,0.0,0.0,0.0,1.0,166.665,52.612,52.612,48.111,48.111,34.0,-20.5975,27.336,-25.196666666666665,31.6225,0.0,1782.223,-0.9100000000000001,100.0,27.527,28.015,42.43,43.289,0.0,0.0,100.0,0.0,0.0,0.0,0.0,3022.875,3173.7,3982.875,4167.8,305.7565,304.60966666666667,315.1715,314.48425,21.9136,20.5875,21.9265,21.4478,314.999998,314.999998,324.999988,324.999988,99.55905714285714,99.50736666666667,99.56774285714286,99.54764285714286,0.14550000000000018,0.013333333333333197,-0.05616666666666666,0.17483333333333334,-0.05333333333332746,-0.04833333333333201,1.5543333333333333,1.5105,37.96,29.6715,38.041,35.0485,56.107,35.015,59.8005,52.641999999999996,54.035,34.1495,58.3855,50.9535,53.196,33.695499999999996,58.3105,50.355666666666664,-0.14600000000000002,-0.015000000000000124,0.10967500000000001,0.11437000000000001,0.0,211.48000000000002,211.535,208.38333333333333,208.38333333333333,0.0,0.0
15,0.0,0.0,0.0,1.0,1.0,0.0,0.0,1.0,0.0,100.0,1.0,1.1856,26.0,0.0,0.0,0.0,57.999998,0.0,26.0,26.0,26.0,26.0,0.11099999999999999,0.28259999999999996,0.014,292.816,-2.7117,-2.575,-1.6315,-1.453,-225.69,215.995,190.683875,0.0,0.0,0.0,0.0,0.03066666666666667,-5.498166666666667,-5.498166666666667,-0.5393,0.29233333333333333,0.0835555555555556,1.0499999999999998,67.668,0.0641,-0.208325,-1.186,100.0,1.0,1.0,208.73666666666668,0.0,0.0,0.0,0.0,0.0,0.0,0.0,8847.6,0.0,55.0,5.0,243.57666666666665,1.0,0.0,0.0,0.0,0.0,0.0,1.0,0.0,0.7530000000000001,0.7530000000000001,0.0,0.0,1.0,55.0,616.79921,10000.0,85.000001,85.000001,85.000001,85.000001,395.0,0.0,0.0,0.0,1.0,333.33500000000004,52.826,52.826,48.172,48.172,34.0,-17.5175,28.562,-24.13666666666667,34.1525,0.0,1782.177,-0.9800000000000004,100.0,27.698,27.903,42.306,43.264,0.0,0.0,100.0,0.0,0.0,0.0,0.0,2791.375,3232.7,3938.75,4402.3,306.2375,304.602,315.25575,314.01875,21.922,20.5924,21.9357,21.4559,314.999998,314.999998,324.999988,324.999988,99.55907142857143,99.50736666666667,99.56787142857142,99.54778571428571,0.1772499999999999,0.04200000000000026,-0.0325,0.19866666666666666,-0.030000000000001137,-0.06499999999999773,1.5516666666666667,1.5035,38.013,29.7025,38.098,35.099000000000004,56.099000000000004,35.0495,59.8305,52.6975,54.027,34.1815,58.4135,51.0065,53.186,33.726,58.336,50.408,-0.15600000000000003,-0.000500000000000167,0.10642000000000001,0.10788500000000001,0.0,211.86,211.96,208.73666666666668,208.73666666666668,0.0,0.0
16,0.0,0.0,0.0,1.0,1.0,0.0,0.0,1.0,0.0,100.0,1.0,1.1856,26.0,0.0,0.0,0.0,57.999998,0.0,26.0,26.0,26.0,26.0,0.11855555555555575,0.26859999999999995,-0.0102,292.816,-2.8015,-2.5865,-1.5994000000000002,-1.5162,-222.03,215.975,190.6605,0.0,0.0,0.0,0.0,0.0328,-5.498166666666667,-5.498166666666667,-0.5626,-0.6923333333333332,0.06822222222222218,0.09899999999999998,67.816,0.0762,-0.22690000000000002,-1.2359999999999998,100.0,1.0,1.0,209.21,0.0,0.0,0.0,0.0,0.0,0.0,0.0,8867.7,0.0,55.0,5.0,244.11,0.0,0.0,0.0,0.0,0.0,0.0,1.0,0.0,0.8069999999999986,0.8069999999999986,0.0,0.0,0.0,55.0,616.79921,10000.0,85.000001,85.000001,85.000001,85.000001,395.0,0.0,0.0,0.0,1.0,166.665,52.582,52.582,47.958,47.958,34.0,-19.87,29.742,-22.86333333333333,33.629999999999995,0.0,1782.124,-0.884999999999998,100.0,27.347,27.999,42.507,43.408,0.0,0.0,100.0,0.0,0.0,0.0,0.0,2993.75,3336.8,3908.625,4140.1,305.846,304.33433333333335,315.29325,314.5755,21.9318,20.5983,21.9468,21.4656,314.999998,314.999998,324.999988,324.999988,99.55908571428571,99.50736666666667,99.56802857142857,99.54792857142857,0.17125000000000012,0.04366666666666674,-0.02,0.21866666666666665,-0.03499999999999659,-0.046666666666666856,1.5683333333333334,1.51,38.074,29.7395,38.168,35.16,56.085,35.091499999999996,59.87,52.7625,54.013,34.22,58.4495,51.0695,53.172,33.7635,58.369,50.47,-0.14200000000000002,-0.01200000000000001,0.10793000000000001,0.11285500000000001,0.0,212.28,212.35000000000002,209.21,209.21,0.0,0.0
17,0.0,0.0,0.0,1.0,1.0,0.0,0.0,1.0,0.0,100.0,1.0,1.1856,26.0,0.0,0.0,0.0,57.999998,0.0,26.0,26.0,26.0,26.0,0.125,0.2793000000000001,0.021500000000000002,292.389,-2.7637,-2.5637499999999998,-1.642,-1.4775,-218.56,215.96,190.637875,0.0,0.0,0.0,0.0,0.034800000000000005,-5.498166666666667,-5.498166666666667,-0.5491,0.44866666666666677,0.046333333333333115,-0.625,67.955,0.0809,-0.20555,-1.0920000000000005,100.0,1.0,1.0,209.57,0.0,0.0,0.0,0.0,0.0,0.0,0.0,8882.9,0.0,55.0,5.0,244.60666666666668,1.0,0.0,0.0,0.0,0.0,0.0,1.0,0.0,0.8580000000000005,0.8580000000000005,0.0,0.0,1.0,55.0,616.79921,10000.0,85.000001,85.000001,85.000001,85.000001,395.0,0.0,0.0,0.0,1.0,166.665,52.382999999999996,52.382999999999996,47.638,47.638,34.0,-20.325,27.336,-26.876666666666665,34.115,0.0,1782.073,-0.9649999999999999,100.0,27.7,28.41,42.285,43.493,0.0,0.0,100.0,0.0,0.0,0.0,0.0,3112.875,3095.1,4307.625,4305.1,305.547,304.88966666666664,314.5055,314.21575,21.9413,20.604,21.9572,21.4748,314.999998,314.999998,324.999988,324.999988,99.55911428571429,99.50738333333334,99.56815714285715,99.54808571428572,0.17249999999999988,0.04400000000000004,-0.0305,0.20516666666666666,-0.03999999999999915,-0.036666666666668846,1.5296666666666665,1.478,38.132999999999996,29.775,38.233000000000004,35.217,56.077,35.1325,59.9045,52.824,54.004999999999995,34.257999999999996,58.482,51.129,53.163,33.8,58.397999999999996,50.528,-0.15249999999999997,-0.0034999999999998366,0.11336500000000001,0.11180500000000002,0.0,212.76,212.82,209.57,209.57,0.0,0.0
18,0.0,0.0,0.0,1.0,1.0,0.0,0.0,1.0,0.0,100.0,1.0,1.1856,26.0,0.0,0.0,0.0,57.999998,0.0,26.0,26.0,26.0,26.0,0.12311111111111117,0.2774000000000001,-0.013633333333333334,292.496,-2.79485,-2.541,-1.6562000000000001,-1.4226,-215.5,215.95,190.618125,0.0,0.0,0.0,0.0,0.03656666666666667,-5.498166666666667,-5.498166666666667,-0.5591,-0.511,0.0735555555555556,1.18,68.077,0.08070000000000001,-0.22212500000000002,-1.2579999999999991,100.0,1.0,1.0,209.97333333333333,0.0,0.0,0.0,0.0,0.0,0.0,0.0,8900.0,0.0,55.0,5.0,245.05,0.0,0.0,0.0,0.0,0.0,0.0,1.0,0.0,0.9029999999999987,0.9029999999999987,0.0,0.0,0.0,55.0,616.79921,10000.0,85.000001,85.000001,85.000001,85.000001,395.0,0.0,0.0,0.0,1.0,166.665,52.399,52.399,47.684,47.684,34.0,-18.7675,30.45,-24.21666666666667,32.2625,0.0,1782.028,-1.245000000000001,100.0,27.596,28.122,42.678,43.8,0.0,0.0,100.0,0.0,0.0,0.0,0.0,2979.5,3363.2,3995.875,4225.3,305.83,304.30266666666665,315.139,314.45275,21.9496,20.609,21.9665,21.483,314.999998,314.999998,324.999988,324.999988,99.55912857142857,99.5074,99.5683,99.54821428571428,0.19474999999999998,0.06466666666666665,-0.02016666666666667,0.20316666666666666,-0.03166666666666629,-0.05333333333332746,1.5626666666666666,1.5185,38.185,29.805999999999997,38.291,35.2685,56.069,35.168,59.9375,52.8805,53.997,34.291,58.5125,51.183,53.153,33.8315,58.4255,50.58133333333333,-0.17149999999999999,0.01649999999999996,0.10145000000000001,0.10500000000000001,0.0,213.09,213.17000000000002,209.97333333333333,209.97333333333333,0.0,0.0
19,0.0,0.0,0.0,1.0,1.0,0.0,0.0,1.0,0.0,100.0,1.0,1.1856,26.0,0.0,0.0,0.0,57.999998,0.0,26.0,26.0,26.0,26.0,0.16588888888888897,0.28700000000000014,0.02816666666666667,291.977,-2.7727,-2.523625,-1.6748,-1.4023,-212.03,215.9425,190.595625,0.0,0.0,0.0,0.0,0.0386,-5.498166666666667,-5.498166666666667,-0.5499,0.8176666666666668,0.08444444444444432,-0.46799999999999997,68.214,0.09040000000000001,-0.2099,-1.6059999999999999,100.0,1.0,1.0,210.38333333333333,0.0,0.0,0.0,0.0,0.0,0.0,0.0,8917.3,0.0,55.0,5.0,245.54000000000002,1.0,0.0,0.0,0.0,0.0,0.0,1.0,0.0,0.9540000000000006,0.9540000000000006,0.0,0.0,1.0,55.0,616.79921,10000.0,85.000001,85.000001,85.000001,85.000001,395.0,0.0,0.0,0.0,1.0,166.665,51.682,51.682,47.531,47.531,34.0,-18.8275,30.928,-25.18,34.585,0.0,1781.978,-1.4750000000000014,100.0,27.916,28.784,42.306,43.876,0.0,0.0,100.0,0.0,0.0,0.0,0.0,3132.125,3320.2,4181.75,4409.2,305.425,304.14033333333333,314.81,314.001,21.9591,20.6148,21.9768,21.4922,314.999998,314.999998,324.999988,324.999988,99.55915714285715,99.5074,99.56844285714286,99.54835714285714,0.21225000000000005,0.08066666666666666,-0.0095,0.21816666666666668,-0.04333333333332945,-0.051666666666669414,1.554,1.4994999999999998,38.245000000000005,29.8425,38.355000000000004,35.326499999999996,56.063,35.212,59.971000000000004,52.942499999999995,53.991,34.332,58.5435,51.243,53.146,33.871,58.4535,50.64066666666667,-0.1925,0.03749999999999987,0.105355,0.10846000000000001,0.0,213.555,213.66,210.38333333333333,210.38333333333333,0.0,0.0
20,0.0,0.0,0.0,1.0,1.0,0.0,0.0,1.0,0.0,100.0,1.0,1.1856,26.0,0.0,0.0,0.0,57.999998,0.0,26.0,26.0,26.0,26.0,0.18166666666666687,0.2802,0.042,292.282,-2.82655,-2.5835,-1.6068,-1.5187,-208.55,215.94,190.57325,0.0,0.0,0.0,0.0,0.040633333333333334,-5.498166666666667,-5.498166666666667,-0.5537000000000001,-1.2146666666666666,0.09344444444444422,0.42199999999999993,68.35300000000001,0.1072,-0.220725,-1.8339999999999996,100.0,1.0,1.0,210.69666666666666,0.0,0.0,0.0,0.0,0.0,0.0,0.0,8930.7,0.0,55.0,5.0,246.04333333333335,0.0,0.0,0.0,0.0,0.0,0.0,0.0,0.0,1.004999999999999,1.004999999999999,0.0,0.0,0.0,55.0,616.79921,10000.0,85.000001,85.000001,85.000001,85.000001,395.0,0.0,0.0,0.0,1.0,166.665,52.811,52.811,46.875,46.875,34.0,-17.4525,30.028,-22.436666666666667,38.5225,0.0,1781.927,-0.8299999999999983,100.0,27.412,28.343,42.893,44.304,0.0,0.0,100.0,0.0,0.0,0.0,0.0,2777.25,3273.7,4083.625,4379.4,306.486,304.5,314.8215,313.9065,21.9683,20.6205,21.9874,21.5016,314.999998,314.999998,324.999988,324.999988,99.55918571428572,99.5074,99.56858571428572,99.54851428571429,0.19600000000000017,0.06499999999999995,0.0195,0.25466666666666665,-0.023333333333326323,-0.04333333333332945,1.501,1.431,38.302,29.878,38.422,35.3855,56.052,35.2545,60.0095,53.007999999999996,53.980000000000004,34.371,58.579,51.3065,53.134,33.908500000000004,58.486,50.702666666666666,-0.15549999999999997,-0.0024999999999999467,0.10119500000000001,0.11647500000000001,0.0,213.89499999999998,214.05,210.69666666666666,210.69666666666666,0.0,0.0
21,0.0,0.0,0.0,1.0,1.0,0.0,0.0,1.0,0.0,100.0,1.0,1.1856,26.0,0.0,0.0,0.0,57.999998,0.0,26.0,26.0,26.0,26.0,0.13211111111111107,0.27490000000000014,-0.06943333333333335,292.618,-2.7338,-2.640625,-1.6611,-1.4866000000000001,-205.26,215.94,190.5515,0.0,0.0,0.0,0.0,0.04253333333333333,-5.498166666666667,-5.498166666666667,-0.5789000000000001,0.4950000000000001,0.0664444444444443,-0.08999999999999986,68.477,0.114,-0.226275,-1.1360000000000001,100.0,1.0,1.0,211.33666666666667,0.0,0.0,0.0,0.0,0.0,0.0,0.0,8957.8,0.0,55.0,5.0,246.48666666666668,1.0,0.0,0.0,0.0,0.0,0.0,0.0,0.0,1.0530000000000008,1.0530000000000008,0.0,0.0,1.0,55.0,616.79921,10000.0,85.000001,85.000001,85.000001,85.000001,395.0,0.0,0.0,0.0,1.0,333.33500000000004,52.216,52.216,48.278999999999996,48.278999999999996,34.0,-20.259999999999998,28.252000000000002,-22.29,33.1175,0.0,1781.878,0.06500000000000128,100.0,27.808,28.522,42.241,43.844,0.0,0.0,100.0,0.0,0.0,0.0,0.0,2954.125,3255.9,3930.25,4051.3,305.777,304.46233333333333,315.38725,314.88425,21.9771,20.6259,21.9971,21.5102,314.999998,314.999998,324.999988,324.999988,99.5592,99.50741666666667,99.56871428571428,99.54865714285714,0.14550000000000018,0.01200000000000001,0.005333333333333333,0.24316666666666667,-0.054999999999999716,-0.05666666666667197,1.6066666666666667,1.5835,38.357,29.912,38.482,35.439,56.043,35.2935,60.0385,53.0635,53.971000000000004,34.4075,58.606,51.36,53.123999999999995,33.9435,58.51,50.75566666666667,-0.08250000000000002,-0.07850000000000001,0.11180500000000002,0.10655500000000001,0.0,214.365,214.45,211.33666666666667,211.33666666666667,0.0,0.0
22,0.0,0.0,0.0,1.0,1.0,0.0,0.0,1.0,0.0,100.0,1.0,1.1856,26.0,0.0,0.0,0.0,57.999998,0.0,26.0,26.0,26.0,26.0,0.07111111111111112,0.2643,-0.006166666666666667,292.099,-2.70255,-2.659375,-1.6421000000000001,-1.4914,-201.56,215.945,190.52625,0.0,0.0,0.0,0.0,0.044700000000000004,-5.498166666666667,-5.498166666666667,-0.5569000000000001,-0.0033333333333332993,0.05688888888888877,0.6339999999999999,68.624,0.0838,-0.206075,0.12600000000000122,100.0,1.0,1.0,211.55666666666667,0.0,0.0,0.0,0.0,0.0,0.0,0.0,8967.1,0.0,55.0,5.0,247.01666666666665,0.0,0.0,0.0,0.0,0.0,0.0,0.0,0.0,1.1069999999999993,1.1069999999999993,0.0,0.0,0.0,55.0,616.79921,10000.0,85.000001,85.000001,85.000001,85.000001,395.0,0.0,0.0,0.0,1.0,166.665,52.414,52.414,47.043,47.043,34.0,-20.8175,25.386,-27.07666666666666,34.269999999999996,0.0,1781.825,0.6550000000000011,100.0,27.989,28.468,42.900999999999996,43.992000000000004,0.0,0.0,100.0,0.0,0.0,0.0,0.0,2839.0,3178.2,4187.375,4403.3,306.088,304.69966666666664,314.666,314.04,21.987099999999998,20.632,22.0082,21.5201,314.999998,314.999998,324.999988,324.999988,99.55921428571429,99.50741666666667,99.56887142857143,99.54881428571429,0.1030000000000002,-0.04200000000000004,-0.043666666666666666,0.18883333333333335,-0.036666666666668846,-0.051666666666669414,1.4783333333333333,1.491,38.419,29.95,38.552,35.5005,56.028999999999996,35.335499999999996,60.079,53.131,53.959,34.446,58.6435,51.425,53.11,33.9805,58.544,50.819,-0.030000000000000027,-0.13050000000000006,0.11142500000000001,0.10851000000000001,0.0,214.85500000000002,214.85500000000002,211.55666666666667,211.55666666666667,0.0,0.0
23,0.0,0.0,0.0,1.0,1.0,0.0,0.0,1.0,0.0,100.0,1.0,1.1856,26.0,0.0,0.0,0.0,57.999998,0.0,26.0,26.0,26.0,26.0,0.01922222222222225,0.24819999999999998,-0.0437,292.145,-2.7048,-2.6390000000000002,-1.6649,-1.5841,-198.06,215.95,190.502875,0.0,0.0,0.0,0.0,0.046733333333333335,-5.498166666666667,-5.498166666666667,-0.5762,-0.08499999999999996,0.019777777777777894,-1.13,68.757,0.031200000000000002,-0.231875,0.9960000000000004,100.0,1.0,1.0,212.11,0.0,0.0,0.0,0.0,0.0,0.0,0.0,8990.6,0.0,55.0,5.0,247.5,1.0,0.0,0.0,0.0,0.0,0.0,0.0,0.0,1.1580000000000013,1.1580000000000013,0.0,0.0,1.0,55.0,616.79921,10000.0,85.000001,85.000001,85.000001,85.000001,395.0,0.0,0.0,0.0,1.0,166.665,51.666,51.666,48.157,48.157,34.0,-26.7225,22.881999999999998,-28.623333333333335,27.695,0.0,1781.773,0.7899999999999991,100.0,28.343,28.514,43.136,44.046,0.0,0.0,100.0,0.0,0.0,0.0,0.0,3302.75,3088.1,4023.0,3908.8,304.888,304.8586666666667,315.22,315.1,21.9966,20.6377,22.0188,21.5293,314.999998,314.999998,324.999988,324.999988,99.55922857142858,99.50743333333334,99.56901428571429,99.54897142857143,0.05750000000000011,-0.08099999999999996,-0.10250000000000001,0.124,-0.046666666666666856,-0.046666666666666856,1.5336666666666665,1.5615,38.479,29.985500000000002,38.617000000000004,35.5585,56.016,35.376,60.115,53.1915,53.946,34.484,58.677,51.4835,53.096000000000004,34.016999999999996,58.574,50.876333333333335,-0.016000000000000014,-0.14500000000000002,0.09557500000000001,0.110825,0.0,215.29500000000002,215.22,212.11,212.11,0.0,0.0
24,0.0,0.0,0.0,1.0,1.0,0.0,0.0,1.0,0.0,100.0,1.0,1.1856,26.0,0.0,0.0,0.0,57.999998,0.0,26.0,26.0,26.0,26.0,-0.05233333333333334,0.28500000000000014,-0.10643333333333332,292.358,-2.70075,-2.6727499999999997,-1.5655999999999999,-1.5461,-194.95999999999998,215.95499999999998,190.48175,0.0,0.0,0.0,0.0,0.04853333333333333,-5.498166666666667,-5.498166666666667,-0.5782,-0.5536666666666668,0.009777777777777885,0.6619999999999999,68.878,-0.013300000000000001,-0.21710000000000002,1.1420000000000012,100.0,1.0,1.0,212.34333333333333,0.0,0.0,0.0,0.0,0.0,0.0,0.0,9000.4,0.0,55.0,5.0,247.93333333333334,0.0,0.0,0.0,0.0,0.0,0.0,0.0,0.0,1.2029999999999994,1.2029999999999994,0.0,0.0,0.0,55.0,616.79921,10000.0,85.000001,85.000001,85.000001,85.000001,395.0,0.0,0.0,0.0,1.0,166.665,52.872,52.872,47.028,47.028,34.0,-24.0,20.823999999999998,-32.03,26.965,0.0,1781.729,0.740000000000002,100.0,28.243,27.992,43.485,43.652,0.0,0.0,100.0,0.0,0.0,0.0,0.0,2917.75,2955.6,4309.5,4125.4,305.9345,305.493,314.3155,314.69675,22.0049,20.6424,22.0281,21.537399999999998,314.999998,314.999998,324.999988,324.999988,99.55922857142858,99.50743333333334,99.56914285714285,99.5491,0.03750000000000009,-0.10499999999999998,-0.13533333333333333,0.08483333333333333,-0.054999999999999716,-0.04333333333332945,1.4809999999999999,1.5365,38.531,30.015,38.675,35.609,56.001999999999995,35.411,60.1485,53.2435,53.932,34.516,58.708,51.533500000000004,53.082,34.0475,58.6025,50.925333333333334,-0.02200000000000002,-0.13900000000000023,0.10310000000000001,0.10698,0.0,215.685,215.585,212.34333333333333,212.34333333333333,0.0,0.0
25,0.0,0.0,0.0,1.0,1.0,0.0,0.0,1.0,0.0,100.0,1.0,1.1856,26.0,0.0,0.0,0.0,57.999998,0.0,26.0,26.0,26.0,26.0,-0.11222222222222211,0.26870000000000016,-0.0722,292.252,-2.7375,-2.6645000000000003,-1.5528,-1.5731000000000002,-191.24,215.96,190.454875,0.0,0.0,0.0,0.0,0.0507,-5.498166666666667,-5.498166666666667,-0.6134000000000001,0.1060000000000001,-0.0171111111111113,-0.6560000000000001,69.017,-0.0528,-0.225975,1.266,100.0,1.0,1.0,212.94666666666666,0.0,0.0,0.0,0.0,0.0,0.0,0.0,9026.0,0.0,55.0,5.0,248.43333333333334,1.0,0.0,0.0,0.0,0.0,0.0,0.0,0.0,1.256999999999998,1.256999999999998,0.0,0.0,1.0,55.0,616.79921,10000.0,85.000001,85.000001,85.000001,85.000001,395.0,0.0,0.0,0.0,1.0,166.665,51.682,51.682,47.989,47.989,34.0,-29.67,22.246,-30.563333333333333,24.205,0.0,1781.674,0.7100000000000009,100.0,28.417,28.033,43.385,43.063,0.0,0.0,100.0,0.0,0.0,0.0,0.0,3322.625,3276.5,3991.125,3957.4,304.8255,304.5076666666667,315.19025,315.09825,22.0148,20.6483,22.0391,21.547,314.999998,314.999998,324.999988,324.999988,99.55922857142858,99.50745,99.5693,99.54924285714286,0.003750000000000142,-0.1299999999999999,-0.17583333333333334,0.052833333333333336,-0.045000000000001705,-0.05333333333332746,1.5473333333333334,1.5985,38.593,30.052,38.744,35.6685,55.983000000000004,35.456,60.1855,53.3025,53.915,34.5575,58.7425,51.5905,53.064,34.0875,58.6335,50.981,-0.02300000000000002,-0.14000000000000012,0.107825,0.10833500000000001,0.0,216.10500000000002,216.005,212.94666666666666,212.94666666666666,0.0,0.0
26,0.0,0.0,0.0,1.0,1.0,0.0,0.0,1.0,0.0,100.0,1.0,1.1856,26.0,0.0,0.0,0.0,57.999998,0.0,26.0,26.0,26.0,26.0,-0.12855555555555553,0.26980000000000004,0.0562,291.10699999999997,-2.65925,-2.76775,-1.582,-1.5902,-187.70999999999998,215.9625,190.429125,0.0,0.0,0.0,0.0,0.05273333333333334,-5.498166666666667,-5.498166666666667,-0.5691,0.581,-0.06222222222222218,-1.0540000000000003,69.153,-0.0767,-0.196475,1.2739999999999991,100.0,1.0,1.0,213.07,0.0,0.0,0.0,0.0,0.0,0.0,0.0,9031.2,0.0,55.0,5.0,248.92333333333335,0.0,0.0,0.0,0.0,0.0,0.0,0.0,0.0,1.3079999999999998,1.3079999999999998,0.0,0.0,0.0,55.0,616.79921,10000.0,85.000001,85.000001,85.000001,85.000001,395.0,0.0,0.0,0.0,1.0,166.665,51.498,51.498,46.082,46.082,34.0,-29.445,19.866,-40.17333333333333,26.535,0.0,1781.623,0.504999999999999,100.0,29.246,28.536,44.222,43.362,0.0,0.0,100.0,0.0,0.0,0.0,0.0,3346.75,2912.9,4705.0,4445.5,304.8025,305.339,313.53725,313.903,22.0246,20.654,22.0498,21.5562,314.999998,314.999998,324.999988,324.999988,99.55924285714286,99.50748333333334,99.56945714285715,99.5494,-0.00374999999999992,-0.1479999999999999,-0.20550000000000002,0.015166666666666667,-0.05666666666667197,-0.03499999999999659,1.4053333333333333,1.459,38.653999999999996,30.087,38.811,35.7265,55.971000000000004,35.501,60.2275,53.3625,53.903,34.599000000000004,58.782,51.647999999999996,53.051,34.126999999999995,58.67,51.037,-0.041999999999999926,-0.11900000000000022,0.107465,0.10294500000000001,0.0,216.585,216.46,213.07,213.07,0.0,0.0
27,0.0,0.0,0.0,1.0,1.0,0.0,0.0,1.0,0.0,100.0,1.0,1.1856,26.0,0.0,0.0,0.0,57.999998,0.0,26.0,26.0,26.0,26.0,-0.119,0.24570000000000003,-0.012100000000000001,291.58,-2.6132999999999997,-2.7502500000000003,-1.5618,-1.6697000000000002,-184.6,215.9625,190.4075,0.0,0.0,0.0,0.0,0.054533333333333336,-5.498166666666667,-5.498166666666667,-0.5972000000000001,-1.0806666666666667,-0.06755555555555581,0.7369999999999999,69.27,-0.084,-0.244125,1.040000000000001,100.0,1.0,1.0,213.54666666666668,0.0,0.0,0.0,0.0,0.0,0.0,0.0,9051.5,0.0,55.0,5.0,249.34333333333336,1.0,0.0,0.0,0.0,0.0,0.0,0.0,0.0,1.352999999999998,1.352999999999998,0.0,0.0,1.0,55.0,616.79921,10000.0,85.000001,85.000001,85.000001,85.000001,395.0,0.0,0.0,0.0,1.0,333.33500000000004,51.727000000000004,51.727000000000004,46.661,46.661,34.0,-27.7025,20.932000000000002,-33.92333333333333,25.3375,0.0,1781.577,0.41499999999999915,100.0,29.187,28.070999999999998,44.998000000000005,43.684,0.0,0.0,100.0,0.0,0.0,0.0,0.0,3196.375,3081.4,4155.0,4043.5,305.057,305.1193333333333,314.705,314.8125,22.032899999999998,20.6588,22.0593,21.5645,314.999998,314.999998,324.999988,324.999988,99.55924285714286,99.5075,99.56958571428571,99.54952857142857,-0.0022499999999998632,-0.14300000000000002,-0.2,0.02816666666666667,-0.02833333333332888,-0.04833333333333201,1.476,1.5110000000000001,38.706,30.116999999999997,38.870999999999995,35.778,55.956,35.538,60.263999999999996,53.4155,53.888999999999996,34.6335,58.8165,51.698499999999996,53.037,34.16,58.701499999999996,51.086333333333336,-0.046499999999999986,-0.1160000000000001,0.10745500000000001,0.11453500000000001,0.0,216.85000000000002,216.76999999999998,213.54666666666668,213.54666666666668,0.0,0.0
28,0.0,0.0,0.0,1.0,1.0,0.0,0.0,1.0,0.0,100.0,1.0,1.1856,26.0,0.0,0.0,0.0,57.999998,0.0,26.0,26.0,26.0,26.0,-0.10677777777777786,0.2630000000000001,-0.05183333333333334,291.885,-2.6466,-2.730625,-1.513,-1.6271,-181.06,215.95749999999998,190.382125,0.0,0.0,0.0,0.0,0.056600000000000004,-5.498166666666667,-5.498166666666667,-0.6011000000000001,0.6596666666666668,-0.07155555555555582,-0.5289999999999999,69.399,-0.08800000000000001,-0.21652500000000002,1.0060000000000002,100.0,1.0,1.0,214.05666666666667,0.0,0.0,0.0,0.0,0.0,0.0,0.0,9073.0,0.0,55.0,5.0,249.81,0.0,0.0,0.0,0.0,0.0,0.0,0.0,0.0,1.404,1.404,0.0,0.0,0.0,55.0,616.79921,10000.0,85.000001,85.000001,85.000001,85.000001,395.0,0.0,0.0,0.0,1.0,333.33500000000004,51.788,51.788,47.546,47.546,34.0,-29.485,19.747999999999998,-33.839999999999996,24.2125,0.0,1781.525,0.254999999999999,100.0,29.069,28.146,44.171,43.171,0.0,0.0,100.0,0.0,0.0,0.0,0.0,3359.875,2931.6,4169.5,4068.3,304.788,305.3693333333333,314.862,314.832,22.0426,20.6643,22.0697,21.5735,314.999998,314.999998,324.999988,324.999988,99.55925714285715,99.5075,99.56974285714286,99.54967142857143,-0.004750000000000032,-0.1443333333333332,-0.21866666666666665,0.01916666666666667,-0.054999999999999716,-0.04333333333332945,1.5183333333333335,1.5565,38.766,30.1515,38.936,35.8345,55.943,35.581,60.2985,53.4705,53.876000000000005,34.673,58.8485,51.7515,53.022999999999996,34.198,58.7305,51.138,-0.06699999999999995,-0.09949999999999992,0.11163500000000001,0.111765,0.0,217.32,217.22500000000002,214.05666666666667,214.05666666666667,0.0,0.0
29,0.0,0.0,0.0,1.0,1.0,0.0,0.0,1.0,0.0,100.0,1.0,1.1856,26.0,0.0,0.0,0.0,57.999998,0.0,26.0,26.0,26.0,26.0,-0.11511111111111105,0.24950000000000006,0.011933333333333334,291.534,-2.5907999999999998,-2.7845,-1.5524,-1.6008,-177.51999999999998,215.9525,190.35575,0.0,0.0,0.0,0.0,0.058666666666666666,-5.498166666666667,-5.498166666666667,-0.6056,-0.702,-0.06333333333333346,0.722,69.533,-0.0795,-0.21775,0.5860000000000003,100.0,1.0,1.0,214.29333333333335,0.0,0.0,0.0,0.0,0.0,0.0,0.0,9083.1,0.0,55.0,5.0,250.29333333333335,1.0,0.0,0.0,0.0,0.0,0.0,0.0,0.0,1.4549999999999983,1.4549999999999983,0.0,0.0,1.0,55.0,616.79921,10000.0,85.000001,85.000001,85.000001,85.000001,395.0,0.0,0.0,0.0,1.0,166.665,51.772999999999996,51.772999999999996,46.539,46.539,34.0,-27.174999999999997,22.259999999999998,-34.370000000000005,26.0325,0.0,1781.477,0.129999999999999,100.0,28.868,27.866,44.653,43.386,0.0,0.0,100.0,0.0,0.0,0.0,0.0,3252.375,3113.4,4249.5,4228.5,304.9345,304.86066666666665,314.4475,314.431,22.0519,20.6697,22.0804,21.5828,314.999998,314.999998,324.999988,324.999988,99.55925714285715,99.50751666666666,99.5699,99.54981428571429,0.016249999999999876,-0.1296666666666666,-0.19033333333333335,0.03266666666666666,-0.051666666666669414,-0.03333333333333144,1.4596666666666667,1.4825,38.825,30.185499999999998,39.001999999999995,35.8925,55.926,35.6225,60.3395,53.53,53.86,34.711,58.887,51.809,53.006,34.2345,58.766,51.193666666666665,-0.07050000000000001,-0.09399999999999986,0.10734,0.10748,0.0,217.685,217.595,214.29333333333335,214.29333333333335,0.0,0.0
30,0.0,0.0,0.0,1.0,1.0,0.0,0.0,1.0,0.0,100.0,1.0,1.1856,26.0,0.0,0.0,0.0,57.999998,0.0,26.0,26.0,26.0,26.0,-0.0888888888888889,0.2643,0.06066666666666667,291.092,-2.6498,-2.668,-1.4926,-1.6571,-174.18,215.9425,190.33075,0.0,0.0,0.0,0.0,0.0606,-5.498166666666667,-5.498166666666667,-0.6029,0.7716666666666667,-0.061666666666666536,0.9119999999999999,69.655,-0.069,-0.2164,0.5500000000000007,100.0,1.0,1.0,214.72,0.0,0.0,0.0,0.0,0.0,0.0,0.0,9101.2,0.0,55.0,5.0,250.73000000000002,0.0,0.0,0.0,0.0,0.0,0.0,1.0,0.0,1.5030000000000001,1.5030000000000001,0.0,0.0,0.0,55.0,616.79921,10000.0,85.000001,85.000001,85.000001,85.000001,395.0,0.0,0.0,0.0,1.0,166.665,50.858000000000004,50.858000000000004,46.89,46.89,34.0,-28.2275,21.962,-32.223333333333336,28.337500000000002,0.0,1781.428,0.004999999999999005,100.0,29.669,28.59,44.457,43.417,0.0,0.0,100.0,0.0,0.0,0.0,0.0,3403.0,3115.6,4266.0,4252.9,304.4515,304.9273333333333,314.4995,314.33275,22.0611,20.6751,22.0902,21.5915,314.999998,314.999998,324.999988,324.999988,99.55925714285715,99.50753333333333,99.57004285714285,99.54995714285714,0.03874999999999984,-0.11033333333333317,-0.16716666666666666,0.0565,-0.021666666666668277,-0.06833333333332803,1.4843333333333333,1.4954999999999998,38.882,30.2195,39.064,35.947,55.915,35.664500000000004,60.3735,53.584,53.849999999999994,34.75,58.919,51.861000000000004,52.994,34.271,58.795,51.24433333333333,-0.08650000000000002,-0.08150000000000013,0.10060500000000001,0.11225,0.0,218.07,218.05,214.72,214.72,0.0,0.0
31,0.0,0.0,0.0,1.0,1.0,0.0,0.0,1.0,0.0,100.0,1.0,1.1856,26.0,0.0,0.0,0.0,57.999998,0.0,26.0,26.0,26.0,26.0,-0.08533333333333337,0.2601,-0.008666666666666668,291.031,-2.7254,-2.638,-1.5487000000000002,-1.6467,-170.62,215.93,190.305,0.0,0.0,0.0,0.0,0.06266666666666666,-5.498166666666667,-5.498166666666667,-0.5902000000000001,-0.5503333333333333,-0.049555555555555575,-0.6880000000000002,69.787,-0.053700000000000005,-0.21930000000000002,0.27399999999999913,100.0,1.0,1.0,215.03,0.0,0.0,0.0,0.0,0.0,0.0,0.0,9114.4,0.0,55.0,5.0,251.20666666666665,1.0,0.0,0.0,0.0,0.0,0.0,1.0,0.0,1.5539999999999985,1.5539999999999985,0.0,0.0,1.0,55.0,616.79921,10000.0,85.000001,85.000001,85.000001,85.000001,395.0,0.0,0.0,0.0,1.0,166.665,51.498,51.498,45.563,45.563,34.0,-26.9575,21.742,-34.35333333333334,28.5025,0.0,1781.377,-0.08500000000000085,100.0,29.186,28.812,44.962,44.198,0.0,0.0,100.0,0.0,0.0,0.0,0.0,3230.25,3089.8,4437.875,4236.5,305.284,305.039,314.081,314.4295,22.0705,20.6808,22.101,21.6009,314.999998,314.999998,324.999988,324.999988,99.55925714285715,99.50755,99.57018571428571,99.5501,0.03675000000000006,-0.10333333333333328,-0.16016666666666665,0.06383333333333334,-0.05833333333333002,-0.036666666666668846,1.464,1.4665,38.941,30.255,39.131,36.006,55.9,35.7065,60.414500000000004,53.644999999999996,53.836,34.789,58.957499999999996,51.9195,52.980000000000004,34.3085,58.83,51.30166666666666,-0.09250000000000003,-0.0714999999999999,0.09486000000000001,0.113445,0.0,218.45,218.425,215.03,215.03,0.0,0.0
32,0.0,0.0,0.0,1.0,1.0,0.0,0.0,1.0,0.0,100.0,1.0,1.1856,26.0,0.0,0.0,0.0,57.999998,0.0,26.0,26.0,26.0,26.0,-0.06966666666666665,0.2562,-0.0432,291.214,-2.6555,-2.744875,-1.6117,-1.5592000000000001,-167.06,215.91750000000002,190.27925,0.0,0.0,0.0,0.0,0.06473333333333334,-5.498166666666667,-5.498166666666667,-0.6073000000000001,0.18300000000000005,-0.07177777777777772,0.21799999999999997,69.914,-0.0412,-0.22710000000000002,0.16799999999999926,100.0,1.0,1.0,215.57,0.0,0.0,0.0,0.0,0.0,0.0,0.0,9137.3,0.0,55.0,5.0,251.66,0.0,0.0,0.0,0.0,0.0,0.0,1.0,0.0,1.6050000000000004,1.6050000000000004,0.0,0.0,0.0,55.0,616.79921,10000.0,85.000001,85.000001,85.000001,85.000001,395.0,0.0,0.0,0.0,1.0,333.33500000000004,51.224000000000004,51.224000000000004,46.585,46.585,34.0,-26.03,24.009999999999998,-32.49666666666666,27.8725,0.0,1781.324,-0.14999999999999858,100.0,29.351,28.715,44.644,43.949,0.0,0.0,100.0,0.0,0.0,0.0,0.0,3274.375,3131.1,4246.25,4199.8,304.8945,304.911,314.6635,314.63225,22.08,20.6865,22.1115,21.6102,314.999998,314.999998,324.999988,324.999988,99.55927142857144,99.50756666666666,99.57034285714286,99.55025714285715,0.05975000000000019,-0.08166666666666678,-0.15016666666666667,0.08883333333333333,-0.026666666666670835,-0.04833333333333201,1.518,1.5325,39.0,30.2905,39.197,36.0635,55.887,35.7485,60.4495,53.702,53.823,34.828,58.99,51.9745,52.966,34.346000000000004,58.8595,51.355000000000004,-0.09599999999999997,-0.07050000000000001,0.10931,0.11226000000000001,0.0,218.84,218.82999999999998,215.57,215.57,0.0,0.0
33,0.0,0.0,0.0,1.0,1.0,0.0,0.0,1.0,0.0,100.0,1.0,1.1856,26.0,0.0,0.0,0.0,57.999998,0.0,26.0,26.0,26.0,26.0,-0.0484444444444444,0.2591000000000001,-0.02866666666666667,291.382,-2.6715,-2.73375,-1.5477,-1.6299000000000001,-163.7,215.905,190.25425,0.0,0.0,0.0,0.0,0.06670000000000001,-5.498166666666667,-5.498166666666667,-0.6113000000000001,-0.4013333333333333,-0.05888888888888877,1.4249999999999998,70.037,-0.0308,-0.216475,0.062000000000001165,100.0,1.0,1.0,215.83333333333331,0.0,0.0,0.0,0.0,0.0,0.0,0.0,9148.4,0.0,55.0,5.0,252.10666666666668,1.0,0.0,0.0,0.0,0.0,0.0,1.0,0.0,1.6529999999999987,1.6529999999999987,0.0,0.0,1.0,55.0,616.79921,10000.0,85.000001,85.000001,85.000001,85.000001,395.0,0.0,0.0,0.0,1.0,333.33500000000004,51.879999999999995,51.879999999999995,46.448,46.448,34.0,-24.307499999999997,23.676,-31.153333333333336,29.73,0.0,1781.277,-0.245000000000001,100.0,29.099,28.386,44.622,44.007999999999996,0.0,0.0,100.0,0.0,0.0,0.0,0.0,3118.0,3067.1,4244.375,4309.7,305.4065,305.13366666666667,314.523,314.27825,22.0888,20.6917,22.1214,21.6189,314.999998,314.999998,324.999988,324.999988,99.55928571428572,99.50758333333333,99.57048571428571,99.5504,0.06850000000000023,-0.07299999999999995,-0.13483333333333333,0.082,-0.02833333333332888,-0.060000000000002274,1.484,1.4889999999999999,39.055,30.323,39.259,36.118,55.873999999999995,35.785,60.485,53.7575,53.811,34.861000000000004,59.022999999999996,52.0275,52.953,34.378,58.8895,51.407,-0.10649999999999993,-0.06000000000000005,0.10529000000000001,0.10374000000000001,0.0,219.215,219.21,215.83333333333331,215.83333333333331,0.0,0.0
34,0.0,0.0,0.0,1.0,1.0,0.0,0.0,1.0,0.0,100.0,1.0,1.1856,26.0,0.0,0.0,0.0,57.999998,0.0,26.0,26.0,26.0,26.0,-0.03122222222222215,0.26,-0.0685,291.885,-2.6916,-2.7113750000000003,-1.6156000000000001,-1.5865,-159.92000000000002,215.8875,190.22475,0.0,0.0,0.0,0.0,0.0689,-5.498166666666667,-5.498166666666667,-0.6447,-0.715,-0.02488888888888896,0.972,70.172,-0.0181,-0.225275,-0.013999999999999346,100.0,1.0,1.0,216.33666666666667,0.0,0.0,0.0,0.0,0.0,0.0,0.0,9169.7,0.0,55.0,5.0,252.59333333333336,0.0,0.0,0.0,0.0,0.0,0.0,1.0,0.0,1.7070000000000007,1.7070000000000007,0.0,0.0,0.0,55.0,616.79921,10000.0,85.000001,85.000001,85.000001,85.000001,395.0,0.0,0.0,0.0,1.0,166.665,52.277,52.277,47.333,47.333,34.0,-23.265,23.646,-29.71333333333333,29.0075,0.0,1781.224,-0.259999999999998,100.0,28.754,28.109,44.24,44.037,0.0,0.0,100.0,0.0,0.0,0.0,0.0,3008.875,3026.6,4047.25,4162.7,305.5715,305.219,315.078,314.60575,22.0987,20.6975,22.1324,21.6288,314.999998,314.999998,324.999988,324.999988,99.55928571428572,99.50758333333333,99.57064285714286,99.55055714285714,0.07900000000000018,-0.06166666666666676,-0.12883333333333336,0.10583333333333333,-0.045000000000001705,-0.04833333333333201,1.5316666666666667,1.5345,39.117000000000004,30.3595,39.328,36.18,55.858999999999995,35.825,60.5205,53.8195,53.796,34.897999999999996,59.056,52.0875,52.938,34.413,58.919,51.465,-0.09899999999999998,-0.05900000000000016,0.10573,0.10917500000000001,0.0,219.61,219.61,216.33666666666667,216.33666666666667,0.0,0.0
35,0.0,0.0,0.0,1.0,1.0,0.0,0.0,1.0,0.0,100.0,1.0,1.1856,26.0,0.0,0.0,0.0,57.999998,0.0,26.0,26.0,26.0,26.0,-0.015111111111111075,0.24960000000000004,-0.06783333333333334,291.748,-2.69155,-2.65225,-1.5983,-1.5981,-156.54,215.8725,190.196375,0.0,0.0,0.0,0.0,0.07086666666666666,-5.498166666666667,-5.498166666666667,-0.684,-0.42100000000000004,-0.034555555555555895,0.03699999999999992,70.291,-0.0055000000000000005,-0.22885,-0.1739999999999995,100.0,1.0,1.0,216.76333333333332,0.0,0.0,0.0,0.0,0.0,0.0,0.0,9187.8,0.0,55.0,5.0,253.02333333333334,1.0,0.0,0.0,0.0,0.0,0.0,1.0,0.0,1.754999999999999,1.754999999999999,0.0,0.0,1.0,55.0,616.79921,10000.0,85.000001,85.000001,85.000001,85.000001,395.0,0.0,0.0,0.0,1.0,333.33500000000004,51.59,51.59,46.951,46.951,34.0,-24.29,26.296,-27.990000000000002,28.27,0.0,1781.175,-0.18499999999999872,100.0,28.576,28.437,44.027,43.650999999999996,0.0,0.0,100.0,0.0,0.0,0.0,0.0,3156.75,3359.0,4017.875,3969.5,305.2885,304.249,315.074,315.0725,22.1072,20.7029,22.1422,21.6374,314.999998,314.999998,324.999988,324.999988,99.5593,99.50758333333333,99.57077142857143,99.5507,0.08174999999999999,-0.05566666666666675,-0.10300000000000001,0.11966666666666667,-0.041666666666671404,-0.04333333333332945,1.5453333333333332,1.5215,39.17,30.3935,39.388999999999996,36.2335,55.844,35.862,60.552,53.871,53.782,34.9325,59.085499999999996,52.137,52.922,34.446,58.946,51.513666666666666,-0.09399999999999997,-0.06599999999999984,0.10571000000000001,0.10917,0.0,219.97,219.985,216.76333333333332,216.76333333333332,0.0,0.0
36,0.0,0.0,0.0,1.0,1.0,0.0,0.0,1.0,0.0,100.0,1.0,1.1856,26.0,0.0,0.0,0.0,57.999998,0.0,26.0,26.0,26.0,26.0,-0.008333333333333304,0.26990000000000003,0.05926666666666667,290.756,-2.745,-2.68225,-1.5526,-1.5905,-153.17,215.85750000000002,190.166625,0.0,0.0,0.0,0.0,0.0728,-5.498166666666667,-5.498166666666667,-0.6647000000000001,0.2893333333333332,-0.06811111111111146,0.139,70.413,0.0012000000000000001,-0.20097500000000001,-0.019999999999999574,100.0,1.0,1.0,216.89333333333332,0.0,0.0,0.0,0.0,0.0,0.0,0.0,9193.3,0.0,55.0,5.0,253.46333333333334,0.0,0.0,0.0,0.0,0.0,0.0,1.0,0.0,1.8030000000000008,1.8030000000000008,0.0,0.0,0.0,55.0,616.79921,10000.0,85.000001,85.000001,85.000001,85.000001,395.0,0.0,0.0,0.0,1.0,333.33500000000004,51.117,51.117,46.173,46.173,34.0,-25.575,25.694000000000003,-30.949999999999996,33.69,0.0,1781.128,-0.18499999999999872,100.0,29.149,28.813,44.166,43.95,0.0,0.0,100.0,0.0,0.0,0.0,0.0,3311.625,3230.0,4450.0,4570.1,304.882,304.66866666666664,314.0625,313.67875,22.1161,20.7085,22.152,21.6462,314.999998,314.999998,324.999988,324.999988,99.55931428571428,99.5076,99.57091428571428,99.55082857142857,0.09399999999999986,-0.048666666666666636,-0.09416666666666668,0.11833333333333333,-0.03833333333332689,-0.04833333333333201,1.4333333333333333,1.427,39.226,30.427999999999997,39.45,36.2885,55.833,35.900999999999996,60.586,53.9275,53.772,34.9685,59.117,52.191,52.911,34.4805,58.9745,51.56633333333333,-0.09550000000000003,-0.07100000000000017,0.10346000000000001,0.102175,0.0,220.39499999999998,220.39499999999998,216.89333333333332,216.89333333333332,0.0,0.0
