,ABS Active,ABS Enabled,AID Allow Tire Blankets,AID Auto Blip,AID Auto Clutch,AID Auto Shift,AID Fuel Rate,AID Ideal Line,AID Mech Damage,AID Stability,AID Tire Wear Rate,Air Density,Air Temp,Ballast,Best Lap Delta,Best Lap Time,Brake Bias,Brake Pos,Brake Temp FL,Brake Temp FR,Brake Temp RL,Brake Temp RR,CG Accel Lateral,CG Accel Longitudinal,CG Accel Vertical,CG Height,Camber FL,Camber FR,Camber RL,Camber RR,Car Coord X,Car Coord Y,Car Coord Z,Car Damage Front,Car Damage Left,Car Damage Rear,Car Damage Right,Car Pos Norm,Caster FL,Caster FR,Chassis Pitch Angle,Chassis Pitch Rate,Chassis Roll Angle,Chassis Roll Rate,Chassis Velocity X,Chassis Velocity Y,Chassis Velocity Z,Chassis Yaw Rate,Clutch Pos,DRS Active,DRS Available,Drive Train Speed,ERS Heat Charging,ERS Is Charging,ERS Max Energy,ERS Power Level,ERS Recovery Level,Engine Brake Setting,Engine Limiter,Engine RPM,Flags,Fuel Level,Gear,Ground Speed,HR Sample Clock,In Pit,KERS Charge,KERS Deployed Energy,KERS Input,KERS Max Energy,LR Sample Clock,Lap Invalidated,Lap Time,Lap Time2,Last Lap Time,Last Sector Time,MR Sample Clock,Max Fuel,Max Power,Max RPM,Max Sus Travel FL,Max Sus Travel FR,Max Sus Travel RL,Max Sus Travel RR,Max Torque,Max Turbo Boost,Num Tires Off Track,Penalties Enabled,Position,Raw Data Sample Rate,Ride Height FL,Ride Height FR,Ride Height RL,Ride Height RR,Road Temp,Self Align Torque FL,Self Align Torque FR,Self Align Torque RL,Self Align Torque RR,Session Lap Count,Session Time Left,Steering Angle,Surface Grip,Suspension Travel FL,Suspension Travel FR,Suspension Travel RL,Suspension Travel RR,TC Active,TC Enabled,Throttle Pos,Tire Dirt Level FL,Tire Dirt Level FR,Tire Dirt Level RL,Tire Dirt Level RR,Tire Load FL,Tire Load FR,Tire Load RL,Tire Load RR,Tire Loaded Radius FL,Tire Loaded Radius FR,Tire Loaded Radius RL,Tire Loaded Radius RR,Tire Pressure FL,Tire Pressure FR,Tire Pressure RL,Tire Pressure RR,Tire Radius FL,Tire Radius FR,Tire Radius RL,Tire Radius RR,Tire Rubber Grip FL,Tire Rubber Grip FR,Tire Rubber Grip RL,Tire Rubber Grip RR,Tire Slip Angle FL,Tire Slip Angle FR,Tire Slip Angle RL,Tire Slip Angle RR,Tire Slip Ratio FL,Tire Slip Ratio FR,Tire Slip Ratio RL,Tire Slip Ratio RR,Tire Temp Core FL,Tire Temp Core FR,Tire Temp Core RL,Tire Temp Core RR,Tire Temp Inner FL,Tire Temp Inner FR,Tire Temp Inner RL,Tire Temp Inner RR,Tire Temp Middle FL,Tire Temp Middle FR,Tire Temp Middle RL,Tire Temp Middle RR,Tire Temp Outer FL,Tire Temp Outer FR,Tire Temp Outer RL,Tire Temp Outer RR,Toe In FL,Toe In FR,Toe In RL,Toe In RR,Turbo Boost,Wheel Angular Speed FL,Wheel Angular Speed FR,Wheel Angular Speed RL,Wheel Angular Speed RR,Wind Direction,Wind Speed
0,0.0,0.0,0.0,1.0,1.0,0.0,0.0,1.0,0.0,100.0,1.0,1.1856,26.0,0.0,0.0,0.0,59.99999,0.0,26.0,26.0,26.0,26.0,-0.17422222222222217,0.31689999999999996,0.059175000000000005,293.9,-2.6958,-2.6831428571428573,-1.4969000000000001,-1.5499,-275.68,216.1875,190.9875,0.0,0.0,0.0,0.0,0.0016,-5.498166666666667,-5.498166666666667,-0.5412,1.4053333333333333,-0.03212500000000018,-0.4989999999999999,65.504,-0.0766,-0.202875,2.056000000000001,100.0,1.0,1.0,202.34,0.0,0.0,0.0,0.0,0.0,0.0,0.0,8576.5,0.0,55.0,5.0,235.78333333333333,0.0,0.0,0.0,0.0,0.0,0.0,0.0,0.0,0.0030000000000001137,0.0030000000000001137,0.0,0.0,0.0,55.0,616.79921,10000.0,85.0,85.0,85.0,85.0,395.0,0.0,0.0,0.0,1.0,20.0,52.841,52.841,49.286,49.286,34.0,-28.965,20.624000000000002,-33.4,21.43,0.0,1781.804,1.495000000000001,100.0,27.599,26.667,41.018,39.769,0.0,0.0,100.0,0.0,0.0,0.0,0.0,3043.857142857143,3343.2,4170.25,3946.0,305.5565,304.21475,314.71,314.17775,21.746,20.5234,21.816,19.4332,314.99999,314.99999,324.99998,324.99998,99.55738571428572,99.50731666666667,99.56785714285714,99.54617142857143,-0.062000000000000055,-0.17874999999999996,-0.21783333333333335,0.009166666666666667,-0.03833333333332689,-0.042499999999996874,1.564,1.6480000000000001,36.913,29.271333333333335,37.349999999999994,34.957499999999996,55.738,34.555,60.0275,53.861,53.699,33.7545,58.6185,51.774,52.894,33.352000000000004,58.58,51.4965,0.04400000000000004,-0.18800000000000017,0.10656,0.10822000000000001,0.0,205.29500000000002,205.155,202.34,202.34,0.0,0.0
1,0.0,0.0,0.0,1.0,1.0,0.0,0.0,1.0,0.0,100.0,1.0,1.1856,26.0,0.0,0.0,0.0,59.999996,0.0,26.0,26.0,26.0,26.0,-0.19944444444444442,0.3054000000000001,0.140825,292.953,-2.6177,-2.802428571428571,-1.4959,-1.5772000000000002,-272.33,216.2025,190.96725,0.0,0.0,0.0,0.0,0.0035333333333333336,-5.498166666666667,-5.498166666666667,-0.48900000000000005,-0.7176666666666667,-0.09187499999999993,-0.8220000000000001,65.65899999999999,-0.1042,-0.18332500000000002,2.34,100.0,1.0,1.0,202.47,0.0,0.0,0.0,0.0,0.0,0.0,0.0,8581.9,0.0,55.0,5.0,236.34,1.0,0.0,0.0,0.0,0.0,0.0,0.0,0.0,0.053999999999998494,0.053999999999998494,0.0,0.0,1.0,55.0,616.79921,10000.0,85.000001,85.000001,85.000001,85.000001,395.0,0.0,0.0,0.0,1.0,333.33500000000004,53.696,53.696,47.974000000000004,47.974000000000004,34.0,-30.755,15.074000000000002,-38.39,24.6475,0.0,1781.751,1.5150000000000006,100.0,27.664,26.673000000000002,43.176,40.861000000000004,0.0,0.0,100.0,0.0,0.0,0.0,0.0,3198.0,2583.2,4461.75,4577.5,305.1365,306.6345,313.91333333333336,312.47725,21.7559,20.5284,21.8271,19.4431,314.999998,314.999998,324.999988,324.999988,99.5574,99.50735,99.56801428571428,99.54631428571429,-0.08224999999999993,-0.20850000000000002,-0.24266666666666667,-0.023,-0.04333333333332945,-0.04124999999999801,1.4415,1.5099999999999998,36.974000000000004,29.302666666666667,37.419,35.019,55.727000000000004,34.598,60.075,53.9325,53.689,33.7945,58.663,51.841499999999996,52.882999999999996,33.39,58.6215,51.5635,0.04300000000000015,-0.19200000000000017,0.10195000000000001,0.11703500000000001,0.0,205.76999999999998,205.575,202.47,202.47,0.0,0.0
2,0.0,0.0,0.0,1.0,1.0,0.0,0.0,1.0,0.0,100.0,1.0,1.1856,26.0,0.0,0.0,0.0,59.999996,0.0,26.0,26.0,26.0,26.0,-0.24455555555555553,0.27990000000000004,-0.096,293.61,-2.5629,-2.8365714285714287,-1.4544000000000001,-1.6400000000000001,-268.98,216.2125,190.9485,0.0,0.0,0.0,0.0,0.0055000000000000005,-5.498166666666667,-5.498166666666667,-0.5472,-0.026000000000000002,-0.08725000000000005,2.4800000000000004,65.799,-0.1316,-0.25105,2.5500000000000007,100.0,1.0,1.0,203.41333333333333,0.0,0.0,0.0,0.0,0.0,0.0,0.0,8621.9,0.0,55.0,5.0,236.85333333333335,0.0,0.0,0.0,0.0,0.0,0.0,0.0,0.0,0.10500000000000043,0.10500000000000043,0.0,0.0,0.0,55.0,616.79921,10000.0,85.000001,85.000001,85.000001,85.000001,395.0,0.0,0.0,0.0,1.0,166.665,52.444,52.444,50.018,50.018,34.0,-33.25,16.886,-32.10666666666667,16.6075,0.0,1781.703,1.3550000000000004,100.0,28.653,26.68,43.16,40.571,0.0,0.0,100.0,0.0,0.0,0.0,0.0,3395.142857142857,2875.8,3800.625,3561.2,304.319,305.756,315.52866666666665,315.34475,21.766,20.5333,21.8378,19.4525,314.999998,314.999998,324.999988,324.999988,99.5574,99.50736666666667,99.56815714285715,99.54644285714286,-0.09199999999999986,-0.22024999999999995,-0.2886666666666667,-0.057666666666666665,-0.09499999999999886,-0.038750000000000284,1.665,1.7664999999999997,37.038,29.333,37.486000000000004,35.0785,55.721000000000004,34.6395,60.1145,53.9955,53.683,33.832499999999996,58.7,51.900999999999996,52.876000000000005,33.4265,58.6555,51.622,0.025500000000000078,-0.18199999999999994,0.10927,0.11131500000000001,0.0,206.22,205.995,203.41333333333333,203.41333333333333,0.0,0.0
3,0.0,0.0,0.0,1.0,1.0,0.0,0.0,1.0,0.0,100.0,1.0,1.1856,26.0,0.0,0.0,0.0,59.999996,0.0,26.0,26.0,26.0,26.0,-0.241,0.3004,0.07295,293.228,-2.6875999999999998,-2.733428571428571,-1.4784000000000002,-1.6201,-265.82,216.2175,190.929875,0.0,0.0,0.0,0.0,0.007333333333333333,-5.498166666666667,-5.498166666666667,-0.5052,0.521,-0.04762500000000003,0.29200000000000026,65.943,-0.15,-0.19265000000000002,2.0020000000000007,100.0,1.0,1.0,203.54333333333335,0.0,0.0,0.0,0.0,0.0,0.0,0.0,8627.4,0.0,55.0,5.0,237.36333333333334,1.0,0.0,0.0,0.0,0.0,0.0,0.0,0.0,0.1529999999999987,0.1529999999999987,0.0,0.0,1.0,55.0,616.79921,10000.0,85.000001,85.000001,85.000001,85.000001,395.0,0.0,0.0,0.0,1.0,166.665,53.421,53.421,47.897,47.897,34.0,-28.872500000000002,15.86,-38.836666666666666,20.2125,0.0,1781.654,1.0150000000000006,100.0,28.258,26.717,43.028999999999996,40.532,0.0,0.0,100.0,0.0,0.0,0.0,0.0,2965.5714285714284,2834.4,4376.375,4151.3,305.6985,305.82325,314.13666666666666,313.724,21.775199999999998,20.5381,21.8479,19.4616,314.999998,314.999998,324.999988,324.999988,99.55741428571429,99.5074,99.5683,99.54658571428571,-0.08050000000000002,-0.21799999999999997,-0.281,-0.06016666666666667,-0.03833333333332689,-0.058749999999996305,1.52,1.5795,37.095,29.363333333333333,37.549,35.135,55.711,34.682,60.1525,54.0595,53.674,33.8715,58.736,51.962,52.866,33.463499999999996,58.689,51.6825,0.0015000000000000568,-0.15600000000000014,0.10974500000000001,0.10624000000000001,0.0,206.66500000000002,206.515,203.54333333333335,203.54333333333335,0.0,0.0
4,0.0,0.0,0.0,1.0,1.0,0.0,0.0,1.0,0.0,100.0,1.0,1.1856,26.0,0.0,0.0,0.0,59.999996,0.0,26.0,26.0,26.0,26.0,-0.22399999999999998,0.29710000000000014,-0.018075,293.427,-2.6278,-2.7752857142857144,-1.5008,-1.6245,-262.45,216.215,190.910125,0.0,0.0,0.0,0.0,0.009300000000000001,-5.498166666666667,-5.498166666666667,-0.5363,-0.866,-0.11224999999999996,-1.709,66.09,-0.1448,-0.23025,1.8600000000000003,100.0,1.0,1.0,204.09,0.0,0.0,0.0,0.0,0.0,0.0,0.0,8650.6,0.0,55.0,5.0,237.89333333333332,0.0,0.0,0.0,0.0,0.0,0.0,0.0,0.0,0.20400000000000063,0.20400000000000063,0.0,0.0,0.0,55.0,616.79921,10000.0,85.000001,85.000001,85.000001,85.000001,395.0,0.0,0.0,0.0,1.0,333.33500000000004,53.101,53.101,48.34,48.34,34.0,-32.38,16.152,-36.95666666666666,17.895,0.0,1781.601,1.0,100.0,27.985,26.63,43.434,40.789,0.0,0.0,100.0,0.0,0.0,0.0,0.0,3304.5714285714284,2812.6,4207.375,3644.2,304.912,305.7385,314.55466666666666,314.9505,21.7849,20.5431,21.8588,19.4712,314.999998,314.999998,324.999988,324.999988,99.55742857142857,99.50741666666667,99.56845714285714,99.54672857142857,-0.09299999999999997,-0.21950000000000003,-0.2801666666666667,-0.04616666666666667,-0.05666666666667197,-0.045000000000001705,1.5805,1.6475,37.155,29.394333333333336,37.617000000000004,35.195,55.699,34.7255,60.197,54.1255,53.662,33.911500000000004,58.777,52.024,52.852999999999994,33.501999999999995,58.7275,51.744,0.0015000000000000568,-0.15200000000000014,0.111015,0.1087,0.0,207.05,206.93,204.09,204.09,0.0,0.0
5,0.0,0.0,0.0,1.0,1.0,0.0,0.0,1.0,0.0,100.0,1.0,1.1856,26.0,0.0,0.0,0.0,59.999996,0.0,26.0,26.0,26.0,26.0,-0.2058888888888889,0.3034000000000001,-0.024050000000000002,293.457,-2.6385,-2.796142857142857,-1.4857,-1.6089,-258.88,216.20749999999998,190.888625,0.0,0.0,0.0,0.0,0.011366666666666667,-5.498166666666667,-5.498166666666667,-0.5316000000000001,0.4196666666666667,-0.113375,-0.09099999999999997,66.245,-0.1413,-0.208875,1.6239999999999997,100.0,1.0,1.0,204.54666666666668,0.0,0.0,0.0,0.0,0.0,0.0,0.0,8670.0,0.0,55.0,5.0,238.45,1.0,0.0,0.0,0.0,0.0,0.0,0.0,0.0,0.2579999999999991,0.2579999999999991,0.0,0.0,1.0,55.0,616.79921,10000.0,85.000001,85.000001,85.000001,85.000001,395.0,0.0,0.0,0.0,1.0,166.665,53.391,53.391,48.676,48.676,34.0,-30.7825,16.44,-36.96,19.0075,0.0,1781.549,0.6099999999999994,100.0,28.038,26.541,43.135,40.461,0.0,0.0,100.0,0.0,0.0,0.0,0.0,3256.714285714286,2713.3,4244.125,3956.4,305.0085,306.09525,314.57433333333336,314.17775,21.7954,20.5484,21.8701,19.4812,314.999998,314.999998,324.999988,324.999988,99.55744285714286,99.50743333333334,99.56861428571429,99.54687142857144,-0.06349999999999989,-0.19825000000000004,-0.28,-0.056666666666666664,-0.05666666666667197,-0.05375000000000085,1.583,1.6355,37.221000000000004,29.427666666666667,37.688,35.2575,55.69,34.7705,60.2405,54.1915,53.653,33.953,58.818,52.0865,52.843,33.541,58.7655,51.8055,-0.03049999999999997,-0.12150000000000016,0.11122000000000001,0.10279500000000001,0.0,207.57999999999998,207.41,204.54666666666668,204.54666666666668,0.0,0.0
6,0.0,0.0,0.0,1.0,1.0,0.0,0.0,1.0,0.0,100.0,1.0,1.1856,26.0,0.0,0.0,0.0,59.999996,0.0,26.0,26.0,26.0,26.0,-0.18777777777777782,0.29269999999999996,-0.0049,293.289,-2.6129,-2.8207142857142857,-1.5346000000000002,-1.5974000000000002,-255.7,216.195,190.86925,0.0,0.0,0.0,0.0,0.0132,-5.498166666666667,-5.498166666666667,-0.5234,0.10733333333333334,-0.08999999999999986,-0.45100000000000007,66.382,-0.12660000000000002,-0.205625,1.2620000000000005,100.0,1.0,1.0,204.94,0.0,0.0,0.0,0.0,0.0,0.0,0.0,8686.6,0.0,55.0,5.0,238.94666666666666,0.0,0.0,0.0,0.0,0.0,0.0,0.0,0.0,0.30600000000000094,0.30600000000000094,0.0,0.0,0.0,55.0,616.79921,10000.0,85.000001,85.000001,85.000001,85.000001,395.0,0.0,0.0,0.0,1.0,166.665,53.223,53.223,48.34,48.34,34.0,-29.9875,17.912,-36.3,20.2225,0.0,1781.501,0.23000000000000043,100.0,27.823,26.65,43.196,40.82,0.0,0.0,100.0,0.0,0.0,0.0,0.0,3243.0,2814.4,4216.375,3967.2,305.0165,305.67475,314.628,314.12425,21.8047,20.5532,21.8803,19.4904,314.999998,314.999998,324.999988,324.999988,99.55744285714286,99.50746666666667,99.56875714285714,99.54701428571428,-0.05224999999999991,-0.18699999999999994,-0.2571666666666667,-0.033,-0.05333333333332746,-0.03625000000000256,1.568,1.609,37.278999999999996,29.457666666666668,37.751999999999995,35.315,55.68,34.8105,60.2795,54.2555,53.643,33.9895,58.8545,52.147,52.832,33.576,58.799,51.865,-0.04899999999999993,-0.10850000000000026,0.107105,0.11029000000000001,0.0,207.97500000000002,207.865,204.94,204.94,0.0,0.0
7,0.0,0.0,0.0,1.0,1.0,0.0,0.0,1.0,0.0,100.0,1.0,1.1856,26.0,0.0,0.0,0.0,59.999996,0.0,26.0,26.0,26.0,26.0,-0.14177777777777778,0.29110000000000014,0.01625,293.015,-2.5873,-2.7560000000000002,-1.4964,-1.6383,-252.51,216.18,190.85,0.0,0.0,0.0,0.0,0.015066666666666666,-5.498166666666667,-5.498166666666667,-0.5288,-0.06866666666666667,-0.07562500000000005,-0.11499999999999999,66.52,-0.10540000000000001,-0.21757500000000002,0.8540000000000001,100.0,1.0,1.0,205.33666666666667,0.0,0.0,0.0,0.0,0.0,0.0,0.0,8703.5,0.0,55.0,5.0,239.44333333333333,1.0,0.0,0.0,0.0,0.0,0.0,0.0,0.0,0.3539999999999992,0.3539999999999992,0.0,0.0,1.0,55.0,616.79921,10000.0,85.000001,85.000001,85.000001,85.000001,395.0,0.0,0.0,0.0,1.0,166.665,52.811,52.811,48.507999999999996,48.507999999999996,34.0,-29.21,20.078,-33.53666666666666,22.36,0.0,1781.453,-0.04499999999999815,100.0,27.943,26.743,43.224000000000004,41.158,0.0,0.0,100.0,0.0,0.0,0.0,0.0,3346.0,2918.9,4152.625,3972.9,304.6575,305.42125,314.728,314.0415,21.814,20.5581,21.8904,19.4996,314.999998,314.999998,324.999988,324.999988,99.55745714285715,99.50748333333334,99.5689,99.54715714285715,-0.013500000000000068,-0.13749999999999996,-0.221,-0.004833333333333333,-0.05333333333332746,-0.05250000000000199,1.5514999999999999,1.5939999999999999,37.337,29.488,37.815,35.372,55.668,34.849000000000004,60.317499999999995,54.319,53.632,34.0245,58.8905,52.207,52.82,33.6095,58.832,51.9245,-0.07650000000000001,-0.06800000000000006,0.09923000000000001,0.10505,0.0,208.375,208.3,205.33666666666667,205.33666666666667,0.0,0.0
8,0.0,0.0,0.0,1.0,1.0,0.0,0.0,1.0,0.0,100.0,1.0,1.1856,26.0,0.0,0.0,0.0,59.999996,0.0,26.0,26.0,26.0,26.0,-0.10233333333333339,0.2948000000000002,0.043075,293.304,-2.678,-2.736142857142857,-1.4863,-1.5621,-249.11,216.16,190.8295,0.0,0.0,0.0,0.0,0.017033333333333334,-5.498166666666667,-5.498166666666667,-0.529,-0.5226666666666666,-0.04925000000000024,0.879,66.666,-0.0779,-0.2068,0.18200000000000038,100.0,1.0,1.0,205.72333333333333,0.0,0.0,0.0,0.0,0.0,0.0,0.0,8719.9,0.0,55.0,5.0,239.96666666666667,0.0,0.0,0.0,0.0,0.0,0.0,0.0,0.0,0.40500000000000114,0.40500000000000114,0.0,0.0,0.0,55.0,616.79921,10000.0,85.000001,85.000001,85.000001,85.000001,395.0,0.0,0.0,0.0,1.0,166.665,53.711,53.711,47.791,47.791,34.0,-24.674999999999997,21.374000000000002,-32.120000000000005,24.715,0.0,1781.402,-0.1999999999999993,100.0,27.598,26.59,43.246,41.226,0.0,0.0,100.0,0.0,0.0,0.0,0.0,2943.285714285714,2967.7,4179.0,4124.2,305.855,305.4585,314.568,313.74325,21.8236,20.5632,21.9012,19.5093,314.999998,314.999998,324.999988,324.999988,99.55745714285715,99.5075,99.56904285714286,99.54728571428572,0.019000000000000128,-0.10575000000000001,-0.18716666666666665,0.04033333333333334,-0.04999999999999716,-0.06499999999999773,1.551,1.56,37.397,29.520333333333333,37.882,35.433,55.652,34.888,60.3575,54.3855,53.616,34.0605,58.9275,52.269999999999996,52.804,33.644,58.8665,51.9865,-0.09250000000000003,-0.058499999999999996,0.11231500000000001,0.11000000000000001,0.0,208.8,208.775,205.72333333333333,205.72333333333333,0.0,0.0
9,0.0,0.0,0.0,1.0,1.0,0.0,0.0,1.0,0.0,100.0,1.0,1.1856,26.0,0.0,0.0,0.0,59.999996,0.0,26.0,26.0,26.0,26.0,-0.06822222222222218,0.28480000000000016,0.03105,292.999,-2.671,-2.737,-1.5466,-1.5608,-245.91,216.1375,190.809625,0.0,0.0,0.0,0.0,0.0189,-5.498166666666667,-5.498166666666667,-0.5366000000000001,0.5846666666666667,-0.04587500000000011,0.8559999999999999,66.799,-0.050300000000000004,-0.209175,0.04800000000000004,100.0,1.0,1.0,206.27666666666667,0.0,0.0,0.0,0.0,0.0,0.0,0.0,8743.3,0.0,55.0,5.0,240.44666666666666,1.0,0.0,0.0,0.0,0.0,0.0,0.0,0.0,0.4529999999999994,0.4529999999999994,0.0,0.0,1.0,55.0,616.79921,10000.0,85.000001,85.000001,85.000001,85.000001,395.0,0.0,0.0,0.0,1.0,333.33500000000004,52.49,52.49,48.874,48.874,34.0,-26.9725,23.759999999999998,-29.46,25.5075,0.0,1781.352,-0.29499999999999815,100.0,27.99,27.044,42.844,41.309,0.0,0.0,100.0,0.0,0.0,0.0,0.0,3306.4285714285716,3082.1,3997.125,4015.9,304.716,305.03725,315.1363333333333,314.0985,21.8328,20.5683,21.9112,19.5184,314.999998,314.999998,324.999988,324.999988,99.55745714285715,99.5075,99.56918571428571,99.54742857142857,0.047499999999999876,-0.07399999999999995,-0.1595,0.07716666666666668,-0.051666666666669414,-0.04999999999999716,1.6055,1.616,37.455,29.551666666666666,37.945,35.49,55.64,34.926,60.3915,54.4465,53.605000000000004,34.0955,58.9595,52.328,52.792,33.677,58.8955,52.044,-0.10099999999999998,-0.04899999999999993,0.109215,0.11439,0.0,209.22500000000002,209.21,206.27666666666667,206.27666666666667,0.0,0.0
10,0.0,0.0,0.0,1.0,1.0,0.0,0.0,1.0,0.0,100.0,1.0,1.1856,26.0,0.0,0.0,0.0,59.999996,0.0,26.0,26.0,26.0,26.0,-0.03411111111111109,0.29590000000000005,0.0017250000000000002,292.786,-2.6531,-2.7071428571428573,-1.5312999999999999,-1.5373,-242.5,216.1125,190.788875,0.0,0.0,0.0,0.0,0.020900000000000002,-5.498166666666667,-5.498166666666667,-0.5104000000000001,-0.3313333333333333,-0.0024999999999999467,0.45199999999999996,66.946,-0.019100000000000002,-0.19715000000000002,-0.32200000000000006,100.0,1.0,1.0,206.49666666666667,0.0,0.0,0.0,0.0,0.0,0.0,0.0,8752.7,0.0,55.0,5.0,240.97666666666666,0.0,0.0,0.0,0.0,0.0,0.0,1.0,0.0,0.5040000000000013,0.5040000000000013,0.0,0.0,0.0,55.0,616.79921,10000.0,85.000001,85.000001,85.000001,85.000001,395.0,0.0,0.0,0.0,1.0,333.33500000000004,53.497,53.497,47.241,47.241,34.0,-22.3525,21.982,-31.95,28.1625,0.0,1781.302,-0.4549999999999983,100.0,27.731,27.248,43.144,42.161,0.0,0.0,100.0,0.0,0.0,0.0,0.0,2910.142857142857,2847.9,4382.5,4232.5,306.006,305.62375,314.17,313.37675,21.8425,20.5736,21.922,19.5283,314.999998,314.999998,324.999988,324.999988,99.55747142857143,99.5075,99.56934285714286,99.54757142857143,0.06300000000000017,-0.06425000000000003,-0.13633333333333333,0.0905,-0.054999999999999716,-0.04374999999999574,1.5165,1.5084999999999997,37.516,29.584666666666664,38.013,35.552,55.626999999999995,34.963,60.4325,54.516999999999996,53.593,34.129999999999995,58.9975,52.394999999999996,52.778999999999996,33.71,58.9305,52.1105,-0.10949999999999993,-0.03600000000000003,0.106995,0.10530500000000001,0.0,209.67000000000002,209.67000000000002,206.49666666666667,206.49666666666667,0.0,0.0
11,0.0,0.0,0.0,1.0,1.0,0.0,0.0,1.0,0.0,100.0,1.0,1.1856,26.0,0.0,0.0,0.0,59.999996,0.0,26.0,26.0,26.0,26.0,0.006111111111111178,0.2695000000000001,-0.06470000000000001,293.365,-2.7035,-2.690857142857143,-1.5917,-1.5225,-239.07999999999998,216.0875,190.768125,0.0,0.0,0.0,0.0,0.022600000000000002,-5.498166666666667,-5.498166666666667,-0.5547000000000001,-0.3066666666666667,0.031625000000000014,0.4820000000000002,67.08500000000001,0.0058000000000000005,-0.23085,-0.5099999999999998,100.0,1.0,1.0,207.23666666666668,0.0,0.0,0.0,0.0,0.0,0.0,0.0,8784.0,0.0,55.0,5.0,241.47666666666666,1.0,0.0,0.0,0.0,0.0,0.0,1.0,0.0,0.5549999999999997,0.5549999999999997,0.0,0.0,1.0,55.0,616.79921,10000.0,85.000001,85.000001,85.000001,85.000001,395.0,0.0,0.0,0.0,1.0,83.335,52.872,52.872,48.981,48.981,34.0,-22.1025,26.16,-24.066666666666663,26.5625,0.0,1781.252,-0.48499999999999943,100.0,27.551,27.341,42.687,42.11,0.0,0.0,100.0,0.0,0.0,0.0,0.0,3002.857142857143,3187.0,3703.625,3861.4,305.6465,304.7155,315.86533333333335,314.46175,21.8519,20.579,21.9326,19.5381,314.999998,314.999998,324.999988,324.999988,99.55748571428572,99.50751666666666,99.56947142857143,99.54771428571429,0.1027499999999999,-0.030000000000000027,-0.09133333333333334,0.13633333333333333,-0.041666666666671404,-0.05624999999999858,1.6795,1.6509999999999998,37.575,29.618666666666666,38.079,35.6135,55.613,35.001,60.466499999999996,54.5835,53.579,34.165,59.028999999999996,52.458,52.765,33.7435,58.959,52.173,-0.11749999999999994,-0.03750000000000009,0.10226500000000001,0.11311500000000001,0.0,210.065,210.085,207.23666666666668,207.23666666666668,0.0,0.0
12,0.0,0.0,0.0,1.0,1.0,0.0,0.0,1.0,0.0,100.0,1.0,1.1856,26.0,0.0,0.0,0.0,59.999996,0.0,26.0,26.0,26.0,26.0,0.025666666666666726,0.2985,0.009925,292.816,-2.7578,-2.6831428571428573,-1.5547,-1.52,-235.86,216.065,190.747375,0.0,0.0,0.0,0.0,0.025466666666666665,-5.498166666666667,-5.498166666666667,-0.5403,0.334,0.01912500000000006,0.657,67.22200000000001,0.024900000000000002,-0.19940000000000002,-0.6160000000000005,100.0,1.0,1.0,207.44,0.0,0.0,0.0,0.0,0.0,0.0,0.0,8792.6,0.0,55.0,5.0,241.97,0.0,0.0,0.0,0.0,0.0,0.0,1.0,0.0,0.602999999999998,0.602999999999998,0.0,0.0,0.0,55.0,616.79921,10000.0,85.000001,85.000001,85.000001,85.000001,395.0,0.0,0.0,0.0,1.0,166.665,52.872,52.872,47.668,47.668,34.0,-22.0975,26.968,-26.743333333333336,30.0225,0.0,1781.204,-0.5799999999999983,100.0,27.455,27.543,42.591,42.019,0.0,0.0,100.0,0.0,0.0,0.0,0.0,3015.714285714286,3186.0,4190.75,4169.8,305.622,304.75175,314.64033333333333,313.694,21.8608,20.5842,21.9427,19.5473,314.999998,314.999998,324.999988,324.999988,99.55748571428572,99.50751666666666,99.56961428571428,99.54785714285714,0.11675000000000013,-0.00824999999999998,-0.06866666666666667,0.14666666666666667,-0.02833333333332888,-0.0625,1.584,1.5470000000000002,37.629999999999995,29.651333333333334,38.141999999999996,35.670500000000004,55.602000000000004,35.037,60.5015,54.646,53.568,34.198,59.0615,52.518,52.753,33.775,58.9885,52.232,-0.12050000000000005,-0.03200000000000003,0.10318500000000001,0.10483,0.0,210.5,210.55,207.44,207.44,0.0,0.0
13,0.0,0.0,0.0,1.0,1.0,0.0,0.0,1.0,0.0,100.0,1.0,1.1856,26.0,0.0,0.0,0.0,59.999996,0.0,26.0,26.0,26.0,26.0,0.05711111111111111,0.28200000000000003,0.035825,292.389,-2.7429,-2.669142857142857,-1.6299000000000001,-1.4994,-232.42000000000002,216.04250000000002,190.725625,0.0,0.0,0.0,0.0,0.02673333333333333,-5.498166666666667,-5.498166666666667,-0.5311,-0.044,0.024499999999999966,-0.41700000000000004,67.364,0.0398,-0.20425000000000001,-0.734,100.0,1.0,1.0,207.81,0.0,0.0,0.0,0.0,0.0,0.0,0.0,8808.4,0.0,55.0,5.0,242.48333333333335,1.0,0.0,0.0,0.0,0.0,0.0,1.0,0.0,0.6539999999999999,0.6539999999999999,0.0,0.0,1.0,55.0,616.79921,10000.0,85.000001,85.000001,85.000001,85.000001,395.0,0.0,0.0,0.0,1.0,166.665,52.567,52.567,47.531,47.531,34.0,-22.27,26.418,-28.423333333333336,31.705000000000002,0.0,1781.153,-0.745000000000001,100.0,27.546,27.893,42.703,42.656,0.0,0.0,100.0,0.0,0.0,0.0,0.0,3144.714285714286,3086.7,4262.875,4255.9,305.385,304.86525,314.541,313.3505,21.8704,20.5898,21.9535,19.557299999999998,314.999998,314.999998,324.999988,324.999988,99.55751428571429,99.50751666666666,99.56975714285714,99.548,0.13074999999999992,-0.0012499999999999734,-0.06816666666666667,0.16466666666666666,-0.04333333333332945,-0.05749999999999744,1.549,1.5204999999999997,37.69,29.686,38.209,35.733000000000004,55.592,35.0745,60.539500000000004,54.716499999999996,53.559,34.2325,59.097,52.585,52.742000000000004,33.808,59.0205,52.298500000000004,-0.1359999999999999,-0.014000000000000234,0.10707000000000001,0.11252500000000001,0.0,210.935,210.985,207.81,207.81,0.0,0.0
14,0.0,0.0,0.0,1.0,1.0,0.0,0.0,1.0,0.0,100.0,1.0,1.1856,26.0,0.0,0.0,0.0,59.999996,0.0,26.0,26.0,26.0,26.0,0.06955555555555559,0.2743,-0.0066,292.587,-2.7423,-2.6105714285714288,-1.6415000000000002,-1.5012,-228.98,216.01999999999998,190.704375,0.0,0.0,0.0,0.0,0.028733333333333333,-5.498166666666667,-5.498166666666667,-0.5418000000000001,-0.16033333333333336,0.059250000000000025,1.3519999999999999,67.504,0.0558,-0.220675,-1.0179999999999998,100.0,1.0,1.0,208.32999999999998,0.0,0.0,0.0,0.0,0.0,0.0,0.0,8830.3,0.0,55.0,5.0,242.98666666666668,0.0,0.0,0.0,0.0,0.0,0.0,1.0,0.0,0.7049999999999983,0.7049999999999983,0.0,0.0,0.0,55.0,616.79921,10000.0,85.000001,85.000001,85.000001,85.000001,395.0,0.0,0.0,0.0,1.0,333.33500000000004,52.612,52.612,47.729,47.729,34.0,-19.58,28.746000000000002,-25.373333333333335,31.6525,0.0,1781.101,-0.879999999999999,100.0,27.655,27.863,42.78,42.852000000000004,0.0,0.0,100.0,0.0,0.0,0.0,0.0,2918.5714285714284,3276.7,3997.75,4189.2,305.8655,304.47475,315.111,313.63075,21.8798,20.5953,21.9641,19.5673,314.999998,314.999998,324.999988,324.999988,99.55752857142858,99.50753333333333,99.56991428571429,99.54814285714286,0.15600000000000014,0.028000000000000025,-0.0485,0.17966666666666667,-0.046666666666666856,-0.048749999999998295,1.5925,1.5459999999999998,37.748999999999995,29.720666666666666,38.275999999999996,35.795500000000004,55.583,35.1125,60.5755,54.786500000000004,53.55,34.2675,59.129999999999995,52.650999999999996,52.732,33.841499999999996,59.0505,52.364,-0.14949999999999997,-0.0034999999999998366,0.11422500000000001,0.10769500000000001,0.0,211.35000000000002,211.41,208.32999999999998,208.32999999999998,0.0,0.0
15,0.0,0.0,0.0,1.0,1.0,0.0,0.0,1.0,0.0,100.0,1.0,1.1856,26.0,0.0,0.0,0.0,59.999996,0.0,26.0,26.0,26.0,26.0,0.09944444444444445,0.28269999999999995,0.005975,292.648,-2.7180999999999997,-2.567285714285714,-1.6394000000000002,-1.4418,-225.74,216.0,190.684125,0.0,0.0,0.0,0.0,0.030633333333333332,-5.498166666666667,-5.498166666666667,-0.5337000000000001,0.3113333333333333,0.08999999999999986,1.138,67.636,0.0743,-0.20215,-1.186,100.0,1.0,1.0,208.73333333333335,0.0,0.0,0.0,0.0,0.0,0.0,0.0,8847.4,0.0,55.0,5.0,243.46,1.0,0.0,0.0,0.0,0.0,0.0,1.0,0.0,0.7530000000000001,0.7530000000000001,0.0,0.0,1.0,55.0,616.79921,10000.0,85.000001,85.000001,85.000001,85.000001,395.0,0.0,0.0,0.0,1.0,333.33500000000004,52.811,52.811,47.852000000000004,47.852000000000004,34.0,-17.9,28.1,-23.706666666666663,33.1175,0.0,1781.054,-0.8550000000000004,100.0,27.66,27.94,42.492000000000004,42.908,0.0,0.0,100.0,0.0,0.0,0.0,0.0,2780.857142857143,3242.9,3962.625,4329.6,306.255,304.57325,315.21,313.30175,21.8887,20.6006,21.9741,19.5766,314.999998,314.999998,324.999988,324.999988,99.55754285714286,99.50753333333333,99.57004285714285,99.54828571428571,0.16700000000000026,0.029749999999999943,-0.021500000000000002,0.20033333333333334,-0.04999999999999716,-0.04374999999999574,1.5985,1.5535,37.804,29.753999999999998,38.338,35.8535,55.575,35.149,60.608000000000004,54.8515,53.542,34.3015,59.16,52.713,52.723,33.874,59.0775,52.426,-0.1399999999999999,-0.016000000000000014,0.101995,0.11332500000000001,0.0,211.76999999999998,211.845,208.73333333333335,208.73333333333335,0.0,0.0
16,0.0,0.0,0.0,1.0,1.0,0.0,0.0,1.0,0.0,100.0,1.0,1.1856,26.0,0.0,0.0,0.0,59.999996,0.0,26.0,26.0,26.0,26.0,0.13144444444444447,0.2652000000000001,-0.058925000000000005,292.679,-2.8183,-2.597142857142857,-1.6115,-1.4402000000000001,-222.29,215.98250000000002,190.662,0.0,0.0,0.0,0.0,0.032633333333333334,-5.498166666666667,-5.498166666666667,-0.5543,-0.7603333333333334,0.07737499999999997,-0.958,67.776,0.0893,-0.21775,-1.1980000000000004,100.0,1.0,1.0,209.14666666666668,0.0,0.0,0.0,0.0,0.0,0.0,0.0,8865.0,0.0,55.0,5.0,243.96666666666667,0.0,0.0,0.0,0.0,0.0,0.0,1.0,0.0,0.8039999999999985,0.8039999999999985,0.0,0.0,0.0,55.0,616.79921,10000.0,85.000001,85.000001,85.000001,85.000001,395.0,0.0,0.0,0.0,1.0,333.33500000000004,52.765,52.765,47.562,47.562,34.0,-19.775,28.426000000000002,-23.08,31.735,0.0,1781.002,-0.7699999999999996,100.0,27.171,28.181,42.644999999999996,43.127,0.0,0.0,100.0,0.0,0.0,0.0,0.0,2962.857142857143,3206.4,3999.25,4110.0,306.017,304.50475,315.1566666666667,313.7825,21.8977,20.6063,21.9848,19.5866,314.999998,314.999998,324.999988,324.999988,99.55755714285715,99.50753333333333,99.5702,99.54844285714286,0.16875000000000018,0.034250000000000114,-0.011333333333333334,0.20983333333333334,-0.05333333333332746,-0.030000000000001137,1.589,1.5419999999999998,37.861000000000004,29.78933333333333,38.405,35.916,55.563,35.1885,60.6455,54.920500000000004,53.53,34.338,59.195,52.778999999999996,52.71,33.909,59.109,52.4915,-0.139,-0.021500000000000075,0.10693000000000001,0.099625,0.0,212.16,212.24,209.14666666666668,209.14666666666668,0.0,0.0
17,0.0,0.0,0.0,1.0,1.0,0.0,0.0,1.0,0.0,100.0,1.0,1.1856,26.0,0.0,0.0,0.0,59.999996,0.0,26.0,26.0,26.0,26.0,0.10200000000000009,0.28690000000000015,-0.0298,292.358,-2.7719,-2.555142857142857,-1.6486,-1.4643000000000002,-218.82999999999998,215.9675,190.6395,0.0,0.0,0.0,0.0,0.034633333333333335,-5.498166666666667,-5.498166666666667,-0.5455,0.5796666666666667,0.05699999999999994,0.661,67.914,0.0956,-0.20067500000000002,-1.0939999999999994,100.0,1.0,1.0,209.56,0.0,0.0,0.0,0.0,0.0,0.0,0.0,8882.4,0.0,55.0,5.0,244.46333333333334,1.0,0.0,0.0,0.0,0.0,0.0,1.0,0.0,0.8550000000000004,0.8550000000000004,0.0,0.0,1.0,55.0,616.79921,10000.0,85.000001,85.000001,85.000001,85.000001,395.0,0.0,0.0,0.0,1.0,333.33500000000004,52.429,52.429,47.562,47.562,34.0,-19.43,27.694,-24.84,34.0125,0.0,1780.951,-0.6149999999999984,100.0,27.79,28.345,42.446,42.973,0.0,0.0,100.0,0.0,0.0,0.0,0.0,2970.142857142857,3177.0,4217.0,4272.8,305.7785,304.78525,314.6886666666667,313.49875,21.9071,20.612099999999998,21.9954,19.5965,314.999998,314.999998,324.999988,324.999988,99.55758571428571,99.50755,99.57034285714286,99.54858571428572,0.17399999999999993,0.03875000000000006,-0.0061666666666666675,0.22133333333333335,-0.04333333333332945,-0.04749999999999943,1.58,1.5364999999999998,37.92,29.825333333333333,38.471000000000004,35.978,55.556,35.230000000000004,60.6795,54.989,53.522999999999996,34.376,59.2265,52.844,52.702,33.945499999999996,59.1375,52.556,-0.12650000000000006,-0.034499999999999975,0.10699000000000002,0.10416500000000001,0.0,212.64,212.715,209.56,209.56,0.0,0.0
18,0.0,0.0,0.0,1.0,1.0,0.0,0.0,1.0,0.0,100.0,1.0,1.1856,26.0,0.0,0.0,0.0,59.999996,0.0,26.0,26.0,26.0,26.0,0.07699999999999996,0.2691000000000001,-0.0257,292.343,-2.8028,-2.532571428571429,-1.6628,-1.4152,-215.56,215.95749999999998,190.618375,0.0,0.0,0.0,0.0,0.036533333333333334,-5.498166666666667,-5.498166666666667,-0.553,-0.5723333333333334,0.07537499999999997,0.8940000000000001,68.045,0.09480000000000001,-0.214725,-0.7479999999999993,100.0,1.0,1.0,209.95333333333332,0.0,0.0,0.0,0.0,0.0,0.0,0.0,8899.1,0.0,55.0,5.0,244.93333333333334,0.0,0.0,0.0,0.0,0.0,0.0,1.0,0.0,0.9029999999999987,0.9029999999999987,0.0,0.0,0.0,55.0,616.79921,10000.0,85.000001,85.000001,85.000001,85.000001,395.0,0.0,0.0,0.0,1.0,333.33500000000004,52.444,52.444,47.379,47.379,34.0,-20.595,28.436,-24.06,31.962500000000002,0.0,1780.903,-0.259999999999998,100.0,27.585,28.12,42.851,43.4,0.0,0.0,100.0,0.0,0.0,0.0,0.0,2955.285714285714,3360.5,4045.0,4172.3,305.908,304.32,315.03266666666667,313.70525,21.9158,20.6174,22.0055,19.6059,314.999998,314.999998,324.999988,324.999988,99.5576,99.50755,99.57048571428571,99.54874285714286,0.14800000000000013,0.02100000000000013,-0.010833333333333334,0.213,-0.03499999999999659,-0.054999999999999716,1.601,1.5585,37.974000000000004,29.858666666666664,38.534,36.037,55.546,35.266,60.715,55.056,53.513999999999996,34.4095,59.259,52.908,52.691,33.978,59.167,52.6195,-0.09050000000000002,-0.058499999999999996,0.10691500000000001,0.114415,0.0,213.01999999999998,213.075,209.95333333333332,209.95333333333332,0.0,0.0
19,0.0,0.0,0.0,1.0,1.0,0.0,0.0,1.0,0.0,100.0,1.0,1.1856,26.0,0.0,0.0,0.0,59.999996,0.0,26.0,26.0,26.0,26.0,0.07022222222222219,0.28100000000000014,0.0345,291.824,-2.7634,-2.5307142857142857,-1.6621000000000001,-1.4118000000000002,-212.09,215.9475,190.59575,0.0,0.0,0.0,0.0,0.03856666666666667,-5.498166666666667,-5.498166666666667,-0.5462,0.8463333333333334,0.06549999999999989,-0.804,68.182,0.0839,-0.205425,-0.2860000000000005,100.0,1.0,1.0,210.38333333333333,0.0,0.0,0.0,0.0,0.0,0.0,0.0,8917.4,0.0,55.0,5.0,245.42333333333335,1.0,0.0,0.0,0.0,0.0,0.0,1.0,0.0,0.9540000000000006,0.9540000000000006,0.0,0.0,1.0,55.0,616.79921,10000.0,85.000001,85.000001,85.000001,85.000001,395.0,0.0,0.0,0.0,1.0,333.33500000000004,51.62,51.62,47.272,47.272,34.0,-23.174999999999997,26.788,-26.936666666666664,31.86,0.0,1780.851,0.10000000000000142,100.0,28.042,28.727,42.627,43.361000000000004,0.0,0.0,100.0,0.0,0.0,0.0,0.0,3182.4285714285716,3276.0,4253.25,4272.5,305.2585,304.28075,314.6573333333333,313.467,21.9252,20.6232,22.0161,19.6159,314.999998,314.999998,324.999988,324.999988,99.55761428571428,99.50755,99.57062857142857,99.54888571428572,0.12300000000000022,-0.006000000000000005,-0.037,0.19366666666666665,-0.06833333333332803,-0.054999999999999716,1.5725,1.5484999999999998,38.033,29.895333333333333,38.599999999999994,36.099000000000004,55.538,35.3065,60.749,55.124,53.506,34.447,59.2905,52.973,52.682,34.0135,59.195499999999996,52.684,-0.07250000000000001,-0.08099999999999996,0.10363000000000001,0.11281500000000001,0.0,213.51999999999998,213.515,210.38333333333333,210.38333333333333,0.0,0.0
20,0.0,0.0,0.0,1.0,1.0,0.0,0.0,1.0,0.0,100.0,1.0,1.1856,26.0,0.0,0.0,0.0,59.999996,0.0,26.0,26.0,26.0,26.0,0.04299999999999993,0.27980000000000005,0.0304,292.099,-2.7951,-2.611142857142857,-1.5773000000000001,-1.5449000000000002,-208.61,215.94,190.5735,0.0,0.0,0.0,0.0,0.040600000000000004,-5.498166666666667,-5.498166666666667,-0.546,-1.1480000000000001,0.05424999999999991,0.13900000000000023,68.322,0.059300000000000005,-0.21200000000000002,0.0420000000000007,100.0,1.0,1.0,210.66666666666669,0.0,0.0,0.0,0.0,0.0,0.0,0.0,8929.4,0.0,55.0,5.0,245.93,0.0,0.0,0.0,0.0,0.0,0.0,0.0,0.0,1.004999999999999,1.004999999999999,0.0,0.0,0.0,55.0,616.79921,10000.0,85.000001,85.000001,85.000001,85.000001,395.0,0.0,0.0,0.0,1.0,333.33500000000004,52.887,52.887,46.478,46.478,34.0,-21.23,25.372,-26.933333333333334,33.0625,0.0,1780.8,0.240000000000002,100.0,27.631,28.142,43.467,43.538,0.0,0.0,100.0,0.0,0.0,0.0,0.0,2846.0,3173.7,4213.75,4297.3,306.258,304.82375,314.51666666666665,313.205,21.9343,20.6288,22.0269,19.626,314.999998,314.999998,324.999988,324.999988,99.55762857142857,99.50756666666666,99.57077142857143,99.54902857142856,0.10749999999999993,-0.02774999999999994,-0.0545,0.16716666666666666,-0.04999999999999716,-0.05124999999999602,1.508,1.4994999999999998,38.09,29.930333333333333,38.668,36.1625,55.524,35.344,60.7885,55.195,53.492000000000004,34.4815,59.3275,53.0405,52.667,34.047,59.229,52.751,-0.06099999999999994,-0.09450000000000003,0.10522500000000001,0.10761000000000001,0.0,213.9,213.89499999999998,210.66666666666669,210.66666666666669,0.0,0.0
21,0.0,0.0,0.0,1.0,1.0,0.0,0.0,1.0,0.0,100.0,1.0,1.1856,26.0,0.0,0.0,0.0,59.999996,0.0,26.0,26.0,26.0,26.0,0.0030000000000001137,0.2682,-0.078975,292.496,-2.683,-2.692,-1.6225,-1.5257,-205.32999999999998,215.9325,190.551875,0.0,0.0,0.0,0.0,0.0425,-5.498166666666667,-5.498166666666667,-0.5733,0.41933333333333334,0.01550000000000007,-0.19399999999999995,68.446,0.0317,-0.220775,0.32200000000000095,100.0,1.0,1.0,211.32666666666665,0.0,0.0,0.0,0.0,0.0,0.0,0.0,8957.3,0.0,55.0,5.0,246.37666666666667,1.0,0.0,0.0,0.0,0.0,0.0,0.0,0.0,1.0530000000000008,1.0530000000000008,0.0,0.0,1.0,55.0,616.79921,10000.0,85.000001,85.000001,85.000001,85.000001,395.0,0.0,0.0,0.0,1.0,333.33500000000004,52.246,52.246,48.035,48.035,34.0,-22.752499999999998,25.36,-26.669999999999998,27.2775,0.0,1780.752,0.21999999999999886,100.0,28.105,28.166,42.956,43.0,0.0,0.0,100.0,0.0,0.0,0.0,0.0,3060.4285714285716,3156.6,4010.125,3923.6000000000004,305.442,304.786,315.20466666666664,314.381,21.9432,20.6342,22.0368,19.6351,314.999998,314.999998,324.999988,324.999988,99.55764285714285,99.50756666666666,99.57091428571428,99.54917142857143,0.09675000000000011,-0.04425000000000001,-0.08216666666666668,0.1395,-0.03999999999999915,-0.05375000000000085,1.6215,1.6404999999999998,38.144999999999996,29.96366666666667,38.730000000000004,36.2195,55.513,35.3815,60.8185,55.254999999999995,53.482,34.516,59.3555,53.0975,52.656,34.08,59.254,52.8075,-0.0605,-0.09549999999999992,0.104785,0.10162500000000001,0.0,214.315,214.29000000000002,211.32666666666665,211.32666666666665,0.0,0.0
22,0.0,0.0,0.0,1.0,1.0,0.0,0.0,1.0,0.0,100.0,1.0,1.1856,26.0,0.0,0.0,0.0,59.999996,0.0,26.0,26.0,26.0,26.0,0.00011111111111117289,0.2762,0.026925,291.946,-2.6582,-2.7005714285714286,-1.6099999999999999,-1.5199,-201.82999999999998,215.9275,190.528,0.0,0.0,0.0,0.0,0.044533333333333334,-5.498166666666667,-5.498166666666667,-0.5507000000000001,0.15333333333333335,0.0129999999999999,-0.44900000000000007,68.58500000000001,0.0085,-0.1973,0.524,100.0,1.0,1.0,211.52666666666667,0.0,0.0,0.0,0.0,0.0,0.0,0.0,8965.9,0.0,55.0,5.0,246.87666666666667,0.0,0.0,0.0,0.0,0.0,0.0,0.0,0.0,1.1039999999999992,1.1039999999999992,0.0,0.0,0.0,55.0,616.79921,10000.0,85.000001,85.000001,85.000001,85.000001,395.0,0.0,0.0,0.0,1.0,333.33500000000004,52.292,52.292,46.799,46.799,34.0,-23.32,23.314,-31.183333333333334,28.715,0.0,1780.701,0.14499999999999957,100.0,28.123,28.32,43.427,43.152,0.0,0.0,100.0,0.0,0.0,0.0,0.0,3058.4285714285716,3030.7,4312.875,4225.8,305.587,304.962,314.4683333333333,313.537,21.9526,20.6398,22.0476,19.6451,314.999998,314.999998,324.999988,324.999988,99.55764285714285,99.50758333333333,99.57107142857143,99.54932857142857,0.07425000000000015,-0.07374999999999998,-0.11466666666666668,0.10916666666666668,-0.06499999999999773,-0.058749999999996305,1.521,1.5259999999999998,38.204,29.998666666666665,38.797,36.282,55.501000000000005,35.420500000000004,60.858000000000004,55.3225,53.47,34.5525,59.391999999999996,53.162,52.644,34.1145,59.287,52.871,-0.06499999999999995,-0.09600000000000009,0.10157500000000001,0.10758500000000001,0.0,214.775,214.70499999999998,211.52666666666667,211.52666666666667,0.0,0.0
23,0.0,0.0,0.0,1.0,1.0,0.0,0.0,1.0,0.0,100.0,1.0,1.1856,26.0,0.0,0.0,0.0,59.999996,0.0,26.0,26.0,26.0,26.0,-0.019888888888888845,0.2521,-0.048875,291.992,-2.6811,-2.660857142857143,-1.6534,-1.5938,-198.12,215.92000000000002,190.503125,0.0,0.0,0.0,0.0,0.04666666666666667,-5.498166666666667,-5.498166666666667,-0.5702,-0.20433333333333334,0.0017499999999999183,-0.7849999999999999,68.726,-0.0047,-0.22495,0.5039999999999996,100.0,1.0,1.0,212.07999999999998,0.0,0.0,0.0,0.0,0.0,0.0,0.0,8989.3,0.0,55.0,5.0,247.39,1.0,0.0,0.0,0.0,0.0,0.0,0.0,0.0,1.1580000000000013,1.1580000000000013,0.0,0.0,1.0,55.0,616.79921,10000.0,85.000001,85.000001,85.000001,85.000001,395.0,0.0,0.0,0.0,1.0,166.665,51.697,51.697,47.852000000000004,47.852000000000004,34.0,-26.6375,22.976,-29.48,26.564999999999998,0.0,1780.649,0.17999999999999972,100.0,28.434,28.33,43.633,43.295,0.0,0.0,100.0,0.0,0.0,0.0,0.0,3327.857142857143,3069.0,4038.0,3920.5,304.7985,304.937,315.19,314.231,21.9626,20.6458,22.059,19.6557,314.999998,314.999998,324.999988,324.999988,99.55765714285714,99.50758333333333,99.57122857142858,99.54948571428571,0.059250000000000025,-0.07899999999999996,-0.123,0.098,-0.03999999999999915,-0.060000000000002274,1.5695,1.5829999999999997,38.266,30.036,38.869,36.348,55.488,35.463,60.8965,55.394,53.457,34.591499999999996,59.428,53.230000000000004,52.629999999999995,34.1525,59.32,52.9385,-0.07099999999999995,-0.09399999999999986,0.10475000000000001,0.10644500000000001,0.0,215.18,215.14,212.07999999999998,212.07999999999998,0.0,0.0
24,0.0,0.0,0.0,1.0,1.0,0.0,0.0,1.0,0.0,100.0,1.0,1.1856,26.0,0.0,0.0,0.0,59.999996,0.0,26.0,26.0,26.0,26.0,-0.03388888888888886,0.26760000000000006,-0.04225,292.236,-2.6996,-2.6755714285714287,-1.5699,-1.5366,-194.82,215.9125,190.480625,0.0,0.0,0.0,0.0,0.048600000000000004,-5.498166666666667,-5.498166666666667,-0.5753,-0.49233333333333335,0.007624999999999993,-0.06000000000000005,68.855,-0.008,-0.21205000000000002,0.33399999999999963,100.0,1.0,1.0,212.36666666666667,0.0,0.0,0.0,0.0,0.0,0.0,0.0,9001.5,0.0,55.0,5.0,247.85000000000002,0.0,0.0,0.0,0.0,0.0,0.0,0.0,0.0,1.2059999999999995,1.2059999999999995,0.0,0.0,0.0,55.0,616.79921,10000.0,85.000001,85.000001,85.000001,85.000001,395.0,0.0,0.0,0.0,1.0,166.665,52.887,52.887,46.829,46.829,34.0,-23.4175,21.918,-31.669999999999998,26.762500000000003,0.0,1780.601,0.14000000000000057,100.0,28.175,27.986,43.707,43.128,0.0,0.0,100.0,0.0,0.0,0.0,0.0,2964.142857142857,2931.6,4337.875,4078.8,305.906,305.433,314.36066666666665,313.918,21.9714,20.6509,22.069,19.665,314.999998,314.999998,324.999988,324.999988,99.55767142857142,99.50758333333333,99.57138571428571,99.54962857142857,0.05900000000000016,-0.07699999999999996,-0.13033333333333336,0.0915,-0.04333333333332945,-0.04749999999999943,1.5394999999999999,1.5524999999999998,38.321,30.068333333333335,38.932,36.4065,55.474999999999994,35.499,60.932,55.4555,53.445,34.625,59.461,53.2885,52.616,34.184,59.3495,52.9965,-0.06899999999999995,-0.08400000000000007,0.10391500000000001,0.10968000000000001,0.0,215.57,215.54000000000002,212.36666666666667,212.36666666666667,0.0,0.0
25,0.0,0.0,0.0,1.0,1.0,0.0,0.0,1.0,0.0,100.0,1.0,1.1856,26.0,0.0,0.0,0.0,59.999996,0.0,26.0,26.0,26.0,26.0,-0.025222222222222146,0.27190000000000003,-0.07087500000000001,292.191,-2.7641,-2.637714285714286,-1.5833,-1.5439,-191.51,215.9025,190.456875,0.0,0.0,0.0,0.0,0.05053333333333333,-5.498166666666667,-5.498166666666667,-0.6064,-0.069,0.007749999999999924,-1.092,68.979,-0.0115,-0.219,0.3440000000000003,100.0,1.0,1.0,212.90333333333334,0.0,0.0,0.0,0.0,0.0,0.0,0.0,9024.3,0.0,55.0,5.0,248.29666666666668,1.0,0.0,0.0,0.0,0.0,0.0,0.0,0.0,1.2540000000000013,1.2540000000000013,0.0,0.0,1.0,55.0,616.79921,10000.0,85.000001,85.000001,85.000001,85.000001,395.0,0.0,0.0,0.0,1.0,333.33500000000004,51.926,51.926,47.653,47.653,34.0,-26.872500000000002,24.092,-28.89,26.052500000000002,0.0,1780.552,0.10000000000000142,100.0,28.12,28.213,43.46,42.870000000000005,0.0,0.0,100.0,0.0,0.0,0.0,0.0,3277.5714285714284,3214.6,3992.0,3974.5,305.134,304.555,315.2366666666667,314.22875,21.9801,20.6563,22.079,19.6743,314.999998,314.999998,324.999988,324.999988,99.55767142857142,99.5076,99.57151428571429,99.54977142857143,0.05624999999999991,-0.07574999999999998,-0.13916666666666666,0.09733333333333333,-0.06499999999999773,-0.04749999999999943,1.6079999999999999,1.6139999999999999,38.376000000000005,30.101666666666667,38.994,36.4645,55.461,35.537,60.964,55.515,53.431,34.66,59.491,53.3455,52.602000000000004,34.2175,59.3765,53.0525,-0.07050000000000001,-0.08550000000000013,0.11253,0.10762000000000001,0.0,215.97,215.925,212.90333333333334,212.90333333333334,0.0,0.0
26,0.0,0.0,0.0,1.0,1.0,0.0,0.0,1.0,0.0,100.0,1.0,1.1856,26.0,0.0,0.0,0.0,59.999996,0.0,26.0,26.0,26.0,26.0,-0.05166666666666664,0.2764,0.07185,290.955,-2.7048,-2.7237142857142858,-1.6246,-1.5406,-187.99,215.89249999999998,190.431,0.0,0.0,0.0,0.0,0.052566666666666664,-5.498166666666667,-5.498166666666667,-0.5662,0.7973333333333333,-0.011624999999999996,0.7280000000000002,69.11500000000001,-0.0135,-0.18912500000000002,0.25,100.0,1.0,1.0,213.05,0.0,0.0,0.0,0.0,0.0,0.0,0.0,9030.4,0.0,55.0,5.0,248.78666666666666,0.0,0.0,0.0,0.0,0.0,0.0,0.0,0.0,1.3049999999999997,1.3049999999999997,0.0,0.0,0.0,55.0,616.79921,10000.0,85.000001,85.000001,85.000001,85.000001,395.0,0.0,0.0,0.0,1.0,333.33500000000004,51.331,51.331,45.882999999999996,45.882999999999996,34.0,-24.6475,24.384,-34.766666666666666,30.4825,0.0,1780.5,-0.03999999999999915,100.0,29.128,28.718,44.024,43.11,0.0,0.0,100.0,0.0,0.0,0.0,0.0,3158.0,3157.2,4572.5,4474.2,305.156,304.746,313.81233333333336,312.97325,21.9897,20.6621,22.0898,19.6843,314.999998,314.999998,324.999988,324.999988,99.55768571428571,99.50761666666666,99.57167142857143,99.54991428571428,0.07850000000000001,-0.07574999999999998,-0.128,0.09783333333333333,-0.023333333333326323,-0.06125000000000114,1.4809999999999999,1.4925000000000002,38.435,30.137999999999998,39.061,36.527,55.451,35.579499999999996,61.003,55.583,53.422,34.699,59.5275,53.41,52.592,34.254999999999995,59.41,53.1165,-0.08949999999999991,-0.08550000000000013,0.11266500000000002,0.10230500000000001,0.0,216.405,216.39499999999998,213.05,213.05,0.0,0.0
27,0.0,0.0,0.0,1.0,1.0,0.0,0.0,1.0,0.0,100.0,1.0,1.1856,26.0,0.0,0.0,0.0,59.999996,0.0,26.0,26.0,26.0,26.0,-0.014000000000000012,0.25150000000000006,-0.034800000000000005,291.473,-2.6794000000000002,-2.6844285714285716,-1.6198000000000001,-1.6114000000000002,-184.45999999999998,215.8825,190.406375,0.0,0.0,0.0,0.0,0.05463333333333334,-5.498166666666667,-5.498166666666667,-0.5930000000000001,-1.0506666666666669,-0.011249999999999982,-0.647,69.247,-0.006500000000000001,-0.23742500000000002,0.10400000000000009,100.0,1.0,1.0,213.57,0.0,0.0,0.0,0.0,0.0,0.0,0.0,9052.5,0.0,55.0,5.0,249.26666666666665,1.0,0.0,0.0,0.0,0.0,0.0,0.0,0.0,1.355999999999998,1.355999999999998,0.0,0.0,1.0,55.0,616.79921,10000.0,85.000001,85.000001,85.000001,85.000001,395.0,0.0,0.0,0.0,1.0,166.665,51.788,51.788,46.326,46.326,34.0,-24.405,23.866,-30.106666666666666,27.59,0.0,1780.451,-0.06500000000000128,100.0,28.598,28.642,44.625,43.855000000000004,0.0,0.0,100.0,0.0,0.0,0.0,0.0,3170.5714285714284,3093.3,4126.5,3990.1000000000004,305.334,304.8755,314.7973333333333,314.034,21.9989,20.6677,22.1007,19.694499999999998,314.999998,314.999998,324.999988,324.999988,99.5577,99.50761666666666,99.57182857142857,99.55005714285714,0.07525000000000004,-0.06799999999999995,-0.11966666666666667,0.09883333333333333,-0.036666666666668846,-0.042499999999996874,1.5334999999999999,1.549,38.492999999999995,30.173333333333332,39.129000000000005,36.5905,55.438,35.619,61.043,55.6515,53.41,34.736000000000004,59.564499999999995,53.475,52.578,34.29,59.4435,53.1805,-0.08650000000000002,-0.07399999999999984,0.10503000000000001,0.10665000000000001,0.0,216.745,216.74,213.57,213.57,0.0,0.0
28,0.0,0.0,0.0,1.0,1.0,0.0,0.0,1.0,0.0,100.0,1.0,1.1856,26.0,0.0,0.0,0.0,59.999996,0.0,26.0,26.0,26.0,26.0,-0.004222222222222127,0.264,-0.04995,291.702,-2.6938,-2.668285714285714,-1.568,-1.5737,-181.14,215.8725,190.3825,0.0,0.0,0.0,0.0,0.05656666666666667,-5.498166666666667,-5.498166666666667,-0.5969,0.633,-0.01462500000000011,-0.472,69.369,0.0005,-0.21265,0.06799999999999962,100.0,1.0,1.0,214.06333333333333,0.0,0.0,0.0,0.0,0.0,0.0,0.0,9073.3,0.0,55.0,5.0,249.7,0.0,0.0,0.0,0.0,0.0,0.0,0.0,0.0,1.404,1.404,0.0,0.0,0.0,55.0,616.79921,10000.0,85.000001,85.000001,85.000001,85.000001,395.0,0.0,0.0,0.0,1.0,333.33500000000004,51.682,51.682,47.256,47.256,34.0,-25.307499999999997,23.458,-28.45,27.942500000000003,0.0,1780.402,-0.09499999999999886,100.0,28.707,28.585,43.911,43.346000000000004,0.0,0.0,100.0,0.0,0.0,0.0,0.0,3258.5714285714284,3054.3,4077.75,4067.6000000000004,305.0805,304.97425,315.03133333333335,313.9925,22.0078,20.6731,22.110599999999998,19.7038,314.999998,314.999998,324.999988,324.999988,99.5577,99.50763333333333,99.57197142857143,99.55021428571429,0.0757500000000002,-0.06674999999999998,-0.1165,0.10966666666666668,-0.04833333333333201,-0.05250000000000199,1.582,1.5835,38.549,30.206666666666663,39.191,36.6485,55.428,35.657,61.073,55.710499999999996,53.4,34.7705,59.5925,53.531,52.568,34.323,59.4685,53.236000000000004,-0.09149999999999991,-0.07450000000000001,0.10748500000000001,0.10106000000000001,0.0,217.175,217.16,214.06333333333333,214.06333333333333,0.0,0.0
29,0.0,0.0,0.0,1.0,1.0,0.0,0.0,1.0,0.0,100.0,1.0,1.1856,26.0,0.0,0.0,0.0,59.999996,0.0,26.0,26.0,26.0,26.0,0.005555555555555536,0.25680000000000014,0.0176,291.351,-2.654,-2.7199999999999998,-1.5733000000000001,-1.5430000000000001,-177.6,215.86,190.356125,0.0,0.0,0.0,0.0,0.058600000000000006,-5.498166666666667,-5.498166666666667,-0.5982000000000001,-0.686,-0.0017499999999999183,0.9140000000000001,69.504,0.0079,-0.20727500000000001,-0.07200000000000006,100.0,1.0,1.0,214.28,0.0,0.0,0.0,0.0,0.0,0.0,0.0,9082.5,0.0,55.0,5.0,250.18666666666667,1.0,0.0,0.0,0.0,0.0,0.0,0.0,0.0,1.4549999999999983,1.4549999999999983,0.0,0.0,1.0,55.0,616.79921,10000.0,85.000001,85.000001,85.000001,85.000001,395.0,0.0,0.0,0.0,1.0,166.665,51.865,51.865,46.126999999999995,46.126999999999995,34.0,-22.994999999999997,25.776,-29.196666666666665,30.2025,0.0,1780.352,-0.134999999999998,100.0,28.464,28.299,44.342,43.572,0.0,0.0,100.0,0.0,0.0,0.0,0.0,3095.142857142857,3221.4,4230.875,4273.7,305.41,304.541,314.509,313.4395,22.0169,20.6787,22.1214,19.7139,314.999998,314.999998,324.999988,324.999988,99.55771428571428,99.50765,99.57211428571429,99.55035714285714,0.09125000000000005,-0.05674999999999997,-0.094,0.12133333333333333,-0.03499999999999659,-0.048749999999998295,1.503,1.505,38.605999999999995,30.241666666666667,39.259,36.7115,55.414,35.695499999999996,61.112,55.778,53.387,34.806,59.629,53.5955,52.553,34.3575,59.5015,53.2995,-0.09399999999999986,-0.07399999999999984,0.101245,0.101735,0.0,217.55,217.565,214.28,214.28,0.0,0.0
30,0.0,0.0,0.0,1.0,1.0,0.0,0.0,1.0,0.0,100.0,1.0,1.1856,26.0,0.0,0.0,0.0,59.999996,0.0,26.0,26.0,26.0,26.0,-0.0014444444444444704,0.2538,0.064525,290.909,-2.7119999999999997,-2.605857142857143,-1.5488,-1.6031,-174.26,215.85,190.33125,0.0,0.0,0.0,0.0,0.060566666666666664,-5.498166666666667,-5.498166666666667,-0.599,0.7503333333333334,-0.003874999999999851,0.5680000000000001,69.625,0.012400000000000001,-0.2119,-0.11600000000000055,100.0,1.0,1.0,214.72,0.0,0.0,0.0,0.0,0.0,0.0,0.0,9101.3,0.0,55.0,5.0,250.62333333333333,0.0,0.0,0.0,0.0,0.0,0.0,1.0,0.0,1.5030000000000001,1.5030000000000001,0.0,0.0,0.0,55.0,616.79921,10000.0,85.000001,85.000001,85.000001,85.000001,395.0,0.0,0.0,0.0,1.0,333.33500000000004,50.766,50.766,46.631,46.631,34.0,-24.93,25.701999999999998,-28.426666666666666,31.212500000000002,0.0,1780.303,-0.21999999999999886,100.0,29.256,29.033,44.104,43.596000000000004,0.0,0.0,100.0,0.0,0.0,0.0,0.0,3306.714285714286,3266.3,4219.875,4234.7,304.7285,304.42525,314.637,313.49375,22.0258,20.6843,22.1314,19.723300000000002,314.999998,314.999998,324.999988,324.999988,99.55772857142857,99.50765,99.57227142857143,99.5505,0.1027499999999999,-0.04325000000000001,-0.092,0.13083333333333336,-0.03499999999999659,-0.060000000000002274,1.526,1.5215,38.661,30.276666666666664,39.321,36.771,55.407,35.735,61.144,55.8405,53.379999999999995,34.843,59.658500000000004,53.655,52.545,34.3925,59.528,53.3585,-0.10450000000000004,-0.06499999999999995,0.10877,0.10497000000000001,0.0,217.98000000000002,217.97,214.72,214.72,0.0,0.0
31,0.0,0.0,0.0,1.0,1.0,0.0,0.0,1.0,0.0,100.0,1.0,1.1856,26.0,0.0,0.0,0.0,59.999996,0.0,26.0,26.0,26.0,26.0,-0.01488888888888884,0.2529000000000001,-0.000275,290.817,-2.7807,-2.583285714285714,-1.5948,-1.4979,-170.7,215.8375,190.305375,0.0,0.0,0.0,0.0,0.06263333333333335,-5.498166666666667,-5.498166666666667,-0.5830000000000001,-0.5176666666666666,0.0015000000000000568,-0.804,69.757,0.020300000000000002,-0.211375,-0.19200000000000017,100.0,1.0,1.0,215.0233333333333,0.0,0.0,0.0,0.0,0.0,0.0,0.0,9114.0,0.0,55.0,5.0,251.10000000000002,1.0,0.0,0.0,0.0,0.0,0.0,1.0,0.0,1.5539999999999985,1.5539999999999985,0.0,0.0,1.0,55.0,616.79921,10000.0,85.000001,85.000001,85.000001,85.000001,395.0,0.0,0.0,0.0,1.0,333.33500000000004,51.468,51.468,45.166,45.166,34.0,-24.1,24.503999999999998,-31.516666666666666,29.3325,0.0,1780.252,-0.21000000000000085,100.0,28.84,29.173000000000002,44.704,44.315,0.0,0.0,100.0,0.0,0.0,0.0,0.0,3139.714285714286,3192.5,4438.375,4169.0,305.5455,304.705,314.0966666666667,313.5935,22.035,20.6901,22.1423,19.7336,314.999998,314.999998,324.999988,324.999988,99.55774285714286,99.50765,99.57241428571429,99.55065714285715,0.09450000000000003,-0.04874999999999996,-0.09833333333333333,0.1285,-0.04833333333333201,-0.04625000000000057,1.48,1.4769999999999999,38.719,30.313000000000002,39.388999999999996,36.835,55.396,35.775,61.1835,55.9095,53.369,34.8795,59.695499999999996,53.721000000000004,52.533,34.4275,59.5615,53.423500000000004,-0.10399999999999987,-0.06400000000000006,0.11005500000000001,0.11235500000000001,0.0,218.34,218.35000000000002,215.0233333333333,215.0233333333333,0.0,0.0
32,0.0,0.0,0.0,1.0,1.0,0.0,0.0,1.0,0.0,100.0,1.0,1.1856,26.0,0.0,0.0,0.0,59.999996,0.0,26.0,26.0,26.0,26.0,-0.008000000000000007,0.26900000000000013,-0.049325,291.031,-2.706,-2.697285714285714,-1.6547,-1.5137,-167.14,215.825,190.27975,0.0,0.0,0.0,0.0,0.06470000000000001,-5.498166666666667,-5.498166666666667,-0.6005,0.07033333333333333,-0.02574999999999994,0.0990000000000002,69.884,0.0269,-0.220475,-0.2400000000000002,100.0,1.0,1.0,215.55,0.0,0.0,0.0,0.0,0.0,0.0,0.0,9136.4,0.0,55.0,5.0,251.55666666666667,0.0,0.0,0.0,0.0,0.0,0.0,1.0,0.0,1.6050000000000004,1.6050000000000004,0.0,0.0,0.0,55.0,616.79921,10000.0,85.000001,85.000001,85.000001,85.000001,395.0,0.0,0.0,0.0,1.0,166.665,51.285,51.285,46.219,46.219,34.0,-23.365000000000002,26.096,-29.13,29.7925,0.0,1780.202,-0.19000000000000128,100.0,28.995,29.037,44.513,44.05,0.0,0.0,100.0,0.0,0.0,0.0,0.0,3180.0,3187.9,4237.5,4192.3,305.172,304.72925,314.69433333333336,313.7935,22.0442,20.6959,22.1529,19.7436,314.999998,314.999998,324.999988,324.999988,99.55775714285714,99.50766666666667,99.57257142857142,99.5508,0.11050000000000004,-0.035250000000000004,-0.07933333333333333,0.14200000000000002,-0.041666666666671404,-0.058749999999996305,1.561,1.5594999999999999,38.775999999999996,30.349666666666664,39.456,36.8975,55.385,35.815,61.2175,55.9745,53.358999999999995,34.917,59.727000000000004,53.7825,52.522,34.463,59.59,53.4845,-0.09650000000000003,-0.06850000000000023,0.1019,0.10389500000000002,0.0,218.735,218.76,215.55,215.55,0.0,0.0
33,0.0,0.0,0.0,1.0,1.0,0.0,0.0,1.0,0.0,100.0,1.0,1.1856,26.0,0.0,0.0,0.0,59.999996,0.0,26.0,26.0,26.0,26.0,0.014111111111111185,0.25560000000000005,-0.044525,291.183,-2.7192,-2.6861428571428574,-1.5884,-1.5881,-163.78,215.815,190.25475,0.0,0.0,0.0,0.0,0.06663333333333334,-5.498166666666667,-5.498166666666667,-0.6064,-0.3486666666666667,-0.01650000000000018,1.379,70.007,0.0292,-0.209375,-0.16999999999999993,100.0,1.0,1.0,215.85333333333335,0.0,0.0,0.0,0.0,0.0,0.0,0.0,9149.2,0.0,55.0,5.0,252.0,1.0,0.0,0.0,0.0,0.0,0.0,1.0,0.0,1.6529999999999987,1.6529999999999987,0.0,0.0,1.0,55.0,616.79921,10000.0,85.000001,85.000001,85.000001,85.000001,395.0,0.0,0.0,0.0,1.0,333.33500000000004,51.772999999999996,51.772999999999996,46.126999999999995,46.126999999999995,34.0,-22.2925,25.578,-28.29,31.7275,0.0,1780.153,-0.23000000000000043,100.0,28.832,28.759,44.479,44.047,0.0,0.0,100.0,0.0,0.0,0.0,0.0,3047.5714285714284,3140.1,4229.625,4261.6,305.6075,304.8915,314.58366666666666,313.53,22.0528,20.7012,22.1629,19.7531,314.999998,314.999998,324.999988,324.999988,99.55777142857143,99.50766666666667,99.57271428571428,99.55094285714286,0.1107499999999999,-0.03374999999999995,-0.07766666666666668,0.14300000000000002,-0.03833333333332689,-0.05749999999999744,1.5425,1.5295,38.83,30.382666666666665,39.518,36.957,55.375,35.85,61.2515,56.037,53.349000000000004,34.949,59.7585,53.842,52.510999999999996,34.494,59.618,53.543,-0.10250000000000004,-0.06550000000000011,0.10411000000000001,0.111545,0.0,219.115,219.115,215.85333333333335,215.85333333333335,0.0,0.0
34,0.0,0.0,0.0,1.0,1.0,0.0,0.0,1.0,0.0,100.0,1.0,1.1856,26.0,0.0,0.0,0.0,59.999996,0.0,26.0,26.0,26.0,26.0,0.007777777777777883,0.254,-0.056650000000000006,291.565,-2.7514,-2.609857142857143,-1.6579000000000002,-1.5470000000000002,-160.0,215.8025,190.22525,0.0,0.0,0.0,0.0,0.06883333333333334,-5.498166666666667,-5.498166666666667,-0.637,-0.7153333333333334,0.014874999999999972,0.8439999999999999,70.142,0.0308,-0.21735000000000002,-0.16000000000000014,100.0,1.0,1.0,216.31,0.0,0.0,0.0,0.0,0.0,0.0,0.0,9168.6,0.0,55.0,5.0,252.48666666666668,0.0,0.0,0.0,0.0,0.0,0.0,1.0,0.0,1.7070000000000007,1.7070000000000007,0.0,0.0,0.0,55.0,616.79921,10000.0,85.000001,85.000001,85.000001,85.000001,395.0,0.0,0.0,0.0,1.0,166.665,52.155,52.155,46.875,46.875,34.0,-21.947499999999998,24.796,-28.49,30.26,0.0,1780.1,-0.21999999999999886,100.0,28.524,28.455,44.14,44.073,0.0,0.0,100.0,0.0,0.0,0.0,0.0,2959.5714285714284,3110.6,4092.875,4182.3,305.7105,304.961,314.987,313.69075,22.0624,20.7072,22.1741,19.7638,314.999998,314.999998,324.999988,324.999988,99.55778571428571,99.50768333333333,99.57287142857143,99.55111428571429,0.11275000000000013,-0.03025,-0.08766666666666667,0.14016666666666666,-0.03833333333332689,-0.04374999999999574,1.5594999999999999,1.5575,38.89,30.420333333333332,39.588,37.024,55.363,35.888999999999996,61.286500000000004,56.1075,53.337,34.985,59.791,53.909,52.498000000000005,34.5285,59.647,53.6095,-0.09650000000000003,-0.06550000000000011,0.10852,0.10784,0.0,219.525,219.525,216.31,216.31,0.0,0.0
35,0.0,0.0,0.0,1.0,1.0,0.0,0.0,1.0,0.0,100.0,1.0,1.1856,26.0,0.0,0.0,0.0,59.999996,0.0,26.0,26.0,26.0,26.0,0.0022222222222221255,0.2530000000000001,-0.057425000000000004,291.58,-2.7246,-2.616857142857143,-1.6295000000000002,-1.5085000000000002,-156.63,215.79250000000002,190.197,0.0,0.0,0.0,0.0,0.0708,-5.498166666666667,-5.498166666666667,-0.6776,-0.46266666666666667,-0.003375000000000128,-0.1259999999999999,70.262,0.0358,-0.22425,-0.29000000000000004,100.0,1.0,1.0,216.75,0.0,0.0,0.0,0.0,0.0,0.0,0.0,9187.2,0.0,55.0,5.0,252.91666666666666,1.0,0.0,0.0,0.0,0.0,0.0,1.0,0.0,1.754999999999999,1.754999999999999,0.0,0.0,1.0,55.0,616.79921,10000.0,85.000001,85.000001,85.000001,85.000001,395.0,0.0,0.0,0.0,1.0,333.33500000000004,51.605000000000004,51.605000000000004,46.555,46.555,34.0,-22.9575,27.45,-26.993333333333336,28.165,0.0,1780.052,-0.14000000000000057,100.0,28.342,28.674,44.006,43.624,0.0,0.0,100.0,0.0,0.0,0.0,0.0,3100.714285714286,3406.9,4046.625,3947.6000000000004,305.443,304.09825,315.013,314.32475,22.0707,20.712699999999998,22.184,19.7731,314.999998,314.999998,324.999988,324.999988,99.5578,99.50768333333333,99.57301428571428,99.55125714285714,0.10749999999999993,-0.03300000000000003,-0.07366666666666667,0.15083333333333335,-0.05666666666667197,-0.04625000000000057,1.5939999999999999,1.573,38.942,30.454333333333334,39.65,37.082,55.349999999999994,35.9255,61.318,56.1655,53.325,35.019,59.82,53.9645,52.485,34.5605,59.673,53.664,-0.09050000000000002,-0.07050000000000001,0.11274,0.10893000000000001,0.0,219.9,219.89499999999998,216.75,216.75,0.0,0.0
36,0.0,0.0,0.0,1.0,1.0,0.0,0.0,1.0,0.0,100.0,1.0,1.1856,26.0,0.0,0.0,0.0,59.999996,0.0,26.0,26.0,26.0,26.0,0.01677777777777778,0.2704,0.05,290.634,-2.7708,-2.656428571428571,-1.5786,-1.5641,-153.26,215.785,190.167375,0.0,0.0,0.0,0.0,0.07276666666666666,-5.498166666666667,-5.498166666666667,-0.6578,0.377,-0.04187500000000011,0.21799999999999997,70.384,0.037700000000000004,-0.191775,-0.08000000000000007,100.0,1.0,1.0,216.9,0.0,0.0,0.0,0.0,0.0,0.0,0.0,9193.6,0.0,55.0,5.0,253.35666666666668,0.0,0.0,0.0,0.0,0.0,0.0,1.0,0.0,1.8030000000000008,1.8030000000000008,0.0,0.0,0.0,55.0,616.79921,10000.0,85.000001,85.000001,85.000001,85.000001,395.0,0.0,0.0,0.0,1.0,333.33500000000004,51.163,51.163,45.853,45.853,34.0,-24.61,26.268,-29.326666666666664,34.519999999999996,0.0,1780.004,-0.03999999999999915,100.0,28.955,28.957,44.189,43.795,0.0,0.0,100.0,0.0,0.0,0.0,0.0,3249.4285714285716,3261.5,4451.875,4500.1,305.0515,304.5635,314.0776666666667,312.9615,22.0795,20.7183,22.1941,19.7826,314.999998,314.999998,324.999988,324.999988,99.55781428571429,99.50768333333333,99.57317142857143,99.5514,0.10850000000000026,-0.03700000000000003,-0.0625,0.15683333333333335,-0.02499999999999858,-0.04749999999999943,1.4809999999999999,1.4699999999999998,38.997,30.489333333333335,39.713,37.1415,55.341,35.964,61.3515,56.228,53.316,35.054,59.8515,54.024,52.475,34.5945,59.701,53.7225,-0.08199999999999985,-0.08250000000000002,0.09585,0.113765,0.0,220.29000000000002,220.305,216.9,216.9,0.0,0.0
