,ABS Active,ABS Enabled,AID Allow Tire Blankets,AID Auto Blip,AID Auto Clutch,AID Auto Shift,AID Fuel Rate,AID Ideal Line,AID Mech Damage,AID Stability,AID Tire Wear Rate,Air Density,Air Temp,Ballast,Best Lap Delta,Best Lap Time,Brake Bias,Brake Pos,Brake Temp FL,Brake Temp FR,Brake Temp RL,Brake Temp RR,CG Accel Lateral,CG Accel Longitudinal,CG Accel Vertical,CG Height,Camber FL,Camber FR,Camber RL,Camber RR,Car Coord X,Car Coord Y,Car Coord Z,Car Damage Front,Car Damage Left,Car Damage Rear,Car Damage Right,Car Pos Norm,Caster FL,Caster FR,Chassis Pitch Angle,Chassis Pitch Rate,Chassis Roll Angle,Chassis Roll Rate,Chassis Velocity X,Chassis Velocity Y,Chassis Velocity Z,Chassis Yaw Rate,Clutch Pos,DRS Active,DRS Available,Drive Train Speed,ERS Heat Charging,ERS Is Charging,ERS Max Energy,ERS Power Level,ERS Recovery Level,Engine Brake Setting,Engine Limiter,Engine RPM,Flags,Fuel Level,Gear,Ground Speed,HR Sample Clock,In Pit,KERS Charge,KERS Deployed Energy,KERS Input,KERS Max Energy,LR Sample Clock,Lap Invalidated,Lap Time,Lap Time2,Last Lap Time,Last Sector Time,MR Sample Clock,Max Fuel,Max Power,Max RPM,Max Sus Travel FL,Max Sus Travel FR,Max Sus Travel RL,Max Sus Travel RR,Max Torque,Max Turbo Boost,Num Tires Off Track,Penalties Enabled,Position,Raw Data Sample Rate,Ride Height FL,Ride Height FR,Ride Height RL,Ride Height RR,Road Temp,Self Align Torque FL,Self Align Torque FR,Self Align Torque RL,Self Align Torque RR,Session Lap Count,Session Time Left,Steering Angle,Surface Grip,Suspension Travel FL,Suspension Travel FR,Suspension Travel RL,Suspension Travel RR,TC Active,TC Enabled,Throttle Pos,Tire Dirt Level FL,Tire Dirt Level FR,Tire Dirt Level RL,Tire Dirt Level RR,Tire Load FL,Tire Load FR,Tire Load RL,Tire Load RR,Tire Loaded Radius FL,Tire Loaded Radius FR,Tire Loaded Radius RL,Tire Loaded Radius RR,Tire Pressure FL,Tire Pressure FR,Tire Pressure RL,Tire Pressure RR,Tire Radius FL,Tire Radius FR,Tire Radius RL,Tire Radius RR,Tire Rubber Grip FL,Tire Rubber Grip FR,Tire Rubber Grip RL,Tire Rubber Grip RR,Tire Slip Angle FL,Tire Slip Angle FR,Tire Slip Angle RL,Tire Slip Angle RR,Tire Slip Ratio FL,Tire Slip Ratio FR,Tire Slip Ratio RL,Tire Slip Ratio RR,Tire Temp Core FL,Tire Temp Core FR,Tire Temp Core RL,Tire Temp Core RR,Tire Temp Inner FL,Tire Temp Inner FR,Tire Temp Inner RL,Tire Temp Inner RR,Tire Temp Middle FL,Tire Temp Middle FR,Tire Temp Middle RL,Tire Temp Middle RR,Tire Temp Outer FL,Tire Temp Outer FR,Tire Temp Outer RL,Tire Temp Outer RR,Toe In FL,Toe In FR,Toe In RL,Toe In RR,Turbo Boost,Wheel Angular Speed FL,Wheel Angular Speed FR,Wheel Angular Speed RL,Wheel Angular Speed RR,Wind Direction,Wind Speed
0,0.0,0.0,0.0,1.0,1.0,0.0,0.0,1.0,0.0,100.0,1.0,1.1856,26.0,0.0,0.0,0.0,59.99999,0.0,26.0,26.0,26.0,26.0,-0.08133333333333337,0.2977000000000001,0.021,293.411,-2.7178,-2.6621,-1.50935,-1.5504,-275.73,216.2225,190.98725,0.0,0.0,0.0,0.0,0.0015666666666666667,-5.498166666666667,-5.498166666666667,-0.5262,1.6670000000000003,-0.010333333333333083,-1.118,65.376,-0.0449,-0.18277500000000002,0.9660000000000011,100.0,1.0,1.0,202.22,0.0,0.0,0.0,0.0,0.0,0.0,0.0,8571.4,0.0,55.0,5.0,235.32,0.0,0.0,0.0,0.0,0.0,0.0,0.0,0.0,0.0030000000000001137,0.0030000000000001137,0.0,0.0,0.0,55.0,616.79921,10000.0,85.0,85.0,85.0,85.0,395.0,0.0,0.0,0.0,1.0,20.0,52.856,52.856,48.416,48.416,34.0,-26.86,22.758333333333333,-30.14333333333333,23.3475,0.0,1782.872,0.8200000000000003,100.0,27.438,26.916,40.077,39.929,0.0,0.0,100.0,0.0,0.0,0.0,0.0,3018.0,3321.3,4115.5,3977.2,305.687,304.1605,313.20166666666665,313.11175,21.7396,20.5054,18.208625,17.6591,314.99999,314.99999,324.99998,324.99998,99.55674285714285,99.50695,99.57314285714286,99.55121428571428,-0.012499999999999956,-0.1283333333333332,-0.176,0.050666666666666665,-0.061666666666667425,-0.02833333333332888,1.726,1.769,36.873000000000005,29.159,39.804,36.369,55.513,34.2635,67.158,58.179,53.510999999999996,33.4875,64.5255,55.409,52.733999999999995,33.0955,65.4515,55.4335,-0.013000000000000012,-0.13600000000000012,0.10948000000000001,0.11154000000000001,0.0,204.9,204.805,202.22,202.22,0.0,0.0
1,0.0,0.0,0.0,1.0,1.0,0.0,0.0,1.0,0.0,100.0,1.0,1.1856,26.0,0.0,0.0,0.0,59.999996,0.0,26.0,26.0,26.0,26.0,-0.11944444444444446,0.30410000000000004,0.2356,292.282,-2.628,-2.7803,-1.5106000000000002,-1.5553,-272.19,216.22750000000002,190.96575,0.0,0.0,0.0,0.0,0.003633333333333334,-5.498166666666667,-5.498166666666667,-0.46680000000000005,-0.8056666666666666,-0.06611111111111123,-0.9440000000000001,65.541,-0.061500000000000006,-0.15760000000000002,1.5220000000000002,100.0,1.0,1.0,202.33333333333331,0.0,0.0,0.0,0.0,0.0,0.0,0.0,8576.2,0.0,55.0,5.0,235.91666666666669,1.0,0.0,0.0,0.0,0.0,0.0,0.0,0.0,0.05699999999999861,0.05699999999999861,0.0,0.0,1.0,55.0,616.79921,10000.0,85.000001,85.000001,85.000001,85.000001,395.0,0.0,0.0,0.0,1.0,166.665,53.757,53.757,46.722,46.722,34.0,-27.905,17.196666666666665,-34.85333333333334,27.830000000000002,0.0,1782.818,1.0050000000000008,100.0,27.419,26.797,42.293,41.236000000000004,0.0,0.0,100.0,0.0,0.0,0.0,0.0,3143.75,2642.3,4435.875,4659.5,305.342,306.42775,312.146,311.1525,21.7499,20.5108,18.222625,17.671,314.999998,314.999998,324.999988,324.999988,99.55675714285714,99.50696666666667,99.57332857142858,99.55138571428571,-0.026249999999999885,-0.15700000000000003,-0.1905,0.0315,-0.030000000000001137,-0.03999999999999915,1.5465,1.5999999999999999,36.937,29.192333333333334,39.891999999999996,36.444,55.498000000000005,34.3075,67.218,58.265,53.495999999999995,33.5275,64.581,55.49,52.718,33.134,65.504,55.513999999999996,0.0050000000000001155,-0.15599999999999992,0.107395,0.11137500000000002,0.0,205.37,205.22,202.33333333333331,202.33333333333331,0.0,0.0
2,0.0,0.0,0.0,1.0,1.0,0.0,0.0,1.0,0.0,100.0,1.0,1.1856,26.0,0.0,0.0,0.0,59.999996,0.0,26.0,26.0,26.0,26.0,-0.14222222222222214,0.2832000000000001,-0.03756666666666667,293.091,-2.5962,-2.8077,-1.4908000000000001,-1.6146,-269.04,216.22750000000002,190.94825,0.0,0.0,0.0,0.0,0.0054666666666666665,-5.498166666666667,-5.498166666666667,-0.528,-0.29533333333333334,-0.05944444444444441,1.446,65.674,-0.0852,-0.23415000000000002,1.9120000000000008,100.0,1.0,1.0,203.26999999999998,0.0,0.0,0.0,0.0,0.0,0.0,0.0,8615.9,0.0,55.0,5.0,236.39666666666668,0.0,0.0,0.0,0.0,0.0,0.0,0.0,0.0,0.10500000000000043,0.10500000000000043,0.0,0.0,0.0,55.0,616.79921,10000.0,85.000001,85.000001,85.000001,85.000001,395.0,0.0,0.0,0.0,1.0,333.33500000000004,52.475,52.475,48.996,48.996,34.0,-31.8575,19.053333333333335,-29.673333333333332,18.3925,0.0,1782.77,0.9000000000000004,100.0,28.188,26.79,42.307,41.068,0.0,0.0,100.0,0.0,0.0,0.0,0.0,3445.0,2904.8,3760.375,3581.7,304.327,305.5345,314.006,314.40175,21.7593,20.5154,18.23475,17.6813,314.999998,314.999998,324.999988,324.999988,99.55677142857142,99.50698333333334,99.57347142857142,99.55151428571429,-0.04699999999999993,-0.16833333333333322,-0.242,-0.007666666666666667,-0.07000000000000028,-0.03499999999999659,1.7934999999999999,1.8719999999999999,36.995999999999995,29.221,39.967,36.507999999999996,55.488,34.3455,67.2625,58.331,53.488,33.563,64.6215,55.552,52.708,33.167500000000004,65.542,55.576499999999996,-0.0004999999999999449,-0.14800000000000013,0.10213000000000001,0.11173000000000001,0.0,205.785,205.62,203.26999999999998,203.26999999999998,0.0,0.0
3,0.0,0.0,0.0,1.0,1.0,0.0,0.0,1.0,0.0,100.0,1.0,1.1856,26.0,0.0,0.0,0.0,59.999996,0.0,26.0,26.0,26.0,26.0,-0.16955555555555557,0.3127,-0.059800000000000006,292.908,-2.7205,-2.7018,-1.49585,-1.5931,-265.89,216.22750000000002,190.929875,0.0,0.0,0.0,0.0,0.0073,-5.498166666666667,-5.498166666666667,-0.4868,0.9283333333333332,-0.020222222222222364,-0.8230000000000001,65.81700000000001,-0.11120000000000001,-0.1709,1.6880000000000006,100.0,1.0,1.0,203.46333333333334,0.0,0.0,0.0,0.0,0.0,0.0,0.0,8624.1,0.0,55.0,5.0,236.90666666666667,1.0,0.0,0.0,0.0,0.0,0.0,0.0,0.0,0.1529999999999987,0.1529999999999987,0.0,0.0,1.0,55.0,616.79921,10000.0,85.000001,85.000001,85.000001,85.000001,395.0,0.0,0.0,0.0,1.0,333.33500000000004,53.619,53.619,47.089,47.089,34.0,-27.1775,16.60333333333333,-35.38333333333333,21.0925,0.0,1782.721,0.8300000000000001,100.0,27.942,26.986,41.952,40.831,0.0,0.0,100.0,0.0,0.0,0.0,0.0,2882.375,2749.0,4286.375,4097.7,305.9815,305.87625,312.67266666666666,312.87075,21.7684,20.5202,18.24675,17.6915,314.999998,314.999998,324.999988,324.999988,99.55677142857142,99.50701666666667,99.57361428571429,99.55167142857142,-0.05400000000000005,-0.18300000000000005,-0.2475,-0.021333333333333333,-0.041666666666671404,-0.04999999999999716,1.693,1.7469999999999999,37.053,29.251333333333335,40.042,36.572,55.476,34.387,67.3065,58.400999999999996,53.476,33.601,64.662,55.618,52.696,33.204,65.58,55.6425,-0.009000000000000008,-0.13850000000000007,0.10349000000000001,0.11609000000000001,0.0,206.24,206.13,203.46333333333334,203.46333333333334,0.0,0.0
4,0.0,0.0,0.0,1.0,1.0,0.0,0.0,1.0,0.0,100.0,1.0,1.1856,26.0,0.0,0.0,0.0,59.999996,0.0,26.0,26.0,26.0,26.0,-0.18577777777777782,0.28800000000000003,0.021966666666666666,292.847,-2.6479,-2.7592,-1.5083,-1.6086,-262.33,216.22,190.90875,0.0,0.0,0.0,0.0,0.009366666666666667,-5.498166666666667,-5.498166666666667,-0.5152,-0.8873333333333333,-0.0952222222222221,-1.887,65.973,-0.1193,-0.20155,1.6820000000000004,100.0,1.0,1.0,203.96333333333334,0.0,0.0,0.0,0.0,0.0,0.0,0.0,8645.2,0.0,55.0,5.0,237.4766666666667,0.0,0.0,0.0,0.0,0.0,0.0,0.0,0.0,0.20700000000000074,0.20700000000000074,0.0,0.0,0.0,55.0,616.79921,10000.0,85.000001,85.000001,85.000001,85.000001,395.0,0.0,0.0,0.0,1.0,166.665,53.116,53.116,47.241,47.241,34.0,-31.7575,17.378333333333334,-34.833333333333336,18.61,0.0,1782.668,0.8900000000000006,100.0,27.663,26.681,42.596000000000004,41.083,0.0,0.0,100.0,0.0,0.0,0.0,0.0,3326.25,2851.7,4186.125,3707.7,304.8735,305.6085,312.86333333333334,313.90025,21.7785,20.5255,18.260625,17.7031,314.999998,314.999998,324.999988,324.999988,99.55677142857142,99.50703333333334,99.57378571428572,99.55182857142857,-0.06925000000000003,-0.19233333333333325,-0.25066666666666665,-0.02816666666666667,-0.051666666666669414,-0.054999999999999716,1.694,1.7605,37.116,29.284333333333336,40.129000000000005,36.644999999999996,55.461,34.432,67.363,58.479,53.461,33.6425,64.714,55.691,52.68,33.2435,65.62950000000001,55.716,-0.0030000000000000027,-0.14100000000000001,0.11166500000000001,0.10086500000000001,0.0,206.685,206.565,203.96333333333334,203.96333333333334,0.0,0.0
5,0.0,0.0,0.0,1.0,1.0,0.0,0.0,1.0,0.0,100.0,1.0,1.1856,26.0,0.0,0.0,0.0,59.999996,0.0,26.0,26.0,26.0,26.0,-0.1771111111111111,0.2995000000000001,-0.0285,292.984,-2.6528,-2.7842000000000002,-1.4862,-1.5998,-259.16,216.21,190.88975,0.0,0.0,0.0,0.0,0.0112,-5.498166666666667,-5.498166666666667,-0.5155000000000001,0.44133333333333336,-0.10288888888888881,-0.259,66.111,-0.1322,-0.19245,1.766,100.0,1.0,1.0,204.42333333333335,0.0,0.0,0.0,0.0,0.0,0.0,0.0,8664.8,0.0,55.0,5.0,237.97,1.0,0.0,0.0,0.0,0.0,0.0,0.0,0.0,0.254999999999999,0.254999999999999,0.0,0.0,1.0,55.0,616.79921,10000.0,85.000001,85.000001,85.000001,85.000001,395.0,0.0,0.0,0.0,1.0,333.33500000000004,53.391,53.391,47.806,47.806,34.0,-30.7075,17.05666666666667,-34.39666666666666,18.825000000000003,0.0,1782.62,0.48499999999999943,100.0,27.914,26.63,42.431,40.721000000000004,0.0,0.0,100.0,0.0,0.0,0.0,0.0,3255.0,2728.7,4134.0,3917.1000000000004,305.017,306.027,313.12733333333335,313.37175,21.7878,20.5302,18.272625,17.7132,314.999998,314.999998,324.999988,324.999988,99.55678571428571,99.50705,99.57394285714285,99.55198571428572,-0.059250000000000025,-0.18266666666666675,-0.2631666666666667,-0.0445,-0.04999999999999716,-0.060000000000002274,1.7125,1.792,37.174,29.313666666666666,40.204,36.708,55.453,34.4725,67.41,58.5445,53.453,33.6795,64.757,55.7525,52.671,33.278999999999996,65.67,55.7765,-0.02949999999999997,-0.11549999999999994,0.10544,0.10914000000000001,0.0,207.16,207.005,204.42333333333335,204.42333333333335,0.0,0.0
6,0.0,0.0,0.0,1.0,1.0,0.0,0.0,1.0,0.0,100.0,1.0,1.1856,26.0,0.0,0.0,0.0,59.999996,0.0,26.0,26.0,26.0,26.0,-0.17466666666666664,0.2933000000000001,-0.0019,292.786,-2.6197,-2.7649,-1.5278,-1.5987,-255.98,216.195,190.8705,0.0,0.0,0.0,0.0,0.013033333333333334,-5.498166666666667,-5.498166666666667,-0.5026,0.17233333333333323,-0.08755555555555583,-0.634,66.249,-0.1373,-0.180625,1.5020000000000007,100.0,1.0,1.0,204.79333333333335,0.0,0.0,0.0,0.0,0.0,0.0,0.0,8680.5,0.0,55.0,5.0,238.46666666666667,0.0,0.0,0.0,0.0,0.0,0.0,0.0,0.0,0.3030000000000008,0.3030000000000008,0.0,0.0,0.0,55.0,616.79921,10000.0,85.000001,85.000001,85.000001,85.000001,395.0,0.0,0.0,0.0,1.0,333.33500000000004,53.329,53.329,47.363,47.363,34.0,-29.939999999999998,17.856666666666666,-35.620000000000005,19.2775,0.0,1782.572,0.33500000000000085,100.0,27.723,26.63,42.514,40.963,0.0,0.0,100.0,0.0,0.0,0.0,0.0,3243.5,2811.8,4175.375,3954.6000000000004,305.0545,305.72825,312.99833333333333,313.24225,21.7969,20.5349,18.28475,17.7236,314.999998,314.999998,324.999988,324.999988,99.5568,99.50706666666666,99.5741,99.55212857142857,-0.050999999999999934,-0.17500000000000004,-0.2658333333333333,-0.042,-0.07166666666666544,-0.051666666666669414,1.6915,1.7545,37.230999999999995,29.343333333333334,40.28,36.772999999999996,55.442,34.5125,67.4575,58.615,53.443,33.716,64.801,55.819,52.66,33.314,65.7115,55.843,-0.04849999999999999,-0.09549999999999992,0.10271500000000001,0.10866500000000001,0.0,207.59,207.45499999999998,204.79333333333335,204.79333333333335,0.0,0.0
7,0.0,0.0,0.0,1.0,1.0,0.0,0.0,1.0,0.0,100.0,1.0,1.1856,26.0,0.0,0.0,0.0,59.999996,0.0,26.0,26.0,26.0,26.0,-0.1624444444444444,0.2912000000000001,0.042100000000000005,292.496,-2.5811,-2.7662,-1.4845000000000002,-1.591,-252.6,216.1775,190.85,0.0,0.0,0.0,0.0,0.015000000000000001,-5.498166666666667,-5.498166666666667,-0.5082,-0.138,-0.08033333333333337,1.0090000000000001,66.396,-0.12480000000000001,-0.192325,1.0139999999999993,100.0,1.0,1.0,205.20666666666668,0.0,0.0,0.0,0.0,0.0,0.0,0.0,8698.0,0.0,55.0,5.0,238.99666666666667,1.0,0.0,0.0,0.0,0.0,0.0,0.0,0.0,0.3539999999999992,0.3539999999999992,0.0,0.0,1.0,55.0,616.79921,10000.0,85.000001,85.000001,85.000001,85.000001,395.0,0.0,0.0,0.0,1.0,333.33500000000004,52.902,52.902,47.455,47.455,34.0,-28.9175,20.221666666666668,-33.093333333333334,21.0775,0.0,1782.52,0.07500000000000107,100.0,27.986,26.437,42.746,41.102000000000004,0.0,0.0,100.0,0.0,0.0,0.0,0.0,3280.25,2995.8,4091.125,4049.1000000000004,304.6955,305.35275,313.08233333333334,313.03575,21.8067,20.54,18.29775,17.7347,314.999998,314.999998,324.999988,324.999988,99.5568,99.50708333333333,99.57425714285715,99.55227142857143,-0.01849999999999996,-0.1463333333333332,-0.23750000000000002,-0.016,-0.03833333333332689,-0.054999999999999716,1.684,1.732,37.292,29.375,40.361000000000004,36.842,55.43,34.554,67.5085,58.69,53.431,33.754,64.848,55.888999999999996,52.647999999999996,33.35,65.7555,55.913,-0.0695,-0.07350000000000012,0.10296500000000001,0.112115,0.0,207.995,207.9,205.20666666666668,205.20666666666668,0.0,0.0
8,0.0,0.0,0.0,1.0,1.0,0.0,0.0,1.0,0.0,100.0,1.0,1.1856,26.0,0.0,0.0,0.0,59.999996,0.0,26.0,26.0,26.0,26.0,-0.10966666666666658,0.2966,-0.0257,292.786,-2.6555,-2.7500999999999998,-1.4657,-1.5742,-249.21,216.1525,190.8295,0.0,0.0,0.0,0.0,0.017,-5.498166666666667,-5.498166666666667,-0.5085000000000001,-0.33433333333333337,-0.06522222222222229,-0.421,66.541,-0.10740000000000001,-0.183975,0.5960000000000001,100.0,1.0,1.0,205.62,0.0,0.0,0.0,0.0,0.0,0.0,0.0,8715.4,0.0,55.0,5.0,239.51999999999998,0.0,0.0,0.0,0.0,0.0,0.0,0.0,0.0,0.40500000000000114,0.40500000000000114,0.0,0.0,0.0,55.0,616.79921,10000.0,85.000001,85.000001,85.000001,85.000001,395.0,0.0,0.0,0.0,1.0,333.33500000000004,53.802,53.802,46.738,46.738,34.0,-26.255,19.388333333333332,-33.053333333333335,22.310000000000002,0.0,1782.469,-0.14000000000000057,100.0,27.509,26.608,42.644999999999996,41.247,0.0,0.0,100.0,0.0,0.0,0.0,0.0,3029.5,2819.9,4238.125,4072.4,305.679,305.72575,312.769,312.90525,21.8163,20.5451,18.310625,17.7456,314.999998,314.999998,324.999988,324.999988,99.5568,99.5071,99.57442857142857,99.55244285714285,-0.007249999999999979,-0.1333333333333333,-0.21566666666666667,0.005833333333333333,-0.05333333333332746,-0.054999999999999716,1.6835,1.691,37.352000000000004,29.406666666666666,40.441,36.91,55.415,34.597,67.5615,58.7675,53.416,33.7935,64.896,55.962,52.632,33.3875,65.801,55.9855,-0.08550000000000002,-0.05899999999999994,0.10383500000000001,0.11266500000000002,0.0,208.435,208.37,205.62,205.62,0.0,0.0
9,0.0,0.0,0.0,1.0,1.0,0.0,0.0,1.0,0.0,100.0,1.0,1.1856,26.0,0.0,0.0,0.0,59.999996,0.0,26.0,26.0,26.0,26.0,-0.08233333333333337,0.2901,-0.018366666666666667,292.572,-2.6577,-2.7599,-1.5234,-1.5758,-246.01,216.13,190.809875,0.0,0.0,0.0,0.0,0.018833333333333334,-5.498166666666667,-5.498166666666667,-0.5162,0.4956666666666667,-0.06588888888888889,-0.441,66.675,-0.0863,-0.186975,0.44400000000000084,100.0,1.0,1.0,206.16,0.0,0.0,0.0,0.0,0.0,0.0,0.0,8738.3,0.0,55.0,5.0,240.00333333333333,1.0,0.0,0.0,0.0,0.0,0.0,0.0,0.0,0.4529999999999994,0.4529999999999994,0.0,0.0,1.0,55.0,616.79921,10000.0,85.000001,85.000001,85.000001,85.000001,395.0,0.0,0.0,0.0,1.0,333.33500000000004,52.673,52.673,47.852000000000004,47.852000000000004,34.0,-29.015,21.421666666666667,-30.439999999999998,22.53,0.0,1782.422,-0.28999999999999915,100.0,27.808,26.937,42.376,41.254,0.0,0.0,100.0,0.0,0.0,0.0,0.0,3410.375,2935.9,4015.375,3957.0,304.556,305.32,313.4603333333333,313.2615,21.8254,20.55,18.322625,17.756,314.999998,314.999998,324.999988,324.999988,99.55681428571428,99.50711666666666,99.57457142857143,99.55257142857143,0.01750000000000007,-0.10933333333333328,-0.19466666666666665,0.029166666666666667,-0.061666666666667425,-0.06499999999999773,1.7255,1.75,37.409,29.437333333333335,40.516,36.975,55.403,34.6335,67.602,58.8305,53.406,33.827,64.9335,56.0215,52.620000000000005,33.4195,65.836,56.045,-0.09999999999999998,-0.050999999999999934,0.10644500000000001,0.114845,0.0,208.845,208.82,206.16,206.16,0.0,0.0
10,0.0,0.0,0.0,1.0,1.0,0.0,0.0,1.0,0.0,100.0,1.0,1.1856,26.0,0.0,0.0,0.0,59.999996,0.0,26.0,26.0,26.0,26.0,-0.06333333333333335,0.2962,0.0436,292.297,-2.6243,-2.7478,-1.55935,-1.5586,-242.61,216.1,190.789,0.0,0.0,0.0,0.0,0.020833333333333336,-5.498166666666667,-5.498166666666667,-0.4892,-0.2776666666666666,-0.025444444444444603,1.7730000000000001,66.822,-0.059800000000000006,-0.169025,-0.0600000000000005,100.0,1.0,1.0,206.38333333333333,0.0,0.0,0.0,0.0,0.0,0.0,0.0,8747.8,0.0,55.0,5.0,240.53,0.0,0.0,0.0,0.0,0.0,0.0,1.0,0.0,0.5040000000000013,0.5040000000000013,0.0,0.0,0.0,55.0,616.79921,10000.0,85.000001,85.000001,85.000001,85.000001,395.0,0.0,0.0,0.0,1.0,333.33500000000004,53.635,53.635,46.249,46.249,34.0,-22.5125,21.80166666666667,-32.473333333333336,26.435,0.0,1782.372,-0.4399999999999995,100.0,27.897,26.791,42.775,41.794,0.0,0.0,100.0,0.0,0.0,0.0,0.0,2879.125,2893.0,4319.0,4288.4,305.952,305.67725,312.493,312.34125,21.8351,20.5551,18.3355,17.7672,314.999998,314.999998,324.999988,324.999988,99.55681428571428,99.50713333333333,99.57472857142857,99.55272857142857,0.05025000000000013,-0.08133333333333326,-0.16066666666666665,0.057166666666666664,-0.03166666666666629,-0.036666666666668846,1.6505,1.6475,37.469,29.469666666666665,40.597,37.045,55.391,34.672,67.6525,58.908,53.394,33.8625,64.98,56.0945,52.607,33.4535,65.87950000000001,56.118,-0.10699999999999998,-0.03600000000000003,0.107785,0.11012500000000001,0.0,209.29000000000002,209.275,206.38333333333333,206.38333333333333,0.0,0.0
11,0.0,0.0,0.0,1.0,1.0,0.0,0.0,1.0,0.0,100.0,1.0,1.1856,26.0,0.0,0.0,0.0,59.999996,0.0,26.0,26.0,26.0,26.0,-0.0058888888888889435,0.27960000000000007,-0.08076666666666667,292.831,-2.682,-2.7134,-1.5277500000000002,-1.5428,-239.19,216.07,190.768375,0.0,0.0,0.0,0.0,0.022600000000000002,-5.498166666666667,-5.498166666666667,-0.5337000000000001,-0.494,0.004444444444444251,-0.401,66.962,-0.0317,-0.20875000000000002,-0.2240000000000002,100.0,1.0,1.0,207.10333333333335,0.0,0.0,0.0,0.0,0.0,0.0,0.0,8778.4,0.0,55.0,5.0,241.03666666666666,1.0,0.0,0.0,0.0,0.0,0.0,1.0,0.0,0.5549999999999997,0.5549999999999997,0.0,0.0,1.0,55.0,616.79921,10000.0,85.000001,85.000001,85.000001,85.000001,395.0,0.0,0.0,0.0,1.0,166.665,52.963,52.963,47.852000000000004,47.852000000000004,34.0,-24.5925,23.310000000000002,-25.203333333333333,24.3525,0.0,1782.32,-0.3949999999999996,100.0,27.485,27.208,42.421,42.002,0.0,0.0,100.0,0.0,0.0,0.0,0.0,3138.0,3035.3,3738.875,3842.0,305.395,305.02825,314.1906666666667,313.56425,21.8445,20.5604,18.34825,17.7783,314.999998,314.999998,324.999988,324.999988,99.55682857142857,99.50713333333333,99.57488571428571,99.55288571428571,0.06325000000000003,-0.07400000000000007,-0.13483333333333333,0.09366666666666668,-0.041666666666671404,-0.04333333333332945,1.7855,1.761,37.528,29.502666666666666,40.677,37.114000000000004,55.376000000000005,34.711,67.697,58.981,53.379999999999995,33.8985,65.0205,56.163,52.593,33.488,65.9175,56.187,-0.11249999999999993,-0.04049999999999998,0.105035,0.10938,0.0,209.67000000000002,209.685,207.10333333333335,207.10333333333335,0.0,0.0
12,0.0,0.0,0.0,1.0,1.0,0.0,0.0,1.0,0.0,100.0,1.0,1.1856,26.0,0.0,0.0,0.0,59.999996,0.0,26.0,26.0,26.0,26.0,-0.0005555555555555314,0.2881,0.0031333333333333335,292.389,-2.732,-2.7118,-1.5226000000000002,-1.5695000000000001,-235.78,216.04000000000002,190.7465,0.0,0.0,0.0,0.0,0.025466666666666665,-5.498166666666667,-5.498166666666667,-0.5213,0.41266666666666674,-0.006666666666666821,0.583,67.107,-0.0103,-0.17685,-0.2859999999999996,100.0,1.0,1.0,207.37666666666667,0.0,0.0,0.0,0.0,0.0,0.0,0.0,8789.9,0.0,55.0,5.0,241.55333333333334,0.0,0.0,0.0,0.0,0.0,0.0,1.0,0.0,0.6059999999999981,0.6059999999999981,0.0,0.0,0.0,55.0,616.79921,10000.0,85.000001,85.000001,85.000001,85.000001,395.0,0.0,0.0,0.0,1.0,166.665,52.994,52.994,46.753,46.753,34.0,-23.74,25.369999999999997,-26.880000000000003,28.3475,0.0,1782.269,-0.42499999999999893,100.0,27.503,27.248,42.193,41.749,0.0,0.0,100.0,0.0,0.0,0.0,0.0,3065.125,3131.7,4144.5,4138.9,305.461,304.9115,313.03933333333333,312.8255,21.854,20.5658,18.361,17.7893,314.999998,314.999998,324.999988,324.999988,99.55682857142857,99.50713333333333,99.57504285714286,99.55304285714286,0.08274999999999988,-0.040000000000000036,-0.09716666666666668,0.117,-0.05666666666667197,-0.06666666666666998,1.708,1.6895,37.587,29.53633333333333,40.756,37.183,55.364000000000004,34.7505,67.7425,59.054,53.367999999999995,33.935,65.0625,56.232,52.58,33.5225,65.956,56.2555,-0.10350000000000004,-0.04249999999999998,0.09541000000000001,0.10598,0.0,210.185,210.185,207.37666666666667,207.37666666666667,0.0,0.0
13,0.0,0.0,0.0,1.0,1.0,0.0,0.0,1.0,0.0,100.0,1.0,1.1856,26.0,0.0,0.0,0.0,59.999996,0.0,26.0,26.0,26.0,26.0,0.0,0.28459999999999996,0.046900000000000004,291.931,-2.713,-2.7034000000000002,-1.59775,-1.556,-232.55,216.0125,190.726,0.0,0.0,0.0,0.0,0.02666666666666667,-5.498166666666667,-5.498166666666667,-0.5083,-0.008333333333333304,-0.0006666666666665932,1.101,67.242,0.0021000000000000003,-0.17505,-0.3460000000000001,100.0,1.0,1.0,207.69,0.0,0.0,0.0,0.0,0.0,0.0,0.0,8803.2,0.0,55.0,5.0,242.04000000000002,1.0,0.0,0.0,0.0,0.0,0.0,1.0,0.0,0.6539999999999999,0.6539999999999999,0.0,0.0,1.0,55.0,616.79921,10000.0,85.000001,85.000001,85.000001,85.000001,395.0,0.0,0.0,0.0,1.0,166.665,52.765,52.765,46.463,46.463,34.0,-23.0675,25.38,-28.71666666666666,30.3525,0.0,1782.222,-0.48499999999999943,100.0,27.76,27.379,42.443,42.234,0.0,0.0,100.0,0.0,0.0,0.0,0.0,3071.125,3117.0,4199.125,4326.8,305.4225,304.96425,312.865,312.26975,21.8629,20.5709,18.373125,17.7999,314.999998,314.999998,324.999988,324.999988,99.55684285714285,99.50715,99.5752,99.5532,0.09650000000000025,-0.03433333333333333,-0.0995,0.12483333333333334,-0.05333333333332746,-0.05666666666667197,1.657,1.6425,37.643,29.567999999999998,40.832,37.25,55.354,34.786500000000004,67.7875,59.126999999999995,53.358000000000004,33.968,65.1035,56.3005,52.569,33.5545,65.9945,56.3245,-0.11299999999999999,-0.03849999999999998,0.10487500000000001,0.11228500000000001,0.0,210.575,210.61,207.69,207.69,0.0,0.0
14,0.0,0.0,0.0,1.0,1.0,0.0,0.0,1.0,0.0,100.0,1.0,1.1856,26.0,0.0,0.0,0.0,59.999996,0.0,26.0,26.0,26.0,26.0,0.027555555555555777,0.2822,-0.002666666666666667,292.084,-2.7137000000000002,-2.6424000000000003,-1.60535,-1.5297,-229.12,215.98250000000002,190.704625,0.0,0.0,0.0,0.0,0.02866666666666667,-5.498166666666667,-5.498166666666667,-0.5224,-0.29999999999999993,0.02288888888888896,-0.091,67.382,0.017,-0.19767500000000002,-0.44599999999999973,100.0,1.0,1.0,208.21666666666667,0.0,0.0,0.0,0.0,0.0,0.0,0.0,8825.5,0.0,55.0,5.0,242.54666666666668,0.0,0.0,0.0,0.0,0.0,0.0,1.0,0.0,0.7049999999999983,0.7049999999999983,0.0,0.0,0.0,55.0,616.79921,10000.0,85.000001,85.000001,85.000001,85.000001,395.0,0.0,0.0,0.0,1.0,333.33500000000004,52.673,52.673,46.722,46.722,34.0,-22.945,25.071666666666665,-27.21,28.045,0.0,1782.17,-0.5299999999999994,100.0,27.632,27.711,42.444,42.682,0.0,0.0,100.0,0.0,0.0,0.0,0.0,3101.5,3106.8,4052.75,4098.0,305.5065,304.83375,313.35833333333335,312.8395,21.8724,20.5763,18.386,17.8112,314.999998,314.999998,324.999988,324.999988,99.55685714285714,99.50715,99.57534285714286,99.55335714285714,0.10099999999999998,-0.03133333333333321,-0.0965,0.1265,-0.054999999999999716,-0.046666666666666856,1.7035,1.7,37.702,29.601666666666667,40.912,37.32,55.344,34.8245,67.8335,59.203,53.348,34.003,65.1455,56.3725,52.558,33.5875,66.0335,56.396,-0.11649999999999994,-0.03049999999999997,0.10722000000000001,0.10643000000000001,0.0,210.995,211.01,208.21666666666667,208.21666666666667,0.0,0.0
15,0.0,0.0,0.0,1.0,1.0,0.0,0.0,1.0,0.0,100.0,1.0,1.1856,26.0,0.0,0.0,0.0,59.999996,0.0,26.0,26.0,26.0,26.0,0.04422222222222216,0.28190000000000004,-0.0385,292.175,-2.6896,-2.5997,-1.6032000000000002,-1.4714,-225.88,215.9525,190.6845,0.0,0.0,0.0,0.0,0.030533333333333332,-5.498166666666667,-5.498166666666667,-0.5163,0.3606666666666667,0.0517777777777777,-0.116,67.514,0.032,-0.1832,-0.5459999999999994,100.0,1.0,1.0,208.63,0.0,0.0,0.0,0.0,0.0,0.0,0.0,8843.1,0.0,55.0,5.0,243.01999999999998,1.0,0.0,0.0,0.0,0.0,0.0,1.0,0.0,0.7530000000000001,0.7530000000000001,0.0,0.0,1.0,55.0,616.79921,10000.0,85.000001,85.000001,85.000001,85.000001,395.0,0.0,0.0,0.0,1.0,333.33500000000004,52.826,52.826,46.921,46.921,34.0,-21.175,24.6,-25.976666666666667,28.925,0.0,1782.123,-0.4299999999999997,100.0,27.673000000000002,27.787,42.167,42.638,0.0,0.0,100.0,0.0,0.0,0.0,0.0,2962.5,3077.9,4002.0,4221.8,305.8505,304.90175,313.5183333333333,312.54075,21.8813,20.5814,18.397875,17.8217,314.999998,314.999998,324.999988,324.999988,99.55685714285714,99.50715,99.5755,99.5535,0.11175000000000024,-0.02833333333333332,-0.08266666666666668,0.14033333333333334,-0.04999999999999716,-0.041666666666671404,1.7305,1.7,37.757999999999996,29.633666666666667,40.986999999999995,37.385999999999996,55.335,34.8605,67.874,59.2735,53.339,34.036,65.1825,56.439,52.548,33.6195,66.0675,56.463,-0.11449999999999994,-0.04200000000000004,0.10449000000000001,0.10203000000000001,0.0,211.405,211.44,208.63,208.63,0.0,0.0
16,0.0,0.0,0.0,1.0,1.0,0.0,0.0,1.0,0.0,100.0,1.0,1.1856,26.0,0.0,0.0,0.0,59.999996,0.0,26.0,26.0,26.0,26.0,0.04800000000000004,0.27670000000000017,-0.006033333333333334,292.16,-2.7773,-2.6434,-1.57095,-1.4762,-222.43,215.925,190.6625,0.0,0.0,0.0,0.0,0.03256666666666667,-5.498166666666667,-5.498166666666667,-0.5304,-0.7716666666666666,0.03744444444444439,0.02,67.655,0.0454,-0.18915,-0.5600000000000005,100.0,1.0,1.0,209.01333333333332,0.0,0.0,0.0,0.0,0.0,0.0,0.0,8859.3,0.0,55.0,5.0,243.53,0.0,0.0,0.0,0.0,0.0,0.0,1.0,0.0,0.8039999999999985,0.8039999999999985,0.0,0.0,0.0,55.0,616.79921,10000.0,85.000001,85.000001,85.000001,85.000001,395.0,0.0,0.0,0.0,1.0,333.33500000000004,52.948,52.948,46.417,46.417,34.0,-21.7,26.263333333333335,-24.446666666666665,29.4375,0.0,1782.071,-0.24499999999999922,100.0,27.414,27.654,42.507,42.723,0.0,0.0,100.0,0.0,0.0,0.0,0.0,2952.625,3194.3,4014.625,4136.8,305.932,304.72675,313.38933333333335,312.8085,21.8903,20.5869,18.41075,17.833,314.999998,314.999998,324.999988,324.999988,99.55688571428571,99.50715,99.57565714285714,99.55367142857143,0.11450000000000005,-0.018333333333333313,-0.05416666666666667,0.1615,-0.041666666666671404,-0.061666666666667425,1.702,1.674,37.815,29.668,41.067,37.456,55.321,34.8985,67.92099999999999,59.349000000000004,53.326,34.071,65.2255,56.5105,52.534,33.653,66.1075,56.5345,-0.09450000000000003,-0.05750000000000011,0.10539000000000001,0.10247500000000001,0.0,211.82,211.85500000000002,209.01333333333332,209.01333333333332,0.0,0.0
17,0.0,0.0,0.0,1.0,1.0,0.0,0.0,1.0,0.0,100.0,1.0,1.1856,26.0,0.0,0.0,0.0,59.999996,0.0,26.0,26.0,26.0,26.0,0.04255555555555568,0.28,-0.019066666666666666,291.992,-2.7365,-2.5967000000000002,-1.6063,-1.4994,-218.98,215.8975,190.64,0.0,0.0,0.0,0.0,0.03456666666666667,-5.498166666666667,-5.498166666666667,-0.5267000000000001,0.5046666666666668,0.012222222222222134,-0.751,67.793,0.0441,-0.17865,-0.2839999999999989,100.0,1.0,1.0,209.48000000000002,0.0,0.0,0.0,0.0,0.0,0.0,0.0,8879.1,0.0,55.0,5.0,244.02666666666664,1.0,0.0,0.0,0.0,0.0,0.0,1.0,0.0,0.8550000000000004,0.8550000000000004,0.0,0.0,1.0,55.0,616.79921,10000.0,85.000001,85.000001,85.000001,85.000001,395.0,0.0,0.0,0.0,1.0,333.33500000000004,52.612,52.612,46.707,46.707,34.0,-22.8175,24.231666666666666,-26.939999999999998,29.215,0.0,1782.019,-0.26500000000000057,100.0,27.736,28.028,42.199,42.689,0.0,0.0,100.0,0.0,0.0,0.0,0.0,3149.75,3016.9,4179.875,4126.4,305.4195,305.129,313.104,312.84475,21.8998,20.5924,18.4235,17.8441,314.999998,314.999998,324.999988,324.999988,99.55688571428571,99.50716666666666,99.57581428571429,99.55382857142857,0.11699999999999999,-0.021666666666666723,-0.07366666666666667,0.1545,-0.04333333333332945,-0.03499999999999659,1.7155,1.699,37.873000000000005,29.702666666666666,41.147,37.525999999999996,55.312,34.94,67.967,59.427,53.317,34.1095,65.2675,56.584,52.522999999999996,33.69,66.146,56.6085,-0.10449999999999993,-0.062000000000000055,0.10765500000000001,0.10829000000000001,0.0,212.275,212.29000000000002,209.48000000000002,209.48000000000002,0.0,0.0
18,0.0,0.0,0.0,1.0,1.0,0.0,0.0,1.0,0.0,100.0,1.0,1.1856,26.0,0.0,0.0,0.0,59.999996,0.0,26.0,26.0,26.0,26.0,0.030444444444444274,0.2813000000000001,-0.0442,291.87,-2.764,-2.5758,-1.6165,-1.4504000000000001,-215.72,215.8725,190.619,0.0,0.0,0.0,0.0,0.03646666666666667,-5.498166666666667,-5.498166666666667,-0.5299,-0.5313333333333333,0.02966666666666673,-0.318,67.925,0.039900000000000005,-0.186025,-0.23799999999999955,100.0,1.0,1.0,209.82999999999998,0.0,0.0,0.0,0.0,0.0,0.0,0.0,8894.0,0.0,55.0,5.0,244.50333333333333,0.0,0.0,0.0,0.0,0.0,0.0,1.0,0.0,0.9029999999999987,0.9029999999999987,0.0,0.0,0.0,55.0,616.79921,10000.0,85.000001,85.000001,85.000001,85.000001,395.0,0.0,0.0,0.0,1.0,333.33500000000004,52.658,52.658,46.31,46.31,34.0,-23.025,25.093333333333334,-26.696666666666665,28.185,0.0,1781.971,-0.28999999999999915,100.0,27.555,27.878,42.571,43.045,0.0,0.0,100.0,0.0,0.0,0.0,0.0,3108.5,3140.7,4127.25,4146.1,305.5945,304.831,313.20433333333335,312.76175,21.9085,20.5976,18.435625,17.8548,314.999998,314.999998,324.999988,324.999988,99.55691428571429,99.50716666666666,99.57597142857144,99.55397142857143,0.10875000000000012,-0.02200000000000002,-0.07133333333333333,0.14150000000000001,-0.04999999999999716,-0.03833333333332689,1.6915,1.6784999999999999,37.928,29.734666666666666,41.223,37.593,55.302,34.973,68.0085,59.4955,53.307,34.14,65.3055,56.6485,52.513,33.719,66.1815,56.6725,-0.10199999999999998,-0.050000000000000044,0.10259000000000001,0.10255500000000001,0.0,212.67000000000002,212.675,209.82999999999998,209.82999999999998,0.0,0.0
19,0.0,0.0,0.0,1.0,1.0,0.0,0.0,1.0,0.0,100.0,1.0,1.1856,26.0,0.0,0.0,0.0,59.999996,0.0,26.0,26.0,26.0,26.0,0.021666666666666723,0.2855000000000001,0.04266666666666667,291.306,-2.6779,-2.6795999999999998,-1.6285,-1.4393,-212.05,215.845,190.595125,0.0,0.0,0.0,0.0,0.0386,-5.498166666666667,-5.498166666666667,-0.5267000000000001,0.7623333333333333,0.03288888888888897,-0.666,68.07,0.0369,-0.183875,-0.2579999999999991,100.0,1.0,1.0,210.29000000000002,0.0,0.0,0.0,0.0,0.0,0.0,0.0,8913.4,0.0,55.0,5.0,245.02333333333334,1.0,0.0,0.0,0.0,0.0,0.0,1.0,0.0,0.9570000000000007,0.9570000000000007,0.0,0.0,1.0,55.0,616.79921,10000.0,85.000001,85.000001,85.000001,85.000001,395.0,0.0,0.0,0.0,1.0,166.665,51.757999999999996,51.757999999999996,46.188,46.188,34.0,-23.055,26.706666666666667,-27.810000000000002,29.175,0.0,1781.919,-0.28999999999999915,100.0,28.13,28.381999999999998,42.393,43.004,0.0,0.0,100.0,0.0,0.0,0.0,0.0,3190.125,3191.5,4216.125,4290.0,305.159,304.366,313.02633333333335,312.431,21.9185,20.6036,18.449125,17.8667,314.999998,314.999998,324.999988,324.999988,99.55692857142857,99.50718333333333,99.57612857142857,99.55415714285714,0.1107499999999999,-0.02633333333333332,-0.078,0.14333333333333334,-0.045000000000001705,-0.03999999999999915,1.6995,1.69,37.989999999999995,29.772333333333336,41.307,37.667,55.293,35.0155,68.054,59.5745,53.299,34.1795,65.347,56.7235,52.503,33.7565,66.2195,56.748,-0.10199999999999998,-0.05249999999999999,0.105245,0.11106500000000001,0.0,213.15,213.155,210.29000000000002,210.29000000000002,0.0,0.0
20,0.0,0.0,0.0,1.0,1.0,0.0,0.0,1.0,0.0,100.0,1.0,1.1856,26.0,0.0,0.0,0.0,59.999996,0.0,26.0,26.0,26.0,26.0,0.041888888888888864,0.2754000000000001,0.03566666666666667,291.687,-2.7661,-2.6447000000000003,-1.5449000000000002,-1.5655000000000001,-208.57999999999998,215.82,190.57275,0.0,0.0,0.0,0.0,0.040600000000000004,-5.498166666666667,-5.498166666666667,-0.526,-1.0266666666666666,0.028888888888888964,0.427,68.21000000000001,0.0366,-0.1869,-0.33999999999999986,100.0,1.0,1.0,210.59333333333333,0.0,0.0,0.0,0.0,0.0,0.0,0.0,8926.2,0.0,55.0,5.0,245.53,0.0,0.0,0.0,0.0,0.0,0.0,0.0,0.0,1.0079999999999991,1.0079999999999991,0.0,0.0,0.0,55.0,616.79921,10000.0,85.000001,85.000001,85.000001,85.000001,395.0,0.0,0.0,0.0,1.0,166.665,52.963,52.963,45.638999999999996,45.638999999999996,34.0,-21.3475,25.441666666666666,-26.263333333333335,31.7625,0.0,1781.868,-0.23000000000000043,100.0,27.677,27.812,42.993,43.22,0.0,0.0,100.0,0.0,0.0,0.0,0.0,2906.0,3131.5,4169.125,4263.0,306.0515,304.9525,312.901,312.33675,21.927599999999998,20.609,18.462125,17.8782,314.999998,314.999998,324.999988,324.999988,99.55694285714286,99.50718333333333,99.5763,99.55431428571428,0.1120000000000001,-0.023333333333333206,-0.06783333333333333,0.154,-0.041666666666671404,-0.054999999999999716,1.639,1.6219999999999999,38.047,29.806333333333335,41.388,37.739000000000004,55.281,35.053,68.10249999999999,59.652,53.286,34.214,65.3915,56.797,52.489999999999995,33.79,66.261,56.8215,-0.09699999999999998,-0.05950000000000011,0.106435,0.11044500000000002,0.0,213.53,213.565,210.59333333333333,210.59333333333333,0.0,0.0
21,0.0,0.0,0.0,1.0,1.0,0.0,0.0,1.0,0.0,100.0,1.0,1.1856,26.0,0.0,0.0,0.0,59.999996,0.0,26.0,26.0,26.0,26.0,0.021777777777777896,0.27849999999999997,-0.06216666666666667,292.068,-2.7329,-2.6492,-1.6157,-1.5255,-205.3,215.7975,190.55125,0.0,0.0,0.0,0.0,0.0425,-5.498166666666667,-5.498166666666667,-0.5528000000000001,0.21500000000000008,0.014888888888888951,0.402,68.33500000000001,0.031400000000000004,-0.19745000000000001,-0.2560000000000002,100.0,1.0,1.0,211.23000000000002,0.0,0.0,0.0,0.0,0.0,0.0,0.0,8953.2,0.0,55.0,5.0,245.98000000000002,1.0,0.0,0.0,0.0,0.0,0.0,0.0,0.0,1.056000000000001,1.056000000000001,0.0,0.0,1.0,55.0,616.79921,10000.0,85.000001,85.000001,85.000001,85.000001,395.0,0.0,0.0,0.0,1.0,166.665,52.475,52.475,46.997,46.997,34.0,-22.4275,26.008333333333333,-25.473333333333336,28.3775,0.0,1781.82,-0.27999999999999936,100.0,27.941,27.923000000000002,42.508,42.887,0.0,0.0,100.0,0.0,0.0,0.0,0.0,3055.625,3173.0,3957.625,3999.7,305.5245,304.83725,313.696,313.269,21.9364,20.6143,18.473875,17.8886,314.999998,314.999998,324.999988,324.999988,99.55695714285714,99.50718333333333,99.57644285714285,99.55445714285715,0.1120000000000001,-0.020000000000000018,-0.07883333333333332,0.15766666666666665,-0.036666666666668846,-0.06499999999999773,1.7635,1.752,38.102000000000004,29.839333333333336,41.462,37.804,55.271,35.0895,68.14,59.719,53.277,34.248,65.426,56.86,52.480000000000004,33.8225,66.2925,56.8845,-0.09899999999999998,-0.05400000000000005,0.10966000000000001,0.11067500000000001,0.0,213.945,213.97500000000002,211.23000000000002,211.23000000000002,0.0,0.0
22,0.0,0.0,0.0,1.0,1.0,0.0,0.0,1.0,0.0,100.0,1.0,1.1856,26.0,0.0,0.0,0.0,59.999996,0.0,26.0,26.0,26.0,26.0,0.03511111111111109,0.2762,0.0055000000000000005,291.58,-2.6695,-2.6958,-1.6104500000000002,-1.509,-201.81,215.775,190.5275,0.0,0.0,0.0,0.0,0.044533333333333334,-5.498166666666667,-5.498166666666667,-0.5308,0.2406666666666668,0.021888888888888847,-0.462,68.474,0.028,-0.17035,-0.22199999999999953,100.0,1.0,1.0,211.45666666666668,0.0,0.0,0.0,0.0,0.0,0.0,0.0,8962.9,0.0,55.0,5.0,246.47666666666666,0.0,0.0,0.0,0.0,0.0,0.0,0.0,0.0,1.1069999999999993,1.1069999999999993,0.0,0.0,0.0,55.0,616.79921,10000.0,85.000001,85.000001,85.000001,85.000001,395.0,0.0,0.0,0.0,1.0,166.665,52.673,52.673,45.837,45.837,34.0,-21.285,24.71666666666667,-28.729999999999997,30.0975,0.0,1781.768,-0.35999999999999943,100.0,27.856,28.211,42.66,43.113,0.0,0.0,100.0,0.0,0.0,0.0,0.0,2982.625,3003.5,4255.75,4289.6,305.8225,305.044,312.883,312.394,21.9457,20.6198,18.48675,17.9,314.999998,314.999998,324.999988,324.999988,99.55695714285714,99.50718333333333,99.5766,99.55462857142857,0.10899999999999999,-0.032333333333333325,-0.08983333333333333,0.13733333333333334,-0.045000000000001705,-0.051666666666669414,1.656,1.6445,38.16,29.874000000000002,41.542,37.875,55.262,35.128,68.1865,59.7945,53.268,34.283500000000004,65.468,56.931,52.469,33.8565,66.3315,56.956,-0.10499999999999998,-0.044499999999999984,0.10043500000000001,0.11038500000000001,0.0,214.4,214.41,211.45666666666668,211.45666666666668,0.0,0.0
23,0.0,0.0,0.0,1.0,1.0,0.0,0.0,1.0,0.0,100.0,1.0,1.1856,26.0,0.0,0.0,0.0,59.999996,0.0,26.0,26.0,26.0,26.0,0.04444444444444429,0.25750000000000006,-0.025033333333333335,291.489,-2.7031,-2.646,-1.5397,-1.5737,-198.51999999999998,215.7525,190.505375,0.0,0.0,0.0,0.0,0.04646666666666667,-5.498166666666667,-5.498166666666667,-0.5463,-0.44933333333333336,0.019777777777777894,-0.796,68.601,0.0291,-0.196,-0.22600000000000087,100.0,1.0,1.0,211.88666666666666,0.0,0.0,0.0,0.0,0.0,0.0,0.0,8981.1,0.0,55.0,5.0,246.94,1.0,0.0,0.0,0.0,0.0,0.0,0.0,0.0,1.1550000000000011,1.1550000000000011,0.0,0.0,1.0,55.0,616.79921,10000.0,85.000001,85.000001,85.000001,85.000001,395.0,0.0,0.0,0.0,1.0,333.33500000000004,51.987,51.987,46.585,46.585,34.0,-24.1675,25.328333333333333,-25.336666666666666,29.0425,0.0,1781.72,-0.3349999999999991,100.0,27.97,28.266,42.894,43.41,0.0,0.0,100.0,0.0,0.0,0.0,0.0,3301.125,3094.4,3993.25,4062.4,305.0045,304.85225,313.50266666666664,312.87675,21.9544,20.6251,18.498874999999998,17.9107,314.999998,314.999998,324.999988,324.999988,99.55697142857143,99.5072,99.57675714285715,99.55478571428571,0.10850000000000026,-0.024666666666666615,-0.08283333333333333,0.13566666666666666,-0.060000000000002274,-0.030000000000001137,1.6935,1.6724999999999999,38.215,29.907,41.617999999999995,37.942,55.251999999999995,35.164500000000004,68.229,59.8665,53.257999999999996,34.317,65.5075,56.9995,52.458,33.8885,66.3675,57.024,-0.10699999999999998,-0.0495000000000001,0.10471000000000001,0.10348500000000001,0.0,214.76,214.765,211.88666666666666,211.88666666666666,0.0,0.0
24,0.0,0.0,0.0,1.0,1.0,0.0,0.0,1.0,0.0,100.0,1.0,1.1856,26.0,0.0,0.0,0.0,59.999996,0.0,26.0,26.0,26.0,26.0,0.035555555555555785,0.27459999999999996,-0.0395,291.748,-2.7221,-2.6554,-1.57905,-1.5169,-195.22,215.73250000000002,190.483,0.0,0.0,0.0,0.0,0.04836666666666667,-5.498166666666667,-5.498166666666667,-0.5564,-0.3443333333333334,0.02822222222222215,-0.199,68.72800000000001,0.034,-0.19135000000000002,-0.3179999999999996,100.0,1.0,1.0,212.27666666666667,0.0,0.0,0.0,0.0,0.0,0.0,0.0,8997.7,0.0,55.0,5.0,247.39333333333335,0.0,0.0,0.0,0.0,0.0,0.0,0.0,0.0,1.2029999999999994,1.2029999999999994,0.0,0.0,0.0,55.0,616.79921,10000.0,85.000001,85.000001,85.000001,85.000001,395.0,0.0,0.0,0.0,1.0,333.33500000000004,52.826,52.826,46.066,46.066,34.0,-22.02,23.971666666666664,-27.586666666666666,29.0125,0.0,1781.672,-0.3100000000000005,100.0,27.861,28.045,42.783,43.272999999999996,0.0,0.0,100.0,0.0,0.0,0.0,0.0,3006.125,2976.7,4257.5,4107.1,305.7925,305.257,312.9266666666667,312.8975,21.9631,20.6303,18.510875,17.9213,314.999998,314.999998,324.999988,324.999988,99.55698571428572,99.5072,99.57691428571428,99.55492857142858,0.10650000000000004,-0.03200000000000003,-0.0795,0.14583333333333334,-0.051666666666669414,-0.046666666666666856,1.69,1.6744999999999999,38.269,29.939333333333334,41.693,38.007999999999996,55.242000000000004,35.2,68.27,59.9355,53.248999999999995,34.3495,65.545,57.064499999999995,52.448,33.9195,66.402,57.0895,-0.10199999999999998,-0.05699999999999994,0.10584500000000001,0.11423000000000001,0.0,215.155,215.17000000000002,212.27666666666667,212.27666666666667,0.0,0.0
25,0.0,0.0,0.0,1.0,1.0,0.0,0.0,1.0,0.0,100.0,1.0,1.1856,26.0,0.0,0.0,0.0,59.999996,0.0,26.0,26.0,26.0,26.0,0.04633333333333334,0.2611000000000001,-0.04306666666666667,291.702,-2.7948,-2.6141,-1.59785,-1.5168,-191.51,215.7125,190.456375,0.0,0.0,0.0,0.0,0.05053333333333333,-5.498166666666667,-5.498166666666667,-0.5823,-0.020333333333333314,0.035666666666666735,-0.98,68.869,0.0332,-0.19225,-0.2859999999999996,100.0,1.0,1.0,212.80666666666667,0.0,0.0,0.0,0.0,0.0,0.0,0.0,9020.0,0.0,55.0,5.0,247.9,1.0,0.0,0.0,0.0,0.0,0.0,0.0,0.0,1.256999999999998,1.256999999999998,0.0,0.0,1.0,55.0,616.79921,10000.0,85.000001,85.000001,85.000001,85.000001,395.0,0.0,0.0,0.0,1.0,166.665,52.078,52.078,46.646,46.646,34.0,-24.7225,26.89666666666667,-25.29,28.455000000000002,0.0,1781.619,-0.375,100.0,27.687,28.189,42.582,43.058,0.0,0.0,100.0,0.0,0.0,0.0,0.0,3250.0,3264.8,3963.875,4067.6000000000004,305.202,304.36275,313.69733333333335,313.04025,21.9728,20.6362,18.524124999999998,17.9332,314.999998,314.999998,324.999988,324.999988,99.557,99.5072,99.57707142857143,99.5551,0.10550000000000015,-0.018333333333333313,-0.07566666666666667,0.14633333333333334,-0.036666666666668846,-0.05833333333333002,1.7245,1.7285,38.33,29.976333333333336,41.775999999999996,38.083,55.230000000000004,35.241,68.314,60.0115,53.236999999999995,34.3875,65.585,57.137,52.434,33.956,66.4385,57.161500000000004,-0.10299999999999998,-0.04200000000000004,0.10613,0.10714000000000001,0.0,215.57999999999998,215.625,212.80666666666667,212.80666666666667,0.0,0.0
26,0.0,0.0,0.0,1.0,1.0,0.0,0.0,1.0,0.0,100.0,1.0,1.1856,26.0,0.0,0.0,0.0,59.999996,0.0,26.0,26.0,26.0,26.0,0.03777777777777791,0.2723,0.06813333333333334,290.619,-2.7468,-2.6875,-1.64655,-1.5088,-188.2,215.6925,190.432125,0.0,0.0,0.0,0.0,0.05246666666666667,-5.498166666666667,-5.498166666666667,-0.5482,0.8063333333333333,0.018444444444444263,-0.933,68.997,0.033600000000000005,-0.1646,-0.33399999999999963,100.0,1.0,1.0,212.97333333333333,0.0,0.0,0.0,0.0,0.0,0.0,0.0,9027.2,0.0,55.0,5.0,248.36,0.0,0.0,0.0,0.0,0.0,0.0,0.0,0.0,1.3049999999999997,1.3049999999999997,0.0,0.0,0.0,55.0,616.79921,10000.0,85.000001,85.000001,85.000001,85.000001,395.0,0.0,0.0,0.0,1.0,166.665,51.528999999999996,51.528999999999996,45.135,45.135,34.0,-23.5125,25.886666666666667,-30.476666666666667,32.042500000000004,0.0,1781.571,-0.41000000000000014,100.0,28.522,28.84,42.894999999999996,43.373000000000005,0.0,0.0,100.0,0.0,0.0,0.0,0.0,3223.125,3105.1,4496.0,4424.4,305.149,304.70675,312.30333333333334,312.0135,21.9816,20.6417,18.53625,17.944,314.999998,314.999998,324.999988,324.999988,99.55702857142857,99.50721666666666,99.57722857142858,99.55525714285714,0.12024999999999997,-0.02633333333333332,-0.07533333333333334,0.14816666666666667,-0.036666666666668846,-0.054999999999999716,1.63,1.601,38.385,30.010666666666665,41.852000000000004,38.15,55.223,35.2795,68.3575,60.0835,53.230000000000004,34.423,65.6245,57.204499999999996,52.427,33.99,66.475,57.229,-0.11649999999999994,-0.0515000000000001,0.10289500000000001,0.11406500000000001,0.0,216.015,216.04500000000002,212.97333333333333,212.97333333333333,0.0,0.0
27,0.0,0.0,0.0,1.0,1.0,0.0,0.0,1.0,0.0,100.0,1.0,1.1856,26.0,0.0,0.0,0.0,59.999996,0.0,26.0,26.0,26.0,26.0,0.04788888888888887,0.2532000000000001,0.0008333333333333334,290.848,-2.7114,-2.6539,-1.63715,-1.5812,-184.88,215.675,190.408875,0.0,0.0,0.0,0.0,0.05436666666666667,-5.498166666666667,-5.498166666666667,-0.5635,-1.0546666666666666,0.020444444444444265,-0.8130000000000001,69.123,0.0339,-0.202575,-0.3879999999999999,100.0,1.0,1.0,213.36333333333334,0.0,0.0,0.0,0.0,0.0,0.0,0.0,9043.7,0.0,55.0,5.0,248.81666666666666,1.0,0.0,0.0,0.0,0.0,0.0,0.0,0.0,1.352999999999998,1.352999999999998,0.0,0.0,1.0,55.0,616.79921,10000.0,85.000001,85.000001,85.000001,85.000001,395.0,0.0,0.0,0.0,1.0,333.33500000000004,51.987,51.987,45.028999999999996,45.028999999999996,34.0,-22.107499999999998,25.64666666666667,-28.803333333333335,30.16,0.0,1781.522,-0.4450000000000003,100.0,28.212,28.667,43.662,44.061,0.0,0.0,100.0,0.0,0.0,0.0,0.0,3100.125,3114.6,4236.25,4172.4,305.5405,304.7915,312.87733333333335,312.55775,21.9902,20.647,18.5485,17.9549,314.999998,314.999998,324.999988,324.999988,99.55704285714286,99.50721666666666,99.57738571428571,99.55541428571429,0.12049999999999983,-0.02400000000000002,-0.08316666666666667,0.13183333333333336,-0.04333333333332945,-0.03999999999999915,1.6375,1.6219999999999999,38.439,30.043666666666667,41.928,38.218,55.213,35.3155,68.403,60.157,53.221000000000004,34.456,65.6665,57.274,52.416,34.022,66.514,57.298500000000004,-0.11749999999999994,-0.046499999999999986,0.110325,0.10275500000000001,0.0,216.36,216.35500000000002,213.36333333333334,213.36333333333334,0.0,0.0
28,0.0,0.0,0.0,1.0,1.0,0.0,0.0,1.0,0.0,100.0,1.0,1.1856,26.0,0.0,0.0,0.0,59.999996,0.0,26.0,26.0,26.0,26.0,0.052888888888888985,0.2594000000000001,-0.07416666666666667,291.351,-2.6946,-2.645,-1.6327,-1.5463,-181.14999999999998,215.6575,190.38225,0.0,0.0,0.0,0.0,0.05656666666666667,-5.498166666666667,-5.498166666666667,-0.5822,0.5673333333333332,0.011888888888888838,-0.673,69.259,0.0396,-0.1958,-0.44200000000000017,100.0,1.0,1.0,214.0233333333333,0.0,0.0,0.0,0.0,0.0,0.0,0.0,9071.7,0.0,55.0,5.0,249.30666666666667,0.0,0.0,0.0,0.0,0.0,0.0,0.0,0.0,1.407,1.407,0.0,0.0,0.0,55.0,616.79921,10000.0,85.000001,85.000001,85.000001,85.000001,395.0,0.0,0.0,0.0,1.0,166.665,51.788,51.788,46.494,46.494,34.0,-22.755,25.761666666666667,-25.636666666666663,28.76,0.0,1781.469,-0.4350000000000005,100.0,28.4,28.676000000000002,43.021,43.541,0.0,0.0,100.0,0.0,0.0,0.0,0.0,3179.75,3109.7,3995.875,4045.7,305.2565,304.797,313.703,313.13875,22.0,20.653,18.56175,17.9668,314.999998,314.999998,324.999988,324.999988,99.55705714285715,99.50721666666666,99.57755714285715,99.55558571428571,0.11850000000000005,-0.018333333333333313,-0.07116666666666667,0.14816666666666667,-0.054999999999999716,-0.03833333333332689,1.7415,1.7225,38.5,30.081333333333333,42.010999999999996,38.292,55.204,35.357,68.4445,60.231,53.212,34.4945,65.704,57.3445,52.406,34.0585,66.548,57.3685,-0.11499999999999999,-0.046499999999999986,0.107175,0.101485,0.0,216.82999999999998,216.835,214.0233333333333,214.0233333333333,0.0,0.0
29,0.0,0.0,0.0,1.0,1.0,0.0,0.0,1.0,0.0,100.0,1.0,1.1856,26.0,0.0,0.0,0.0,59.999996,0.0,26.0,26.0,26.0,26.0,0.05966666666666676,0.25140000000000007,0.04613333333333333,290.909,-2.6808,-2.6976,-1.5822500000000002,-1.5293,-177.82,215.64249999999998,190.357375,0.0,0.0,0.0,0.0,0.0585,-5.498166666666667,-5.498166666666667,-0.5746,-0.44599999999999995,0.014888888888888951,-0.65,69.387,0.0429,-0.17475000000000002,-0.43599999999999994,100.0,1.0,1.0,214.17000000000002,0.0,0.0,0.0,0.0,0.0,0.0,0.0,9077.8,0.0,55.0,5.0,249.76666666666665,1.0,0.0,0.0,0.0,0.0,0.0,0.0,0.0,1.4549999999999983,1.4549999999999983,0.0,0.0,1.0,55.0,616.79921,10000.0,85.000001,85.000001,85.000001,85.000001,395.0,0.0,0.0,0.0,1.0,333.33500000000004,52.139,52.139,45.044,45.044,34.0,-21.6575,26.245,-28.113333333333337,31.105,0.0,1781.419,-0.47499999999999964,100.0,28.042,28.503,43.315,43.789,0.0,0.0,100.0,0.0,0.0,0.0,0.0,3092.0,3114.9,4312.25,4298.7,305.5855,304.7155,312.70933333333335,312.3575,22.008499999999998,20.6583,18.573875,17.9775,314.999998,314.999998,324.999988,324.999988,99.55707142857143,99.50721666666666,99.5777,99.55574285714286,0.12225000000000019,-0.021333333333333204,-0.07416666666666667,0.14566666666666667,-0.04999999999999716,-0.041666666666671404,1.6365,1.6145,38.553,30.114333333333335,42.087,38.36,55.193,35.3925,68.4885,60.302,53.201,34.5275,65.744,57.411500000000004,52.394,34.09,66.585,57.4355,-0.11349999999999993,-0.04200000000000004,0.10983000000000001,0.10666,0.0,217.185,217.21,214.17000000000002,214.17000000000002,0.0,0.0
30,0.0,0.0,0.0,1.0,1.0,0.0,0.0,1.0,0.0,100.0,1.0,1.1856,26.0,0.0,0.0,0.0,59.999996,0.0,26.0,26.0,26.0,26.0,0.07911111111111113,0.2490000000000001,0.0461,290.344,-2.739,-2.5787,-1.5634000000000001,-1.5823,-174.49,215.6275,190.3325,0.0,0.0,0.0,0.0,0.06043333333333334,-5.498166666666667,-5.498166666666667,-0.5825,0.4953333333333332,0.016888888888888953,-0.751,69.509,0.045000000000000005,-0.19212500000000002,-0.5339999999999989,100.0,1.0,1.0,214.64,0.0,0.0,0.0,0.0,0.0,0.0,0.0,9097.7,0.0,55.0,5.0,250.20666666666665,0.0,0.0,0.0,0.0,0.0,0.0,1.0,0.0,1.5030000000000001,1.5030000000000001,0.0,0.0,0.0,55.0,616.79921,10000.0,85.000001,85.000001,85.000001,85.000001,395.0,0.0,0.0,0.0,1.0,166.665,50.598,50.598,45.624,45.624,34.0,-24.905,27.046666666666667,-26.14333333333333,31.36,0.0,1781.373,-0.4450000000000003,100.0,28.745,29.22,43.272999999999996,43.94,0.0,0.0,100.0,0.0,0.0,0.0,0.0,3445.375,3318.3,4122.375,4190.5,304.5825,303.99025,313.26533333333333,312.57975,22.0173,20.663899999999998,18.585875,17.9883,314.999998,314.999998,324.999988,324.999988,99.55708571428572,99.50723333333333,99.57787142857143,99.5559,0.12725000000000009,-0.024666666666666615,-0.07216666666666667,0.15483333333333335,-0.04833333333333201,-0.060000000000002274,1.6625,1.6435,38.608000000000004,30.149,42.162,38.427,55.187,35.4315,68.528,60.372,53.195,34.5635,65.78,57.4775,52.387,34.1245,66.618,57.5015,-0.118,-0.0535000000000001,0.11421500000000001,0.10659500000000001,0.0,217.57,217.615,214.64,214.64,0.0,0.0
31,0.0,0.0,0.0,1.0,1.0,0.0,0.0,1.0,0.0,100.0,1.0,1.1856,26.0,0.0,0.0,0.0,59.999996,0.0,26.0,26.0,26.0,26.0,0.04833333333333334,0.2704,0.021766666666666667,290.131,-2.7857,-2.6132,-1.6045,-1.4803,-170.73000000000002,215.615,190.305125,0.0,0.0,0.0,0.0,0.0626,-5.498166666666667,-5.498166666666667,-0.5614,-0.3746666666666666,0.021333333333333204,-0.905,69.649,0.0466,-0.18615,-0.4139999999999997,100.0,1.0,1.0,214.91333333333333,0.0,0.0,0.0,0.0,0.0,0.0,0.0,9109.4,0.0,55.0,5.0,250.71333333333334,1.0,0.0,0.0,0.0,0.0,0.0,1.0,0.0,1.5569999999999986,1.5569999999999986,0.0,0.0,1.0,55.0,616.79921,10000.0,85.000001,85.000001,85.000001,85.000001,395.0,0.0,0.0,0.0,1.0,166.665,51.346000000000004,51.346000000000004,44.159,44.159,34.0,-23.0875,26.621666666666666,-28.166666666666664,31.675,0.0,1781.319,-0.4800000000000004,100.0,28.652,29.288,43.849000000000004,44.519999999999996,0.0,0.0,100.0,0.0,0.0,0.0,0.0,3163.625,3242.8,4381.0,4299.2,305.4755,304.48225,312.46633333333335,312.25275,22.0269,20.67,18.599625,18.0006,314.999998,314.999998,324.999988,324.999988,99.5571,99.50723333333333,99.57802857142858,99.55607142857143,0.12349999999999994,-0.01866666666666661,-0.0565,0.16316666666666665,-0.03999999999999915,-0.046666666666666856,1.611,1.571,38.668,30.187666666666665,42.248000000000005,38.504,55.178,35.4735,68.578,60.454499999999996,53.186,34.6025,65.826,57.5555,52.376999999999995,34.161500000000004,66.66,57.579,-0.11699999999999999,-0.04849999999999999,0.09523500000000001,0.11675,0.0,217.995,218.035,214.91333333333333,214.91333333333333,0.0,0.0
32,0.0,0.0,0.0,1.0,1.0,0.0,0.0,1.0,0.0,100.0,1.0,1.1856,26.0,0.0,0.0,0.0,59.999996,0.0,26.0,26.0,26.0,26.0,0.06666666666666687,0.2652000000000001,-0.0307,290.604,-2.7382,-2.6678,-1.65975,-1.5359,-167.38,215.60250000000002,190.28125,0.0,0.0,0.0,0.0,0.06456666666666666,-5.498166666666667,-5.498166666666667,-0.5797,-0.2566666666666666,0.0005555555555556424,-1.124,69.77,0.0449,-0.200125,-0.4920000000000009,100.0,1.0,1.0,215.43333333333334,0.0,0.0,0.0,0.0,0.0,0.0,0.0,9131.5,0.0,55.0,5.0,251.14333333333335,0.0,0.0,0.0,0.0,0.0,0.0,1.0,0.0,1.6050000000000004,1.6050000000000004,0.0,0.0,0.0,55.0,616.79921,10000.0,85.000001,85.000001,85.000001,85.000001,395.0,0.0,0.0,0.0,1.0,333.33500000000004,51.483000000000004,51.483000000000004,45.242,45.242,34.0,-22.509999999999998,26.561666666666667,-27.556666666666665,30.6125,0.0,1781.269,-0.504999999999999,100.0,28.565,29.173000000000002,43.717,44.366,0.0,0.0,100.0,0.0,0.0,0.0,0.0,3212.0,3122.8,4188.125,4196.9,305.271,304.76725,313.171,312.758,22.0355,20.6755,18.611625,18.0114,314.999998,314.999998,324.999988,324.999988,99.55711428571429,99.50723333333333,99.5782,99.55624285714286,0.137,-0.007333333333333192,-0.06766666666666667,0.159,-0.051666666666669414,-0.04999999999999716,1.6915,1.684,38.722,30.221666666666664,42.322,38.571,55.169,35.5135,68.62,60.5275,53.178,34.638999999999996,65.86449999999999,57.625,52.367000000000004,34.197,66.6955,57.6485,-0.12,-0.04150000000000009,0.108285,0.10738500000000001,0.0,218.37,218.38,215.43333333333334,215.43333333333334,0.0,0.0
33,0.0,0.0,0.0,1.0,1.0,0.0,0.0,1.0,0.0,100.0,1.0,1.1856,26.0,0.0,0.0,0.0,59.999996,0.0,26.0,26.0,26.0,26.0,0.05888888888888899,0.2581,-0.042966666666666674,290.848,-2.7396,-2.6659,-1.5956000000000001,-1.5722,-164.03,215.5925,190.256375,0.0,0.0,0.0,0.0,0.0665,-5.498166666666667,-5.498166666666667,-0.5896,-0.19666666666666666,-0.001777777777777878,-0.085,69.891,0.046400000000000004,-0.188175,-0.4800000000000004,100.0,1.0,1.0,215.81666666666666,0.0,0.0,0.0,0.0,0.0,0.0,0.0,9147.6,0.0,55.0,5.0,251.57999999999998,1.0,0.0,0.0,0.0,0.0,0.0,1.0,0.0,1.6529999999999987,1.6529999999999987,0.0,0.0,1.0,55.0,616.79921,10000.0,85.000001,85.000001,85.000001,85.000001,395.0,0.0,0.0,0.0,1.0,166.665,51.879999999999995,51.879999999999995,45.364,45.364,34.0,-22.11,25.601666666666667,-26.78666666666666,30.9225,0.0,1781.223,-0.4800000000000004,100.0,28.469,28.933,43.572,44.174,0.0,0.0,100.0,0.0,0.0,0.0,0.0,3109.25,3067.9,4166.25,4172.6,305.569,304.94375,313.135,312.78325,22.044,20.6808,18.6235,18.022100000000002,314.999998,314.999998,324.999988,324.999988,99.55712857142858,99.50723333333333,99.57834285714286,99.55638571428571,0.12749999999999995,-0.016999999999999904,-0.07033333333333333,0.15683333333333335,-0.051666666666669414,-0.041666666666671404,1.686,1.664,38.775,30.255,42.397,38.638,55.161,35.546,68.657,60.591,53.17,34.6695,65.8985,57.6845,52.358000000000004,34.226,66.726,57.708,-0.11299999999999999,-0.04400000000000004,0.11056500000000001,0.10529500000000001,0.0,218.76,218.765,215.81666666666666,215.81666666666666,0.0,0.0
34,0.0,0.0,0.0,1.0,1.0,0.0,0.0,1.0,0.0,100.0,1.0,1.1856,26.0,0.0,0.0,0.0,59.999996,0.0,26.0,26.0,26.0,26.0,0.04844444444444429,0.26080000000000014,-0.07306666666666667,290.97,-2.6814,-2.5955,-1.654,-1.5364,-160.45999999999998,215.585,190.2285,0.0,0.0,0.0,0.0,0.06856666666666666,-5.498166666666667,-5.498166666666667,-0.6117,-0.7163333333333333,0.02733333333333321,0.962,70.02,0.0489,-0.18795,-0.5099999999999998,100.0,1.0,1.0,216.16333333333333,0.0,0.0,0.0,0.0,0.0,0.0,0.0,9162.3,0.0,55.0,5.0,252.04666666666668,0.0,0.0,0.0,0.0,0.0,0.0,1.0,0.0,1.7040000000000006,1.7040000000000006,0.0,0.0,0.0,55.0,616.79921,10000.0,85.000001,85.000001,85.000001,85.000001,395.0,0.0,0.0,0.0,1.0,333.33500000000004,52.124,52.124,45.760999999999996,45.760999999999996,34.0,-20.005,26.081666666666667,-26.563333333333333,31.2875,0.0,1781.17,-0.4900000000000002,100.0,28.362000000000002,28.521,43.479,44.16,0.0,0.0,100.0,0.0,0.0,0.0,0.0,2976.625,3150.0,4100.25,4267.5,305.6565,304.906,313.341,312.51825,22.053,20.6864,18.636125,18.0335,314.999998,314.999998,324.999988,324.999988,99.55715714285714,99.50723333333333,99.5785,99.55655714285714,0.14700000000000024,-0.0029999999999998916,-0.060333333333333336,0.15766666666666665,-0.02833333333332888,-0.041666666666671404,1.6795,1.672,38.831,30.289666666666665,42.476,38.71,55.150999999999996,35.582499999999996,68.69800000000001,60.6655,53.16,34.703,65.936,57.754999999999995,52.347,34.257999999999996,66.76,57.778,-0.118,-0.04249999999999998,0.10613,0.10257500000000001,0.0,219.125,219.155,216.16333333333336,216.16333333333333,0.0,0.0
35,0.0,0.0,0.0,1.0,1.0,0.0,0.0,1.0,0.0,100.0,1.0,1.1856,26.0,0.0,0.0,0.0,59.999996,0.0,26.0,26.0,26.0,26.0,0.06622222222222218,0.24930000000000008,-0.07666666666666666,291.046,-2.7412,-2.6029,-1.6356000000000002,-1.5645,-156.68,215.575,190.197125,0.0,0.0,0.0,0.0,0.07076666666666667,-5.498166666666667,-5.498166666666667,-0.6565000000000001,-0.3533333333333334,0.011777777777777887,-0.14,70.154,0.0541,-0.20247500000000002,-0.6199999999999992,100.0,1.0,1.0,216.68,0.0,0.0,0.0,0.0,0.0,0.0,0.0,9184.3,0.0,55.0,5.0,252.53,1.0,0.0,0.0,0.0,0.0,0.0,1.0,0.0,1.7579999999999991,1.7579999999999991,0.0,0.0,1.0,55.0,616.79921,10000.0,85.000001,85.000001,85.000001,85.000001,395.0,0.0,0.0,0.0,1.0,166.665,51.712,51.712,45.394999999999996,45.394999999999996,34.0,-21.5225,28.393333333333334,-25.166666666666664,30.18,0.0,1781.118,-0.28500000000000014,100.0,28.14,28.736,43.325,43.786,0.0,0.0,100.0,0.0,0.0,0.0,0.0,3054.25,3416.8,4038.125,4042.3,305.5565,304.04375,313.39666666666665,313.25575,22.0624,20.6925,18.6495,18.0455,314.999998,314.999998,324.999988,324.999988,99.55717142857142,99.50723333333333,99.57868571428571,99.55672857142856,0.13575000000000026,-0.01200000000000001,-0.04716666666666666,0.17266666666666666,-0.041666666666671404,-0.06333333333333258,1.717,1.698,38.89,30.328,42.56,38.784,55.138999999999996,35.624,68.741,60.739,53.147999999999996,34.7415,65.975,57.825,52.334,34.295,66.7955,57.848,-0.10599999999999998,-0.05950000000000011,0.10300000000000001,0.10115,0.0,219.54500000000002,219.59,216.68,216.68,0.0,0.0
36,0.0,0.0,0.0,1.0,1.0,0.0,0.0,1.0,0.0,100.0,1.0,1.1856,26.0,0.0,0.0,0.0,59.999996,0.0,26.0,26.0,26.0,26.0,0.05888888888888899,0.2662,0.03146666666666667,290.298,-2.6624,-2.6471999999999998,-1.5798,-1.5392,-153.31,215.57,190.167625,0.0,0.0,0.0,0.0,0.07273333333333334,-5.498166666666667,-5.498166666666667,-0.6372,0.3766666666666667,-0.03000000000000025,0.293,70.277,0.0538,-0.168625,-0.3379999999999992,100.0,1.0,1.0,216.86333333333334,0.0,0.0,0.0,0.0,0.0,0.0,0.0,9192.0,0.0,55.0,5.0,252.97,0.0,0.0,0.0,0.0,0.0,0.0,1.0,0.0,1.806000000000001,1.806000000000001,0.0,0.0,0.0,55.0,616.79921,10000.0,85.000001,85.000001,85.000001,85.000001,395.0,0.0,0.0,0.0,1.0,166.665,51.407,51.407,45.074,45.074,34.0,-21.355,26.808333333333334,-26.546666666666667,34.6275,0.0,1781.07,-0.16999999999999993,100.0,28.79,28.857,43.425,43.847,0.0,0.0,100.0,0.0,0.0,0.0,0.0,3088.0,3246.4,4329.75,4478.6,305.2305,304.61575,312.644,312.0165,22.0709,20.698,18.6615,18.0563,314.999998,314.999998,324.999988,324.999988,99.55718571428571,99.50725,99.57882857142857,99.55688571428571,0.13450000000000006,-0.018999999999999906,-0.041666666666666664,0.17966666666666667,-0.03999999999999915,-0.051666666666669414,1.6245,1.6015,38.943,30.362666666666666,42.634,38.852000000000004,55.132,35.662,68.781,60.8075,53.141,34.7765,66.0115,57.89,52.325,34.3285,66.829,57.913,-0.09299999999999997,-0.07200000000000006,0.09660500000000001,0.11457500000000001,0.0,219.96,219.985,216.86333333333334,216.86333333333334,0.0,0.0
