,ABS Active,ABS Enabled,AID Allow Tire Blankets,AID Auto Blip,AID Auto Clutch,AID Auto Shift,AID Fuel Rate,AID Ideal Line,AID Mech Damage,AID Stability,AID Tire Wear Rate,Air Density,Air Temp,Ballast,Best Lap Delta,Best Lap Time,Brake Bias,Brake Pos,Brake Temp FL,Brake Temp FR,Brake Temp RL,Brake Temp RR,CG Accel Lateral,CG Accel Longitudinal,CG Accel Vertical,CG Height,Camber FL,Camber FR,Camber RL,Camber RR,Car Coord X,Car Coord Y,Car Coord Z,Car Damage Front,Car Damage Left,Car Damage Rear,Car Damage Right,Car Pos Norm,Caster FL,Caster FR,Chassis Pitch Angle,Chassis Pitch Rate,Chassis Roll Angle,Chassis Roll Rate,Chassis Velocity X,Chassis Velocity Y,Chassis Velocity Z,Chassis Yaw Rate,Clutch Pos,DRS Active,DRS Available,Drive Train Speed,ERS Heat Charging,ERS Is Charging,ERS Max Energy,ERS Power Level,ERS Recovery Level,Engine Brake Setting,Engine Limiter,Engine RPM,Flags,Fuel Level,Gear,Ground Speed,HR Sample Clock,In Pit,KERS Charge,KERS Deployed Energy,KERS Input,KERS Max Energy,LR Sample Clock,Lap Invalidated,Lap Time,Lap Time2,Last Lap Time,Last Sector Time,MR Sample Clock,Max Fuel,Max Power,Max RPM,Max Sus Travel FL,Max Sus Travel FR,Max Sus Travel RL,Max Sus Travel RR,Max Torque,Max Turbo Boost,Num Tires Off Track,Penalties Enabled,Position,Raw Data Sample Rate,Ride Height FL,Ride Height FR,Ride Height RL,Ride Height RR,Road Temp,Self Align Torque FL,Self Align Torque FR,Self Align Torque RL,Self Align Torque RR,Session Lap Count,Session Time Left,Steering Angle,Surface Grip,Suspension Travel FL,Suspension Travel FR,Suspension Travel RL,Suspension Travel RR,TC Active,TC Enabled,Throttle Pos,Tire Dirt Level FL,Tire Dirt Level FR,Tire Dirt Level RL,Tire Dirt Level RR,Tire Load FL,Tire Load FR,Tire Load RL,Tire Load RR,Tire Loaded Radius FL,Tire Loaded Radius FR,Tire Loaded Radius RL,Tire Loaded Radius RR,Tire Pressure FL,Tire Pressure FR,Tire Pressure RL,Tire Pressure RR,Tire Radius FL,Tire Radius FR,Tire Radius RL,Tire Radius RR,Tire Rubber Grip FL,Tire Rubber Grip FR,Tire Rubber Grip RL,Tire Rubber Grip RR,Tire Slip Angle FL,Tire Slip Angle FR,Tire Slip Angle RL,Tire Slip Angle RR,Tire Slip Ratio FL,Tire Slip Ratio FR,Tire Slip Ratio RL,Tire Slip Ratio RR,Tire Temp Core FL,Tire Temp Core FR,Tire Temp Core RL,Tire Temp Core RR,Tire Temp Inner FL,Tire Temp Inner FR,Tire Temp Inner RL,Tire Temp Inner RR,Tire Temp Middle FL,Tire Temp Middle FR,Tire Temp Middle RL,Tire Temp Middle RR,Tire Temp Outer FL,Tire Temp Outer FR,Tire Temp Outer RL,Tire Temp Outer RR,Toe In FL,Toe In FR,Toe In RL,Toe In RR,Turbo Boost,Wheel Angular Speed FL,Wheel Angular Speed FR,Wheel Angular Speed RL,Wheel Angular Speed RR,Wind Direction,Wind Speed
0,0.0,0.0,0.0,1.0,1.0,0.0,0.0,1.0,0.0,100.0,1.0,1.1856,26.0,0.0,0.0,0.0,59.99999,0.0,26.0,26.0,26.0,26.0,-0.03211111111111109,0.29290000000000016,0.09433333333333334,293.06,-2.7893,-2.6241250000000003,-1.5545,-1.507,-275.79,215.55,190.98775,0.0,0.0,0.0,0.0,0.0015333333333333334,-5.498166666666667,-5.498166666666667,-0.5676,2.217,-0.0012500000000001954,0.193,65.418,-0.029300000000000003,-0.22775,0.11599999999999966,100.0,1.0,1.0,202.05,0.0,0.0,0.0,0.0,0.0,0.0,0.0,8564.1,0.0,55.0,5.0,235.47333333333333,0.0,0.0,0.0,0.0,0.0,0.0,0.0,0.0,0.0030000000000001137,0.0030000000000001137,0.0,0.0,0.0,55.0,616.79921,10000.0,85.0,85.0,85.0,85.0,395.0,0.0,0.0,0.0,1.0,20.0,50.797,50.797,48.935,48.935,34.0,-28.7125,30.77,-29.04,26.655,0.0,1782.713,0.245000000000001,100.0,27.479,27.111,40.2,39.834,0.0,0.0,100.0,0.0,0.0,0.0,0.0,3274.714285714286,4131.0,4060.25,4160.3,304.357,301.561,314.594,314.13725,20.8613,19.5512,20.8641,20.3903,314.99999,314.99999,324.99998,324.99998,99.55987142857143,99.50753333333333,99.56668571428571,99.54657142857143,0.025333333333333208,-0.08333333333333326,-0.1405,0.09116666666666667,-0.03333333333333144,-0.051666666666669414,1.617,1.599,37.632999999999996,29.445,37.650999999999996,34.689,57.701,35.1235,60.7725,53.078,55.346000000000004,34.1695,59.128,51.189,54.659,33.744,59.2965,50.7405,-0.058499999999999996,-0.09399999999999986,0.10815000000000001,0.10936000000000001,0.0,204.985,204.95,202.05,202.05,0.0,0.0
1,0.0,0.0,0.0,1.0,1.0,0.0,0.0,1.0,0.0,100.0,1.0,1.1856,26.0,0.0,0.0,0.0,59.999996,0.0,26.0,26.0,26.0,26.0,-0.06522222222222218,0.33630000000000004,0.1715,292.038,-2.6868,-2.705875,-1.5949,-1.3791,-272.25,215.5525,190.96675,0.0,0.0,0.0,0.0,0.0036000000000000003,-5.498166666666667,-5.498166666666667,-0.4756,-1.7483333333333335,-0.05062500000000014,-0.249,65.586,-0.0241,-0.18125000000000002,0.5839999999999996,100.0,1.0,1.0,201.96666666666667,0.0,0.0,0.0,0.0,0.0,0.0,0.0,8560.6,0.0,55.0,5.0,236.07666666666665,1.0,0.0,0.0,0.0,0.0,0.0,0.0,0.0,0.05699999999999861,0.05699999999999861,0.0,0.0,1.0,55.0,616.79921,10000.0,85.000001,85.000001,85.000001,85.000001,395.0,0.0,0.0,0.0,1.0,166.665,53.986,53.986,46.997,46.997,34.0,-22.8525,16.764,-38.17333333333333,32.8625,0.0,1782.66,0.39000000000000057,100.0,27.591,27.078,42.413,42.869,0.0,0.0,100.0,0.0,0.0,0.0,0.0,2801.4285714285716,2441.6,4763.5,5278.700000000001,305.9815,306.7005,312.6263333333333,310.84175,20.8721,19.5568,20.8763,20.4007,314.999998,314.999998,324.999988,324.999988,99.55987142857143,99.50755,99.56685714285715,99.54672857142857,0.028000000000000025,-0.10533333333333328,-0.14783333333333334,0.06466666666666668,-0.04333333333332945,-0.023333333333326323,1.3153333333333332,1.3705,37.701,29.48,37.727000000000004,34.754,57.683,35.1665,60.826499999999996,53.1565,55.328,34.209,59.178,51.2635,54.641,33.7825,59.3435,50.814,-0.040999999999999925,-0.11100000000000021,0.11102500000000001,0.10482000000000001,0.0,205.46,205.39,201.96666666666667,201.96666666666667,0.0,0.0
2,0.0,0.0,0.0,1.0,1.0,0.0,0.0,1.0,0.0,100.0,1.0,1.1856,26.0,0.0,0.0,0.0,59.999996,0.0,26.0,26.0,26.0,26.0,-0.09422222222222221,0.276,-0.10163333333333334,293.61,-2.6298,-2.664,-1.56285,-1.5215999999999998,-269.1,215.555,190.949125,0.0,0.0,0.0,0.0,0.005433333333333333,-5.498166666666667,-5.498166666666667,-0.5859,0.11266666666666669,-0.015625,2.537,65.711,-0.030000000000000002,-0.28395000000000004,0.8520000000000003,100.0,1.0,1.0,203.38333333333333,0.0,0.0,0.0,0.0,0.0,0.0,0.0,8620.7,0.0,55.0,5.0,236.53333333333333,0.0,0.0,0.0,0.0,0.0,0.0,0.0,0.0,0.10500000000000043,0.10500000000000043,0.0,0.0,0.0,55.0,616.79921,10000.0,85.000001,85.000001,85.000001,85.000001,395.0,0.0,0.0,0.0,1.0,333.33500000000004,51.391999999999996,51.391999999999996,50.629,50.629,34.0,-28.4,22.484,-24.36,18.885,0.0,1782.611,0.5,100.0,28.23,27.326,41.843,41.605000000000004,0.0,0.0,100.0,0.0,0.0,0.0,0.0,3335.714285714286,3217.8,3452.875,3318.5,304.127,304.099,316.0636666666667,316.33925,20.881999999999998,19.562,20.8864,20.409,314.999998,314.999998,324.999988,324.999988,99.55987142857143,99.50756666666666,99.567,99.54685714285715,0.0129999999999999,-0.11266666666666669,-0.16666666666666666,0.07116666666666667,-0.061666666666667425,-0.07166666666666544,1.8093333333333335,1.8355,37.763,29.512,37.79,34.8065,57.67,35.206,60.861,53.205,55.316,34.245,59.21,51.31,54.626999999999995,33.817,59.3725,50.86,-0.035499999999999865,-0.11799999999999988,0.10754500000000002,0.10647500000000001,0.0,205.865,205.785,203.38333333333333,203.38333333333333,0.0,0.0
3,0.0,0.0,0.0,1.0,1.0,0.0,0.0,1.0,0.0,100.0,1.0,1.1856,26.0,0.0,0.0,0.0,59.999996,0.0,26.0,26.0,26.0,26.0,-0.08155555555555549,0.3165,0.1711666666666667,292.725,-2.6666,-2.674125,-1.5524,-1.4716,-265.94,215.5525,190.929875,0.0,0.0,0.0,0.0,0.007266666666666668,-5.498166666666667,-5.498166666666667,-0.5084000000000001,0.9313333333333333,0.014000000000000012,-1.0110000000000001,65.86,-0.0432,-0.18945,0.7140000000000004,100.0,1.0,1.0,203.18333333333334,0.0,0.0,0.0,0.0,0.0,0.0,0.0,8612.1,0.0,55.0,5.0,237.06333333333333,1.0,0.0,0.0,0.0,0.0,0.0,0.0,0.0,0.1529999999999987,0.1529999999999987,0.0,0.0,1.0,55.0,616.79921,10000.0,85.000001,85.000001,85.000001,85.000001,395.0,0.0,0.0,0.0,1.0,333.33500000000004,52.872,52.872,47.47,47.47,34.0,-23.6375,20.574,-34.019999999999996,26.8675,0.0,1782.562,0.6099999999999994,100.0,27.875,27.503,41.748000000000005,41.725,0.0,0.0,100.0,0.0,0.0,0.0,0.0,2837.4285714285716,2984.2,4446.625,4423.7,305.9015,304.896,313.579,313.36625,20.8916,19.5673,20.8967,20.4179,314.999998,314.999998,324.999988,324.999988,99.55988571428571,99.50756666666666,99.56712857142857,99.54698571428571,0.01100000000000012,-0.1146666666666667,-0.15716666666666665,0.059500000000000004,-0.045000000000001705,-0.04999999999999716,1.4863333333333333,1.5165,37.823,29.5455,37.854,34.8615,57.653999999999996,35.249,60.899,53.2695,55.301,34.2845,59.2455,51.372,54.611000000000004,33.855000000000004,59.4055,50.921,-0.028000000000000025,-0.11949999999999994,0.106575,0.103095,0.0,206.38,206.305,203.18333333333334,203.18333333333334,0.0,0.0
4,0.0,0.0,0.0,1.0,1.0,0.0,0.0,1.0,0.0,100.0,1.0,1.1856,26.0,0.0,0.0,0.0,59.999996,0.0,26.0,26.0,26.0,26.0,-0.10299999999999998,0.2873000000000001,-0.054400000000000004,293.06,-2.6555999999999997,-2.7567500000000003,-1.48655,-1.5958,-262.38,215.55,190.909375,0.0,0.0,0.0,0.0,0.009333333333333334,-5.498166666666667,-5.498166666666667,-0.5323,-0.9526666666666667,-0.04775000000000018,0.17400000000000002,66.014,-0.0492,-0.237125,1.0079999999999991,100.0,1.0,1.0,203.81333333333333,0.0,0.0,0.0,0.0,0.0,0.0,0.0,8638.9,0.0,55.0,5.0,237.62333333333333,0.0,0.0,0.0,0.0,0.0,0.0,0.0,0.0,0.20700000000000074,0.20700000000000074,0.0,0.0,0.0,55.0,616.79921,10000.0,85.000001,85.000001,85.000001,85.000001,395.0,0.0,0.0,0.0,1.0,166.665,52.719,52.719,48.385999999999996,48.385999999999996,34.0,-26.947499999999998,20.052,-30.306666666666665,23.805,0.0,1782.509,0.7149999999999999,100.0,27.811,27.021,42.75,41.981,0.0,0.0,100.0,0.0,0.0,0.0,0.0,3111.285714285714,2913.0,4074.25,3882.9,304.9325,305.1935,314.467,314.7875,20.9024,19.573,20.9086,20.4279,314.999998,314.999998,324.999988,324.999988,99.55988571428571,99.50758333333333,99.56728571428572,99.54714285714286,-0.0023333333333332984,-0.1296666666666666,-0.17533333333333334,0.051833333333333335,-0.07000000000000028,-0.04333333333332945,1.5806666666666667,1.619,37.89,29.581,37.928,34.924,57.635999999999996,35.293,60.9475,53.3375,55.284,34.325,59.29,51.4365,54.593,33.8945,59.447,50.985,-0.016000000000000014,-0.13249999999999984,0.111155,0.102885,0.0,206.81,206.70499999999998,203.81333333333333,203.81333333333333,0.0,0.0
5,0.0,0.0,0.0,1.0,1.0,0.0,0.0,1.0,0.0,100.0,1.0,1.1856,26.0,0.0,0.0,0.0,59.999996,0.0,26.0,26.0,26.0,26.0,-0.08644444444444443,0.2982,-0.04753333333333334,293.442,-2.674,-2.706125,-1.5342,-1.5788,-259.01,215.54500000000002,190.889625,0.0,0.0,0.0,0.0,0.011300000000000001,-5.498166666666667,-5.498166666666667,-0.5447000000000001,0.548,-0.03725000000000023,-0.357,66.15899999999999,-0.0663,-0.230825,1.1660000000000004,100.0,1.0,1.0,204.39666666666668,0.0,0.0,0.0,0.0,0.0,0.0,0.0,8663.6,0.0,55.0,5.0,238.14333333333332,1.0,0.0,0.0,0.0,0.0,0.0,0.0,0.0,0.2579999999999991,0.2579999999999991,0.0,0.0,1.0,55.0,616.79921,10000.0,85.000001,85.000001,85.000001,85.000001,395.0,0.0,0.0,0.0,1.0,166.665,52.795,52.795,49.118,49.118,34.0,-27.5,19.735999999999997,-30.439999999999998,21.86,0.0,1782.459,0.23499999999999943,100.0,27.656,27.004,42.239000000000004,41.427,0.0,0.0,100.0,0.0,0.0,0.0,0.0,3159.142857142857,2899.2,3923.0,3888.3,304.893,305.032,314.95933333333335,314.82175,20.9128,19.5785,20.9194,20.437,314.999998,314.999998,324.999988,324.999988,99.55988571428571,99.5076,99.56742857142856,99.54728571428572,-0.0033333333333331883,-0.1293333333333333,-0.202,0.021666666666666667,-0.04833333333333201,-0.060000000000002274,1.623,1.697,37.955,29.615499999999997,37.995999999999995,34.9815,57.620999999999995,35.336,60.987,53.397,55.269999999999996,34.3645,59.327,51.4935,54.578,33.9325,59.481,51.041,-0.046499999999999986,-0.10450000000000026,0.10961000000000001,0.10455500000000001,0.0,207.28,207.16500000000002,204.39666666666668,204.39666666666668,0.0,0.0
6,0.0,0.0,0.0,1.0,1.0,0.0,0.0,1.0,0.0,100.0,1.0,1.1856,26.0,0.0,0.0,0.0,59.999996,0.0,26.0,26.0,26.0,26.0,-0.12055555555555553,0.29269999999999996,0.0009000000000000001,293.243,-2.6558,-2.7817499999999997,-1.48605,-1.5612,-256.03,215.5375,190.871375,0.0,0.0,0.0,0.0,0.013033333333333334,-5.498166666666667,-5.498166666666667,-0.5268,-0.07933333333333337,-0.04925000000000024,0.488,66.291,-0.0752,-0.203825,0.8640000000000008,100.0,1.0,1.0,204.5966666666667,0.0,0.0,0.0,0.0,0.0,0.0,0.0,8672.1,0.0,55.0,5.0,238.62,0.0,0.0,0.0,0.0,0.0,0.0,0.0,0.0,0.3030000000000008,0.3030000000000008,0.0,0.0,0.0,55.0,616.79921,10000.0,85.000001,85.000001,85.000001,85.000001,395.0,0.0,0.0,0.0,1.0,166.665,53.329,53.329,48.172,48.172,34.0,-26.3825,20.14,-32.86,24.0375,0.0,1782.413,0.2950000000000017,100.0,27.481,26.521,42.489000000000004,41.445,0.0,0.0,100.0,0.0,0.0,0.0,0.0,3050.0,2875.5,4227.375,4123.4,305.144,305.32925,314.05533333333335,314.23775,20.9218,19.5832,20.9291,20.4453,314.999998,314.999998,324.999988,324.999988,99.5599,99.50761666666666,99.56755714285714,99.54741428571428,-0.0040000000000000036,-0.125,-0.1935,0.0305,-0.036666666666668846,-0.07000000000000028,1.54,1.593,38.010999999999996,29.645,38.057,35.033,57.605999999999995,35.373,61.025,53.454499999999996,55.254999999999995,34.3985,59.362,51.5485,54.563,33.965,59.513999999999996,51.0945,-0.04299999999999993,-0.09949999999999992,0.11251000000000001,0.103415,0.0,207.67000000000002,207.60500000000002,204.5966666666667,204.59666666666666,0.0,0.0
7,0.0,0.0,0.0,1.0,1.0,0.0,0.0,1.0,0.0,100.0,1.0,1.1856,26.0,0.0,0.0,0.0,59.999996,0.0,26.0,26.0,26.0,26.0,-0.0778888888888889,0.2997000000000001,-0.0027,293.182,-2.6205,-2.778875,-1.565,-1.6124,-252.64,215.5275,190.850875,0.0,0.0,0.0,0.0,0.015000000000000001,-5.498166666666667,-5.498166666666667,-0.536,0.044333333333333336,-0.04487500000000022,-0.34800000000000003,66.436,-0.0757,-0.21957500000000002,0.6880000000000006,100.0,1.0,1.0,205.11666666666667,0.0,0.0,0.0,0.0,0.0,0.0,0.0,8694.2,0.0,55.0,5.0,239.14,1.0,0.0,0.0,0.0,0.0,0.0,0.0,0.0,0.3539999999999992,0.3539999999999992,0.0,0.0,1.0,55.0,616.79921,10000.0,85.000001,85.000001,85.000001,85.000001,395.0,0.0,0.0,0.0,1.0,333.33500000000004,52.841,52.841,48.538,48.538,34.0,-26.3975,20.774,-32.81666666666666,22.7875,0.0,1782.36,-0.125,100.0,27.605,26.859,42.5,41.622,0.0,0.0,100.0,0.0,0.0,0.0,0.0,3209.857142857143,2859.0,4124.75,3939.3,304.7695,305.137,314.45666666666665,314.61,20.9321,19.5887,20.9402,20.4547,314.999998,314.999998,324.999988,324.999988,99.5599,99.50763333333333,99.56771428571429,99.54755714285714,0.02200000000000024,-0.1116666666666668,-0.19966666666666666,0.017,-0.051666666666669414,-0.046666666666666856,1.5893333333333333,1.6159999999999999,38.076,29.679499999999997,38.126000000000005,35.092,57.59,35.418,61.0695,53.521,55.241,34.439499999999995,59.4035,51.612,54.548,34.0045,59.5525,51.157,-0.08799999999999986,-0.0625,0.10397,0.10327000000000001,0.0,208.115,208.055,205.11666666666667,205.11666666666667,0.0,0.0
8,0.0,0.0,0.0,1.0,1.0,0.0,0.0,1.0,0.0,100.0,1.0,1.1856,26.0,0.0,0.0,0.0,59.999996,0.0,26.0,26.0,26.0,26.0,-0.05988888888888888,0.2855000000000001,-0.0143,293.259,-2.6997,-2.7105,-1.49505,-1.6003,-249.25,215.515,190.830375,0.0,0.0,0.0,0.0,0.016966666666666668,-5.498166666666667,-5.498166666666667,-0.5386000000000001,-0.1296666666666666,-0.029125000000000068,0.59,66.581,-0.0636,-0.22055000000000002,0.27200000000000024,100.0,1.0,1.0,205.55666666666667,0.0,0.0,0.0,0.0,0.0,0.0,0.0,8712.8,0.0,55.0,5.0,239.66333333333333,0.0,0.0,0.0,0.0,0.0,0.0,0.0,0.0,0.40500000000000114,0.40500000000000114,0.0,0.0,0.0,55.0,616.79921,10000.0,85.000001,85.000001,85.000001,85.000001,395.0,0.0,0.0,0.0,1.0,166.665,53.055,53.055,48.34,48.34,34.0,-24.4725,22.206,-29.256666666666668,25.435000000000002,0.0,1782.312,-0.21499999999999986,100.0,27.476,26.781,42.535,41.659,0.0,0.0,100.0,0.0,0.0,0.0,0.0,2996.142857142857,3036.3,4000.25,4032.7,305.28,304.792,314.67766666666665,314.43375,20.9423,19.5942,20.9511,20.4641,314.999998,314.999998,324.999988,324.999988,99.5599,99.50765,99.56784285714286,99.5477,0.040999999999999925,-0.09233333333333316,-0.16533333333333336,0.059833333333333336,-0.03499999999999659,-0.05833333333333002,1.583,1.6015,38.138999999999996,29.714,38.195,35.1505,57.575,35.457499999999996,61.1085,53.5815,55.227000000000004,34.4755,59.44,51.6695,54.533,34.039500000000004,59.586,51.214,-0.09399999999999986,-0.05549999999999988,0.10586000000000001,0.10622000000000001,0.0,208.54000000000002,208.51,205.55666666666667,205.55666666666667,0.0,0.0
9,0.0,0.0,0.0,1.0,1.0,0.0,0.0,1.0,0.0,100.0,1.0,1.1856,26.0,0.0,0.0,0.0,59.999996,0.0,26.0,26.0,26.0,26.0,-0.04222222222222216,0.29500000000000015,0.016466666666666668,292.984,-2.6233,-2.72525,-1.5486,-1.5584,-246.05,215.5,190.810625,0.0,0.0,0.0,0.0,0.018833333333333334,-5.498166666666667,-5.498166666666667,-0.5372,0.16799999999999993,-0.03825000000000012,0.71,66.717,-0.0487,-0.2147,0.012000000000000455,100.0,1.0,1.0,205.95333333333332,0.0,0.0,0.0,0.0,0.0,0.0,0.0,8729.6,0.0,55.0,5.0,240.15333333333334,1.0,0.0,0.0,0.0,0.0,0.0,0.0,0.0,0.4529999999999994,0.4529999999999994,0.0,0.0,1.0,55.0,616.79921,10000.0,85.000001,85.000001,85.000001,85.000001,395.0,0.0,0.0,0.0,1.0,166.665,52.673,52.673,48.431,48.431,34.0,-24.5925,23.212,-29.443333333333335,26.5125,0.0,1782.264,-0.3299999999999983,100.0,27.681,26.885,42.485,41.717,0.0,0.0,100.0,0.0,0.0,0.0,0.0,3124.0,3051.9,4049.25,4121.2,304.8895,304.7525,314.563,314.25725,20.9519,19.5995,20.9615,20.4729,314.999998,314.999998,324.999988,324.999988,99.5599,99.50765,99.568,99.54784285714285,0.05033333333333356,-0.07400000000000007,-0.14683333333333334,0.079,-0.036666666666668846,-0.051666666666669414,1.5916666666666668,1.5925,38.2,29.747,38.259,35.206,57.562,35.4965,61.1475,53.6405,55.214,34.5115,59.476,51.726,54.519,34.074,59.619,51.2695,-0.09949999999999992,-0.05149999999999988,0.10543000000000001,0.10990000000000001,0.0,208.96,208.94,205.95333333333332,205.95333333333332,0.0,0.0
10,0.0,0.0,0.0,1.0,1.0,0.0,0.0,1.0,0.0,100.0,1.0,1.1856,26.0,0.0,0.0,0.0,59.999996,0.0,26.0,26.0,26.0,26.0,-0.014222222222222136,0.2892000000000001,0.0013000000000000002,292.862,-2.6783,-2.69975,-1.50645,-1.5449,-242.64,215.485,190.78975,0.0,0.0,0.0,0.0,0.020800000000000003,-5.498166666666667,-5.498166666666667,-0.5314,-0.19466666666666665,-0.018375000000000252,0.128,66.862,-0.031,-0.21407500000000002,-0.11399999999999988,100.0,1.0,1.0,206.32999999999998,0.0,0.0,0.0,0.0,0.0,0.0,0.0,8745.5,0.0,55.0,5.0,240.67333333333335,0.0,0.0,0.0,0.0,0.0,0.0,1.0,0.0,0.5040000000000013,0.5040000000000013,0.0,0.0,0.0,55.0,616.79921,10000.0,85.000001,85.000001,85.000001,85.000001,395.0,0.0,0.0,0.0,1.0,333.33500000000004,52.856,52.856,48.126,48.126,34.0,-24.4975,22.172,-29.67,26.9775,0.0,1782.212,-0.384999999999998,100.0,27.566,27.085,42.51,42.156,0.0,0.0,100.0,0.0,0.0,0.0,0.0,3115.714285714286,2912.7,4163.125,4173.5,305.095,305.03375,314.34133333333335,314.036,20.9622,19.605,20.9725,20.4825,314.999998,314.999998,324.999988,324.999988,99.55991428571429,99.50766666666667,99.56814285714286,99.54798571428572,0.05766666666666653,-0.06866666666666665,-0.14133333333333334,0.07866666666666668,-0.045000000000001705,-0.045000000000001705,1.5546666666666666,1.556,38.263999999999996,29.7815,38.328,35.2655,57.548,35.536500000000004,61.189,53.7055,55.201,34.548,59.515,51.788,54.504999999999995,34.1095,59.6555,51.3305,-0.10399999999999987,-0.04150000000000009,0.10780500000000001,0.10867,0.0,209.405,209.385,206.32999999999998,206.32999999999998,0.0,0.0
11,0.0,0.0,0.0,1.0,1.0,0.0,0.0,1.0,0.0,100.0,1.0,1.1856,26.0,0.0,0.0,0.0,59.999996,0.0,26.0,26.0,26.0,26.0,-0.01488888888888884,0.28390000000000004,-0.03516666666666667,293.167,-2.6881,-2.6938750000000002,-1.5672000000000001,-1.5168,-239.23,215.47,190.768875,0.0,0.0,0.0,0.0,0.022600000000000002,-5.498166666666667,-5.498166666666667,-0.552,-0.29666666666666663,0.012375000000000025,1.033,67.004,-0.0151,-0.2273,-0.3020000000000005,100.0,1.0,1.0,206.86666666666667,0.0,0.0,0.0,0.0,0.0,0.0,0.0,8768.3,0.0,55.0,5.0,241.18666666666667,1.0,0.0,0.0,0.0,0.0,0.0,1.0,0.0,0.5549999999999997,0.5549999999999997,0.0,0.0,1.0,55.0,616.79921,10000.0,85.000001,85.000001,85.000001,85.000001,395.0,0.0,0.0,0.0,1.0,333.33500000000004,52.887,52.887,48.599000000000004,48.599000000000004,34.0,-22.8875,24.451999999999998,-26.726666666666667,26.755000000000003,0.0,1782.159,-0.6449999999999996,100.0,27.442,26.983,42.412,42.157,0.0,0.0,100.0,0.0,0.0,0.0,0.0,2995.285714285714,3103.7,3886.625,4072.2,305.301,304.613,314.9873333333333,314.39175,20.9722,19.6107,20.9834,20.4919,314.999998,314.999998,324.999988,324.999988,99.55992857142857,99.50766666666667,99.56828571428571,99.54812857142858,0.07699999999999996,-0.04800000000000004,-0.11766666666666667,0.10400000000000001,-0.06666666666666998,-0.036666666666668846,1.626,1.611,38.326,29.816499999999998,38.396,35.3245,57.533,35.576499999999996,61.228,53.7695,55.187,34.585,59.5505,51.849000000000004,54.489999999999995,34.144999999999996,59.6885,51.391,-0.10949999999999993,-0.03600000000000003,0.10518500000000001,0.107865,0.0,209.82,209.825,206.86666666666667,206.86666666666667,0.0,0.0
12,0.0,0.0,0.0,1.0,1.0,0.0,0.0,1.0,0.0,100.0,1.0,1.1856,26.0,0.0,0.0,0.0,59.999996,0.0,26.0,26.0,26.0,26.0,-0.0022222222222221255,0.29390000000000005,-0.006566666666666668,292.862,-2.7223,-2.683625,-1.5462,-1.5329,-236.01,215.45499999999998,190.7485,0.0,0.0,0.0,0.0,0.025466666666666665,-5.498166666666667,-5.498166666666667,-0.5454,0.41766666666666685,0.013249999999999984,0.853,67.138,-0.0009000000000000001,-0.21022500000000002,-0.387999999999999,100.0,1.0,1.0,207.23666666666668,0.0,0.0,0.0,0.0,0.0,0.0,0.0,8784.0,0.0,55.0,5.0,241.67000000000002,0.0,0.0,0.0,0.0,0.0,0.0,1.0,0.0,0.602999999999998,0.602999999999998,0.0,0.0,0.0,55.0,616.79921,10000.0,85.000001,85.000001,85.000001,85.000001,395.0,0.0,0.0,0.0,1.0,333.33500000000004,52.582,52.582,48.126,48.126,34.0,-23.6225,24.951999999999998,-26.923333333333332,28.9575,0.0,1782.111,-0.495000000000001,100.0,27.516,27.267,42.192,42.128,0.0,0.0,100.0,0.0,0.0,0.0,0.0,3017.5714285714284,3153.7,4067.125,4173.2,305.216,304.42125,314.55266666666665,314.17075,20.9817,19.6161,20.9936,20.500799999999998,314.999998,314.999998,324.999988,324.999988,99.55994285714286,99.50768333333333,99.56842857142857,99.54827142857143,0.07200000000000006,-0.045666666666666744,-0.09516666666666668,0.12483333333333334,-0.045000000000001705,-0.07166666666666544,1.6,1.582,38.385999999999996,29.8505,38.46,35.379999999999995,57.519999999999996,35.617,61.2665,53.833,55.174,34.622,59.5865,51.91,54.476,34.181,59.7215,51.4505,-0.09850000000000003,-0.04499999999999993,0.10070000000000001,0.10996500000000001,0.0,210.24,210.285,207.23666666666668,207.23666666666668,0.0,0.0
13,0.0,0.0,0.0,1.0,1.0,0.0,0.0,1.0,0.0,100.0,1.0,1.1856,26.0,0.0,0.0,0.0,59.999996,0.0,26.0,26.0,26.0,26.0,0.0451111111111111,0.2883,0.022366666666666667,292.526,-2.698,-2.6892500000000004,-1.57895,-1.5384,-232.57999999999998,215.44,190.72675,0.0,0.0,0.0,0.0,0.02666666666666667,-5.498166666666667,-5.498166666666667,-0.5391,-0.20699999999999996,0.01024999999999987,-0.499,67.282,0.011600000000000001,-0.21405000000000002,-0.4299999999999997,100.0,1.0,1.0,207.58333333333331,0.0,0.0,0.0,0.0,0.0,0.0,0.0,8798.7,0.0,55.0,5.0,242.18333333333334,1.0,0.0,0.0,0.0,0.0,0.0,1.0,0.0,0.6539999999999999,0.6539999999999999,0.0,0.0,1.0,55.0,616.79921,10000.0,85.000001,85.000001,85.000001,85.000001,395.0,0.0,0.0,0.0,1.0,166.665,52.475,52.475,47.76,47.76,34.0,-22.5275,25.082,-28.53333333333333,29.8325,0.0,1782.062,-0.5749999999999993,100.0,27.532,27.584,42.458,42.666,0.0,0.0,100.0,0.0,0.0,0.0,0.0,3132.285714285714,3008.5,4187.125,4221.2,305.055,304.7025,314.2866666666667,313.91975,20.9918,19.6219,21.0047,20.5104,314.999998,314.999998,324.999988,324.999988,99.55995714285714,99.50768333333333,99.56857142857143,99.54841428571429,0.11100000000000021,-0.01633333333333331,-0.09583333333333333,0.12433333333333334,-0.05333333333332746,-0.03499999999999659,1.5503333333333333,1.523,38.449,29.886499999999998,38.528999999999996,35.44,57.509,35.655,61.306,53.894999999999996,55.163,34.657,59.623,51.9695,54.464,34.2145,59.754999999999995,51.5095,-0.12650000000000006,-0.02300000000000013,0.10253500000000002,0.10729000000000001,0.0,210.685,210.70499999999998,207.58333333333331,207.58333333333331,0.0,0.0
14,0.0,0.0,0.0,1.0,1.0,0.0,0.0,1.0,0.0,100.0,1.0,1.1856,26.0,0.0,0.0,0.0,59.999996,0.0,26.0,26.0,26.0,26.0,0.036555555555555674,0.27990000000000004,-0.022266666666666667,292.709,-2.7091,-2.70425,-1.57,-1.5359,-229.15,215.4275,190.7055,0.0,0.0,0.0,0.0,0.028633333333333334,-5.498166666666667,-5.498166666666667,-0.5526,-0.05166666666666664,0.02675000000000005,1.109,67.42099999999999,0.0219,-0.228475,-0.5060000000000002,100.0,1.0,1.0,208.11333333333334,0.0,0.0,0.0,0.0,0.0,0.0,0.0,8821.1,0.0,55.0,5.0,242.68666666666667,0.0,0.0,0.0,0.0,0.0,0.0,1.0,0.0,0.7049999999999983,0.7049999999999983,0.0,0.0,0.0,55.0,616.79921,10000.0,85.000001,85.000001,85.000001,85.000001,395.0,0.0,0.0,0.0,1.0,333.33500000000004,52.429,52.429,48.157,48.157,34.0,-21.73,26.28,-25.68,29.9325,0.0,1782.009,-0.5199999999999996,100.0,27.706,27.563,42.471000000000004,42.653999999999996,0.0,0.0,100.0,0.0,0.0,0.0,0.0,2993.285714285714,3134.4,3951.375,4124.8,305.2905,304.43575,314.8256666666667,314.26075,21.0018,19.6277,21.0156,20.52,314.999998,314.999998,324.999988,324.999988,99.55995714285714,99.50768333333333,99.56871428571428,99.54855714285715,0.10999999999999988,-0.015333333333333199,-0.08183333333333333,0.14983333333333335,-0.05666666666667197,-0.061666666666667425,1.6006666666666667,1.5735,38.510999999999996,29.923000000000002,38.598,35.5,57.495999999999995,35.697,61.347,53.963499999999996,55.150999999999996,34.696,59.661,52.0345,54.45,34.2525,59.79,51.573499999999996,-0.11699999999999999,-0.0365000000000002,0.106315,0.11416000000000001,0.0,211.115,211.14499999999998,208.11333333333334,208.11333333333334,0.0,0.0
15,0.0,0.0,0.0,1.0,1.0,0.0,0.0,1.0,0.0,100.0,1.0,1.1856,26.0,0.0,0.0,0.0,59.999996,0.0,26.0,26.0,26.0,26.0,0.04833333333333334,0.27990000000000004,0.0008666666666666666,292.603,-2.7039999999999997,-2.674625,-1.5847,-1.5495,-225.91,215.41500000000002,190.685,0.0,0.0,0.0,0.0,0.030533333333333332,-5.498166666666667,-5.498166666666667,-0.5463,0.252,0.040999999999999925,0.803,67.554,0.0273,-0.21602500000000002,-0.5079999999999991,100.0,1.0,1.0,208.4766666666667,0.0,0.0,0.0,0.0,0.0,0.0,0.0,8836.5,0.0,55.0,5.0,243.16333333333336,1.0,0.0,0.0,0.0,0.0,0.0,1.0,0.0,0.7530000000000001,0.7530000000000001,0.0,0.0,1.0,55.0,616.79921,10000.0,85.000001,85.000001,85.000001,85.000001,395.0,0.0,0.0,0.0,1.0,166.665,52.383,52.383,47.943,47.943,34.0,-21.28,26.012,-26.163333333333327,31.16,0.0,1781.964,-0.4250000000000007,100.0,27.726,27.695,42.324,42.755,0.0,0.0,100.0,0.0,0.0,0.0,0.0,2950.285714285714,3134.6,4025.625,4218.5,305.4195,304.4125,314.65066666666667,313.99475,21.0112,19.6332,21.0259,20.529,314.999998,314.999998,324.999988,324.999988,99.55997142857143,99.50768333333333,99.56884285714285,99.5487,0.11100000000000021,-0.01633333333333331,-0.07433333333333333,0.15166666666666667,-0.03333333333333144,-0.07833333333332604,1.5813333333333333,1.56,38.57,29.9575,38.662,35.556,57.485,35.733000000000004,61.381,54.021,55.141,34.729,59.692499999999995,52.09,54.439,34.284,59.8185,51.628,-0.10599999999999987,-0.044500000000000206,0.106465,0.11177000000000001,0.0,211.51999999999998,211.575,208.4766666666667,208.4766666666667,0.0,0.0
16,0.0,0.0,0.0,1.0,1.0,0.0,0.0,1.0,0.0,100.0,1.0,1.1856,26.0,0.0,0.0,0.0,59.999996,0.0,26.0,26.0,26.0,26.0,0.04699999999999993,0.27059999999999995,0.0033,292.404,-2.7712,-2.6178749999999997,-1.56305,-1.5448,-222.46,215.4025,190.663,0.0,0.0,0.0,0.0,0.03253333333333333,-5.498166666666667,-5.498166666666667,-0.5539000000000001,-0.42399999999999993,0.029874999999999874,-1.189,67.695,0.027800000000000002,-0.22440000000000002,-0.3279999999999994,100.0,1.0,1.0,208.87,0.0,0.0,0.0,0.0,0.0,0.0,0.0,8853.2,0.0,55.0,5.0,243.67333333333335,0.0,0.0,0.0,0.0,0.0,0.0,1.0,0.0,0.8039999999999985,0.8039999999999985,0.0,0.0,0.0,55.0,616.79921,10000.0,85.000001,85.000001,85.000001,85.000001,395.0,0.0,0.0,0.0,1.0,333.33500000000004,52.216,52.216,47.562,47.562,34.0,-23.5825,25.567999999999998,-26.89666666666667,29.317500000000003,0.0,1781.911,-0.41000000000000014,100.0,27.38,27.916,42.491,43.067,0.0,0.0,100.0,0.0,0.0,0.0,0.0,3154.285714285714,3132.2,4109.75,4074.9,305.0605,304.296,314.49066666666664,314.24675,21.0211,19.6391,21.0369,20.5386,314.999998,314.999998,324.999988,324.999988,99.55998571428572,99.50768333333333,99.569,99.54885714285714,0.10533333333333372,-0.01866666666666661,-0.08133333333333333,0.13766666666666666,-0.051666666666669414,-0.03499999999999659,1.562,1.5494999999999999,38.632,29.994,38.730000000000004,35.6165,57.472,35.772999999999996,61.421,54.0865,55.128,34.766,59.7295,52.1525,54.425,34.32,59.8525,51.69,-0.10549999999999993,-0.04300000000000015,0.0966,0.10601000000000001,0.0,211.935,211.97500000000002,208.87,208.87,0.0,0.0
17,0.0,0.0,0.0,1.0,1.0,0.0,0.0,1.0,0.0,100.0,1.0,1.1856,26.0,0.0,0.0,0.0,59.999996,0.0,26.0,26.0,26.0,26.0,0.035222222222222266,0.28480000000000016,0.015366666666666666,292.16,-2.7274,-2.6081250000000002,-1.60405,-1.5099,-219.0,215.39,190.64075,0.0,0.0,0.0,0.0,0.03453333333333333,-5.498166666666667,-5.498166666666667,-0.5537000000000001,0.16633333333333322,0.00912500000000005,0.377,67.833,0.027200000000000002,-0.218725,-0.3799999999999999,100.0,1.0,1.0,209.2866666666667,0.0,0.0,0.0,0.0,0.0,0.0,0.0,8870.9,0.0,55.0,5.0,244.17000000000002,1.0,0.0,0.0,0.0,0.0,0.0,1.0,0.0,0.8550000000000004,0.8550000000000004,0.0,0.0,1.0,55.0,616.79921,10000.0,85.000001,85.000001,85.000001,85.000001,395.0,0.0,0.0,0.0,1.0,166.665,51.91,51.91,47.424,47.424,34.0,-22.8375,26.104,-27.58,30.502499999999998,0.0,1781.861,-0.28500000000000014,100.0,27.872,27.871,42.59,42.932,0.0,0.0,100.0,0.0,0.0,0.0,0.0,3115.4285714285716,3229.5,4192.25,4213.0,304.9745,304.181,314.2676666666667,314.05425,21.031,19.645,21.0478,20.5482,314.999998,314.999998,324.999988,324.999988,99.56,99.5077,99.56914285714285,99.549,0.11100000000000021,-0.019333333333333202,-0.07033333333333333,0.14983333333333335,-0.03499999999999659,-0.05666666666667197,1.5630000000000002,1.5405,38.694,30.031,38.799,35.676,57.46,35.814,61.46,54.15,55.117000000000004,34.8035,59.7655,52.213499999999996,54.413,34.3565,59.8855,51.75,-0.10349999999999993,-0.05449999999999999,0.10544500000000001,0.10640500000000001,0.0,212.39,212.41,209.2866666666667,209.2866666666667,0.0,0.0
18,0.0,0.0,0.0,1.0,1.0,0.0,0.0,1.0,0.0,100.0,1.0,1.1856,26.0,0.0,0.0,0.0,59.999996,0.0,26.0,26.0,26.0,26.0,0.024555555555555664,0.2743,0.0309,292.023,-2.6531,-2.602125,-1.53895,-1.4762,-215.74,215.3825,190.619625,0.0,0.0,0.0,0.0,0.03643333333333333,-5.498166666666667,-5.498166666666667,-0.56,-0.33333333333333337,0.009374999999999911,0.887,67.964,0.0238,-0.22335000000000002,-0.28200000000000003,100.0,1.0,1.0,209.65333333333334,0.0,0.0,0.0,0.0,0.0,0.0,0.0,8886.4,0.0,55.0,5.0,244.64333333333335,0.0,0.0,0.0,0.0,0.0,0.0,1.0,0.0,0.9029999999999987,0.9029999999999987,0.0,0.0,0.0,55.0,616.79921,10000.0,85.000001,85.000001,85.000001,85.000001,395.0,0.0,0.0,0.0,1.0,333.33500000000004,51.91,51.91,47.226,47.226,34.0,-22.075,26.508,-26.656666666666666,30.405,0.0,1781.812,-0.26500000000000057,100.0,27.837,27.786,42.818,43.081,0.0,0.0,100.0,0.0,0.0,0.0,0.0,3074.285714285714,3298.0,4131.375,4307.5,305.0445,304.02025,314.308,313.81825,21.040399999999998,19.6505,21.0581,20.5572,314.999998,314.999998,324.999988,324.999988,99.56001428571429,99.5077,99.56928571428571,99.54914285714285,0.10599999999999987,-0.02200000000000002,-0.07466666666666667,0.14,-0.04999999999999716,-0.05666666666667197,1.5386666666666666,1.523,38.751999999999995,30.0655,38.863,35.7325,57.448,35.8515,61.4975,54.211,55.105000000000004,34.838,59.8005,52.2715,54.4,34.3895,59.917500000000004,51.8075,-0.10099999999999998,-0.05549999999999988,0.09806500000000001,0.10690500000000001,0.0,212.8,212.79500000000002,209.65333333333334,209.65333333333334,0.0,0.0
19,0.0,0.0,0.0,1.0,1.0,0.0,0.0,1.0,0.0,100.0,1.0,1.1856,26.0,0.0,0.0,0.0,59.999996,0.0,26.0,26.0,26.0,26.0,0.047111111111111104,0.27790000000000004,0.05276666666666666,291.763,-2.646,-2.698625,-1.5399500000000002,-1.5973,-212.28,215.3725,190.596875,0.0,0.0,0.0,0.0,0.03846666666666667,-5.498166666666667,-5.498166666666667,-0.5561,0.5443333333333333,0.01587499999999986,-0.675,68.102,0.0177,-0.22007500000000002,-0.09600000000000009,100.0,1.0,1.0,210.0966666666667,0.0,0.0,0.0,0.0,0.0,0.0,0.0,8905.2,0.0,55.0,5.0,245.13666666666666,1.0,0.0,0.0,0.0,0.0,0.0,1.0,0.0,0.9540000000000006,0.9540000000000006,0.0,0.0,1.0,55.0,616.79921,10000.0,85.000001,85.000001,85.000001,85.000001,395.0,0.0,0.0,0.0,1.0,166.665,51.468,51.468,47.424,47.424,34.0,-23.45,24.82,-27.883333333333333,30.759999999999998,0.0,1781.763,-0.23499999999999943,100.0,28.26,28.414,42.679,43.272,0.0,0.0,100.0,0.0,0.0,0.0,0.0,3187.4285714285716,3098.7,4169.75,4258.3,304.837,304.273,314.36,313.76575,21.0504,19.6564,21.069,20.5668,314.999998,314.999998,324.999988,324.999988,99.56002857142857,99.5077,99.56942857142857,99.54928571428572,0.09166666666666634,-0.04966666666666675,-0.095,0.11866666666666667,-0.051666666666669414,-0.06666666666666998,1.534,1.5345,38.815,30.103,38.931,35.792500000000004,57.437,35.8935,61.5355,54.275,55.095,34.8765,59.835499999999996,52.333,54.388999999999996,34.427,59.9495,51.868,-0.09399999999999986,-0.06050000000000022,0.097985,0.10587,0.0,213.255,213.245,210.0966666666667,210.0966666666667,0.0,0.0
20,0.0,0.0,0.0,1.0,1.0,0.0,0.0,1.0,0.0,100.0,1.0,1.1856,26.0,0.0,0.0,0.0,59.999996,0.0,26.0,26.0,26.0,26.0,0.031777777777777905,0.2751000000000001,0.0018333333333333333,291.946,-2.709,-2.655875,-1.5241,-1.5825,-208.8,215.365,190.5745,0.0,0.0,0.0,0.0,0.04046666666666667,-5.498166666666667,-5.498166666666667,-0.5537000000000001,-0.6966666666666667,0.017874999999999863,0.579,68.24000000000001,0.0148,-0.225225,-0.17600000000000016,100.0,1.0,1.0,210.46666666666667,0.0,0.0,0.0,0.0,0.0,0.0,0.0,8920.9,0.0,55.0,5.0,245.63666666666666,0.0,0.0,0.0,0.0,0.0,0.0,0.0,0.0,1.004999999999999,1.004999999999999,0.0,0.0,0.0,55.0,616.79921,10000.0,85.000001,85.000001,85.000001,85.000001,395.0,0.0,0.0,0.0,1.0,333.33500000000004,52.109,52.109,46.967,46.967,34.0,-21.9725,25.025999999999996,-27.206666666666663,30.89,0.0,1781.71,-0.23000000000000043,100.0,28.039,27.993,43.301,43.589,0.0,0.0,100.0,0.0,0.0,0.0,0.0,3005.5714285714284,3127.5,4121.25,4184.2,305.302,304.5085,314.353,314.01775,21.060299999999998,19.6623,21.08,20.5766,314.999998,314.999998,324.999988,324.999988,99.56004285714286,99.50771666666667,99.56958571428571,99.54944285714285,0.10599999999999987,-0.03299999999999992,-0.09083333333333334,0.1375,-0.026666666666670835,-0.06666666666666998,1.5386666666666666,1.5165,38.876999999999995,30.139499999999998,39.0,35.8535,57.423,35.934,61.577,54.341499999999996,55.082,34.914,59.874,52.3965,54.375,34.463,59.985,51.9305,-0.09899999999999998,-0.059499999999999886,0.109325,0.10852500000000001,0.0,213.625,213.655,210.46666666666667,210.46666666666667,0.0,0.0
21,0.0,0.0,0.0,1.0,1.0,0.0,0.0,1.0,0.0,100.0,1.0,1.1856,26.0,0.0,0.0,0.0,59.999996,0.0,26.0,26.0,26.0,26.0,0.02499999999999991,0.27560000000000007,-0.042100000000000005,292.282,-2.7298999999999998,-2.653125,-1.5752000000000002,-1.5217,-205.31,215.35750000000002,190.55175,0.0,0.0,0.0,0.0,0.0425,-5.498166666666667,-5.498166666666667,-0.5753,-0.03600000000000003,0.007874999999999854,-0.614,68.374,0.011600000000000001,-0.22712500000000002,-0.047999999999999154,100.0,1.0,1.0,211.03333333333333,0.0,0.0,0.0,0.0,0.0,0.0,0.0,8944.9,0.0,55.0,5.0,246.12,1.0,0.0,0.0,0.0,0.0,0.0,0.0,0.0,1.056000000000001,1.056000000000001,0.0,0.0,1.0,55.0,616.79921,10000.0,85.000001,85.000001,85.000001,85.000001,395.0,0.0,0.0,0.0,1.0,166.665,52.016999999999996,52.016999999999996,47.791,47.791,34.0,-24.412499999999998,24.434,-27.173333333333332,27.215,0.0,1781.661,-0.259999999999998,100.0,27.858,28.008,42.884,43.283,0.0,0.0,100.0,0.0,0.0,0.0,0.0,3207.142857142857,3082.2,4030.25,4011.8,304.8815,304.52975,314.738,314.53925,21.0702,19.6682,21.0909,20.586100000000002,314.999998,314.999998,324.999988,324.999988,99.56005714285715,99.50771666666667,99.56972857142857,99.54958571428571,0.08966666666666656,-0.04033333333333311,-0.09933333333333333,0.11966666666666667,-0.07499999999999574,-0.041666666666671404,1.5986666666666667,1.6075,38.939,30.176000000000002,39.068,35.913,57.411,35.9745,61.614,54.4025,55.07,34.951,59.908500000000004,52.4555,54.361999999999995,34.4995,60.016,51.9885,-0.09650000000000003,-0.05600000000000005,0.096305,0.110755,0.0,214.085,214.06,211.03333333333333,211.03333333333333,0.0,0.0
22,0.0,0.0,0.0,1.0,1.0,0.0,0.0,1.0,0.0,100.0,1.0,1.1856,26.0,0.0,0.0,0.0,59.999996,0.0,26.0,26.0,26.0,26.0,0.013777777777777889,0.2783,-0.004066666666666666,291.946,-2.77,-2.653125,-1.6058,-1.5207,-202.03,215.35,190.529375,0.0,0.0,0.0,0.0,0.0444,-5.498166666666667,-5.498166666666667,-0.5609000000000001,0.20166666666666666,0.014124999999999943,-0.5690000000000001,68.504,0.0055000000000000005,-0.20222500000000002,-0.0699999999999994,100.0,1.0,1.0,211.29333333333335,0.0,0.0,0.0,0.0,0.0,0.0,0.0,8956.0,0.0,55.0,5.0,246.58666666666664,0.0,0.0,0.0,0.0,0.0,0.0,0.0,0.0,1.1039999999999992,1.1039999999999992,0.0,0.0,0.0,55.0,616.79921,10000.0,85.000001,85.000001,85.000001,85.000001,395.0,0.0,0.0,0.0,1.0,333.33500000000004,52.155,52.155,46.982,46.982,34.0,-24.0325,24.036,-30.729999999999997,30.125,0.0,1781.611,-0.3949999999999996,100.0,27.912,28.087,42.915,43.272,0.0,0.0,100.0,0.0,0.0,0.0,0.0,3131.4285714285716,3051.8,4302.0,4305.0,305.1925,304.62825,314.09133333333335,313.80075,21.0795,19.6738,21.1012,20.5952,314.999998,314.999998,324.999988,324.999988,99.56007142857143,99.50773333333333,99.56987142857143,99.54972857142857,0.08933333333333371,-0.043333333333333224,-0.11166666666666668,0.12316666666666667,-0.045000000000001705,-0.03999999999999915,1.5406666666666666,1.5345,38.997,30.211,39.132,35.97,57.399,36.013,61.650999999999996,54.463,55.059,34.9865,59.943,52.513,54.349999999999994,34.533500000000004,60.0475,52.045,-0.10799999999999987,-0.0535000000000001,0.10756500000000001,0.11795000000000001,0.0,214.49,214.47,211.29333333333335,211.29333333333335,0.0,0.0
23,0.0,0.0,0.0,1.0,1.0,0.0,0.0,1.0,0.0,100.0,1.0,1.1856,26.0,0.0,0.0,0.0,59.999996,0.0,26.0,26.0,26.0,26.0,-0.0040000000000000036,0.2603,0.0126,291.702,-2.6608,-2.66975,-1.6402,-1.5364,-198.53,215.3425,190.505875,0.0,0.0,0.0,0.0,0.04643333333333333,-5.498166666666667,-5.498166666666667,-0.5725,-0.28966666666666663,0.010375000000000023,0.515,68.639,0.007500000000000001,-0.22387500000000002,-0.22799999999999976,100.0,1.0,1.0,211.74333333333334,0.0,0.0,0.0,0.0,0.0,0.0,0.0,8975.1,0.0,55.0,5.0,247.07,1.0,0.0,0.0,0.0,0.0,0.0,0.0,0.0,1.1550000000000011,1.1550000000000011,0.0,0.0,1.0,55.0,616.79921,10000.0,85.000001,85.000001,85.000001,85.000001,395.0,0.0,0.0,0.0,1.0,166.665,51.513999999999996,51.513999999999996,47.241,47.241,34.0,-23.5975,25.674,-29.366666666666667,29.7575,0.0,1781.562,-0.3999999999999986,100.0,28.28,28.057000000000002,43.275999999999996,43.502,0.0,0.0,100.0,0.0,0.0,0.0,0.0,3199.857142857143,3187.6,4179.625,4188.9,304.6375,304.31625,314.3566666666667,314.14325,21.0894,19.6797,21.1122,20.605,314.999998,314.999998,324.999988,324.999988,99.56007142857143,99.50773333333333,99.57001428571428,99.54988571428571,0.09866666666666646,-0.03433333333333333,-0.09666666666666668,0.13383333333333333,-0.04999999999999716,-0.051666666666669414,1.5553333333333335,1.559,39.059,30.2485,39.201,36.031,57.387,36.055,61.691,54.528,55.048,35.025,59.980000000000004,52.5755,54.337,34.570499999999996,60.0815,52.1065,-0.10949999999999993,-0.051000000000000156,0.102675,0.11158000000000001,0.0,214.88,214.885,211.74333333333334,211.74333333333334,0.0,0.0
24,0.0,0.0,0.0,1.0,1.0,0.0,0.0,1.0,0.0,100.0,1.0,1.1856,26.0,0.0,0.0,0.0,59.999996,0.0,26.0,26.0,26.0,26.0,0.014555555555555655,0.28259999999999996,-0.04766666666666667,292.053,-2.6881,-2.666125,-1.55035,-1.5368,-195.23000000000002,215.3375,190.483375,0.0,0.0,0.0,0.0,0.04836666666666667,-5.498166666666667,-5.498166666666667,-0.5855,-0.369,0.020999999999999908,1.208,68.766,0.0114,-0.22595,-0.30799999999999894,100.0,1.0,1.0,212.12666666666667,0.0,0.0,0.0,0.0,0.0,0.0,0.0,8991.3,0.0,55.0,5.0,247.53,0.0,0.0,0.0,0.0,0.0,0.0,0.0,0.0,1.2029999999999994,1.2029999999999994,0.0,0.0,0.0,55.0,616.79921,10000.0,85.000001,85.000001,85.000001,85.000001,395.0,0.0,0.0,0.0,1.0,333.33500000000004,52.246,52.246,47.104,47.104,34.0,-21.5475,24.945999999999998,-27.616666666666667,29.4725,0.0,1781.512,-0.370000000000001,100.0,28.187,27.883,43.253,43.449,0.0,0.0,100.0,0.0,0.0,0.0,0.0,2962.5714285714284,3088.8,4147.0,4177.1,305.4085,304.6595,314.32033333333334,314.167,21.0987,19.6853,21.1225,20.614,314.999998,314.999998,324.999988,324.999988,99.56008571428572,99.50773333333333,99.57015714285714,99.55002857142857,0.10433333333333339,-0.028000000000000025,-0.09016666666666667,0.129,-0.046666666666666856,-0.03999999999999915,1.5693333333333332,1.5514999999999999,39.117000000000004,30.283,39.265,36.0875,57.376000000000005,36.092,61.7275,54.5875,55.037,35.0595,60.0135,52.632,54.325,34.604,60.1125,52.1625,-0.11050000000000004,-0.04999999999999982,0.10281000000000001,0.11231000000000001,0.0,215.26999999999998,215.28,212.12666666666667,212.12666666666667,0.0,0.0
25,0.0,0.0,0.0,1.0,1.0,0.0,0.0,1.0,0.0,100.0,1.0,1.1856,26.0,0.0,0.0,0.0,59.999996,0.0,26.0,26.0,26.0,26.0,0.035555555555555785,0.25860000000000016,-0.03226666666666667,291.977,-2.7592,-2.63475,-1.59765,-1.5219,-191.72,215.32999999999998,190.45825,0.0,0.0,0.0,0.0,0.0504,-5.498166666666667,-5.498166666666667,-0.6041000000000001,-0.06033333333333335,0.028999999999999915,-0.898,68.899,0.0145,-0.22185000000000002,-0.29000000000000004,100.0,1.0,1.0,212.60000000000002,0.0,0.0,0.0,0.0,0.0,0.0,0.0,9011.3,0.0,55.0,5.0,248.01,1.0,0.0,0.0,0.0,0.0,0.0,0.0,0.0,1.2540000000000013,1.2540000000000013,0.0,0.0,1.0,55.0,616.79921,10000.0,85.000001,85.000001,85.000001,85.000001,395.0,0.0,0.0,0.0,1.0,166.665,51.62,51.62,47.546,47.546,34.0,-24.99,26.098,-27.449999999999996,28.705,0.0,1781.463,-0.375,100.0,27.837,28.157,42.921,43.329,0.0,0.0,100.0,0.0,0.0,0.0,0.0,3279.714285714286,3228.3,4025.75,4112.1,304.7425,304.04025,314.78433333333334,314.2805,21.1084,19.6912,21.1333,20.6236,314.999998,314.999998,324.999988,324.999988,99.5601,99.50775,99.57031428571429,99.55018571428572,0.09566666666666634,-0.030000000000000027,-0.09933333333333333,0.1295,-0.045000000000001705,-0.03999999999999915,1.5886666666666667,1.576,39.178,30.32,39.333,36.1475,57.361999999999995,36.132999999999996,61.7645,54.6495,55.024,35.097,60.048,52.6915,54.311,34.6405,60.1435,52.221000000000004,-0.10799999999999987,-0.040999999999999925,0.10994500000000001,0.10160500000000001,0.0,215.69,215.7,212.60000000000002,212.60000000000002,0.0,0.0
26,0.0,0.0,0.0,1.0,1.0,0.0,0.0,1.0,0.0,100.0,1.0,1.1856,26.0,0.0,0.0,0.0,59.999996,0.0,26.0,26.0,26.0,26.0,0.033333333333333215,0.2825,0.07056666666666667,291.138,-2.6837,-2.725625,-1.55655,-1.5318,-188.20999999999998,215.325,190.43275,0.0,0.0,0.0,0.0,0.05246666666666667,-5.498166666666667,-5.498166666666667,-0.5774,0.4863333333333333,0.016999999999999904,0.856,69.035,0.016300000000000002,-0.20205,-0.33999999999999986,100.0,1.0,1.0,212.82,0.0,0.0,0.0,0.0,0.0,0.0,0.0,9020.7,0.0,55.0,5.0,248.49666666666667,0.0,0.0,0.0,0.0,0.0,0.0,0.0,0.0,1.3049999999999997,1.3049999999999997,0.0,0.0,0.0,55.0,616.79921,10000.0,85.000001,85.000001,85.000001,85.000001,395.0,0.0,0.0,0.0,1.0,333.33500000000004,51.376,51.376,46.387,46.387,34.0,-22.5525,25.86,-29.86,33.3125,0.0,1781.409,-0.379999999999999,100.0,28.715,28.472,43.324,43.555,0.0,0.0,100.0,0.0,0.0,0.0,0.0,3129.5714285714284,3131.9,4411.625,4506.9,304.9025,304.4305,313.6813333333333,313.35975,21.1184,19.697400000000002,21.1443,20.6334,314.999998,314.999998,324.999988,324.999988,99.56011428571429,99.50775,99.57045714285714,99.55032857142857,0.11266666666666669,-0.03166666666666673,-0.084,0.14200000000000002,-0.04333333333332945,-0.06666666666666998,1.4826666666666668,1.4709999999999999,39.239999999999995,30.3585,39.402,36.209,57.352000000000004,36.1755,61.807,54.7185,55.013999999999996,35.1385,60.0875,52.757999999999996,54.3,34.6805,60.1775,52.286500000000004,-0.11199999999999988,-0.05650000000000022,0.10017500000000001,0.11590500000000001,0.0,216.135,216.155,212.82,212.82,0.0,0.0
27,0.0,0.0,0.0,1.0,1.0,0.0,0.0,1.0,0.0,100.0,1.0,1.1856,26.0,0.0,0.0,0.0,59.999996,0.0,26.0,26.0,26.0,26.0,0.039111111111111097,0.2659,-0.0361,291.458,-2.7095,-2.6550000000000002,-1.6191499999999999,-1.604,-184.89,215.3225,190.4095,0.0,0.0,0.0,0.0,0.05436666666666667,-5.498166666666667,-5.498166666666667,-0.5940000000000001,-0.8343333333333334,0.026999999999999913,0.8230000000000001,69.15899999999999,0.015300000000000001,-0.235825,-0.29799999999999915,100.0,1.0,1.0,213.29666666666668,0.0,0.0,0.0,0.0,0.0,0.0,0.0,9040.8,0.0,55.0,5.0,248.94666666666666,1.0,0.0,0.0,0.0,0.0,0.0,0.0,0.0,1.352999999999998,1.352999999999998,0.0,0.0,1.0,55.0,616.79921,10000.0,85.000001,85.000001,85.000001,85.000001,395.0,0.0,0.0,0.0,1.0,166.665,51.59,51.59,46.356,46.356,34.0,-21.4625,26.046,-28.35,30.435000000000002,0.0,1781.364,-0.4349999999999987,100.0,28.459,28.467,43.864000000000004,44.06,0.0,0.0,100.0,0.0,0.0,0.0,0.0,2978.714285714286,3231.6,4123.0,4122.9,305.37,304.179,314.44933333333336,314.2225,21.1276,19.703,21.1548,20.6427,314.999998,314.999998,324.999988,324.999988,99.56012857142858,99.50775,99.5706,99.55047142857143,0.11433333333333362,-0.032333333333333325,-0.0885,0.135,-0.046666666666666856,-0.05833333333333002,1.5376666666666665,1.532,39.297,30.394,39.467,36.266999999999996,57.341,36.2145,61.843,54.7765,55.004000000000005,35.172,60.121,52.8135,54.288,34.7125,60.21,52.3405,-0.11199999999999988,-0.05549999999999988,0.10187500000000001,0.103565,0.0,216.48000000000002,216.47500000000002,213.29666666666668,213.29666666666668,0.0,0.0
28,0.0,0.0,0.0,1.0,1.0,0.0,0.0,1.0,0.0,100.0,1.0,1.1856,26.0,0.0,0.0,0.0,59.999996,0.0,26.0,26.0,26.0,26.0,0.05111111111111111,0.26239999999999997,-0.0737,291.641,-2.6922,-2.646,-1.6346500000000002,-1.5572,-181.36,215.32,190.38425,0.0,0.0,0.0,0.0,0.05643333333333334,-5.498166666666667,-5.498166666666667,-0.6064,0.45433333333333326,0.012124999999999941,-1.046,69.289,0.0178,-0.225075,-0.32399999999999984,100.0,1.0,1.0,213.81,0.0,0.0,0.0,0.0,0.0,0.0,0.0,9062.7,0.0,55.0,5.0,249.41333333333336,0.0,0.0,0.0,0.0,0.0,0.0,0.0,0.0,1.404,1.404,0.0,0.0,0.0,55.0,616.79921,10000.0,85.000001,85.000001,85.000001,85.000001,395.0,0.0,0.0,0.0,1.0,333.33500000000004,51.376,51.376,47.195,47.195,34.0,-22.955,25.398,-27.810000000000002,28.9225,0.0,1781.31,-0.4800000000000004,100.0,28.402,28.653,43.288,43.752,0.0,0.0,100.0,0.0,0.0,0.0,0.0,3186.5714285714284,3113.3,4074.5,4075.7,304.904,304.353,314.71433333333334,314.379,21.1374,19.7091,21.1655,20.6523,314.999998,314.999998,324.999988,324.999988,99.56014285714286,99.50776666666667,99.57075714285715,99.55061428571429,0.1120000000000001,-0.025333333333333208,-0.08966666666666667,0.13116666666666665,-0.054999999999999716,-0.04999999999999716,1.592,1.5865,39.358999999999995,30.432000000000002,39.535,36.327,57.33,36.256,61.8785,54.8375,54.992999999999995,35.210499999999996,60.1535,52.872,54.275999999999996,34.75,60.2395,52.3985,-0.11949999999999994,-0.04150000000000009,0.09961500000000001,0.104105,0.0,216.89499999999998,216.91500000000002,213.81,213.81,0.0,0.0
29,0.0,0.0,0.0,1.0,1.0,0.0,0.0,1.0,0.0,100.0,1.0,1.1856,26.0,0.0,0.0,0.0,59.999996,0.0,26.0,26.0,26.0,26.0,0.042444444444444285,0.25980000000000003,-0.014100000000000001,291.443,-2.6634,-2.714875,-1.57115,-1.5469,-177.82,215.3175,190.358,0.0,0.0,0.0,0.0,0.0585,-5.498166666666667,-5.498166666666667,-0.6026,-0.5493333333333332,0.00649999999999995,0.919,69.424,0.0206,-0.21315,-0.44399999999999995,100.0,1.0,1.0,214.03,0.0,0.0,0.0,0.0,0.0,0.0,0.0,9071.9,0.0,55.0,5.0,249.9,1.0,0.0,0.0,0.0,0.0,0.0,0.0,0.0,1.4549999999999983,1.4549999999999983,0.0,0.0,1.0,55.0,616.79921,10000.0,85.000001,85.000001,85.000001,85.000001,395.0,0.0,0.0,0.0,1.0,333.33500000000004,51.971000000000004,51.971000000000004,46.326,46.326,34.0,-20.835,26.055999999999997,-28.14333333333333,32.3175,0.0,1781.261,-0.5150000000000006,100.0,28.287,28.264,43.748000000000005,43.903,0.0,0.0,100.0,0.0,0.0,0.0,0.0,2972.5714285714284,3121.8,4217.25,4352.8,305.4155,304.50025,314.177,313.7335,21.147100000000002,19.7151,21.1766,20.6621,314.999998,314.999998,324.999988,324.999988,99.56015714285714,99.50776666666667,99.57091428571428,99.55078571428571,0.11799999999999988,-0.021666666666666723,-0.08116666666666668,0.14683333333333334,-0.030000000000001137,-0.06499999999999773,1.5316666666666667,1.502,39.419,30.469,39.604,36.3885,57.317,36.296,61.9195,54.902,54.980999999999995,35.247,60.1915,52.934,54.263,34.785,60.274,52.459,-0.11699999999999999,-0.04400000000000004,0.106105,0.10536500000000001,0.0,217.285,217.325,214.03,214.03,0.0,0.0
30,0.0,0.0,0.0,1.0,1.0,0.0,0.0,1.0,0.0,100.0,1.0,1.1856,26.0,0.0,0.0,0.0,59.999996,0.0,26.0,26.0,26.0,26.0,0.07144444444444442,0.25060000000000016,-0.007533333333333333,290.894,-2.6414999999999997,-2.7127499999999998,-1.6463,-1.5937999999999999,-174.28,215.315,190.3315,0.0,0.0,0.0,0.0,0.06053333333333334,-5.498166666666667,-5.498166666666667,-0.6107,0.6663333333333332,0.00912500000000005,-0.386,69.55199999999999,0.024,-0.2215,-0.41600000000000037,100.0,1.0,1.0,214.57999999999998,0.0,0.0,0.0,0.0,0.0,0.0,0.0,9095.3,0.0,55.0,5.0,250.36333333333334,0.0,0.0,0.0,0.0,0.0,0.0,1.0,0.0,1.5060000000000002,1.5060000000000002,0.0,0.0,0.0,55.0,616.79921,10000.0,85.000001,85.000001,85.000001,85.000001,395.0,0.0,0.0,0.0,1.0,166.665,50.11,50.11,46.921,46.921,34.0,-24.615,28.41,-29.060000000000002,29.85,0.0,1781.21,-0.509999999999998,100.0,28.95,29.009999999999998,43.409,43.976,0.0,0.0,100.0,0.0,0.0,0.0,0.0,3459.714285714286,3370.3,4177.0,4046.3,304.1375,303.51275,314.5606666666667,314.39675,21.157,19.7213,21.1875,20.6719,314.999998,314.999998,324.999988,324.999988,99.56017142857142,99.50776666666667,99.57105714285714,99.55092857142857,0.11299999999999999,-0.02833333333333332,-0.0945,0.14066666666666666,-0.03333333333333144,-0.06333333333333258,1.5663333333333334,1.554,39.480999999999995,30.508,39.672,36.449,57.309,36.339,61.9555,54.9645,54.973,35.286500000000004,60.225,52.994,54.254000000000005,34.823499999999996,60.3045,52.518,-0.127,-0.045500000000000096,0.109685,0.10895,0.0,217.70499999999998,217.735,214.57999999999998,214.57999999999998,0.0,0.0
31,0.0,0.0,0.0,1.0,1.0,0.0,0.0,1.0,0.0,100.0,1.0,1.1856,26.0,0.0,0.0,0.0,59.999996,0.0,26.0,26.0,26.0,26.0,0.06299999999999994,0.27,0.07730000000000001,290.298,-2.7815,-2.6145,-1.6522999999999999,-1.5333999999999999,-170.94,215.315,190.307125,0.0,0.0,0.0,0.0,0.0625,-5.498166666666667,-5.498166666666667,-0.5876,-0.15233333333333332,0.026249999999999885,-0.487,69.678,0.0286,-0.21565,-0.4220000000000006,100.0,1.0,1.0,214.71333333333334,0.0,0.0,0.0,0.0,0.0,0.0,0.0,9100.9,0.0,55.0,5.0,250.81666666666666,1.0,0.0,0.0,0.0,0.0,0.0,1.0,0.0,1.5539999999999985,1.5539999999999985,0.0,0.0,1.0,55.0,616.79921,10000.0,85.000001,85.000001,85.000001,85.000001,395.0,0.0,0.0,0.0,1.0,333.33500000000004,50.797,50.797,45.12,45.12,34.0,-23.5075,26.214,-32.15,33.965,0.0,1781.16,-0.5,100.0,28.866,29.262,44.084,44.667,0.0,0.0,100.0,0.0,0.0,0.0,0.0,3210.285714285714,3238.1,4497.5,4518.6,304.97,304.068,313.5226666666667,313.111,21.1662,19.7271,21.198,20.6813,314.999998,314.999998,324.999988,324.999988,99.56018571428571,99.50776666666667,99.57121428571429,99.55108571428572,0.1203333333333334,-0.024333333333333318,-0.08433333333333333,0.14266666666666666,-0.05333333333332746,-0.03499999999999659,1.4583333333333333,1.441,39.539,30.5445,39.736999999999995,36.507999999999996,57.299,36.3815,61.998,55.032,54.964,35.326,60.2645,53.0585,54.242999999999995,34.8615,60.3405,52.5815,-0.1259999999999999,-0.04349999999999987,0.10153000000000001,0.11062500000000001,0.0,218.10000000000002,218.12,214.71333333333334,214.71333333333334,0.0,0.0
32,0.0,0.0,0.0,1.0,1.0,0.0,0.0,1.0,0.0,100.0,1.0,1.1856,26.0,0.0,0.0,0.0,59.999996,0.0,26.0,26.0,26.0,26.0,0.04022222222222216,0.2501,-0.053066666666666665,290.939,-2.709,-2.669,-1.5977999999999999,-1.5359,-167.38,215.3175,190.28175,0.0,0.0,0.0,0.0,0.06456666666666666,-5.498166666666667,-5.498166666666667,-0.6066,-0.31899999999999995,0.008874999999999966,0.246,69.806,0.0346,-0.23635,-0.532,100.0,1.0,1.0,215.28,0.0,0.0,0.0,0.0,0.0,0.0,0.0,9124.9,0.0,55.0,5.0,251.27333333333334,0.0,0.0,0.0,0.0,0.0,0.0,1.0,0.0,1.6050000000000004,1.6050000000000004,0.0,0.0,0.0,55.0,616.79921,10000.0,85.000001,85.000001,85.000001,85.000001,395.0,0.0,0.0,0.0,1.0,333.33500000000004,51.117,51.117,46.143,46.143,34.0,-21.5325,26.36,-26.95666666666667,31.995,0.0,1781.11,-0.46499999999999986,100.0,28.844,29.014,44.105000000000004,44.556,0.0,0.0,100.0,0.0,0.0,0.0,0.0,3059.285714285714,3193.6,4117.625,4295.7,305.147,304.27675,314.4273333333333,313.93625,21.1759,19.7333,21.2089,20.6911,314.999998,314.999998,324.999988,324.999988,99.5602,99.50778333333334,99.57134285714285,99.55122857142857,0.1283333333333334,-0.020999999999999908,-0.06766666666666667,0.157,-0.023333333333326323,-0.06833333333332803,1.55,1.5345,39.599000000000004,30.583,39.806,36.5695,57.289,36.420500000000004,62.033,55.091499999999996,54.954,35.362,60.297,53.1155,54.232,34.8965,60.37,52.6375,-0.11450000000000005,-0.0495000000000001,0.104815,0.10589000000000001,0.0,218.47,218.515,215.28,215.28,0.0,0.0
33,0.0,0.0,0.0,1.0,1.0,0.0,0.0,1.0,0.0,100.0,1.0,1.1856,26.0,0.0,0.0,0.0,59.999996,0.0,26.0,26.0,26.0,26.0,0.06744444444444442,0.26290000000000013,-0.056400000000000006,291.336,-2.7391,-2.683875,-1.59985,-1.577,-163.82,215.32,190.25525,0.0,0.0,0.0,0.0,0.06663333333333334,-5.498166666666667,-5.498166666666667,-0.6176,-0.20099999999999996,0.0007500000000000284,-0.23900000000000002,69.934,0.035300000000000005,-0.2197,-0.41600000000000037,100.0,1.0,1.0,215.69666666666666,0.0,0.0,0.0,0.0,0.0,0.0,0.0,9142.7,0.0,55.0,5.0,251.73666666666668,1.0,0.0,0.0,0.0,0.0,0.0,1.0,0.0,1.6559999999999988,1.6559999999999988,0.0,0.0,1.0,55.0,616.79921,10000.0,85.000001,85.000001,85.000001,85.000001,395.0,0.0,0.0,0.0,1.0,166.665,51.468,51.468,46.677,46.677,34.0,-22.7425,25.04,-27.476666666666667,30.7875,0.0,1781.06,-0.48499999999999943,100.0,28.511,28.869,43.777,44.332,0.0,0.0,100.0,0.0,0.0,0.0,0.0,3169.142857142857,3026.3,4115.5,4155.1,305.063,304.66675,314.5563333333333,314.20475,21.1856,19.7393,21.2198,20.7008,314.999998,314.999998,324.999988,324.999988,99.56021428571428,99.50778333333334,99.5715,99.55138571428571,0.12166666666666659,-0.02200000000000002,-0.0815,0.14633333333333334,-0.061666666666667425,-0.054999999999999716,1.5670000000000002,1.5534999999999999,39.66,30.6205,39.873999999999995,36.629999999999995,57.278,36.46,62.07,55.153,54.943,35.3985,60.3305,53.1745,54.22,34.9315,60.4005,52.695499999999996,-0.12199999999999989,-0.04300000000000015,0.10956500000000001,0.106505,0.0,218.875,218.91,215.69666666666666,215.69666666666666,0.0,0.0
34,0.0,0.0,0.0,1.0,1.0,0.0,0.0,1.0,0.0,100.0,1.0,1.1856,26.0,0.0,0.0,0.0,59.999996,0.0,26.0,26.0,26.0,26.0,0.06166666666666676,0.26160000000000005,-0.04973333333333333,291.489,-2.6806,-2.6645000000000003,-1.63305,-1.559,-160.45999999999998,215.3225,190.229,0.0,0.0,0.0,0.0,0.06856666666666666,-5.498166666666667,-5.498166666666667,-0.64,-0.828,0.022499999999999964,-0.266,70.056,0.0362,-0.221675,-0.41799999999999926,100.0,1.0,1.0,216.0233333333333,0.0,0.0,0.0,0.0,0.0,0.0,0.0,9156.5,0.0,55.0,5.0,252.17666666666668,0.0,0.0,0.0,0.0,0.0,0.0,1.0,0.0,1.7040000000000006,1.7040000000000006,0.0,0.0,0.0,55.0,616.79921,10000.0,85.000001,85.000001,85.000001,85.000001,395.0,0.0,0.0,0.0,1.0,333.33500000000004,51.894999999999996,51.894999999999996,46.783,46.783,34.0,-21.294999999999998,24.672,-28.106666666666662,30.785,0.0,1781.011,-0.5,100.0,28.214,28.570999999999998,43.63,44.403999999999996,0.0,0.0,100.0,0.0,0.0,0.0,0.0,3055.857142857143,2996.4,4140.125,4189.4,305.3035,304.708,314.5043333333333,314.06225,21.1946,19.7449,21.23,20.7101,314.999998,314.999998,324.999988,324.999988,99.56022857142857,99.50778333333334,99.57164285714286,99.55152857142858,0.12400000000000011,-0.021666666666666723,-0.0805,0.14216666666666666,-0.054999999999999716,-0.04999999999999716,1.5596666666666668,1.5394999999999999,39.716,30.6555,39.938,36.688,57.266999999999996,36.496,62.1045,55.213499999999996,54.933,35.4315,60.3625,53.232,54.208,34.963499999999996,60.429,52.7525,-0.11699999999999999,-0.0405000000000002,0.10676000000000001,0.1053,0.0,219.25,219.255,216.02333333333334,216.0233333333333,0.0,0.0
35,0.0,0.0,0.0,1.0,1.0,0.0,0.0,1.0,0.0,100.0,1.0,1.1856,26.0,0.0,0.0,0.0,59.999996,0.0,26.0,26.0,26.0,26.0,0.0665555555555557,0.25540000000000007,-0.07206666666666667,291.473,-2.8124,-2.642875,-1.5463,-1.5712,-156.67000000000002,215.32999999999998,190.1975,0.0,0.0,0.0,0.0,0.07076666666666667,-5.498166666666667,-5.498166666666667,-0.68,-0.07199999999999995,0.006000000000000005,-1.342,70.19,0.0379,-0.22955,-0.4220000000000006,100.0,1.0,1.0,216.55333333333334,0.0,0.0,0.0,0.0,0.0,0.0,0.0,9178.9,0.0,55.0,5.0,252.65666666666667,1.0,0.0,0.0,0.0,0.0,0.0,1.0,0.0,1.7579999999999991,1.7579999999999991,0.0,0.0,1.0,55.0,616.79921,10000.0,85.000001,85.000001,85.000001,85.000001,395.0,0.0,0.0,0.0,1.0,166.665,51.254,51.254,46.677,46.677,34.0,-23.81,27.032,-25.58333333333333,29.6125,0.0,1780.958,-0.3200000000000003,100.0,28.093,28.876,43.415,43.943,0.0,0.0,100.0,0.0,0.0,0.0,0.0,3188.5714285714284,3288.9,4067.875,4012.9,304.9595,303.82775,314.7393333333333,314.64675,21.2046,19.7514,21.2415,20.7203,314.999998,314.999998,324.999988,324.999988,99.56025714285714,99.50778333333334,99.57181428571428,99.55168571428571,0.11866666666666648,-0.025333333333333208,-0.07050000000000001,0.15466666666666665,-0.045000000000001705,-0.05666666666667197,1.6053333333333333,1.589,39.778999999999996,30.6965,40.009,36.751999999999995,57.253,36.54,62.141,55.277,54.919,35.472,60.3965,53.293,54.193,35.0025,60.46,52.812,-0.10549999999999993,-0.059499999999999886,0.10739000000000001,0.10196000000000001,0.0,219.65,219.695,216.55333333333334,216.55333333333334,0.0,0.0
36,0.0,0.0,0.0,1.0,1.0,0.0,0.0,1.0,0.0,100.0,1.0,1.1856,26.0,0.0,0.0,0.0,59.999996,0.0,26.0,26.0,26.0,26.0,0.035222222222222266,0.26090000000000013,0.05553333333333334,290.71,-2.6532,-2.6550000000000002,-1.6524,-1.5835,-153.51,215.335,190.170125,0.0,0.0,0.0,0.0,0.07263333333333334,-5.498166666666667,-5.498166666666667,-0.6631,0.22533333333333339,-0.034250000000000114,0.124,70.305,0.0346,-0.2041,-0.3279999999999994,100.0,1.0,1.0,216.67000000000002,0.0,0.0,0.0,0.0,0.0,0.0,0.0,9183.9,0.0,55.0,5.0,253.07333333333332,0.0,0.0,0.0,0.0,0.0,0.0,1.0,0.0,1.8030000000000008,1.8030000000000008,0.0,0.0,0.0,55.0,616.79921,10000.0,85.000001,85.000001,85.000001,85.000001,395.0,0.0,0.0,0.0,1.0,166.665,51.056,51.056,46.126999999999995,46.126999999999995,34.0,-21.607499999999998,26.864,-30.186666666666667,34.135000000000005,0.0,1780.914,-0.2749999999999986,100.0,28.844,28.735,43.69,44.091,0.0,0.0,100.0,0.0,0.0,0.0,0.0,3119.4285714285716,3221.2,4409.125,4465.5,304.7865,304.26325,313.76166666666666,313.5005,21.2132,19.7569,21.2511,20.729,314.999998,314.999998,324.999988,324.999988,99.56027142857143,99.5078,99.57194285714286,99.55182857142857,0.13033333333333363,-0.010666666666666602,-0.066,0.15066666666666667,-0.036666666666668846,-0.05666666666667197,1.498,1.4905,39.833,30.7305,40.07,36.806,57.244,36.577,62.175,55.3335,54.911,35.506,60.428,53.3475,54.184,35.0355,60.4885,52.8655,-0.10949999999999993,-0.05600000000000005,0.10890000000000001,0.10222500000000001,0.0,220.03,220.06,216.67000000000002,216.67000000000002,0.0,0.0
