,ABS Active,ABS Enabled,AID Allow Tire Blankets,AID Auto Blip,AID Auto Clutch,AID Auto Shift,AID Fuel Rate,AID Ideal Line,AID Mech Damage,AID Stability,AID Tire Wear Rate,Air Density,Air Temp,Ballast,Best Lap Delta,Best Lap Time,Brake Bias,Brake Pos,Brake Temp FL,Brake Temp FR,Brake Temp RL,Brake Temp RR,CG Accel Lateral,CG Accel Longitudinal,CG Accel Vertical,CG Height,Camber FL,Camber FR,Camber RL,Camber RR,Car Coord X,Car Coord Y,Car Coord Z,Car Damage Front,Car Damage Left,Car Damage Rear,Car Damage Right,Car Pos Norm,Caster FL,Caster FR,Chassis Pitch Angle,Chassis Pitch Rate,Chassis Roll Angle,Chassis Roll Rate,Chassis Velocity X,Chassis Velocity Y,Chassis Velocity Z,Chassis Yaw Rate,Clutch Pos,DRS Active,DRS Available,Drive Train Speed,ERS Heat Charging,ERS Is Charging,ERS Max Energy,ERS Power Level,ERS Recovery Level,Engine Brake Setting,Engine Limiter,Engine RPM,Flags,Fuel Level,Gear,Ground Speed,HR Sample Clock,In Pit,KERS Charge,KERS Deployed Energy,KERS Input,KERS Max Energy,LR Sample Clock,Lap Invalidated,Lap Time,Lap Time2,Last Lap Time,Last Sector Time,MR Sample Clock,Max Fuel,Max Power,Max RPM,Max Sus Travel FL,Max Sus Travel FR,Max Sus Travel RL,Max Sus Travel RR,Max Torque,Max Turbo Boost,Num Tires Off Track,Penalties Enabled,Position,Raw Data Sample Rate,Ride Height FL,Ride Height FR,Ride Height RL,Ride Height RR,Road Temp,Self Align Torque FL,Self Align Torque FR,Self Align Torque RL,Self Align Torque RR,Session Lap Count,Session Time Left,Steering Angle,Surface Grip,Suspension Travel FL,Suspension Travel FR,Suspension Travel RL,Suspension Travel RR,TC Active,TC Enabled,Throttle Pos,Tire Dirt Level FL,Tire Dirt Level FR,Tire Dirt Level RL,Tire Dirt Level RR,Tire Load FL,Tire Load FR,Tire Load RL,Tire Load RR,Tire Loaded Radius FL,Tire Loaded Radius FR,Tire Loaded Radius RL,Tire Loaded Radius RR,Tire Pressure FL,Tire Pressure FR,Tire Pressure RL,Tire Pressure RR,Tire Radius FL,Tire Radius FR,Tire Radius RL,Tire Radius RR,Tire Rubber Grip FL,Tire Rubber Grip FR,Tire Rubber Grip RL,Tire Rubber Grip RR,Tire Slip Angle FL,Tire Slip Angle FR,Tire Slip Angle RL,Tire Slip Angle RR,Tire Slip Ratio FL,Tire Slip Ratio FR,Tire Slip Ratio RL,Tire Slip Ratio RR,Tire Temp Core FL,Tire Temp Core FR,Tire Temp Core RL,Tire Temp Core RR,Tire Temp Inner FL,Tire Temp Inner FR,Tire Temp Inner RL,Tire Temp Inner RR,Tire Temp Middle FL,Tire Temp Middle FR,Tire Temp Middle RL,Tire Temp Middle RR,Tire Temp Outer FL,Tire Temp Outer FR,Tire Temp Outer RL,Tire Temp Outer RR,Toe In FL,Toe In FR,Toe In RL,Toe In RR,Turbo Boost,Wheel Angular Speed FL,Wheel Angular Speed FR,Wheel Angular Speed RL,Wheel Angular Speed RR,Wind Direction,Wind Speed
0,0.0,0.0,0.0,1.0,1.0,0.0,0.0,1.0,0.0,100.0,1.0,1.1856,26.0,0.0,0.0,0.0,59.99999,0.0,26.0,26.0,26.0,26.0,-0.028000000000000025,0.30510000000000015,0.11220000000000001,291.885,-2.7347,-2.4652,-1.52675,-1.5072,-275.53,215.66,190.98525,0.0,0.0,0.0,0.0,0.0016666666666665941,-5.498166666666667,-5.498166666666667,-0.5683,2.8243333333333336,-0.0043333333333333,-0.3340000000000005,65.37,-0.038900000000000004,-0.2306,0.25,100.0,1.0,1.0,202.08666666666667,0.0,0.0,0.0,0.0,0.0,0.0,0.0,8565.6,0.0,55.0,5.0,235.30333333333334,0.0,0.0,0.0,0.0,0.0,0.0,0.0,0.0,0.006000000000000227,0.006000000000000227,0.0,0.0,0.0,55.0,616.79921,10000.0,85.0,85.0,85.0,85.0,395.0,0.0,0.0,0.0,1.0,20.0,49.286,49.286,47.638,47.638,34.0,-28.2425,25.994,-29.35333333333333,25.415,0.0,1782.596,0.495000000000001,100.0,27.804,27.687,40.078,39.689,0.0,0.0,100.0,0.0,0.0,0.0,0.0,3273.0,3921.1000000000004,4141.0,4149.8,303.4745,300.226,313.55533333333335,313.2665,19.067,17.6429,19.099,18.5712,314.99999,314.99999,324.99998,324.99998,99.56278571428571,99.5084,99.5717,99.55,0.019000000000000128,-0.11066666666666658,-0.14483333333333337,0.07666666666666666,-0.06666666666666998,-0.061666666666667425,1.6665,1.7065000000000001,38.919,30.0185,39.119,35.82,61.141,36.6825,65.19,56.5615,58.150999999999996,35.4495,62.903999999999996,54.087,57.797,35.079499999999996,63.5635,53.927,-0.04999999999999993,-0.10899999999999999,0.10813,0.11054000000000001,0.0,204.865,204.82999999999998,202.08666666666667,202.08666666666667,0.0,0.0
1,0.0,0.0,0.0,1.0,1.0,0.0,0.0,1.0,0.0,100.0,1.0,1.1856,26.0,0.0,0.0,0.0,59.999996,0.0,26.0,26.0,26.0,26.0,-0.08933333333333338,0.29600000000000004,0.1453,291.29,-2.6523,-2.7001,-1.5510000000000002,-1.4432,-272.0,215.675,190.96425,0.0,0.0,0.0,0.0,0.0037333333333333663,-5.498166666666667,-5.498166666666667,-0.4843,-2.1346666666666665,-0.04833333333333334,-0.6980000000000004,65.538,-0.0417,-0.199,0.847999999999999,100.0,1.0,1.0,202.04000000000002,0.0,0.0,0.0,0.0,0.0,0.0,0.0,8563.7,0.0,55.0,5.0,235.90333333333334,1.0,0.0,0.0,0.0,0.0,0.0,0.0,0.0,0.05999999999999872,0.05999999999999872,0.0,0.0,1.0,55.0,616.79921,10000.0,85.000001,85.000001,85.000001,85.000001,395.0,0.0,0.0,0.0,1.0,166.665,52.979,52.979,46.402,46.402,34.0,-23.2775,16.264,-36.47,29.13,0.0,1782.542,0.5350000000000001,100.0,27.723,27.123,42.433,43.257,0.0,0.0,100.0,0.0,0.0,0.0,0.0,2850.857142857143,2465.6,4650.375,4747.1,305.084,305.83433333333335,311.9386666666667,310.741,19.078875,17.6493,19.112625,18.5829,314.999998,314.999998,324.999988,324.999988,99.5628,99.5084,99.57187142857143,99.55017142857143,0.016750000000000043,-0.121,-0.15900000000000003,0.05033333333333334,-0.03999999999999915,-0.03833333333332689,1.4255,1.454,38.992999999999995,30.058,39.204,35.893,61.120999999999995,36.7295,65.2495,56.6485,58.132999999999996,35.4925,62.9595,54.169,57.777,35.1215,63.616,54.009,-0.033499999999999974,-0.11549999999999994,0.10204,0.11146,0.0,205.32,205.22,202.04000000000002,202.04000000000002,0.0,0.0
2,0.0,0.0,0.0,1.0,1.0,0.0,0.0,1.0,0.0,100.0,1.0,1.1856,26.0,0.0,0.0,0.0,59.999996,0.0,26.0,26.0,26.0,26.0,-0.11488888888888893,0.2732000000000001,-0.11460000000000001,292.862,-2.6269,-2.6656,-1.5231,-1.5229,-268.85,215.6875,190.94675,0.0,0.0,0.0,0.0,0.005566666666666609,-5.498166666666667,-5.498166666666667,-0.5841000000000001,0.14033333333333334,-0.017444444444444596,2.401,65.664,-0.0507,-0.283875,1.1219999999999999,100.0,1.0,1.0,203.39333333333332,0.0,0.0,0.0,0.0,0.0,0.0,0.0,8621.1,0.0,55.0,5.0,236.36,0.0,0.0,0.0,0.0,0.0,0.0,0.0,0.0,0.10800000000000054,0.10800000000000054,0.0,0.0,0.0,55.0,616.79921,10000.0,85.000001,85.000001,85.000001,85.000001,395.0,0.0,0.0,0.0,1.0,166.665,50.644,50.644,50.003,50.003,34.0,-29.2825,20.73,-24.89,17.625,0.0,1782.493,0.6999999999999993,100.0,28.335,27.241,41.89,41.432,0.0,0.0,100.0,0.0,0.0,0.0,0.0,3326.142857142857,3119.2,3476.5,3326.2,303.2755,303.4766666666667,315.2853333333333,315.57625,19.089875,17.6551,19.123874999999998,18.5922,314.999998,314.999998,324.999988,324.999988,99.5628,99.50843333333333,99.572,99.5503,-0.014249999999999874,-0.1296666666666666,-0.19133333333333336,0.04249999999999998,-0.06666666666666998,-0.08166666666667055,1.8815,1.9315,39.061,30.0945,39.274,35.951,61.108999999999995,36.7755,65.2865,56.702,58.120999999999995,35.534,62.993,54.2195,57.763999999999996,35.162,63.647,54.0595,-0.025499999999999967,-0.1280000000000001,0.10776500000000001,0.10572000000000001,0.0,205.715,205.625,203.39333333333332,203.39333333333332,0.0,0.0
3,0.0,0.0,0.0,1.0,1.0,0.0,0.0,1.0,0.0,100.0,1.0,1.1856,26.0,0.0,0.0,0.0,59.999996,0.0,26.0,26.0,26.0,26.0,-0.10211111111111104,0.3174000000000001,0.1277,292.023,-2.6536,-2.691,-1.51285,-1.4804,-265.7,215.6975,190.92775,0.0,0.0,0.0,0.0,0.007399999999999962,-5.498166666666667,-5.498166666666667,-0.5126000000000001,0.9896666666666667,0.002777777777777768,-0.7149999999999999,65.81,-0.0655,-0.19562500000000002,0.9560000000000013,100.0,1.0,1.0,203.24666666666667,0.0,0.0,0.0,0.0,0.0,0.0,0.0,8614.9,0.0,55.0,5.0,236.88666666666666,1.0,0.0,0.0,0.0,0.0,0.0,0.0,0.0,0.1559999999999988,0.1559999999999988,0.0,0.0,1.0,55.0,616.79921,10000.0,85.000001,85.000001,85.000001,85.000001,395.0,0.0,0.0,0.0,1.0,333.33500000000004,51.941,51.941,46.844,46.844,34.0,-25.09,19.119999999999997,-33.75666666666667,24.3425,0.0,1782.444,0.8049999999999997,100.0,28.028,27.367,41.837,41.368,0.0,0.0,100.0,0.0,0.0,0.0,0.0,2913.714285714286,2953.9,4394.5,4282.5,304.867,304.07533333333333,312.79966666666667,312.81575,19.1005,17.6612,19.13525,18.602,314.999998,314.999998,324.999988,324.999988,99.5628,99.50843333333333,99.57215714285714,99.55044285714285,-0.014000000000000012,-0.1433333333333333,-0.18099999999999994,0.037833333333333385,-0.061666666666667425,-0.04833333333333201,1.591,1.6145,39.128,30.1325,39.346000000000004,36.012,61.093,36.8245,65.328,56.772,58.107,35.5785,63.0315,54.286,57.748999999999995,35.2055,63.683,54.1255,-0.020499999999999963,-0.137,0.10577,0.10654500000000001,0.0,206.22500000000002,206.125,203.24666666666667,203.24666666666667,0.0,0.0
4,0.0,0.0,0.0,1.0,1.0,0.0,0.0,1.0,0.0,100.0,1.0,1.1856,26.0,0.0,0.0,0.0,59.999996,0.0,26.0,26.0,26.0,26.0,-0.12188888888888894,0.30380000000000007,-0.05183333333333334,292.297,-2.6404,-2.7744,-1.44865,-1.5870000000000002,-262.14,215.70499999999998,190.90725,0.0,0.0,0.0,0.0,0.009466666666666512,-5.498166666666667,-5.498166666666667,-0.5357000000000001,-1.098,-0.06333333333333346,-0.017999999999999794,65.96600000000001,-0.0791,-0.23897500000000002,1.315999999999999,100.0,1.0,1.0,203.80666666666667,0.0,0.0,0.0,0.0,0.0,0.0,0.0,8638.7,0.0,55.0,5.0,237.45,0.0,0.0,0.0,0.0,0.0,0.0,0.0,0.0,0.21000000000000085,0.21000000000000085,0.0,0.0,0.0,55.0,616.79921,10000.0,85.000001,85.000001,85.000001,85.000001,395.0,0.0,0.0,0.0,1.0,166.665,51.91,51.91,47.546,47.546,34.0,-27.9325,18.874000000000002,-31.446666666666665,21.740000000000002,0.0,1782.391,0.8099999999999987,100.0,27.822,26.849,42.775,41.686,0.0,0.0,100.0,0.0,0.0,0.0,0.0,3157.0,2883.9,4137.5,3847.1000000000004,303.9745,304.40366666666665,313.445,313.99475,19.1125,17.6676,19.1485,18.6132,314.999998,314.999998,324.999988,324.999988,99.5628,99.50846666666666,99.57231428571428,99.5506,-0.023499999999999854,-0.15233333333333332,-0.20233333333333337,0.02100000000000013,-0.045000000000001705,-0.05333333333332746,1.6445,1.6925,39.203,30.1725,39.428,36.082,61.075,36.875,65.381,56.847,58.09,35.624,63.08,54.357,57.730000000000004,35.25,63.729,54.1965,-0.008499999999999952,-0.135,0.099525,0.10512,0.0,206.61,206.525,203.80666666666667,203.80666666666667,0.0,0.0
5,0.0,0.0,0.0,1.0,1.0,0.0,0.0,1.0,0.0,100.0,1.0,1.1856,26.0,0.0,0.0,0.0,59.999996,0.0,26.0,26.0,26.0,26.0,-0.14144444444444448,0.2902,-0.04386666666666667,292.633,-2.6955,-2.7302,-1.50065,-1.6027,-258.97,215.71,190.8885,0.0,0.0,0.0,0.0,0.011299999999999977,-5.498166666666667,-5.498166666666667,-0.5522,0.4946666666666667,-0.05333333333333368,1.0430000000000001,66.101,-0.09670000000000001,-0.23665,1.2959999999999994,100.0,1.0,1.0,204.40333333333334,0.0,0.0,0.0,0.0,0.0,0.0,0.0,8664.0,0.0,55.0,5.0,237.93333333333334,1.0,0.0,0.0,0.0,0.0,0.0,0.0,0.0,0.2579999999999991,0.2579999999999991,0.0,0.0,1.0,55.0,616.79921,10000.0,85.000001,85.000001,85.000001,85.000001,395.0,0.0,0.0,0.0,1.0,166.665,51.772999999999996,51.772999999999996,48.477000000000004,48.477000000000004,34.0,-28.58,19.268,-30.240000000000002,20.7175,0.0,1782.343,0.6000000000000014,100.0,27.949,26.728,42.339,41.086,0.0,0.0,100.0,0.0,0.0,0.0,0.0,3156.142857142857,2977.5,3903.125,3873.2,303.919,304.0586666666667,314.16566666666665,314.05875,19.123375,17.6735,19.159875,18.622700000000002,314.999998,314.999998,324.999988,324.999988,99.56281428571428,99.50848333333333,99.57245714285715,99.55074285714285,-0.025499999999999856,-0.15133333333333332,-0.21833333333333338,0.0,-0.061666666666667425,-0.06499999999999773,1.7265,1.777,39.271,30.2095,39.5,36.141999999999996,61.063,36.921,65.42099999999999,56.9075,58.078,35.666,63.1175,54.414,57.717,35.291,63.7635,54.253,-0.03500000000000003,-0.11850000000000005,0.10021500000000001,0.10166000000000001,0.0,207.115,206.99,204.40333333333334,204.40333333333334,0.0,0.0
6,0.0,0.0,0.0,1.0,1.0,0.0,0.0,1.0,0.0,100.0,1.0,1.1856,26.0,0.0,0.0,0.0,59.999996,0.0,26.0,26.0,26.0,26.0,-0.14955555555555555,0.29190000000000005,0.008333333333333333,292.343,-2.6398,-2.7944,-1.54935,-1.5707,-255.79,215.7125,190.869,0.0,0.0,0.0,0.0,0.013166666666666549,-5.498166666666667,-5.498166666666667,-0.5274,0.11366666666666668,-0.062444444444444525,0.42300000000000004,66.242,-0.10110000000000001,-0.2038,1.0500000000000007,100.0,1.0,1.0,204.59333333333333,0.0,0.0,0.0,0.0,0.0,0.0,0.0,8672.0,0.0,55.0,5.0,238.44,0.0,0.0,0.0,0.0,0.0,0.0,0.0,0.0,0.30600000000000094,0.30600000000000094,0.0,0.0,0.0,55.0,616.79921,10000.0,85.000001,85.000001,85.000001,85.000001,395.0,0.0,0.0,0.0,1.0,333.33500000000004,52.368,52.368,47.318,47.318,34.0,-27.5525,18.614,-34.75333333333334,22.975,0.0,1782.295,0.375,100.0,27.688,26.490000000000002,42.503,41.205,0.0,0.0,100.0,0.0,0.0,0.0,0.0,3071.142857142857,2854.1,4285.125,4135.3,304.217,304.47833333333335,313.0783333333333,313.30725,19.134,17.6793,19.1715,18.6326,314.999998,314.999998,324.999988,324.999988,99.56281428571428,99.5085,99.5726,99.55088571428571,-0.03424999999999989,-0.15833333333333333,-0.21183333333333332,0.010499999999999954,-0.05833333333333002,-0.060000000000002274,1.6280000000000001,1.6535,39.337,30.2455,39.572,36.204,61.048,36.967,65.4655,56.9745,58.065,35.708,63.158500000000004,54.4775,57.702,35.332,63.8015,54.316,-0.03300000000000003,-0.1120000000000001,0.10417000000000001,0.10493500000000001,0.0,207.525,207.41500000000002,204.59333333333333,204.59333333333333,0.0,0.0
7,0.0,0.0,0.0,1.0,1.0,0.0,0.0,1.0,0.0,100.0,1.0,1.1856,26.0,0.0,0.0,0.0,59.999996,0.0,26.0,26.0,26.0,26.0,-0.10166666666666657,0.28600000000000003,0.0016666666666666668,292.328,-2.601,-2.7947,-1.50205,-1.6242,-252.41,215.71,190.848625,0.0,0.0,0.0,0.0,0.015133333333333332,-5.498166666666667,-5.498166666666667,-0.539,-0.101,-0.06255555555555592,-0.24300000000000033,66.385,-0.1023,-0.225325,0.9560000000000013,100.0,1.0,1.0,205.13333333333333,0.0,0.0,0.0,0.0,0.0,0.0,0.0,8694.8,0.0,55.0,5.0,238.96,1.0,0.0,0.0,0.0,0.0,0.0,0.0,0.0,0.3569999999999993,0.3569999999999993,0.0,0.0,1.0,55.0,616.79921,10000.0,85.000001,85.000001,85.000001,85.000001,395.0,0.0,0.0,0.0,1.0,333.33500000000004,51.849000000000004,51.849000000000004,47.852000000000004,47.852000000000004,34.0,-27.935,19.740000000000002,-33.14,21.322499999999998,0.0,1782.243,0.02499999999999858,100.0,27.764,26.768,42.595,41.435,0.0,0.0,100.0,0.0,0.0,0.0,0.0,3267.714285714286,2844.4,4096.0,3908.0,303.735,304.2866666666667,313.6333333333333,313.81675,19.1455,17.6855,19.183875,18.6431,314.999998,314.999998,324.999988,324.999988,99.56281428571428,99.50851666666667,99.57275714285714,99.55102857142857,-0.008750000000000036,-0.133,-0.23216666666666663,-0.006333333333333302,-0.04999999999999716,-0.07333333333333059,1.646,1.6915,39.409,30.2845,39.649,36.269,61.034,37.0155,65.5125,57.044,58.052,35.7515,63.201499999999996,54.5435,57.688,35.3745,63.842,54.3815,-0.07199999999999995,-0.07250000000000001,0.10587500000000001,0.10667000000000001,0.0,207.945,207.865,205.13333333333333,205.13333333333333,0.0,0.0
8,0.0,0.0,0.0,1.0,1.0,0.0,0.0,1.0,0.0,100.0,1.0,1.1856,26.0,0.0,0.0,0.0,59.999996,0.0,26.0,26.0,26.0,26.0,-0.09877777777777785,0.2834000000000001,-0.013533333333333335,292.45,-2.6859,-2.7235,-1.4857,-1.6087,-249.01999999999998,215.70749999999998,190.828125,0.0,0.0,0.0,0.0,0.017100000000000004,-5.498166666666667,-5.498166666666667,-0.544,-0.19966666666666666,-0.04055555555555568,0.6160000000000001,66.53,-0.09040000000000001,-0.226475,0.46000000000000085,100.0,1.0,1.0,205.56,0.0,0.0,0.0,0.0,0.0,0.0,0.0,8713.0,0.0,55.0,5.0,239.4766666666667,0.0,0.0,0.0,0.0,0.0,0.0,0.0,0.0,0.40800000000000125,0.40800000000000125,0.0,0.0,0.0,55.0,616.79921,10000.0,85.000001,85.000001,85.000001,85.000001,395.0,0.0,0.0,0.0,1.0,333.33500000000004,52.155,52.155,47.592,47.592,34.0,-25.912499999999998,21.012,-30.606666666666662,23.29,0.0,1782.192,-0.07000000000000028,100.0,27.604,26.712,42.591,41.393,0.0,0.0,100.0,0.0,0.0,0.0,0.0,3025.142857142857,3009.0,3992.875,4028.4,304.398,303.956,313.839,313.564,19.15675,17.6918,19.196125,18.6535,314.999998,314.999998,324.999988,324.999988,99.56281428571428,99.50851666666667,99.57291428571429,99.55118571428571,0.0045000000000001705,-0.11366666666666658,-0.20299999999999996,0.02200000000000002,-0.054999999999999716,-0.06499999999999773,1.657,1.687,39.480000000000004,30.3235,39.724999999999994,36.335,61.018,37.0635,65.5575,57.1135,58.037,35.795,63.243,54.609,57.672,35.417,63.8805,54.447,-0.07650000000000001,-0.062000000000000055,0.10949,0.09826000000000001,0.0,208.39,208.335,205.56,205.56,0.0,0.0
9,0.0,0.0,0.0,1.0,1.0,0.0,0.0,1.0,0.0,100.0,1.0,1.1856,26.0,0.0,0.0,0.0,59.999996,0.0,26.0,26.0,26.0,26.0,-0.07766666666666666,0.29600000000000004,0.018533333333333336,292.145,-2.6058,-2.7394,-1.536,-1.5688,-245.82,215.7,190.808375,0.0,0.0,0.0,0.0,0.018966666666666576,-5.498166666666667,-5.498166666666667,-0.54,0.368,-0.0515555555555558,0.7250000000000001,66.66499999999999,-0.07490000000000001,-0.21625,0.2679999999999989,100.0,1.0,1.0,205.97333333333333,0.0,0.0,0.0,0.0,0.0,0.0,0.0,8730.5,0.0,55.0,5.0,239.96666666666667,1.0,0.0,0.0,0.0,0.0,0.0,0.0,0.0,0.4559999999999995,0.4559999999999995,0.0,0.0,1.0,55.0,616.79921,10000.0,85.000001,85.000001,85.000001,85.000001,395.0,0.0,0.0,0.0,1.0,166.665,51.62,51.62,47.852000000000004,47.852000000000004,34.0,-25.9075,21.618,-30.296666666666667,24.395,0.0,1782.145,-0.254999999999999,100.0,27.915,26.843,42.474000000000004,41.444,0.0,0.0,100.0,0.0,0.0,0.0,0.0,3192.142857142857,3012.0,4053.625,4098.0,303.8245,303.94733333333335,313.73833333333334,313.43275,19.1675,17.6978,19.2075,18.6634,314.999998,314.999998,324.999988,324.999988,99.56282857142857,99.50853333333333,99.57307142857142,99.55132857142857,0.026499999999999968,-0.10266666666666657,-0.17433333333333334,0.045333333333333226,-0.05333333333332746,-0.05333333333332746,1.674,1.682,39.547,30.360999999999997,39.797,36.396,61.004000000000005,37.1085,65.599,57.1785,58.024,35.836,63.281,54.670500000000004,57.658,35.4565,63.916,54.507999999999996,-0.09650000000000003,-0.05750000000000011,0.09724000000000001,0.11050000000000001,0.0,208.8,208.76,205.97333333333333,205.97333333333333,0.0,0.0
10,0.0,0.0,0.0,1.0,1.0,0.0,0.0,1.0,0.0,100.0,1.0,1.1856,26.0,0.0,0.0,0.0,59.999996,0.0,26.0,26.0,26.0,26.0,-0.046666666666666634,0.278,-0.006066666666666666,292.007,-2.6723,-2.7077,-1.5014500000000002,-1.5514000000000001,-242.42000000000002,215.6925,190.7875,0.0,0.0,0.0,0.0,0.02093333333333336,-5.498166666666667,-5.498166666666667,-0.5315,-0.36033333333333334,-0.024111111111110972,0.21300000000000008,66.81,-0.055200000000000006,-0.215925,0.10200000000000031,100.0,1.0,1.0,206.31,0.0,0.0,0.0,0.0,0.0,0.0,0.0,8744.8,0.0,55.0,5.0,240.48666666666668,0.0,0.0,0.0,0.0,0.0,0.0,1.0,0.0,0.5069999999999979,0.5069999999999979,0.0,0.0,0.0,55.0,616.79921,10000.0,85.000001,85.000001,85.000001,85.000001,395.0,0.0,0.0,0.0,1.0,166.665,52.063,52.063,47.15,47.15,34.0,-25.02,20.665999999999997,-31.306666666666665,25.47,0.0,1782.095,-0.3049999999999997,100.0,27.726,27.024,42.657,42.013,0.0,0.0,100.0,0.0,0.0,0.0,0.0,3099.4285714285716,2881.4,4205.875,4174.4,304.3505,304.244,313.36533333333335,313.1055,19.17875,17.704,19.219875000000002,18.674,314.999998,314.999998,324.999988,324.999988,99.56284285714285,99.50855,99.57321428571429,99.55148571428572,0.035499999999999865,-0.09666666666666657,-0.1728333333333334,0.05383333333333318,-0.02499999999999858,-0.07666666666666799,1.6215,1.6285,39.617000000000004,30.4005,39.873999999999995,36.463,60.989000000000004,37.1545,65.646,57.25,58.01,35.8775,63.3245,54.738,57.643,35.497,63.9565,54.575,-0.10250000000000004,-0.04849999999999999,0.10096000000000001,0.10912000000000001,0.0,209.21,209.22500000000002,206.31,206.31,0.0,0.0
11,0.0,0.0,0.0,1.0,1.0,0.0,0.0,1.0,0.0,100.0,1.0,1.1856,26.0,0.0,0.0,0.0,59.999996,0.0,26.0,26.0,26.0,26.0,-0.042888888888888865,0.28590000000000004,-0.04343333333333333,292.419,-2.6806,-2.7,-1.5609000000000002,-1.5204,-239.01,215.6825,190.76675,0.0,0.0,0.0,0.0,0.022599999999999953,-5.498166666666667,-5.498166666666667,-0.5585,-0.21566666666666667,0.005666666666666709,0.754,66.95,-0.036500000000000005,-0.23395000000000002,-0.13199999999999967,100.0,1.0,1.0,206.92333333333335,0.0,0.0,0.0,0.0,0.0,0.0,0.0,8770.7,0.0,55.0,5.0,240.99333333333334,1.0,0.0,0.0,0.0,0.0,0.0,1.0,0.0,0.5579999999999998,0.5579999999999998,0.0,0.0,1.0,55.0,616.79921,10000.0,85.000001,85.000001,85.000001,85.000001,395.0,0.0,0.0,0.0,1.0,166.665,51.894999999999996,51.894999999999996,48.035,48.035,34.0,-24.134999999999998,23.368,-27.089999999999996,25.0425,0.0,1782.044,-0.254999999999999,100.0,27.572,26.959,42.388,41.908,0.0,0.0,100.0,0.0,0.0,0.0,0.0,3043.0,3092.1,3845.75,4011.1000000000004,304.358,303.6863333333333,314.33033333333333,313.67375,19.189875,17.7105,19.232,18.6846,314.999998,314.999998,324.999988,324.999988,99.56284285714285,99.50856666666667,99.57335714285715,99.55164285714285,0.051000000000000156,-0.06833333333333336,-0.14249999999999996,0.08533333333333326,-0.045000000000001705,-0.06666666666666998,1.714,1.7045,39.687,30.4405,39.95,36.528999999999996,60.974000000000004,37.2005,65.6865,57.319,57.995999999999995,35.9195,63.362,54.804,57.626999999999995,35.5385,63.991,54.6405,-0.09699999999999998,-0.046499999999999986,0.10590500000000001,0.105635,0.0,209.64499999999998,209.64,206.92333333333335,206.92333333333335,0.0,0.0
12,0.0,0.0,0.0,1.0,1.0,0.0,0.0,1.0,0.0,100.0,1.0,1.1856,26.0,0.0,0.0,0.0,59.999996,0.0,26.0,26.0,26.0,26.0,-0.029000000000000026,0.29310000000000014,0.009033333333333332,291.931,-2.7156000000000002,-2.6875999999999998,-1.5390000000000001,-1.5408,-235.59,215.6725,190.744875,0.0,0.0,0.0,0.0,0.025466666666666526,-5.498166666666667,-5.498166666666667,-0.5486,0.3973333333333333,0.0016666666666667052,-0.7460000000000004,67.094,-0.015600000000000001,-0.21127500000000002,-0.16000000000000014,100.0,1.0,1.0,207.24666666666667,0.0,0.0,0.0,0.0,0.0,0.0,0.0,8784.4,0.0,55.0,5.0,241.50666666666666,0.0,0.0,0.0,0.0,0.0,0.0,1.0,0.0,0.6089999999999982,0.6089999999999982,0.0,0.0,0.0,55.0,616.79921,10000.0,85.000001,85.000001,85.000001,85.000001,395.0,0.0,0.0,0.0,1.0,166.665,51.636,51.636,47.18,47.18,34.0,-27.009999999999998,20.822000000000003,-28.68,27.54,0.0,1781.993,0.620000000000001,100.0,27.472,27.378,42.192,42.018,0.0,0.0,100.0,0.0,0.0,0.0,0.0,3154.714285714286,3052.4,4157.875,4144.8,304.1655,303.6,313.5606666666667,313.255,19.201125,17.717,19.24425,18.6951,314.999998,314.999998,324.999988,324.999988,99.56285714285714,99.50856666666667,99.57352857142857,99.55178571428571,0.010499999999999954,-0.12366666666666659,-0.12316666666666665,0.10349999999999993,-0.06333333333333258,-0.041666666666671404,1.6505,1.6505,39.757,30.481,40.025999999999996,36.594,60.96,37.2475,65.7295,57.3885,57.983000000000004,35.962,63.400999999999996,54.87,57.611999999999995,35.58,64.027,54.706,-0.04249999999999998,-0.11549999999999994,0.10540500000000001,0.10547500000000001,0.0,210.115,210.10000000000002,207.24666666666667,207.24666666666667,0.0,0.0
13,0.0,0.0,0.0,1.0,1.0,0.0,0.0,1.0,0.0,100.0,1.0,1.1856,26.0,0.0,0.0,0.0,59.999996,0.0,26.0,26.0,26.0,26.0,0.010666666666666602,0.28259999999999996,0.029400000000000003,291.595,-2.6768,-2.7086,-1.564,-1.5522,-232.16,215.6625,190.72325,0.0,0.0,0.0,0.0,0.026899999999999924,-5.498166666666667,-5.498166666666667,-0.5414,-0.20566666666666666,-0.0007777777777779882,1.2690000000000001,67.236,-0.0119,-0.21752500000000002,-0.20800000000000018,100.0,1.0,1.0,207.59333333333333,0.0,0.0,0.0,0.0,0.0,0.0,0.0,8799.1,0.0,55.0,5.0,242.01999999999998,1.0,0.0,0.0,0.0,0.0,0.0,1.0,0.0,0.6600000000000001,0.6600000000000001,0.0,0.0,1.0,55.0,616.79921,10000.0,85.000001,85.000001,85.000001,85.000001,395.0,0.0,0.0,0.0,1.0,166.665,51.498,51.498,46.951,46.951,34.0,-22.697499999999998,24.964,-28.64666666666666,29.6125,0.0,1781.941,-0.4450000000000003,100.0,27.896,27.346,42.637,42.367000000000004,0.0,0.0,100.0,0.0,0.0,0.0,0.0,3068.285714285714,3093.7,4134.625,4304.5,304.2485,303.669,313.47766666666666,312.86675,19.21225,17.7235,19.2565,18.7058,314.999998,314.999998,324.999988,324.999988,99.56285714285714,99.50856666666667,99.57367142857143,99.55194285714286,0.09050000000000002,-0.03200000000000003,-0.1143333333333334,0.11283333333333334,-0.04833333333333201,-0.061666666666667425,1.6275,1.607,39.826,30.522,40.102999999999994,36.661,60.947,37.2935,65.7745,57.4615,57.971000000000004,36.004,63.442499999999995,54.939,57.599000000000004,35.621,64.066,54.775,-0.11149999999999993,-0.03550000000000009,0.10565000000000001,0.10574000000000001,0.0,210.54500000000002,210.525,207.59333333333333,207.59333333333333,0.0,0.0
14,0.0,0.0,0.0,1.0,1.0,0.0,0.0,1.0,0.0,100.0,1.0,1.1856,26.0,0.0,0.0,0.0,59.999996,0.0,26.0,26.0,26.0,26.0,0.0086666666666666,0.28100000000000014,-0.016433333333333335,291.794,-2.7015000000000002,-2.7079,-1.56905,-1.5369000000000002,-228.93,215.6525,190.70325,0.0,0.0,0.0,0.0,0.028766666666666607,-5.498166666666667,-5.498166666666667,-0.5559000000000001,-0.12033333333333333,0.023777777777777898,1.0939999999999999,67.366,-0.0017000000000000001,-0.23395000000000002,-0.39000000000000057,100.0,1.0,1.0,208.10333333333335,0.0,0.0,0.0,0.0,0.0,0.0,0.0,8820.7,0.0,55.0,5.0,242.49333333333334,0.0,0.0,0.0,0.0,0.0,0.0,1.0,0.0,0.7079999999999984,0.7079999999999984,0.0,0.0,0.0,55.0,616.79921,10000.0,85.000001,85.000001,85.000001,85.000001,395.0,0.0,0.0,0.0,1.0,166.665,51.391999999999996,51.391999999999996,47.302,47.302,34.0,-22.0775,25.451999999999998,-26.433333333333337,28.265,0.0,1781.894,-0.48999999999999844,100.0,27.869,27.572,42.551,42.537,0.0,0.0,100.0,0.0,0.0,0.0,0.0,3018.714285714286,3139.1,3946.25,4135.4,304.424,303.43233333333336,314.0323333333333,313.33,19.22275,17.7297,19.268,18.7158,314.999998,314.999998,324.999988,324.999988,99.56287142857143,99.50858333333333,99.57382857142858,99.55208571428571,0.10050000000000026,-0.03266666666666662,-0.10433333333333339,0.12200000000000011,-0.060000000000002274,-0.06666666666666998,1.678,1.6604999999999999,39.891999999999996,30.560499999999998,40.175,36.724000000000004,60.935,37.337,65.814,57.5275,57.96,36.0435,63.479,55.001999999999995,57.586,35.6595,64.099,54.8375,-0.11849999999999994,-0.03750000000000009,0.10618500000000002,0.10726000000000001,0.0,210.95499999999998,210.95,208.10333333333335,208.10333333333335,0.0,0.0
15,0.0,0.0,0.0,1.0,1.0,0.0,0.0,1.0,0.0,100.0,1.0,1.1856,26.0,0.0,0.0,0.0,59.999996,0.0,26.0,26.0,26.0,26.0,0.03388888888888886,0.27590000000000003,-0.03286666666666667,291.733,-2.7033,-2.6753,-1.5827499999999999,-1.5495999999999999,-225.49,215.64249999999998,190.6815,0.0,0.0,0.0,0.0,0.03076666666666661,-5.498166666666667,-5.498166666666667,-0.5472,0.24933333333333335,0.03455555555555567,-0.9030000000000005,67.507,0.0115,-0.21710000000000002,-0.3379999999999992,100.0,1.0,1.0,208.50333333333333,0.0,0.0,0.0,0.0,0.0,0.0,0.0,8837.7,0.0,55.0,5.0,242.99666666666667,1.0,0.0,0.0,0.0,0.0,0.0,1.0,0.0,0.7590000000000003,0.7590000000000003,0.0,0.0,1.0,55.0,616.79921,10000.0,85.000001,85.000001,85.000001,85.000001,395.0,0.0,0.0,0.0,1.0,166.665,51.514,51.514,47.15,47.15,34.0,-22.7175,23.665999999999997,-27.316666666666663,29.425,0.0,1781.842,-0.3099999999999987,100.0,27.754,27.842,42.317,42.746,0.0,0.0,100.0,0.0,0.0,0.0,0.0,3049.857142857143,2993.9,4065.625,4160.7,304.538,303.72866666666664,313.811,313.13975,19.23375,17.7363,19.280124999999998,18.7265,314.999998,314.999998,324.999988,324.999988,99.56288571428571,99.50858333333333,99.57397142857143,99.55224285714286,0.08674999999999988,-0.041999999999999926,-0.09933333333333338,0.13200000000000012,-0.05666666666667197,-0.051666666666669414,1.654,1.6345,39.961,30.6015,40.251000000000005,36.791,60.922,37.382999999999996,65.855,57.599000000000004,57.948,36.085,63.5165,55.0695,57.573,35.7005,64.1335,54.905,-0.10099999999999998,-0.050000000000000044,0.10895,0.10890500000000002,0.0,211.375,211.39499999999998,208.50333333333333,208.50333333333333,0.0,0.0
16,0.0,0.0,0.0,1.0,1.0,0.0,0.0,1.0,0.0,100.0,1.0,1.1856,26.0,0.0,0.0,0.0,59.999996,0.0,26.0,26.0,26.0,26.0,0.02300000000000013,0.27080000000000015,-0.010400000000000001,291.58,-2.764,-2.6235,-1.55955,-1.5483,-222.25,215.635,190.66075,0.0,0.0,0.0,0.0,0.03266666666666651,-5.498166666666667,-5.498166666666667,-0.5598000000000001,-0.54,0.025666666666666726,-1.085,67.639,0.0159,-0.22855,-0.14199999999999946,100.0,1.0,1.0,208.87666666666667,0.0,0.0,0.0,0.0,0.0,0.0,0.0,8853.5,0.0,55.0,5.0,243.47,0.0,0.0,0.0,0.0,0.0,0.0,1.0,0.0,0.8069999999999986,0.8069999999999986,0.0,0.0,0.0,55.0,616.79921,10000.0,85.000001,85.000001,85.000001,85.000001,395.0,0.0,0.0,0.0,1.0,166.665,51.285,51.285,46.799,46.799,34.0,-24.1925,24.586,-27.133333333333333,28.2875,0.0,1781.794,-0.2699999999999996,100.0,27.519,27.841,42.573,42.88,0.0,0.0,100.0,0.0,0.0,0.0,0.0,3165.857142857143,3114.1,4085.875,4067.0,304.2395,303.4,313.72766666666666,313.377,19.244,17.7425,19.29175,18.7365,314.999998,314.999998,324.999988,324.999988,99.5629,99.5086,99.57412857142857,99.55238571428572,0.08700000000000019,-0.03300000000000003,-0.09666666666666657,0.12549999999999994,-0.046666666666666856,-0.045000000000001705,1.6395,1.643,40.025,30.6405,40.323,36.852999999999994,60.908,37.426,65.8965,57.6655,57.934,36.1245,63.5545,55.132999999999996,57.558,35.739,64.169,54.968,-0.09150000000000003,-0.04699999999999993,0.10496000000000001,0.10835000000000002,0.0,211.765,211.765,208.87666666666667,208.87666666666667,0.0,0.0
17,0.0,0.0,0.0,1.0,1.0,0.0,0.0,1.0,0.0,100.0,1.0,1.1856,26.0,0.0,0.0,0.0,59.999996,0.0,26.0,26.0,26.0,26.0,0.007888888888888834,0.2903,0.012933333333333335,291.29,-2.7216,-2.6103,-1.5998,-1.5110999999999999,-218.8,215.6275,190.6385,0.0,0.0,0.0,0.0,0.03466666666666651,-5.498166666666667,-5.498166666666667,-0.5572,0.2566666666666667,0.004999999999999893,0.42399999999999993,67.777,0.015300000000000001,-0.219425,-0.21199999999999974,100.0,1.0,1.0,209.2866666666667,0.0,0.0,0.0,0.0,0.0,0.0,0.0,8871.0,0.0,55.0,5.0,243.97,1.0,0.0,0.0,0.0,0.0,0.0,1.0,0.0,0.8580000000000005,0.8580000000000005,0.0,0.0,1.0,55.0,616.79921,10000.0,85.000001,85.000001,85.000001,85.000001,395.0,0.0,0.0,0.0,1.0,333.33500000000004,51.01,51.01,46.707,46.707,34.0,-23.3875,24.902,-28.619999999999997,29.677500000000002,0.0,1781.743,-0.22500000000000142,100.0,28.058,27.835,42.565,42.734,0.0,0.0,100.0,0.0,0.0,0.0,0.0,3143.857142857143,3177.2,4227.875,4223.9,304.0775,303.376,313.382,313.15325,19.255125,17.749200000000002,19.303875,18.7472,314.999998,314.999998,324.999988,324.999988,99.5629,99.5086,99.57428571428571,99.55255714285714,0.09799999999999986,-0.03166666666666662,-0.09316666666666662,0.1413333333333333,-0.045000000000001705,-0.06833333333332803,1.6415,1.6395,40.095,30.682499999999997,40.399,36.92,60.896,37.473,65.938,57.7355,57.923,36.167,63.5925,55.199,57.545,35.7805,64.2035,55.034,-0.09550000000000003,-0.06000000000000005,0.108185,0.110505,0.0,212.215,212.22500000000002,209.2866666666667,209.2866666666667,0.0,0.0
18,0.0,0.0,0.0,1.0,1.0,0.0,0.0,1.0,0.0,100.0,1.0,1.1856,26.0,0.0,0.0,0.0,59.999996,0.0,26.0,26.0,26.0,26.0,-0.003444444444444472,0.28049999999999997,0.016666666666666666,291.168,-2.735,-2.5992,-1.5981,-1.4701,-215.54,215.62,190.617375,0.0,0.0,0.0,0.0,0.036566666666666525,-5.498166666666667,-5.498166666666667,-0.5641,-0.3453333333333333,0.012444444444444258,0.952,67.908,0.0123,-0.227825,-0.10999999999999943,100.0,1.0,1.0,209.65333333333334,0.0,0.0,0.0,0.0,0.0,0.0,0.0,8886.5,0.0,55.0,5.0,244.44,0.0,0.0,0.0,0.0,0.0,0.0,1.0,0.0,0.9059999999999988,0.9059999999999988,0.0,0.0,0.0,55.0,616.79921,10000.0,85.000001,85.000001,85.000001,85.000001,395.0,0.0,0.0,0.0,1.0,333.33500000000004,50.919,50.919,46.509,46.509,34.0,-23.8475,25.5,-28.556666666666665,28.795,0.0,1781.695,-0.23499999999999943,100.0,27.996,27.761,42.817,42.908,0.0,0.0,100.0,0.0,0.0,0.0,0.0,3154.0,3270.6,4160.75,4261.4,304.0845,303.124,313.49733333333336,313.0245,19.2655,17.7554,19.3155,18.7573,314.999998,314.999998,324.999988,324.999988,99.56291428571429,99.5086,99.57442857142857,99.5527,0.09149999999999991,-0.03300000000000003,-0.10150000000000003,0.1283333333333332,-0.041666666666671404,-0.061666666666667425,1.6415,1.6365,40.159,30.7215,40.472,36.983000000000004,60.884,37.5155,65.979,57.802,57.912,36.206,63.6305,55.2625,57.532,35.8185,64.2385,55.0975,-0.09850000000000003,-0.06099999999999994,0.10759500000000001,0.112515,0.0,212.615,212.585,209.65333333333334,209.65333333333334,0.0,0.0
19,0.0,0.0,0.0,1.0,1.0,0.0,0.0,1.0,0.0,100.0,1.0,1.1856,26.0,0.0,0.0,0.0,59.999996,0.0,26.0,26.0,26.0,26.0,0.012666666666666604,0.2854000000000001,0.06593333333333334,290.878,-2.6593,-2.6973000000000003,-1.532,-1.4564,-212.07,215.6125,190.594875,0.0,0.0,0.0,0.0,0.03856666666666653,-5.498166666666667,-5.498166666666667,-0.5583,0.6103333333333334,0.017111111111111077,-0.8159999999999998,68.044,0.0083,-0.222275,-0.017999999999998906,100.0,1.0,1.0,210.07333333333332,0.0,0.0,0.0,0.0,0.0,0.0,0.0,8904.2,0.0,55.0,5.0,244.93,1.0,0.0,0.0,0.0,0.0,0.0,1.0,0.0,0.9570000000000007,0.9570000000000007,0.0,0.0,1.0,55.0,616.79921,10000.0,85.000001,85.000001,85.000001,85.000001,395.0,0.0,0.0,0.0,1.0,333.33500000000004,50.507,50.507,46.616,46.616,34.0,-24.1325,24.394,-28.509999999999998,28.8325,0.0,1781.643,-0.21499999999999986,100.0,28.311,28.341,42.611000000000004,43.032,0.0,0.0,100.0,0.0,0.0,0.0,0.0,3218.714285714286,3093.7,4197.625,4371.6,303.9095,303.30033333333336,313.4596666666667,312.695,19.276625,17.7622,19.327625,18.768,314.999998,314.999998,324.999988,324.999988,99.56292857142857,99.50861666666667,99.57457142857143,99.55284285714286,0.0807500000000001,-0.05366666666666664,-0.11216666666666664,0.11483333333333334,-0.04833333333333201,-0.07000000000000028,1.623,1.6280000000000001,40.229,30.7635,40.547,37.05,60.872,37.564,66.0195,57.873,57.900999999999996,36.25,63.667500000000004,55.33,57.519999999999996,35.8615,64.273,55.164500000000004,-0.09150000000000003,-0.06000000000000005,0.11061000000000001,0.111195,0.0,213.075,213.05,210.07333333333332,210.07333333333332,0.0,0.0
20,0.0,0.0,0.0,1.0,1.0,0.0,0.0,1.0,0.0,100.0,1.0,1.1856,26.0,0.0,0.0,0.0,59.999996,0.0,26.0,26.0,26.0,26.0,0.014333333333333309,0.25690000000000013,0.007233333333333333,291.122,-2.749,-2.6564,-1.5357500000000002,-1.5808,-208.6,215.60500000000002,190.572375,0.0,0.0,0.0,0.0,0.04059999999999997,-5.498166666666667,-5.498166666666667,-0.5588000000000001,-0.8393333333333334,0.01766666666666672,0.6029999999999998,68.18299999999999,0.0037,-0.22892500000000002,-0.049999999999998934,100.0,1.0,1.0,210.44333333333333,0.0,0.0,0.0,0.0,0.0,0.0,0.0,8919.9,0.0,55.0,5.0,245.43,0.0,0.0,0.0,0.0,0.0,0.0,0.0,0.0,1.0079999999999991,1.0079999999999991,0.0,0.0,0.0,55.0,616.79921,10000.0,85.000001,85.000001,85.000001,85.000001,395.0,0.0,0.0,0.0,1.0,333.33500000000004,51.254,51.254,46.097,46.097,34.0,-22.7375,24.344,-27.659999999999997,30.052500000000002,0.0,1781.592,-0.21999999999999886,100.0,28.106,27.93,43.293,43.359,0.0,0.0,100.0,0.0,0.0,0.0,0.0,3016.5714285714284,3121.7,4134.0,4204.3,304.5575,303.5966666666667,313.4836666666667,313.04175,19.2875,17.7688,19.34,18.7788,314.999998,314.999998,324.999988,324.999988,99.56294285714286,99.50861666666667,99.57474285714285,99.55301428571428,0.09224999999999994,-0.042333333333333334,-0.09950000000000003,0.12433333333333318,-0.03833333333332689,-0.05333333333332746,1.6025,1.585,40.297,30.805,40.625,37.117999999999995,60.858000000000004,37.6095,66.0645,57.945,57.887,36.2915,63.709,55.3985,57.504999999999995,35.9025,64.311,55.2325,-0.09450000000000003,-0.06400000000000006,0.10739000000000001,0.105565,0.0,213.45,213.445,210.44333333333333,210.44333333333333,0.0,0.0
21,0.0,0.0,0.0,1.0,1.0,0.0,0.0,1.0,0.0,100.0,1.0,1.1856,26.0,0.0,0.0,0.0,59.999996,0.0,26.0,26.0,26.0,26.0,-0.008000000000000007,0.27470000000000017,-0.07446666666666667,291.489,-2.7173,-2.6629,-1.60655,-1.5404,-205.32,215.5975,190.550875,0.0,0.0,0.0,0.0,0.04249999999999998,-5.498166666666667,-5.498166666666667,-0.5812,0.06,0.0029999999999998916,0.363,68.30799999999999,0.0017000000000000001,-0.232625,-0.0779999999999994,100.0,1.0,1.0,211.0233333333333,0.0,0.0,0.0,0.0,0.0,0.0,0.0,8944.6,0.0,55.0,5.0,245.88,1.0,0.0,0.0,0.0,0.0,0.0,0.0,0.0,1.056000000000001,1.056000000000001,0.0,0.0,1.0,55.0,616.79921,10000.0,85.000001,85.000001,85.000001,85.000001,395.0,0.0,0.0,0.0,1.0,333.33500000000004,51.041,51.041,47.089,47.089,34.0,-23.607499999999998,24.338,-27.28333333333333,27.2,0.0,1781.544,-0.21999999999999886,100.0,28.179,27.879,42.869,43.009,0.0,0.0,100.0,0.0,0.0,0.0,0.0,3126.5714285714284,3138.2,4018.0,4004.6000000000004,304.153,303.55733333333336,313.95933333333335,313.73075,19.297875,17.7751,19.35125,18.7888,314.999998,314.999998,324.999988,324.999988,99.56295714285714,99.50863333333334,99.57488571428571,99.55315714285715,0.0887500000000001,-0.04733333333333334,-0.10283333333333333,0.12366666666666681,-0.05666666666667197,-0.04999999999999716,1.694,1.6945000000000001,40.361000000000004,30.8445,40.696,37.18,60.845,37.6535,66.101,58.007999999999996,57.876000000000005,36.3315,63.7425,55.458,57.492000000000004,35.9415,64.3415,55.292,-0.09499999999999997,-0.06600000000000006,0.10136,0.110225,0.0,213.85500000000002,213.84,211.0233333333333,211.0233333333333,0.0,0.0
22,0.0,0.0,0.0,1.0,1.0,0.0,0.0,1.0,0.0,100.0,1.0,1.1856,26.0,0.0,0.0,0.0,59.999996,0.0,26.0,26.0,26.0,26.0,0.013000000000000123,0.2842,0.006200000000000001,291.122,-2.7771,-2.7121,-1.59935,-1.5247000000000002,-201.84,215.59,190.52725,0.0,0.0,0.0,0.0,0.044533333333333314,-5.498166666666667,-5.498166666666667,-0.5635,0.21,0.009333333333333194,-0.4350000000000005,68.445,-0.0002,-0.20722500000000002,-0.03599999999999959,100.0,1.0,1.0,211.28333333333333,0.0,0.0,0.0,0.0,0.0,0.0,0.0,8955.6,0.0,55.0,5.0,246.37666666666667,0.0,0.0,0.0,0.0,0.0,0.0,0.0,0.0,1.1069999999999993,1.1069999999999993,0.0,0.0,0.0,55.0,616.79921,10000.0,85.000001,85.000001,85.000001,85.000001,395.0,0.0,0.0,0.0,1.0,333.33500000000004,51.3,51.3,46.173,46.173,34.0,-23.8925,23.412,-30.333333333333336,29.23,0.0,1781.493,-0.3000000000000007,100.0,28.092,28.113,42.928,43.137,0.0,0.0,100.0,0.0,0.0,0.0,0.0,3102.5714285714284,2974.7,4284.0,4291.2,304.525,303.79533333333336,313.28266666666667,312.916,19.308875,17.7818,19.3635,18.799500000000002,314.999998,314.999998,324.999988,324.999988,99.56297142857143,99.50863333333334,99.57504285714286,99.55331428571428,0.08274999999999988,-0.052999999999999936,-0.1153333333333334,0.11383333333333323,-0.046666666666666856,-0.060000000000002274,1.617,1.605,40.43,30.886,40.772,37.247,60.833,37.7,66.1445,58.0775,57.864000000000004,36.374,63.7825,55.5245,57.479,35.983000000000004,64.3785,55.358000000000004,-0.10150000000000003,-0.052999999999999936,0.105785,0.11708500000000001,0.0,214.29500000000002,214.28,211.28333333333333,211.28333333333333,0.0,0.0
23,0.0,0.0,0.0,1.0,1.0,0.0,0.0,1.0,0.0,100.0,1.0,1.1856,26.0,0.0,0.0,0.0,59.999996,0.0,26.0,26.0,26.0,26.0,-0.0024444444444444713,0.2803,-0.023533333333333337,290.909,-2.6536,-2.658,-1.6556000000000002,-1.4989,-198.14,215.58249999999998,190.502375,0.0,0.0,0.0,0.0,0.04666666666666652,-5.498166666666667,-5.498166666666667,-0.5782,-0.23733333333333334,0.010333333333333306,-0.7050000000000001,68.588,0.0023,-0.23085,-0.06799999999999962,100.0,1.0,1.0,211.76,0.0,0.0,0.0,0.0,0.0,0.0,0.0,8975.8,0.0,55.0,5.0,246.89,1.0,0.0,0.0,0.0,0.0,0.0,0.0,0.0,1.1610000000000014,1.1610000000000014,0.0,0.0,1.0,55.0,616.79921,10000.0,85.000001,85.000001,85.000001,85.000001,395.0,0.0,0.0,0.0,1.0,166.665,50.552,50.552,46.631,46.631,34.0,-24.3075,24.218,-29.78333333333333,27.105,0.0,1781.441,-0.2699999999999996,100.0,28.304000000000002,28.221,43.095,43.411,0.0,0.0,100.0,0.0,0.0,0.0,0.0,3276.285714285714,3088.5,4177.875,4122.8,303.7105,303.4803333333333,313.6086666666667,313.3645,19.320375,17.788899999999998,19.3765,18.811,314.999998,314.999998,324.999988,324.999988,99.56298571428572,99.50865,99.57521428571428,99.55348571428571,0.08775000000000022,-0.04499999999999993,-0.11099999999999999,0.10899999999999999,-0.060000000000002274,-0.061666666666667425,1.652,1.651,40.503,30.930999999999997,40.852999999999994,37.319,60.82,37.75,66.1895,58.1535,57.852000000000004,36.4195,63.824,55.5965,57.465,36.0275,64.4165,55.4295,-0.10399999999999998,-0.05899999999999994,0.10197500000000001,0.10556000000000001,0.0,214.71,214.715,211.76,211.76,0.0,0.0
24,0.0,0.0,0.0,1.0,1.0,0.0,0.0,1.0,0.0,100.0,1.0,1.1856,26.0,0.0,0.0,0.0,59.999996,0.0,26.0,26.0,26.0,26.0,0.007000000000000117,0.2812000000000001,-0.029,291.26,-2.7085,-2.667,-1.53965,-1.5276,-194.84,215.5775,190.479875,0.0,0.0,0.0,0.0,0.04859999999999998,-5.498166666666667,-5.498166666666667,-0.5907,-0.376,0.018777777777777782,-0.16500000000000004,68.714,0.0056,-0.22970000000000002,-0.08999999999999986,100.0,1.0,1.0,212.13333333333333,0.0,0.0,0.0,0.0,0.0,0.0,0.0,8991.6,0.0,55.0,5.0,247.34333333333336,0.0,0.0,0.0,0.0,0.0,0.0,0.0,0.0,1.2089999999999996,1.2089999999999996,0.0,0.0,0.0,55.0,616.79921,10000.0,85.000001,85.000001,85.000001,85.000001,395.0,0.0,0.0,0.0,1.0,166.665,51.391999999999996,51.391999999999996,46.326,46.326,34.0,-23.13,23.18,-28.28666666666666,27.5925,0.0,1781.392,-0.259999999999998,100.0,28.135,28.036,43.094,43.371,0.0,0.0,100.0,0.0,0.0,0.0,0.0,3047.857142857143,2991.5,4190.125,4125.3,304.5575,303.87,313.4506666666667,313.358,19.330625,17.7952,19.387999999999998,18.8211,314.999998,314.999998,324.999988,324.999988,99.56298571428572,99.50865,99.57535714285714,99.55362857142858,0.07874999999999988,-0.04999999999999993,-0.10699999999999998,0.11033333333333317,-0.051666666666669414,-0.060000000000002274,1.6435,1.649,40.566,30.9695,40.925,37.382,60.807,37.792500000000004,66.2285,58.218,57.84,36.458,63.8595,55.658,57.452,36.0655,64.449,55.4905,-0.09950000000000003,-0.05800000000000005,0.10314500000000001,0.10572500000000001,0.0,215.115,215.10000000000002,212.13333333333333,212.13333333333333,0.0,0.0
25,0.0,0.0,0.0,1.0,1.0,0.0,0.0,1.0,0.0,100.0,1.0,1.1856,26.0,0.0,0.0,0.0,59.999996,0.0,26.0,26.0,26.0,26.0,0.010888888888888948,0.26249999999999996,-0.028,291.10699999999997,-2.755,-2.6274,-1.5915,-1.529,-191.54,215.57,190.456,0.0,0.0,0.0,0.0,0.05049999999999999,-5.498166666666667,-5.498166666666667,-0.6099,-0.059666666666666666,0.02588888888888885,-0.8760000000000003,68.839,0.0055000000000000005,-0.226075,-0.09399999999999942,100.0,1.0,1.0,212.59333333333333,0.0,0.0,0.0,0.0,0.0,0.0,0.0,9011.1,0.0,55.0,5.0,247.79333333333335,1.0,0.0,0.0,0.0,0.0,0.0,0.0,0.0,1.256999999999998,1.256999999999998,0.0,0.0,1.0,55.0,616.79921,10000.0,85.000001,85.000001,85.000001,85.000001,395.0,0.0,0.0,0.0,1.0,166.665,50.583,50.583,46.814,46.814,34.0,-25.21,25.21,-27.563333333333333,27.1825,0.0,1781.344,-0.3150000000000013,100.0,28.01,28.17,42.887,43.185,0.0,0.0,100.0,0.0,0.0,0.0,0.0,3300.714285714286,3226.6,4009.25,4090.4,303.8765,303.053,314.00666666666666,313.47175,19.34075,17.8015,19.39925,18.8312,314.999998,314.999998,324.999988,324.999988,99.563,99.50865,99.5755,99.55377142857142,0.08899999999999997,-0.04299999999999993,-0.11216666666666664,0.10899999999999999,-0.04999999999999716,-0.07166666666666544,1.6715,1.669,40.629999999999995,31.0095,40.995999999999995,37.445,60.793,37.8365,66.2655,58.2815,57.828,36.498,63.8935,55.7185,57.437,36.1045,64.48,55.5505,-0.10599999999999998,-0.0535000000000001,0.11063,0.09764,0.0,215.49,215.505,212.59333333333333,212.59333333333333,0.0,0.0
26,0.0,0.0,0.0,1.0,1.0,0.0,0.0,1.0,0.0,100.0,1.0,1.1856,26.0,0.0,0.0,0.0,59.999996,0.0,26.0,26.0,26.0,26.0,0.005222222222222239,0.2803,0.0839,290.009,-2.6769,-2.724,-1.61545,-1.5209000000000001,-188.03,215.565,190.430375,0.0,0.0,0.0,0.0,0.05256666666666654,-5.498166666666667,-5.498166666666667,-0.5809000000000001,0.5786666666666667,0.012666666666666604,0.665,68.975,0.0088,-0.20675000000000002,-0.20999999999999908,100.0,1.0,1.0,212.77666666666667,0.0,0.0,0.0,0.0,0.0,0.0,0.0,9018.8,0.0,55.0,5.0,248.28,0.0,0.0,0.0,0.0,0.0,0.0,0.0,0.0,1.3079999999999998,1.3079999999999998,0.0,0.0,0.0,55.0,616.79921,10000.0,85.000001,85.000001,85.000001,85.000001,395.0,0.0,0.0,0.0,1.0,333.33500000000004,50.095,50.095,45.319,45.319,34.0,-23.2925,25.594,-31.85,32.0225,0.0,1781.291,-0.3249999999999993,100.0,28.985,28.672,43.368,43.471000000000004,0.0,0.0,100.0,0.0,0.0,0.0,0.0,3182.5714285714284,3158.2,4497.375,4512.6,303.914,303.351,312.673,312.3835,19.35175,17.8085,19.411625,18.842,314.999998,314.999998,324.999988,324.999988,99.56301428571429,99.50866666666667,99.57565714285714,99.55394285714286,0.10024999999999995,-0.039000000000000035,-0.10016666666666663,0.1293333333333333,-0.03333333333333144,-0.06833333333332803,1.57,1.56,40.699,31.052999999999997,41.072,37.513,60.784,37.885999999999996,66.309,58.353,57.819,36.543,63.9335,55.786500000000004,57.427,36.1485,64.517,55.618,-0.10399999999999998,-0.05249999999999999,0.10626000000000001,0.10724,0.0,215.945,215.94,212.77666666666667,212.77666666666667,0.0,0.0
27,0.0,0.0,0.0,1.0,1.0,0.0,0.0,1.0,0.0,100.0,1.0,1.1856,26.0,0.0,0.0,0.0,59.999996,0.0,26.0,26.0,26.0,26.0,0.028555555555555667,0.256,-0.027533333333333333,290.543,-2.7557,-2.6536,-1.61475,-1.6098,-184.5,215.56,190.40575,0.0,0.0,0.0,0.0,0.05459999999999998,-5.498166666666667,-5.498166666666667,-0.6015,-0.9223333333333333,0.01822222222222214,-0.6100000000000003,69.106,0.0068000000000000005,-0.24630000000000002,-0.11999999999999922,100.0,1.0,1.0,213.29000000000002,0.0,0.0,0.0,0.0,0.0,0.0,0.0,9040.6,0.0,55.0,5.0,248.75666666666666,1.0,0.0,0.0,0.0,0.0,0.0,0.0,0.0,1.3589999999999982,1.3589999999999982,0.0,0.0,1.0,55.0,616.79921,10000.0,85.000001,85.000001,85.000001,85.000001,395.0,0.0,0.0,0.0,1.0,166.665,50.598,50.598,45.547,45.547,34.0,-23.544999999999998,24.345999999999997,-29.113333333333337,28.7075,0.0,1781.242,-0.379999999999999,100.0,28.490000000000002,28.733,43.857,44.108000000000004,0.0,0.0,100.0,0.0,0.0,0.0,0.0,3142.714285714286,3109.7,4177.25,4047.3,304.3805,303.41966666666667,313.5643333333333,313.4595,19.362625,17.8153,19.424,18.853,314.999998,314.999998,324.999988,324.999988,99.56302857142857,99.50866666666667,99.57581428571429,99.5541,0.09600000000000009,-0.04566666666666663,-0.10499999999999998,0.1180000000000001,-0.03999999999999915,-0.05666666666667197,1.629,1.621,40.766,31.0955,41.15,37.581,60.771,37.9325,66.3535,58.425,57.807,36.585499999999996,63.9745,55.8545,57.413,36.19,64.5545,55.6855,-0.11199999999999999,-0.052000000000000046,0.10593500000000002,0.10874,0.0,216.29000000000002,216.29000000000002,213.29000000000002,213.29000000000002,0.0,0.0
28,0.0,0.0,0.0,1.0,1.0,0.0,0.0,1.0,0.0,100.0,1.0,1.1856,26.0,0.0,0.0,0.0,59.999996,0.0,26.0,26.0,26.0,26.0,0.031888888888888856,0.26370000000000005,-0.0728,290.833,-2.6872,-2.6503,-1.62805,-1.562,-181.18,215.555,190.382125,0.0,0.0,0.0,0.0,0.056533333333333324,-5.498166666666667,-5.498166666666667,-0.6124,0.4916666666666667,0.006333333333333302,-0.8860000000000001,69.227,0.0091,-0.23175,-0.20199999999999996,100.0,1.0,1.0,213.82,0.0,0.0,0.0,0.0,0.0,0.0,0.0,9063.1,0.0,55.0,5.0,249.19,0.0,0.0,0.0,0.0,0.0,0.0,0.0,0.0,1.407,1.407,0.0,0.0,0.0,55.0,616.79921,10000.0,85.000001,85.000001,85.000001,85.000001,395.0,0.0,0.0,0.0,1.0,333.33500000000004,50.354,50.354,46.677,46.677,34.0,-23.27,24.458,-27.456666666666663,28.375,0.0,1781.193,-0.3949999999999996,100.0,28.592,28.663,43.226,43.623000000000005,0.0,0.0,100.0,0.0,0.0,0.0,0.0,3222.4285714285716,3099.2,4031.125,4046.5,303.9765,303.44166666666666,314.04266666666666,313.60075,19.372875,17.8217,19.43525,18.8631,314.999998,314.999998,324.999988,324.999988,99.56304285714286,99.50866666666667,99.57597142857144,99.55424285714285,0.10625000000000018,-0.04066666666666663,-0.09966666666666657,0.13166666666666682,-0.05833333333333002,-0.05333333333332746,1.686,1.672,40.83,31.136,41.22,37.644,60.76,37.977000000000004,66.388,58.4875,57.797,36.626,64.006,55.914,57.402,36.2295,64.583,55.7445,-0.11849999999999994,-0.046499999999999986,0.106105,0.11270000000000001,0.0,216.71,216.71,213.82,213.82,0.0,0.0
29,0.0,0.0,0.0,1.0,1.0,0.0,0.0,1.0,0.0,100.0,1.0,1.1856,26.0,0.0,0.0,0.0,59.999996,0.0,26.0,26.0,26.0,26.0,0.030000000000000027,0.2654000000000001,-0.014766666666666666,290.558,-2.6611,-2.7143,-1.5707499999999999,-1.5427,-177.64999999999998,215.55,190.35575,0.0,0.0,0.0,0.0,0.058599999999999985,-5.498166666666667,-5.498166666666667,-0.6083000000000001,-0.5373333333333333,0.0058888888888888324,0.911,69.362,0.014100000000000001,-0.21752500000000002,-0.347999999999999,100.0,1.0,1.0,214.00666666666666,0.0,0.0,0.0,0.0,0.0,0.0,0.0,9071.0,0.0,55.0,5.0,249.67666666666668,1.0,0.0,0.0,0.0,0.0,0.0,0.0,0.0,1.4579999999999984,1.4579999999999984,0.0,0.0,1.0,55.0,616.79921,10000.0,85.000001,85.000001,85.000001,85.000001,395.0,0.0,0.0,0.0,1.0,166.665,50.873,50.873,45.578,45.578,34.0,-21.3625,25.798000000000002,-27.89333333333333,30.765,0.0,1781.144,-0.41999999999999815,100.0,28.437,28.308,43.638,43.719,0.0,0.0,100.0,0.0,0.0,0.0,0.0,3040.0,3141.7,4203.375,4334.4,304.457,303.46666666666664,313.339,312.8345,19.383499999999998,17.8285,19.447499999999998,18.8739,314.999998,314.999998,324.999988,324.999988,99.56304285714286,99.50868333333334,99.57612857142857,99.5544,0.11275000000000013,-0.02733333333333332,-0.08350000000000002,0.12816666666666676,-0.021666666666668277,-0.06333333333333258,1.5995,1.5755,40.897,31.177999999999997,41.297,37.712,60.747,38.0225,66.432,58.558,57.784,36.667500000000004,64.0465,55.981,57.387,36.269999999999996,64.62,55.811,-0.119,-0.0475000000000001,0.10304,0.107255,0.0,217.095,217.10500000000002,214.00666666666666,214.00666666666666,0.0,0.0
30,0.0,0.0,0.0,1.0,1.0,0.0,0.0,1.0,0.0,100.0,1.0,1.1856,26.0,0.0,0.0,0.0,59.999996,0.0,26.0,26.0,26.0,26.0,0.04155555555555557,0.2430000000000001,0.04633333333333333,289.963,-2.7232,-2.5967000000000002,-1.5505499999999999,-1.5934,-174.32,215.54500000000002,190.33075,0.0,0.0,0.0,0.0,0.06053333333333333,-5.498166666666667,-5.498166666666667,-0.6149,0.6056666666666667,0.008444444444444255,0.4910000000000001,69.482,0.0173,-0.229025,-0.35799999999999876,100.0,1.0,1.0,214.50333333333333,0.0,0.0,0.0,0.0,0.0,0.0,0.0,9091.9,0.0,55.0,5.0,250.11,0.0,0.0,0.0,0.0,0.0,0.0,1.0,0.0,1.5060000000000002,1.5060000000000002,0.0,0.0,0.0,55.0,616.79921,10000.0,85.000001,85.000001,85.000001,85.000001,395.0,0.0,0.0,0.0,1.0,333.33500000000004,49.088,49.088,46.173,46.173,34.0,-24.87,26.474,-26.839999999999996,30.85,0.0,1781.094,-0.370000000000001,100.0,29.177,29.026,43.455,43.784,0.0,0.0,100.0,0.0,0.0,0.0,0.0,3377.285714285714,3356.0,4068.5,4173.1,303.2885,302.5726666666667,313.81733333333335,313.2235,19.393875,17.8351,19.458875,18.8842,314.999998,314.999998,324.999988,324.999988,99.56307142857143,99.50868333333334,99.57628571428572,99.55457142857144,0.11224999999999996,-0.035666666666666624,-0.09383333333333332,0.14500000000000002,-0.03999999999999915,-0.05666666666667197,1.63,1.617,40.962,31.2195,41.367999999999995,37.775999999999996,60.739000000000004,38.069,66.469,58.623,57.777,36.71,64.08,56.043,57.379000000000005,36.3115,64.6505,55.8725,-0.12049999999999994,-0.06000000000000005,0.11728000000000001,0.11393,0.0,217.48000000000002,217.5,214.50333333333333,214.50333333333333,0.0,0.0
31,0.0,0.0,0.0,1.0,1.0,0.0,0.0,1.0,0.0,100.0,1.0,1.1856,26.0,0.0,0.0,0.0,59.999996,0.0,26.0,26.0,26.0,26.0,0.026999999999999913,0.25839999999999996,0.04156666666666667,289.597,-2.772,-2.6223,-1.5956000000000001,-1.4911,-170.76999999999998,215.54250000000002,190.305,0.0,0.0,0.0,0.0,0.06259999999999999,-5.498166666666667,-5.498166666666667,-0.5940000000000001,-0.2986666666666667,0.011333333333333195,-0.819,69.61500000000001,0.024300000000000002,-0.22567500000000001,-0.2879999999999985,100.0,1.0,1.0,214.71,0.0,0.0,0.0,0.0,0.0,0.0,0.0,9100.8,0.0,55.0,5.0,250.58666666666664,1.0,0.0,0.0,0.0,0.0,0.0,1.0,0.0,1.5569999999999986,1.5569999999999986,0.0,0.0,1.0,55.0,616.79921,10000.0,85.000001,85.000001,85.000001,85.000001,395.0,0.0,0.0,0.0,1.0,333.33500000000004,49.835,49.835,44.556,44.556,34.0,-23.825,25.356,-30.25,30.2375,0.0,1781.043,-0.36499999999999844,100.0,28.969,29.258,44.051,44.507999999999996,0.0,0.0,100.0,0.0,0.0,0.0,0.0,3233.142857142857,3216.6,4406.375,4342.8,304.1045,303.142,312.882,312.65325,19.40475,17.8421,19.47125,18.8952,314.999998,314.999998,324.999988,324.999988,99.56308571428572,99.50868333333334,99.57644285714285,99.55472857142857,0.11100000000000021,-0.036666666666666625,-0.08816666666666662,0.1246666666666667,-0.03333333333333144,-0.05333333333332746,1.558,1.545,41.03,31.2635,41.446,37.845,60.729,38.1175,66.514,58.696,57.766999999999996,36.754,64.122,56.1125,57.367000000000004,36.3545,64.689,55.9415,-0.11499999999999999,-0.058499999999999996,0.10572500000000001,0.09868500000000001,0.0,217.88,217.9,214.71,214.71,0.0,0.0
32,0.0,0.0,0.0,1.0,1.0,0.0,0.0,1.0,0.0,100.0,1.0,1.1856,26.0,0.0,0.0,0.0,59.999996,0.0,26.0,26.0,26.0,26.0,0.02633333333333332,0.26859999999999995,-0.044333333333333336,290.085,-2.6954,-2.6767000000000003,-1.6552,-1.5464,-167.22,215.54000000000002,190.279625,0.0,0.0,0.0,0.0,0.06463333333333332,-5.498166666666667,-5.498166666666667,-0.6119,-0.25,-0.0038888888888890527,0.30200000000000005,69.742,0.026500000000000003,-0.23965,-0.34999999999999964,100.0,1.0,1.0,215.25,0.0,0.0,0.0,0.0,0.0,0.0,0.0,9123.7,0.0,55.0,5.0,251.04333333333335,0.0,0.0,0.0,0.0,0.0,0.0,1.0,0.0,1.6080000000000005,1.6080000000000005,0.0,0.0,0.0,55.0,616.79921,10000.0,85.000001,85.000001,85.000001,85.000001,395.0,0.0,0.0,0.0,1.0,166.665,50.125,50.125,45.486,45.486,34.0,-22.11,26.156,-28.71333333333333,31.1675,0.0,1780.994,-0.36499999999999844,100.0,28.996,28.992,44.021,44.343,0.0,0.0,100.0,0.0,0.0,0.0,0.0,3113.142857142857,3194.5,4184.375,4282.2,304.1745,303.31933333333336,313.5713333333333,313.082,19.4155,17.8491,19.4835,18.9061,314.999998,314.999998,324.999988,324.999988,99.5631,99.5087,99.5766,99.55488571428572,0.11825000000000019,-0.02200000000000002,-0.08566666666666656,0.14966666666666684,-0.04833333333333201,-0.051666666666669414,1.635,1.6320000000000001,41.097,31.307000000000002,41.522,37.913,60.717,38.165,66.554,58.765,57.757,36.7975,64.1585,56.178,57.355000000000004,36.397,64.722,56.0065,-0.11049999999999993,-0.05499999999999994,0.10535000000000001,0.10412500000000001,0.0,218.285,218.275,215.25,215.25,0.0,0.0
33,0.0,0.0,0.0,1.0,1.0,0.0,0.0,1.0,0.0,100.0,1.0,1.1856,26.0,0.0,0.0,0.0,59.999996,0.0,26.0,26.0,26.0,26.0,0.03155555555555578,0.25260000000000016,-0.0663,290.375,-2.7276,-2.6763,-1.59105,-1.5855000000000001,-163.87,215.54000000000002,190.254625,0.0,0.0,0.0,0.0,0.06659999999999999,-5.498166666666667,-5.498166666666667,-0.6216,-0.19,-0.00633333333333308,0.8799999999999999,69.863,0.0233,-0.22537500000000002,-0.25,100.0,1.0,1.0,215.63666666666666,0.0,0.0,0.0,0.0,0.0,0.0,0.0,9140.0,0.0,55.0,5.0,251.48000000000002,1.0,0.0,0.0,0.0,0.0,0.0,1.0,0.0,1.6559999999999988,1.6559999999999988,0.0,0.0,1.0,55.0,616.79921,10000.0,85.000001,85.000001,85.000001,85.000001,395.0,0.0,0.0,0.0,1.0,333.33500000000004,50.446,50.446,45.792,45.792,34.0,-22.1475,25.28,-27.046666666666667,30.84,0.0,1780.944,-0.4250000000000007,100.0,28.862000000000002,28.822,43.836,44.158,0.0,0.0,100.0,0.0,0.0,0.0,0.0,3089.5714285714284,3106.3,4121.625,4201.4,304.365,303.603,313.67266666666666,313.24475,19.4255,17.8555,19.494875,18.9163,314.999998,314.999998,324.999988,324.999988,99.56311428571429,99.5087,99.57674285714286,99.55502857142856,0.11724999999999985,-0.023666666666666614,-0.07916666666666661,0.14416666666666678,-0.05333333333332746,-0.041666666666671404,1.641,1.62,41.159,31.347,41.593,37.977000000000004,60.706,38.207499999999996,66.591,58.8285,57.747,36.835499999999996,64.1925,56.2385,57.343,36.4345,64.7525,56.0665,-0.11449999999999994,-0.0515000000000001,0.09862000000000001,0.109725,0.0,218.67000000000002,218.655,215.63666666666666,215.63666666666666,0.0,0.0
34,0.0,0.0,0.0,1.0,1.0,0.0,0.0,1.0,0.0,100.0,1.0,1.1856,26.0,0.0,0.0,0.0,59.999996,0.0,26.0,26.0,26.0,26.0,0.027555555555555777,0.25270000000000015,-0.07663333333333334,290.543,-2.6659,-2.6753,-1.62965,-1.5179,-160.09,215.5375,190.225,0.0,0.0,0.0,0.0,0.06879999999999997,-5.498166666666667,-5.498166666666667,-0.6482,-0.8246666666666667,0.019777777777777894,0.9369999999999998,69.999,0.0216,-0.22842500000000002,-0.27999999999999936,100.0,1.0,1.0,216.01333333333332,0.0,0.0,0.0,0.0,0.0,0.0,0.0,9156.0,0.0,55.0,5.0,251.97,0.0,0.0,0.0,0.0,0.0,0.0,1.0,0.0,1.7100000000000009,1.7100000000000009,0.0,0.0,0.0,55.0,616.79921,10000.0,85.000001,85.000001,85.000001,85.000001,395.0,0.0,0.0,0.0,1.0,166.665,50.812,50.812,46.051,46.051,34.0,-21.205,25.272,-28.253333333333337,30.122500000000002,0.0,1780.891,-0.46499999999999986,100.0,28.653,28.554000000000002,43.711,44.234,0.0,0.0,100.0,0.0,0.0,0.0,0.0,3034.5714285714284,3098.0,4111.375,4247.0,304.512,303.7783333333333,313.72633333333334,313.131,19.43675,17.8626,19.507625,18.9278,314.999998,314.999998,324.999988,324.999988,99.56312857142858,99.5087,99.57691428571428,99.5552,0.11649999999999983,-0.018000000000000016,-0.09399999999999997,0.1413333333333333,-0.045000000000001705,-0.05833333333333002,1.6345,1.6275,41.229,31.3915,41.673,38.049,60.693,38.2535,66.632,58.9025,57.733999999999995,36.8775,64.23,56.3085,57.329,36.476,64.7865,56.135999999999996,-0.11299999999999999,-0.045500000000000096,0.109255,0.11324000000000001,0.0,219.06,219.065,216.01333333333332,216.01333333333332,0.0,0.0
35,0.0,0.0,0.0,1.0,1.0,0.0,0.0,1.0,0.0,100.0,1.0,1.1856,26.0,0.0,0.0,0.0,59.999996,0.0,26.0,26.0,26.0,26.0,0.03577777777777791,0.25480000000000014,-0.09340000000000001,290.558,-2.7279,-2.6114,-1.5433,-1.5739,-156.73000000000002,215.5375,190.197,0.0,0.0,0.0,0.0,0.07073333333333331,-5.498166666666667,-5.498166666666667,-0.6880000000000001,-0.35633333333333334,0.004999999999999893,-0.07000000000000028,70.118,0.0239,-0.240575,-0.34999999999999964,100.0,1.0,1.0,216.47,0.0,0.0,0.0,0.0,0.0,0.0,0.0,9175.4,0.0,55.0,5.0,252.4,1.0,0.0,0.0,0.0,0.0,0.0,1.0,0.0,1.7579999999999991,1.7579999999999991,0.0,0.0,1.0,55.0,616.79921,10000.0,85.000001,85.000001,85.000001,85.000001,395.0,0.0,0.0,0.0,1.0,333.33500000000004,50.217,50.217,45.746,45.746,34.0,-22.2625,27.192,-25.729999999999997,29.505,0.0,1780.843,-0.3299999999999983,100.0,28.435,28.755,43.535,43.835,0.0,0.0,100.0,0.0,0.0,0.0,0.0,3104.5714285714284,3379.9,4070.5,4033.8,304.277,302.70366666666666,313.8713333333333,313.76325,19.4465,17.8692,19.519,18.9379,314.999998,314.999998,324.999988,324.999988,99.56314285714285,99.50871666666667,99.57707142857143,99.55535714285715,0.11874999999999991,-0.02400000000000002,-0.07766666666666666,0.15533333333333332,-0.045000000000001705,-0.060000000000002274,1.675,1.6644999999999999,41.291,31.432499999999997,41.744,38.112,60.679,38.2975,66.6675,58.963499999999996,57.721000000000004,36.918,64.2625,56.3665,57.314,36.5155,64.816,56.1935,-0.10849999999999993,-0.055500000000000105,0.10670500000000001,0.11135,0.0,219.43,219.435,216.47,216.47,0.0,0.0
