,ABS Active,ABS Enabled,AID Allow Tire Blankets,AID Auto Blip,AID Auto Clutch,AID Auto Shift,AID Fuel Rate,AID Ideal Line,AID Mech Damage,AID Stability,AID Tire Wear Rate,Air Density,Air Temp,Ballast,Best Lap Delta,Best Lap Time,Brake Bias,Brake Pos,Brake Temp FL,Brake Temp FR,Brake Temp RL,Brake Temp RR,CG Accel Lateral,CG Accel Longitudinal,CG Accel Vertical,CG Height,Camber FL,Camber FR,Camber RL,Camber RR,Car Coord X,Car Coord Y,Car Coord Z,Car Damage Front,Car Damage Left,Car Damage Rear,Car Damage Right,Car Pos Norm,Caster FL,Caster FR,Chassis Pitch Angle,Chassis Pitch Rate,Chassis Roll Angle,Chassis Roll Rate,Chassis Velocity X,Chassis Velocity Y,Chassis Velocity Z,Chassis Yaw Rate,Clutch Pos,DRS Active,DRS Available,Drive Train Speed,ERS Heat Charging,ERS Is Charging,ERS Max Energy,ERS Power Level,ERS Recovery Level,Engine Brake Setting,Engine Limiter,Engine RPM,Flags,Fuel Level,Gear,Ground Speed,HR Sample Clock,In Pit,KERS Charge,KERS Deployed Energy,KERS Input,KERS Max Energy,LR Sample Clock,Lap Invalidated,Lap Time,Lap Time2,Last Lap Time,Last Sector Time,MR Sample Clock,Max Fuel,Max Power,Max RPM,Max Sus Travel FL,Max Sus Travel FR,Max Sus Travel RL,Max Sus Travel RR,Max Torque,Max Turbo Boost,Num Tires Off Track,Penalties Enabled,Position,Raw Data Sample Rate,Ride Height FL,Ride Height FR,Ride Height RL,Ride Height RR,Road Temp,Self Align Torque FL,Self Align Torque FR,Self Align Torque RL,Self Align Torque RR,Session Lap Count,Session Time Left,Steering Angle,Surface Grip,Suspension Travel FL,Suspension Travel FR,Suspension Travel RL,Suspension Travel RR,TC Active,TC Enabled,Throttle Pos,Tire Dirt Level FL,Tire Dirt Level FR,Tire Dirt Level RL,Tire Dirt Level RR,Tire Load FL,Tire Load FR,Tire Load RL,Tire Load RR,Tire Loaded Radius FL,Tire Loaded Radius FR,Tire Loaded Radius RL,Tire Loaded Radius RR,Tire Pressure FL,Tire Pressure FR,Tire Pressure RL,Tire Pressure RR,Tire Radius FL,Tire Radius FR,Tire Radius RL,Tire Radius RR,Tire Rubber Grip FL,Tire Rubber Grip FR,Tire Rubber Grip RL,Tire Rubber Grip RR,Tire Slip Angle FL,Tire Slip Angle FR,Tire Slip Angle RL,Tire Slip Angle RR,Tire Slip Ratio FL,Tire Slip Ratio FR,Tire Slip Ratio RL,Tire Slip Ratio RR,Tire Temp Core FL,Tire Temp Core FR,Tire Temp Core RL,Tire Temp Core RR,Tire Temp Inner FL,Tire Temp Inner FR,Tire Temp Inner RL,Tire Temp Inner RR,Tire Temp Middle FL,Tire Temp Middle FR,Tire Temp Middle RL,Tire Temp Middle RR,Tire Temp Outer FL,Tire Temp Outer FR,Tire Temp Outer RL,Tire Temp Outer RR,Toe In FL,Toe In FR,Toe In RL,Toe In RR,Turbo Boost,Wheel Angular Speed FL,Wheel Angular Speed FR,Wheel Angular Speed RL,Wheel Angular Speed RR,Wind Direction,Wind Speed
0,0.0,0.0,0.0,1.0,1.0,0.0,0.0,1.0,0.0,100.0,1.0,1.1856,26.0,0.0,0.0,0.0,59.99999,0.0,26.0,26.0,26.0,26.0,-0.07487500000000002,0.30100000000000016,0.046275000000000004,291.55,-2.7314,-2.6262,-1.5309,-1.5271,-275.54,216.28750000000002,190.98425,0.0,0.0,0.0,0.0,0.0016666666666666668,-5.498166666666667,-5.498166666666667,-0.5820000000000001,2.384,0.014874999999999972,-0.5579999999999998,65.202,-0.0286,-0.2447,0.8879999999999999,100.0,1.0,1.0,201.83666666666667,0.0,0.0,0.0,0.0,0.0,0.0,0.0,8555.2,0.0,55.0,5.0,234.69666666666666,0.0,0.0,0.0,0.0,0.0,0.0,0.0,0.0,0.006000000000000227,0.006000000000000227,0.0,0.0,0.0,55.0,616.79921,10000.0,85.0,85.0,85.0,85.0,395.0,0.0,0.0,0.0,1.0,20.0,49.21,49.21,47.928,47.928,34.0,-26.476666666666663,23.682000000000002,-28.476666666666667,23.61,0.0,1782.703,0.7850000000000001,100.0,28.218,27.682,39.782,39.976,0.0,0.0,100.0,0.0,0.0,0.0,0.0,3095.5714285714284,3483.9,4049.625,3985.7,303.1955,300.815,312.8883333333333,312.646,17.2925,15.7507,17.3615,16.7712,314.99999,314.99999,324.99998,324.99998,99.56481428571429,99.5093,99.57628571428572,99.55315714285715,0.011666666666666714,-0.11566666666666658,-0.1544,0.06800000000000006,-0.09166666666666856,-0.05250000000000199,1.8195000000000001,1.8525,40.329,30.691499999999998,40.759,37.07,64.625,38.457,69.9345,60.289,60.923,36.8845,66.9,57.132999999999996,60.983999999999995,36.5955,68.156,57.3305,-0.01849999999999996,-0.139,0.11286000000000002,0.10303000000000001,0.0,204.35000000000002,204.235,201.83666666666667,201.83666666666667,0.0,0.0
1,0.0,0.0,0.0,1.0,1.0,0.0,0.0,1.0,0.0,100.0,1.0,1.1856,26.0,0.0,0.0,0.0,59.999996,0.0,26.0,26.0,26.0,26.0,-0.105375,0.31710000000000016,0.221175,290.558,-2.6413,-2.7515,-1.5261,-1.5396,-272.21,216.2825,190.964125,0.0,0.0,0.0,0.0,0.0036000000000000003,-5.498166666666667,-5.498166666666667,-0.4939,-0.5740000000000001,-0.047250000000000014,-0.843,65.36,-0.048,-0.1957,1.362,100.0,1.0,1.0,201.79666666666668,0.0,0.0,0.0,0.0,0.0,0.0,0.0,8553.4,0.0,55.0,5.0,235.26666666666665,1.0,0.0,0.0,0.0,0.0,0.0,0.0,0.0,0.05699999999999861,0.05699999999999861,0.0,0.0,1.0,55.0,616.79921,10000.0,85.000001,85.000001,85.000001,85.000001,395.0,0.0,0.0,0.0,1.0,333.33500000000004,51.208,51.208,45.731,45.731,34.0,-26.023333333333333,17.402,-36.14,29.043333333333333,0.0,1782.65,0.8949999999999996,100.0,27.903,27.423000000000002,41.985,41.507,0.0,0.0,100.0,0.0,0.0,0.0,0.0,3065.285714285714,2648.8,4594.125,4765.4,303.4765,304.1956666666667,311.0733333333333,310.20166666666665,17.305125,15.7577,17.375625,16.7833,314.999998,314.999998,324.999988,324.999988,99.56482857142858,99.50931666666666,99.57645714285714,99.55332857142857,-0.008333333333333304,-0.1356666666666666,-0.1814,0.042400000000000215,-0.04333333333332945,-0.04749999999999943,1.553,1.5939999999999999,40.407,30.735999999999997,40.848,37.146,64.61,38.5115,69.99549999999999,60.3765,60.909,36.9335,66.9555,57.2155,60.968,36.6445,68.209,57.4135,-0.008499999999999952,-0.14300000000000002,0.103885,0.11369000000000001,0.0,204.79000000000002,204.66500000000002,201.79666666666668,201.79666666666668,0.0,0.0
2,0.0,0.0,0.0,1.0,1.0,0.0,0.0,1.0,0.0,100.0,1.0,1.1856,26.0,0.0,0.0,0.0,59.999996,0.0,26.0,26.0,26.0,26.0,-0.13375000000000004,0.2703,-0.1097,291.733,-2.6196,-2.7724,-1.50175,-1.5873,-268.87,216.275,190.946,0.0,0.0,0.0,0.0,0.005566666666666667,-5.498166666666667,-5.498166666666667,-0.5722,-0.5576666666666666,-0.02837500000000004,2.415,65.499,-0.0718,-0.2873,1.548,100.0,1.0,1.0,202.88,0.0,0.0,0.0,0.0,0.0,0.0,0.0,8599.3,0.0,55.0,5.0,235.76999999999998,0.0,0.0,0.0,0.0,0.0,0.0,0.0,0.0,0.10800000000000054,0.10800000000000054,0.0,0.0,0.0,55.0,616.79921,10000.0,85.000001,85.000001,85.000001,85.000001,395.0,0.0,0.0,0.0,1.0,166.665,49.774,49.774,48.828,48.828,34.0,-29.346666666666668,19.677999999999997,-26.906666666666666,19.093333333333334,0.0,1782.601,0.7300000000000004,100.0,28.438,27.208,42.083,41.18,0.0,0.0,100.0,0.0,0.0,0.0,0.0,3310.4285714285716,3017.4,3612.75,3596.1,302.309,302.8453333333333,313.983,313.8906666666667,17.317875,15.7646,17.38925,16.7948,314.999998,314.999998,324.999988,324.999988,99.56482857142858,99.50933333333333,99.5766,99.55347142857143,-0.025666666666666726,-0.15233333333333332,-0.21280000000000002,0.017400000000000082,-0.0833333333333286,-0.08624999999999972,1.8795000000000002,1.933,40.486999999999995,30.7785,40.933,37.218,64.598,38.564,70.0435,60.4505,60.897999999999996,36.9805,66.9995,57.2845,60.956,36.691,68.25,57.483000000000004,-0.014000000000000012,-0.139,0.10165,0.10763,0.0,205.20499999999998,205.055,202.88,202.88,0.0,0.0
3,0.0,0.0,0.0,1.0,1.0,0.0,0.0,1.0,0.0,100.0,1.0,1.1856,26.0,0.0,0.0,0.0,59.999996,0.0,26.0,26.0,26.0,26.0,-0.13175000000000003,0.30310000000000015,0.051375000000000004,291.534,-2.7422,-2.6724,-1.51945,-1.5655999999999999,-265.72,216.2625,190.927625,0.0,0.0,0.0,0.0,0.0074,-5.498166666666667,-5.498166666666667,-0.5306000000000001,0.9833333333333334,0.00912500000000005,0.18599999999999994,65.641,-0.092,-0.217175,1.3279999999999994,100.0,1.0,1.0,203.04000000000002,0.0,0.0,0.0,0.0,0.0,0.0,0.0,8606.1,0.0,55.0,5.0,236.27666666666667,1.0,0.0,0.0,0.0,0.0,0.0,0.0,0.0,0.1559999999999988,0.1559999999999988,0.0,0.0,1.0,55.0,616.79921,10000.0,85.000001,85.000001,85.000001,85.000001,395.0,0.0,0.0,0.0,1.0,166.665,51.01,51.01,46.768,46.768,34.0,-25.57,18.312,-33.236666666666665,22.189999999999998,0.0,1782.553,0.5450000000000017,100.0,28.142,27.226,41.602000000000004,40.814,0.0,0.0,100.0,0.0,0.0,0.0,0.0,2880.142857142857,2916.3,4173.0,4160.1,303.9635,303.11033333333336,312.4216666666667,312.2076666666667,17.32975,15.7714,17.401875,16.8056,314.999998,314.999998,324.999988,324.999988,99.56482857142858,99.50936666666666,99.57675714285715,99.55362857142858,-0.016999999999999904,-0.1486666666666666,-0.2216,0.0050000000000001155,-0.06333333333333258,-0.07124999999999915,1.7349999999999999,1.8225,40.561,30.8215,41.012,37.285,64.58500000000001,38.6195,70.0865,60.5235,60.885999999999996,37.0305,67.0385,57.353,60.942,36.74,68.2865,57.5525,-0.03500000000000003,-0.12200000000000011,0.11134500000000001,0.10638,0.0,205.685,205.57999999999998,203.04000000000002,203.04000000000002,0.0,0.0
4,0.0,0.0,0.0,1.0,1.0,0.0,0.0,1.0,0.0,100.0,1.0,1.1856,26.0,0.0,0.0,0.0,59.999996,0.0,26.0,26.0,26.0,26.0,-0.14012499999999994,0.2723,-0.016625,291.504,-2.6745,-2.7267,-1.5333999999999999,-1.5799,-262.37,216.25,190.90775,0.0,0.0,0.0,0.0,0.009333333333333334,-5.498166666666667,-5.498166666666667,-0.5458000000000001,-0.9486666666666667,-0.0651250000000001,-2.012,65.789,-0.09620000000000001,-0.236375,1.1300000000000008,100.0,1.0,1.0,203.45666666666668,0.0,0.0,0.0,0.0,0.0,0.0,0.0,8623.8,0.0,55.0,5.0,236.81,0.0,0.0,0.0,0.0,0.0,0.0,0.0,0.0,0.20700000000000074,0.20700000000000074,0.0,0.0,0.0,55.0,616.79921,10000.0,85.000001,85.000001,85.000001,85.000001,395.0,0.0,0.0,0.0,1.0,333.33500000000004,50.858,50.858,46.677,46.677,34.0,-28.4,18.23,-33.52333333333333,20.473333333333336,0.0,1782.5,0.5399999999999991,100.0,27.766,26.966,42.235,41.253,0.0,0.0,100.0,0.0,0.0,0.0,0.0,3191.857142857143,2850.0,4192.25,3793.6,303.146,303.23966666666666,312.33933333333334,313.1166666666667,17.341875,15.7784,17.41575,16.8173,314.999998,314.999998,324.999988,324.999988,99.56482857142858,99.50938333333333,99.57691428571428,99.55378571428571,-0.03066666666666662,-0.15266666666666662,-0.22,0.008000000000000007,-0.06666666666666998,-0.05375000000000085,1.746,1.772,40.637,30.865000000000002,41.098,37.358000000000004,64.56700000000001,38.6735,70.141,60.6025,60.869,37.079,67.0885,57.4275,60.923,36.788,68.334,57.626999999999995,-0.03649999999999998,-0.1120000000000001,0.10522000000000001,0.11228500000000001,0.0,206.07999999999998,205.97,203.45666666666668,203.45666666666668,0.0,0.0
5,0.0,0.0,0.0,1.0,1.0,0.0,0.0,1.0,0.0,100.0,1.0,1.1856,26.0,0.0,0.0,0.0,59.999996,0.0,26.0,26.0,26.0,26.0,-0.12049999999999994,0.31530000000000014,-0.012825000000000001,291.519,-2.6768,-2.7564,-1.50975,-1.5772,-258.82,216.23000000000002,190.88625,0.0,0.0,0.0,0.0,0.0114,-5.498166666666667,-5.498166666666667,-0.5567,0.3843333333333333,-0.0757500000000002,-0.1280000000000001,65.94200000000001,-0.09970000000000001,-0.238175,1.1600000000000001,100.0,1.0,1.0,204.01,0.0,0.0,0.0,0.0,0.0,0.0,0.0,8647.3,0.0,55.0,5.0,237.36333333333334,1.0,0.0,0.0,0.0,0.0,0.0,0.0,0.0,0.26099999999999923,0.26099999999999923,0.0,0.0,1.0,55.0,616.79921,10000.0,85.000001,85.000001,85.000001,85.000001,395.0,0.0,0.0,0.0,1.0,166.665,50.69,50.69,47.379,47.379,34.0,-28.82333333333333,18.982,-32.72666666666666,20.743333333333332,0.0,1782.448,0.125,100.0,27.974,26.939,42.075,40.877,0.0,0.0,100.0,0.0,0.0,0.0,0.0,3275.142857142857,2844.1,4112.5,3934.3,302.755,303.2753333333333,312.693,312.8,17.355249999999998,15.786,17.430125,16.8294,314.999998,314.999998,324.999988,324.999988,99.56484285714286,99.5094,99.5771,99.55395714285714,-0.016999999999999904,-0.1383333333333333,-0.2306,0.0007999999999999119,-0.07000000000000028,-0.058749999999996305,1.767,1.834,40.721000000000004,30.9125,41.188,37.434,64.555,38.7325,70.194,60.68,60.858000000000004,37.132,67.1365,57.4995,60.91,36.84,68.379,57.6995,-0.058499999999999996,-0.08699999999999997,0.10709,0.11405000000000001,0.0,206.57,206.47500000000002,204.01,204.01,0.0,0.0
6,0.0,0.0,0.0,1.0,1.0,0.0,0.0,1.0,0.0,100.0,1.0,1.1856,26.0,0.0,0.0,0.0,59.999996,0.0,26.0,26.0,26.0,26.0,-0.10887499999999994,0.2784,-0.0005250000000000001,291.306,-2.6508,-2.7812,-1.5603500000000001,-1.5645,-255.65,216.21,190.867,0.0,0.0,0.0,0.0,0.013233333333333335,-5.498166666666667,-5.498166666666667,-0.5386000000000001,0.3213333333333333,-0.05125000000000002,-0.5390000000000001,66.08,-0.09720000000000001,-0.22182500000000002,0.7880000000000003,100.0,1.0,1.0,204.36333333333334,0.0,0.0,0.0,0.0,0.0,0.0,0.0,8662.2,0.0,55.0,5.0,237.86,0.0,0.0,0.0,0.0,0.0,0.0,0.0,0.0,0.30900000000000105,0.30900000000000105,0.0,0.0,0.0,55.0,616.79921,10000.0,85.000001,85.000001,85.000001,85.000001,395.0,0.0,0.0,0.0,1.0,166.665,50.797,50.797,46.768,46.768,34.0,-27.15,19.924,-33.43666666666667,22.189999999999998,0.0,1782.4,-0.0649999999999995,100.0,27.813,27.065,42.202,41.186,0.0,0.0,100.0,0.0,0.0,0.0,0.0,3173.714285714286,2853.6,4150.125,4052.8,303.0975,303.12966666666665,312.57966666666664,312.4116666666667,17.367,15.7927,17.443,16.8404,314.999998,314.999998,324.999988,324.999988,99.56485714285714,99.5094,99.57724285714286,99.5541,-0.006666666666666599,-0.12366666666666659,-0.221,0.013400000000000079,-0.060000000000002274,-0.05375000000000085,1.7365,1.77,40.794,30.9545,41.268,37.501999999999995,64.542,38.7845,70.2415,60.7545,60.846000000000004,37.178,67.18,57.5695,60.897,36.885999999999996,68.4195,57.769999999999996,-0.07799999999999996,-0.06499999999999995,0.10584,0.11817000000000001,0.0,207.01,206.925,204.36333333333334,204.36333333333334,0.0,0.0
7,0.0,0.0,0.0,1.0,1.0,0.0,0.0,1.0,0.0,100.0,1.0,1.1856,26.0,0.0,0.0,0.0,59.999996,0.0,26.0,26.0,26.0,26.0,-0.08899999999999997,0.2791000000000001,0.019525,291.092,-2.6201,-2.7239,-1.5162499999999999,-1.6122,-252.47,216.1875,190.847875,0.0,0.0,0.0,0.0,0.0151,-5.498166666666667,-5.498166666666667,-0.5431,-0.20733333333333334,-0.045250000000000234,-0.347,66.217,-0.0815,-0.233375,0.41799999999999926,100.0,1.0,1.0,204.75,0.0,0.0,0.0,0.0,0.0,0.0,0.0,8678.5,0.0,55.0,5.0,238.35333333333335,1.0,0.0,0.0,0.0,0.0,0.0,0.0,0.0,0.3569999999999993,0.3569999999999993,0.0,0.0,1.0,55.0,616.79921,10000.0,85.000001,85.000001,85.000001,85.000001,395.0,0.0,0.0,0.0,1.0,166.665,50.4,50.4,46.921,46.921,34.0,-26.896666666666665,21.244,-31.066666666666663,23.42,0.0,1782.352,-0.3049999999999997,100.0,27.831,26.948999999999998,42.318,41.499,0.0,0.0,100.0,0.0,0.0,0.0,0.0,3293.5714285714284,2955.1,4095.125,4023.7,302.617,302.846,312.66433333333333,312.4053333333333,17.37875,15.7994,17.455875,16.8515,314.999998,314.999998,324.999988,324.999988,99.56485714285714,99.50941666666667,99.5774,99.55425714285714,0.020999999999999908,-0.09699999999999998,-0.1916,0.025800000000000045,-0.07000000000000028,-0.07124999999999915,1.7215,1.7485,40.867000000000004,30.996499999999997,41.349000000000004,37.572,64.529,38.8345,70.289,60.829499999999996,60.834,37.223,67.223,57.64,60.882999999999996,36.9305,68.4605,57.8405,-0.09750000000000003,-0.04499999999999993,0.10228500000000001,0.10796000000000001,0.0,207.4,207.345,204.75,204.75,0.0,0.0
8,0.0,0.0,0.0,1.0,1.0,0.0,0.0,1.0,0.0,100.0,1.0,1.1856,26.0,0.0,0.0,0.0,59.999996,0.0,26.0,26.0,26.0,26.0,-0.056624999999999925,0.29310000000000014,0.020875,291.397,-2.7014,-2.7126,-1.4995500000000002,-1.5391,-249.09,216.1625,190.8275,0.0,0.0,0.0,0.0,0.017066666666666667,-5.498166666666667,-5.498166666666667,-0.5474,-0.39566666666666667,-0.024375000000000036,0.895,66.361,-0.0584,-0.22820000000000001,-0.06799999999999962,100.0,1.0,1.0,205.17333333333335,0.0,0.0,0.0,0.0,0.0,0.0,0.0,8696.5,0.0,55.0,5.0,238.87333333333333,0.0,0.0,0.0,0.0,0.0,0.0,0.0,0.0,0.40800000000000125,0.40800000000000125,0.0,0.0,0.0,55.0,616.79921,10000.0,85.000001,85.000001,85.000001,85.000001,395.0,0.0,0.0,0.0,1.0,166.665,51.254,51.254,46.356,46.356,34.0,-23.403333333333336,22.45,-29.186666666666667,24.733333333333334,0.0,1782.301,-0.4450000000000003,100.0,27.639,26.83,42.357,41.469,0.0,0.0,100.0,0.0,0.0,0.0,0.0,2956.285714285714,2995.7,4083.125,4119.4,303.7835,302.91366666666664,312.595,312.25866666666667,17.391,15.8066,17.4695,16.8631,314.999998,314.999998,324.999988,324.999988,99.56485714285714,99.50943333333333,99.57755714285715,99.55441428571429,0.04800000000000004,-0.06799999999999995,-0.159,0.059599999999999875,-0.051666666666669414,-0.07249999999999801,1.744,1.742,40.944,31.0415,41.434,37.644999999999996,64.514,38.887,70.338,60.907,60.82,37.269999999999996,67.2675,57.7125,60.867000000000004,36.977000000000004,68.502,57.9135,-0.10999999999999999,-0.034499999999999975,0.101565,0.104175,0.0,207.825,207.815,205.17333333333335,205.17333333333335,0.0,0.0
9,0.0,0.0,0.0,1.0,1.0,0.0,0.0,1.0,0.0,100.0,1.0,1.1856,26.0,0.0,0.0,0.0,59.999996,0.0,26.0,26.0,26.0,26.0,-0.03237499999999993,0.2804,0.0233,291.168,-2.6938,-2.714,-1.55985,-1.5396,-245.9,216.1375,190.80775,0.0,0.0,0.0,0.0,0.0189,-5.498166666666667,-5.498166666666667,-0.5524,0.4796666666666667,-0.02200000000000024,0.7389999999999999,66.495,-0.0363,-0.22692500000000002,-0.20000000000000018,100.0,1.0,1.0,205.69333333333333,0.0,0.0,0.0,0.0,0.0,0.0,0.0,8718.6,0.0,55.0,5.0,239.35333333333335,1.0,0.0,0.0,0.0,0.0,0.0,0.0,0.0,0.4559999999999995,0.4559999999999995,0.0,0.0,1.0,55.0,616.79921,10000.0,85.000001,85.000001,85.000001,85.000001,395.0,0.0,0.0,0.0,1.0,333.33500000000004,50.156,50.156,47.44,47.44,34.0,-24.793333333333333,24.13,-27.22,25.84,0.0,1782.251,-0.5849999999999991,100.0,27.892,27.111,41.988,41.447,0.0,0.0,100.0,0.0,0.0,0.0,0.0,3268.714285714286,3090.9,3942.125,4066.9,302.6295,302.478,313.149,312.4773333333333,17.40275,15.813600000000001,17.482125,16.8741,314.999998,314.999998,324.999988,324.999988,99.56487142857142,99.50943333333333,99.57771428571428,99.55457142857144,0.08033333333333337,-0.04966666666666664,-0.1346,0.09299999999999997,-0.060000000000002274,-0.07124999999999915,1.7995,1.7810000000000001,41.016999999999996,31.085,41.513,37.713,64.502,38.9375,70.3805,60.9795,60.81,37.315,67.3065,57.78,60.855000000000004,37.0215,68.538,57.982,-0.129,-0.03200000000000003,0.103845,0.110475,0.0,208.245,208.22500000000002,205.69333333333333,205.69333333333333,0.0,0.0
10,0.0,0.0,0.0,1.0,1.0,0.0,0.0,1.0,0.0,100.0,1.0,1.1856,26.0,0.0,0.0,0.0,59.999996,0.0,26.0,26.0,26.0,26.0,0.0031250000000000444,0.28380000000000005,0.015000000000000001,290.909,-2.6683,-2.699,-1.53355,-1.5215,-242.51,216.11,190.787,0.0,0.0,0.0,0.0,0.020866666666666665,-5.498166666666667,-5.498166666666667,-0.5279,-0.19433333333333336,0.012249999999999872,0.2789999999999999,66.641,-0.0137,-0.215,-0.41999999999999993,100.0,1.0,1.0,205.92333333333335,0.0,0.0,0.0,0.0,0.0,0.0,0.0,8728.3,0.0,55.0,5.0,239.88,0.0,0.0,0.0,0.0,0.0,0.0,1.0,0.0,0.5069999999999979,0.5069999999999979,0.0,0.0,0.0,55.0,616.79921,10000.0,85.000001,85.000001,85.000001,85.000001,395.0,0.0,0.0,0.0,1.0,333.33500000000004,51.086,51.086,45.837,45.837,34.0,-21.62,22.392,-29.96333333333333,28.116666666666667,0.0,1782.201,-0.6950000000000003,100.0,27.765,27.35,42.26,42.184,0.0,0.0,100.0,0.0,0.0,0.0,0.0,2971.4285714285716,2877.9,4302.625,4247.8,303.828,303.11033333333336,312.0756666666667,311.786,17.415125,15.8209,17.495874999999998,16.8861,314.999998,314.999998,324.999988,324.999988,99.56488571428571,99.50945,99.57787142857143,99.55472857142857,0.0863333333333336,-0.04633333333333334,-0.128,0.10420000000000007,-0.05666666666667197,-0.06499999999999773,1.702,1.6800000000000002,41.094,31.130499999999998,41.599000000000004,37.788,64.491,38.9885,70.431,61.0615,60.8,37.361,67.35249999999999,57.857,60.843,37.067,68.581,58.0595,-0.133,-0.020499999999999963,0.10678000000000001,0.10799,0.0,208.68,208.685,205.92333333333335,205.92333333333335,0.0,0.0
11,0.0,0.0,0.0,1.0,1.0,0.0,0.0,1.0,0.0,100.0,1.0,1.1856,26.0,0.0,0.0,0.0,59.999996,0.0,26.0,26.0,26.0,26.0,0.02825000000000011,0.26150000000000007,-0.0531,291.489,-2.7164,-2.6789,-1.5977000000000001,-1.5085000000000002,-239.11,216.08249999999998,190.7665,0.0,0.0,0.0,0.0,0.022600000000000002,-5.498166666666667,-5.498166666666667,-0.5688,-0.494,0.04574999999999996,0.5590000000000002,66.78,0.0092,-0.2492,-0.6479999999999997,100.0,1.0,1.0,206.62666666666667,0.0,0.0,0.0,0.0,0.0,0.0,0.0,8758.1,0.0,55.0,5.0,240.38,1.0,0.0,0.0,0.0,0.0,0.0,1.0,0.0,0.5579999999999998,0.5579999999999998,0.0,0.0,1.0,55.0,616.79921,10000.0,85.000001,85.000001,85.000001,85.000001,395.0,0.0,0.0,0.0,1.0,333.33500000000004,50.583,50.583,47.455,47.455,34.0,-21.213333333333335,26.334,-23.53,26.740000000000002,0.0,1782.15,-0.7850000000000001,100.0,27.609,27.341,42.039,42.212,0.0,0.0,100.0,0.0,0.0,0.0,0.0,3002.142857142857,3153.2,3702.375,3923.4,303.6215,302.2626666666667,313.86333333333334,312.85633333333334,17.42725,15.8283,17.50925,16.8979,314.999998,314.999998,324.999988,324.999988,99.5649,99.50945,99.57802857142858,99.55488571428572,0.11500000000000021,-0.0023333333333332984,-0.088,0.1452,-0.05333333333332746,-0.07374999999999687,1.833,1.82,41.17,31.177,41.683,37.861999999999995,64.478,39.04,70.475,61.14,60.787,37.4075,67.3925,57.931,60.828,37.113,68.618,58.1335,-0.13649999999999995,-0.013500000000000068,0.105105,0.11026000000000001,0.0,209.075,209.12,206.62666666666667,206.62666666666667,0.0,0.0
12,0.0,0.0,0.0,1.0,1.0,0.0,0.0,1.0,0.0,100.0,1.0,1.1856,26.0,0.0,0.0,0.0,59.999996,0.0,26.0,26.0,26.0,26.0,0.03687499999999999,0.2791000000000001,-0.0050750000000000005,291.046,-2.7699,-2.6718,-1.5593,-1.5067,-235.9,216.0575,190.745875,0.0,0.0,0.0,0.0,0.025466666666666665,-5.498166666666667,-5.498166666666667,-0.5612,0.4066666666666667,0.031874999999999876,0.42600000000000016,66.914,0.030000000000000002,-0.22085000000000002,-0.7860000000000005,100.0,1.0,1.0,206.91666666666669,0.0,0.0,0.0,0.0,0.0,0.0,0.0,8770.4,0.0,55.0,5.0,240.86333333333334,0.0,0.0,0.0,0.0,0.0,0.0,1.0,0.0,0.6059999999999981,0.6059999999999981,0.0,0.0,0.0,55.0,616.79921,10000.0,85.000001,85.000001,85.000001,85.000001,395.0,0.0,0.0,0.0,1.0,166.665,50.491,50.491,46.432,46.432,34.0,-21.599999999999998,26.82,-24.979999999999997,29.72,0.0,1782.103,-0.7699999999999996,100.0,27.532,27.517,41.803,42.015,0.0,0.0,100.0,0.0,0.0,0.0,0.0,3043.857142857143,3182.0,4064.375,4139.0,303.49,302.1616666666667,312.8043333333333,312.2853333333333,17.438625000000002,15.8354,17.521875,16.9089,314.999998,314.999998,324.999988,324.999988,99.5649,99.50945,99.57818571428571,99.55504285714285,0.12533333333333374,0.0043333333333333,-0.06659999999999999,0.16480000000000006,-0.06333333333333258,-0.06624999999999659,1.7730000000000001,1.74,41.241,31.221,41.762,37.931,64.467,39.09,70.517,61.2125,60.777,37.4525,67.431,57.999,60.816,37.1575,68.6535,58.2025,-0.13,-0.016000000000000014,0.10565000000000001,0.11071,0.0,209.53,209.565,206.91666666666669,206.91666666666669,0.0,0.0
13,0.0,0.0,0.0,1.0,1.0,0.0,0.0,1.0,0.0,100.0,1.0,1.1856,26.0,0.0,0.0,0.0,59.999996,0.0,26.0,26.0,26.0,26.0,0.07374999999999998,0.2795000000000001,0.045375000000000006,290.466,-2.7481999999999998,-2.6627,-1.62655,-1.5246,-232.48,216.0325,190.724,0.0,0.0,0.0,0.0,0.0267,-5.498166666666667,-5.498166666666667,-0.545,0.018333333333333333,0.03125,-0.41000000000000014,67.057,0.043500000000000004,-0.216625,-0.8079999999999998,100.0,1.0,1.0,207.21,0.0,0.0,0.0,0.0,0.0,0.0,0.0,8782.8,0.0,55.0,5.0,241.37666666666667,1.0,0.0,0.0,0.0,0.0,0.0,1.0,0.0,0.657,0.657,0.0,0.0,1.0,55.0,616.79921,10000.0,85.000001,85.000001,85.000001,85.000001,395.0,0.0,0.0,0.0,1.0,166.665,50.201,50.201,45.929,45.929,34.0,-20.973333333333333,26.652,-27.589999999999996,31.316666666666666,0.0,1782.052,-0.9699999999999989,100.0,27.654,27.842,41.981,42.607,0.0,0.0,100.0,0.0,0.0,0.0,0.0,3162.714285714286,3068.0,4245.5,4301.4,303.2375,302.382,312.3403333333333,311.6686666666667,17.450875,15.843,17.5355,16.9209,314.999998,314.999998,324.999988,324.999988,99.56491428571428,99.50946666666667,99.57834285714286,99.5552,0.15333333333333332,0.02400000000000002,-0.0688,0.15620000000000012,-0.05833333333333002,-0.060000000000002274,1.7035,1.686,41.318,31.2685,41.847,38.006,64.459,39.1435,70.566,61.295,60.769,37.5005,67.475,58.076499999999996,60.807,37.205,68.6945,58.2805,-0.15300000000000002,-0.0020000000000000018,0.10995,0.10259000000000001,0.0,209.97,209.995,207.21,207.21,0.0,0.0
14,0.0,0.0,0.0,1.0,1.0,0.0,0.0,1.0,0.0,100.0,1.0,1.1856,26.0,0.0,0.0,0.0,59.999996,0.0,26.0,26.0,26.0,26.0,0.07987499999999992,0.2693000000000001,-0.005050000000000001,290.726,-2.7483,-2.6034,-1.6418,-1.494,-229.06,216.0075,190.702875,0.0,0.0,0.0,0.0,0.0287,-5.498166666666667,-5.498166666666667,-0.5598000000000001,-0.296,0.06674999999999986,1.4270000000000005,67.196,0.0591,-0.241875,-1.0479999999999992,100.0,1.0,1.0,207.73666666666668,0.0,0.0,0.0,0.0,0.0,0.0,0.0,8805.3,0.0,55.0,5.0,241.87666666666667,0.0,0.0,0.0,0.0,0.0,0.0,1.0,0.0,0.7079999999999984,0.7079999999999984,0.0,0.0,0.0,55.0,616.79921,10000.0,85.000001,85.000001,85.000001,85.000001,395.0,0.0,0.0,0.0,1.0,333.33500000000004,50.186,50.186,46.326,46.326,34.0,-19.12,28.38,-24.296666666666667,31.77,0.0,1782.001,-1.0299999999999994,100.0,27.781,27.802,42.084,42.786,0.0,0.0,100.0,0.0,0.0,0.0,0.0,2972.4285714285716,3245.3,3954.125,4207.3,303.688,301.9463333333333,313.093,312.05566666666664,17.463,15.8505,17.549125,16.9329,314.999998,314.999998,324.999988,324.999988,99.56494285714285,99.50946666666667,99.5785,99.55537142857143,0.1676666666666664,0.04166666666666674,-0.045200000000000004,0.19440000000000013,-0.061666666666667425,-0.0799999999999983,1.7570000000000001,1.721,41.394,31.316,41.932,38.081,64.451,39.197,70.6115,61.3765,60.762,37.549,67.5165,58.153,60.797,37.253,68.7325,58.358000000000004,-0.15300000000000002,0.0040000000000000036,0.10501500000000001,0.11134000000000001,0.0,210.365,210.42000000000002,207.73666666666668,207.73666666666668,0.0,0.0
15,0.0,0.0,0.0,1.0,1.0,0.0,0.0,1.0,0.0,100.0,1.0,1.1856,26.0,0.0,0.0,0.0,59.999996,0.0,26.0,26.0,26.0,26.0,0.10612500000000002,0.29000000000000004,-0.0031750000000000003,290.817,-2.722,-2.5604,-1.63835,-1.4337,-225.82999999999998,215.9875,190.68275,0.0,0.0,0.0,0.0,0.03056666666666667,-5.498166666666667,-5.498166666666667,-0.5554,0.3746666666666667,0.0971249999999999,1.194,67.327,0.0733,-0.22740000000000002,-1.1720000000000006,100.0,1.0,1.0,208.16333333333333,0.0,0.0,0.0,0.0,0.0,0.0,0.0,8823.3,0.0,55.0,5.0,242.34666666666666,1.0,0.0,0.0,0.0,0.0,0.0,1.0,0.0,0.7560000000000002,0.7560000000000002,0.0,0.0,1.0,55.0,616.79921,10000.0,85.000001,85.000001,85.000001,85.000001,395.0,0.0,0.0,0.0,1.0,166.665,50.293,50.293,46.6,46.6,34.0,-17.503333333333334,28.35,-22.803333333333335,32.04666666666667,0.0,1781.953,-1.0949999999999989,100.0,27.835,27.945,41.764,42.797,0.0,0.0,100.0,0.0,0.0,0.0,0.0,2871.0,3224.3,3897.5,4299.2,304.0005,302.01433333333335,313.29833333333335,311.848,17.474375,15.857800000000001,17.561625,16.9441,314.999998,314.999998,324.999988,324.999988,99.56495714285714,99.50946666666667,99.57865714285714,99.55551428571428,0.18433333333333346,0.05499999999999994,-0.026600000000000002,0.20420000000000016,-0.05333333333332746,-0.07499999999999574,1.786,1.7585000000000002,41.465,31.360999999999997,42.01,38.150999999999996,64.444,39.249,70.6515,61.452,60.754999999999995,37.596000000000004,67.5525,58.2245,60.788,37.2995,68.7655,58.43,-0.15800000000000003,0.008499999999999952,0.11159000000000001,0.10797000000000001,0.0,210.785,210.85000000000002,208.16333333333333,208.16333333333333,0.0,0.0
16,0.0,0.0,0.0,1.0,1.0,0.0,0.0,1.0,0.0,100.0,1.0,1.1856,26.0,0.0,0.0,0.0,59.999996,0.0,26.0,26.0,26.0,26.0,0.12349999999999994,0.26570000000000005,-0.056525000000000006,290.833,-2.8197,-2.5940000000000003,-1.61005,-1.4312,-222.39,215.97,190.660875,0.0,0.0,0.0,0.0,0.03256666666666667,-5.498166666666667,-5.498166666666667,-0.5664,-0.656,0.084125,-1.024,67.467,0.0886,-0.23165000000000002,-1.2379999999999995,100.0,1.0,1.0,208.54000000000002,0.0,0.0,0.0,0.0,0.0,0.0,0.0,8839.2,0.0,55.0,5.0,242.85333333333335,0.0,0.0,0.0,0.0,0.0,0.0,1.0,0.0,0.8069999999999986,0.8069999999999986,0.0,0.0,0.0,55.0,616.79921,10000.0,85.000001,85.000001,85.000001,85.000001,395.0,0.0,0.0,0.0,1.0,333.33500000000004,50.507,50.507,45.944,45.944,34.0,-18.84,28.198,-22.78333333333333,31.62,0.0,1781.902,-1.0150000000000006,100.0,27.33,28.097,41.964,43.05,0.0,0.0,100.0,0.0,0.0,0.0,0.0,2959.5714285714284,3144.8,4002.875,4167.0,304.083,302.09833333333336,313.0323333333333,312.116,17.486125,15.8654,17.57525,16.9561,314.999998,314.999998,324.999988,324.999988,99.56498571428571,99.50948333333334,99.57881428571429,99.55568571428572,0.18066666666666675,0.057666666666666755,-0.0178,0.21240000000000014,-0.054999999999999716,-0.06374999999999886,1.7650000000000001,1.705,41.538,31.409,42.095,38.226,64.432,39.3045,70.6985,61.533,60.744,37.646,67.595,58.3005,60.775,37.3495,68.8045,58.507,-0.15749999999999997,0.0044999999999999485,0.10905000000000001,0.10420000000000001,0.0,211.18,211.26,208.54000000000002,208.54000000000002,0.0,0.0
17,0.0,0.0,0.0,1.0,1.0,0.0,0.0,1.0,0.0,100.0,1.0,1.1856,26.0,0.0,0.0,0.0,59.999996,0.0,26.0,26.0,26.0,26.0,0.12087500000000007,0.2845,-0.035675,290.588,-2.7761,-2.552,-1.64795,-1.4544000000000001,-218.95,215.9525,190.638375,0.0,0.0,0.0,0.0,0.03456666666666667,-5.498166666666667,-5.498166666666667,-0.5666,0.465,0.06400000000000006,0.621,67.604,0.09670000000000001,-0.224425,-1.2520000000000007,100.0,1.0,1.0,209.0,0.0,0.0,0.0,0.0,0.0,0.0,0.0,8858.8,0.0,55.0,5.0,243.34666666666666,1.0,0.0,0.0,0.0,0.0,0.0,1.0,0.0,0.8580000000000005,0.8580000000000005,0.0,0.0,1.0,55.0,616.79921,10000.0,85.000001,85.000001,85.000001,85.000001,395.0,0.0,0.0,0.0,1.0,333.33500000000004,50.034,50.034,46.371,46.371,34.0,-18.386666666666663,28.536,-22.763333333333335,32.3,0.0,1781.85,-1.049999999999999,100.0,27.863,28.194,41.778,42.928,0.0,0.0,100.0,0.0,0.0,0.0,0.0,3031.285714285714,3196.7,4059.0,4209.5,303.555,302.15,312.9,312.137,17.49825,15.8732,17.5885,16.968,314.999998,314.999998,324.999988,324.999988,99.565,99.50948333333334,99.57898571428571,99.55585714285715,0.19933333333333358,0.06833333333333336,-0.0008,0.21820000000000017,-0.060000000000002274,-0.07750000000000057,1.776,1.7405,41.614000000000004,31.4575,42.178,38.3,64.42699999999999,39.363,70.741,61.6125,60.739000000000004,37.698499999999996,67.6335,58.3755,60.766999999999996,37.4015,68.8395,58.582499999999996,-0.15749999999999997,-0.0004999999999999449,0.10583500000000001,0.10125,0.0,211.65,211.715,209.0,209.0,0.0,0.0
18,0.0,0.0,0.0,1.0,1.0,0.0,0.0,1.0,0.0,100.0,1.0,1.1856,26.0,0.0,0.0,0.0,59.999996,0.0,26.0,26.0,26.0,26.0,0.1296250000000001,0.26370000000000005,-0.011675000000000001,290.573,-2.8097,-2.5273,-1.66375,-1.4016,-215.7,215.9425,190.617375,0.0,0.0,0.0,0.0,0.03646666666666667,-5.498166666666667,-5.498166666666667,-0.5667,-0.442,0.08949999999999991,1.37,67.735,0.0985,-0.230225,-1.2599999999999998,100.0,1.0,1.0,209.3466666666667,0.0,0.0,0.0,0.0,0.0,0.0,0.0,8873.5,0.0,55.0,5.0,243.81666666666666,0.0,0.0,0.0,0.0,0.0,0.0,1.0,0.0,0.9059999999999988,0.9059999999999988,0.0,0.0,0.0,55.0,616.79921,10000.0,85.000001,85.000001,85.000001,85.000001,395.0,0.0,0.0,0.0,1.0,333.33500000000004,50.262,50.262,45.959,45.959,34.0,-17.453333333333333,29.932,-23.15,33.04666666666667,0.0,1781.802,-1.2899999999999991,100.0,27.644,28.075,42.051,43.261,0.0,0.0,100.0,0.0,0.0,0.0,0.0,2952.285714285714,3286.6,4016.375,4256.0,303.929,301.9433333333333,312.9696666666667,311.978,17.509375,15.8805,17.60125,16.9793,314.999998,314.999998,324.999988,324.999988,99.56502857142857,99.5095,99.57912857142857,99.55601428571428,0.21399999999999997,0.08833333333333337,-0.007,0.2338,-0.04999999999999716,-0.06875000000000142,1.7475,1.6935,41.684,31.503,42.257999999999996,38.370999999999995,64.42,39.4165,70.785,61.6905,60.732,37.7465,67.6735,58.449,60.759,37.4495,68.877,58.657,-0.17299999999999993,0.02400000000000002,0.10937000000000001,0.11348000000000001,0.0,212.01999999999998,212.095,209.3466666666667,209.3466666666667,0.0,0.0
19,0.0,0.0,0.0,1.0,1.0,0.0,0.0,1.0,0.0,100.0,1.0,1.1856,26.0,0.0,0.0,0.0,59.999996,0.0,26.0,26.0,26.0,26.0,0.159875,0.28910000000000013,0.004525,290.131,-2.7907,-2.5051,-1.6857000000000002,-1.3764,-212.24,215.9325,190.595,0.0,0.0,0.0,0.0,0.03846666666666667,-5.498166666666667,-5.498166666666667,-0.5680000000000001,0.6153333333333334,0.10299999999999998,-0.45299999999999985,67.87,0.10830000000000001,-0.22942500000000002,-1.5839999999999996,100.0,1.0,1.0,209.82,0.0,0.0,0.0,0.0,0.0,0.0,0.0,8893.5,0.0,55.0,5.0,244.30333333333334,1.0,0.0,0.0,0.0,0.0,0.0,1.0,0.0,0.9570000000000007,0.9570000000000007,0.0,0.0,1.0,55.0,616.79921,10000.0,85.000001,85.000001,85.000001,85.000001,395.0,0.0,0.0,0.0,1.0,333.33500000000004,49.286,49.286,46.173,46.173,34.0,-18.113333333333333,30.954,-22.693333333333335,32.733333333333334,0.0,1781.751,-1.545,100.0,27.863,28.656,41.682,43.355000000000004,0.0,0.0,100.0,0.0,0.0,0.0,0.0,3164.285714285714,3312.5,4048.625,4283.2,303.234,301.46166666666664,313.03566666666666,311.90633333333335,17.521375,15.8884,17.614625,16.9913,314.999998,314.999998,324.999988,324.999988,99.56505714285714,99.50951666666667,99.57928571428572,99.55618571428572,0.22666666666666657,0.10033333333333339,0.006,0.23240000000000016,-0.06333333333333258,-0.07000000000000028,1.799,1.726,41.759,31.552500000000002,42.341,38.446,64.416,39.478,70.827,61.7715,60.727999999999994,37.8025,67.711,58.5255,60.753,37.504999999999995,68.911,58.734,-0.19599999999999995,0.04299999999999993,0.104355,0.10835000000000002,0.0,212.45,212.55,209.82,209.82,0.0,0.0
20,0.0,0.0,0.0,1.0,1.0,0.0,0.0,1.0,0.0,100.0,1.0,1.1856,26.0,0.0,0.0,0.0,59.999996,0.0,26.0,26.0,26.0,26.0,0.17237499999999994,0.2784,0.038200000000000005,290.268,-2.8414,-2.5651,-1.615,-1.3816,-208.76999999999998,215.93,190.572625,0.0,0.0,0.0,0.0,0.0405,-5.498166666666667,-5.498166666666667,-0.5605,-0.8270000000000001,0.11112499999999992,0.6240000000000001,68.009,0.1241,-0.22675,-1.8020000000000005,100.0,1.0,1.0,210.05666666666667,0.0,0.0,0.0,0.0,0.0,0.0,0.0,8903.5,0.0,55.0,5.0,244.80666666666667,0.0,0.0,0.0,0.0,0.0,0.0,0.0,0.0,1.0079999999999991,1.0079999999999991,0.0,0.0,0.0,55.0,616.79921,10000.0,85.000001,85.000001,85.000001,85.000001,395.0,0.0,0.0,0.0,1.0,333.33500000000004,50.583,50.583,44.937,44.937,34.0,-16.35333333333333,29.528,-21.376666666666672,36.83,0.0,1781.7,-0.8849999999999998,100.0,27.562,28.366,42.228,43.708,0.0,0.0,100.0,0.0,0.0,0.0,0.0,2773.4285714285716,3235.7,4139.0,4474.4,304.615,302.004,312.499,311.30733333333336,17.533,15.8962,17.628125,17.0036,314.999998,314.999998,324.999988,324.999988,99.56508571428571,99.50953333333334,99.57945714285714,99.55635714285714,0.21733333333333338,0.07933333333333326,0.0344,0.2654000000000001,-0.03999999999999915,-0.0799999999999983,1.7065000000000001,1.6355,41.831,31.6015,42.426,38.522,64.408,39.538,70.8745,61.8565,60.721000000000004,37.8565,67.75450000000001,58.606,60.742999999999995,37.5585,68.951,58.8155,-0.16100000000000003,0.00649999999999995,0.10763500000000001,0.11794,0.0,212.84,212.97,210.05666666666667,210.05666666666667,0.0,0.0
21,0.0,0.0,0.0,1.0,1.0,0.0,0.0,1.0,0.0,100.0,1.0,1.1856,26.0,0.0,0.0,0.0,59.999996,0.0,26.0,26.0,26.0,26.0,0.12349999999999994,0.264,-0.0463,290.68,-2.7521,-2.6244,-1.6731500000000001,-1.4646,-205.51,215.93,190.55125,0.0,0.0,0.0,0.0,0.0424,-5.498166666666667,-5.498166666666667,-0.5929,0.08633333333333333,0.084125,-0.22699999999999987,68.133,0.1315,-0.245975,-1.1219999999999999,100.0,1.0,1.0,210.73000000000002,0.0,0.0,0.0,0.0,0.0,0.0,0.0,8932.0,0.0,55.0,5.0,245.25,1.0,0.0,0.0,0.0,0.0,0.0,0.0,0.0,1.056000000000001,1.056000000000001,0.0,0.0,1.0,55.0,616.79921,10000.0,85.000001,85.000001,85.000001,85.000001,395.0,0.0,0.0,0.0,1.0,333.33500000000004,49.774,49.774,46.753,46.753,34.0,-19.423333333333336,28.37,-20.226666666666667,32.306666666666665,0.0,1781.652,0.02499999999999858,100.0,27.801,28.414,41.79,43.486000000000004,0.0,0.0,100.0,0.0,0.0,0.0,0.0,3007.142857142857,3276.0,3846.125,4018.9,303.601,301.75333333333333,313.58366666666666,312.6686666666667,17.544125,15.9037,17.640625,17.0148,314.999998,314.999998,324.999988,324.999988,99.56511428571429,99.50953333333334,99.5796,99.55651428571429,0.1676666666666664,0.02633333333333332,0.0246,0.25540000000000007,-0.046666666666666856,-0.07374999999999687,1.8359999999999999,1.7875,41.900999999999996,31.648,42.504,38.592,64.4,39.5925,70.9115,61.93,60.713,37.9055,67.788,58.6755,60.733000000000004,37.6075,68.981,58.8855,-0.08299999999999996,-0.07600000000000007,0.10760000000000002,0.104535,0.0,213.26,213.32,210.73000000000002,210.73000000000002,0.0,0.0
22,0.0,0.0,0.0,1.0,1.0,0.0,0.0,1.0,0.0,100.0,1.0,1.1856,26.0,0.0,0.0,0.0,59.999996,0.0,26.0,26.0,26.0,26.0,0.0963750000000001,0.26990000000000003,0.039575,290.024,-2.7153,-2.6431,-1.5915,-1.5229,-202.03,215.9325,190.5275,0.0,0.0,0.0,0.0,0.0444,-5.498166666666667,-5.498166666666667,-0.5716,0.3813333333333333,0.06474999999999986,-0.6680000000000001,68.27,0.1082,-0.218625,0.1039999999999992,100.0,1.0,1.0,210.93333333333334,0.0,0.0,0.0,0.0,0.0,0.0,0.0,8940.6,0.0,55.0,5.0,245.74666666666667,0.0,0.0,0.0,0.0,0.0,0.0,0.0,0.0,1.1069999999999993,1.1069999999999993,0.0,0.0,0.0,55.0,616.79921,10000.0,85.000001,85.000001,85.000001,85.000001,395.0,0.0,0.0,0.0,1.0,333.33500000000004,49.652,49.652,45.501999999999995,45.501999999999995,34.0,-22.036666666666665,25.156,-24.18,33.24,0.0,1781.601,0.6649999999999991,100.0,27.976,28.614,42.069,43.49,0.0,0.0,100.0,0.0,0.0,0.0,0.0,3075.0,3134.6,4200.875,4237.8,303.4705,301.98966666666666,312.49766666666665,311.93266666666665,17.556125,15.9115,17.654125,17.026699999999998,314.999998,314.999998,324.999988,324.999988,99.56512857142857,99.50955,99.57977142857143,99.55668571428572,0.10933333333333373,-0.028666666666666618,-0.019,0.20579999999999998,-0.07166666666666544,-0.06125000000000114,1.7035,1.7005,41.976,31.697,42.588,38.667,64.39,39.647,70.9585,62.01,60.704,37.955,67.8305,58.751,60.722,37.6565,69.02,58.9615,-0.02949999999999997,-0.13149999999999995,0.10558500000000001,0.11479,0.0,213.745,213.75,210.93333333333334,210.93333333333334,0.0,0.0
23,0.0,0.0,0.0,1.0,1.0,0.0,0.0,1.0,0.0,100.0,1.0,1.1856,26.0,0.0,0.0,0.0,59.999996,0.0,26.0,26.0,26.0,26.0,0.02950000000000008,0.24829999999999997,0.018875,289.948,-2.726,-2.6170999999999998,-1.5571000000000002,-1.558,-198.54,215.9375,190.504,0.0,0.0,0.0,0.0,0.04643333333333333,-5.498166666666667,-5.498166666666667,-0.5827,-0.5123333333333334,0.04525000000000001,0.038000000000000256,68.405,0.0536,-0.24047500000000002,0.8620000000000001,100.0,1.0,1.0,211.35666666666668,0.0,0.0,0.0,0.0,0.0,0.0,0.0,8958.6,0.0,55.0,5.0,246.23333333333335,1.0,0.0,0.0,0.0,0.0,0.0,0.0,0.0,1.1580000000000013,1.1580000000000013,0.0,0.0,1.0,55.0,616.79921,10000.0,85.000001,85.000001,85.000001,85.000001,395.0,0.0,0.0,0.0,1.0,333.33500000000004,49.438,49.438,45.944,45.944,34.0,-24.669999999999998,23.964,-25.253333333333337,30.490000000000002,0.0,1781.549,0.8449999999999989,100.0,28.285,28.32,42.724000000000004,43.612,0.0,0.0,100.0,0.0,0.0,0.0,0.0,3216.0,3202.1,4016.0,4147.6,302.9865,302.13433333333336,312.87233333333336,312.17,17.568,15.9193,17.667749999999998,17.038899999999998,314.999998,314.999998,324.999988,324.999988,99.56514285714286,99.50955,99.57992857142857,99.55685714285714,0.07866666666666644,-0.056333333333333346,-0.0702,0.15759999999999996,-0.05333333333332746,-0.06125000000000114,1.6835,1.704,42.05,31.7455,42.674,38.742999999999995,64.377,39.702,71.00450000000001,62.091499999999996,60.692,38.0045,67.8725,58.828,60.707,37.7055,69.0585,59.039,-0.014000000000000012,-0.15050000000000008,0.10274000000000001,0.11547500000000001,0.0,214.155,214.095,211.35666666666668,211.35666666666668,0.0,0.0
24,0.0,0.0,0.0,1.0,1.0,0.0,0.0,1.0,0.0,100.0,1.0,1.1856,26.0,0.0,0.0,0.0,59.999996,0.0,26.0,26.0,26.0,26.0,-0.046875,0.27180000000000004,-0.1024,290.344,-2.6946,-2.6771000000000003,-1.5679500000000002,-1.5279,-195.26,215.9425,190.48175,0.0,0.0,0.0,0.0,0.04833333333333333,-5.498166666666667,-5.498166666666667,-0.5911000000000001,-0.3413333333333333,0.020375000000000032,0.4830000000000001,68.531,-0.0018000000000000002,-0.23575000000000002,1.2080000000000002,100.0,1.0,1.0,211.76,0.0,0.0,0.0,0.0,0.0,0.0,0.0,8975.7,0.0,55.0,5.0,246.68333333333334,0.0,0.0,0.0,0.0,0.0,0.0,0.0,0.0,1.2059999999999995,1.2059999999999995,0.0,0.0,0.0,55.0,616.79921,10000.0,85.000001,85.000001,85.000001,85.000001,395.0,0.0,0.0,0.0,1.0,333.33500000000004,50.354,50.354,45.516999999999996,45.516999999999996,34.0,-23.986666666666665,21.152,-30.32,26.02,0.0,1781.501,0.7850000000000001,100.0,28.396,28.060000000000002,42.843,43.28,0.0,0.0,100.0,0.0,0.0,0.0,0.0,2978.4285714285716,2978.0,4278.25,4056.7,303.683,302.96733333333333,312.28066666666666,312.58733333333333,17.579375,15.926400000000001,17.6805,17.05,314.999998,314.999998,324.999988,324.999988,99.56514285714286,99.50956666666667,99.58008571428572,99.557,0.040999999999999925,-0.09199999999999997,-0.13019999999999998,0.09860000000000002,-0.046666666666666856,-0.06125000000000114,1.7145000000000001,1.758,42.120999999999995,31.79,42.753,38.813,64.364,39.753,71.0475,62.163,60.68,38.0505,67.911,58.894999999999996,60.694,37.751,69.094,59.1065,-0.018000000000000016,-0.13949999999999996,0.106435,0.11131500000000001,0.0,214.57999999999998,214.47,211.76,211.76,0.0,0.0
25,0.0,0.0,0.0,1.0,1.0,0.0,0.0,1.0,0.0,100.0,1.0,1.1856,26.0,0.0,0.0,0.0,59.999996,0.0,26.0,26.0,26.0,26.0,-0.073125,0.2601,-0.050350000000000006,290.466,-2.6798,-2.6845,-1.5716,-1.5455,-191.76,215.9475,190.45675,0.0,0.0,0.0,0.0,0.05036666666666667,-5.498166666666667,-5.498166666666667,-0.6215,-0.223,0.00550000000000006,-1.301,68.663,-0.0509,-0.2383,1.3979999999999997,100.0,1.0,1.0,212.29000000000002,0.0,0.0,0.0,0.0,0.0,0.0,0.0,8998.1,0.0,55.0,5.0,247.16,1.0,0.0,0.0,0.0,0.0,0.0,0.0,0.0,1.256999999999998,1.256999999999998,0.0,0.0,1.0,55.0,616.79921,10000.0,85.000001,85.000001,85.000001,85.000001,395.0,0.0,0.0,0.0,1.0,166.665,49.789,49.789,46.173,46.173,34.0,-27.516666666666666,20.914,-30.373333333333335,22.693333333333335,0.0,1781.452,0.6799999999999997,100.0,28.141,28.084,42.844,42.854,0.0,0.0,100.0,0.0,0.0,0.0,0.0,3231.0,3089.1,3994.875,3942.3,303.0645,302.34933333333333,313.1433333333333,312.91333333333336,17.59125,15.9339,17.693875,17.061799999999998,314.999998,314.999998,324.999988,324.999988,99.56514285714286,99.50956666666667,99.58025714285715,99.55717142857142,0.0043333333333333,-0.12466666666666659,-0.185,0.04620000000000002,-0.07000000000000028,-0.054999999999999716,1.756,1.8065,42.195,31.8365,42.837,38.885999999999996,64.34700000000001,39.808,71.0915,62.2355,60.664,38.1,67.9515,58.963,60.676,37.8,69.1315,59.175,-0.02300000000000002,-0.131,0.10246000000000001,0.111765,0.0,214.995,214.85000000000002,212.29000000000002,212.29000000000002,0.0,0.0
26,0.0,0.0,0.0,1.0,1.0,0.0,0.0,1.0,0.0,100.0,1.0,1.1856,26.0,0.0,0.0,0.0,59.999996,0.0,26.0,26.0,26.0,26.0,-0.12112499999999993,0.2713000000000001,0.056575,289.139,-2.6747,-2.7567,-1.5862,-1.5667,-188.25,215.95,190.430875,0.0,0.0,0.0,0.0,0.05243333333333334,-5.498166666666667,-5.498166666666667,-0.5887,0.9283333333333333,-0.044624999999999915,-0.03200000000000003,68.798,-0.08320000000000001,-0.2087,1.306000000000001,100.0,1.0,1.0,212.4766666666667,0.0,0.0,0.0,0.0,0.0,0.0,0.0,9006.1,0.0,55.0,5.0,247.64666666666665,0.0,0.0,0.0,0.0,0.0,0.0,0.0,0.0,1.3079999999999998,1.3079999999999998,0.0,0.0,0.0,55.0,616.79921,10000.0,85.000001,85.000001,85.000001,85.000001,395.0,0.0,0.0,0.0,1.0,333.33500000000004,48.721000000000004,48.721000000000004,44.708,44.708,34.0,-28.59,21.490000000000002,-36.513333333333335,24.23,0.0,1781.4,0.4499999999999993,100.0,29.373,28.423000000000002,43.429,42.755,0.0,0.0,100.0,0.0,0.0,0.0,0.0,3316.857142857143,3141.6,4482.125,4322.8,302.49,302.203,311.74833333333333,311.886,17.6035,15.9417,17.7075,17.0737,314.999998,314.999998,324.999988,324.999988,99.56515714285715,99.50958333333334,99.58041428571428,99.55734285714286,0.005666666666666931,-0.1353333333333333,-0.202,0.015200000000000102,-0.05333333333332746,-0.06499999999999773,1.657,1.7075,42.272,31.8855,42.922,38.96,64.336,39.869,71.1405,62.3115,60.653999999999996,38.155,67.996,59.035,60.664,37.854,69.173,59.247,-0.046499999999999986,-0.12050000000000005,0.10975000000000001,0.101555,0.0,215.445,215.325,212.4766666666667,212.4766666666667,0.0,0.0
27,0.0,0.0,0.0,1.0,1.0,0.0,0.0,1.0,0.0,100.0,1.0,1.1856,26.0,0.0,0.0,0.0,59.999996,0.0,26.0,26.0,26.0,26.0,-0.13049999999999995,0.24980000000000002,0.021525000000000002,289.23,-2.6183,-2.7422,-1.56405,-1.6565,-184.95,215.9475,190.40775,0.0,0.0,0.0,0.0,0.05433333333333334,-5.498166666666667,-5.498166666666667,-0.5982000000000001,-1.035,-0.05887500000000001,0.8240000000000003,68.924,-0.0947,-0.245725,1.064,100.0,1.0,1.0,212.82666666666665,0.0,0.0,0.0,0.0,0.0,0.0,0.0,9020.9,0.0,55.0,5.0,248.10000000000002,1.0,0.0,0.0,0.0,0.0,0.0,0.0,0.0,1.355999999999998,1.355999999999998,0.0,0.0,1.0,55.0,616.79921,10000.0,85.000001,85.000001,85.000001,85.000001,395.0,0.0,0.0,0.0,1.0,333.33500000000004,49.301,49.301,44.495,44.495,34.0,-27.403333333333336,20.272,-34.8,25.333333333333332,0.0,1781.352,0.33500000000000085,100.0,29.26,28.141,44.557,43.32,0.0,0.0,100.0,0.0,0.0,0.0,0.0,3231.4285714285716,3062.7,4277.0,4214.1,302.7595,302.73,312.15566666666666,311.9886666666667,17.615,15.9487,17.720625,17.0852,314.999998,314.999998,324.999988,324.999988,99.56515714285715,99.5096,99.58058571428572,99.5575,0.0023333333333335204,-0.14200000000000002,-0.2068,0.019200000000000106,-0.04833333333333201,-0.0625,1.6335000000000002,1.6705,42.344,31.929499999999997,43.004000000000005,39.032,64.32300000000001,39.9225,71.1925,62.3865,60.641999999999996,38.2025,68.0435,59.105000000000004,60.65,37.9015,69.2175,59.317,-0.0605,-0.10749999999999993,0.100375,0.10909,0.0,215.765,215.66500000000002,212.82666666666665,212.82666666666665,0.0,0.0
28,0.0,0.0,0.0,1.0,1.0,0.0,0.0,1.0,0.0,100.0,1.0,1.1856,26.0,0.0,0.0,0.0,59.999996,0.0,26.0,26.0,26.0,26.0,-0.10775000000000001,0.2603,-0.062,289.902,-2.6553,-2.7184,-1.52,-1.6136,-181.43,215.945,190.382875,0.0,0.0,0.0,0.0,0.056400000000000006,-5.498166666666667,-5.498166666666667,-0.6211,0.367,-0.06162500000000026,-0.5219999999999998,69.051,-0.0995,-0.24605000000000002,0.9960000000000004,100.0,1.0,1.0,213.48333333333335,0.0,0.0,0.0,0.0,0.0,0.0,0.0,9048.8,0.0,55.0,5.0,248.55666666666667,0.0,0.0,0.0,0.0,0.0,0.0,0.0,0.0,1.407,1.407,0.0,0.0,0.0,55.0,616.79921,10000.0,85.000001,85.000001,85.000001,85.000001,395.0,0.0,0.0,0.0,1.0,166.665,49.24,49.24,45.959,45.959,34.0,-29.13,19.418,-31.7,21.763333333333335,0.0,1781.302,0.21999999999999886,100.0,29.162,28.229,43.843,42.852000000000004,0.0,0.0,100.0,0.0,0.0,0.0,0.0,3384.0,2977.7,4026.625,3950.1000000000004,302.506,302.783,313.04366666666664,312.9053333333333,17.627125,15.956299999999999,17.734,17.096899999999998,314.999998,314.999998,324.999988,324.999988,99.56515714285715,99.50963333333333,99.58074285714285,99.55765714285714,-0.0020000000000000018,-0.14733333333333332,-0.2204,0.007000000000000117,-0.054999999999999716,-0.06750000000000256,1.7635,1.7974999999999999,42.42,31.9765,43.088,39.105999999999995,64.311,39.980000000000004,71.235,62.457,60.631,38.2545,68.0825,59.1715,60.637,37.9525,69.253,59.3835,-0.06899999999999995,-0.09349999999999992,0.10850000000000001,0.10860500000000001,0.0,216.185,216.09,213.48333333333335,213.48333333333335,0.0,0.0
29,0.0,0.0,0.0,1.0,1.0,0.0,0.0,1.0,0.0,100.0,1.0,1.1856,26.0,0.0,0.0,0.0,59.999996,0.0,26.0,26.0,26.0,26.0,-0.11075000000000002,0.2722,0.021625000000000002,289.474,-2.667,-2.6846,-1.5557500000000002,-1.5943,-177.89999999999998,215.9375,190.356625,0.0,0.0,0.0,0.0,0.05843333333333334,-5.498166666666667,-5.498166666666667,-0.6101,-0.419,-0.05774999999999997,0.7610000000000001,69.185,-0.0937,-0.216225,0.677999999999999,100.0,1.0,1.0,213.65333333333334,0.0,0.0,0.0,0.0,0.0,0.0,0.0,9056.0,0.0,55.0,5.0,249.04000000000002,1.0,0.0,0.0,0.0,0.0,0.0,0.0,0.0,1.4579999999999984,1.4579999999999984,0.0,0.0,1.0,55.0,616.79921,10000.0,85.000001,85.000001,85.000001,85.000001,395.0,0.0,0.0,0.0,1.0,333.33500000000004,49.561,49.561,44.586,44.586,34.0,-27.543333333333333,20.834000000000003,-34.806666666666665,25.093333333333334,0.0,1781.249,0.03500000000000014,100.0,29.002,27.825,44.111000000000004,42.923,0.0,0.0,100.0,0.0,0.0,0.0,0.0,3262.285714285714,3136.8,4359.75,4246.0,302.8945,302.56,312.03166666666664,312.0473333333333,17.639,15.9637,17.747625,17.1088,314.999998,314.999998,324.999988,324.999988,99.56515714285715,99.50965,99.58092857142857,99.55782857142857,0.010666666666666824,-0.128,-0.2,0.031200000000000117,-0.04999999999999716,-0.07750000000000057,1.678,1.6960000000000002,42.494,32.022999999999996,43.173,39.18,64.295,40.0355,71.2845,62.533,60.617000000000004,38.3045,68.128,59.2425,60.620999999999995,38.0015,69.2955,59.455,-0.07899999999999996,-0.08650000000000002,0.10989000000000002,0.10779000000000001,0.0,216.57999999999998,216.515,213.65333333333334,213.65333333333334,0.0,0.0
30,0.0,0.0,0.0,1.0,1.0,0.0,0.0,1.0,0.0,100.0,1.0,1.1856,26.0,0.0,0.0,0.0,59.999996,0.0,26.0,26.0,26.0,26.0,-0.110375,0.2659,0.040725000000000004,288.879,-2.654,-2.6601,-1.4973,-1.5499,-174.57999999999998,215.93,190.331625,0.0,0.0,0.0,0.0,0.060366666666666666,-5.498166666666667,-5.498166666666667,-0.6187,0.4206666666666667,-0.053625000000000256,0.7520000000000002,69.307,-0.0805,-0.23165000000000002,0.47799999999999976,100.0,1.0,1.0,214.07333333333332,0.0,0.0,0.0,0.0,0.0,0.0,0.0,9073.8,0.0,55.0,5.0,249.47666666666666,0.0,0.0,0.0,0.0,0.0,0.0,1.0,0.0,1.5060000000000002,1.5060000000000002,0.0,0.0,0.0,55.0,616.79921,10000.0,85.000001,85.000001,85.000001,85.000001,395.0,0.0,0.0,0.0,1.0,166.665,48.294,48.294,44.83,44.83,34.0,-28.696666666666665,21.848,-32.17333333333333,25.36,0.0,1781.203,-0.07499999999999929,100.0,29.588,28.536,44.047,43.025,0.0,0.0,100.0,0.0,0.0,0.0,0.0,3463.714285714286,3194.1,4251.125,4328.7,302.1375,302.036,312.29966666666667,311.90066666666667,17.650624999999998,15.971,17.760375,17.1201,314.999998,314.999998,324.999988,324.999988,99.56517142857143,99.50966666666666,99.58108571428572,99.55798571428572,0.026333333333333098,-0.11566666666666658,-0.1846,0.03959999999999986,-0.041666666666671404,-0.07124999999999915,1.6925,1.713,42.566,32.069,43.251999999999995,39.251000000000005,64.285,40.091,71.328,62.6035,60.608000000000004,38.3545,68.1675,59.309,60.61,38.051,69.332,59.5215,-0.08999999999999997,-0.07850000000000001,0.105495,0.10994000000000001,0.0,216.96,216.9,214.07333333333332,214.07333333333332,0.0,0.0
31,0.0,0.0,0.0,1.0,1.0,0.0,0.0,1.0,0.0,100.0,1.0,1.1856,26.0,0.0,0.0,0.0,59.999996,0.0,26.0,26.0,26.0,26.0,-0.08424999999999994,0.26290000000000013,0.023325000000000002,288.818,-2.7267,-2.7289,-1.5899,-1.5325,-170.82999999999998,215.91750000000002,190.30425,0.0,0.0,0.0,0.0,0.06253333333333334,-5.498166666666667,-5.498166666666667,-0.6014,-0.339,-0.038374999999999826,0.7010000000000001,69.446,-0.0591,-0.23295000000000002,0.1479999999999997,100.0,1.0,1.0,214.4,0.0,0.0,0.0,0.0,0.0,0.0,0.0,9087.7,0.0,55.0,5.0,249.98000000000002,1.0,0.0,0.0,0.0,0.0,0.0,1.0,0.0,1.5599999999999987,1.5599999999999987,0.0,0.0,1.0,55.0,616.79921,10000.0,85.000001,85.000001,85.000001,85.000001,395.0,0.0,0.0,0.0,1.0,166.665,48.935,48.935,43.564,43.564,34.0,-25.726666666666663,22.624000000000002,-33.736666666666665,25.596666666666668,0.0,1781.149,-0.129999999999999,100.0,29.541,28.818,44.585,43.693,0.0,0.0,100.0,0.0,0.0,0.0,0.0,3166.857142857143,3127.2,4396.875,4240.7,303.2295,302.347,311.895,312.00333333333333,17.663375,15.9793,17.775,17.1331,314.999998,314.999998,324.999988,324.999988,99.56517142857143,99.50968333333333,99.58127142857143,99.55815714285714,0.04466666666666663,-0.09933333333333338,-0.16080000000000003,0.053400000000000114,-0.05333333333332746,-0.058749999999996305,1.6505,1.653,42.646,32.1205,43.343,39.332,64.273,40.1525,71.3815,62.6865,60.596000000000004,38.4095,68.2165,59.387,60.596000000000004,38.1055,69.378,59.5995,-0.09850000000000003,-0.07099999999999995,0.10482500000000002,0.097595,0.0,217.375,217.34,214.4,214.4,0.0,0.0
32,0.0,0.0,0.0,1.0,1.0,0.0,0.0,1.0,0.0,100.0,1.0,1.1856,26.0,0.0,0.0,0.0,59.999996,0.0,26.0,26.0,26.0,26.0,-0.052999999999999936,0.24080000000000013,-0.040075,289.276,-2.6704,-2.7277,-1.62235,-1.6354000000000002,-167.5,215.905,190.280375,0.0,0.0,0.0,0.0,0.0645,-5.498166666666667,-5.498166666666667,-0.6188,-0.062,-0.056624999999999925,0.02400000000000002,69.564,-0.0438,-0.246375,0.1720000000000006,100.0,1.0,1.0,214.96666666666667,0.0,0.0,0.0,0.0,0.0,0.0,0.0,9111.6,0.0,55.0,5.0,250.40333333333334,0.0,0.0,0.0,0.0,0.0,0.0,1.0,0.0,1.6080000000000005,1.6080000000000005,0.0,0.0,0.0,55.0,616.79921,10000.0,85.000001,85.000001,85.000001,85.000001,395.0,0.0,0.0,0.0,1.0,333.33500000000004,48.782,48.782,44.968,44.968,34.0,-25.256666666666664,23.506,-30.53333333333333,26.416666666666668,0.0,1781.099,-0.1850000000000005,100.0,29.421,28.82,44.291,43.659,0.0,0.0,100.0,0.0,0.0,0.0,0.0,3260.4285714285716,3139.7,4110.625,4019.5,302.796,302.36966666666666,312.906,312.66366666666664,17.674625,15.9866,17.787625,17.1444,314.999998,314.999998,324.999988,324.999988,99.56518571428572,99.50968333333333,99.58142857142857,99.55831428571429,0.06533333333333369,-0.07966666666666666,-0.153,0.0806,-0.07000000000000028,-0.06875000000000142,1.7475,1.7445,42.716,32.1665,43.423,39.402,64.261,40.206,71.423,62.7565,60.586,38.457499999999996,68.25450000000001,59.453,60.584,38.153,69.4125,59.665,-0.10299999999999998,-0.06800000000000006,0.11055000000000001,0.10984500000000001,0.0,217.74,217.70499999999998,214.96666666666667,214.96666666666667,0.0,0.0
33,0.0,0.0,0.0,1.0,1.0,0.0,0.0,1.0,0.0,100.0,1.0,1.1856,26.0,0.0,0.0,0.0,59.999996,0.0,26.0,26.0,26.0,26.0,-0.03500000000000003,0.26380000000000003,-0.031200000000000002,289.368,-2.6823,-2.7036,-1.5789,-1.6172,-163.95,215.89,190.254,0.0,0.0,0.0,0.0,0.06656666666666666,-5.498166666666667,-5.498166666666667,-0.6233000000000001,-0.265,-0.05525000000000002,0.08400000000000007,69.694,-0.029400000000000003,-0.229825,0.11400000000000077,100.0,1.0,1.0,215.26333333333332,0.0,0.0,0.0,0.0,0.0,0.0,0.0,9124.2,0.0,55.0,5.0,250.87333333333333,1.0,0.0,0.0,0.0,0.0,0.0,1.0,0.0,1.658999999999999,1.658999999999999,0.0,0.0,1.0,55.0,616.79921,10000.0,85.000001,85.000001,85.000001,85.000001,395.0,0.0,0.0,0.0,1.0,166.665,49.438,49.438,44.678,44.678,34.0,-24.903333333333336,22.29,-31.243333333333336,27.30666666666667,0.0,1781.05,-0.27999999999999936,100.0,29.095,28.678,44.07,43.697,0.0,0.0,100.0,0.0,0.0,0.0,0.0,3227.5714285714284,2980.1,4269.75,4182.0,303.155,302.86566666666664,312.4123333333333,312.214,17.6865,15.9942,17.801125,17.156399999999998,314.999998,314.999998,324.999988,324.999988,99.5652,99.5097,99.5816,99.55848571428571,0.06366666666666676,-0.07333333333333336,-0.1456,0.07600000000000007,-0.06499999999999773,-0.06624999999999659,1.701,1.7145000000000001,42.791,32.213499999999996,43.507,39.477000000000004,64.249,40.257999999999996,71.468,62.8315,60.575,38.5045,68.29599999999999,59.5235,60.571,38.1995,69.4505,59.7355,-0.10749999999999993,-0.05699999999999994,0.10719000000000001,0.10740000000000001,0.0,218.13,218.11,215.26333333333332,215.26333333333332,0.0,0.0
34,0.0,0.0,0.0,1.0,1.0,0.0,0.0,1.0,0.0,100.0,1.0,1.1856,26.0,0.0,0.0,0.0,59.999996,0.0,26.0,26.0,26.0,26.0,-0.02474999999999994,0.2552000000000001,-0.083425,289.688,-2.753,-2.6682,-1.621,-1.5722,-160.6,215.875,190.228125,0.0,0.0,0.0,0.0,0.0685,-5.498166666666667,-5.498166666666667,-0.6478,-0.836,-0.014250000000000096,0.15399999999999991,69.814,-0.0177,-0.23385,0.006000000000000227,100.0,1.0,1.0,215.65333333333334,0.0,0.0,0.0,0.0,0.0,0.0,0.0,9140.8,0.0,55.0,5.0,251.30666666666667,0.0,0.0,0.0,0.0,0.0,0.0,1.0,0.0,1.7070000000000007,1.7070000000000007,0.0,0.0,0.0,55.0,616.79921,10000.0,85.000001,85.000001,85.000001,85.000001,395.0,0.0,0.0,0.0,1.0,333.33500000000004,49.713,49.713,45.578,45.578,34.0,-25.09,22.222,-29.873333333333335,28.19333333333333,0.0,1781.001,-0.3349999999999991,100.0,28.753,28.41,43.82,43.768,0.0,0.0,100.0,0.0,0.0,0.0,0.0,3240.4285714285716,2971.7,4078.75,4208.3,303.164,302.96633333333335,312.985,312.0706666666667,17.697499999999998,16.0013,17.81375,17.1677,314.999998,314.999998,324.999988,324.999988,99.56521428571429,99.50971666666666,99.58175714285714,99.55864285714286,0.07633333333333336,-0.06433333333333335,-0.1428,0.09959999999999991,-0.04999999999999716,-0.060000000000002274,1.7205,1.7165,42.86,32.257999999999996,43.586,39.548,64.236,40.306,71.508,62.9025,60.563,38.5475,68.332,59.5905,60.557,38.242,69.48349999999999,59.8025,-0.10999999999999999,-0.0535000000000001,0.11198500000000002,0.1116,0.0,218.47,218.465,215.65333333333334,215.65333333333334,0.0,0.0
35,0.0,0.0,0.0,1.0,1.0,0.0,0.0,1.0,0.0,100.0,1.0,1.1856,26.0,0.0,0.0,0.0,59.999996,0.0,26.0,26.0,26.0,26.0,-0.012499999999999956,0.26239999999999997,-0.053325000000000004,289.764,-2.7645,-2.6313,-1.59905,-1.5455999999999999,-157.03,215.85750000000002,190.1985,0.0,0.0,0.0,0.0,0.07056666666666667,-5.498166666666667,-5.498166666666667,-0.6942,-0.7903333333333334,-0.01200000000000001,-0.12699999999999978,69.941,-0.0054,-0.24602500000000002,-0.12600000000000033,100.0,1.0,1.0,216.11666666666667,0.0,0.0,0.0,0.0,0.0,0.0,0.0,9160.4,0.0,55.0,5.0,251.76,1.0,0.0,0.0,0.0,0.0,0.0,1.0,0.0,1.7579999999999991,1.7579999999999991,0.0,0.0,1.0,55.0,616.79921,10000.0,85.000001,85.000001,85.000001,85.000001,395.0,0.0,0.0,0.0,1.0,333.33500000000004,49.484,49.484,44.876,44.876,34.0,-23.673333333333336,25.47,-27.736666666666665,27.333333333333332,0.0,1780.949,-0.29999999999999893,100.0,28.591,28.405,43.593,43.45,0.0,0.0,100.0,0.0,0.0,0.0,0.0,3124.857142857143,3310.3,4069.25,4011.0,303.539,301.7993333333333,312.81266666666664,312.8093333333333,17.709125,16.009,17.827125,17.1796,314.999998,314.999998,324.999988,324.999988,99.56521428571429,99.50971666666666,99.58192857142858,99.55881428571429,0.08866666666666667,-0.047666666666666635,-0.1056,0.12759999999999994,-0.061666666666667425,-0.07374999999999687,1.7635,1.7535,42.932,32.3065,43.669,39.623000000000005,64.22,40.362,71.5515,62.9795,60.548,38.598,68.3715,59.663,60.54,38.292,69.519,59.875,-0.10499999999999998,-0.05800000000000005,0.10463000000000001,0.11904,0.0,218.85500000000002,218.87,216.11666666666667,216.11666666666667,0.0,0.0
36,0.0,0.0,0.0,1.0,1.0,0.0,0.0,1.0,0.0,100.0,1.0,1.1856,26.0,0.0,0.0,0.0,59.999996,0.0,26.0,26.0,26.0,26.0,-0.014624999999999999,0.26180000000000003,-0.00205,288.986,-2.7641999999999998,-2.6095,-1.61325,-1.5492,-153.67,215.8425,190.169,0.0,0.0,0.0,0.0,0.07253333333333334,-5.498166666666667,-5.498166666666667,-0.682,0.594,-0.050875000000000004,-0.05799999999999983,70.061,0.0029000000000000002,-0.21530000000000002,-0.12199999999999989,100.0,1.0,1.0,216.33333333333331,0.0,0.0,0.0,0.0,0.0,0.0,0.0,9169.6,0.0,55.0,5.0,252.19333333333333,0.0,0.0,0.0,0.0,0.0,0.0,1.0,0.0,1.806000000000001,1.806000000000001,0.0,0.0,0.0,55.0,616.79921,10000.0,85.000001,85.000001,85.000001,85.000001,395.0,0.0,0.0,0.0,1.0,333.33500000000004,48.888999999999996,48.888999999999996,44.632,44.632,34.0,-24.663333333333334,24.868,-30.206666666666663,31.166666666666668,0.0,1780.901,-0.29499999999999993,100.0,29.156,28.837,43.501,43.374,0.0,0.0,100.0,0.0,0.0,0.0,0.0,3244.4285714285716,3229.5,4366.375,4429.0,302.981,302.1426666666667,312.2096666666667,311.63,17.72025,16.0166,17.839624999999998,17.1909,314.999998,314.999998,324.999988,324.999988,99.56522857142858,99.50973333333333,99.58207142857142,99.55897142857143,0.09333333333333371,-0.03933333333333333,-0.1014,0.12840000000000007,-0.04833333333333201,-0.07750000000000057,1.6880000000000002,1.6760000000000002,43.001000000000005,32.354,43.748000000000005,39.693,64.212,40.411500000000004,71.589,63.045,60.541,38.643,68.406,59.7245,60.531,38.3365,69.5505,59.937,-0.10599999999999998,-0.0605,0.10832000000000001,0.107645,0.0,219.29500000000002,219.285,216.33333333333331,216.33333333333331,0.0,0.0
