,ABS Active,ABS Enabled,AID Allow Tire Blankets,AID Auto Blip,AID Auto Clutch,AID Auto Shift,AID Fuel Rate,AID Ideal Line,AID Mech Damage,AID Stability,AID Tire Wear Rate,Air Density,Air Temp,Ballast,Best Lap Delta,Best Lap Time,Brake Bias,Brake Pos,Brake Temp FL,Brake Temp FR,Brake Temp RL,Brake Temp RR,CG Accel Lateral,CG Accel Longitudinal,CG Accel Vertical,CG Height,Camber FL,Camber FR,Camber RL,Camber RR,Car Coord X,Car Coord Y,Car Coord Z,Car Damage Front,Car Damage Left,Car Damage Rear,Car Damage Right,Car Pos Norm,Caster FL,Caster FR,Chassis Pitch Angle,Chassis Pitch Rate,Chassis Roll Angle,Chassis Roll Rate,Chassis Velocity X,Chassis Velocity Y,Chassis Velocity Z,Chassis Yaw Rate,Clutch Pos,DRS Active,DRS Available,Drive Train Speed,ERS Heat Charging,ERS Is Charging,ERS Max Energy,ERS Power Level,ERS Recovery Level,Engine Brake Setting,Engine Limiter,Engine RPM,Flags,Fuel Level,Gear,Ground Speed,HR Sample Clock,In Pit,KERS Charge,KERS Deployed Energy,KERS Input,KERS Max Energy,LR Sample Clock,Lap Invalidated,Lap Time,Lap Time2,Last Lap Time,Last Sector Time,MR Sample Clock,Max Fuel,Max Power,Max RPM,Max Sus Travel FL,Max Sus Travel FR,Max Sus Travel RL,Max Sus Travel RR,Max Torque,Max Turbo Boost,Num Tires Off Track,Penalties Enabled,Position,Raw Data Sample Rate,Ride Height FL,Ride Height FR,Ride Height RL,Ride Height RR,Road Temp,Self Align Torque FL,Self Align Torque FR,Self Align Torque RL,Self Align Torque RR,Session Lap Count,Session Time Left,Steering Angle,Surface Grip,Suspension Travel FL,Suspension Travel FR,Suspension Travel RL,Suspension Travel RR,TC Active,TC Enabled,Throttle Pos,Tire Dirt Level FL,Tire Dirt Level FR,Tire Dirt Level RL,Tire Dirt Level RR,Tire Load FL,Tire Load FR,Tire Load RL,Tire Load RR,Tire Loaded Radius FL,Tire Loaded Radius FR,Tire Loaded Radius RL,Tire Loaded Radius RR,Tire Pressure FL,Tire Pressure FR,Tire Pressure RL,Tire Pressure RR,Tire Radius FL,Tire Radius FR,Tire Radius RL,Tire Radius RR,Tire Rubber Grip FL,Tire Rubber Grip FR,Tire Rubber Grip RL,Tire Rubber Grip RR,Tire Slip Angle FL,Tire Slip Angle FR,Tire Slip Angle RL,Tire Slip Angle RR,Tire Slip Ratio FL,Tire Slip Ratio FR,Tire Slip Ratio RL,Tire Slip Ratio RR,Tire Temp Core FL,Tire Temp Core FR,Tire Temp Core RL,Tire Temp Core RR,Tire Temp Inner FL,Tire Temp Inner FR,Tire Temp Inner RL,Tire Temp Inner RR,Tire Temp Middle FL,Tire Temp Middle FR,Tire Temp Middle RL,Tire Temp Middle RR,Tire Temp Outer FL,Tire Temp Outer FR,Tire Temp Outer RL,Tire Temp Outer RR,Toe In FL,Toe In FR,Toe In RL,Toe In RR,Turbo Boost,Wheel Angular Speed FL,Wheel Angular Speed FR,Wheel Angular Speed RL,Wheel Angular Speed RR,Wind Direction,Wind Speed
0,0.0,0.0,0.0,1.0,1.0,0.0,0.0,1.0,0.0,100.0,1.0,1.1856,26.0,0.0,0.0,0.0,59.99999,0.0,26.0,26.0,26.0,26.0,-0.0955555555555555,0.30279999999999996,0.00315,291.168,-2.7260999999999997,-2.4493,-1.522,-1.5030000000000001,-275.68,216.16750000000002,190.98475,0.0,0.0,0.0,0.0,0.0016,-5.498166666666667,-5.498166666666667,-0.5979,2.6710000000000003,0.011624999999999996,-0.20900000000000007,65.13,-0.05049999999999999,-0.2581,1.0079999999999991,100.0,1.0,1.0,201.78333333333333,0.0,0.0,0.0,0.0,0.0,0.0,0.0,8552.9,0.0,55.0,5.0,234.43666666666667,0.0,0.0,0.0,0.0,0.0,0.0,0.0,0.0,0.0030000000000001137,0.0030000000000001137,0.0,0.0,0.0,55.0,616.79921,10000.0,85.0,85.0,85.0,85.0,395.0,0.0,0.0,0.0,1.0,20.0,48.37,48.37,48.019,48.019,34.0,-27.936666666666664,21.324,-28.103333333333335,21.5225,0.0,1782.668888888889,0.8000000000000007,100.0,28.17,27.474,39.605000000000004,39.536,0.0,0.0,100.0,0.0,0.0,0.0,0.0,3195.5714285714284,3521.1,3942.125,3932.3,302.208,299.8453333333333,312.7366666666667,312.2656666666667,16.40657142857143,14.812999999999999,16.505857142857142,15.885875,314.99999,314.99999,324.99998,324.99998,99.56545714285714,99.50978333333333,99.57845714285715,99.55485714285714,-0.0009999999999998899,-0.13,-0.17599999999999993,0.04380000000000006,-0.07000000000000028,-0.051666666666669414,1.9055,1.933,41.041,31.081,41.662,37.787,66.407,39.486000000000004,72.453,62.3655,62.315,37.715,68.9925,58.822,62.608000000000004,37.482,70.5855,59.2335,-0.025000000000000022,-0.13200000000000012,0.10565000000000001,0.09977000000000001,0.0,204.11,204.0,201.78333333333333,201.78333333333333,0.0,0.0
1,0.0,0.0,0.0,1.0,1.0,0.0,0.0,1.0,0.0,100.0,1.0,1.1856,26.0,0.0,0.0,0.0,59.999996,0.0,26.0,26.0,26.0,26.0,-0.11122222222222211,0.30510000000000015,0.080375,290.039,-2.6330999999999998,-2.787,-1.524,-1.5423,-272.16,216.1725,190.963375,0.0,0.0,0.0,0.0,0.003633333333333334,-5.498166666666667,-5.498166666666667,-0.49050000000000005,-0.417,-0.05250000000000021,-1.144,65.297,-0.06659999999999999,-0.19355,1.3279999999999994,100.0,1.0,1.0,201.68666666666667,0.0,0.0,0.0,0.0,0.0,0.0,0.0,8548.8,0.0,55.0,5.0,235.0366666666667,1.0,0.0,0.0,0.0,0.0,0.0,0.0,0.0,0.05699999999999861,0.05699999999999861,0.0,0.0,1.0,55.0,616.79921,10000.0,85.000001,85.000001,85.000001,85.000001,395.0,0.0,0.0,0.0,1.0,166.665,50.858000000000004,50.858000000000004,45.105000000000004,45.105000000000004,34.0,-25.566666666666666,16.551999999999996,-36.193333333333335,28.375,0.0,1782.6166666666666,0.9550000000000001,100.0,28.025,27.368,42.162,41.328,0.0,0.0,100.0,0.0,0.0,0.0,0.0,2965.0,2589.4,4561.125,4797.1,303.1905,303.8636666666667,310.587,309.38,16.420428571428573,14.821,16.521571428571427,15.899375,314.999998,314.999998,324.999988,324.999988,99.56547142857143,99.50981666666667,99.57864285714285,99.55502857142856,-0.02200000000000002,-0.15333333333333332,-0.19240000000000002,0.030999999999999917,-0.06666666666666998,-0.05666666666667197,1.5975,1.661,41.128,31.131,41.76,37.870999999999995,66.392,39.55,72.5205,62.466,62.302,37.772,69.054,58.915,62.592,37.538,70.644,59.328,-0.0040000000000000036,-0.14949999999999997,0.10823,0.11666000000000001,0.0,204.60500000000002,204.485,201.68666666666667,201.68666666666667,0.0,0.0
2,0.0,0.0,0.0,1.0,1.0,0.0,0.0,1.0,0.0,100.0,1.0,1.1856,26.0,0.0,0.0,0.0,59.999996,0.0,26.0,26.0,26.0,26.0,-0.15422222222222215,0.2723,-0.13785,291.199,-2.5887000000000002,-2.7903000000000002,-1.4881,-1.6194000000000002,-269.02,216.175,190.94625,0.0,0.0,0.0,0.0,0.0054666666666666665,-5.498166666666667,-5.498166666666667,-0.5734,-0.9935,-0.06099999999999994,2.319,65.428,-0.08439999999999992,-0.28747500000000004,1.7080000000000002,100.0,1.0,1.0,202.73000000000002,0.0,0.0,0.0,0.0,0.0,0.0,0.0,8593.0,0.0,55.0,5.0,235.51333333333332,0.0,0.0,0.0,0.0,0.0,0.0,0.0,0.0,0.10500000000000043,0.10500000000000043,0.0,0.0,0.0,55.0,616.79921,10000.0,85.000001,85.000001,85.000001,85.000001,395.0,0.0,0.0,0.0,1.0,333.33500000000004,49.24,49.24,48.248,48.248,34.0,-31.05666666666667,17.785999999999998,-28.283333333333335,17.79,0.0,1782.5677777777778,1.0599999999999987,100.0,28.528,27.111,42.376,41.077,0.0,0.0,100.0,0.0,0.0,0.0,0.0,3396.714285714286,2894.6,3685.875,3495.1,301.4285,302.72833333333335,313.22333333333336,313.68,16.433,14.8278,16.535285714285713,15.910875,314.999998,314.999998,324.999988,324.999988,99.56547142857143,99.50983333333333,99.57878571428571,99.55517142857143,-0.05333333333333323,-0.17833333333333334,-0.2327999999999999,-0.0050000000000000044,-0.04333333333332945,-0.08500000000000085,1.904,1.9769999999999999,41.207,31.174,41.845,37.943,66.384,39.602000000000004,72.57,62.5385,62.294,37.818,69.099,58.983000000000004,62.583,37.585,70.6865,59.3965,0.006000000000000005,-0.1605000000000001,0.10671000000000001,0.09644000000000001,0.0,204.94,204.805,202.73000000000002,202.73000000000002,0.0,0.0
3,0.0,0.0,0.0,1.0,1.0,0.0,0.0,1.0,0.0,100.0,1.0,1.1856,26.0,0.0,0.0,0.0,59.999996,0.0,26.0,26.0,26.0,26.0,-0.16255555555555556,0.30710000000000015,0.038775000000000004,290.878,-2.6462,-2.6705,-1.5099,-1.5703,-265.87,216.1725,190.92775,0.0,0.0,0.0,0.0,0.0073,-5.498166666666667,-5.498166666666667,-0.5417000000000001,1.214,0.003249999999999975,0.6950000000000003,65.56700000000001,-0.10939999999999994,-0.22792500000000002,1.67,100.0,1.0,1.0,202.96333333333334,0.0,0.0,0.0,0.0,0.0,0.0,0.0,8602.9,0.0,55.0,5.0,236.01,1.0,0.0,0.0,0.0,0.0,0.0,0.0,0.0,0.1529999999999987,0.1529999999999987,0.0,0.0,1.0,55.0,616.79921,10000.0,85.000001,85.000001,85.000001,85.000001,395.0,0.0,0.0,0.0,1.0,333.33500000000004,49.927,49.927,46.463,46.463,34.0,-27.536666666666665,17.198,-33.379999999999995,20.427500000000002,0.0,1782.52,0.9000000000000004,100.0,28.396,27.284,41.669,40.54,0.0,0.0,100.0,0.0,0.0,0.0,0.0,3014.142857142857,2974.8,4113.875,4111.9,303.005,302.2303333333333,312.07233333333335,311.797,16.445571428571427,14.8351,16.548428571428573,15.922125,314.999998,314.999998,324.999988,324.999988,99.56547142857143,99.50985,99.57894285714286,99.55532857142857,-0.056333333333333124,-0.18366666666666664,-0.24560000000000004,-0.02059999999999995,-0.07166666666666544,-0.09166666666666856,1.816,1.891,41.285,31.22,41.928,38.013999999999996,66.375,39.663,72.615,62.6145,62.286,37.873000000000005,69.1395,59.0535,62.573,37.638999999999996,70.7245,59.4685,-0.005499999999999949,-0.14400000000000013,0.111545,0.10704000000000001,0.0,205.465,205.335,202.96333333333334,202.96333333333334,0.0,0.0
4,0.0,0.0,0.0,1.0,1.0,0.0,0.0,1.0,0.0,100.0,1.0,1.1856,26.0,0.0,0.0,0.0,59.999996,0.0,26.0,26.0,26.0,26.0,-0.16866666666666663,0.29259999999999997,0.0149,290.848,-2.6571,-2.7846,-1.5203,-1.595,-262.33,216.16750000000002,190.906875,0.0,0.0,0.0,0.0,0.009366666666666667,-5.498166666666667,-5.498166666666667,-0.5432,-1.057,-0.07925000000000004,-1.304,65.725,-0.123,-0.23692500000000002,1.556000000000001,100.0,1.0,1.0,203.32,0.0,0.0,0.0,0.0,0.0,0.0,0.0,8617.9,0.0,55.0,5.0,236.58333333333331,0.0,0.0,0.0,0.0,0.0,0.0,0.0,0.0,0.20700000000000074,0.20700000000000074,0.0,0.0,0.0,55.0,616.79921,10000.0,85.000001,85.000001,85.000001,85.000001,395.0,0.0,0.0,0.0,1.0,166.665,50.278,50.278,45.944,45.944,34.0,-29.116666666666667,17.241999999999997,-34.946666666666665,19.6175,0.0,1782.4666666666667,0.9600000000000009,100.0,28.044,26.782,42.443,41.062,0.0,0.0,100.0,0.0,0.0,0.0,0.0,3160.285714285714,2885.8,4220.75,3843.9,302.6155,302.71,311.579,312.4173333333333,16.459142857142858,14.8431,16.56385714285714,15.935375,314.999998,314.999998,324.999988,324.999988,99.56548571428571,99.50988333333333,99.57911428571428,99.5555,-0.058666666666666645,-0.19033333333333335,-0.243,-0.01759999999999995,-0.06333333333333258,-0.0899999999999963,1.7545,1.8290000000000002,41.370000000000005,31.269,42.024,38.096000000000004,66.359,39.727000000000004,72.6765,62.705,62.272,37.93,69.1955,59.138,62.556,37.696,70.778,59.554,-0.0034999999999999476,-0.15300000000000002,0.11202500000000001,0.108475,0.0,205.885,205.765,203.32,203.32,0.0,0.0
5,0.0,0.0,0.0,1.0,1.0,0.0,0.0,1.0,0.0,100.0,1.0,1.1856,26.0,0.0,0.0,0.0,59.999996,0.0,26.0,26.0,26.0,26.0,-0.18766666666666665,0.30679999999999996,-0.046525000000000004,291.10699999999997,-2.6456,-2.7771,-1.4842,-1.6007,-259.17,216.1575,190.888,0.0,0.0,0.0,0.0,0.0112,-5.498166666666667,-5.498166666666667,-0.5623,0.17300000000000001,-0.10050000000000026,1.2220000000000004,65.86,-0.13379999999999992,-0.24677500000000002,1.67,100.0,1.0,1.0,203.89666666666668,0.0,0.0,0.0,0.0,0.0,0.0,0.0,8642.4,0.0,55.0,5.0,237.06666666666666,1.0,0.0,0.0,0.0,0.0,0.0,0.0,0.0,0.254999999999999,0.254999999999999,0.0,0.0,1.0,55.0,616.79921,10000.0,85.000001,85.000001,85.000001,85.000001,395.0,0.0,0.0,0.0,1.0,166.665,50.079,50.079,47.119,47.119,34.0,-30.66,17.174,-33.056666666666665,18.44,0.0,1782.418888888889,0.8100000000000005,100.0,28.26,26.601,42.36,40.567,0.0,0.0,100.0,0.0,0.0,0.0,0.0,3245.714285714286,2880.5,4029.25,3853.2,302.0725,302.7776666666667,312.329,312.55833333333334,16.471714285714285,14.8501,16.577285714285715,15.946625000000001,314.999998,314.999998,324.999988,324.999988,99.56548571428571,99.5099,99.57927142857143,99.55565714285714,-0.07000000000000006,-0.18899999999999995,-0.26460000000000006,-0.03859999999999997,-0.03333333333333144,-0.05833333333333002,1.8355,1.901,41.448,31.313,42.108000000000004,38.167,66.353,39.784,72.72749999999999,62.7755,62.266,37.980000000000004,69.242,59.2035,62.549,37.745999999999995,70.822,59.62,-0.01200000000000001,-0.13149999999999995,0.10219,0.112835,0.0,206.32999999999998,206.17000000000002,203.89666666666668,203.89666666666668,0.0,0.0
6,0.0,0.0,0.0,1.0,1.0,0.0,0.0,1.0,0.0,100.0,1.0,1.1856,26.0,0.0,0.0,0.0,59.999996,0.0,26.0,26.0,26.0,26.0,-0.17588888888888887,0.2934000000000001,0.011725000000000001,290.863,-2.6264,-2.7724,-1.54,-1.5835,-256.01,216.14499999999998,190.86875,0.0,0.0,0.0,0.0,0.013033333333333334,-5.498166666666667,-5.498166666666667,-0.5428000000000001,0.498,-0.07100000000000017,1.0110000000000001,65.997,-0.1422,-0.223525,1.443999999999999,100.0,1.0,1.0,204.2266666666667,0.0,0.0,0.0,0.0,0.0,0.0,0.0,8656.4,0.0,55.0,5.0,237.56,0.0,0.0,0.0,0.0,0.0,0.0,0.0,0.0,0.3030000000000008,0.3030000000000008,0.0,0.0,0.0,55.0,616.79921,10000.0,85.000001,85.000001,85.000001,85.000001,395.0,0.0,0.0,0.0,1.0,166.665,50.186,50.186,46.432,46.432,34.0,-28.87,17.71,-34.79666666666667,19.43,0.0,1782.371111111111,0.3650000000000002,100.0,28.14,26.701,42.376,40.694,0.0,0.0,100.0,0.0,0.0,0.0,0.0,3141.4285714285716,2938.5,4102.875,4052.2,302.461,302.479,312.1093333333333,311.9563333333333,16.484142857142857,14.8573,16.590857142857143,15.95825,314.999998,314.999998,324.999988,324.999988,99.5655,99.50991666666667,99.57944285714285,99.55581428571429,-0.057666666666666755,-0.18599999999999994,-0.2662,-0.040000000000000036,-0.045000000000001705,-0.07000000000000028,1.7865,1.847,41.525999999999996,31.358,42.193,38.239000000000004,66.345,39.842,72.778,62.8535,62.259,38.032,69.288,59.275999999999996,62.539,37.797,70.8655,59.693,-0.040000000000000036,-0.11299999999999999,0.10536500000000001,0.10602500000000001,0.0,206.76,206.64,204.2266666666667,204.2266666666667,0.0,0.0
7,0.0,0.0,0.0,1.0,1.0,0.0,0.0,1.0,0.0,100.0,1.0,1.1856,26.0,0.0,0.0,0.0,59.999996,0.0,26.0,26.0,26.0,26.0,-0.15755555555555556,0.2892000000000001,0.02525,290.512,-2.5909,-2.7385,-1.491,-1.6389,-252.64,216.125,190.84825,0.0,0.0,0.0,0.0,0.015000000000000001,-5.498166666666667,-5.498166666666667,-0.5427000000000001,-0.2545,-0.07587499999999991,-0.6269999999999998,66.143,-0.13179999999999992,-0.23215000000000002,1.1020000000000003,100.0,1.0,1.0,204.60666666666668,0.0,0.0,0.0,0.0,0.0,0.0,0.0,8672.6,0.0,55.0,5.0,238.08666666666667,1.0,0.0,0.0,0.0,0.0,0.0,0.0,0.0,0.3539999999999992,0.3539999999999992,0.0,0.0,1.0,55.0,616.79921,10000.0,85.000001,85.000001,85.000001,85.000001,395.0,0.0,0.0,0.0,1.0,333.33500000000004,49.881,49.881,46.326,46.326,34.0,-29.62666666666667,18.134,-34.57666666666667,20.9775,0.0,1782.32,0.14000000000000057,100.0,27.98,26.737000000000002,42.527,41.196,0.0,0.0,100.0,0.0,0.0,0.0,0.0,3350.4285714285716,2882.6,4176.75,3994.6000000000004,301.8435,302.516,311.8736666666667,311.90433333333334,16.497285714285717,14.864799999999999,16.605285714285714,15.970625,314.999998,314.999998,324.999988,324.999988,99.56551428571429,99.50993333333334,99.5796,99.55597142857143,-0.03633333333333311,-0.16166666666666663,-0.25660000000000005,-0.023399999999999976,-0.0833333333333286,-0.06333333333333258,1.766,1.8010000000000002,41.608000000000004,31.405,42.283,38.317,66.33500000000001,39.900999999999996,72.8335,62.9375,62.25,38.085,69.3385,59.3545,62.528,37.85,70.9135,59.7725,-0.06799999999999995,-0.08499999999999996,0.11071500000000001,0.10945,0.0,207.17000000000002,207.055,204.60666666666668,204.60666666666668,0.0,0.0
8,0.0,0.0,0.0,1.0,1.0,0.0,0.0,1.0,0.0,100.0,1.0,1.1856,26.0,0.0,0.0,0.0,59.999996,0.0,26.0,26.0,26.0,26.0,-0.12944444444444447,0.2957000000000001,0.012100000000000001,290.878,-2.6687,-2.7527,-1.4696,-1.5674000000000001,-249.26,216.10250000000002,190.828,0.0,0.0,0.0,0.0,0.016966666666666668,-5.498166666666667,-5.498166666666667,-0.5496,-0.3565,-0.056624999999999925,1.045,66.287,-0.11380000000000001,-0.2321,0.5820000000000007,100.0,1.0,1.0,205.05333333333334,0.0,0.0,0.0,0.0,0.0,0.0,0.0,8691.5,0.0,55.0,5.0,238.60333333333335,0.0,0.0,0.0,0.0,0.0,0.0,0.0,0.0,0.40500000000000114,0.40500000000000114,0.0,0.0,0.0,55.0,616.79921,10000.0,85.000001,85.000001,85.000001,85.000001,395.0,0.0,0.0,0.0,1.0,333.33500000000004,50.644,50.644,45.929,45.929,34.0,-26.366666666666664,19.44,-32.36,21.9075,0.0,1782.2688888888888,-0.07000000000000028,100.0,27.85,26.603,42.592,41.057,0.0,0.0,100.0,0.0,0.0,0.0,0.0,3041.142857142857,2938.6,4125.75,4088.7,302.9185,302.52233333333334,311.956,311.81766666666664,16.510285714285715,14.872399999999999,16.619714285714284,15.983,314.999998,314.999998,324.999988,324.999988,99.56551428571429,99.50995,99.57977142857143,99.55612857142857,-0.014000000000000012,-0.1383333333333333,-0.22699999999999998,0.005400000000000071,-0.07166666666666544,-0.0833333333333286,1.7845,1.803,41.69,31.453,42.373000000000005,38.393,66.32300000000001,39.96,72.8875,63.018,62.238,38.137,69.3875,59.4295,62.513999999999996,37.902,70.9595,59.848,-0.07999999999999996,-0.0665,0.109295,0.10645500000000001,0.0,207.60500000000002,207.54500000000002,205.05333333333334,205.05333333333334,0.0,0.0
9,0.0,0.0,0.0,1.0,1.0,0.0,0.0,1.0,0.0,100.0,1.0,1.1856,26.0,0.0,0.0,0.0,59.999996,0.0,26.0,26.0,26.0,26.0,-0.08833333333333337,0.28300000000000014,-0.02245,290.634,-2.667,-2.7462,-1.5349,-1.5716,-245.88,216.0775,190.807125,0.0,0.0,0.0,0.0,0.018933333333333337,-5.498166666666667,-5.498166666666667,-0.5532,0.493,-0.053749999999999964,-0.476,66.428,-0.09229999999999994,-0.22862500000000002,0.4660000000000002,100.0,1.0,1.0,205.59333333333333,0.0,0.0,0.0,0.0,0.0,0.0,0.0,8714.3,0.0,55.0,5.0,239.11333333333334,1.0,0.0,0.0,0.0,0.0,0.0,0.0,0.0,0.4559999999999995,0.4559999999999995,0.0,0.0,1.0,55.0,616.79921,10000.0,85.000001,85.000001,85.000001,85.000001,395.0,0.0,0.0,0.0,1.0,166.665,49.606,49.606,46.936,46.936,34.0,-28.563333333333333,20.628,-30.793333333333333,22.3275,0.0,1782.2177777777779,-0.3149999999999995,100.0,27.97,27.041,42.17,41.19,0.0,0.0,100.0,0.0,0.0,0.0,0.0,3396.4285714285716,2932.8,4010.5,3982.9,301.779,302.2536666666667,312.4796666666667,312.0826666666667,16.52342857142857,14.8802,16.633857142857142,15.99525,314.999998,314.999998,324.999988,324.999988,99.56551428571429,99.50996666666667,99.57994285714285,99.55628571428572,0.01200000000000001,-0.11199999999999999,-0.20599999999999996,0.028000000000000025,-0.07000000000000028,-0.060000000000002274,1.8175,1.845,41.772,31.500999999999998,42.462,38.47,66.311,40.019,72.9365,63.0985,62.227999999999994,38.19,69.4325,59.5045,62.501999999999995,37.954,71.002,59.9235,-0.10299999999999998,-0.05499999999999994,0.10139500000000001,0.11549000000000001,0.0,208.055,207.985,205.59333333333333,205.59333333333333,0.0,0.0
10,0.0,0.0,0.0,1.0,1.0,0.0,0.0,1.0,0.0,100.0,1.0,1.1856,26.0,0.0,0.0,0.0,59.999996,0.0,26.0,26.0,26.0,26.0,-0.06377777777777782,0.29110000000000014,0.027075000000000002,290.344,-2.6307,-2.7369,-1.5011,-1.5591,-242.68,216.0525,190.7875,0.0,0.0,0.0,0.0,0.020766666666666666,-5.498166666666667,-5.498166666666667,-0.5298,-0.0985,-0.02400000000000002,0.25,66.565,-0.06969999999999998,-0.215475,0.0940000000000003,100.0,1.0,1.0,205.79666666666668,0.0,0.0,0.0,0.0,0.0,0.0,0.0,8723.0,0.0,55.0,5.0,239.60666666666668,0.0,0.0,0.0,0.0,0.0,0.0,1.0,0.0,0.5040000000000013,0.5040000000000013,0.0,0.0,0.0,55.0,616.79921,10000.0,85.000001,85.000001,85.000001,85.000001,395.0,0.0,0.0,0.0,1.0,333.33500000000004,50.43,50.43,45.364,45.364,34.0,-23.95,20.336,-32.79666666666667,25.3275,0.0,1782.1677777777777,-0.4599999999999991,100.0,27.958,27.121,42.434,41.730000000000004,0.0,0.0,100.0,0.0,0.0,0.0,0.0,3075.857142857143,2818.7,4349.375,4205.3,302.917,302.7336666666667,311.3763333333333,311.31533333333334,16.535714285714285,14.8875,16.64757142857143,16.007,314.999998,314.999998,324.999988,324.999988,99.56552857142857,99.50998333333334,99.5801,99.55644285714286,0.04233333333333311,-0.09333333333333338,-0.18420000000000003,0.051200000000000134,-0.061666666666667425,-0.06499999999999773,1.7365,1.7349999999999999,41.848,31.546999999999997,42.547,38.544,66.301,40.072,72.9885,63.1795,62.218,38.238,69.4795,59.579499999999996,62.489999999999995,38.001,71.0465,59.9995,-0.11849999999999994,-0.03499999999999992,0.107395,0.11901500000000001,0.0,208.465,208.44,205.79666666666668,205.79666666666668,0.0,0.0
11,0.0,0.0,0.0,1.0,1.0,0.0,0.0,1.0,0.0,100.0,1.0,1.1856,26.0,0.0,0.0,0.0,59.999996,0.0,26.0,26.0,26.0,26.0,-0.036111111111111094,0.26870000000000016,-0.045225,290.985,-2.6873,-2.7081,-1.5344,-1.5386000000000002,-239.29,216.0225,190.767,0.0,0.0,0.0,0.0,0.022600000000000002,-5.498166666666667,-5.498166666666667,-0.5682,-0.56,0.016874999999999973,0.847,66.70400000000001,-0.03979999999999995,-0.25117500000000004,-0.23599999999999977,100.0,1.0,1.0,206.47,0.0,0.0,0.0,0.0,0.0,0.0,0.0,8751.5,0.0,55.0,5.0,240.10666666666668,1.0,0.0,0.0,0.0,0.0,0.0,1.0,0.0,0.5549999999999997,0.5549999999999997,0.0,0.0,1.0,55.0,616.79921,10000.0,85.000001,85.000001,85.000001,85.000001,395.0,0.0,0.0,0.0,1.0,333.33500000000004,50.095,50.095,46.906,46.906,34.0,-23.676666666666666,23.534,-25.506666666666668,24.3625,0.0,1782.1177777777777,-0.47499999999999964,100.0,27.748,27.073999999999998,42.332,41.826,0.0,0.0,100.0,0.0,0.0,0.0,0.0,3054.285714285714,3084.9,3730.75,3922.6000000000004,302.878,301.90166666666664,313.22633333333334,312.295,16.548571428571428,14.895299999999999,16.661714285714286,16.0195,314.999998,314.999998,324.999988,324.999988,99.56554285714286,99.50998333333334,99.58025714285715,99.55661428571429,0.05933333333333346,-0.058666666666666645,-0.14479999999999993,0.08920000000000017,-0.060000000000002274,-0.07333333333333059,1.8655,1.865,41.928,31.595,42.635999999999996,38.622,66.287,40.129000000000005,73.037,63.2615,62.205,38.288,69.523,59.6565,62.474999999999994,38.052,71.087,60.0775,-0.11149999999999993,-0.03550000000000009,0.11077500000000001,0.105035,0.0,208.86,208.85500000000002,206.47,206.47,0.0,0.0
12,0.0,0.0,0.0,1.0,1.0,0.0,0.0,1.0,0.0,100.0,1.0,1.1856,26.0,0.0,0.0,0.0,59.999996,0.0,26.0,26.0,26.0,26.0,-0.011111111111111072,0.28659999999999997,-0.011925,290.649,-2.7426,-2.6993,-1.5323,-1.5547,-236.07999999999998,215.995,190.746625,0.0,0.0,0.0,0.0,0.025466666666666665,-5.498166666666667,-5.498166666666667,-0.5636,0.398,0.004624999999999879,0.41700000000000026,66.838,-0.014399999999999968,-0.22435000000000002,-0.3379999999999992,100.0,1.0,1.0,206.79000000000002,0.0,0.0,0.0,0.0,0.0,0.0,0.0,8765.1,0.0,55.0,5.0,240.58666666666667,0.0,0.0,0.0,0.0,0.0,0.0,1.0,0.0,0.602999999999998,0.602999999999998,0.0,0.0,0.0,55.0,616.79921,10000.0,85.000001,85.000001,85.000001,85.000001,395.0,0.0,0.0,0.0,1.0,333.33500000000004,50.018,50.018,46.112,46.112,34.0,-23.183333333333334,24.549999999999997,-26.700000000000003,26.822499999999998,0.0,1782.0711111111111,-0.4900000000000002,100.0,27.659,27.228,41.951,41.593,0.0,0.0,100.0,0.0,0.0,0.0,0.0,3092.0,3109.9,4066.625,4083.1000000000004,302.777,301.80066666666664,312.2726666666667,311.8756666666667,16.56057142857143,14.9028,16.675,16.031,314.999998,314.999998,324.999988,324.999988,99.56554285714286,99.51,99.58041428571428,99.55677142857142,0.08999999999999986,-0.037666666666666626,-0.11099999999999999,0.10820000000000007,-0.05833333333333002,-0.07333333333333059,1.824,1.816,42.004,31.642,42.719,38.694,66.275,40.183,73.0815,63.3375,62.195,38.336,69.5635,59.7275,62.463,38.1,71.1245,60.1495,-0.11449999999999994,-0.034499999999999975,0.10641,0.10588,0.0,209.305,209.305,206.79000000000002,206.79000000000002,0.0,0.0
13,0.0,0.0,0.0,1.0,1.0,0.0,0.0,1.0,0.0,100.0,1.0,1.1856,26.0,0.0,0.0,0.0,59.999996,0.0,26.0,26.0,26.0,26.0,0.00822222222222213,0.2921,0.042225,290.024,-2.7237,-2.69,-1.6029,-1.5444,-232.67000000000002,215.9625,190.72475,0.0,0.0,0.0,0.0,0.026600000000000002,-5.498166666666667,-5.498166666666667,-0.5468000000000001,0.048,0.004874999999999963,-0.4079999999999999,66.981,0.0042999999999999705,-0.21655000000000002,-0.3120000000000003,100.0,1.0,1.0,207.07666666666665,0.0,0.0,0.0,0.0,0.0,0.0,0.0,8777.2,0.0,55.0,5.0,241.10333333333335,1.0,0.0,0.0,0.0,0.0,0.0,1.0,0.0,0.6539999999999999,0.6539999999999999,0.0,0.0,1.0,55.0,616.79921,10000.0,85.000001,85.000001,85.000001,85.000001,395.0,0.0,0.0,0.0,1.0,166.665,49.698,49.698,45.532,45.532,34.0,-23.336666666666666,23.832,-29.143333333333334,28.705000000000002,0.0,1782.02,-0.5700000000000003,100.0,27.786,27.58,42.115,42.162,0.0,0.0,100.0,0.0,0.0,0.0,0.0,3209.142857142857,3006.7,4261.75,4258.4,302.5245,301.99066666666664,311.74766666666665,311.1983333333333,16.573428571428572,14.9108,16.689285714285717,16.043625,314.999998,314.999998,324.999988,324.999988,99.56555714285714,99.51001666666667,99.58058571428572,99.55694285714286,0.10166666666666657,-0.035666666666666624,-0.1057999999999999,0.11319999999999997,-0.061666666666667425,-0.07333333333333059,1.761,1.7570000000000001,42.084,31.692,42.808,38.772999999999996,66.26599999999999,40.239000000000004,73.133,63.423,62.186,38.387,69.6105,59.8075,62.452,38.15,71.1685,60.2305,-0.12249999999999994,-0.03499999999999992,0.11011000000000001,0.10853000000000002,0.0,209.73000000000002,209.735,207.07666666666665,207.07666666666665,0.0,0.0
14,0.0,0.0,0.0,1.0,1.0,0.0,0.0,1.0,0.0,100.0,1.0,1.1856,26.0,0.0,0.0,0.0,59.999996,0.0,26.0,26.0,26.0,26.0,0.02155555555555555,0.2815000000000001,0.000125,290.146,-2.7194,-2.632,-1.6147,-1.5167000000000002,-229.25,215.9325,190.703625,0.0,0.0,0.0,0.0,0.0286,-5.498166666666667,-5.498166666666667,-0.5617,-0.339,0.03787499999999988,1.444,67.12,0.01849999999999996,-0.24327500000000002,-0.4820000000000002,100.0,1.0,1.0,207.58666666666667,0.0,0.0,0.0,0.0,0.0,0.0,0.0,8798.8,0.0,55.0,5.0,241.60333333333335,0.0,0.0,0.0,0.0,0.0,0.0,1.0,0.0,0.7049999999999983,0.7049999999999983,0.0,0.0,0.0,55.0,616.79921,10000.0,85.000001,85.000001,85.000001,85.000001,395.0,0.0,0.0,0.0,1.0,333.33500000000004,49.576,49.576,45.822,45.822,34.0,-21.34,25.624000000000002,-26.436666666666667,28.3575,0.0,1781.9688888888888,-0.6099999999999994,100.0,27.989,27.609,42.3,42.433,0.0,0.0,100.0,0.0,0.0,0.0,0.0,3047.857142857143,3187.3,3997.5,4172.2,302.883,301.52433333333335,312.44,311.57033333333334,16.586285714285715,14.918800000000001,16.703714285714284,16.05625,314.999998,314.999998,324.999988,324.999988,99.56557142857143,99.51001666666667,99.58074285714285,99.5571,0.12133333333333374,-0.014333333333333309,-0.08999999999999997,0.13140000000000018,-0.05333333333332746,-0.07166666666666544,1.7765,1.786,42.164,31.743000000000002,42.897999999999996,38.852000000000004,66.257,40.295,73.1825,63.507999999999996,62.178,38.437,69.655,59.887,62.442,38.2,71.21,60.311,-0.12449999999999994,-0.028000000000000025,0.10777,0.10042000000000001,0.0,210.14,210.14499999999998,207.58666666666667,207.58666666666667,0.0,0.0
15,0.0,0.0,0.0,1.0,1.0,0.0,0.0,1.0,0.0,100.0,1.0,1.1856,26.0,0.0,0.0,0.0,59.999996,0.0,26.0,26.0,26.0,26.0,0.03499999999999992,0.27580000000000005,-0.0103,290.222,-2.6916,-2.5911,-1.6105,-1.4606,-226.01999999999998,215.905,190.6835,0.0,0.0,0.0,0.0,0.03046666666666667,-5.498166666666667,-5.498166666666667,-0.5601,0.3695,0.06512499999999988,1.1950000000000003,67.25,0.032299999999999995,-0.23315000000000002,-0.5499999999999998,100.0,1.0,1.0,208.04000000000002,0.0,0.0,0.0,0.0,0.0,0.0,0.0,8818.0,0.0,55.0,5.0,242.07,1.0,0.0,0.0,0.0,0.0,0.0,1.0,0.0,0.7530000000000001,0.7530000000000001,0.0,0.0,1.0,55.0,616.79921,10000.0,85.000001,85.000001,85.000001,85.000001,395.0,0.0,0.0,0.0,1.0,166.665,49.576,49.576,46.126999999999995,46.126999999999995,34.0,-20.18,25.689999999999998,-24.866666666666667,29.5,0.0,1781.921111111111,-0.5600000000000005,100.0,28.108,27.798000000000002,42.036,42.455,0.0,0.0,100.0,0.0,0.0,0.0,0.0,2964.142857142857,3174.2,3929.875,4232.7,303.1355,301.54633333333334,312.6906666666667,311.454,16.598285714285716,14.9265,16.716857142857144,16.068125,314.999998,314.999998,324.999988,324.999988,99.56558571428572,99.51001666666667,99.58091428571429,99.55727142857143,0.1283333333333334,-0.0020000000000000018,-0.07339999999999991,0.16059999999999985,-0.07333333333333059,-0.061666666666667425,1.8185,1.791,42.239000000000004,31.79,42.980999999999995,38.925,66.249,40.349000000000004,73.2255,63.5865,62.171,38.485,69.694,59.960499999999996,62.432,38.248,71.24549999999999,60.385,-0.121,-0.03049999999999997,0.10370000000000001,0.11640500000000001,0.0,210.575,210.57999999999998,208.04000000000002,208.04000000000002,0.0,0.0
16,0.0,0.0,0.0,1.0,1.0,0.0,0.0,1.0,0.0,100.0,1.0,1.1856,26.0,0.0,0.0,0.0,59.999996,0.0,26.0,26.0,26.0,26.0,0.05511111111111111,0.26970000000000005,-0.04295,290.268,-2.7928,-2.6207000000000003,-1.5857999999999999,-1.4565000000000001,-222.59,215.8775,190.6615,0.0,0.0,0.0,0.0,0.03246666666666667,-5.498166666666667,-5.498166666666667,-0.5653,-0.5635,0.05412499999999998,-1.022,67.39,0.03980000000000006,-0.231275,-0.4500000000000002,100.0,1.0,1.0,208.38,0.0,0.0,0.0,0.0,0.0,0.0,0.0,8832.5,0.0,55.0,5.0,242.57666666666665,0.0,0.0,0.0,0.0,0.0,0.0,1.0,0.0,0.8039999999999985,0.8039999999999985,0.0,0.0,0.0,55.0,616.79921,10000.0,85.000001,85.000001,85.000001,85.000001,395.0,0.0,0.0,0.0,1.0,333.33500000000004,49.957,49.957,45.379999999999995,45.379999999999995,34.0,-21.486666666666665,25.119999999999997,-25.356666666666662,28.845,0.0,1781.868888888889,-0.4900000000000002,100.0,27.581,27.937,42.165,42.72,0.0,0.0,100.0,0.0,0.0,0.0,0.0,3015.5714285714284,3070.5,4077.25,4152.9,303.37,301.73766666666666,312.288,311.56966666666665,16.610714285714284,14.9346,16.731142857142856,16.080625,314.999998,314.999998,324.999988,324.999988,99.5656,99.51001666666667,99.58107142857143,99.55742857142857,0.1200000000000001,-0.0040000000000000036,-0.06479999999999997,0.15620000000000012,-0.060000000000002274,-0.0799999999999983,1.7705,1.756,42.317,31.841,43.07,39.004000000000005,66.236,40.405,73.275,63.671,62.159,38.535,69.739,60.039500000000004,62.418,38.298,71.2875,60.4655,-0.11749999999999994,-0.03400000000000003,0.10333,0.10809,0.0,210.97,210.99,208.38,208.38,0.0,0.0
17,0.0,0.0,0.0,1.0,1.0,0.0,0.0,1.0,0.0,100.0,1.0,1.1856,26.0,0.0,0.0,0.0,59.999996,0.0,26.0,26.0,26.0,26.0,0.034222222222222154,0.28480000000000016,-0.030975000000000003,290.07,-2.7433,-2.5863,-1.6189,-1.4828000000000001,-219.15,215.85,190.63925,0.0,0.0,0.0,0.0,0.03446666666666667,-5.498166666666667,-5.498166666666667,-0.5699000000000001,0.355,0.02849999999999997,0.33199999999999985,67.527,0.04160000000000008,-0.22970000000000002,-0.4220000000000006,100.0,1.0,1.0,208.86333333333334,0.0,0.0,0.0,0.0,0.0,0.0,0.0,8853.0,0.0,55.0,5.0,243.07,1.0,0.0,0.0,0.0,0.0,0.0,1.0,0.0,0.8550000000000004,0.8550000000000004,0.0,0.0,1.0,55.0,616.79921,10000.0,85.000001,85.000001,85.000001,85.000001,395.0,0.0,0.0,0.0,1.0,333.33500000000004,49.393,49.393,45.882999999999996,45.882999999999996,34.0,-21.593333333333334,25.595999999999997,-25.39333333333333,28.845,0.0,1781.8177777777778,-0.48499999999999943,100.0,28.092,27.995,42.064,42.563,0.0,0.0,100.0,0.0,0.0,0.0,0.0,3107.857142857143,3142.6,4077.875,4142.6,302.7655,301.72833333333335,312.3226666666667,311.743,16.623428571428573,14.9428,16.745285714285714,16.093125,314.999998,314.999998,324.999988,324.999988,99.56561428571429,99.51001666666667,99.58124285714285,99.5576,0.13033333333333363,0.0050000000000001155,-0.06020000000000003,0.15700000000000003,-0.04333333333332945,-0.07666666666666799,1.819,1.8,42.396,31.893,43.158,39.082,66.229,40.464,73.321,63.7535,62.152,38.588,69.78,60.117,62.409,38.351,71.3255,60.544,-0.11499999999999999,-0.04299999999999993,0.10355,0.10326500000000001,0.0,211.42000000000002,211.425,208.86333333333334,208.86333333333334,0.0,0.0
18,0.0,0.0,0.0,1.0,1.0,0.0,0.0,1.0,0.0,100.0,1.0,1.1856,26.0,0.0,0.0,0.0,59.999996,0.0,26.0,26.0,26.0,26.0,0.021333333333333426,0.2724,-0.017,290.024,-2.7615,-2.5702,-1.6205,-1.4416,-215.9,215.825,190.61825,0.0,0.0,0.0,0.0,0.036333333333333336,-5.498166666666667,-5.498166666666667,-0.5690000000000001,-0.372,0.04037500000000005,1.2590000000000003,67.658,0.041100000000000136,-0.23225,-0.3360000000000003,100.0,1.0,1.0,209.19666666666666,0.0,0.0,0.0,0.0,0.0,0.0,0.0,8867.1,0.0,55.0,5.0,243.54000000000002,0.0,0.0,0.0,0.0,0.0,0.0,1.0,0.0,0.9029999999999987,0.9029999999999987,0.0,0.0,0.0,55.0,616.79921,10000.0,85.000001,85.000001,85.000001,85.000001,395.0,0.0,0.0,0.0,1.0,333.33500000000004,49.652,49.652,45.486,45.486,34.0,-21.353333333333335,25.7,-26.083333333333336,28.9525,0.0,1781.77,-0.4800000000000004,100.0,27.983,27.808,42.334,42.79,0.0,0.0,100.0,0.0,0.0,0.0,0.0,3042.285714285714,3194.0,4092.0,4198.1,303.0785,301.65933333333334,312.2246666666667,311.584,16.635285714285715,14.9505,16.758857142857142,16.105125,314.999998,314.999998,324.999988,324.999988,99.56562857142858,99.51003333333334,99.5814,99.55775714285714,0.12633333333333363,0.0020000000000000018,-0.0673999999999999,0.15900000000000003,-0.05833333333333002,-0.0799999999999983,1.779,1.77,42.47,31.939999999999998,43.242999999999995,39.157,66.22,40.516,73.3685,63.8335,62.144,38.635,69.82300000000001,60.1915,62.397999999999996,38.397,71.3655,60.6195,-0.11199999999999999,-0.040000000000000036,0.100885,0.11087000000000001,0.0,211.82,211.82,209.19666666666666,209.19666666666666,0.0,0.0
19,0.0,0.0,0.0,1.0,1.0,0.0,0.0,1.0,0.0,100.0,1.0,1.1856,26.0,0.0,0.0,0.0,59.999996,0.0,26.0,26.0,26.0,26.0,0.027444444444444382,0.2801,0.008875000000000001,289.581,-2.7445,-2.5526,-1.6412,-1.4197,-212.45,215.7975,190.595875,0.0,0.0,0.0,0.0,0.03836666666666667,-5.498166666666667,-5.498166666666667,-0.5726,0.5385,0.05125000000000002,-0.5390000000000001,67.793,0.04059999999999997,-0.23435,-0.31599999999999984,100.0,1.0,1.0,209.68,0.0,0.0,0.0,0.0,0.0,0.0,0.0,8887.5,0.0,55.0,5.0,244.02666666666664,1.0,0.0,0.0,0.0,0.0,0.0,1.0,0.0,0.9540000000000006,0.9540000000000006,0.0,0.0,1.0,55.0,616.79921,10000.0,85.000001,85.000001,85.000001,85.000001,395.0,0.0,0.0,0.0,1.0,333.33500000000004,48.584,48.584,45.7,45.7,34.0,-23.36,25.740000000000002,-26.663333333333334,28.39,0.0,1781.7188888888888,-0.4350000000000005,100.0,28.216,28.366,42.056,42.836,0.0,0.0,100.0,0.0,0.0,0.0,0.0,3270.5714285714284,3240.8,4098.25,4209.1,302.292,301.0706666666667,312.3673333333333,311.543,16.648,14.9588,16.773,16.11775,314.999998,314.999998,324.999988,324.999988,99.56565714285715,99.51003333333334,99.58155714285714,99.55792857142858,0.11833333333333362,-0.01200000000000001,-0.07839999999999991,0.15359999999999996,-0.06833333333332803,-0.07000000000000028,1.8195,1.798,42.55,31.993000000000002,43.331,39.236000000000004,66.213,40.575,73.4135,63.9165,62.137,38.688,69.864,60.2695,62.39,38.45,71.403,60.699,-0.11149999999999993,-0.04899999999999993,0.10740000000000001,0.10729500000000002,0.0,212.255,212.255,209.68,209.68,0.0,0.0
20,0.0,0.0,0.0,1.0,1.0,0.0,0.0,1.0,0.0,100.0,1.0,1.1856,26.0,0.0,0.0,0.0,59.999996,0.0,26.0,26.0,26.0,26.0,0.0301111111111112,0.2873000000000001,0.04145,289.612,-2.7776,-2.6249000000000002,-1.5598,-1.4351,-208.99,215.7725,190.5735,0.0,0.0,0.0,0.0,0.04036666666666667,-5.498166666666667,-5.498166666666667,-0.5615,-0.5935,0.046875,0.5870000000000002,67.932,0.042100000000000026,-0.22892500000000002,-0.42799999999999905,100.0,1.0,1.0,209.90666666666667,0.0,0.0,0.0,0.0,0.0,0.0,0.0,8897.1,0.0,55.0,5.0,244.53,0.0,0.0,0.0,0.0,0.0,0.0,0.0,0.0,1.004999999999999,1.004999999999999,0.0,0.0,0.0,55.0,616.79921,10000.0,85.000001,85.000001,85.000001,85.000001,395.0,0.0,0.0,0.0,1.0,333.33500000000004,49.835,49.835,44.479,44.479,34.0,-20.56,25.317999999999998,-26.183333333333337,30.835,0.0,1781.6677777777777,-0.41000000000000014,100.0,28.005,28.055,42.664,43.094,0.0,0.0,100.0,0.0,0.0,0.0,0.0,2931.285714285714,3122.7,4228.125,4414.7,303.475,301.781,311.693,310.883,16.66042857142857,14.967,16.78742857142857,16.1305,314.999998,314.999998,324.999988,324.999988,99.56565714285715,99.51003333333334,99.58172857142857,99.5581,0.12766666666666637,-0.007000000000000006,-0.059799999999999964,0.15620000000000012,-0.07499999999999574,-0.06833333333332803,1.732,1.706,42.628,32.044,43.421,39.315,66.202,40.632,73.465,64.003,62.126999999999995,38.738,69.911,60.351,62.376999999999995,38.501,71.4465,60.781,-0.11049999999999993,-0.050000000000000044,0.10680500000000001,0.10172,0.0,212.67000000000002,212.66500000000002,209.90666666666667,209.90666666666667,0.0,0.0
21,0.0,0.0,0.0,1.0,1.0,0.0,0.0,1.0,0.0,100.0,1.0,1.1856,26.0,0.0,0.0,0.0,59.999996,0.0,26.0,26.0,26.0,26.0,0.033333333333333215,0.2641,-0.05075,290.176,-2.6967,-2.6806,-1.633,-1.506,-205.73000000000002,215.75,190.55225,0.0,0.0,0.0,0.0,0.04226666666666667,-5.498166666666667,-5.498166666666667,-0.5916,-0.1315,0.03387499999999988,0.29800000000000004,68.056,0.039200000000000124,-0.2479,-0.29799999999999915,100.0,1.0,1.0,210.55333333333334,0.0,0.0,0.0,0.0,0.0,0.0,0.0,8924.6,0.0,55.0,5.0,244.97666666666666,1.0,0.0,0.0,0.0,0.0,0.0,0.0,0.0,1.0530000000000008,1.0530000000000008,0.0,0.0,1.0,55.0,616.79921,10000.0,85.000001,85.000001,85.000001,85.000001,395.0,0.0,0.0,0.0,1.0,333.33500000000004,49.362,49.362,46.188,46.188,34.0,-21.11,26.246,-24.64666666666666,27.785,0.0,1781.62,-0.40499999999999936,100.0,28.11,27.991,42.344,42.938,0.0,0.0,100.0,0.0,0.0,0.0,0.0,3074.285714285714,3160.1,3892.75,4000.0,302.827,301.591,312.901,312.15366666666665,16.672285714285714,14.9747,16.800714285714285,16.14225,314.999998,314.999998,324.999988,324.999988,99.56568571428572,99.51005,99.58188571428572,99.55825714285714,0.12733333333333352,-0.006000000000000005,-0.07120000000000004,0.1554000000000002,-0.03833333333332689,-0.07166666666666544,1.8415,1.843,42.702,32.092,43.504,39.388999999999996,66.193,40.685,73.5065,64.0785,62.119,38.786,69.94800000000001,60.4215,62.367000000000004,38.549,71.481,60.8525,-0.10599999999999998,-0.052000000000000046,0.10402000000000002,0.11330000000000001,0.0,213.035,213.035,210.55333333333334,210.55333333333334,0.0,0.0
22,0.0,0.0,0.0,1.0,1.0,0.0,0.0,1.0,0.0,100.0,1.0,1.1856,26.0,0.0,0.0,0.0,59.999996,0.0,26.0,26.0,26.0,26.0,0.04833333333333334,0.26570000000000005,0.0134,289.688,-2.681,-2.6821,-1.6196000000000002,-1.5453000000000001,-202.25,215.72750000000002,190.528625,0.0,0.0,0.0,0.0,0.0443,-5.498166666666667,-5.498166666666667,-0.5763,0.42,0.03600000000000003,-0.2650000000000001,68.193,0.03469999999999995,-0.22135000000000002,-0.18799999999999972,100.0,1.0,1.0,210.82666666666665,0.0,0.0,0.0,0.0,0.0,0.0,0.0,8936.2,0.0,55.0,5.0,245.46666666666667,0.0,0.0,0.0,0.0,0.0,0.0,0.0,0.0,1.1039999999999992,1.1039999999999992,0.0,0.0,0.0,55.0,616.79921,10000.0,85.000001,85.000001,85.000001,85.000001,395.0,0.0,0.0,0.0,1.0,333.33500000000004,49.21,49.21,45.212,45.212,34.0,-21.443333333333335,25.668,-27.53333333333333,29.9025,0.0,1781.568888888889,-0.45500000000000007,100.0,28.121,28.302,42.278999999999996,42.925,0.0,0.0,100.0,0.0,0.0,0.0,0.0,3126.857142857143,3099.2,4185.75,4185.1,302.8185,301.582,312.08666666666664,311.5226666666667,16.685,14.983,16.814857142857143,16.15475,314.999998,314.999998,324.999988,324.999988,99.5657,99.51005,99.58205714285714,99.55842857142858,0.12233333333333363,-0.012333333333333307,-0.08279999999999998,0.1484000000000001,-0.051666666666669414,-0.05833333333333002,1.7655,1.764,42.781,32.144,43.593,39.467,66.186,40.742999999999995,73.5545,64.1605,62.111999999999995,38.838,69.9915,60.4985,62.357,38.6,71.521,60.9305,-0.11699999999999999,-0.040000000000000036,0.10321000000000001,0.11055000000000001,0.0,213.5,213.48000000000002,210.82666666666665,210.82666666666665,0.0,0.0
23,0.0,0.0,0.0,1.0,1.0,0.0,0.0,1.0,0.0,100.0,1.0,1.1856,26.0,0.0,0.0,0.0,59.999996,0.0,26.0,26.0,26.0,26.0,0.0434444444444444,0.26260000000000017,0.01915,289.49,-2.7153,-2.6298,-1.5553,-1.5548000000000002,-198.76999999999998,215.70749999999998,190.505125,0.0,0.0,0.0,0.0,0.0463,-5.498166666666667,-5.498166666666667,-0.5831000000000001,-0.502,0.04237500000000005,0.5420000000000003,68.328,0.034399999999999986,-0.23752500000000001,-0.33000000000000007,100.0,1.0,1.0,211.19666666666666,0.0,0.0,0.0,0.0,0.0,0.0,0.0,8951.9,0.0,55.0,5.0,245.95333333333335,1.0,0.0,0.0,0.0,0.0,0.0,0.0,0.0,1.1550000000000011,1.1550000000000011,0.0,0.0,1.0,55.0,616.79921,10000.0,85.000001,85.000001,85.000001,85.000001,395.0,0.0,0.0,0.0,1.0,333.33500000000004,48.996,48.996,45.379999999999995,45.379999999999995,34.0,-22.11,26.17,-24.549999999999997,30.9325,0.0,1781.5166666666667,-0.46499999999999986,100.0,28.235,28.215,42.707,43.269,0.0,0.0,100.0,0.0,0.0,0.0,0.0,3175.714285714286,3201.6,4000.5,4214.6,302.6105,301.4823333333333,312.40233333333333,311.37966666666665,16.69742857142857,14.991299999999999,16.829142857142855,16.167625,314.999998,314.999998,324.999988,324.999988,99.56571428571428,99.51005,99.58222857142857,99.5586,0.1243333333333334,-0.005333333333333301,-0.06340000000000001,0.15759999999999996,-0.06499999999999773,-0.06666666666666998,1.7565,1.737,42.858999999999995,32.196,43.682,39.547,66.176,40.8,73.6035,64.2465,62.102999999999994,38.888999999999996,70.036,60.579,62.346000000000004,38.652,71.562,61.012,-0.11499999999999999,-0.04150000000000009,0.09993500000000001,0.10598,0.0,213.89,213.875,211.19666666666666,211.19666666666666,0.0,0.0
24,0.0,0.0,0.0,1.0,1.0,0.0,0.0,1.0,0.0,100.0,1.0,1.1856,26.0,0.0,0.0,0.0,59.999996,0.0,26.0,26.0,26.0,26.0,0.030888888888888966,0.27270000000000016,-0.051175000000000005,289.856,-2.7283,-2.6444,-1.5886,-1.5041,-195.49,215.6875,190.482875,0.0,0.0,0.0,0.0,0.0482,-5.498166666666667,-5.498166666666667,-0.5977,-0.308,0.04312499999999986,0.9250000000000003,68.453,0.037900000000000045,-0.24202500000000002,-0.387999999999999,100.0,1.0,1.0,211.63666666666666,0.0,0.0,0.0,0.0,0.0,0.0,0.0,8970.6,0.0,55.0,5.0,246.40333333333334,0.0,0.0,0.0,0.0,0.0,0.0,0.0,0.0,1.2029999999999994,1.2029999999999994,0.0,0.0,0.0,55.0,616.79921,10000.0,85.000001,85.000001,85.000001,85.000001,395.0,0.0,0.0,0.0,1.0,333.33500000000004,49.576,49.576,45.425,45.425,34.0,-20.643333333333334,25.186,-26.116666666666667,28.9675,0.0,1781.4688888888888,-0.4350000000000005,100.0,28.276,28.054000000000002,42.566,43.185,0.0,0.0,100.0,0.0,0.0,0.0,0.0,3003.5714285714284,3089.5,4139.625,4128.7,303.094,301.93333333333334,312.19166666666666,311.796,16.709285714285713,14.999,16.84257142857143,16.179375,314.999998,314.999998,324.999988,324.999988,99.56572857142856,99.51006666666666,99.58238571428572,99.55877142857143,0.1323333333333334,-0.007000000000000006,-0.0716,0.15399999999999991,-0.061666666666667425,-0.08500000000000085,1.796,1.787,42.933,32.244,43.766,39.620999999999995,66.168,40.855999999999995,73.6495,64.328,62.095,38.939,70.078,60.6555,62.336,38.701,71.6,61.0895,-0.11699999999999999,-0.04200000000000004,0.10671000000000001,0.10576,0.0,214.275,214.26999999999998,211.63666666666666,211.63666666666666,0.0,0.0
25,0.0,0.0,0.0,1.0,1.0,0.0,0.0,1.0,0.0,100.0,1.0,1.1856,26.0,0.0,0.0,0.0,59.999996,0.0,26.0,26.0,26.0,26.0,0.052000000000000046,0.2550000000000001,-0.077725,289.978,-2.8098,-2.5973,-1.6145,-1.4984,-191.99,215.66750000000002,190.458,0.0,0.0,0.0,0.0,0.05023333333333333,-5.498166666666667,-5.498166666666667,-0.6199,-0.2435,0.05525000000000002,-0.6379999999999999,68.58500000000001,0.037900000000000045,-0.2393,-0.30799999999999983,100.0,1.0,1.0,212.11666666666667,0.0,0.0,0.0,0.0,0.0,0.0,0.0,8990.8,0.0,55.0,5.0,246.88,1.0,0.0,0.0,0.0,0.0,0.0,0.0,0.0,1.2540000000000013,1.2540000000000013,0.0,0.0,1.0,55.0,616.79921,10000.0,85.000001,85.000001,85.000001,85.000001,395.0,0.0,0.0,0.0,1.0,166.665,49.408,49.408,45.67,45.67,34.0,-22.533333333333335,25.862000000000002,-25.336666666666666,28.1725,0.0,1781.42,-0.4900000000000002,100.0,27.932,28.209,42.387,43.06,0.0,0.0,100.0,0.0,0.0,0.0,0.0,3137.857142857143,3181.0,3957.0,4052.7,303.038,301.421,312.73466666666667,312.0013333333333,16.72157142857143,15.0072,16.856571428571428,16.191875,314.999998,314.999998,324.999988,324.999988,99.56574285714285,99.51006666666666,99.58254285714285,99.55892857142857,0.12233333333333363,-0.004666666666666597,-0.07820000000000005,0.15399999999999991,-0.060000000000002274,-0.06833333333332803,1.8155,1.8210000000000002,43.01,32.295,43.854,39.699,66.156,40.909,73.6915,64.403,62.084,38.986999999999995,70.1155,60.7255,62.323,38.749,71.635,61.1605,-0.118,-0.03950000000000009,0.10659,0.11447500000000001,0.0,214.685,214.675,212.11666666666667,212.11666666666667,0.0,0.0
26,0.0,0.0,0.0,1.0,1.0,0.0,0.0,1.0,0.0,100.0,1.0,1.1856,26.0,0.0,0.0,0.0,59.999996,0.0,26.0,26.0,26.0,26.0,0.03544444444444439,0.27270000000000016,0.070675,288.681,-2.7574,-2.6734999999999998,-1.6602000000000001,-1.4883,-188.49,215.6475,190.43225,0.0,0.0,0.0,0.0,0.05226666666666666,-5.498166666666667,-5.498166666666667,-0.5954,0.834,0.03987499999999988,0.41100000000000003,68.719,0.039100000000000135,-0.2149,-0.4139999999999997,100.0,1.0,1.0,212.35000000000002,0.0,0.0,0.0,0.0,0.0,0.0,0.0,9000.8,0.0,55.0,5.0,247.36,0.0,0.0,0.0,0.0,0.0,0.0,0.0,0.0,1.3049999999999997,1.3049999999999997,0.0,0.0,0.0,55.0,616.79921,10000.0,85.000001,85.000001,85.000001,85.000001,395.0,0.0,0.0,0.0,1.0,333.33500000000004,48.096000000000004,48.096000000000004,44.479,44.479,34.0,-22.263333333333335,27.502000000000002,-28.583333333333336,31.6275,0.0,1781.3677777777777,-0.5,100.0,28.845,28.785,42.621,43.175,0.0,0.0,100.0,0.0,0.0,0.0,0.0,3217.142857142857,3271.2,4337.375,4431.2,302.313,300.98633333333333,311.644,310.94233333333335,16.734285714285715,15.0158,16.870857142857144,16.204625,314.999998,314.999998,324.999988,324.999988,99.56577142857142,99.51006666666666,99.58271428571429,99.5591,0.14033333333333342,-0.004666666666666597,-0.06599999999999995,0.1564000000000001,-0.05666666666667197,-0.07333333333333059,1.73,1.726,43.089,32.349000000000004,43.942,39.778999999999996,66.151,40.97,73.738,64.4865,62.079,39.041,70.158,60.804,62.315,38.803,71.6735,61.2395,-0.12,-0.043500000000000094,0.09927000000000001,0.10736000000000001,0.0,215.125,215.125,212.35000000000002,212.35000000000002,0.0,0.0
27,0.0,0.0,0.0,1.0,1.0,0.0,0.0,1.0,0.0,100.0,1.0,1.1856,26.0,0.0,0.0,0.0,59.999996,0.0,26.0,26.0,26.0,26.0,0.05311111111111111,0.2633000000000001,0.043725,288.696,-2.7203,-2.6372999999999998,-1.6015000000000001,-1.564,-185.19,215.63,190.409,0.0,0.0,0.0,0.0,0.054200000000000005,-5.498166666666667,-5.498166666666667,-0.5981000000000001,-0.8475,0.040874999999999995,0.8820000000000001,68.845,0.0403,-0.244375,-0.4299999999999997,100.0,1.0,1.0,212.65666666666667,0.0,0.0,0.0,0.0,0.0,0.0,0.0,9013.7,0.0,55.0,5.0,247.81666666666666,1.0,0.0,0.0,0.0,0.0,0.0,0.0,0.0,1.352999999999998,1.352999999999998,0.0,0.0,1.0,55.0,616.79921,10000.0,85.000001,85.000001,85.000001,85.000001,395.0,0.0,0.0,0.0,1.0,333.33500000000004,48.737,48.737,43.9,43.9,34.0,-20.516666666666666,26.456,-26.82,32.705,0.0,1781.318888888889,-0.5199999999999996,100.0,28.751,28.695,43.525,43.931,0.0,0.0,100.0,0.0,0.0,0.0,0.0,3049.4285714285716,3215.3,4228.625,4352.6,302.9335,301.42133333333334,311.762,310.96933333333334,16.745857142857144,15.0236,16.884428571428572,16.216875,314.999998,314.999998,324.999988,324.999988,99.56577142857142,99.51008333333333,99.58287142857142,99.55927142857144,0.14233333333333364,-0.0043333333333333,-0.05879999999999996,0.16080000000000005,-0.045000000000001705,-0.0799999999999983,1.708,1.682,43.162,32.397999999999996,44.028,39.855000000000004,66.143,41.024,73.788,64.569,62.072,39.09,70.203,60.881,62.306,38.852000000000004,71.7155,61.317499999999995,-0.12649999999999995,-0.040000000000000036,0.10493000000000001,0.10662500000000001,0.0,215.45499999999998,215.49,212.65666666666667,212.65666666666667,0.0,0.0
28,0.0,0.0,0.0,1.0,1.0,0.0,0.0,1.0,0.0,100.0,1.0,1.1856,26.0,0.0,0.0,0.0,59.999996,0.0,26.0,26.0,26.0,26.0,0.054111111111111,0.24970000000000003,-0.066025,289.398,-2.7414,-2.6297,-1.6021,-1.5272999999999999,-181.68,215.615,190.38425,0.0,0.0,0.0,0.0,0.05623333333333334,-5.498166666666667,-5.498166666666667,-0.6267,0.161,0.031874999999999876,-0.7719999999999998,68.97200000000001,0.03990000000000005,-0.2553,-0.3639999999999999,100.0,1.0,1.0,213.34,0.0,0.0,0.0,0.0,0.0,0.0,0.0,9042.7,0.0,55.0,5.0,248.27333333333334,0.0,0.0,0.0,0.0,0.0,0.0,0.0,0.0,1.404,1.404,0.0,0.0,0.0,55.0,616.79921,10000.0,85.000001,85.000001,85.000001,85.000001,395.0,0.0,0.0,0.0,1.0,166.665,48.538,48.538,45.593,45.593,34.0,-22.21,26.034,-24.883333333333333,28.245,0.0,1781.2711111111112,-0.5849999999999991,100.0,28.582,28.801000000000002,42.917,43.633,0.0,0.0,100.0,0.0,0.0,0.0,0.0,3252.285714285714,3147.4,3909.25,4004.3,302.466,301.4286666666667,312.89433333333335,312.16066666666666,16.75842857142857,15.0321,16.89842857142857,16.229375,314.999998,314.999998,324.999988,324.999988,99.5658,99.51008333333333,99.58304285714286,99.55944285714286,0.13933333333333353,-0.0033333333333332993,-0.08079999999999998,0.1554000000000002,-0.07333333333333059,-0.06833333333332803,1.8345,1.812,43.239999999999995,32.45,44.114999999999995,39.933,66.13499999999999,41.082,73.8295,64.6475,62.065,39.141999999999996,70.241,60.955,62.296,38.903,71.7495,61.391999999999996,-0.13,-0.033500000000000085,0.111225,0.10552,0.0,215.89499999999998,215.88,213.34,213.34,0.0,0.0
29,0.0,0.0,0.0,1.0,1.0,0.0,0.0,1.0,0.0,100.0,1.0,1.1856,26.0,0.0,0.0,0.0,59.999996,0.0,26.0,26.0,26.0,26.0,0.049111111111111105,0.26680000000000015,0.013275,289.001,-2.6845,-2.6874000000000002,-1.5884,-1.5235,-178.14999999999998,215.5975,190.358125,0.0,0.0,0.0,0.0,0.058300000000000005,-5.498166666666667,-5.498166666666667,-0.6123000000000001,-0.1705,0.03049999999999997,0.8460000000000001,69.106,0.04180000000000006,-0.2194,-0.49799999999999933,100.0,1.0,1.0,213.51666666666665,0.0,0.0,0.0,0.0,0.0,0.0,0.0,9050.2,0.0,55.0,5.0,248.75333333333333,1.0,0.0,0.0,0.0,0.0,0.0,0.0,0.0,1.4549999999999983,1.4549999999999983,0.0,0.0,1.0,55.0,616.79921,10000.0,85.000001,85.000001,85.000001,85.000001,395.0,0.0,0.0,0.0,1.0,333.33500000000004,49.010999999999996,49.010999999999996,44.128,44.128,34.0,-19.77,27.396,-26.78333333333333,31.6,0.0,1781.2166666666667,-0.6050000000000004,100.0,28.506,28.436,43.102000000000004,43.567,0.0,0.0,100.0,0.0,0.0,0.0,0.0,3025.5714285714284,3206.5,4252.5,4329.2,303.0705,301.331,311.761,311.211,16.77057142857143,15.0404,16.912714285714287,16.242,314.999998,314.999998,324.999988,324.999988,99.56581428571428,99.5101,99.58321428571429,99.55961428571429,0.14733333333333354,0.006000000000000005,-0.06099999999999994,0.16020000000000012,-0.060000000000002274,-0.07666666666666799,1.7309999999999999,1.7109999999999999,43.316,32.501999999999995,44.204,40.013,66.125,41.138,73.8775,64.7295,62.056,39.192,70.28399999999999,61.032,62.285,38.954,71.789,61.4695,-0.13149999999999995,-0.03249999999999997,0.10306000000000001,0.10271000000000001,0.0,216.285,216.31,213.51666666666665,213.51666666666665,0.0,0.0
30,0.0,0.0,0.0,1.0,1.0,0.0,0.0,1.0,0.0,100.0,1.0,1.1856,26.0,0.0,0.0,0.0,59.999996,0.0,26.0,26.0,26.0,26.0,0.059111111111111114,0.26649999999999996,0.037975,288.452,-2.749,-2.7119,-1.5732,-1.5685,-174.82999999999998,215.585,190.333125,0.0,0.0,0.0,0.0,0.06023333333333334,-5.498166666666667,-5.498166666666667,-0.6244000000000001,0.0955,0.03374999999999995,0.637,69.227,0.0464,-0.2363,-0.6059999999999999,100.0,1.0,1.0,213.94,0.0,0.0,0.0,0.0,0.0,0.0,0.0,9068.2,0.0,55.0,5.0,249.19333333333333,0.0,0.0,0.0,0.0,0.0,0.0,1.0,0.0,1.5030000000000001,1.5030000000000001,0.0,0.0,0.0,55.0,616.79921,10000.0,85.000001,85.000001,85.000001,85.000001,395.0,0.0,0.0,0.0,1.0,166.665,47.684,47.684,44.556,44.556,34.0,-22.86,29.692,-25.14333333333333,32.5275,0.0,1781.171111111111,-0.5700000000000003,100.0,28.889,28.893,43.118,43.758,0.0,0.0,100.0,0.0,0.0,0.0,0.0,3331.0,3451.2,4090.875,4307.5,302.1135,300.572,312.257,311.159,16.78242857142857,15.0484,16.926000000000002,16.254,314.999998,314.999998,324.999988,324.999988,99.56582857142857,99.5101,99.58337142857143,99.55977142857142,0.1419999999999999,0.002666666666666595,-0.05799999999999994,0.16759999999999997,-0.051666666666669414,-0.0799999999999983,1.7545,1.7229999999999999,43.39,32.553,44.287,40.088,66.12,41.195,73.9205,64.8075,62.05,39.243,70.32300000000001,61.105000000000004,62.277,39.004,71.8245,61.5435,-0.127,-0.040999999999999925,0.111835,0.10994500000000001,0.0,216.65,216.685,213.94,213.94,0.0,0.0
31,0.0,0.0,0.0,1.0,1.0,0.0,0.0,1.0,0.0,100.0,1.0,1.1856,26.0,0.0,0.0,0.0,59.999996,0.0,26.0,26.0,26.0,26.0,0.05122222222222228,0.2734000000000001,0.053625000000000006,288.071,-2.7912,-2.597,-1.6171,-1.4629,-171.09,215.57,190.30575,0.0,0.0,0.0,0.0,0.062400000000000004,-5.498166666666667,-5.498166666666667,-0.604,-0.0625,0.04149999999999987,0.77,69.366,0.051200000000000134,-0.23517500000000002,-0.5379999999999994,100.0,1.0,1.0,214.21,0.0,0.0,0.0,0.0,0.0,0.0,0.0,9079.5,0.0,55.0,5.0,249.69333333333333,1.0,0.0,0.0,0.0,0.0,0.0,1.0,0.0,1.5569999999999986,1.5569999999999986,0.0,0.0,1.0,55.0,616.79921,10000.0,85.000001,85.000001,85.000001,85.000001,395.0,0.0,0.0,0.0,1.0,166.665,48.157,48.157,43.120999999999995,43.120999999999995,34.0,-20.74,27.212,-28.026666666666664,32.917500000000004,0.0,1781.1166666666666,-0.5549999999999997,100.0,29.185,29.292,43.576,44.296,0.0,0.0,100.0,0.0,0.0,0.0,0.0,3094.4285714285716,3304.1,4380.125,4460.3,302.945,301.15933333333334,311.30466666666666,310.71,16.795714285714286,15.0576,16.941142857142857,16.26775,314.999998,314.999998,324.999988,324.999988,99.56584285714285,99.5101,99.58355714285715,99.55995714285714,0.15766666666666662,0.003666666666666707,-0.05359999999999998,0.17420000000000013,-0.05666666666667197,-0.07499999999999574,1.6885,1.674,43.473,32.61,44.382,40.173,66.114,41.259,73.9725,64.8985,62.045,39.3,70.37,61.19,62.269,39.061,71.8685,61.6295,-0.13449999999999995,-0.04699999999999993,0.10480500000000001,0.109895,0.0,217.095,217.11,214.21,214.21,0.0,0.0
32,0.0,0.0,0.0,1.0,1.0,0.0,0.0,1.0,0.0,100.0,1.0,1.1856,26.0,0.0,0.0,0.0,59.999996,0.0,26.0,26.0,26.0,26.0,0.05233333333333334,0.24570000000000003,-0.0461,288.666,-2.7547,-2.6421,-1.6811,-1.5137,-167.76,215.56,190.282,0.0,0.0,0.0,0.0,0.06433333333333334,-5.498166666666667,-5.498166666666667,-0.6181,-0.281,0.026999999999999913,0.0990000000000002,69.48400000000001,0.05190000000000006,-0.251325,-0.5620000000000003,100.0,1.0,1.0,214.76,0.0,0.0,0.0,0.0,0.0,0.0,0.0,9102.9,0.0,55.0,5.0,250.11666666666667,0.0,0.0,0.0,0.0,0.0,0.0,1.0,0.0,1.6050000000000004,1.6050000000000004,0.0,0.0,0.0,55.0,616.79921,10000.0,85.000001,85.000001,85.000001,85.000001,395.0,0.0,0.0,0.0,1.0,333.33500000000004,48.248,48.248,44.296,44.296,34.0,-20.456666666666663,27.235999999999997,-26.423333333333332,31.150000000000002,0.0,1781.0666666666666,-0.5749999999999993,100.0,29.04,29.256999999999998,43.603,44.325,0.0,0.0,100.0,0.0,0.0,0.0,0.0,3106.857142857143,3227.8,4082.375,4212.9,302.8625,301.322,312.437,311.673,16.807285714285715,15.0656,16.954571428571427,16.279875,314.999998,314.999998,324.999988,324.999988,99.56587142857143,99.51011666666666,99.58371428571428,99.56012857142858,0.15933333333333355,0.008000000000000007,-0.059599999999999986,0.17880000000000007,-0.06666666666666998,-0.07833333333332604,1.7705,1.752,43.546,32.66,44.466,40.248999999999995,66.107,41.315,74.015,64.9755,62.039,39.35,70.40899999999999,61.2625,62.26,39.111,71.9035,61.7025,-0.133,-0.03649999999999998,0.11456500000000001,0.10814000000000001,0.0,217.46,217.47500000000002,214.76,214.76,0.0,0.0
33,0.0,0.0,0.0,1.0,1.0,0.0,0.0,1.0,0.0,100.0,1.0,1.1856,26.0,0.0,0.0,0.0,59.999996,0.0,26.0,26.0,26.0,26.0,0.059555555555555584,0.25660000000000016,-0.045075000000000004,288.971,-2.7500999999999998,-2.6508000000000003,-1.6378,-1.5563,-164.20999999999998,215.55,190.255875,0.0,0.0,0.0,0.0,0.0664,-5.498166666666667,-5.498166666666667,-0.6311,-0.195,0.01200000000000001,-0.22599999999999998,69.612,0.05570000000000008,-0.23977500000000002,-0.4939999999999998,100.0,1.0,1.0,215.17333333333335,0.0,0.0,0.0,0.0,0.0,0.0,0.0,9120.4,0.0,55.0,5.0,250.57666666666665,1.0,0.0,0.0,0.0,0.0,0.0,1.0,0.0,1.6559999999999988,1.6559999999999988,0.0,0.0,1.0,55.0,616.79921,10000.0,85.000001,85.000001,85.000001,85.000001,395.0,0.0,0.0,0.0,1.0,166.665,48.721000000000004,48.721000000000004,44.525,44.525,34.0,-21.59,25.75,-26.473333333333336,30.3175,0.0,1781.0177777777778,-0.5449999999999999,100.0,28.77,29.119,43.35,44.128,0.0,0.0,100.0,0.0,0.0,0.0,0.0,3143.142857142857,3076.3,4135.0,4130.0,302.947,301.77233333333334,312.30733333333336,311.819,16.81957142857143,15.0739,16.96857142857143,16.2925,314.999998,314.999998,324.999988,324.999988,99.56588571428571,99.51011666666666,99.58388571428571,99.5603,0.13533333333333353,0.0016666666666667052,-0.06579999999999997,0.16459999999999986,-0.06833333333332803,-0.060000000000002274,1.7905,1.776,43.622,32.712,44.553,40.328,66.099,41.370000000000005,74.059,65.0555,62.031,39.4,70.4485,61.337,62.251000000000005,39.161,71.9395,61.7775,-0.122,-0.03950000000000009,0.11403500000000001,0.10368500000000001,0.0,217.865,217.87,215.17333333333335,215.17333333333335,0.0,0.0
34,0.0,0.0,0.0,1.0,1.0,0.0,0.0,1.0,0.0,100.0,1.0,1.1856,26.0,0.0,0.0,0.0,59.999996,0.0,26.0,26.0,26.0,26.0,0.05566666666666675,0.26,-0.040225000000000004,289.032,-2.7782,-2.5746,-1.6661000000000001,-1.521,-160.87,215.54250000000002,190.229875,0.0,0.0,0.0,0.0,0.06833333333333334,-5.498166666666667,-5.498166666666667,-0.6482,-0.8045,0.04049999999999998,0.18199999999999994,69.733,0.05700000000000016,-0.231375,-0.4299999999999997,100.0,1.0,1.0,215.48333333333335,0.0,0.0,0.0,0.0,0.0,0.0,0.0,9133.5,0.0,55.0,5.0,251.01333333333332,0.0,0.0,0.0,0.0,0.0,0.0,1.0,0.0,1.7040000000000006,1.7040000000000006,0.0,0.0,0.0,55.0,616.79921,10000.0,85.000001,85.000001,85.000001,85.000001,395.0,0.0,0.0,0.0,1.0,333.33500000000004,48.981,48.981,44.937,44.937,34.0,-21.39,24.61,-26.119999999999997,31.1925,0.0,1780.9688888888888,-0.5499999999999989,100.0,28.548000000000002,28.921,43.25,44.144000000000005,0.0,0.0,100.0,0.0,0.0,0.0,0.0,3155.857142857143,3058.2,4063.5,4262.8,302.9555,302.0403333333333,312.51533333333333,311.3263333333333,16.831,15.0816,16.981714285714286,16.3045,314.999998,314.999998,324.999988,324.999988,99.5659,99.51011666666666,99.58404285714286,99.56045714285715,0.14700000000000024,-0.0013333333333332975,-0.059799999999999964,0.16420000000000012,-0.054999999999999716,-0.07166666666666544,1.7585,1.75,43.694,32.76,44.635999999999996,40.403,66.09,41.421,74.1,65.1325,62.022999999999996,39.446,70.4855,61.4095,62.239999999999995,39.206,71.973,61.8505,-0.12649999999999995,-0.03750000000000009,0.10512,0.110255,0.0,218.215,218.22500000000002,215.48333333333335,215.48333333333335,0.0,0.0
35,0.0,0.0,0.0,1.0,1.0,0.0,0.0,1.0,0.0,100.0,1.0,1.1856,26.0,0.0,0.0,0.0,59.999996,0.0,26.0,26.0,26.0,26.0,0.06944444444444442,0.25080000000000013,-0.050075,289.032,-2.816,-2.5717,-1.5759,-1.5311,-157.1,215.535,190.198625,0.0,0.0,0.0,0.0,0.07053333333333334,-5.498166666666667,-5.498166666666667,-0.6981,-0.6675,0.03699999999999992,-1.361,69.866,0.05710000000000015,-0.25315,-0.484,100.0,1.0,1.0,215.97333333333333,0.0,0.0,0.0,0.0,0.0,0.0,0.0,9154.3,0.0,55.0,5.0,251.49333333333334,1.0,0.0,0.0,0.0,0.0,0.0,1.0,0.0,1.7579999999999991,1.7579999999999991,0.0,0.0,1.0,55.0,616.79921,10000.0,85.000001,85.000001,85.000001,85.000001,395.0,0.0,0.0,0.0,1.0,166.665,48.416,48.416,44.586,44.586,34.0,-22.04,27.23,-24.589999999999996,29.06,0.0,1780.9166666666667,-0.4499999999999993,100.0,28.404,29.14,43.074,43.933,0.0,0.0,100.0,0.0,0.0,0.0,0.0,3194.4285714285716,3308.0,4040.5,3993.1000000000004,302.9025,300.9033333333333,312.61466666666666,312.12833333333333,16.843714285714285,15.0905,16.99657142857143,16.317875,314.999998,314.999998,324.999988,324.999988,99.56592857142857,99.51011666666666,99.58421428571428,99.56064285714285,0.1459999999999999,0.0023333333333332984,-0.059799999999999964,0.1684000000000001,-0.07000000000000028,-0.061666666666667425,1.8005,1.7930000000000001,43.772999999999996,32.816,44.727999999999994,40.486999999999995,66.078,41.480999999999995,74.144,65.216,62.012,39.5,70.525,61.488,62.227000000000004,39.26,72.0085,61.93,-0.122,-0.04400000000000004,0.11235,0.10322500000000001,0.0,218.63,218.63,215.97333333333333,215.97333333333333,0.0,0.0
