,ABS Active,ABS Enabled,AID Allow Tire Blankets,AID Auto Blip,AID Auto Clutch,AID Auto Shift,AID Fuel Rate,AID Ideal Line,AID Mech Damage,AID Stability,AID Tire Wear Rate,Air Density,Air Temp,Ballast,Best Lap Delta,Best Lap Time,Brake Bias,Brake Pos,Brake Temp FL,Brake Temp FR,Brake Temp RL,Brake Temp RR,CG Accel Lateral,CG Accel Longitudinal,CG Accel Vertical,CG Height,Camber FL,Camber FR,Camber RL,Camber RR,Car Coord X,Car Coord Y,Car Coord Z,Car Damage Front,Car Damage Left,Car Damage Rear,Car Damage Right,Car Pos Norm,Caster FL,Caster FR,Chassis Pitch Angle,Chassis Pitch Rate,Chassis Roll Angle,Chassis Roll Rate,Chassis Velocity X,Chassis Velocity Y,Chassis Velocity Z,Chassis Yaw Rate,Clutch Pos,DRS Active,DRS Available,Drive Train Speed,ERS Heat Charging,ERS Is Charging,ERS Max Energy,ERS Power Level,ERS Recovery Level,Engine Brake Setting,Engine Limiter,Engine RPM,Flags,Fuel Level,Gear,Ground Speed,HR Sample Clock,In Pit,KERS Charge,KERS Deployed Energy,KERS Input,KERS Max Energy,LR Sample Clock,Lap Invalidated,Lap Time,Lap Time2,Last Lap Time,Last Sector Time,MR Sample Clock,Max Fuel,Max Power,Max RPM,Max Sus Travel FL,Max Sus Travel FR,Max Sus Travel RL,Max Sus Travel RR,Max Torque,Max Turbo Boost,Num Tires Off Track,Penalties Enabled,Position,Raw Data Sample Rate,Ride Height FL,Ride Height FR,Ride Height RL,Ride Height RR,Road Temp,Self Align Torque FL,Self Align Torque FR,Self Align Torque RL,Self Align Torque RR,Session Lap Count,Session Time Left,Steering Angle,Surface Grip,Suspension Travel FL,Suspension Travel FR,Suspension Travel RL,Suspension Travel RR,TC Active,TC Enabled,Throttle Pos,Tire Dirt Level FL,Tire Dirt Level FR,Tire Dirt Level RL,Tire Dirt Level RR,Tire Load FL,Tire Load FR,Tire Load RL,Tire Load RR,Tire Loaded Radius FL,Tire Loaded Radius FR,Tire Loaded Radius RL,Tire Loaded Radius RR,Tire Pressure FL,Tire Pressure FR,Tire Pressure RL,Tire Pressure RR,Tire Radius FL,Tire Radius FR,Tire Radius RL,Tire Radius RR,Tire Rubber Grip FL,Tire Rubber Grip FR,Tire Rubber Grip RL,Tire Rubber Grip RR,Tire Slip Angle FL,Tire Slip Angle FR,Tire Slip Angle RL,Tire Slip Angle RR,Tire Slip Ratio FL,Tire Slip Ratio FR,Tire Slip Ratio RL,Tire Slip Ratio RR,Tire Temp Core FL,Tire Temp Core FR,Tire Temp Core RL,Tire Temp Core RR,Tire Temp Inner FL,Tire Temp Inner FR,Tire Temp Inner RL,Tire Temp Inner RR,Tire Temp Middle FL,Tire Temp Middle FR,Tire Temp Middle RL,Tire Temp Middle RR,Tire Temp Outer FL,Tire Temp Outer FR,Tire Temp Outer RL,Tire Temp Outer RR,Toe In FL,Toe In FR,Toe In RL,Toe In RR,Turbo Boost,Wheel Angular Speed FL,Wheel Angular Speed FR,Wheel Angular Speed RL,Wheel Angular Speed RR,Wind Direction,Wind Speed
0,0.0,0.0,0.0,1.0,1.0,0.0,0.0,1.0,0.0,100.0,1.0,1.1856,26.0,0.0,0.0,0.0,59.99999,0.0,26.0,26.0,26.0,26.0,-0.040000000000000036,0.033600000000000074,0.11995,291.351,-2.61565,-2.7284444444444444,-1.4025,-1.6339000000000001,-275.66,215.65,190.985375,0.0,0.0,0.0,0.0,0.0016,-5.498166666666667,-5.498166666666667,-0.6875,1.075,-0.14955555555555566,-1.202,65.261,-0.037700000000000004,-0.3443333333333334,0.11200000000000099,100.0,1.0,1.0,201.2266666666667,0.0,0.0,0.0,0.0,0.0,0.0,0.0,8529.3,0.0,55.0,5.0,234.92666666666668,0.0,0.0,0.0,0.0,0.0,0.0,0.0,0.0,0.0030000000000001137,0.0030000000000001137,0.0,0.0,0.0,55.0,616.79921,10000.0,85.0,85.0,85.0,85.0,395.0,0.0,0.0,0.0,1.0,20.0,45.288,45.288,50.201,50.201,34.0,-35.836666666666666,28.222,-27.29,23.185000000000002,0.0,1782.813,2.0299999999999994,100.0,27.102,29.218,41.406,38.61,0.0,0.0,100.0,0.0,0.0,0.0,0.0,3564.875,4802.3,3895.5,3443.7,297.014,299.96875,315.486,316.31075,12.109333333333332,20.747799999999998,21.8998,21.2695,314.99999,314.99999,324.99998,324.99998,99.5672,99.51498333333333,99.57138571428571,99.54387142857144,-0.12324999999999986,-0.22933333333333317,-0.14700000000000002,0.08083333333333331,-0.11333333333332973,-0.051666666666669414,1.2733333333333334,1.271,45.434,30.674,37.873999999999995,33.9345,76.389,39.394999999999996,61.257,51.0805,70.02799999999999,38.039500000000004,59.93,49.393,71.824,37.276666666666664,60.0115,48.754333333333335,0.0765,-0.2435,0.10503000000000001,0.10261,0.0,204.39499999999998,204.465,201.2266666666667,201.2266666666667,0.0,0.0
1,0.0,0.0,0.0,1.0,1.0,0.0,0.0,1.0,0.0,100.0,1.0,1.1856,26.0,0.0,0.0,0.0,59.999996,0.0,26.0,26.0,26.0,26.0,-0.07299999999999995,0.34930000000000017,0.30775,290.024,-2.51925,-2.796666666666667,-1.43365,-1.495,-272.33,215.6525,190.965,0.0,0.0,0.0,0.0,0.0035333333333333336,-5.498166666666667,-5.498166666666667,-0.5423,0.387,-0.18066666666666675,0.894,65.413,-0.0459,-0.25766666666666665,1.0779999999999994,100.0,1.0,1.0,201.39333333333332,0.0,0.0,0.0,0.0,0.0,0.0,0.0,8536.4,0.0,55.0,5.0,235.45666666666668,1.0,0.0,0.0,0.0,0.0,0.0,0.0,0.0,0.053999999999998494,0.053999999999998494,0.0,0.0,1.0,55.0,616.79921,10000.0,85.000001,85.000001,85.000001,85.000001,395.0,0.0,0.0,0.0,1.0,166.665,49.759,49.759,46.692,46.692,34.0,-25.66,14.405999999999999,-40.693333333333335,32.6475,0.0,1782.763,1.7700000000000005,100.0,28.268,29.363,43.984,41.568,0.0,0.0,100.0,0.0,0.0,0.0,0.0,2819.25,2649.5,5075.125,5265.0,300.4835,306.37425,312.3623333333333,311.44825,12.126333333333333,20.7545,21.9113,21.2784,314.999998,314.999998,324.999988,324.999988,99.5672,99.51501666666667,99.57154285714286,99.54401428571428,-0.09349999999999992,-0.24133333333333318,-0.17666666666666664,0.028833333333333266,-0.07833333333332604,-0.041666666666671404,1.258,1.3054999999999999,45.539,30.7155,37.946,33.9905,76.396,39.4375,61.3025,51.144,70.035,38.0785,59.973,49.454,71.828,37.31433333333334,60.0515,48.814,0.0675,-0.2335,0.11065000000000001,0.11096500000000001,0.0,204.92000000000002,204.945,201.39333333333332,201.39333333333332,0.0,0.0
2,0.0,0.0,0.0,1.0,1.0,0.0,0.0,1.0,0.0,100.0,1.0,1.1856,26.0,0.0,0.0,0.0,59.999996,0.0,26.0,26.0,26.0,26.0,-0.09311111111111103,0.2795000000000001,-0.057575,292.13,-2.53335,-2.741777777777778,-1.44175,-1.6226,-268.79,215.6525,190.94575,0.0,0.0,0.0,0.0,0.0056,-5.498166666666667,-5.498166666666667,-0.619,-0.139,-0.12822222222222202,1.06,65.557,-0.0567,-0.32320000000000004,0.902000000000001,100.0,1.0,1.0,202.75,0.0,0.0,0.0,0.0,0.0,0.0,0.0,8593.8,0.0,55.0,5.0,235.98000000000002,0.0,0.0,0.0,0.0,0.0,0.0,0.0,0.0,0.10800000000000054,0.10800000000000054,0.0,0.0,0.0,55.0,616.79921,10000.0,85.000001,85.000001,85.000001,85.000001,395.0,0.0,0.0,0.0,1.0,166.665,48.843,48.843,50.14,50.14,34.0,-28.166666666666664,17.698,-26.39333333333333,18.61,0.0,1782.709,1.9300000000000006,100.0,28.072,28.683,43.731,41.125,0.0,0.0,100.0,0.0,0.0,0.0,0.0,2984.875,3259.9,3664.375,3256.8,299.866,304.51975,315.939,316.76375,12.143333333333333,20.7612,21.9229,21.2873,314.999998,314.999998,324.999988,324.999988,99.56722857142857,99.51505,99.5717,99.54414285714286,-0.11399999999999988,-0.242,-0.19499999999999995,0.04166666666666674,-0.11833333333333229,-0.061666666666667425,1.7153333333333334,1.7535,45.646,30.7575,38.018,34.046,76.392,39.477000000000004,61.338,51.198,70.032,38.1155,60.0055,49.506,71.822,37.349666666666664,60.0815,48.865,0.0695,-0.2325,0.10807000000000001,0.10263000000000001,0.0,205.29000000000002,205.335,202.75,202.75,0.0,0.0
3,0.0,0.0,0.0,1.0,1.0,0.0,0.0,1.0,0.0,100.0,1.0,1.1856,26.0,0.0,0.0,0.0,59.999996,0.0,26.0,26.0,26.0,26.0,-0.0975555555555555,0.30580000000000007,-0.007175,291.336,-2.51465,-2.809,-1.3874,-1.6219000000000001,-265.84,215.65,190.927875,0.0,0.0,0.0,0.0,0.0073,-5.498166666666667,-5.498166666666667,-0.5732999999999999,0.868,-0.14911111111111142,-1.826,65.694,-0.06860000000000001,-0.2672333333333334,0.9400000000000004,100.0,1.0,1.0,202.66,0.0,0.0,0.0,0.0,0.0,0.0,0.0,8590.0,0.0,55.0,5.0,236.46666666666667,1.0,0.0,0.0,0.0,0.0,0.0,0.0,0.0,0.1529999999999987,0.1529999999999987,0.0,0.0,1.0,55.0,616.79921,10000.0,85.000001,85.000001,85.000001,85.000001,395.0,0.0,0.0,0.0,1.0,333.33500000000004,49.438,49.438,47.684,47.684,34.0,-27.193333333333335,16.636,-35.27333333333333,24.205,0.0,1782.662,2.0500000000000007,100.0,27.986,28.698999999999998,43.578,40.859,0.0,0.0,100.0,0.0,0.0,0.0,0.0,2881.75,3086.7,4660.25,3948.9,300.4515,304.87575,313.574,314.94825,12.157666666666668,20.767,21.9326,21.2949,314.999998,314.999998,324.999988,324.999988,99.56724285714286,99.51508333333334,99.57182857142857,99.54427142857143,-0.12424999999999997,-0.2593333333333332,-0.18866666666666665,0.03516666666666679,-0.09833333333332916,-0.05333333333332746,1.4876666666666667,1.516,45.735,30.794,38.079,34.093,76.39,39.5145,61.371,51.251,70.03,38.1505,60.036500000000004,49.556,71.818,37.38333333333333,60.1095,48.91433333333333,0.0825,-0.245,0.10877,0.10224000000000001,0.0,205.74,205.8,202.66,202.66,0.0,0.0
4,0.0,0.0,0.0,1.0,1.0,0.0,0.0,1.0,0.0,100.0,1.0,1.1856,26.0,0.0,0.0,0.0,59.999996,0.0,26.0,26.0,26.0,26.0,-0.0962222222222221,0.27580000000000005,0.012625,291.641,-2.52745,-2.868444444444444,-1.3521,-1.7175,-262.49,215.6475,190.9085,0.0,0.0,0.0,0.0,0.009266666666666668,-5.498166666666667,-5.498166666666667,-0.5846,-0.831,-0.18333333333333357,0.09899999999999998,65.839,-0.08030000000000001,-0.2961666666666667,1.138,100.0,1.0,1.0,203.18666666666667,0.0,0.0,0.0,0.0,0.0,0.0,0.0,8612.3,0.0,55.0,5.0,236.99333333333334,0.0,0.0,0.0,0.0,0.0,0.0,0.0,0.0,0.20400000000000063,0.20400000000000063,0.0,0.0,0.0,55.0,616.79921,10000.0,85.000001,85.000001,85.000001,85.000001,395.0,0.0,0.0,0.0,1.0,333.33500000000004,49.667,49.667,48.263999999999996,48.263999999999996,34.0,-27.926666666666666,17.44,-32.22666666666667,23.6325,0.0,1782.612,2.0299999999999994,100.0,27.85,28.052,44.476,40.968,0.0,0.0,100.0,0.0,0.0,0.0,0.0,2915.75,3133.5,4287.25,3770.7,300.1695,304.99,314.388,315.441,12.173833333333333,20.7735,21.9439,21.3036,314.999998,314.999998,324.999988,324.999988,99.56725714285714,99.5151,99.57197142857143,99.5444,-0.12749999999999995,-0.2563333333333333,-0.20350000000000001,0.030000000000000027,-0.10999999999999943,-0.046666666666666856,1.5046666666666666,1.559,45.836,30.834,38.149,34.1475,76.389,39.555,61.412,51.3085,70.03,38.188,60.075,49.611000000000004,71.814,37.419,60.144999999999996,48.968,0.085,-0.2415,0.11324500000000001,0.10426500000000001,0.0,206.155,206.2,203.18666666666667,203.18666666666667,0.0,0.0
5,0.0,0.0,0.0,1.0,1.0,0.0,0.0,1.0,0.0,100.0,1.0,1.1856,26.0,0.0,0.0,0.0,59.999996,0.0,26.0,26.0,26.0,26.0,-0.10011111111111104,0.27980000000000005,-0.08057500000000001,292.023,-2.57545,-2.835111111111111,-1.39155,-1.7265000000000001,-259.12,215.64,190.888875,0.0,0.0,0.0,0.0,0.011233333333333333,-5.498166666666667,-5.498166666666667,-0.603,0.30599999999999994,-0.19244444444444442,-0.4610000000000001,65.982,-0.093,-0.29613333333333336,1.136000000000001,100.0,1.0,1.0,203.78,0.0,0.0,0.0,0.0,0.0,0.0,0.0,8637.5,0.0,55.0,5.0,237.50666666666666,1.0,0.0,0.0,0.0,0.0,0.0,0.0,0.0,0.254999999999999,0.254999999999999,0.0,0.0,1.0,55.0,616.79921,10000.0,85.000001,85.000001,85.000001,85.000001,395.0,0.0,0.0,0.0,1.0,166.665,49.622,49.622,49.194,49.194,34.0,-30.226666666666667,16.348000000000003,-31.493333333333332,22.1325,0.0,1782.561,1.7250000000000005,100.0,27.719,28.032,44.025,40.377,0.0,0.0,100.0,0.0,0.0,0.0,0.0,3026.625,3069.9,4133.25,3658.3,299.7635,305.01125,314.8496666666667,315.76475,12.190166666666666,20.7799,21.9549,21.312,314.999998,314.999998,324.999988,324.999988,99.56727142857143,99.51513333333334,99.57211428571429,99.54452857142857,-0.14775000000000005,-0.2673333333333332,-0.21699999999999997,0.01983333333333337,-0.11999999999999744,-0.021666666666668277,1.595,1.6335,45.938,30.874499999999998,38.218,34.2,76.39,39.5955,61.448,51.3615,70.031,38.2255,60.1085,49.6625,71.812,37.455,60.176,49.018,0.07100000000000001,-0.221,0.10182000000000001,0.11537000000000001,0.0,206.615,206.64,203.78,203.78,0.0,0.0
6,0.0,0.0,0.0,1.0,1.0,0.0,0.0,1.0,0.0,100.0,1.0,1.1856,26.0,0.0,0.0,0.0,59.999996,0.0,26.0,26.0,26.0,26.0,-0.1173333333333334,0.2944,0.0025250000000000003,291.733,-2.5188,-2.897555555555556,-1.43645,-1.6932,-255.95,215.63,190.869375,0.0,0.0,0.0,0.0,0.013066666666666666,-5.498166666666667,-5.498166666666667,-0.5874999999999999,0.07450000000000001,-0.19711111111111146,-0.605,66.122,-0.0952,-0.27283333333333337,0.9079999999999995,100.0,1.0,1.0,204.0,0.0,0.0,0.0,0.0,0.0,0.0,0.0,8646.8,0.0,55.0,5.0,238.00666666666666,0.0,0.0,0.0,0.0,0.0,0.0,0.0,0.0,0.3030000000000008,0.3030000000000008,0.0,0.0,0.0,55.0,616.79921,10000.0,85.000001,85.000001,85.000001,85.000001,395.0,0.0,0.0,0.0,1.0,333.33500000000004,49.973,49.973,48.233000000000004,48.233000000000004,34.0,-29.62666666666667,16.18,-35.839999999999996,22.96,0.0,1782.511,1.79,100.0,27.556,27.87,44.139,40.423,0.0,0.0,100.0,0.0,0.0,0.0,0.0,3007.0,2987.5,4517.75,3892.8,299.9225,305.2475,313.9293333333333,315.15,12.205333333333332,20.786,21.9654,21.3201,314.999998,314.999998,324.999988,324.999988,99.56728571428572,99.51516666666667,99.57228571428571,99.54465714285715,-0.15124999999999988,-0.2733333333333332,-0.20999999999999996,0.0023333333333332984,-0.086666666666666,-0.030000000000001137,1.5043333333333333,1.5455,46.034,30.9125,38.284,34.2505,76.39,39.6355,61.4875,51.419,70.031,38.262,60.1455,49.717,71.81,37.49033333333333,60.2095,49.071333333333335,0.069,-0.2175,0.09197000000000001,0.103275,0.0,207.04500000000002,207.07,204.0,204.0,0.0,0.0
7,0.0,0.0,0.0,1.0,1.0,0.0,0.0,1.0,0.0,100.0,1.0,1.1856,26.0,0.0,0.0,0.0,59.999996,0.0,26.0,26.0,26.0,26.0,-0.0885555555555555,0.28180000000000005,0.00655,291.733,-2.4872,-2.8953333333333333,-1.39425,-1.74,-252.57999999999998,215.6175,190.849,0.0,0.0,0.0,0.0,0.015033333333333334,-5.498166666666667,-5.498166666666667,-0.5948,0.0595,-0.18777777777777782,0.902,66.265,-0.0954,-0.29000000000000004,0.7679999999999998,100.0,1.0,1.0,204.51666666666665,0.0,0.0,0.0,0.0,0.0,0.0,0.0,8668.7,0.0,55.0,5.0,238.5233333333333,1.0,0.0,0.0,0.0,0.0,0.0,0.0,0.0,0.3539999999999992,0.3539999999999992,0.0,0.0,1.0,55.0,616.79921,10000.0,85.000001,85.000001,85.000001,85.000001,395.0,0.0,0.0,0.0,1.0,333.33500000000004,49.606,49.606,48.66,48.66,34.0,-27.9,18.842,-32.166666666666664,24.08,0.0,1782.462,1.38,100.0,27.64,27.86,44.263,40.476,0.0,0.0,100.0,0.0,0.0,0.0,0.0,2991.5,3178.7,4233.0,3824.1000000000004,299.6705,304.79675,314.51533333333333,315.33925,12.221666666666668,20.7925,21.9765,21.3287,314.999998,314.999998,324.999988,324.999988,99.5673,99.5152,99.57241428571429,99.54478571428571,-0.10949999999999993,-0.23933333333333318,-0.20266666666666666,0.02516666666666678,-0.086666666666666,-0.041666666666671404,1.536,1.559,46.135999999999996,30.953,38.352999999999994,34.3045,76.393,39.674,61.522999999999996,51.473,70.03399999999999,38.298,60.1785,49.7685,71.81,37.52433333333333,60.24,49.12166666666667,0.0365,-0.1935,0.10111500000000001,0.11536500000000001,0.0,207.47,207.51999999999998,204.51666666666665,204.51666666666665,0.0,0.0
8,0.0,0.0,0.0,1.0,1.0,0.0,0.0,1.0,0.0,100.0,1.0,1.1856,26.0,0.0,0.0,0.0,59.999996,0.0,26.0,26.0,26.0,26.0,-0.07066666666666666,0.27180000000000004,-0.0082,291.977,-2.5685000000000002,-2.829777777777778,-1.3744,-1.7297,-248.99,215.60250000000002,190.8275,0.0,0.0,0.0,0.0,0.0171,-5.498166666666667,-5.498166666666667,-0.5948,-0.09149999999999991,-0.17333333333333334,0.619,66.416,-0.0852,-0.28863333333333335,0.3460000000000001,100.0,1.0,1.0,204.9766666666667,0.0,0.0,0.0,0.0,0.0,0.0,0.0,8688.3,0.0,55.0,5.0,239.07333333333332,0.0,0.0,0.0,0.0,0.0,0.0,0.0,0.0,0.40800000000000125,0.40800000000000125,0.0,0.0,0.0,55.0,616.79921,10000.0,85.000001,85.000001,85.000001,85.000001,395.0,0.0,0.0,0.0,1.0,166.665,50.079,50.079,48.462,48.462,34.0,-26.673333333333336,19.484,-30.57333333333333,24.450000000000003,0.0,1782.408,1.1799999999999997,100.0,27.318,27.819,44.234,40.559,0.0,0.0,100.0,0.0,0.0,0.0,0.0,2877.75,3214.2,4152.125,3843.0,300.287,304.74075,314.705,315.29975,12.238833333333332,20.7994,21.9883,21.3379,314.999998,314.999998,324.999988,324.999988,99.56732857142858,99.51523333333333,99.57257142857142,99.54492857142857,-0.09274999999999989,-0.21566666666666667,-0.19166666666666665,0.03216666666666668,-0.11666666666666714,-0.054999999999999716,1.5436666666666667,1.552,46.242999999999995,30.996000000000002,38.427,34.362,76.39099999999999,39.715,61.5625,51.534,70.033,38.336,60.2155,49.827,71.805,37.561,60.2735,49.178333333333335,0.021500000000000002,-0.168,0.11104000000000001,0.10466500000000001,0.0,207.95,208.015,204.9766666666667,204.9766666666667,0.0,0.0
9,0.0,0.0,0.0,1.0,1.0,0.0,0.0,1.0,0.0,100.0,1.0,1.1856,26.0,0.0,0.0,0.0,59.999996,0.0,26.0,26.0,26.0,26.0,-0.04499999999999993,0.28580000000000005,-0.0179,291.87,-2.50305,-2.8383333333333334,-1.4287,-1.6819000000000002,-246.0,215.5875,190.809125,0.0,0.0,0.0,0.0,0.018866666666666667,-5.498166666666667,-5.498166666666667,-0.5908,0.20999999999999996,-0.18111111111111144,-0.7050000000000001,66.543,-0.0713,-0.27713333333333334,0.18599999999999994,100.0,1.0,1.0,205.35333333333335,0.0,0.0,0.0,0.0,0.0,0.0,0.0,8704.1,0.0,55.0,5.0,239.52666666666667,1.0,0.0,0.0,0.0,0.0,0.0,0.0,0.0,0.4529999999999994,0.4529999999999994,0.0,0.0,1.0,55.0,616.79921,10000.0,85.000001,85.000001,85.000001,85.000001,395.0,0.0,0.0,0.0,1.0,166.665,49.881,49.881,48.766999999999996,48.766999999999996,34.0,-27.423333333333336,19.414,-31.413333333333334,24.745,0.0,1782.363,1.0150000000000006,100.0,27.152,27.89,43.95,40.622,0.0,0.0,100.0,0.0,0.0,0.0,0.0,3060.875,3124.4,4256.125,3876.4,299.7145,304.839,314.55966666666666,315.1845,12.253166666666667,20.8052,21.998,21.3455,314.999998,314.999998,324.999988,324.999988,99.56732857142858,99.51525,99.57271428571428,99.54504285714286,-0.08325000000000005,-0.20866666666666678,-0.17866666666666664,0.0451666666666668,-0.10166666666666657,-0.03499999999999659,1.5470000000000002,1.5605,46.332,31.032,38.486999999999995,34.4095,76.39,39.7485,61.5945,51.5835,70.032,38.3675,60.2455,49.8745,71.80199999999999,37.591,60.301,49.225,0.007,-0.1615,0.10298,0.11299000000000001,0.0,208.325,208.41500000000002,205.35333333333335,205.35333333333335,0.0,0.0
10,0.0,0.0,0.0,1.0,1.0,0.0,0.0,1.0,0.0,100.0,1.0,1.1856,26.0,0.0,0.0,0.0,59.999996,0.0,26.0,26.0,26.0,26.0,-0.027555555555555555,0.28780000000000006,0.0025,291.733,-2.5545999999999998,-2.8176666666666668,-1.3891,-1.6671,-242.41,215.57,190.78725,0.0,0.0,0.0,0.0,0.020933333333333335,-5.498166666666667,-5.498166666666667,-0.5852999999999999,-0.3015000000000001,-0.15711111111111142,0.15100000000000002,66.695,-0.0541,-0.2773,-0.019999999999999574,100.0,1.0,1.0,205.73333333333335,0.0,0.0,0.0,0.0,0.0,0.0,0.0,8720.3,0.0,55.0,5.0,240.07333333333332,0.0,0.0,0.0,0.0,0.0,0.0,1.0,0.0,0.5069999999999979,0.5069999999999979,0.0,0.0,0.0,55.0,616.79921,10000.0,85.000001,85.000001,85.000001,85.000001,395.0,0.0,0.0,0.0,1.0,166.665,50.14,50.14,48.294,48.294,34.0,-26.463333333333335,19.546,-31.153333333333336,26.165,0.0,1782.31,0.9199999999999999,100.0,27.162,27.902,44.101,40.996,0.0,0.0,100.0,0.0,0.0,0.0,0.0,2971.625,3102.4,4342.25,4002.7,300.1485,304.937,314.338,314.8565,12.270166666666666,20.8121,22.0098,21.3548,314.999998,314.999998,324.999988,324.999988,99.56734285714286,99.51526666666666,99.57287142857143,99.5452,-0.07050000000000001,-0.19766666666666666,-0.16649999999999998,0.052999999999999936,-0.10000000000000142,-0.03499999999999659,1.5123333333333333,1.5015,46.439,31.075499999999998,38.561,34.4675,76.386,39.7875,61.6345,51.6455,70.029,38.4035,60.2825,49.934,71.79599999999999,37.62533333333333,60.3345,49.28333333333333,0.001,-0.1465,0.1018,0.108215,0.0,208.78,208.88,205.73333333333335,205.73333333333335,0.0,0.0
11,0.0,0.0,0.0,1.0,1.0,0.0,0.0,1.0,0.0,100.0,1.0,1.1856,26.0,0.0,0.0,0.0,59.999996,0.0,26.0,26.0,26.0,26.0,-0.0023333333333332984,0.2821,-0.0621,292.114,-2.5715500000000002,-2.8022222222222224,-1.45145,-1.6351,-239.2,215.5525,190.767625,0.0,0.0,0.0,0.0,0.022600000000000002,-5.498166666666667,-5.498166666666667,-0.6053999999999999,-0.274,-0.1248888888888886,-0.262,66.827,-0.0405,-0.2899,-0.18399999999999928,100.0,1.0,1.0,206.26,0.0,0.0,0.0,0.0,0.0,0.0,0.0,8742.6,0.0,55.0,5.0,240.55,1.0,0.0,0.0,0.0,0.0,0.0,1.0,0.0,0.5549999999999997,0.5549999999999997,0.0,0.0,1.0,55.0,616.79921,10000.0,85.000001,85.000001,85.000001,85.000001,395.0,0.0,0.0,0.0,1.0,333.33500000000004,50.201,50.201,48.935,48.935,34.0,-25.856666666666666,20.892,-28.063333333333333,25.515,0.0,1782.261,0.5949999999999998,100.0,26.885,27.962,43.798,41.01,0.0,0.0,100.0,0.0,0.0,0.0,0.0,2950.875,3188.0,4066.625,3846.5,300.293,304.66975,315.01466666666664,315.2735,12.285166666666667,20.8183,22.0201,21.363,314.999998,314.999998,324.999988,324.999988,99.56734285714286,99.5153,99.573,99.54531428571428,-0.05725000000000002,-0.17866666666666675,-0.1426666666666666,0.08000000000000007,-0.10499999999999687,-0.051666666666669414,1.593,1.574,46.532,31.113999999999997,38.626000000000005,34.5185,76.37899999999999,39.8215,61.666,51.7,70.023,38.435,60.3125,49.986000000000004,71.787,37.65566666666666,60.3615,49.334,-0.012,-0.137,0.10188000000000001,0.110865,0.0,209.18,209.29500000000002,206.26,206.26,0.0,0.0
12,0.0,0.0,0.0,1.0,1.0,0.0,0.0,1.0,0.0,100.0,1.0,1.1856,26.0,0.0,0.0,0.0,59.999996,0.0,26.0,26.0,26.0,26.0,0.006888888888888944,0.29280000000000017,-0.0001,291.779,-2.6009,-2.801222222222222,-1.4288,-1.6557,-235.99,215.535,190.74725,0.0,0.0,0.0,0.0,0.025466666666666665,-5.498166666666667,-5.498166666666667,-0.5985,0.3425,-0.1256666666666666,-0.7330000000000001,66.96000000000001,-0.024800000000000003,-0.2707,-0.33999999999999986,100.0,1.0,1.0,206.60666666666668,0.0,0.0,0.0,0.0,0.0,0.0,0.0,8757.3,0.0,55.0,5.0,241.03,0.0,0.0,0.0,0.0,0.0,0.0,1.0,0.0,0.602999999999998,0.602999999999998,0.0,0.0,0.0,55.0,616.79921,10000.0,85.000001,85.000001,85.000001,85.000001,395.0,0.0,0.0,0.0,1.0,333.33500000000004,49.942,49.942,48.400999999999996,48.400999999999996,34.0,-26.11,21.592,-29.71,27.305,0.0,1782.211,0.7199999999999998,100.0,26.905,28.189,43.583,40.988,0.0,0.0,100.0,0.0,0.0,0.0,0.0,2982.25,3234.8,4312.25,3940.0,300.132,304.508,314.4583333333333,315.06825,12.300166666666666,20.8246,22.0304,21.3712,314.999998,314.999998,324.999988,324.999988,99.56735714285715,99.51531666666666,99.57315714285714,99.54545714285715,-0.04899999999999993,-0.17133333333333312,-0.1386666666666666,0.09266666666666667,-0.10000000000000142,-0.05666666666667197,1.5566666666666666,1.525,46.626000000000005,31.1535,38.69,34.57,76.371,39.858000000000004,61.7005,51.7575,70.017,38.469,60.3445,50.041,71.777,37.68833333333333,60.3905,49.388,-0.001,-0.151,0.11043000000000001,0.10477500000000001,0.0,209.595,209.75,206.60666666666668,206.60666666666668,0.0,0.0
13,0.0,0.0,0.0,1.0,1.0,0.0,0.0,1.0,0.0,100.0,1.0,1.1856,26.0,0.0,0.0,0.0,59.999996,0.0,26.0,26.0,26.0,26.0,0.03444444444444428,0.27960000000000007,0.033575,291.412,-2.5681,-2.812777777777778,-1.45735,-1.6644,-232.57,215.515,190.725625,0.0,0.0,0.0,0.0,0.02666666666666667,-5.498166666666667,-5.498166666666667,-0.5932999999999999,-0.1905000000000001,-0.12655555555555553,1.205,67.102,-0.0129,-0.2762,-0.4220000000000006,100.0,1.0,1.0,206.95666666666668,0.0,0.0,0.0,0.0,0.0,0.0,0.0,8772.1,0.0,55.0,5.0,241.54000000000002,1.0,0.0,0.0,0.0,0.0,0.0,1.0,0.0,0.6539999999999999,0.6539999999999999,0.0,0.0,1.0,55.0,616.79921,10000.0,85.000001,85.000001,85.000001,85.000001,395.0,0.0,0.0,0.0,1.0,333.33500000000004,49.713,49.713,48.05,48.05,34.0,-23.553333333333335,24.024,-28.986666666666665,30.8425,0.0,1782.161,0.6299999999999999,100.0,27.308,28.226,44.043,41.315,0.0,0.0,100.0,0.0,0.0,0.0,0.0,2903.5,3306.2,4295.125,4128.5,300.2155,304.4695,314.37533333333334,314.6495,12.315999999999999,20.8313,22.0416,21.38,314.999998,314.999998,324.999988,324.999988,99.56737142857143,99.51533333333333,99.5733,99.54558571428572,-0.003249999999999975,-0.1299999999999999,-0.11283333333333334,0.12566666666666682,-0.09666666666667112,-0.03833333333332689,1.5046666666666666,1.4805000000000001,46.724999999999994,31.1955,38.76,34.625,76.364,39.891999999999996,61.7355,51.8135,70.011,38.5005,60.376999999999995,50.095,71.768,37.718333333333334,60.42,49.440666666666665,-0.0265,-0.1265,0.10677500000000001,0.115805,0.0,210.025,210.155,206.95666666666668,206.95666666666668,0.0,0.0
14,0.0,0.0,0.0,1.0,1.0,0.0,0.0,1.0,0.0,100.0,1.0,1.1856,26.0,0.0,0.0,0.0,59.999996,0.0,26.0,26.0,26.0,26.0,0.044777777777777805,0.27459999999999996,-0.019075,291.55,-2.59085,-2.815,-1.457,-1.6528,-229.14,215.4975,190.70425,0.0,0.0,0.0,0.0,0.02866666666666667,-5.498166666666667,-5.498166666666667,-0.6062,-0.07000000000000006,-0.11033333333333362,-0.31400000000000006,67.241,-0.0035,-0.2917,-0.45999999999999996,100.0,1.0,1.0,207.47,0.0,0.0,0.0,0.0,0.0,0.0,0.0,8793.9,0.0,55.0,5.0,242.04000000000002,0.0,0.0,0.0,0.0,0.0,0.0,1.0,0.0,0.7049999999999983,0.7049999999999983,0.0,0.0,0.0,55.0,616.79921,10000.0,85.000001,85.000001,85.000001,85.000001,395.0,0.0,0.0,0.0,1.0,333.33500000000004,49.622,49.622,48.355000000000004,48.355000000000004,34.0,-24.443333333333335,23.292,-27.519999999999996,28.439999999999998,0.0,1782.111,0.6349999999999998,100.0,27.175,28.61,43.851,41.558,0.0,0.0,100.0,0.0,0.0,0.0,0.0,2958.875,3235.9,4174.125,3921.6000000000004,300.2525,304.44675,314.76233333333334,315.08225,12.332,20.838,22.052599999999998,21.3888,314.999998,314.999998,324.999988,324.999988,99.56737142857143,99.51535,99.57344285714285,99.54572857142857,-0.013500000000000068,-0.1393333333333333,-0.1103333333333334,0.11883333333333335,-0.10000000000000142,-0.061666666666667425,1.5576666666666665,1.5205,46.825,31.237499999999997,38.829,34.68,76.356,39.9275,61.769999999999996,51.872,70.00399999999999,38.533500000000004,60.408500000000004,50.1505,71.758,37.75033333333333,60.448499999999996,49.495333333333335,-0.0265,-0.127,0.11002,0.10818000000000001,0.0,210.465,210.59,207.47,207.47,0.0,0.0
15,0.0,0.0,0.0,1.0,1.0,0.0,0.0,1.0,0.0,100.0,1.0,1.1856,26.0,0.0,0.0,0.0,59.999996,0.0,26.0,26.0,26.0,26.0,0.04644444444444429,0.2762,0.008175,291.428,-2.5836,-2.7894444444444444,-1.4688,-1.6702,-225.71,215.48000000000002,190.682625,0.0,0.0,0.0,0.0,0.030633333333333332,-5.498166666666667,-5.498166666666667,-0.5988,0.242,-0.0950000000000002,0.768,67.38,0.0063,-0.2778,-0.5779999999999994,100.0,1.0,1.0,207.86,0.0,0.0,0.0,0.0,0.0,0.0,0.0,8810.5,0.0,55.0,5.0,242.54333333333335,1.0,0.0,0.0,0.0,0.0,0.0,1.0,0.0,0.7560000000000002,0.7560000000000002,0.0,0.0,1.0,55.0,616.79921,10000.0,85.000001,85.000001,85.000001,85.000001,395.0,0.0,0.0,0.0,1.0,166.665,49.652,49.652,48.141,48.141,34.0,-23.006666666666664,23.672,-27.01333333333333,30.7,0.0,1782.061,0.75,100.0,27.4,28.592,43.862,41.647999999999996,0.0,0.0,100.0,0.0,0.0,0.0,0.0,2831.5,3315.1,4190.75,4055.3,300.58,304.3765,314.678,314.8005,12.347833333333334,20.8448,22.0636,21.3976,314.999998,314.999998,324.999988,324.999988,99.56737142857143,99.51536666666667,99.57358571428571,99.54585714285714,-0.0029999999999998916,-0.1356666666666666,-0.09216666666666662,0.13749999999999996,-0.09499999999999886,-0.045000000000001705,1.5366666666666666,1.5234999999999999,46.924,31.28,38.897,34.735,76.347,39.963,61.8035,51.931,69.996,38.5665,60.44,50.207499999999996,71.747,37.782,60.4765,49.550666666666665,-0.0175,-0.14150000000000001,0.10793000000000001,0.10480500000000001,0.0,210.905,211.04000000000002,207.86,207.86,0.0,0.0
16,0.0,0.0,0.0,1.0,1.0,0.0,0.0,1.0,0.0,100.0,1.0,1.1856,26.0,0.0,0.0,0.0,59.999996,0.0,26.0,26.0,26.0,26.0,0.05111111111111111,0.2694000000000001,0.007575,291.382,-2.64875,-2.732222222222222,-1.4522,-1.6615,-222.47,215.4675,190.662,0.0,0.0,0.0,0.0,0.03253333333333333,-5.498166666666667,-5.498166666666667,-0.6055999999999999,-0.40600000000000014,-0.09788888888888891,0.351,67.512,0.010700000000000001,-0.2853333333333334,-0.41799999999999926,100.0,1.0,1.0,208.24,0.0,0.0,0.0,0.0,0.0,0.0,0.0,8826.5,0.0,55.0,5.0,243.01333333333332,0.0,0.0,0.0,0.0,0.0,0.0,1.0,0.0,0.8039999999999985,0.8039999999999985,0.0,0.0,0.0,55.0,616.79921,10000.0,85.000001,85.000001,85.000001,85.000001,395.0,0.0,0.0,0.0,1.0,333.33500000000004,49.652,49.652,47.836,47.836,34.0,-23.66,24.494,-26.906666666666666,30.5425,0.0,1782.011,0.7800000000000002,100.0,27.14,28.563,44.049,41.794,0.0,0.0,100.0,0.0,0.0,0.0,0.0,2876.0,3412.2,4194.625,3995.8,300.5255,304.13925,314.6406666666667,314.9155,12.3625,20.8512,22.073999999999998,21.406,314.999998,314.999998,324.999988,324.999988,99.56738571428572,99.51538333333333,99.57372857142857,99.54598571428572,0.002000000000000224,-0.12199999999999989,-0.09250000000000003,0.14483333333333337,-0.0899999999999963,-0.036666666666668846,1.526,1.5005,47.015,31.32,38.963,34.7875,76.33500000000001,39.9965,61.837,51.9865,69.986,38.5975,60.471000000000004,50.2605,71.734,37.812,60.5045,49.603,-0.0105,-0.1455,0.10358500000000001,0.11303,0.0,211.285,211.43,208.24,208.24,0.0,0.0
17,0.0,0.0,0.0,1.0,1.0,0.0,0.0,1.0,0.0,100.0,1.0,1.1856,26.0,0.0,0.0,0.0,59.999996,0.0,26.0,26.0,26.0,26.0,0.040000000000000036,0.27459999999999996,0.01405,291.168,-2.61415,-2.716666666666667,-1.49035,-1.6256,-219.03,215.4525,190.639875,0.0,0.0,0.0,0.0,0.03453333333333333,-5.498166666666667,-5.498166666666667,-0.6058,0.14049999999999996,-0.12622222222222224,-1.13,67.65,0.0086,-0.27726666666666666,-0.3099999999999996,100.0,1.0,1.0,208.65333333333334,0.0,0.0,0.0,0.0,0.0,0.0,0.0,8844.1,0.0,55.0,5.0,243.51,1.0,0.0,0.0,0.0,0.0,0.0,1.0,0.0,0.8550000000000004,0.8550000000000004,0.0,0.0,1.0,55.0,616.79921,10000.0,85.000001,85.000001,85.000001,85.000001,395.0,0.0,0.0,0.0,1.0,333.33500000000004,49.347,49.347,47.791,47.791,34.0,-25.183333333333334,22.996,-30.003333333333337,29.380000000000003,0.0,1781.96,0.8500000000000005,100.0,27.209,28.776,43.847,41.793,0.0,0.0,100.0,0.0,0.0,0.0,0.0,3037.625,3306.1,4428.25,3994.3,300.013,304.29825,314.21933333333334,314.92125,12.378166666666667,20.858,22.085,21.4148,314.999998,314.999998,324.999988,324.999988,99.56738571428572,99.5154,99.57388571428571,99.54612857142857,-0.009749999999999925,-0.1356666666666666,-0.10733333333333339,0.13166666666666682,-0.0933333333333266,-0.030000000000001137,1.52,1.514,47.114000000000004,31.362499999999997,39.031,34.8425,76.326,40.032,61.871,52.044,69.978,38.631,60.5025,50.316,71.723,37.844,60.533,49.657333333333334,-0.006,-0.15,0.10808000000000001,0.11452000000000001,0.0,211.735,211.85000000000002,208.65333333333334,208.65333333333334,0.0,0.0
18,0.0,0.0,0.0,1.0,1.0,0.0,0.0,1.0,0.0,100.0,1.0,1.1856,26.0,0.0,0.0,0.0,59.999996,0.0,26.0,26.0,26.0,26.0,0.027444444444444382,0.272,0.02445,290.97,-2.5413,-2.7102222222222223,-1.48365,-1.5889,-215.78,215.44,190.61875,0.0,0.0,0.0,0.0,0.03643333333333333,-5.498166666666667,-5.498166666666667,-0.6142,-0.34850000000000003,-0.12222222222222223,-0.3640000000000001,67.779,0.0046,-0.2854,-0.21999999999999975,100.0,1.0,1.0,209.01333333333332,0.0,0.0,0.0,0.0,0.0,0.0,0.0,8859.3,0.0,55.0,5.0,243.98000000000002,0.0,0.0,0.0,0.0,0.0,0.0,1.0,0.0,0.9029999999999987,0.9029999999999987,0.0,0.0,0.0,55.0,616.79921,10000.0,85.000001,85.000001,85.000001,85.000001,395.0,0.0,0.0,0.0,1.0,166.665,49.225,49.225,47.577,47.577,34.0,-24.456666666666663,23.25,-29.856666666666662,28.9625,0.0,1781.914,0.835,100.0,27.286,28.732,44.09,41.959,0.0,0.0,100.0,0.0,0.0,0.0,0.0,3005.125,3404.6,4397.625,4067.3,300.0525,304.06175,314.273,314.74625,12.393,20.8643,22.095399999999998,21.423099999999998,314.999998,314.999998,324.999988,324.999988,99.5674,99.51541666666667,99.57401428571428,99.54625714285714,-0.012249999999999872,-0.1439999999999999,-0.1093333333333334,0.1180000000000001,-0.08166666666667055,-0.06499999999999773,1.5070000000000001,1.4925,47.206,31.402,39.096000000000004,34.8945,76.31700000000001,40.065,61.903999999999996,52.099000000000004,69.97,38.661500000000004,60.533500000000004,50.369,71.712,37.873333333333335,60.561,49.709,-0.006,-0.1515,0.10656,0.10506000000000001,0.0,212.115,212.255,209.01333333333332,209.01333333333332,0.0,0.0
19,0.0,0.0,0.0,1.0,1.0,0.0,0.0,1.0,0.0,100.0,1.0,1.1856,26.0,0.0,0.0,0.0,59.999996,0.0,26.0,26.0,26.0,26.0,0.02955555555555578,0.28869999999999996,0.061950000000000005,290.665,-2.5369,-2.815666666666667,-1.41415,-1.7162000000000002,-212.32,215.4275,190.596125,0.0,0.0,0.0,0.0,0.03843333333333333,-5.498166666666667,-5.498166666666667,-0.6103,0.5429999999999999,-0.1166666666666667,0.534,67.91499999999999,0.0026000000000000003,-0.28163333333333335,-0.29600000000000026,100.0,1.0,1.0,209.43666666666667,0.0,0.0,0.0,0.0,0.0,0.0,0.0,8877.2,0.0,55.0,5.0,244.47,1.0,0.0,0.0,0.0,0.0,0.0,1.0,0.0,0.9540000000000006,0.9540000000000006,0.0,0.0,1.0,55.0,616.79921,10000.0,85.000001,85.000001,85.000001,85.000001,395.0,0.0,0.0,0.0,1.0,333.33500000000004,48.737,48.737,47.729,47.729,34.0,-24.4,24.168,-28.07,32.11,0.0,1781.861,0.9050000000000002,100.0,27.822,29.04,44.1,41.903999999999996,0.0,0.0,100.0,0.0,0.0,0.0,0.0,2970.625,3408.2,4317.875,4186.9,299.891,303.994,314.373,314.41975,12.408833333333334,20.871299999999998,22.1064,21.432,314.999998,314.999998,324.999988,324.999988,99.5674,99.51545,99.57417142857143,99.5464,-0.013249999999999984,-0.14966666666666661,-0.10383333333333333,0.12316666666666687,-0.0899999999999963,-0.06833333333332803,1.4889999999999999,1.4809999999999999,47.305,31.4455,39.165,34.95,76.31,40.1025,61.9375,52.1575,69.965,38.697,60.564499999999995,50.425,71.703,37.907333333333334,60.588499999999996,49.763999999999996,0.0,-0.1565,0.11274,0.10466,0.0,212.57,212.71,209.43666666666667,209.43666666666667,0.0,0.0
20,0.0,0.0,0.0,1.0,1.0,0.0,0.0,1.0,0.0,100.0,1.0,1.1856,26.0,0.0,0.0,0.0,59.999996,0.0,26.0,26.0,26.0,26.0,0.030444444444444274,0.2590000000000001,-0.001325,290.955,-2.6071,-2.7653333333333334,-1.4263,-1.6982,-208.64999999999998,215.41500000000002,190.5725,0.0,0.0,0.0,0.0,0.04056666666666667,-5.498166666666667,-5.498166666666667,-0.6083000000000001,-0.679,-0.11055555555555552,0.913,68.06,-0.0006000000000000001,-0.29013333333333335,-0.1720000000000006,100.0,1.0,1.0,209.85666666666668,0.0,0.0,0.0,0.0,0.0,0.0,0.0,8895.0,0.0,55.0,5.0,244.99333333333334,0.0,0.0,0.0,0.0,0.0,0.0,0.0,0.0,1.0079999999999991,1.0079999999999991,0.0,0.0,0.0,55.0,616.79921,10000.0,85.000001,85.000001,85.000001,85.000001,395.0,0.0,0.0,0.0,1.0,166.665,49.484,49.484,47.318,47.318,34.0,-23.716666666666665,22.968,-27.733333333333334,30.135,0.0,1781.809,0.9249999999999998,100.0,27.645,28.812,44.701,42.373000000000005,0.0,0.0,100.0,0.0,0.0,0.0,0.0,2854.625,3328.0,4246.0,4004.5,300.5845,304.412,314.4873333333333,314.86925,12.425333333333333,20.8784,22.1182,21.4415,314.999998,314.999998,324.999988,324.999988,99.5674,99.51546666666667,99.57432857142857,99.54654285714285,-0.011500000000000066,-0.14666666666666672,-0.10266666666666657,0.12200000000000011,-0.09166666666666856,-0.04833333333333201,1.4826666666666668,1.487,47.409,31.490000000000002,39.239000000000004,35.0095,76.298,40.1405,61.976,52.2205,69.955,38.7325,60.6005,50.486000000000004,71.69,37.94133333333333,60.6215,49.82333333333334,0.0005,-0.162,0.10569500000000001,0.10740000000000001,0.0,212.99,213.115,209.85666666666668,209.85666666666668,0.0,0.0
21,0.0,0.0,0.0,1.0,1.0,0.0,0.0,1.0,0.0,100.0,1.0,1.1856,26.0,0.0,0.0,0.0,59.999996,0.0,26.0,26.0,26.0,26.0,0.021333333333333426,0.26480000000000015,-0.055275000000000005,291.29,-2.6172,-2.761888888888889,-1.46485,-1.6474000000000002,-205.57999999999998,215.405,190.5525,0.0,0.0,0.0,0.0,0.04236666666666667,-5.498166666666667,-5.498166666666667,-0.6272,-0.15399999999999991,-0.1206666666666667,-0.875,68.178,-0.0049,-0.28896666666666665,-0.14200000000000035,100.0,1.0,1.0,210.35000000000002,0.0,0.0,0.0,0.0,0.0,0.0,0.0,8916.0,0.0,55.0,5.0,245.41666666666666,1.0,0.0,0.0,0.0,0.0,0.0,0.0,0.0,1.0530000000000008,1.0530000000000008,0.0,0.0,1.0,55.0,616.79921,10000.0,85.000001,85.000001,85.000001,85.000001,395.0,0.0,0.0,0.0,1.0,166.665,49.484,49.484,48.096000000000004,48.096000000000004,34.0,-25.313333333333336,22.284,-28.14333333333333,27.105,0.0,1781.764,0.875,100.0,27.367,28.832,44.236000000000004,42.120000000000005,0.0,0.0,100.0,0.0,0.0,0.0,0.0,3015.125,3237.8,4196.875,3836.4,300.18,304.572,314.75166666666667,315.31625,12.439166666666667,20.8844,22.1278,21.4492,314.999998,314.999998,324.999988,324.999988,99.56741428571429,99.51548333333334,99.57445714285714,99.54667142857143,-0.017749999999999932,-0.1476666666666666,-0.11699999999999999,0.10933333333333328,-0.09499999999999886,-0.045000000000001705,1.5626666666666666,1.548,47.494,31.5275,39.298,35.0575,76.289,40.1725,62.004,52.269999999999996,69.94800000000001,38.7615,60.6265,50.533500000000004,71.679,37.96966666666667,60.6445,49.86966666666667,-0.0095,-0.151,0.10855000000000001,0.10421000000000001,0.0,213.365,213.48000000000002,210.35000000000002,210.35000000000002,0.0,0.0
22,0.0,0.0,0.0,1.0,1.0,0.0,0.0,1.0,0.0,100.0,1.0,1.1856,26.0,0.0,0.0,0.0,59.999996,0.0,26.0,26.0,26.0,26.0,0.02499999999999991,0.28090000000000015,-0.0125,290.894,-2.64165,-2.8305555555555557,-1.4835500000000001,-1.6440000000000001,-202.1,215.39499999999998,190.52875,0.0,0.0,0.0,0.0,0.04436666666666667,-5.498166666666667,-5.498166666666667,-0.6154999999999999,0.19199999999999995,-0.12211111111111128,1.162,68.315,-0.0076,-0.2665,-0.26399999999999935,100.0,1.0,1.0,210.64333333333332,0.0,0.0,0.0,0.0,0.0,0.0,0.0,8928.4,0.0,55.0,5.0,245.90666666666667,0.0,0.0,0.0,0.0,0.0,0.0,0.0,0.0,1.1039999999999992,1.1039999999999992,0.0,0.0,0.0,55.0,616.79921,10000.0,85.000001,85.000001,85.000001,85.000001,395.0,0.0,0.0,0.0,1.0,333.33500000000004,49.454,49.454,47.287,47.287,34.0,-24.673333333333336,23.796,-30.423333333333332,30.3475,0.0,1781.712,0.7999999999999998,100.0,27.678,28.747,44.422,41.964,0.0,0.0,100.0,0.0,0.0,0.0,0.0,2918.875,3315.8,4418.0,4159.1,300.4455,304.4425,314.165,314.653,12.454666666666668,20.8912,22.1388,21.4581,314.999998,314.999998,324.999988,324.999988,99.56741428571429,99.5155,99.57461428571429,99.5468,-0.01550000000000007,-0.14100000000000001,-0.1143333333333334,0.119,-0.10499999999999687,-0.051666666666669414,1.504,1.5025,47.592,31.57,39.367000000000004,35.113,76.281,40.2085,62.039,52.3275,69.941,38.795500000000004,60.659,50.588499999999996,71.669,38.002,60.6735,49.92366666666666,-0.0135,-0.1475,0.109835,0.10775000000000001,0.0,213.81,213.91,210.64333333333332,210.64333333333332,0.0,0.0
23,0.0,0.0,0.0,1.0,1.0,0.0,0.0,1.0,0.0,100.0,1.0,1.1856,26.0,0.0,0.0,0.0,59.999996,0.0,26.0,26.0,26.0,26.0,0.008777777777777773,0.2663,0.000275,290.649,-2.55035,-2.7732222222222225,-1.532,-1.6123,-198.41,215.385,190.503875,0.0,0.0,0.0,0.0,0.046533333333333336,-5.498166666666667,-5.498166666666667,-0.6275999999999999,-0.272,-0.11522222222222211,0.581,68.457,-0.0034000000000000002,-0.28963333333333335,-0.31599999999999984,100.0,1.0,1.0,211.10000000000002,0.0,0.0,0.0,0.0,0.0,0.0,0.0,8947.8,0.0,55.0,5.0,246.41666666666666,1.0,0.0,0.0,0.0,0.0,0.0,0.0,0.0,1.1580000000000013,1.1580000000000013,0.0,0.0,1.0,55.0,616.79921,10000.0,85.000001,85.000001,85.000001,85.000001,395.0,0.0,0.0,0.0,1.0,166.665,48.828,48.828,47.577,47.577,34.0,-24.456666666666663,23.881999999999998,-30.066666666666663,29.259999999999998,0.0,1781.659,0.8500000000000005,100.0,27.872,28.969,44.618,42.302,0.0,0.0,100.0,0.0,0.0,0.0,0.0,2991.875,3395.4,4322.25,4053.1000000000004,299.8745,304.18975,314.4456666666667,314.873,12.471333333333334,20.8985,22.1505,21.4676,314.999998,314.999998,324.999988,324.999988,99.56742857142856,99.51551666666667,99.57477142857142,99.54695714285714,-0.006999999999999895,-0.1416666666666666,-0.11183333333333334,0.12450000000000006,-0.09833333333332916,-0.045000000000001705,1.5206666666666666,1.5234999999999999,47.696,31.615499999999997,39.441,35.1725,76.271,40.248,62.076,52.39,69.93299999999999,38.832,60.6935,50.6485,71.657,38.037,60.705,49.98233333333333,-0.0115,-0.1495,0.10518000000000001,0.10994500000000001,0.0,214.215,214.325,211.10000000000002,211.10000000000002,0.0,0.0
24,0.0,0.0,0.0,1.0,1.0,0.0,0.0,1.0,0.0,100.0,1.0,1.1856,26.0,0.0,0.0,0.0,59.999996,0.0,26.0,26.0,26.0,26.0,0.023333333333333428,0.27900000000000014,-0.023875,290.985,-2.5736499999999998,-2.7724444444444445,-1.4362,-1.6536,-195.32,215.375,190.483,0.0,0.0,0.0,0.0,0.0483,-5.498166666666667,-5.498166666666667,-0.6391,-0.25950000000000006,-0.11511111111111116,-0.2570000000000001,68.574,-0.0009000000000000001,-0.28856666666666664,-0.20000000000000018,100.0,1.0,1.0,211.46666666666667,0.0,0.0,0.0,0.0,0.0,0.0,0.0,8963.3,0.0,55.0,5.0,246.84,0.0,0.0,0.0,0.0,0.0,0.0,0.0,0.0,1.2029999999999994,1.2029999999999994,0.0,0.0,0.0,55.0,616.79921,10000.0,85.000001,85.000001,85.000001,85.000001,395.0,0.0,0.0,0.0,1.0,166.665,49.591,49.591,47.44,47.44,34.0,-24.493333333333336,21.718,-29.53666666666666,28.8525,0.0,1781.614,0.8399999999999999,100.0,27.605,28.865000000000002,44.425,42.283,0.0,0.0,100.0,0.0,0.0,0.0,0.0,2951.0,3172.3,4429.5,3947.9,300.3865,304.73225,314.15,315.06475,12.485,20.9044,22.1602,21.4754,314.999998,314.999998,324.999988,324.999988,99.56742857142856,99.51553333333334,99.57491428571429,99.54708571428571,-0.018750000000000044,-0.1523333333333332,-0.1123333333333334,0.12200000000000011,-0.08833333333333115,-0.051666666666669414,1.538,1.5225,47.781,31.6525,39.501000000000005,35.2215,76.263,40.278999999999996,62.106,52.4405,69.926,38.861000000000004,60.721000000000004,50.697,71.64699999999999,38.06466666666667,60.7295,50.029666666666664,-0.0105,-0.152,0.104455,0.11388500000000001,0.0,214.59,214.715,211.46666666666667,211.46666666666667,0.0,0.0
25,0.0,0.0,0.0,1.0,1.0,0.0,0.0,1.0,0.0,100.0,1.0,1.1856,26.0,0.0,0.0,0.0,59.999996,0.0,26.0,26.0,26.0,26.0,0.023666666666666725,0.25750000000000006,-0.041725000000000005,290.985,-2.6425,-2.748222222222222,-1.46845,-1.6349,-191.82,215.3675,190.458,0.0,0.0,0.0,0.0,0.050333333333333334,-5.498166666666667,-5.498166666666667,-0.6556,-0.09600000000000009,-0.09600000000000009,0.484,68.707,-0.0022,-0.28323333333333334,-0.3200000000000003,100.0,1.0,1.0,211.93,0.0,0.0,0.0,0.0,0.0,0.0,0.0,8983.0,0.0,55.0,5.0,247.31666666666666,1.0,0.0,0.0,0.0,0.0,0.0,0.0,0.0,1.2540000000000013,1.2540000000000013,0.0,0.0,1.0,55.0,616.79921,10000.0,85.000001,85.000001,85.000001,85.000001,395.0,0.0,0.0,0.0,1.0,333.33500000000004,49.118,49.118,47.806,47.806,34.0,-24.833333333333336,24.968,-27.846666666666664,29.3675,0.0,1781.561,0.7850000000000001,100.0,27.572,28.836,44.341,42.063,0.0,0.0,100.0,0.0,0.0,0.0,0.0,2968.375,3501.9,4131.5,4008.5,300.3,303.915,314.8593333333333,314.9805,12.500333333333334,20.9113,22.1711,21.4843,314.999998,314.999998,324.999988,324.999988,99.56744285714285,99.51555,99.57505714285715,99.54722857142858,-0.008249999999999869,-0.1306666666666667,-0.11716666666666664,0.1293333333333333,-0.07666666666666799,-0.06333333333333258,1.5433333333333334,1.533,47.878,31.6955,39.569,35.2765,76.251,40.314499999999995,62.138,52.497,69.91499999999999,38.8945,60.751,50.7515,71.633,38.097,60.756,50.08266666666667,-0.013000000000000001,-0.14250000000000002,0.11339,0.11175000000000002,0.0,214.99,215.12,211.93,211.93,0.0,0.0
26,0.0,0.0,0.0,1.0,1.0,0.0,0.0,1.0,0.0,100.0,1.0,1.1856,26.0,0.0,0.0,0.0,59.999996,0.0,26.0,26.0,26.0,26.0,0.032777777777777795,0.28,0.047400000000000005,290.009,-2.5675,-2.8373333333333335,-1.4995500000000002,-1.6528,-188.31,215.36,190.432375,0.0,0.0,0.0,0.0,0.0524,-5.498166666666667,-5.498166666666667,-0.6346,0.4575,-0.12377777777777776,-1.049,68.84100000000001,-0.0004,-0.26843333333333336,-0.2920000000000007,100.0,1.0,1.0,212.15,0.0,0.0,0.0,0.0,0.0,0.0,0.0,8992.3,0.0,55.0,5.0,247.80333333333334,0.0,0.0,0.0,0.0,0.0,0.0,0.0,0.0,1.3049999999999997,1.3049999999999997,0.0,0.0,0.0,55.0,616.79921,10000.0,85.000001,85.000001,85.000001,85.000001,395.0,0.0,0.0,0.0,1.0,166.665,48.462,48.462,46.692,46.692,34.0,-25.563333333333336,23.296,-33.11333333333334,31.445,0.0,1781.512,0.7800000000000002,100.0,28.107,29.548000000000002,44.566,42.415,0.0,0.0,100.0,0.0,0.0,0.0,0.0,3108.875,3249.0,4721.25,4239.1,299.6825,304.38075,313.5706666666667,314.34925,12.516166666666667,20.9183,22.1822,21.4932,314.999998,314.999998,324.999988,324.999988,99.56744285714285,99.51556666666667,99.57521428571428,99.54737142857142,-0.009500000000000064,-0.1483333333333332,-0.11116666666666664,0.11483333333333334,-0.08500000000000085,-0.051666666666669414,1.4576666666666667,1.438,47.976,31.738999999999997,39.638999999999996,35.333,76.244,40.3525,62.1735,52.556,69.91,38.9295,60.784,50.808,71.625,38.131,60.786,50.138,-0.015,-0.1505,0.11164500000000001,0.10746000000000001,0.0,215.43,215.56,212.15,212.15,0.0,0.0
27,0.0,0.0,0.0,1.0,1.0,0.0,0.0,1.0,0.0,100.0,1.0,1.1856,26.0,0.0,0.0,0.0,59.999996,0.0,26.0,26.0,26.0,26.0,0.04577777777777792,0.2538,0.0056,290.298,-2.5916,-2.7635555555555555,-1.4731,-1.7231,-185.01,215.35500000000002,190.40925,0.0,0.0,0.0,0.0,0.0543,-5.498166666666667,-5.498166666666667,-0.649,-0.758,-0.11044444444444457,-0.2929999999999999,68.965,0.0025,-0.3037,-0.31599999999999984,100.0,1.0,1.0,212.5966666666667,0.0,0.0,0.0,0.0,0.0,0.0,0.0,9011.2,0.0,55.0,5.0,248.25,1.0,0.0,0.0,0.0,0.0,0.0,0.0,0.0,1.352999999999998,1.352999999999998,0.0,0.0,1.0,55.0,616.79921,10000.0,85.000001,85.000001,85.000001,85.000001,395.0,0.0,0.0,0.0,1.0,333.33500000000004,48.721000000000004,48.721000000000004,46.692,46.692,34.0,-24.509999999999998,23.144,-29.83,29.465,0.0,1781.463,0.7949999999999999,100.0,28.056,29.563,45.14,42.92,0.0,0.0,100.0,0.0,0.0,0.0,0.0,2975.875,3328.2,4360.25,3939.1000000000004,300.318,304.22075,314.342,314.984,12.530833333333334,20.9247,22.1927,21.5018,314.999998,314.999998,324.999988,324.999988,99.56745714285714,99.5156,99.57535714285714,99.5475,-0.00924999999999998,-0.1476666666666666,-0.11416666666666664,0.11116666666666686,-0.0933333333333266,-0.03999999999999915,1.4893333333333334,1.482,48.067,31.7795,39.705,35.3865,76.236,40.387,62.2085,52.6115,69.90299999999999,38.962,60.8165,50.8615,71.615,38.16166666666666,60.815,50.190333333333335,-0.0165,-0.1455,0.10679000000000001,0.10653000000000001,0.0,215.775,215.89499999999998,212.5966666666667,212.5966666666667,0.0,0.0
28,0.0,0.0,0.0,1.0,1.0,0.0,0.0,1.0,0.0,100.0,1.0,1.1856,26.0,0.0,0.0,0.0,59.999996,0.0,26.0,26.0,26.0,26.0,0.04066666666666685,0.2570000000000001,-0.046425,290.619,-2.57735,-2.752222222222222,-1.5241,-1.6686,-181.49,215.3475,190.384125,0.0,0.0,0.0,0.0,0.05636666666666666,-5.498166666666667,-5.498166666666667,-0.6604,0.4455,-0.1128888888888886,0.05699999999999994,69.094,0.0035,-0.29063333333333335,-0.3520000000000003,100.0,1.0,1.0,213.14,0.0,0.0,0.0,0.0,0.0,0.0,0.0,9034.2,0.0,55.0,5.0,248.71,0.0,0.0,0.0,0.0,0.0,0.0,0.0,0.0,1.404,1.404,0.0,0.0,0.0,55.0,616.79921,10000.0,85.000001,85.000001,85.000001,85.000001,395.0,0.0,0.0,0.0,1.0,166.665,48.721000000000004,48.721000000000004,47.653,47.653,34.0,-23.57,24.398,-28.229999999999997,29.4375,0.0,1781.413,0.7149999999999999,100.0,28.156,29.417,44.664,42.508,0.0,0.0,100.0,0.0,0.0,0.0,0.0,2933.25,3404.5,4174.25,3964.8,300.248,304.16625,314.865,315.079,12.546166666666668,20.9317,22.2036,21.5106,314.999998,314.999998,324.999988,324.999988,99.56745714285714,99.51561666666667,99.57551428571429,99.54764285714286,0.006750000000000256,-0.1279999999999999,-0.10649999999999993,0.131,-0.08500000000000085,-0.05666666666667197,1.5583333333333333,1.5485,48.164,31.823,39.772,35.4415,76.226,40.424,62.2385,52.667500000000004,69.895,38.9965,60.8445,50.915,71.603,38.195,60.8395,50.243,-0.021500000000000002,-0.14400000000000002,0.110755,0.10651500000000001,0.0,216.20499999999998,216.34,213.14,213.14,0.0,0.0
29,0.0,0.0,0.0,1.0,1.0,0.0,0.0,1.0,0.0,100.0,1.0,1.1856,26.0,0.0,0.0,0.0,59.999996,0.0,26.0,26.0,26.0,26.0,0.05111111111111111,0.25680000000000014,-0.011925,290.527,-2.54725,-2.824777777777778,-1.4597,-1.6576,-177.75,215.3425,190.3565,0.0,0.0,0.0,0.0,0.05853333333333334,-5.498166666666667,-5.498166666666667,-0.6569,-0.5715000000000001,-0.12366666666666637,0.978,69.235,0.0031000000000000003,-0.2778,-0.4059999999999997,100.0,1.0,1.0,213.39,0.0,0.0,0.0,0.0,0.0,0.0,0.0,9044.8,0.0,55.0,5.0,249.22,1.0,0.0,0.0,0.0,0.0,0.0,0.0,0.0,1.4579999999999984,1.4579999999999984,0.0,0.0,1.0,55.0,616.79921,10000.0,85.000001,85.000001,85.000001,85.000001,395.0,0.0,0.0,0.0,1.0,166.665,49.408,49.408,46.768,46.768,34.0,-22.563333333333333,24.294,-28.490000000000002,31.6125,0.0,1781.358,0.6400000000000006,100.0,27.82,29.059,45.032,42.639,0.0,0.0,100.0,0.0,0.0,0.0,0.0,2856.625,3302.6,4348.625,4183.1,300.6675,304.466,314.267,314.55525,12.562333333333333,20.9389,22.2153,21.5202,314.999998,314.999998,324.999988,324.999988,99.56747142857142,99.51563333333333,99.57567142857143,99.54778571428571,0.00749999999999984,-0.1279999999999999,-0.09083333333333332,0.13000000000000012,-0.0799999999999983,-0.054999999999999716,1.4666666666666668,1.4609999999999999,48.265,31.868000000000002,39.846000000000004,35.501,76.213,40.460499999999996,62.2765,52.7295,69.884,39.0305,60.8795,50.9745,71.588,38.227666666666664,60.871,50.301,-0.019,-0.14,0.09944000000000001,0.10883500000000002,0.0,216.625,216.735,213.39,213.39,0.0,0.0
30,0.0,0.0,0.0,1.0,1.0,0.0,0.0,1.0,0.0,100.0,1.0,1.1856,26.0,0.0,0.0,0.0,59.999996,0.0,26.0,26.0,26.0,26.0,0.06066666666666687,0.2502,-0.021925,289.948,-2.65105,-2.8305555555555557,-1.4377,-1.7115,-174.63,215.34,190.333125,0.0,0.0,0.0,0.0,0.06033333333333334,-5.498166666666667,-5.498166666666667,-0.6687,0.27449999999999997,-0.12544444444444425,-0.6620000000000001,69.34700000000001,0.0027,-0.28853333333333336,-0.39200000000000035,100.0,1.0,1.0,213.8466666666667,0.0,0.0,0.0,0.0,0.0,0.0,0.0,9064.1,0.0,55.0,5.0,249.62666666666667,0.0,0.0,0.0,0.0,0.0,0.0,1.0,0.0,1.5030000000000001,1.5030000000000001,0.0,0.0,0.0,55.0,616.79921,10000.0,85.000001,85.000001,85.000001,85.000001,395.0,0.0,0.0,0.0,1.0,333.33500000000004,47.577,47.577,47.592,47.592,34.0,-27.353333333333335,26.548000000000002,-27.28,29.502499999999998,0.0,1781.312,0.6050000000000004,100.0,28.27,29.714,44.732,42.754,0.0,0.0,100.0,0.0,0.0,0.0,0.0,3286.75,3560.3,4212.5,3925.3,299.086,303.61525,314.731,315.052,12.576166666666666,20.9451,22.225,21.5281,314.999998,314.999998,324.999988,324.999988,99.56747142857142,99.51565,99.57581428571429,99.54791428571428,0.003249999999999975,-0.1299999999999999,-0.10266666666666657,0.12016666666666675,-0.11333333333332973,-0.03166666666666629,1.536,1.5085,48.351,31.907,39.906,35.5505,76.207,40.494,62.304,52.7795,69.87899999999999,39.0615,60.9055,51.022999999999996,71.581,38.257666666666665,60.894,50.348,-0.03,-0.1365,0.10636000000000001,0.10514000000000001,0.0,216.995,217.09,213.8466666666667,213.8466666666667,0.0,0.0
31,0.0,0.0,0.0,1.0,1.0,0.0,0.0,1.0,0.0,100.0,1.0,1.1856,26.0,0.0,0.0,0.0,59.999996,0.0,26.0,26.0,26.0,26.0,0.05877777777777782,0.2671000000000001,0.096625,289.261,-2.6487,-2.742,-1.43275,-1.7262,-171.09,215.3375,190.307125,0.0,0.0,0.0,0.0,0.062400000000000004,-5.498166666666667,-5.498166666666667,-0.6445,-0.06150000000000011,-0.1161111111111115,1.401,69.48,0.01,-0.2846,-0.5199999999999996,100.0,1.0,1.0,214.00666666666666,0.0,0.0,0.0,0.0,0.0,0.0,0.0,9071.0,0.0,55.0,5.0,250.10000000000002,1.0,0.0,0.0,0.0,0.0,0.0,1.0,0.0,1.5539999999999985,1.5539999999999985,0.0,0.0,1.0,55.0,616.79921,10000.0,85.000001,85.000001,85.000001,85.000001,395.0,0.0,0.0,0.0,1.0,333.33500000000004,48.065,48.065,45.593,45.593,34.0,-24.226666666666663,24.978,-30.843333333333334,35.3425,0.0,1781.262,0.6400000000000006,100.0,28.718,29.972,45.477000000000004,43.183,0.0,0.0,100.0,0.0,0.0,0.0,0.0,2986.0,3500.3,4693.125,4461.5,300.1775,303.95875,313.5643333333333,313.85525,12.591666666666667,20.9522,22.2362,21.5372,314.999998,314.999998,324.999988,324.999988,99.56748571428571,99.51566666666666,99.57597142857144,99.54805714285715,0.015499999999999847,-0.1286666666666667,-0.09150000000000003,0.12850000000000006,-0.0933333333333266,-0.04333333333332945,1.4286666666666668,1.4245,48.448,31.951,39.976,35.608000000000004,76.201,40.532,62.342,52.84,69.874,39.097,60.941,51.0805,71.572,38.291666666666664,60.926,50.404333333333334,-0.028,-0.14300000000000002,0.10965000000000001,0.10202000000000001,0.0,217.39499999999998,217.51999999999998,214.00666666666666,214.00666666666666,0.0,0.0
32,0.0,0.0,0.0,1.0,1.0,0.0,0.0,1.0,0.0,100.0,1.0,1.1856,26.0,0.0,0.0,0.0,59.999996,0.0,26.0,26.0,26.0,26.0,0.04677777777777781,0.2583,-0.0684,289.978,-2.602,-2.7621111111111114,-1.56115,-1.6406,-167.55,215.3375,190.282,0.0,0.0,0.0,0.0,0.06446666666666667,-5.498166666666667,-5.498166666666667,-0.6622,-0.30899999999999994,-0.1160000000000001,-0.911,69.606,0.0166,-0.30566666666666664,-0.4939999999999998,100.0,1.0,1.0,214.5966666666667,0.0,0.0,0.0,0.0,0.0,0.0,0.0,9096.0,0.0,55.0,5.0,250.55666666666667,0.0,0.0,0.0,0.0,0.0,0.0,1.0,0.0,1.6050000000000004,1.6050000000000004,0.0,0.0,0.0,55.0,616.79921,10000.0,85.000001,85.000001,85.000001,85.000001,395.0,0.0,0.0,0.0,1.0,333.33500000000004,48.386,48.386,46.677,46.677,34.0,-23.583333333333336,23.792,-29.806666666666665,30.3275,0.0,1781.211,0.6349999999999998,100.0,28.375,30.119,45.196,43.355000000000004,0.0,0.0,100.0,0.0,0.0,0.0,0.0,2989.25,3314.6,4342.875,4063.7,300.3245,304.27325,314.48466666666667,314.85,12.607,20.9592,22.2473,21.5463,314.999998,314.999998,324.999988,324.999988,99.56748571428571,99.51568333333333,99.57611428571428,99.5482,0.01949999999999985,-0.1316666666666666,-0.09683333333333333,0.13349999999999995,-0.09666666666667112,-0.04833333333333201,1.521,1.4985,48.544,31.9955,40.045,35.664500000000004,76.19,40.5695,62.375,52.8975,69.865,39.132,60.9715,51.135999999999996,71.559,38.32533333333333,60.953,50.458333333333336,-0.0305,-0.14150000000000001,0.111155,0.10574000000000001,0.0,217.76999999999998,217.89499999999998,214.5966666666667,214.5966666666667,0.0,0.0
33,0.0,0.0,0.0,1.0,1.0,0.0,0.0,1.0,0.0,100.0,1.0,1.1856,26.0,0.0,0.0,0.0,59.999996,0.0,26.0,26.0,26.0,26.0,0.054777777777777814,0.2538,-0.0978,290.329,-2.61965,-2.7923333333333336,-1.4843,-1.6888,-163.99,215.3375,190.255625,0.0,0.0,0.0,0.0,0.06653333333333335,-5.498166666666667,-5.498166666666667,-0.6737,-0.1645000000000001,-0.12666666666666648,0.729,69.73400000000001,0.018000000000000002,-0.28823333333333334,-0.5199999999999996,100.0,1.0,1.0,215.01666666666665,0.0,0.0,0.0,0.0,0.0,0.0,0.0,9113.7,0.0,55.0,5.0,251.01666666666665,1.0,0.0,0.0,0.0,0.0,0.0,1.0,0.0,1.6559999999999988,1.6559999999999988,0.0,0.0,1.0,55.0,616.79921,10000.0,85.000001,85.000001,85.000001,85.000001,395.0,0.0,0.0,0.0,1.0,166.665,48.782,48.782,47.073,47.073,34.0,-23.45,24.246,-27.78,30.615000000000002,0.0,1781.161,0.6299999999999999,100.0,28.316,29.725,44.995000000000005,43.019,0.0,0.0,100.0,0.0,0.0,0.0,0.0,2925.25,3287.3,4258.75,3996.0,300.514,304.49575,314.585,315.027,12.622166666666667,20.9661,22.2582,21.5552,314.999998,314.999998,324.999988,324.999988,99.56748571428571,99.51571666666666,99.57627142857143,99.54834285714286,0.014499999999999957,-0.11999999999999988,-0.09016666666666662,0.14100000000000001,-0.0833333333333286,-0.04833333333333201,1.5183333333333335,1.5165,48.638,32.038,40.114,35.72,76.178,40.6035,62.407,52.953,69.854,39.164,61.001,51.1895,71.545,38.355666666666664,60.979,50.510666666666665,-0.0235,-0.1375,0.10887000000000001,0.10805000000000001,0.0,218.17000000000002,218.29500000000002,215.01666666666665,215.01666666666665,0.0,0.0
34,0.0,0.0,0.0,1.0,1.0,0.0,0.0,1.0,0.0,100.0,1.0,1.1856,26.0,0.0,0.0,0.0,59.999996,0.0,26.0,26.0,26.0,26.0,0.06066666666666687,0.2533000000000001,-0.0514,290.314,-2.5609,-2.771888888888889,-1.53875,-1.6712,-160.64,215.34,190.229375,0.0,0.0,0.0,0.0,0.06846666666666666,-5.498166666666667,-5.498166666666667,-0.6937,-0.6819999999999999,-0.1038888888888887,0.976,69.855,0.019200000000000002,-0.28800000000000003,-0.49600000000000044,100.0,1.0,1.0,215.32,0.0,0.0,0.0,0.0,0.0,0.0,0.0,9126.6,0.0,55.0,5.0,251.45333333333335,0.0,0.0,0.0,0.0,0.0,0.0,1.0,0.0,1.7040000000000006,1.7040000000000006,0.0,0.0,0.0,55.0,616.79921,10000.0,85.000001,85.000001,85.000001,85.000001,395.0,0.0,0.0,0.0,1.0,333.33500000000004,48.996,48.996,47.119,47.119,34.0,-22.203333333333333,24.369999999999997,-28.633333333333333,31.427500000000002,0.0,1781.112,0.625,100.0,28.136,29.428,44.944,43.1,0.0,0.0,100.0,0.0,0.0,0.0,0.0,2859.375,3304.0,4285.875,4109.0,300.6025,304.38425,314.56333333333333,314.71725,12.636333333333333,20.9725,22.2685,21.5637,314.999998,314.999998,324.999988,324.999988,99.5675,99.51571666666666,99.57641428571428,99.54848571428572,0.02300000000000013,-0.11766666666666681,-0.08766666666666656,0.13683333333333336,-0.07666666666666799,-0.046666666666666856,1.5103333333333333,1.4885,48.727000000000004,32.078,40.178,35.7735,76.166,40.6345,62.437,53.007999999999996,69.844,39.193,61.028999999999996,51.242,71.532,38.38366666666667,61.0035,50.562,-0.0265,-0.1355,0.10962000000000001,0.10166000000000001,0.0,218.515,218.66500000000002,215.32,215.32,0.0,0.0
35,0.0,0.0,0.0,1.0,1.0,0.0,0.0,1.0,0.0,100.0,1.0,1.1856,26.0,0.0,0.0,0.0,59.999996,0.0,26.0,26.0,26.0,26.0,0.050999999999999934,0.246,-0.085325,290.497,-2.6997999999999998,-2.681,-1.43975,-1.6801,-156.87,215.3425,190.198125,0.0,0.0,0.0,0.0,0.07066666666666667,-5.498166666666667,-5.498166666666667,-0.732,-0.15700000000000003,-0.1160000000000001,-0.29000000000000004,69.988,0.0238,-0.29650000000000004,-0.5379999999999994,100.0,1.0,1.0,215.84333333333333,0.0,0.0,0.0,0.0,0.0,0.0,0.0,9148.9,0.0,55.0,5.0,251.93333333333334,1.0,0.0,0.0,0.0,0.0,0.0,1.0,0.0,1.7579999999999991,1.7579999999999991,0.0,0.0,1.0,55.0,616.79921,10000.0,85.000001,85.000001,85.000001,85.000001,395.0,0.0,0.0,0.0,1.0,166.665,48.691,48.691,47.058,47.058,34.0,-24.186666666666664,24.936,-25.813333333333333,29.1025,0.0,1781.059,0.8200000000000003,100.0,27.954,29.664,44.775,42.778999999999996,0.0,0.0,100.0,0.0,0.0,0.0,0.0,2910.75,3521.4,4183.625,3832.8,300.5635,303.72,314.83,315.485,12.652166666666666,20.9799,22.28,21.5731,314.999998,314.999998,324.999988,324.999988,99.5675,99.51573333333333,99.57658571428571,99.54864285714285,0.010250000000000092,-0.12433333333333318,-0.08050000000000002,0.14800000000000013,-0.086666666666666,-0.04833333333333201,1.558,1.55,48.826,32.1245,40.25,35.832,76.15,40.6725,62.4695,53.0655,69.831,39.2285,61.059,51.298,71.515,38.418,61.03,50.61633333333333,-0.0125,-0.153,0.106995,0.10422000000000001,0.0,218.935,219.07999999999998,215.84333333333333,215.84333333333333,0.0,0.0
36,0.0,0.0,0.0,1.0,1.0,0.0,0.0,1.0,0.0,100.0,1.0,1.1856,26.0,0.0,0.0,0.0,59.999996,0.0,26.0,26.0,26.0,26.0,0.03977777777777791,0.24660000000000015,0.0541,289.673,-2.5374499999999998,-2.7652222222222225,-1.53925,-1.6988,-153.5,215.3475,190.169,0.0,0.0,0.0,0.0,0.07263333333333334,-5.498166666666667,-5.498166666666667,-0.7184999999999999,0.121,-0.16533333333333333,0.04699999999999993,70.10900000000001,0.0187,-0.26990000000000003,-0.3200000000000003,100.0,1.0,1.0,216.00666666666666,0.0,0.0,0.0,0.0,0.0,0.0,0.0,9155.7,0.0,55.0,5.0,252.36666666666667,0.0,0.0,0.0,0.0,0.0,0.0,1.0,0.0,1.806000000000001,1.806000000000001,0.0,0.0,0.0,55.0,616.79921,10000.0,85.000001,85.000001,85.000001,85.000001,395.0,0.0,0.0,0.0,1.0,166.665,48.355,48.355,46.494,46.494,34.0,-23.346666666666664,24.832,-31.186666666666667,34.192499999999995,0.0,1781.011,0.8449999999999998,100.0,28.407,29.64,45.005,42.907,0.0,0.0,100.0,0.0,0.0,0.0,0.0,2973.25,3412.3,4575.125,4279.1,299.9325,304.21375,313.821,314.3685,12.666666666666668,20.9866,22.2903,21.5817,314.999998,314.999998,324.999988,324.999988,99.5675,99.51575,99.57672857142857,99.54877142857143,0.018000000000000238,-0.12233333333333318,-0.08550000000000002,0.1483333333333332,-0.0799999999999983,-0.04333333333332945,1.46,1.4289999999999998,48.916,32.166,40.315,35.8855,76.14099999999999,40.707,62.501,53.12,69.824,39.2605,61.088,51.3505,71.50399999999999,38.449,61.056,50.66733333333333,-0.0125,-0.1555,0.106755,0.11252000000000001,0.0,219.34,219.47500000000002,216.00666666666666,216.00666666666666,0.0,0.0
