,ABS Active,ABS Enabled,AID Allow Tire Blankets,AID Auto Blip,AID Auto Clutch,AID Auto Shift,AID Fuel Rate,AID Ideal Line,AID Mech Damage,AID Stability,AID Tire Wear Rate,Air Density,Air Temp,Ballast,Best Lap Delta,Best Lap Time,Brake Bias,Brake Pos,Brake Temp FL,Brake Temp FR,Brake Temp RL,Brake Temp RR,CG Accel Lateral,CG Accel Longitudinal,CG Accel Vertical,CG Height,Camber FL,Camber FR,Camber RL,Camber RR,Car Coord X,Car Coord Y,Car Coord Z,Car Damage Front,Car Damage Left,Car Damage Rear,Car Damage Right,Car Pos Norm,Caster FL,Caster FR,Chassis Pitch Angle,Chassis Pitch Rate,Chassis Roll Angle,Chassis Roll Rate,Chassis Velocity X,Chassis Velocity Y,Chassis Velocity Z,Chassis Yaw Rate,Clutch Pos,DRS Active,DRS Available,Drive Train Speed,ERS Heat Charging,ERS Is Charging,ERS Max Energy,ERS Power Level,ERS Recovery Level,Engine Brake Setting,Engine Limiter,Engine RPM,Flags,Fuel Level,Gear,Ground Speed,HR Sample Clock,In Pit,KERS Charge,KERS Deployed Energy,KERS Input,KERS Max Energy,LR Sample Clock,Lap Invalidated,Lap Time,Lap Time2,Last Lap Time,Last Sector Time,MR Sample Clock,Max Fuel,Max Power,Max RPM,Max Sus Travel FL,Max Sus Travel FR,Max Sus Travel RL,Max Sus Travel RR,Max Torque,Max Turbo Boost,Num Tires Off Track,Penalties Enabled,Position,Raw Data Sample Rate,Ride Height FL,Ride Height FR,Ride Height RL,Ride Height RR,Road Temp,Self Align Torque FL,Self Align Torque FR,Self Align Torque RL,Self Align Torque RR,Session Lap Count,Session Time Left,Steering Angle,Surface Grip,Suspension Travel FL,Suspension Travel FR,Suspension Travel RL,Suspension Travel RR,TC Active,TC Enabled,Throttle Pos,Tire Dirt Level FL,Tire Dirt Level FR,Tire Dirt Level RL,Tire Dirt Level RR,Tire Load FL,Tire Load FR,Tire Load RL,Tire Load RR,Tire Loaded Radius FL,Tire Loaded Radius FR,Tire Loaded Radius RL,Tire Loaded Radius RR,Tire Pressure FL,Tire Pressure FR,Tire Pressure RL,Tire Pressure RR,Tire Radius FL,Tire Radius FR,Tire Radius RL,Tire Radius RR,Tire Rubber Grip FL,Tire Rubber Grip FR,Tire Rubber Grip RL,Tire Rubber Grip RR,Tire Slip Angle FL,Tire Slip Angle FR,Tire Slip Angle RL,Tire Slip Angle RR,Tire Slip Ratio FL,Tire Slip Ratio FR,Tire Slip Ratio RL,Tire Slip Ratio RR,Tire Temp Core FL,Tire Temp Core FR,Tire Temp Core RL,Tire Temp Core RR,Tire Temp Inner FL,Tire Temp Inner FR,Tire Temp Inner RL,Tire Temp Inner RR,Tire Temp Middle FL,Tire Temp Middle FR,Tire Temp Middle RL,Tire Temp Middle RR,Tire Temp Outer FL,Tire Temp Outer FR,Tire Temp Outer RL,Tire Temp Outer RR,Toe In FL,Toe In FR,Toe In RL,Toe In RR,Turbo Boost,Wheel Angular Speed FL,Wheel Angular Speed FR,Wheel Angular Speed RL,Wheel Angular Speed RR,Wind Direction,Wind Speed
0,0.0,0.0,0.0,1.0,1.0,0.0,0.0,1.0,0.0,100.0,1.0,1.1856,26.0,0.0,0.0,0.0,59.99999,0.0,26.0,26.0,26.0,26.0,-0.046222222222222165,0.30279999999999996,0.14705000000000001,291.458,-2.67395,-2.7039,-1.45045,-1.6082,-275.58,215.565,190.98525,0.0,0.0,0.0,0.0,0.0016333333333333755,-5.498166666666667,-5.498166666666667,-0.6386000000000001,3.1950000000000003,-0.12111111111111139,-0.7570000000000001,65.376,-0.0383,-0.30416666666666664,0.21799999999999997,100.0,1.0,1.0,201.92666666666668,0.0,0.0,0.0,0.0,0.0,0.0,0.0,8558.9,0.0,55.0,5.0,235.32666666666665,0.0,0.0,0.0,0.0,0.0,0.0,0.0,0.0,0.006000000000000227,0.006000000000000227,0.0,0.0,0.0,55.0,616.79921,10000.0,85.0,85.0,85.0,85.0,395.0,0.0,0.0,0.0,1.0,20.0,46.707,46.707,48.981,48.981,34.0,-32.47,29.468,-29.93,25.435000000000002,0.0,1782.913,1.4450000000000003,100.0,27.823,29.209,41.118,38.707,0.0,0.0,100.0,0.0,0.0,0.0,0.0,3350.125,4576.6,4243.222222222223,3909.7,299.4625,300.54125,314.62675,315.19225,13.767428571428571,20.6836,21.868,21.2764,314.99999,314.99999,324.99998,324.99998,99.56632857142857,99.51278333333333,99.56995714285715,99.5441,-0.08250000000000002,-0.18533333333333313,-0.15249999999999997,0.08050000000000002,-0.10000000000000142,-0.04333333333332945,1.583,1.6019999999999999,43.296,30.2725,37.675,33.9775,71.792,38.135999999999996,60.76,51.184,66.456,36.915,59.417,49.5085,67.564,36.2365,59.466499999999996,48.8855,0.03400000000000003,-0.1975,0.11008000000000001,0.10948000000000001,0.0,204.82,204.825,201.92666666666668,201.92666666666668,0.0,0.0
1,0.0,0.0,0.0,1.0,1.0,0.0,0.0,1.0,0.0,100.0,1.0,1.1856,26.0,0.0,0.0,0.0,59.999996,0.0,26.0,26.0,26.0,26.0,-0.0868888888888889,0.3013000000000001,0.21825,290.894,-2.55985,-2.7769,-1.5237,-1.5399,-272.05,215.5675,190.964375,0.0,0.0,0.0,0.0,0.0036999999999999256,-5.498166666666667,-5.498166666666667,-0.5171,-1.989,-0.14344444444444449,0.4249999999999998,65.544,-0.041600000000000005,-0.24230000000000002,0.7560000000000002,100.0,1.0,1.0,201.80666666666667,0.0,0.0,0.0,0.0,0.0,0.0,0.0,8553.8,0.0,55.0,5.0,235.93,1.0,0.0,0.0,0.0,0.0,0.0,0.0,0.0,0.05999999999999872,0.05999999999999872,0.0,0.0,1.0,55.0,616.79921,10000.0,85.000001,85.000001,85.000001,85.000001,395.0,0.0,0.0,0.0,1.0,166.665,51.682,51.682,46.86,46.86,34.0,-23.45,14.943999999999999,-38.876666666666665,31.325,0.0,1782.859,1.450000000000001,100.0,27.909,28.134,44.173,43.166,0.0,0.0,100.0,0.0,0.0,0.0,0.0,2675.375,2557.4,4814.111111111111,4815.0,302.704,306.7485,312.966,312.0735,13.783,20.689799999999998,21.8802,21.2862,314.999998,314.999998,324.999988,324.999988,99.56635714285714,99.51283333333333,99.57012857142857,99.54425714285715,-0.06725000000000003,-0.20266666666666677,-0.16433333333333333,0.03866666666666685,-0.06333333333333258,-0.01833333333333087,1.2705,1.3205,43.394,30.311,37.751000000000005,34.0385,71.782,38.1745,60.812,51.257999999999996,66.447,36.9505,59.4655,49.579,67.553,36.271,59.512,48.954,0.03950000000000009,-0.1895,0.10683000000000001,0.11385500000000001,0.0,205.285,205.275,201.80666666666667,201.80666666666667,0.0,0.0
2,0.0,0.0,0.0,1.0,1.0,0.0,0.0,1.0,0.0,100.0,1.0,1.1856,26.0,0.0,0.0,0.0,59.999996,0.0,26.0,26.0,26.0,26.0,-0.0748888888888889,0.29259999999999997,-0.1418,292.572,-2.5544000000000002,-2.7265,-1.49235,-1.6004,-268.9,215.5675,190.946875,0.0,0.0,0.0,0.0,0.00553333333333339,-5.498166666666667,-5.498166666666667,-0.6203000000000001,0.20500000000000002,-0.10755555555555585,0.5609999999999999,65.669,-0.048,-0.31843333333333335,0.8540000000000001,100.0,1.0,1.0,203.17000000000002,0.0,0.0,0.0,0.0,0.0,0.0,0.0,8611.6,0.0,55.0,5.0,236.38,0.0,0.0,0.0,0.0,0.0,0.0,0.0,0.0,0.10800000000000054,0.10800000000000054,0.0,0.0,0.0,55.0,616.79921,10000.0,85.000001,85.000001,85.000001,85.000001,395.0,0.0,0.0,0.0,1.0,333.33500000000004,49.286,49.286,50.537,50.537,34.0,-29.7475,19.066,-25.796666666666667,18.3075,0.0,1782.808,1.6449999999999996,100.0,27.927,28.422,43.114000000000004,41.132,0.0,0.0,100.0,0.0,0.0,0.0,0.0,3177.125,3269.5,3598.5555555555557,3203.3,300.53,304.2845,316.12875,316.923,13.797,20.6956,21.8902,21.2939,314.999998,314.999998,324.999988,324.999988,99.56635714285714,99.51285,99.57025714285714,99.54437142857142,-0.09575,-0.21466666666666678,-0.1888333333333334,0.05516666666666681,-0.11333333333332973,-0.04333333333332945,1.7785,1.8205,43.480999999999995,30.3475,37.814,34.0865,71.775,38.2145,60.843,51.3045,66.44200000000001,36.988,59.494,49.624,67.545,36.3065,59.5375,48.9985,0.050000000000000044,-0.20450000000000013,0.10966000000000001,0.11137000000000001,0.0,205.66500000000002,205.64,203.17000000000002,203.17000000000002,0.0,0.0
3,0.0,0.0,0.0,1.0,1.0,0.0,0.0,1.0,0.0,100.0,1.0,1.1856,26.0,0.0,0.0,0.0,59.999996,0.0,26.0,26.0,26.0,26.0,-0.0922222222222222,0.3022,0.03805,291.626,-2.5539,-2.7814,-1.4483000000000001,-1.5884,-265.74,215.5675,190.927625,0.0,0.0,0.0,0.0,0.0073666666666665215,-5.498166666666667,-5.498166666666667,-0.5496,0.884,-0.112222222222222,-1.7159999999999997,65.816,-0.058100000000000006,-0.24456666666666665,0.8780000000000001,100.0,1.0,1.0,202.95666666666668,0.0,0.0,0.0,0.0,0.0,0.0,0.0,8602.6,0.0,55.0,5.0,236.90666666666667,1.0,0.0,0.0,0.0,0.0,0.0,0.0,0.0,0.1559999999999988,0.1559999999999988,0.0,0.0,1.0,55.0,616.79921,10000.0,85.000001,85.000001,85.000001,85.000001,395.0,0.0,0.0,0.0,1.0,333.33500000000004,50.491,50.491,47.409,47.409,34.0,-27.099999999999998,17.087999999999997,-36.483333333333334,25.677500000000002,0.0,1782.762,1.7249999999999996,100.0,27.735,28.441,43.278,41.168,0.0,0.0,100.0,0.0,0.0,0.0,0.0,2934.875,3011.3,4699.666666666667,4143.8,301.7095,305.097,313.44625,314.42375,13.811,20.7016,21.9004,21.3021,314.999998,314.999998,324.999988,324.999988,99.56637142857143,99.51286666666667,99.5704,99.5445,-0.09799999999999986,-0.23199999999999998,-0.1818333333333334,0.03966666666666674,-0.07166666666666544,-0.03499999999999659,1.4355,1.4689999999999999,43.568,30.384999999999998,37.878,34.138,71.77,38.2525,60.878,51.3605,66.437,37.022999999999996,59.527,49.6775,67.538,36.3405,59.567499999999995,49.0505,0.0535000000000001,-0.21849999999999992,0.11144000000000001,0.105565,0.0,206.16500000000002,206.16,202.95666666666668,202.95666666666668,0.0,0.0
4,0.0,0.0,0.0,1.0,1.0,0.0,0.0,1.0,0.0,100.0,1.0,1.1856,26.0,0.0,0.0,0.0,59.999996,0.0,26.0,26.0,26.0,26.0,-0.09188888888888891,0.29500000000000015,-0.06665,292.236,-2.57695,-2.8274,-1.41225,-1.6788,-262.38,215.5625,190.9085,0.0,0.0,0.0,0.0,0.009333333333333305,-5.498166666666667,-5.498166666666667,-0.5688,-0.892,-0.13855555555555554,0.1120000000000001,65.961,-0.0685,-0.2821666666666667,1.0860000000000003,100.0,1.0,1.0,203.57333333333332,0.0,0.0,0.0,0.0,0.0,0.0,0.0,8628.8,0.0,55.0,5.0,237.43,0.0,0.0,0.0,0.0,0.0,0.0,0.0,0.0,0.20700000000000074,0.20700000000000074,0.0,0.0,0.0,55.0,616.79921,10000.0,85.000001,85.000001,85.000001,85.000001,395.0,0.0,0.0,0.0,1.0,166.665,50.766,50.766,48.492,48.492,34.0,-27.6775,17.59,-30.773333333333333,24.127499999999998,0.0,1782.712,1.6850000000000005,100.0,27.524,27.844,44.042,41.306,0.0,0.0,100.0,0.0,0.0,0.0,0.0,2931.125,3030.5,4150.333333333333,3804.1000000000004,301.5045,305.2575,314.71575,315.35675,13.825714285714286,20.7076,21.9115,21.3109,314.999998,314.999998,324.999988,324.999988,99.56638571428572,99.5129,99.57054285714285,99.54464285714286,-0.10299999999999998,-0.22899999999999987,-0.18766666666666665,0.046666666666666856,-0.07000000000000028,-0.036666666666668846,1.551,1.582,43.66,30.4225,37.947,34.193,71.763,38.292500000000004,60.9185,51.42,66.431,37.06,59.564499999999995,49.734,67.529,36.3755,59.6025,49.1065,0.062000000000000055,-0.21649999999999991,0.105175,0.110655,0.0,206.535,206.55,203.57333333333332,203.57333333333332,0.0,0.0
5,0.0,0.0,0.0,1.0,1.0,0.0,0.0,1.0,0.0,100.0,1.0,1.1856,26.0,0.0,0.0,0.0,59.999996,0.0,26.0,26.0,26.0,26.0,-0.08533333333333337,0.29980000000000007,-0.018825,292.526,-2.5791,-2.7963,-1.42935,-1.6839,-259.02,215.5575,190.88875,0.0,0.0,0.0,0.0,0.011299999999999977,-5.498166666666667,-5.498166666666667,-0.5849,0.3805,-0.14411111111111152,-0.403,66.104,-0.0845,-0.2734666666666667,1.1139999999999999,100.0,1.0,1.0,204.15666666666667,0.0,0.0,0.0,0.0,0.0,0.0,0.0,8653.4,0.0,55.0,5.0,237.94333333333333,1.0,0.0,0.0,0.0,0.0,0.0,0.0,0.0,0.2579999999999991,0.2579999999999991,0.0,0.0,1.0,55.0,616.79921,10000.0,85.000001,85.000001,85.000001,85.000001,395.0,0.0,0.0,0.0,1.0,333.33500000000004,50.629,50.629,49.271,49.271,34.0,-28.8625,17.706,-31.066666666666666,21.8475,0.0,1782.658,1.3599999999999994,100.0,27.341,27.809,43.468,40.672,0.0,0.0,100.0,0.0,0.0,0.0,0.0,3075.25,3029.1,4071.6666666666665,3726.8,301.0215,305.14175,314.9945,315.60475,13.840428571428571,20.7137,21.9223,21.3194,314.999998,314.999998,324.999988,324.999988,99.5664,99.51293333333334,99.5707,99.54477142857142,-0.09599999999999986,-0.22199999999999998,-0.21099999999999997,0.014666666666666606,-0.086666666666666,-0.03833333333332689,1.6045,1.645,43.753,30.461,38.013999999999996,34.246,71.758,38.335,60.956,51.4775,66.426,37.099000000000004,59.5995,49.789500000000004,67.52199999999999,36.4135,59.634,49.1605,0.03550000000000009,-0.1915,0.11022000000000001,0.101245,0.0,207.04500000000002,207.01,204.15666666666667,204.15666666666667,0.0,0.0
6,0.0,0.0,0.0,1.0,1.0,0.0,0.0,1.0,0.0,100.0,1.0,1.1856,26.0,0.0,0.0,0.0,59.999996,0.0,26.0,26.0,26.0,26.0,-0.10311111111111104,0.30079999999999996,0.04655,292.206,-2.56725,-2.8584,-1.4349,-1.6522999999999999,-255.84,215.55,190.86925,0.0,0.0,0.0,0.0,0.01313333333333333,-5.498166666666667,-5.498166666666667,-0.5704,-0.1315,-0.15322222222222237,-0.7519999999999998,66.244,-0.08600000000000001,-0.25356666666666666,0.8700000000000001,100.0,1.0,1.0,204.35000000000002,0.0,0.0,0.0,0.0,0.0,0.0,0.0,8661.7,0.0,55.0,5.0,238.44666666666666,0.0,0.0,0.0,0.0,0.0,0.0,0.0,0.0,0.30600000000000094,0.30600000000000094,0.0,0.0,0.0,55.0,616.79921,10000.0,85.000001,85.000001,85.000001,85.000001,395.0,0.0,0.0,0.0,1.0,166.665,50.995,50.995,48.309,48.309,34.0,-29.2975,16.98,-34.82666666666667,23.6025,0.0,1782.613,1.4600000000000009,100.0,27.174,27.587,43.684,40.824,0.0,0.0,100.0,0.0,0.0,0.0,0.0,3061.25,2937.5,4430.222222222223,3972.0,301.151,305.39275,314.091,314.9295,13.854285714285716,20.7194,21.9327,21.3276,314.999998,314.999998,324.999988,324.999988,99.56641428571429,99.51295,99.57082857142858,99.54488571428571,-0.11524999999999985,-0.2386666666666668,-0.2061666666666666,0.013666666666666716,-0.09166666666666856,-0.045000000000001705,1.5005,1.54,43.84,30.496499999999997,38.079,34.2975,71.752,38.3695,60.9915,51.53,66.422,37.1315,59.6325,49.84,67.515,36.444,59.664500000000004,49.2095,0.0475000000000001,-0.19500000000000006,0.10432000000000001,0.10648,0.0,207.45,207.47500000000002,204.35000000000002,204.35,0.0,0.0
7,0.0,0.0,0.0,1.0,1.0,0.0,0.0,1.0,0.0,100.0,1.0,1.1856,26.0,0.0,0.0,0.0,59.999996,0.0,26.0,26.0,26.0,26.0,-0.08677777777777784,0.2793000000000001,-0.00545,292.16,-2.5263,-2.8626,-1.48045,-1.7046999999999999,-252.46,215.5375,190.84875,0.0,0.0,0.0,0.0,0.015100000000000002,-5.498166666666667,-5.498166666666667,-0.5788,0.082,-0.1474444444444445,0.8630000000000004,66.386,-0.08800000000000001,-0.27030000000000004,0.6679999999999993,100.0,1.0,1.0,204.88333333333333,0.0,0.0,0.0,0.0,0.0,0.0,0.0,8684.3,0.0,55.0,5.0,238.96333333333334,1.0,0.0,0.0,0.0,0.0,0.0,0.0,0.0,0.3569999999999993,0.3569999999999993,0.0,0.0,1.0,55.0,616.79921,10000.0,85.000001,85.000001,85.000001,85.000001,395.0,0.0,0.0,0.0,1.0,333.33500000000004,50.552,50.552,48.584,48.584,34.0,-26.95,19.686,-33.0,23.975,0.0,1782.559,0.9800000000000004,100.0,27.602,27.627,43.852000000000004,40.864000000000004,0.0,0.0,100.0,0.0,0.0,0.0,0.0,3006.0,3113.9,4232.777777777777,3854.2,301.112,304.9875,314.553,315.271,13.869285714285715,20.7256,21.9436,21.3364,314.999998,314.999998,324.999988,324.999988,99.56642857142857,99.51298333333334,99.57098571428571,99.54502857142857,-0.0714999999999999,-0.20300000000000007,-0.1981666666666666,0.027833333333333377,-0.08500000000000085,-0.06833333333332803,1.544,1.561,43.933,30.535,38.147999999999996,34.352000000000004,71.749,38.4105,61.028999999999996,51.588,66.419,37.1695,59.668,49.8955,67.509,36.4805,59.6965,49.2635,0.00550000000000006,-0.16100000000000003,0.10698,0.106175,0.0,207.89,207.93,204.88333333333333,204.88333333333333,0.0,0.0
8,0.0,0.0,0.0,1.0,1.0,0.0,0.0,1.0,0.0,100.0,1.0,1.1856,26.0,0.0,0.0,0.0,59.999996,0.0,26.0,26.0,26.0,26.0,-0.050555555555555576,0.28300000000000014,-0.028550000000000002,292.267,-2.6067,-2.7953,-1.4591,-1.6975,-249.07,215.525,190.82825,0.0,0.0,0.0,0.0,0.017066666666666563,-5.498166666666667,-5.498166666666667,-0.5796,-0.10200000000000001,-0.1381111111111113,-0.8199999999999998,66.53,-0.0763,-0.2712333333333334,0.3540000000000001,100.0,1.0,1.0,205.32,0.0,0.0,0.0,0.0,0.0,0.0,0.0,8702.7,0.0,55.0,5.0,239.48333333333335,0.0,0.0,0.0,0.0,0.0,0.0,0.0,0.0,0.40800000000000125,0.40800000000000125,0.0,0.0,0.0,55.0,616.79921,10000.0,85.000001,85.000001,85.000001,85.000001,395.0,0.0,0.0,0.0,1.0,166.665,50.812,50.812,48.400999999999996,48.400999999999996,34.0,-27.18,19.212,-31.810000000000002,23.995,0.0,1782.511,0.875,100.0,27.251,27.826,43.815,41.086,0.0,0.0,100.0,0.0,0.0,0.0,0.0,3005.875,3078.5,4199.555555555556,3827.2,301.4395,304.947,314.68225,315.2625,13.883857142857142,20.7318,21.9546,21.3451,314.999998,314.999998,324.999988,324.999988,99.56644285714286,99.513,99.57114285714286,99.54517142857142,-0.06800000000000006,-0.19666666666666677,-0.18733333333333335,0.03200000000000003,-0.0933333333333266,-0.03499999999999659,1.539,1.5585,44.025,30.573999999999998,38.216,34.407,71.741,38.45,61.067,51.6465,66.412,37.206,59.7035,49.951,67.5,36.5155,59.729,49.318,-0.0040000000000000036,-0.14850000000000008,0.10178500000000001,0.10706,0.0,208.31,208.365,205.32,205.32,0.0,0.0
9,0.0,0.0,0.0,1.0,1.0,0.0,0.0,1.0,0.0,100.0,1.0,1.1856,26.0,0.0,0.0,0.0,59.999996,0.0,26.0,26.0,26.0,26.0,-0.03644444444444439,0.2872000000000001,-0.0125,292.145,-2.5358,-2.8046,-1.4626000000000001,-1.6485,-245.87,215.51,190.808625,0.0,0.0,0.0,0.0,0.018933333333333358,-5.498166666666667,-5.498166666666667,-0.5767,0.1615,-0.1426666666666665,-0.6930000000000001,66.66499999999999,-0.0625,-0.26186666666666664,0.10799999999999965,100.0,1.0,1.0,205.72,0.0,0.0,0.0,0.0,0.0,0.0,0.0,8719.7,0.0,55.0,5.0,239.96666666666667,1.0,0.0,0.0,0.0,0.0,0.0,0.0,0.0,0.4559999999999995,0.4559999999999995,0.0,0.0,1.0,55.0,616.79921,10000.0,85.000001,85.000001,85.000001,85.000001,395.0,0.0,0.0,0.0,1.0,166.665,50.598,50.598,48.644999999999996,48.644999999999996,34.0,-26.955,20.387999999999998,-31.266666666666666,25.060000000000002,0.0,1782.462,0.7149999999999999,100.0,27.252,27.77,43.63,41.064,0.0,0.0,100.0,0.0,0.0,0.0,0.0,3089.5,3099.7,4215.111111111111,3939.3,301.0795,304.8925,314.64375,315.02475,13.897714285714285,20.7377,21.9648,21.3533,314.999998,314.999998,324.999988,324.999988,99.56644285714286,99.51301666666667,99.57127142857144,99.5453,-0.05549999999999988,-0.17533333333333312,-0.1735,0.05016666666666669,-0.08500000000000085,-0.03333333333333144,1.5434999999999999,1.558,44.111000000000004,30.610500000000002,38.28,34.4585,71.733,38.4865,61.1015,51.7005,66.405,37.2395,59.7355,50.0035,67.491,36.548,59.7585,49.369,-0.018000000000000016,-0.13149999999999995,0.10782000000000001,0.10415500000000001,0.0,208.73000000000002,208.79500000000002,205.72,205.72,0.0,0.0
10,0.0,0.0,0.0,1.0,1.0,0.0,0.0,1.0,0.0,100.0,1.0,1.1856,26.0,0.0,0.0,0.0,59.999996,0.0,26.0,26.0,26.0,26.0,-0.026111111111111085,0.2762,0.015000000000000001,292.068,-2.5846999999999998,-2.7915,-1.4175,-1.6383,-242.47,215.495,190.787875,0.0,0.0,0.0,0.0,0.02089999999999992,-5.498166666666667,-5.498166666666667,-0.5720000000000001,-0.1895,-0.11966666666666637,1.6390000000000002,66.809,-0.045700000000000005,-0.2612,-0.13399999999999945,100.0,1.0,1.0,206.08666666666667,0.0,0.0,0.0,0.0,0.0,0.0,0.0,8735.2,0.0,55.0,5.0,240.48333333333335,0.0,0.0,0.0,0.0,0.0,0.0,1.0,0.0,0.5069999999999979,0.5069999999999979,0.0,0.0,0.0,55.0,616.79921,10000.0,85.000001,85.000001,85.000001,85.000001,395.0,0.0,0.0,0.0,1.0,333.33500000000004,50.858,50.858,48.34,48.34,34.0,-24.855,21.174,-30.07333333333333,27.965,0.0,1782.41,0.5950000000000006,100.0,27.418,27.582,43.801,41.229,0.0,0.0,100.0,0.0,0.0,0.0,0.0,2912.625,3171.0,4233.777777777777,4119.9,301.5595,304.884,314.514,314.66625,13.91242857142857,20.7439,21.9758,21.3622,314.999998,314.999998,324.999988,324.999988,99.56645714285715,99.51303333333334,99.57141428571428,99.54542857142857,-0.029249999999999998,-0.16266666666666674,-0.15483333333333338,0.0798333333333332,-0.06666666666666998,-0.030000000000001137,1.5185,1.506,44.203,30.6495,38.349000000000004,34.5135,71.724,38.524,61.1395,51.76,66.398,37.274,59.771,50.0605,67.48,36.581,59.791,49.425,-0.025000000000000022,-0.12949999999999995,0.10768000000000001,0.109365,0.0,209.155,209.23000000000002,206.08666666666667,206.08666666666667,0.0,0.0
11,0.0,0.0,0.0,1.0,1.0,0.0,0.0,1.0,0.0,100.0,1.0,1.1856,26.0,0.0,0.0,0.0,59.999996,0.0,26.0,26.0,26.0,26.0,0.009666666666666712,0.27900000000000014,-0.049825,292.358,-2.60315,-2.773,-1.48155,-1.6055000000000001,-239.06,215.47750000000002,190.767,0.0,0.0,0.0,0.0,0.022599999999999953,-5.498166666666667,-5.498166666666667,-0.5924,-0.28150000000000003,-0.08822222222222242,-0.2959999999999998,66.949,-0.028900000000000002,-0.2735666666666667,-0.28000000000000025,100.0,1.0,1.0,206.62666666666667,0.0,0.0,0.0,0.0,0.0,0.0,0.0,8758.2,0.0,55.0,5.0,240.99,1.0,0.0,0.0,0.0,0.0,0.0,1.0,0.0,0.5579999999999998,0.5579999999999998,0.0,0.0,1.0,55.0,616.79921,10000.0,85.000001,85.000001,85.000001,85.000001,395.0,0.0,0.0,0.0,1.0,333.33500000000004,50.873,50.873,48.813,48.813,34.0,-25.1475,21.91,-28.236666666666665,25.8125,0.0,1782.358,0.48499999999999943,100.0,27.014,27.821,43.485,41.427,0.0,0.0,100.0,0.0,0.0,0.0,0.0,2984.875,3162.6,4046.0,3910.8,301.582,304.72275,315.05325,315.114,13.927,20.7502,21.9867,21.371,314.999998,314.999998,324.999988,324.999988,99.56645714285715,99.51306666666666,99.57157142857143,99.54557142857144,-0.02224999999999988,-0.14500000000000002,-0.13983333333333337,0.08133333333333326,-0.08166666666667055,-0.03499999999999659,1.569,1.553,44.294,30.689,38.417,34.5685,71.711,38.563,61.176,51.822,66.386,37.3105,59.805,50.1195,67.46600000000001,36.616,59.8215,49.483000000000004,-0.031000000000000028,-0.1160000000000001,0.107675,0.101595,0.0,209.57999999999998,209.675,206.62666666666667,206.62666666666667,0.0,0.0
12,0.0,0.0,0.0,1.0,1.0,0.0,0.0,1.0,0.0,100.0,1.0,1.1856,26.0,0.0,0.0,0.0,59.999996,0.0,26.0,26.0,26.0,26.0,0.007222222222222241,0.2836000000000001,0.009725000000000001,292.007,-2.6279,-2.7694,-1.45885,-1.6249,-235.64,215.4625,190.74525,0.0,0.0,0.0,0.0,0.025466666666666526,-5.498166666666667,-5.498166666666667,-0.5840000000000001,0.3845,-0.08899999999999997,0.6370000000000005,67.09100000000001,-0.013600000000000001,-0.25406666666666666,-0.3860000000000001,100.0,1.0,1.0,206.99,0.0,0.0,0.0,0.0,0.0,0.0,0.0,8773.5,0.0,55.0,5.0,241.5,0.0,0.0,0.0,0.0,0.0,0.0,1.0,0.0,0.6089999999999982,0.6089999999999982,0.0,0.0,0.0,55.0,616.79921,10000.0,85.000001,85.000001,85.000001,85.000001,395.0,0.0,0.0,0.0,1.0,166.665,50.598,50.598,48.218,48.218,34.0,-24.185,23.728,-28.19333333333333,29.2775,0.0,1782.31,0.48499999999999943,100.0,27.231,27.967,43.403999999999996,41.322,0.0,0.0,100.0,0.0,0.0,0.0,0.0,2912.375,3313.2,4224.444444444444,4112.0,301.619,304.40825,314.58825,314.70975,13.94142857142857,20.7566,21.9976,21.3798,314.999998,314.999998,324.999988,324.999988,99.56647142857143,99.51308333333333,99.57171428571428,99.54571428571428,-0.0035000000000000586,-0.1276666666666666,-0.11183333333333334,0.11216666666666675,-0.08166666666667055,-0.05333333333332746,1.5275,1.52,44.384,30.729,38.485,34.6235,71.7,38.5985,61.209,51.876999999999995,66.376,37.3435,59.835499999999996,50.1725,67.45400000000001,36.647,59.8495,49.5345,-0.026000000000000023,-0.12200000000000011,0.106495,0.10458500000000001,0.0,210.035,210.15,206.99,206.99,0.0,0.0
13,0.0,0.0,0.0,1.0,1.0,0.0,0.0,1.0,0.0,100.0,1.0,1.1856,26.0,0.0,0.0,0.0,59.999996,0.0,26.0,26.0,26.0,26.0,0.041444444444444395,0.2812000000000001,0.027525,291.718,-2.60045,-2.7841,-1.4901,-1.6344,-232.41,215.4475,190.725,0.0,0.0,0.0,0.0,0.026766666666666605,-5.498166666666667,-5.498166666666667,-0.5798,-0.2125,-0.09077777777777785,1.1669999999999998,67.225,-0.0066,-0.2617333333333334,-0.4379999999999997,100.0,1.0,1.0,207.32666666666665,0.0,0.0,0.0,0.0,0.0,0.0,0.0,8787.9,0.0,55.0,5.0,241.98000000000002,1.0,0.0,0.0,0.0,0.0,0.0,1.0,0.0,0.657,0.657,0.0,0.0,1.0,55.0,616.79921,10000.0,85.000001,85.000001,85.000001,85.000001,395.0,0.0,0.0,0.0,1.0,333.33500000000004,50.461,50.461,48.004,48.004,34.0,-23.09,24.664,-28.71333333333333,30.585,0.0,1782.261,0.4399999999999995,100.0,27.415,28.061,43.754,41.724000000000004,0.0,0.0,100.0,0.0,0.0,0.0,0.0,2926.875,3270.3,4236.333333333333,4174.9,301.55,304.5535,314.50525,314.535,13.955142857142857,20.7627,22.0079,21.3882,314.999998,314.999998,324.999988,324.999988,99.56647142857143,99.5131,99.57185714285714,99.54584285714286,0.022749999999999826,-0.10233333333333317,-0.10849999999999993,0.12216666666666676,-0.0799999999999983,-0.036666666666668846,1.511,1.501,44.469,30.7665,38.55,34.6765,71.689,38.632999999999996,61.2445,51.934,66.367,37.3755,59.8685,50.2275,67.44200000000001,36.678,59.8795,49.588499999999996,-0.046499999999999986,-0.1060000000000001,0.10901000000000001,0.10708500000000001,0.0,210.44,210.535,207.32666666666665,207.32666666666665,0.0,0.0
14,0.0,0.0,0.0,1.0,1.0,0.0,0.0,1.0,0.0,100.0,1.0,1.1856,26.0,0.0,0.0,0.0,59.999996,0.0,26.0,26.0,26.0,26.0,0.03822222222222216,0.276,-0.0219,291.962,-2.61865,-2.7891,-1.486,-1.6255000000000002,-228.78,215.43,190.702375,0.0,0.0,0.0,0.0,0.028866666666666596,-5.498166666666667,-5.498166666666667,-0.5925,-0.0025,-0.07444444444444454,0.9770000000000003,67.372,0.0039000000000000003,-0.2735,-0.5579999999999998,100.0,1.0,1.0,207.88,0.0,0.0,0.0,0.0,0.0,0.0,0.0,8811.2,0.0,55.0,5.0,242.51,0.0,0.0,0.0,0.0,0.0,0.0,1.0,0.0,0.7109999999999985,0.7109999999999985,0.0,0.0,0.0,55.0,616.79921,10000.0,85.000001,85.000001,85.000001,85.000001,395.0,0.0,0.0,0.0,1.0,166.665,50.507,50.507,48.447,48.447,34.0,-22.6925,24.612000000000002,-26.343333333333334,29.995,0.0,1782.207,0.4150000000000009,100.0,27.427,28.245,43.609,41.809,0.0,0.0,100.0,0.0,0.0,0.0,0.0,2886.25,3259.8,4065.1111111111113,4023.5,301.7395,304.545,314.96775,314.90625,13.97042857142857,20.7695,22.0195,21.3976,314.999998,314.999998,324.999988,324.999988,99.56647142857143,99.5131,99.572,99.54598571428572,0.027249999999999996,-0.1036666666666668,-0.09616666666666662,0.1423333333333332,-0.086666666666666,-0.046666666666666856,1.5685,1.531,44.565,30.8095,38.622,34.735,71.676,38.6715,61.281,51.9965,66.355,37.411,59.9025,50.2875,67.42699999999999,36.7125,59.91,49.647,-0.044499999999999984,-0.1100000000000001,0.108035,0.11410500000000001,0.0,210.89,211.005,207.88,207.88,0.0,0.0
15,0.0,0.0,0.0,1.0,1.0,0.0,0.0,1.0,0.0,100.0,1.0,1.1856,26.0,0.0,0.0,0.0,59.999996,0.0,26.0,26.0,26.0,26.0,0.05155555555555558,0.272,-0.015975,291.809,-2.61645,-2.7613000000000003,-1.4963,-1.6404,-225.75,215.41750000000002,190.683125,0.0,0.0,0.0,0.0,0.0306333333333334,-5.498166666666667,-5.498166666666667,-0.5855,0.213,-0.06677777777777782,-0.7519999999999998,67.495,0.0132,-0.2619,-0.5139999999999993,100.0,1.0,1.0,208.21,0.0,0.0,0.0,0.0,0.0,0.0,0.0,8825.3,0.0,55.0,5.0,242.95333333333335,1.0,0.0,0.0,0.0,0.0,0.0,1.0,0.0,0.7560000000000002,0.7560000000000002,0.0,0.0,1.0,55.0,616.79921,10000.0,85.000001,85.000001,85.000001,85.000001,395.0,0.0,0.0,0.0,1.0,166.665,50.461,50.461,48.172,48.172,34.0,-23.595,23.189999999999998,-28.076666666666668,29.450000000000003,0.0,1782.163,0.5350000000000001,100.0,27.294,28.514,43.424,42.013,0.0,0.0,100.0,0.0,0.0,0.0,0.0,2960.125,3158.5,4222.111111111111,4024.4,301.686,304.644,314.65625,314.79375,13.983142857142857,20.775199999999998,22.0291,21.4055,314.999998,314.999998,324.999988,324.999988,99.56647142857143,99.51311666666666,99.57214285714285,99.54611428571428,0.015499999999999847,-0.11533333333333329,-0.10099999999999998,0.1213333333333333,-0.08166666666667055,-0.04999999999999716,1.526,1.5065,44.644,30.845,38.682,34.7845,71.66499999999999,38.7035,61.3115,52.0495,66.346,37.441,59.931,50.338,67.41499999999999,36.741,59.9355,49.6965,-0.035499999999999976,-0.12149999999999994,0.10935500000000001,0.09974000000000001,0.0,211.285,211.41,208.21,208.21,0.0,0.0
16,0.0,0.0,0.0,1.0,1.0,0.0,0.0,1.0,0.0,100.0,1.0,1.1856,26.0,0.0,0.0,0.0,59.999996,0.0,26.0,26.0,26.0,26.0,0.048111111111111216,0.2652000000000001,0.00115,291.687,-2.67435,-2.7055,-1.47735,-1.6362,-222.3,215.405,190.66125,0.0,0.0,0.0,0.0,0.0326333333333334,-5.498166666666667,-5.498166666666667,-0.5939,-0.398,-0.06877777777777805,0.31899999999999995,67.634,0.017,-0.27240000000000003,-0.4059999999999997,100.0,1.0,1.0,208.63,0.0,0.0,0.0,0.0,0.0,0.0,0.0,8843.0,0.0,55.0,5.0,243.45666666666665,0.0,0.0,0.0,0.0,0.0,0.0,1.0,0.0,0.8069999999999986,0.8069999999999986,0.0,0.0,0.0,55.0,616.79921,10000.0,85.000001,85.000001,85.000001,85.000001,395.0,0.0,0.0,0.0,1.0,333.33500000000004,50.247,50.247,47.928,47.928,34.0,-23.815,24.555999999999997,-26.61,30.1625,0.0,1782.109,0.5950000000000006,100.0,27.285,28.413,43.719,42.099000000000004,0.0,0.0,100.0,0.0,0.0,0.0,0.0,2939.125,3379.0,4148.555555555556,3994.1000000000004,301.6315,304.2085,314.74,314.92325,13.997285714285713,20.7817,22.0401,21.4144,314.999998,314.999998,324.999988,324.999988,99.56648571428572,99.51313333333333,99.57228571428571,99.54625714285714,0.020999999999999908,-0.10866666666666669,-0.08650000000000002,0.14349999999999996,-0.07833333333332604,-0.054999999999999716,1.518,1.496,44.733000000000004,30.8855,38.751000000000005,34.8405,71.65,38.74,61.3475,52.1095,66.333,37.475,59.9645,50.3955,67.4,36.7735,59.966,49.753,-0.026000000000000023,-0.12850000000000006,0.10448500000000001,0.110115,0.0,211.695,211.8,208.63,208.63,0.0,0.0
17,0.0,0.0,0.0,1.0,1.0,0.0,0.0,1.0,0.0,100.0,1.0,1.1856,26.0,0.0,0.0,0.0,59.999996,0.0,26.0,26.0,26.0,26.0,0.0407777777777778,0.2755000000000001,0.027800000000000002,291.412,-2.54885,-2.6892,-1.4229,-1.5992000000000002,-218.85,215.39249999999998,190.639125,0.0,0.0,0.0,0.0,0.034633333333333294,-5.498166666666667,-5.498166666666667,-0.5933,0.17200000000000001,-0.09555555555555584,-1.045,67.773,0.014100000000000001,-0.26480000000000004,-0.25399999999999956,100.0,1.0,1.0,209.01999999999998,0.0,0.0,0.0,0.0,0.0,0.0,0.0,8859.6,0.0,55.0,5.0,243.95333333333335,1.0,0.0,0.0,0.0,0.0,0.0,1.0,0.0,0.8580000000000005,0.8580000000000005,0.0,0.0,1.0,55.0,616.79921,10000.0,85.000001,85.000001,85.000001,85.000001,395.0,0.0,0.0,0.0,1.0,333.33500000000004,49.988,49.988,47.668,47.668,34.0,-23.6325,23.560000000000002,-28.299999999999997,29.762500000000003,0.0,1782.06,0.6549999999999994,100.0,27.375,28.651,43.567,42.119,0.0,0.0,100.0,0.0,0.0,0.0,0.0,3032.0,3276.7,4382.444444444444,4056.0,301.2885,304.33675,314.25875,314.7915,14.011571428571429,20.7882,22.051,21.4233,314.999998,314.999998,324.999988,324.999988,99.56648571428572,99.51315,99.57244285714286,99.5464,0.018749999999999822,-0.11266666666666669,-0.09983333333333333,0.13483333333333336,-0.0933333333333266,-0.02499999999999858,1.5105,1.504,44.823,30.926499999999997,38.819,34.8955,71.638,38.777,61.382,52.168,66.322,37.5095,59.9965,50.452,67.386,36.807,59.995,49.8085,-0.02749999999999997,-0.129,0.10040500000000001,0.11228500000000001,0.0,212.15,212.22,209.01999999999998,209.01999999999998,0.0,0.0
18,0.0,0.0,0.0,1.0,1.0,0.0,0.0,1.0,0.0,100.0,1.0,1.1856,26.0,0.0,0.0,0.0,59.999996,0.0,26.0,26.0,26.0,26.0,0.038555555555555676,0.2704,0.0494,291.336,-2.57005,-2.8174,-1.4565000000000001,-1.5625,-215.59,215.3825,190.617875,0.0,0.0,0.0,0.0,0.03653333333333331,-5.498166666666667,-5.498166666666667,-0.6007,-0.3385,-0.0912222222222221,-0.5699999999999998,67.903,0.0049,-0.27143333333333336,-0.15799999999999947,100.0,1.0,1.0,209.38,0.0,0.0,0.0,0.0,0.0,0.0,0.0,8874.9,0.0,55.0,5.0,244.42333333333335,0.0,0.0,0.0,0.0,0.0,0.0,1.0,0.0,0.9059999999999988,0.9059999999999988,0.0,0.0,0.0,55.0,616.79921,10000.0,85.000001,85.000001,85.000001,85.000001,395.0,0.0,0.0,0.0,1.0,333.33500000000004,50.034,50.034,47.638,47.638,34.0,-24.06,24.488,-28.44333333333333,29.7425,0.0,1782.011,0.5999999999999996,100.0,27.378,28.609,43.758,42.293,0.0,0.0,100.0,0.0,0.0,0.0,0.0,3027.625,3259.8,4292.0,4151.2,301.4025,304.2705,314.43575,314.52575,14.025,20.7943,22.0614,21.4317,314.999998,314.999998,324.999988,324.999988,99.5665,99.51316666666666,99.57257142857142,99.54652857142857,0.010000000000000231,-0.11966666666666681,-0.10383333333333333,0.12416666666666676,-0.07833333333332604,-0.05333333333332746,1.494,1.475,44.906,30.964,38.882999999999996,34.948499999999996,71.625,38.811,61.416,52.224000000000004,66.311,37.541,60.028,50.506,67.372,36.837,60.0235,49.861000000000004,-0.02949999999999997,-0.1280000000000001,0.10263000000000001,0.11300500000000001,0.0,212.54000000000002,212.625,209.38,209.38,0.0,0.0
19,0.0,0.0,0.0,1.0,1.0,0.0,0.0,1.0,0.0,100.0,1.0,1.1856,26.0,0.0,0.0,0.0,59.999996,0.0,26.0,26.0,26.0,26.0,0.050999999999999934,0.2722,0.003,291.168,-2.55355,-2.7869,-1.44835,-1.6896,-211.92000000000002,215.3725,190.593875,0.0,0.0,0.0,0.0,0.038666666666666516,-5.498166666666667,-5.498166666666667,-0.595,0.4635,-0.08999999999999986,-0.9299999999999997,68.047,0.0018000000000000002,-0.26543333333333335,-0.17999999999999972,100.0,1.0,1.0,209.8466666666667,0.0,0.0,0.0,0.0,0.0,0.0,0.0,8894.6,0.0,55.0,5.0,244.94,1.0,0.0,0.0,0.0,0.0,0.0,1.0,0.0,0.9600000000000009,0.9600000000000009,0.0,0.0,1.0,55.0,616.79921,10000.0,85.000001,85.000001,85.000001,85.000001,395.0,0.0,0.0,0.0,1.0,166.665,49.683,49.683,47.852000000000004,47.852000000000004,34.0,-24.57,22.73,-27.813333333333333,30.1225,0.0,1781.959,0.7349999999999994,100.0,27.874,29.044,43.737,42.391999999999996,0.0,0.0,100.0,0.0,0.0,0.0,0.0,3055.375,3164.9,4308.444444444444,4039.6000000000004,301.2555,304.581,314.4565,314.71675,14.040285714285714,20.8012,22.0729,21.4412,314.999998,314.999998,324.999988,324.999988,99.5665,99.51318333333333,99.57272857142857,99.54667142857143,0.0012500000000001954,-0.1339999999999999,-0.09499999999999997,0.11583333333333323,-0.0833333333333286,-0.04833333333333201,1.5135,1.4875,45.001999999999995,31.0075,38.956,35.0075,71.614,38.8515,61.452,52.286500000000004,66.301,37.5785,60.0615,50.566,67.36,36.8735,60.0535,49.9195,-0.025000000000000022,-0.14149999999999996,0.09821,0.10284000000000001,0.0,213.01999999999998,213.10000000000002,209.8466666666667,209.8466666666667,0.0,0.0
20,0.0,0.0,0.0,1.0,1.0,0.0,0.0,1.0,0.0,100.0,1.0,1.1856,26.0,0.0,0.0,0.0,59.999996,0.0,26.0,26.0,26.0,26.0,0.038555555555555676,0.25470000000000015,-0.0074,291.275,-2.62265,-2.7236000000000002,-1.43895,-1.6696,-208.64999999999998,215.365,190.572875,0.0,0.0,0.0,0.0,0.04056666666666653,-5.498166666666667,-5.498166666666667,-0.5967,-0.648,-0.08455555555555572,-0.7279999999999998,68.176,0.0,-0.27646666666666664,-0.08200000000000074,100.0,1.0,1.0,210.21333333333334,0.0,0.0,0.0,0.0,0.0,0.0,0.0,8910.1,0.0,55.0,5.0,245.40666666666667,0.0,0.0,0.0,0.0,0.0,0.0,0.0,0.0,1.0079999999999991,1.0079999999999991,0.0,0.0,0.0,55.0,616.79921,10000.0,85.000001,85.000001,85.000001,85.000001,395.0,0.0,0.0,0.0,1.0,333.33500000000004,50.11,50.11,47.394,47.394,34.0,-24.357499999999998,22.322000000000003,-28.563333333333333,28.6175,0.0,1781.91,0.7000000000000011,100.0,27.639,28.814,44.268,42.754,0.0,0.0,100.0,0.0,0.0,0.0,0.0,2996.5,3188.4,4267.333333333333,3954.9,301.6295,304.63375,314.511,314.908,14.053714285714285,20.8073,22.0833,21.4497,314.999998,314.999998,324.999988,324.999988,99.5665,99.5132,99.57287142857143,99.5468,0.00550000000000006,-0.131,-0.11383333333333334,0.10499999999999998,-0.07499999999999574,-0.03333333333333144,1.486,1.486,45.085,31.0455,39.021,35.0605,71.601,38.8865,61.487,52.3435,66.28999999999999,37.611000000000004,60.0945,50.6205,67.346,36.9045,60.0835,49.973,-0.026000000000000023,-0.135,0.10570500000000001,0.09887000000000001,0.0,213.385,213.45499999999998,210.21333333333334,210.21333333333334,0.0,0.0
21,0.0,0.0,0.0,1.0,1.0,0.0,0.0,1.0,0.0,100.0,1.0,1.1856,26.0,0.0,0.0,0.0,59.999996,0.0,26.0,26.0,26.0,26.0,0.03288888888888897,0.27580000000000005,-0.04405,291.534,-2.6412,-2.7382,-1.4872,-1.6117,-205.37,215.35500000000002,190.551375,0.0,0.0,0.0,0.0,0.04246666666666654,-5.498166666666667,-5.498166666666667,-0.6141,-0.044,-0.09355555555555561,-0.7970000000000002,68.301,-0.0015,-0.27266666666666667,-0.1459999999999999,100.0,1.0,1.0,210.72333333333333,0.0,0.0,0.0,0.0,0.0,0.0,0.0,8931.8,0.0,55.0,5.0,245.85666666666668,1.0,0.0,0.0,0.0,0.0,0.0,0.0,0.0,1.056000000000001,1.056000000000001,0.0,0.0,1.0,55.0,616.79921,10000.0,85.000001,85.000001,85.000001,85.000001,395.0,0.0,0.0,0.0,1.0,333.33500000000004,50.11,50.11,48.05,48.05,34.0,-25.4025,22.77,-27.86,27.5325,0.0,1781.861,0.6950000000000003,100.0,27.541,28.634999999999998,43.978,42.393,0.0,0.0,100.0,0.0,0.0,0.0,0.0,3072.5,3213.5,4172.0,3895.3,301.3315,304.61025,314.805,315.2015,14.067,20.8134,22.0935,21.458,314.999998,314.999998,324.999988,324.999988,99.56651428571429,99.51321666666666,99.57301428571428,99.54694285714285,0.0012500000000001954,-0.1276666666666666,-0.10999999999999999,0.1186666666666667,-0.0799999999999983,-0.04333333333332945,1.566,1.557,45.169,31.084,39.085,35.1125,71.588,38.921,61.518,52.3965,66.279,37.6435,60.123,50.6715,67.332,36.9355,60.109,50.0235,-0.021499999999999964,-0.13250000000000006,0.10611500000000001,0.11105000000000001,0.0,213.775,213.85000000000002,210.72333333333333,210.72333333333333,0.0,0.0
22,0.0,0.0,0.0,1.0,1.0,0.0,0.0,1.0,0.0,100.0,1.0,1.1856,26.0,0.0,0.0,0.0,59.999996,0.0,26.0,26.0,26.0,26.0,0.010222222222222133,0.27470000000000017,-0.00245,291.092,-2.6721,-2.7466,-1.51425,-1.6164,-201.89,215.3475,190.527625,0.0,0.0,0.0,0.0,0.044499999999999984,-5.498166666666667,-5.498166666666667,-0.6019,0.07200000000000001,-0.08844444444444433,1.1719999999999997,68.438,-0.0036000000000000003,-0.2515,-0.2160000000000002,100.0,1.0,1.0,210.98666666666668,0.0,0.0,0.0,0.0,0.0,0.0,0.0,8942.9,0.0,55.0,5.0,246.35000000000002,0.0,0.0,0.0,0.0,0.0,0.0,0.0,0.0,1.1069999999999993,1.1069999999999993,0.0,0.0,0.0,55.0,616.79921,10000.0,85.000001,85.000001,85.000001,85.000001,395.0,0.0,0.0,0.0,1.0,166.665,50.049,50.049,47.195,47.195,34.0,-24.6725,23.598,-30.35333333333333,31.225,0.0,1781.812,0.620000000000001,100.0,27.802,28.555,44.187,42.293,0.0,0.0,100.0,0.0,0.0,0.0,0.0,2974.5,3330.7,4386.555555555556,4269.4,301.566,304.4495,314.2195,314.3715,14.081285714285714,20.8199,22.1045,21.467,314.999998,314.999998,324.999988,324.999988,99.56651428571429,99.51323333333333,99.57317142857143,99.54708571428571,0.007000000000000117,-0.1276666666666666,-0.10816666666666663,0.12216666666666676,-0.06833333333332803,-0.04999999999999716,1.4885,1.4835,45.257999999999996,31.124499999999998,39.153,35.1685,71.576,38.9585,61.554,52.455,66.268,37.678,60.1565,50.728,67.319,36.969,60.138999999999996,50.0785,-0.02749999999999997,-0.13400000000000012,0.10210500000000002,0.112835,0.0,214.22,214.28,210.98666666666668,210.98666666666668,0.0,0.0
23,0.0,0.0,0.0,1.0,1.0,0.0,0.0,1.0,0.0,100.0,1.0,1.1856,26.0,0.0,0.0,0.0,59.999996,0.0,26.0,26.0,26.0,26.0,0.01588888888888884,0.26859999999999995,-0.015875,290.909,-2.57895,-2.7611,-1.5588000000000002,-1.6198000000000001,-198.39,215.34,190.504125,0.0,0.0,0.0,0.0,0.046533333333333315,-5.498166666666667,-5.498166666666667,-0.6147,-0.222,-0.08855555555555572,-0.8209999999999997,68.572,-0.0044,-0.2747333333333334,-0.19599999999999973,100.0,1.0,1.0,211.44666666666666,0.0,0.0,0.0,0.0,0.0,0.0,0.0,8962.4,0.0,55.0,5.0,246.83333333333334,1.0,0.0,0.0,0.0,0.0,0.0,0.0,0.0,1.1580000000000013,1.1580000000000013,0.0,0.0,1.0,55.0,616.79921,10000.0,85.000001,85.000001,85.000001,85.000001,395.0,0.0,0.0,0.0,1.0,333.33500000000004,49.53,49.53,47.485,47.485,34.0,-25.285,23.228,-31.11,28.615000000000002,0.0,1781.759,0.5999999999999996,100.0,27.886,28.947,44.28,42.686,0.0,0.0,100.0,0.0,0.0,0.0,0.0,3114.5,3235.1,4352.666666666667,4052.8,301.0115,304.4425,314.4235,314.805,14.095571428571429,20.8265,22.1155,21.476,314.999998,314.999998,324.999988,324.999988,99.56652857142858,99.51325,99.57331428571429,99.54722857142858,0.003750000000000142,-0.1293333333333333,-0.121,0.10716666666666685,-0.07666666666666799,-0.04833333333333201,1.523,1.5190000000000001,45.346999999999994,31.1655,39.222,35.225,71.564,38.997,61.589,52.515,66.258,37.713499999999996,60.189,50.7855,67.305,37.003,60.1685,50.1345,-0.026000000000000023,-0.13050000000000006,0.11130500000000002,0.10060500000000001,0.0,214.595,214.695,211.44666666666666,211.44666666666666,0.0,0.0
24,0.0,0.0,0.0,1.0,1.0,0.0,0.0,1.0,0.0,100.0,1.0,1.1856,26.0,0.0,0.0,0.0,59.999996,0.0,26.0,26.0,26.0,26.0,0.02588888888888885,0.26639999999999997,-0.055175,291.336,-2.6178,-2.7491,-1.464,-1.6451,-194.89,215.335,190.48025,0.0,0.0,0.0,0.0,0.048566666666666536,-5.498166666666667,-5.498166666666667,-0.6284000000000001,-0.403,-0.08211111111111125,1.2000000000000002,68.705,0.0021000000000000003,-0.2739666666666667,-0.32399999999999984,100.0,1.0,1.0,211.87666666666667,0.0,0.0,0.0,0.0,0.0,0.0,0.0,8980.7,0.0,55.0,5.0,247.31333333333333,0.0,0.0,0.0,0.0,0.0,0.0,0.0,0.0,1.2089999999999996,1.2089999999999996,0.0,0.0,0.0,55.0,616.79921,10000.0,85.000001,85.000001,85.000001,85.000001,395.0,0.0,0.0,0.0,1.0,166.665,50.293,50.293,47.47,47.47,34.0,-23.3825,23.252000000000002,-28.17666666666667,29.6125,0.0,1781.71,0.6449999999999996,100.0,27.928,28.556,44.379,42.566,0.0,0.0,100.0,0.0,0.0,0.0,0.0,2884.375,3247.7,4225.555555555556,4014.7,301.888,304.66325,314.55475,314.93575,14.109714285714286,20.833,22.1264,21.485,314.999998,314.999998,324.999988,324.999988,99.56652857142858,99.51326666666667,99.57347142857142,99.54737142857142,0.008500000000000174,-0.12199999999999989,-0.10749999999999993,0.12683333333333335,-0.06666666666666998,-0.05833333333333002,1.5275,1.5,45.436,31.206,39.29,35.281,71.551,39.0325,61.6235,52.573,66.246,37.747,60.2215,50.841,67.291,37.035,60.1975,50.189,-0.023499999999999965,-0.1280000000000001,0.10706,0.11216000000000001,0.0,215.015,215.115,211.87666666666667,211.87666666666667,0.0,0.0
25,0.0,0.0,0.0,1.0,1.0,0.0,0.0,1.0,0.0,100.0,1.0,1.1856,26.0,0.0,0.0,0.0,59.999996,0.0,26.0,26.0,26.0,26.0,0.027666666666666728,0.2682,-0.0292,291.10699999999997,-2.66565,-2.7218,-1.5119,-1.635,-191.59,215.3275,190.4565,0.0,0.0,0.0,0.0,0.05046666666666655,-5.498166666666667,-5.498166666666667,-0.6425000000000001,0.03,-0.0685555555555557,0.37399999999999967,68.83,0.003,-0.2669666666666667,-0.274,100.0,1.0,1.0,212.30333333333334,0.0,0.0,0.0,0.0,0.0,0.0,0.0,8998.7,0.0,55.0,5.0,247.76,1.0,0.0,0.0,0.0,0.0,0.0,0.0,0.0,1.256999999999998,1.256999999999998,0.0,0.0,1.0,55.0,616.79921,10000.0,85.000001,85.000001,85.000001,85.000001,395.0,0.0,0.0,0.0,1.0,333.33500000000004,49.561,49.561,47.729,47.729,34.0,-25.1675,25.445999999999998,-27.863333333333333,29.822499999999998,0.0,1781.66,0.5899999999999999,100.0,27.828,28.759,44.116,42.436,0.0,0.0,100.0,0.0,0.0,0.0,0.0,3048.625,3478.4,4132.222222222223,4056.9,301.3295,303.93775,314.88175,314.836,14.122857142857143,20.839199999999998,22.136499999999998,21.4933,314.999998,314.999998,324.999988,324.999988,99.56652857142858,99.51328333333333,99.57361428571429,99.5475,0.010000000000000231,-0.11133333333333328,-0.10733333333333339,0.13000000000000012,-0.07000000000000028,-0.04333333333332945,1.5505,1.544,45.518,31.244999999999997,39.352999999999994,35.3335,71.537,39.068,61.6545,52.6265,66.234,37.78,60.25,50.8925,67.276,37.0665,60.223,50.2395,-0.025499999999999967,-0.13050000000000006,0.11154000000000001,0.11524500000000001,0.0,215.405,215.49,212.30333333333334,212.30333333333334,0.0,0.0
26,0.0,0.0,0.0,1.0,1.0,0.0,0.0,1.0,0.0,100.0,1.0,1.1856,26.0,0.0,0.0,0.0,59.999996,0.0,26.0,26.0,26.0,26.0,0.04488888888888898,0.26550000000000007,0.049350000000000005,290.298,-2.6244,-2.8083,-1.4676,-1.642,-188.07999999999998,215.3225,190.431,0.0,0.0,0.0,0.0,0.05253333333333332,-5.498166666666667,-5.498166666666667,-0.62,0.3165,-0.0912222222222221,-0.8109999999999999,68.965,0.0006000000000000001,-0.2543666666666667,-0.2060000000000004,100.0,1.0,1.0,212.51333333333332,0.0,0.0,0.0,0.0,0.0,0.0,0.0,9007.7,0.0,55.0,5.0,248.24666666666667,0.0,0.0,0.0,0.0,0.0,0.0,0.0,0.0,1.3079999999999998,1.3079999999999998,0.0,0.0,0.0,55.0,616.79921,10000.0,85.000001,85.000001,85.000001,85.000001,395.0,0.0,0.0,0.0,1.0,166.665,49.254999999999995,49.254999999999995,46.707,46.707,34.0,-25.825,23.192,-31.64666666666667,32.332499999999996,0.0,1781.611,0.5600000000000005,100.0,28.268,29.35,44.41,42.841,0.0,0.0,100.0,0.0,0.0,0.0,0.0,3164.375,3165.4,4608.0,4296.4,300.9705,304.63275,313.73325,314.17475,14.137142857142857,20.8459,22.1475,21.5024,314.999998,314.999998,324.999988,324.999988,99.56654285714286,99.5133,99.57375714285715,99.54764285714286,0.009250000000000203,-0.1276666666666666,-0.10783333333333334,0.12383333333333324,-0.07333333333333059,-0.03166666666666629,1.44,1.443,45.607,31.2865,39.422,35.39,71.527,39.107,61.691,52.687,66.226,37.816,60.284,50.9505,67.265,37.1015,60.2535,50.296,-0.03300000000000003,-0.1280000000000001,0.10876500000000001,0.11422000000000002,0.0,215.845,215.92000000000002,212.51333333333332,212.51333333333332,0.0,0.0
27,0.0,0.0,0.0,1.0,1.0,0.0,0.0,1.0,0.0,100.0,1.0,1.1856,26.0,0.0,0.0,0.0,59.999996,0.0,26.0,26.0,26.0,26.0,0.03955555555555579,0.2581,-0.027825000000000003,290.71,-2.6695,-2.7447,-1.53115,-1.6217000000000001,-184.76,215.3175,190.407875,0.0,0.0,0.0,0.0,0.054433333333333334,-5.498166666666667,-5.498166666666667,-0.6376000000000001,-0.6935,-0.07833333333333359,-0.4209999999999998,69.088,0.0018000000000000002,-0.2883,-0.2759999999999998,100.0,1.0,1.0,213.00666666666666,0.0,0.0,0.0,0.0,0.0,0.0,0.0,9028.6,0.0,55.0,5.0,248.69,1.0,0.0,0.0,0.0,0.0,0.0,0.0,0.0,1.355999999999998,1.355999999999998,0.0,0.0,1.0,55.0,616.79921,10000.0,85.000001,85.000001,85.000001,85.000001,395.0,0.0,0.0,0.0,1.0,333.33500000000004,49.545,49.545,46.722,46.722,34.0,-24.66,23.298000000000002,-29.75333333333333,28.62,0.0,1781.561,0.5350000000000001,100.0,28.156,29.38,44.878,43.225,0.0,0.0,100.0,0.0,0.0,0.0,0.0,3028.5,3267.4,4305.444444444444,3965.8,301.621,304.36625,314.50075,315.04975,14.150428571428572,20.8521,22.157899999999998,21.511,314.999998,314.999998,324.999988,324.999988,99.56654285714286,99.51331666666667,99.5739,99.54778571428571,0.014499999999999957,-0.1296666666666666,-0.10916666666666663,0.1200000000000001,-0.0833333333333286,-0.030000000000001137,1.5205,1.4895,45.69,31.325499999999998,39.486999999999995,35.444,71.515,39.1425,61.7255,52.743,66.21600000000001,37.849000000000004,60.316,51.0045,67.252,37.132999999999996,60.283,50.349000000000004,-0.03749999999999998,-0.13149999999999995,0.09966000000000001,0.11057000000000002,0.0,216.19,216.255,213.00666666666666,213.00666666666666,0.0,0.0
28,0.0,0.0,0.0,1.0,1.0,0.0,0.0,1.0,0.0,100.0,1.0,1.1856,26.0,0.0,0.0,0.0,59.999996,0.0,26.0,26.0,26.0,26.0,0.03133333333333321,0.2642,-0.040825,290.894,-2.5989,-2.7338,-1.5465,-1.6467,-181.24,215.315,190.382625,0.0,0.0,0.0,0.0,0.056499999999999995,-5.498166666666667,-5.498166666666667,-0.6445000000000001,0.455,-0.08666666666666645,0.16999999999999993,69.217,0.002,-0.26993333333333336,-0.3779999999999992,100.0,1.0,1.0,213.49333333333334,0.0,0.0,0.0,0.0,0.0,0.0,0.0,9049.1,0.0,55.0,5.0,249.15666666666667,0.0,0.0,0.0,0.0,0.0,0.0,0.0,0.0,1.407,1.407,0.0,0.0,0.0,55.0,616.79921,10000.0,85.000001,85.000001,85.000001,85.000001,395.0,0.0,0.0,0.0,1.0,333.33500000000004,49.515,49.515,47.394,47.394,34.0,-23.115,24.799999999999997,-28.03666666666667,29.822499999999998,0.0,1781.511,0.46499999999999986,100.0,28.253,29.178,44.435,42.784,0.0,0.0,100.0,0.0,0.0,0.0,0.0,2964.0,3348.4,4204.666666666667,4026.9,301.5215,304.31175,314.76625,314.93475,14.164428571428571,20.8588,22.1686,21.5199,314.999998,314.999998,324.999988,324.999988,99.56655714285715,99.51333333333334,99.57405714285714,99.54791428571428,0.03175000000000017,-0.10499999999999998,-0.09133333333333338,0.13149999999999995,-0.07000000000000028,-0.054999999999999716,1.5494999999999999,1.536,45.778,31.3675,39.554,35.4995,71.503,39.1805,61.7565,52.7995,66.205,37.8845,60.345,51.059,67.238,37.167,60.3085,50.402,-0.04399999999999993,-0.11949999999999994,0.10436000000000001,0.10566500000000001,0.0,216.62,216.70499999999998,213.49333333333334,213.49333333333334,0.0,0.0
29,0.0,0.0,0.0,1.0,1.0,0.0,0.0,1.0,0.0,100.0,1.0,1.1856,26.0,0.0,0.0,0.0,59.999996,0.0,26.0,26.0,26.0,26.0,0.0454444444444444,0.25950000000000006,-0.012325000000000001,290.817,-2.57795,-2.7946,-1.48705,-1.6331,-177.7,215.3125,190.356375,0.0,0.0,0.0,0.0,0.058566666666666545,-5.498166666666667,-5.498166666666667,-0.6449,-0.6,-0.09711111111111137,-0.694,69.35,0.0064,-0.26376666666666665,-0.39200000000000035,100.0,1.0,1.0,213.74666666666667,0.0,0.0,0.0,0.0,0.0,0.0,0.0,9059.9,0.0,55.0,5.0,249.63666666666666,1.0,0.0,0.0,0.0,0.0,0.0,0.0,0.0,1.4579999999999984,1.4579999999999984,0.0,0.0,1.0,55.0,616.79921,10000.0,85.000001,85.000001,85.000001,85.000001,395.0,0.0,0.0,0.0,1.0,166.665,50.079,50.079,46.783,46.783,34.0,-23.2825,23.259999999999998,-29.956666666666667,30.5825,0.0,1781.461,0.4399999999999995,100.0,27.783,29.051000000000002,44.667,43.077,0.0,0.0,100.0,0.0,0.0,0.0,0.0,2989.375,3137.9,4363.444444444444,4150.1,301.7285,304.7485,314.30575,314.54825,14.178428571428572,20.8653,22.1796,21.529,314.999998,314.999998,324.999988,324.999988,99.56655714285715,99.51335,99.57421428571429,99.54807142857143,0.022250000000000103,-0.11733333333333329,-0.11083333333333334,0.11949999999999994,-0.05666666666667197,-0.051666666666669414,1.4805,1.4625,45.864999999999995,31.408,39.622,35.5565,71.488,39.216,61.793,52.859,66.19200000000001,37.917500000000004,60.379,51.116,67.223,37.198499999999996,60.339,50.457499999999996,-0.04399999999999993,-0.11549999999999994,0.10769500000000001,0.11114,0.0,216.995,217.11,213.74666666666667,213.74666666666667,0.0,0.0
30,0.0,0.0,0.0,1.0,1.0,0.0,0.0,1.0,0.0,100.0,1.0,1.1856,26.0,0.0,0.0,0.0,59.999996,0.0,26.0,26.0,26.0,26.0,0.047666666666666746,0.26239999999999997,0.0063750000000000005,290.039,-2.6398,-2.8051,-1.5622,-1.5527000000000002,-174.16,215.31,190.329875,0.0,0.0,0.0,0.0,0.06059999999999999,-5.498166666666667,-5.498166666666667,-0.6503,0.7335,-0.09544444444444444,0.5750000000000002,69.47800000000001,0.011300000000000001,-0.2675666666666667,-0.5139999999999993,100.0,1.0,1.0,214.24333333333334,0.0,0.0,0.0,0.0,0.0,0.0,0.0,9080.9,0.0,55.0,5.0,250.09666666666666,0.0,0.0,0.0,0.0,0.0,0.0,1.0,0.0,1.5090000000000003,1.5090000000000003,0.0,0.0,0.0,55.0,616.79921,10000.0,85.000001,85.000001,85.000001,85.000001,395.0,0.0,0.0,0.0,1.0,166.665,48.08,48.08,47.058,47.058,34.0,-25.5125,27.644,-29.376666666666665,29.1025,0.0,1781.41,0.4450000000000003,100.0,28.738,29.58,44.591,42.99,0.0,0.0,100.0,0.0,0.0,0.0,0.0,3196.375,3601.4,4340.333333333333,4098.1,300.453,303.47125,314.521,314.93325,14.192714285714285,20.8721,22.1904,21.538,314.999998,314.999998,324.999988,324.999988,99.56657142857142,99.51336666666667,99.57435714285714,99.54821428571428,0.035499999999999865,-0.10899999999999999,-0.09216666666666662,0.13250000000000006,-0.08500000000000085,-0.05666666666667197,1.536,1.5175,45.954,31.451,39.69,35.6125,71.48,39.254999999999995,61.8255,52.9165,66.185,37.954,60.4095,51.1715,67.213,37.234,60.366,50.5115,-0.04699999999999993,-0.12549999999999994,0.10852500000000001,0.100485,0.0,217.42000000000002,217.515,214.24333333333334,214.24333333333334,0.0,0.0
31,0.0,0.0,0.0,1.0,1.0,0.0,0.0,1.0,0.0,100.0,1.0,1.1856,26.0,0.0,0.0,0.0,59.999996,0.0,26.0,26.0,26.0,26.0,0.06622222222222218,0.2662,0.0592,289.49,-2.68165,-2.7069,-1.5598,-1.6284,-170.82999999999998,215.31,190.3055,0.0,0.0,0.0,0.0,0.06256666666666655,-5.498166666666667,-5.498166666666667,-0.6288,-0.227,-0.08055555555555571,1.4000000000000004,69.60300000000001,0.0154,-0.2691,-0.4399999999999995,100.0,1.0,1.0,214.4,0.0,0.0,0.0,0.0,0.0,0.0,0.0,9087.6,0.0,55.0,5.0,250.54666666666668,1.0,0.0,0.0,0.0,0.0,0.0,1.0,0.0,1.5569999999999986,1.5569999999999986,0.0,0.0,1.0,55.0,616.79921,10000.0,85.000001,85.000001,85.000001,85.000001,395.0,0.0,0.0,0.0,1.0,333.33500000000004,48.66,48.66,45.41,45.41,34.0,-24.12,25.722,-31.413333333333334,34.2825,0.0,1781.359,0.41999999999999993,100.0,28.843,29.787,45.411,43.715,0.0,0.0,100.0,0.0,0.0,0.0,0.0,3025.25,3521.1,4541.0,4417.9,301.39,303.89,313.77325,313.865,14.206,20.8785,22.2008,21.5468,314.999998,314.999998,324.999988,324.999988,99.56657142857142,99.51336666666667,99.57451428571429,99.54835714285714,0.03624999999999989,-0.10866666666666669,-0.08399999999999996,0.13850000000000007,-0.05833333333333002,-0.061666666666667425,1.4235,1.4060000000000001,46.037,31.490499999999997,39.754999999999995,35.667500000000004,71.469,39.2935,61.864,52.978,66.176,37.99,60.445499999999996,51.2305,67.201,37.2685,60.3985,50.5695,-0.04799999999999993,-0.125,0.101165,0.11039000000000002,0.0,217.79500000000002,217.91,214.4,214.4,0.0,0.0
32,0.0,0.0,0.0,1.0,1.0,0.0,0.0,1.0,0.0,100.0,1.0,1.1856,26.0,0.0,0.0,0.0,59.999996,0.0,26.0,26.0,26.0,26.0,0.055222222222222284,0.26639999999999997,-0.022425,290.222,-2.629,-2.7431,-1.5198,-1.6179000000000001,-167.26999999999998,215.31,190.28025,0.0,0.0,0.0,0.0,0.06463333333333332,-5.498166666666667,-5.498166666666667,-0.6479,-0.365,-0.0868888888888888,-1.0470000000000002,69.729,0.0166,-0.2869333333333334,-0.4379999999999997,100.0,1.0,1.0,214.95333333333332,0.0,0.0,0.0,0.0,0.0,0.0,0.0,9111.1,0.0,55.0,5.0,251.0,0.0,0.0,0.0,0.0,0.0,0.0,1.0,0.0,1.6080000000000005,1.6080000000000005,0.0,0.0,0.0,55.0,616.79921,10000.0,85.000001,85.000001,85.000001,85.000001,395.0,0.0,0.0,0.0,1.0,333.33500000000004,49.164,49.164,46.539,46.539,34.0,-23.724999999999998,24.118,-28.296666666666667,31.2025,0.0,1781.308,0.39000000000000057,100.0,28.447,29.892,45.039,43.827,0.0,0.0,100.0,0.0,0.0,0.0,0.0,3021.875,3256.2,4249.333333333333,4151.1,301.5975,304.41825,314.5865,314.62925,14.219857142857142,20.8852,22.2117,21.5559,314.999998,314.999998,324.999988,324.999988,99.56658571428571,99.5134,99.57465714285715,99.54848571428572,0.03025000000000011,-0.10933333333333328,-0.09150000000000003,0.1403333333333332,-0.07666666666666799,-0.03999999999999915,1.516,1.495,46.123999999999995,31.533,39.823,35.724000000000004,71.456,39.329499999999996,61.897,53.036500000000004,66.164,38.025,60.4755,51.287,67.187,37.302,60.4255,50.6245,-0.04049999999999998,-0.12349999999999994,0.10332000000000001,0.109005,0.0,218.19,218.275,214.95333333333332,214.95333333333332,0.0,0.0
33,0.0,0.0,0.0,1.0,1.0,0.0,0.0,1.0,0.0,100.0,1.0,1.1856,26.0,0.0,0.0,0.0,59.999996,0.0,26.0,26.0,26.0,26.0,0.05866666666666687,0.26150000000000007,-0.042050000000000004,290.558,-2.64875,-2.7664,-1.5129000000000001,-1.6671,-163.92000000000002,215.3125,190.255375,0.0,0.0,0.0,0.0,0.06656666666666655,-5.498166666666667,-5.498166666666667,-0.6581,-0.198,-0.10022222222222243,-0.2490000000000001,69.85,0.0172,-0.2682,-0.4560000000000004,100.0,1.0,1.0,215.36666666666667,0.0,0.0,0.0,0.0,0.0,0.0,0.0,9128.6,0.0,55.0,5.0,251.43333333333334,1.0,0.0,0.0,0.0,0.0,0.0,1.0,0.0,1.6559999999999988,1.6559999999999988,0.0,0.0,1.0,55.0,616.79921,10000.0,85.000001,85.000001,85.000001,85.000001,395.0,0.0,0.0,0.0,1.0,333.33500000000004,49.5,49.5,46.967,46.967,34.0,-24.07,23.764000000000003,-28.18,30.4525,0.0,1781.262,0.3849999999999998,100.0,28.262,29.592,44.829,43.49,0.0,0.0,100.0,0.0,0.0,0.0,0.0,3054.625,3169.3,4258.0,4009.0,301.5295,304.71775,314.62375,314.959,14.232857142857142,20.8914,22.2218,21.5643,314.999998,314.999998,324.999988,324.999988,99.56658571428571,99.5134,99.5748,99.54862857142857,0.03200000000000003,-0.10499999999999998,-0.09266666666666656,0.1393333333333333,-0.09499999999999886,-0.04833333333333201,1.534,1.516,46.206,31.5715,39.885999999999996,35.777,71.444,39.3625,61.9255,53.086,66.154,38.054,60.5025,51.3345,67.173,37.329499999999996,60.449,50.670500000000004,-0.04599999999999993,-0.11549999999999994,0.105075,0.10930000000000001,0.0,218.555,218.635,215.36666666666667,215.36666666666667,0.0,0.0
34,0.0,0.0,0.0,1.0,1.0,0.0,0.0,1.0,0.0,100.0,1.0,1.1856,26.0,0.0,0.0,0.0,59.999996,0.0,26.0,26.0,26.0,26.0,0.05944444444444441,0.2582,-0.06635,290.741,-2.59015,-2.7415000000000003,-1.552,-1.601,-160.14999999999998,215.315,190.22575,0.0,0.0,0.0,0.0,0.06876666666666653,-5.498166666666667,-5.498166666666667,-0.6842,-0.9410000000000001,-0.0733333333333337,-0.20399999999999974,69.986,0.019,-0.2713,-0.4639999999999995,100.0,1.0,1.0,215.71666666666667,0.0,0.0,0.0,0.0,0.0,0.0,0.0,9143.4,0.0,55.0,5.0,251.92333333333335,0.0,0.0,0.0,0.0,0.0,0.0,1.0,0.0,1.7100000000000009,1.7100000000000009,0.0,0.0,0.0,55.0,616.79921,10000.0,85.000001,85.000001,85.000001,85.000001,395.0,0.0,0.0,0.0,1.0,166.665,50.018,50.018,47.028,47.028,34.0,-22.34,22.996,-29.186666666666667,30.4625,0.0,1781.208,0.35999999999999943,100.0,28.032,29.326,44.729,43.599000000000004,0.0,0.0,100.0,0.0,0.0,0.0,0.0,2963.125,3102.8,4272.888888888889,4124.6,301.9355,304.89525,314.60175,314.64775,14.247428571428571,20.8983,22.2332,21.573999999999998,314.999998,314.999998,324.999988,324.999988,99.56658571428571,99.51341666666667,99.57495714285714,99.54878571428571,0.041749999999999954,-0.10533333333333328,-0.09683333333333333,0.133,-0.08166666666667055,-0.03499999999999659,1.51,1.491,46.296,31.6145,39.958,35.8375,71.428,39.397999999999996,61.96,53.1485,66.14099999999999,38.0875,60.5345,51.3945,67.157,37.362,60.4775,50.7295,-0.052999999999999936,-0.11949999999999994,0.10969000000000001,0.11022000000000001,0.0,218.95,219.04000000000002,215.71666666666667,215.71666666666667,0.0,0.0
35,0.0,0.0,0.0,1.0,1.0,0.0,0.0,1.0,0.0,100.0,1.0,1.1856,26.0,0.0,0.0,0.0,59.999996,0.0,26.0,26.0,26.0,26.0,0.05877777777777782,0.23740000000000006,-0.061475,290.726,-2.7279999999999998,-2.7198,-1.46725,-1.6572,-156.78,215.32,190.19775,0.0,0.0,0.0,0.0,0.07069999999999999,-5.498166666666667,-5.498166666666667,-0.7193,-0.09,-0.0902222222222222,-1.4220000000000002,70.10300000000001,0.0223,-0.2798333333333334,-0.45199999999999996,100.0,1.0,1.0,216.20666666666668,0.0,0.0,0.0,0.0,0.0,0.0,0.0,9164.2,0.0,55.0,5.0,252.34666666666666,1.0,0.0,0.0,0.0,0.0,0.0,1.0,0.0,1.7579999999999991,1.7579999999999991,0.0,0.0,1.0,55.0,616.79921,10000.0,85.000001,85.000001,85.000001,85.000001,395.0,0.0,0.0,0.0,1.0,333.33500000000004,49.286,49.286,46.951,46.951,34.0,-25.09,25.442,-26.786666666666665,29.1725,0.0,1781.159,0.5449999999999999,100.0,27.892,29.644,44.480000000000004,43.150999999999996,0.0,0.0,100.0,0.0,0.0,0.0,0.0,3062.5,3416.7,4194.888888888889,3865.4,301.487,303.93925,314.838,315.38625,14.260285714285715,20.9047,22.2433,21.5824,314.999998,314.999998,324.999988,324.999988,99.5666,99.51343333333334,99.5751,99.54892857142858,0.026499999999999968,-0.1056666666666668,-0.09166666666666656,0.14666666666666672,-0.086666666666666,-0.03333333333333144,1.5625,1.537,46.376999999999995,31.6545,40.019999999999996,35.89,71.413,39.434,61.9895,53.2,66.128,38.1205,60.5615,51.4445,67.14099999999999,37.394,60.5015,50.778,-0.03649999999999998,-0.12349999999999994,0.10436000000000001,0.11016000000000001,0.0,219.325,219.44,216.20666666666665,216.20666666666668,0.0,0.0
36,0.0,0.0,0.0,1.0,1.0,0.0,0.0,1.0,0.0,100.0,1.0,1.1856,26.0,0.0,0.0,0.0,59.999996,0.0,26.0,26.0,26.0,26.0,0.052444444444444294,0.25960000000000005,0.012575000000000001,289.963,-2.5683,-2.7888,-1.5668000000000002,-1.6736,-153.42,215.3275,190.1685,0.0,0.0,0.0,0.0,0.07266666666666655,-5.498166666666667,-5.498166666666667,-0.7045,0.1115,-0.13900000000000023,-1.472,70.226,0.018600000000000002,-0.25576666666666664,-0.2920000000000007,100.0,1.0,1.0,216.34333333333333,0.0,0.0,0.0,0.0,0.0,0.0,0.0,9170.0,0.0,55.0,5.0,252.78666666666666,0.0,0.0,0.0,0.0,0.0,0.0,1.0,0.0,1.806000000000001,1.806000000000001,0.0,0.0,0.0,55.0,616.79921,10000.0,85.000001,85.000001,85.000001,85.000001,395.0,0.0,0.0,0.0,1.0,333.33500000000004,49.149,49.149,46.371,46.371,34.0,-23.765,23.798000000000002,-32.24333333333333,32.635000000000005,0.0,1781.11,0.6150000000000002,100.0,28.428,29.655,44.745000000000005,43.417,0.0,0.0,100.0,0.0,0.0,0.0,0.0,3074.5,3190.2,4597.555555555556,4247.5,301.161,304.52925,313.8295,314.3465,14.273285714285715,20.9111,22.2535,21.591,314.999998,314.999998,324.999988,324.999988,99.5666,99.51345,99.57524285714285,99.54907142857142,0.03299999999999992,-0.11633333333333318,-0.09416666666666662,0.12916666666666687,-0.07333333333333059,-0.03499999999999659,1.456,1.442,46.458,31.694,40.084,35.9435,71.40299999999999,39.469,62.0215,53.2555,66.118,38.1535,60.591499999999996,51.4975,67.128,37.4255,60.5285,50.83,-0.03700000000000003,-0.13149999999999995,0.10892500000000001,0.100205,0.0,219.72500000000002,219.825,216.34333333333336,216.34333333333333,0.0,0.0
