,ABS Active,ABS Enabled,AID Allow Tire Blankets,AID Auto Blip,AID Auto Clutch,AID Auto Shift,AID Fuel Rate,AID Ideal Line,AID Mech Damage,AID Stability,AID Tire Wear Rate,Air Density,Air Temp,Ballast,Best Lap Delta,Best Lap Time,Brake Bias,Brake Pos,Brake Temp FL,Brake Temp FR,Brake Temp RL,Brake Temp RR,CG Accel Lateral,CG Accel Longitudinal,CG Accel Vertical,CG Height,Camber FL,Camber FR,Camber RL,Camber RR,Car Coord X,Car Coord Y,Car Coord Z,Car Damage Front,Car Damage Left,Car Damage Rear,Car Damage Right,Car Pos Norm,Caster FL,Caster FR,Chassis Pitch Angle,Chassis Pitch Rate,Chassis Roll Angle,Chassis Roll Rate,Chassis Velocity X,Chassis Velocity Y,Chassis Velocity Z,Chassis Yaw Rate,Clutch Pos,DRS Active,DRS Available,Drive Train Speed,ERS Heat Charging,ERS Is Charging,ERS Max Energy,ERS Power Level,ERS Recovery Level,Engine Brake Setting,Engine Limiter,Engine RPM,Flags,Fuel Level,Gear,Ground Speed,HR Sample Clock,In Pit,KERS Charge,KERS Deployed Energy,KERS Input,KERS Max Energy,LR Sample Clock,Lap Invalidated,Lap Time,Lap Time2,Last Lap Time,Last Sector Time,MR Sample Clock,Max Fuel,Max Power,Max RPM,Max Sus Travel FL,Max Sus Travel FR,Max Sus Travel RL,Max Sus Travel RR,Max Torque,Max Turbo Boost,Num Tires Off Track,Penalties Enabled,Position,Raw Data Sample Rate,Ride Height FL,Ride Height FR,Ride Height RL,Ride Height RR,Road Temp,Self Align Torque FL,Self Align Torque FR,Self Align Torque RL,Self Align Torque RR,Session Lap Count,Session Time Left,Steering Angle,Surface Grip,Suspension Travel FL,Suspension Travel FR,Suspension Travel RL,Suspension Travel RR,TC Active,TC Enabled,Throttle Pos,Tire Dirt Level FL,Tire Dirt Level FR,Tire Dirt Level RL,Tire Dirt Level RR,Tire Load FL,Tire Load FR,Tire Load RL,Tire Load RR,Tire Loaded Radius FL,Tire Loaded Radius FR,Tire Loaded Radius RL,Tire Loaded Radius RR,Tire Pressure FL,Tire Pressure FR,Tire Pressure RL,Tire Pressure RR,Tire Radius FL,Tire Radius FR,Tire Radius RL,Tire Radius RR,Tire Rubber Grip FL,Tire Rubber Grip FR,Tire Rubber Grip RL,Tire Rubber Grip RR,Tire Slip Angle FL,Tire Slip Angle FR,Tire Slip Angle RL,Tire Slip Angle RR,Tire Slip Ratio FL,Tire Slip Ratio FR,Tire Slip Ratio RL,Tire Slip Ratio RR,Tire Temp Core FL,Tire Temp Core FR,Tire Temp Core RL,Tire Temp Core RR,Tire Temp Inner FL,Tire Temp Inner FR,Tire Temp Inner RL,Tire Temp Inner RR,Tire Temp Middle FL,Tire Temp Middle FR,Tire Temp Middle RL,Tire Temp Middle RR,Tire Temp Outer FL,Tire Temp Outer FR,Tire Temp Outer RL,Tire Temp Outer RR,Toe In FL,Toe In FR,Toe In RL,Toe In RR,Turbo Boost,Wheel Angular Speed FL,Wheel Angular Speed FR,Wheel Angular Speed RL,Wheel Angular Speed RR,Wind Direction,Wind Speed
0,0.0,0.0,0.0,1.0,1.0,0.0,0.0,1.0,0.0,100.0,1.0,1.1856,26.0,0.0,0.0,0.0,59.99999,0.0,26.0,26.0,26.0,26.0,-0.043888888888888866,0.3135000000000001,0.1552666666666667,292.252,-2.6665,-2.519875,-1.4621,-1.57325,-275.55,215.755,190.985625,0.0,0.0,0.0,0.0,0.0016666666666665941,-5.498166666666667,-5.498166666666667,-0.6087,3.2275,-0.07877777777777784,-0.825,65.402,-0.0437,-0.27540000000000003,0.48600000000000065,100.0,1.0,1.0,201.99,0.0,0.0,0.0,0.0,0.0,0.0,0.0,8561.6,0.0,55.0,5.0,235.41666666666669,0.0,0.0,0.0,0.0,0.0,0.0,0.0,0.0,0.006000000000000227,0.006000000000000227,0.0,0.0,0.0,55.0,616.79921,10000.0,85.0,85.0,85.0,85.0,395.0,0.0,0.0,0.0,1.0,20.0,48.584,48.584,49.103,49.103,34.0,-30.975,24.422,-30.323333333333334,24.85,0.0,1782.915,1.2199999999999989,100.0,27.905,28.584,40.701,39.187,0.0,0.0,100.0,0.0,0.0,0.0,0.0,3321.0,4086.2,4252.888888888889,3972.0,301.6875,301.49075,314.5795,315.03825,16.379625,20.615099999999998,21.8157,21.2914,314.99999,314.99999,324.99998,324.99998,99.5652,99.51041666666667,99.56725714285714,99.54442857142857,-0.05325000000000002,-0.1765,-0.15433333333333335,0.06666666666666668,-0.05666666666667197,-0.045000000000001705,1.5695000000000001,1.5925,40.873000000000005,29.8445,37.348,34.0715,66.15899999999999,36.657,59.8155,51.3005,62.08,35.593,58.463499999999996,49.646,62.361999999999995,35.012,58.473,49.0475,0.014000000000000234,-0.17399999999999993,0.10616,0.10884,0.0,204.93,204.91500000000002,201.99,201.99,0.0,0.0
1,0.0,0.0,0.0,1.0,1.0,0.0,0.0,1.0,0.0,100.0,1.0,1.1856,26.0,0.0,0.0,0.0,59.999996,0.0,26.0,26.0,26.0,26.0,-0.09799999999999998,0.3198000000000001,0.13356666666666667,291.824,-2.5965,-2.74425,-1.5056500000000002,-1.430625,-272.21,215.7725,190.966,0.0,0.0,0.0,0.0,0.0035999999999999366,-5.498166666666667,-5.498166666666667,-0.5025000000000001,-1.4275000000000002,-0.10544444444444423,-0.040000000000000036,65.56,-0.0516,-0.217,0.9920000000000009,100.0,1.0,1.0,201.91333333333333,0.0,0.0,0.0,0.0,0.0,0.0,0.0,8558.4,0.0,55.0,5.0,235.98666666666668,1.0,0.0,0.0,0.0,0.0,0.0,0.0,0.0,0.05699999999999861,0.05699999999999861,0.0,0.0,1.0,55.0,616.79921,10000.0,85.000001,85.000001,85.000001,85.000001,395.0,0.0,0.0,0.0,1.0,333.33500000000004,52.75,52.75,47.44,47.44,34.0,-24.23,14.454,-37.733333333333334,30.400000000000002,0.0,1782.862,1.3500000000000014,100.0,27.853,27.705,43.452,42.425,0.0,0.0,100.0,0.0,0.0,0.0,0.0,2732.285714285714,2493.7,4681.333333333333,5025.6,304.137,306.901,313.31375,312.09425,16.3925,20.6206,21.826999999999998,21.3007,314.999998,314.999998,324.999988,324.999988,99.56521428571429,99.51045,99.56741428571429,99.54458571428572,-0.05999999999999994,-0.19774999999999998,-0.17583333333333334,0.0425,-0.060000000000002274,-0.05333333333332746,1.306,1.355,40.953,29.8785,37.419,34.1295,66.143,36.696,59.8675,51.3745,62.066,35.6295,58.512,49.717,62.346000000000004,35.047,58.5185,49.117,0.03100000000000014,-0.1844999999999999,0.103595,0.11146500000000001,0.0,205.38,205.325,201.91333333333333,201.91333333333333,0.0,0.0
2,0.0,0.0,0.0,1.0,1.0,0.0,0.0,1.0,0.0,100.0,1.0,1.1856,26.0,0.0,0.0,0.0,59.999996,0.0,26.0,26.0,26.0,26.0,-0.12222222222222212,0.28570000000000007,-0.26853333333333335,293.182,-2.5606,-2.727125,-1.4603000000000002,-1.5895000000000001,-268.87,215.785,190.94725,0.0,0.0,0.0,0.0,0.005566666666666609,-5.498166666666667,-5.498166666666667,-0.5983,0.476,-0.09411111111111126,1.363,65.696,-0.0641,-0.29610000000000003,1.2640000000000002,100.0,1.0,1.0,203.21,0.0,0.0,0.0,0.0,0.0,0.0,0.0,8613.4,0.0,55.0,5.0,236.4766666666667,0.0,0.0,0.0,0.0,0.0,0.0,0.0,0.0,0.10800000000000054,0.10800000000000054,0.0,0.0,0.0,55.0,616.79921,10000.0,85.000001,85.000001,85.000001,85.000001,395.0,0.0,0.0,0.0,1.0,166.665,50.507,50.507,50.72,50.72,34.0,-30.5375,17.906,-26.78,17.7025,0.0,1782.813,1.5350000000000001,100.0,28.212,27.762999999999998,42.769999999999996,40.975,0.0,0.0,100.0,0.0,0.0,0.0,0.0,3255.142857142857,3070.1,3662.8888888888887,3247.7,301.961,304.908,315.9295,316.83075,16.405625,20.6262,21.8375,21.309,314.999998,314.999998,324.999988,324.999988,99.56522857142858,99.51048333333334,99.56755714285714,99.5447,-0.08224999999999993,-0.20975,-0.20283333333333334,0.03166666666666667,-0.04833333333333201,-0.023333333333326323,1.7414999999999998,1.793,41.035,29.914,37.483999999999995,34.1815,66.134,36.735,59.8995,51.4195,62.058,35.6655,58.542,49.76,62.336,35.081,58.546,49.159,0.04300000000000015,-0.1955,0.10968000000000001,0.11032000000000002,0.0,205.79000000000002,205.72500000000002,203.21,203.21,0.0,0.0
3,0.0,0.0,0.0,1.0,1.0,0.0,0.0,1.0,0.0,100.0,1.0,1.1856,26.0,0.0,0.0,0.0,59.999996,0.0,26.0,26.0,26.0,26.0,-0.11955555555555553,0.2912000000000001,0.0383,292.313,-2.5794,-2.7582500000000003,-1.44655,-1.558625,-265.71,215.7975,190.928125,0.0,0.0,0.0,0.0,0.007399999999999962,-5.498166666666667,-5.498166666666667,-0.5309,1.03,-0.07855555555555549,-0.7949999999999999,65.842,-0.0801,-0.22462500000000002,1.1620000000000008,100.0,1.0,1.0,203.07666666666665,0.0,0.0,0.0,0.0,0.0,0.0,0.0,8607.6,0.0,55.0,5.0,237.0,1.0,0.0,0.0,0.0,0.0,0.0,0.0,0.0,0.1559999999999988,0.1559999999999988,0.0,0.0,1.0,55.0,616.79921,10000.0,85.000001,85.000001,85.000001,85.000001,395.0,0.0,0.0,0.0,1.0,333.33500000000004,51.636,51.636,47.592,47.592,34.0,-27.2075,16.73,-36.49333333333334,24.0175,0.0,1782.763,1.5350000000000001,100.0,27.965,27.887999999999998,43.002,41.129,0.0,0.0,100.0,0.0,0.0,0.0,0.0,2924.4285714285716,2914.2,4608.222222222223,4154.5,303.3855,305.4005,313.64225,314.4825,16.417875,20.6318,21.8475,21.3173,314.999998,314.999998,324.999988,324.999988,99.56522857142858,99.5105,99.5677,99.54484285714285,-0.08899999999999997,-0.21950000000000003,-0.19916666666666666,0.018333333333333333,-0.07833333333332604,-0.036666666666668846,1.4529999999999998,1.4925,41.111999999999995,29.9485,37.547,34.2335,66.125,36.777,59.9385,51.4785,62.049,35.704,58.5785,49.817,62.325,35.118,58.579499999999996,49.215,0.040000000000000036,-0.19600000000000017,0.10019,0.10169,0.0,206.305,206.24,203.07666666666665,203.07666666666665,0.0,0.0
4,0.0,0.0,0.0,1.0,1.0,0.0,0.0,1.0,0.0,100.0,1.0,1.1856,26.0,0.0,0.0,0.0,59.999996,0.0,26.0,26.0,26.0,26.0,-0.12488888888888894,0.29790000000000005,0.0039000000000000003,292.679,-2.6214,-2.811875,-1.40595,-1.659125,-262.35,215.805,190.908875,0.0,0.0,0.0,0.0,0.009333333333333305,-5.498166666666667,-5.498166666666667,-0.5589000000000001,-1.1865,-0.1201111111111115,-0.86,65.989,-0.09240000000000001,-0.26155,1.4060000000000006,100.0,1.0,1.0,203.67666666666668,0.0,0.0,0.0,0.0,0.0,0.0,0.0,8633.1,0.0,55.0,5.0,237.53,0.0,0.0,0.0,0.0,0.0,0.0,0.0,0.0,0.20700000000000074,0.20700000000000074,0.0,0.0,0.0,55.0,616.79921,10000.0,85.000001,85.000001,85.000001,85.000001,395.0,0.0,0.0,0.0,1.0,166.665,51.605,51.605,48.507999999999996,48.507999999999996,34.0,-29.669999999999998,16.616,-32.163333333333334,21.685000000000002,0.0,1782.714,1.6099999999999994,100.0,27.827,27.555,43.729,41.507,0.0,0.0,100.0,0.0,0.0,0.0,0.0,3074.5714285714284,2938.5,4157.555555555556,3723.5,302.982,305.51625,314.6985,315.538,16.43075,20.6373,21.8584,21.3262,314.999998,314.999998,324.999988,324.999988,99.56524285714286,99.51053333333333,99.56784285714286,99.54497142857143,-0.10624999999999996,-0.23375,-0.21633333333333335,0.012666666666666666,-0.09499999999999886,-0.05833333333333002,1.5510000000000002,1.597,41.192,29.9835,37.614999999999995,34.2885,66.112,36.817499999999995,59.9805,51.5385,62.037,35.742,58.6175,49.874,62.312,35.1545,58.616,49.2705,0.052000000000000046,-0.20299999999999985,0.10382000000000001,0.103285,0.0,206.675,206.60000000000002,203.67666666666668,203.67666666666668,0.0,0.0
5,0.0,0.0,0.0,1.0,1.0,0.0,0.0,1.0,0.0,100.0,1.0,1.1856,26.0,0.0,0.0,0.0,59.999996,0.0,26.0,26.0,26.0,26.0,-0.14888888888888885,0.30500000000000016,-0.14663333333333334,292.709,-2.6206,-2.79325,-1.43425,-1.677875,-258.98,215.81,190.888625,0.0,0.0,0.0,0.0,0.011299999999999977,-5.498166666666667,-5.498166666666667,-0.5735,0.631,-0.13633333333333342,0.15700000000000003,66.133,-0.1075,-0.256025,1.4239999999999995,100.0,1.0,1.0,204.19333333333333,0.0,0.0,0.0,0.0,0.0,0.0,0.0,8655.0,0.0,55.0,5.0,238.05,1.0,0.0,0.0,0.0,0.0,0.0,0.0,0.0,0.2579999999999991,0.2579999999999991,0.0,0.0,1.0,55.0,616.79921,10000.0,85.000001,85.000001,85.000001,85.000001,395.0,0.0,0.0,0.0,1.0,333.33500000000004,51.254,51.254,49.042,49.042,34.0,-30.4325,16.992,-33.2,21.2225,0.0,1782.662,1.3399999999999999,100.0,28.049,27.585,43.367000000000004,40.775,0.0,0.0,100.0,0.0,0.0,0.0,0.0,3151.714285714286,2934.0,4144.555555555556,3836.4,302.438,305.43,314.78,315.3595,16.443875,20.643,21.869,21.334699999999998,314.999998,314.999998,324.999988,324.999988,99.56525714285715,99.51055,99.568,99.54511428571429,-0.09599999999999997,-0.22224999999999995,-0.23750000000000002,-0.014166666666666666,-0.05666666666667197,-0.046666666666666856,1.5875,1.631,41.274,30.019,37.681,34.341499999999996,66.104,36.8595,60.0185,51.593,62.03,35.7805,58.6535,49.9265,62.303,35.1915,58.649,49.3215,0.02950000000000008,-0.18150000000000022,0.10108500000000001,0.10254,0.0,207.16,207.10500000000002,204.19333333333333,204.19333333333333,0.0,0.0
6,0.0,0.0,0.0,1.0,1.0,0.0,0.0,1.0,0.0,100.0,1.0,1.1856,26.0,0.0,0.0,0.0,59.999996,0.0,26.0,26.0,26.0,26.0,-0.15933333333333333,0.2845,-0.0524,292.374,-2.5703,-2.846,-1.49275,-1.640625,-255.8,215.8125,190.869125,0.0,0.0,0.0,0.0,0.013166666666666549,-5.498166666666667,-5.498166666666667,-0.553,0.3435,-0.13544444444444448,0.15799999999999992,66.272,-0.1131,-0.238375,1.2240000000000002,100.0,1.0,1.0,204.45,0.0,0.0,0.0,0.0,0.0,0.0,0.0,8665.9,0.0,55.0,5.0,238.55,0.0,0.0,0.0,0.0,0.0,0.0,0.0,0.0,0.30600000000000094,0.30600000000000094,0.0,0.0,0.0,55.0,616.79921,10000.0,85.000001,85.000001,85.000001,85.000001,395.0,0.0,0.0,0.0,1.0,333.33500000000004,51.59,51.59,48.065,48.065,34.0,-29.33,16.668,-37.19333333333333,22.3425,0.0,1782.613,1.3200000000000003,100.0,27.957,27.501,43.737,41.046,0.0,0.0,100.0,0.0,0.0,0.0,0.0,3064.714285714286,2861.9,4395.444444444444,4059.1000000000004,302.7345,305.60525,314.16425,314.78975,16.456125,20.6484,21.8791,21.3429,314.999998,314.999998,324.999988,324.999988,99.56527142857144,99.51058333333333,99.56812857142857,99.54524285714285,-0.10224999999999995,-0.23075,-0.2425,-0.017333333333333333,-0.04333333333332945,-0.046666666666666856,1.509,1.556,41.351,30.052500000000002,37.744,34.3935,66.09700000000001,36.8995,60.0585,51.65,62.024,35.817499999999995,58.691,49.9805,62.294,35.2265,58.6835,49.3745,0.02499999999999991,-0.17500000000000027,0.106145,0.10139500000000001,0.0,207.59,207.525,204.45,204.45,0.0,0.0
7,0.0,0.0,0.0,1.0,1.0,0.0,0.0,1.0,0.0,100.0,1.0,1.1856,26.0,0.0,0.0,0.0,59.999996,0.0,26.0,26.0,26.0,26.0,-0.11711111111111105,0.30090000000000017,0.13743333333333332,292.374,-2.5394,-2.847625,-1.452,-1.6912500000000001,-252.42,215.81,190.84875,0.0,0.0,0.0,0.0,0.015133333333333332,-5.498166666666667,-5.498166666666667,-0.5617,-0.14949999999999997,-0.1280000000000001,0.14400000000000013,66.416,-0.1126,-0.251825,1.016,100.0,1.0,1.0,204.99333333333334,0.0,0.0,0.0,0.0,0.0,0.0,0.0,8689.0,0.0,55.0,5.0,239.07,1.0,0.0,0.0,0.0,0.0,0.0,0.0,0.0,0.3569999999999993,0.3569999999999993,0.0,0.0,1.0,55.0,616.79921,10000.0,85.000001,85.000001,85.000001,85.000001,395.0,0.0,0.0,0.0,1.0,166.665,51.208,51.208,48.538,48.538,34.0,-29.505,18.938,-33.123333333333335,22.512500000000003,0.0,1782.563,0.8300000000000018,100.0,27.94,27.406,43.914,41.367000000000004,0.0,0.0,100.0,0.0,0.0,0.0,0.0,3212.714285714286,3044.4,4114.666666666667,3850.7,302.391,305.1695,314.79575,315.22325,16.469125,20.6541,21.8898,21.3518,314.999998,314.999998,324.999988,324.999988,99.56528571428571,99.5106,99.56827142857144,99.54538571428571,-0.07924999999999993,-0.20475,-0.22933333333333336,0.001,-0.07833333333332604,-0.06333333333333258,1.532,1.5815000000000001,41.432,30.088,37.811,34.448499999999996,66.089,36.941,60.098,51.7095,62.016999999999996,35.8555,58.728,50.0375,62.285,35.263,58.7175,49.43,-0.006999999999999895,-0.14550000000000018,0.107255,0.11635500000000001,0.0,208.04000000000002,207.98000000000002,204.99333333333334,204.99333333333334,0.0,0.0
8,0.0,0.0,0.0,1.0,1.0,0.0,0.0,1.0,0.0,100.0,1.0,1.1856,26.0,0.0,0.0,0.0,59.999996,0.0,26.0,26.0,26.0,26.0,-0.1022222222222221,0.2862,0.0716,292.526,-2.6142000000000003,-2.788875,-1.4268,-1.68675,-248.82999999999998,215.805,190.826875,0.0,0.0,0.0,0.0,0.017199999999999993,-5.498166666666667,-5.498166666666667,-0.5604,-0.45999999999999996,-0.11900000000000022,-0.020000000000000018,66.569,-0.10350000000000001,-0.2439,0.6200000000000001,100.0,1.0,1.0,205.42333333333335,0.0,0.0,0.0,0.0,0.0,0.0,0.0,8707.2,0.0,55.0,5.0,239.62333333333333,0.0,0.0,0.0,0.0,0.0,0.0,0.0,0.0,0.41100000000000136,0.41100000000000136,0.0,0.0,0.0,55.0,616.79921,10000.0,85.000001,85.000001,85.000001,85.000001,395.0,0.0,0.0,0.0,1.0,166.665,51.758,51.758,48.05,48.05,34.0,-27.58,19.154,-32.0,23.66,0.0,1782.51,0.6600000000000001,100.0,27.716,27.268,44.002,41.514,0.0,0.0,100.0,0.0,0.0,0.0,0.0,3040.285714285714,3078.9,4120.666666666667,3903.9,303.129,305.1285,314.75725,315.0925,16.48275,20.6601,21.9012,21.3611,314.999998,314.999998,324.999988,324.999988,99.56528571428571,99.51063333333333,99.56844285714286,99.54551428571429,-0.06274999999999997,-0.1915,-0.2115,0.014666666666666666,-0.07166666666666544,-0.05833333333333002,1.5335,1.538,41.516999999999996,30.125999999999998,37.882,34.5065,66.076,36.984,60.141,51.7715,62.004999999999995,35.8955,58.768,50.097,62.271,35.3015,58.7545,49.4885,-0.02499999999999991,-0.133,0.10724500000000001,0.10886000000000001,0.0,208.48000000000002,208.47,205.42333333333335,205.42333333333335,0.0,0.0
9,0.0,0.0,0.0,1.0,1.0,0.0,0.0,1.0,0.0,100.0,1.0,1.1856,26.0,0.0,0.0,0.0,59.999996,0.0,26.0,26.0,26.0,26.0,-0.07544444444444443,0.2925,0.1429666666666667,292.191,-2.539,-2.79975,-1.4793,-1.6425,-245.63,215.7975,190.80725,0.0,0.0,0.0,0.0,0.019066666666666565,-5.498166666666667,-5.498166666666667,-0.557,0.24349999999999994,-0.12666666666666648,0.13000000000000012,66.70400000000001,-0.08700000000000001,-0.23475000000000001,0.3160000000000007,100.0,1.0,1.0,205.85666666666668,0.0,0.0,0.0,0.0,0.0,0.0,0.0,8725.5,0.0,55.0,5.0,240.10666666666668,1.0,0.0,0.0,0.0,0.0,0.0,0.0,0.0,0.45899999999999963,0.45899999999999963,0.0,0.0,1.0,55.0,616.79921,10000.0,85.000001,85.000001,85.000001,85.000001,395.0,0.0,0.0,0.0,1.0,166.665,51.132,51.132,48.431,48.431,34.0,-28.5325,20.502000000000002,-31.936666666666664,24.259999999999998,0.0,1782.462,0.495000000000001,100.0,27.859,27.393,43.835,41.537,0.0,0.0,100.0,0.0,0.0,0.0,0.0,3249.0,3109.9,4179.777777777777,3982.4,302.282,305.01275,314.71675,314.961,16.495,20.6656,21.9112,21.3693,314.999998,314.999998,324.999988,324.999988,99.5653,99.51065,99.56857142857143,99.54565714285714,-0.04749999999999999,-0.16899999999999993,-0.18866666666666665,0.028833333333333332,-0.0799999999999983,-0.051666666666669414,1.5404999999999998,1.547,41.594,30.1605,37.945,34.558,66.066,37.0225,60.1775,51.826,61.995000000000005,35.931,58.802,50.149,62.26,35.335,58.786,49.539,-0.038000000000000034,-0.11500000000000021,0.10162,0.10535000000000001,0.0,208.905,208.91,205.85666666666668,205.85666666666668,0.0,0.0
10,0.0,0.0,0.0,1.0,1.0,0.0,0.0,1.0,0.0,100.0,1.0,1.1856,26.0,0.0,0.0,0.0,59.999996,0.0,26.0,26.0,26.0,26.0,-0.05522222222222217,0.2876000000000001,0.08,292.206,-2.6027,-2.771375,-1.44835,-1.62125,-242.42000000000002,215.79000000000002,190.78775,0.0,0.0,0.0,0.0,0.02093333333333336,-5.498166666666667,-5.498166666666667,-0.545,-0.5760000000000001,-0.09388888888888891,1.145,66.84100000000001,-0.06430000000000001,-0.23440000000000003,0.05600000000000005,100.0,1.0,1.0,206.15333333333334,0.0,0.0,0.0,0.0,0.0,0.0,0.0,8738.1,0.0,55.0,5.0,240.60000000000002,0.0,0.0,0.0,0.0,0.0,0.0,1.0,0.0,0.5069999999999979,0.5069999999999979,0.0,0.0,0.0,55.0,616.79921,10000.0,85.000001,85.000001,85.000001,85.000001,395.0,0.0,0.0,0.0,1.0,166.665,51.88,51.88,47.653,47.653,34.0,-25.7975,20.044,-32.06666666666666,26.4575,0.0,1782.414,0.46999999999999886,100.0,27.762,27.307,44.147999999999996,41.996,0.0,0.0,100.0,0.0,0.0,0.0,0.0,2998.5714285714284,3027.9,4265.222222222223,4129.2,303.22,305.325,314.40625,314.5585,16.507125,20.6711,21.9214,21.3777,314.999998,314.999998,324.999988,324.999988,99.56531428571428,99.51066666666667,99.56871428571428,99.54578571428571,-0.028249999999999997,-0.15749999999999997,-0.17616666666666667,0.049833333333333334,-0.05666666666667197,-0.05333333333332746,1.4859999999999998,1.4849999999999999,41.67,30.194,38.009,34.611,66.053,37.059,60.216499999999996,51.8835,61.983999999999995,35.965,58.838499999999996,50.204,62.247,35.3675,58.8195,49.593,-0.04149999999999987,-0.10899999999999999,0.10135500000000001,0.11039000000000002,0.0,209.29500000000002,209.335,206.15333333333334,206.15333333333334,0.0,0.0
11,0.0,0.0,0.0,1.0,1.0,0.0,0.0,1.0,0.0,100.0,1.0,1.1856,26.0,0.0,0.0,0.0,59.999996,0.0,26.0,26.0,26.0,26.0,-0.03066666666666662,0.2816000000000001,-0.1844666666666667,292.603,-2.6138,-2.754,-1.5079,-1.591375,-239.01,215.78,190.766875,0.0,0.0,0.0,0.0,0.022599999999999953,-5.498166666666667,-5.498166666666667,-0.5740000000000001,-0.10400000000000009,-0.06622222222222218,-0.135,66.981,-0.0465,-0.25145,-0.036000000000000476,100.0,1.0,1.0,206.7866666666667,0.0,0.0,0.0,0.0,0.0,0.0,0.0,8764.9,0.0,55.0,5.0,241.10333333333335,1.0,0.0,0.0,0.0,0.0,0.0,1.0,0.0,0.5579999999999998,0.5579999999999998,0.0,0.0,1.0,55.0,616.79921,10000.0,85.000001,85.000001,85.000001,85.000001,395.0,0.0,0.0,0.0,1.0,333.33500000000004,51.59,51.59,48.615,48.615,34.0,-25.3025,21.060000000000002,-28.213333333333335,24.27,0.0,1782.361,0.45500000000000185,100.0,27.746,27.619,43.653,42.01,0.0,0.0,100.0,0.0,0.0,0.0,0.0,2965.5714285714284,3078.9,3936.3333333333335,3858.8,303.2885,304.96575,315.3095,315.29375,16.51975,20.6769,21.932,21.386499999999998,314.999998,314.999998,324.999988,324.999988,99.56531428571428,99.51068333333333,99.56885714285714,99.54591428571429,-0.020000000000000018,-0.14425,-0.15533333333333335,0.06716666666666667,-0.060000000000002274,-0.03833333333332689,1.605,1.612,41.748000000000005,30.231,38.075,34.666,66.036,37.098,60.251999999999995,51.9415,61.969,36.001,58.8715,50.2595,62.230000000000004,35.402,58.8495,49.6475,-0.03400000000000003,-0.11399999999999988,0.10559,0.10459500000000001,0.0,209.715,209.74,206.7866666666667,206.7866666666667,0.0,0.0
12,0.0,0.0,0.0,1.0,1.0,0.0,0.0,1.0,0.0,100.0,1.0,1.1856,26.0,0.0,0.0,0.0,59.999996,0.0,26.0,26.0,26.0,26.0,-0.016888888888888842,0.29690000000000016,0.11886666666666668,291.962,-2.6316,-2.76075,-1.47815,-1.620875,-235.59,215.76749999999998,190.744875,0.0,0.0,0.0,0.0,0.025466666666666526,-5.498166666666667,-5.498166666666667,-0.5686,0.05999999999999994,-0.07633333333333336,0.11699999999999999,67.124,-0.030000000000000002,-0.23175,-0.11000000000000032,100.0,1.0,1.0,207.07999999999998,0.0,0.0,0.0,0.0,0.0,0.0,0.0,8777.4,0.0,55.0,5.0,241.61666666666667,0.0,0.0,0.0,0.0,0.0,0.0,1.0,0.0,0.6089999999999982,0.6089999999999982,0.0,0.0,0.0,55.0,616.79921,10000.0,85.000001,85.000001,85.000001,85.000001,395.0,0.0,0.0,0.0,1.0,166.665,51.056,51.056,47.699,47.699,34.0,-25.8975,23.299999999999997,-30.316666666666663,27.3325,0.0,1782.312,1.129999999999999,100.0,27.754,27.845,43.644,42.015,0.0,0.0,100.0,0.0,0.0,0.0,0.0,3102.714285714286,3248.8,4261.444444444444,4060.5,302.867,304.59,314.47975,314.7995,16.5325,20.6829,21.9426,21.3953,314.999998,314.999998,324.999988,324.999988,99.56531428571428,99.5107,99.56901428571429,99.54605714285714,0.0004999999999999449,-0.12275000000000003,-0.14016666666666666,0.08183333333333333,-0.06833333333332803,-0.06666666666666998,1.5164999999999997,1.5175,41.828,30.2685,38.141,34.721000000000004,66.02,37.1375,60.2905,51.9995,61.954,36.0375,58.9075,50.3155,62.213,35.437,58.8825,49.702,-0.025499999999999856,-0.1280000000000001,0.10691,0.10583000000000001,0.0,210.185,210.245,207.07999999999998,207.07999999999998,0.0,0.0
13,0.0,0.0,0.0,1.0,1.0,0.0,0.0,1.0,0.0,100.0,1.0,1.1856,26.0,0.0,0.0,0.0,59.999996,0.0,26.0,26.0,26.0,26.0,0.017000000000000126,0.29190000000000005,0.1429666666666667,291.626,-2.6105,-2.7655000000000003,-1.5112999999999999,-1.624125,-232.36,215.7575,190.7245,0.0,0.0,0.0,0.0,0.026766666666666605,-5.498166666666667,-5.498166666666667,-0.5602,-0.28800000000000003,-0.07244444444444431,0.5680000000000001,67.258,-0.0233,-0.239875,-0.18399999999999928,100.0,1.0,1.0,207.42333333333335,0.0,0.0,0.0,0.0,0.0,0.0,0.0,8791.9,0.0,55.0,5.0,242.10000000000002,1.0,0.0,0.0,0.0,0.0,0.0,1.0,0.0,0.657,0.657,0.0,0.0,1.0,55.0,616.79921,10000.0,85.000001,85.000001,85.000001,85.000001,395.0,0.0,0.0,0.0,1.0,333.33500000000004,50.949,50.949,47.485,47.485,34.0,-24.81,24.006,-29.83,29.51,0.0,1782.263,0.34499999999999886,100.0,27.848,28.02,43.977000000000004,42.504,0.0,0.0,100.0,0.0,0.0,0.0,0.0,3137.4285714285716,3200.8,4259.0,4180.1,302.722,304.73525,314.4425,314.457,16.5445,20.6886,21.9528,21.4038,314.999998,314.999998,324.999988,324.999988,99.56532857142857,99.51071666666667,99.56914285714285,99.5462,0.03025000000000011,-0.09899999999999998,-0.12,0.09933333333333333,-0.0833333333333286,-0.061666666666667425,1.5019999999999998,1.479,41.903,30.3035,38.205,34.774,66.007,37.174,60.328,52.057,61.943,36.071,58.942499999999995,50.3705,62.2,35.4695,58.914500000000004,49.756,-0.0605,-0.09399999999999986,0.09878500000000001,0.11379500000000001,0.0,210.60000000000002,210.625,207.42333333333335,207.42333333333335,0.0,0.0
14,0.0,0.0,0.0,1.0,1.0,0.0,0.0,1.0,0.0,100.0,1.0,1.1856,26.0,0.0,0.0,0.0,59.999996,0.0,26.0,26.0,26.0,26.0,0.015111111111111075,0.28049999999999997,-0.14906666666666668,291.977,-2.6404,-2.761625,-1.5175,-1.6071250000000001,-228.93,215.745,190.703375,0.0,0.0,0.0,0.0,0.028766666666666607,-5.498166666666667,-5.498166666666667,-0.5667,0.14700000000000002,-0.047222222222222054,0.31600000000000006,67.398,-0.011600000000000001,-0.25172500000000003,-0.23599999999999977,100.0,1.0,1.0,207.93666666666667,0.0,0.0,0.0,0.0,0.0,0.0,0.0,8813.7,0.0,55.0,5.0,242.60333333333335,0.0,0.0,0.0,0.0,0.0,0.0,1.0,0.0,0.7079999999999984,0.7079999999999984,0.0,0.0,0.0,55.0,616.79921,10000.0,85.000001,85.000001,85.000001,85.000001,395.0,0.0,0.0,0.0,1.0,166.665,51.254,51.254,47.76,47.76,34.0,-23.7125,22.776,-27.966666666666665,28.2075,0.0,1782.213,0.28000000000000114,100.0,27.818,28.204,43.841,42.647,0.0,0.0,100.0,0.0,0.0,0.0,0.0,2940.714285714286,3116.1,4077.3333333333335,4055.9,303.2935,304.7575,314.93575,314.79825,16.55725,20.6946,21.9634,21.4128,314.999998,314.999998,324.999988,324.999988,99.56532857142857,99.51073333333333,99.56928571428571,99.54632857142857,0.023249999999999993,-0.11599999999999999,-0.11750000000000001,0.10566666666666667,-0.04999999999999716,-0.03499999999999659,1.553,1.549,41.983000000000004,30.341,38.272,34.83,65.992,37.2125,60.3645,52.1175,61.929,36.1065,58.9765,50.4285,62.184,35.5035,58.945499999999996,49.8125,-0.056499999999999995,-0.10000000000000009,0.09734000000000001,0.11087000000000001,0.0,210.995,211.055,207.93666666666667,207.93666666666667,0.0,0.0
15,0.0,0.0,0.0,1.0,1.0,0.0,0.0,1.0,0.0,100.0,1.0,1.1856,26.0,0.0,0.0,0.0,59.999996,0.0,26.0,26.0,26.0,26.0,0.02344444444444438,0.2833000000000001,-0.12266666666666667,291.931,-2.6399,-2.7338750000000003,-1.5324499999999999,-1.6163750000000001,-225.69,215.73250000000002,190.683,0.0,0.0,0.0,0.0,0.03066666666666651,-5.498166666666667,-5.498166666666667,-0.5596,0.43499999999999994,-0.03022222222222215,0.02300000000000013,67.529,-0.0037,-0.23355,-0.27199999999999935,100.0,1.0,1.0,208.31666666666666,0.0,0.0,0.0,0.0,0.0,0.0,0.0,8829.7,0.0,55.0,5.0,243.07666666666665,1.0,0.0,0.0,0.0,0.0,0.0,1.0,0.0,0.7560000000000002,0.7560000000000002,0.0,0.0,1.0,55.0,616.79921,10000.0,85.000001,85.000001,85.000001,85.000001,395.0,0.0,0.0,0.0,1.0,333.33500000000004,51.346000000000004,51.346000000000004,47.714,47.714,34.0,-22.974999999999998,22.966,-28.233333333333334,29.8875,0.0,1782.164,0.3000000000000007,100.0,27.773,28.207,43.667,42.7,0.0,0.0,100.0,0.0,0.0,0.0,0.0,2898.5714285714284,3101.7,4111.0,4177.9,303.4685,304.795,314.88275,314.471,16.569125,20.7002,21.973399999999998,21.4212,314.999998,314.999998,324.999988,324.999988,99.56532857142857,99.51075,99.56942857142857,99.54647142857142,0.03200000000000003,-0.10275000000000001,-0.1115,0.11316666666666668,-0.04833333333333201,-0.045000000000001705,1.5284999999999997,1.5314999999999999,42.057,30.3765,38.334,34.8825,65.977,37.2475,60.397999999999996,52.174,61.915,36.138999999999996,59.007999999999996,50.483000000000004,62.169,35.535,58.974000000000004,49.866,-0.05449999999999999,-0.10349999999999993,0.10333,0.10543500000000001,0.0,211.425,211.485,208.31666666666666,208.31666666666666,0.0,0.0
16,0.0,0.0,0.0,1.0,1.0,0.0,0.0,1.0,0.0,100.0,1.0,1.1856,26.0,0.0,0.0,0.0,59.999996,0.0,26.0,26.0,26.0,26.0,0.02388888888888885,0.2711000000000001,0.08850000000000001,291.855,-2.7014,-2.682625,-1.5110000000000001,-1.6145,-222.24,215.7225,190.661,0.0,0.0,0.0,0.0,0.03266666666666651,-5.498166666666667,-5.498166666666667,-0.5756,-0.764,-0.039000000000000146,-0.346,67.669,-0.0001,-0.243125,-0.23399999999999999,100.0,1.0,1.0,208.73666666666668,0.0,0.0,0.0,0.0,0.0,0.0,0.0,8847.6,0.0,55.0,5.0,243.58333333333334,0.0,0.0,0.0,0.0,0.0,0.0,1.0,0.0,0.8069999999999986,0.8069999999999986,0.0,0.0,0.0,55.0,616.79921,10000.0,85.000001,85.000001,85.000001,85.000001,395.0,0.0,0.0,0.0,1.0,166.665,51.147,51.147,47.44,47.44,34.0,-24.4075,24.296,-27.59,28.745,0.0,1782.114,0.39000000000000057,100.0,27.576999999999998,28.114,43.935,42.849000000000004,0.0,0.0,100.0,0.0,0.0,0.0,0.0,3023.857142857143,3309.6,4094.777777777778,4017.2,303.277,304.42,314.875,314.8295,16.581375,20.7063,21.9842,21.4302,314.999998,314.999998,324.999988,324.999988,99.56534285714285,99.51075,99.56958571428571,99.54661428571428,0.031500000000000083,-0.09524999999999995,-0.1055,0.116,-0.07000000000000028,-0.03999999999999915,1.5175,1.513,42.134,30.4145,38.400999999999996,34.9385,65.958,37.2855,60.436,52.234,61.897999999999996,36.1745,59.0435,50.5405,62.15,35.5685,59.0065,49.922,-0.04849999999999999,-0.10749999999999993,0.10874,0.10202000000000001,0.0,211.835,211.89499999999998,208.73666666666668,208.73666666666668,0.0,0.0
17,0.0,0.0,0.0,1.0,1.0,0.0,0.0,1.0,0.0,100.0,1.0,1.1856,26.0,0.0,0.0,0.0,59.999996,0.0,26.0,26.0,26.0,26.0,0.008777777777777773,0.29190000000000005,0.13770000000000002,291.428,-2.6545,-2.674625,-1.5423,-1.5865,-218.59,215.7125,190.63725,0.0,0.0,0.0,0.0,0.03479999999999994,-5.498166666666667,-5.498166666666667,-0.5696,0.06999999999999995,-0.07055555555555548,-0.10099999999999998,67.816,0.0011,-0.2321,-0.09399999999999942,100.0,1.0,1.0,209.13666666666666,0.0,0.0,0.0,0.0,0.0,0.0,0.0,8864.6,0.0,55.0,5.0,244.11,1.0,0.0,0.0,0.0,0.0,0.0,1.0,0.0,0.8610000000000007,0.8610000000000007,0.0,0.0,1.0,55.0,616.79921,10000.0,85.000001,85.000001,85.000001,85.000001,395.0,0.0,0.0,0.0,1.0,166.665,50.766,50.766,47.15,47.15,34.0,-25.4675,23.096,-30.876666666666665,29.35,0.0,1782.06,0.4200000000000017,100.0,27.854,28.281,43.902,42.802,0.0,0.0,100.0,0.0,0.0,0.0,0.0,3179.857142857143,3236.1,4412.777777777777,4151.5,302.6715,304.63975,314.19375,314.59075,16.59475,20.7128,21.9955,21.4396,314.999998,314.999998,324.999988,324.999988,99.56534285714285,99.51076666666667,99.56972857142857,99.54675714285715,0.031749999999999945,-0.10675000000000001,-0.1095,0.11366666666666668,-0.07333333333333059,-0.051666666666669414,1.4994999999999998,1.5,42.217,30.455,38.472,34.9975,65.943,37.326499999999996,60.475,52.296,61.885,36.2125,59.079499999999996,50.6005,62.134,35.605000000000004,59.039500000000004,49.9805,-0.046499999999999986,-0.11949999999999994,0.11159000000000001,0.10663,0.0,212.335,212.37,209.13666666666666,209.13666666666666,0.0,0.0
18,0.0,0.0,0.0,1.0,1.0,0.0,0.0,1.0,0.0,100.0,1.0,1.1856,26.0,0.0,0.0,0.0,59.999996,0.0,26.0,26.0,26.0,26.0,0.0,0.27180000000000004,-0.10563333333333333,291.489,-2.6793,-2.6494999999999997,-1.55125,-1.535875,-215.53,215.7025,190.617625,0.0,0.0,0.0,0.0,0.036566666666666525,-5.498166666666667,-5.498166666666667,-0.5784,-0.19799999999999995,-0.052000000000000046,0.4810000000000001,67.938,-0.0025,-0.246625,-0.07399999999999984,100.0,1.0,1.0,209.51999999999998,0.0,0.0,0.0,0.0,0.0,0.0,0.0,8880.8,0.0,55.0,5.0,244.55,0.0,0.0,0.0,0.0,0.0,0.0,1.0,0.0,0.9059999999999988,0.9059999999999988,0.0,0.0,0.0,55.0,616.79921,10000.0,85.000001,85.000001,85.000001,85.000001,395.0,0.0,0.0,0.0,1.0,166.665,50.781,50.781,47.195,47.195,34.0,-24.759999999999998,23.094,-29.86,28.435,0.0,1782.015,0.375,100.0,27.933,28.38,44.077,42.979,0.0,0.0,100.0,0.0,0.0,0.0,0.0,3059.5714285714284,3273.6,4235.666666666667,4152.0,303.0,304.449,314.5985,314.59875,16.60575,20.7181,22.005,21.4476,314.999998,314.999998,324.999988,324.999988,99.56535714285714,99.51078333333334,99.56985714285715,99.54688571428571,0.03049999999999997,-0.11024999999999996,-0.11750000000000001,0.11116666666666668,-0.051666666666669414,-0.04333333333332945,1.529,1.5195,42.286,30.488,38.531,35.047,65.929,37.359,60.509,52.3495,61.872,36.243,59.111,50.6515,62.119,35.6345,59.068,50.0305,-0.05449999999999999,-0.11350000000000016,0.109035,0.10423,0.0,212.675,212.71,209.51999999999998,209.51999999999998,0.0,0.0
19,0.0,0.0,0.0,1.0,1.0,0.0,0.0,1.0,0.0,100.0,1.0,1.1856,26.0,0.0,0.0,0.0,59.999996,0.0,26.0,26.0,26.0,26.0,0.017555555555555546,0.28190000000000004,-0.028,291.092,-2.5955,-2.752625,-1.48015,-1.6615,-211.86,215.6925,190.593625,0.0,0.0,0.0,0.0,0.03869999999999996,-5.498166666666667,-5.498166666666667,-0.5682,0.946,-0.04911111111111133,-0.21199999999999997,68.084,-0.0054,-0.23665,-0.05999999999999961,100.0,1.0,1.0,209.92666666666668,0.0,0.0,0.0,0.0,0.0,0.0,0.0,8898.0,0.0,55.0,5.0,245.07333333333332,1.0,0.0,0.0,0.0,0.0,0.0,1.0,0.0,0.9600000000000009,0.9600000000000009,0.0,0.0,1.0,55.0,616.79921,10000.0,85.000001,85.000001,85.000001,85.000001,395.0,0.0,0.0,0.0,1.0,166.665,50.43,50.43,47.104,47.104,34.0,-23.9775,23.606,-29.036666666666665,31.655,0.0,1781.961,0.40500000000000114,100.0,28.337,28.820999999999998,43.943,43.077,0.0,0.0,100.0,0.0,0.0,0.0,0.0,3042.285714285714,3150.0,4319.888888888889,4304.1,302.87,304.5785,314.39375,314.11975,16.619125,20.7247,22.0162,21.4571,314.999998,314.999998,324.999988,324.999988,99.56535714285714,99.5108,99.57001428571428,99.54702857142857,0.03249999999999997,-0.10424999999999995,-0.10483333333333333,0.108,-0.041666666666671404,-0.03999999999999915,1.4855,1.487,42.370000000000005,30.529,38.601,35.1065,65.91499999999999,37.4015,60.546,52.4135,61.858999999999995,36.2825,59.146,50.713,62.104,35.672,59.1,50.091,-0.04699999999999993,-0.11249999999999982,0.09966000000000001,0.10709500000000001,0.0,213.155,213.21,209.92666666666668,209.92666666666668,0.0,0.0
20,0.0,0.0,0.0,1.0,1.0,0.0,0.0,1.0,0.0,100.0,1.0,1.1856,26.0,0.0,0.0,0.0,59.999996,0.0,26.0,26.0,26.0,26.0,0.017444444444444374,0.26,-0.04256666666666667,291.397,-2.6909,-2.705375,-1.49105,-1.6445,-208.59,215.6825,190.572625,0.0,0.0,0.0,0.0,0.04059999999999997,-5.498166666666667,-5.498166666666667,-0.5736,-0.8625,-0.04644444444444451,-0.15900000000000003,68.214,-0.0076,-0.24785000000000001,-0.03200000000000003,100.0,1.0,1.0,210.29333333333335,0.0,0.0,0.0,0.0,0.0,0.0,0.0,8913.5,0.0,55.0,5.0,245.54333333333335,0.0,0.0,0.0,0.0,0.0,0.0,0.0,0.0,1.0079999999999991,1.0079999999999991,0.0,0.0,0.0,55.0,616.79921,10000.0,85.000001,85.000001,85.000001,85.000001,395.0,0.0,0.0,0.0,1.0,333.33500000000004,51.163,51.163,46.707,46.707,34.0,-23.7225,22.194000000000003,-29.713333333333335,30.2325,0.0,1781.912,0.4299999999999997,100.0,28.042,28.579,44.477000000000004,43.462,0.0,0.0,100.0,0.0,0.0,0.0,0.0,2921.4285714285716,3097.9,4252.777777777777,4113.3,303.579,304.922,314.494,314.5555,16.63075,20.7303,22.0265,21.4657,314.999998,314.999998,324.999988,324.999988,99.56535714285714,99.51081666666667,99.57015714285714,99.54717142857143,0.025500000000000078,-0.11175000000000002,-0.122,0.11566666666666667,-0.03999999999999915,-0.03333333333333144,1.4745,1.4725000000000001,42.442,30.564500000000002,38.666,35.1605,65.89699999999999,37.437,60.584,52.471000000000004,61.843,36.315,59.181,50.7685,62.087,35.7035,59.132,50.144999999999996,-0.04149999999999987,-0.11350000000000016,0.10885500000000001,0.11409500000000002,0.0,213.525,213.54000000000002,210.29333333333335,210.29333333333335,0.0,0.0
21,0.0,0.0,0.0,1.0,1.0,0.0,0.0,1.0,0.0,100.0,1.0,1.1856,26.0,0.0,0.0,0.0,59.999996,0.0,26.0,26.0,26.0,26.0,0.0024444444444444713,0.27849999999999997,0.10366666666666668,291.611,-2.6568,-2.7175000000000002,-1.5272999999999999,-1.606125,-205.11,215.6725,190.5495,0.0,0.0,0.0,0.0,0.0426333333333333,-5.498166666666667,-5.498166666666667,-0.5981000000000001,0.055499999999999994,-0.06633333333333358,-0.375,68.34700000000001,-0.0091,-0.2461,-0.040000000000000036,100.0,1.0,1.0,210.87666666666667,0.0,0.0,0.0,0.0,0.0,0.0,0.0,8938.4,0.0,55.0,5.0,246.01999999999998,1.0,0.0,0.0,0.0,0.0,0.0,0.0,0.0,1.059000000000001,1.059000000000001,0.0,0.0,1.0,55.0,616.79921,10000.0,85.000001,85.000001,85.000001,85.000001,395.0,0.0,0.0,0.0,1.0,166.665,50.644,50.644,47.668,47.668,34.0,-25.715,23.596,-28.3,27.3275,0.0,1781.862,0.4200000000000017,100.0,28.035,28.428,43.946,42.975,0.0,0.0,100.0,0.0,0.0,0.0,0.0,3164.4285714285716,3262.4,4158.444444444444,3926.5,302.7775,304.57675,314.802,315.15275,16.643250000000002,20.7365,22.037,21.4745,314.999998,314.999998,324.999988,324.999988,99.56537142857142,99.51083333333334,99.5703,99.54731428571428,0.02300000000000013,-0.10975000000000001,-0.1105,0.11116666666666668,-0.07166666666666544,-0.04833333333333201,1.5724999999999998,1.562,42.519999999999996,30.603,38.730999999999995,35.2155,65.882,37.476,60.6175,52.5275,61.829,36.351,59.2125,50.8225,62.071,35.7385,59.16,50.198,-0.04349999999999987,-0.11699999999999999,0.09972,0.11049,0.0,213.965,214.0,210.87666666666667,210.87666666666667,0.0,0.0
22,0.0,0.0,0.0,1.0,1.0,0.0,0.0,1.0,0.0,100.0,1.0,1.1856,26.0,0.0,0.0,0.0,59.999996,0.0,26.0,26.0,26.0,26.0,0.01344444444444437,0.2795000000000001,0.10773333333333333,291.306,-2.5865,-2.77325,-1.54715,-1.593625,-201.82,215.66500000000002,190.52725,0.0,0.0,0.0,0.0,0.044533333333333314,-5.498166666666667,-5.498166666666667,-0.5789000000000001,-0.04499999999999993,-0.058222222222222175,0.587,68.476,-0.0118,-0.228075,-0.05600000000000005,100.0,1.0,1.0,211.12333333333333,0.0,0.0,0.0,0.0,0.0,0.0,0.0,8948.8,0.0,55.0,5.0,246.48666666666668,0.0,0.0,0.0,0.0,0.0,0.0,0.0,0.0,1.1069999999999993,1.1069999999999993,0.0,0.0,0.0,55.0,616.79921,10000.0,85.000001,85.000001,85.000001,85.000001,395.0,0.0,0.0,0.0,1.0,333.33500000000004,50.995,50.995,46.738,46.738,34.0,-22.9775,23.394,-30.756666666666664,29.9125,0.0,1781.812,0.33000000000000185,100.0,28.111,28.475,44.302,43.144999999999996,0.0,0.0,100.0,0.0,0.0,0.0,0.0,2971.142857142857,3169.9,4335.0,4235.4,303.336,304.76975,314.339,314.39975,16.655,20.7423,22.0472,21.483,314.999998,314.999998,324.999988,324.999988,99.56537142857142,99.51083333333334,99.57044285714285,99.54744285714285,0.035250000000000004,-0.11124999999999996,-0.11416666666666668,0.107,-0.06833333333332803,-0.054999999999999716,1.4739999999999998,1.4825,42.594,30.639,38.795,35.2685,65.868,37.5125,60.653999999999996,52.5835,61.816,36.385,59.2465,50.8765,62.056,35.771,59.1915,50.2505,-0.05449999999999999,-0.10650000000000004,0.10469500000000001,0.10731500000000001,0.0,214.37,214.405,211.12333333333333,211.12333333333333,0.0,0.0
23,0.0,0.0,0.0,1.0,1.0,0.0,0.0,1.0,0.0,100.0,1.0,1.1856,26.0,0.0,0.0,0.0,59.999996,0.0,26.0,26.0,26.0,26.0,0.0003333333333332966,0.25070000000000014,-0.19253333333333333,291.275,-2.6269,-2.7125000000000004,-1.6069,-1.56325,-198.32999999999998,215.655,190.503875,0.0,0.0,0.0,0.0,0.046566666666666534,-5.498166666666667,-5.498166666666667,-0.5921000000000001,-0.02400000000000002,-0.053999999999999826,-0.21299999999999997,68.61,-0.009600000000000001,-0.251,-0.09399999999999942,100.0,1.0,1.0,211.63333333333333,0.0,0.0,0.0,0.0,0.0,0.0,0.0,8970.4,0.0,55.0,5.0,246.97,1.0,0.0,0.0,0.0,0.0,0.0,0.0,0.0,1.1580000000000013,1.1580000000000013,0.0,0.0,1.0,55.0,616.79921,10000.0,85.000001,85.000001,85.000001,85.000001,395.0,0.0,0.0,0.0,1.0,333.33500000000004,50.385,50.385,47.501,47.501,34.0,-25.105,22.904,-29.896666666666665,27.265,0.0,1781.762,0.38500000000000156,100.0,28.27,28.688,44.382,43.423,0.0,0.0,100.0,0.0,0.0,0.0,0.0,3137.0,3162.1,4133.888888888889,3994.9,302.5945,304.68425,314.92375,315.0155,16.6675,20.7484,22.0579,21.4921,314.999998,314.999998,324.999988,324.999988,99.56537142857142,99.51085,99.5706,99.54758571428572,0.03200000000000003,-0.11049999999999993,-0.123,0.10816666666666667,-0.03833333333332689,-0.046666666666666856,1.5394999999999999,1.536,42.672,30.677500000000002,38.861999999999995,35.3255,65.852,37.5515,60.6905,52.644,61.802,36.421,59.2805,50.9345,62.04,35.8055,59.222,50.3075,-0.05349999999999988,-0.11299999999999999,0.10157500000000001,0.11165000000000001,0.0,214.74,214.79500000000002,211.63333333333333,211.63333333333333,0.0,0.0
24,0.0,0.0,0.0,1.0,1.0,0.0,0.0,1.0,0.0,100.0,1.0,1.1856,26.0,0.0,0.0,0.0,59.999996,0.0,26.0,26.0,26.0,26.0,0.0006666666666665932,0.2821,0.03176666666666667,291.519,-2.6482,-2.7258750000000003,-1.4889000000000001,-1.59525,-194.82,215.6475,190.48,0.0,0.0,0.0,0.0,0.04859999999999998,-5.498166666666667,-5.498166666666667,-0.602,-0.6380000000000001,-0.046555555555555905,0.6859999999999999,68.74600000000001,-0.0045000000000000005,-0.24035,-0.15800000000000036,100.0,1.0,1.0,211.96333333333334,0.0,0.0,0.0,0.0,0.0,0.0,0.0,8984.3,0.0,55.0,5.0,247.45666666666665,0.0,0.0,0.0,0.0,0.0,0.0,0.0,0.0,1.2089999999999996,1.2089999999999996,0.0,0.0,0.0,55.0,616.79921,10000.0,85.000001,85.000001,85.000001,85.000001,395.0,0.0,0.0,0.0,1.0,166.665,51.361,51.361,46.844,46.844,34.0,-23.48,22.4,-29.086666666666666,28.4,0.0,1781.712,0.3949999999999996,100.0,28.022,28.320999999999998,44.421,43.338,0.0,0.0,100.0,0.0,0.0,0.0,0.0,2935.857142857143,3114.3,4275.777777777777,4082.2,303.534,305.027,314.41575,314.76525,16.679875,20.7545,22.0686,21.5011,314.999998,314.999998,324.999988,324.999988,99.56538571428571,99.51086666666667,99.57074285714286,99.54774285714285,0.026499999999999968,-0.11099999999999999,-0.1095,0.10366666666666667,-0.07166666666666544,-0.041666666666671404,1.5145,1.504,42.748999999999995,30.7155,38.929,35.382,65.83500000000001,37.588499999999996,60.7275,52.7025,61.787,36.4555,59.315,50.991,62.022999999999996,35.838499999999996,59.2535,50.3625,-0.05049999999999999,-0.1120000000000001,0.105895,0.101555,0.0,215.18,215.22500000000002,211.96333333333334,211.96333333333334,0.0,0.0
25,0.0,0.0,0.0,1.0,1.0,0.0,0.0,1.0,0.0,100.0,1.0,1.1856,26.0,0.0,0.0,0.0,59.999996,0.0,26.0,26.0,26.0,26.0,0.00911111111111107,0.25480000000000014,-0.15123333333333333,291.245,-2.7118,-2.6790000000000003,-1.5791,-1.596625,-191.31,215.6375,190.454625,0.0,0.0,0.0,0.0,0.05063333333333331,-5.498166666666667,-5.498166666666667,-0.6275000000000001,0.1955,-0.04144444444444417,-0.548,68.878,-0.0019,-0.24655000000000002,-0.16199999999999992,100.0,1.0,1.0,212.46666666666667,0.0,0.0,0.0,0.0,0.0,0.0,0.0,9005.7,0.0,55.0,5.0,247.93333333333334,1.0,0.0,0.0,0.0,0.0,0.0,0.0,0.0,1.259999999999998,1.259999999999998,0.0,0.0,1.0,55.0,616.79921,10000.0,85.000001,85.000001,85.000001,85.000001,395.0,0.0,0.0,0.0,1.0,166.665,50.125,50.125,47.47,47.47,34.0,-26.125,24.724,-28.656666666666666,28.15,0.0,1781.662,0.38500000000000156,100.0,28.215,28.764,44.093,43.112,0.0,0.0,100.0,0.0,0.0,0.0,0.0,3168.5714285714284,3367.1,4081.1111111111113,4023.1000000000004,302.7,304.08775,315.04625,314.894,16.692125,20.7606,22.0791,21.5101,314.999998,314.999998,324.999988,324.999988,99.56538571428571,99.51088333333334,99.57088571428571,99.54788571428571,0.02849999999999997,-0.10050000000000003,-0.1165,0.11166666666666668,-0.060000000000002274,-0.04833333333333201,1.5615,1.551,42.826,30.753999999999998,38.995000000000005,35.438,65.818,37.6275,60.7615,52.76,61.771,36.4915,59.3465,51.0465,62.004999999999995,35.873,59.282,50.4165,-0.04699999999999993,-0.10749999999999993,0.10772500000000002,0.10697000000000001,0.0,215.57999999999998,215.63,212.46666666666667,212.46666666666667,0.0,0.0
26,0.0,0.0,0.0,1.0,1.0,0.0,0.0,1.0,0.0,100.0,1.0,1.1856,26.0,0.0,0.0,0.0,59.999996,0.0,26.0,26.0,26.0,26.0,0.010666666666666602,0.2713000000000001,0.0189,290.222,-2.6109,-2.760125,-1.5831,-1.592625,-188.0,215.63,190.430375,0.0,0.0,0.0,0.0,0.05256666666666654,-5.498166666666667,-5.498166666666667,-0.596,0.92,-0.061666666666666536,-0.09299999999999997,69.006,-0.0013000000000000002,-0.22890000000000002,-0.1479999999999997,100.0,1.0,1.0,212.61666666666667,0.0,0.0,0.0,0.0,0.0,0.0,0.0,9012.1,0.0,55.0,5.0,248.39333333333335,0.0,0.0,0.0,0.0,0.0,0.0,0.0,0.0,1.3079999999999998,1.3079999999999998,0.0,0.0,0.0,55.0,616.79921,10000.0,85.000001,85.000001,85.000001,85.000001,395.0,0.0,0.0,0.0,1.0,333.33500000000004,49.805,49.805,45.897999999999996,45.897999999999996,34.0,-24.572499999999998,23.816000000000003,-34.373333333333335,32.207499999999996,0.0,1781.611,0.3249999999999993,100.0,28.931,29.366,44.539,43.452,0.0,0.0,100.0,0.0,0.0,0.0,0.0,3135.4285714285716,3148.6,4701.777777777777,4450.7,302.6005,304.63,313.5765,313.9125,16.704,20.7666,22.0893,21.5187,314.999998,314.999998,324.999988,324.999988,99.56538571428571,99.5109,99.57104285714286,99.54801428571429,0.04150000000000009,-0.09999999999999998,-0.1115,0.1125,-0.054999999999999716,-0.03333333333333144,1.443,1.444,42.9,30.7915,39.058,35.4915,65.807,37.666,60.7985,52.817499999999995,61.762,36.5275,59.381,51.1015,61.992999999999995,35.9075,59.313,50.4705,-0.05549999999999988,-0.10999999999999988,0.10346000000000001,0.10623500000000001,0.0,216.015,216.05,212.61666666666667,212.61666666666667,0.0,0.0
27,0.0,0.0,0.0,1.0,1.0,0.0,0.0,1.0,0.0,100.0,1.0,1.1856,26.0,0.0,0.0,0.0,59.999996,0.0,26.0,26.0,26.0,26.0,0.022222222222222143,0.2470000000000001,-0.12986666666666669,290.863,-2.6377,-2.715,-1.5311,-1.6555,-184.69,215.6225,190.4075,0.0,0.0,0.0,0.0,0.05449999999999999,-5.498166666666667,-5.498166666666667,-0.6162000000000001,-0.8015000000000001,-0.05033333333333356,0.017000000000000126,69.13,-0.0017000000000000001,-0.26935000000000003,-0.15800000000000036,100.0,1.0,1.0,213.12,0.0,0.0,0.0,0.0,0.0,0.0,0.0,9033.4,0.0,55.0,5.0,248.84,1.0,0.0,0.0,0.0,0.0,0.0,0.0,0.0,1.355999999999998,1.355999999999998,0.0,0.0,1.0,55.0,616.79921,10000.0,85.000001,85.000001,85.000001,85.000001,395.0,0.0,0.0,0.0,1.0,166.665,50.43,50.43,46.295,46.295,34.0,-23.165,23.182000000000002,-29.599999999999998,29.565,0.0,1781.565,0.3000000000000007,100.0,28.627,29.169,45.052,43.985,0.0,0.0,100.0,0.0,0.0,0.0,0.0,2938.142857142857,3181.9,4211.666666666667,4011.8,303.404,304.63825,314.637,314.8515,16.7155,20.7725,22.0995,21.5274,314.999998,314.999998,324.999988,324.999988,99.5654,99.51091666666667,99.57118571428572,99.54815714285715,0.03649999999999998,-0.10849999999999993,-0.11783333333333333,0.11966666666666667,-0.05666666666667197,-0.030000000000001137,1.4979999999999998,1.4954999999999998,42.972,30.828,39.122,35.546,65.792,37.702,60.835,52.8755,61.748000000000005,36.561,59.415,51.157,61.977999999999994,35.9395,59.3445,50.5245,-0.05549999999999988,-0.10999999999999988,0.10727,0.10647500000000001,0.0,216.35000000000002,216.375,213.12,213.12,0.0,0.0
28,0.0,0.0,0.0,1.0,1.0,0.0,0.0,1.0,0.0,100.0,1.0,1.1856,26.0,0.0,0.0,0.0,59.999996,0.0,26.0,26.0,26.0,26.0,0.02633333333333332,0.26560000000000006,-0.21546666666666667,291.10699999999997,-2.6195,-2.7121250000000003,-1.5685,-1.63125,-180.95,215.615,190.380625,0.0,0.0,0.0,0.0,0.05666666666666653,-5.498166666666667,-5.498166666666667,-0.6252,0.778,-0.06522222222222229,-0.273,69.267,-0.0013000000000000002,-0.24427500000000002,-0.16000000000000014,100.0,1.0,1.0,213.65,0.0,0.0,0.0,0.0,0.0,0.0,0.0,9055.9,0.0,55.0,5.0,249.33333333333334,0.0,0.0,0.0,0.0,0.0,0.0,0.0,0.0,1.4100000000000001,1.4100000000000001,0.0,0.0,0.0,55.0,616.79921,10000.0,85.000001,85.000001,85.000001,85.000001,395.0,0.0,0.0,0.0,1.0,166.665,50.262,50.262,47.195,47.195,34.0,-23.5925,23.408,-29.09,29.2425,0.0,1781.511,0.245000000000001,100.0,28.649,29.063,44.297,43.391999999999996,0.0,0.0,100.0,0.0,0.0,0.0,0.0,3025.142857142857,3166.9,4219.777777777777,4037.6000000000004,302.999,304.6745,314.77725,314.93075,16.728625,20.7791,22.110599999999998,21.5368,314.999998,314.999998,324.999988,324.999988,99.56541428571428,99.51093333333333,99.57132857142857,99.5483,0.043749999999999956,-0.10024999999999995,-0.10766666666666667,0.125,-0.05666666666667197,-0.03166666666666629,1.5785,1.564,43.054,30.869,39.191,35.605000000000004,65.776,37.743,60.8695,52.935,61.733000000000004,36.599000000000004,59.447,51.214,61.961,35.976,59.373,50.5805,-0.06349999999999989,-0.11100000000000021,0.10383,0.11721500000000001,0.0,216.8,216.845,213.65,213.65,0.0,0.0
29,0.0,0.0,0.0,1.0,1.0,0.0,0.0,1.0,0.0,100.0,1.0,1.1856,26.0,0.0,0.0,0.0,59.999996,0.0,26.0,26.0,26.0,26.0,0.03222222222222215,0.25960000000000005,-0.04923333333333333,290.756,-2.6004,-2.7615,-1.52195,-1.60575,-177.62,215.60750000000002,190.35575,0.0,0.0,0.0,0.0,0.058599999999999985,-5.498166666666667,-5.498166666666667,-0.6273000000000001,-0.4590000000000001,-0.05944444444444441,-0.015000000000000013,69.393,0.0008,-0.24155000000000001,-0.3099999999999996,100.0,1.0,1.0,213.85000000000002,0.0,0.0,0.0,0.0,0.0,0.0,0.0,9064.4,0.0,55.0,5.0,249.79000000000002,1.0,0.0,0.0,0.0,0.0,0.0,0.0,0.0,1.4579999999999984,1.4579999999999984,0.0,0.0,1.0,55.0,616.79921,10000.0,85.000001,85.000001,85.000001,85.000001,395.0,0.0,0.0,0.0,1.0,166.665,50.461,50.461,46.28,46.28,34.0,-22.8875,24.228,-29.903333333333336,30.3225,0.0,1781.462,0.20500000000000185,100.0,28.517,29.033,44.75,43.728,0.0,0.0,100.0,0.0,0.0,0.0,0.0,2987.714285714286,3172.9,4321.555555555556,4244.9,303.3115,304.60825,314.3645,314.348,16.74,20.7849,22.1208,21.5455,314.999998,314.999998,324.999988,324.999988,99.56541428571428,99.51093333333333,99.57148571428571,99.54844285714286,0.04475000000000007,-0.09450000000000003,-0.1065,0.10766666666666667,-0.03833333333332689,-0.03833333333332689,1.4785,1.4769999999999999,43.125,30.9055,39.254999999999995,35.659,65.75999999999999,37.778,60.9065,52.9915,61.719,36.6315,59.4815,51.269,61.944,36.007,59.403999999999996,50.6335,-0.06099999999999994,-0.09699999999999998,0.109185,0.10352000000000001,0.0,217.155,217.23000000000002,213.85000000000002,213.85000000000002,0.0,0.0
30,0.0,0.0,0.0,1.0,1.0,0.0,0.0,1.0,0.0,100.0,1.0,1.1856,26.0,0.0,0.0,0.0,59.999996,0.0,26.0,26.0,26.0,26.0,0.026555555555555665,0.24639999999999995,-0.0521,290.146,-2.6573,-2.65175,-1.49465,-1.6645,-174.29,215.60250000000002,190.33075,0.0,0.0,0.0,0.0,0.06053333333333333,-5.498166666666667,-5.498166666666667,-0.6312,0.929,-0.06611111111111123,-0.31799999999999995,69.514,0.0085,-0.250975,-0.3439999999999994,100.0,1.0,1.0,214.34,0.0,0.0,0.0,0.0,0.0,0.0,0.0,9085.1,0.0,55.0,5.0,250.22333333333336,0.0,0.0,0.0,0.0,0.0,0.0,1.0,0.0,1.5060000000000002,1.5060000000000002,0.0,0.0,0.0,55.0,616.79921,10000.0,85.000001,85.000001,85.000001,85.000001,395.0,0.0,0.0,0.0,1.0,166.665,48.828,48.828,46.799,46.799,34.0,-26.3725,24.546,-28.48,30.4125,0.0,1781.416,0.28500000000000014,100.0,29.157,29.75,44.615,43.798,0.0,0.0,100.0,0.0,0.0,0.0,0.0,3308.714285714286,3364.2,4232.111111111111,4067.7,301.9905,303.9585,314.65975,314.7525,16.75175,20.791,22.1308,21.554,314.999998,314.999998,324.999988,324.999988,99.56542857142857,99.51095,99.57162857142858,99.54857142857144,0.046250000000000124,-0.10175000000000001,-0.10583333333333333,0.12566666666666668,-0.05666666666667197,-0.036666666666668846,1.512,1.5070000000000001,43.198,30.9435,39.318,35.7125,65.749,37.817,60.9385,53.0465,61.709,36.667500000000004,59.5115,51.3215,61.933,36.042,59.431,50.685,-0.06099999999999994,-0.11549999999999994,0.11311000000000002,0.10241000000000001,0.0,217.555,217.63,214.34,214.34,0.0,0.0
31,0.0,0.0,0.0,1.0,1.0,0.0,0.0,1.0,0.0,100.0,1.0,1.1856,26.0,0.0,0.0,0.0,59.999996,0.0,26.0,26.0,26.0,26.0,0.017111111111111077,0.26439999999999997,0.0847,289.948,-2.706,-2.683375,-1.54355,-1.55925,-170.74,215.5975,190.305,0.0,0.0,0.0,0.0,0.06259999999999999,-5.498166666666667,-5.498166666666667,-0.6113000000000001,-0.6580000000000001,-0.05522222222222206,0.236,69.646,0.0102,-0.25065000000000004,-0.25,100.0,1.0,1.0,214.56666666666666,0.0,0.0,0.0,0.0,0.0,0.0,0.0,9094.7,0.0,55.0,5.0,250.7,1.0,0.0,0.0,0.0,0.0,0.0,1.0,0.0,1.5569999999999986,1.5569999999999986,0.0,0.0,1.0,55.0,616.79921,10000.0,85.000001,85.000001,85.000001,85.000001,395.0,0.0,0.0,0.0,1.0,166.665,49.652,49.652,45.257999999999996,45.257999999999996,34.0,-24.395,25.542,-31.193333333333335,31.0125,0.0,1781.364,0.19000000000000128,100.0,28.947,29.618000000000002,45.344,44.427,0.0,0.0,100.0,0.0,0.0,0.0,0.0,3122.4285714285716,3407.1,4442.444444444444,4254.3,303.0195,304.20775,313.999,314.22825,16.764,20.7973,22.1417,21.5634,314.999998,314.999998,324.999988,324.999988,99.56542857142857,99.51096666666666,99.57177142857142,99.54872857142857,0.055749999999999966,-0.08650000000000002,-0.10066666666666667,0.12433333333333334,-0.05666666666667197,-0.041666666666671404,1.4419999999999997,1.423,43.275,30.9835,39.385999999999996,35.771,65.736,37.857,60.9785,53.109,61.697,36.704499999999996,59.549,51.3815,61.919,36.0775,59.4655,50.7435,-0.06899999999999995,-0.1080000000000001,0.11399500000000001,0.102345,0.0,217.97,218.015,214.56666666666666,214.56666666666666,0.0,0.0
32,0.0,0.0,0.0,1.0,1.0,0.0,0.0,1.0,0.0,100.0,1.0,1.1856,26.0,0.0,0.0,0.0,59.999996,0.0,26.0,26.0,26.0,26.0,0.040888888888888975,0.26639999999999997,0.06746666666666666,290.48199999999997,-2.6339,-2.738125,-1.5292,-1.61325,-166.98000000000002,215.5925,190.27825,0.0,0.0,0.0,0.0,0.06479999999999997,-5.498166666666667,-5.498166666666667,-0.6311,-0.389,-0.07522222222222208,-0.488,69.781,0.0135,-0.25785,-0.34799999999999986,100.0,1.0,1.0,215.13333333333333,0.0,0.0,0.0,0.0,0.0,0.0,0.0,9118.7,0.0,55.0,5.0,251.18333333333334,0.0,0.0,0.0,0.0,0.0,0.0,1.0,0.0,1.6110000000000007,1.6110000000000007,0.0,0.0,0.0,55.0,616.79921,10000.0,85.000001,85.000001,85.000001,85.000001,395.0,0.0,0.0,0.0,1.0,166.665,50.003,50.003,46.371,46.371,34.0,-23.5675,24.34,-27.936666666666664,31.515,0.0,1781.31,0.245000000000001,100.0,28.766,29.559,44.996,44.237,0.0,0.0,100.0,0.0,0.0,0.0,0.0,3106.857142857143,3213.0,4218.888888888889,4193.7,302.9825,304.6595,314.61325,314.5645,16.776875,20.804,22.153,21.573,314.999998,314.999998,324.999988,324.999988,99.56544285714286,99.51096666666666,99.57192857142857,99.54888571428572,0.05875000000000008,-0.09099999999999997,-0.08683333333333333,0.14150000000000001,-0.0833333333333286,-0.051666666666669414,1.52,1.5065,43.355000000000004,31.025,39.456,35.8315,65.719,37.897999999999996,61.0155,53.170500000000004,61.682,36.743,59.583,51.441,61.902,36.114,59.496,50.8015,-0.06600000000000006,-0.1070000000000002,0.10772000000000001,0.11265000000000001,0.0,218.385,218.435,215.13333333333333,215.13333333333333,0.0,0.0
33,0.0,0.0,0.0,1.0,1.0,0.0,0.0,1.0,0.0,100.0,1.0,1.1856,26.0,0.0,0.0,0.0,59.999996,0.0,26.0,26.0,26.0,26.0,0.03733333333333322,0.24280000000000013,-0.126,290.619,-2.6692,-2.7265,-1.53935,-1.64725,-163.82999999999998,215.5875,190.254625,0.0,0.0,0.0,0.0,0.06659999999999999,-5.498166666666667,-5.498166666666667,-0.6404000000000001,-0.14800000000000013,-0.07088888888888878,0.7310000000000001,69.894,0.012400000000000001,-0.24530000000000002,-0.24800000000000022,100.0,1.0,1.0,215.46666666666667,0.0,0.0,0.0,0.0,0.0,0.0,0.0,9132.8,0.0,55.0,5.0,251.59333333333336,1.0,0.0,0.0,0.0,0.0,0.0,1.0,0.0,1.6559999999999988,1.6559999999999988,0.0,0.0,1.0,55.0,616.79921,10000.0,85.000001,85.000001,85.000001,85.000001,395.0,0.0,0.0,0.0,1.0,333.33500000000004,50.14,50.14,46.494,46.494,34.0,-23.599999999999998,23.554000000000002,-28.743333333333336,31.065,0.0,1781.264,0.23000000000000043,100.0,28.8,29.52,44.852000000000004,44.003,0.0,0.0,100.0,0.0,0.0,0.0,0.0,3036.857142857143,3146.0,4232.888888888889,4172.3,303.158,304.8065,314.622,314.591,16.787625,20.8094,22.162399999999998,21.581,314.999998,314.999998,324.999988,324.999988,99.56544285714286,99.51098333333333,99.57207142857143,99.54901428571429,0.05325000000000002,-0.09475,-0.09666666666666668,0.12666666666666668,-0.04833333333333201,-0.041666666666671404,1.5015,1.5055,43.422,31.058999999999997,39.515,35.8815,65.706,37.93,61.046,53.2215,61.671,36.7725,59.6115,51.4895,61.888,36.1425,59.5215,50.849000000000004,-0.06400000000000006,-0.1070000000000002,0.104065,0.10788500000000001,0.0,218.73000000000002,218.76999999999998,215.46666666666667,215.46666666666667,0.0,0.0
34,0.0,0.0,0.0,1.0,1.0,0.0,0.0,1.0,0.0,100.0,1.0,1.1856,26.0,0.0,0.0,0.0,59.999996,0.0,26.0,26.0,26.0,26.0,0.03866666666666685,0.26270000000000016,0.004266666666666667,290.665,-2.6073,-2.71425,-1.6005500000000001,-1.609625,-160.26999999999998,215.585,190.226625,0.0,0.0,0.0,0.0,0.06869999999999998,-5.498166666666667,-5.498166666666667,-0.6673,-0.925,-0.04700000000000015,-0.08599999999999997,70.023,0.013000000000000001,-0.2533,-0.2060000000000004,100.0,1.0,1.0,215.84,0.0,0.0,0.0,0.0,0.0,0.0,0.0,9148.6,0.0,55.0,5.0,252.06,0.0,0.0,0.0,0.0,0.0,0.0,1.0,0.0,1.7070000000000007,1.7070000000000007,0.0,0.0,0.0,55.0,616.79921,10000.0,85.000001,85.000001,85.000001,85.000001,395.0,0.0,0.0,0.0,1.0,166.665,50.262,50.262,46.768,46.768,34.0,-23.544999999999998,23.232,-29.03,30.595,0.0,1781.214,0.20500000000000185,100.0,28.555,29.437,44.785,44.223,0.0,0.0,100.0,0.0,0.0,0.0,0.0,3103.5714285714284,3079.1,4203.777777777777,4146.9,303.0615,304.95425,314.72175,314.5695,16.79975,20.8156,22.173000000000002,21.5902,314.999998,314.999998,324.999988,324.999988,99.56545714285714,99.511,99.57221428571428,99.54915714285714,0.05174999999999996,-0.08775,-0.09116666666666667,0.129,-0.06666666666666998,-0.046666666666666856,1.5065,1.5005,43.498000000000005,31.0975,39.581,35.939,65.691,37.9655,61.079499999999996,53.2815,61.656,36.8055,59.643,51.5475,61.872,36.1745,59.5495,50.9055,-0.059499999999999886,-0.0990000000000002,0.10024000000000001,0.10791,0.0,219.10000000000002,219.155,215.84,215.84,0.0,0.0
35,0.0,0.0,0.0,1.0,1.0,0.0,0.0,1.0,0.0,100.0,1.0,1.1856,26.0,0.0,0.0,0.0,59.999996,0.0,26.0,26.0,26.0,26.0,0.03544444444444439,0.25360000000000005,-0.06213333333333334,290.726,-2.6697,-2.658125,-1.57965,-1.634125,-156.69,215.58249999999998,190.196875,0.0,0.0,0.0,0.0,0.07076666666666653,-5.498166666666667,-5.498166666666667,-0.7080000000000001,-0.3400000000000001,-0.058222222222222175,-0.15200000000000002,70.149,0.013000000000000001,-0.26527500000000004,-0.27199999999999935,100.0,1.0,1.0,216.31,0.0,0.0,0.0,0.0,0.0,0.0,0.0,9168.5,0.0,55.0,5.0,252.51333333333332,1.0,0.0,0.0,0.0,0.0,0.0,1.0,0.0,1.7579999999999991,1.7579999999999991,0.0,0.0,1.0,55.0,616.79921,10000.0,85.000001,85.000001,85.000001,85.000001,395.0,0.0,0.0,0.0,1.0,333.33500000000004,49.85,49.85,46.417,46.417,34.0,-23.607499999999998,26.172,-28.0,29.3325,0.0,1781.161,0.28500000000000014,100.0,28.547,29.503,44.582,43.679,0.0,0.0,100.0,0.0,0.0,0.0,0.0,3027.4285714285716,3493.9,4142.888888888889,4001.9,303.1615,303.8765,314.77725,315.06375,16.811625,20.8219,22.1835,21.5993,314.999998,314.999998,324.999988,324.999988,99.56547142857143,99.51101666666666,99.57237142857143,99.54931428571429,0.052000000000000046,-0.08550000000000002,-0.08633333333333333,0.13083333333333336,-0.06499999999999773,-0.07333333333333059,1.5314999999999999,1.545,43.573,31.137,39.647,35.9955,65.673,38.0035,61.1125,53.3375,61.64,36.841,59.6735,51.6015,61.852999999999994,36.2085,59.576499999999996,50.958,-0.052999999999999936,-0.10950000000000015,0.10872000000000001,0.10391,0.0,219.505,219.575,216.31,216.31,0.0,0.0
36,0.0,0.0,0.0,1.0,1.0,0.0,0.0,1.0,0.0,100.0,1.0,1.1856,26.0,0.0,0.0,0.0,59.999996,0.0,26.0,26.0,26.0,26.0,0.024333333333333318,0.2692000000000001,0.04696666666666667,290.1,-2.5836,-2.715875,-1.5152,-1.6131250000000001,-153.32,215.58249999999998,190.167625,0.0,0.0,0.0,0.0,0.07273333333333332,-5.498166666666667,-5.498166666666667,-0.6905,0.2945,-0.10988888888888892,0.013000000000000123,70.271,0.0095,-0.23705,-0.15399999999999991,100.0,1.0,1.0,216.49333333333334,0.0,0.0,0.0,0.0,0.0,0.0,0.0,9176.3,0.0,55.0,5.0,252.95,0.0,0.0,0.0,0.0,0.0,0.0,1.0,0.0,1.806000000000001,1.806000000000001,0.0,0.0,0.0,55.0,616.79921,10000.0,85.000001,85.000001,85.000001,85.000001,395.0,0.0,0.0,0.0,1.0,333.33500000000004,49.606,49.606,46.28,46.28,34.0,-23.5175,24.892,-30.29,33.3875,0.0,1781.113,0.375,100.0,28.994,29.424,44.64,43.693,0.0,0.0,100.0,0.0,0.0,0.0,0.0,3105.4285714285716,3313.0,4473.0,4411.4,302.577,304.448,314.02475,314.0535,16.823125,20.828,22.1935,21.6079,314.999998,314.999998,324.999988,324.999988,99.56547142857143,99.51101666666666,99.57251428571429,99.54944285714285,0.05875000000000008,-0.09150000000000003,-0.0905,0.134,-0.061666666666667425,-0.041666666666671404,1.4505,1.4445000000000001,43.644999999999996,31.174999999999997,39.71,36.0495,65.66,38.041,61.146,53.3935,61.629,36.876,59.705,51.6555,61.84,36.242,59.605000000000004,51.0105,-0.05400000000000005,-0.11850000000000005,0.10462,0.10815500000000002,0.0,219.905,219.97,216.49333333333334,216.49333333333334,0.0,0.0
