,ABS Active,ABS Enabled,AID Allow Tire Blankets,AID Auto Blip,AID Auto Clutch,AID Auto Shift,AID Fuel Rate,AID Ideal Line,AID Mech Damage,AID Stability,AID Tire Wear Rate,Air Density,Air Temp,Ballast,Best Lap Delta,Best Lap Time,Brake Bias,Brake Pos,Brake Temp FL,Brake Temp FR,Brake Temp RL,Brake Temp RR,CG Accel Lateral,CG Accel Longitudinal,CG Accel Vertical,CG Height,Camber FL,Camber FR,Camber RL,Camber RR,Car Coord X,Car Coord Y,Car Coord Z,Car Damage Front,Car Damage Left,Car Damage Rear,Car Damage Right,Car Pos Norm,Caster FL,Caster FR,Chassis Pitch Angle,Chassis Pitch Rate,Chassis Roll Angle,Chassis Roll Rate,Chassis Velocity X,Chassis Velocity Y,Chassis Velocity Z,Chassis Yaw Rate,Clutch Pos,DRS Active,DRS Available,Drive Train Speed,ERS Heat Charging,ERS Is Charging,ERS Max Energy,ERS Power Level,ERS Recovery Level,Engine Brake Setting,Engine Limiter,Engine RPM,Flags,Fuel Level,Gear,Ground Speed,HR Sample Clock,In Pit,KERS Charge,KERS Deployed Energy,KERS Input,KERS Max Energy,LR Sample Clock,Lap Invalidated,Lap Time,Lap Time2,Last Lap Time,Last Sector Time,MR Sample Clock,Max Fuel,Max Power,Max RPM,Max Sus Travel FL,Max Sus Travel FR,Max Sus Travel RL,Max Sus Travel RR,Max Torque,Max Turbo Boost,Num Tires Off Track,Penalties Enabled,Position,Raw Data Sample Rate,Ride Height FL,Ride Height FR,Ride Height RL,Ride Height RR,Road Temp,Self Align Torque FL,Self Align Torque FR,Self Align Torque RL,Self Align Torque RR,Session Lap Count,Session Time Left,Steering Angle,Surface Grip,Suspension Travel FL,Suspension Travel FR,Suspension Travel RL,Suspension Travel RR,TC Active,TC Enabled,Throttle Pos,Tire Dirt Level FL,Tire Dirt Level FR,Tire Dirt Level RL,Tire Dirt Level RR,Tire Load FL,Tire Load FR,Tire Load RL,Tire Load RR,Tire Loaded Radius FL,Tire Loaded Radius FR,Tire Loaded Radius RL,Tire Loaded Radius RR,Tire Pressure FL,Tire Pressure FR,Tire Pressure RL,Tire Pressure RR,Tire Radius FL,Tire Radius FR,Tire Radius RL,Tire Radius RR,Tire Rubber Grip FL,Tire Rubber Grip FR,Tire Rubber Grip RL,Tire Rubber Grip RR,Tire Slip Angle FL,Tire Slip Angle FR,Tire Slip Angle RL,Tire Slip Angle RR,Tire Slip Ratio FL,Tire Slip Ratio FR,Tire Slip Ratio RL,Tire Slip Ratio RR,Tire Temp Core FL,Tire Temp Core FR,Tire Temp Core RL,Tire Temp Core RR,Tire Temp Inner FL,Tire Temp Inner FR,Tire Temp Inner RL,Tire Temp Inner RR,Tire Temp Middle FL,Tire Temp Middle FR,Tire Temp Middle RL,Tire Temp Middle RR,Tire Temp Outer FL,Tire Temp Outer FR,Tire Temp Outer RL,Tire Temp Outer RR,Toe In FL,Toe In FR,Toe In RL,Toe In RR,Turbo Boost,Wheel Angular Speed FL,Wheel Angular Speed FR,Wheel Angular Speed RL,Wheel Angular Speed RR,Wind Direction,Wind Speed
0,0.0,0.0,0.0,1.0,1.0,0.0,0.0,1.0,0.0,100.0,1.0,1.1856,26.0,0.0,0.0,0.0,59.99999,0.0,26.0,26.0,26.0,26.0,-0.04037499999999994,0.3034000000000001,0.11096666666666669,292.755,-2.6627,-2.511333333333333,-1.4814500000000002,-1.5754444444444444,-275.62,215.845,190.986375,0.0,0.0,0.0,0.0,0.0016333333333333332,-5.498166666666667,-5.498166666666667,-0.5847,2.6646666666666667,-0.06050000000000022,-0.642,65.416,-0.0459,-0.25065000000000004,0.6020000000000003,100.0,1.0,1.0,201.9766666666667,0.0,0.0,0.0,0.0,0.0,0.0,0.0,8561.1,0.0,55.0,5.0,235.46666666666667,0.0,0.0,0.0,0.0,0.0,0.0,0.0,0.0,0.0030000000000001137,0.0030000000000001137,0.0,0.0,0.0,55.0,616.79921,10000.0,85.0,85.0,85.0,85.0,395.0,0.0,0.0,0.0,1.0,20.0,49.957,49.957,49.010999999999996,49.010999999999996,34.0,-28.586666666666666,23.092,-31.02,25.57,0.0,1782.806,1.1750000000000007,100.0,27.824,27.966,40.755,39.51,0.0,0.0,100.0,0.0,0.0,0.0,0.0,3114.0,3894.0,4242.125,4047.8,303.091,302.2373333333333,314.56475,314.795,17.292625,20.5948,21.8096,21.3001,314.99999,314.99999,324.99998,324.99998,99.56581428571428,99.50976666666666,99.56681428571429,99.5447,-0.04899999999999993,-0.17274999999999996,-0.16066666666666662,0.06600000000000006,-0.07166666666666544,-0.05833333333333002,1.5390000000000001,1.577,40.329,29.7175,37.31,34.1255,64.914,36.248,59.65,51.408500000000004,61.162,35.227000000000004,58.292,49.754999999999995,61.203,34.6715,58.289500000000004,49.160666666666664,0.0129999999999999,-0.16700000000000026,0.09921,0.11726,0.0,204.985,204.985,201.9766666666667,201.9766666666667,0.0,0.0
1,0.0,0.0,0.0,1.0,1.0,0.0,0.0,1.0,0.0,100.0,1.0,1.1856,26.0,0.0,0.0,0.0,59.999996,0.0,26.0,26.0,26.0,26.0,-0.12975000000000003,0.30679999999999996,0.08573333333333334,292.282,-2.6002,-2.754,-1.50135,-1.4271111111111112,-272.08,215.8625,190.9655,0.0,0.0,0.0,0.0,0.0037,-5.498166666666667,-5.498166666666667,-0.5085000000000001,-1.904,-0.10625000000000018,-0.26,65.584,-0.0587,-0.22635000000000002,1.1159999999999997,100.0,1.0,1.0,201.99333333333334,0.0,0.0,0.0,0.0,0.0,0.0,0.0,8561.7,0.0,55.0,5.0,236.07,1.0,0.0,0.0,0.0,0.0,0.0,0.0,0.0,0.05699999999999861,0.05699999999999861,0.0,0.0,1.0,55.0,616.79921,10000.0,85.000001,85.000001,85.000001,85.000001,395.0,0.0,0.0,0.0,1.0,166.665,53.04,53.04,48.004,48.004,34.0,-25.57333333333333,14.972000000000001,-37.86666666666666,27.97,0.0,1782.753,1.2750000000000021,100.0,27.612000000000002,27.261,43.17,42.275,0.0,0.0,100.0,0.0,0.0,0.0,0.0,2854.857142857143,2511.1,4601.5,4837.8,304.151,306.83866666666665,313.4955,312.61175,17.30575,20.6005,21.8214,21.3099,314.999998,314.999998,324.999988,324.999988,99.56581428571428,99.50978333333333,99.56698571428572,99.54485714285714,-0.058499999999999996,-0.18825000000000003,-0.19199999999999995,0.030333333333333323,-0.046666666666666856,-0.030000000000001137,1.3050000000000002,1.391,40.411,29.753,37.384,34.187,64.896,36.288,59.701499999999996,51.481,61.146,35.2645,58.3405,49.824,61.185,34.707499999999996,58.335,49.22866666666667,0.03149999999999986,-0.1785000000000001,0.106395,0.10709500000000001,0.0,205.43,205.365,201.99333333333334,201.99333333333334,0.0,0.0
2,0.0,0.0,0.0,1.0,1.0,0.0,0.0,1.0,0.0,100.0,1.0,1.1856,26.0,0.0,0.0,0.0,59.999996,0.0,26.0,26.0,26.0,26.0,-0.14100000000000001,0.28570000000000007,-0.10703333333333333,293.564,-2.5663,-2.8101111111111114,-1.4631,-1.5815555555555556,-268.93,215.8775,190.948,0.0,0.0,0.0,0.0,0.005533333333333334,-5.498166666666667,-5.498166666666667,-0.5930000000000001,0.3516666666666668,-0.08650000000000002,2.213,65.71000000000001,-0.07150000000000001,-0.29215,1.3740000000000006,100.0,1.0,1.0,203.25,0.0,0.0,0.0,0.0,0.0,0.0,0.0,8615.0,0.0,55.0,5.0,236.53,0.0,0.0,0.0,0.0,0.0,0.0,0.0,0.0,0.10500000000000043,0.10500000000000043,0.0,0.0,0.0,55.0,616.79921,10000.0,85.000001,85.000001,85.000001,85.000001,395.0,0.0,0.0,0.0,1.0,166.665,51.041,51.041,50.995,50.995,34.0,-30.776666666666667,19.344,-26.706666666666663,17.835,0.0,1782.705,1.4250000000000007,100.0,28.14,27.306,42.547,40.714,0.0,0.0,100.0,0.0,0.0,0.0,0.0,3273.0,3146.7,3631.25,3280.5,302.4485,304.95233333333334,315.9745,316.75375,17.31775,20.6058,21.8312,21.3177,314.999998,314.999998,324.999988,324.999988,99.56582857142857,99.5098,99.56711428571428,99.54497142857143,-0.07899999999999996,-0.20124999999999993,-0.20750000000000002,0.030166666666666675,-0.060000000000002274,-0.054999999999999716,1.7530000000000001,1.7734999999999999,40.486000000000004,29.786,37.445,34.236,64.886,36.327,59.734,51.5265,61.137,35.3005,58.3705,49.868,61.174,34.742,58.3625,49.27166666666667,0.035499999999999865,-0.1884999999999999,0.10433,0.11371,0.0,205.835,205.765,203.25,203.25,0.0,0.0
3,0.0,0.0,0.0,1.0,1.0,0.0,0.0,1.0,0.0,100.0,1.0,1.1856,26.0,0.0,0.0,0.0,59.999996,0.0,26.0,26.0,26.0,26.0,-0.13512499999999994,0.29910000000000014,0.12996666666666667,292.801,-2.5888,-2.756333333333333,-1.45245,-1.6284444444444444,-265.77,215.89,190.929,0.0,0.0,0.0,0.0,0.007366666666666667,-5.498166666666667,-5.498166666666667,-0.5255000000000001,0.7833333333333332,-0.06674999999999986,-0.09799999999999998,65.857,-0.0913,-0.21535,1.2720000000000002,100.0,1.0,1.0,203.13,0.0,0.0,0.0,0.0,0.0,0.0,0.0,8609.9,0.0,55.0,5.0,237.05666666666667,1.0,0.0,0.0,0.0,0.0,0.0,0.0,0.0,0.1529999999999987,0.1529999999999987,0.0,0.0,1.0,55.0,616.79921,10000.0,85.000001,85.000001,85.000001,85.000001,395.0,0.0,0.0,0.0,1.0,333.33500000000004,52.292,52.292,47.913,47.913,34.0,-27.133333333333333,17.314,-36.14666666666666,25.415,0.0,1782.657,1.4450000000000003,100.0,27.804,27.356,42.734,40.847,0.0,0.0,100.0,0.0,0.0,0.0,0.0,2902.4285714285716,2958.4,4528.875,4226.7,303.9945,305.4456666666667,313.77825,314.41875,17.3295,20.6112,21.8412,21.326,314.999998,314.999998,324.999988,324.999988,99.56582857142857,99.50983333333333,99.56725714285714,99.54511428571429,-0.08975,-0.20824999999999994,-0.2025,0.019500000000000073,-0.046666666666666856,-0.04333333333332945,1.4445000000000001,1.5070000000000001,40.56,29.82,37.507999999999996,34.2875,64.873,36.3685,59.772,51.586,61.125,35.338499999999996,58.406,49.925,61.161,34.7785,58.3955,49.327666666666666,0.04249999999999998,-0.1835,0.09904500000000001,0.11085,0.0,206.32999999999998,206.29000000000002,203.13,203.13,0.0,0.0
4,0.0,0.0,0.0,1.0,1.0,0.0,0.0,1.0,0.0,100.0,1.0,1.1856,26.0,0.0,0.0,0.0,59.999996,0.0,26.0,26.0,26.0,26.0,-0.13874999999999993,0.2856000000000001,-0.016766666666666666,293.137,-2.6262,-2.8213333333333335,-1.4029500000000001,-1.6345555555555558,-262.41,215.8975,190.909625,0.0,0.0,0.0,0.0,0.009300000000000001,-5.498166666666667,-5.498166666666667,-0.5539000000000001,-0.9756666666666667,-0.12199999999999989,-1.705,66.003,-0.10360000000000001,-0.25665,1.5280000000000005,100.0,1.0,1.0,203.71333333333334,0.0,0.0,0.0,0.0,0.0,0.0,0.0,8634.7,0.0,55.0,5.0,237.57999999999998,0.0,0.0,0.0,0.0,0.0,0.0,0.0,0.0,0.20400000000000063,0.20400000000000063,0.0,0.0,0.0,55.0,616.79921,10000.0,85.000001,85.000001,85.000001,85.000001,395.0,0.0,0.0,0.0,1.0,333.33500000000004,52.231,52.231,48.751999999999995,48.751999999999995,34.0,-31.15,16.586,-33.489999999999995,20.275,0.0,1782.605,1.4750000000000014,100.0,27.354,27.052,43.343,41.183,0.0,0.0,100.0,0.0,0.0,0.0,0.0,3191.285714285714,2879.2,4209.125,3689.6,303.163,305.5606666666667,314.62125,315.58325,17.341875,20.6167,21.8521,21.3349,314.999998,314.999998,324.999988,324.999988,99.56584285714285,99.50985,99.5674,99.54524285714285,-0.10899999999999999,-0.22975,-0.23549999999999993,-0.005833333333333357,-0.061666666666667425,-0.036666666666668846,1.549,1.6195,40.637,29.854,37.575,34.343,64.859,36.4095,59.814499999999995,51.646,61.111999999999995,35.3765,58.446,49.982,61.146,34.815,58.4325,49.38366666666667,0.04400000000000004,-0.1875,0.11055500000000001,0.10423,0.0,206.75,206.655,203.71333333333334,203.71333333333334,0.0,0.0
5,0.0,0.0,0.0,1.0,1.0,0.0,0.0,1.0,0.0,100.0,1.0,1.1856,26.0,0.0,0.0,0.0,59.999996,0.0,26.0,26.0,26.0,26.0,-0.16537499999999994,0.2964,-0.03646666666666667,293.304,-2.6262,-2.804444444444444,-1.4619,-1.6734444444444443,-259.04,215.9025,190.889625,0.0,0.0,0.0,0.0,0.011266666666666668,-5.498166666666667,-5.498166666666667,-0.5599000000000001,0.4783333333333333,-0.1343749999999999,0.7670000000000001,66.148,-0.11460000000000001,-0.2427,1.4480000000000004,100.0,1.0,1.0,204.24,0.0,0.0,0.0,0.0,0.0,0.0,0.0,8657.1,0.0,55.0,5.0,238.10000000000002,1.0,0.0,0.0,0.0,0.0,0.0,0.0,0.0,0.254999999999999,0.254999999999999,0.0,0.0,1.0,55.0,616.79921,10000.0,85.000001,85.000001,85.000001,85.000001,395.0,0.0,0.0,0.0,1.0,333.33500000000004,52.277,52.277,49.362,49.362,34.0,-30.153333333333332,17.458,-34.093333333333334,21.505,0.0,1782.553,1.1750000000000007,100.0,27.662,26.71,43.042,40.479,0.0,0.0,100.0,0.0,0.0,0.0,0.0,3116.142857142857,2944.0,4136.0,3875.0,303.1235,305.53633333333335,314.794,315.2825,17.354625,20.6222,21.8626,21.3434,314.999998,314.999998,324.999988,324.999988,99.56587142857143,99.50988333333333,99.56755714285714,99.54538571428571,-0.09524999999999995,-0.21199999999999997,-0.2473333333333334,-0.01316666666666666,-0.07333333333333059,-0.05333333333332746,1.565,1.6175000000000002,40.716,29.889,37.641,34.3965,64.849,36.454499999999996,59.856,51.704,61.102999999999994,35.417500000000004,58.485,50.038,61.135,34.854,58.4685,49.438,0.022499999999999964,-0.1695000000000002,0.10688,0.10641,0.0,207.235,207.13,204.24,204.24,0.0,0.0
6,0.0,0.0,0.0,1.0,1.0,0.0,0.0,1.0,0.0,100.0,1.0,1.1856,26.0,0.0,0.0,0.0,59.999996,0.0,26.0,26.0,26.0,26.0,-0.17525000000000002,0.30180000000000007,0.014333333333333335,292.969,-2.58,-2.853777777777778,-1.493,-1.632111111111111,-255.86,215.905,190.87,0.0,0.0,0.0,0.0,0.013133333333333335,-5.498166666666667,-5.498166666666667,-0.546,0.044666666666666854,-0.12912500000000016,0.792,66.287,-0.11800000000000001,-0.2281,1.2439999999999998,100.0,1.0,1.0,204.5233333333333,0.0,0.0,0.0,0.0,0.0,0.0,0.0,8668.9,0.0,55.0,5.0,238.60333333333335,0.0,0.0,0.0,0.0,0.0,0.0,0.0,0.0,0.3030000000000008,0.3030000000000008,0.0,0.0,0.0,55.0,616.79921,10000.0,85.000001,85.000001,85.000001,85.000001,395.0,0.0,0.0,0.0,1.0,333.33500000000004,52.353,52.353,48.522999999999996,48.522999999999996,34.0,-29.636666666666667,17.294,-36.193333333333335,21.9375,0.0,1782.506,1.245000000000001,100.0,27.6,26.698,43.379,40.739000000000004,0.0,0.0,100.0,0.0,0.0,0.0,0.0,3072.4285714285716,2946.3,4295.5,4038.7,303.253,305.49733333333336,314.34625,314.865,17.366375,20.6274,21.872700000000002,21.3517,314.999998,314.999998,324.999988,324.999988,99.56587142857143,99.5099,99.56768571428572,99.54551428571429,-0.10324999999999995,-0.22750000000000004,-0.23983333333333334,-0.019333333333333313,-0.060000000000002274,-0.04333333333332945,1.4979999999999998,1.5630000000000002,40.79,29.9215,37.704,34.448499999999996,64.84,36.4915,59.8935,51.757,61.094,35.452,58.5195,50.088499999999996,61.125,34.887,58.5005,49.48733333333333,0.023499999999999854,-0.17100000000000026,0.10564000000000001,0.10482500000000002,0.0,207.64499999999998,207.575,204.5233333333333,204.5233333333333,0.0,0.0
7,0.0,0.0,0.0,1.0,1.0,0.0,0.0,1.0,0.0,100.0,1.0,1.1856,26.0,0.0,0.0,0.0,59.999996,0.0,26.0,26.0,26.0,26.0,-0.11824999999999997,0.2892000000000001,0.007966666666666667,292.892,-2.5505,-2.8471111111111114,-1.4473,-1.6812222222222222,-252.48,215.9025,190.849625,0.0,0.0,0.0,0.0,0.0151,-5.498166666666667,-5.498166666666667,-0.5573,-0.02966666666666662,-0.12449999999999983,-0.381,66.431,-0.1173,-0.24835000000000002,1.1479999999999997,100.0,1.0,1.0,205.01999999999998,0.0,0.0,0.0,0.0,0.0,0.0,0.0,8690.1,0.0,55.0,5.0,239.12333333333333,1.0,0.0,0.0,0.0,0.0,0.0,0.0,0.0,0.3539999999999992,0.3539999999999992,0.0,0.0,1.0,55.0,616.79921,10000.0,85.000001,85.000001,85.000001,85.000001,395.0,0.0,0.0,0.0,1.0,333.33500000000004,51.834,51.834,48.981,48.981,34.0,-29.73,18.477999999999998,-33.64,21.6675,0.0,1782.454,0.754999999999999,100.0,27.688,27.032,43.342,41.016999999999996,0.0,0.0,100.0,0.0,0.0,0.0,0.0,3247.5714285714284,2929.0,4151.5,3856.2,302.817,305.336,314.73425,315.19225,17.379,20.633,21.8834,21.360599999999998,314.999998,314.999998,324.999988,324.999988,99.56588571428571,99.50993333333334,99.56782857142858,99.54565714285714,-0.07074999999999998,-0.19974999999999998,-0.23466666666666658,-0.015833333333333366,-0.06666666666666998,-0.046666666666666856,1.5324999999999998,1.569,40.869,29.9565,37.771,34.5035,64.83,36.533,59.934,51.816,61.085,35.4905,58.558,50.144999999999996,61.114000000000004,34.923500000000004,58.536,49.54266666666666,-0.01550000000000007,-0.13050000000000006,0.09904,0.11565,0.0,208.085,208.025,205.01999999999998,205.01999999999998,0.0,0.0
8,0.0,0.0,0.0,1.0,1.0,0.0,0.0,1.0,0.0,100.0,1.0,1.1856,26.0,0.0,0.0,0.0,59.999996,0.0,26.0,26.0,26.0,26.0,-0.10899999999999999,0.29100000000000015,0.010166666666666668,292.984,-2.6231,-2.785333333333333,-1.4292,-1.672,-249.07999999999998,215.8975,190.829,0.0,0.0,0.0,0.0,0.017066666666666667,-5.498166666666667,-5.498166666666667,-0.5567,-0.3626666666666666,-0.10787499999999994,0.744,66.577,-0.1058,-0.2409,0.5999999999999996,100.0,1.0,1.0,205.40666666666667,0.0,0.0,0.0,0.0,0.0,0.0,0.0,8706.5,0.0,55.0,5.0,239.64666666666668,0.0,0.0,0.0,0.0,0.0,0.0,0.0,0.0,0.40500000000000114,0.40500000000000114,0.0,0.0,0.0,55.0,616.79921,10000.0,85.000001,85.000001,85.000001,85.000001,395.0,0.0,0.0,0.0,1.0,333.33500000000004,52.414,52.414,48.325,48.325,34.0,-27.036666666666665,18.945999999999998,-32.57666666666667,24.4925,0.0,1782.404,0.6400000000000006,100.0,27.572,26.899,43.505,41.073,0.0,0.0,100.0,0.0,0.0,0.0,0.0,2967.4285714285716,3033.1,4160.25,4023.0,303.7245,305.28066666666666,314.62,314.8485,17.3915,20.6387,21.8941,21.3694,314.999998,314.999998,324.999988,324.999988,99.5659,99.50995,99.56797142857143,99.54578571428571,-0.058499999999999996,-0.1875,-0.21250000000000002,0.019333333333333425,-0.05666666666667197,-0.054999999999999716,1.5204999999999997,1.5474999999999999,40.947,29.991500000000002,37.838,34.559,64.815,36.574,59.975,51.875,61.071,35.528,58.596000000000004,50.201499999999996,61.098,34.9595,58.571,49.59766666666667,-0.023499999999999854,-0.1259999999999999,0.10662,0.11295500000000001,0.0,208.505,208.495,205.40666666666667,205.40666666666667,0.0,0.0
9,0.0,0.0,0.0,1.0,1.0,0.0,0.0,1.0,0.0,100.0,1.0,1.1856,26.0,0.0,0.0,0.0,59.999996,0.0,26.0,26.0,26.0,26.0,-0.09662499999999996,0.2904,0.0257,292.74,-2.5461,-2.794888888888889,-1.48315,-1.6276666666666668,-245.89,215.89,190.80925,0.0,0.0,0.0,0.0,0.018933333333333337,-5.498166666666667,-5.498166666666667,-0.5589000000000001,0.42166666666666686,-0.11575000000000024,0.685,66.711,-0.0903,-0.23767500000000003,0.4220000000000006,100.0,1.0,1.0,205.89,0.0,0.0,0.0,0.0,0.0,0.0,0.0,8727.0,0.0,55.0,5.0,240.13,1.0,0.0,0.0,0.0,0.0,0.0,0.0,0.0,0.4529999999999994,0.4529999999999994,0.0,0.0,1.0,55.0,616.79921,10000.0,85.000001,85.000001,85.000001,85.000001,395.0,0.0,0.0,0.0,1.0,166.665,51.575,51.575,49.042,49.042,34.0,-27.93,20.718,-32.17,23.7775,0.0,1782.358,0.46000000000000085,100.0,27.874,27.103,43.257,41.039,0.0,0.0,100.0,0.0,0.0,0.0,0.0,3201.4285714285716,3080.3,4101.0,3999.2,302.815,305.104,314.854,314.9755,17.40325,20.644,21.9041,21.3777,314.999998,314.999998,324.999988,324.999988,99.5659,99.50996666666667,99.56812857142857,99.54591428571429,-0.035499999999999976,-0.15725,-0.20666666666666667,0.023833333333333373,-0.041666666666671404,-0.05833333333333002,1.5510000000000002,1.5745,41.019999999999996,30.0255,37.900999999999996,34.6105,64.80199999999999,36.6125,60.010999999999996,51.9295,61.06,35.5635,58.6295,50.254,61.086,34.9935,58.602000000000004,49.648666666666664,-0.03849999999999998,-0.11100000000000021,0.11384500000000002,0.106855,0.0,208.91500000000002,208.925,205.89,205.89,0.0,0.0
10,0.0,0.0,0.0,1.0,1.0,0.0,0.0,1.0,0.0,100.0,1.0,1.1856,26.0,0.0,0.0,0.0,59.999996,0.0,26.0,26.0,26.0,26.0,-0.0685,0.2903,0.02626666666666667,292.633,-2.6129,-2.762888888888889,-1.45285,-1.6063333333333334,-242.28,215.88,190.787375,0.0,0.0,0.0,0.0,0.021,-5.498166666666667,-5.498166666666667,-0.5462,-0.4926666666666667,-0.08174999999999999,1.9170000000000003,66.86500000000001,-0.0655,-0.23600000000000002,0.07200000000000095,100.0,1.0,1.0,206.21333333333334,0.0,0.0,0.0,0.0,0.0,0.0,0.0,8740.7,0.0,55.0,5.0,240.68333333333334,0.0,0.0,0.0,0.0,0.0,0.0,1.0,0.0,0.5069999999999979,0.5069999999999979,0.0,0.0,0.0,55.0,616.79921,10000.0,85.000001,85.000001,85.000001,85.000001,395.0,0.0,0.0,0.0,1.0,166.665,52.292,52.292,48.05,48.05,34.0,-25.419999999999998,20.336,-31.713333333333335,26.78,0.0,1782.304,0.370000000000001,100.0,27.784,27.083,43.636,41.548,0.0,0.0,100.0,0.0,0.0,0.0,0.0,2940.5714285714284,3014.3,4241.625,4198.1,303.7985,305.38466666666665,314.43525,314.4655,17.4165,20.65,21.9155,21.3872,314.999998,314.999998,324.999988,324.999988,99.56591428571429,99.50998333333334,99.56827142857144,99.54607142857142,-0.024499999999999966,-0.14549999999999996,-0.17233333333333334,0.05233333333333334,-0.060000000000002274,-0.046666666666666856,1.4939999999999998,1.4945,41.102999999999994,30.0625,37.972,34.67,64.786,36.6535,60.055,51.994,61.046,35.6015,58.671,50.3155,61.069,35.03,58.6405,49.709,-0.040999999999999925,-0.10250000000000004,0.10727,0.10902,0.0,209.39,209.39,206.21333333333334,206.21333333333334,0.0,0.0
11,0.0,0.0,0.0,1.0,1.0,0.0,0.0,1.0,0.0,100.0,1.0,1.1856,26.0,0.0,0.0,0.0,59.999996,0.0,26.0,26.0,26.0,26.0,-0.04499999999999993,0.28480000000000016,-0.06083333333333334,293.121,-2.6294,-2.769111111111111,-1.51425,-1.571777777777778,-239.07,215.8675,190.767875,0.0,0.0,0.0,0.0,0.022600000000000002,-5.498166666666667,-5.498166666666667,-0.5754,-0.126,-0.050875000000000004,0.6739999999999999,66.99600000000001,-0.0485,-0.25405,-0.006000000000000227,100.0,1.0,1.0,206.8466666666667,0.0,0.0,0.0,0.0,0.0,0.0,0.0,8767.5,0.0,55.0,5.0,241.15666666666667,1.0,0.0,0.0,0.0,0.0,0.0,1.0,0.0,0.5549999999999997,0.5549999999999997,0.0,0.0,1.0,55.0,616.79921,10000.0,85.000001,85.000001,85.000001,85.000001,395.0,0.0,0.0,0.0,1.0,333.33500000000004,52.048,52.048,49.21,49.21,34.0,-25.193333333333335,22.534,-27.706666666666663,24.53,0.0,1782.254,0.26500000000000057,100.0,27.463,27.251,43.119,41.545,0.0,0.0,100.0,0.0,0.0,0.0,0.0,2993.142857142857,3142.5,3851.25,3890.7,303.623,304.90433333333334,315.49125,315.24675,17.428,20.6554,21.9254,21.3955,314.999998,314.999998,324.999988,324.999988,99.56591428571429,99.51001666666667,99.56841428571428,99.5462,-0.0022499999999999742,-0.12175000000000002,-0.15849999999999997,0.07333333333333325,-0.05833333333333002,-0.06333333333333258,1.6069999999999998,1.6135000000000002,41.175,30.0965,38.034,34.722,64.769,36.6905,60.088,52.049,61.03,35.6355,58.701499999999996,50.368,61.052,35.0625,58.6685,49.760666666666665,-0.05049999999999999,-0.09450000000000003,0.10597500000000001,0.10618000000000001,0.0,209.775,209.8,206.8466666666667,206.8466666666667,0.0,0.0
12,0.0,0.0,0.0,1.0,1.0,0.0,0.0,1.0,0.0,100.0,1.0,1.1856,26.0,0.0,0.0,0.0,59.999996,0.0,26.0,26.0,26.0,26.0,-0.018000000000000016,0.28049999999999997,0.017966666666666666,292.618,-2.6524,-2.7576666666666667,-1.4822,-1.6002222222222222,-235.65,215.85500000000002,190.745875,0.0,0.0,0.0,0.0,0.025466666666666665,-5.498166666666667,-5.498166666666667,-0.5639000000000001,0.264,-0.06487500000000024,-0.8180000000000001,67.14,-0.031400000000000004,-0.22920000000000001,-0.006000000000000227,100.0,1.0,1.0,207.11666666666667,0.0,0.0,0.0,0.0,0.0,0.0,0.0,8779.0,0.0,55.0,5.0,241.67333333333335,0.0,0.0,0.0,0.0,0.0,0.0,1.0,0.0,0.6059999999999981,0.6059999999999981,0.0,0.0,0.0,55.0,616.79921,10000.0,85.000001,85.000001,85.000001,85.000001,395.0,0.0,0.0,0.0,1.0,166.665,51.849000000000004,51.849000000000004,48.157,48.157,34.0,-26.253333333333334,22.006,-31.096666666666664,26.8675,0.0,1782.204,0.28000000000000114,100.0,27.275,27.575,42.942,41.599000000000004,0.0,0.0,100.0,0.0,0.0,0.0,0.0,3123.142857142857,3086.2,4294.0,4065.3,303.3545,304.90933333333334,314.4635,314.753,17.44025,20.6613,21.936,21.4044,314.999998,314.999998,324.999988,324.999988,99.56591428571429,99.51001666666667,99.56855714285714,99.54634285714286,0.00275000000000003,-0.125,-0.15000000000000002,0.07766666666666677,-0.07000000000000028,-0.04333333333332945,1.5139999999999998,1.536,41.251000000000005,30.133,38.099999999999994,34.7775,64.751,36.729,60.126,52.108000000000004,61.013999999999996,35.6715,58.7375,50.425,61.034,35.097,58.701,49.816,-0.046499999999999986,-0.10450000000000026,0.10984500000000001,0.103965,0.0,210.245,210.26999999999998,207.11666666666667,207.11666666666667,0.0,0.0
13,0.0,0.0,0.0,1.0,1.0,0.0,0.0,1.0,0.0,100.0,1.0,1.1856,26.0,0.0,0.0,0.0,59.999996,0.0,26.0,26.0,26.0,26.0,0.004874999999999963,0.28459999999999996,0.04486666666666667,292.236,-2.6217,-2.763,-1.5119,-1.6093333333333333,-232.22,215.8425,190.72425,0.0,0.0,0.0,0.0,0.02686666666666667,-5.498166666666667,-5.498166666666667,-0.5589000000000001,-0.1326666666666666,-0.0625,1.263,67.282,-0.0252,-0.2374,-0.16000000000000014,100.0,1.0,1.0,207.49666666666667,0.0,0.0,0.0,0.0,0.0,0.0,0.0,8795.1,0.0,55.0,5.0,242.18666666666667,1.0,0.0,0.0,0.0,0.0,0.0,1.0,0.0,0.657,0.657,0.0,0.0,1.0,55.0,616.79921,10000.0,85.000001,85.000001,85.000001,85.000001,395.0,0.0,0.0,0.0,1.0,166.665,51.575,51.575,48.08,48.08,34.0,-23.96,24.098,-30.233333333333334,29.9175,0.0,1782.153,0.19500000000000028,100.0,27.766,27.613,43.347,41.968,0.0,0.0,100.0,0.0,0.0,0.0,0.0,3051.714285714286,3166.5,4214.0,4243.0,303.3765,304.8403333333333,314.5325,314.37925,17.4525,20.6671,21.9467,21.4135,314.999998,314.999998,324.999988,324.999988,99.56592857142857,99.51003333333334,99.56871428571428,99.54647142857142,0.04125000000000001,-0.08899999999999997,-0.13349999999999995,0.10250000000000004,-0.045000000000001705,-0.05333333333332746,1.492,1.4809999999999999,41.328,30.1695,38.167,34.834,64.735,36.7675,60.165,52.1695,60.998999999999995,35.707,58.774,50.4835,61.018,35.131,58.7345,49.873666666666665,-0.07200000000000006,-0.08450000000000024,0.11024500000000001,0.109505,0.0,210.65,210.7,207.49666666666667,207.49666666666667,0.0,0.0
14,0.0,0.0,0.0,1.0,1.0,0.0,0.0,1.0,0.0,100.0,1.0,1.1856,26.0,0.0,0.0,0.0,59.999996,0.0,26.0,26.0,26.0,26.0,0.01475000000000004,0.2812000000000001,-0.011266666666666668,292.435,-2.6557,-2.7535555555555558,-1.52055,-1.589777777777778,-228.78,215.8275,190.702875,0.0,0.0,0.0,0.0,0.02886666666666667,-5.498166666666667,-5.498166666666667,-0.5699000000000001,-0.1163333333333334,-0.03675000000000006,-0.27,67.42099999999999,-0.0132,-0.2505,-0.22599999999999998,100.0,1.0,1.0,208.01,0.0,0.0,0.0,0.0,0.0,0.0,0.0,8816.8,0.0,55.0,5.0,242.69,0.0,0.0,0.0,0.0,0.0,0.0,1.0,0.0,0.7079999999999984,0.7079999999999984,0.0,0.0,0.0,55.0,616.79921,10000.0,85.000001,85.000001,85.000001,85.000001,395.0,0.0,0.0,0.0,1.0,166.665,51.59,51.59,48.263999999999996,48.263999999999996,34.0,-24.503333333333334,23.496,-28.306666666666665,27.5875,0.0,1782.103,0.14000000000000057,100.0,27.542,27.965,43.167,42.285,0.0,0.0,100.0,0.0,0.0,0.0,0.0,3060.5714285714284,3118.0,4079.25,4044.5,303.5975,304.741,314.94975,314.78175,17.464624999999998,20.673000000000002,21.9573,21.4224,314.999998,314.999998,324.999988,324.999988,99.56592857142857,99.51005,99.56884285714285,99.54661428571428,0.03125,-0.09775,-0.12249999999999994,0.09716666666666685,-0.06333333333333258,-0.054999999999999716,1.5375,1.5379999999999998,41.403999999999996,30.2065,38.233000000000004,34.8905,64.718,36.8055,60.202,52.229,60.983999999999995,35.742,58.8085,50.5415,61.0,35.164500000000004,58.766,49.93,-0.06549999999999989,-0.08550000000000013,0.10773500000000001,0.10448,0.0,211.07999999999998,211.14499999999998,208.01,208.01,0.0,0.0
15,0.0,0.0,0.0,1.0,1.0,0.0,0.0,1.0,0.0,100.0,1.0,1.1856,26.0,0.0,0.0,0.0,59.999996,0.0,26.0,26.0,26.0,26.0,0.012375000000000025,0.29259999999999997,0.0151,292.313,-2.6513,-2.6657777777777776,-1.53815,-1.537111111111111,-225.75,215.815,190.68375,0.0,0.0,0.0,0.0,0.030633333333333332,-5.498166666666667,-5.498166666666667,-0.5616,0.276,-0.015249999999999986,0.8109999999999999,67.54599999999999,-0.0028,-0.234075,-0.3379999999999992,100.0,1.0,1.0,208.3466666666667,0.0,0.0,0.0,0.0,0.0,0.0,0.0,8831.0,0.0,55.0,5.0,243.13666666666666,1.0,0.0,0.0,0.0,0.0,0.0,1.0,0.0,0.7530000000000001,0.7530000000000001,0.0,0.0,1.0,55.0,616.79921,10000.0,85.000001,85.000001,85.000001,85.000001,395.0,0.0,0.0,0.0,1.0,333.33500000000004,51.666,51.666,48.172,48.172,34.0,-22.68,23.86,-27.626666666666665,29.6625,0.0,1782.055,0.1999999999999993,100.0,27.789,27.885,43.103,42.272,0.0,0.0,100.0,0.0,0.0,0.0,0.0,2898.0,3233.8,4079.75,4283.7,303.9705,304.625,314.9125,314.30125,17.475375,20.6783,21.9666,21.4304,314.999998,314.999998,324.999988,324.999988,99.56592857142857,99.51006666666666,99.56897142857143,99.54674285714286,0.04425000000000012,-0.08724999999999994,-0.10183333333333333,0.11549999999999994,-0.06499999999999773,-0.03333333333333144,1.5225,1.5354999999999999,41.471000000000004,30.238999999999997,38.292,34.939499999999995,64.702,36.839,60.236,52.2825,60.97,35.775,58.8395,50.596000000000004,60.985,35.1965,58.792500000000004,49.983666666666664,-0.059499999999999886,-0.09250000000000025,0.105745,0.10412,0.0,211.505,211.53,208.3466666666667,208.3466666666667,0.0,0.0
16,0.0,0.0,0.0,1.0,1.0,0.0,0.0,1.0,0.0,100.0,1.0,1.1856,26.0,0.0,0.0,0.0,59.999996,0.0,26.0,26.0,26.0,26.0,0.013249999999999984,0.2659,-0.008766666666666667,292.358,-2.7142,-2.6719999999999997,-1.5141,-1.5967777777777779,-222.09,215.8025,190.6605,0.0,0.0,0.0,0.0,0.03276666666666667,-5.498166666666667,-5.498166666666667,-0.5787,-0.56,-0.026124999999999954,0.17100000000000004,67.693,0.0029000000000000002,-0.248975,-0.2079999999999993,100.0,1.0,1.0,208.82666666666665,0.0,0.0,0.0,0.0,0.0,0.0,0.0,8851.3,0.0,55.0,5.0,243.66666666666666,0.0,0.0,0.0,0.0,0.0,0.0,1.0,0.0,0.8069999999999986,0.8069999999999986,0.0,0.0,0.0,55.0,616.79921,10000.0,85.000001,85.000001,85.000001,85.000001,395.0,0.0,0.0,0.0,1.0,166.665,51.575,51.575,47.989,47.989,34.0,-24.61,24.387999999999998,-26.823333333333338,29.185000000000002,0.0,1782.004,0.3000000000000007,100.0,27.463,27.916,43.361000000000004,42.424,0.0,0.0,100.0,0.0,0.0,0.0,0.0,3022.714285714286,3292.5,4040.75,4035.4,303.7015,304.4646666666667,314.99525,314.8275,17.488,20.6846,21.978,21.4399,314.999998,314.999998,324.999988,324.999988,99.56594285714286,99.51006666666666,99.56914285714285,99.5469,0.03374999999999995,-0.08775,-0.09899999999999998,0.12816666666666676,-0.03999999999999915,-0.05333333333332746,1.5314999999999999,1.5244999999999997,41.55,30.2785,38.361999999999995,34.9995,64.682,36.879,60.274,52.346000000000004,60.951,35.81,58.8755,50.6535,60.964,35.230000000000004,58.827,50.04,-0.047499999999999876,-0.10450000000000026,0.10522000000000001,0.112695,0.0,211.905,211.95499999999998,208.82666666666665,208.82666666666665,0.0,0.0
17,0.0,0.0,0.0,1.0,1.0,0.0,0.0,1.0,0.0,100.0,1.0,1.1856,26.0,0.0,0.0,0.0,59.999996,0.0,26.0,26.0,26.0,26.0,0.007749999999999924,0.2822,0.022633333333333335,291.992,-2.6709,-2.661666666666667,-1.5486,-1.5672222222222223,-218.64,215.79000000000002,190.638125,0.0,0.0,0.0,0.0,0.03476666666666667,-5.498166666666667,-5.498166666666667,-0.5685,0.3723333333333332,-0.05799999999999983,-0.893,67.832,0.0007,-0.22967500000000002,-0.043999999999999595,100.0,1.0,1.0,209.19666666666666,0.0,0.0,0.0,0.0,0.0,0.0,0.0,8867.0,0.0,55.0,5.0,244.16666666666666,1.0,0.0,0.0,0.0,0.0,0.0,1.0,0.0,0.8580000000000005,0.8580000000000005,0.0,0.0,1.0,55.0,616.79921,10000.0,85.000001,85.000001,85.000001,85.000001,395.0,0.0,0.0,0.0,1.0,166.665,51.391999999999996,51.391999999999996,47.714,47.714,34.0,-25.38,22.688,-31.023333333333333,29.5325,0.0,1781.953,0.26500000000000057,100.0,27.696,28.184,43.167,42.417,0.0,0.0,100.0,0.0,0.0,0.0,0.0,3169.5714285714284,3080.1,4434.25,4154.4,303.2655,304.959,314.2075,314.574,17.50025,20.6906,21.988599999999998,21.4488,314.999998,314.999998,324.999988,324.999988,99.56594285714286,99.51008333333333,99.56928571428571,99.54704285714286,0.03699999999999992,-0.08699999999999997,-0.11049999999999993,0.12250000000000005,-0.060000000000002274,-0.045000000000001705,1.5179999999999998,1.5145,41.626999999999995,30.316,38.429,35.055,64.667,36.917500000000004,60.3105,52.405,60.937,35.8455,58.9095,50.710499999999996,60.948,35.263999999999996,58.858000000000004,50.095333333333336,-0.05600000000000005,-0.09699999999999998,0.10811000000000001,0.11489,0.0,212.39499999999998,212.42000000000002,209.19666666666666,209.19666666666666,0.0,0.0
18,0.0,0.0,0.0,1.0,1.0,0.0,0.0,1.0,0.0,100.0,1.0,1.1856,26.0,0.0,0.0,0.0,59.999996,0.0,26.0,26.0,26.0,26.0,-0.008000000000000007,0.27870000000000017,-0.009966666666666667,291.977,-2.6922,-2.6444444444444444,-1.5578,-1.5185555555555557,-215.57999999999998,215.78,190.61825,0.0,0.0,0.0,0.0,0.036533333333333334,-5.498166666666667,-5.498166666666667,-0.5784,-0.45399999999999996,-0.0378750000000001,1.129,67.95400000000001,-0.0022,-0.24375000000000002,-0.13200000000000056,100.0,1.0,1.0,209.57666666666665,0.0,0.0,0.0,0.0,0.0,0.0,0.0,8883.3,0.0,55.0,5.0,244.60666666666668,0.0,0.0,0.0,0.0,0.0,0.0,1.0,0.0,0.9029999999999987,0.9029999999999987,0.0,0.0,0.0,55.0,616.79921,10000.0,85.000001,85.000001,85.000001,85.000001,395.0,0.0,0.0,0.0,1.0,333.33500000000004,51.315,51.315,47.699,47.699,34.0,-24.346666666666664,24.472,-29.396666666666665,28.27,0.0,1781.906,0.25,100.0,27.75,27.922,43.592,42.618,0.0,0.0,100.0,0.0,0.0,0.0,0.0,3066.4285714285716,3334.5,4168.375,4158.2,303.487,304.41766666666666,314.7195,314.613,17.510875,20.6958,21.9981,21.4568,314.999998,314.999998,324.999988,324.999988,99.56595714285714,99.5101,99.56941428571429,99.54717142857143,0.047250000000000014,-0.08599999999999997,-0.11716666666666664,0.11250000000000004,-0.054999999999999716,-0.04999999999999716,1.528,1.5225,41.693,30.3485,38.488,35.105000000000004,64.651,36.95,60.344,52.4585,60.922,35.876,58.9405,50.762,60.932,35.2935,58.8865,50.146,-0.062000000000000055,-0.10199999999999987,0.11242,0.10453000000000001,0.0,212.745,212.765,209.57666666666665,209.57666666666665,0.0,0.0
19,0.0,0.0,0.0,1.0,1.0,0.0,0.0,1.0,0.0,100.0,1.0,1.1856,26.0,0.0,0.0,0.0,59.999996,0.0,26.0,26.0,26.0,26.0,0.0006250000000000977,0.28580000000000005,0.053066666666666665,291.458,-2.6098,-2.743666666666667,-1.568,-1.5076666666666667,-212.11,215.76749999999998,190.595625,0.0,0.0,0.0,0.0,0.03856666666666667,-5.498166666666667,-5.498166666666667,-0.5716,0.7483333333333333,-0.038124999999999964,-0.813,68.092,-0.0007,-0.236025,-0.07399999999999984,100.0,1.0,1.0,209.9766666666667,0.0,0.0,0.0,0.0,0.0,0.0,0.0,8900.2,0.0,55.0,5.0,245.10000000000002,1.0,0.0,0.0,0.0,0.0,0.0,1.0,0.0,0.9540000000000006,0.9540000000000006,0.0,0.0,1.0,55.0,616.79921,10000.0,85.000001,85.000001,85.000001,85.000001,395.0,0.0,0.0,0.0,1.0,333.33500000000004,50.583,50.583,47.485,47.485,34.0,-25.123333333333335,24.052,-31.146666666666665,29.0375,0.0,1781.855,0.3200000000000003,100.0,28.159,28.603,43.357,42.711,0.0,0.0,100.0,0.0,0.0,0.0,0.0,3179.0,3209.6,4364.625,4286.3,303.083,304.3496666666667,314.37525,314.28375,17.523125,20.7019,22.0086,21.4658,314.999998,314.999998,324.999988,324.999988,99.56595714285714,99.5101,99.56955714285715,99.54731428571428,0.03600000000000003,-0.10424999999999995,-0.11766666666666659,0.10866666666666669,-0.06833333333332803,-0.05333333333332746,1.512,1.516,41.769999999999996,30.387,38.554,35.161500000000004,64.636,36.99,60.3795,52.5185,60.909,35.913,58.9735,50.8195,60.917,35.329,58.9165,50.202333333333335,-0.057499999999999885,-0.10599999999999987,0.10099000000000001,0.108075,0.0,213.2,213.22500000000002,209.9766666666667,209.9766666666667,0.0,0.0
20,0.0,0.0,0.0,1.0,1.0,0.0,0.0,1.0,0.0,100.0,1.0,1.1856,26.0,0.0,0.0,0.0,59.999996,0.0,26.0,26.0,26.0,26.0,0.022250000000000103,0.27370000000000005,0.0337,291.809,-2.7047,-2.6998888888888892,-1.4952,-1.6293333333333333,-208.64,215.755,190.573375,0.0,0.0,0.0,0.0,0.04056666666666667,-5.498166666666667,-5.498166666666667,-0.5722,-0.977,-0.03412499999999996,0.7490000000000001,68.23,-0.0011,-0.24532500000000002,-0.13200000000000056,100.0,1.0,1.0,210.32,0.0,0.0,0.0,0.0,0.0,0.0,0.0,8914.8,0.0,55.0,5.0,245.60333333333335,0.0,0.0,0.0,0.0,0.0,0.0,0.0,0.0,1.004999999999999,1.004999999999999,0.0,0.0,0.0,55.0,616.79921,10000.0,85.000001,85.000001,85.000001,85.000001,395.0,0.0,0.0,0.0,1.0,333.33500000000004,51.666,51.666,46.997,46.997,34.0,-23.463333333333335,23.805999999999997,-28.279999999999998,30.8675,0.0,1781.804,0.3500000000000014,100.0,27.83,28.103,44.05,43.049,0.0,0.0,100.0,0.0,0.0,0.0,0.0,2921.142857142857,3187.3,4215.875,4211.4,304.036,304.814,314.50825,314.341,17.535,20.7079,22.0195,21.475,314.999998,314.999998,324.999988,324.999988,99.56595714285714,99.51011666666666,99.56971428571428,99.54745714285714,0.03825000000000012,-0.08599999999999997,-0.09933333333333338,0.11616666666666675,-0.04833333333333201,-0.03833333333332689,1.4859999999999998,1.4769999999999999,41.844,30.424,38.622,35.219,64.616,37.0275,60.4195,52.58,60.891,35.948,59.010999999999996,50.879,60.897,35.3625,58.951,50.260333333333335,-0.046499999999999986,-0.10450000000000026,0.10239500000000001,0.09912000000000001,0.0,213.585,213.60500000000002,210.32,210.32,0.0,0.0
21,0.0,0.0,0.0,1.0,1.0,0.0,0.0,1.0,0.0,100.0,1.0,1.1856,26.0,0.0,0.0,0.0,59.999996,0.0,26.0,26.0,26.0,26.0,-0.0034999999999999476,0.27160000000000006,-0.0745,292.206,-2.6707,-2.7074444444444445,-1.5622,-1.5872222222222223,-205.36,215.745,190.55175,0.0,0.0,0.0,0.0,0.04246666666666667,-5.498166666666667,-5.498166666666667,-0.5948,0.2590000000000001,-0.050124999999999975,0.14700000000000002,68.355,-0.0067,-0.24607500000000002,-0.043999999999999595,100.0,1.0,1.0,210.92666666666668,0.0,0.0,0.0,0.0,0.0,0.0,0.0,8940.4,0.0,55.0,5.0,246.05,1.0,0.0,0.0,0.0,0.0,0.0,0.0,0.0,1.0530000000000008,1.0530000000000008,0.0,0.0,1.0,55.0,616.79921,10000.0,85.000001,85.000001,85.000001,85.000001,395.0,0.0,0.0,0.0,1.0,333.33500000000004,51.361,51.361,48.233000000000004,48.233000000000004,34.0,-24.25,23.740000000000002,-27.619999999999997,27.2775,0.0,1781.757,0.3000000000000007,100.0,27.942,28.159,43.478,42.682,0.0,0.0,100.0,0.0,0.0,0.0,0.0,3048.857142857143,3187.8,4068.25,3950.0,303.5245,304.8206666666667,315.0445,315.12125,17.546375,20.7135,22.0294,21.4834,314.999998,314.999998,324.999988,324.999988,99.56597142857143,99.51013333333333,99.56984285714286,99.54758571428572,0.04249999999999998,-0.08924999999999994,-0.10399999999999998,0.11349999999999993,-0.061666666666667425,-0.060000000000002274,1.5829999999999997,1.584,41.915,30.4595,38.683,35.271,64.6,37.064,60.4505,52.6335,60.876000000000005,35.9815,59.039500000000004,50.93,60.881,35.394999999999996,58.9765,50.31066666666666,-0.05400000000000005,-0.10550000000000015,0.10175000000000001,0.10687500000000001,0.0,214.0,214.03,210.92666666666668,210.92666666666668,0.0,0.0
22,0.0,0.0,0.0,1.0,1.0,0.0,0.0,1.0,0.0,100.0,1.0,1.1856,26.0,0.0,0.0,0.0,59.999996,0.0,26.0,26.0,26.0,26.0,0.0068749999999999645,0.2802,0.015433333333333335,291.733,-2.6025,-2.759666666666667,-1.5523,-1.5772222222222223,-201.87,215.735,190.528,0.0,0.0,0.0,0.0,0.044500000000000005,-5.498166666666667,-5.498166666666667,-0.5773,0.11299999999999999,-0.04787499999999989,-0.392,68.493,-0.0078000000000000005,-0.22685000000000002,-0.03399999999999981,100.0,1.0,1.0,211.17000000000002,0.0,0.0,0.0,0.0,0.0,0.0,0.0,8950.7,0.0,55.0,5.0,246.54666666666668,0.0,0.0,0.0,0.0,0.0,0.0,0.0,0.0,1.1039999999999992,1.1039999999999992,0.0,0.0,0.0,55.0,616.79921,10000.0,85.000001,85.000001,85.000001,85.000001,395.0,0.0,0.0,0.0,1.0,333.33500000000004,51.391999999999996,51.391999999999996,47.18,47.18,34.0,-23.87,22.764000000000003,-31.763333333333335,29.0925,0.0,1781.706,0.25,100.0,27.93,28.419,43.69,42.900999999999996,0.0,0.0,100.0,0.0,0.0,0.0,0.0,3023.285714285714,3051.8,4362.875,4216.2,303.7015,304.9363333333333,314.338,314.429,17.558374999999998,20.7196,22.0401,21.4925,314.999998,314.999998,324.999988,324.999988,99.56598571428572,99.51015,99.56998571428572,99.54772857142858,0.029249999999999998,-0.10424999999999995,-0.13016666666666665,0.09850000000000003,-0.061666666666667425,-0.051666666666669414,1.4945,1.4849999999999999,41.989999999999995,30.497,38.75,35.328,64.584,37.1025,60.489,52.6935,60.861000000000004,36.016999999999996,59.076,50.9875,60.864000000000004,35.429,59.01,50.367,-0.052000000000000046,-0.1030000000000002,0.112875,0.10452,0.0,214.42000000000002,214.46,211.17000000000002,211.17000000000002,0.0,0.0
23,0.0,0.0,0.0,1.0,1.0,0.0,0.0,1.0,0.0,100.0,1.0,1.1856,26.0,0.0,0.0,0.0,59.999996,0.0,26.0,26.0,26.0,26.0,0.019875000000000087,0.248,-0.011833333333333333,291.672,-2.6338,-2.707111111111111,-1.6113,-1.6360000000000001,-198.37,215.7225,190.5045,0.0,0.0,0.0,0.0,0.046533333333333336,-5.498166666666667,-5.498166666666667,-0.5947,-0.2646666666666666,-0.04237499999999983,0.526,68.627,-0.0039000000000000003,-0.251875,-0.10599999999999987,100.0,1.0,1.0,211.68333333333334,0.0,0.0,0.0,0.0,0.0,0.0,0.0,8972.5,0.0,55.0,5.0,247.03,1.0,0.0,0.0,0.0,0.0,0.0,0.0,0.0,1.1550000000000011,1.1550000000000011,0.0,0.0,1.0,55.0,616.79921,10000.0,85.000001,85.000001,85.000001,85.000001,395.0,0.0,0.0,0.0,1.0,333.33500000000004,50.69,50.69,48.05,48.05,34.0,-25.143333333333334,24.368,-29.013333333333335,28.8625,0.0,1781.654,0.3049999999999997,100.0,28.262999999999998,28.397,43.893,43.067,0.0,0.0,100.0,0.0,0.0,0.0,0.0,3194.857142857143,3249.8,4054.125,3981.9,303.0495,304.59133333333335,315.091,314.956,17.570375,20.7256,22.0508,21.5016,314.999998,314.999998,324.999988,324.999988,99.56598571428572,99.51015,99.57014285714286,99.54787142857143,0.04425000000000012,-0.08824999999999994,-0.11699999999999999,0.12016666666666675,-0.045000000000001705,-0.046666666666666856,1.5314999999999999,1.5284999999999997,42.065,30.535,38.817,35.385,64.56700000000001,37.141,60.525999999999996,52.754,60.846000000000004,36.0535,59.1105,51.046,60.847,35.463499999999996,59.041,50.42366666666666,-0.05499999999999994,-0.10050000000000026,0.11374500000000001,0.10500500000000001,0.0,214.81,214.86,211.68333333333334,211.68333333333334,0.0,0.0
24,0.0,0.0,0.0,1.0,1.0,0.0,0.0,1.0,0.0,100.0,1.0,1.1856,26.0,0.0,0.0,0.0,59.999996,0.0,26.0,26.0,26.0,26.0,-0.0014999999999999458,0.28100000000000014,-0.055400000000000005,291.87,-2.6579,-2.717,-1.529,-1.579888888888889,-195.07999999999998,215.7125,190.482125,0.0,0.0,0.0,0.0,0.04846666666666667,-5.498166666666667,-5.498166666666667,-0.6009,-0.402,-0.033250000000000224,1.201,68.754,-0.0004,-0.2434,-0.11599999999999966,100.0,1.0,1.0,211.98666666666668,0.0,0.0,0.0,0.0,0.0,0.0,0.0,8985.3,0.0,55.0,5.0,247.48666666666668,0.0,0.0,0.0,0.0,0.0,0.0,0.0,0.0,1.2029999999999994,1.2029999999999994,0.0,0.0,0.0,55.0,616.79921,10000.0,85.000001,85.000001,85.000001,85.000001,395.0,0.0,0.0,0.0,1.0,333.33500000000004,51.666,51.666,47.226,47.226,34.0,-22.956666666666663,22.874000000000002,-29.776666666666664,29.0775,0.0,1781.607,0.3049999999999997,100.0,28.084,28.161,43.884,43.024,0.0,0.0,100.0,0.0,0.0,0.0,0.0,2905.4285714285716,3107.4,4300.375,4118.4,303.9905,305.057,314.36825,314.719,17.581625,20.7312,22.0607,21.5101,314.999998,314.999998,324.999988,324.999988,99.56598571428572,99.51016666666666,99.57028571428572,99.54801428571429,0.040999999999999925,-0.09599999999999997,-0.10816666666666663,0.11683333333333334,-0.051666666666669414,-0.046666666666666856,1.5154999999999998,1.5139999999999998,42.135,30.57,38.879999999999995,35.4385,64.55,37.176,60.5605,52.8095,60.831,36.086,59.1425,51.0995,60.83,35.4945,59.07,50.476,-0.05049999999999999,-0.10349999999999993,0.1073,0.106465,0.0,215.215,215.255,211.98666666666668,211.98666666666668,0.0,0.0
25,0.0,0.0,0.0,1.0,1.0,0.0,0.0,1.0,0.0,100.0,1.0,1.1856,26.0,0.0,0.0,0.0,59.999996,0.0,26.0,26.0,26.0,26.0,0.02300000000000013,0.26890000000000014,-0.046700000000000005,291.855,-2.7352,-2.6704444444444446,-1.5492,-1.578,-191.57,215.7025,190.456875,0.0,0.0,0.0,0.0,0.0505,-5.498166666666667,-5.498166666666667,-0.6263000000000001,-0.09366666666666656,-0.02662500000000012,-1.008,68.887,-0.0008,-0.24555000000000002,-0.13200000000000056,100.0,1.0,1.0,212.50666666666666,0.0,0.0,0.0,0.0,0.0,0.0,0.0,9007.4,0.0,55.0,5.0,247.96666666666667,1.0,0.0,0.0,0.0,0.0,0.0,0.0,0.0,1.2540000000000013,1.2540000000000013,0.0,0.0,1.0,55.0,616.79921,10000.0,85.000001,85.000001,85.000001,85.000001,395.0,0.0,0.0,0.0,1.0,333.33500000000004,50.919,50.919,47.913,47.913,34.0,-25.833333333333332,24.490000000000002,-27.946666666666665,27.83,0.0,1781.555,0.254999999999999,100.0,27.757,28.46,43.542,42.882,0.0,0.0,100.0,0.0,0.0,0.0,0.0,3211.142857142857,3294.3,4041.375,4010.2,303.2785,304.3163333333333,315.10725,314.9385,17.593375,20.7373,22.0713,21.5191,314.999998,314.999998,324.999988,324.999988,99.566,99.51018333333333,99.57042857142856,99.54815714285715,0.04699999999999993,-0.08999999999999997,-0.11566666666666658,0.11316666666666686,-0.060000000000002274,-0.04999999999999716,1.5554999999999999,1.56,42.209,30.608,38.945,35.4945,64.531,37.2145,60.595,52.867,60.813,36.1215,59.1745,51.155,60.811,35.528999999999996,59.099000000000004,50.53033333333333,-0.0674999999999999,-0.09600000000000009,0.10747000000000001,0.10343500000000001,0.0,215.635,215.65,212.50666666666666,212.50666666666666,0.0,0.0
26,0.0,0.0,0.0,1.0,1.0,0.0,0.0,1.0,0.0,100.0,1.0,1.1856,26.0,0.0,0.0,0.0,59.999996,0.0,26.0,26.0,26.0,26.0,0.013000000000000123,0.29000000000000004,0.06506666666666666,290.71,-2.6821,-2.7493333333333334,-1.5944,-1.5767777777777778,-187.84,215.69,190.42975,0.0,0.0,0.0,0.0,0.05266666666666667,-5.498166666666667,-5.498166666666667,-0.5931000000000001,0.5090000000000001,-0.04837500000000006,-0.766,69.031,0.0013000000000000002,-0.22412500000000002,-0.11799999999999944,100.0,1.0,1.0,212.68666666666667,0.0,0.0,0.0,0.0,0.0,0.0,0.0,9015.1,0.0,55.0,5.0,248.48333333333335,0.0,0.0,0.0,0.0,0.0,0.0,0.0,0.0,1.3079999999999998,1.3079999999999998,0.0,0.0,0.0,55.0,616.79921,10000.0,85.000001,85.000001,85.000001,85.000001,395.0,0.0,0.0,0.0,1.0,166.665,50.415,50.415,46.31,46.31,34.0,-25.486666666666665,23.532,-34.480000000000004,31.9925,0.0,1781.503,0.21000000000000085,100.0,28.604,29.076999999999998,44.054,43.326,0.0,0.0,100.0,0.0,0.0,0.0,0.0,3204.857142857143,3105.0,4672.375,4424.7,303.1175,304.766,313.636,313.941,17.606125,20.7439,22.0826,21.5288,314.999998,314.999998,324.999988,324.999988,99.56601428571429,99.5102,99.57058571428571,99.54831428571428,0.04699999999999993,-0.09550000000000003,-0.11483333333333334,0.1160000000000001,-0.04833333333333201,-0.051666666666669414,1.4474999999999998,1.4449999999999998,42.289,30.6495,39.016,35.555,64.517,37.2575,60.635999999999996,52.9315,60.8,36.161,59.213,51.217,60.796,35.567,59.134,50.591,-0.07000000000000006,-0.10349999999999993,0.10679000000000001,0.10564000000000001,0.0,216.10000000000002,216.135,212.68666666666667,212.68666666666667,0.0,0.0
27,0.0,0.0,0.0,1.0,1.0,0.0,0.0,1.0,0.0,100.0,1.0,1.1856,26.0,0.0,0.0,0.0,59.999996,0.0,26.0,26.0,26.0,26.0,0.03200000000000003,0.25270000000000015,-0.03593333333333333,291.229,-2.6502,-2.7087777777777777,-1.53505,-1.643,-184.51999999999998,215.6825,190.406625,0.0,0.0,0.0,0.0,0.0546,-5.498166666666667,-5.498166666666667,-0.6162000000000001,-0.9366666666666666,-0.04225000000000012,-0.625,69.154,0.0012000000000000001,-0.26435000000000003,-0.13600000000000012,100.0,1.0,1.0,213.20333333333332,0.0,0.0,0.0,0.0,0.0,0.0,0.0,9037.0,0.0,55.0,5.0,248.93,1.0,0.0,0.0,0.0,0.0,0.0,0.0,0.0,1.355999999999998,1.355999999999998,0.0,0.0,1.0,55.0,616.79921,10000.0,85.000001,85.000001,85.000001,85.000001,395.0,0.0,0.0,0.0,1.0,166.665,50.842,50.842,46.6,46.6,34.0,-23.926666666666666,23.57,-29.27,29.052500000000002,0.0,1781.455,0.17999999999999972,100.0,28.298000000000002,28.97,44.599000000000004,43.804,0.0,0.0,100.0,0.0,0.0,0.0,0.0,3059.142857142857,3158.5,4215.25,3978.4,303.677,304.6976666666667,314.6505,314.8955,17.61725,20.7497,22.0928,21.5375,314.999998,314.999998,324.999988,324.999988,99.56601428571429,99.5102,99.57072857142857,99.54844285714286,0.04475000000000007,-0.09375,-0.11116666666666664,0.11699999999999999,-0.06499999999999773,-0.041666666666671404,1.5059999999999998,1.4905,42.358000000000004,30.685499999999998,39.08,35.6095,64.5,37.2935,60.6725,52.989,60.785,36.1945,59.247,51.272,60.778999999999996,35.599000000000004,59.165,50.644666666666666,-0.06400000000000006,-0.09650000000000025,0.10007500000000001,0.11098500000000001,0.0,216.445,216.465,213.20333333333332,213.20333333333332,0.0,0.0
28,0.0,0.0,0.0,1.0,1.0,0.0,0.0,1.0,0.0,100.0,1.0,1.1856,26.0,0.0,0.0,0.0,59.999996,0.0,26.0,26.0,26.0,26.0,0.03550000000000009,0.26260000000000017,-0.06633333333333334,291.473,-2.6333,-2.7110000000000003,-1.578,-1.6084444444444443,-181.2,215.6725,190.382875,0.0,0.0,0.0,0.0,0.05653333333333334,-5.498166666666667,-5.498166666666667,-0.6243000000000001,0.552,-0.052750000000000075,-0.792,69.276,0.0031000000000000003,-0.2444,-0.20199999999999996,100.0,1.0,1.0,213.70666666666668,0.0,0.0,0.0,0.0,0.0,0.0,0.0,9058.3,0.0,55.0,5.0,249.36666666666667,0.0,0.0,0.0,0.0,0.0,0.0,0.0,0.0,1.404,1.404,0.0,0.0,0.0,55.0,616.79921,10000.0,85.000001,85.000001,85.000001,85.000001,395.0,0.0,0.0,0.0,1.0,166.665,50.629,50.629,47.714,47.714,34.0,-24.496666666666666,23.852,-28.58,28.6875,0.0,1781.406,0.14499999999999957,100.0,28.368,28.881,43.946,43.338,0.0,0.0,100.0,0.0,0.0,0.0,0.0,3178.142857142857,3143.0,4106.75,4004.4,303.1955,304.7203333333333,315.03675,314.976,17.6285,20.7555,22.1026,21.546,314.999998,314.999998,324.999988,324.999988,99.56601428571429,99.51021666666666,99.57087142857142,99.54858571428572,0.05449999999999999,-0.08550000000000002,-0.11249999999999993,0.1233333333333333,-0.061666666666667425,-0.045000000000001705,1.5695000000000001,1.5554999999999999,42.428,30.7215,39.141,35.6625,64.485,37.33,60.7025,53.042500000000004,60.772,36.2285,59.275,51.323499999999996,60.763999999999996,35.6315,59.19,50.69466666666666,-0.07200000000000006,-0.09250000000000025,0.111265,0.11167500000000001,0.0,216.85000000000002,216.88,213.70666666666668,213.70666666666668,0.0,0.0
29,0.0,0.0,0.0,1.0,1.0,0.0,0.0,1.0,0.0,100.0,1.0,1.1856,26.0,0.0,0.0,0.0,59.999996,0.0,26.0,26.0,26.0,26.0,0.03125,0.2583,0.0223,291.199,-2.6262,-2.748555555555556,-1.5341,-1.5865555555555557,-177.45999999999998,215.6625,190.354875,0.0,0.0,0.0,0.0,0.0587,-5.498166666666667,-5.498166666666667,-0.6239,-0.6539999999999999,-0.043625000000000025,-0.587,69.418,0.0056,-0.23885,-0.24399999999999977,100.0,1.0,1.0,213.94666666666666,0.0,0.0,0.0,0.0,0.0,0.0,0.0,9068.3,0.0,55.0,5.0,249.88,1.0,0.0,0.0,0.0,0.0,0.0,0.0,0.0,1.4579999999999984,1.4579999999999984,0.0,0.0,1.0,55.0,616.79921,10000.0,85.000001,85.000001,85.000001,85.000001,395.0,0.0,0.0,0.0,1.0,166.665,51.01,51.01,46.677,46.677,34.0,-23.733333333333334,23.738,-29.919999999999998,30.697499999999998,0.0,1781.353,0.11500000000000199,100.0,28.06,28.797,44.292,43.669,0.0,0.0,100.0,0.0,0.0,0.0,0.0,3090.714285714286,3122.5,4278.0,4219.3,303.615,304.74466666666666,314.485,314.36175,17.640875,20.7619,22.1139,21.5557,314.999998,314.999998,324.999988,324.999988,99.56602857142857,99.51023333333333,99.57102857142857,99.54874285714286,0.050000000000000044,-0.09324999999999994,-0.11049999999999993,0.1213333333333333,-0.061666666666667425,-0.04999999999999716,1.4729999999999999,1.463,42.506,30.762,39.212,35.723,64.46600000000001,37.369,60.7435,53.1065,60.754999999999995,36.265,59.313,51.385,60.744,35.6665,59.2245,50.754999999999995,-0.07000000000000006,-0.09350000000000014,0.111865,0.10637500000000001,0.0,217.26,217.305,213.94666666666666,213.94666666666666,0.0,0.0
30,0.0,0.0,0.0,1.0,1.0,0.0,0.0,1.0,0.0,100.0,1.0,1.1856,26.0,0.0,0.0,0.0,59.999996,0.0,26.0,26.0,26.0,26.0,0.029875000000000096,0.2563,0.014666666666666666,290.68,-2.6356,-2.639777777777778,-1.50295,-1.6483333333333332,-174.12,215.655,190.33,0.0,0.0,0.0,0.0,0.06063333333333334,-5.498166666666667,-5.498166666666667,-0.6256,0.7490000000000001,-0.05312500000000009,-0.89,69.539,0.0094,-0.24315,-0.2599999999999998,100.0,1.0,1.0,214.42666666666668,0.0,0.0,0.0,0.0,0.0,0.0,0.0,9088.7,0.0,55.0,5.0,250.31333333333333,0.0,0.0,0.0,0.0,0.0,0.0,1.0,0.0,1.5060000000000002,1.5060000000000002,0.0,0.0,0.0,55.0,616.79921,10000.0,85.000001,85.000001,85.000001,85.000001,395.0,0.0,0.0,0.0,1.0,166.665,49.53,49.53,47.165,47.165,34.0,-25.66333333333333,24.451999999999998,-28.169999999999998,30.02,0.0,1781.304,0.15500000000000114,100.0,28.899,29.5,44.097,43.64,0.0,0.0,100.0,0.0,0.0,0.0,0.0,3321.714285714286,3268.1,4237.625,4027.1000000000004,302.6,304.262,314.65825,314.812,17.65225,20.7679,22.1239,21.5643,314.999998,314.999998,324.999988,324.999988,99.56604285714286,99.51023333333333,99.57117142857143,99.54888571428572,0.06000000000000005,-0.08324999999999994,-0.09699999999999998,0.1273333333333333,-0.07666666666666799,-0.03999999999999915,1.5074999999999998,1.4985,42.577,30.799500000000002,39.274,35.777,64.45400000000001,37.408,60.7755,53.161500000000004,60.744,36.301,59.343,51.438,60.732,35.701,59.2515,50.807,-0.07400000000000007,-0.09699999999999998,0.09917500000000001,0.10784,0.0,217.66500000000002,217.715,214.42666666666668,214.42666666666668,0.0,0.0
31,0.0,0.0,0.0,1.0,1.0,0.0,0.0,1.0,0.0,100.0,1.0,1.1856,26.0,0.0,0.0,0.0,59.999996,0.0,26.0,26.0,26.0,26.0,0.010625000000000107,0.2563,0.0395,290.359,-2.7169,-2.6755555555555555,-1.5503,-1.5454444444444444,-170.57,215.6475,190.30425,0.0,0.0,0.0,0.0,0.0627,-5.498166666666667,-5.498166666666667,-0.6103000000000001,-0.4016666666666666,-0.04312499999999986,0.7630000000000001,69.67099999999999,0.013300000000000001,-0.24710000000000001,-0.3420000000000005,100.0,1.0,1.0,214.68,0.0,0.0,0.0,0.0,0.0,0.0,0.0,9099.5,0.0,55.0,5.0,250.79000000000002,1.0,0.0,0.0,0.0,0.0,0.0,1.0,0.0,1.5569999999999986,1.5569999999999986,0.0,0.0,1.0,55.0,616.79921,10000.0,85.000001,85.000001,85.000001,85.000001,395.0,0.0,0.0,0.0,1.0,166.665,50.034,50.034,45.67,45.67,34.0,-24.066666666666666,26.092,-30.226666666666663,30.5925,0.0,1781.254,0.10000000000000142,100.0,28.879,29.37,44.956,44.153,0.0,0.0,100.0,0.0,0.0,0.0,0.0,3088.714285714286,3429.5,4353.75,4242.5,303.491,304.13,314.2105,314.34825,17.664125,20.7742,22.1347,21.5736,314.999998,314.999998,324.999988,324.999988,99.56604285714286,99.51025,99.57131428571428,99.54902857142856,0.06499999999999995,-0.07699999999999996,-0.09516666666666662,0.12450000000000006,-0.03999999999999915,-0.051666666666669414,1.4445000000000001,1.4274999999999998,42.650999999999996,30.8385,39.342,35.835499999999996,64.439,37.4475,60.8155,53.2235,60.730000000000004,36.3375,59.379999999999995,51.4975,60.716,35.7365,59.2855,50.86533333333333,-0.0734999999999999,-0.09450000000000003,0.115345,0.10103000000000001,0.0,218.035,218.10000000000002,214.68,214.68,0.0,0.0
32,0.0,0.0,0.0,1.0,1.0,0.0,0.0,1.0,0.0,100.0,1.0,1.1856,26.0,0.0,0.0,0.0,59.999996,0.0,26.0,26.0,26.0,26.0,0.017125000000000057,0.2734000000000001,-0.05073333333333333,290.787,-2.6435,-2.7284444444444444,-1.604,-1.599777777777778,-167.23000000000002,215.64249999999998,190.28025,0.0,0.0,0.0,0.0,0.06463333333333333,-5.498166666666667,-5.498166666666667,-0.6245,-0.118,-0.06312499999999988,0.17500000000000004,69.791,0.0171,-0.25275000000000003,-0.39999999999999947,100.0,1.0,1.0,215.15666666666667,0.0,0.0,0.0,0.0,0.0,0.0,0.0,9119.7,0.0,55.0,5.0,251.22,0.0,0.0,0.0,0.0,0.0,0.0,1.0,0.0,1.6050000000000004,1.6050000000000004,0.0,0.0,0.0,55.0,616.79921,10000.0,85.000001,85.000001,85.000001,85.000001,395.0,0.0,0.0,0.0,1.0,333.33500000000004,50.369,50.369,46.539,46.539,34.0,-23.136666666666663,25.162,-29.05,31.92,0.0,1781.205,0.16499999999999915,100.0,28.734,29.231,44.679,43.993,0.0,0.0,100.0,0.0,0.0,0.0,0.0,3064.4285714285716,3249.0,4254.625,4230.2,303.44,304.58233333333334,314.626,314.51825,17.675125,20.78,22.1446,21.5823,314.999998,314.999998,324.999988,324.999988,99.56605714285715,99.51026666666667,99.57145714285714,99.54917142857143,0.06950000000000012,-0.07624999999999993,-0.08583333333333332,0.14783333333333326,-0.06499999999999773,-0.04999999999999716,1.5310000000000001,1.509,42.72,30.875500000000002,39.403999999999996,35.888999999999996,64.424,37.484,60.848,53.278999999999996,60.716,36.3715,59.4105,51.551,60.7,35.769,59.3125,50.917,-0.0694999999999999,-0.0950000000000002,0.11042,0.10648,0.0,218.41,218.47500000000002,215.15666666666667,215.15666666666667,0.0,0.0
33,0.0,0.0,0.0,1.0,1.0,0.0,0.0,1.0,0.0,100.0,1.0,1.1856,26.0,0.0,0.0,0.0,59.999996,0.0,26.0,26.0,26.0,26.0,0.026250000000000107,0.2613000000000001,-0.05736666666666666,291.031,-2.6772,-2.727333333333333,-1.5409000000000002,-1.6333333333333333,-163.87,215.6375,190.255375,0.0,0.0,0.0,0.0,0.0666,-5.498166666666667,-5.498166666666667,-0.6343,-0.2653333333333333,-0.06400000000000006,1.129,69.912,0.0158,-0.242075,-0.24399999999999977,100.0,1.0,1.0,215.51666666666665,0.0,0.0,0.0,0.0,0.0,0.0,0.0,9135.0,0.0,55.0,5.0,251.66,1.0,0.0,0.0,0.0,0.0,0.0,1.0,0.0,1.6529999999999987,1.6529999999999987,0.0,0.0,1.0,55.0,616.79921,10000.0,85.000001,85.000001,85.000001,85.000001,395.0,0.0,0.0,0.0,1.0,333.33500000000004,50.751,50.751,46.722,46.722,34.0,-23.07,24.468,-28.106666666666666,31.365000000000002,0.0,1781.156,0.13500000000000156,100.0,28.593,28.96,44.547,43.843,0.0,0.0,100.0,0.0,0.0,0.0,0.0,3027.5714285714284,3190.1,4205.25,4175.3,303.6905,304.75966666666665,314.65125,314.60475,17.686125,20.7857,22.1546,21.5908,314.999998,314.999998,324.999988,324.999988,99.56605714285715,99.51026666666667,99.5716,99.54931428571429,0.06800000000000006,-0.08050000000000002,-0.08833333333333337,0.13650000000000007,-0.03333333333333144,-0.054999999999999716,1.509,1.5110000000000001,42.789,30.911,39.466,35.943,64.408,37.5185,60.881,53.3335,60.702,36.403,59.4415,51.6035,60.685,35.7995,59.3405,50.968333333333334,-0.0734999999999999,-0.09750000000000014,0.10745,0.10889000000000001,0.0,218.79000000000002,218.82999999999998,215.51666666666665,215.51666666666665,0.0,0.0
34,0.0,0.0,0.0,1.0,1.0,0.0,0.0,1.0,0.0,100.0,1.0,1.1856,26.0,0.0,0.0,0.0,59.999996,0.0,26.0,26.0,26.0,26.0,0.02300000000000013,0.24940000000000007,-0.05923333333333334,291.26,-2.6194,-2.723777777777778,-1.6091,-1.5966666666666667,-160.09,215.6325,190.22575,0.0,0.0,0.0,0.0,0.0688,-5.498166666666667,-5.498166666666667,-0.6603,-0.7303333333333333,-0.03587499999999988,0.9120000000000001,70.048,0.016,-0.24455000000000002,-0.31599999999999984,100.0,1.0,1.0,215.92333333333335,0.0,0.0,0.0,0.0,0.0,0.0,0.0,9152.2,0.0,55.0,5.0,252.15,0.0,0.0,0.0,0.0,0.0,0.0,1.0,0.0,1.7070000000000007,1.7070000000000007,0.0,0.0,0.0,55.0,616.79921,10000.0,85.000001,85.000001,85.000001,85.000001,395.0,0.0,0.0,0.0,1.0,166.665,51.102,51.102,47.18,47.18,34.0,-22.226666666666663,24.592,-28.97,30.7025,0.0,1781.103,0.15500000000000114,100.0,28.375,28.617,44.39,43.926,0.0,0.0,100.0,0.0,0.0,0.0,0.0,2990.4285714285716,3188.3,4161.25,4171.2,303.777,304.8736666666667,314.8115,314.568,17.6985,20.7921,22.1657,21.6006,314.999998,314.999998,324.999988,324.999988,99.56607142857143,99.51028333333333,99.57175714285714,99.54947142857142,0.06950000000000012,-0.07324999999999993,-0.09533333333333338,0.1326666666666667,-0.05666666666667197,-0.054999999999999716,1.5215,1.5084999999999997,42.864999999999995,30.951,39.536,36.0035,64.39,37.5565,60.917,53.3965,60.685,36.4385,59.4745,51.664,60.666,35.833,59.37,51.02733333333333,-0.06899999999999995,-0.09350000000000014,0.11245000000000001,0.10657000000000001,0.0,219.195,219.24,215.92333333333335,215.92333333333335,0.0,0.0
35,0.0,0.0,0.0,1.0,1.0,0.0,0.0,1.0,0.0,100.0,1.0,1.1856,26.0,0.0,0.0,0.0,59.999996,0.0,26.0,26.0,26.0,26.0,0.030874999999999986,0.25690000000000013,-0.07506666666666667,291.29,-2.6791,-2.663111111111111,-1.5817,-1.6244444444444444,-156.73000000000002,215.6275,190.19775,0.0,0.0,0.0,0.0,0.07073333333333334,-5.498166666666667,-5.498166666666667,-0.6979000000000001,-0.42799999999999994,-0.05162500000000003,0.0030000000000001137,70.167,0.0179,-0.252075,-0.30600000000000005,100.0,1.0,1.0,216.35666666666668,0.0,0.0,0.0,0.0,0.0,0.0,0.0,9170.5,0.0,55.0,5.0,252.57666666666665,1.0,0.0,0.0,0.0,0.0,0.0,1.0,0.0,1.754999999999999,1.754999999999999,0.0,0.0,1.0,55.0,616.79921,10000.0,85.000001,85.000001,85.000001,85.000001,395.0,0.0,0.0,0.0,1.0,166.665,50.72,50.72,46.692,46.692,34.0,-23.34,26.162,-27.64333333333333,29.810000000000002,0.0,1781.056,0.2699999999999996,100.0,28.182,28.859,44.222,43.505,0.0,0.0,100.0,0.0,0.0,0.0,0.0,3010.4285714285716,3435.2,4142.25,3996.8,303.74,304.04266666666666,314.761,315.078,17.709125,20.798000000000002,22.1756,21.609099999999998,314.999998,314.999998,324.999988,324.999988,99.56607142857143,99.5103,99.5719,99.5496,0.05875000000000008,-0.07624999999999993,-0.08066666666666666,0.14316666666666666,-0.060000000000002274,-0.045000000000001705,1.5585,1.5345,42.932,30.987499999999997,39.597,36.0565,64.371,37.592,60.949,53.448499999999996,60.668,36.472,59.5045,51.7145,60.647,35.865,59.397,51.07633333333334,-0.05400000000000005,-0.1030000000000002,0.10501500000000001,0.11428500000000001,0.0,219.575,219.62,216.35666666666668,216.35666666666668,0.0,0.0
