,ABS Active,ABS Enabled,AID Allow Tire Blankets,AID Auto Blip,AID Auto Clutch,AID Auto Shift,AID Fuel Rate,AID Ideal Line,AID Mech Damage,AID Stability,AID Tire Wear Rate,Air Density,Air Temp,Ballast,Best Lap Delta,Best Lap Time,Brake Bias,Brake Pos,Brake Temp FL,Brake Temp FR,Brake Temp RL,Brake Temp RR,CG Accel Lateral,CG Accel Longitudinal,CG Accel Vertical,CG Height,Camber FL,Camber FR,Camber RL,Camber RR,Car Coord X,Car Coord Y,Car Coord Z,Car Damage Front,Car Damage Left,Car Damage Rear,Car Damage Right,Car Pos Norm,Caster FL,Caster FR,Chassis Pitch Angle,Chassis Pitch Rate,Chassis Roll Angle,Chassis Roll Rate,Chassis Velocity X,Chassis Velocity Y,Chassis Velocity Z,Chassis Yaw Rate,Clutch Pos,DRS Active,DRS Available,Drive Train Speed,ERS Heat Charging,ERS Is Charging,ERS Max Energy,ERS Power Level,ERS Recovery Level,Engine Brake Setting,Engine Limiter,Engine RPM,Flags,Fuel Level,Gear,Ground Speed,HR Sample Clock,In Pit,KERS Charge,KERS Deployed Energy,KERS Input,KERS Max Energy,LR Sample Clock,Lap Invalidated,Lap Time,Lap Time2,Last Lap Time,Last Sector Time,MR Sample Clock,Max Fuel,Max Power,Max RPM,Max Sus Travel FL,Max Sus Travel FR,Max Sus Travel RL,Max Sus Travel RR,Max Torque,Max Turbo Boost,Num Tires Off Track,Penalties Enabled,Position,Raw Data Sample Rate,Ride Height FL,Ride Height FR,Ride Height RL,Ride Height RR,Road Temp,Self Align Torque FL,Self Align Torque FR,Self Align Torque RL,Self Align Torque RR,Session Lap Count,Session Time Left,Steering Angle,Surface Grip,Suspension Travel FL,Suspension Travel FR,Suspension Travel RL,Suspension Travel RR,TC Active,TC Enabled,Throttle Pos,Tire Dirt Level FL,Tire Dirt Level FR,Tire Dirt Level RL,Tire Dirt Level RR,Tire Load FL,Tire Load FR,Tire Load RL,Tire Load RR,Tire Loaded Radius FL,Tire Loaded Radius FR,Tire Loaded Radius RL,Tire Loaded Radius RR,Tire Pressure FL,Tire Pressure FR,Tire Pressure RL,Tire Pressure RR,Tire Radius FL,Tire Radius FR,Tire Radius RL,Tire Radius RR,Tire Rubber Grip FL,Tire Rubber Grip FR,Tire Rubber Grip RL,Tire Rubber Grip RR,Tire Slip Angle FL,Tire Slip Angle FR,Tire Slip Angle RL,Tire Slip Angle RR,Tire Slip Ratio FL,Tire Slip Ratio FR,Tire Slip Ratio RL,Tire Slip Ratio RR,Tire Temp Core FL,Tire Temp Core FR,Tire Temp Core RL,Tire Temp Core RR,Tire Temp Inner FL,Tire Temp Inner FR,Tire Temp Inner RL,Tire Temp Inner RR,Tire Temp Middle FL,Tire Temp Middle FR,Tire Temp Middle RL,Tire Temp Middle RR,Tire Temp Outer FL,Tire Temp Outer FR,Tire Temp Outer RL,Tire Temp Outer RR,Toe In FL,Toe In FR,Toe In RL,Toe In RR,Turbo Boost,Wheel Angular Speed FL,Wheel Angular Speed FR,Wheel Angular Speed RL,Wheel Angular Speed RR,Wind Direction,Wind Speed
0,0.0,0.0,0.0,1.0,1.0,0.0,0.0,1.0,0.0,100.0,1.0,1.1856,26.0,0.0,0.0,0.0,59.99999,0.0,26.0,26.0,26.0,26.0,-0.1376666666666666,0.3056000000000001,-0.0019,293.579,-2.6575,-2.714,-1.4588,-1.6094444444444445,-275.62,216.26749999999998,190.986875,0.0,0.0,0.0,0.0,0.0016333333333333332,-5.498166666666667,-5.498166666666667,-0.5653,1.9929999999999999,-0.07111111111111157,-0.9450000000000001,65.447,-0.08239999999999992,-0.23390000000000002,1.38,100.0,1.0,1.0,202.05666666666667,0.0,0.0,0.0,0.0,0.0,0.0,0.0,8564.4,0.0,55.0,5.0,235.57666666666665,0.0,0.0,0.0,0.0,0.0,0.0,0.0,0.0,0.0030000000000001137,0.0030000000000001137,0.0,0.0,0.0,55.0,616.79921,10000.0,85.0,85.0,85.0,85.0,395.0,0.0,0.0,0.0,1.0,20.0,51.819,51.819,49.576,49.576,34.0,-29.785,20.291666666666668,-33.2625,22.52,0.0,1782.448,1.3249999999999993,100.0,27.687,27.208,40.954,39.784,0.0,0.0,100.0,0.0,0.0,0.0,0.0,3118.75,3339.9,4272.125,3942.0,304.08033333333333,304.0955,314.517,315.007,19.082625,20.5593,21.7932,21.3074,314.99999,314.99999,324.99998,324.99998,99.5638,99.50868333333334,99.56615714285714,99.54497142857143,-0.07524999999999993,-0.19425,-0.20733333333333337,0.01100000000000012,-0.07000000000000028,-0.036666666666668846,1.5583333333333333,1.5885,39.016999999999996,29.496000000000002,37.207,34.1715,61.492999999999995,35.504,59.425,51.531,58.461,34.56,58.0595,49.879,58.091,34.0515,58.043,49.291666666666664,0.026000000000000245,-0.18150000000000022,0.10189000000000001,0.10655,0.0,205.125,205.01,202.05666666666667,202.05666666666667,0.0,0.0
1,0.0,0.0,0.0,1.0,1.0,0.0,0.0,1.0,0.0,100.0,1.0,1.1856,26.0,0.0,0.0,0.0,59.999996,0.0,26.0,26.0,26.0,26.0,-0.15600000000000003,0.30490000000000017,-0.010225,292.801,-2.585,-2.816,-1.486,-1.5973333333333333,-272.09,216.26749999999998,190.96575,0.0,0.0,0.0,0.0,0.0037,-5.498166666666667,-5.498166666666667,-0.5051,-0.8069999999999999,-0.10588888888888892,-0.4850000000000001,65.61,-0.09449999999999992,-0.209675,1.6079999999999997,100.0,1.0,1.0,202.26333333333332,0.0,0.0,0.0,0.0,0.0,0.0,0.0,8573.2,0.0,55.0,5.0,236.16333333333333,1.0,0.0,0.0,0.0,0.0,0.0,0.0,0.0,0.05699999999999861,0.05699999999999861,0.0,0.0,1.0,55.0,616.79921,10000.0,85.000001,85.000001,85.000001,85.000001,395.0,0.0,0.0,0.0,1.0,166.665,53.146,53.146,48.248,48.248,34.0,-28.055,15.989999999999998,-35.485,27.6075,0.0,1782.396,1.3150000000000013,100.0,27.656,26.889,43.525999999999996,41.284,0.0,0.0,100.0,0.0,0.0,0.0,0.0,3012.875,2660.8,4266.75,4701.1,304.438,306.393,314.3905,313.122,19.094875000000002,20.5649,21.8048,21.317,314.999998,314.999998,324.999988,324.999988,99.56381428571429,99.5087,99.56632857142857,99.54511428571429,-0.07624999999999993,-0.20125,-0.22550000000000003,0.002666666666666595,-0.021666666666668277,-0.07000000000000028,1.408,1.4785,39.093,29.530666666666665,37.28,34.2315,61.477999999999994,35.547,59.4735,51.6,58.447,34.5995,58.1045,49.945,58.076,34.0895,58.085499999999996,49.35666666666667,0.028999999999999915,-0.17700000000000005,0.104395,0.111875,0.0,205.54500000000002,205.465,202.26333333333332,202.26333333333332,0.0,0.0
2,0.0,0.0,0.0,1.0,1.0,0.0,0.0,1.0,0.0,100.0,1.0,1.1856,26.0,0.0,0.0,0.0,59.999996,0.0,26.0,26.0,26.0,26.0,-0.17988888888888888,0.27790000000000004,-0.103775,293.365,-2.5427,-2.852555555555556,-1.4369,-1.663,-268.93,216.2625,190.948,0.0,0.0,0.0,0.0,0.005533333333333334,-5.498166666666667,-5.498166666666667,-0.5603,-0.043500000000000094,-0.1070000000000002,2.468,65.743,-0.10849999999999993,-0.26230000000000003,1.806,100.0,1.0,1.0,203.14,0.0,0.0,0.0,0.0,0.0,0.0,0.0,8610.4,0.0,55.0,5.0,236.64666666666668,0.0,0.0,0.0,0.0,0.0,0.0,0.0,0.0,0.10500000000000043,0.10500000000000043,0.0,0.0,0.0,55.0,616.79921,10000.0,85.000001,85.000001,85.000001,85.000001,395.0,0.0,0.0,0.0,1.0,166.665,51.788,51.788,50.14,50.14,34.0,-31.835,18.123333333333335,-30.8375,18.85,0.0,1782.348,1.0749999999999993,100.0,28.392,26.889,43.213,40.871,0.0,0.0,100.0,0.0,0.0,0.0,0.0,3349.375,2931.8,3816.875,3601.6,303.1936666666667,305.57625,315.488,315.991,19.106,20.5697,21.8147,21.3251,314.999998,314.999998,324.999988,324.999988,99.56382857142857,99.50873333333334,99.56645714285715,99.54524285714285,-0.08424999999999994,-0.20350000000000001,-0.2553333333333333,-0.021166666666666556,-0.04833333333333201,-0.03833333333332689,1.6139999999999999,1.7145000000000001,39.163,29.561,37.342,34.282,61.47,35.584,59.509,51.652,58.439,34.634,58.138,49.9945,58.066,34.122,58.1165,49.40533333333333,0.015333333333333421,-0.16599999999999993,0.10508500000000001,0.10545500000000001,0.0,205.965,205.825,203.14,203.14,0.0,0.0
3,0.0,0.0,0.0,1.0,1.0,0.0,0.0,1.0,0.0,100.0,1.0,1.1856,26.0,0.0,0.0,0.0,59.999996,0.0,26.0,26.0,26.0,26.0,-0.16733333333333333,0.2914000000000001,0.0765,293.03,-2.6841,-2.7333333333333334,-1.4727999999999999,-1.6307777777777779,-265.77,216.255,190.929375,0.0,0.0,0.0,0.0,0.007366666666666667,-5.498166666666667,-5.498166666666667,-0.5208,0.512,-0.052444444444444294,0.79,65.886,-0.11609999999999998,-0.21355000000000002,1.3020000000000005,100.0,1.0,1.0,203.27666666666667,0.0,0.0,0.0,0.0,0.0,0.0,0.0,8616.1,0.0,55.0,5.0,237.15666666666667,1.0,0.0,0.0,0.0,0.0,0.0,0.0,0.0,0.1529999999999987,0.1529999999999987,0.0,0.0,1.0,55.0,616.79921,10000.0,85.000001,85.000001,85.000001,85.000001,395.0,0.0,0.0,0.0,1.0,166.665,52.78,52.78,48.035,48.035,34.0,-27.2825,17.27,-36.73,23.700000000000003,0.0,1782.3,0.990000000000002,100.0,28.048000000000002,27.024,43.032,40.938,0.0,0.0,100.0,0.0,0.0,0.0,0.0,2889.75,2925.0,4329.375,4247.4,304.80266666666665,305.5515,314.23375,314.355,19.116875,20.5749,21.8246,21.3334,314.999998,314.999998,324.999988,324.999988,99.56382857142857,99.50875,99.56658571428571,99.54538571428571,-0.06774999999999998,-0.19875,-0.24583333333333335,-0.015000000000000013,-0.045000000000001705,-0.05833333333333002,1.466,1.5150000000000001,39.230000000000004,29.593,37.403999999999996,34.334,61.457,35.6255,59.547,51.71,58.428,34.672,58.1735,50.0505,58.053,34.158500000000004,58.149,49.459666666666664,-0.002666666666666595,-0.15249999999999986,0.11493,0.10566500000000001,0.0,206.435,206.37,203.27666666666667,203.27666666666667,0.0,0.0
4,0.0,0.0,0.0,1.0,1.0,0.0,0.0,1.0,0.0,100.0,1.0,1.1856,26.0,0.0,0.0,0.0,59.999996,0.0,26.0,26.0,26.0,26.0,-0.15888888888888886,0.2814000000000001,-0.0398,293.411,-2.6323,-2.7745555555555557,-1.4974,-1.6295555555555556,-262.41,216.2425,190.909875,0.0,0.0,0.0,0.0,0.009300000000000001,-5.498166666666667,-5.498166666666667,-0.5517000000000001,-0.8015000000000001,-0.11411111111111127,-1.835,66.032,-0.10699999999999998,-0.247925,1.21,100.0,1.0,1.0,203.84666666666666,0.0,0.0,0.0,0.0,0.0,0.0,0.0,8640.4,0.0,55.0,5.0,237.68666666666667,0.0,0.0,0.0,0.0,0.0,0.0,0.0,0.0,0.20400000000000063,0.20400000000000063,0.0,0.0,0.0,55.0,616.79921,10000.0,85.000001,85.000001,85.000001,85.000001,395.0,0.0,0.0,0.0,1.0,333.33500000000004,52.597,52.597,48.751999999999995,48.751999999999995,34.0,-30.4025,17.15833333333333,-33.6,20.22,0.0,1782.248,1.0350000000000001,100.0,27.621,26.911,43.237,41.179,0.0,0.0,100.0,0.0,0.0,0.0,0.0,3203.625,2879.9,4127.75,3643.1,304.04633333333334,305.528,314.75775,315.7335,19.128125,20.5802,21.8353,21.3423,314.999998,314.999998,324.999988,324.999988,99.56384285714286,99.50876666666667,99.56672857142857,99.54551428571429,-0.07999999999999996,-0.20600000000000002,-0.22766666666666657,0.0015000000000000568,-0.06333333333333258,-0.03499999999999659,1.5613333333333332,1.6165,39.301,29.626333333333335,37.471000000000004,34.388999999999996,61.44,35.667,59.589,51.769,58.412,34.710499999999996,58.213,50.107,58.036,34.195499999999996,58.1855,49.515,0.0043333333333333,-0.15949999999999998,0.10623,0.10935,0.0,206.845,206.755,203.8466666666667,203.84666666666666,0.0,0.0
5,0.0,0.0,0.0,1.0,1.0,0.0,0.0,1.0,0.0,100.0,1.0,1.1856,26.0,0.0,0.0,0.0,59.999996,0.0,26.0,26.0,26.0,26.0,-0.15733333333333333,0.2905,-0.016550000000000002,293.411,-2.6311999999999998,-2.8064444444444443,-1.4717,-1.624,-259.04,216.225,190.8895,0.0,0.0,0.0,0.0,0.011266666666666668,-5.498166666666667,-5.498166666666667,-0.547,0.43599999999999994,-0.12211111111111128,1.229,66.178,-0.10609999999999997,-0.225075,1.1660000000000004,100.0,1.0,1.0,204.26999999999998,0.0,0.0,0.0,0.0,0.0,0.0,0.0,8658.2,0.0,55.0,5.0,238.21333333333334,1.0,0.0,0.0,0.0,0.0,0.0,0.0,0.0,0.254999999999999,0.254999999999999,0.0,0.0,1.0,55.0,616.79921,10000.0,85.000001,85.000001,85.000001,85.000001,395.0,0.0,0.0,0.0,1.0,333.33500000000004,52.872,52.872,49.042,49.042,34.0,-28.8975,18.343333333333334,-33.995,22.8575,0.0,1782.197,0.5350000000000001,100.0,27.849,26.595,43.021,40.695,0.0,0.0,100.0,0.0,0.0,0.0,0.0,3100.5,2872.3,4177.125,4031.1000000000004,304.1433333333333,305.77825,314.6715,314.9005,19.13975,20.5855,21.8459,21.3509,314.999998,314.999998,324.999988,324.999988,99.56385714285715,99.50878333333333,99.56688571428572,99.54565714285714,-0.0625,-0.17725,-0.23283333333333334,0.0024999999999999467,-0.051666666666669414,-0.060000000000002274,1.5493333333333332,1.5715,39.373000000000005,29.659666666666666,37.537,34.443,61.427,35.7085,59.629,51.825,58.4,34.748,58.25,50.1605,58.022999999999996,34.2315,58.2205,49.567,-0.016000000000000014,-0.12650000000000006,0.10999500000000001,0.11973,0.0,207.335,207.25,204.26999999999998,204.26999999999998,0.0,0.0
6,0.0,0.0,0.0,1.0,1.0,0.0,0.0,1.0,0.0,100.0,1.0,1.1856,26.0,0.0,0.0,0.0,59.999996,0.0,26.0,26.0,26.0,26.0,-0.132,0.3046,0.0161,293.167,-2.6057,-2.775888888888889,-1.5223,-1.6122222222222222,-255.86,216.20499999999998,190.870125,0.0,0.0,0.0,0.0,0.013133333333333335,-5.498166666666667,-5.498166666666667,-0.5413,0.10499999999999998,-0.09699999999999998,1.002,66.31700000000001,-0.1008,-0.225825,0.8020000000000005,100.0,1.0,1.0,204.65333333333334,0.0,0.0,0.0,0.0,0.0,0.0,0.0,8674.5,0.0,55.0,5.0,238.71333333333334,0.0,0.0,0.0,0.0,0.0,0.0,0.0,0.0,0.3030000000000008,0.3030000000000008,0.0,0.0,0.0,55.0,616.79921,10000.0,85.000001,85.000001,85.000001,85.000001,395.0,0.0,0.0,0.0,1.0,333.33500000000004,52.521,52.521,48.706,48.706,34.0,-27.45,20.01833333333333,-33.2325,22.755000000000003,0.0,1782.149,0.33999999999999986,100.0,27.762,26.779,43.126,41.089,0.0,0.0,100.0,0.0,0.0,0.0,0.0,3091.75,3022.1,4115.75,4030.1000000000004,304.121,305.266,314.80175,314.893,19.1505,20.5906,21.8559,21.3593,314.999998,314.999998,324.999988,324.999988,99.56385714285715,99.50881666666666,99.56701428571428,99.54578571428571,-0.032749999999999946,-0.15875,-0.21333333333333337,0.0028333333333334654,-0.07000000000000028,-0.05833333333333002,1.5323333333333333,1.5630000000000002,39.441,29.691333333333333,37.599000000000004,34.496,61.413,35.7465,59.667,51.8825,58.387,34.783500000000004,58.286,50.2155,58.009,34.2655,58.2535,49.620666666666665,-0.043333333333333224,-0.10349999999999993,0.10170000000000001,0.098595,0.0,207.745,207.685,204.65333333333334,204.65333333333334,0.0,0.0
7,0.0,0.0,0.0,1.0,1.0,0.0,0.0,1.0,0.0,100.0,1.0,1.1856,26.0,0.0,0.0,0.0,59.999996,0.0,26.0,26.0,26.0,26.0,-0.0832222222222222,0.28770000000000007,0.016975,292.908,-2.5821,-2.760111111111111,-1.4849,-1.6545555555555558,-252.47,216.1825,190.84975,0.0,0.0,0.0,0.0,0.0151,-5.498166666666667,-5.498166666666667,-0.5457000000000001,-0.0515000000000001,-0.08644444444444455,-0.16799999999999993,66.462,-0.0824999999999999,-0.23675000000000002,0.4740000000000002,100.0,1.0,1.0,205.09,0.0,0.0,0.0,0.0,0.0,0.0,0.0,8693.0,0.0,55.0,5.0,239.23333333333335,1.0,0.0,0.0,0.0,0.0,0.0,0.0,0.0,0.3539999999999992,0.3539999999999992,0.0,0.0,1.0,55.0,616.79921,10000.0,85.000001,85.000001,85.000001,85.000001,395.0,0.0,0.0,0.0,1.0,333.33500000000004,52.17,52.17,48.828,48.828,34.0,-27.8,21.09166666666667,-31.997500000000002,24.7025,0.0,1782.098,0.10000000000000142,100.0,27.743,27.038,43.075,41.515,0.0,0.0,100.0,0.0,0.0,0.0,0.0,3265.25,2992.5,4129.125,3985.4,303.69966666666664,305.19525,314.77875,314.855,19.162,20.596,21.8665,21.3683,314.999998,314.999998,324.999988,324.999988,99.56387142857143,99.50883333333333,99.56715714285714,99.54591428571429,-0.009000000000000008,-0.12825,-0.19566666666666666,0.031500000000000083,-0.03833333333332689,-0.04999999999999716,1.5296666666666667,1.5455,39.513,29.72533333333333,37.666,34.5515,61.397,35.786,59.707,51.942499999999995,58.373000000000005,34.82,58.323,50.272999999999996,57.992999999999995,34.3005,58.2875,49.67733333333334,-0.07099999999999995,-0.08050000000000024,0.10645500000000001,0.11625500000000001,0.0,208.18,208.15,205.09,205.09,0.0,0.0
8,0.0,0.0,0.0,1.0,1.0,0.0,0.0,1.0,0.0,100.0,1.0,1.1856,26.0,0.0,0.0,0.0,59.999996,0.0,26.0,26.0,26.0,26.0,-0.053444444444444406,0.3095000000000001,0.037725,293.167,-2.665,-2.7461111111111114,-1.4704000000000002,-1.579,-249.07999999999998,216.1575,190.829125,0.0,0.0,0.0,0.0,0.017066666666666667,-5.498166666666667,-5.498166666666667,-0.5456,-0.52,-0.06377777777777771,0.858,66.608,-0.06009999999999993,-0.22660000000000002,-0.05999999999999961,100.0,1.0,1.0,205.46333333333334,0.0,0.0,0.0,0.0,0.0,0.0,0.0,8708.8,0.0,55.0,5.0,239.76333333333332,0.0,0.0,0.0,0.0,0.0,0.0,0.0,0.0,0.40500000000000114,0.40500000000000114,0.0,0.0,0.0,55.0,616.79921,10000.0,85.000001,85.000001,85.000001,85.000001,395.0,0.0,0.0,0.0,1.0,166.665,53.055,53.055,48.08,48.08,34.0,-23.955,21.946666666666665,-30.415,26.502499999999998,0.0,1782.048,-0.05999999999999872,100.0,27.468,26.87,43.14,41.545,0.0,0.0,100.0,0.0,0.0,0.0,0.0,2901.375,3027.7,4165.5,4156.3,304.8976666666667,305.27875,314.58825,314.5265,19.17325,20.6015,21.8771,21.3772,314.999998,314.999998,324.999988,324.999988,99.56387142857143,99.50885,99.56731428571429,99.54607142857142,0.016750000000000043,-0.1065,-0.15700000000000003,0.06166666666666676,-0.06666666666666998,-0.06833333333332803,1.5096666666666667,1.5215,39.582,29.759333333333334,37.732,34.6075,61.378,35.8245,59.7465,52.0025,58.355000000000004,34.8555,58.36,50.3305,57.974000000000004,34.334,58.3215,49.733333333333334,-0.07433333333333314,-0.06950000000000012,0.103525,0.103995,0.0,208.60500000000002,208.615,205.46333333333334,205.46333333333334,0.0,0.0
9,0.0,0.0,0.0,1.0,1.0,0.0,0.0,1.0,0.0,100.0,1.0,1.1856,26.0,0.0,0.0,0.0,59.999996,0.0,26.0,26.0,26.0,26.0,-0.03600000000000003,0.2822,0.029750000000000002,292.862,-2.6549,-2.751666666666667,-1.5281,-1.582,-245.88,216.1325,190.809375,0.0,0.0,0.0,0.0,0.018933333333333337,-5.498166666666667,-5.498166666666667,-0.5536,0.556,-0.06433333333333335,0.74,66.742,-0.03939999999999999,-0.2291,-0.12399999999999967,100.0,1.0,1.0,206.01333333333332,0.0,0.0,0.0,0.0,0.0,0.0,0.0,8732.2,0.0,55.0,5.0,240.24,1.0,0.0,0.0,0.0,0.0,0.0,0.0,0.0,0.4529999999999994,0.4529999999999994,0.0,0.0,1.0,55.0,616.79921,10000.0,85.000001,85.000001,85.000001,85.000001,395.0,0.0,0.0,0.0,1.0,333.33500000000004,51.819,51.819,49.179,49.179,34.0,-26.3275,23.835,-28.3675,26.85,0.0,1781.998,-0.21000000000000085,100.0,27.854,27.296,42.764,41.576,0.0,0.0,100.0,0.0,0.0,0.0,0.0,3251.25,3133.2,3990.5,4031.1000000000004,303.682,304.88825,315.1415,314.897,19.183875,20.6068,21.887,21.3855,314.999998,314.999998,324.999988,324.999988,99.56387142857143,99.50885,99.56744285714285,99.5462,0.03875000000000006,-0.08625000000000001,-0.1406666666666666,0.09216666666666673,-0.04333333333332945,-0.04999999999999716,1.58,1.568,39.649,29.792333333333332,37.793,34.6595,61.361999999999995,35.8615,59.78,52.0575,58.34,34.8895,58.3915,50.3835,57.958,34.367,58.3505,49.785,-0.08733333333333326,-0.06899999999999995,0.10636500000000002,0.11664000000000001,0.0,209.015,209.04000000000002,206.01333333333332,206.01333333333332,0.0,0.0
10,0.0,0.0,0.0,1.0,1.0,0.0,0.0,1.0,0.0,100.0,1.0,1.1856,26.0,0.0,0.0,0.0,59.999996,0.0,26.0,26.0,26.0,26.0,0.006000000000000005,0.2914000000000001,0.00335,292.648,-2.6326,-2.7328888888888887,-1.5072,-1.5622222222222222,-242.47,216.10500000000002,190.7885,0.0,0.0,0.0,0.0,0.020900000000000002,-5.498166666666667,-5.498166666666667,-0.5296000000000001,-0.3360000000000001,-0.025555555555555554,0.46499999999999997,66.888,-0.019100000000000006,-0.22007500000000002,-0.42600000000000016,100.0,1.0,1.0,206.24666666666667,0.0,0.0,0.0,0.0,0.0,0.0,0.0,8742.1,0.0,55.0,5.0,240.76999999999998,0.0,0.0,0.0,0.0,0.0,0.0,1.0,0.0,0.5040000000000013,0.5040000000000013,0.0,0.0,0.0,55.0,616.79921,10000.0,85.000001,85.000001,85.000001,85.000001,395.0,0.0,0.0,0.0,1.0,333.33500000000004,52.811,52.811,47.592,47.592,34.0,-21.9775,22.259999999999998,-31.185000000000002,29.1675,0.0,1781.948,-0.370000000000001,100.0,27.669,27.504,43.114000000000004,42.429,0.0,0.0,100.0,0.0,0.0,0.0,0.0,2906.125,2897.4,4363.375,4233.1,304.94233333333335,305.47475,314.20575,314.26675,19.19525,20.6123,21.8977,21.3947,314.999998,314.999998,324.999988,324.999988,99.56388571428572,99.50886666666666,99.56758571428571,99.54634285714286,0.060249999999999915,-0.07375,-0.12916666666666665,0.09883333333333333,-0.05666666666667197,-0.04833333333333201,1.4806666666666666,1.471,39.72,29.826999999999998,37.86,34.716499999999996,61.346000000000004,35.897999999999996,59.821,52.1205,58.326,34.923,58.4295,50.444,57.942,34.399,58.3855,49.84433333333333,-0.10933333333333328,-0.04800000000000004,0.1086,0.11540500000000001,0.0,209.45499999999998,209.5,206.24666666666667,206.24666666666667,0.0,0.0
11,0.0,0.0,0.0,1.0,1.0,0.0,0.0,1.0,0.0,100.0,1.0,1.1856,26.0,0.0,0.0,0.0,59.999996,0.0,26.0,26.0,26.0,26.0,0.05066666666666686,0.28290000000000015,-0.11075,293.243,-2.686,-2.7065555555555556,-1.5685,-1.5466666666666669,-238.86,216.075,190.766625,0.0,0.0,0.0,0.0,0.022600000000000002,-5.498166666666667,-5.498166666666667,-0.5707,-0.11450000000000005,0.0038888888888888307,-0.798,67.035,0.0050000000000001155,-0.247175,-0.6379999999999999,100.0,1.0,1.0,207.01333333333332,0.0,0.0,0.0,0.0,0.0,0.0,0.0,8774.5,0.0,55.0,5.0,241.3,1.0,0.0,0.0,0.0,0.0,0.0,1.0,0.0,0.5579999999999998,0.5579999999999998,0.0,0.0,1.0,55.0,616.79921,10000.0,85.000001,85.000001,85.000001,85.000001,395.0,0.0,0.0,0.0,1.0,166.665,52.261,52.261,49.21,49.21,34.0,-22.785,25.060000000000002,-24.7575,26.5925,0.0,1781.895,-0.47499999999999787,100.0,27.391,27.725,42.564,42.326,0.0,0.0,100.0,0.0,0.0,0.0,0.0,3034.125,3108.7,3764.25,3836.9,304.5973333333333,304.7945,315.7475,315.30525,19.206875,20.6183,21.9087,21.4041,314.999998,314.999998,324.999988,324.999988,99.56388571428572,99.50886666666666,99.56774285714286,99.54647142857142,0.07750000000000012,-0.04725,-0.09983333333333333,0.13116666666666688,-0.06833333333332803,-0.06666666666666998,1.642,1.613,39.793,29.864666666666665,37.929,34.775999999999996,61.327,35.937,59.857,52.1835,58.307,34.9595,58.463,50.5045,57.923,34.434,58.4155,49.903666666666666,-0.10799999999999987,-0.04300000000000015,0.1044,0.11081,0.0,209.905,209.965,207.01333333333332,207.01333333333332,0.0,0.0
12,0.0,0.0,0.0,1.0,1.0,0.0,0.0,1.0,0.0,100.0,1.0,1.1856,26.0,0.0,0.0,0.0,59.999996,0.0,26.0,26.0,26.0,26.0,0.0431111111111111,0.2934000000000001,0.016225,292.664,-2.7321,-2.708222222222222,-1.525,-1.5505555555555557,-235.84,216.0525,190.747125,0.0,0.0,0.0,0.0,0.025466666666666665,-5.498166666666667,-5.498166666666667,-0.5578000000000001,0.275,-0.009222222222222243,0.659,67.164,0.02180000000000004,-0.21955000000000002,-0.7539999999999996,100.0,1.0,1.0,207.18,0.0,0.0,0.0,0.0,0.0,0.0,0.0,8781.6,0.0,55.0,5.0,241.76,0.0,0.0,0.0,0.0,0.0,0.0,1.0,0.0,0.602999999999998,0.602999999999998,0.0,0.0,0.0,55.0,616.79921,10000.0,85.000001,85.000001,85.000001,85.000001,395.0,0.0,0.0,0.0,1.0,333.33500000000004,52.185,52.185,47.958,47.958,34.0,-22.63,26.536666666666665,-26.455,30.94,0.0,1781.848,-0.3999999999999986,100.0,27.467,27.719,42.614000000000004,42.207,0.0,0.0,100.0,0.0,0.0,0.0,0.0,2995.0,3232.9,4195.625,4176.7,304.5883333333333,304.6175,314.61475,314.53825,19.216625,20.6234,21.918,21.412,314.999998,314.999998,324.999988,324.999988,99.5639,99.50886666666666,99.56785714285714,99.54661428571428,0.08650000000000002,-0.0345,-0.06799999999999995,0.15166666666666684,-0.05666666666667197,-0.045000000000001705,1.551,1.5095,39.854,29.896333333333335,37.986999999999995,34.825,61.312,35.9695,59.8905,52.236000000000004,58.294,34.9895,58.494,50.555,57.908,34.463,58.444,49.95333333333333,-0.09633333333333316,-0.051000000000000156,0.10801500000000001,0.10238000000000001,0.0,210.32,210.37,207.18,207.18,0.0,0.0
13,0.0,0.0,0.0,1.0,1.0,0.0,0.0,1.0,0.0,100.0,1.0,1.1856,26.0,0.0,0.0,0.0,59.999996,0.0,26.0,26.0,26.0,26.0,0.07433333333333336,0.28370000000000006,0.036250000000000004,292.267,-2.7126,-2.6950000000000003,-1.5992000000000002,-1.5651111111111111,-232.41,216.0275,190.725375,0.0,0.0,0.0,0.0,0.02676666666666667,-5.498166666666667,-5.498166666666667,-0.5507000000000001,-0.05899999999999994,-0.007888888888889056,-0.502,67.306,0.033400000000000096,-0.227975,-0.7839999999999998,100.0,1.0,1.0,207.56,0.0,0.0,0.0,0.0,0.0,0.0,0.0,8797.7,0.0,55.0,5.0,242.27333333333334,1.0,0.0,0.0,0.0,0.0,0.0,1.0,0.0,0.6539999999999999,0.6539999999999999,0.0,0.0,1.0,55.0,616.79921,10000.0,85.000001,85.000001,85.000001,85.000001,395.0,0.0,0.0,0.0,1.0,333.33500000000004,51.849000000000004,51.849000000000004,47.913,47.913,34.0,-22.4075,26.063333333333333,-28.6575,32.042500000000004,0.0,1781.798,-0.5549999999999997,100.0,27.601,28.104,42.730000000000004,42.782,0.0,0.0,100.0,0.0,0.0,0.0,0.0,3134.0,3118.5,4268.875,4255.1,304.2753333333333,304.77725,314.5155,314.24075,19.22775,20.6292,21.9286,21.4212,314.999998,314.999998,324.999988,324.999988,99.56391428571429,99.50888333333333,99.56801428571428,99.54675714285715,0.11224999999999996,-0.0225,-0.07633333333333336,0.14983333333333326,-0.07499999999999574,-0.054999999999999716,1.5030000000000001,1.483,39.924,29.932333333333332,38.054,34.8825,61.299,36.006,59.929,52.299,58.281,35.0235,58.53,50.6155,57.894,34.4955,58.4765,50.01266666666667,-0.121,-0.033500000000000085,0.10827,0.10675000000000001,0.0,210.745,210.805,207.56,207.56,0.0,0.0
14,0.0,0.0,0.0,1.0,1.0,0.0,0.0,1.0,0.0,100.0,1.0,1.1856,26.0,0.0,0.0,0.0,59.999996,0.0,26.0,26.0,26.0,26.0,0.08333333333333326,0.2792000000000001,-0.00825,292.542,-2.7099,-2.642333333333333,-1.5739,-1.536888888888889,-228.97,216.0025,190.70425,0.0,0.0,0.0,0.0,0.02876666666666667,-5.498166666666667,-5.498166666666667,-0.5604,-0.13250000000000006,0.02488888888888896,1.3559999999999999,67.446,0.04610000000000003,-0.2419,-1.0579999999999998,100.0,1.0,1.0,208.07999999999998,0.0,0.0,0.0,0.0,0.0,0.0,0.0,8819.7,0.0,55.0,5.0,242.77666666666664,0.0,0.0,0.0,0.0,0.0,0.0,1.0,0.0,0.7049999999999983,0.7049999999999983,0.0,0.0,0.0,55.0,616.79921,10000.0,85.000001,85.000001,85.000001,85.000001,395.0,0.0,0.0,0.0,1.0,333.33500000000004,52.002,52.002,48.141,48.141,34.0,-19.82,28.148333333333333,-24.9175,32.0025,0.0,1781.747,-0.6899999999999977,100.0,27.666,28.002,42.752,42.883,0.0,0.0,100.0,0.0,0.0,0.0,0.0,2908.25,3290.7,3997.25,4182.1,304.8163333333333,304.44775,315.0705,314.52075,19.238875,20.635,21.9392,21.4303,314.999998,314.999998,324.999988,324.999988,99.56392857142858,99.50888333333333,99.56815714285715,99.5469,0.13450000000000006,0.004,-0.05399999999999994,0.17566666666666686,-0.04999999999999716,-0.04333333333332945,1.558,1.52,39.992999999999995,29.968666666666664,38.120000000000005,34.939499999999995,61.285,36.042,59.965,52.361000000000004,58.269,35.0565,58.5635,50.675,57.879999999999995,34.5275,58.507,50.071,-0.129,-0.028000000000000025,0.11245000000000001,0.10141000000000001,0.0,211.155,211.235,208.07999999999998,208.07999999999998,0.0,0.0
15,0.0,0.0,0.0,1.0,1.0,0.0,0.0,1.0,0.0,100.0,1.0,1.1856,26.0,0.0,0.0,0.0,59.999996,0.0,26.0,26.0,26.0,26.0,0.1080000000000001,0.2815000000000001,0.013875,292.572,-2.6867,-2.5983333333333336,-1.6064,-1.476,-225.73,215.98250000000002,190.683875,0.0,0.0,0.0,0.0,0.030633333333333332,-5.498166666666667,-5.498166666666667,-0.5516,0.3315,0.055777777777777704,1.091,67.578,0.059800000000000075,-0.22290000000000001,-1.2080000000000002,100.0,1.0,1.0,208.46333333333334,0.0,0.0,0.0,0.0,0.0,0.0,0.0,8836.0,0.0,55.0,5.0,243.25,1.0,0.0,0.0,0.0,0.0,0.0,1.0,0.0,0.7530000000000001,0.7530000000000001,0.0,0.0,1.0,55.0,616.79921,10000.0,85.000001,85.000001,85.000001,85.000001,395.0,0.0,0.0,0.0,1.0,166.665,52.17,52.17,48.203,48.203,34.0,-18.505000000000003,27.79,-24.1525,32.9975,0.0,1781.7,-0.7149999999999999,100.0,27.616,28.046,42.508,42.943,0.0,0.0,100.0,0.0,0.0,0.0,0.0,2794.125,3270.0,3969.375,4356.1,305.16,304.50025,315.1845,314.131,19.24925,20.6404,21.948999999999998,21.4388,314.999998,314.999998,324.999988,324.999988,99.56394285714286,99.50888333333333,99.56828571428571,99.54702857142857,0.1412500000000001,0.0095,-0.03516666666666657,0.1811666666666667,-0.05833333333333002,-0.030000000000001137,1.5556666666666668,1.524,40.058,30.002666666666666,38.181,34.9925,61.272,36.076,59.9975,52.4195,58.257,35.088499999999996,58.5935,50.7315,57.867000000000004,34.558,58.534,50.126333333333335,-0.1353333333333333,-0.022499999999999964,0.10925000000000001,0.097765,0.0,211.585,211.655,208.46333333333334,208.46333333333334,0.0,0.0
16,0.0,0.0,0.0,1.0,1.0,0.0,0.0,1.0,0.0,100.0,1.0,1.1856,26.0,0.0,0.0,0.0,59.999996,0.0,26.0,26.0,26.0,26.0,0.13655555555555576,0.276,-0.05475,292.618,-2.7884,-2.6273333333333335,-1.5805,-1.4734444444444443,-222.28,215.965,190.662,0.0,0.0,0.0,0.0,0.032633333333333334,-5.498166666666667,-5.498166666666667,-0.5698,-0.7105000000000001,0.044333333333333114,-0.996,67.718,0.07350000000000012,-0.2374,-1.21,100.0,1.0,1.0,208.89,0.0,0.0,0.0,0.0,0.0,0.0,0.0,8854.1,0.0,55.0,5.0,243.75666666666666,0.0,0.0,0.0,0.0,0.0,0.0,1.0,0.0,0.8039999999999985,0.8039999999999985,0.0,0.0,0.0,55.0,616.79921,10000.0,85.000001,85.000001,85.000001,85.000001,395.0,0.0,0.0,0.0,1.0,166.665,52.246,52.246,47.913,47.913,34.0,-20.2675,27.601666666666667,-23.525,32.0525,0.0,1781.649,-0.625,100.0,27.073999999999998,28.265,42.66,43.175,0.0,0.0,100.0,0.0,0.0,0.0,0.0,2960.0,3209.4,4006.625,4118.9,304.968,304.5085,315.13125,314.6115,19.259999999999998,20.6463,21.959600000000002,21.448,314.999998,314.999998,324.999988,324.999988,99.56395714285715,99.5089,99.56844285714286,99.54718571428572,0.14300000000000002,0.0075,-0.025666666666666615,0.20033333333333325,-0.061666666666667425,-0.036666666666668846,1.5656666666666665,1.4905,40.125,30.03933333333333,38.247,35.05,61.256,36.1125,60.035,52.481,58.241,35.122,58.6285,50.791,57.849000000000004,34.5905,58.566,50.184666666666665,-0.1286666666666667,-0.03000000000000025,0.10269,0.11059500000000001,0.0,211.97500000000002,212.06,208.89,208.89,0.0,0.0
17,0.0,0.0,0.0,1.0,1.0,0.0,0.0,1.0,0.0,100.0,1.0,1.1856,26.0,0.0,0.0,0.0,59.999996,0.0,26.0,26.0,26.0,26.0,0.11233333333333317,0.2903,-0.039875,292.313,-2.7387,-2.590222222222222,-1.6141,-1.4992222222222222,-218.82,215.95,190.639375,0.0,0.0,0.0,0.0,0.03466666666666667,-5.498166666666667,-5.498166666666667,-0.562,0.5285,0.02200000000000002,0.611,67.856,0.07750000000000012,-0.21930000000000002,-1.202,100.0,1.0,1.0,209.30333333333334,0.0,0.0,0.0,0.0,0.0,0.0,0.0,8871.6,0.0,55.0,5.0,244.25333333333333,1.0,0.0,0.0,0.0,0.0,0.0,1.0,0.0,0.8550000000000004,0.8550000000000004,0.0,0.0,1.0,55.0,616.79921,10000.0,85.000001,85.000001,85.000001,85.000001,395.0,0.0,0.0,0.0,1.0,166.665,51.894999999999996,51.894999999999996,47.943,47.943,34.0,-19.62,27.705,-25.1025,33.6175,0.0,1781.598,-0.7199999999999989,100.0,27.691,28.393,42.499,43.057,0.0,0.0,100.0,0.0,0.0,0.0,0.0,2970.875,3193.1,4216.875,4254.0,304.68333333333334,304.74325,314.6785,314.4195,19.271,20.6522,21.97,21.457,314.999998,314.999998,324.999988,324.999988,99.56397142857143,99.5089,99.56858571428572,99.54732857142857,0.15599999999999992,0.02725,-0.01749999999999996,0.2038333333333333,-0.041666666666671404,-0.04833333333333201,1.5426666666666666,1.498,40.193,30.076333333333334,38.313,35.1065,61.244,36.1505,60.0695,52.542500000000004,58.230999999999995,35.1575,58.66,50.85,57.837,34.6245,58.5945,50.242666666666665,-0.131,-0.02499999999999991,0.107605,0.09847500000000001,0.0,212.45499999999998,212.525,209.30333333333334,209.30333333333334,0.0,0.0
18,0.0,0.0,0.0,1.0,1.0,0.0,0.0,1.0,0.0,100.0,1.0,1.1856,26.0,0.0,0.0,0.0,59.999996,0.0,26.0,26.0,26.0,26.0,0.12400000000000011,0.2825,-0.031900000000000005,292.282,-2.7714,-2.5643333333333334,-1.6311,-1.4442222222222223,-215.56,215.94,190.618375,0.0,0.0,0.0,0.0,0.036533333333333334,-5.498166666666667,-5.498166666666667,-0.5711,-0.49150000000000005,0.04755555555555557,1.286,67.987,0.07889999999999997,-0.2343,-1.262,100.0,1.0,1.0,209.7,0.0,0.0,0.0,0.0,0.0,0.0,0.0,8888.4,0.0,55.0,5.0,244.72666666666666,0.0,0.0,0.0,0.0,0.0,0.0,1.0,0.0,0.9029999999999987,0.9029999999999987,0.0,0.0,0.0,55.0,616.79921,10000.0,85.000001,85.000001,85.000001,85.000001,395.0,0.0,0.0,0.0,1.0,333.33500000000004,51.865,51.865,47.745,47.745,34.0,-19.105,29.926666666666666,-24.0975,32.8925,0.0,1781.547,-0.9849999999999994,100.0,27.466,28.221,42.842,43.458,0.0,0.0,100.0,0.0,0.0,0.0,0.0,2943.125,3391.9,4036.875,4207.4,304.844,304.232,315.03775,314.4885,19.281125,20.6577,21.98,21.4657,314.999998,314.999998,324.999988,324.999988,99.564,99.5089,99.56872857142857,99.54747142857143,0.16874999999999996,0.04025,-0.017833333333333368,0.21300000000000008,-0.04833333333333201,-0.045000000000001705,1.5576666666666668,1.5165,40.257,30.111,38.375,35.161,61.230999999999995,36.1875,60.107,52.6055,58.219,35.192,58.695,50.911,57.823,34.6575,58.6265,50.30266666666667,-0.1483333333333332,-0.011499999999999844,0.10267000000000001,0.10966500000000001,0.0,212.815,212.885,209.7,209.7,0.0,0.0
19,0.0,0.0,0.0,1.0,1.0,0.0,0.0,1.0,0.0,100.0,1.0,1.1856,26.0,0.0,0.0,0.0,59.999996,0.0,26.0,26.0,26.0,26.0,0.16588888888888897,0.2833000000000001,0.029325,291.779,-2.7503,-2.5442222222222224,-1.6522999999999999,-1.4228888888888889,-212.09,215.93,190.59575,0.0,0.0,0.0,0.0,0.03856666666666667,-5.498166666666667,-5.498166666666667,-0.5625,0.7925,0.0584444444444443,-0.5,68.124,0.08820000000000006,-0.22437500000000002,-1.5979999999999999,100.0,1.0,1.0,210.12333333333333,0.0,0.0,0.0,0.0,0.0,0.0,0.0,8906.3,0.0,55.0,5.0,245.21666666666667,1.0,0.0,0.0,0.0,0.0,0.0,1.0,0.0,0.9540000000000006,0.9540000000000006,0.0,0.0,1.0,55.0,616.79921,10000.0,85.000001,85.000001,85.000001,85.000001,395.0,0.0,0.0,0.0,1.0,333.33500000000004,51.117,51.117,47.668,47.668,34.0,-19.482499999999998,30.301666666666666,-25.04,34.1725,0.0,1781.497,-1.1750000000000007,100.0,27.783,28.911,42.496,43.575,0.0,0.0,100.0,0.0,0.0,0.0,0.0,3103.25,3358.1,4188.25,4344.4,304.378,304.039,314.8,314.159,19.292125,20.6638,21.9904,21.474899999999998,314.999998,314.999998,324.999988,324.999988,99.56401428571428,99.50891666666666,99.56885714285714,99.54761428571429,0.18199999999999994,0.052000000000000005,-0.01100000000000001,0.21633333333333327,-0.07000000000000028,-0.041666666666671404,1.5433333333333332,1.494,40.326,30.149,38.44,35.218,61.222,36.226,60.1385,52.664,58.21,35.2275,58.7245,50.9675,57.814,34.692,58.6525,50.358000000000004,-0.17033333333333323,0.007500000000000062,0.10899500000000001,0.10537,0.0,213.275,213.38,210.12333333333333,210.12333333333333,0.0,0.0
20,0.0,0.0,0.0,1.0,1.0,0.0,0.0,1.0,0.0,100.0,1.0,1.1856,26.0,0.0,0.0,0.0,59.999996,0.0,26.0,26.0,26.0,26.0,0.15022222222222226,0.278,0.0436,292.053,-2.8026,-2.6043333333333334,-1.58,-1.5432222222222223,-208.61,215.9275,190.573375,0.0,0.0,0.0,0.0,0.040600000000000004,-5.498166666666667,-5.498166666666667,-0.5629000000000001,-1.1175000000000002,0.06411111111111101,0.374,68.263,0.10119999999999996,-0.2318,-1.46,100.0,1.0,1.0,210.41333333333333,0.0,0.0,0.0,0.0,0.0,0.0,0.0,8918.6,0.0,55.0,5.0,245.72,0.0,0.0,0.0,0.0,0.0,0.0,0.0,0.0,1.004999999999999,1.004999999999999,0.0,0.0,0.0,55.0,616.79921,10000.0,85.000001,85.000001,85.000001,85.000001,395.0,0.0,0.0,0.0,1.0,333.33500000000004,52.307,52.307,46.86,46.86,34.0,-18.5775,28.22,-22.7075,37.207499999999996,0.0,1781.446,-0.07499999999999929,100.0,27.351,28.469,43.129,43.996,0.0,0.0,100.0,0.0,0.0,0.0,0.0,2759.375,3288.2,4139.75,4364.0,305.515,304.47525,314.6895,313.9425,19.30275,20.6697,22.001,21.4842,314.999998,314.999998,324.999988,324.999988,99.56402857142857,99.50891666666666,99.56901428571429,99.54775714285714,0.15200000000000014,0.01425,0.013666666666666716,0.2273333333333334,-0.04833333333333201,-0.06666666666666998,1.513,1.439,40.391999999999996,30.185666666666666,38.506,35.2765,61.207,36.2635,60.1775,52.7295,58.196,35.2625,58.7605,51.0305,57.798,34.7255,58.6855,50.42,-0.10299999999999998,-0.059499999999999886,0.107215,0.09856000000000001,0.0,213.64499999999998,213.79000000000002,210.41333333333333,210.41333333333333,0.0,0.0
21,0.0,0.0,0.0,1.0,1.0,0.0,0.0,1.0,0.0,100.0,1.0,1.1856,26.0,0.0,0.0,0.0,59.999996,0.0,26.0,26.0,26.0,26.0,0.10899999999999999,0.27970000000000006,-0.072825,292.404,-2.7030000000000003,-2.673222222222222,-1.6288,-1.52,-205.32999999999998,215.9275,190.55175,0.0,0.0,0.0,0.0,0.0425,-5.498166666666667,-5.498166666666667,-0.5892000000000001,0.39949999999999997,0.02922222222222204,-0.29899999999999993,68.387,0.09430000000000005,-0.2383,-0.6399999999999997,100.0,1.0,1.0,211.06,0.0,0.0,0.0,0.0,0.0,0.0,0.0,8946.0,0.0,55.0,5.0,246.16666666666666,1.0,0.0,0.0,0.0,0.0,0.0,0.0,0.0,1.0530000000000008,1.0530000000000008,0.0,0.0,1.0,55.0,616.79921,10000.0,85.000001,85.000001,85.000001,85.000001,395.0,0.0,0.0,0.0,1.0,333.33500000000004,51.666,51.666,48.355000000000004,48.355000000000004,34.0,-21.245,26.971666666666664,-23.0975,31.965,0.0,1781.399,0.48499999999999943,100.0,27.709,28.553,42.555,43.504,0.0,0.0,100.0,0.0,0.0,0.0,0.0,2962.125,3264.8,3973.625,3982.3,304.653,304.453,315.286,315.04225,19.313,20.6754,22.0107,21.4927,314.999998,314.999998,324.999988,324.999988,99.56404285714285,99.50893333333333,99.56914285714285,99.5479,0.10975000000000001,-0.02675,-0.014000000000000012,0.22350000000000003,-0.05833333333333002,-0.060000000000002274,1.6176666666666666,1.5775000000000001,40.456,30.221333333333334,38.567,35.329,61.193,36.2995,60.207,52.7845,58.183,35.295500000000004,58.788,51.0835,57.783,34.7575,58.71,50.47233333333333,-0.04299999999999993,-0.11350000000000016,0.106285,0.11222000000000001,0.0,214.09,214.155,211.06,211.06,0.0,0.0
22,0.0,0.0,0.0,1.0,1.0,0.0,0.0,1.0,0.0,100.0,1.0,1.1856,26.0,0.0,0.0,0.0,59.999996,0.0,26.0,26.0,26.0,26.0,0.07144444444444442,0.26780000000000004,0.02895,291.84,-2.6686,-2.6895555555555557,-1.6072000000000002,-1.5258888888888889,-201.84,215.93,190.528,0.0,0.0,0.0,0.0,0.044533333333333334,-5.498166666666667,-5.498166666666667,-0.5684,0.14200000000000002,0.014666666666666606,-0.712,68.526,0.06040000000000001,-0.21875,0.3179999999999996,100.0,1.0,1.0,211.26999999999998,0.0,0.0,0.0,0.0,0.0,0.0,0.0,8955.0,0.0,55.0,5.0,246.66666666666666,0.0,0.0,0.0,0.0,0.0,0.0,0.0,0.0,1.1039999999999992,1.1039999999999992,0.0,0.0,0.0,55.0,616.79921,10000.0,85.000001,85.000001,85.000001,85.000001,395.0,0.0,0.0,0.0,1.0,333.33500000000004,51.635999999999996,51.635999999999996,47.15,47.15,34.0,-23.0325,24.14333333333333,-28.7,31.5,0.0,1781.348,0.745000000000001,100.0,27.83,28.687,43.095,43.63,0.0,0.0,100.0,0.0,0.0,0.0,0.0,3002.0,3123.1,4294.75,4247.7,304.66,304.675,314.504,314.351,19.323875,20.6813,22.0213,21.5019,314.999998,314.999998,324.999988,324.999988,99.56405714285714,99.50893333333333,99.56928571428571,99.54805714285715,0.06400000000000006,-0.07150000000000001,-0.06899999999999995,0.15283333333333338,-0.07666666666666799,-0.03333333333333144,1.4753333333333334,1.4895,40.524,30.258,38.632999999999996,35.3865,61.178,36.338,60.246,52.8465,58.169,35.3315,58.824,51.1435,57.766999999999996,34.792,58.743,50.53066666666666,-0.018333333333333313,-0.137,0.10137,0.10361500000000001,0.0,214.575,214.535,211.26999999999998,211.26999999999998,0.0,0.0
23,0.0,0.0,0.0,1.0,1.0,0.0,0.0,1.0,0.0,100.0,1.0,1.1856,26.0,0.0,0.0,0.0,59.999996,0.0,26.0,26.0,26.0,26.0,0.002666666666666595,0.25560000000000005,-0.013125000000000001,291.794,-2.6718,-2.6705555555555556,-1.513,-1.612,-198.34,215.9325,190.5045,0.0,0.0,0.0,0.0,0.04656666666666667,-5.498166666666667,-5.498166666666667,-0.5861000000000001,-0.36349999999999993,-0.009777777777777885,0.020000000000000018,68.66,0.017900000000000027,-0.24495,0.7000000000000002,100.0,1.0,1.0,211.7733333333333,0.0,0.0,0.0,0.0,0.0,0.0,0.0,8976.2,0.0,55.0,5.0,247.15333333333334,1.0,0.0,0.0,0.0,0.0,0.0,0.0,0.0,1.1550000000000011,1.1550000000000011,0.0,0.0,1.0,55.0,616.79921,10000.0,85.000001,85.000001,85.000001,85.000001,395.0,0.0,0.0,0.0,1.0,333.33500000000004,51.086,51.086,48.035,48.035,34.0,-26.4575,23.60666666666667,-26.7925,28.755,0.0,1781.297,0.870000000000001,100.0,28.305,28.426000000000002,43.567,43.638,0.0,0.0,100.0,0.0,0.0,0.0,0.0,3237.625,3220.7,3989.875,3988.7,303.8553333333333,304.6665,315.07675,314.92375,19.33475,20.6872,22.0319,21.5111,314.999998,314.999998,324.999988,324.999988,99.56407142857142,99.50895,99.56942857142857,99.5482,0.036250000000000115,-0.09175,-0.10449999999999993,0.1226666666666667,-0.041666666666671404,-0.05333333333332746,1.5216666666666667,1.532,40.592,30.295,38.7,35.444,61.16,36.378,60.2825,52.908,58.152,35.3685,58.858000000000004,51.2025,57.75,34.8275,58.7735,50.58833333333333,-0.006666666666666599,-0.1459999999999999,0.11053,0.10544500000000001,0.0,214.95499999999998,214.92000000000002,211.7733333333333,211.7733333333333,0.0,0.0
24,0.0,0.0,0.0,1.0,1.0,0.0,0.0,1.0,0.0,100.0,1.0,1.1856,26.0,0.0,0.0,0.0,59.999996,0.0,26.0,26.0,26.0,26.0,-0.047111111111111104,0.29000000000000004,-0.085675,292.099,-2.672,-2.7023333333333333,-1.5376,-1.571777777777778,-195.04,215.935,190.482125,0.0,0.0,0.0,0.0,0.04846666666666667,-5.498166666666667,-5.498166666666667,-0.5894,-0.4910000000000001,-0.0214444444444446,0.863,68.788,-0.015799999999999925,-0.2311,0.8600000000000003,100.0,1.0,1.0,212.09,0.0,0.0,0.0,0.0,0.0,0.0,0.0,8989.7,0.0,55.0,5.0,247.61,0.0,0.0,0.0,0.0,0.0,0.0,0.0,0.0,1.2029999999999994,1.2029999999999994,0.0,0.0,0.0,55.0,616.79921,10000.0,85.000001,85.000001,85.000001,85.000001,395.0,0.0,0.0,0.0,1.0,333.33500000000004,52.277,52.277,47.104,47.104,34.0,-24.3625,20.705,-31.6875,27.1525,0.0,1781.249,0.865000000000002,100.0,28.215,28.054000000000002,43.763,43.291,0.0,0.0,100.0,0.0,0.0,0.0,0.0,2908.75,2995.3,4336.875,4080.1000000000004,304.87233333333336,305.39175,314.2595,314.80875,19.345,20.6925,22.0419,21.5196,314.999998,314.999998,324.999988,324.999988,99.56407142857142,99.50895,99.56958571428571,99.54832857142857,0.012750000000000039,-0.122,-0.13183333333333336,0.08800000000000008,-0.054999999999999716,-0.05666666666667197,1.4786666666666666,1.524,40.656,30.328333333333333,38.762,35.4975,61.143,36.414500000000004,60.318,52.9625,58.135999999999996,35.4025,58.891,51.254999999999995,57.732,34.86,58.804,50.64,-0.009666666666666712,-0.14550000000000018,0.09974500000000001,0.10769000000000001,0.0,215.385,215.32,212.09,212.09,0.0,0.0
25,0.0,0.0,0.0,1.0,1.0,0.0,0.0,1.0,0.0,100.0,1.0,1.1856,26.0,0.0,0.0,0.0,59.999996,0.0,26.0,26.0,26.0,26.0,-0.056777777777777816,0.2594000000000001,-0.046625,292.13,-2.7275,-2.676111111111111,-1.5429,-1.5855555555555556,-191.53,215.9375,190.456875,0.0,0.0,0.0,0.0,0.0505,-5.498166666666667,-5.498166666666667,-0.6234000000000001,-0.10299999999999998,-0.03400000000000025,-1.467,68.92,-0.04469999999999996,-0.23902500000000002,0.9879999999999995,100.0,1.0,1.0,212.64,0.0,0.0,0.0,0.0,0.0,0.0,0.0,9013.0,0.0,55.0,5.0,248.08666666666664,1.0,0.0,0.0,0.0,0.0,0.0,0.0,0.0,1.2540000000000013,1.2540000000000013,0.0,0.0,1.0,55.0,616.79921,10000.0,85.000001,85.000001,85.000001,85.000001,395.0,0.0,0.0,0.0,1.0,333.33500000000004,51.376,51.376,47.958,47.958,34.0,-29.3825,21.461666666666666,-30.595,24.53,0.0,1781.198,0.8350000000000009,100.0,28.035,28.259999999999998,43.527,42.914,0.0,0.0,100.0,0.0,0.0,0.0,0.0,3288.75,3207.4,4037.125,3927.3,303.97766666666666,304.58975,315.12,315.16475,19.355875,20.6983,22.0523,21.5286,314.999998,314.999998,324.999988,324.999988,99.56407142857142,99.50896666666667,99.56971428571428,99.54847142857143,-0.015249999999999986,-0.14150000000000001,-0.1718333333333334,0.05983333333333318,-0.05833333333333002,-0.04833333333333201,1.5513333333333332,1.585,40.724000000000004,30.364666666666665,38.827,35.5535,61.122,36.456,60.3535,53.0185,58.117999999999995,35.441,58.924,51.309,57.712,34.897,58.8335,50.69266666666667,-0.011333333333333195,-0.14550000000000018,0.10872000000000001,0.10721000000000001,0.0,215.78,215.70499999999998,212.64,212.64,0.0,0.0
26,0.0,0.0,0.0,1.0,1.0,0.0,0.0,1.0,0.0,100.0,1.0,1.1856,26.0,0.0,0.0,0.0,59.999996,0.0,26.0,26.0,26.0,26.0,-0.10099999999999998,0.26550000000000007,0.071975,290.863,-2.645,-2.780444444444444,-1.5655999999999999,-1.6022222222222222,-188.01,215.94,190.431,0.0,0.0,0.0,0.0,0.052566666666666664,-5.498166666666667,-5.498166666666667,-0.5845,0.7965,-0.07455555555555549,0.383,69.056,-0.06369999999999998,-0.21047500000000002,0.9340000000000002,100.0,1.0,1.0,212.80666666666667,0.0,0.0,0.0,0.0,0.0,0.0,0.0,9020.1,0.0,55.0,5.0,248.57333333333332,0.0,0.0,0.0,0.0,0.0,0.0,0.0,0.0,1.3049999999999997,1.3049999999999997,0.0,0.0,0.0,55.0,616.79921,10000.0,85.000001,85.000001,85.000001,85.000001,395.0,0.0,0.0,0.0,1.0,333.33500000000004,50.674,50.674,46.265,46.265,34.0,-27.9225,21.525,-37.5975,28.01,0.0,1781.146,0.6400000000000006,100.0,29.235,28.665,44.293,42.997,0.0,0.0,100.0,0.0,0.0,0.0,0.0,3218.0,3135.9,4617.875,4410.7,303.802,304.826,313.69525,314.0465,19.367125,20.7043,22.063,21.5377,314.999998,314.999998,324.999988,324.999988,99.56408571428571,99.50898333333333,99.56987142857143,99.54862857142857,-0.003750000000000031,-0.1495,-0.1798333333333334,0.04383333333333317,-0.06499999999999773,-0.03499999999999659,1.4166666666666665,1.4655,40.795,30.401666666666664,38.894,35.611,61.108000000000004,36.5005,60.394,53.078,58.105000000000004,35.482,58.962,51.366,57.698,34.9365,58.8685,50.748333333333335,-0.02833333333333332,-0.137,0.10794000000000001,0.11046500000000001,0.0,216.24,216.17000000000002,212.80666666666667,212.80666666666667,0.0,0.0
27,0.0,0.0,0.0,1.0,1.0,0.0,0.0,1.0,0.0,100.0,1.0,1.1856,26.0,0.0,0.0,0.0,59.999996,0.0,26.0,26.0,26.0,26.0,-0.08933333333333338,0.25750000000000006,-0.006200000000000001,291.26,-2.6082,-2.7556666666666665,-1.5534,-1.6775555555555557,-184.7,215.9375,190.407875,0.0,0.0,0.0,0.0,0.0545,-5.498166666666667,-5.498166666666667,-0.6069,-1.0670000000000002,-0.07711111111111135,0.8160000000000001,69.181,-0.07169999999999999,-0.256375,0.8200000000000003,100.0,1.0,1.0,213.25333333333333,0.0,0.0,0.0,0.0,0.0,0.0,0.0,9039.0,0.0,55.0,5.0,249.02666666666664,1.0,0.0,0.0,0.0,0.0,0.0,0.0,0.0,1.352999999999998,1.352999999999998,0.0,0.0,1.0,55.0,616.79921,10000.0,85.000001,85.000001,85.000001,85.000001,395.0,0.0,0.0,0.0,1.0,333.33500000000004,51.132,51.132,46.661,46.661,34.0,-26.84,21.305,-33.0625,26.09,0.0,1781.098,0.5250000000000021,100.0,28.983,28.341,45.071,43.554,0.0,0.0,100.0,0.0,0.0,0.0,0.0,3133.25,3147.9,4189.25,4068.0,304.08666666666664,304.92625,314.619,314.742,19.3775,20.7097,22.0732,21.5465,314.999998,314.999998,324.999988,324.999988,99.56408571428571,99.50901666666667,99.57001428571428,99.54875714285714,-0.006000000000000005,-0.148,-0.1785,0.03699999999999992,-0.045000000000001705,-0.05666666666667197,1.4786666666666666,1.506,40.858999999999995,30.435333333333332,38.958,35.6655,61.092,36.54,60.4335,53.135,58.089,35.5185,58.999,51.421,57.681,34.971000000000004,58.9025,50.80166666666666,-0.04166666666666674,-0.129,0.09905000000000001,0.10464000000000001,0.0,216.55,216.505,213.25333333333333,213.25333333333333,0.0,0.0
28,0.0,0.0,0.0,1.0,1.0,0.0,0.0,1.0,0.0,100.0,1.0,1.1856,26.0,0.0,0.0,0.0,59.999996,0.0,26.0,26.0,26.0,26.0,-0.09811111111111104,0.26849999999999996,-0.052575000000000004,291.626,-2.6372999999999998,-2.7423333333333333,-1.5008,-1.6385555555555558,-180.95999999999998,215.935,190.381125,0.0,0.0,0.0,0.0,0.056666666666666664,-5.498166666666667,-5.498166666666667,-0.6121,0.6599999999999999,-0.08211111111111125,0.7050000000000001,69.318,-0.07539999999999991,-0.22845000000000001,0.6379999999999999,100.0,1.0,1.0,213.80333333333334,0.0,0.0,0.0,0.0,0.0,0.0,0.0,9062.4,0.0,55.0,5.0,249.51666666666665,0.0,0.0,0.0,0.0,0.0,0.0,0.0,0.0,1.407,1.407,0.0,0.0,0.0,55.0,616.79921,10000.0,85.000001,85.000001,85.000001,85.000001,395.0,0.0,0.0,0.0,1.0,166.665,51.163,51.163,47.562,47.562,34.0,-27.3675,21.285,-32.1525,25.552500000000002,0.0,1781.046,0.40500000000000114,100.0,29.009,28.228,44.298,42.952,0.0,0.0,100.0,0.0,0.0,0.0,0.0,3162.75,3099.5,4167.75,4068.4,303.94033333333334,305.05375,314.821,314.8525,19.389125,20.7158,22.0842,21.556,314.999998,314.999998,324.999988,324.999988,99.56408571428571,99.50903333333333,99.57017142857143,99.54891428571429,-0.0034999999999999476,-0.1375,-0.1888333333333334,0.0431666666666668,-0.05333333333332746,-0.051666666666669414,1.54,1.5605,40.932,30.473666666666666,39.025999999999996,35.725,61.075,36.584,60.47,53.1935,58.074,35.5595,59.033500000000004,51.477000000000004,57.664,35.0105,58.9335,50.85633333333333,-0.05033333333333312,-0.11399999999999988,0.107575,0.10961000000000001,0.0,217.03,216.995,213.80333333333334,213.80333333333334,0.0,0.0
29,0.0,0.0,0.0,1.0,1.0,0.0,0.0,1.0,0.0,100.0,1.0,1.1856,26.0,0.0,0.0,0.0,59.999996,0.0,26.0,26.0,26.0,26.0,-0.08711111111111103,0.25690000000000013,0.011225,291.214,-2.5837,-2.790888888888889,-1.5399,-1.6157777777777778,-177.63,215.9275,190.35625,0.0,0.0,0.0,0.0,0.058600000000000006,-5.498166666666667,-5.498166666666667,-0.6161,-0.708,-0.07522222222222208,0.882,69.445,-0.06729999999999992,-0.22945000000000002,0.4079999999999995,100.0,1.0,1.0,214.01666666666665,0.0,0.0,0.0,0.0,0.0,0.0,0.0,9071.3,0.0,55.0,5.0,249.97333333333336,1.0,0.0,0.0,0.0,0.0,0.0,0.0,0.0,1.4549999999999983,1.4549999999999983,0.0,0.0,1.0,55.0,616.79921,10000.0,85.000001,85.000001,85.000001,85.000001,395.0,0.0,0.0,0.0,1.0,333.33500000000004,51.132,51.132,46.463,46.463,34.0,-26.8275,22.73166666666667,-33.4325,27.375,0.0,1780.997,0.3100000000000023,100.0,28.675,28.139,44.771,43.236000000000004,0.0,0.0,100.0,0.0,0.0,0.0,0.0,3184.5,3198.8,4290.0,4229.2,303.96366666666665,304.63675,314.34625,314.4215,19.39925,20.7212,22.0944,21.5647,314.999998,314.999998,324.999988,324.999988,99.5641,99.50903333333333,99.57031428571429,99.54904285714285,0.0,-0.136,-0.16816666666666658,0.05283333333333329,-0.04333333333332945,-0.041666666666671404,1.459,1.4725000000000001,40.995999999999995,30.507333333333335,39.09,35.7795,61.057,36.622,60.5085,53.25,58.057,35.5945,59.0695,51.531,57.647,35.044,58.966499999999996,50.909,-0.05333333333333323,-0.10650000000000004,0.102205,0.10481000000000001,0.0,217.36,217.345,214.01666666666665,214.01666666666665,0.0,0.0
30,0.0,0.0,0.0,1.0,1.0,0.0,0.0,1.0,0.0,100.0,1.0,1.1856,26.0,0.0,0.0,0.0,59.999996,0.0,26.0,26.0,26.0,26.0,-0.07677777777777783,0.26670000000000016,0.062025000000000004,290.771,-2.6396,-2.6802222222222225,-1.4795,-1.6735555555555557,-174.29,215.92000000000002,190.331375,0.0,0.0,0.0,0.0,0.06053333333333334,-5.498166666666667,-5.498166666666667,-0.6142000000000001,0.7435,-0.08177777777777795,0.478,69.566,-0.05469999999999997,-0.232575,0.2860000000000005,100.0,1.0,1.0,214.44666666666666,0.0,0.0,0.0,0.0,0.0,0.0,0.0,9089.6,0.0,55.0,5.0,250.41,0.0,0.0,0.0,0.0,0.0,0.0,1.0,0.0,1.5030000000000001,1.5030000000000001,0.0,0.0,0.0,55.0,616.79921,10000.0,85.000001,85.000001,85.000001,85.000001,395.0,0.0,0.0,0.0,1.0,333.33500000000004,50.156,50.156,46.921,46.921,34.0,-28.3725,22.055,-31.557499999999997,28.7975,0.0,1780.947,0.28999999999999915,100.0,29.462,28.873,44.592,43.298,0.0,0.0,100.0,0.0,0.0,0.0,0.0,3365.125,3197.0,4289.75,4206.7,303.32866666666666,304.67325,314.459,314.4145,19.409875,20.7268,22.1043,21.5733,314.999998,314.999998,324.999988,324.999988,99.5641,99.50906666666667,99.57047142857142,99.5492,0.0182500000000001,-0.1265,-0.15533333333333332,0.06716666666666682,-0.051666666666669414,-0.04833333333333201,1.4933333333333332,1.4929999999999999,41.061,30.542666666666666,39.152,35.8335,61.043,36.6655,60.545,53.3075,58.045,35.6345,59.103,51.5865,57.632999999999996,35.082499999999996,58.997,50.963,-0.06466666666666665,-0.10349999999999993,0.10510000000000001,0.10978500000000001,0.0,217.79000000000002,217.765,214.44666666666666,214.44666666666666,0.0,0.0
31,0.0,0.0,0.0,1.0,1.0,0.0,0.0,1.0,0.0,100.0,1.0,1.1856,26.0,0.0,0.0,0.0,59.999996,0.0,26.0,26.0,26.0,26.0,-0.058222222222222175,0.254,0.011275,290.756,-2.7094,-2.751333333333333,-1.5695999999999999,-1.6654444444444443,-170.74,215.91,190.3055,0.0,0.0,0.0,0.0,0.0626,-5.498166666666667,-5.498166666666667,-0.5999,-0.5025,-0.06877777777777805,-0.6580000000000001,69.69800000000001,-0.04049999999999998,-0.23220000000000002,0.18599999999999994,100.0,1.0,1.0,214.75,0.0,0.0,0.0,0.0,0.0,0.0,0.0,9102.4,0.0,55.0,5.0,250.88666666666666,1.0,0.0,0.0,0.0,0.0,0.0,1.0,0.0,1.5539999999999985,1.5539999999999985,0.0,0.0,1.0,55.0,616.79921,10000.0,85.000001,85.000001,85.000001,85.000001,395.0,0.0,0.0,0.0,1.0,333.33500000000004,50.949,50.949,45.501999999999995,45.501999999999995,34.0,-26.5675,21.60333333333333,-35.4975,29.0125,0.0,1780.898,0.21999999999999886,100.0,29.053,29.022,45.107,44.004000000000005,0.0,0.0,100.0,0.0,0.0,0.0,0.0,3174.875,3051.6,4528.75,4186.4,304.3283333333333,304.9555,313.933,314.542,19.420749999999998,20.7328,22.115099999999998,21.5827,314.999998,314.999998,324.999988,324.999988,99.5641,99.50908333333334,99.57061428571429,99.54932857142857,0.02200000000000002,-0.12925,-0.16016666666666657,0.07516666666666683,-0.051666666666669414,-0.03333333333333144,1.4516666666666667,1.4535,41.129999999999995,30.579666666666668,39.219,35.891999999999996,61.027,36.705,60.584,53.365,58.03,35.671,59.14,51.641999999999996,57.616,35.1175,59.031,51.016999999999996,-0.07133333333333325,-0.10749999999999993,0.109975,0.110335,0.0,218.15,218.15,214.75,214.75,0.0,0.0
32,0.0,0.0,0.0,1.0,1.0,0.0,0.0,1.0,0.0,100.0,1.0,1.1856,26.0,0.0,0.0,0.0,59.999996,0.0,26.0,26.0,26.0,26.0,-0.04033333333333333,0.26859999999999995,-0.02885,290.955,-2.6479,-2.752222222222222,-1.5974,-1.568888888888889,-166.97,215.9,190.278375,0.0,0.0,0.0,0.0,0.0648,-5.498166666666667,-5.498166666666667,-0.6199,0.10799999999999998,-0.08977777777777796,-1.0100000000000002,69.833,-0.031299999999999994,-0.242425,0.1479999999999997,100.0,1.0,1.0,215.31,0.0,0.0,0.0,0.0,0.0,0.0,0.0,9126.2,0.0,55.0,5.0,251.37,0.0,0.0,0.0,0.0,0.0,0.0,1.0,0.0,1.6080000000000005,1.6080000000000005,0.0,0.0,0.0,55.0,616.79921,10000.0,85.000001,85.000001,85.000001,85.000001,395.0,0.0,0.0,0.0,1.0,166.665,50.629,50.629,46.631,46.631,34.0,-27.05,22.77,-32.305,27.2775,0.0,1780.844,0.15000000000000213,100.0,28.999,29.081,44.722,43.799,0.0,0.0,100.0,0.0,0.0,0.0,0.0,3321.125,3088.2,4299.25,4163.0,303.741,304.9005,314.577,314.66775,19.43225,20.7391,22.1262,21.5924,314.999998,314.999998,324.999988,324.999988,99.5641,99.5091,99.57077142857143,99.54948571428571,0.03299999999999992,-0.108,-0.14316666666666666,0.07916666666666683,-0.06666666666666998,-0.026666666666670835,1.5316666666666667,1.5310000000000001,41.202,30.619333333333334,39.289,35.9525,61.009,36.7495,60.6215,53.426,58.013999999999996,35.712,59.1745,51.7005,57.599000000000004,35.1565,59.0625,51.07366666666667,-0.06666666666666665,-0.09750000000000014,0.099555,0.10354500000000001,0.0,218.57999999999998,218.56,215.31,215.31,0.0,0.0
33,0.0,0.0,0.0,1.0,1.0,0.0,0.0,1.0,0.0,100.0,1.0,1.1856,26.0,0.0,0.0,0.0,59.999996,0.0,26.0,26.0,26.0,26.0,-0.025666666666666615,0.2561,-0.04975,291.092,-2.6532999999999998,-2.7474444444444446,-1.5575,-1.6500000000000001,-163.82999999999998,215.89,190.254875,0.0,0.0,0.0,0.0,0.06663333333333334,-5.498166666666667,-5.498166666666667,-0.6228,-0.3105,-0.0818888888888889,1.326,69.947,-0.0252,-0.22917500000000002,0.05400000000000027,100.0,1.0,1.0,215.58333333333331,0.0,0.0,0.0,0.0,0.0,0.0,0.0,9137.8,0.0,55.0,5.0,251.78333333333336,1.0,0.0,0.0,0.0,0.0,0.0,1.0,0.0,1.6529999999999987,1.6529999999999987,0.0,0.0,1.0,55.0,616.79921,10000.0,85.000001,85.000001,85.000001,85.000001,395.0,0.0,0.0,0.0,1.0,166.665,51.208,51.208,46.417,46.417,34.0,-24.1175,23.236666666666665,-31.8125,30.16,0.0,1780.8,0.10500000000000043,100.0,29.019,28.698999999999998,44.775999999999996,43.802,0.0,0.0,100.0,0.0,0.0,0.0,0.0,3079.125,3087.7,4320.0,4250.4,304.4053333333333,305.06275,314.405,314.42025,19.44175,20.7442,22.1356,21.6005,314.999998,314.999998,324.999988,324.999988,99.56411428571428,99.50911666666667,99.57091428571428,99.54962857142857,0.0535000000000001,-0.09175,-0.1333333333333333,0.09450000000000003,-0.036666666666668846,-0.05666666666667197,1.4846666666666666,1.4925,41.260999999999996,30.651333333333334,39.347,36.0035,60.994,36.7825,60.653999999999996,53.4775,58.0,35.743,59.205,51.75,57.584,35.186,59.09,51.122,-0.07899999999999996,-0.08650000000000002,0.10953,0.11348000000000001,0.0,218.925,218.94,215.58333333333331,215.58333333333331,0.0,0.0
34,0.0,0.0,0.0,1.0,1.0,0.0,0.0,1.0,0.0,100.0,1.0,1.1856,26.0,0.0,0.0,0.0,59.999996,0.0,26.0,26.0,26.0,26.0,-0.022666666666666613,0.2590000000000001,-0.0708,291.397,-2.677,-2.6942222222222223,-1.5979,-1.6035555555555556,-160.26,215.8775,190.227125,0.0,0.0,0.0,0.0,0.0687,-5.498166666666667,-5.498166666666667,-0.6534,-0.812,-0.04677777777777781,-0.11699999999999999,70.076,-0.017199999999999993,-0.23895000000000002,0.07399999999999984,100.0,1.0,1.0,216.0233333333333,0.0,0.0,0.0,0.0,0.0,0.0,0.0,9156.4,0.0,55.0,5.0,252.24666666666667,0.0,0.0,0.0,0.0,0.0,0.0,1.0,0.0,1.7040000000000006,1.7040000000000006,0.0,0.0,0.0,55.0,616.79921,10000.0,85.000001,85.000001,85.000001,85.000001,395.0,0.0,0.0,0.0,1.0,333.33500000000004,51.331,51.331,47.363,47.363,34.0,-25.72,22.358333333333334,-30.1325,28.642500000000002,0.0,1780.747,0.10500000000000043,100.0,28.566,28.526,44.414,43.967,0.0,0.0,100.0,0.0,0.0,0.0,0.0,3171.5,3048.7,4120.25,4137.0,304.08233333333334,305.11675,314.93175,314.5965,19.452375,20.75,22.1461,21.6098,314.999998,314.999998,324.999988,324.999988,99.56411428571428,99.50911666666667,99.57105714285714,99.54977142857143,0.041749999999999954,-0.095,-0.1293333333333333,0.09483333333333333,-0.05666666666667197,-0.03833333333332689,1.527,1.5055,41.328,30.687333333333335,39.413,36.061,60.977000000000004,36.82,60.688,53.536500000000004,57.983999999999995,35.7775,59.237,51.8065,57.566,35.2195,59.1185,51.17733333333334,-0.07499999999999996,-0.08950000000000014,0.096055,0.11229000000000001,0.0,219.305,219.29500000000002,216.02333333333334,216.0233333333333,0.0,0.0
35,0.0,0.0,0.0,1.0,1.0,0.0,0.0,1.0,0.0,100.0,1.0,1.1856,26.0,0.0,0.0,0.0,59.999996,0.0,26.0,26.0,26.0,26.0,-0.01766666666666661,0.26060000000000016,-0.054725,291.489,-2.7235,-2.6722222222222225,-1.5767,-1.6196666666666668,-156.68,215.865,190.19725,0.0,0.0,0.0,0.0,0.07076666666666667,-5.498166666666667,-5.498166666666667,-0.6944,-0.45799999999999996,-0.05766666666666653,-0.07600000000000007,70.202,-0.007699999999999929,-0.244925,-0.09399999999999942,100.0,1.0,1.0,216.48333333333335,0.0,0.0,0.0,0.0,0.0,0.0,0.0,9175.9,0.0,55.0,5.0,252.70333333333335,1.0,0.0,0.0,0.0,0.0,0.0,1.0,0.0,1.754999999999999,1.754999999999999,0.0,0.0,1.0,55.0,616.79921,10000.0,85.000001,85.000001,85.000001,85.000001,395.0,0.0,0.0,0.0,1.0,333.33500000000004,51.056,51.056,46.89,46.89,34.0,-25.5325,25.561666666666667,-28.6075,27.815,0.0,1780.696,0.17999999999999972,100.0,28.442,28.614,44.265,43.462,0.0,0.0,100.0,0.0,0.0,0.0,0.0,3155.875,3377.9,4077.5,3923.9,304.2853333333333,304.209,314.92675,315.1695,19.462875,20.7559,22.1565,21.6188,314.999998,314.999998,324.999988,324.999988,99.56412857142857,99.50913333333334,99.57121428571429,99.54991428571428,0.04875000000000007,-0.07975,-0.10999999999999999,0.11433333333333318,-0.05833333333333002,-0.046666666666666856,1.537,1.5430000000000001,41.393,30.724333333333334,39.477999999999994,36.1175,60.957,36.859,60.722,53.591499999999996,57.966,35.814,59.2685,51.86,57.547,35.254,59.147,51.22933333333333,-0.06800000000000006,-0.09250000000000025,0.10153500000000001,0.10942,0.0,219.685,219.70499999999998,216.48333333333335,216.48333333333335,0.0,0.0
36,0.0,0.0,0.0,1.0,1.0,0.0,0.0,1.0,0.0,100.0,1.0,1.1856,26.0,0.0,0.0,0.0,59.999996,0.0,26.0,26.0,26.0,26.0,-0.013666666666666605,0.26439999999999997,0.036950000000000004,290.573,-2.7236000000000002,-2.650666666666667,-1.5298,-1.6133333333333333,-153.31,215.85250000000002,190.167625,0.0,0.0,0.0,0.0,0.07273333333333334,-5.498166666666667,-5.498166666666667,-0.6753,0.3415,-0.09477777777777785,0.05799999999999994,70.324,-0.0035999999999999366,-0.212175,0.06200000000000028,100.0,1.0,1.0,216.64666666666668,0.0,0.0,0.0,0.0,0.0,0.0,0.0,9182.9,0.0,55.0,5.0,253.14,0.0,0.0,0.0,0.0,0.0,0.0,1.0,0.0,1.8030000000000008,1.8030000000000008,0.0,0.0,0.0,55.0,616.79921,10000.0,85.000001,85.000001,85.000001,85.000001,395.0,0.0,0.0,0.0,1.0,333.33500000000004,50.629,50.629,46.143,46.143,34.0,-25.77,24.153333333333336,-31.189999999999998,33.620000000000005,0.0,1780.649,0.19000000000000128,100.0,28.997,28.939,44.394,43.646,0.0,0.0,100.0,0.0,0.0,0.0,0.0,3243.125,3252.9,4493.125,4507.9,303.926,304.64375,313.9605,313.83625,19.473,20.7617,22.1664,21.6275,314.999998,314.999998,324.999988,324.999988,99.56412857142857,99.50913333333334,99.57135714285714,99.55005714285714,0.06374999999999997,-0.08125,-0.09850000000000003,0.1213333333333333,-0.041666666666671404,-0.04833333333333201,1.442,1.429,41.457,30.760333333333335,39.54,36.172,60.942,36.897999999999996,60.756,53.647,57.952,35.85,59.3005,51.913,57.532,35.2885,59.1755,51.281333333333336,-0.06733333333333325,-0.09949999999999992,0.10253000000000001,0.11590500000000001,0.0,220.10500000000002,220.125,216.64666666666665,216.64666666666668,0.0,0.0
