,ABS Active,ABS Enabled,AID Allow Tire Blankets,AID Auto Blip,AID Auto Clutch,AID Auto Shift,AID Fuel Rate,AID Ideal Line,AID Mech Damage,AID Stability,AID Tire Wear Rate,Air Density,Air Temp,Ballast,Best Lap Delta,Best Lap Time,Brake Bias,Brake Pos,Brake Temp FL,Brake Temp FR,Brake Temp RL,Brake Temp RR,CG Accel Lateral,CG Accel Longitudinal,CG Accel Vertical,CG Height,Camber FL,Camber FR,Camber RL,Camber RR,Car Coord X,Car Coord Y,Car Coord Z,Car Damage Front,Car Damage Left,Car Damage Rear,Car Damage Right,Car Pos Norm,Caster FL,Caster FR,Chassis Pitch Angle,Chassis Pitch Rate,Chassis Roll Angle,Chassis Roll Rate,Chassis Velocity X,Chassis Velocity Y,Chassis Velocity Z,Chassis Yaw Rate,Clutch Pos,DRS Active,DRS Available,Drive Train Speed,ERS Heat Charging,ERS Is Charging,ERS Max Energy,ERS Power Level,ERS Recovery Level,Engine Brake Setting,Engine Limiter,Engine RPM,Flags,Fuel Level,Gear,Ground Speed,HR Sample Clock,In Pit,KERS Charge,KERS Deployed Energy,KERS Input,KERS Max Energy,LR Sample Clock,Lap Invalidated,Lap Time,Lap Time2,Last Lap Time,Last Sector Time,MR Sample Clock,Max Fuel,Max Power,Max RPM,Max Sus Travel FL,Max Sus Travel FR,Max Sus Travel RL,Max Sus Travel RR,Max Torque,Max Turbo Boost,Num Tires Off Track,Penalties Enabled,Position,Raw Data Sample Rate,Ride Height FL,Ride Height FR,Ride Height RL,Ride Height RR,Road Temp,Self Align Torque FL,Self Align Torque FR,Self Align Torque RL,Self Align Torque RR,Session Lap Count,Session Time Left,Steering Angle,Surface Grip,Suspension Travel FL,Suspension Travel FR,Suspension Travel RL,Suspension Travel RR,TC Active,TC Enabled,Throttle Pos,Tire Dirt Level FL,Tire Dirt Level FR,Tire Dirt Level RL,Tire Dirt Level RR,Tire Load FL,Tire Load FR,Tire Load RL,Tire Load RR,Tire Loaded Radius FL,Tire Loaded Radius FR,Tire Loaded Radius RL,Tire Loaded Radius RR,Tire Pressure FL,Tire Pressure FR,Tire Pressure RL,Tire Pressure RR,Tire Radius FL,Tire Radius FR,Tire Radius RL,Tire Radius RR,Tire Rubber Grip FL,Tire Rubber Grip FR,Tire Rubber Grip RL,Tire Rubber Grip RR,Tire Slip Angle FL,Tire Slip Angle FR,Tire Slip Angle RL,Tire Slip Angle RR,Tire Slip Ratio FL,Tire Slip Ratio FR,Tire Slip Ratio RL,Tire Slip Ratio RR,Tire Temp Core FL,Tire Temp Core FR,Tire Temp Core RL,Tire Temp Core RR,Tire Temp Inner FL,Tire Temp Inner FR,Tire Temp Inner RL,Tire Temp Inner RR,Tire Temp Middle FL,Tire Temp Middle FR,Tire Temp Middle RL,Tire Temp Middle RR,Tire Temp Outer FL,Tire Temp Outer FR,Tire Temp Outer RL,Tire Temp Outer RR,Toe In FL,Toe In FR,Toe In RL,Toe In RR,Turbo Boost,Wheel Angular Speed FL,Wheel Angular Speed FR,Wheel Angular Speed RL,Wheel Angular Speed RR,Wind Direction,Wind Speed
0,0.0,0.0,0.0,1.0,1.0,0.0,0.0,1.0,0.0,100.0,1.0,1.1856,26.0,0.0,0.0,0.0,59.99999,0.0,26.0,26.0,26.0,26.0,-0.13875,0.30279999999999996,0.04455,293.961,-2.6734,-2.709888888888889,-1.47305,-1.5994000000000002,-275.62,216.275,190.987125,0.0,0.0,0.0,0.0,0.0016333333333333332,-5.498166666666667,-5.498166666666667,-0.5521,1.3623333333333334,-0.05500000000000016,-0.15600000000000014,65.486,-0.0849,-0.21905000000000002,1.3640000000000008,100.0,1.0,1.0,202.19333333333333,0.0,0.0,0.0,0.0,0.0,0.0,0.0,8570.2,0.0,55.0,5.0,235.72333333333333,0.0,0.0,0.0,0.0,0.0,0.0,0.0,0.0,0.0030000000000001137,0.0030000000000001137,0.0,0.0,0.0,55.0,616.79921,10000.0,85.0,85.0,85.0,85.0,395.0,0.0,0.0,0.0,1.0,20.0,52.551,52.551,49.576,49.576,34.0,-29.549999999999997,21.564999999999998,-32.166666666666664,22.7275,0.0,1782.851,1.1400000000000006,100.0,27.494,26.63,41.015,39.964,0.0,0.0,100.0,0.0,0.0,0.0,0.0,3126.285714285714,3364.7,4153.625,3951.4,304.887,304.155,314.7285,315.005,20.8608,20.5225,21.7755,21.3128,314.99999,314.99999,324.99998,324.99998,99.55988571428571,99.5075,99.56544285714286,99.54521428571428,-0.05899999999999994,-0.16799999999999993,-0.19916666666666666,0.0165,-0.06833333333332803,-0.06833333333332803,1.5270000000000001,1.58,37.629999999999995,29.265666666666668,37.097,34.204499999999996,57.707,34.7005,59.169,51.614,55.354,33.8495,57.798,49.9685,54.669,33.3995,57.7685,49.39033333333333,0.0129999999999999,-0.1575000000000002,0.10163000000000001,0.10963,0.0,205.23000000000002,205.13,202.19333333333333,202.19333333333333,0.0,0.0
1,0.0,0.0,0.0,1.0,1.0,0.0,0.0,1.0,0.0,100.0,1.0,1.1856,26.0,0.0,0.0,0.0,59.999996,0.0,26.0,26.0,26.0,26.0,-0.151625,0.3057000000000001,0.162775,293.091,-2.606,-2.800222222222222,-1.4976,-1.5765,-272.27,216.275,190.967,0.0,0.0,0.0,0.0,0.0035666666666666668,-5.498166666666667,-5.498166666666667,-0.4989,-0.6323333333333334,-0.08866666666666667,-0.6989999999999998,65.641,-0.0931,-0.195825,1.6740000000000013,100.0,1.0,1.0,202.36666666666667,0.0,0.0,0.0,0.0,0.0,0.0,0.0,8577.6,0.0,55.0,5.0,236.27666666666667,1.0,0.0,0.0,0.0,0.0,0.0,0.0,0.0,0.053999999999998494,0.053999999999998494,0.0,0.0,1.0,55.0,616.79921,10000.0,85.000001,85.000001,85.000001,85.000001,395.0,0.0,0.0,0.0,1.0,166.665,53.558,53.558,48.385999999999996,48.385999999999996,34.0,-29.2175,16.468333333333334,-35.986666666666665,26.3525,0.0,1782.803,1.125,100.0,27.568,26.741,43.124,41.214,0.0,0.0,100.0,0.0,0.0,0.0,0.0,3148.142857142857,2637.5,4290.75,4685.1,304.955,306.45166666666665,314.3425,313.181,20.8712,20.5276,21.7864,21.3218,314.999998,314.999998,324.999988,324.999988,99.5599,99.50751666666666,99.5656,99.54535714285714,-0.06400000000000006,-0.18033333333333335,-0.22716666666666666,-0.009000000000000001,-0.07833333333332604,-0.04999999999999716,1.397,1.492,37.695,29.297666666666665,37.165,34.2615,57.694,34.7425,59.215,51.6785,55.342,33.8885,57.841499999999996,50.0305,54.656,33.437,57.809,49.451,0.0129999999999999,-0.15549999999999997,0.10703000000000001,0.10616,0.0,205.69,205.565,202.36666666666667,202.36666666666667,0.0,0.0
2,0.0,0.0,0.0,1.0,1.0,0.0,0.0,1.0,0.0,100.0,1.0,1.1856,26.0,0.0,0.0,0.0,59.999996,0.0,26.0,26.0,26.0,26.0,-0.194875,0.29520000000000013,-0.099275,293.625,-2.56245,-2.837111111111111,-1.45395,-1.6442999999999999,-268.92,216.26999999999998,190.948125,0.0,0.0,0.0,0.0,0.005533333333333334,-5.498166666666667,-5.498166666666667,-0.5507000000000001,0.03233333333333334,-0.08700000000000019,2.503,65.783,-0.1037,-0.2519,1.8040000000000003,100.0,1.0,1.0,203.25666666666666,0.0,0.0,0.0,0.0,0.0,0.0,0.0,8615.2,0.0,55.0,5.0,236.79000000000002,0.0,0.0,0.0,0.0,0.0,0.0,0.0,0.0,0.10500000000000043,0.10500000000000043,0.0,0.0,0.0,55.0,616.79921,10000.0,85.000001,85.000001,85.000001,85.000001,395.0,0.0,0.0,0.0,1.0,333.33500000000004,52.322,52.322,50.156,50.156,34.0,-31.737499999999997,18.361666666666665,-30.786666666666665,18.755,0.0,1782.751,1.0399999999999991,100.0,28.442,26.733,42.957,40.982,0.0,0.0,100.0,0.0,0.0,0.0,0.0,3361.4285714285716,2896.1,3807.5,3651.3,304.03,305.68066666666664,315.501,315.8665,20.8819,20.5326,21.7969,21.3306,314.999998,314.999998,324.999988,324.999988,99.55991428571429,99.50755,99.56572857142856,99.5455,-0.06933333333333325,-0.18766666666666665,-0.254,-0.02666666666666667,-0.051666666666669414,-0.054999999999999716,1.6360000000000001,1.7025000000000001,37.762,29.328333333333333,37.230999999999995,34.316,57.684,34.7825,59.2535,51.735,55.333,33.925,57.8775,50.0845,54.646,33.472,57.8425,49.504,0.002000000000000224,-0.14849999999999985,0.10664000000000001,0.10513000000000002,0.0,206.125,205.965,203.25666666666666,203.25666666666666,0.0,0.0
3,0.0,0.0,0.0,1.0,1.0,0.0,0.0,1.0,0.0,100.0,1.0,1.1856,26.0,0.0,0.0,0.0,59.999996,0.0,26.0,26.0,26.0,26.0,-0.17525000000000002,0.31810000000000005,0.07325000000000001,293.304,-2.6997,-2.7203333333333335,-1.4891,-1.6148,-265.76,216.2625,190.929625,0.0,0.0,0.0,0.0,0.007366666666666667,-5.498166666666667,-5.498166666666667,-0.5134000000000001,0.3806666666666667,-0.03511111111111109,0.6579999999999999,65.92699999999999,-0.1124,-0.20445000000000002,1.388,100.0,1.0,1.0,203.39333333333332,0.0,0.0,0.0,0.0,0.0,0.0,0.0,8621.1,0.0,55.0,5.0,237.30666666666667,1.0,0.0,0.0,0.0,0.0,0.0,0.0,0.0,0.1529999999999987,0.1529999999999987,0.0,0.0,1.0,55.0,616.79921,10000.0,85.000001,85.000001,85.000001,85.000001,395.0,0.0,0.0,0.0,1.0,166.665,53.284,53.284,48.111,48.111,34.0,-27.13,17.68,-36.233333333333334,23.9375,0.0,1782.703,0.8249999999999993,100.0,28.037,26.828,42.822,41.072,0.0,0.0,100.0,0.0,0.0,0.0,0.0,2906.285714285714,2898.7,4289.125,4258.6,305.5325,305.6256666666667,314.32275,314.322,20.8917,20.5375,21.8068,21.339,314.999998,314.999998,324.999988,324.999988,99.55991428571429,99.50756666666666,99.56587142857143,99.54562857142857,-0.050999999999999934,-0.18099999999999994,-0.2415,-0.007666666666666667,-0.036666666666668846,-0.046666666666666856,1.4825,1.52,37.823,29.359333333333332,37.293,34.3685,57.672,34.823499999999996,59.2915,51.7935,55.321,33.963,57.913,50.1405,54.632999999999996,33.507999999999996,57.875,49.559,-0.01550000000000007,-0.13600000000000012,0.10525000000000001,0.113765,0.0,206.57,206.46,203.39333333333332,203.39333333333332,0.0,0.0
4,0.0,0.0,0.0,1.0,1.0,0.0,0.0,1.0,0.0,100.0,1.0,1.1856,26.0,0.0,0.0,0.0,59.999996,0.0,26.0,26.0,26.0,26.0,-0.1695,0.2861,-0.033425,293.594,-2.64435,-2.761888888888889,-1.5116,-1.6145,-262.39,216.25,190.91,0.0,0.0,0.0,0.0,0.009333333333333334,-5.498166666666667,-5.498166666666667,-0.5459,-0.7453333333333334,-0.0990000000000002,-1.823,66.07300000000001,-0.10940000000000001,-0.23995000000000002,1.3340000000000014,100.0,1.0,1.0,203.98000000000002,0.0,0.0,0.0,0.0,0.0,0.0,0.0,8646.0,0.0,55.0,5.0,237.83333333333331,0.0,0.0,0.0,0.0,0.0,0.0,0.0,0.0,0.20400000000000063,0.20400000000000063,0.0,0.0,0.0,55.0,616.79921,10000.0,85.000001,85.000001,85.000001,85.000001,395.0,0.0,0.0,0.0,1.0,333.33500000000004,52.994,52.994,48.782,48.782,34.0,-30.23,17.875,-34.3,19.7575,0.0,1782.652,0.754999999999999,100.0,27.694,26.804000000000002,43.022,41.269999999999996,0.0,0.0,100.0,0.0,0.0,0.0,0.0,3255.5714285714284,2852.9,4109.25,3658.9,304.6995,305.6023333333333,314.80075,315.70025,20.9018,20.5426,21.8175,21.3479,314.999998,314.999998,324.999988,324.999988,99.55994285714286,99.50758333333333,99.56601428571429,99.54577142857143,-0.05433333333333312,-0.18099999999999994,-0.24266666666666667,-0.006833333333333333,-0.04833333333333201,-0.05666666666667197,1.5645,1.6175000000000002,37.885999999999996,29.391333333333336,37.358999999999995,34.424,57.656,34.866,59.3335,51.8525,55.306,34.001999999999995,57.952,50.197,54.617000000000004,33.545500000000004,57.911500000000004,49.614333333333335,-0.016000000000000014,-0.13450000000000006,0.11030500000000001,0.10988500000000001,0.0,206.985,206.875,203.98000000000002,203.98000000000002,0.0,0.0
5,0.0,0.0,0.0,1.0,1.0,0.0,0.0,1.0,0.0,100.0,1.0,1.1856,26.0,0.0,0.0,0.0,59.999996,0.0,26.0,26.0,26.0,26.0,-0.1505,0.2948000000000002,-0.014875000000000001,293.594,-2.6444,-2.794777777777778,-1.4874,-1.6091,-259.02,216.235,190.8895,0.0,0.0,0.0,0.0,0.011266666666666668,-5.498166666666667,-5.498166666666667,-0.5393,0.4106666666666667,-0.104222222222222,1.303,66.219,-0.1078,-0.216625,1.1159999999999997,100.0,1.0,1.0,204.38,0.0,0.0,0.0,0.0,0.0,0.0,0.0,8662.9,0.0,55.0,5.0,238.36,1.0,0.0,0.0,0.0,0.0,0.0,0.0,0.0,0.254999999999999,0.254999999999999,0.0,0.0,1.0,55.0,616.79921,10000.0,85.000001,85.000001,85.000001,85.000001,395.0,0.0,0.0,0.0,1.0,333.33500000000004,53.284,53.284,48.996,48.996,34.0,-28.16,18.806666666666665,-34.019999999999996,22.9675,0.0,1782.6,0.4750000000000014,100.0,27.959,26.516,42.83,40.846000000000004,0.0,0.0,100.0,0.0,0.0,0.0,0.0,3115.285714285714,2835.8,4173.25,4069.0,304.904,305.882,314.6695,314.807,20.9123,20.5478,21.828,21.3566,314.999998,314.999998,324.999988,324.999988,99.55994285714286,99.5076,99.56615714285714,99.5459,-0.032333333333333325,-0.15566666666666662,-0.22633333333333336,0.0035,-0.06333333333333258,-0.04999999999999716,1.5150000000000001,1.5725,37.952,29.423333333333332,37.425,34.4785,57.643,34.907,59.374,51.9095,55.294,34.039500000000004,57.99,50.2515,54.604,33.5815,57.947,49.66733333333333,-0.04200000000000004,-0.10999999999999988,0.10533000000000001,0.11588500000000002,0.0,207.485,207.38,204.38,204.38,0.0,0.0
6,0.0,0.0,0.0,1.0,1.0,0.0,0.0,1.0,0.0,100.0,1.0,1.1856,26.0,0.0,0.0,0.0,59.999996,0.0,26.0,26.0,26.0,26.0,-0.13025,0.29110000000000014,0.014875000000000001,293.365,-2.62065,-2.759888888888889,-1.5382500000000001,-1.5972,-255.84,216.215,190.87025,0.0,0.0,0.0,0.0,0.013133333333333335,-5.498166666666667,-5.498166666666667,-0.5347000000000001,0.12733333333333333,-0.07811111111111124,0.9909999999999999,66.358,-0.1003,-0.21807500000000002,0.8260000000000005,100.0,1.0,1.0,204.79333333333335,0.0,0.0,0.0,0.0,0.0,0.0,0.0,8680.4,0.0,55.0,5.0,238.85666666666668,0.0,0.0,0.0,0.0,0.0,0.0,0.0,0.0,0.3030000000000008,0.3030000000000008,0.0,0.0,0.0,55.0,616.79921,10000.0,85.000001,85.000001,85.000001,85.000001,395.0,0.0,0.0,0.0,1.0,333.33500000000004,52.948,52.948,48.766999999999996,48.766999999999996,34.0,-27.48,20.549999999999997,-32.71333333333334,22.89,0.0,1782.553,0.07499999999999929,100.0,27.852,26.696,42.931,41.266999999999996,0.0,0.0,100.0,0.0,0.0,0.0,0.0,3116.4285714285716,3004.3,4084.5,4039.1000000000004,304.8505,305.32433333333336,314.87525,314.87475,20.9221,20.5527,21.8379,21.365,314.999998,314.999998,324.999988,324.999988,99.55994285714286,99.50761666666666,99.5663,99.54604285714285,-0.018999999999999906,-0.1386666666666666,-0.20650000000000002,0.008833333333333334,-0.01666666666666572,-0.05833333333333002,1.549,1.572,38.013,29.454333333333334,37.486999999999995,34.5315,57.629999999999995,34.946,59.412,51.967,55.281,34.0755,58.0255,50.3065,54.59,33.6155,57.9795,49.721000000000004,-0.05699999999999994,-0.08499999999999996,0.094475,0.10021500000000001,0.0,207.845,207.815,204.79333333333335,204.79333333333335,0.0,0.0
7,0.0,0.0,0.0,1.0,1.0,0.0,0.0,1.0,0.0,100.0,1.0,1.1856,26.0,0.0,0.0,0.0,59.999996,0.0,26.0,26.0,26.0,26.0,-0.097125,0.28200000000000003,0.02075,293.106,-2.59745,-2.744888888888889,-1.49925,-1.6392,-252.45,216.1925,190.84975,0.0,0.0,0.0,0.0,0.0151,-5.498166666666667,-5.498166666666667,-0.5377000000000001,-0.037333333333333336,-0.06911111111111135,-0.22299999999999986,66.503,-0.0806,-0.22765000000000002,0.47600000000000087,100.0,1.0,1.0,205.21,0.0,0.0,0.0,0.0,0.0,0.0,0.0,8698.2,0.0,55.0,5.0,239.38333333333333,1.0,0.0,0.0,0.0,0.0,0.0,0.0,0.0,0.3539999999999992,0.3539999999999992,0.0,0.0,1.0,55.0,616.79921,10000.0,85.000001,85.000001,85.000001,85.000001,395.0,0.0,0.0,0.0,1.0,333.33500000000004,52.582,52.582,48.798,48.798,34.0,-27.677500000000002,21.163333333333334,-32.36333333333333,24.645,0.0,1782.502,-0.10500000000000043,100.0,27.82,26.909,42.873000000000005,41.669,0.0,0.0,100.0,0.0,0.0,0.0,0.0,3298.5714285714284,2964.0,4122.25,4016.4,304.43,305.269,314.7915,314.7765,20.9324,20.5579,21.8485,21.374,314.999998,314.999998,324.999988,324.999988,99.55994285714286,99.50763333333333,99.56644285714286,99.54618571428571,0.009333333333333194,-0.1173333333333334,-0.19966666666666666,0.028333333333333332,-0.046666666666666856,-0.04999999999999716,1.5175,1.5255,38.078,29.487000000000002,37.553,34.5875,57.614999999999995,34.986,59.452,52.028,55.266999999999996,34.1125,58.063,50.365,54.575,33.650999999999996,58.0145,49.778,-0.08599999999999985,-0.06400000000000006,0.10666500000000001,0.11288000000000001,0.0,208.305,208.26999999999998,205.21,205.21,0.0,0.0
8,0.0,0.0,0.0,1.0,1.0,0.0,0.0,1.0,0.0,100.0,1.0,1.1856,26.0,0.0,0.0,0.0,59.999996,0.0,26.0,26.0,26.0,26.0,-0.045125,0.2963,0.032075,293.381,-2.68115,-2.731777777777778,-1.48435,-1.5659,-249.05,216.16750000000002,190.82925,0.0,0.0,0.0,0.0,0.017066666666666667,-5.498166666666667,-5.498166666666667,-0.5392,-0.5643333333333334,-0.04644444444444451,0.879,66.649,-0.058600000000000006,-0.2187,-0.02999999999999936,100.0,1.0,1.0,205.60333333333335,0.0,0.0,0.0,0.0,0.0,0.0,0.0,8714.8,0.0,55.0,5.0,239.90666666666667,0.0,0.0,0.0,0.0,0.0,0.0,0.0,0.0,0.40500000000000114,0.40500000000000114,0.0,0.0,0.0,55.0,616.79921,10000.0,85.000001,85.000001,85.000001,85.000001,395.0,0.0,0.0,0.0,1.0,333.33500000000004,53.497,53.497,48.157,48.157,34.0,-23.81,22.438333333333333,-30.166666666666664,26.634999999999998,0.0,1782.451,-0.26500000000000057,100.0,27.515,26.749,42.935,41.719,0.0,0.0,100.0,0.0,0.0,0.0,0.0,2919.0,3005.7,4138.125,4152.2,305.5965,305.337,314.64675,314.539,20.9425,20.5632,21.859,21.383,314.999998,314.999998,324.999988,324.999988,99.55995714285714,99.50765,99.56658571428571,99.54631428571429,0.03299999999999992,-0.08666666666666656,-0.15366666666666667,0.06766666666666667,-0.036666666666668846,-0.060000000000002274,1.5154999999999998,1.5145,38.141,29.52,37.619,34.6435,57.597,35.0245,59.492,52.088,55.251000000000005,34.147999999999996,58.1,50.4225,54.558,33.685,58.0485,49.83433333333333,-0.09199999999999986,-0.05049999999999999,0.10358,0.11631500000000002,0.0,208.73000000000002,208.735,205.60333333333335,205.60333333333335,0.0,0.0
9,0.0,0.0,0.0,1.0,1.0,0.0,0.0,1.0,0.0,100.0,1.0,1.1856,26.0,0.0,0.0,0.0,59.999996,0.0,26.0,26.0,26.0,26.0,-0.040625,0.29259999999999997,0.0307,293.06,-2.67315,-2.734222222222222,-1.54355,-1.5658,-245.85,216.14,190.809375,0.0,0.0,0.0,0.0,0.018933333333333337,-5.498166666666667,-5.498166666666667,-0.5458000000000001,0.6273333333333334,-0.044333333333333336,0.7709999999999999,66.783,-0.036500000000000005,-0.22,-0.17999999999999972,100.0,1.0,1.0,206.14,0.0,0.0,0.0,0.0,0.0,0.0,0.0,8737.5,0.0,55.0,5.0,240.39,1.0,0.0,0.0,0.0,0.0,0.0,0.0,0.0,0.4529999999999994,0.4529999999999994,0.0,0.0,1.0,55.0,616.79921,10000.0,85.000001,85.000001,85.000001,85.000001,395.0,0.0,0.0,0.0,1.0,333.33500000000004,52.231,52.231,49.194,49.194,34.0,-26.1075,24.38,-28.25,26.67,0.0,1782.401,-0.4299999999999997,100.0,27.927,27.194,42.537,41.732,0.0,0.0,100.0,0.0,0.0,0.0,0.0,3278.4285714285716,3109.2,3970.625,4070.5,304.427,304.94666666666666,315.185,314.803,20.9522,20.5683,21.8688,21.3914,314.999998,314.999998,324.999988,324.999988,99.55995714285714,99.50765,99.56671428571428,99.54644285714286,0.05833333333333357,-0.06433333333333335,-0.137,0.08616666666666667,-0.060000000000002274,-0.06666666666666998,1.5695000000000001,1.5665,38.202,29.552,37.68,34.696,57.584,35.0615,59.525999999999996,52.143,55.238,34.182,58.132,50.4755,54.545,33.7175,58.0775,49.88633333333333,-0.10599999999999987,-0.040999999999999925,0.10715500000000001,0.104285,0.0,209.17000000000002,209.18,206.14,206.14,0.0,0.0
10,0.0,0.0,0.0,1.0,1.0,0.0,0.0,1.0,0.0,100.0,1.0,1.1856,26.0,0.0,0.0,0.0,59.999996,0.0,26.0,26.0,26.0,26.0,-0.000875,0.29000000000000004,-0.006275,292.892,-2.6516,-2.714777777777778,-1.52285,-1.5448,-242.44,216.1125,190.788625,0.0,0.0,0.0,0.0,0.020933333333333335,-5.498166666666667,-5.498166666666667,-0.5218,-0.4086666666666667,-0.00633333333333308,0.4139999999999999,66.93,-0.0126,-0.21135,-0.4559999999999995,100.0,1.0,1.0,206.37333333333333,0.0,0.0,0.0,0.0,0.0,0.0,0.0,8747.4,0.0,55.0,5.0,240.91666666666669,0.0,0.0,0.0,0.0,0.0,0.0,1.0,0.0,0.5040000000000013,0.5040000000000013,0.0,0.0,0.0,55.0,616.79921,10000.0,85.000001,85.000001,85.000001,85.000001,395.0,0.0,0.0,0.0,1.0,333.33500000000004,53.268,53.268,47.607,47.607,34.0,-21.565,22.511666666666667,-30.843333333333334,29.1325,0.0,1782.351,-0.504999999999999,100.0,27.705,27.352,42.889,42.591,0.0,0.0,100.0,0.0,0.0,0.0,0.0,2896.714285714286,2870.8,4340.875,4252.1,305.7175,305.5486666666667,314.249,314.2185,20.9624,20.5737,21.8795,21.4005,314.999998,314.999998,324.999988,324.999988,99.55995714285714,99.50766666666667,99.56687142857143,99.5466,0.0773333333333337,-0.05666666666666664,-0.12233333333333334,0.099,-0.061666666666667425,-0.046666666666666856,1.4809999999999999,1.463,38.265,29.585333333333335,37.747,34.7535,57.571,35.0985,59.567,52.207,55.224999999999994,34.216,58.170500000000004,50.536500000000004,54.531,33.7505,58.113,49.946,-0.11999999999999988,-0.035499999999999865,0.10552500000000001,0.109795,0.0,209.60000000000002,209.615,206.37333333333333,206.37333333333333,0.0,0.0
11,0.0,0.0,0.0,1.0,1.0,0.0,0.0,1.0,0.0,100.0,1.0,1.1856,26.0,0.0,0.0,0.0,59.999996,0.0,26.0,26.0,26.0,26.0,0.02775,0.2775000000000001,-0.07115,293.442,-2.699,-2.6944444444444446,-1.5824,-1.5314999999999999,-239.03,216.0875,190.767875,0.0,0.0,0.0,0.0,0.022600000000000002,-5.498166666666667,-5.498166666666667,-0.5647,-0.22666666666666666,0.024555555555555664,0.3699999999999999,67.069,0.008700000000000001,-0.24135,-0.6460000000000008,100.0,1.0,1.0,207.10666666666668,0.0,0.0,0.0,0.0,0.0,0.0,0.0,8778.5,0.0,55.0,5.0,241.42000000000002,1.0,0.0,0.0,0.0,0.0,0.0,1.0,0.0,0.5549999999999997,0.5549999999999997,0.0,0.0,1.0,55.0,616.79921,10000.0,85.000001,85.000001,85.000001,85.000001,395.0,0.0,0.0,0.0,1.0,166.665,52.643,52.643,49.286,49.286,34.0,-22.0925,26.081666666666667,-23.616666666666667,26.9325,0.0,1782.301,-0.495000000000001,100.0,27.538,27.457,42.431,42.447,0.0,0.0,100.0,0.0,0.0,0.0,0.0,2990.285714285714,3192.0,3693.0,3875.0,305.343,304.701,315.88325,315.2425,20.9724,20.5792,21.8898,21.4095,314.999998,314.999998,324.999988,324.999988,99.55997142857143,99.50768333333333,99.56701428571428,99.54674285714286,0.09699999999999998,-0.03366666666666662,-0.08266666666666668,0.1365,-0.045000000000001705,-0.06833333333332803,1.6425,1.6145,38.327,29.619666666666667,37.812,34.8095,57.556,35.1365,59.601,52.266,55.211,34.251,58.202,50.594,54.516,33.784,58.1415,50.00233333333333,-0.11549999999999994,-0.0405000000000002,0.098265,0.10228000000000001,0.0,209.995,210.065,207.10666666666668,207.10666666666668,0.0,0.0
12,0.0,0.0,0.0,1.0,1.0,0.0,0.0,1.0,0.0,100.0,1.0,1.1856,26.0,0.0,0.0,0.0,59.999996,0.0,26.0,26.0,26.0,26.0,0.039,0.2932000000000001,0.012275000000000001,292.877,-2.7489,-2.689,-1.54355,-1.5328,-235.8,216.0625,190.747125,0.0,0.0,0.0,0.0,0.025466666666666665,-5.498166666666667,-5.498166666666667,-0.5496,0.2936666666666667,0.010444444444444256,0.6639999999999999,67.205,0.0274,-0.2107,-0.7539999999999996,100.0,1.0,1.0,207.3,0.0,0.0,0.0,0.0,0.0,0.0,0.0,8786.7,0.0,55.0,5.0,241.91,0.0,0.0,0.0,0.0,0.0,0.0,1.0,0.0,0.602999999999998,0.602999999999998,0.0,0.0,0.0,55.0,616.79921,10000.0,85.000001,85.000001,85.000001,85.000001,395.0,0.0,0.0,0.0,1.0,333.33500000000004,52.643,52.643,47.958,47.958,34.0,-22.6575,26.505,-26.736666666666665,31.465,0.0,1782.251,-0.34499999999999886,100.0,27.45,27.597,42.39,42.376,0.0,0.0,100.0,0.0,0.0,0.0,0.0,3016.5714285714284,3205.0,4185.75,4216.7,305.2725,304.6913333333333,314.62775,314.4445,20.9818,20.5844,21.8997,21.418,314.999998,314.999998,324.999988,324.999988,99.55998571428572,99.50768333333333,99.56714285714285,99.54687142857144,0.0993333333333335,-0.024666666666666615,-0.06866666666666667,0.1595,-0.041666666666671404,-0.04333333333332945,1.5365,1.512,38.385999999999996,29.65266666666667,37.873000000000005,34.8625,57.543,35.172,59.637,52.323,55.199,34.284,58.235,50.6485,54.503,33.8155,58.172,50.05566666666667,-0.10099999999999998,-0.047499999999999876,0.112045,0.11410500000000001,0.0,210.435,210.49,207.3,207.3,0.0,0.0
13,0.0,0.0,0.0,1.0,1.0,0.0,0.0,1.0,0.0,100.0,1.0,1.1856,26.0,0.0,0.0,0.0,59.999996,0.0,26.0,26.0,26.0,26.0,0.072125,0.28170000000000006,0.031725,292.48,-2.73245,-2.678111111111111,-1.61665,-1.5154,-232.37,216.0375,190.725375,0.0,0.0,0.0,0.0,0.02676666666666667,-5.498166666666667,-5.498166666666667,-0.5423,-0.06733333333333333,0.012555555555555653,-0.4900000000000002,67.34700000000001,0.0374,-0.218525,-0.8019999999999996,100.0,1.0,1.0,207.69,0.0,0.0,0.0,0.0,0.0,0.0,0.0,8803.3,0.0,55.0,5.0,242.42333333333335,1.0,0.0,0.0,0.0,0.0,0.0,1.0,0.0,0.6539999999999999,0.6539999999999999,0.0,0.0,1.0,55.0,616.79921,10000.0,85.000001,85.000001,85.000001,85.000001,395.0,0.0,0.0,0.0,1.0,333.33500000000004,52.322,52.322,47.897,47.897,34.0,-22.4175,27.001666666666665,-28.186666666666664,31.7825,0.0,1782.2,-0.7399999999999984,100.0,27.61,27.965,42.552,42.999,0.0,0.0,100.0,0.0,0.0,0.0,0.0,3144.714285714286,3095.1,4235.375,4275.6,305.035,304.83566666666667,314.58925,314.19225,20.9919,20.59,21.9103,21.4272,314.999998,314.999998,324.999988,324.999988,99.56,99.50768333333333,99.56728571428572,99.54701428571428,0.12266666666666648,0.009666666666666712,-0.069,0.15433333333333335,-0.054999999999999716,-0.05666666666667197,1.5165,1.4809999999999999,38.449,29.687666666666665,37.939,34.92,57.532,35.21,59.6755,52.3865,55.189,34.319,58.271,50.7095,54.491,33.849000000000004,58.204499999999996,50.11566666666667,-0.13149999999999995,-0.009500000000000064,0.10247500000000001,0.11190000000000001,0.0,210.885,210.94,207.69,207.69,0.0,0.0
14,0.0,0.0,0.0,1.0,1.0,0.0,0.0,1.0,0.0,100.0,1.0,1.1856,26.0,0.0,0.0,0.0,59.999996,0.0,26.0,26.0,26.0,26.0,0.081375,0.2912000000000001,-0.012750000000000001,292.694,-2.72905,-2.6224444444444446,-1.59295,-1.5186000000000002,-228.93,216.0125,190.704125,0.0,0.0,0.0,0.0,0.02876666666666667,-5.498166666666667,-5.498166666666667,-0.5515,-0.10933333333333332,0.045666666666666744,1.3719999999999999,67.487,0.049800000000000004,-0.23115000000000002,-1.032,100.0,1.0,1.0,208.20333333333332,0.0,0.0,0.0,0.0,0.0,0.0,0.0,8824.9,0.0,55.0,5.0,242.92666666666668,0.0,0.0,0.0,0.0,0.0,0.0,1.0,0.0,0.7049999999999983,0.7049999999999983,0.0,0.0,0.0,55.0,616.79921,10000.0,85.000001,85.000001,85.000001,85.000001,395.0,0.0,0.0,0.0,1.0,333.33500000000004,52.429,52.429,48.08,48.08,34.0,-19.5675,28.28333333333333,-24.736666666666665,32.075,0.0,1782.15,-0.8499999999999979,100.0,27.674,27.889,42.608000000000004,43.129,0.0,0.0,100.0,0.0,0.0,0.0,0.0,2918.285714285714,3271.3,3964.875,4215.1,305.5305,304.49133333333333,315.14425,314.442,21.0019,20.5956,21.9208,21.4363,314.999998,314.999998,324.999988,324.999988,99.56001428571429,99.50768333333333,99.56742857142856,99.54717142857143,0.15133333333333354,0.016000000000000014,-0.05,0.17666666666666667,-0.03833333333332689,-0.061666666666667425,1.5550000000000002,1.5285,38.512,29.722666666666665,38.004999999999995,34.977000000000004,57.521,35.247,59.7115,52.449,55.178,34.3535,58.3045,50.7695,54.479,33.882,58.235,50.17433333333334,-0.14250000000000007,-0.011499999999999844,0.10788,0.107755,0.0,211.29500000000002,211.37,208.20333333333332,208.20333333333332,0.0,0.0
15,0.0,0.0,0.0,1.0,1.0,0.0,0.0,1.0,0.0,100.0,1.0,1.1856,26.0,0.0,0.0,0.0,59.999996,0.0,26.0,26.0,26.0,26.0,0.110875,0.27480000000000016,0.015175000000000001,292.74,-2.70225,-2.5824444444444445,-1.6236000000000002,-1.4599,-225.69,215.9925,190.683875,0.0,0.0,0.0,0.0,0.03066666666666667,-5.498166666666667,-5.498166666666667,-0.5429,0.27,0.07455555555555571,1.002,67.619,0.0621,-0.2131,-1.1799999999999997,100.0,1.0,1.0,208.60000000000002,0.0,0.0,0.0,0.0,0.0,0.0,0.0,8841.7,0.0,55.0,5.0,243.4,1.0,0.0,0.0,0.0,0.0,0.0,1.0,0.0,0.7530000000000001,0.7530000000000001,0.0,0.0,1.0,55.0,616.79921,10000.0,85.000001,85.000001,85.000001,85.000001,395.0,0.0,0.0,0.0,1.0,333.33500000000004,52.612,52.612,48.157,48.157,34.0,-17.849999999999998,28.051666666666666,-24.366666666666667,33.7825,0.0,1782.103,-0.9050000000000011,100.0,27.678,27.939,42.357,43.167,0.0,0.0,100.0,0.0,0.0,0.0,0.0,2791.0,3246.0,3960.375,4392.0,305.905,304.5593333333333,315.1975,314.037,21.0112,20.6009,21.9305,21.4449,314.999998,314.999998,324.999988,324.999988,99.56004285714286,99.50768333333333,99.56757142857143,99.5473,0.16433333333333344,0.024666666666666837,-0.035333333333333335,0.1915,-0.051666666666669414,-0.04999999999999716,1.5430000000000001,1.4965,38.57,29.755666666666666,38.066,35.0305,57.510999999999996,35.283,59.7445,52.5075,55.169,34.387,58.335,50.826,54.468,33.914,58.2625,50.230333333333334,-0.14549999999999996,-0.008999999999999897,0.11274,0.11055000000000001,0.0,211.715,211.79000000000002,208.60000000000002,208.60000000000002,0.0,0.0
16,0.0,0.0,0.0,1.0,1.0,0.0,0.0,1.0,0.0,100.0,1.0,1.1856,26.0,0.0,0.0,0.0,59.999996,0.0,26.0,26.0,26.0,26.0,0.136125,0.2661,-0.056525000000000006,292.786,-2.79745,-2.5872222222222225,-1.59365,-1.459,-222.24,215.975,190.661875,0.0,0.0,0.0,0.0,0.03266666666666667,-5.498166666666667,-5.498166666666667,-0.5643,-0.712,0.05933333333333324,-0.996,67.759,0.075,-0.22990000000000002,-1.2400000000000002,100.0,1.0,1.0,209.02666666666667,0.0,0.0,0.0,0.0,0.0,0.0,0.0,8859.8,0.0,55.0,5.0,243.90666666666667,0.0,0.0,0.0,0.0,0.0,0.0,1.0,0.0,0.8039999999999985,0.8039999999999985,0.0,0.0,0.0,55.0,616.79921,10000.0,85.000001,85.000001,85.000001,85.000001,395.0,0.0,0.0,0.0,1.0,333.33500000000004,52.582,52.582,47.943,47.943,34.0,-20.044999999999998,28.161666666666665,-23.503333333333337,31.7175,0.0,1782.052,-0.7949999999999982,100.0,27.18,28.173000000000002,42.521,43.355000000000004,0.0,0.0,100.0,0.0,0.0,0.0,0.0,2995.285714285714,3207.6,3973.625,4123.1,305.591,304.536,315.205,314.609,21.0209,20.6066,21.9411,21.4541,314.999998,314.999998,324.999988,324.999988,99.56005714285715,99.50768333333333,99.5677,99.54744285714285,0.16166666666666663,0.030999999999999917,-0.025666666666666667,0.19766666666666666,-0.046666666666666856,-0.03333333333333144,1.5525,1.5015,38.629999999999995,29.791333333333334,38.132,35.088,57.498000000000005,35.322,59.7825,52.5695,55.156,34.423,58.37,50.885999999999996,54.454,33.948499999999996,58.2945,50.288666666666664,-0.14300000000000002,-0.01200000000000001,0.109655,0.10254500000000001,0.0,212.10500000000002,212.185,209.02666666666667,209.02666666666667,0.0,0.0
17,0.0,0.0,0.0,1.0,1.0,0.0,0.0,1.0,0.0,100.0,1.0,1.1856,26.0,0.0,0.0,0.0,59.999996,0.0,26.0,26.0,26.0,26.0,0.12025,0.2856000000000001,-0.016225,292.435,-2.75495,-2.5733333333333333,-1.6325,-1.4838,-218.78,215.96,190.63925,0.0,0.0,0.0,0.0,0.03466666666666667,-5.498166666666667,-5.498166666666667,-0.5541,0.539,0.04122222222222205,0.7489999999999999,67.898,0.0787,-0.2104,-1.1260000000000003,100.0,1.0,1.0,209.42000000000002,0.0,0.0,0.0,0.0,0.0,0.0,0.0,8876.6,0.0,55.0,5.0,244.40333333333334,1.0,0.0,0.0,0.0,0.0,0.0,1.0,0.0,0.8550000000000004,0.8550000000000004,0.0,0.0,1.0,55.0,616.79921,10000.0,85.000001,85.000001,85.000001,85.000001,395.0,0.0,0.0,0.0,1.0,333.33500000000004,52.261,52.261,47.867,47.867,34.0,-19.365,27.990000000000002,-25.123333333333335,34.4125,0.0,1782.0,-0.8599999999999994,100.0,27.798000000000002,28.311,42.357,43.255,0.0,0.0,100.0,0.0,0.0,0.0,0.0,2983.857142857143,3181.0,4207.25,4311.1,305.398,304.78633333333335,314.69125,314.27975,21.0308,20.6124,21.9514,21.4631,314.999998,314.999998,324.999988,324.999988,99.56007142857143,99.5077,99.56784285714286,99.54758571428572,0.17200000000000015,0.04166666666666674,-0.014666666666666666,0.21266666666666667,-0.03499999999999659,-0.041666666666671404,1.548,1.499,38.693,29.827333333333335,38.196,35.1445,57.489000000000004,35.362,59.817,52.631,55.147,34.46,58.4025,50.945,54.444,33.9845,58.323499999999996,50.347,-0.14349999999999996,-0.0129999999999999,0.10034000000000001,0.11264500000000001,0.0,212.575,212.655,209.42000000000002,209.42000000000002,0.0,0.0
18,0.0,0.0,0.0,1.0,1.0,0.0,0.0,1.0,0.0,100.0,1.0,1.1856,26.0,0.0,0.0,0.0,59.999996,0.0,26.0,26.0,26.0,26.0,0.111875,0.264,-0.01985,292.419,-2.7883,-2.5473333333333334,-1.6484,-1.4288,-215.51999999999998,215.95,190.618125,0.0,0.0,0.0,0.0,0.03656666666666667,-5.498166666666667,-5.498166666666667,-0.5630000000000001,-0.5316666666666666,0.06533333333333324,1.134,68.029,0.08,-0.22662500000000002,-1.2999999999999998,100.0,1.0,1.0,209.82666666666665,0.0,0.0,0.0,0.0,0.0,0.0,0.0,8893.8,0.0,55.0,5.0,244.87333333333333,0.0,0.0,0.0,0.0,0.0,0.0,1.0,0.0,0.9029999999999987,0.9029999999999987,0.0,0.0,0.0,55.0,616.79921,10000.0,85.000001,85.000001,85.000001,85.000001,395.0,0.0,0.0,0.0,1.0,166.665,52.216,52.216,47.729,47.729,34.0,-19.0225,30.215,-24.173333333333332,32.317499999999995,0.0,1781.954,-1.1999999999999993,100.0,27.545,28.147,42.696,43.674,0.0,0.0,100.0,0.0,0.0,0.0,0.0,2974.4285714285716,3378.6,4011.75,4215.5,305.497,304.25966666666665,315.09625,314.471,21.04,20.6177,21.9614,21.471899999999998,314.999998,314.999998,324.999988,324.999988,99.5601,99.5077,99.56798571428571,99.54772857142858,0.18400000000000016,0.054333333333333345,-0.018833333333333334,0.20400000000000001,-0.046666666666666856,-0.054999999999999716,1.5605,1.5115,38.75,29.861,38.257999999999996,35.199,57.479,35.399,59.8525,52.691,55.138,34.4945,58.4355,51.003,54.434,34.0175,58.3535,50.403999999999996,-0.16349999999999998,0.0129999999999999,0.10879000000000001,0.10058500000000001,0.0,212.965,213.035,209.82666666666665,209.82666666666665,0.0,0.0
19,0.0,0.0,0.0,1.0,1.0,0.0,0.0,1.0,0.0,100.0,1.0,1.1856,26.0,0.0,0.0,0.0,59.999996,0.0,26.0,26.0,26.0,26.0,0.165625,0.29510000000000014,0.027200000000000002,291.916,-2.765,-2.5296666666666665,-1.66625,-1.4102000000000001,-212.04,215.9425,190.595625,0.0,0.0,0.0,0.0,0.0386,-5.498166666666667,-5.498166666666667,-0.5545,0.8346666666666667,0.07488888888888878,-0.4500000000000002,68.166,0.0927,-0.21552500000000002,-1.5939999999999994,100.0,1.0,1.0,210.23666666666668,0.0,0.0,0.0,0.0,0.0,0.0,0.0,8911.2,0.0,55.0,5.0,245.36666666666667,1.0,0.0,0.0,0.0,0.0,0.0,1.0,0.0,0.9540000000000006,0.9540000000000006,0.0,0.0,1.0,55.0,616.79921,10000.0,85.000001,85.000001,85.000001,85.000001,395.0,0.0,0.0,0.0,1.0,166.665,51.483000000000004,51.483000000000004,47.577,47.577,34.0,-19.32,29.7,-24.863333333333337,34.365,0.0,1781.903,-1.0999999999999979,100.0,27.91,28.829,42.368,43.755,0.0,0.0,100.0,0.0,0.0,0.0,0.0,3122.285714285714,3329.4,4180.25,4382.8,305.0925,304.113,314.81275,314.065,21.0499,20.6237,21.9717,21.481,314.999998,314.999998,324.999988,324.999988,99.56011428571429,99.50771666666667,99.56812857142857,99.54788571428571,0.19600000000000017,0.04833333333333334,-0.005833333333333333,0.21683333333333335,-0.05666666666667197,-0.05833333333333002,1.5525,1.5,38.812,29.898,38.323,35.2565,57.473,35.442499999999995,59.887,52.7535,55.131,34.5345,58.467,51.0635,54.426,34.056,58.382,50.46333333333333,-0.17249999999999988,0.007500000000000062,0.10591500000000001,0.10324000000000001,0.0,213.4,213.51,210.23666666666668,210.23666666666668,0.0,0.0
20,0.0,0.0,0.0,1.0,1.0,0.0,0.0,1.0,0.0,100.0,1.0,1.1856,26.0,0.0,0.0,0.0,59.999996,0.0,26.0,26.0,26.0,26.0,0.150875,0.2622,-0.042925000000000005,292.297,-2.81715,-2.589777777777778,-1.5904,-1.5328,-208.36,215.9375,190.572,0.0,0.0,0.0,0.0,0.04073333333333334,-5.498166666666667,-5.498166666666667,-0.5605,-1.1420000000000001,0.0725555555555557,-1.2000000000000002,68.313,0.1051,-0.229025,-1.1739999999999995,100.0,1.0,1.0,210.60000000000002,0.0,0.0,0.0,0.0,0.0,0.0,0.0,8926.6,0.0,55.0,5.0,245.9,0.0,0.0,0.0,0.0,0.0,0.0,0.0,0.0,1.0079999999999991,1.0079999999999991,0.0,0.0,0.0,55.0,616.79921,10000.0,85.000001,85.000001,85.000001,85.000001,395.0,0.0,0.0,0.0,1.0,166.665,52.612,52.612,47.073,47.073,34.0,-20.3325,26.618333333333332,-23.383333333333333,35.4375,0.0,1781.848,0.004999999999999005,100.0,27.316,28.493000000000002,42.888,44.242000000000004,0.0,0.0,100.0,0.0,0.0,0.0,0.0,2888.285714285714,3164.4,4127.875,4223.2,305.9235,304.6406666666667,314.793,314.25875,21.06,20.6297,21.9829,21.4909,314.999998,314.999998,324.999988,324.999988,99.56014285714286,99.50771666666667,99.56828571428571,99.54804285714286,0.13833333333333364,0.002666666666666595,0.0013333333333333333,0.225,-0.036666666666668846,-0.05666666666667197,1.5025,1.4635,38.875,29.936,38.393,35.318,57.459,35.4835,59.928,52.8225,55.117999999999995,34.573,58.5055,51.129999999999995,54.411,34.093,58.417,50.528666666666666,-0.09050000000000002,-0.06400000000000006,0.10673500000000001,0.105355,0.0,213.805,213.91,210.60000000000002,210.60000000000002,0.0,0.0
21,0.0,0.0,0.0,1.0,1.0,0.0,0.0,1.0,0.0,100.0,1.0,1.1856,26.0,0.0,0.0,0.0,59.999996,0.0,26.0,26.0,26.0,26.0,0.088,0.2781,-0.07287500000000001,292.587,-2.71155,-2.663666666666667,-1.63935,-1.5106000000000002,-205.28,215.9375,190.551625,0.0,0.0,0.0,0.0,0.04253333333333333,-5.498166666666667,-5.498166666666667,-0.5819,0.465,0.04055555555555568,-0.125,68.429,0.0912,-0.229525,-0.4239999999999995,100.0,1.0,1.0,211.19,0.0,0.0,0.0,0.0,0.0,0.0,0.0,8951.6,0.0,55.0,5.0,246.31666666666666,1.0,0.0,0.0,0.0,0.0,0.0,0.0,0.0,1.0530000000000008,1.0530000000000008,0.0,0.0,1.0,55.0,616.79921,10000.0,85.000001,85.000001,85.000001,85.000001,395.0,0.0,0.0,0.0,1.0,333.33500000000004,52.078,52.078,48.355000000000004,48.355000000000004,34.0,-21.165,27.115000000000002,-23.386666666666663,31.5275,0.0,1781.801,0.40000000000000213,100.0,27.843,28.407,42.400999999999996,43.593,0.0,0.0,100.0,0.0,0.0,0.0,0.0,2979.0,3223.3,3970.375,3999.0,305.352,304.57233333333335,315.2835,315.00925,21.0687,20.634900000000002,21.9919,21.4988,314.999998,314.999998,324.999988,324.999988,99.56014285714286,99.50773333333333,99.5684,99.54817142857142,0.12166666666666659,-0.01200000000000001,-0.017,0.21333333333333335,-0.06833333333332803,-0.03999999999999915,1.611,1.5755,38.93,29.968,38.45,35.3675,57.448,35.5185,59.956,52.874,55.108000000000004,34.605000000000004,58.531,51.18,54.4,34.124,58.44,50.577666666666666,-0.058499999999999996,-0.10199999999999987,0.09736,0.11492000000000001,0.0,214.25,214.265,211.19,211.19,0.0,0.0
22,0.0,0.0,0.0,1.0,1.0,0.0,0.0,1.0,0.0,100.0,1.0,1.1856,26.0,0.0,0.0,0.0,59.999996,0.0,26.0,26.0,26.0,26.0,0.059750000000000004,0.26770000000000005,0.027125,292.023,-2.683,-2.6785555555555556,-1.6200999999999999,-1.5119,-201.79,215.94,190.52775,0.0,0.0,0.0,0.0,0.04456666666666667,-5.498166666666667,-5.498166666666667,-0.561,0.10733333333333334,0.03166666666666673,-0.8900000000000001,68.568,0.052500000000000005,-0.21030000000000001,0.44599999999999973,100.0,1.0,1.0,211.38666666666666,0.0,0.0,0.0,0.0,0.0,0.0,0.0,8959.9,0.0,55.0,5.0,246.82,0.0,0.0,0.0,0.0,0.0,0.0,0.0,0.0,1.1039999999999992,1.1039999999999992,0.0,0.0,0.0,55.0,616.79921,10000.0,85.000001,85.000001,85.000001,85.000001,395.0,0.0,0.0,0.0,1.0,333.33500000000004,52.094,52.094,47.15,47.15,34.0,-22.7425,24.02166666666667,-29.353333333333335,31.01,0.0,1781.75,0.5450000000000017,100.0,27.902,28.548000000000002,42.936,43.775,0.0,0.0,100.0,0.0,0.0,0.0,0.0,3014.4285714285716,3089.5,4274.875,4277.5,305.3895,304.76433333333335,314.5475,314.27225,21.0786,20.6406,22.0025,21.5081,314.999998,314.999998,324.999988,324.999988,99.56017142857142,99.50773333333333,99.56857142857143,99.54832857142857,0.08099999999999996,-0.06499999999999995,-0.08083333333333333,0.14300000000000002,-0.045000000000001705,-0.04333333333332945,1.4775,1.5015,38.991,30.003999999999998,38.516,35.4255,57.434,35.56,59.997,52.9405,55.094,34.6435,58.5695,51.244,54.385,34.161,58.475,50.64033333333333,-0.035499999999999865,-0.1259999999999999,0.10555,0.110545,0.0,214.695,214.66500000000002,211.38666666666666,211.38666666666666,0.0,0.0
23,0.0,0.0,0.0,1.0,1.0,0.0,0.0,1.0,0.0,100.0,1.0,1.1856,26.0,0.0,0.0,0.0,59.999996,0.0,26.0,26.0,26.0,26.0,0.000375,0.2479,-0.043725,292.068,-2.67925,-2.661,-1.6459000000000001,-1.603,-198.07999999999998,215.9425,190.503,0.0,0.0,0.0,0.0,0.046700000000000005,-5.498166666666667,-5.498166666666667,-0.5795,-0.10300000000000001,-0.0025555555555558662,-1.0220000000000002,68.71000000000001,0.009300000000000001,-0.23572500000000002,0.847999999999999,100.0,1.0,1.0,211.95333333333332,0.0,0.0,0.0,0.0,0.0,0.0,0.0,8984.0,0.0,55.0,5.0,247.32999999999998,1.0,0.0,0.0,0.0,0.0,0.0,0.0,0.0,1.1580000000000013,1.1580000000000013,0.0,0.0,1.0,55.0,616.79921,10000.0,85.000001,85.000001,85.000001,85.000001,395.0,0.0,0.0,0.0,1.0,166.665,51.483000000000004,51.483000000000004,48.187,48.187,34.0,-26.7675,22.621666666666666,-29.65,26.795,0.0,1781.699,0.6000000000000014,100.0,28.374,28.451,43.324,43.781,0.0,0.0,100.0,0.0,0.0,0.0,0.0,3312.0,3070.8,4044.875,3893.2,304.4795,304.9223333333333,315.162,315.13375,21.0891,20.6467,22.0137,21.5178,314.999998,314.999998,324.999988,324.999988,99.56018571428571,99.50773333333333,99.56871428571428,99.54847142857143,0.05033333333333356,-0.08766666666666656,-0.12366666666666667,0.10350000000000001,-0.06333333333333258,-0.03499999999999659,1.5245,1.568,39.057,30.041666666666664,38.586,35.4865,57.42,35.6005,60.034,53.001,55.081,34.681,58.604,51.302,54.370999999999995,34.197,58.506,50.69733333333333,-0.03049999999999997,-0.12300000000000022,0.10366,0.10815000000000001,0.0,215.14,215.075,211.95333333333332,211.95333333333332,0.0,0.0
24,0.0,0.0,0.0,1.0,1.0,0.0,0.0,1.0,0.0,100.0,1.0,1.1856,26.0,0.0,0.0,0.0,59.999996,0.0,26.0,26.0,26.0,26.0,-0.055375,0.27970000000000006,-0.08845,292.267,-2.6875999999999998,-2.6879999999999997,-1.5549,-1.5554999999999999,-194.99,215.945,190.481875,0.0,0.0,0.0,0.0,0.0485,-5.498166666666667,-5.498166666666667,-0.5817,-0.5413333333333333,-0.002777777777777768,0.8839999999999999,68.83,-0.021500000000000002,-0.2215,0.847999999999999,100.0,1.0,1.0,212.21333333333334,0.0,0.0,0.0,0.0,0.0,0.0,0.0,8995.0,0.0,55.0,5.0,247.76,0.0,0.0,0.0,0.0,0.0,0.0,0.0,0.0,1.2029999999999994,1.2029999999999994,0.0,0.0,0.0,55.0,616.79921,10000.0,85.000001,85.000001,85.000001,85.000001,395.0,0.0,0.0,0.0,1.0,333.33500000000004,52.689,52.689,47.089,47.089,34.0,-24.205,21.115000000000002,-32.096666666666664,26.9175,0.0,1781.652,0.5500000000000007,100.0,28.282,27.942,43.650999999999996,43.469,0.0,0.0,100.0,0.0,0.0,0.0,0.0,2913.714285714286,2982.4,4296.25,4124.2,305.602,305.41966666666667,314.34875,314.69925,21.0978,20.6515,22.023,21.5259,314.999998,314.999998,324.999988,324.999988,99.56018571428571,99.50775,99.56884285714285,99.5486,0.026000000000000245,-0.10633333333333339,-0.14300000000000002,0.08,-0.045000000000001705,-0.036666666666668846,1.496,1.5145,39.111000000000004,30.072,38.644,35.536500000000004,57.405,35.635,60.068,53.053,55.067,34.713,58.6355,51.352000000000004,54.355999999999995,34.2275,58.535,50.74633333333333,-0.030999999999999917,-0.125,0.10712500000000001,0.10889000000000001,0.0,215.515,215.435,212.21333333333334,212.21333333333334,0.0,0.0
25,0.0,0.0,0.0,1.0,1.0,0.0,0.0,1.0,0.0,100.0,1.0,1.1856,26.0,0.0,0.0,0.0,59.999996,0.0,26.0,26.0,26.0,26.0,-0.07775,0.2674000000000001,-0.068575,292.175,-2.73205,-2.6710000000000003,-1.55145,-1.5753,-191.26999999999998,215.945,190.455,0.0,0.0,0.0,0.0,0.05066666666666667,-5.498166666666667,-5.498166666666667,-0.6158,0.07633333333333334,-0.0214444444444446,-0.4590000000000001,68.97,-0.046700000000000005,-0.22905,0.8680000000000003,100.0,1.0,1.0,212.79666666666668,0.0,0.0,0.0,0.0,0.0,0.0,0.0,9019.7,0.0,55.0,5.0,248.26666666666665,1.0,0.0,0.0,0.0,0.0,0.0,0.0,0.0,1.256999999999998,1.256999999999998,0.0,0.0,1.0,55.0,616.79921,10000.0,85.000001,85.000001,85.000001,85.000001,395.0,0.0,0.0,0.0,1.0,166.665,51.544,51.544,47.989,47.989,34.0,-28.564999999999998,22.945,-29.78,25.035,0.0,1781.6,0.5549999999999997,100.0,28.339,28.067,43.45,43.001,0.0,0.0,100.0,0.0,0.0,0.0,0.0,3287.714285714286,3287.3,3993.75,3967.1000000000004,304.5545,304.47933333333333,315.178,315.07075,21.1082,20.6575,22.034,21.5354,314.999998,314.999998,324.999988,324.999988,99.56018571428571,99.50776666666667,99.569,99.54875714285714,0.016666666666666607,-0.118,-0.16,0.06733333333333333,-0.04999999999999716,-0.046666666666666856,1.5525,1.5939999999999999,39.176,30.109333333333332,38.712,35.596000000000004,57.387,35.68,60.1055,53.113,55.05,34.7545,58.670500000000004,51.4095,54.338,34.266999999999996,58.5665,50.80233333333334,-0.03949999999999987,-0.12150000000000016,0.104605,0.109835,0.0,215.94,215.885,212.79666666666668,212.79666666666668,0.0,0.0
26,0.0,0.0,0.0,1.0,1.0,0.0,0.0,1.0,0.0,100.0,1.0,1.1856,26.0,0.0,0.0,0.0,59.999996,0.0,26.0,26.0,26.0,26.0,-0.091,0.2833000000000001,0.0596,291.031,-2.66585,-2.7614444444444444,-1.5861,-1.5852,-187.74,215.945,190.42925,0.0,0.0,0.0,0.0,0.052700000000000004,-5.498166666666667,-5.498166666666667,-0.5731,0.5973333333333334,-0.056333333333333346,-0.923,69.107,-0.0604,-0.201075,0.8920000000000012,100.0,1.0,1.0,212.92333333333335,0.0,0.0,0.0,0.0,0.0,0.0,0.0,9025.1,0.0,55.0,5.0,248.75666666666666,0.0,0.0,0.0,0.0,0.0,0.0,0.0,0.0,1.3079999999999998,1.3079999999999998,0.0,0.0,0.0,55.0,616.79921,10000.0,85.000001,85.000001,85.000001,85.000001,395.0,0.0,0.0,0.0,1.0,166.665,51.269999999999996,51.269999999999996,46.097,46.097,34.0,-28.215,20.509999999999998,-38.95333333333333,27.6425,0.0,1781.548,0.35999999999999943,100.0,29.128,28.672,44.168,43.389,0.0,0.0,100.0,0.0,0.0,0.0,0.0,3304.5714285714284,2961.0,4685.0,4449.3,304.5465,305.1893333333333,313.586,313.8905,21.1184,20.6632,22.0447,21.5446,314.999998,314.999998,324.999988,324.999988,99.56018571428571,99.50778333333334,99.56915714285714,99.5489,0.0129999999999999,-0.1403333333333333,-0.18733333333333335,0.034666666666666665,-0.05666666666667197,-0.036666666666668846,1.408,1.4525000000000001,39.239999999999995,30.145333333333333,38.778999999999996,35.653999999999996,57.373999999999995,35.724000000000004,60.1475,53.173,55.038,34.795500000000004,58.7095,51.4675,54.325,34.3065,58.603,50.859,-0.052000000000000046,-0.11249999999999982,0.1125,0.10068,0.0,216.405,216.315,212.92333333333335,212.92333333333335,0.0,0.0
27,0.0,0.0,0.0,1.0,1.0,0.0,0.0,1.0,0.0,100.0,1.0,1.1856,26.0,0.0,0.0,0.0,59.999996,0.0,26.0,26.0,26.0,26.0,-0.075875,0.25239999999999996,-0.0361,291.595,-2.6268,-2.735222222222222,-1.57065,-1.6615,-184.42000000000002,215.9425,190.40625,0.0,0.0,0.0,0.0,0.05463333333333334,-5.498166666666667,-5.498166666666667,-0.6026,-1.0243333333333333,-0.061555555555555586,-0.6800000000000002,69.23,-0.0629,-0.248975,0.7520000000000007,100.0,1.0,1.0,213.46,0.0,0.0,0.0,0.0,0.0,0.0,0.0,9047.7,0.0,55.0,5.0,249.20333333333335,1.0,0.0,0.0,0.0,0.0,0.0,0.0,0.0,1.355999999999998,1.355999999999998,0.0,0.0,1.0,55.0,616.79921,10000.0,85.000001,85.000001,85.000001,85.000001,395.0,0.0,0.0,0.0,1.0,166.665,51.605000000000004,51.605000000000004,46.738,46.738,34.0,-27.505,20.895,-32.666666666666664,25.0275,0.0,1781.5,0.28999999999999915,100.0,28.851,28.405,44.832,43.84,0.0,0.0,100.0,0.0,0.0,0.0,0.0,3246.142857142857,3018.1,4131.0,3940.5,304.7395,305.121,314.76925,314.9975,21.1277,20.6685,22.0548,21.5534,314.999998,314.999998,324.999988,324.999988,99.5602,99.5078,99.56928571428571,99.54904285714285,0.0076666666666667105,-0.134,-0.1795,0.0395,-0.041666666666671404,-0.046666666666666856,1.498,1.5274999999999999,39.298,30.177999999999997,38.842,35.7085,57.358999999999995,35.7635,60.186,53.230000000000004,55.022999999999996,34.8315,58.746,51.522,54.309,34.341,58.635999999999996,50.912,-0.0625,-0.10199999999999987,0.09802500000000001,0.10909500000000001,0.0,216.715,216.675,213.46,213.46,0.0,0.0
28,0.0,0.0,0.0,1.0,1.0,0.0,0.0,1.0,0.0,100.0,1.0,1.1856,26.0,0.0,0.0,0.0,59.999996,0.0,26.0,26.0,26.0,26.0,-0.065875,0.2559,-0.0472,291.794,-2.65695,-2.719444444444444,-1.52255,-1.6203,-181.1,215.9375,190.38225,0.0,0.0,0.0,0.0,0.05656666666666667,-5.498166666666667,-5.498166666666667,-0.6047,0.6326666666666666,-0.06211111111111123,-0.4710000000000001,69.352,-0.062200000000000005,-0.22112500000000002,0.6180000000000003,100.0,1.0,1.0,213.92000000000002,0.0,0.0,0.0,0.0,0.0,0.0,0.0,9067.3,0.0,55.0,5.0,249.64333333333335,0.0,0.0,0.0,0.0,0.0,0.0,0.0,0.0,1.404,1.404,0.0,0.0,0.0,55.0,616.79921,10000.0,85.000001,85.000001,85.000001,85.000001,395.0,0.0,0.0,0.0,1.0,333.33500000000004,51.575,51.575,47.562,47.562,34.0,-28.119999999999997,20.921666666666667,-31.553333333333335,25.5325,0.0,1781.451,0.19000000000000128,100.0,28.913,28.326999999999998,44.117000000000004,43.292,0.0,0.0,100.0,0.0,0.0,0.0,0.0,3319.0,2979.3,4120.0,4071.7,304.5315,305.2196666666667,314.912,314.8195,21.1371,20.6738,22.0645,21.561799999999998,314.999998,314.999998,324.999988,324.999988,99.5602,99.50781666666667,99.56942857142857,99.54918571428571,0.016000000000000014,-0.123,-0.17866666666666667,0.04516666666666667,-0.045000000000001705,-0.05666666666667197,1.5285,1.5405,39.357,30.211,38.903,35.7615,57.345,35.803,60.2185,53.2825,55.010999999999996,34.868,58.775999999999996,51.5725,54.296,34.376,58.6635,50.961,-0.06899999999999995,-0.09750000000000014,0.11074500000000001,0.11023500000000001,0.0,217.14499999999998,217.095,213.92000000000002,213.92000000000002,0.0,0.0
29,0.0,0.0,0.0,1.0,1.0,0.0,0.0,1.0,0.0,100.0,1.0,1.1856,26.0,0.0,0.0,0.0,59.999996,0.0,26.0,26.0,26.0,26.0,-0.062,0.25649999999999995,0.041800000000000004,291.504,-2.60555,-2.769333333333333,-1.55965,-1.5927,-177.35,215.93,190.354375,0.0,0.0,0.0,0.0,0.05876666666666667,-5.498166666666667,-5.498166666666667,-0.6109,-0.7183333333333334,-0.05566666666666675,-0.7080000000000002,69.495,-0.0526,-0.22387500000000002,0.3960000000000008,100.0,1.0,1.0,214.19,0.0,0.0,0.0,0.0,0.0,0.0,0.0,9078.7,0.0,55.0,5.0,250.15666666666667,1.0,0.0,0.0,0.0,0.0,0.0,0.0,0.0,1.4579999999999984,1.4579999999999984,0.0,0.0,1.0,55.0,616.79921,10000.0,85.000001,85.000001,85.000001,85.000001,395.0,0.0,0.0,0.0,1.0,166.665,51.62,51.62,46.677,46.677,34.0,-27.314999999999998,22.02,-32.870000000000005,26.752499999999998,0.0,1781.398,0.129999999999999,100.0,28.563,28.229,44.458,43.602000000000004,0.0,0.0,100.0,0.0,0.0,0.0,0.0,3303.5714285714284,3039.5,4261.25,4163.3,304.5865,304.9696666666667,314.5105,314.5095,21.1475,20.6796,22.0758,21.5717,314.999998,314.999998,324.999988,324.999988,99.5602,99.50783333333334,99.5696,99.54934285714286,0.019333333333333425,-0.121,-0.1615,0.0555,-0.05666666666667197,-0.05333333333332746,1.473,1.4805,39.422,30.247666666666667,38.974000000000004,35.823,57.327,35.846000000000004,60.2615,53.346000000000004,54.994,34.908,58.816,51.6335,54.278,34.414,58.7,51.02066666666666,-0.0694999999999999,-0.09399999999999986,0.09875,0.107895,0.0,217.54500000000002,217.505,214.19,214.19,0.0,0.0
30,0.0,0.0,0.0,1.0,1.0,0.0,0.0,1.0,0.0,100.0,1.0,1.1856,26.0,0.0,0.0,0.0,59.999996,0.0,26.0,26.0,26.0,26.0,-0.061875,0.25970000000000004,0.0577,291.016,-2.6622,-2.6566666666666667,-1.5021,-1.6502,-174.22,215.9225,190.331,0.0,0.0,0.0,0.0,0.060566666666666664,-5.498166666666667,-5.498166666666667,-0.6081,0.7686666666666666,-0.052999999999999936,0.708,69.608,-0.0465,-0.22232500000000002,0.32200000000000095,100.0,1.0,1.0,214.5966666666667,0.0,0.0,0.0,0.0,0.0,0.0,0.0,9096.0,0.0,55.0,5.0,250.56333333333333,0.0,0.0,0.0,0.0,0.0,0.0,1.0,0.0,1.5030000000000001,1.5030000000000001,0.0,0.0,0.0,55.0,616.79921,10000.0,85.000001,85.000001,85.000001,85.000001,395.0,0.0,0.0,0.0,1.0,166.665,50.629,50.629,46.951,46.951,34.0,-27.744999999999997,22.71666666666667,-31.586666666666666,29.1375,0.0,1781.353,0.0,100.0,29.487000000000002,28.746000000000002,44.329,43.51,0.0,0.0,100.0,0.0,0.0,0.0,0.0,3369.5714285714284,3182.2,4247.0,4241.5,304.165,304.701,314.54775,314.3505,21.156399999999998,20.6848,22.085,21.5798,314.999998,314.999998,324.999988,324.999988,99.5602,99.50785,99.56972857142857,99.54947142857142,0.04200000000000026,-0.10366666666666657,-0.15566666666666665,0.075,-0.051666666666669414,-0.04333333333332945,1.4785,1.4985,39.477999999999994,30.28033333333333,39.031,35.8735,57.317,35.885,60.292500000000004,53.3975,54.985,34.944,58.8455,51.683,54.266999999999996,34.448499999999996,58.7265,51.069,-0.08399999999999985,-0.08650000000000002,0.11430000000000001,0.113085,0.0,217.935,217.905,214.5966666666667,214.5966666666667,0.0,0.0
31,0.0,0.0,0.0,1.0,1.0,0.0,0.0,1.0,0.0,100.0,1.0,1.1856,26.0,0.0,0.0,0.0,59.999996,0.0,26.0,26.0,26.0,26.0,-0.0465,0.2529000000000001,-0.015000000000000001,290.894,-2.7279,-2.6355555555555554,-1.5495999999999999,-1.646,-170.45999999999998,215.9125,190.30375,0.0,0.0,0.0,0.0,0.06276666666666667,-5.498166666666667,-5.498166666666667,-0.5943,-0.6413333333333334,-0.044222222222222385,0.645,69.748,-0.0327,-0.2252,0.05799999999999983,100.0,1.0,1.0,214.92333333333335,0.0,0.0,0.0,0.0,0.0,0.0,0.0,9109.8,0.0,55.0,5.0,251.06666666666666,1.0,0.0,0.0,0.0,0.0,0.0,1.0,0.0,1.5569999999999986,1.5569999999999986,0.0,0.0,1.0,55.0,616.79921,10000.0,85.000001,85.000001,85.000001,85.000001,395.0,0.0,0.0,0.0,1.0,166.665,51.178,51.178,45.609,45.609,34.0,-25.8325,23.595,-32.09,30.4375,0.0,1781.299,-0.02499999999999858,100.0,29.147,28.762999999999998,45.03,44.161,0.0,0.0,100.0,0.0,0.0,0.0,0.0,3159.142857142857,3271.0,4324.625,4295.6,304.981,304.6446666666667,314.2665,314.32525,21.1668,20.6909,22.0963,21.5897,314.999998,314.999998,324.999988,324.999988,99.56021428571428,99.50785,99.56988571428572,99.54962857142857,0.049666666666666526,-0.09133333333333338,-0.13416666666666666,0.09083333333333334,-0.03833333333332689,-0.051666666666669414,1.451,1.454,39.542,30.318333333333335,39.102000000000004,35.936,57.302,35.9295,60.336,53.4625,54.97,34.9845,58.885999999999996,51.7455,54.251999999999995,34.4875,58.763999999999996,51.129999999999995,-0.08399999999999985,-0.08150000000000013,0.10846000000000001,0.10490000000000001,0.0,218.305,218.32,214.92333333333335,214.92333333333335,0.0,0.0
32,0.0,0.0,0.0,1.0,1.0,0.0,0.0,1.0,0.0,100.0,1.0,1.1856,26.0,0.0,0.0,0.0,59.999996,0.0,26.0,26.0,26.0,26.0,-0.045375,0.26660000000000017,-0.05185,291.183,-2.6616,-2.7412222222222224,-1.6133000000000002,-1.5544,-167.11,215.9,190.279625,0.0,0.0,0.0,0.0,0.06470000000000001,-5.498166666666667,-5.498166666666667,-0.6104,0.15333333333333335,-0.06888888888888856,0.20300000000000007,69.867,-0.025,-0.231025,0.07200000000000095,100.0,1.0,1.0,215.43333333333334,0.0,0.0,0.0,0.0,0.0,0.0,0.0,9131.4,0.0,55.0,5.0,251.49666666666667,0.0,0.0,0.0,0.0,0.0,0.0,1.0,0.0,1.6050000000000004,1.6050000000000004,0.0,0.0,0.0,55.0,616.79921,10000.0,85.000001,85.000001,85.000001,85.000001,395.0,0.0,0.0,0.0,1.0,333.33500000000004,51.071,51.071,46.6,46.6,34.0,-25.39,24.181666666666665,-31.226666666666663,28.085,0.0,1781.25,-0.054999999999999716,100.0,29.189,28.798000000000002,44.621,43.955,0.0,0.0,100.0,0.0,0.0,0.0,0.0,3236.0,3155.2,4232.0,4182.9,304.638,304.8376666666667,314.69675,314.66525,21.176,20.6964,22.1062,21.598399999999998,314.999998,314.999998,324.999988,324.999988,99.56022857142857,99.50786666666667,99.57002857142857,99.54977142857143,0.06466666666666665,-0.08199999999999996,-0.129,0.0975,-0.03333333333333144,-0.07000000000000028,1.5314999999999999,1.5430000000000001,39.599999999999994,30.352666666666664,39.163,35.99,57.289,35.9685,60.3695,53.5165,54.958,35.021,58.917,51.7975,54.239000000000004,34.5225,58.792,51.18033333333334,-0.08999999999999986,-0.08150000000000013,0.103415,0.11056,0.0,218.695,218.70499999999998,215.43333333333334,215.43333333333334,0.0,0.0
33,0.0,0.0,0.0,1.0,1.0,0.0,0.0,1.0,0.0,100.0,1.0,1.1856,26.0,0.0,0.0,0.0,59.999996,0.0,26.0,26.0,26.0,26.0,-0.028625,0.26350000000000007,-0.035025,291.306,-2.675,-2.7313333333333336,-1.54745,-1.6298,-163.75,215.89,190.2545,0.0,0.0,0.0,0.0,0.06666666666666667,-5.498166666666667,-5.498166666666667,-0.6147,-0.3916666666666667,-0.05866666666666642,1.29,69.99000000000001,-0.0189,-0.22012500000000002,0.06600000000000072,100.0,1.0,1.0,215.71,0.0,0.0,0.0,0.0,0.0,0.0,0.0,9143.1,0.0,55.0,5.0,251.94,1.0,0.0,0.0,0.0,0.0,0.0,1.0,0.0,1.6529999999999987,1.6529999999999987,0.0,0.0,1.0,55.0,616.79921,10000.0,85.000001,85.000001,85.000001,85.000001,395.0,0.0,0.0,0.0,1.0,333.33500000000004,51.682,51.682,46.448,46.448,34.0,-24.12,23.48,-30.849999999999998,30.1875,0.0,1781.201,-0.14499999999999957,100.0,28.993,28.512,44.588,44.022000000000006,0.0,0.0,100.0,0.0,0.0,0.0,0.0,3087.142857142857,3083.8,4250.375,4287.8,305.1505,305.07533333333333,314.51025,314.3265,21.185200000000002,20.7017,22.1161,21.6071,314.999998,314.999998,324.999988,324.999988,99.56022857142857,99.50788333333334,99.57017142857143,99.5499,0.06433333333333335,-0.08099999999999996,-0.12833333333333335,0.094,-0.03166666666666629,-0.060000000000002274,1.4849999999999999,1.4895,39.657,30.385666666666665,39.225,36.0445,57.275,36.0045,60.4065,53.5725,54.946,35.0545,58.9495,51.8545,54.225,34.5565,58.8215,51.236000000000004,-0.08899999999999997,-0.07600000000000007,0.10289500000000001,0.10856,0.0,219.065,219.075,215.71,215.71,0.0,0.0
34,0.0,0.0,0.0,1.0,1.0,0.0,0.0,1.0,0.0,100.0,1.0,1.1856,26.0,0.0,0.0,0.0,59.999996,0.0,26.0,26.0,26.0,26.0,-0.014375,0.26360000000000006,-0.07225000000000001,291.656,-2.69565,-2.678111111111111,-1.61525,-1.589,-160.18,215.8775,190.22675,0.0,0.0,0.0,0.0,0.06873333333333334,-5.498166666666667,-5.498166666666667,-0.6458,-0.775,-0.02733333333333343,-0.028999999999999915,70.118,-0.0126,-0.22965000000000002,0.02200000000000024,100.0,1.0,1.0,216.17000000000002,0.0,0.0,0.0,0.0,0.0,0.0,0.0,9162.7,0.0,55.0,5.0,252.4,0.0,0.0,0.0,0.0,0.0,0.0,1.0,0.0,1.7040000000000006,1.7040000000000006,0.0,0.0,0.0,55.0,616.79921,10000.0,85.000001,85.000001,85.000001,85.000001,395.0,0.0,0.0,0.0,1.0,166.665,51.865,51.865,47.348,47.348,34.0,-24.595,22.901666666666664,-30.106666666666666,28.93,0.0,1781.153,-0.134999999999998,100.0,28.559,28.371000000000002,44.211,44.159,0.0,0.0,100.0,0.0,0.0,0.0,0.0,3157.142857142857,3011.6,4086.625,4134.8,304.9035,305.1906666666667,315.00525,314.594,21.1949,20.7073,22.1265,21.6164,314.999998,314.999998,324.999988,324.999988,99.56024285714285,99.50788333333334,99.57031428571429,99.55005714285714,0.0733333333333337,-0.07133333333333336,-0.12916666666666665,0.10483333333333333,-0.04333333333332945,-0.03999999999999915,1.514,1.5150000000000001,39.718,30.421,39.29,36.102000000000004,57.262,36.042500000000004,60.4385,53.631,54.932,35.0895,58.9815,51.908,54.211,34.5875,58.8505,51.288,-0.08999999999999986,-0.06349999999999989,0.10754000000000001,0.11262000000000001,0.0,219.445,219.44,216.17000000000002,216.17000000000002,0.0,0.0
35,0.0,0.0,0.0,1.0,1.0,0.0,0.0,1.0,0.0,100.0,1.0,1.1856,26.0,0.0,0.0,0.0,59.999996,0.0,26.0,26.0,26.0,26.0,-0.0125,0.25770000000000004,-0.051250000000000004,291.672,-2.6907,-2.651222222222222,-1.5976,-1.6017000000000001,-156.6,215.865,190.19675,0.0,0.0,0.0,0.0,0.07083333333333335,-5.498166666666667,-5.498166666666667,-0.6866,-0.438,-0.036555555555555674,-0.14000000000000012,70.24600000000001,-0.0021000000000000003,-0.23320000000000002,-0.1620000000000008,100.0,1.0,1.0,216.61333333333334,0.0,0.0,0.0,0.0,0.0,0.0,0.0,9181.4,0.0,55.0,5.0,252.86,1.0,0.0,0.0,0.0,0.0,0.0,1.0,0.0,1.754999999999999,1.754999999999999,0.0,0.0,1.0,55.0,616.79921,10000.0,85.000001,85.000001,85.000001,85.000001,395.0,0.0,0.0,0.0,1.0,333.33500000000004,51.422,51.422,46.906,46.906,34.0,-24.2125,26.346666666666664,-28.063333333333333,28.145,0.0,1781.101,-0.06500000000000128,100.0,28.475,28.509999999999998,44.056,43.657,0.0,0.0,100.0,0.0,0.0,0.0,0.0,3139.5714285714284,3373.1,4034.375,3958.4,304.9865,304.206,315.03075,315.0905,21.2043,20.7131,22.1368,21.6255,314.999998,314.999998,324.999988,324.999988,99.56024285714285,99.5079,99.57047142857142,99.55021428571429,0.07699999999999996,-0.05733333333333335,-0.10350000000000001,0.12016666666666667,-0.045000000000001705,-0.04999999999999716,1.5635,1.5455,39.777,30.457,39.355000000000004,36.159,57.245000000000005,36.082,60.4725,53.687,54.917,35.126,59.0135,51.9615,54.194,34.623,58.879,51.340333333333334,-0.08699999999999997,-0.07299999999999995,0.108185,0.10754500000000002,0.0,219.82,219.85000000000002,216.61333333333334,216.61333333333334,0.0,0.0
36,0.0,0.0,0.0,1.0,1.0,0.0,0.0,1.0,0.0,100.0,1.0,1.1856,26.0,0.0,0.0,0.0,59.999996,0.0,26.0,26.0,26.0,26.0,-0.003,0.2673000000000001,0.052775,290.726,-2.7395,-2.637,-1.54505,-1.5994000000000002,-153.22,215.85250000000002,190.167,0.0,0.0,0.0,0.0,0.0728,-5.498166666666667,-5.498166666666667,-0.668,0.306,-0.0772222222222223,0.09399999999999986,70.368,0.0043,-0.20405,0.006000000000000227,100.0,1.0,1.0,216.76666666666665,0.0,0.0,0.0,0.0,0.0,0.0,0.0,9187.9,0.0,55.0,5.0,253.29666666666668,0.0,0.0,0.0,0.0,0.0,0.0,1.0,0.0,1.8030000000000008,1.8030000000000008,0.0,0.0,0.0,55.0,616.79921,10000.0,85.000001,85.000001,85.000001,85.000001,395.0,0.0,0.0,0.0,1.0,166.665,50.995,50.995,46.188,46.188,34.0,-25.7425,24.811666666666667,-31.363333333333333,33.71,0.0,1781.054,0.019999999999999574,100.0,29.079,28.826999999999998,44.208,43.857,0.0,0.0,100.0,0.0,0.0,0.0,0.0,3293.285714285714,3239.8,4472.125,4533.5,304.564,304.65633333333335,314.00375,313.77275,21.2136,20.7187,22.1467,21.6342,314.999998,314.999998,324.999988,324.999988,99.56025714285714,99.5079,99.57061428571429,99.55034285714285,0.08300000000000018,-0.06066666666666665,-0.10033333333333333,0.12333333333333334,-0.03833333333332689,-0.046666666666666856,1.438,1.4405000000000001,39.835,30.491999999999997,39.417,36.214,57.233999999999995,36.121,60.5075,53.7425,54.906,35.162,59.046,52.0155,54.182,34.6575,58.908,51.393,-0.08450000000000002,-0.08300000000000018,0.108395,0.10752500000000001,0.0,220.26,220.26,216.76666666666665,216.76666666666665,0.0,0.0
